timestamp,TimeUS,C1,C2,C3,C4,C5,C6,C7,C8,C9,C10,C11,C12,C13,C14
1682771893.90003991,60928952,1000,1000,1000,1000,0,0,0,0,0,0,0,0,0,0
1682771894.00000000,61028912,1000,1000,1000,1000,0,0,0,0,0,0,0,0,0,0
1682771894.09995985,61128872,1000,1000,1000,1000,0,0,0,0,0,0,0,0,0,0
1682771894.19991994,61228832,1000,1000,1000,1000,0,0,0,0,0,0,0,0,0,0
1682771894.29988003,61328792,1000,1000,1000,1000,0,0,0,0,0,0,0,0,0,0
1682771894.39983988,61428752,1000,1000,1000,1000,0,0,0,0,0,0,0,0,0,0
1682771894.49979997,61528712,1000,1000,1000,1000,0,0,0,0,0,0,0,0,0,0
1682771894.59975982,61628672,1000,1000,1000,1000,0,0,0,0,0,0,0,0,0,0
1682771894.69971991,61728632,1000,1000,1000,1000,0,0,0,0,0,0,0,0,0,0
1682771894.79967999,61828592,1000,1000,1000,1000,0,0,0,0,0,0,0,0,0,0
1682771894.89963984,61928552,1000,1000,1000,1000,0,0,0,0,0,0,0,0,0,0
1682771894.99959993,62028512,1000,1000,1000,1000,0,0,0,0,0,0,0,0,0,0
1682771895.09956002,62128472,1000,1000,1000,1000,0,0,0,0,0,0,0,0,0,0
1682771895.19951987,62228432,1000,1000,1000,1000,0,0,0,0,0,0,0,0,0,0
1682771895.29947996,62328392,1000,1000,1000,1000,0,0,0,0,0,0,0,0,0,0
1682771895.39944005,62428352,1000,1000,1000,1000,0,0,0,0,0,0,0,0,0,0
1682771895.49939990,62528312,1000,1000,1000,1000,0,0,0,0,0,0,0,0,0,0
1682771895.59935999,62628272,1000,1000,1000,1000,0,0,0,0,0,0,0,0,0,0
1682771895.69931984,62728232,1000,1000,1000,1000,0,0,0,0,0,0,0,0,0,0
1682771895.79927993,62828192,1000,1000,1000,1000,0,0,0,0,0,0,0,0,0,0
1682771895.90007305,62928985,1024,1024,1024,1024,0,0,0,0,0,0,0,0,0,0
1682771896.00003290,63028945,1054,1054,1054,1054,0,0,0,0,0,0,0,0,0,0
1682771896.09999299,63128905,1084,1084,1084,1084,0,0,0,0,0,0,0,0,0,0
1682771896.19995284,63228865,1114,1114,1114,1114,0,0,0,0,0,0,0,0,0,0
1682771896.29991293,63328825,1144,1144,1144,1144,0,0,0,0,0,0,0,0,0,0
1682771896.39987302,63428785,1363,1356,1357,1363,0,0,0,0,0,0,0,0,0,0
1682771896.49983287,63528745,1551,1545,1545,1551,0,0,0,0,0,0,0,0,0,0
1682771896.59979296,63628705,1703,1697,1697,1703,0,0,0,0,0,0,0,0,0,0
1682771896.69975305,63728665,1833,1828,1828,1834,0,0,0,0,0,0,0,0,0,0
1682771896.79971290,63828625,1920,1914,1915,1919,0,0,0,0,0,0,0,0,0,0
1682771896.89967299,63928585,1850,1847,1847,1850,0,0,0,0,0,0,0,0,0,0
1682771896.99963284,64028545,1721,1721,1721,1721,0,0,0,0,0,0,0,0,0,0
1682771897.09959292,64128505,1650,1652,1652,1650,0,0,0,0,0,0,0,0,0,0
1682771897.19955301,64228465,1634,1638,1638,1635,0,0,0,0,0,0,0,0,0,0
1682771897.29951286,64328425,1641,1643,1643,1641,0,0,0,0,0,0,0,0,0,0
1682771897.39947295,64428385,1644,1645,1645,1644,0,0,0,0,0,0,0,0,0,0
1682771897.49943304,64528345,1638,1637,1637,1638,0,0,0,0,0,0,0,0,0,0
1682771897.59939289,64628305,1614,1613,1606,1621,0,0,0,0,0,0,0,0,0,0
1682771897.69935298,64728265,1601,1600,1591,1610,0,0,0,0,0,0,0,0,0,0
1682771897.79931283,64828225,1596,1595,1590,1600,0,0,0,0,0,0,0,0,0,0
1682771897.89927292,64928185,1595,1595,1594,1595,0,0,0,0,0,0,0,0,0,0
1682771898.00006604,65028978,1598,1598,1601,1595,0,0,0,0,0,0,0,0,0,0
1682771898.10002589,65128938,1593,1593,1601,1584,0,0,0,0,0,0,0,0,0,0
1682771898.19998598,65228898,1573,1574,1594,1552,0,0,0,0,0,0,0,0,0,0
1682771898.29994583,65328858,1562,1563,1576,1549,0,0,0,0,0,0,0,0,0,0
1682771898.39990592,65428818,1553,1553,1555,1552,0,0,0,0,0,0,0,0,0,0
1682771898.49986601,65528778,1544,1543,1534,1554,0,0,0,0,0,0,0,0,0,0
1682771898.59982586,65628738,1537,1536,1523,1550,0,0,0,0,0,0,0,0,0,0
1682771898.69978595,65728698,1531,1530,1520,1542,0,0,0,0,0,0,0,0,0,0
1682771898.79974604,65828658,1526,1526,1520,1532,0,0,0,0,0,0,0,0,0,0
1682771898.89970589,65928618,1526,1525,1524,1527,0,0,0,0,0,0,0,0,0,0
1682771898.99966598,66028578,1527,1527,1529,1525,0,0,0,0,0,0,0,0,0,0
1682771899.09962583,66128538,1530,1530,1533,1527,0,0,0,0,0,0,0,0,0,0
1682771899.19958591,66228498,1534,1534,1538,1531,0,0,0,0,0,0,0,0,0,0
1682771899.29954600,66328458,1539,1538,1542,1535,0,0,0,0,0,0,0,0,0,0
1682771899.39950585,66428418,1542,1542,1545,1540,0,0,0,0,0,0,0,0,0,0
1682771899.49946594,66528378,1544,1544,1545,1544,0,0,0,0,0,0,0,0,0,0
1682771899.59942603,66628338,1548,1548,1548,1549,0,0,0,0,0,0,0,0,0,0
1682771899.69938588,66728298,1551,1550,1549,1552,0,0,0,0,0,0,0,0,0,0
1682771899.79934597,66828258,1553,1552,1551,1554,0,0,0,0,0,0,0,0,0,0
1682771899.89930582,66928218,1554,1553,1556,1559,0,0,0,0,0,0,0,0,0,0
1682771899.99926591,67028178,1555,1555,1561,1562,0,0,0,0,0,0,0,0,0,0
1682771900.10005903,67128971,1557,1557,1563,1563,0,0,0,0,0,0,0,0,0,0
1682771900.20001888,67228931,1560,1560,1565,1564,0,0,0,0,0,0,0,0,0,0
1682771900.29997897,67328891,1561,1562,1565,1565,0,0,0,0,0,0,0,0,0,0
1682771900.39993882,67428851,1563,1564,1565,1565,0,0,0,0,0,0,0,0,0,0
1682771900.49989891,67528811,1567,1567,1567,1566,0,0,0,0,0,0,0,0,0,0
1682771900.59985900,67628771,1570,1570,1568,1567,0,0,0,0,0,0,0,0,0,0
1682771900.69981885,67728731,1570,1570,1567,1567,0,0,0,0,0,0,0,0,0,0
1682771900.79977894,67828691,1572,1571,1567,1568,0,0,0,0,0,0,0,0,0,0
1682771900.89973903,67928651,1572,1572,1568,1568,0,0,0,0,0,0,0,0,0,0
1682771900.99969888,68028611,1573,1573,1569,1569,0,0,0,0,0,0,0,0,0,0
1682771901.09965897,68128571,1574,1574,1571,1571,0,0,0,0,0,0,0,0,0,0
1682771901.19961882,68228531,1574,1574,1572,1572,0,0,0,0,0,0,0,0,0,0
1682771901.29957891,68328491,1574,1574,1573,1573,0,0,0,0,0,0,0,0,0,0
1682771901.39953899,68428451,1575,1575,1575,1574,0,0,0,0,0,0,0,0,0,0
1682771901.49949884,68528411,1575,1575,1576,1575,0,0,0,0,0,0,0,0,0,0
1682771901.59945893,68628371,1575,1575,1577,1575,0,0,0,0,0,0,0,0,0,0
1682771901.69941902,68728331,1575,1575,1576,1576,0,0,0,0,0,0,0,0,0,0
1682771901.79937887,68828291,1574,1575,1576,1575,0,0,0,0,0,0,0,0,0,0
1682771901.89933896,68928251,1576,1575,1576,1577,0,0,0,0,0,0,0,0,0,0
1682771901.99929905,69028211,1576,1575,1576,1577,0,0,0,0,0,0,0,0,0,0
1682771902.09925890,69128171,1576,1576,1576,1577,0,0,0,0,0,0,0,0,0,0
1682771902.20005202,69228964,1576,1576,1577,1576,0,0,0,0,0,0,0,0,0,0
1682771902.30001187,69328924,1577,1577,1577,1577,0,0,0,0,0,0,0,0,0,0
1682771902.39997196,69428884,1577,1577,1578,1577,0,0,0,0,0,0,0,0,0,0
1682771902.49993205,69528844,1577,1577,1576,1576,0,0,0,0,0,0,0,0,0,0
1682771902.59989190,69628804,1578,1578,1578,1578,0,0,0,0,0,0,0,0,0,0
1682771902.69985199,69728764,1578,1577,1577,1577,0,0,0,0,0,0,0,0,0,0
1682771902.79981184,69828724,1578,1578,1578,1578,0,0,0,0,0,0,0,0,0,0
1682771902.89977193,69928684,1578,1578,1578,1578,0,0,0,0,0,0,0,0,0,0
1682771902.99973202,70028644,1577,1577,1577,1577,0,0,0,0,0,0,0,0,0,0
1682771903.09969187,70128604,1578,1578,1578,1578,0,0,0,0,0,0,0,0,0,0
1682771903.19965196,70228564,1578,1578,1578,1578,0,0,0,0,0,0,0,0,0,0
1682771903.29961205,70328524,1577,1578,1578,1577,0,0,0,0,0,0,0,0,0,0
1682771903.39957190,70428484,1578,1579,1579,1579,0,0,0,0,0,0,0,0,0,0
1682771903.49953198,70528444,1578,1578,1578,1578,0,0,0,0,0,0,0,0,0,0
1682771903.59949183,70628404,1578,1578,1578,1578,0,0,0,0,0,0,0,0,0,0
1682771903.69945192,70728364,1578,1578,1578,1578,0,0,0,0,0,0,0,0,0,0
1682771903.79941201,70828324,1578,1579,1579,1579,0,0,0,0,0,0,0,0,0,0
1682771903.89937186,70928284,1579,1579,1579,1579,0,0,0,0,0,0,0,0,0,0
1682771903.99933195,71028244,1579,1579,1579,1580,0,0,0,0,0,0,0,0,0,0
1682771904.09929204,71128204,1580,1579,1580,1580,0,0,0,0,0,0,0,0,0,0
1682771904.19925189,71228164,1580,1580,1580,1580,0,0,0,0,0,0,0,0,0,0
1682771904.30004501,71328957,1579,1579,1579,1579,0,0,0,0,0,0,0,0,0,0
1682771904.40000486,71428917,1579,1579,1579,1579,0,0,0,0,0,0,0,0,0,0
1682771904.49996495,71528877,1580,1580,1580,1581,0,0,0,0,0,0,0,0,0,0
1682771904.59992504,71628837,1580,1580,1580,1580,0,0,0,0,0,0,0,0,0,0
1682771904.69988489,71728797,1580,1581,1580,1581,0,0,0,0,0,0,0,0,0,0
1682771904.79984498,71828757,1581,1580,1581,1580,0,0,0,0,0,0,0,0,0,0
1682771904.89980483,71928717,1581,1580,1581,1581,0,0,0,0,0,0,0,0,0,0
1682771904.99976492,72028677,1582,1581,1581,1582,0,0,0,0,0,0,0,0,0,0
1682771905.09972501,72128637,1581,1581,1581,1581,0,0,0,0,0,0,0,0,0,0
1682771905.19968486,72228597,1581,1581,1581,1581,0,0,0,0,0,0,0,0,0,0
1682771905.29964495,72328557,1581,1581,1581,1582,0,0,0,0,0,0,0,0,0,0
1682771905.39960504,72428517,1581,1581,1581,1581,0,0,0,0,0,0,0,0,0,0
1682771905.49956489,72528477,1581,1581,1581,1581,0,0,0,0,0,0,0,0,0,0
1682771905.59952497,72628437,1581,1581,1581,1581,0,0,0,0,0,0,0,0,0,0
1682771905.69948483,72728397,1581,1581,1581,1581,0,0,0,0,0,0,0,0,0,0
1682771905.79944491,72828357,1581,1581,1581,1581,0,0,0,0,0,0,0,0,0,0
1682771905.89940500,72928317,1582,1582,1582,1582,0,0,0,0,0,0,0,0,0,0
1682771905.99936485,73028277,1581,1581,1581,1581,0,0,0,0,0,0,0,0,0,0
1682771906.09932494,73128237,1581,1582,1587,1576,0,0,0,0,0,0,0,0,0,0
1682771906.19928503,73228197,1581,1583,1588,1573,0,0,0,0,0,0,0,0,0,0
1682771906.29924488,73328157,1579,1581,1579,1573,0,0,0,0,0,0,0,0,0,0
1682771906.40003800,73428950,1577,1580,1570,1572,0,0,0,0,0,0,0,0,0,0
1682771906.49999785,73528910,1577,1579,1562,1570,0,0,0,0,0,0,0,0,0,0
1682771906.59995794,73628870,1576,1578,1557,1564,0,0,0,0,0,0,0,0,0,0
1682771906.69991803,73728830,1578,1577,1555,1560,0,0,0,0,0,0,0,0,0,0
1682771906.79987788,73828790,1579,1578,1556,1557,0,0,0,0,0,0,0,0,0,0
1682771906.89983797,73928750,1580,1579,1557,1555,0,0,0,0,0,0,0,0,0,0
1682771906.99979782,74028710,1578,1578,1556,1553,0,0,0,0,0,0,0,0,0,0
1682771907.09975791,74128670,1577,1578,1556,1553,0,0,0,0,0,0,0,0,0,0
1682771907.19971800,74228630,1575,1577,1554,1553,0,0,0,0,0,0,0,0,0,0
1682771907.29967785,74328590,1576,1577,1554,1554,0,0,0,0,0,0,0,0,0,0
1682771907.39963794,74428550,1575,1576,1553,1553,0,0,0,0,0,0,0,0,0,0
1682771907.49959803,74528510,1576,1577,1552,1553,0,0,0,0,0,0,0,0,0,0
1682771907.59955788,74628470,1576,1577,1550,1551,0,0,0,0,0,0,0,0,0,0
1682771907.69951797,74728430,1578,1579,1548,1549,0,0,0,0,0,0,0,0,0,0
1682771907.79947782,74828390,1580,1582,1547,1546,0,0,0,0,0,0,0,0,0,0
1682771907.89943790,74928350,1583,1585,1544,1544,0,0,0,0,0,0,0,0,0,0
1682771907.99939799,75028310,1587,1588,1543,1541,0,0,0,0,0,0,0,0,0,0
1682771908.09935784,75128270,1590,1590,1540,1540,0,0,0,0,0,0,0,0,0,0
1682771908.19931793,75228230,1594,1594,1538,1538,0,0,0,0,0,0,0,0,0,0
1682771908.29927802,75328190,1596,1595,1536,1537,0,0,0,0,0,0,0,0,0,0
1682771908.40007091,75428983,1596,1596,1535,1536,0,0,0,0,0,0,0,0,0,0
1682771908.50003099,75528943,1595,1595,1536,1538,0,0,0,0,0,0,0,0,0,0
1682771908.59999084,75628903,1593,1594,1539,1541,0,0,0,0,0,0,0,0,0,0
1682771908.69995093,75728863,1590,1589,1543,1546,0,0,0,0,0,0,0,0,0,0
1682771908.79991102,75828823,1585,1582,1548,1552,0,0,0,0,0,0,0,0,0,0
1682771908.89987087,75928783,1577,1573,1558,1561,0,0,0,0,0,0,0,0,0,0
1682771908.99983096,76028743,1568,1564,1570,1573,0,0,0,0,0,0,0,0,0,0
1682771909.09979105,76128703,1557,1553,1583,1585,0,0,0,0,0,0,0,0,0,0
1682771909.19975090,76228663,1546,1543,1595,1595,0,0,0,0,0,0,0,0,0,0
1682771909.29971099,76328623,1537,1535,1605,1604,0,0,0,0,0,0,0,0,0,0
1682771909.39967084,76428583,1530,1531,1612,1611,0,0,0,0,0,0,0,0,0,0
1682771909.49963093,76528543,1529,1530,1616,1615,0,0,0,0,0,0,0,0,0,0
1682771909.59959102,76628503,1530,1533,1615,1614,0,0,0,0,0,0,0,0,0,0
1682771909.69955087,76728463,1535,1537,1611,1611,0,0,0,0,0,0,0,0,0,0
1682771909.79951096,76828423,1542,1544,1605,1606,0,0,0,0,0,0,0,0,0,0
1682771909.89947104,76928383,1550,1551,1597,1598,0,0,0,0,0,0,0,0,0,0
1682771909.99943089,77028343,1560,1561,1591,1591,0,0,0,0,0,0,0,0,0,0
1682771910.09939098,77128303,1568,1568,1584,1583,0,0,0,0,0,0,0,0,0,0
1682771910.19935083,77228263,1576,1576,1577,1577,0,0,0,0,0,0,0,0,0,0
1682771910.29931092,77328223,1582,1581,1572,1572,0,0,0,0,0,0,0,0,0,0
1682771910.39927101,77428183,1586,1585,1569,1568,0,0,0,0,0,0,0,0,0,0
1682771910.50006390,77528976,1588,1586,1566,1566,0,0,0,0,0,0,0,0,0,0
1682771910.60002398,77628936,1587,1587,1566,1566,0,0,0,0,0,0,0,0,0,0
1682771910.69998384,77728896,1587,1586,1567,1568,0,0,0,0,0,0,0,0,0,0
1682771910.79994392,77828856,1585,1584,1570,1570,0,0,0,0,0,0,0,0,0,0
1682771910.89990401,77928816,1581,1581,1572,1572,0,0,0,0,0,0,0,0,0,0
1682771910.99986386,78028776,1639,1543,1635,1540,0,0,0,0,0,0,0,0,0,0
1682771911.09982395,78128736,1605,1577,1608,1579,0,0,0,0,0,0,0,0,0,0
1682771911.19978404,78228696,1589,1579,1597,1584,0,0,0,0,0,0,0,0,0,0
1682771911.29974389,78328656,1576,1579,1587,1588,0,0,0,0,0,0,0,0,0,0
1682771911.39970398,78428616,1567,1578,1579,1589,0,0,0,0,0,0,0,0,0,0
1682771911.49966383,78528576,1563,1574,1575,1586,0,0,0,0,0,0,0,0,0,0
1682771911.59962392,78628536,1564,1572,1574,1583,0,0,0,0,0,0,0,0,0,0
1682771911.69958401,78728496,1568,1572,1576,1579,0,0,0,0,0,0,0,0,0,0
1682771911.79954386,78828456,1572,1571,1577,1575,0,0,0,0,0,0,0,0,0,0
1682771911.89950395,78928416,1576,1573,1577,1575,0,0,0,0,0,0,0,0,0,0
1682771911.99946404,79028376,1579,1576,1578,1575,0,0,0,0,0,0,0,0,0,0
1682771912.09942389,79128336,1581,1578,1578,1575,0,0,0,0,0,0,0,0,0,0
1682771912.19938397,79228296,1581,1579,1577,1575,0,0,0,0,0,0,0,0,0,0
1682771912.29934382,79328256,1581,1581,1576,1576,0,0,0,0,0,0,0,0,0,0
1682771912.39930391,79428216,1581,1582,1576,1577,0,0,0,0,0,0,0,0,0,0
1682771912.49926400,79528176,1581,1581,1577,1577,0,0,0,0,0,0,0,0,0,0
1682771912.60005689,79628969,1581,1581,1578,1578,0,0,0,0,0,0,0,0,0,0
1682771912.70001698,79728929,1580,1580,1578,1578,0,0,0,0,0,0,0,0,0,0
1682771912.79997683,79828889,1580,1580,1579,1579,0,0,0,0,0,0,0,0,0,0
1682771912.89993691,79928849,1580,1580,1581,1581,0,0,0,0,0,0,0,0,0,0
1682771912.99989700,80028809,1580,1579,1581,1581,0,0,0,0,0,0,0,0,0,0
1682771913.09985685,80128769,1579,1579,1581,1581,0,0,0,0,0,0,0,0,0,0
1682771913.19981694,80228729,1580,1580,1582,1582,0,0,0,0,0,0,0,0,0,0
1682771913.29977703,80328689,1580,1580,1582,1582,0,0,0,0,0,0,0,0,0,0
1682771913.39973688,80428649,1581,1581,1583,1583,0,0,0,0,0,0,0,0,0,0
1682771913.49969697,80528609,1581,1580,1582,1582,0,0,0,0,0,0,0,0,0,0
1682771913.59965682,80628569,1580,1580,1581,1582,0,0,0,0,0,0,0,0,0,0
1682771913.69961691,80728529,1581,1581,1582,1581,0,0,0,0,0,0,0,0,0,0
1682771913.79957700,80828489,1581,1581,1581,1581,0,0,0,0,0,0,0,0,0,0
1682771913.89953685,80928449,1581,1582,1581,1581,0,0,0,0,0,0,0,0,0,0
1682771913.99949694,81028409,1580,1580,1580,1580,0,0,0,0,0,0,0,0,0,0
1682771914.09945703,81128369,1581,1582,1585,1574,0,0,0,0,0,0,0,0,0,0
1682771914.19941688,81228329,1581,1585,1585,1571,0,0,0,0,0,0,0,0,0,0
1682771914.29937696,81328289,1581,1584,1577,1571,0,0,0,0,0,0,0,0,0,0
1682771914.39933681,81428249,1580,1582,1567,1570,0,0,0,0,0,0,0,0,0,0
1682771914.49929690,81528209,1580,1581,1560,1566,0,0,0,0,0,0,0,0,0,0
1682771914.59925699,81628169,1580,1581,1555,1562,0,0,0,0,0,0,0,0,0,0
1682771914.70004988,81728962,1582,1581,1553,1557,0,0,0,0,0,0,0,0,0,0
1682771914.80000997,81828922,1582,1580,1553,1553,0,0,0,0,0,0,0,0,0,0
1682771914.89996982,81928882,1581,1580,1553,1552,0,0,0,0,0,0,0,0,0,0
1682771914.99992990,82028842,1581,1580,1554,1552,0,0,0,0,0,0,0,0,0,0
1682771915.09988999,82128802,1579,1580,1555,1552,0,0,0,0,0,0,0,0,0,0
1682771915.19984984,82228762,1578,1579,1555,1553,0,0,0,0,0,0,0,0,0,0
1682771915.29980993,82328722,1575,1577,1553,1552,0,0,0,0,0,0,0,0,0,0
1682771915.39977002,82428682,1575,1577,1552,1553,0,0,0,0,0,0,0,0,0,0
1682771915.49972987,82528642,1576,1577,1551,1552,0,0,0,0,0,0,0,0,0,0
1682771915.59968996,82628602,1578,1579,1551,1551,0,0,0,0,0,0,0,0,0,0
1682771915.69965005,82728562,1580,1581,1549,1550,0,0,0,0,0,0,0,0,0,0
1682771915.79960990,82828522,1582,1583,1548,1548,0,0,0,0,0,0,0,0,0,0
1682771915.89956999,82928482,1584,1584,1545,1545,0,0,0,0,0,0,0,0,0,0
1682771915.99952984,83028442,1586,1587,1544,1543,0,0,0,0,0,0,0,0,0,0
1682771916.09948993,83128402,1588,1590,1541,1542,0,0,0,0,0,0,0,0,0,0
1682771916.19945002,83228362,1591,1593,1539,1541,0,0,0,0,0,0,0,0,0,0
1682771916.29940987,83328322,1594,1594,1539,1540,0,0,0,0,0,0,0,0,0,0
1682771916.39936996,83428282,1594,1593,1540,1541,0,0,0,0,0,0,0,0,0,0
1682771916.49933004,83528242,1592,1591,1543,1546,0,0,0,0,0,0,0,0,0,0
1682771916.59928989,83628202,1589,1586,1549,1552,0,0,0,0,0,0,0,0,0,0
1682771916.69924998,83728162,1584,1580,1559,1561,0,0,0,0,0,0,0,0,0,0
1682771916.80004287,83828955,1573,1569,1568,1570,0,0,0,0,0,0,0,0,0,0
1682771916.90000296,83928915,1564,1560,1579,1581,0,0,0,0,0,0,0,0,0,0
1682771916.99996305,84028875,1553,1550,1588,1590,0,0,0,0,0,0,0,0,0,0
1682771917.09992290,84128835,1545,1544,1598,1599,0,0,0,0,0,0,0,0,0,0
1682771917.19988298,84228795,1539,1539,1606,1605,0,0,0,0,0,0,0,0,0,0
1682771917.29984283,84328755,1535,1536,1609,1608,0,0,0,0,0,0,0,0,0,0
1682771917.39980292,84428715,1536,1538,1610,1610,0,0,0,0,0,0,0,0,0,0
1682771917.49976301,84528675,1539,1542,1608,1608,0,0,0,0,0,0,0,0,0,0
1682771917.59972286,84628635,1546,1548,1606,1605,0,0,0,0,0,0,0,0,0,0
1682771917.69968295,84728595,1553,1554,1600,1598,0,0,0,0,0,0,0,0,0,0
1682771917.79964304,84828555,1560,1560,1593,1592,0,0,0,0,0,0,0,0,0,0
1682771917.89960289,84928515,1567,1567,1586,1585,0,0,0,0,0,0,0,0,0,0
1682771917.99956298,85028475,1575,1574,1580,1581,0,0,0,0,0,0,0,0,0,0
1682771918.09952283,85128435,1580,1579,1576,1576,0,0,0,0,0,0,0,0,0,0
1682771918.19948292,85228395,1583,1582,1572,1572,0,0,0,0,0,0,0,0,0,0
1682771918.29944301,85328355,1585,1584,1569,1569,0,0,0,0,0,0,0,0,0,0
1682771918.39940286,85428315,1586,1585,1569,1569,0,0,0,0,0,0,0,0,0,0
1682771918.49936295,85528275,1585,1584,1569,1569,0,0,0,0,0,0,0,0,0,0
1682771918.59932303,85628235,1584,1583,1572,1571,0,0,0,0,0,0,0,0,0,0
1682771918.69928288,85728195,1582,1581,1573,1573,0,0,0,0,0,0,0,0,0,0
1682771918.79924297,85828155,1580,1580,1576,1576,0,0,0,0,0,0,0,0,0,0
1682771918.90003586,85928948,1578,1578,1579,1579,0,0,0,0,0,0,0,0,0,0
1682771918.99999595,86028908,1576,1577,1581,1581,0,0,0,0,0,0,0,0,0,0
1682771919.09995604,86128868,1575,1575,1582,1582,0,0,0,0,0,0,0,0,0,0
1682771919.19991589,86228828,1574,1574,1583,1583,0,0,0,0,0,0,0,0,0,0
1682771919.29987597,86328788,1574,1575,1584,1584,0,0,0,0,0,0,0,0,0,0
1682771919.39983582,86428748,1575,1575,1584,1584,0,0,0,0,0,0,0,0,0,0
1682771919.49979591,86528708,1575,1575,1583,1583,0,0,0,0,0,0,0,0,0,0
1682771919.59975600,86628668,1576,1576,1582,1582,0,0,0,0,0,0,0,0,0,0
1682771919.69971585,86728628,1577,1577,1581,1581,0,0,0,0,0,0,0,0,0,0
1682771919.79967594,86828588,1578,1578,1580,1580,0,0,0,0,0,0,0,0,0,0
1682771919.89963603,86928548,1579,1579,1579,1579,0,0,0,0,0,0,0,0,0,0
1682771919.99959588,87028508,1580,1580,1578,1579,0,0,0,0,0,0,0,0,0,0
1682771920.09955597,87128468,1582,1581,1579,1579,0,0,0,0,0,0,0,0,0,0
1682771920.19951582,87228428,1581,1581,1578,1578,0,0,0,0,0,0,0,0,0,0
1682771920.29947591,87328388,1582,1581,1578,1578,0,0,0,0,0,0,0,0,0,0
1682771920.39943600,87428348,1581,1581,1578,1578,0,0,0,0,0,0,0,0,0,0
1682771920.49939585,87528308,1581,1581,1578,1578,0,0,0,0,0,0,0,0,0,0
1682771920.59935594,87628268,1580,1580,1578,1579,0,0,0,0,0,0,0,0,0,0
1682771920.69931602,87728228,1580,1580,1579,1579,0,0,0,0,0,0,0,0,0,0
1682771920.79927588,87828188,1580,1580,1580,1580,0,0,0,0,0,0,0,0,0,0
1682771920.90006900,87928981,1580,1580,1581,1581,0,0,0,0,0,0,0,0,0,0
1682771921.00002885,88028941,1580,1580,1581,1581,0,0,0,0,0,0,0,0,0,0
1682771921.09998894,88128901,1580,1580,1581,1581,0,0,0,0,0,0,0,0,0,0
1682771921.19994903,88228861,1579,1580,1581,1581,0,0,0,0,0,0,0,0,0,0
1682771921.29990888,88328821,1579,1579,1580,1581,0,0,0,0,0,0,0,0,0,0
1682771921.39986897,88428781,1580,1580,1581,1581,0,0,0,0,0,0,0,0,0,0
1682771921.49982882,88528741,1580,1579,1580,1580,0,0,0,0,0,0,0,0,0,0
1682771921.59978890,88628701,1580,1580,1580,1580,0,0,0,0,0,0,0,0,0,0
1682771921.69974899,88728661,1581,1581,1581,1580,0,0,0,0,0,0,0,0,0,0
1682771921.79970884,88828621,1581,1581,1581,1581,0,0,0,0,0,0,0,0,0,0
1682771921.89966893,88928581,1581,1582,1581,1581,0,0,0,0,0,0,0,0,0,0
1682771921.99962902,89028541,1582,1582,1581,1581,0,0,0,0,0,0,0,0,0,0
1682771922.09958887,89128501,1582,1582,1581,1581,0,0,0,0,0,0,0,0,0,0
1682771922.19954896,89228461,1581,1582,1587,1574,0,0,0,0,0,0,0,0,0,0
1682771922.29950905,89328421,1581,1583,1585,1573,0,0,0,0,0,0,0,0,0,0
1682771922.39946890,89428381,1580,1582,1578,1573,0,0,0,0,0,0,0,0,0,0
1682771922.49942899,89528341,1580,1582,1569,1572,0,0,0,0,0,0,0,0,0,0
1682771922.59938884,89628301,1578,1580,1562,1568,0,0,0,0,0,0,0,0,0,0
1682771922.69934893,89728261,1579,1579,1557,1563,0,0,0,0,0,0,0,0,0,0
1682771922.79930902,89828221,1580,1579,1555,1559,0,0,0,0,0,0,0,0,0,0
1682771922.89926887,89928181,1580,1579,1555,1556,0,0,0,0,0,0,0,0,0,0
1682771923.00006199,90028974,1580,1579,1556,1554,0,0,0,0,0,0,0,0,0,0
1682771923.10002184,90128934,1579,1579,1556,1554,0,0,0,0,0,0,0,0,0,0
1682771923.19998193,90228894,1577,1578,1555,1553,0,0,0,0,0,0,0,0,0,0
1682771923.29994202,90328854,1576,1577,1555,1554,0,0,0,0,0,0,0,0,0,0
1682771923.39990187,90428814,1574,1576,1553,1553,0,0,0,0,0,0,0,0,0,0
1682771923.49986196,90528774,1574,1576,1552,1553,0,0,0,0,0,0,0,0,0,0
1682771923.59982204,90628734,1575,1576,1551,1551,0,0,0,0,0,0,0,0,0,0
1682771923.69978189,90728694,1576,1578,1550,1551,0,0,0,0,0,0,0,0,0,0
1682771923.79974198,90828654,1578,1579,1548,1548,0,0,0,0,0,0,0,0,0,0
1682771923.89970183,90928614,1580,1581,1547,1546,0,0,0,0,0,0,0,0,0,0
1682771923.99966192,91028574,1583,1584,1545,1544,0,0,0,0,0,0,0,0,0,0
1682771924.09962201,91128534,1585,1586,1542,1542,0,0,0,0,0,0,0,0,0,0
1682771924.19958186,91228494,1589,1589,1540,1540,0,0,0,0,0,0,0,0,0,0
1682771924.29954195,91328454,1591,1591,1539,1539,0,0,0,0,0,0,0,0,0,0
1682771924.39950204,91428414,1592,1593,1537,1538,0,0,0,0,0,0,0,0,0,0
1682771924.49946189,91528374,1593,1593,1536,1538,0,0,0,0,0,0,0,0,0,0
1682771924.59942198,91628334,1592,1593,1537,1539,0,0,0,0,0,0,0,0,0,0
1682771924.69938183,91728294,1591,1591,1542,1544,0,0,0,0,0,0,0,0,0,0
1682771924.79934192,91828254,1589,1587,1548,1551,0,0,0,0,0,0,0,0,0,0
1682771924.89930201,91928214,1581,1578,1555,1557,0,0,0,0,0,0,0,0,0,0
1682771924.99926186,92028174,1574,1571,1566,1568,0,0,0,0,0,0,0,0,0,0
1682771925.10005498,92128967,1564,1560,1578,1579,0,0,0,0,0,0,0,0,0,0
1682771925.20001483,92228927,1554,1550,1589,1590,0,0,0,0,0,0,0,0,0,0
1682771925.29997492,92328887,1544,1542,1599,1600,0,0,0,0,0,0,0,0,0,0
1682771925.39993501,92428847,1537,1537,1607,1607,0,0,0,0,0,0,0,0,0,0
1682771925.49989486,92528807,1533,1533,1611,1611,0,0,0,0,0,0,0,0,0,0
1682771925.59985495,92628767,1533,1534,1613,1612,0,0,0,0,0,0,0,0,0,0
1682771925.69981503,92728727,1536,1538,1611,1610,0,0,0,0,0,0,0,0,0,0
1682771925.79977489,92828687,1542,1544,1607,1607,0,0,0,0,0,0,0,0,0,0
1682771925.89973497,92928647,1548,1550,1600,1599,0,0,0,0,0,0,0,0,0,0
1682771925.99969482,93028607,1556,1557,1593,1593,0,0,0,0,0,0,0,0,0,0
1682771926.09965491,93128567,1565,1565,1586,1586,0,0,0,0,0,0,0,0,0,0
1682771926.19961500,93228527,1573,1572,1580,1580,0,0,0,0,0,0,0,0,0,0
1682771926.29957485,93328487,1577,1577,1574,1573,0,0,0,0,0,0,0,0,0,0
1682771926.39953494,93428447,1582,1582,1570,1570,0,0,0,0,0,0,0,0,0,0
1682771926.49949503,93528407,1585,1584,1568,1568,0,0,0,0,0,0,0,0,0,0
1682771926.59945488,93628367,1587,1586,1568,1568,0,0,0,0,0,0,0,0,0,0
1682771926.69941497,93728327,1586,1585,1568,1568,0,0,0,0,0,0,0,0,0,0
1682771926.79937482,93828287,1584,1583,1569,1569,0,0,0,0,0,0,0,0,0,0
1682771926.89933491,93928247,1583,1582,1572,1572,0,0,0,0,0,0,0,0,0,0
1682771926.99929500,94028207,1579,1579,1574,1574,0,0,0,0,0,0,0,0,0,0
1682771927.09925485,94128167,1577,1578,1577,1577,0,0,0,0,0,0,0,0,0,0
1682771927.20004797,94228960,1575,1576,1580,1580,0,0,0,0,0,0,0,0,0,0
1682771927.30000782,94328920,1573,1574,1581,1581,0,0,0,0,0,0,0,0,0,0
1682771927.39996791,94428880,1572,1573,1582,1582,0,0,0,0,0,0,0,0,0,0
1682771927.49992800,94528840,1572,1573,1583,1583,0,0,0,0,0,0,0,0,0,0
1682771927.59988785,94628800,1572,1573,1583,1583,0,0,0,0,0,0,0,0,0,0
1682771927.69984794,94728760,1574,1574,1583,1582,0,0,0,0,0,0,0,0,0,0
1682771927.79980803,94828720,1575,1575,1581,1581,0,0,0,0,0,0,0,0,0,0
1682771927.89976788,94928680,1576,1577,1581,1581,0,0,0,0,0,0,0,0,0,0
1682771927.99972796,95028640,1577,1577,1579,1579,0,0,0,0,0,0,0,0,0,0
1682771928.09968781,95128600,1578,1578,1578,1578,0,0,0,0,0,0,0,0,0,0
1682771928.19964790,95228560,1579,1579,1577,1577,0,0,0,0,0,0,0,0,0,0
1682771928.29960799,95328520,1580,1580,1577,1578,0,0,0,0,0,0,0,0,0,0
1682771928.39956784,95428480,1581,1581,1577,1577,0,0,0,0,0,0,0,0,0,0
1682771928.49952793,95528440,1581,1580,1577,1577,0,0,0,0,0,0,0,0,0,0
1682771928.59948802,95628400,1581,1581,1578,1578,0,0,0,0,0,0,0,0,0,0
1682771928.69944787,95728360,1581,1581,1578,1578,0,0,0,0,0,0,0,0,0,0
1682771928.79940796,95828320,1581,1580,1578,1578,0,0,0,0,0,0,0,0,0,0
1682771928.89936805,95928280,1580,1580,1579,1579,0,0,0,0,0,0,0,0,0,0
1682771928.99932790,96028240,1580,1581,1580,1580,0,0,0,0,0,0,0,0,0,0
1682771929.09928799,96128200,1579,1579,1580,1580,0,0,0,0,0,0,0,0,0,0
1682771929.19924784,96228160,1580,1580,1581,1581,0,0,0,0,0,0,0,0,0,0
1682771929.30004096,96328953,1580,1580,1582,1581,0,0,0,0,0,0,0,0,0,0
1682771929.40000105,96428913,1580,1580,1581,1581,0,0,0,0,0,0,0,0,0,0
1682771929.49996090,96528873,1581,1581,1583,1583,0,0,0,0,0,0,0,0,0,0
1682771929.59992099,96628833,1580,1580,1582,1582,0,0,0,0,0,0,0,0,0,0
1682771929.69988084,96728793,1581,1581,1582,1582,0,0,0,0,0,0,0,0,0,0
1682771929.79984093,96828753,1581,1581,1581,1582,0,0,0,0,0,0,0,0,0,0
1682771929.89980102,96928713,1580,1580,1580,1581,0,0,0,0,0,0,0,0,0,0
1682771929.99976087,97028673,1581,1581,1581,1580,0,0,0,0,0,0,0,0,0,0
1682771930.09972095,97128633,1580,1580,1583,1576,0,0,0,0,0,0,0,0,0,0
1682771930.19968104,97228593,1581,1581,1587,1571,0,0,0,0,0,0,0,0,0,0
1682771930.29964089,97328553,1580,1581,1583,1574,0,0,0,0,0,0,0,0,0,0
1682771930.39960098,97428513,1577,1577,1574,1575,0,0,0,0,0,0,0,0,0,0
1682771930.49956083,97528473,1574,1574,1569,1576,0,0,0,0,0,0,0,0,0,0
1682771930.59952092,97628433,1571,1571,1566,1574,0,0,0,0,0,0,0,0,0,0
1682771930.69948101,97728393,1569,1569,1565,1571,0,0,0,0,0,0,0,0,0,0
1682771930.79944086,97828353,1567,1567,1566,1568,0,0,0,0,0,0,0,0,0,0
1682771930.89940095,97928313,1565,1565,1566,1565,0,0,0,0,0,0,0,0,0,0
1682771930.99936104,98028273,1566,1566,1568,1565,0,0,0,0,0,0,0,0,0,0
1682771931.09932089,98128233,1565,1565,1567,1564,0,0,0,0,0,0,0,0,0,0
1682771931.19928098,98228193,1564,1564,1566,1564,0,0,0,0,0,0,0,0,0,0
1682771931.30007386,98328986,1564,1564,1566,1564,0,0,0,0,0,0,0,0,0,0
1682771931.40003395,98428946,1563,1563,1563,1563,0,0,0,0,0,0,0,0,0,0
1682771931.49999404,98528906,1563,1563,1563,1564,0,0,0,0,0,0,0,0,0,0
1682771931.59995389,98628866,1562,1562,1562,1563,0,0,0,0,0,0,0,0,0,0
1682771931.69991398,98728826,1561,1561,1561,1562,0,0,0,0,0,0,0,0,0,0
1682771931.79987383,98828786,1561,1561,1561,1561,0,0,0,0,0,0,0,0,0,0
1682771931.89983392,98928746,1561,1561,1561,1561,0,0,0,0,0,0,0,0,0,0
1682771931.99979401,99028706,1560,1560,1561,1559,0,0,0,0,0,0,0,0,0,0
1682771932.09975386,99128666,1559,1558,1559,1558,0,0,0,0,0,0,0,0,0,0
1682771932.19971395,99228626,1557,1557,1558,1557,0,0,0,0,0,0,0,0,0,0
1682771932.29967403,99328586,1556,1556,1556,1556,0,0,0,0,0,0,0,0,0,0
1682771932.39963388,99428546,1555,1555,1556,1555,0,0,0,0,0,0,0,0,0,0
1682771932.49959397,99528506,1557,1556,1557,1556,0,0,0,0,0,0,0,0,0,0
1682771932.59955382,99628466,1556,1557,1557,1555,0,0,0,0,0,0,0,0,0,0
1682771932.69951391,99728426,1557,1557,1558,1556,0,0,0,0,0,0,0,0,0,0
1682771932.79947400,99828386,1558,1558,1560,1556,0,0,0,0,0,0,0,0,0,0
1682771932.89943385,99928346,1560,1559,1560,1559,0,0,0,0,0,0,0,0,0,0
1682771932.99939394,100028306,1561,1560,1559,1562,0,0,0,0,0,0,0,0,0,0
1682771933.09935403,100128266,1561,1561,1558,1564,0,0,0,0,0,0,0,0,0,0
1682771933.19931388,100228226,1561,1562,1559,1565,0,0,0,0,0,0,0,0,0,0
1682771933.29927397,100328186,1563,1563,1560,1565,0,0,0,0,0,0,0,0,0,0
1682771933.40006685,100428979,1563,1564,1562,1565,0,0,0,0,0,0,0,0,0,0
1682771933.50002694,100528939,1563,1563,1563,1562,0,0,0,0,0,0,0,0,0,0
1682771933.59998703,100628899,1561,1561,1563,1559,0,0,0,0,0,0,0,0,0,0
1682771933.69994688,100728859,1561,1560,1562,1559,0,0,0,0,0,0,0,0,0,0
1682771933.79990697,100828819,1560,1559,1558,1561,0,0,0,0,0,0,0,0,0,0
1682771933.89986682,100928779,1557,1557,1554,1559,0,0,0,0,0,0,0,0,0,0
1682771933.99982691,101028739,1552,1552,1550,1554,0,0,0,0,0,0,0,0,0,0
1682771934.09978700,101128699,1547,1548,1547,1548,0,0,0,0,0,0,0,0,0,0
1682771934.19974685,101228659,1540,1540,1540,1540,0,0,0,0,0,0,0,0,0,0
1682771934.29970694,101328619,1533,1534,1534,1533,0,0,0,0,0,0,0,0,0,0
1682771934.39966702,101428579,1526,1526,1527,1525,0,0,0,0,0,0,0,0,0,0
1682771934.49962687,101528539,1520,1520,1521,1520,0,0,0,0,0,0,0,0,0,0
1682771934.59958696,101628499,1519,1518,1519,1518,0,0,0,0,0,0,0,0,0,0
1682771934.69954681,101728459,1519,1519,1520,1520,0,0,0,0,0,0,0,0,0,0
1682771934.79950690,101828419,1521,1521,1521,1522,0,0,0,0,0,0,0,0,0,0
1682771934.89946699,101928379,1524,1524,1524,1525,0,0,0,0,0,0,0,0,0,0
1682771934.99942684,102028339,1528,1528,1528,1529,0,0,0,0,0,0,0,0,0,0
1682771935.09938693,102128299,1534,1533,1533,1534,0,0,0,0,0,0,0,0,0,0
1682771935.19934702,102228259,1539,1539,1539,1539,0,0,0,0,0,0,0,0,0,0
1682771935.29930687,102328219,1541,1541,1541,1541,0,0,0,0,0,0,0,0,0,0
1682771935.39926696,102428179,1542,1543,1543,1542,0,0,0,0,0,0,0,0,0,0
1682771935.50005984,102528972,1544,1544,1544,1544,0,0,0,0,0,0,0,0,0,0
1682771935.60001993,102628932,1545,1545,1545,1545,0,0,0,0,0,0,0,0,0,0
1682771935.69998002,102728892,1547,1547,1547,1546,0,0,0,0,0,0,0,0,0,0
1682771935.79993987,102828852,1547,1546,1547,1546,0,0,0,0,0,0,0,0,0,0
1682771935.89989996,102928812,1546,1546,1546,1546,0,0,0,0,0,0,0,0,0,0
1682771935.99986005,103028772,1546,1546,1546,1546,0,0,0,0,0,0,0,0,0,0
1682771936.09981990,103128732,1546,1546,1546,1546,0,0,0,0,0,0,0,0,0,0
1682771936.19977999,103228692,1546,1546,1545,1545,0,0,0,0,0,0,0,0,0,0
1682771936.29973984,103328652,1546,1546,1546,1546,0,0,0,0,0,0,0,0,0,0
1682771936.39969993,103428612,1546,1546,1546,1546,0,0,0,0,0,0,0,0,0,0
1682771936.49966002,103528572,1546,1545,1546,1545,0,0,0,0,0,0,0,0,0,0
1682771936.59961987,103628532,1545,1545,1545,1544,0,0,0,0,0,0,0,0,0,0
1682771936.69957995,103728492,1545,1544,1545,1545,0,0,0,0,0,0,0,0,0,0
1682771936.79954004,103828452,1545,1545,1545,1545,0,0,0,0,0,0,0,0,0,0
1682771936.89949989,103928412,1544,1545,1544,1545,0,0,0,0,0,0,0,0,0,0
1682771936.99945998,104028372,1544,1544,1545,1544,0,0,0,0,0,0,0,0,0,0
1682771937.09941983,104128332,1544,1544,1544,1544,0,0,0,0,0,0,0,0,0,0
1682771937.19937992,104228292,1545,1545,1545,1545,0,0,0,0,0,0,0,0,0,0
1682771937.29934001,104328252,1544,1544,1544,1544,0,0,0,0,0,0,0,0,0,0
1682771937.39929986,104428212,1544,1544,1544,1544,0,0,0,0,0,0,0,0,0,0
1682771937.49925995,104528172,1544,1544,1544,1544,0,0,0,0,0,0,0,0,0,0
1682771937.60005283,104628965,1544,1545,1544,1544,0,0,0,0,0,0,0,0,0,0
1682771937.70001292,104728925,1544,1544,1544,1544,0,0,0,0,0,0,0,0,0,0
1682771937.79997301,104828885,1545,1545,1545,1545,0,0,0,0,0,0,0,0,0,0
1682771937.89993286,104928845,1544,1544,1544,1544,0,0,0,0,0,0,0,0,0,0
1682771937.99989295,105028805,1544,1544,1544,1544,0,0,0,0,0,0,0,0,0,0
1682771938.09985304,105128765,1545,1544,1544,1545,0,0,0,0,0,0,0,0,0,0
1682771938.19981289,105228725,1544,1544,1544,1544,0,0,0,0,0,0,0,0,0,0
1682771938.29977298,105328685,1545,1544,1544,1545,0,0,0,0,0,0,0,0,0,0
1682771938.39973283,105428645,1544,1544,1544,1544,0,0,0,0,0,0,0,0,0,0
1682771938.49969292,105528605,1544,1544,1544,1544,0,0,0,0,0,0,0,0,0,0
1682771938.59965301,105628565,1543,1544,1544,1544,0,0,0,0,0,0,0,0,0,0
1682771938.69961286,105728525,1544,1545,1544,1545,0,0,0,0,0,0,0,0,0,0
1682771938.79957294,105828485,1543,1544,1544,1544,0,0,0,0,0,0,0,0,0,0
1682771938.89953303,105928445,1544,1544,1544,1544,0,0,0,0,0,0,0,0,0,0
1682771938.99949288,106028405,1544,1544,1545,1544,0,0,0,0,0,0,0,0,0,0
1682771939.09945297,106128365,1545,1544,1545,1545,0,0,0,0,0,0,0,0,0,0
1682771939.19941282,106228325,1544,1544,1544,1544,0,0,0,0,0,0,0,0,0,0
1682771939.29937291,106328285,1544,1543,1543,1543,0,0,0,0,0,0,0,0,0,0
1682771939.39933300,106428245,1544,1544,1544,1544,0,0,0,0,0,0,0,0,0,0
1682771939.49929285,106528205,1544,1544,1544,1544,0,0,0,0,0,0,0,0,0,0
1682771939.59925294,106628165,1544,1544,1544,1544,0,0,0,0,0,0,0,0,0,0
1682771939.70004582,106728958,1544,1544,1544,1544,0,0,0,0,0,0,0,0,0,0
1682771939.80000591,106828918,1545,1545,1545,1545,0,0,0,0,0,0,0,0,0,0
1682771939.89996600,106928878,1544,1544,1544,1544,0,0,0,0,0,0,0,0,0,0
1682771939.99992585,107028838,1545,1545,1545,1545,0,0,0,0,0,0,0,0,0,0
1682771940.09988594,107128798,1545,1544,1544,1545,0,0,0,0,0,0,0,0,0,0
1682771940.19984603,107228758,1544,1544,1544,1544,0,0,0,0,0,0,0,0,0,0
1682771940.29980588,107328718,1544,1544,1545,1544,0,0,0,0,0,0,0,0,0,0
1682771940.39976597,107428678,1544,1545,1545,1544,0,0,0,0,0,0,0,0,0,0
1682771940.49972582,107528638,1543,1544,1543,1544,0,0,0,0,0,0,0,0,0,0
1682771940.59968591,107628598,1544,1544,1544,1543,0,0,0,0,0,0,0,0,0,0
1682771940.69964600,107728558,1544,1544,1544,1544,0,0,0,0,0,0,0,0,0,0
1682771940.79960585,107828518,1544,1544,1544,1544,0,0,0,0,0,0,0,0,0,0
1682771940.89956594,107928478,1544,1544,1544,1544,0,0,0,0,0,0,0,0,0,0
1682771940.99952602,108028438,1545,1544,1544,1544,0,0,0,0,0,0,0,0,0,0
1682771941.09948587,108128398,1545,1544,1544,1544,0,0,0,0,0,0,0,0,0,0
1682771941.19944596,108228358,1544,1545,1545,1544,0,0,0,0,0,0,0,0,0,0
1682771941.29940605,108328318,1544,1544,1544,1544,0,0,0,0,0,0,0,0,0,0
1682771941.39936590,108428278,1544,1545,1545,1544,0,0,0,0,0,0,0,0,0,0
1682771941.49932599,108528238,1544,1544,1544,1544,0,0,0,0,0,0,0,0,0,0
1682771941.59928584,108628198,1545,1544,1544,1544,0,0,0,0,0,0,0,0,0,0
1682771941.69924593,108728158,1545,1544,1544,1544,0,0,0,0,0,0,0,0,0,0
1682771941.80003881,108828951,1544,1544,1545,1544,0,0,0,0,0,0,0,0,0,0
1682771941.89999890,108928911,1544,1544,1544,1545,0,0,0,0,0,0,0,0,0,0
1682771941.99995899,109028871,1543,1545,1543,1545,0,0,0,0,0,0,0,0,0,0
1682771942.09991884,109128831,1544,1544,1544,1544,0,0,0,0,0,0,0,0,0,0
1682771942.19987893,109228791,1544,1544,1544,1544,0,0,0,0,0,0,0,0,0,0
1682771942.29983902,109328751,1544,1544,1544,1544,0,0,0,0,0,0,0,0,0,0
1682771942.39979887,109428711,1544,1544,1544,1543,0,0,0,0,0,0,0,0,0,0
1682771942.49975896,109528671,1545,1545,1545,1545,0,0,0,0,0,0,0,0,0,0
1682771942.59971905,109628631,1545,1545,1545,1545,0,0,0,0,0,0,0,0,0,0
1682771942.69967890,109728591,1545,1544,1544,1545,0,0,0,0,0,0,0,0,0,0
1682771942.79963899,109828551,1545,1545,1545,1545,0,0,0,0,0,0,0,0,0,0
1682771942.89959884,109928511,1544,1544,1544,1544,0,0,0,0,0,0,0,0,0,0
1682771942.99955893,110028471,1544,1544,1544,1544,0,0,0,0,0,0,0,0,0,0
1682771943.09951901,110128431,1545,1544,1544,1545,0,0,0,0,0,0,0,0,0,0
1682771943.19947886,110228391,1544,1544,1544,1544,0,0,0,0,0,0,0,0,0,0
1682771943.29943895,110328351,1544,1544,1544,1544,0,0,0,0,0,0,0,0,0,0
1682771943.39939904,110428311,1543,1544,1544,1543,0,0,0,0,0,0,0,0,0,0
1682771943.49935889,110528271,1544,1544,1544,1545,0,0,0,0,0,0,0,0,0,0
1682771943.59931898,110628231,1543,1543,1543,1543,0,0,0,0,0,0,0,0,0,0
1682771943.69927883,110728191,1544,1544,1544,1545,0,0,0,0,0,0,0,0,0,0
1682771943.80007195,110828984,1543,1543,1543,1543,0,0,0,0,0,0,0,0,0,0
1682771943.90003204,110928944,1544,1544,1544,1544,0,0,0,0,0,0,0,0,0,0
1682771943.99999189,111028904,1544,1544,1544,1544,0,0,0,0,0,0,0,0,0,0
1682771944.09995198,111128864,1545,1544,1545,1544,0,0,0,0,0,0,0,0,0,0
1682771944.19991183,111228824,1535,1534,1534,1535,0,0,0,0,0,0,0,0,0,0
1682771944.29987192,111328784,1341,1345,1340,1345,0,0,0,0,0,0,0,0,0,0
1682771944.39983201,111428744,1237,1246,1238,1244,0,0,0,0,0,0,0,0,0,0
1682771944.49979186,111528704,1206,1215,1207,1215,0,0,0,0,0,0,0,0,0,0
1682771944.59975195,111628664,1186,1197,1187,1196,0,0,0,0,0,0,0,0,0,0
1682771944.69971204,111728624,1162,1173,1162,1173,0,0,0,0,0,0,0,0,0,0
1682771944.79967189,111828584,1162,1174,1163,1173,0,0,0,0,0,0,0,0,0,0
1682771944.89963198,111928544,1174,1172,1162,1185,0,0,0,0,0,0,0,0,0,0
1682771944.99959183,112028504,1195,1172,1162,1204,0,0,0,0,0,0,0,0,0,0
1682771945.09955192,112128464,1184,1172,1162,1194,0,0,0,0,0,0,0,0,0,0
1682771945.19951200,112228424,1182,1172,1162,1192,0,0,0,0,0,0,0,0,0,0
1682771945.29947186,112328384,1184,1172,1162,1194,0,0,0,0,0,0,0,0,0,0
1682771945.39943194,112428344,1185,1172,1162,1195,0,0,0,0,0,0,0,0,0,0
1682771945.49939203,112528304,1188,1172,1162,1198,0,0,0,0,0,0,0,0,0,0
1682771945.59935188,112628264,1190,1172,1162,1200,0,0,0,0,0,0,0,0,0,0
1682771945.69931197,112728224,1162,1172,1163,1173,0,0,0,0,0,0,0,0,0,0
1682771945.79927182,112828184,1176,1171,1162,1187,0,0,0,0,0,0,0,0,0,0
1682771945.90006495,112928977,1178,1171,1162,1188,0,0,0,0,0,0,0,0,0,0
1682771946.00002503,113028937,1178,1171,1162,1189,0,0,0,0,0,0,0,0,0,0
1682771946.09998488,113128897,1179,1171,1162,1190,0,0,0,0,0,0,0,0,0,0
1682771946.19994497,113228857,1158,1146,1158,1146,0,0,0,0,0,0,0,0,0,0
1682771946.29990482,113328817,1000,1000,1000,1000,0,0,0,0,0,0,0,0,0,0
1682771946.39986491,113428777,1000,1000,1000,1000,0,0,0,0,0,0,0,0,0,0
1682771946.49982500,113528737,1000,1000,1000,1000,0,0,0,0,0,0,0,0,0,0
1682771946.59978485,113628697,1000,1000,1000,1000,0,0,0,0,0,0,0,0,0,0
1682771946.69974494,113728657,1000,1000,1000,1000,0,0,0,0,0,0,0,0,0,0
1682771946.79970503,113828617,1000,1000,1000,1000,0,0,0,0,0,0,0,0,0,0
1682771946.89966488,113928577,1000,1000,1000,1000,0,0,0,0,0,0,0,0,0,0
1682771946.99962497,114028537,1000,1000,1000,1000,0,0,0,0,0,0,0,0,0,0
1682771947.09958482,114128497,1000,1000,1000,1000,0,0,0,0,0,0,0,0,0,0
1682771947.19954491,114228457,1000,1000,1000,1000,0,0,0,0,0,0,0,0,0,0
1682771947.29950500,114328417,1000,1000,1000,1000,0,0,0,0,0,0,0,0,0,0
1682771947.39946485,114428377,1000,1000,1000,1000,0,0,0,0,0,0,0,0,0,0
1682771947.49942493,114528337,1000,1000,1000,1000,0,0,0,0,0,0,0,0,0,0
1682771947.59938502,114628297,1000,1000,1000,1000,0,0,0,0,0,0,0,0,0,0
1682771947.69934487,114728257,1000,1000,1000,1000,0,0,0,0,0,0,0,0,0,0
1682771947.79930496,114828217,1000,1000,1000,1000,0,0,0,0,0,0,0,0,0,0
1682771947.89926505,114928177,1000,1000,1000,1000,0,0,0,0,0,0,0,0,0,0
1682771948.00005794,115028970,1000,1000,1000,1000,0,0,0,0,0,0,0,0,0,0
1682771948.10001802,115128930,1000,1000,1000,1000,0,0,0,0,0,0,0,0,0,0
1682771948.19997787,115228890,1000,1000,1000,1000,0,0,0,0,0,0,0,0,0,0
1682771948.29993796,115328850,1000,1000,1000,1000,0,0,0,0,0,0,0,0,0,0
1682771948.39989781,115428810,1000,1000,1000,1000,0,0,0,0,0,0,0,0,0,0
1682771948.49985790,115528770,1000,1000,1000,1000,0,0,0,0,0,0,0,0,0,0
1682771948.59981799,115628730,1000,1000,1000,1000,0,0,0,0,0,0,0,0,0,0
1682771948.69977784,115728690,1000,1000,1000,1000,0,0,0,0,0,0,0,0,0,0
1682771948.79973793,115828650,1000,1000,1000,1000,0,0,0,0,0,0,0,0,0,0
1682771948.89969802,115928610,1000,1000,1000,1000,0,0,0,0,0,0,0,0,0,0
1682771948.99965787,116028570,1000,1000,1000,1000,0,0,0,0,0,0,0,0,0,0
1682771949.09961796,116128530,1000,1000,1000,1000,0,0,0,0,0,0,0,0,0,0
1682771949.19957805,116228490,1000,1000,1000,1000,0,0,0,0,0,0,0,0,0,0
1682771949.29953790,116328450,1000,1000,1000,1000,0,0,0,0,0,0,0,0,0,0
1682771949.39949799,116428410,1000,1000,1000,1000,0,0,0,0,0,0,0,0,0,0
1682771949.49945784,116528370,1000,1000,1000,1000,0,0,0,0,0,0,0,0,0,0
1682771949.59941792,116628330,1000,1000,1000,1000,0,0,0,0,0,0,0,0,0,0
1682771949.69937801,116728290,1000,1000,1000,1000,0,0,0,0,0,0,0,0,0,0
1682771949.79933786,116828250,1000,1000,1000,1000,0,0,0,0,0,0,0,0,0,0
1682771949.89929795,116928210,1000,1000,1000,1000,0,0,0,0,0,0,0,0,0,0
1682771949.99925804,117028170,1000,1000,1000,1000,0,0,0,0,0,0,0,0,0,0
1682771950.10005093,117128963,1000,1000,1000,1000,0,0,0,0,0,0,0,0,0,0
1682771950.20001101,117228923,1000,1000,1000,1000,0,0,0,0,0,0,0,0,0,0
1682771950.29997087,117328883,1000,1000,1000,1000,0,0,0,0,0,0,0,0,0,0
1682771950.39993095,117428843,1000,1000,1000,1000,0,0,0,0,0,0,0,0,0,0
1682771950.49989104,117528803,1000,1000,1000,1000,0,0,0,0,0,0,0,0,0,0
1682771950.59985089,117628763,1000,1000,1000,1000,0,0,0,0,0,0,0,0,0,0
1682771950.69981098,117728723,1000,1000,1000,1000,0,0,0,0,0,0,0,0,0,0
1682771950.79977083,117828683,1000,1000,1000,1000,0,0,0,0,0,0,0,0,0,0
1682771950.89973092,117928643,1000,1000,1000,1000,0,0,0,0,0,0,0,0,0,0
1682771950.99969101,118028603,1000,1000,1000,1000,0,0,0,0,0,0,0,0,0,0
1682771951.09965086,118128563,1000,1000,1000,1000,0,0,0,0,0,0,0,0,0,0
1682771951.19961095,118228523,1000,1000,1000,1000,0,0,0,0,0,0,0,0,0,0
1682771951.29957104,118328483,1000,1000,1000,1000,0,0,0,0,0,0,0,0,0,0
1682771951.39953089,118428443,1000,1000,1000,1000,0,0,0,0,0,0,0,0,0,0
1682771951.49949098,118528403,1000,1000,1000,1000,0,0,0,0,0,0,0,0,0,0
1682771951.59945083,118628363,1000,1000,1000,1000,0,0,0,0,0,0,0,0,0,0
1682771951.69941092,118728323,1000,1000,1000,1000,0,0,0,0,0,0,0,0,0,0
1682771951.79937100,118828283,1000,1000,1000,1000,0,0,0,0,0,0,0,0,0,0
1682771951.89933085,118928243,1000,1000,1000,1000,0,0,0,0,0,0,0,0,0,0
1682771951.99929094,119028203,1000,1000,1000,1000,0,0,0,0,0,0,0,0,0,0
1682771952.09925103,119128163,1000,1000,1000,1000,0,0,0,0,0,0,0,0,0,0
1682771952.20004392,119228956,1000,1000,1000,1000,0,0,0,0,0,0,0,0,0,0
1682771952.30000401,119328916,1000,1000,1000,1000,0,0,0,0,0,0,0,0,0,0
1682771952.39996386,119428876,1000,1000,1000,1000,0,0,0,0,0,0,0,0,0,0
1682771952.49992394,119528836,1000,1000,1000,1000,0,0,0,0,0,0,0,0,0,0
1682771952.59988403,119628796,1000,1000,1000,1000,0,0,0,0,0,0,0,0,0,0
1682771952.69984388,119728756,1000,1000,1000,1000,0,0,0,0,0,0,0,0,0,0
1682771952.79980397,119828716,1000,1000,1000,1000,0,0,0,0,0,0,0,0,0,0
1682771952.89976382,119928676,1000,1000,1000,1000,0,0,0,0,0,0,0,0,0,0
1682771952.99972391,120028636,1000,1000,1000,1000,0,0,0,0,0,0,0,0,0,0
1682771953.09968400,120128596,1000,1000,1000,1000,0,0,0,0,0,0,0,0,0,0
1682771953.19964385,120228556,1000,1000,1000,1000,0,0,0,0,0,0,0,0,0,0
1682771953.29960394,120328516,1000,1000,1000,1000,0,0,0,0,0,0,0,0,0,0
1682771953.39956403,120428476,1000,1000,1000,1000,0,0,0,0,0,0,0,0,0,0
1682771953.49952388,120528436,1000,1000,1000,1000,0,0,0,0,0,0,0,0,0,0
1682771953.59948397,120628396,1000,1000,1000,1000,0,0,0,0,0,0,0,0,0,0
1682771953.69944382,120728356,1000,1000,1000,1000,0,0,0,0,0,0,0,0,0,0
1682771953.79940391,120828316,1000,1000,1000,1000,0,0,0,0,0,0,0,0,0,0
1682771953.89936399,120928276,1000,1000,1000,1000,0,0,0,0,0,0,0,0,0,0
1682771953.99932384,121028236,1000,1000,1000,1000,0,0,0,0,0,0,0,0,0,0
1682771954.09928393,121128196,1000,1000,1000,1000,0,0,0,0,0,0,0,0,0,0
1682771954.19924402,121228156,1000,1000,1000,1000,0,0,0,0,0,0,0,0,0,0
1682771954.30003691,121328949,1000,1000,1000,1000,0,0,0,0,0,0,0,0,0,0
1682771954.39999700,121428909,1000,1000,1000,1000,0,0,0,0,0,0,0,0,0,0
1682771954.49995685,121528869,1000,1000,1000,1000,0,0,0,0,0,0,0,0,0,0
1682771954.59991693,121628829,1000,1000,1000,1000,0,0,0,0,0,0,0,0,0,0
1682771954.69987702,121728789,1000,1000,1000,1000,0,0,0,0,0,0,0,0,0,0
1682771954.79983687,121828749,1000,1000,1000,1000,0,0,0,0,0,0,0,0,0,0
1682771954.89979696,121928709,1000,1000,1000,1000,0,0,0,0,0,0,0,0,0,0
1682771954.99975705,122028669,1000,1000,1000,1000,0,0,0,0,0,0,0,0,0,0
1682771955.09971690,122128629,1000,1000,1000,1000,0,0,0,0,0,0,0,0,0,0
1682771955.19967699,122228589,1000,1000,1000,1000,0,0,0,0,0,0,0,0,0,0
1682771955.29963684,122328549,1000,1000,1000,1000,0,0,0,0,0,0,0,0,0,0
1682771955.39959693,122428509,1000,1000,1000,1000,0,0,0,0,0,0,0,0,0,0
1682771955.49955702,122528469,1000,1000,1000,1000,0,0,0,0,0,0,0,0,0,0
1682771955.59951687,122628429,1000,1000,1000,1000,0,0,0,0,0,0,0,0,0,0
1682771955.69947696,122728389,1000,1000,1000,1000,0,0,0,0,0,0,0,0,0,0
1682771955.79943705,122828349,1000,1000,1000,1000,0,0,0,0,0,0,0,0,0,0
1682771955.89939690,122928309,1000,1000,1000,1000,0,0,0,0,0,0,0,0,0,0
1682771955.99935699,123028269,1000,1000,1000,1000,0,0,0,0,0,0,0,0,0,0
1682771956.09931684,123128229,1000,1000,1000,1000,0,0,0,0,0,0,0,0,0,0
1682771956.19927692,123228189,1000,1000,1000,1000,0,0,0,0,0,0,0,0,0,0
1682771956.30007005,123328982,1000,1000,1000,1000,0,0,0,0,0,0,0,0,0,0
1682771956.40002990,123428942,1000,1000,1000,1000,0,0,0,0,0,0,0,0,0,0
1682771956.49998999,123528902,1000,1000,1000,1000,0,0,0,0,0,0,0,0,0,0
1682771956.59994984,123628862,1000,1000,1000,1000,0,0,0,0,0,0,0,0,0,0
1682771956.69990993,123728822,1000,1000,1000,1000,0,0,0,0,0,0,0,0,0,0
1682771956.79987001,123828782,1000,1000,1000,1000,0,0,0,0,0,0,0,0,0,0
1682771956.89982986,123928742,1000,1000,1000,1000,0,0,0,0,0,0,0,0,0,0
1682771956.99978995,124028702,1000,1000,1000,1000,0,0,0,0,0,0,0,0,0,0
1682771957.09975004,124128662,1000,1000,1000,1000,0,0,0,0,0,0,0,0,0,0
1682771957.19970989,124228622,1000,1000,1000,1000,0,0,0,0,0,0,0,0,0,0
1682771957.29966998,124328582,1000,1000,1000,1000,0,0,0,0,0,0,0,0,0,0
1682771957.39962983,124428542,1000,1000,1000,1000,0,0,0,0,0,0,0,0,0,0
1682771957.49958992,124528502,1000,1000,1000,1000,0,0,0,0,0,0,0,0,0,0
1682771957.59955001,124628462,1000,1000,1000,1000,0,0,0,0,0,0,0,0,0,0
1682771957.69950986,124728422,1000,1000,1000,1000,0,0,0,0,0,0,0,0,0,0
1682771957.79946995,124828382,1000,1000,1000,1000,0,0,0,0,0,0,0,0,0,0
1682771957.89943004,124928342,1000,1000,1000,1000,0,0,0,0,0,0,0,0,0,0
1682771957.99938989,125028302,1000,1000,1000,1000,0,0,0,0,0,0,0,0,0,0
1682771958.09934998,125128262,1000,1000,1000,1000,0,0,0,0,0,0,0,0,0,0
1682771958.19930983,125228222,1000,1000,1000,1000,0,0,0,0,0,0,0,0,0,0
1682771958.29926991,125328182,1000,1000,1000,1000,0,0,0,0,0,0,0,0,0,0
1682771958.40006304,125428975,1000,1000,1000,1000,0,0,0,0,0,0,0,0,0,0
1682771958.50002289,125528935,1000,1000,1000,1000,0,0,0,0,0,0,0,0,0,0
1682771958.59998298,125628895,1000,1000,1000,1000,0,0,0,0,0,0,0,0,0,0
1682771958.69994283,125728855,1000,1000,1000,1000,0,0,0,0,0,0,0,0,0,0
1682771958.79990292,125828815,1000,1000,1000,1000,0,0,0,0,0,0,0,0,0,0
1682771958.89986300,125928775,1000,1000,1000,1000,0,0,0,0,0,0,0,0,0,0
1682771958.99982285,126028735,1000,1000,1000,1000,0,0,0,0,0,0,0,0,0,0
1682771959.09978294,126128695,1000,1000,1000,1000,0,0,0,0,0,0,0,0,0,0
1682771959.19974303,126228655,1000,1000,1000,1000,0,0,0,0,0,0,0,0,0,0
1682771959.29970288,126328615,1000,1000,1000,1000,0,0,0,0,0,0,0,0,0,0
1682771959.39966297,126428575,1000,1000,1000,1000,0,0,0,0,0,0,0,0,0,0
1682771959.49962282,126528535,1000,1000,1000,1000,0,0,0,0,0,0,0,0,0,0
1682771959.59958291,126628495,1000,1000,1000,1000,0,0,0,0,0,0,0,0,0,0
1682771959.69954300,126728455,1000,1000,1000,1000,0,0,0,0,0,0,0,0,0,0
1682771959.79950285,126828415,1000,1000,1000,1000,0,0,0,0,0,0,0,0,0,0
1682771959.89946294,126928375,1000,1000,1000,1000,0,0,0,0,0,0,0,0,0,0
1682771959.99942303,127028335,1000,1000,1000,1000,0,0,0,0,0,0,0,0,0,0
1682771960.09938288,127128295,1000,1000,1000,1000,0,0,0,0,0,0,0,0,0,0
1682771960.19934297,127228255,1000,1000,1000,1000,0,0,0,0,0,0,0,0,0,0
1682771960.29930282,127328215,1000,1000,1000,1000,0,0,0,0,0,0,0,0,0,0
1682771960.39926291,127428175,1000,1000,1000,1000,0,0,0,0,0,0,0,0,0,0
1682771960.50005603,127528968,1000,1000,1000,1000,0,0,0,0,0,0,0,0,0,0
1682771960.60001588,127628928,1000,1000,1000,1000,0,0,0,0,0,0,0,0,0,0
1682771960.69997597,127728888,1000,1000,1000,1000,0,0,0,0,0,0,0,0,0,0
1682771960.79993582,127828848,1000,1000,1000,1000,0,0,0,0,0,0,0,0,0,0
1682771960.89989591,127928808,1000,1000,1000,1000,0,0,0,0,0,0,0,0,0,0
1682771960.99985600,128028768,1000,1000,1000,1000,0,0,0,0,0,0,0,0,0,0
1682771961.09981585,128128728,1000,1000,1000,1000,0,0,0,0,0,0,0,0,0,0
