timestamp,TimeUS,C1,C2,C3,C4,C5,C6,C7,C8,C9,C10,C11,C12,C13,C14
1683032010.50003982,71928717,1000,1000,1000,1000,0,0,0,0,0,0,0,0,0,0
1683032010.59999990,72028677,1000,1000,1000,1000,0,0,0,0,0,0,0,0,0,0
1683032010.69995999,72128637,1000,1000,1000,1000,0,0,0,0,0,0,0,0,0,0
1683032010.79991984,72228597,1000,1000,1000,1000,0,0,0,0,0,0,0,0,0,0
1683032010.89987993,72328557,1000,1000,1000,1000,0,0,0,0,0,0,0,0,0,0
1683032010.99984002,72428517,1000,1000,1000,1000,0,0,0,0,0,0,0,0,0,0
1683032011.09979987,72528477,1000,1000,1000,1000,0,0,0,0,0,0,0,0,0,0
1683032011.19975996,72628437,1000,1000,1000,1000,0,0,0,0,0,0,0,0,0,0
1683032011.29971981,72728397,1000,1000,1000,1000,0,0,0,0,0,0,0,0,0,0
1683032011.39967990,72828357,1000,1000,1000,1000,0,0,0,0,0,0,0,0,0,0
1683032011.49963999,72928317,1000,1000,1000,1000,0,0,0,0,0,0,0,0,0,0
1683032011.59959984,73028277,1000,1000,1000,1000,0,0,0,0,0,0,0,0,0,0
1683032011.69955993,73128237,1000,1000,1000,1000,0,0,0,0,0,0,0,0,0,0
1683032011.79952002,73228197,1000,1000,1000,1000,0,0,0,0,0,0,0,0,0,0
1683032011.89947987,73328157,1000,1000,1000,1000,0,0,0,0,0,0,0,0,0,0
1683032012.00027299,73428950,1000,1000,1000,1000,0,0,0,0,0,0,0,0,0,0
1683032012.10023284,73528910,1000,1000,1000,1000,0,0,0,0,0,0,0,0,0,0
1683032012.20019293,73628870,1000,1000,1000,1000,0,0,0,0,0,0,0,0,0,0
1683032012.30015302,73728830,1000,1000,1000,1000,0,0,0,0,0,0,0,0,0,0
1683032012.40011287,73828790,1000,1000,1000,1000,0,0,0,0,0,0,0,0,0,0
1683032012.50007296,73928750,1006,1006,1006,1006,0,0,0,0,0,0,0,0,0,0
1683032012.60003281,74028710,1036,1036,1036,1036,0,0,0,0,0,0,0,0,0,0
1683032012.69999290,74128670,1066,1066,1066,1066,0,0,0,0,0,0,0,0,0,0
1683032012.79995298,74228630,1096,1096,1096,1096,0,0,0,0,0,0,0,0,0,0
1683032012.89991283,74328590,1125,1125,1125,1125,0,0,0,0,0,0,0,0,0,0
1683032012.99987292,74428550,1209,1198,1199,1209,0,0,0,0,0,0,0,0,0,0
1683032013.09983301,74528510,1440,1432,1433,1441,0,0,0,0,0,0,0,0,0,0
1683032013.19979286,74628470,1611,1605,1605,1612,0,0,0,0,0,0,0,0,0,0
1683032013.29975295,74728430,1754,1748,1748,1755,0,0,0,0,0,0,0,0,0,0
1683032013.39971280,74828390,1879,1872,1873,1879,0,0,0,0,0,0,0,0,0,0
1683032013.49967289,74928350,1906,1901,1902,1906,0,0,0,0,0,0,0,0,0,0
1683032013.59963298,75028310,1797,1795,1795,1797,0,0,0,0,0,0,0,0,0,0
1683032013.69959283,75128270,1684,1686,1686,1684,0,0,0,0,0,0,0,0,0,0
1683032013.79955292,75228230,1638,1641,1641,1638,0,0,0,0,0,0,0,0,0,0
1683032013.89951301,75328190,1637,1640,1640,1637,0,0,0,0,0,0,0,0,0,0
1683032014.00030589,75428983,1646,1647,1648,1645,0,0,0,0,0,0,0,0,0,0
1683032014.10026598,75528943,1645,1645,1645,1645,0,0,0,0,0,0,0,0,0,0
1683032014.20022583,75628903,1637,1636,1636,1637,0,0,0,0,0,0,0,0,0,0
1683032014.30018592,75728863,1629,1628,1627,1629,0,0,0,0,0,0,0,0,0,0
1683032014.40014601,75828823,1621,1621,1620,1621,0,0,0,0,0,0,0,0,0,0
1683032014.50010586,75928783,1619,1618,1618,1619,0,0,0,0,0,0,0,0,0,0
1683032014.60006595,76028743,1617,1618,1617,1617,0,0,0,0,0,0,0,0,0,0
1683032014.70002604,76128703,1619,1619,1619,1619,0,0,0,0,0,0,0,0,0,0
1683032014.79998589,76228663,1619,1619,1619,1619,0,0,0,0,0,0,0,0,0,0
1683032014.89994597,76328623,1612,1615,1615,1613,0,0,0,0,0,0,0,0,0,0
1683032014.99990582,76428583,1587,1587,1587,1587,0,0,0,0,0,0,0,0,0,0
1683032015.09986591,76528543,1575,1575,1575,1575,0,0,0,0,0,0,0,0,0,0
1683032015.19982600,76628503,1566,1565,1565,1566,0,0,0,0,0,0,0,0,0,0
1683032015.29978585,76728463,1558,1557,1557,1558,0,0,0,0,0,0,0,0,0,0
1683032015.39974594,76828423,1549,1549,1549,1550,0,0,0,0,0,0,0,0,0,0
1683032015.49970603,76928383,1541,1540,1540,1542,0,0,0,0,0,0,0,0,0,0
1683032015.59966588,77028343,1533,1533,1532,1534,0,0,0,0,0,0,0,0,0,0
1683032015.69962597,77128303,1523,1523,1523,1524,0,0,0,0,0,0,0,0,0,0
1683032015.79958582,77228263,1513,1513,1513,1514,0,0,0,0,0,0,0,0,0,0
1683032015.89954591,77328223,1508,1508,1508,1508,0,0,0,0,0,0,0,0,0,0
1683032015.99950600,77428183,1504,1504,1504,1505,0,0,0,0,0,0,0,0,0,0
1683032016.10029888,77528976,1502,1502,1502,1503,0,0,0,0,0,0,0,0,0,0
1683032016.20025897,77628936,1500,1500,1499,1500,0,0,0,0,0,0,0,0,0,0
1683032016.30021882,77728896,1498,1498,1498,1498,0,0,0,0,0,0,0,0,0,0
1683032016.40017891,77828856,1497,1497,1497,1497,0,0,0,0,0,0,0,0,0,0
1683032016.50013900,77928816,1496,1496,1495,1496,0,0,0,0,0,0,0,0,0,0
1683032016.60009885,78028776,1495,1495,1495,1495,0,0,0,0,0,0,0,0,0,0
1683032016.70005894,78128736,1495,1495,1495,1496,0,0,0,0,0,0,0,0,0,0
1683032016.80001903,78228696,1522,1522,1526,1518,0,0,0,0,0,0,0,0,0,0
1683032016.89997888,78328656,1542,1542,1549,1535,0,0,0,0,0,0,0,0,0,0
1683032016.99993896,78428616,1553,1553,1556,1550,0,0,0,0,0,0,0,0,0,0
1683032017.09989882,78528576,1559,1559,1557,1562,0,0,0,0,0,0,0,0,0,0
1683032017.19985890,78628536,1565,1565,1560,1570,0,0,0,0,0,0,0,0,0,0
1683032017.29981899,78728496,1568,1567,1562,1573,0,0,0,0,0,0,0,0,0,0
1683032017.39977884,78828456,1569,1569,1565,1573,0,0,0,0,0,0,0,0,0,0
1683032017.49973893,78928416,1571,1570,1569,1572,0,0,0,0,0,0,0,0,0,0
1683032017.59969902,79028376,1573,1574,1575,1572,0,0,0,0,0,0,0,0,0,0
1683032017.69965887,79128336,1574,1575,1578,1571,0,0,0,0,0,0,0,0,0,0
1683032017.79961896,79228296,1575,1575,1578,1572,0,0,0,0,0,0,0,0,0,0
1683032017.89957881,79328256,1574,1574,1576,1573,0,0,0,0,0,0,0,0,0,0
1683032017.99953890,79428216,1573,1573,1573,1573,0,0,0,0,0,0,0,0,0,0
1683032018.09949899,79528176,1572,1571,1570,1573,0,0,0,0,0,0,0,0,0,0
1683032018.20029187,79628969,1567,1566,1572,1577,0,0,0,0,0,0,0,0,0,0
1683032018.30025196,79728929,1565,1565,1571,1576,0,0,0,0,0,0,0,0,0,0
1683032018.40021181,79828889,1566,1567,1571,1573,0,0,0,0,0,0,0,0,0,0
1683032018.50017190,79928849,1566,1567,1570,1571,0,0,0,0,0,0,0,0,0,0
1683032018.60013199,80028809,1568,1569,1569,1568,0,0,0,0,0,0,0,0,0,0
1683032018.70009184,80128769,1569,1570,1569,1567,0,0,0,0,0,0,0,0,0,0
1683032018.80005193,80228729,1571,1571,1568,1567,0,0,0,0,0,0,0,0,0,0
1683032018.90001202,80328689,1571,1571,1566,1567,0,0,0,0,0,0,0,0,0,0
1683032018.99997187,80428649,1572,1572,1567,1567,0,0,0,0,0,0,0,0,0,0
1683032019.09993196,80528609,1573,1573,1569,1569,0,0,0,0,0,0,0,0,0,0
1683032019.19989181,80628569,1573,1573,1569,1570,0,0,0,0,0,0,0,0,0,0
1683032019.29985189,80728529,1573,1573,1570,1570,0,0,0,0,0,0,0,0,0,0
1683032019.39981198,80828489,1574,1574,1572,1572,0,0,0,0,0,0,0,0,0,0
1683032019.49977183,80928449,1575,1575,1574,1574,0,0,0,0,0,0,0,0,0,0
1683032019.59973192,81028409,1575,1574,1575,1573,0,0,0,0,0,0,0,0,0,0
1683032019.69969201,81128369,1575,1575,1577,1575,0,0,0,0,0,0,0,0,0,0
1683032019.79965186,81228329,1576,1576,1578,1577,0,0,0,0,0,0,0,0,0,0
1683032019.89961195,81328289,1576,1576,1578,1577,0,0,0,0,0,0,0,0,0,0
1683032019.99957180,81428249,1575,1575,1577,1577,0,0,0,0,0,0,0,0,0,0
1683032020.09953189,81528209,1574,1575,1576,1576,0,0,0,0,0,0,0,0,0,0
1683032020.19949198,81628169,1576,1577,1578,1578,0,0,0,0,0,0,0,0,0,0
1683032020.30028486,81728962,1576,1576,1577,1577,0,0,0,0,0,0,0,0,0,0
1683032020.40024495,81828922,1576,1576,1576,1577,0,0,0,0,0,0,0,0,0,0
1683032020.50020480,81928882,1577,1576,1577,1577,0,0,0,0,0,0,0,0,0,0
1683032020.60016489,82028842,1578,1577,1577,1577,0,0,0,0,0,0,0,0,0,0
1683032020.70012498,82128802,1578,1578,1577,1577,0,0,0,0,0,0,0,0,0,0
1683032020.80008483,82228762,1579,1579,1579,1578,0,0,0,0,0,0,0,0,0,0
1683032020.90004492,82328722,1579,1579,1578,1578,0,0,0,0,0,0,0,0,0,0
1683032021.00000501,82428682,1579,1578,1578,1578,0,0,0,0,0,0,0,0,0,0
1683032021.09996486,82528642,1578,1578,1577,1578,0,0,0,0,0,0,0,0,0,0
1683032021.19992495,82628602,1579,1579,1578,1578,0,0,0,0,0,0,0,0,0,0
1683032021.29988503,82728562,1577,1577,1577,1577,0,0,0,0,0,0,0,0,0,0
1683032021.39984488,82828522,1577,1578,1577,1577,0,0,0,0,0,0,0,0,0,0
1683032021.49980497,82928482,1578,1578,1578,1579,0,0,0,0,0,0,0,0,0,0
1683032021.59976482,83028442,1578,1578,1578,1578,0,0,0,0,0,0,0,0,0,0
1683032021.69972491,83128402,1579,1578,1579,1579,0,0,0,0,0,0,0,0,0,0
1683032021.79968500,83228362,1578,1578,1579,1578,0,0,0,0,0,0,0,0,0,0
1683032021.89964485,83328322,1580,1579,1580,1580,0,0,0,0,0,0,0,0,0,0
1683032021.99960494,83428282,1578,1578,1578,1579,0,0,0,0,0,0,0,0,0,0
1683032022.09956503,83528242,1579,1579,1579,1580,0,0,0,0,0,0,0,0,0,0
1683032022.19952488,83628202,1578,1578,1578,1578,0,0,0,0,0,0,0,0,0,0
1683032022.29948497,83728162,1579,1579,1579,1579,0,0,0,0,0,0,0,0,0,0
1683032022.40027785,83828955,1579,1580,1580,1579,0,0,0,0,0,0,0,0,0,0
1683032022.50023794,83928915,1580,1580,1580,1580,0,0,0,0,0,0,0,0,0,0
1683032022.60019803,84028875,1580,1580,1580,1579,0,0,0,0,0,0,0,0,0,0
1683032022.70015788,84128835,1580,1580,1580,1580,0,0,0,0,0,0,0,0,0,0
1683032022.80011797,84228795,1581,1580,1580,1581,0,0,0,0,0,0,0,0,0,0
1683032022.90007782,84328755,1581,1581,1580,1581,0,0,0,0,0,0,0,0,0,0
1683032023.00003791,84428715,1579,1579,1579,1579,0,0,0,0,0,0,0,0,0,0
1683032023.09999800,84528675,1581,1580,1580,1580,0,0,0,0,0,0,0,0,0,0
1683032023.19995785,84628635,1581,1580,1581,1580,0,0,0,0,0,0,0,0,0,0
1683032023.29991794,84728595,1580,1580,1581,1581,0,0,0,0,0,0,0,0,0,0
1683032023.39987803,84828555,1581,1581,1581,1581,0,0,0,0,0,0,0,0,0,0
1683032023.49983788,84928515,1580,1580,1580,1580,0,0,0,0,0,0,0,0,0,0
1683032023.59979796,85028475,1582,1582,1582,1582,0,0,0,0,0,0,0,0,0,0
1683032023.69975781,85128435,1580,1580,1581,1581,0,0,0,0,0,0,0,0,0,0
1683032023.79971790,85228395,1581,1581,1581,1581,0,0,0,0,0,0,0,0,0,0
1683032023.89967799,85328355,1581,1581,1581,1581,0,0,0,0,0,0,0,0,0,0
1683032023.99963784,85428315,1581,1581,1581,1581,0,0,0,0,0,0,0,0,0,0
1683032024.09959793,85528275,1581,1581,1581,1581,0,0,0,0,0,0,0,0,0,0
1683032024.19955802,85628235,1581,1581,1581,1581,0,0,0,0,0,0,0,0,0,0
1683032024.29951787,85728195,1582,1582,1582,1582,0,0,0,0,0,0,0,0,0,0
1683032024.39947796,85828155,1580,1581,1586,1576,0,0,0,0,0,0,0,0,0,0
1683032024.50027084,85928948,1580,1582,1587,1572,0,0,0,0,0,0,0,0,0,0
1683032024.60023093,86028908,1579,1582,1580,1574,0,0,0,0,0,0,0,0,0,0
1683032024.70019102,86128868,1577,1580,1570,1572,0,0,0,0,0,0,0,0,0,0
1683032024.80015087,86228828,1576,1579,1563,1569,0,0,0,0,0,0,0,0,0,0
1683032024.90011096,86328788,1577,1578,1557,1564,0,0,0,0,0,0,0,0,0,0
1683032025.00007081,86428748,1579,1578,1556,1560,0,0,0,0,0,0,0,0,0,0
1683032025.10003090,86528708,1580,1578,1555,1556,0,0,0,0,0,0,0,0,0,0
1683032025.19999099,86628668,1579,1578,1555,1553,0,0,0,0,0,0,0,0,0,0
1683032025.29995084,86728628,1578,1578,1555,1553,0,0,0,0,0,0,0,0,0,0
1683032025.39991093,86828588,1577,1578,1555,1553,0,0,0,0,0,0,0,0,0,0
1683032025.49987102,86928548,1576,1577,1555,1553,0,0,0,0,0,0,0,0,0,0
1683032025.59983087,87028508,1575,1577,1554,1554,0,0,0,0,0,0,0,0,0,0
1683032025.69979095,87128468,1574,1576,1552,1552,0,0,0,0,0,0,0,0,0,0
1683032025.79975080,87228428,1575,1576,1552,1552,0,0,0,0,0,0,0,0,0,0
1683032025.89971089,87328388,1575,1576,1549,1549,0,0,0,0,0,0,0,0,0,0
1683032025.99967098,87428348,1577,1579,1548,1548,0,0,0,0,0,0,0,0,0,0
1683032026.09963083,87528308,1580,1581,1546,1546,0,0,0,0,0,0,0,0,0,0
1683032026.19959092,87628268,1582,1584,1543,1543,0,0,0,0,0,0,0,0,0,0
1683032026.29955101,87728228,1586,1587,1541,1541,0,0,0,0,0,0,0,0,0,0
1683032026.39951086,87828188,1589,1589,1538,1538,0,0,0,0,0,0,0,0,0,0
1683032026.50030398,87928981,1592,1592,1536,1536,0,0,0,0,0,0,0,0,0,0
1683032026.60026383,88028941,1595,1595,1535,1536,0,0,0,0,0,0,0,0,0,0
1683032026.70022392,88128901,1595,1594,1534,1536,0,0,0,0,0,0,0,0,0,0
1683032026.80018401,88228861,1594,1595,1536,1538,0,0,0,0,0,0,0,0,0,0
1683032026.90014386,88328821,1593,1593,1539,1541,0,0,0,0,0,0,0,0,0,0
1683032027.00010395,88428781,1590,1589,1543,1547,0,0,0,0,0,0,0,0,0,0
1683032027.10006380,88528741,1585,1582,1551,1554,0,0,0,0,0,0,0,0,0,0
1683032027.20002389,88628701,1577,1574,1561,1564,0,0,0,0,0,0,0,0,0,0
1683032027.29998398,88728661,1568,1563,1572,1575,0,0,0,0,0,0,0,0,0,0
1683032027.39994383,88828621,1557,1553,1585,1586,0,0,0,0,0,0,0,0,0,0
1683032027.49990392,88928581,1544,1541,1595,1595,0,0,0,0,0,0,0,0,0,0
1683032027.59986401,89028541,1536,1535,1606,1605,0,0,0,0,0,0,0,0,0,0
1683032027.69982386,89128501,1530,1530,1611,1610,0,0,0,0,0,0,0,0,0,0
1683032027.79978395,89228461,1528,1529,1614,1613,0,0,0,0,0,0,0,0,0,0
1683032027.89974403,89328421,1530,1533,1614,1613,0,0,0,0,0,0,0,0,0,0
1683032027.99970388,89428381,1535,1537,1609,1609,0,0,0,0,0,0,0,0,0,0
1683032028.09966397,89528341,1543,1545,1604,1605,0,0,0,0,0,0,0,0,0,0
1683032028.19962382,89628301,1552,1553,1598,1598,0,0,0,0,0,0,0,0,0,0
1683032028.29958391,89728261,1561,1561,1590,1589,0,0,0,0,0,0,0,0,0,0
1683032028.39954400,89828221,1568,1568,1582,1581,0,0,0,0,0,0,0,0,0,0
1683032028.49950385,89928181,1576,1575,1577,1575,0,0,0,0,0,0,0,0,0,0
1683032028.60029697,90028974,1581,1581,1571,1571,0,0,0,0,0,0,0,0,0,0
1683032028.70025682,90128934,1585,1584,1567,1567,0,0,0,0,0,0,0,0,0,0
1683032028.80021691,90228894,1588,1587,1566,1567,0,0,0,0,0,0,0,0,0,0
1683032028.90017700,90328854,1587,1585,1565,1566,0,0,0,0,0,0,0,0,0,0
1683032029.00013685,90428814,1586,1584,1567,1567,0,0,0,0,0,0,0,0,0,0
1683032029.10009694,90528774,1584,1584,1570,1570,0,0,0,0,0,0,0,0,0,0
1683032029.20005703,90628734,1581,1581,1573,1573,0,0,0,0,0,0,0,0,0,0
1683032029.30001688,90728694,1578,1579,1576,1576,0,0,0,0,0,0,0,0,0,0
1683032029.39997697,90828654,1576,1576,1579,1579,0,0,0,0,0,0,0,0,0,0
1683032029.49993682,90928614,1486,1533,1492,1540,0,0,0,0,0,0,0,0,0,0
1683032029.59989691,91028574,1553,1556,1561,1566,0,0,0,0,0,0,0,0,0,0
1683032029.69985700,91128534,1605,1569,1616,1580,0,0,0,0,0,0,0,0,0,0
1683032029.79981685,91228494,1644,1594,1655,1605,0,0,0,0,0,0,0,0,0,0
1683032029.89977694,91328454,1661,1615,1671,1623,0,0,0,0,0,0,0,0,0,0
1683032029.99973702,91428414,1653,1625,1659,1627,0,0,0,0,0,0,0,0,0,0
1683032030.09969687,91528374,1626,1623,1629,1621,0,0,0,0,0,0,0,0,0,0
1683032030.19965696,91628334,1597,1614,1599,1614,0,0,0,0,0,0,0,0,0,0
1683032030.29961681,91728294,1575,1601,1582,1610,0,0,0,0,0,0,0,0,0,0
1683032030.39957690,91828254,1563,1587,1578,1607,0,0,0,0,0,0,0,0,0,0
1683032030.49953699,91928214,1562,1577,1581,1603,0,0,0,0,0,0,0,0,0,0
1683032030.59949684,92028174,1565,1570,1584,1594,0,0,0,0,0,0,0,0,0,0
1683032030.70028996,92128967,1570,1569,1586,1584,0,0,0,0,0,0,0,0,0,0
1683032030.80024981,92228927,1577,1572,1585,1576,0,0,0,0,0,0,0,0,0,0
1683032030.90020990,92328887,1584,1579,1583,1574,0,0,0,0,0,0,0,0,0,0
1683032031.00016999,92428847,1586,1583,1577,1569,0,0,0,0,0,0,0,0,0,0
1683032031.10012984,92528807,1586,1586,1571,1568,0,0,0,0,0,0,0,0,0,0
1683032031.20008993,92628767,1585,1587,1566,1567,0,0,0,0,0,0,0,0,0,0
1683032031.30005002,92728727,1583,1586,1563,1567,0,0,0,0,0,0,0,0,0,0
1683032031.40000987,92828687,1582,1584,1563,1567,0,0,0,0,0,0,0,0,0,0
1683032031.49996996,92928647,1580,1581,1563,1566,0,0,0,0,0,0,0,0,0,0
1683032031.59992981,93028607,1578,1578,1565,1567,0,0,0,0,0,0,0,0,0,0
1683032031.69988990,93128567,1577,1577,1567,1568,0,0,0,0,0,0,0,0,0,0
1683032031.79984999,93228527,1576,1576,1570,1570,0,0,0,0,0,0,0,0,0,0
1683032031.89980984,93328487,1576,1575,1573,1572,0,0,0,0,0,0,0,0,0,0
1683032031.99976993,93428447,1574,1574,1574,1573,0,0,0,0,0,0,0,0,0,0
1683032032.09973001,93528407,1575,1575,1576,1577,0,0,0,0,0,0,0,0,0,0
1683032032.19968987,93628367,1574,1574,1577,1577,0,0,0,0,0,0,0,0,0,0
1683032032.29964995,93728327,1573,1573,1577,1578,0,0,0,0,0,0,0,0,0,0
1683032032.39960980,93828287,1574,1575,1584,1574,0,0,0,0,0,0,0,0,0,0
1683032032.49956989,93928247,1574,1576,1585,1570,0,0,0,0,0,0,0,0,0,0
1683032032.59952998,94028207,1574,1577,1578,1571,0,0,0,0,0,0,0,0,0,0
1683032032.69948983,94128167,1573,1575,1569,1570,0,0,0,0,0,0,0,0,0,0
1683032032.80028296,94228960,1574,1576,1562,1568,0,0,0,0,0,0,0,0,0,0
1683032032.90024281,94328920,1574,1574,1556,1564,0,0,0,0,0,0,0,0,0,0
1683032033.00020289,94428880,1575,1574,1554,1559,0,0,0,0,0,0,0,0,0,0
1683032033.10016298,94528840,1576,1574,1552,1555,0,0,0,0,0,0,0,0,0,0
1683032033.20012283,94628800,1577,1576,1553,1552,0,0,0,0,0,0,0,0,0,0
1683032033.30008292,94728760,1577,1576,1552,1550,0,0,0,0,0,0,0,0,0,0
1683032033.40004301,94828720,1576,1577,1552,1550,0,0,0,0,0,0,0,0,0,0
1683032033.50000286,94928680,1577,1577,1552,1551,0,0,0,0,0,0,0,0,0,0
1683032033.59996295,95028640,1576,1578,1552,1551,0,0,0,0,0,0,0,0,0,0
1683032033.69992280,95128600,1576,1578,1551,1551,0,0,0,0,0,0,0,0,0,0
1683032033.79988289,95228560,1576,1577,1550,1550,0,0,0,0,0,0,0,0,0,0
1683032033.89984298,95328520,1577,1578,1549,1549,0,0,0,0,0,0,0,0,0,0
1683032033.99980283,95428480,1578,1580,1548,1549,0,0,0,0,0,0,0,0,0,0
1683032034.09976292,95528440,1580,1581,1547,1547,0,0,0,0,0,0,0,0,0,0
1683032034.19972301,95628400,1582,1583,1546,1546,0,0,0,0,0,0,0,0,0,0
1683032034.29968286,95728360,1584,1584,1544,1544,0,0,0,0,0,0,0,0,0,0
1683032034.39964294,95828320,1586,1587,1544,1544,0,0,0,0,0,0,0,0,0,0
1683032034.49960303,95928280,1587,1587,1542,1543,0,0,0,0,0,0,0,0,0,0
1683032034.59956288,96028240,1588,1588,1542,1543,0,0,0,0,0,0,0,0,0,0
1683032034.69952297,96128200,1588,1587,1543,1544,0,0,0,0,0,0,0,0,0,0
1683032034.79948282,96228160,1587,1586,1545,1547,0,0,0,0,0,0,0,0,0,0
1683032034.90027595,96328953,1584,1584,1547,1550,0,0,0,0,0,0,0,0,0,0
1683032035.00023603,96428913,1581,1581,1551,1554,0,0,0,0,0,0,0,0,0,0
1683032035.10019588,96528873,1577,1576,1556,1559,0,0,0,0,0,0,0,0,0,0
1683032035.20015597,96628833,1572,1570,1563,1565,0,0,0,0,0,0,0,0,0,0
1683032035.30011582,96728793,1565,1563,1571,1573,0,0,0,0,0,0,0,0,0,0
1683032035.40007591,96828753,1558,1557,1579,1580,0,0,0,0,0,0,0,0,0,0
1683032035.50003600,96928713,1552,1550,1587,1586,0,0,0,0,0,0,0,0,0,0
1683032035.59999585,97028673,1546,1545,1593,1592,0,0,0,0,0,0,0,0,0,0
1683032035.69995594,97128633,1543,1544,1599,1598,0,0,0,0,0,0,0,0,0,0
1683032035.79991603,97228593,1542,1543,1602,1601,0,0,0,0,0,0,0,0,0,0
1683032035.89987588,97328553,1542,1543,1603,1602,0,0,0,0,0,0,0,0,0,0
1683032035.99983597,97428513,1545,1547,1603,1602,0,0,0,0,0,0,0,0,0,0
1683032036.09979582,97528473,1549,1550,1599,1599,0,0,0,0,0,0,0,0,0,0
1683032036.19975591,97628433,1554,1555,1595,1596,0,0,0,0,0,0,0,0,0,0
1683032036.29971600,97728393,1559,1559,1590,1590,0,0,0,0,0,0,0,0,0,0
1683032036.39967585,97828353,1565,1565,1586,1585,0,0,0,0,0,0,0,0,0,0
1683032036.49963593,97928313,1570,1569,1581,1580,0,0,0,0,0,0,0,0,0,0
1683032036.59959602,98028273,1575,1574,1577,1576,0,0,0,0,0,0,0,0,0,0
1683032036.69955587,98128233,1577,1576,1572,1573,0,0,0,0,0,0,0,0,0,0
1683032036.79951596,98228193,1580,1579,1570,1571,0,0,0,0,0,0,0,0,0,0
1683032036.90030885,98328986,1583,1581,1570,1570,0,0,0,0,0,0,0,0,0,0
1683032037.00026894,98428946,1583,1582,1570,1570,0,0,0,0,0,0,0,0,0,0
1683032037.10022902,98528906,1582,1582,1570,1571,0,0,0,0,0,0,0,0,0,0
1683032037.20018888,98628866,1581,1580,1571,1571,0,0,0,0,0,0,0,0,0,0
1683032037.30014896,98728826,1580,1580,1573,1574,0,0,0,0,0,0,0,0,0,0
1683032037.40010881,98828786,1579,1579,1576,1576,0,0,0,0,0,0,0,0,0,0
1683032037.50006890,98928746,1576,1577,1578,1577,0,0,0,0,0,0,0,0,0,0
1683032037.60002899,99028706,1576,1577,1580,1580,0,0,0,0,0,0,0,0,0,0
1683032037.69998884,99128666,1575,1575,1581,1581,0,0,0,0,0,0,0,0,0,0
1683032037.79994893,99228626,1575,1575,1582,1582,0,0,0,0,0,0,0,0,0,0
1683032037.89990902,99328586,1575,1575,1583,1582,0,0,0,0,0,0,0,0,0,0
1683032037.99986887,99428546,1575,1576,1583,1583,0,0,0,0,0,0,0,0,0,0
1683032038.09982896,99528506,1576,1577,1583,1583,0,0,0,0,0,0,0,0,0,0
1683032038.19978881,99628466,1577,1577,1582,1582,0,0,0,0,0,0,0,0,0,0
1683032038.29974890,99728426,1578,1578,1581,1581,0,0,0,0,0,0,0,0,0,0
1683032038.39970899,99828386,1579,1579,1580,1580,0,0,0,0,0,0,0,0,0,0
1683032038.49966884,99928346,1580,1580,1580,1580,0,0,0,0,0,0,0,0,0,0
1683032038.59962893,100028306,1580,1580,1579,1579,0,0,0,0,0,0,0,0,0,0
1683032038.69958901,100128266,1581,1581,1579,1579,0,0,0,0,0,0,0,0,0,0
1683032038.79954886,100228226,1582,1581,1579,1579,0,0,0,0,0,0,0,0,0,0
1683032038.89950895,100328186,1582,1581,1578,1578,0,0,0,0,0,0,0,0,0,0
1683032039.00030184,100428979,1582,1582,1579,1579,0,0,0,0,0,0,0,0,0,0
1683032039.10026193,100528939,1581,1582,1579,1580,0,0,0,0,0,0,0,0,0,0
1683032039.20022202,100628899,1581,1581,1579,1580,0,0,0,0,0,0,0,0,0,0
1683032039.30018187,100728859,1581,1580,1579,1579,0,0,0,0,0,0,0,0,0,0
1683032039.40014195,100828819,1581,1581,1580,1580,0,0,0,0,0,0,0,0,0,0
1683032039.50010180,100928779,1580,1580,1580,1580,0,0,0,0,0,0,0,0,0,0
1683032039.60006189,101028739,1579,1580,1580,1580,0,0,0,0,0,0,0,0,0,0
1683032039.70002198,101128699,1580,1581,1581,1582,0,0,0,0,0,0,0,0,0,0
1683032039.79998183,101228659,1580,1580,1581,1581,0,0,0,0,0,0,0,0,0,0
1683032039.89994192,101328619,1580,1580,1582,1581,0,0,0,0,0,0,0,0,0,0
1683032039.99990201,101428579,1580,1580,1581,1582,0,0,0,0,0,0,0,0,0,0
1683032040.09986186,101528539,1580,1580,1581,1581,0,0,0,0,0,0,0,0,0,0
1683032040.19982195,101628499,1581,1581,1582,1581,0,0,0,0,0,0,0,0,0,0
1683032040.29978180,101728459,1580,1580,1580,1581,0,0,0,0,0,0,0,0,0,0
1683032040.39974189,101828419,1581,1581,1581,1581,0,0,0,0,0,0,0,0,0,0
1683032040.49970198,101928379,1582,1582,1581,1582,0,0,0,0,0,0,0,0,0,0
1683032040.59966183,102028339,1582,1582,1582,1582,0,0,0,0,0,0,0,0,0,0
1683032040.69962192,102128299,1582,1583,1582,1582,0,0,0,0,0,0,0,0,0,0
1683032040.79958200,102228259,1582,1582,1581,1581,0,0,0,0,0,0,0,0,0,0
1683032040.89954185,102328219,1582,1583,1585,1578,0,0,0,0,0,0,0,0,0,0
1683032040.99950194,102428179,1582,1584,1588,1574,0,0,0,0,0,0,0,0,0,0
1683032041.10029483,102528972,1580,1583,1582,1573,0,0,0,0,0,0,0,0,0,0
1683032041.20025492,102628932,1579,1582,1574,1573,0,0,0,0,0,0,0,0,0,0
1683032041.30021501,102728892,1578,1580,1566,1571,0,0,0,0,0,0,0,0,0,0
1683032041.40017486,102828852,1577,1579,1559,1567,0,0,0,0,0,0,0,0,0,0
1683032041.50013494,102928812,1577,1577,1555,1561,0,0,0,0,0,0,0,0,0,0
1683032041.60009503,103028772,1578,1577,1554,1557,0,0,0,0,0,0,0,0,0,0
1683032041.70005488,103128732,1579,1577,1554,1555,0,0,0,0,0,0,0,0,0,0
1683032041.80001497,103228692,1579,1578,1554,1553,0,0,0,0,0,0,0,0,0,0
1683032041.89997482,103328652,1579,1578,1555,1553,0,0,0,0,0,0,0,0,0,0
1683032041.99993491,103428612,1578,1578,1556,1553,0,0,0,0,0,0,0,0,0,0
1683032042.09989500,103528572,1577,1578,1556,1554,0,0,0,0,0,0,0,0,0,0
1683032042.19985485,103628532,1576,1578,1555,1554,0,0,0,0,0,0,0,0,0,0
1683032042.29981494,103728492,1576,1577,1553,1553,0,0,0,0,0,0,0,0,0,0
1683032042.39977503,103828452,1577,1578,1553,1553,0,0,0,0,0,0,0,0,0,0
1683032042.49973488,103928412,1578,1579,1550,1551,0,0,0,0,0,0,0,0,0,0
1683032042.59969497,104028372,1579,1581,1549,1549,0,0,0,0,0,0,0,0,0,0
1683032042.69965482,104128332,1581,1582,1547,1547,0,0,0,0,0,0,0,0,0,0
1683032042.79961491,104228292,1583,1584,1544,1544,0,0,0,0,0,0,0,0,0,0
1683032042.89957500,104328252,1586,1586,1542,1542,0,0,0,0,0,0,0,0,0,0
1683032042.99953485,104428212,1588,1588,1540,1539,0,0,0,0,0,0,0,0,0,0
1683032043.09949493,104528172,1590,1590,1538,1539,0,0,0,0,0,0,0,0,0,0
1683032043.20028782,104628965,1592,1592,1537,1538,0,0,0,0,0,0,0,0,0,0
1683032043.30024791,104728925,1594,1594,1538,1540,0,0,0,0,0,0,0,0,0,0
1683032043.40020800,104828885,1593,1593,1539,1542,0,0,0,0,0,0,0,0,0,0
1683032043.50016785,104928845,1592,1590,1542,1545,0,0,0,0,0,0,0,0,0,0
1683032043.60012794,105028805,1588,1585,1548,1551,0,0,0,0,0,0,0,0,0,0
1683032043.70008802,105128765,1582,1578,1556,1559,0,0,0,0,0,0,0,0,0,0
1683032043.80004787,105228725,1574,1570,1567,1569,0,0,0,0,0,0,0,0,0,0
1683032043.90000796,105328685,1564,1560,1578,1580,0,0,0,0,0,0,0,0,0,0
1683032043.99996781,105428645,1553,1551,1589,1590,0,0,0,0,0,0,0,0,0,0
1683032044.09992790,105528605,1544,1544,1599,1599,0,0,0,0,0,0,0,0,0,0
1683032044.19988799,105628565,1538,1540,1607,1606,0,0,0,0,0,0,0,0,0,0
1683032044.29984784,105728525,1534,1537,1612,1610,0,0,0,0,0,0,0,0,0,0
1683032044.39980793,105828485,1534,1537,1614,1611,0,0,0,0,0,0,0,0,0,0
1683032044.49976802,105928445,1537,1539,1613,1611,0,0,0,0,0,0,0,0,0,0
1683032044.59972787,106028405,1542,1544,1609,1607,0,0,0,0,0,0,0,0,0,0
1683032044.69968796,106128365,1548,1549,1603,1602,0,0,0,0,0,0,0,0,0,0
1683032044.79964781,106228325,1555,1556,1596,1596,0,0,0,0,0,0,0,0,0,0
1683032044.89960790,106328285,1563,1563,1589,1589,0,0,0,0,0,0,0,0,0,0
1683032044.99956799,106428245,1570,1569,1582,1582,0,0,0,0,0,0,0,0,0,0
1683032045.09952784,106528205,1576,1574,1576,1576,0,0,0,0,0,0,0,0,0,0
1683032045.19948792,106628165,1581,1579,1571,1572,0,0,0,0,0,0,0,0,0,0
1683032045.30028081,106728958,1585,1583,1568,1569,0,0,0,0,0,0,0,0,0,0
1683032045.40024090,106828918,1586,1584,1565,1566,0,0,0,0,0,0,0,0,0,0
1683032045.50020099,106928878,1586,1585,1565,1567,0,0,0,0,0,0,0,0,0,0
1683032045.60016084,107028838,1585,1584,1567,1567,0,0,0,0,0,0,0,0,0,0
1683032045.70012093,107128798,1583,1582,1569,1569,0,0,0,0,0,0,0,0,0,0
1683032045.80008101,107228758,1581,1581,1572,1572,0,0,0,0,0,0,0,0,0,0
1683032045.90004086,107328718,1578,1579,1574,1574,0,0,0,0,0,0,0,0,0,0
1683032046.00000095,107428678,1576,1577,1578,1577,0,0,0,0,0,0,0,0,0,0
1683032046.09996080,107528638,1575,1576,1581,1580,0,0,0,0,0,0,0,0,0,0
1683032046.19992089,107628598,1574,1575,1583,1582,0,0,0,0,0,0,0,0,0,0
1683032046.29988098,107728558,1573,1574,1584,1583,0,0,0,0,0,0,0,0,0,0
1683032046.39984083,107828518,1574,1575,1585,1586,0,0,0,0,0,0,0,0,0,0
1683032046.49980092,107928478,1573,1573,1584,1584,0,0,0,0,0,0,0,0,0,0
1683032046.59976101,108028438,1574,1574,1583,1583,0,0,0,0,0,0,0,0,0,0
1683032046.69972086,108128398,1576,1576,1583,1583,0,0,0,0,0,0,0,0,0,0
1683032046.79968095,108228358,1576,1577,1582,1582,0,0,0,0,0,0,0,0,0,0
1683032046.89964104,108328318,1578,1578,1581,1581,0,0,0,0,0,0,0,0,0,0
1683032046.99960089,108428278,1579,1579,1580,1580,0,0,0,0,0,0,0,0,0,0
1683032047.09956098,108528238,1580,1580,1578,1578,0,0,0,0,0,0,0,0,0,0
1683032047.19952083,108628198,1581,1581,1578,1578,0,0,0,0,0,0,0,0,0,0
1683032047.29948092,108728158,1582,1582,1578,1578,0,0,0,0,0,0,0,0,0,0
1683032047.40027380,108828951,1583,1582,1578,1578,0,0,0,0,0,0,0,0,0,0
1683032047.50023389,108928911,1583,1582,1578,1578,0,0,0,0,0,0,0,0,0,0
1683032047.60019398,109028871,1582,1581,1578,1578,0,0,0,0,0,0,0,0,0,0
1683032047.70015383,109128831,1581,1580,1578,1578,0,0,0,0,0,0,0,0,0,0
1683032047.80011392,109228791,1580,1580,1578,1578,0,0,0,0,0,0,0,0,0,0
1683032047.90007401,109328751,1580,1580,1579,1580,0,0,0,0,0,0,0,0,0,0
1683032048.00003386,109428711,1580,1581,1580,1580,0,0,0,0,0,0,0,0,0,0
1683032048.09999394,109528671,1579,1579,1580,1580,0,0,0,0,0,0,0,0,0,0
1683032048.19995403,109628631,1579,1579,1581,1580,0,0,0,0,0,0,0,0,0,0
1683032048.29991388,109728591,1579,1579,1581,1581,0,0,0,0,0,0,0,0,0,0
1683032048.39987397,109828551,1579,1579,1581,1581,0,0,0,0,0,0,0,0,0,0
1683032048.49983382,109928511,1579,1579,1581,1581,0,0,0,0,0,0,0,0,0,0
1683032048.59979391,110028471,1579,1579,1581,1580,0,0,0,0,0,0,0,0,0,0
1683032048.69975400,110128431,1579,1579,1580,1580,0,0,0,0,0,0,0,0,0,0
1683032048.79971385,110228391,1580,1580,1580,1581,0,0,0,0,0,0,0,0,0,0
1683032048.89967394,110328351,1581,1582,1586,1574,0,0,0,0,0,0,0,0,0,0
1683032048.99963403,110428311,1579,1579,1584,1571,0,0,0,0,0,0,0,0,0,0
1683032049.09959388,110528271,1578,1578,1579,1574,0,0,0,0,0,0,0,0,0,0
1683032049.19955397,110628231,1575,1574,1572,1574,0,0,0,0,0,0,0,0,0,0
1683032049.29951382,110728191,1571,1570,1566,1573,0,0,0,0,0,0,0,0,0,0
1683032049.40030694,110828984,1568,1568,1564,1571,0,0,0,0,0,0,0,0,0,0
1683032049.50026703,110928944,1567,1567,1564,1569,0,0,0,0,0,0,0,0,0,0
1683032049.60022688,111028904,1566,1566,1564,1566,0,0,0,0,0,0,0,0,0,0
1683032049.70018697,111128864,1566,1566,1566,1565,0,0,0,0,0,0,0,0,0,0
1683032049.80014682,111228824,1565,1565,1566,1564,0,0,0,0,0,0,0,0,0,0
1683032049.90010691,111328784,1565,1565,1567,1564,0,0,0,0,0,0,0,0,0,0
1683032050.00006700,111428744,1565,1565,1566,1564,0,0,0,0,0,0,0,0,0,0
1683032050.10002685,111528704,1564,1563,1565,1563,0,0,0,0,0,0,0,0,0,0
1683032050.19998693,111628664,1562,1562,1563,1563,0,0,0,0,0,0,0,0,0,0
1683032050.29994702,111728624,1562,1562,1562,1563,0,0,0,0,0,0,0,0,0,0
1683032050.39990687,111828584,1561,1561,1562,1562,0,0,0,0,0,0,0,0,0,0
1683032050.49986696,111928544,1560,1560,1560,1561,0,0,0,0,0,0,0,0,0,0
1683032050.59982681,112028504,1560,1560,1561,1560,0,0,0,0,0,0,0,0,0,0
1683032050.69978690,112128464,1560,1560,1560,1559,0,0,0,0,0,0,0,0,0,0
1683032050.79974699,112228424,1560,1560,1560,1559,0,0,0,0,0,0,0,0,0,0
1683032050.89970684,112328384,1559,1559,1560,1559,0,0,0,0,0,0,0,0,0,0
1683032050.99966693,112428344,1559,1559,1560,1558,0,0,0,0,0,0,0,0,0,0
1683032051.09962702,112528304,1559,1558,1559,1558,0,0,0,0,0,0,0,0,0,0
1683032051.19958687,112628264,1559,1560,1560,1559,0,0,0,0,0,0,0,0,0,0
1683032051.29954696,112728224,1559,1559,1560,1559,0,0,0,0,0,0,0,0,0,0
1683032051.39950681,112828184,1558,1558,1559,1557,0,0,0,0,0,0,0,0,0,0
1683032051.50029993,112928977,1559,1559,1560,1558,0,0,0,0,0,0,0,0,0,0
1683032051.60026002,113028937,1559,1558,1560,1556,0,0,0,0,0,0,0,0,0,0
1683032051.70021987,113128897,1559,1559,1559,1559,0,0,0,0,0,0,0,0,0,0
1683032051.80017996,113228857,1560,1560,1558,1563,0,0,0,0,0,0,0,0,0,0
1683032051.90013981,113328817,1560,1561,1557,1564,0,0,0,0,0,0,0,0,0,0
1683032052.00009990,113428777,1561,1561,1558,1564,0,0,0,0,0,0,0,0,0,0
1683032052.10005999,113528737,1562,1562,1559,1564,0,0,0,0,0,0,0,0,0,0
1683032052.20001984,113628697,1562,1562,1561,1562,0,0,0,0,0,0,0,0,0,0
1683032052.29997993,113728657,1562,1561,1562,1561,0,0,0,0,0,0,0,0,0,0
1683032052.39994001,113828617,1560,1559,1560,1559,0,0,0,0,0,0,0,0,0,0
1683032052.49989986,113928577,1556,1556,1556,1556,0,0,0,0,0,0,0,0,0,0
1683032052.59985995,114028537,1550,1550,1550,1550,0,0,0,0,0,0,0,0,0,0
1683032052.69981980,114128497,1545,1544,1545,1545,0,0,0,0,0,0,0,0,0,0
1683032052.79977989,114228457,1538,1538,1538,1538,0,0,0,0,0,0,0,0,0,0
1683032052.89973998,114328417,1531,1531,1531,1531,0,0,0,0,0,0,0,0,0,0
1683032052.99969983,114428377,1523,1523,1523,1524,0,0,0,0,0,0,0,0,0,0
1683032053.09965992,114528337,1520,1520,1520,1520,0,0,0,0,0,0,0,0,0,0
1683032053.19962001,114628297,1518,1520,1518,1520,0,0,0,0,0,0,0,0,0,0
1683032053.29957986,114728257,1519,1519,1518,1520,0,0,0,0,0,0,0,0,0,0
1683032053.39953995,114828217,1521,1522,1521,1522,0,0,0,0,0,0,0,0,0,0
1683032053.49950004,114928177,1525,1525,1524,1525,0,0,0,0,0,0,0,0,0,0
1683032053.60029292,115028970,1530,1529,1530,1530,0,0,0,0,0,0,0,0,0,0
1683032053.70025301,115128930,1535,1534,1535,1534,0,0,0,0,0,0,0,0,0,0
1683032053.80021286,115228890,1538,1537,1538,1537,0,0,0,0,0,0,0,0,0,0
1683032053.90017295,115328850,1541,1541,1541,1541,0,0,0,0,0,0,0,0,0,0
1683032054.00013280,115428810,1543,1542,1543,1542,0,0,0,0,0,0,0,0,0,0
1683032054.10009289,115528770,1545,1544,1545,1544,0,0,0,0,0,0,0,0,0,0
1683032054.20005298,115628730,1546,1545,1546,1545,0,0,0,0,0,0,0,0,0,0
1683032054.30001283,115728690,1546,1546,1546,1546,0,0,0,0,0,0,0,0,0,0
1683032054.39997292,115828650,1546,1546,1546,1546,0,0,0,0,0,0,0,0,0,0
1683032054.49993300,115928610,1546,1547,1546,1546,0,0,0,0,0,0,0,0,0,0
1683032054.59989285,116028570,1546,1546,1546,1546,0,0,0,0,0,0,0,0,0,0
1683032054.69985294,116128530,1547,1547,1547,1547,0,0,0,0,0,0,0,0,0,0
1683032054.79981303,116228490,1546,1546,1546,1546,0,0,0,0,0,0,0,0,0,0
1683032054.89977288,116328450,1545,1546,1546,1546,0,0,0,0,0,0,0,0,0,0
1683032054.99973297,116428410,1544,1545,1545,1544,0,0,0,0,0,0,0,0,0,0
1683032055.09969282,116528370,1544,1544,1544,1544,0,0,0,0,0,0,0,0,0,0
1683032055.19965291,116628330,1545,1545,1545,1546,0,0,0,0,0,0,0,0,0,0
1683032055.29961300,116728290,1545,1545,1545,1545,0,0,0,0,0,0,0,0,0,0
1683032055.39957285,116828250,1546,1545,1546,1546,0,0,0,0,0,0,0,0,0,0
1683032055.49953294,116928210,1544,1544,1544,1544,0,0,0,0,0,0,0,0,0,0
1683032055.59949303,117028170,1544,1545,1544,1544,0,0,0,0,0,0,0,0,0,0
1683032055.70028591,117128963,1545,1545,1545,1544,0,0,0,0,0,0,0,0,0,0
1683032055.80024600,117228923,1544,1544,1544,1544,0,0,0,0,0,0,0,0,0,0
1683032055.90020585,117328883,1545,1544,1544,1545,0,0,0,0,0,0,0,0,0,0
1683032056.00016594,117428843,1544,1544,1544,1544,0,0,0,0,0,0,0,0,0,0
1683032056.10012603,117528803,1544,1544,1544,1543,0,0,0,0,0,0,0,0,0,0
1683032056.20008588,117628763,1544,1544,1544,1545,0,0,0,0,0,0,0,0,0,0
1683032056.30004597,117728723,1544,1544,1544,1544,0,0,0,0,0,0,0,0,0,0
1683032056.40000582,117828683,1544,1543,1544,1543,0,0,0,0,0,0,0,0,0,0
1683032056.49996591,117928643,1544,1544,1544,1545,0,0,0,0,0,0,0,0,0,0
1683032056.59992599,118028603,1545,1545,1544,1545,0,0,0,0,0,0,0,0,0,0
1683032056.69988585,118128563,1544,1544,1543,1544,0,0,0,0,0,0,0,0,0,0
1683032056.79984593,118228523,1543,1544,1543,1543,0,0,0,0,0,0,0,0,0,0
1683032056.89980602,118328483,1543,1543,1543,1543,0,0,0,0,0,0,0,0,0,0
1683032056.99976587,118428443,1544,1544,1544,1544,0,0,0,0,0,0,0,0,0,0
1683032057.09972596,118528403,1544,1544,1544,1544,0,0,0,0,0,0,0,0,0,0
1683032057.19968581,118628363,1545,1545,1545,1545,0,0,0,0,0,0,0,0,0,0
1683032057.29964590,118728323,1544,1544,1544,1544,0,0,0,0,0,0,0,0,0,0
1683032057.39960599,118828283,1545,1544,1545,1544,0,0,0,0,0,0,0,0,0,0
1683032057.49956584,118928243,1544,1543,1543,1543,0,0,0,0,0,0,0,0,0,0
1683032057.59952593,119028203,1544,1544,1544,1545,0,0,0,0,0,0,0,0,0,0
1683032057.69948602,119128163,1545,1545,1545,1545,0,0,0,0,0,0,0,0,0,0
1683032057.80027890,119228956,1544,1544,1544,1544,0,0,0,0,0,0,0,0,0,0
1683032057.90023899,119328916,1544,1544,1544,1544,0,0,0,0,0,0,0,0,0,0
1683032058.00019884,119428876,1543,1544,1544,1543,0,0,0,0,0,0,0,0,0,0
1683032058.10015893,119528836,1545,1544,1544,1545,0,0,0,0,0,0,0,0,0,0
1683032058.20011902,119628796,1544,1544,1544,1544,0,0,0,0,0,0,0,0,0,0
1683032058.30007887,119728756,1544,1543,1543,1544,0,0,0,0,0,0,0,0,0,0
1683032058.40003896,119828716,1544,1544,1544,1544,0,0,0,0,0,0,0,0,0,0
1683032058.49999881,119928676,1544,1544,1544,1544,0,0,0,0,0,0,0,0,0,0
1683032058.59995890,120028636,1544,1544,1544,1544,0,0,0,0,0,0,0,0,0,0
1683032058.69991899,120128596,1544,1545,1544,1545,0,0,0,0,0,0,0,0,0,0
1683032058.79987884,120228556,1544,1544,1545,1544,0,0,0,0,0,0,0,0,0,0
1683032058.89983892,120328516,1544,1544,1544,1544,0,0,0,0,0,0,0,0,0,0
1683032058.99979901,120428476,1544,1544,1544,1544,0,0,0,0,0,0,0,0,0,0
1683032059.09975886,120528436,1544,1544,1544,1544,0,0,0,0,0,0,0,0,0,0
1683032059.19971895,120628396,1544,1545,1545,1545,0,0,0,0,0,0,0,0,0,0
1683032059.29967880,120728356,1544,1544,1544,1544,0,0,0,0,0,0,0,0,0,0
1683032059.39963889,120828316,1545,1545,1545,1545,0,0,0,0,0,0,0,0,0,0
1683032059.49959898,120928276,1545,1545,1545,1545,0,0,0,0,0,0,0,0,0,0
1683032059.59955883,121028236,1545,1545,1545,1544,0,0,0,0,0,0,0,0,0,0
1683032059.69951892,121128196,1544,1544,1544,1545,0,0,0,0,0,0,0,0,0,0
1683032059.79947901,121228156,1544,1545,1544,1544,0,0,0,0,0,0,0,0,0,0
1683032059.90027189,121328949,1545,1544,1545,1545,0,0,0,0,0,0,0,0,0,0
1683032060.00023198,121428909,1544,1545,1545,1544,0,0,0,0,0,0,0,0,0,0
1683032060.10019183,121528869,1545,1545,1545,1545,0,0,0,0,0,0,0,0,0,0
1683032060.20015192,121628829,1545,1545,1545,1545,0,0,0,0,0,0,0,0,0,0
1683032060.30011201,121728789,1544,1544,1544,1544,0,0,0,0,0,0,0,0,0,0
1683032060.40007186,121828749,1544,1544,1544,1544,0,0,0,0,0,0,0,0,0,0
1683032060.50003195,121928709,1544,1543,1543,1544,0,0,0,0,0,0,0,0,0,0
1683032060.59999204,122028669,1544,1544,1544,1544,0,0,0,0,0,0,0,0,0,0
1683032060.69995189,122128629,1544,1545,1544,1544,0,0,0,0,0,0,0,0,0,0
1683032060.79991198,122228589,1544,1544,1544,1544,0,0,0,0,0,0,0,0,0,0
1683032060.89987183,122328549,1544,1544,1544,1544,0,0,0,0,0,0,0,0,0,0
1683032060.99983191,122428509,1544,1544,1544,1544,0,0,0,0,0,0,0,0,0,0
1683032061.09979200,122528469,1544,1544,1544,1544,0,0,0,0,0,0,0,0,0,0
1683032061.19975185,122628429,1544,1545,1545,1544,0,0,0,0,0,0,0,0,0,0
1683032061.29971194,122728389,1544,1544,1544,1544,0,0,0,0,0,0,0,0,0,0
1683032061.39967203,122828349,1544,1544,1544,1544,0,0,0,0,0,0,0,0,0,0
1683032061.49963188,122928309,1544,1543,1544,1544,0,0,0,0,0,0,0,0,0,0
1683032061.59959197,123028269,1544,1544,1544,1544,0,0,0,0,0,0,0,0,0,0
1683032061.69955182,123128229,1544,1544,1544,1544,0,0,0,0,0,0,0,0,0,0
1683032061.79951191,123228189,1544,1545,1544,1544,0,0,0,0,0,0,0,0,0,0
1683032061.90030503,123328982,1544,1544,1544,1545,0,0,0,0,0,0,0,0,0,0
1683032062.00026488,123428942,1545,1545,1545,1545,0,0,0,0,0,0,0,0,0,0
1683032062.10022497,123528902,1544,1544,1544,1544,0,0,0,0,0,0,0,0,0,0
1683032062.20018482,123628862,1544,1544,1544,1544,0,0,0,0,0,0,0,0,0,0
1683032062.30014491,123728822,1545,1544,1545,1545,0,0,0,0,0,0,0,0,0,0
1683032062.40010500,123828782,1544,1544,1544,1544,0,0,0,0,0,0,0,0,0,0
1683032062.50006485,123928742,1544,1544,1544,1544,0,0,0,0,0,0,0,0,0,0
1683032062.60002494,124028702,1544,1544,1544,1544,0,0,0,0,0,0,0,0,0,0
1683032062.69998503,124128662,1544,1545,1544,1545,0,0,0,0,0,0,0,0,0,0
1683032062.79994488,124228622,1478,1465,1479,1464,0,0,0,0,0,0,0,0,0,0
1683032062.89990497,124328582,1351,1302,1352,1301,0,0,0,0,0,0,0,0,0,0
1683032062.99986482,124428542,1301,1232,1303,1229,0,0,0,0,0,0,0,0,0,0
1683032063.09982491,124528502,1286,1210,1288,1207,0,0,0,0,0,0,0,0,0,0
1683032063.19978499,124628462,1268,1183,1271,1179,0,0,0,0,0,0,0,0,0,0
1683032063.29974484,124728422,1249,1153,1252,1150,0,0,0,0,0,0,0,0,0,0
1683032063.39970493,124828382,1158,1152,1161,1150,0,0,0,0,0,0,0,0,0,0
1683032063.49966502,124928342,1159,1152,1161,1150,0,0,0,0,0,0,0,0,0,0
1683032063.59962487,125028302,1158,1153,1161,1150,0,0,0,0,0,0,0,0,0,0
1683032063.69958496,125128262,1160,1150,1146,1170,0,0,0,0,0,0,0,0,0,0
1683032063.79954481,125228222,1160,1150,1148,1167,0,0,0,0,0,0,0,0,0,0
1683032063.89950490,125328182,1160,1150,1152,1161,0,0,0,0,0,0,0,0,0,0
1683032064.00029802,125428975,1160,1150,1153,1160,0,0,0,0,0,0,0,0,0,0
1683032064.10025787,125528935,1160,1150,1153,1161,0,0,0,0,0,0,0,0,0,0
1683032064.20021796,125628895,1160,1150,1152,1161,0,0,0,0,0,0,0,0,0,0
1683032064.30017781,125728855,1160,1150,1152,1162,0,0,0,0,0,0,0,0,0,0
1683032064.40013790,125828815,1160,1150,1151,1163,0,0,0,0,0,0,0,0,0,0
1683032064.50009799,125928775,1160,1150,1159,1153,0,0,0,0,0,0,0,0,0,0
1683032064.60005784,126028735,1160,1150,1157,1155,0,0,0,0,0,0,0,0,0,0
1683032064.70001793,126128695,1160,1150,1157,1156,0,0,0,0,0,0,0,0,0,0
1683032064.79997802,126228655,1160,1150,1156,1156,0,0,0,0,0,0,0,0,0,0
1683032064.89993787,126328615,1160,1150,1156,1156,0,0,0,0,0,0,0,0,0,0
1683032064.99989796,126428575,1000,1000,1000,1000,0,0,0,0,0,0,0,0,0,0
1683032065.09985781,126528535,1000,1000,1000,1000,0,0,0,0,0,0,0,0,0,0
1683032065.19981790,126628495,1000,1000,1000,1000,0,0,0,0,0,0,0,0,0,0
1683032065.29977798,126728455,1000,1000,1000,1000,0,0,0,0,0,0,0,0,0,0
1683032065.39973783,126828415,1000,1000,1000,1000,0,0,0,0,0,0,0,0,0,0
1683032065.49969792,126928375,1000,1000,1000,1000,0,0,0,0,0,0,0,0,0,0
1683032065.59965801,127028335,1000,1000,1000,1000,0,0,0,0,0,0,0,0,0,0
1683032065.69961786,127128295,1000,1000,1000,1000,0,0,0,0,0,0,0,0,0,0
1683032065.79957795,127228255,1000,1000,1000,1000,0,0,0,0,0,0,0,0,0,0
1683032065.89953780,127328215,1000,1000,1000,1000,0,0,0,0,0,0,0,0,0,0
1683032065.99949789,127428175,1000,1000,1000,1000,0,0,0,0,0,0,0,0,0,0
1683032066.10029101,127528968,1000,1000,1000,1000,0,0,0,0,0,0,0,0,0,0
1683032066.20025086,127628928,1000,1000,1000,1000,0,0,0,0,0,0,0,0,0,0
1683032066.30021095,127728888,1000,1000,1000,1000,0,0,0,0,0,0,0,0,0,0
1683032066.40017080,127828848,1000,1000,1000,1000,0,0,0,0,0,0,0,0,0,0
1683032066.50013089,127928808,1000,1000,1000,1000,0,0,0,0,0,0,0,0,0,0
1683032066.60009098,128028768,1000,1000,1000,1000,0,0,0,0,0,0,0,0,0,0
1683032066.70005083,128128728,1000,1000,1000,1000,0,0,0,0,0,0,0,0,0,0
1683032066.80001092,128228688,1000,1000,1000,1000,0,0,0,0,0,0,0,0,0,0
1683032066.89997101,128328648,1000,1000,1000,1000,0,0,0,0,0,0,0,0,0,0
1683032066.99993086,128428608,1000,1000,1000,1000,0,0,0,0,0,0,0,0,0,0
1683032067.09989095,128528568,1000,1000,1000,1000,0,0,0,0,0,0,0,0,0,0
1683032067.19985104,128628528,1000,1000,1000,1000,0,0,0,0,0,0,0,0,0,0
1683032067.29981089,128728488,1000,1000,1000,1000,0,0,0,0,0,0,0,0,0,0
1683032067.39977098,128828448,1000,1000,1000,1000,0,0,0,0,0,0,0,0,0,0
1683032067.49973083,128928408,1000,1000,1000,1000,0,0,0,0,0,0,0,0,0,0
1683032067.59969091,129028368,1000,1000,1000,1000,0,0,0,0,0,0,0,0,0,0
1683032067.69965100,129128328,1000,1000,1000,1000,0,0,0,0,0,0,0,0,0,0
1683032067.79961085,129228288,1000,1000,1000,1000,0,0,0,0,0,0,0,0,0,0
1683032067.89957094,129328248,1000,1000,1000,1000,0,0,0,0,0,0,0,0,0,0
1683032067.99953103,129428208,1000,1000,1000,1000,0,0,0,0,0,0,0,0,0,0
1683032068.09949088,129528168,1000,1000,1000,1000,0,0,0,0,0,0,0,0,0,0
1683032068.20028400,129628961,1000,1000,1000,1000,0,0,0,0,0,0,0,0,0,0
1683032068.30024385,129728921,1000,1000,1000,1000,0,0,0,0,0,0,0,0,0,0
1683032068.40020394,129828881,1000,1000,1000,1000,0,0,0,0,0,0,0,0,0,0
1683032068.50016403,129928841,1000,1000,1000,1000,0,0,0,0,0,0,0,0,0,0
1683032068.60012388,130028801,1000,1000,1000,1000,0,0,0,0,0,0,0,0,0,0
1683032068.70008397,130128761,1000,1000,1000,1000,0,0,0,0,0,0,0,0,0,0
1683032068.80004382,130228721,1000,1000,1000,1000,0,0,0,0,0,0,0,0,0,0
1683032068.90000391,130328681,1000,1000,1000,1000,0,0,0,0,0,0,0,0,0,0
1683032068.99996400,130428641,1000,1000,1000,1000,0,0,0,0,0,0,0,0,0,0
1683032069.09992385,130528601,1000,1000,1000,1000,0,0,0,0,0,0,0,0,0,0
1683032069.19988394,130628561,1000,1000,1000,1000,0,0,0,0,0,0,0,0,0,0
1683032069.29984403,130728521,1000,1000,1000,1000,0,0,0,0,0,0,0,0,0,0
1683032069.39980388,130828481,1000,1000,1000,1000,0,0,0,0,0,0,0,0,0,0
1683032069.49976397,130928441,1000,1000,1000,1000,0,0,0,0,0,0,0,0,0,0
1683032069.59972382,131028401,1000,1000,1000,1000,0,0,0,0,0,0,0,0,0,0
1683032069.69968390,131128361,1000,1000,1000,1000,0,0,0,0,0,0,0,0,0,0
1683032069.79964399,131228321,1000,1000,1000,1000,0,0,0,0,0,0,0,0,0,0
1683032069.89960384,131328281,1000,1000,1000,1000,0,0,0,0,0,0,0,0,0,0
1683032069.99956393,131428241,1000,1000,1000,1000,0,0,0,0,0,0,0,0,0,0
1683032070.09952402,131528201,1000,1000,1000,1000,0,0,0,0,0,0,0,0,0,0
1683032070.19948387,131628161,1000,1000,1000,1000,0,0,0,0,0,0,0,0,0,0
1683032070.30027699,131728954,1000,1000,1000,1000,0,0,0,0,0,0,0,0,0,0
1683032070.40023685,131828914,1000,1000,1000,1000,0,0,0,0,0,0,0,0,0,0
1683032070.50019693,131928874,1000,1000,1000,1000,0,0,0,0,0,0,0,0,0,0
1683032070.60015702,132028834,1000,1000,1000,1000,0,0,0,0,0,0,0,0,0,0
1683032070.70011687,132128794,1000,1000,1000,1000,0,0,0,0,0,0,0,0,0,0
1683032070.80007696,132228754,1000,1000,1000,1000,0,0,0,0,0,0,0,0,0,0
1683032070.90003681,132328714,1000,1000,1000,1000,0,0,0,0,0,0,0,0,0,0
1683032070.99999690,132428674,1000,1000,1000,1000,0,0,0,0,0,0,0,0,0,0
1683032071.09995699,132528634,1000,1000,1000,1000,0,0,0,0,0,0,0,0,0,0
1683032071.19991684,132628594,1000,1000,1000,1000,0,0,0,0,0,0,0,0,0,0
1683032071.29987693,132728554,1000,1000,1000,1000,0,0,0,0,0,0,0,0,0,0
1683032071.39983702,132828514,1000,1000,1000,1000,0,0,0,0,0,0,0,0,0,0
1683032071.49979687,132928474,1000,1000,1000,1000,0,0,0,0,0,0,0,0,0,0
1683032071.59975696,133028434,1000,1000,1000,1000,0,0,0,0,0,0,0,0,0,0
1683032071.69971681,133128394,1000,1000,1000,1000,0,0,0,0,0,0,0,0,0,0
1683032071.79967690,133228354,1000,1000,1000,1000,0,0,0,0,0,0,0,0,0,0
1683032071.89963698,133328314,1000,1000,1000,1000,0,0,0,0,0,0,0,0,0,0
1683032071.99959683,133428274,1000,1000,1000,1000,0,0,0,0,0,0,0,0,0,0
1683032072.09955692,133528234,1000,1000,1000,1000,0,0,0,0,0,0,0,0,0,0
1683032072.19951701,133628194,1000,1000,1000,1000,0,0,0,0,0,0,0,0,0,0
1683032072.29947686,133728154,1000,1000,1000,1000,0,0,0,0,0,0,0,0,0,0
1683032072.40026999,133828947,1000,1000,1000,1000,0,0,0,0,0,0,0,0,0,0
1683032072.50022984,133928907,1000,1000,1000,1000,0,0,0,0,0,0,0,0,0,0
1683032072.60018992,134028867,1000,1000,1000,1000,0,0,0,0,0,0,0,0,0,0
1683032072.70015001,134128827,1000,1000,1000,1000,0,0,0,0,0,0,0,0,0,0
1683032072.80010986,134228787,1000,1000,1000,1000,0,0,0,0,0,0,0,0,0,0
1683032072.90006995,134328747,1000,1000,1000,1000,0,0,0,0,0,0,0,0,0,0
1683032073.00002980,134428707,1000,1000,1000,1000,0,0,0,0,0,0,0,0,0,0
1683032073.09998989,134528667,1000,1000,1000,1000,0,0,0,0,0,0,0,0,0,0
1683032073.19994998,134628627,1000,1000,1000,1000,0,0,0,0,0,0,0,0,0,0
1683032073.29990983,134728587,1000,1000,1000,1000,0,0,0,0,0,0,0,0,0,0
1683032073.39986992,134828547,1000,1000,1000,1000,0,0,0,0,0,0,0,0,0,0
1683032073.49983001,134928507,1000,1000,1000,1000,0,0,0,0,0,0,0,0,0,0
1683032073.59978986,135028467,1000,1000,1000,1000,0,0,0,0,0,0,0,0,0,0
1683032073.69974995,135128427,1000,1000,1000,1000,0,0,0,0,0,0,0,0,0,0
1683032073.79971004,135228387,1000,1000,1000,1000,0,0,0,0,0,0,0,0,0,0
1683032073.89966989,135328347,1000,1000,1000,1000,0,0,0,0,0,0,0,0,0,0
1683032073.99962997,135428307,1000,1000,1000,1000,0,0,0,0,0,0,0,0,0,0
1683032074.09958982,135528267,1000,1000,1000,1000,0,0,0,0,0,0,0,0,0,0
1683032074.19954991,135628227,1000,1000,1000,1000,0,0,0,0,0,0,0,0,0,0
1683032074.29951000,135728187,1000,1000,1000,1000,0,0,0,0,0,0,0,0,0,0
1683032074.40030289,135828980,1000,1000,1000,1000,0,0,0,0,0,0,0,0,0,0
1683032074.50026298,135928940,1000,1000,1000,1000,0,0,0,0,0,0,0,0,0,0
1683032074.60022283,136028900,1000,1000,1000,1000,0,0,0,0,0,0,0,0,0,0
1683032074.70018291,136128860,1000,1000,1000,1000,0,0,0,0,0,0,0,0,0,0
1683032074.80014300,136228820,1000,1000,1000,1000,0,0,0,0,0,0,0,0,0,0
1683032074.90010285,136328780,1000,1000,1000,1000,0,0,0,0,0,0,0,0,0,0
1683032075.00006294,136428740,1000,1000,1000,1000,0,0,0,0,0,0,0,0,0,0
