timestamp,TimeUS,C1,C2,C3,C4,C5,C6,C7,C8,C9,C10,C11,C12,C13,C14
1682959403.30004001,55928453,1000,1000,1000,1000,0,0,0,0,0,0,0,0,0,0
1682959403.40000010,56028413,1000,1000,1000,1000,0,0,0,0,0,0,0,0,0,0
1682959403.49995995,56128373,1000,1000,1000,1000,0,0,0,0,0,0,0,0,0,0
1682959403.59992003,56228333,1000,1000,1000,1000,0,0,0,0,0,0,0,0,0,0
1682959403.69988012,56328293,1000,1000,1000,1000,0,0,0,0,0,0,0,0,0,0
1682959403.79983997,56428253,1000,1000,1000,1000,0,0,0,0,0,0,0,0,0,0
1682959403.89980006,56528213,1000,1000,1000,1000,0,0,0,0,0,0,0,0,0,0
1682959403.99976015,56628173,1000,1000,1000,1000,0,0,0,0,0,0,0,0,0,0
1682959404.10055304,56728966,1000,1000,1000,1000,0,0,0,0,0,0,0,0,0,0
1682959404.20051312,56828926,1000,1000,1000,1000,0,0,0,0,0,0,0,0,0,0
1682959404.30047297,56928886,1000,1000,1000,1000,0,0,0,0,0,0,0,0,0,0
1682959404.40043306,57028846,1000,1000,1000,1000,0,0,0,0,0,0,0,0,0,0
1682959404.50039315,57128806,1000,1000,1000,1000,0,0,0,0,0,0,0,0,0,0
1682959404.60035300,57228766,1000,1000,1000,1000,0,0,0,0,0,0,0,0,0,0
1682959404.70031309,57328726,1000,1000,1000,1000,0,0,0,0,0,0,0,0,0,0
1682959404.80027294,57428686,1000,1000,1000,1000,0,0,0,0,0,0,0,0,0,0
1682959404.90023303,57528646,1000,1000,1000,1000,0,0,0,0,0,0,0,0,0,0
1682959405.00019312,57628606,1000,1000,1000,1000,0,0,0,0,0,0,0,0,0,0
1682959405.10015297,57728566,1000,1000,1000,1000,0,0,0,0,0,0,0,0,0,0
1682959405.20011306,57828526,1000,1000,1000,1000,0,0,0,0,0,0,0,0,0,0
1682959405.30007315,57928486,1014,1014,1014,1014,0,0,0,0,0,0,0,0,0,0
1682959405.40003300,58028446,1044,1044,1044,1044,0,0,0,0,0,0,0,0,0,0
1682959405.49999309,58128406,1074,1074,1074,1074,0,0,0,0,0,0,0,0,0,0
1682959405.59995294,58228366,1104,1104,1104,1104,0,0,0,0,0,0,0,0,0,0
1682959405.69991302,58328326,1134,1134,1134,1134,0,0,0,0,0,0,0,0,0,0
1682959405.79987311,58428286,1282,1274,1275,1282,0,0,0,0,0,0,0,0,0,0
1682959405.89983296,58528246,1491,1485,1485,1491,0,0,0,0,0,0,0,0,0,0
1682959405.99979305,58628206,1652,1647,1648,1652,0,0,0,0,0,0,0,0,0,0
1682959406.09975314,58728166,1789,1784,1785,1789,0,0,0,0,0,0,0,0,0,0
1682959406.20054603,58828959,1910,1905,1905,1911,0,0,0,0,0,0,0,0,0,0
1682959406.30050611,58928919,1887,1885,1885,1888,0,0,0,0,0,0,0,0,0,0
1682959406.40046597,59028879,1757,1756,1755,1758,0,0,0,0,0,0,0,0,0,0
1682959406.50042605,59128839,1657,1658,1654,1661,0,0,0,0,0,0,0,0,0,0
1682959406.60038614,59228799,1625,1627,1625,1628,0,0,0,0,0,0,0,0,0,0
1682959406.70034599,59328759,1627,1629,1628,1628,0,0,0,0,0,0,0,0,0,0
1682959406.80030608,59428719,1632,1633,1634,1631,0,0,0,0,0,0,0,0,0,0
1682959406.90026593,59528679,1631,1631,1633,1629,0,0,0,0,0,0,0,0,0,0
1682959407.00022602,59628639,1625,1624,1626,1623,0,0,0,0,0,0,0,0,0,0
1682959407.10018611,59728599,1620,1619,1619,1618,0,0,0,0,0,0,0,0,0,0
1682959407.20014596,59828559,1617,1616,1616,1616,0,0,0,0,0,0,0,0,0,0
1682959407.30010605,59928519,1615,1614,1615,1614,0,0,0,0,0,0,0,0,0,0
1682959407.40006614,60028479,1617,1616,1617,1616,0,0,0,0,0,0,0,0,0,0
1682959407.50002599,60128439,1590,1591,1596,1585,0,0,0,0,0,0,0,0,0,0
1682959407.59998608,60228399,1575,1576,1582,1569,0,0,0,0,0,0,0,0,0,0
1682959407.69994593,60328359,1564,1564,1567,1562,0,0,0,0,0,0,0,0,0,0
1682959407.79990602,60428319,1554,1555,1553,1556,0,0,0,0,0,0,0,0,0,0
1682959407.89986610,60528279,1547,1547,1541,1553,0,0,0,0,0,0,0,0,0,0
1682959407.99982595,60628239,1541,1541,1532,1550,0,0,0,0,0,0,0,0,0,0
1682959408.09978604,60728199,1536,1535,1528,1542,0,0,0,0,0,0,0,0,0,0
1682959408.19974613,60828159,1530,1529,1526,1533,0,0,0,0,0,0,0,0,0,0
1682959408.30053902,60928952,1526,1525,1525,1526,0,0,0,0,0,0,0,0,0,0
1682959408.40049911,61028912,1527,1527,1528,1525,0,0,0,0,0,0,0,0,0,0
1682959408.50045896,61128872,1529,1529,1531,1526,0,0,0,0,0,0,0,0,0,0
1682959408.60041904,61228832,1532,1532,1535,1529,0,0,0,0,0,0,0,0,0,0
1682959408.70037913,61328792,1535,1535,1538,1533,0,0,0,0,0,0,0,0,0,0
1682959408.80033898,61428752,1539,1539,1542,1538,0,0,0,0,0,0,0,0,0,0
1682959408.90029907,61528712,1543,1543,1544,1542,0,0,0,0,0,0,0,0,0,0
1682959409.00025892,61628672,1546,1546,1546,1547,0,0,0,0,0,0,0,0,0,0
1682959409.10021901,61728632,1549,1549,1549,1550,0,0,0,0,0,0,0,0,0,0
1682959409.20017910,61828592,1552,1552,1551,1552,0,0,0,0,0,0,0,0,0,0
1682959409.30013895,61928552,1554,1554,1552,1555,0,0,0,0,0,0,0,0,0,0
1682959409.40009904,62028512,1553,1553,1559,1561,0,0,0,0,0,0,0,0,0,0
1682959409.50005913,62128472,1552,1553,1562,1564,0,0,0,0,0,0,0,0,0,0
1682959409.60001898,62228432,1556,1556,1565,1565,0,0,0,0,0,0,0,0,0,0
1682959409.69997907,62328392,1558,1559,1564,1565,0,0,0,0,0,0,0,0,0,0
1682959409.79993916,62428352,1562,1563,1565,1565,0,0,0,0,0,0,0,0,0,0
1682959409.89989901,62528312,1566,1565,1564,1564,0,0,0,0,0,0,0,0,0,0
1682959409.99985909,62628272,1569,1569,1565,1565,0,0,0,0,0,0,0,0,0,0
1682959410.09981894,62728232,1570,1570,1565,1565,0,0,0,0,0,0,0,0,0,0
1682959410.19977903,62828192,1572,1572,1566,1566,0,0,0,0,0,0,0,0,0,0
1682959410.30057216,62928985,1572,1572,1566,1566,0,0,0,0,0,0,0,0,0,0
1682959410.40053201,63028945,1574,1574,1568,1568,0,0,0,0,0,0,0,0,0,0
1682959410.50049210,63128905,1574,1574,1570,1570,0,0,0,0,0,0,0,0,0,0
1682959410.60045195,63228865,1574,1573,1570,1570,0,0,0,0,0,0,0,0,0,0
1682959410.70041203,63328825,1574,1573,1572,1572,0,0,0,0,0,0,0,0,0,0
1682959410.80037212,63428785,1573,1573,1573,1572,0,0,0,0,0,0,0,0,0,0
1682959410.90033197,63528745,1574,1574,1576,1574,0,0,0,0,0,0,0,0,0,0
1682959411.00029206,63628705,1574,1575,1577,1575,0,0,0,0,0,0,0,0,0,0
1682959411.10025215,63728665,1574,1574,1576,1575,0,0,0,0,0,0,0,0,0,0
1682959411.20021200,63828625,1575,1574,1577,1576,0,0,0,0,0,0,0,0,0,0
1682959411.30017209,63928585,1574,1574,1576,1577,0,0,0,0,0,0,0,0,0,0
1682959411.40013194,64028545,1575,1575,1577,1577,0,0,0,0,0,0,0,0,0,0
1682959411.50009203,64128505,1575,1575,1576,1577,0,0,0,0,0,0,0,0,0,0
1682959411.60005212,64228465,1576,1576,1577,1577,0,0,0,0,0,0,0,0,0,0
1682959411.70001197,64328425,1576,1576,1576,1576,0,0,0,0,0,0,0,0,0,0
1682959411.79997206,64428385,1577,1577,1577,1577,0,0,0,0,0,0,0,0,0,0
1682959411.89993215,64528345,1577,1577,1576,1577,0,0,0,0,0,0,0,0,0,0
1682959411.99989200,64628305,1578,1578,1577,1577,0,0,0,0,0,0,0,0,0,0
1682959412.09985209,64728265,1578,1577,1577,1577,0,0,0,0,0,0,0,0,0,0
1682959412.19981194,64828225,1578,1578,1577,1577,0,0,0,0,0,0,0,0,0,0
1682959412.29977202,64928185,1578,1578,1577,1578,0,0,0,0,0,0,0,0,0,0
1682959412.40056515,65028978,1578,1578,1577,1577,0,0,0,0,0,0,0,0,0,0
1682959412.50052500,65128938,1578,1579,1578,1578,0,0,0,0,0,0,0,0,0,0
1682959412.60048509,65228898,1579,1579,1579,1578,0,0,0,0,0,0,0,0,0,0
1682959412.70044494,65328858,1580,1579,1579,1580,0,0,0,0,0,0,0,0,0,0
1682959412.80040503,65428818,1578,1578,1579,1579,0,0,0,0,0,0,0,0,0,0
1682959412.90036511,65528778,1580,1580,1580,1580,0,0,0,0,0,0,0,0,0,0
1682959413.00032496,65628738,1579,1579,1580,1580,0,0,0,0,0,0,0,0,0,0
1682959413.10028505,65728698,1579,1579,1580,1579,0,0,0,0,0,0,0,0,0,0
1682959413.20024514,65828658,1579,1579,1579,1579,0,0,0,0,0,0,0,0,0,0
1682959413.30020499,65928618,1578,1579,1579,1579,0,0,0,0,0,0,0,0,0,0
1682959413.40016508,66028578,1579,1579,1579,1579,0,0,0,0,0,0,0,0,0,0
1682959413.50012493,66128538,1580,1579,1579,1580,0,0,0,0,0,0,0,0,0,0
1682959413.60008502,66228498,1579,1579,1579,1579,0,0,0,0,0,0,0,0,0,0
1682959413.70004511,66328458,1579,1578,1579,1579,0,0,0,0,0,0,0,0,0,0
1682959413.80000496,66428418,1579,1578,1579,1578,0,0,0,0,0,0,0,0,0,0
1682959413.89996505,66528378,1579,1580,1579,1580,0,0,0,0,0,0,0,0,0,0
1682959413.99992514,66628338,1579,1579,1579,1579,0,0,0,0,0,0,0,0,0,0
1682959414.09988499,66728298,1579,1580,1579,1579,0,0,0,0,0,0,0,0,0,0
1682959414.19984508,66828258,1580,1579,1580,1579,0,0,0,0,0,0,0,0,0,0
1682959414.29980493,66928218,1579,1579,1579,1579,0,0,0,0,0,0,0,0,0,0
1682959414.39976501,67028178,1580,1580,1580,1580,0,0,0,0,0,0,0,0,0,0
1682959414.50055814,67128971,1581,1580,1580,1581,0,0,0,0,0,0,0,0,0,0
1682959414.60051799,67228931,1580,1581,1581,1580,0,0,0,0,0,0,0,0,0,0
1682959414.70047808,67328891,1580,1580,1580,1580,0,0,0,0,0,0,0,0,0,0
1682959414.80043793,67428851,1580,1581,1581,1581,0,0,0,0,0,0,0,0,0,0
1682959414.90039802,67528811,1580,1580,1581,1580,0,0,0,0,0,0,0,0,0,0
1682959415.00035810,67628771,1580,1580,1580,1580,0,0,0,0,0,0,0,0,0,0
1682959415.10031796,67728731,1581,1580,1580,1581,0,0,0,0,0,0,0,0,0,0
1682959415.20027804,67828691,1581,1581,1581,1581,0,0,0,0,0,0,0,0,0,0
1682959415.30023813,67928651,1581,1581,1581,1582,0,0,0,0,0,0,0,0,0,0
1682959415.40019798,68028611,1581,1581,1581,1581,0,0,0,0,0,0,0,0,0,0
1682959415.50015807,68128571,1581,1581,1581,1581,0,0,0,0,0,0,0,0,0,0
1682959415.60011792,68228531,1581,1581,1586,1576,0,0,0,0,0,0,0,0,0,0
1682959415.70007801,68328491,1580,1581,1586,1572,0,0,0,0,0,0,0,0,0,0
1682959415.80003810,68428451,1580,1583,1581,1575,0,0,0,0,0,0,0,0,0,0
1682959415.89999795,68528411,1577,1580,1571,1572,0,0,0,0,0,0,0,0,0,0
1682959415.99995804,68628371,1576,1579,1563,1569,0,0,0,0,0,0,0,0,0,0
1682959416.09991813,68728331,1578,1578,1558,1565,0,0,0,0,0,0,0,0,0,0
1682959416.19987798,68828291,1578,1578,1556,1560,0,0,0,0,0,0,0,0,0,0
1682959416.29983807,68928251,1579,1578,1556,1557,0,0,0,0,0,0,0,0,0,0
1682959416.39979815,69028211,1579,1577,1556,1554,0,0,0,0,0,0,0,0,0,0
1682959416.49975801,69128171,1578,1577,1556,1553,0,0,0,0,0,0,0,0,0,0
1682959416.60055113,69228964,1577,1577,1556,1553,0,0,0,0,0,0,0,0,0,0
1682959416.70051098,69328924,1576,1577,1555,1554,0,0,0,0,0,0,0,0,0,0
1682959416.80047107,69428884,1574,1575,1554,1553,0,0,0,0,0,0,0,0,0,0
1682959416.90043116,69528844,1575,1577,1554,1554,0,0,0,0,0,0,0,0,0,0
1682959417.00039101,69628804,1574,1576,1552,1552,0,0,0,0,0,0,0,0,0,0
1682959417.10035110,69728764,1575,1577,1550,1551,0,0,0,0,0,0,0,0,0,0
1682959417.20031095,69828724,1577,1578,1548,1548,0,0,0,0,0,0,0,0,0,0
1682959417.30027103,69928684,1580,1581,1546,1546,0,0,0,0,0,0,0,0,0,0
1682959417.40023112,70028644,1583,1584,1544,1543,0,0,0,0,0,0,0,0,0,0
1682959417.50019097,70128604,1586,1586,1541,1540,0,0,0,0,0,0,0,0,0,0
1682959417.60015106,70228564,1589,1589,1538,1537,0,0,0,0,0,0,0,0,0,0
1682959417.70011115,70328524,1592,1593,1536,1536,0,0,0,0,0,0,0,0,0,0
1682959417.80007100,70428484,1593,1593,1533,1534,0,0,0,0,0,0,0,0,0,0
1682959417.90003109,70528444,1594,1594,1533,1534,0,0,0,0,0,0,0,0,0,0
1682959417.99999094,70628404,1595,1594,1535,1536,0,0,0,0,0,0,0,0,0,0
1682959418.09995103,70728364,1593,1593,1537,1540,0,0,0,0,0,0,0,0,0,0
1682959418.19991112,70828324,1590,1589,1542,1545,0,0,0,0,0,0,0,0,0,0
1682959418.29987097,70928284,1585,1583,1550,1552,0,0,0,0,0,0,0,0,0,0
1682959418.39983106,71028244,1578,1575,1560,1562,0,0,0,0,0,0,0,0,0,0
1682959418.49979115,71128204,1568,1564,1570,1572,0,0,0,0,0,0,0,0,0,0
1682959418.59975100,71228164,1557,1553,1583,1584,0,0,0,0,0,0,0,0,0,0
1682959418.70054412,71328957,1546,1543,1594,1594,0,0,0,0,0,0,0,0,0,0
1682959418.80050397,71428917,1537,1536,1605,1604,0,0,0,0,0,0,0,0,0,0
1682959418.90046406,71528877,1530,1530,1611,1610,0,0,0,0,0,0,0,0,0,0
1682959419.00042415,71628837,1528,1529,1614,1613,0,0,0,0,0,0,0,0,0,0
1682959419.10038400,71728797,1530,1532,1614,1613,0,0,0,0,0,0,0,0,0,0
1682959419.20034409,71828757,1535,1538,1612,1611,0,0,0,0,0,0,0,0,0,0
1682959419.30030394,71928717,1542,1543,1605,1605,0,0,0,0,0,0,0,0,0,0
1682959419.40026402,72028677,1551,1551,1599,1599,0,0,0,0,0,0,0,0,0,0
1682959419.50022411,72128637,1559,1559,1591,1591,0,0,0,0,0,0,0,0,0,0
1682959419.60018396,72228597,1567,1567,1584,1583,0,0,0,0,0,0,0,0,0,0
1682959419.70014405,72328557,1575,1575,1578,1577,0,0,0,0,0,0,0,0,0,0
1682959419.80010414,72428517,1580,1580,1572,1571,0,0,0,0,0,0,0,0,0,0
1682959419.90006399,72528477,1584,1583,1568,1567,0,0,0,0,0,0,0,0,0,0
1682959420.00002408,72628437,1587,1585,1566,1566,0,0,0,0,0,0,0,0,0,0
1682959420.09998393,72728397,1588,1586,1566,1566,0,0,0,0,0,0,0,0,0,0
1682959420.19994402,72828357,1586,1585,1567,1567,0,0,0,0,0,0,0,0,0,0
1682959420.29990411,72928317,1585,1585,1571,1570,0,0,0,0,0,0,0,0,0,0
1682959420.39986396,73028277,1582,1582,1573,1573,0,0,0,0,0,0,0,0,0,0
1682959420.49982405,73128237,1579,1579,1575,1575,0,0,0,0,0,0,0,0,0,0
1682959420.59978414,73228197,1577,1577,1578,1579,0,0,0,0,0,0,0,0,0,0
1682959420.69974399,73328157,1575,1575,1580,1581,0,0,0,0,0,0,0,0,0,0
1682959420.80053711,73428950,1573,1574,1583,1582,0,0,0,0,0,0,0,0,0,0
1682959420.90049696,73528910,1572,1573,1583,1583,0,0,0,0,0,0,0,0,0,0
1682959421.00045705,73628870,1540,1564,1548,1577,0,0,0,0,0,0,0,0,0,0
1682959421.10041714,73728830,1580,1561,1589,1572,0,0,0,0,0,0,0,0,0,0
1682959421.20037699,73828790,1617,1578,1626,1586,0,0,0,0,0,0,0,0,0,0
1682959421.30033708,73928750,1638,1597,1645,1603,0,0,0,0,0,0,0,0,0,0
1682959421.40029693,74028710,1640,1610,1644,1612,0,0,0,0,0,0,0,0,0,0
1682959421.50025702,74128670,1624,1613,1626,1612,0,0,0,0,0,0,0,0,0,0
1682959421.60021710,74228630,1604,1612,1604,1609,0,0,0,0,0,0,0,0,0,0
1682959421.70017695,74328590,1584,1604,1586,1605,0,0,0,0,0,0,0,0,0,0
1682959421.80013704,74428550,1573,1593,1578,1601,0,0,0,0,0,0,0,0,0,0
1682959421.90009713,74528510,1569,1584,1578,1596,0,0,0,0,0,0,0,0,0,0
1682959422.00005698,74628470,1570,1577,1580,1589,0,0,0,0,0,0,0,0,0,0
1682959422.10001707,74728430,1573,1574,1582,1583,0,0,0,0,0,0,0,0,0,0
1682959422.19997692,74828390,1578,1574,1582,1577,0,0,0,0,0,0,0,0,0,0
1682959422.29993701,74928350,1581,1577,1581,1575,0,0,0,0,0,0,0,0,0,0
1682959422.39989710,75028310,1583,1580,1579,1573,0,0,0,0,0,0,0,0,0,0
1682959422.49985695,75128270,1583,1582,1575,1573,0,0,0,0,0,0,0,0,0,0
1682959422.59981704,75228230,1582,1582,1572,1571,0,0,0,0,0,0,0,0,0,0
1682959422.69977713,75328190,1582,1583,1570,1572,0,0,0,0,0,0,0,0,0,0
1682959422.80057001,75428983,1579,1581,1568,1571,0,0,0,0,0,0,0,0,0,0
1682959422.90053010,75528943,1579,1580,1568,1571,0,0,0,0,0,0,0,0,0,0
1682959423.00048995,75628903,1578,1579,1570,1571,0,0,0,0,0,0,0,0,0,0
1682959423.10045004,75728863,1578,1578,1571,1572,0,0,0,0,0,0,0,0,0,0
1682959423.20041013,75828823,1577,1577,1572,1572,0,0,0,0,0,0,0,0,0,0
1682959423.30036998,75928783,1576,1575,1573,1572,0,0,0,0,0,0,0,0,0,0
1682959423.40033007,76028743,1576,1575,1575,1574,0,0,0,0,0,0,0,0,0,0
1682959423.50029016,76128703,1575,1575,1575,1575,0,0,0,0,0,0,0,0,0,0
1682959423.60025001,76228663,1575,1575,1578,1575,0,0,0,0,0,0,0,0,0,0
1682959423.70021009,76328623,1576,1577,1585,1569,0,0,0,0,0,0,0,0,0,0
1682959423.80016994,76428583,1575,1578,1580,1569,0,0,0,0,0,0,0,0,0,0
1682959423.90013003,76528543,1574,1577,1572,1571,0,0,0,0,0,0,0,0,0,0
1682959424.00009012,76628503,1572,1576,1564,1569,0,0,0,0,0,0,0,0,0,0
1682959424.10004997,76728463,1573,1574,1558,1565,0,0,0,0,0,0,0,0,0,0
1682959424.20001006,76828423,1574,1574,1555,1561,0,0,0,0,0,0,0,0,0,0
1682959424.29997015,76928383,1575,1574,1553,1557,0,0,0,0,0,0,0,0,0,0
1682959424.39993000,77028343,1576,1575,1553,1554,0,0,0,0,0,0,0,0,0,0
1682959424.49989009,77128303,1577,1576,1554,1551,0,0,0,0,0,0,0,0,0,0
1682959424.59984994,77228263,1577,1577,1553,1550,0,0,0,0,0,0,0,0,0,0
1682959424.69981003,77328223,1577,1577,1553,1551,0,0,0,0,0,0,0,0,0,0
1682959424.79977012,77428183,1576,1577,1552,1550,0,0,0,0,0,0,0,0,0,0
1682959424.90056300,77528976,1576,1577,1551,1551,0,0,0,0,0,0,0,0,0,0
1682959425.00052309,77628936,1576,1577,1550,1550,0,0,0,0,0,0,0,0,0,0
1682959425.10048294,77728896,1577,1578,1549,1550,0,0,0,0,0,0,0,0,0,0
1682959425.20044303,77828856,1579,1580,1548,1549,0,0,0,0,0,0,0,0,0,0
1682959425.30040312,77928816,1580,1581,1547,1547,0,0,0,0,0,0,0,0,0,0
1682959425.40036297,78028776,1582,1583,1546,1545,0,0,0,0,0,0,0,0,0,0
1682959425.50032306,78128736,1583,1583,1543,1543,0,0,0,0,0,0,0,0,0,0
1682959425.60028315,78228696,1585,1586,1541,1541,0,0,0,0,0,0,0,0,0,0
1682959425.70024300,78328656,1587,1587,1540,1540,0,0,0,0,0,0,0,0,0,0
1682959425.80020308,78428616,1588,1588,1539,1540,0,0,0,0,0,0,0,0,0,0
1682959425.90016294,78528576,1589,1587,1540,1542,0,0,0,0,0,0,0,0,0,0
1682959426.00012302,78628536,1588,1587,1543,1545,0,0,0,0,0,0,0,0,0,0
1682959426.10008311,78728496,1586,1586,1546,1548,0,0,0,0,0,0,0,0,0,0
1682959426.20004296,78828456,1583,1583,1550,1552,0,0,0,0,0,0,0,0,0,0
1682959426.30000305,78928416,1579,1578,1555,1557,0,0,0,0,0,0,0,0,0,0
1682959426.39996314,79028376,1573,1571,1561,1563,0,0,0,0,0,0,0,0,0,0
1682959426.49992299,79128336,1568,1564,1570,1572,0,0,0,0,0,0,0,0,0,0
1682959426.59988308,79228296,1560,1557,1578,1580,0,0,0,0,0,0,0,0,0,0
1682959426.69984293,79328256,1552,1550,1587,1587,0,0,0,0,0,0,0,0,0,0
1682959426.79980302,79428216,1546,1546,1595,1594,0,0,0,0,0,0,0,0,0,0
1682959426.89976311,79528176,1542,1542,1600,1599,0,0,0,0,0,0,0,0,0,0
1682959427.00055599,79628969,1540,1541,1604,1602,0,0,0,0,0,0,0,0,0,0
1682959427.10051608,79728929,1539,1541,1604,1603,0,0,0,0,0,0,0,0,0,0
1682959427.20047593,79828889,1542,1544,1603,1602,0,0,0,0,0,0,0,0,0,0
1682959427.30043602,79928849,1547,1549,1600,1600,0,0,0,0,0,0,0,0,0,0
1682959427.40039611,80028809,1552,1553,1596,1595,0,0,0,0,0,0,0,0,0,0
1682959427.50035596,80128769,1559,1559,1591,1591,0,0,0,0,0,0,0,0,0,0
1682959427.60031605,80228729,1564,1564,1585,1585,0,0,0,0,0,0,0,0,0,0
1682959427.70027614,80328689,1571,1570,1582,1581,0,0,0,0,0,0,0,0,0,0
1682959427.80023599,80428649,1576,1575,1577,1576,0,0,0,0,0,0,0,0,0,0
1682959427.90019608,80528609,1579,1578,1574,1573,0,0,0,0,0,0,0,0,0,0
1682959428.00015593,80628569,1583,1582,1572,1573,0,0,0,0,0,0,0,0,0,0
1682959428.10011601,80728529,1584,1583,1571,1571,0,0,0,0,0,0,0,0,0,0
1682959428.20007610,80828489,1584,1583,1570,1571,0,0,0,0,0,0,0,0,0,0
1682959428.30003595,80928449,1583,1582,1571,1571,0,0,0,0,0,0,0,0,0,0
1682959428.39999604,81028409,1583,1582,1573,1573,0,0,0,0,0,0,0,0,0,0
1682959428.49995613,81128369,1581,1581,1575,1575,0,0,0,0,0,0,0,0,0,0
1682959428.59991598,81228329,1579,1579,1577,1576,0,0,0,0,0,0,0,0,0,0
1682959428.69987607,81328289,1577,1578,1579,1578,0,0,0,0,0,0,0,0,0,0
1682959428.79983592,81428249,1575,1576,1580,1580,0,0,0,0,0,0,0,0,0,0
1682959428.89979601,81528209,1575,1576,1582,1582,0,0,0,0,0,0,0,0,0,0
1682959428.99975610,81628169,1574,1574,1582,1582,0,0,0,0,0,0,0,0,0,0
1682959429.10054898,81728962,1574,1574,1582,1582,0,0,0,0,0,0,0,0,0,0
1682959429.20050907,81828922,1575,1575,1582,1582,0,0,0,0,0,0,0,0,0,0
1682959429.30046892,81928882,1575,1576,1582,1582,0,0,0,0,0,0,0,0,0,0
1682959429.40042901,82028842,1577,1577,1582,1582,0,0,0,0,0,0,0,0,0,0
1682959429.50038910,82128802,1578,1578,1581,1581,0,0,0,0,0,0,0,0,0,0
1682959429.60034895,82228762,1579,1579,1580,1580,0,0,0,0,0,0,0,0,0,0
1682959429.70030904,82328722,1580,1579,1579,1580,0,0,0,0,0,0,0,0,0,0
1682959429.80026913,82428682,1581,1580,1579,1579,0,0,0,0,0,0,0,0,0,0
1682959429.90022898,82528642,1581,1581,1579,1578,0,0,0,0,0,0,0,0,0,0
1682959430.00018907,82628602,1581,1582,1579,1579,0,0,0,0,0,0,0,0,0,0
1682959430.10014915,82728562,1581,1582,1578,1579,0,0,0,0,0,0,0,0,0,0
1682959430.20010900,82828522,1581,1581,1578,1578,0,0,0,0,0,0,0,0,0,0
1682959430.30006909,82928482,1581,1581,1578,1579,0,0,0,0,0,0,0,0,0,0
1682959430.40002894,83028442,1582,1581,1579,1580,0,0,0,0,0,0,0,0,0,0
1682959430.49998903,83128402,1581,1582,1580,1580,0,0,0,0,0,0,0,0,0,0
1682959430.59994912,83228362,1581,1581,1580,1579,0,0,0,0,0,0,0,0,0,0
1682959430.69990897,83328322,1579,1580,1580,1579,0,0,0,0,0,0,0,0,0,0
1682959430.79986906,83428282,1580,1580,1581,1581,0,0,0,0,0,0,0,0,0,0
1682959430.89982915,83528242,1580,1580,1581,1581,0,0,0,0,0,0,0,0,0,0
1682959430.99978900,83628202,1580,1580,1581,1581,0,0,0,0,0,0,0,0,0,0
1682959431.09974909,83728162,1580,1580,1581,1581,0,0,0,0,0,0,0,0,0,0
1682959431.20054197,83828955,1580,1579,1581,1581,0,0,0,0,0,0,0,0,0,0
1682959431.30050206,83928915,1580,1580,1581,1581,0,0,0,0,0,0,0,0,0,0
1682959431.40046215,84028875,1580,1581,1581,1581,0,0,0,0,0,0,0,0,0,0
1682959431.50042200,84128835,1581,1581,1581,1582,0,0,0,0,0,0,0,0,0,0
1682959431.60038209,84228795,1581,1581,1581,1581,0,0,0,0,0,0,0,0,0,0
1682959431.70034194,84328755,1582,1582,1581,1582,0,0,0,0,0,0,0,0,0,0
1682959431.80030203,84428715,1582,1582,1582,1581,0,0,0,0,0,0,0,0,0,0
1682959431.90026212,84528675,1582,1582,1582,1581,0,0,0,0,0,0,0,0,0,0
1682959432.00022197,84628635,1582,1582,1582,1581,0,0,0,0,0,0,0,0,0,0
1682959432.10018206,84728595,1582,1583,1584,1578,0,0,0,0,0,0,0,0,0,0
1682959432.20014215,84828555,1581,1583,1587,1572,0,0,0,0,0,0,0,0,0,0
1682959432.30010200,84928515,1580,1582,1581,1573,0,0,0,0,0,0,0,0,0,0
1682959432.40006208,85028475,1578,1581,1572,1573,0,0,0,0,0,0,0,0,0,0
1682959432.50002193,85128435,1577,1580,1565,1571,0,0,0,0,0,0,0,0,0,0
1682959432.59998202,85228395,1576,1578,1559,1566,0,0,0,0,0,0,0,0,0,0
1682959432.69994211,85328355,1578,1578,1556,1562,0,0,0,0,0,0,0,0,0,0
1682959432.79990196,85428315,1580,1579,1556,1558,0,0,0,0,0,0,0,0,0,0
1682959432.89986205,85528275,1580,1579,1555,1556,0,0,0,0,0,0,0,0,0,0
1682959432.99982214,85628235,1580,1579,1556,1554,0,0,0,0,0,0,0,0,0,0
1682959433.09978199,85728195,1579,1578,1556,1553,0,0,0,0,0,0,0,0,0,0
1682959433.19974208,85828155,1578,1579,1556,1554,0,0,0,0,0,0,0,0,0,0
1682959433.30053496,85928948,1577,1578,1555,1554,0,0,0,0,0,0,0,0,0,0
1682959433.40049505,86028908,1576,1577,1554,1554,0,0,0,0,0,0,0,0,0,0
1682959433.50045514,86128868,1575,1577,1553,1553,0,0,0,0,0,0,0,0,0,0
1682959433.60041499,86228828,1576,1578,1552,1552,0,0,0,0,0,0,0,0,0,0
1682959433.70037508,86328788,1577,1578,1550,1550,0,0,0,0,0,0,0,0,0,0
1682959433.80033493,86428748,1579,1580,1549,1548,0,0,0,0,0,0,0,0,0,0
1682959433.90029502,86528708,1582,1583,1547,1547,0,0,0,0,0,0,0,0,0,0
1682959434.00025511,86628668,1584,1585,1544,1544,0,0,0,0,0,0,0,0,0,0
1682959434.10021496,86728628,1586,1586,1541,1541,0,0,0,0,0,0,0,0,0,0
1682959434.20017505,86828588,1589,1589,1540,1540,0,0,0,0,0,0,0,0,0,0
1682959434.30013514,86928548,1591,1591,1539,1540,0,0,0,0,0,0,0,0,0,0
1682959434.40009499,87028508,1592,1592,1537,1538,0,0,0,0,0,0,0,0,0,0
1682959434.50005507,87128468,1593,1593,1537,1539,0,0,0,0,0,0,0,0,0,0
1682959434.60001493,87228428,1592,1592,1539,1541,0,0,0,0,0,0,0,0,0,0
1682959434.69997501,87328388,1591,1589,1543,1545,0,0,0,0,0,0,0,0,0,0
1682959434.79993510,87428348,1586,1584,1548,1551,0,0,0,0,0,0,0,0,0,0
1682959434.89989495,87528308,1580,1576,1557,1560,0,0,0,0,0,0,0,0,0,0
1682959434.99985504,87628268,1572,1569,1567,1570,0,0,0,0,0,0,0,0,0,0
1682959435.09981513,87728228,1562,1558,1579,1580,0,0,0,0,0,0,0,0,0,0
1682959435.19977498,87828188,1552,1550,1590,1590,0,0,0,0,0,0,0,0,0,0
1682959435.30056810,87928981,1544,1542,1600,1599,0,0,0,0,0,0,0,0,0,0
1682959435.40052795,88028941,1537,1538,1608,1606,0,0,0,0,0,0,0,0,0,0
1682959435.50048804,88128901,1534,1536,1612,1610,0,0,0,0,0,0,0,0,0,0
1682959435.60044813,88228861,1534,1537,1613,1612,0,0,0,0,0,0,0,0,0,0
1682959435.70040798,88328821,1538,1540,1612,1610,0,0,0,0,0,0,0,0,0,0
1682959435.80036807,88428781,1543,1545,1607,1607,0,0,0,0,0,0,0,0,0,0
1682959435.90032792,88528741,1550,1552,1602,1602,0,0,0,0,0,0,0,0,0,0
1682959436.00028801,88628701,1557,1557,1595,1594,0,0,0,0,0,0,0,0,0,0
1682959436.10024810,88728661,1564,1564,1588,1587,0,0,0,0,0,0,0,0,0,0
1682959436.20020795,88828621,1571,1571,1581,1581,0,0,0,0,0,0,0,0,0,0
1682959436.30016804,88928581,1577,1576,1575,1575,0,0,0,0,0,0,0,0,0,0
1682959436.40012813,89028541,1581,1580,1570,1571,0,0,0,0,0,0,0,0,0,0
1682959436.50008798,89128501,1585,1583,1567,1568,0,0,0,0,0,0,0,0,0,0
1682959436.60004807,89228461,1586,1584,1566,1567,0,0,0,0,0,0,0,0,0,0
1682959436.70000815,89328421,1586,1585,1567,1567,0,0,0,0,0,0,0,0,0,0
1682959436.79996800,89428381,1585,1584,1568,1568,0,0,0,0,0,0,0,0,0,0
1682959436.89992809,89528341,1583,1582,1570,1570,0,0,0,0,0,0,0,0,0,0
1682959436.99988794,89628301,1581,1581,1573,1573,0,0,0,0,0,0,0,0,0,0
1682959437.09984803,89728261,1579,1579,1576,1576,0,0,0,0,0,0,0,0,0,0
1682959437.19980812,89828221,1576,1578,1579,1579,0,0,0,0,0,0,0,0,0,0
1682959437.29976797,89928181,1575,1576,1582,1581,0,0,0,0,0,0,0,0,0,0
1682959437.40056109,90028974,1574,1575,1584,1583,0,0,0,0,0,0,0,0,0,0
1682959437.50052094,90128934,1573,1574,1584,1583,0,0,0,0,0,0,0,0,0,0
1682959437.60048103,90228894,1573,1574,1584,1584,0,0,0,0,0,0,0,0,0,0
1682959437.70044112,90328854,1573,1574,1583,1583,0,0,0,0,0,0,0,0,0,0
1682959437.80040097,90428814,1574,1575,1582,1583,0,0,0,0,0,0,0,0,0,0
1682959437.90036106,90528774,1575,1575,1581,1581,0,0,0,0,0,0,0,0,0,0
1682959438.00032115,90628734,1577,1576,1580,1580,0,0,0,0,0,0,0,0,0,0
1682959438.10028100,90728694,1578,1578,1580,1579,0,0,0,0,0,0,0,0,0,0
1682959438.20024109,90828654,1579,1579,1579,1578,0,0,0,0,0,0,0,0,0,0
1682959438.30020094,90928614,1580,1580,1577,1577,0,0,0,0,0,0,0,0,0,0
1682959438.40016103,91028574,1581,1581,1577,1577,0,0,0,0,0,0,0,0,0,0
1682959438.50012112,91128534,1582,1582,1578,1578,0,0,0,0,0,0,0,0,0,0
1682959438.60008097,91228494,1582,1582,1578,1578,0,0,0,0,0,0,0,0,0,0
1682959438.70004106,91328454,1581,1581,1577,1578,0,0,0,0,0,0,0,0,0,0
1682959438.80000114,91428414,1582,1582,1579,1579,0,0,0,0,0,0,0,0,0,0
1682959438.89996099,91528374,1581,1581,1579,1579,0,0,0,0,0,0,0,0,0,0
1682959438.99992108,91628334,1581,1581,1580,1580,0,0,0,0,0,0,0,0,0,0
1682959439.09988093,91728294,1580,1581,1580,1580,0,0,0,0,0,0,0,0,0,0
1682959439.19984102,91828254,1580,1581,1581,1581,0,0,0,0,0,0,0,0,0,0
1682959439.29980111,91928214,1579,1580,1581,1581,0,0,0,0,0,0,0,0,0,0
1682959439.39976096,92028174,1580,1579,1581,1581,0,0,0,0,0,0,0,0,0,0
1682959439.50055408,92128967,1579,1580,1581,1581,0,0,0,0,0,0,0,0,0,0
1682959439.60051394,92228927,1579,1579,1581,1581,0,0,0,0,0,0,0,0,0,0
1682959439.70047402,92328887,1580,1581,1581,1582,0,0,0,0,0,0,0,0,0,0
1682959439.80043411,92428847,1580,1581,1582,1581,0,0,0,0,0,0,0,0,0,0
1682959439.90039396,92528807,1581,1581,1582,1581,0,0,0,0,0,0,0,0,0,0
1682959440.00035405,92628767,1582,1581,1582,1582,0,0,0,0,0,0,0,0,0,0
1682959440.10031414,92728727,1581,1581,1586,1574,0,0,0,0,0,0,0,0,0,0
1682959440.20027399,92828687,1581,1581,1586,1573,0,0,0,0,0,0,0,0,0,0
1682959440.30023408,92928647,1579,1579,1580,1575,0,0,0,0,0,0,0,0,0,0
1682959440.40019393,93028607,1575,1575,1573,1575,0,0,0,0,0,0,0,0,0,0
1682959440.50015402,93128567,1572,1571,1567,1574,0,0,0,0,0,0,0,0,0,0
1682959440.60011411,93228527,1570,1570,1566,1573,0,0,0,0,0,0,0,0,0,0
1682959440.70007396,93328487,1569,1568,1565,1571,0,0,0,0,0,0,0,0,0,0
1682959440.80003405,93428447,1567,1567,1566,1567,0,0,0,0,0,0,0,0,0,0
1682959440.89999413,93528407,1566,1566,1567,1565,0,0,0,0,0,0,0,0,0,0
1682959440.99995399,93628367,1566,1567,1568,1565,0,0,0,0,0,0,0,0,0,0
1682959441.09991407,93728327,1565,1565,1567,1564,0,0,0,0,0,0,0,0,0,0
1682959441.19987392,93828287,1564,1564,1566,1564,0,0,0,0,0,0,0,0,0,0
1682959441.29983401,93928247,1563,1563,1564,1564,0,0,0,0,0,0,0,0,0,0
1682959441.39979410,94028207,1563,1563,1564,1564,0,0,0,0,0,0,0,0,0,0
1682959441.49975395,94128167,1563,1563,1564,1563,0,0,0,0,0,0,0,0,0,0
1682959441.60054708,94228960,1562,1562,1562,1562,0,0,0,0,0,0,0,0,0,0
1682959441.70050693,94328920,1561,1561,1561,1561,0,0,0,0,0,0,0,0,0,0
1682959441.80046701,94428880,1560,1560,1560,1561,0,0,0,0,0,0,0,0,0,0
1682959441.90042710,94528840,1560,1560,1560,1560,0,0,0,0,0,0,0,0,0,0
1682959442.00038695,94628800,1559,1559,1559,1558,0,0,0,0,0,0,0,0,0,0
1682959442.10034704,94728760,1558,1557,1558,1557,0,0,0,0,0,0,0,0,0,0
1682959442.20030713,94828720,1558,1558,1558,1557,0,0,0,0,0,0,0,0,0,0
1682959442.30026698,94928680,1558,1558,1558,1557,0,0,0,0,0,0,0,0,0,0
1682959442.40022707,95028640,1557,1558,1558,1556,0,0,0,0,0,0,0,0,0,0
1682959442.50018692,95128600,1557,1557,1558,1557,0,0,0,0,0,0,0,0,0,0
1682959442.60014701,95228560,1557,1557,1558,1556,0,0,0,0,0,0,0,0,0,0
1682959442.70010710,95328520,1558,1558,1559,1557,0,0,0,0,0,0,0,0,0,0
1682959442.80006695,95428480,1558,1558,1560,1556,0,0,0,0,0,0,0,0,0,0
1682959442.90002704,95528440,1558,1558,1558,1558,0,0,0,0,0,0,0,0,0,0
1682959442.99998713,95628400,1559,1560,1558,1562,0,0,0,0,0,0,0,0,0,0
1682959443.09994698,95728360,1561,1561,1558,1565,0,0,0,0,0,0,0,0,0,0
1682959443.19990706,95828320,1561,1561,1558,1564,0,0,0,0,0,0,0,0,0,0
1682959443.29986715,95928280,1562,1563,1560,1565,0,0,0,0,0,0,0,0,0,0
1682959443.39982700,96028240,1563,1563,1562,1563,0,0,0,0,0,0,0,0,0,0
1682959443.49978709,96128200,1562,1561,1563,1560,0,0,0,0,0,0,0,0,0,0
1682959443.59974694,96228160,1560,1560,1560,1560,0,0,0,0,0,0,0,0,0,0
1682959443.70054007,96328953,1557,1557,1556,1558,0,0,0,0,0,0,0,0,0,0
1682959443.80050015,96428913,1553,1553,1552,1554,0,0,0,0,0,0,0,0,0,0
1682959443.90046000,96528873,1548,1548,1548,1548,0,0,0,0,0,0,0,0,0,0
1682959444.00042009,96628833,1542,1542,1542,1542,0,0,0,0,0,0,0,0,0,0
1682959444.10037994,96728793,1535,1535,1535,1535,0,0,0,0,0,0,0,0,0,0
1682959444.20034003,96828753,1527,1528,1528,1528,0,0,0,0,0,0,0,0,0,0
1682959444.30030012,96928713,1521,1521,1521,1521,0,0,0,0,0,0,0,0,0,0
1682959444.40025997,97028673,1519,1520,1519,1520,0,0,0,0,0,0,0,0,0,0
1682959444.50022006,97128633,1519,1519,1519,1520,0,0,0,0,0,0,0,0,0,0
1682959444.60018015,97228593,1521,1521,1521,1522,0,0,0,0,0,0,0,0,0,0
1682959444.70014000,97328553,1524,1524,1524,1524,0,0,0,0,0,0,0,0,0,0
1682959444.80010009,97428513,1528,1528,1528,1528,0,0,0,0,0,0,0,0,0,0
1682959444.90005994,97528473,1532,1532,1533,1532,0,0,0,0,0,0,0,0,0,0
1682959445.00002003,97628433,1537,1536,1537,1536,0,0,0,0,0,0,0,0,0,0
1682959445.09998012,97728393,1540,1540,1540,1540,0,0,0,0,0,0,0,0,0,0
1682959445.19993997,97828353,1542,1541,1542,1541,0,0,0,0,0,0,0,0,0,0
1682959445.29990005,97928313,1544,1543,1544,1543,0,0,0,0,0,0,0,0,0,0
1682959445.39986014,98028273,1545,1545,1545,1544,0,0,0,0,0,0,0,0,0,0
1682959445.49981999,98128233,1546,1545,1546,1545,0,0,0,0,0,0,0,0,0,0
1682959445.59978008,98228193,1546,1546,1546,1546,0,0,0,0,0,0,0,0,0,0
1682959445.70057297,98328986,1547,1546,1547,1547,0,0,0,0,0,0,0,0,0,0
1682959445.80053306,98428946,1547,1547,1547,1547,0,0,0,0,0,0,0,0,0,0
1682959445.90049314,98528906,1546,1546,1546,1547,0,0,0,0,0,0,0,0,0,0
1682959446.00045300,98628866,1547,1547,1547,1546,0,0,0,0,0,0,0,0,0,0
1682959446.10041308,98728826,1546,1547,1546,1547,0,0,0,0,0,0,0,0,0,0
1682959446.20037293,98828786,1547,1547,1547,1547,0,0,0,0,0,0,0,0,0,0
1682959446.30033302,98928746,1546,1546,1546,1546,0,0,0,0,0,0,0,0,0,0
1682959446.40029311,99028706,1546,1546,1546,1546,0,0,0,0,0,0,0,0,0,0
1682959446.50025296,99128666,1546,1546,1546,1546,0,0,0,0,0,0,0,0,0,0
1682959446.60021305,99228626,1545,1545,1545,1545,0,0,0,0,0,0,0,0,0,0
1682959446.70017314,99328586,1544,1544,1544,1544,0,0,0,0,0,0,0,0,0,0
1682959446.80013299,99428546,1543,1543,1543,1543,0,0,0,0,0,0,0,0,0,0
1682959446.90009308,99528506,1544,1544,1544,1544,0,0,0,0,0,0,0,0,0,0
1682959447.00005293,99628466,1544,1544,1544,1544,0,0,0,0,0,0,0,0,0,0
1682959447.10001302,99728426,1543,1544,1543,1544,0,0,0,0,0,0,0,0,0,0
1682959447.19997311,99828386,1543,1544,1543,1543,0,0,0,0,0,0,0,0,0,0
1682959447.29993296,99928346,1543,1543,1543,1543,0,0,0,0,0,0,0,0,0,0
1682959447.39989305,100028306,1543,1543,1543,1543,0,0,0,0,0,0,0,0,0,0
1682959447.49985313,100128266,1544,1543,1544,1544,0,0,0,0,0,0,0,0,0,0
1682959447.59981298,100228226,1543,1543,1543,1543,0,0,0,0,0,0,0,0,0,0
1682959447.69977307,100328186,1544,1544,1544,1544,0,0,0,0,0,0,0,0,0,0
1682959447.80056596,100428979,1544,1544,1544,1543,0,0,0,0,0,0,0,0,0,0
1682959447.90052605,100528939,1544,1544,1544,1543,0,0,0,0,0,0,0,0,0,0
1682959448.00048614,100628899,1544,1545,1544,1544,0,0,0,0,0,0,0,0,0,0
1682959448.10044599,100728859,1543,1543,1543,1543,0,0,0,0,0,0,0,0,0,0
1682959448.20040607,100828819,1544,1544,1544,1544,0,0,0,0,0,0,0,0,0,0
1682959448.30036592,100928779,1544,1543,1543,1544,0,0,0,0,0,0,0,0,0,0
1682959448.40032601,101028739,1543,1543,1543,1543,0,0,0,0,0,0,0,0,0,0
1682959448.50028610,101128699,1544,1544,1544,1544,0,0,0,0,0,0,0,0,0,0
1682959448.60024595,101228659,1543,1544,1544,1543,0,0,0,0,0,0,0,0,0,0
1682959448.70020604,101328619,1543,1543,1544,1544,0,0,0,0,0,0,0,0,0,0
1682959448.80016613,101428579,1544,1544,1544,1544,0,0,0,0,0,0,0,0,0,0
1682959448.90012598,101528539,1544,1543,1543,1544,0,0,0,0,0,0,0,0,0,0
1682959449.00008607,101628499,1544,1544,1544,1544,0,0,0,0,0,0,0,0,0,0
1682959449.10004592,101728459,1543,1543,1543,1543,0,0,0,0,0,0,0,0,0,0
1682959449.20000601,101828419,1543,1544,1544,1543,0,0,0,0,0,0,0,0,0,0
1682959449.29996610,101928379,1543,1543,1543,1543,0,0,0,0,0,0,0,0,0,0
1682959449.39992595,102028339,1543,1544,1544,1543,0,0,0,0,0,0,0,0,0,0
1682959449.49988604,102128299,1544,1543,1544,1544,0,0,0,0,0,0,0,0,0,0
1682959449.59984612,102228259,1544,1544,1544,1543,0,0,0,0,0,0,0,0,0,0
1682959449.69980597,102328219,1544,1544,1544,1544,0,0,0,0,0,0,0,0,0,0
1682959449.79976606,102428179,1544,1544,1544,1544,0,0,0,0,0,0,0,0,0,0
1682959449.90055895,102528972,1544,1544,1544,1544,0,0,0,0,0,0,0,0,0,0
1682959450.00051904,102628932,1544,1544,1544,1544,0,0,0,0,0,0,0,0,0,0
1682959450.10047913,102728892,1545,1544,1544,1544,0,0,0,0,0,0,0,0,0,0
1682959450.20043898,102828852,1545,1545,1545,1545,0,0,0,0,0,0,0,0,0,0
1682959450.30039907,102928812,1544,1544,1544,1544,0,0,0,0,0,0,0,0,0,0
1682959450.40035915,103028772,1544,1544,1544,1544,0,0,0,0,0,0,0,0,0,0
1682959450.50031900,103128732,1544,1543,1543,1543,0,0,0,0,0,0,0,0,0,0
1682959450.60027909,103228692,1543,1543,1543,1543,0,0,0,0,0,0,0,0,0,0
1682959450.70023894,103328652,1544,1543,1543,1544,0,0,0,0,0,0,0,0,0,0
1682959450.80019903,103428612,1543,1543,1543,1544,0,0,0,0,0,0,0,0,0,0
1682959450.90015912,103528572,1543,1544,1543,1544,0,0,0,0,0,0,0,0,0,0
1682959451.00011897,103628532,1543,1544,1544,1543,0,0,0,0,0,0,0,0,0,0
1682959451.10007906,103728492,1544,1543,1544,1544,0,0,0,0,0,0,0,0,0,0
1682959451.20003915,103828452,1544,1545,1545,1545,0,0,0,0,0,0,0,0,0,0
1682959451.29999900,103928412,1543,1543,1544,1543,0,0,0,0,0,0,0,0,0,0
1682959451.39995909,104028372,1545,1545,1545,1545,0,0,0,0,0,0,0,0,0,0
1682959451.49991894,104128332,1545,1544,1544,1544,0,0,0,0,0,0,0,0,0,0
1682959451.59987903,104228292,1545,1545,1545,1544,0,0,0,0,0,0,0,0,0,0
1682959451.69983912,104328252,1545,1544,1544,1545,0,0,0,0,0,0,0,0,0,0
1682959451.79979897,104428212,1545,1545,1545,1545,0,0,0,0,0,0,0,0,0,0
1682959451.89975905,104528172,1545,1545,1545,1545,0,0,0,0,0,0,0,0,0,0
1682959452.00055194,104628965,1545,1546,1546,1545,0,0,0,0,0,0,0,0,0,0
1682959452.10051203,104728925,1546,1546,1546,1546,0,0,0,0,0,0,0,0,0,0
1682959452.20047212,104828885,1545,1546,1545,1546,0,0,0,0,0,0,0,0,0,0
1682959452.30043197,104928845,1545,1545,1545,1545,0,0,0,0,0,0,0,0,0,0
1682959452.40039206,105028805,1545,1545,1545,1545,0,0,0,0,0,0,0,0,0,0
1682959452.50035214,105128765,1545,1545,1545,1546,0,0,0,0,0,0,0,0,0,0
1682959452.60031199,105228725,1545,1545,1546,1545,0,0,0,0,0,0,0,0,0,0
1682959452.70027208,105328685,1545,1545,1545,1545,0,0,0,0,0,0,0,0,0,0
1682959452.80023193,105428645,1545,1544,1544,1544,0,0,0,0,0,0,0,0,0,0
1682959452.90019202,105528605,1544,1544,1544,1544,0,0,0,0,0,0,0,0,0,0
1682959453.00015211,105628565,1544,1545,1545,1544,0,0,0,0,0,0,0,0,0,0
1682959453.10011196,105728525,1545,1545,1545,1545,0,0,0,0,0,0,0,0,0,0
1682959453.20007205,105828485,1544,1544,1544,1544,0,0,0,0,0,0,0,0,0,0
1682959453.30003214,105928445,1544,1544,1544,1544,0,0,0,0,0,0,0,0,0,0
1682959453.39999199,106028405,1543,1544,1544,1543,0,0,0,0,0,0,0,0,0,0
1682959453.49995208,106128365,1544,1544,1544,1544,0,0,0,0,0,0,0,0,0,0
1682959453.59991193,106228325,1543,1543,1544,1543,0,0,0,0,0,0,0,0,0,0
1682959453.69987202,106328285,1544,1543,1543,1544,0,0,0,0,0,0,0,0,0,0
1682959453.79983211,106428245,1545,1545,1544,1545,0,0,0,0,0,0,0,0,0,0
1682959453.89979196,106528205,1545,1544,1544,1545,0,0,0,0,0,0,0,0,0,0
1682959453.99975204,106628165,1528,1526,1529,1525,0,0,0,0,0,0,0,0,0,0
1682959454.10054493,106728958,1373,1336,1372,1337,0,0,0,0,0,0,0,0,0,0
1682959454.20050502,106828918,1300,1242,1301,1242,0,0,0,0,0,0,0,0,0,0
1682959454.30046511,106928878,1280,1213,1280,1214,0,0,0,0,0,0,0,0,0,0
1682959454.40042496,107028838,1265,1193,1266,1193,0,0,0,0,0,0,0,0,0,0
1682959454.50038505,107128798,1236,1150,1236,1150,0,0,0,0,0,0,0,0,0,0
1682959454.60034513,107228758,1197,1150,1198,1150,0,0,0,0,0,0,0,0,0,0
1682959454.70030499,107328718,1197,1150,1197,1150,0,0,0,0,0,0,0,0,0,0
1682959454.80026507,107428678,1197,1150,1198,1150,0,0,0,0,0,0,0,0,0,0
1682959454.90022492,107528638,1197,1150,1180,1174,0,0,0,0,0,0,0,0,0,0
1682959455.00018501,107628598,1197,1150,1184,1168,0,0,0,0,0,0,0,0,0,0
1682959455.10014510,107728558,1197,1150,1188,1164,0,0,0,0,0,0,0,0,0,0
1682959455.20010495,107828518,1197,1150,1188,1163,0,0,0,0,0,0,0,0,0,0
1682959455.30006504,107928478,1197,1150,1188,1164,0,0,0,0,0,0,0,0,0,0
1682959455.40002513,108028438,1197,1150,1187,1165,0,0,0,0,0,0,0,0,0,0
1682959455.49998498,108128398,1197,1150,1186,1166,0,0,0,0,0,0,0,0,0,0
1682959455.59994507,108228358,1197,1150,1186,1166,0,0,0,0,0,0,0,0,0,0
1682959455.69990516,108328318,1197,1150,1194,1155,0,0,0,0,0,0,0,0,0,0
1682959455.79986501,108428278,1197,1150,1193,1157,0,0,0,0,0,0,0,0,0,0
1682959455.89982510,108528238,1197,1150,1192,1158,0,0,0,0,0,0,0,0,0,0
1682959455.99978495,108628198,1197,1150,1192,1158,0,0,0,0,0,0,0,0,0,0
1682959456.09974504,108728158,1197,1150,1192,1158,0,0,0,0,0,0,0,0,0,0
1682959456.20053792,108828951,1000,1000,1000,1000,0,0,0,0,0,0,0,0,0,0
1682959456.30049801,108928911,1000,1000,1000,1000,0,0,0,0,0,0,0,0,0,0
1682959456.40045810,109028871,1000,1000,1000,1000,0,0,0,0,0,0,0,0,0,0
1682959456.50041795,109128831,1000,1000,1000,1000,0,0,0,0,0,0,0,0,0,0
1682959456.60037804,109228791,1000,1000,1000,1000,0,0,0,0,0,0,0,0,0,0
1682959456.70033813,109328751,1000,1000,1000,1000,0,0,0,0,0,0,0,0,0,0
1682959456.80029798,109428711,1000,1000,1000,1000,0,0,0,0,0,0,0,0,0,0
1682959456.90025806,109528671,1000,1000,1000,1000,0,0,0,0,0,0,0,0,0,0
1682959457.00021815,109628631,1000,1000,1000,1000,0,0,0,0,0,0,0,0,0,0
1682959457.10017800,109728591,1000,1000,1000,1000,0,0,0,0,0,0,0,0,0,0
1682959457.20013809,109828551,1000,1000,1000,1000,0,0,0,0,0,0,0,0,0,0
1682959457.30009794,109928511,1000,1000,1000,1000,0,0,0,0,0,0,0,0,0,0
1682959457.40005803,110028471,1000,1000,1000,1000,0,0,0,0,0,0,0,0,0,0
1682959457.50001812,110128431,1000,1000,1000,1000,0,0,0,0,0,0,0,0,0,0
1682959457.59997797,110228391,1000,1000,1000,1000,0,0,0,0,0,0,0,0,0,0
1682959457.69993806,110328351,1000,1000,1000,1000,0,0,0,0,0,0,0,0,0,0
1682959457.79989815,110428311,1000,1000,1000,1000,0,0,0,0,0,0,0,0,0,0
1682959457.89985800,110528271,1000,1000,1000,1000,0,0,0,0,0,0,0,0,0,0
1682959457.99981809,110628231,1000,1000,1000,1000,0,0,0,0,0,0,0,0,0,0
1682959458.09977794,110728191,1000,1000,1000,1000,0,0,0,0,0,0,0,0,0,0
1682959458.20057106,110828984,1000,1000,1000,1000,0,0,0,0,0,0,0,0,0,0
1682959458.30053115,110928944,1000,1000,1000,1000,0,0,0,0,0,0,0,0,0,0
1682959458.40049100,111028904,1000,1000,1000,1000,0,0,0,0,0,0,0,0,0,0
1682959458.50045109,111128864,1000,1000,1000,1000,0,0,0,0,0,0,0,0,0,0
1682959458.60041094,111228824,1000,1000,1000,1000,0,0,0,0,0,0,0,0,0,0
1682959458.70037103,111328784,1000,1000,1000,1000,0,0,0,0,0,0,0,0,0,0
1682959458.80033112,111428744,1000,1000,1000,1000,0,0,0,0,0,0,0,0,0,0
1682959458.90029097,111528704,1000,1000,1000,1000,0,0,0,0,0,0,0,0,0,0
1682959459.00025105,111628664,1000,1000,1000,1000,0,0,0,0,0,0,0,0,0,0
1682959459.10021114,111728624,1000,1000,1000,1000,0,0,0,0,0,0,0,0,0,0
1682959459.20017099,111828584,1000,1000,1000,1000,0,0,0,0,0,0,0,0,0,0
1682959459.30013108,111928544,1000,1000,1000,1000,0,0,0,0,0,0,0,0,0,0
1682959459.40009093,112028504,1000,1000,1000,1000,0,0,0,0,0,0,0,0,0,0
1682959459.50005102,112128464,1000,1000,1000,1000,0,0,0,0,0,0,0,0,0,0
1682959459.60001111,112228424,1000,1000,1000,1000,0,0,0,0,0,0,0,0,0,0
1682959459.69997096,112328384,1000,1000,1000,1000,0,0,0,0,0,0,0,0,0,0
1682959459.79993105,112428344,1000,1000,1000,1000,0,0,0,0,0,0,0,0,0,0
1682959459.89989114,112528304,1000,1000,1000,1000,0,0,0,0,0,0,0,0,0,0
1682959459.99985099,112628264,1000,1000,1000,1000,0,0,0,0,0,0,0,0,0,0
1682959460.09981108,112728224,1000,1000,1000,1000,0,0,0,0,0,0,0,0,0,0
1682959460.19977093,112828184,1000,1000,1000,1000,0,0,0,0,0,0,0,0,0,0
1682959460.30056405,112928977,1000,1000,1000,1000,0,0,0,0,0,0,0,0,0,0
1682959460.40052414,113028937,1000,1000,1000,1000,0,0,0,0,0,0,0,0,0,0
1682959460.50048399,113128897,1000,1000,1000,1000,0,0,0,0,0,0,0,0,0,0
1682959460.60044408,113228857,1000,1000,1000,1000,0,0,0,0,0,0,0,0,0,0
1682959460.70040393,113328817,1000,1000,1000,1000,0,0,0,0,0,0,0,0,0,0
1682959460.80036402,113428777,1000,1000,1000,1000,0,0,0,0,0,0,0,0,0,0
1682959460.90032411,113528737,1000,1000,1000,1000,0,0,0,0,0,0,0,0,0,0
1682959461.00028396,113628697,1000,1000,1000,1000,0,0,0,0,0,0,0,0,0,0
1682959461.10024405,113728657,1000,1000,1000,1000,0,0,0,0,0,0,0,0,0,0
1682959461.20020413,113828617,1000,1000,1000,1000,0,0,0,0,0,0,0,0,0,0
1682959461.30016398,113928577,1000,1000,1000,1000,0,0,0,0,0,0,0,0,0,0
1682959461.40012407,114028537,1000,1000,1000,1000,0,0,0,0,0,0,0,0,0,0
1682959461.50008392,114128497,1000,1000,1000,1000,0,0,0,0,0,0,0,0,0,0
1682959461.60004401,114228457,1000,1000,1000,1000,0,0,0,0,0,0,0,0,0,0
1682959461.70000410,114328417,1000,1000,1000,1000,0,0,0,0,0,0,0,0,0,0
1682959461.79996395,114428377,1000,1000,1000,1000,0,0,0,0,0,0,0,0,0,0
1682959461.89992404,114528337,1000,1000,1000,1000,0,0,0,0,0,0,0,0,0,0
1682959461.99988413,114628297,1000,1000,1000,1000,0,0,0,0,0,0,0,0,0,0
1682959462.09984398,114728257,1000,1000,1000,1000,0,0,0,0,0,0,0,0,0,0
1682959462.19980407,114828217,1000,1000,1000,1000,0,0,0,0,0,0,0,0,0,0
1682959462.29976416,114928177,1000,1000,1000,1000,0,0,0,0,0,0,0,0,0,0
1682959462.40055704,115028970,1000,1000,1000,1000,0,0,0,0,0,0,0,0,0,0
1682959462.50051713,115128930,1000,1000,1000,1000,0,0,0,0,0,0,0,0,0,0
1682959462.60047698,115228890,1000,1000,1000,1000,0,0,0,0,0,0,0,0,0,0
1682959462.70043707,115328850,1000,1000,1000,1000,0,0,0,0,0,0,0,0,0,0
1682959462.80039692,115428810,1000,1000,1000,1000,0,0,0,0,0,0,0,0,0,0
1682959462.90035701,115528770,1000,1000,1000,1000,0,0,0,0,0,0,0,0,0,0
1682959463.00031710,115628730,1000,1000,1000,1000,0,0,0,0,0,0,0,0,0,0
1682959463.10027695,115728690,1000,1000,1000,1000,0,0,0,0,0,0,0,0,0,0
1682959463.20023704,115828650,1000,1000,1000,1000,0,0,0,0,0,0,0,0,0,0
1682959463.30019712,115928610,1000,1000,1000,1000,0,0,0,0,0,0,0,0,0,0
1682959463.40015697,116028570,1000,1000,1000,1000,0,0,0,0,0,0,0,0,0,0
1682959463.50011706,116128530,1000,1000,1000,1000,0,0,0,0,0,0,0,0,0,0
1682959463.60007715,116228490,1000,1000,1000,1000,0,0,0,0,0,0,0,0,0,0
1682959463.70003700,116328450,1000,1000,1000,1000,0,0,0,0,0,0,0,0,0,0
1682959463.79999709,116428410,1000,1000,1000,1000,0,0,0,0,0,0,0,0,0,0
1682959463.89995694,116528370,1000,1000,1000,1000,0,0,0,0,0,0,0,0,0,0
1682959463.99991703,116628330,1000,1000,1000,1000,0,0,0,0,0,0,0,0,0,0
1682959464.09987712,116728290,1000,1000,1000,1000,0,0,0,0,0,0,0,0,0,0
1682959464.19983697,116828250,1000,1000,1000,1000,0,0,0,0,0,0,0,0,0,0
1682959464.29979706,116928210,1000,1000,1000,1000,0,0,0,0,0,0,0,0,0,0
1682959464.39975715,117028170,1000,1000,1000,1000,0,0,0,0,0,0,0,0,0,0
1682959464.50055003,117128963,1000,1000,1000,1000,0,0,0,0,0,0,0,0,0,0
1682959464.60051012,117228923,1000,1000,1000,1000,0,0,0,0,0,0,0,0,0,0
1682959464.70046997,117328883,1000,1000,1000,1000,0,0,0,0,0,0,0,0,0,0
1682959464.80043006,117428843,1000,1000,1000,1000,0,0,0,0,0,0,0,0,0,0
1682959464.90039015,117528803,1000,1000,1000,1000,0,0,0,0,0,0,0,0,0,0
1682959465.00035000,117628763,1000,1000,1000,1000,0,0,0,0,0,0,0,0,0,0
1682959465.10031009,117728723,1000,1000,1000,1000,0,0,0,0,0,0,0,0,0,0
1682959465.20026994,117828683,1000,1000,1000,1000,0,0,0,0,0,0,0,0,0,0
1682959465.30023003,117928643,1000,1000,1000,1000,0,0,0,0,0,0,0,0,0,0
1682959465.40019011,118028603,1000,1000,1000,1000,0,0,0,0,0,0,0,0,0,0
1682959465.50014997,118128563,1000,1000,1000,1000,0,0,0,0,0,0,0,0,0,0
1682959465.60011005,118228523,1000,1000,1000,1000,0,0,0,0,0,0,0,0,0,0
1682959465.70007014,118328483,1000,1000,1000,1000,0,0,0,0,0,0,0,0,0,0
1682959465.80002999,118428443,1000,1000,1000,1000,0,0,0,0,0,0,0,0,0,0
1682959465.89999008,118528403,1000,1000,1000,1000,0,0,0,0,0,0,0,0,0,0
1682959465.99994993,118628363,1000,1000,1000,1000,0,0,0,0,0,0,0,0,0,0
1682959466.09991002,118728323,1000,1000,1000,1000,0,0,0,0,0,0,0,0,0,0
1682959466.19987011,118828283,1000,1000,1000,1000,0,0,0,0,0,0,0,0,0,0
1682959466.29982996,118928243,1000,1000,1000,1000,0,0,0,0,0,0,0,0,0,0
1682959466.39979005,119028203,1000,1000,1000,1000,0,0,0,0,0,0,0,0,0,0
1682959466.49975014,119128163,1000,1000,1000,1000,0,0,0,0,0,0,0,0,0,0
1682959466.60054302,119228956,1000,1000,1000,1000,0,0,0,0,0,0,0,0,0,0
1682959466.70050311,119328916,1000,1000,1000,1000,0,0,0,0,0,0,0,0,0,0
1682959466.80046296,119428876,1000,1000,1000,1000,0,0,0,0,0,0,0,0,0,0
1682959466.90042305,119528836,1000,1000,1000,1000,0,0,0,0,0,0,0,0,0,0
1682959467.00038314,119628796,1000,1000,1000,1000,0,0,0,0,0,0,0,0,0,0
1682959467.10034299,119728756,1000,1000,1000,1000,0,0,0,0,0,0,0,0,0,0
1682959467.20030308,119828716,1000,1000,1000,1000,0,0,0,0,0,0,0,0,0,0
1682959467.30026293,119928676,1000,1000,1000,1000,0,0,0,0,0,0,0,0,0,0
1682959467.40022302,120028636,1000,1000,1000,1000,0,0,0,0,0,0,0,0,0,0
1682959467.50018311,120128596,1000,1000,1000,1000,0,0,0,0,0,0,0,0,0,0
1682959467.60014296,120228556,1000,1000,1000,1000,0,0,0,0,0,0,0,0,0,0
1682959467.70010304,120328516,1000,1000,1000,1000,0,0,0,0,0,0,0,0,0,0
1682959467.80006313,120428476,1000,1000,1000,1000,0,0,0,0,0,0,0,0,0,0
1682959467.90002298,120528436,1000,1000,1000,1000,0,0,0,0,0,0,0,0,0,0
1682959467.99998307,120628396,1000,1000,1000,1000,0,0,0,0,0,0,0,0,0,0
1682959468.09994292,120728356,1000,1000,1000,1000,0,0,0,0,0,0,0,0,0,0
1682959468.19990301,120828316,1000,1000,1000,1000,0,0,0,0,0,0,0,0,0,0
1682959468.29986310,120928276,1000,1000,1000,1000,0,0,0,0,0,0,0,0,0,0
1682959468.39982295,121028236,1000,1000,1000,1000,0,0,0,0,0,0,0,0,0,0
1682959468.49978304,121128196,1000,1000,1000,1000,0,0,0,0,0,0,0,0,0,0
1682959468.59974313,121228156,1000,1000,1000,1000,0,0,0,0,0,0,0,0,0,0
1682959468.70053601,121328949,1000,1000,1000,1000,0,0,0,0,0,0,0,0,0,0
1682959468.80049610,121428909,1000,1000,1000,1000,0,0,0,0,0,0,0,0,0,0
1682959468.90045595,121528869,1000,1000,1000,1000,0,0,0,0,0,0,0,0,0,0
1682959469.00041604,121628829,1000,1000,1000,1000,0,0,0,0,0,0,0,0,0,0
1682959469.10037613,121728789,1000,1000,1000,1000,0,0,0,0,0,0,0,0,0,0
1682959469.20033598,121828749,1000,1000,1000,1000,0,0,0,0,0,0,0,0,0,0
1682959469.30029607,121928709,1000,1000,1000,1000,0,0,0,0,0,0,0,0,0,0
1682959469.40025616,122028669,1000,1000,1000,1000,0,0,0,0,0,0,0,0,0,0
1682959469.50021601,122128629,1000,1000,1000,1000,0,0,0,0,0,0,0,0,0,0
1682959469.60017610,122228589,1000,1000,1000,1000,0,0,0,0,0,0,0,0,0,0
1682959469.70013595,122328549,1000,1000,1000,1000,0,0,0,0,0,0,0,0,0,0
1682959469.80009604,122428509,1000,1000,1000,1000,0,0,0,0,0,0,0,0,0,0
1682959469.90005612,122528469,1000,1000,1000,1000,0,0,0,0,0,0,0,0,0,0
1682959470.00001597,122628429,1000,1000,1000,1000,0,0,0,0,0,0,0,0,0,0
1682959470.09997606,122728389,1000,1000,1000,1000,0,0,0,0,0,0,0,0,0,0
1682959470.19993615,122828349,1000,1000,1000,1000,0,0,0,0,0,0,0,0,0,0
1682959470.29989600,122928309,1000,1000,1000,1000,0,0,0,0,0,0,0,0,0,0
1682959470.39985609,123028269,1000,1000,1000,1000,0,0,0,0,0,0,0,0,0,0
1682959470.49981594,123128229,1000,1000,1000,1000,0,0,0,0,0,0,0,0,0,0
1682959470.59977603,123228189,1000,1000,1000,1000,0,0,0,0,0,0,0,0,0,0
1682959470.70056915,123328982,1000,1000,1000,1000,0,0,0,0,0,0,0,0,0,0
1682959470.80052900,123428942,1000,1000,1000,1000,0,0,0,0,0,0,0,0,0,0
1682959470.90048909,123528902,1000,1000,1000,1000,0,0,0,0,0,0,0,0,0,0
1682959471.00044894,123628862,1000,1000,1000,1000,0,0,0,0,0,0,0,0,0,0
1682959471.10040903,123728822,1000,1000,1000,1000,0,0,0,0,0,0,0,0,0,0
