timestamp,TimeUS,C1,C2,C3,C4,C5,C6,C7,C8,C9,C10,C11,C12,C13,C14
1682943510.10003996,58528246,1000,1000,1000,1000,0,0,0,0,0,0,0,0,0,0
1682943510.20000005,58628206,1000,1000,1000,1000,0,0,0,0,0,0,0,0,0,0
1682943510.29996014,58728166,1000,1000,1000,1000,0,0,0,0,0,0,0,0,0,0
1682943510.40075302,58828959,1000,1000,1000,1000,0,0,0,0,0,0,0,0,0,0
1682943510.50071311,58928919,1000,1000,1000,1000,0,0,0,0,0,0,0,0,0,0
1682943510.60067296,59028879,1000,1000,1000,1000,0,0,0,0,0,0,0,0,0,0
1682943510.70063305,59128839,1000,1000,1000,1000,0,0,0,0,0,0,0,0,0,0
1682943510.80059314,59228799,1000,1000,1000,1000,0,0,0,0,0,0,0,0,0,0
1682943510.90055299,59328759,1000,1000,1000,1000,0,0,0,0,0,0,0,0,0,0
1682943511.00051308,59428719,1000,1000,1000,1000,0,0,0,0,0,0,0,0,0,0
1682943511.10047293,59528679,1000,1000,1000,1000,0,0,0,0,0,0,0,0,0,0
1682943511.20043302,59628639,1000,1000,1000,1000,0,0,0,0,0,0,0,0,0,0
1682943511.30039310,59728599,1000,1000,1000,1000,0,0,0,0,0,0,0,0,0,0
1682943511.40035295,59828559,1000,1000,1000,1000,0,0,0,0,0,0,0,0,0,0
1682943511.50031304,59928519,1000,1000,1000,1000,0,0,0,0,0,0,0,0,0,0
1682943511.60027313,60028479,1000,1000,1000,1000,0,0,0,0,0,0,0,0,0,0
1682943511.70023298,60128439,1000,1000,1000,1000,0,0,0,0,0,0,0,0,0,0
1682943511.80019307,60228399,1000,1000,1000,1000,0,0,0,0,0,0,0,0,0,0
1682943511.90015292,60328359,1000,1000,1000,1000,0,0,0,0,0,0,0,0,0,0
1682943512.00011301,60428319,1000,1000,1000,1000,0,0,0,0,0,0,0,0,0,0
1682943512.10007310,60528279,1014,1014,1014,1014,0,0,0,0,0,0,0,0,0,0
1682943512.20003295,60628239,1044,1044,1044,1044,0,0,0,0,0,0,0,0,0,0
1682943512.29999304,60728199,1074,1074,1074,1074,0,0,0,0,0,0,0,0,0,0
1682943512.39995313,60828159,1104,1104,1104,1104,0,0,0,0,0,0,0,0,0,0
1682943512.50074601,60928952,1134,1134,1134,1134,0,0,0,0,0,0,0,0,0,0
1682943512.60070610,61028912,1282,1274,1275,1282,0,0,0,0,0,0,0,0,0,0
1682943512.70066595,61128872,1491,1485,1485,1491,0,0,0,0,0,0,0,0,0,0
1682943512.80062604,61228832,1652,1647,1647,1653,0,0,0,0,0,0,0,0,0,0
1682943512.90058613,61328792,1789,1784,1784,1790,0,0,0,0,0,0,0,0,0,0
1682943513.00054598,61428752,1874,1870,1870,1874,0,0,0,0,0,0,0,0,0,0
1682943513.10050607,61528712,1864,1861,1862,1864,0,0,0,0,0,0,0,0,0,0
1682943513.20046592,61628672,1742,1741,1741,1742,0,0,0,0,0,0,0,0,0,0
1682943513.30042601,61728632,1645,1646,1647,1645,0,0,0,0,0,0,0,0,0,0
1682943513.40038610,61828592,1618,1621,1621,1619,0,0,0,0,0,0,0,0,0,0
1682943513.50034595,61928552,1623,1624,1619,1627,0,0,0,0,0,0,0,0,0,0
1682943513.60030603,62028512,1631,1633,1628,1637,0,0,0,0,0,0,0,0,0,0
1682943513.70026612,62128472,1633,1635,1632,1636,0,0,0,0,0,0,0,0,0,0
1682943513.80022597,62228432,1628,1629,1630,1628,0,0,0,0,0,0,0,0,0,0
1682943513.90018606,62328392,1623,1623,1626,1621,0,0,0,0,0,0,0,0,0,0
1682943514.00014615,62428352,1621,1620,1624,1617,0,0,0,0,0,0,0,0,0,0
1682943514.10010600,62528312,1620,1619,1622,1617,0,0,0,0,0,0,0,0,0,0
1682943514.20006609,62628272,1621,1619,1622,1618,0,0,0,0,0,0,0,0,0,0
1682943514.30002594,62728232,1621,1620,1621,1621,0,0,0,0,0,0,0,0,0,0
1682943514.39998603,62828192,1589,1590,1596,1583,0,0,0,0,0,0,0,0,0,0
1682943514.50077915,62928985,1575,1576,1581,1570,0,0,0,0,0,0,0,0,0,0
1682943514.60073900,63028945,1564,1564,1565,1564,0,0,0,0,0,0,0,0,0,0
1682943514.70069909,63128905,1555,1555,1551,1558,0,0,0,0,0,0,0,0,0,0
1682943514.80065894,63228865,1547,1547,1539,1555,0,0,0,0,0,0,0,0,0,0
1682943514.90061903,63328825,1541,1540,1531,1549,0,0,0,0,0,0,0,0,0,0
1682943515.00057912,63428785,1535,1535,1529,1540,0,0,0,0,0,0,0,0,0,0
1682943515.10053897,63528745,1530,1530,1528,1531,0,0,0,0,0,0,0,0,0,0
1682943515.20049906,63628705,1527,1527,1528,1526,0,0,0,0,0,0,0,0,0,0
1682943515.30045915,63728665,1528,1528,1529,1526,0,0,0,0,0,0,0,0,0,0
1682943515.40041900,63828625,1530,1530,1533,1527,0,0,0,0,0,0,0,0,0,0
1682943515.50037909,63928585,1533,1533,1536,1530,0,0,0,0,0,0,0,0,0,0
1682943515.60033894,64028545,1537,1537,1540,1535,0,0,0,0,0,0,0,0,0,0
1682943515.70029902,64128505,1541,1540,1542,1539,0,0,0,0,0,0,0,0,0,0
1682943515.80025911,64228465,1544,1544,1544,1544,0,0,0,0,0,0,0,0,0,0
1682943515.90021896,64328425,1547,1547,1547,1548,0,0,0,0,0,0,0,0,0,0
1682943516.00017905,64428385,1549,1549,1549,1550,0,0,0,0,0,0,0,0,0,0
1682943516.10013914,64528345,1552,1552,1552,1553,0,0,0,0,0,0,0,0,0,0
1682943516.20009899,64628305,1555,1555,1554,1556,0,0,0,0,0,0,0,0,0,0
1682943516.30005908,64728265,1556,1556,1556,1558,0,0,0,0,0,0,0,0,0,0
1682943516.40001893,64828225,1557,1558,1560,1561,0,0,0,0,0,0,0,0,0,0
1682943516.49997902,64928185,1560,1560,1564,1564,0,0,0,0,0,0,0,0,0,0
1682943516.60077214,65028978,1561,1561,1566,1566,0,0,0,0,0,0,0,0,0,0
1682943516.70073199,65128938,1563,1563,1567,1567,0,0,0,0,0,0,0,0,0,0
1682943516.80069208,65228898,1564,1564,1567,1567,0,0,0,0,0,0,0,0,0,0
1682943516.90065193,65328858,1566,1567,1568,1568,0,0,0,0,0,0,0,0,0,0
1682943517.00061202,65428818,1569,1569,1569,1569,0,0,0,0,0,0,0,0,0,0
1682943517.10057211,65528778,1570,1570,1568,1569,0,0,0,0,0,0,0,0,0,0
1682943517.20053196,65628738,1572,1572,1569,1569,0,0,0,0,0,0,0,0,0,0
1682943517.30049205,65728698,1573,1573,1570,1570,0,0,0,0,0,0,0,0,0,0
1682943517.40045214,65828658,1575,1574,1571,1571,0,0,0,0,0,0,0,0,0,0
1682943517.50041199,65928618,1574,1574,1571,1571,0,0,0,0,0,0,0,0,0,0
1682943517.60037208,66028578,1575,1575,1572,1572,0,0,0,0,0,0,0,0,0,0
1682943517.70033193,66128538,1575,1575,1573,1573,0,0,0,0,0,0,0,0,0,0
1682943517.80029202,66228498,1576,1576,1575,1573,0,0,0,0,0,0,0,0,0,0
1682943517.90025210,66328458,1575,1575,1574,1574,0,0,0,0,0,0,0,0,0,0
1682943518.00021195,66428418,1575,1576,1576,1575,0,0,0,0,0,0,0,0,0,0
1682943518.10017204,66528378,1575,1575,1576,1575,0,0,0,0,0,0,0,0,0,0
1682943518.20013213,66628338,1575,1575,1576,1576,0,0,0,0,0,0,0,0,0,0
1682943518.30009198,66728298,1575,1575,1576,1576,0,0,0,0,0,0,0,0,0,0
1682943518.40005207,66828258,1576,1576,1577,1576,0,0,0,0,0,0,0,0,0,0
1682943518.50001192,66928218,1576,1576,1577,1577,0,0,0,0,0,0,0,0,0,0
1682943518.59997201,67028178,1576,1577,1577,1577,0,0,0,0,0,0,0,0,0,0
1682943518.70076513,67128971,1576,1577,1577,1577,0,0,0,0,0,0,0,0,0,0
1682943518.80072498,67228931,1577,1577,1577,1577,0,0,0,0,0,0,0,0,0,0
1682943518.90068507,67328891,1578,1577,1577,1577,0,0,0,0,0,0,0,0,0,0
1682943519.00064492,67428851,1577,1577,1577,1577,0,0,0,0,0,0,0,0,0,0
1682943519.10060501,67528811,1578,1577,1577,1577,0,0,0,0,0,0,0,0,0,0
1682943519.20056510,67628771,1577,1577,1577,1577,0,0,0,0,0,0,0,0,0,0
1682943519.30052495,67728731,1577,1578,1577,1577,0,0,0,0,0,0,0,0,0,0
1682943519.40048504,67828691,1578,1578,1578,1578,0,0,0,0,0,0,0,0,0,0
1682943519.50044513,67928651,1578,1578,1578,1578,0,0,0,0,0,0,0,0,0,0
1682943519.60040498,68028611,1579,1579,1579,1579,0,0,0,0,0,0,0,0,0,0
1682943519.70036507,68128571,1579,1579,1579,1579,0,0,0,0,0,0,0,0,0,0
1682943519.80032492,68228531,1579,1579,1580,1580,0,0,0,0,0,0,0,0,0,0
1682943519.90028501,68328491,1579,1579,1579,1579,0,0,0,0,0,0,0,0,0,0
1682943520.00024509,68428451,1579,1579,1579,1580,0,0,0,0,0,0,0,0,0,0
1682943520.10020494,68528411,1578,1578,1579,1579,0,0,0,0,0,0,0,0,0,0
1682943520.20016503,68628371,1579,1579,1580,1579,0,0,0,0,0,0,0,0,0,0
1682943520.30012512,68728331,1580,1579,1580,1580,0,0,0,0,0,0,0,0,0,0
1682943520.40008497,68828291,1580,1580,1580,1580,0,0,0,0,0,0,0,0,0,0
1682943520.50004506,68928251,1579,1579,1579,1579,0,0,0,0,0,0,0,0,0,0
1682943520.60000515,69028211,1579,1580,1579,1580,0,0,0,0,0,0,0,0,0,0
1682943520.69996500,69128171,1580,1580,1580,1580,0,0,0,0,0,0,0,0,0,0
1682943520.80075812,69228964,1580,1581,1580,1580,0,0,0,0,0,0,0,0,0,0
1682943520.90071797,69328924,1580,1580,1580,1580,0,0,0,0,0,0,0,0,0,0
1682943521.00067806,69428884,1580,1580,1580,1580,0,0,0,0,0,0,0,0,0,0
1682943521.10063815,69528844,1580,1580,1580,1579,0,0,0,0,0,0,0,0,0,0
1682943521.20059800,69628804,1580,1580,1580,1580,0,0,0,0,0,0,0,0,0,0
1682943521.30055809,69728764,1580,1580,1579,1580,0,0,0,0,0,0,0,0,0,0
1682943521.40051794,69828724,1580,1580,1579,1580,0,0,0,0,0,0,0,0,0,0
1682943521.50047803,69928684,1580,1580,1580,1580,0,0,0,0,0,0,0,0,0,0
1682943521.60043812,70028644,1580,1580,1580,1580,0,0,0,0,0,0,0,0,0,0
1682943521.70039797,70128604,1580,1581,1580,1581,0,0,0,0,0,0,0,0,0,0
1682943521.80035806,70228564,1581,1580,1581,1580,0,0,0,0,0,0,0,0,0,0
1682943521.90031815,70328524,1581,1580,1581,1581,0,0,0,0,0,0,0,0,0,0
1682943522.00027800,70428484,1580,1581,1581,1581,0,0,0,0,0,0,0,0,0,0
1682943522.10023808,70528444,1581,1580,1580,1581,0,0,0,0,0,0,0,0,0,0
1682943522.20019794,70628404,1581,1581,1580,1581,0,0,0,0,0,0,0,0,0,0
1682943522.30015802,70728364,1580,1580,1580,1580,0,0,0,0,0,0,0,0,0,0
1682943522.40011811,70828324,1581,1580,1582,1579,0,0,0,0,0,0,0,0,0,0
1682943522.50007796,70928284,1580,1581,1587,1572,0,0,0,0,0,0,0,0,0,0
1682943522.60003805,71028244,1579,1582,1582,1573,0,0,0,0,0,0,0,0,0,0
1682943522.69999814,71128204,1578,1581,1574,1573,0,0,0,0,0,0,0,0,0,0
1682943522.79995799,71228164,1576,1579,1565,1570,0,0,0,0,0,0,0,0,0,0
1682943522.90075111,71328957,1577,1578,1560,1567,0,0,0,0,0,0,0,0,0,0
1682943523.00071096,71428917,1577,1577,1555,1561,0,0,0,0,0,0,0,0,0,0
1682943523.10067105,71528877,1579,1578,1555,1558,0,0,0,0,0,0,0,0,0,0
1682943523.20063114,71628837,1579,1577,1555,1555,0,0,0,0,0,0,0,0,0,0
1682943523.30059099,71728797,1578,1577,1555,1553,0,0,0,0,0,0,0,0,0,0
1682943523.40055108,71828757,1577,1578,1556,1553,0,0,0,0,0,0,0,0,0,0
1682943523.50051093,71928717,1577,1577,1556,1553,0,0,0,0,0,0,0,0,0,0
1682943523.60047102,72028677,1576,1578,1556,1554,0,0,0,0,0,0,0,0,0,0
1682943523.70043111,72128637,1575,1577,1554,1554,0,0,0,0,0,0,0,0,0,0
1682943523.80039096,72228597,1574,1576,1552,1553,0,0,0,0,0,0,0,0,0,0
1682943523.90035105,72328557,1576,1577,1551,1552,0,0,0,0,0,0,0,0,0,0
1682943524.00031114,72428517,1578,1579,1550,1550,0,0,0,0,0,0,0,0,0,0
1682943524.10027099,72528477,1580,1581,1548,1548,0,0,0,0,0,0,0,0,0,0
1682943524.20023108,72628437,1582,1583,1545,1545,0,0,0,0,0,0,0,0,0,0
1682943524.30019093,72728397,1585,1586,1542,1542,0,0,0,0,0,0,0,0,0,0
1682943524.40015101,72828357,1589,1589,1540,1539,0,0,0,0,0,0,0,0,0,0
1682943524.50011110,72928317,1591,1591,1537,1537,0,0,0,0,0,0,0,0,0,0
1682943524.60007095,73028277,1594,1594,1535,1536,0,0,0,0,0,0,0,0,0,0
1682943524.70003104,73128237,1595,1595,1535,1536,0,0,0,0,0,0,0,0,0,0
1682943524.79999113,73228197,1595,1595,1535,1537,0,0,0,0,0,0,0,0,0,0
1682943524.89995098,73328157,1594,1594,1536,1539,0,0,0,0,0,0,0,0,0,0
1682943525.00074410,73428950,1592,1591,1541,1544,0,0,0,0,0,0,0,0,0,0
1682943525.10070395,73528910,1587,1585,1546,1550,0,0,0,0,0,0,0,0,0,0
1682943525.20066404,73628870,1581,1578,1555,1558,0,0,0,0,0,0,0,0,0,0
1682943525.30062413,73728830,1572,1568,1567,1569,0,0,0,0,0,0,0,0,0,0
1682943525.40058398,73828790,1561,1557,1578,1580,0,0,0,0,0,0,0,0,0,0
1682943525.50054407,73928750,1550,1547,1591,1592,0,0,0,0,0,0,0,0,0,0
1682943525.60050392,74028710,1539,1538,1601,1601,0,0,0,0,0,0,0,0,0,0
1682943525.70046401,74128670,1532,1532,1609,1608,0,0,0,0,0,0,0,0,0,0
1682943525.80042410,74228630,1528,1529,1614,1613,0,0,0,0,0,0,0,0,0,0
1682943525.90038395,74328590,1528,1530,1615,1614,0,0,0,0,0,0,0,0,0,0
1682943526.00034404,74428550,1533,1535,1613,1612,0,0,0,0,0,0,0,0,0,0
1682943526.10030413,74528510,1538,1540,1607,1606,0,0,0,0,0,0,0,0,0,0
1682943526.20026398,74628470,1548,1549,1601,1602,0,0,0,0,0,0,0,0,0,0
1682943526.30022407,74728430,1556,1557,1593,1594,0,0,0,0,0,0,0,0,0,0
1682943526.40018392,74828390,1565,1565,1586,1585,0,0,0,0,0,0,0,0,0,0
1682943526.50014400,74928350,1573,1572,1579,1578,0,0,0,0,0,0,0,0,0,0
1682943526.60010409,75028310,1580,1578,1573,1573,0,0,0,0,0,0,0,0,0,0
1682943526.70006394,75128270,1585,1583,1569,1569,0,0,0,0,0,0,0,0,0,0
1682943526.80002403,75228230,1588,1586,1568,1567,0,0,0,0,0,0,0,0,0,0
1682943526.89998412,75328190,1588,1587,1567,1567,0,0,0,0,0,0,0,0,0,0
1682943527.00077701,75428983,1587,1586,1567,1567,0,0,0,0,0,0,0,0,0,0
1682943527.10073709,75528943,1586,1586,1570,1570,0,0,0,0,0,0,0,0,0,0
1682943527.20069695,75628903,1583,1583,1572,1573,0,0,0,0,0,0,0,0,0,0
1682943527.30065703,75728863,1581,1580,1575,1575,0,0,0,0,0,0,0,0,0,0
1682943527.40061712,75828823,1577,1578,1578,1577,0,0,0,0,0,0,0,0,0,0
1682943527.50057697,75928783,1576,1576,1581,1581,0,0,0,0,0,0,0,0,0,0
1682943527.60053706,76028743,1574,1574,1582,1582,0,0,0,0,0,0,0,0,0,0
1682943527.70049715,76128703,1468,1548,1477,1560,0,0,0,0,0,0,0,0,0,0
1682943527.80045700,76228663,1558,1551,1568,1563,0,0,0,0,0,0,0,0,0,0
1682943527.90041709,76328623,1641,1588,1652,1598,0,0,0,0,0,0,0,0,0,0
1682943528.00037694,76428583,1711,1643,1719,1652,0,0,0,0,0,0,0,0,0,0
1682943528.10033703,76528543,1726,1665,1729,1668,0,0,0,0,0,0,0,0,0,0
1682943528.20029712,76628503,1729,1690,1724,1680,0,0,0,0,0,0,0,0,0,0
1682943528.30025697,76728463,1699,1680,1687,1654,0,0,0,0,0,0,0,0,0,0
1682943528.40021706,76828423,1647,1655,1630,1620,0,0,0,0,0,0,0,0,0,0
1682943528.50017715,76928383,1597,1631,1586,1613,0,0,0,0,0,0,0,0,0,0
1682943528.60013700,77028343,1561,1599,1573,1624,0,0,0,0,0,0,0,0,0,0
1682943528.70009708,77128303,1540,1570,1581,1633,0,0,0,0,0,0,0,0,0,0
1682943528.80005693,77228263,1532,1547,1592,1629,0,0,0,0,0,0,0,0,0,0
1682943528.90001702,77328223,1536,1540,1598,1615,0,0,0,0,0,0,0,0,0,0
1682943528.99997711,77428183,1548,1545,1598,1595,0,0,0,0,0,0,0,0,0,0
1682943529.10077000,77528976,1564,1560,1593,1578,0,0,0,0,0,0,0,0,0,0
1682943529.20073009,77628936,1580,1576,1585,1565,0,0,0,0,0,0,0,0,0,0
1682943529.30068994,77728896,1591,1591,1573,1558,0,0,0,0,0,0,0,0,0,0
1682943529.40065002,77828856,1597,1598,1562,1553,0,0,0,0,0,0,0,0,0,0
1682943529.50061011,77928816,1599,1601,1553,1551,0,0,0,0,0,0,0,0,0,0
1682943529.60056996,78028776,1598,1599,1548,1551,0,0,0,0,0,0,0,0,0,0
1682943529.70053005,78128736,1595,1596,1547,1552,0,0,0,0,0,0,0,0,0,0
1682943529.80049014,78228696,1590,1589,1547,1553,0,0,0,0,0,0,0,0,0,0
1682943529.90044999,78328656,1586,1585,1552,1556,0,0,0,0,0,0,0,0,0,0
1682943530.00041008,78428616,1582,1581,1558,1559,0,0,0,0,0,0,0,0,0,0
1682943530.10036993,78528576,1579,1578,1564,1564,0,0,0,0,0,0,0,0,0,0
1682943530.20033002,78628536,1575,1575,1569,1569,0,0,0,0,0,0,0,0,0,0
1682943530.30029011,78728496,1572,1573,1575,1573,0,0,0,0,0,0,0,0,0,0
1682943530.40024996,78828456,1570,1571,1580,1576,0,0,0,0,0,0,0,0,0,0
1682943530.50021005,78928416,1569,1569,1588,1571,0,0,0,0,0,0,0,0,0,0
1682943530.60017014,79028376,1567,1570,1585,1574,0,0,0,0,0,0,0,0,0,0
1682943530.70012999,79128336,1564,1568,1578,1575,0,0,0,0,0,0,0,0,0,0
1682943530.80009007,79228296,1563,1566,1570,1575,0,0,0,0,0,0,0,0,0,0
1682943530.90004992,79328256,1563,1564,1564,1573,0,0,0,0,0,0,0,0,0,0
1682943531.00001001,79428216,1565,1565,1561,1568,0,0,0,0,0,0,0,0,0,0
1682943531.09997010,79528176,1567,1566,1558,1563,0,0,0,0,0,0,0,0,0,0
1682943531.20076299,79628969,1569,1569,1557,1558,0,0,0,0,0,0,0,0,0,0
1682943531.30072308,79728929,1572,1571,1555,1554,0,0,0,0,0,0,0,0,0,0
1682943531.40068293,79828889,1575,1575,1554,1551,0,0,0,0,0,0,0,0,0,0
1682943531.50064301,79928849,1576,1577,1552,1549,0,0,0,0,0,0,0,0,0,0
1682943531.60060310,80028809,1577,1577,1549,1547,0,0,0,0,0,0,0,0,0,0
1682943531.70056295,80128769,1578,1578,1547,1547,0,0,0,0,0,0,0,0,0,0
1682943531.80052304,80228729,1578,1579,1546,1546,0,0,0,0,0,0,0,0,0,0
1682943531.90048313,80328689,1578,1579,1544,1545,0,0,0,0,0,0,0,0,0,0
1682943532.00044298,80428649,1579,1580,1544,1545,0,0,0,0,0,0,0,0,0,0
1682943532.10040307,80528609,1579,1580,1543,1544,0,0,0,0,0,0,0,0,0,0
1682943532.20036292,80628569,1581,1582,1543,1543,0,0,0,0,0,0,0,0,0,0
1682943532.30032301,80728529,1582,1583,1542,1542,0,0,0,0,0,0,0,0,0,0
1682943532.40028310,80828489,1583,1584,1542,1541,0,0,0,0,0,0,0,0,0,0
1682943532.50024295,80928449,1585,1585,1542,1543,0,0,0,0,0,0,0,0,0,0
1682943532.60020304,81028409,1585,1585,1542,1542,0,0,0,0,0,0,0,0,0,0
1682943532.70016313,81128369,1586,1585,1542,1543,0,0,0,0,0,0,0,0,0,0
1682943532.80012298,81228329,1585,1584,1543,1544,0,0,0,0,0,0,0,0,0,0
1682943532.90008307,81328289,1584,1582,1545,1548,0,0,0,0,0,0,0,0,0,0
1682943533.00004292,81428249,1581,1579,1548,1550,0,0,0,0,0,0,0,0,0,0
1682943533.10000300,81528209,1577,1576,1553,1555,0,0,0,0,0,0,0,0,0,0
1682943533.19996309,81628169,1573,1573,1558,1561,0,0,0,0,0,0,0,0,0,0
1682943533.30075598,81728962,1568,1567,1564,1566,0,0,0,0,0,0,0,0,0,0
1682943533.40071607,81828922,1563,1563,1572,1573,0,0,0,0,0,0,0,0,0,0
1682943533.50067592,81928882,1558,1557,1578,1579,0,0,0,0,0,0,0,0,0,0
1682943533.60063601,82028842,1554,1553,1584,1585,0,0,0,0,0,0,0,0,0,0
1682943533.70059609,82128802,1549,1547,1589,1589,0,0,0,0,0,0,0,0,0,0
1682943533.80055594,82228762,1546,1545,1594,1593,0,0,0,0,0,0,0,0,0,0
1682943533.90051603,82328722,1545,1545,1598,1596,0,0,0,0,0,0,0,0,0,0
1682943534.00047612,82428682,1544,1545,1599,1597,0,0,0,0,0,0,0,0,0,0
1682943534.10043597,82528642,1546,1547,1598,1597,0,0,0,0,0,0,0,0,0,0
1682943534.20039606,82628602,1549,1550,1596,1596,0,0,0,0,0,0,0,0,0,0
1682943534.30035615,82728562,1552,1553,1593,1593,0,0,0,0,0,0,0,0,0,0
1682943534.40031600,82828522,1557,1558,1590,1590,0,0,0,0,0,0,0,0,0,0
1682943534.50027609,82928482,1562,1562,1585,1586,0,0,0,0,0,0,0,0,0,0
1682943534.60023594,83028442,1567,1566,1581,1582,0,0,0,0,0,0,0,0,0,0
1682943534.70019603,83128402,1571,1570,1578,1578,0,0,0,0,0,0,0,0,0,0
1682943534.80015612,83228362,1575,1575,1576,1575,0,0,0,0,0,0,0,0,0,0
1682943534.90011597,83328322,1578,1577,1574,1573,0,0,0,0,0,0,0,0,0,0
1682943535.00007606,83428282,1579,1579,1572,1571,0,0,0,0,0,0,0,0,0,0
1682943535.10003614,83528242,1580,1579,1571,1571,0,0,0,0,0,0,0,0,0,0
1682943535.19999599,83628202,1582,1580,1572,1572,0,0,0,0,0,0,0,0,0,0
1682943535.29995608,83728162,1581,1579,1571,1572,0,0,0,0,0,0,0,0,0,0
1682943535.40074897,83828955,1580,1579,1573,1573,0,0,0,0,0,0,0,0,0,0
1682943535.50070906,83928915,1578,1578,1574,1574,0,0,0,0,0,0,0,0,0,0
1682943535.60066915,84028875,1578,1578,1576,1576,0,0,0,0,0,0,0,0,0,0
1682943535.70062900,84128835,1577,1578,1578,1578,0,0,0,0,0,0,0,0,0,0
1682943535.80058908,84228795,1576,1577,1580,1579,0,0,0,0,0,0,0,0,0,0
1682943535.90054893,84328755,1575,1575,1580,1579,0,0,0,0,0,0,0,0,0,0
1682943536.00050902,84428715,1575,1576,1580,1580,0,0,0,0,0,0,0,0,0,0
1682943536.10046911,84528675,1575,1575,1581,1581,0,0,0,0,0,0,0,0,0,0
1682943536.20042896,84628635,1577,1577,1582,1582,0,0,0,0,0,0,0,0,0,0
1682943536.30038905,84728595,1576,1577,1582,1581,0,0,0,0,0,0,0,0,0,0
1682943536.40034914,84828555,1577,1578,1581,1581,0,0,0,0,0,0,0,0,0,0
1682943536.50030899,84928515,1578,1578,1581,1581,0,0,0,0,0,0,0,0,0,0
1682943536.60026908,85028475,1580,1580,1582,1582,0,0,0,0,0,0,0,0,0,0
1682943536.70022893,85128435,1580,1580,1580,1580,0,0,0,0,0,0,0,0,0,0
1682943536.80018902,85228395,1580,1579,1579,1579,0,0,0,0,0,0,0,0,0,0
1682943536.90014911,85328355,1580,1580,1579,1579,0,0,0,0,0,0,0,0,0,0
1682943537.00010896,85428315,1580,1580,1578,1578,0,0,0,0,0,0,0,0,0,0
1682943537.10006905,85528275,1580,1580,1578,1578,0,0,0,0,0,0,0,0,0,0
1682943537.20002913,85628235,1581,1581,1578,1579,0,0,0,0,0,0,0,0,0,0
1682943537.29998899,85728195,1581,1581,1579,1579,0,0,0,0,0,0,0,0,0,0
1682943537.39994907,85828155,1580,1580,1579,1578,0,0,0,0,0,0,0,0,0,0
1682943537.50074196,85928948,1581,1581,1579,1579,0,0,0,0,0,0,0,0,0,0
1682943537.60070205,86028908,1580,1581,1580,1580,0,0,0,0,0,0,0,0,0,0
1682943537.70066214,86128868,1580,1580,1580,1580,0,0,0,0,0,0,0,0,0,0
1682943537.80062199,86228828,1580,1580,1580,1580,0,0,0,0,0,0,0,0,0,0
1682943537.90058208,86328788,1580,1580,1580,1581,0,0,0,0,0,0,0,0,0,0
1682943538.00054193,86428748,1580,1580,1580,1580,0,0,0,0,0,0,0,0,0,0
1682943538.10050201,86528708,1579,1579,1580,1580,0,0,0,0,0,0,0,0,0,0
1682943538.20046210,86628668,1581,1580,1581,1581,0,0,0,0,0,0,0,0,0,0
1682943538.30042195,86728628,1580,1581,1581,1581,0,0,0,0,0,0,0,0,0,0
1682943538.40038204,86828588,1581,1581,1582,1582,0,0,0,0,0,0,0,0,0,0
1682943538.50034213,86928548,1581,1581,1582,1582,0,0,0,0,0,0,0,0,0,0
1682943538.60030198,87028508,1581,1581,1581,1581,0,0,0,0,0,0,0,0,0,0
1682943538.70026207,87128468,1581,1580,1580,1581,0,0,0,0,0,0,0,0,0,0
1682943538.80022192,87228428,1581,1581,1581,1581,0,0,0,0,0,0,0,0,0,0
1682943538.90018201,87328388,1580,1580,1580,1580,0,0,0,0,0,0,0,0,0,0
1682943539.00014210,87428348,1580,1580,1580,1580,0,0,0,0,0,0,0,0,0,0
1682943539.10010195,87528308,1581,1581,1580,1581,0,0,0,0,0,0,0,0,0,0
1682943539.20006204,87628268,1580,1581,1583,1576,0,0,0,0,0,0,0,0,0,0
1682943539.30002213,87728228,1580,1583,1586,1572,0,0,0,0,0,0,0,0,0,0
1682943539.39998198,87828188,1579,1582,1581,1573,0,0,0,0,0,0,0,0,0,0
1682943539.50077510,87928981,1578,1581,1574,1572,0,0,0,0,0,0,0,0,0,0
1682943539.60073495,88028941,1576,1578,1566,1570,0,0,0,0,0,0,0,0,0,0
1682943539.70069504,88128901,1577,1579,1560,1568,0,0,0,0,0,0,0,0,0,0
1682943539.80065513,88228861,1577,1578,1557,1563,0,0,0,0,0,0,0,0,0,0
1682943539.90061498,88328821,1578,1576,1554,1558,0,0,0,0,0,0,0,0,0,0
1682943540.00057507,88428781,1578,1578,1555,1555,0,0,0,0,0,0,0,0,0,0
1682943540.10053492,88528741,1580,1579,1556,1555,0,0,0,0,0,0,0,0,0,0
1682943540.20049500,88628701,1579,1578,1556,1553,0,0,0,0,0,0,0,0,0,0
1682943540.30045509,88728661,1579,1579,1556,1554,0,0,0,0,0,0,0,0,0,0
1682943540.40041494,88828621,1577,1578,1556,1554,0,0,0,0,0,0,0,0,0,0
1682943540.50037503,88928581,1576,1577,1554,1553,0,0,0,0,0,0,0,0,0,0
1682943540.60033512,89028541,1576,1578,1553,1553,0,0,0,0,0,0,0,0,0,0
1682943540.70029497,89128501,1575,1578,1552,1552,0,0,0,0,0,0,0,0,0,0
1682943540.80025506,89228461,1577,1579,1550,1551,0,0,0,0,0,0,0,0,0,0
1682943540.90021515,89328421,1578,1578,1548,1548,0,0,0,0,0,0,0,0,0,0
1682943541.00017500,89428381,1580,1581,1547,1546,0,0,0,0,0,0,0,0,0,0
1682943541.10013509,89528341,1583,1584,1545,1545,0,0,0,0,0,0,0,0,0,0
1682943541.20009494,89628301,1586,1587,1543,1543,0,0,0,0,0,0,0,0,0,0
1682943541.30005503,89728261,1588,1588,1540,1540,0,0,0,0,0,0,0,0,0,0
1682943541.40001512,89828221,1590,1590,1539,1540,0,0,0,0,0,0,0,0,0,0
1682943541.49997497,89928181,1592,1592,1538,1539,0,0,0,0,0,0,0,0,0,0
1682943541.60076809,90028974,1593,1593,1538,1539,0,0,0,0,0,0,0,0,0,0
1682943541.70072794,90128934,1593,1593,1538,1541,0,0,0,0,0,0,0,0,0,0
1682943541.80068803,90228894,1592,1591,1542,1544,0,0,0,0,0,0,0,0,0,0
1682943541.90064812,90328854,1589,1586,1547,1550,0,0,0,0,0,0,0,0,0,0
1682943542.00060797,90428814,1584,1580,1554,1557,0,0,0,0,0,0,0,0,0,0
1682943542.10056806,90528774,1576,1572,1563,1566,0,0,0,0,0,0,0,0,0,0
1682943542.20052814,90628734,1567,1563,1574,1577,0,0,0,0,0,0,0,0,0,0
1682943542.30048800,90728694,1556,1554,1585,1586,0,0,0,0,0,0,0,0,0,0
1682943542.40044808,90828654,1548,1547,1596,1596,0,0,0,0,0,0,0,0,0,0
1682943542.50040793,90928614,1540,1541,1605,1603,0,0,0,0,0,0,0,0,0,0
1682943542.60036802,91028574,1535,1538,1610,1608,0,0,0,0,0,0,0,0,0,0
1682943542.70032811,91128534,1534,1537,1613,1611,0,0,0,0,0,0,0,0,0,0
1682943542.80028796,91228494,1536,1539,1613,1610,0,0,0,0,0,0,0,0,0,0
1682943542.90024805,91328454,1541,1543,1611,1609,0,0,0,0,0,0,0,0,0,0
1682943543.00020814,91428414,1546,1547,1605,1604,0,0,0,0,0,0,0,0,0,0
1682943543.10016799,91528374,1552,1553,1599,1599,0,0,0,0,0,0,0,0,0,0
1682943543.20012808,91628334,1560,1560,1593,1592,0,0,0,0,0,0,0,0,0,0
1682943543.30008793,91728294,1566,1565,1585,1584,0,0,0,0,0,0,0,0,0,0
1682943543.40004802,91828254,1573,1571,1578,1579,0,0,0,0,0,0,0,0,0,0
1682943543.50000811,91928214,1578,1575,1572,1573,0,0,0,0,0,0,0,0,0,0
1682943543.59996796,92028174,1582,1580,1568,1570,0,0,0,0,0,0,0,0,0,0
1682943543.70076108,92128967,1584,1582,1565,1567,0,0,0,0,0,0,0,0,0,0
1682943543.80072093,92228927,1586,1584,1565,1566,0,0,0,0,0,0,0,0,0,0
1682943543.90068102,92328887,1586,1585,1566,1566,0,0,0,0,0,0,0,0,0,0
1682943544.00064111,92428847,1585,1584,1568,1568,0,0,0,0,0,0,0,0,0,0
1682943544.10060096,92528807,1583,1583,1570,1570,0,0,0,0,0,0,0,0,0,0
1682943544.20056105,92628767,1581,1581,1573,1573,0,0,0,0,0,0,0,0,0,0
1682943544.30052114,92728727,1579,1579,1576,1576,0,0,0,0,0,0,0,0,0,0
1682943544.40048099,92828687,1577,1578,1579,1579,0,0,0,0,0,0,0,0,0,0
1682943544.50044107,92928647,1575,1576,1581,1581,0,0,0,0,0,0,0,0,0,0
1682943544.60040092,93028607,1574,1575,1583,1583,0,0,0,0,0,0,0,0,0,0
1682943544.70036101,93128567,1574,1575,1585,1584,0,0,0,0,0,0,0,0,0,0
1682943544.80032110,93228527,1573,1575,1585,1585,0,0,0,0,0,0,0,0,0,0
1682943544.90028095,93328487,1573,1574,1584,1584,0,0,0,0,0,0,0,0,0,0
1682943545.00024104,93428447,1574,1575,1583,1583,0,0,0,0,0,0,0,0,0,0
1682943545.10020113,93528407,1576,1576,1582,1583,0,0,0,0,0,0,0,0,0,0
1682943545.20016098,93628367,1577,1577,1581,1582,0,0,0,0,0,0,0,0,0,0
1682943545.30012107,93728327,1579,1579,1581,1581,0,0,0,0,0,0,0,0,0,0
1682943545.40008092,93828287,1580,1580,1580,1580,0,0,0,0,0,0,0,0,0,0
1682943545.50004101,93928247,1582,1581,1579,1579,0,0,0,0,0,0,0,0,0,0
1682943545.60000110,94028207,1582,1581,1578,1579,0,0,0,0,0,0,0,0,0,0
1682943545.69996095,94128167,1582,1582,1578,1578,0,0,0,0,0,0,0,0,0,0
1682943545.80075407,94228960,1582,1581,1578,1578,0,0,0,0,0,0,0,0,0,0
1682943545.90071392,94328920,1583,1582,1578,1579,0,0,0,0,0,0,0,0,0,0
1682943546.00067401,94428880,1581,1581,1578,1578,0,0,0,0,0,0,0,0,0,0
1682943546.10063410,94528840,1582,1583,1579,1579,0,0,0,0,0,0,0,0,0,0
1682943546.20059395,94628800,1581,1582,1579,1579,0,0,0,0,0,0,0,0,0,0
1682943546.30055404,94728760,1581,1581,1580,1580,0,0,0,0,0,0,0,0,0,0
1682943546.40051413,94828720,1580,1580,1580,1580,0,0,0,0,0,0,0,0,0,0
1682943546.50047398,94928680,1579,1579,1580,1580,0,0,0,0,0,0,0,0,0,0
1682943546.60043406,95028640,1580,1581,1582,1582,0,0,0,0,0,0,0,0,0,0
1682943546.70039392,95128600,1580,1580,1581,1581,0,0,0,0,0,0,0,0,0,0
1682943546.80035400,95228560,1580,1580,1582,1582,0,0,0,0,0,0,0,0,0,0
1682943546.90031409,95328520,1580,1581,1582,1583,0,0,0,0,0,0,0,0,0,0
1682943547.00027394,95428480,1580,1581,1582,1582,0,0,0,0,0,0,0,0,0,0
1682943547.10023403,95528440,1580,1581,1582,1581,0,0,0,0,0,0,0,0,0,0
1682943547.20019412,95628400,1581,1583,1585,1578,0,0,0,0,0,0,0,0,0,0
1682943547.30015397,95728360,1581,1581,1587,1573,0,0,0,0,0,0,0,0,0,0
1682943547.40011406,95828320,1580,1580,1583,1574,0,0,0,0,0,0,0,0,0,0
1682943547.50007415,95928280,1577,1576,1576,1575,0,0,0,0,0,0,0,0,0,0
1682943547.60003400,96028240,1574,1573,1570,1575,0,0,0,0,0,0,0,0,0,0
1682943547.69999409,96128200,1570,1570,1565,1573,0,0,0,0,0,0,0,0,0,0
1682943547.79995394,96228160,1568,1568,1564,1570,0,0,0,0,0,0,0,0,0,0
1682943547.90074706,96328953,1567,1567,1564,1568,0,0,0,0,0,0,0,0,0,0
1682943548.00070715,96428913,1566,1566,1565,1566,0,0,0,0,0,0,0,0,0,0
1682943548.10066700,96528873,1566,1567,1566,1565,0,0,0,0,0,0,0,0,0,0
1682943548.20062709,96628833,1566,1566,1567,1564,0,0,0,0,0,0,0,0,0,0
1682943548.30058694,96728793,1565,1565,1566,1564,0,0,0,0,0,0,0,0,0,0
1682943548.40054703,96828753,1565,1565,1566,1564,0,0,0,0,0,0,0,0,0,0
1682943548.50050712,96928713,1564,1563,1565,1564,0,0,0,0,0,0,0,0,0,0
1682943548.60046697,97028673,1564,1563,1564,1564,0,0,0,0,0,0,0,0,0,0
1682943548.70042706,97128633,1563,1562,1563,1563,0,0,0,0,0,0,0,0,0,0
1682943548.80038714,97228593,1562,1562,1562,1563,0,0,0,0,0,0,0,0,0,0
1682943548.90034699,97328553,1561,1561,1561,1562,0,0,0,0,0,0,0,0,0,0
1682943549.00030708,97428513,1561,1561,1561,1561,0,0,0,0,0,0,0,0,0,0
1682943549.10026693,97528473,1560,1560,1561,1560,0,0,0,0,0,0,0,0,0,0
1682943549.20022702,97628433,1560,1560,1560,1560,0,0,0,0,0,0,0,0,0,0
1682943549.30018711,97728393,1559,1559,1559,1559,0,0,0,0,0,0,0,0,0,0
1682943549.40014696,97828353,1559,1559,1559,1558,0,0,0,0,0,0,0,0,0,0
1682943549.50010705,97928313,1559,1559,1559,1558,0,0,0,0,0,0,0,0,0,0
1682943549.60006714,98028273,1558,1558,1559,1557,0,0,0,0,0,0,0,0,0,0
1682943549.70002699,98128233,1559,1558,1559,1558,0,0,0,0,0,0,0,0,0,0
1682943549.79998708,98228193,1559,1559,1559,1558,0,0,0,0,0,0,0,0,0,0
1682943549.90077996,98328986,1559,1558,1559,1557,0,0,0,0,0,0,0,0,0,0
1682943550.00074005,98428946,1559,1558,1560,1558,0,0,0,0,0,0,0,0,0,0
1682943550.10070014,98528906,1560,1559,1558,1562,0,0,0,0,0,0,0,0,0,0
1682943550.20065999,98628866,1560,1560,1558,1563,0,0,0,0,0,0,0,0,0,0
1682943550.30062008,98728826,1560,1561,1557,1564,0,0,0,0,0,0,0,0,0,0
1682943550.40057993,98828786,1561,1561,1558,1563,0,0,0,0,0,0,0,0,0,0
1682943550.50054002,98928746,1562,1561,1560,1562,0,0,0,0,0,0,0,0,0,0
1682943550.60050011,99028706,1560,1560,1560,1559,0,0,0,0,0,0,0,0,0,0
1682943550.70045996,99128666,1559,1559,1560,1557,0,0,0,0,0,0,0,0,0,0
1682943550.80042005,99228626,1558,1557,1557,1557,0,0,0,0,0,0,0,0,0,0
1682943550.90038013,99328586,1555,1554,1553,1555,0,0,0,0,0,0,0,0,0,0
1682943551.00033998,99428546,1551,1551,1550,1551,0,0,0,0,0,0,0,0,0,0
1682943551.10030007,99528506,1545,1545,1545,1545,0,0,0,0,0,0,0,0,0,0
1682943551.20025992,99628466,1539,1539,1539,1539,0,0,0,0,0,0,0,0,0,0
1682943551.30022001,99728426,1532,1532,1532,1531,0,0,0,0,0,0,0,0,0,0
1682943551.40018010,99828386,1524,1524,1525,1524,0,0,0,0,0,0,0,0,0,0
1682943551.50013995,99928346,1519,1520,1519,1520,0,0,0,0,0,0,0,0,0,0
1682943551.60010004,100028306,1517,1519,1518,1519,0,0,0,0,0,0,0,0,0,0
1682943551.70006013,100128266,1518,1520,1518,1521,0,0,0,0,0,0,0,0,0,0
1682943551.80001998,100228226,1520,1520,1520,1521,0,0,0,0,0,0,0,0,0,0
1682943551.89998007,100328186,1523,1523,1523,1524,0,0,0,0,0,0,0,0,0,0
1682943552.00077295,100428979,1527,1528,1528,1528,0,0,0,0,0,0,0,0,0,0
1682943552.10073304,100528939,1532,1532,1533,1532,0,0,0,0,0,0,0,0,0,0
1682943552.20069313,100628899,1537,1536,1537,1536,0,0,0,0,0,0,0,0,0,0
1682943552.30065298,100728859,1541,1539,1541,1539,0,0,0,0,0,0,0,0,0,0
1682943552.40061307,100828819,1542,1542,1543,1541,0,0,0,0,0,0,0,0,0,0
1682943552.50057292,100928779,1545,1544,1545,1544,0,0,0,0,0,0,0,0,0,0
1682943552.60053301,101028739,1546,1545,1546,1545,0,0,0,0,0,0,0,0,0,0
1682943552.70049310,101128699,1547,1546,1547,1546,0,0,0,0,0,0,0,0,0,0
1682943552.80045295,101228659,1547,1547,1547,1547,0,0,0,0,0,0,0,0,0,0
1682943552.90041304,101328619,1547,1547,1547,1547,0,0,0,0,0,0,0,0,0,0
1682943553.00037313,101428579,1547,1548,1547,1547,0,0,0,0,0,0,0,0,0,0
1682943553.10033298,101528539,1547,1547,1547,1548,0,0,0,0,0,0,0,0,0,0
1682943553.20029306,101628499,1546,1546,1545,1546,0,0,0,0,0,0,0,0,0,0
1682943553.30025291,101728459,1546,1546,1546,1546,0,0,0,0,0,0,0,0,0,0
1682943553.40021300,101828419,1545,1545,1545,1545,0,0,0,0,0,0,0,0,0,0
1682943553.50017309,101928379,1545,1545,1545,1545,0,0,0,0,0,0,0,0,0,0
1682943553.60013294,102028339,1545,1545,1545,1544,0,0,0,0,0,0,0,0,0,0
1682943553.70009303,102128299,1544,1545,1545,1545,0,0,0,0,0,0,0,0,0,0
1682943553.80005312,102228259,1545,1545,1545,1545,0,0,0,0,0,0,0,0,0,0
1682943553.90001297,102328219,1544,1544,1544,1545,0,0,0,0,0,0,0,0,0,0
1682943553.99997306,102428179,1544,1545,1545,1544,0,0,0,0,0,0,0,0,0,0
1682943554.10076594,102528972,1545,1545,1545,1545,0,0,0,0,0,0,0,0,0,0
1682943554.20072603,102628932,1545,1544,1544,1545,0,0,0,0,0,0,0,0,0,0
1682943554.30068612,102728892,1545,1545,1545,1545,0,0,0,0,0,0,0,0,0,0
1682943554.40064597,102828852,1545,1545,1545,1545,0,0,0,0,0,0,0,0,0,0
1682943554.50060606,102928812,1544,1544,1544,1544,0,0,0,0,0,0,0,0,0,0
1682943554.60056615,103028772,1544,1544,1544,1544,0,0,0,0,0,0,0,0,0,0
1682943554.70052600,103128732,1544,1544,1544,1544,0,0,0,0,0,0,0,0,0,0
1682943554.80048609,103228692,1543,1543,1543,1543,0,0,0,0,0,0,0,0,0,0
1682943554.90044594,103328652,1544,1544,1544,1544,0,0,0,0,0,0,0,0,0,0
1682943555.00040603,103428612,1544,1544,1544,1544,0,0,0,0,0,0,0,0,0,0
1682943555.10036612,103528572,1543,1543,1543,1544,0,0,0,0,0,0,0,0,0,0
1682943555.20032597,103628532,1544,1545,1545,1544,0,0,0,0,0,0,0,0,0,0
1682943555.30028605,103728492,1544,1543,1544,1544,0,0,0,0,0,0,0,0,0,0
1682943555.40024614,103828452,1544,1544,1544,1543,0,0,0,0,0,0,0,0,0,0
1682943555.50020599,103928412,1544,1543,1543,1543,0,0,0,0,0,0,0,0,0,0
1682943555.60016608,104028372,1543,1544,1544,1543,0,0,0,0,0,0,0,0,0,0
1682943555.70012593,104128332,1544,1544,1544,1544,0,0,0,0,0,0,0,0,0,0
1682943555.80008602,104228292,1544,1544,1544,1544,0,0,0,0,0,0,0,0,0,0
1682943555.90004611,104328252,1544,1544,1544,1544,0,0,0,0,0,0,0,0,0,0
1682943556.00000596,104428212,1543,1544,1544,1543,0,0,0,0,0,0,0,0,0,0
1682943556.09996605,104528172,1545,1544,1544,1545,0,0,0,0,0,0,0,0,0,0
1682943556.20075893,104628965,1544,1543,1544,1544,0,0,0,0,0,0,0,0,0,0
1682943556.30071902,104728925,1545,1544,1545,1544,0,0,0,0,0,0,0,0,0,0
1682943556.40067911,104828885,1545,1545,1545,1545,0,0,0,0,0,0,0,0,0,0
1682943556.50063896,104928845,1544,1544,1544,1545,0,0,0,0,0,0,0,0,0,0
1682943556.60059905,105028805,1544,1544,1544,1544,0,0,0,0,0,0,0,0,0,0
1682943556.70055914,105128765,1545,1545,1545,1545,0,0,0,0,0,0,0,0,0,0
1682943556.80051899,105228725,1545,1544,1545,1544,0,0,0,0,0,0,0,0,0,0
1682943556.90047908,105328685,1544,1544,1544,1544,0,0,0,0,0,0,0,0,0,0
1682943557.00043893,105428645,1544,1544,1544,1544,0,0,0,0,0,0,0,0,0,0
1682943557.10039902,105528605,1543,1543,1543,1544,0,0,0,0,0,0,0,0,0,0
1682943557.20035911,105628565,1544,1544,1544,1544,0,0,0,0,0,0,0,0,0,0
1682943557.30031896,105728525,1544,1544,1544,1544,0,0,0,0,0,0,0,0,0,0
1682943557.40027905,105828485,1543,1544,1544,1543,0,0,0,0,0,0,0,0,0,0
1682943557.50023913,105928445,1543,1543,1543,1543,0,0,0,0,0,0,0,0,0,0
1682943557.60019898,106028405,1544,1544,1544,1544,0,0,0,0,0,0,0,0,0,0
1682943557.70015907,106128365,1545,1544,1544,1545,0,0,0,0,0,0,0,0,0,0
1682943557.80011892,106228325,1544,1543,1544,1544,0,0,0,0,0,0,0,0,0,0
1682943557.90007901,106328285,1544,1544,1544,1545,0,0,0,0,0,0,0,0,0,0
1682943558.00003910,106428245,1544,1544,1544,1544,0,0,0,0,0,0,0,0,0,0
1682943558.09999895,106528205,1545,1545,1545,1545,0,0,0,0,0,0,0,0,0,0
1682943558.19995904,106628165,1545,1545,1545,1545,0,0,0,0,0,0,0,0,0,0
1682943558.30075192,106728958,1544,1544,1544,1544,0,0,0,0,0,0,0,0,0,0
1682943558.40071201,106828918,1544,1544,1544,1543,0,0,0,0,0,0,0,0,0,0
1682943558.50067210,106928878,1544,1544,1544,1544,0,0,0,0,0,0,0,0,0,0
1682943558.60063195,107028838,1545,1545,1545,1545,0,0,0,0,0,0,0,0,0,0
1682943558.70059204,107128798,1544,1544,1544,1545,0,0,0,0,0,0,0,0,0,0
1682943558.80055213,107228758,1544,1544,1544,1544,0,0,0,0,0,0,0,0,0,0
1682943558.90051198,107328718,1544,1544,1544,1544,0,0,0,0,0,0,0,0,0,0
1682943559.00047207,107428678,1544,1545,1544,1544,0,0,0,0,0,0,0,0,0,0
1682943559.10043192,107528638,1544,1545,1545,1545,0,0,0,0,0,0,0,0,0,0
1682943559.20039201,107628598,1544,1544,1544,1544,0,0,0,0,0,0,0,0,0,0
1682943559.30035210,107728558,1545,1544,1544,1545,0,0,0,0,0,0,0,0,0,0
1682943559.40031195,107828518,1545,1545,1545,1545,0,0,0,0,0,0,0,0,0,0
1682943559.50027204,107928478,1544,1544,1544,1544,0,0,0,0,0,0,0,0,0,0
1682943559.60023212,108028438,1544,1545,1544,1544,0,0,0,0,0,0,0,0,0,0
1682943559.70019197,108128398,1545,1544,1544,1545,0,0,0,0,0,0,0,0,0,0
1682943559.80015206,108228358,1545,1545,1545,1545,0,0,0,0,0,0,0,0,0,0
1682943559.90011215,108328318,1544,1544,1544,1544,0,0,0,0,0,0,0,0,0,0
1682943560.00007200,108428278,1544,1544,1544,1544,0,0,0,0,0,0,0,0,0,0
1682943560.10003209,108528238,1545,1544,1544,1545,0,0,0,0,0,0,0,0,0,0
1682943560.19999194,108628198,1544,1544,1544,1544,0,0,0,0,0,0,0,0,0,0
1682943560.29995203,108728158,1544,1544,1544,1544,0,0,0,0,0,0,0,0,0,0
1682943560.40074492,108828951,1544,1544,1544,1544,0,0,0,0,0,0,0,0,0,0
1682943560.50070500,108928911,1544,1544,1544,1544,0,0,0,0,0,0,0,0,0,0
1682943560.60066509,109028871,1544,1544,1544,1543,0,0,0,0,0,0,0,0,0,0
1682943560.70062494,109128831,1544,1544,1544,1544,0,0,0,0,0,0,0,0,0,0
1682943560.80058503,109228791,1545,1546,1545,1546,0,0,0,0,0,0,0,0,0,0
1682943560.90054512,109328751,1545,1545,1545,1546,0,0,0,0,0,0,0,0,0,0
1682943561.00050497,109428711,1545,1545,1546,1545,0,0,0,0,0,0,0,0,0,0
1682943561.10046506,109528671,1545,1545,1545,1545,0,0,0,0,0,0,0,0,0,0
1682943561.20042515,109628631,1505,1492,1505,1492,0,0,0,0,0,0,0,0,0,0
1682943561.30038500,109728591,1380,1316,1379,1318,0,0,0,0,0,0,0,0,0,0
1682943561.40034509,109828551,1328,1237,1328,1237,0,0,0,0,0,0,0,0,0,0
1682943561.50030494,109928511,1315,1212,1314,1214,0,0,0,0,0,0,0,0,0,0
1682943561.60026503,110028471,1301,1189,1301,1189,0,0,0,0,0,0,0,0,0,0
1682943561.70022511,110128431,1280,1150,1279,1151,0,0,0,0,0,0,0,0,0,0
1682943561.80018497,110228391,1183,1150,1183,1150,0,0,0,0,0,0,0,0,0,0
1682943561.90014505,110328351,1090,1150,1090,1150,0,0,0,0,0,0,0,0,0,0
1682943562.00010514,110428311,1090,1150,1090,1150,0,0,0,0,0,0,0,0,0,0
1682943562.10006499,110528271,1090,1150,1090,1150,0,0,0,0,0,0,0,0,0,0
1682943562.20002508,110628231,1090,1150,1082,1161,0,0,0,0,0,0,0,0,0,0
1682943562.29998493,110728191,1090,1150,1082,1161,0,0,0,0,0,0,0,0,0,0
1682943562.40077806,110828984,1090,1150,1085,1157,0,0,0,0,0,0,0,0,0,0
1682943562.50073814,110928944,1090,1150,1085,1157,0,0,0,0,0,0,0,0,0,0
1682943562.60069799,111028904,1090,1150,1085,1157,0,0,0,0,0,0,0,0,0,0
1682943562.70065808,111128864,1090,1150,1084,1158,0,0,0,0,0,0,0,0,0,0
1682943562.80061793,111228824,1090,1150,1084,1158,0,0,0,0,0,0,0,0,0,0
1682943562.90057802,111328784,1090,1150,1083,1159,0,0,0,0,0,0,0,0,0,0
1682943563.00053811,111428744,1090,1150,1089,1151,0,0,0,0,0,0,0,0,0,0
1682943563.10049796,111528704,1090,1150,1087,1153,0,0,0,0,0,0,0,0,0,0
1682943563.20045805,111628664,1090,1150,1087,1154,0,0,0,0,0,0,0,0,0,0
1682943563.30041814,111728624,1090,1150,1087,1154,0,0,0,0,0,0,0,0,0,0
1682943563.40037799,111828584,1090,1150,1087,1154,0,0,0,0,0,0,0,0,0,0
1682943563.50033808,111928544,1000,1000,1000,1000,0,0,0,0,0,0,0,0,0,0
1682943563.60029793,112028504,1000,1000,1000,1000,0,0,0,0,0,0,0,0,0,0
1682943563.70025802,112128464,1000,1000,1000,1000,0,0,0,0,0,0,0,0,0,0
1682943563.80021811,112228424,1000,1000,1000,1000,0,0,0,0,0,0,0,0,0,0
1682943563.90017796,112328384,1000,1000,1000,1000,0,0,0,0,0,0,0,0,0,0
1682943564.00013804,112428344,1000,1000,1000,1000,0,0,0,0,0,0,0,0,0,0
1682943564.10009813,112528304,1000,1000,1000,1000,0,0,0,0,0,0,0,0,0,0
1682943564.20005798,112628264,1000,1000,1000,1000,0,0,0,0,0,0,0,0,0,0
1682943564.30001807,112728224,1000,1000,1000,1000,0,0,0,0,0,0,0,0,0,0
1682943564.39997792,112828184,1000,1000,1000,1000,0,0,0,0,0,0,0,0,0,0
1682943564.50077105,112928977,1000,1000,1000,1000,0,0,0,0,0,0,0,0,0,0
1682943564.60073113,113028937,1000,1000,1000,1000,0,0,0,0,0,0,0,0,0,0
1682943564.70069098,113128897,1000,1000,1000,1000,0,0,0,0,0,0,0,0,0,0
1682943564.80065107,113228857,1000,1000,1000,1000,0,0,0,0,0,0,0,0,0,0
1682943564.90061092,113328817,1000,1000,1000,1000,0,0,0,0,0,0,0,0,0,0
1682943565.00057101,113428777,1000,1000,1000,1000,0,0,0,0,0,0,0,0,0,0
1682943565.10053110,113528737,1000,1000,1000,1000,0,0,0,0,0,0,0,0,0,0
1682943565.20049095,113628697,1000,1000,1000,1000,0,0,0,0,0,0,0,0,0,0
1682943565.30045104,113728657,1000,1000,1000,1000,0,0,0,0,0,0,0,0,0,0
1682943565.40041113,113828617,1000,1000,1000,1000,0,0,0,0,0,0,0,0,0,0
1682943565.50037098,113928577,1000,1000,1000,1000,0,0,0,0,0,0,0,0,0,0
1682943565.60033107,114028537,1000,1000,1000,1000,0,0,0,0,0,0,0,0,0,0
1682943565.70029092,114128497,1000,1000,1000,1000,0,0,0,0,0,0,0,0,0,0
1682943565.80025101,114228457,1000,1000,1000,1000,0,0,0,0,0,0,0,0,0,0
1682943565.90021110,114328417,1000,1000,1000,1000,0,0,0,0,0,0,0,0,0,0
1682943566.00017095,114428377,1000,1000,1000,1000,0,0,0,0,0,0,0,0,0,0
1682943566.10013103,114528337,1000,1000,1000,1000,0,0,0,0,0,0,0,0,0,0
1682943566.20009112,114628297,1000,1000,1000,1000,0,0,0,0,0,0,0,0,0,0
1682943566.30005097,114728257,1000,1000,1000,1000,0,0,0,0,0,0,0,0,0,0
1682943566.40001106,114828217,1000,1000,1000,1000,0,0,0,0,0,0,0,0,0,0
1682943566.49997115,114928177,1000,1000,1000,1000,0,0,0,0,0,0,0,0,0,0
1682943566.60076404,115028970,1000,1000,1000,1000,0,0,0,0,0,0,0,0,0,0
1682943566.70072412,115128930,1000,1000,1000,1000,0,0,0,0,0,0,0,0,0,0
1682943566.80068398,115228890,1000,1000,1000,1000,0,0,0,0,0,0,0,0,0,0
1682943566.90064406,115328850,1000,1000,1000,1000,0,0,0,0,0,0,0,0,0,0
1682943567.00060391,115428810,1000,1000,1000,1000,0,0,0,0,0,0,0,0,0,0
1682943567.10056400,115528770,1000,1000,1000,1000,0,0,0,0,0,0,0,0,0,0
1682943567.20052409,115628730,1000,1000,1000,1000,0,0,0,0,0,0,0,0,0,0
1682943567.30048394,115728690,1000,1000,1000,1000,0,0,0,0,0,0,0,0,0,0
1682943567.40044403,115828650,1000,1000,1000,1000,0,0,0,0,0,0,0,0,0,0
1682943567.50040412,115928610,1000,1000,1000,1000,0,0,0,0,0,0,0,0,0,0
1682943567.60036397,116028570,1000,1000,1000,1000,0,0,0,0,0,0,0,0,0,0
1682943567.70032406,116128530,1000,1000,1000,1000,0,0,0,0,0,0,0,0,0,0
1682943567.80028415,116228490,1000,1000,1000,1000,0,0,0,0,0,0,0,0,0,0
1682943567.90024400,116328450,1000,1000,1000,1000,0,0,0,0,0,0,0,0,0,0
1682943568.00020409,116428410,1000,1000,1000,1000,0,0,0,0,0,0,0,0,0,0
1682943568.10016394,116528370,1000,1000,1000,1000,0,0,0,0,0,0,0,0,0,0
1682943568.20012403,116628330,1000,1000,1000,1000,0,0,0,0,0,0,0,0,0,0
1682943568.30008411,116728290,1000,1000,1000,1000,0,0,0,0,0,0,0,0,0,0
1682943568.40004396,116828250,1000,1000,1000,1000,0,0,0,0,0,0,0,0,0,0
1682943568.50000405,116928210,1000,1000,1000,1000,0,0,0,0,0,0,0,0,0,0
1682943568.59996414,117028170,1000,1000,1000,1000,0,0,0,0,0,0,0,0,0,0
1682943568.70075703,117128963,1000,1000,1000,1000,0,0,0,0,0,0,0,0,0,0
1682943568.80071712,117228923,1000,1000,1000,1000,0,0,0,0,0,0,0,0,0,0
1682943568.90067697,117328883,1000,1000,1000,1000,0,0,0,0,0,0,0,0,0,0
1682943569.00063705,117428843,1000,1000,1000,1000,0,0,0,0,0,0,0,0,0,0
1682943569.10059714,117528803,1000,1000,1000,1000,0,0,0,0,0,0,0,0,0,0
1682943569.20055699,117628763,1000,1000,1000,1000,0,0,0,0,0,0,0,0,0,0
1682943569.30051708,117728723,1000,1000,1000,1000,0,0,0,0,0,0,0,0,0,0
1682943569.40047693,117828683,1000,1000,1000,1000,0,0,0,0,0,0,0,0,0,0
1682943569.50043702,117928643,1000,1000,1000,1000,0,0,0,0,0,0,0,0,0,0
1682943569.60039711,118028603,1000,1000,1000,1000,0,0,0,0,0,0,0,0,0,0
1682943569.70035696,118128563,1000,1000,1000,1000,0,0,0,0,0,0,0,0,0,0
1682943569.80031705,118228523,1000,1000,1000,1000,0,0,0,0,0,0,0,0,0,0
1682943569.90027714,118328483,1000,1000,1000,1000,0,0,0,0,0,0,0,0,0,0
1682943570.00023699,118428443,1000,1000,1000,1000,0,0,0,0,0,0,0,0,0,0
1682943570.10019708,118528403,1000,1000,1000,1000,0,0,0,0,0,0,0,0,0,0
1682943570.20015693,118628363,1000,1000,1000,1000,0,0,0,0,0,0,0,0,0,0
1682943570.30011702,118728323,1000,1000,1000,1000,0,0,0,0,0,0,0,0,0,0
1682943570.40007710,118828283,1000,1000,1000,1000,0,0,0,0,0,0,0,0,0,0
1682943570.50003695,118928243,1000,1000,1000,1000,0,0,0,0,0,0,0,0,0,0
1682943570.59999704,119028203,1000,1000,1000,1000,0,0,0,0,0,0,0,0,0,0
1682943570.69995713,119128163,1000,1000,1000,1000,0,0,0,0,0,0,0,0,0,0
1682943570.80075002,119228956,1000,1000,1000,1000,0,0,0,0,0,0,0,0,0,0
1682943570.90071011,119328916,1000,1000,1000,1000,0,0,0,0,0,0,0,0,0,0
1682943571.00066996,119428876,1000,1000,1000,1000,0,0,0,0,0,0,0,0,0,0
1682943571.10063004,119528836,1000,1000,1000,1000,0,0,0,0,0,0,0,0,0,0
1682943571.20059013,119628796,1000,1000,1000,1000,0,0,0,0,0,0,0,0,0,0
1682943571.30054998,119728756,1000,1000,1000,1000,0,0,0,0,0,0,0,0,0,0
1682943571.40051007,119828716,1000,1000,1000,1000,0,0,0,0,0,0,0,0,0,0
1682943571.50046992,119928676,1000,1000,1000,1000,0,0,0,0,0,0,0,0,0,0
1682943571.60043001,120028636,1000,1000,1000,1000,0,0,0,0,0,0,0,0,0,0
1682943571.70039010,120128596,1000,1000,1000,1000,0,0,0,0,0,0,0,0,0,0
1682943571.80034995,120228556,1000,1000,1000,1000,0,0,0,0,0,0,0,0,0,0
1682943571.90031004,120328516,1000,1000,1000,1000,0,0,0,0,0,0,0,0,0,0
1682943572.00027013,120428476,1000,1000,1000,1000,0,0,0,0,0,0,0,0,0,0
1682943572.10022998,120528436,1000,1000,1000,1000,0,0,0,0,0,0,0,0,0,0
1682943572.20019007,120628396,1000,1000,1000,1000,0,0,0,0,0,0,0,0,0,0
1682943572.30014992,120728356,1000,1000,1000,1000,0,0,0,0,0,0,0,0,0,0
1682943572.40011001,120828316,1000,1000,1000,1000,0,0,0,0,0,0,0,0,0,0
1682943572.50007010,120928276,1000,1000,1000,1000,0,0,0,0,0,0,0,0,0,0
1682943572.60002995,121028236,1000,1000,1000,1000,0,0,0,0,0,0,0,0,0,0
1682943572.69999003,121128196,1000,1000,1000,1000,0,0,0,0,0,0,0,0,0,0
1682943572.79995012,121228156,1000,1000,1000,1000,0,0,0,0,0,0,0,0,0,0
1682943572.90074301,121328949,1000,1000,1000,1000,0,0,0,0,0,0,0,0,0,0
1682943573.00070310,121428909,1000,1000,1000,1000,0,0,0,0,0,0,0,0,0,0
1682943573.10066295,121528869,1000,1000,1000,1000,0,0,0,0,0,0,0,0,0,0
1682943573.20062304,121628829,1000,1000,1000,1000,0,0,0,0,0,0,0,0,0,0
1682943573.30058312,121728789,1000,1000,1000,1000,0,0,0,0,0,0,0,0,0,0
1682943573.40054297,121828749,1000,1000,1000,1000,0,0,0,0,0,0,0,0,0,0
1682943573.50050306,121928709,1000,1000,1000,1000,0,0,0,0,0,0,0,0,0,0
1682943573.60046315,122028669,1000,1000,1000,1000,0,0,0,0,0,0,0,0,0,0
1682943573.70042300,122128629,1000,1000,1000,1000,0,0,0,0,0,0,0,0,0,0
1682943573.80038309,122228589,1000,1000,1000,1000,0,0,0,0,0,0,0,0,0,0
1682943573.90034294,122328549,1000,1000,1000,1000,0,0,0,0,0,0,0,0,0,0
1682943574.00030303,122428509,1000,1000,1000,1000,0,0,0,0,0,0,0,0,0,0
1682943574.10026312,122528469,1000,1000,1000,1000,0,0,0,0,0,0,0,0,0,0
1682943574.20022297,122628429,1000,1000,1000,1000,0,0,0,0,0,0,0,0,0,0
1682943574.30018306,122728389,1000,1000,1000,1000,0,0,0,0,0,0,0,0,0,0
1682943574.40014315,122828349,1000,1000,1000,1000,0,0,0,0,0,0,0,0,0,0
1682943574.50010300,122928309,1000,1000,1000,1000,0,0,0,0,0,0,0,0,0,0
1682943574.60006309,123028269,1000,1000,1000,1000,0,0,0,0,0,0,0,0,0,0
1682943574.70002294,123128229,1000,1000,1000,1000,0,0,0,0,0,0,0,0,0,0
1682943574.79998302,123228189,1000,1000,1000,1000,0,0,0,0,0,0,0,0,0,0
1682943574.90077615,123328982,1000,1000,1000,1000,0,0,0,0,0,0,0,0,0,0
1682943575.00073600,123428942,1000,1000,1000,1000,0,0,0,0,0,0,0,0,0,0
1682943575.10069609,123528902,1000,1000,1000,1000,0,0,0,0,0,0,0,0,0,0
1682943575.20065594,123628862,1000,1000,1000,1000,0,0,0,0,0,0,0,0,0,0
1682943575.30061603,123728822,1000,1000,1000,1000,0,0,0,0,0,0,0,0,0,0
1682943575.40057611,123828782,1000,1000,1000,1000,0,0,0,0,0,0,0,0,0,0
1682943575.50053596,123928742,1000,1000,1000,1000,0,0,0,0,0,0,0,0,0,0
1682943575.60049605,124028702,1000,1000,1000,1000,0,0,0,0,0,0,0,0,0,0
1682943575.70045614,124128662,1000,1000,1000,1000,0,0,0,0,0,0,0,0,0,0
1682943575.80041599,124228622,1000,1000,1000,1000,0,0,0,0,0,0,0,0,0,0
1682943575.90037608,124328582,1000,1000,1000,1000,0,0,0,0,0,0,0,0,0,0
1682943576.00033593,124428542,1000,1000,1000,1000,0,0,0,0,0,0,0,0,0,0
1682943576.10029602,124528502,1000,1000,1000,1000,0,0,0,0,0,0,0,0,0,0
1682943576.20025611,124628462,1000,1000,1000,1000,0,0,0,0,0,0,0,0,0,0
1682943576.30021596,124728422,1000,1000,1000,1000,0,0,0,0,0,0,0,0,0,0
1682943576.40017605,124828382,1000,1000,1000,1000,0,0,0,0,0,0,0,0,0,0
1682943576.50013614,124928342,1000,1000,1000,1000,0,0,0,0,0,0,0,0,0,0
1682943576.60009599,125028302,1000,1000,1000,1000,0,0,0,0,0,0,0,0,0,0
1682943576.70005608,125128262,1000,1000,1000,1000,0,0,0,0,0,0,0,0,0,0
1682943576.80001593,125228222,1000,1000,1000,1000,0,0,0,0,0,0,0,0,0,0
1682943576.89997602,125328182,1000,1000,1000,1000,0,0,0,0,0,0,0,0,0,0
1682943577.00076914,125428975,1000,1000,1000,1000,0,0,0,0,0,0,0,0,0,0
1682943577.10072899,125528935,1000,1000,1000,1000,0,0,0,0,0,0,0,0,0,0
1682943577.20068908,125628895,1000,1000,1000,1000,0,0,0,0,0,0,0,0,0,0
1682943577.30064893,125728855,1000,1000,1000,1000,0,0,0,0,0,0,0,0,0,0
1682943577.40060902,125828815,1000,1000,1000,1000,0,0,0,0,0,0,0,0,0,0
1682943577.50056911,125928775,1000,1000,1000,1000,0,0,0,0,0,0,0,0,0,0
1682943577.60052896,126028735,1000,1000,1000,1000,0,0,0,0,0,0,0,0,0,0
1682943577.70048904,126128695,1000,1000,1000,1000,0,0,0,0,0,0,0,0,0,0
1682943577.80044913,126228655,1000,1000,1000,1000,0,0,0,0,0,0,0,0,0,0
1682943577.90040898,126328615,1000,1000,1000,1000,0,0,0,0,0,0,0,0,0,0
1682943578.00036907,126428575,1000,1000,1000,1000,0,0,0,0,0,0,0,0,0,0
1682943578.10032892,126528535,1000,1000,1000,1000,0,0,0,0,0,0,0,0,0,0
1682943578.20028901,126628495,1000,1000,1000,1000,0,0,0,0,0,0,0,0,0,0
1682943578.30024910,126728455,1000,1000,1000,1000,0,0,0,0,0,0,0,0,0,0
1682943578.40020895,126828415,1000,1000,1000,1000,0,0,0,0,0,0,0,0,0,0
