TimeUS,M1,M2,M3,M4,TimeUS,C1,C2,C3,C4
53915925,1000,1000,1000,1000,53928420,1000,1000,1000,1000
53918424,1000,1000,1000,1000,54028380,1000,1000,1000,1000
53920923,1000,1000,1000,1000,54128340,1000,1000,1000,1000
53923422,1000,1000,1000,1000,54228300,1000,1000,1000,1000
53925921,1000,1000,1000,1000,54328260,1000,1000,1000,1000
53928420,1000,1000,1000,1000,54428220,1000,1000,1000,1000
53930919,1000,1000,1000,1000,54528180,1000,1000,1000,1000
53933418,1000,1000,1000,1000,54628973,1000,1000,1000,1000
53935917,1000,1000,1000,1000,54728933,1000,1000,1000,1000
53938416,1000,1000,1000,1000,54828893,1000,1000,1000,1000
53940915,1000,1000,1000,1000,54928853,1000,1000,1000,1000
53943414,1000,1000,1000,1000,55028813,1000,1000,1000,1000
53945913,1000,1000,1000,1000,55128773,1000,1000,1000,1000
53948412,1000,1000,1000,1000,55228733,1000,1000,1000,1000
53950911,1000,1000,1000,1000,55328693,1000,1000,1000,1000
53953410,1000,1000,1000,1000,55428653,1000,1000,1000,1000
53955909,1000,1000,1000,1000,55528613,1000,1000,1000,1000
53958408,1000,1000,1000,1000,55628573,1000,1000,1000,1000
53960907,1000,1000,1000,1000,55728533,1000,1000,1000,1000
53963406,1000,1000,1000,1000,55828493,1000,1000,1000,1000
53965905,1000,1000,1000,1000,55928453,1003,1003,1003,1003
53968404,1000,1000,1000,1000,56028413,1033,1033,1033,1033
53970903,1000,1000,1000,1000,56128373,1063,1063,1063,1063
53973402,1000,1000,1000,1000,56228333,1093,1093,1093,1093
53975901,1000,1000,1000,1000,56328293,1123,1123,1123,1123
53978400,1000,1000,1000,1000,56428253,1185,1177,1178,1186
53980899,1000,1000,1000,1000,56528213,1425,1419,1419,1425
53983398,1000,1000,1000,1000,56628173,1599,1594,1594,1599
53985897,1000,1000,1000,1000,56728966,1743,1738,1739,1744
53988396,1000,1000,1000,1000,56828926,1869,1864,1865,1870
53990895,1000,1000,1000,1000,56928886,1931,1927,1928,1931
53993394,1000,1000,1000,1000,57028846,1819,1817,1818,1819
53995893,1000,1000,1000,1000,57128806,1698,1699,1699,1699
53998392,1000,1000,1000,1000,57228766,1645,1647,1647,1645
54000891,1000,1000,1000,1000,57328726,1638,1640,1641,1638
54003390,1000,1000,1000,1000,57428686,1645,1646,1646,1644
54005889,1000,1000,1000,1000,57528646,1642,1643,1643,1642
54008388,1000,1000,1000,1000,57628606,1634,1633,1633,1634
54010887,1000,1000,1000,1000,57728566,1625,1624,1624,1625
54013386,1000,1000,1000,1000,57828526,1618,1617,1616,1618
54015885,1000,1000,1000,1000,57928486,1596,1596,1596,1596
54018384,1000,1000,1000,1000,58028446,1575,1574,1574,1574
54020883,1000,1000,1000,1000,58128406,1562,1561,1561,1562
54023382,1000,1000,1000,1000,58228366,1553,1552,1552,1553
54025881,1000,1000,1000,1000,58328326,1544,1545,1544,1545
54028380,1000,1000,1000,1000,58428286,1540,1540,1536,1544
54030879,1000,1000,1000,1000,58528246,1536,1536,1532,1540
54033378,1000,1000,1000,1000,58628206,1534,1534,1531,1537
54035877,1000,1000,1000,1000,58728166,1532,1532,1531,1534
54038376,1000,1000,1000,1000,58828959,1532,1532,1533,1531
54040875,1000,1000,1000,1000,58928919,1535,1535,1538,1533
54043374,1000,1000,1000,1000,59028879,1539,1539,1542,1536
54045873,1000,1000,1000,1000,59128839,1544,1544,1546,1542
54048372,1000,1000,1000,1000,59228799,1542,1542,1549,1535
54050871,1000,1000,1000,1000,59328759,1543,1542,1549,1536
54053370,1000,1000,1000,1000,59428719,1543,1543,1544,1543
54055869,1000,1000,1000,1000,59528679,1544,1544,1540,1549
54058368,1000,1000,1000,1000,59628639,1544,1544,1538,1551
54060867,1000,1000,1000,1000,59728599,1545,1545,1540,1551
54063366,1000,1000,1000,1000,59828559,1547,1547,1544,1550
54065865,1000,1000,1000,1000,59928519,1551,1551,1551,1551
54068364,1000,1000,1000,1000,60028479,1554,1554,1557,1551
54070863,1000,1000,1000,1000,60128439,1558,1558,1561,1555
54073362,1000,1000,1000,1000,60228399,1560,1560,1563,1557
54075861,1000,1000,1000,1000,60328359,1562,1562,1562,1561
54078360,1000,1000,1000,1000,60428319,1563,1563,1562,1564
54080859,1000,1000,1000,1000,60528279,1558,1557,1567,1571
54083358,1000,1000,1000,1000,60628239,1557,1558,1568,1572
54085857,1000,1000,1000,1000,60728199,1560,1560,1568,1570
54088356,1000,1000,1000,1000,60828159,1563,1564,1567,1569
54090855,1000,1000,1000,1000,60928952,1565,1566,1566,1566
54093354,1000,1000,1000,1000,61028912,1568,1568,1565,1564
54095853,1000,1000,1000,1000,61128872,1571,1570,1565,1564
54098352,1000,1000,1000,1000,61228832,1573,1573,1566,1566
54100851,1000,1000,1000,1000,61328792,1574,1574,1566,1566
54103350,1000,1000,1000,1000,61428752,1574,1574,1567,1567
54105849,1000,1000,1000,1000,61528712,1575,1575,1568,1569
54108348,1000,1000,1000,1000,61628672,1574,1574,1570,1570
54110847,1000,1000,1000,1000,61728632,1574,1574,1571,1571
54113346,1000,1000,1000,1000,61828592,1573,1573,1572,1572
54115845,1000,1000,1000,1000,61928552,1573,1573,1574,1573
54118344,1000,1000,1000,1000,62028512,1574,1574,1576,1575
54120843,1000,1000,1000,1000,62128472,1573,1573,1576,1575
54123342,1000,1000,1000,1000,62228432,1574,1574,1577,1576
54125841,1000,1000,1000,1000,62328392,1574,1574,1577,1576
54128340,1000,1000,1000,1000,62428352,1574,1575,1577,1577
54130839,1000,1000,1000,1000,62528312,1575,1574,1576,1577
54133338,1000,1000,1000,1000,62628272,1576,1576,1577,1577
54135837,1000,1000,1000,1000,62728232,1576,1576,1576,1577
54138336,1000,1000,1000,1000,62828192,1577,1577,1576,1577
54140835,1000,1000,1000,1000,62928985,1577,1577,1577,1576
54143334,1000,1000,1000,1000,63028945,1577,1578,1577,1576
54145833,1000,1000,1000,1000,63128905,1577,1577,1576,1576
54148332,1000,1000,1000,1000,63228865,1578,1578,1577,1577
54150831,1000,1000,1000,1000,63328825,1578,1577,1577,1577
54153330,1000,1000,1000,1000,63428785,1579,1579,1578,1578
54155829,1000,1000,1000,1000,63528745,1578,1578,1577,1578
54158328,1000,1000,1000,1000,63628705,1578,1579,1578,1578
54160827,1000,1000,1000,1000,63728665,1579,1579,1579,1579
54163326,1000,1000,1000,1000,63828625,1579,1579,1579,1579
54165825,1000,1000,1000,1000,63928585,1579,1579,1579,1580
54168324,1000,1000,1000,1000,64028545,1578,1578,1579,1578
54170823,1000,1000,1000,1000,64128505,1579,1579,1579,1580
54173322,1000,1000,1000,1000,64228465,1579,1579,1579,1579
54175821,1000,1000,1000,1000,64328425,1579,1579,1579,1579
54178320,1000,1000,1000,1000,64428385,1579,1579,1580,1580
54180819,1000,1000,1000,1000,64528345,1579,1579,1579,1580
54183318,1000,1000,1000,1000,64628305,1579,1579,1579,1579
54185817,1000,1000,1000,1000,64728265,1579,1579,1579,1579
54188316,1000,1000,1000,1000,64828225,1580,1580,1580,1580
54190815,1000,1000,1000,1000,64928185,1580,1580,1580,1580
54193314,1000,1000,1000,1000,65028978,1580,1579,1579,1579
54195813,1000,1000,1000,1000,65128938,1580,1579,1579,1579
54198312,1000,1000,1000,1000,65228898,1580,1580,1580,1580
54200811,1000,1000,1000,1000,65328858,1580,1580,1580,1580
54203310,1000,1000,1000,1000,65428818,1580,1580,1580,1580
54205809,1000,1000,1000,1000,65528778,1580,1580,1580,1580
54208308,1000,1000,1000,1000,65628738,1580,1580,1580,1580
54210807,1000,1000,1000,1000,65728698,1580,1580,1580,1580
54213306,1000,1000,1000,1000,65828658,1579,1579,1580,1579
54215805,1000,1000,1000,1000,65928618,1580,1580,1580,1580
54218304,1000,1000,1000,1000,66028578,1580,1581,1581,1581
54220803,1000,1000,1000,1000,66128538,1580,1581,1581,1581
54223302,1000,1000,1000,1000,66228498,1581,1581,1581,1580
54225801,1000,1000,1000,1000,66328458,1581,1580,1580,1581
54228300,1000,1000,1000,1000,66428418,1581,1581,1581,1581
54230799,1000,1000,1000,1000,66528378,1582,1581,1581,1581
54233298,1000,1000,1000,1000,66628338,1582,1582,1582,1582
54235797,1000,1000,1000,1000,66728298,1581,1581,1582,1581
54238296,1000,1000,1000,1000,66828258,1582,1583,1589,1574
54240795,1000,1000,1000,1000,66928218,1581,1583,1586,1574
54243294,1000,1000,1000,1000,67028178,1578,1581,1576,1573
54245793,1000,1000,1000,1000,67128971,1577,1580,1568,1572
54248292,1000,1000,1000,1000,67228931,1577,1579,1561,1568
54250791,1000,1000,1000,1000,67328891,1578,1578,1557,1563
54253290,1000,1000,1000,1000,67428851,1579,1578,1555,1558
54255789,1000,1000,1000,1000,67528811,1579,1577,1555,1555
54258288,1000,1000,1000,1000,67628771,1578,1577,1555,1553
54260787,1000,1000,1000,1000,67728731,1577,1577,1555,1553
54263286,1000,1000,1000,1000,67828691,1577,1578,1556,1554
54265785,1000,1000,1000,1000,67928651,1575,1576,1555,1554
54268284,1000,1000,1000,1000,68028611,1575,1576,1554,1554
54270783,1000,1000,1000,1000,68128571,1575,1576,1553,1554
54273282,1000,1000,1000,1000,68228531,1575,1577,1552,1552
54275781,1000,1000,1000,1000,68328491,1577,1579,1551,1551
54278280,1000,1000,1000,1000,68428451,1578,1580,1548,1548
54280779,1000,1000,1000,1000,68528411,1581,1582,1545,1545
54283278,1000,1000,1000,1000,68628371,1582,1583,1541,1541
54285777,1000,1000,1000,1000,68728331,1587,1587,1539,1539
54288276,1000,1000,1000,1000,68828291,1590,1590,1537,1537
54290775,1000,1000,1000,1000,68928251,1592,1592,1535,1535
54293274,1000,1000,1000,1000,69028211,1594,1594,1534,1535
54295773,1000,1000,1000,1000,69128171,1594,1594,1535,1535
54298272,1000,1000,1000,1000,69228964,1594,1594,1537,1539
54300771,1000,1000,1000,1000,69328924,1592,1591,1540,1542
54303270,1000,1000,1000,1000,69428884,1588,1587,1545,1548
54305769,1000,1000,1000,1000,69528844,1582,1579,1552,1555
54308268,1000,1000,1000,1000,69628804,1574,1570,1562,1565
54310767,1000,1000,1000,1000,69728764,1564,1560,1574,1576
54313266,1000,1000,1000,1000,69828724,1554,1550,1587,1588
54315765,1000,1000,1000,1000,69928684,1543,1541,1599,1598
54318264,1000,1000,1000,1000,70028644,1535,1535,1608,1607
54320763,1000,1000,1000,1000,70128604,1530,1531,1613,1612
54323262,1000,1000,1000,1000,70228564,1529,1530,1615,1614
54325761,1000,1000,1000,1000,70328524,1533,1535,1614,1613
54328260,1000,1000,1000,1000,70428484,1536,1539,1608,1608
54330759,1000,1000,1000,1000,70528444,1545,1546,1603,1603
54333258,1000,1000,1000,1000,70628404,1553,1554,1595,1595
54335757,1000,1000,1000,1000,70728364,1562,1563,1589,1588
54338256,1000,1000,1000,1000,70828324,1571,1571,1582,1581
54340755,1000,1000,1000,1000,70928284,1579,1578,1576,1576
54343254,1000,1000,1000,1000,71028244,1584,1582,1571,1571
54345753,1000,1000,1000,1000,71128204,1587,1585,1568,1568
54348252,1000,1000,1000,1000,71228164,1588,1586,1566,1566
54350751,1000,1000,1000,1000,71328957,1603,1557,1583,1537
54353250,1000,1000,1000,1000,71428917,1605,1582,1587,1566
54355749,1000,1000,1000,1000,71528877,1602,1583,1590,1571
54358248,1000,1000,1000,1000,71628837,1596,1585,1590,1579
54360747,1000,1000,1000,1000,71728797,1588,1586,1587,1585
54363246,1000,1000,1000,1000,71828757,1578,1583,1583,1587
54365745,1000,1000,1000,1000,71928717,1572,1580,1581,1588
54368244,1000,1000,1000,1000,72028677,1568,1576,1580,1588
54370743,1000,1000,1000,1000,72128637,1569,1574,1582,1587
54373242,1000,1000,1000,1000,72228597,1571,1573,1583,1584
54375741,1000,1000,1000,1000,72328557,1573,1573,1583,1583
54378240,1000,1000,1000,1000,72428517,1576,1574,1583,1581
54380739,1000,1000,1000,1000,72528477,1578,1576,1582,1580
54383238,1000,1000,1000,1000,72628437,1580,1579,1582,1580
54385737,1000,1000,1000,1000,72728397,1581,1580,1579,1579
54388236,1000,1000,1000,1000,72828357,1581,1581,1577,1577
54390735,1000,1000,1000,1000,72928317,1580,1580,1575,1576
54393234,1000,1000,1000,1000,73028277,1580,1581,1574,1576
54395733,1000,1000,1000,1000,73128237,1580,1581,1574,1575
54398232,1000,1000,1000,1000,73228197,1580,1581,1575,1576
54400731,1000,1000,1000,1000,73328157,1580,1580,1576,1576
54403230,1000,1000,1000,1000,73428950,1581,1580,1578,1577
54405729,1000,1000,1000,1000,73528910,1580,1580,1578,1578
54408228,1000,1000,1000,1000,73628870,1579,1579,1578,1578
54410727,1000,1000,1000,1000,73728830,1579,1579,1579,1579
54413226,1000,1000,1000,1000,73828790,1578,1579,1580,1580
54415725,1000,1000,1000,1000,73928750,1578,1578,1579,1580
54418224,1000,1000,1000,1000,74028710,1579,1579,1581,1581
54420723,1000,1000,1000,1000,74128670,1579,1579,1581,1580
54423222,1000,1000,1000,1000,74228630,1580,1580,1581,1581
54425721,1000,1000,1000,1000,74328590,1580,1580,1581,1581
54428220,1000,1000,1000,1000,74428550,1579,1579,1579,1580
54430719,1000,1000,1000,1000,74528510,1580,1580,1580,1580
54433218,1000,1000,1000,1000,74628470,1580,1581,1580,1580
54435717,1000,1000,1000,1000,74728430,1580,1580,1580,1580
54438216,1000,1000,1000,1000,74828390,1580,1581,1585,1572
54440715,1000,1000,1000,1000,74928350,1580,1583,1583,1570
54443214,1000,1000,1000,1000,75028310,1580,1583,1576,1572
54445713,1000,1000,1000,1000,75128270,1579,1581,1566,1569
54448212,1000,1000,1000,1000,75228230,1578,1580,1559,1566
54450711,1000,1000,1000,1000,75328190,1579,1580,1555,1561
54453210,1000,1000,1000,1000,75428983,1581,1580,1554,1558
54455709,1000,1000,1000,1000,75528943,1581,1579,1553,1554
54458208,1000,1000,1000,1000,75628903,1580,1579,1553,1552
54460707,1000,1000,1000,1000,75728863,1580,1580,1555,1552
54463206,1000,1000,1000,1000,75828823,1579,1580,1555,1553
54465705,1000,1000,1000,1000,75928783,1578,1579,1554,1553
54468204,1000,1000,1000,1000,76028743,1576,1578,1554,1553
54470703,1000,1000,1000,1000,76128703,1576,1578,1552,1553
54473202,1000,1000,1000,1000,76228663,1576,1578,1551,1551
54475701,1000,1000,1000,1000,76328623,1577,1579,1549,1550
54478200,1000,1000,1000,1000,76428583,1579,1580,1548,1549
54480699,1000,1000,1000,1000,76528543,1581,1582,1547,1547
54483198,1000,1000,1000,1000,76628503,1583,1584,1545,1544
54485697,1000,1000,1000,1000,76728463,1586,1586,1543,1543
54488196,1000,1000,1000,1000,76828423,1587,1587,1541,1542
54490695,1000,1000,1000,1000,76928383,1589,1589,1540,1541
54493194,1000,1000,1000,1000,77028343,1590,1591,1539,1541
54495693,1000,1000,1000,1000,77128303,1591,1591,1540,1542
54498192,1000,1000,1000,1000,77228263,1590,1590,1543,1545
54500691,1000,1000,1000,1000,77328223,1587,1585,1547,1550
54503190,1000,1000,1000,1000,77428183,1581,1579,1554,1557
54505689,1000,1000,1000,1000,77528976,1575,1571,1564,1566
54508188,1000,1000,1000,1000,77628936,1566,1562,1574,1576
54510687,1000,1000,1000,1000,77728896,1557,1554,1586,1586
54513186,1000,1000,1000,1000,77828856,1548,1547,1595,1595
54515685,1000,1000,1000,1000,77928816,1542,1541,1602,1602
54518184,1000,1000,1000,1000,78028776,1538,1539,1608,1607
54520683,1000,1000,1000,1000,78128736,1537,1539,1610,1609
54523182,1000,1000,1000,1000,78228696,1539,1541,1608,1608
54525681,1000,1000,1000,1000,78328656,1544,1545,1606,1605
54528180,1000,1000,1000,1000,78428616,1550,1551,1602,1600
54530679,1000,1000,1000,1000,78528576,1557,1557,1595,1594
54533178,1000,1000,1000,1000,78628536,1562,1563,1587,1587
54535677,1000,1000,1000,1000,78728496,1569,1569,1581,1581
54538176,1000,1000,1000,1000,78828456,1576,1575,1576,1576
54540675,1000,1000,1000,1000,78928416,1580,1579,1573,1573
54543174,1000,1000,1000,1000,79028376,1584,1583,1570,1570
54545673,1000,1000,1000,1000,79128336,1585,1584,1569,1569
54548172,1000,1000,1000,1000,79228296,1585,1584,1569,1569
54550671,1000,1000,1000,1000,79328256,1584,1583,1570,1570
54553170,1000,1000,1000,1000,79428216,1583,1583,1573,1573
54555669,1000,1000,1000,1000,79528176,1580,1581,1575,1575
54558168,1000,1000,1000,1000,79628969,1578,1579,1578,1577
54560667,1000,1000,1000,1000,79728929,1576,1576,1579,1579
54563166,1000,1000,1000,1000,79828889,1576,1576,1582,1582
54565665,1000,1000,1000,1000,79928849,1574,1574,1582,1582
54568164,1000,1000,1000,1000,80028809,1574,1575,1584,1583
54570663,1000,1000,1000,1000,80128769,1574,1575,1584,1584
54573162,1000,1000,1000,1000,80228729,1575,1575,1584,1584
54575661,1000,1000,1000,1000,80328689,1574,1575,1582,1582
54578160,1000,1000,1000,1000,80428649,1577,1576,1582,1582
54580659,1000,1000,1000,1000,80528609,1577,1577,1580,1580
54583158,1000,1000,1000,1000,80628569,1578,1578,1579,1580
54585657,1000,1000,1000,1000,80728529,1579,1579,1578,1578
54588156,1000,1000,1000,1000,80828489,1581,1580,1579,1578
54590655,1000,1000,1000,1000,80928449,1582,1581,1578,1578
54593154,1000,1000,1000,1000,81028409,1581,1581,1578,1578
54596486,1000,1000,1000,1000,81128369,1581,1581,1578,1578
54598985,1000,1000,1000,1000,81228329,1581,1581,1578,1578
54601484,1000,1000,1000,1000,81328289,1581,1581,1578,1579
54603983,1000,1000,1000,1000,81428249,1581,1580,1579,1579
54606482,1000,1000,1000,1000,81528209,1581,1581,1580,1580
54608981,1000,1000,1000,1000,81628169,1580,1580,1580,1580
54611480,1000,1000,1000,1000,81728962,1580,1580,1581,1581
54613979,1000,1000,1000,1000,81828922,1579,1579,1580,1580
54616478,1000,1000,1000,1000,81928882,1580,1580,1581,1581
54618977,1000,1000,1000,1000,82028842,1579,1580,1581,1581
54621476,1000,1000,1000,1000,82128802,1580,1580,1581,1582
54623975,1000,1000,1000,1000,82228762,1581,1580,1582,1581
54626474,1000,1000,1000,1000,82328722,1581,1581,1582,1582
54628973,1000,1000,1000,1000,82428682,1582,1581,1582,1582
54631472,1000,1000,1000,1000,82528642,1582,1582,1582,1582
54633971,1000,1000,1000,1000,82628602,1581,1581,1581,1581
54636470,1000,1000,1000,1000,82728562,1581,1581,1581,1581
54638969,1000,1000,1000,1000,82828522,1582,1581,1581,1581
54641468,1000,1000,1000,1000,82928482,1582,1582,1581,1581
54643967,1000,1000,1000,1000,83028442,1582,1583,1587,1574
54646466,1000,1000,1000,1000,83128402,1581,1583,1585,1572
54648965,1000,1000,1000,1000,83228362,1579,1582,1577,1573
54651464,1000,1000,1000,1000,83328322,1577,1580,1568,1571
54653963,1000,1000,1000,1000,83428282,1577,1579,1561,1568
54656462,1000,1000,1000,1000,83528242,1579,1580,1558,1564
54658961,1000,1000,1000,1000,83628202,1580,1579,1556,1560
54661460,1000,1000,1000,1000,83728162,1579,1578,1555,1555
54663959,1000,1000,1000,1000,83828955,1581,1579,1556,1555
54666458,1000,1000,1000,1000,83928915,1579,1578,1556,1553
54668957,1000,1000,1000,1000,84028875,1578,1578,1556,1554
54671456,1000,1000,1000,1000,84128835,1576,1577,1555,1553
54673955,1000,1000,1000,1000,84228795,1575,1577,1555,1554
54676454,1000,1000,1000,1000,84328755,1575,1576,1554,1554
54678953,1000,1000,1000,1000,84428715,1576,1577,1552,1553
54681452,1000,1000,1000,1000,84528675,1577,1579,1552,1552
54683951,1000,1000,1000,1000,84628635,1579,1580,1550,1550
54686450,1000,1000,1000,1000,84728595,1580,1581,1547,1547
54688949,1000,1000,1000,1000,84828555,1583,1584,1545,1544
54691448,1000,1000,1000,1000,84928515,1586,1586,1542,1542
54693947,1000,1000,1000,1000,85028475,1588,1589,1540,1540
54696446,1000,1000,1000,1000,85128435,1591,1591,1539,1539
54698945,1000,1000,1000,1000,85228395,1592,1593,1537,1538
54701444,1000,1000,1000,1000,85328355,1593,1594,1536,1538
54703943,1000,1000,1000,1000,85428315,1594,1594,1538,1540
54706442,1000,1000,1000,1000,85528275,1592,1591,1541,1543
54708941,1000,1000,1000,1000,85628235,1589,1587,1545,1548
54711440,1000,1000,1000,1000,85728195,1583,1580,1553,1556
54713939,1000,1000,1000,1000,85828155,1576,1572,1564,1566
54716438,1000,1000,1000,1000,85928948,1566,1562,1576,1577
54718937,1000,1000,1000,1000,86028908,1554,1551,1586,1587
54721436,1000,1000,1000,1000,86128868,1544,1542,1596,1596
54723935,1000,1000,1000,1000,86228828,1536,1536,1604,1604
54726434,1000,1000,1000,1000,86328788,1532,1533,1610,1609
54728933,1000,1000,1000,1000,86428748,1532,1534,1613,1612
54731432,1000,1000,1000,1000,86528708,1535,1536,1611,1610
54733931,1000,1000,1000,1000,86628668,1540,1542,1608,1608
54736430,1000,1000,1000,1000,86728628,1547,1548,1602,1602
54738929,1000,1000,1000,1000,86828588,1555,1556,1596,1595
54741428,1000,1000,1000,1000,86928548,1563,1563,1589,1588
54743927,1000,1000,1000,1000,87028508,1570,1570,1582,1581
54746426,1000,1000,1000,1000,87128468,1577,1575,1575,1575
54748925,1000,1000,1000,1000,87228428,1582,1581,1572,1572
54751424,1000,1000,1000,1000,87328388,1585,1583,1568,1568
54753923,1000,1000,1000,1000,87428348,1586,1584,1566,1566
54756422,1000,1000,1000,1000,87528308,1585,1584,1566,1567
54758921,1000,1000,1000,1000,87628268,1585,1584,1568,1569
54761420,1000,1000,1000,1000,87728228,1583,1582,1571,1570
54763919,1000,1000,1000,1000,87828188,1581,1580,1574,1573
54766418,1000,1000,1000,1000,87928981,1577,1578,1576,1576
54768917,1000,1000,1000,1000,88028941,1577,1577,1579,1579
54771416,1000,1000,1000,1000,88128901,1575,1575,1581,1581
54773915,1000,1000,1000,1000,88228861,1573,1574,1583,1582
54776414,1000,1000,1000,1000,88328821,1572,1573,1583,1583
54778913,1000,1000,1000,1000,88428781,1573,1574,1584,1584
54781412,1000,1000,1000,1000,88528741,1574,1574,1583,1583
54783911,1000,1000,1000,1000,88628701,1575,1576,1583,1583
54786410,1000,1000,1000,1000,88728661,1576,1576,1581,1581
54788909,1000,1000,1000,1000,88828621,1577,1577,1581,1580
54791408,1000,1000,1000,1000,88928581,1579,1579,1579,1580
54793907,1000,1000,1000,1000,89028541,1580,1580,1579,1579
54796406,1000,1000,1000,1000,89128501,1582,1581,1579,1579
54798905,1000,1000,1000,1000,89228461,1582,1582,1578,1578
54801404,1000,1000,1000,1000,89328421,1583,1582,1579,1579
54803903,1000,1000,1000,1000,89428381,1582,1582,1578,1578
54806402,1000,1000,1000,1000,89528341,1583,1583,1579,1580
54808901,1000,1000,1000,1000,89628301,1581,1582,1579,1579
54811400,1000,1000,1000,1000,89728261,1581,1581,1579,1579
54813899,1000,1000,1000,1000,89828221,1581,1580,1580,1580
54816398,1000,1000,1000,1000,89928181,1581,1580,1580,1581
54818897,1000,1000,1000,1000,90028974,1580,1580,1580,1581
54821396,1000,1000,1000,1000,90128934,1580,1580,1581,1582
54823895,1000,1000,1000,1000,90228894,1580,1580,1582,1581
54826394,1000,1000,1000,1000,90328854,1580,1580,1582,1582
54828893,1000,1000,1000,1000,90428814,1579,1580,1581,1581
54831392,1000,1000,1000,1000,90528774,1581,1580,1582,1582
54833891,1000,1000,1000,1000,90628734,1580,1580,1581,1581
54836390,1000,1000,1000,1000,90728694,1580,1580,1581,1581
54838889,1000,1000,1000,1000,90828654,1580,1581,1581,1581
54841388,1000,1000,1000,1000,90928614,1580,1581,1582,1579
54843887,1000,1000,1000,1000,91028574,1581,1582,1587,1572
54846386,1000,1000,1000,1000,91128534,1580,1580,1584,1573
54848885,1000,1000,1000,1000,91228494,1578,1577,1576,1575
54851384,1000,1000,1000,1000,91328454,1574,1574,1570,1575
54853883,1000,1000,1000,1000,91428414,1571,1571,1566,1573
54856382,1000,1000,1000,1000,91528374,1569,1569,1565,1571
54858881,1000,1000,1000,1000,91628334,1568,1568,1566,1568
54861380,1000,1000,1000,1000,91728294,1567,1567,1567,1567
54863879,1000,1000,1000,1000,91828254,1565,1565,1566,1564
54866378,1000,1000,1000,1000,91928214,1564,1564,1567,1564
54868877,1000,1000,1000,1000,92028174,1564,1564,1566,1563
54871376,1000,1000,1000,1000,92128967,1563,1563,1565,1564
54873875,1000,1000,1000,1000,92228927,1563,1562,1563,1563
54876374,1000,1000,1000,1000,92328887,1561,1562,1562,1562
54878873,1000,1000,1000,1000,92428847,1560,1561,1561,1561
54881372,1000,1000,1000,1000,92528807,1561,1561,1561,1562
54883871,1000,1000,1000,1000,92628767,1560,1561,1561,1560
54886370,1000,1000,1000,1000,92728727,1561,1561,1561,1560
54888869,1000,1000,1000,1000,92828687,1561,1560,1560,1560
54891368,1000,1000,1000,1000,92928647,1560,1559,1560,1559
54893867,1000,1000,1000,1000,93028607,1558,1558,1558,1557
54896366,1000,1000,1000,1000,93128567,1557,1557,1557,1556
54898865,1000,1000,1000,1000,93228527,1556,1556,1557,1555
54901364,1000,1000,1000,1000,93328487,1556,1557,1557,1555
54903863,1000,1000,1000,1000,93428447,1557,1557,1557,1556
54906362,1000,1000,1000,1000,93528407,1558,1557,1558,1557
54908861,1000,1000,1000,1000,93628367,1559,1558,1560,1557
54911360,1000,1000,1000,1000,93728327,1558,1558,1559,1557
54913859,1000,1000,1000,1000,93828287,1559,1559,1558,1560
54916358,1000,1000,1000,1000,93928247,1560,1560,1557,1563
54918857,1000,1000,1000,1000,94028207,1560,1560,1557,1563
54921356,1000,1000,1000,1000,94128167,1561,1562,1558,1564
54923855,1000,1000,1000,1000,94228960,1562,1562,1560,1564
54926354,1000,1000,1000,1000,94328920,1562,1562,1561,1562
54928853,1000,1000,1000,1000,94428880,1562,1561,1564,1560
54931352,1000,1000,1000,1000,94528840,1560,1559,1562,1558
54933851,1000,1000,1000,1000,94628800,1559,1559,1558,1561
54936350,1000,1000,1000,1000,94728760,1558,1557,1555,1560
54938849,1000,1000,1000,1000,94828720,1553,1552,1551,1554
54941348,1000,1000,1000,1000,94928680,1548,1548,1547,1549
54943847,1000,1000,1000,1000,95028640,1541,1542,1542,1541
54946346,1000,1000,1000,1000,95128600,1535,1535,1536,1534
54948845,1000,1000,1000,1000,95228560,1526,1527,1528,1526
54951344,1000,1000,1000,1000,95328520,1522,1522,1522,1522
54953843,1000,1000,1000,1000,95428480,1521,1521,1521,1522
54956342,1000,1000,1000,1000,95528440,1521,1520,1520,1521
54958841,1000,1000,1000,1000,95628400,1522,1522,1522,1522
54961340,1000,1000,1000,1000,95728360,1524,1524,1524,1525
54963839,1000,1000,1000,1000,95828320,1529,1529,1529,1529
54966338,1000,1000,1000,1000,95928280,1534,1533,1534,1534
54968837,1000,1000,1000,1000,96028240,1538,1538,1538,1538
54971336,1000,1000,1000,1000,96128200,1541,1541,1541,1541
54973835,1000,1000,1000,1000,96228160,1542,1542,1542,1542
54976334,1000,1000,1000,1000,96328953,1543,1543,1543,1543
54978833,1000,1000,1000,1000,96428913,1545,1545,1545,1544
54981332,1000,1000,1000,1000,96528873,1546,1545,1546,1545
54983831,1000,1000,1000,1000,96628833,1546,1546,1546,1546
54986330,1000,1000,1000,1000,96728793,1546,1547,1547,1546
54988829,1000,1000,1000,1000,96828753,1547,1547,1547,1547
54991328,1000,1000,1000,1000,96928713,1547,1547,1547,1547
54993827,1000,1000,1000,1000,97028673,1547,1547,1546,1546
54996326,1000,1000,1000,1000,97128633,1546,1546,1546,1546
54998825,1000,1000,1000,1000,97228593,1547,1547,1547,1547
55001324,1000,1000,1000,1000,97328553,1545,1545,1545,1545
55003823,1000,1000,1000,1000,97428513,1546,1545,1546,1545
55006322,1000,1000,1000,1000,97528473,1545,1545,1545,1545
55008821,1000,1000,1000,1000,97628433,1545,1545,1545,1545
55011320,1000,1000,1000,1000,97728393,1544,1544,1544,1544
55013819,1000,1000,1000,1000,97828353,1544,1544,1544,1544
55016318,1000,1000,1000,1000,97928313,1545,1544,1544,1544
55018817,1000,1000,1000,1000,98028273,1544,1544,1544,1544
55021316,1000,1000,1000,1000,98128233,1545,1545,1545,1545
55023815,1000,1000,1000,1000,98228193,1544,1544,1544,1544
55026314,1000,1000,1000,1000,98328986,1544,1544,1544,1544
55028813,1000,1000,1000,1000,98428946,1544,1544,1544,1544
55031312,1000,1000,1000,1000,98528906,1545,1545,1545,1545
55033811,1000,1000,1000,1000,98628866,1544,1544,1544,1544
55036310,1000,1000,1000,1000,98728826,1545,1545,1544,1545
55038809,1000,1000,1000,1000,98828786,1545,1544,1544,1545
55041308,1000,1000,1000,1000,98928746,1544,1544,1544,1544
55043807,1000,1000,1000,1000,99028706,1544,1545,1544,1544
55046306,1000,1000,1000,1000,99128666,1545,1545,1545,1544
55048805,1000,1000,1000,1000,99228626,1545,1545,1545,1545
55051304,1000,1000,1000,1000,99328586,1545,1544,1544,1544
55053803,1000,1000,1000,1000,99428546,1543,1544,1544,1544
55056302,1000,1000,1000,1000,99528506,1545,1545,1545,1545
55058801,1000,1000,1000,1000,99628466,1545,1546,1545,1545
55061300,1000,1000,1000,1000,99728426,1545,1545,1545,1545
55063799,1000,1000,1000,1000,99828386,1545,1544,1545,1545
55066298,1000,1000,1000,1000,99928346,1544,1544,1544,1544
55068797,1000,1000,1000,1000,100028306,1545,1545,1545,1545
55071296,1000,1000,1000,1000,100128266,1546,1545,1546,1545
55073795,1000,1000,1000,1000,100228226,1545,1545,1545,1545
55076294,1000,1000,1000,1000,100328186,1545,1545,1545,1545
55078793,1000,1000,1000,1000,100428979,1546,1546,1546,1545
55081292,1000,1000,1000,1000,100528939,1545,1545,1544,1545
55083791,1000,1000,1000,1000,100628899,1545,1545,1545,1545
55086290,1000,1000,1000,1000,100728859,1545,1545,1545,1545
55088789,1000,1000,1000,1000,100828819,1544,1544,1544,1545
55091288,1000,1000,1000,1000,100928779,1544,1544,1544,1545
55093787,1000,1000,1000,1000,101028739,1544,1544,1544,1544
55096286,1000,1000,1000,1000,101128699,1545,1545,1545,1545
55098785,1000,1000,1000,1000,101228659,1544,1545,1545,1545
55101284,1000,1000,1000,1000,101328619,1545,1545,1545,1545
55103783,1000,1000,1000,1000,101428579,1545,1545,1545,1545
55106282,1000,1000,1000,1000,101528539,1545,1544,1544,1545
55108781,1000,1000,1000,1000,101628499,1544,1544,1544,1544
55111280,1000,1000,1000,1000,101728459,1545,1545,1545,1545
55113779,1000,1000,1000,1000,101828419,1544,1544,1544,1544
55116278,1000,1000,1000,1000,101928379,1544,1544,1543,1544
55118777,1000,1000,1000,1000,102028339,1544,1545,1544,1545
55121276,1000,1000,1000,1000,102128299,1544,1544,1544,1544
55123775,1000,1000,1000,1000,102228259,1544,1544,1544,1544
55126274,1000,1000,1000,1000,102328219,1545,1544,1544,1545
55128773,1000,1000,1000,1000,102428179,1544,1544,1544,1544
55131272,1000,1000,1000,1000,102528972,1544,1544,1544,1544
55133771,1000,1000,1000,1000,102628932,1543,1544,1544,1544
55136270,1000,1000,1000,1000,102728892,1544,1544,1544,1544
55138769,1000,1000,1000,1000,102828852,1544,1544,1544,1544
55141268,1000,1000,1000,1000,102928812,1545,1545,1545,1545
55143767,1000,1000,1000,1000,103028772,1545,1545,1545,1545
55146266,1000,1000,1000,1000,103128732,1544,1544,1544,1544
55148765,1000,1000,1000,1000,103228692,1545,1544,1545,1545
55151264,1000,1000,1000,1000,103328652,1544,1544,1544,1545
55153763,1000,1000,1000,1000,103428612,1544,1544,1544,1545
55156262,1000,1000,1000,1000,103528572,1545,1545,1545,1545
55158761,1000,1000,1000,1000,103628532,1544,1545,1545,1545
55161260,1000,1000,1000,1000,103728492,1544,1545,1545,1544
55163759,1000,1000,1000,1000,103828452,1543,1544,1544,1543
55166258,1000,1000,1000,1000,103928412,1545,1544,1545,1545
55168757,1000,1000,1000,1000,104028372,1544,1544,1544,1543
55171256,1000,1000,1000,1000,104128332,1545,1544,1544,1545
55173755,1000,1000,1000,1000,104228292,1543,1543,1543,1543
55176254,1000,1000,1000,1000,104328252,1544,1543,1544,1544
55178753,1000,1000,1000,1000,104428212,1544,1544,1544,1543
55181252,1000,1000,1000,1000,104528172,1544,1543,1544,1543
55183751,1000,1000,1000,1000,104628965,1544,1544,1544,1544
55186250,1000,1000,1000,1000,104728925,1544,1544,1544,1544
55188749,1000,1000,1000,1000,104828885,1545,1545,1545,1545
55191248,1000,1000,1000,1000,104928845,1544,1544,1544,1544
55193747,1000,1000,1000,1000,105028805,1543,1543,1544,1543
55196246,1000,1000,1000,1000,105128765,1370,1361,1369,1362
55198745,1000,1000,1000,1000,105228725,1267,1251,1265,1253
55201244,1000,1000,1000,1000,105328685,1235,1215,1232,1218
55203743,1000,1000,1000,1000,105428645,1217,1198,1216,1199
55206242,1000,1000,1000,1000,105528605,1176,1152,1175,1154
55208741,1000,1000,1000,1000,105628565,1174,1150,1173,1151
55211240,1000,1000,1000,1000,105728525,1175,1150,1173,1152
55213739,1000,1000,1000,1000,105828485,1202,1150,1172,1184
55216238,1000,1000,1000,1000,105928445,1197,1150,1172,1178
55218737,1000,1000,1000,1000,106028405,1192,1150,1173,1172
55221236,1000,1000,1000,1000,106128365,1193,1150,1173,1172
55223735,1000,1000,1000,1000,106228325,1194,1150,1173,1174
55226234,1000,1000,1000,1000,106328285,1196,1150,1173,1176
55228733,1000,1000,1000,1000,106428245,1198,1150,1173,1178
55231232,1000,1000,1000,1000,106528205,1200,1150,1173,1180
55233731,1000,1000,1000,1000,106628165,1185,1150,1173,1164
55236230,1000,1000,1000,1000,106728958,1188,1150,1173,1167
55238729,1000,1000,1000,1000,106828918,1189,1150,1173,1168
55241228,1000,1000,1000,1000,106928878,1189,1150,1173,1169
55243727,1000,1000,1000,1000,107028838,1190,1150,1173,1169
55246226,1000,1000,1000,1000,107128798,1000,1000,1000,1000
55248725,1000,1000,1000,1000,107228758,1000,1000,1000,1000
55251224,1000,1000,1000,1000,107328718,1000,1000,1000,1000
55253723,1000,1000,1000,1000,107428678,1000,1000,1000,1000
55256222,1000,1000,1000,1000,107528638,1000,1000,1000,1000
55258721,1000,1000,1000,1000,107628598,1000,1000,1000,1000
55261220,1000,1000,1000,1000,107728558,1000,1000,1000,1000
55263719,1000,1000,1000,1000,107828518,1000,1000,1000,1000
55266218,1000,1000,1000,1000,107928478,1000,1000,1000,1000
55268717,1000,1000,1000,1000,108028438,1000,1000,1000,1000
55271216,1000,1000,1000,1000,108128398,1000,1000,1000,1000
55273715,1000,1000,1000,1000,108228358,1000,1000,1000,1000
55276214,1000,1000,1000,1000,108328318,1000,1000,1000,1000
55278713,1000,1000,1000,1000,108428278,1000,1000,1000,1000
55281212,1000,1000,1000,1000,108528238,1000,1000,1000,1000
55283711,1000,1000,1000,1000,108628198,1000,1000,1000,1000
55286210,1000,1000,1000,1000,108728158,1000,1000,1000,1000
55288709,1000,1000,1000,1000,108828951,1000,1000,1000,1000
55291208,1000,1000,1000,1000,108928911,1000,1000,1000,1000
55293707,1000,1000,1000,1000,109028871,1000,1000,1000,1000
55296206,1000,1000,1000,1000,109128831,1000,1000,1000,1000
55298705,1000,1000,1000,1000,109228791,1000,1000,1000,1000
55301204,1000,1000,1000,1000,109328751,1000,1000,1000,1000
55303703,1000,1000,1000,1000,109428711,1000,1000,1000,1000
55306202,1000,1000,1000,1000,109528671,1000,1000,1000,1000
55308701,1000,1000,1000,1000,109628631,1000,1000,1000,1000
55311200,1000,1000,1000,1000,109728591,1000,1000,1000,1000
55313699,1000,1000,1000,1000,109828551,1000,1000,1000,1000
55316198,1000,1000,1000,1000,109928511,1000,1000,1000,1000
55318697,1000,1000,1000,1000,110028471,1000,1000,1000,1000
55321196,1000,1000,1000,1000,110128431,1000,1000,1000,1000
55323695,1000,1000,1000,1000,110228391,1000,1000,1000,1000
55326194,1000,1000,1000,1000,110328351,1000,1000,1000,1000
55328693,1000,1000,1000,1000,110428311,1000,1000,1000,1000
55331192,1000,1000,1000,1000,110528271,1000,1000,1000,1000
55333691,1000,1000,1000,1000,110628231,1000,1000,1000,1000
55336190,1000,1000,1000,1000,110728191,1000,1000,1000,1000
55338689,1000,1000,1000,1000,110828984,1000,1000,1000,1000
55341188,1000,1000,1000,1000,110928944,1000,1000,1000,1000
55343687,1000,1000,1000,1000,111028904,1000,1000,1000,1000
55346186,1000,1000,1000,1000,111128864,1000,1000,1000,1000
55348685,1000,1000,1000,1000,111228824,1000,1000,1000,1000
55351184,1000,1000,1000,1000,111328784,1000,1000,1000,1000
55353683,1000,1000,1000,1000,111428744,1000,1000,1000,1000
55356182,1000,1000,1000,1000,111528704,1000,1000,1000,1000
55358681,1000,1000,1000,1000,111628664,1000,1000,1000,1000
55361180,1000,1000,1000,1000,111728624,1000,1000,1000,1000
55363679,1000,1000,1000,1000,111828584,1000,1000,1000,1000
55366178,1000,1000,1000,1000,111928544,1000,1000,1000,1000
55368677,1000,1000,1000,1000,112028504,1000,1000,1000,1000
55371176,1000,1000,1000,1000,112128464,1000,1000,1000,1000
55373675,1000,1000,1000,1000,112228424,1000,1000,1000,1000
55376174,1000,1000,1000,1000,112328384,1000,1000,1000,1000
55378673,1000,1000,1000,1000,112428344,1000,1000,1000,1000
55381172,1000,1000,1000,1000,112528304,1000,1000,1000,1000
55383671,1000,1000,1000,1000,112628264,1000,1000,1000,1000
55386170,1000,1000,1000,1000,112728224,1000,1000,1000,1000
55388669,1000,1000,1000,1000,112828184,1000,1000,1000,1000
55391168,1000,1000,1000,1000,112928977,1000,1000,1000,1000
55393667,1000,1000,1000,1000,113028937,1000,1000,1000,1000
55396166,1000,1000,1000,1000,113128897,1000,1000,1000,1000
55398665,1000,1000,1000,1000,113228857,1000,1000,1000,1000
55401164,1000,1000,1000,1000,113328817,1000,1000,1000,1000
55403663,1000,1000,1000,1000,113428777,1000,1000,1000,1000
55406162,1000,1000,1000,1000,113528737,1000,1000,1000,1000
55408661,1000,1000,1000,1000,113628697,1000,1000,1000,1000
55411160,1000,1000,1000,1000,113728657,1000,1000,1000,1000
55413659,1000,1000,1000,1000,113828617,1000,1000,1000,1000
55416158,1000,1000,1000,1000,113928577,1000,1000,1000,1000
55418657,1000,1000,1000,1000,114028537,1000,1000,1000,1000
55421156,1000,1000,1000,1000,114128497,1000,1000,1000,1000
55423655,1000,1000,1000,1000,114228457,1000,1000,1000,1000
55426154,1000,1000,1000,1000,114328417,1000,1000,1000,1000
55428653,1000,1000,1000,1000,114428377,1000,1000,1000,1000
55431152,1000,1000,1000,1000,114528337,1000,1000,1000,1000
55433651,1000,1000,1000,1000,114628297,1000,1000,1000,1000
55436150,1000,1000,1000,1000,114728257,1000,1000,1000,1000
55438649,1000,1000,1000,1000,114828217,1000,1000,1000,1000
55441148,1000,1000,1000,1000,114928177,1000,1000,1000,1000
55443647,1000,1000,1000,1000,115028970,1000,1000,1000,1000
55446146,1000,1000,1000,1000,115128930,1000,1000,1000,1000
55448645,1000,1000,1000,1000,115228890,1000,1000,1000,1000
55451144,1000,1000,1000,1000,115328850,1000,1000,1000,1000
55453643,1000,1000,1000,1000,115428810,1000,1000,1000,1000
55456142,1000,1000,1000,1000,115528770,1000,1000,1000,1000
55458641,1000,1000,1000,1000,115628730,1000,1000,1000,1000
55461140,1000,1000,1000,1000,115728690,1000,1000,1000,1000
55463639,1000,1000,1000,1000,115828650,1000,1000,1000,1000
55466138,1000,1000,1000,1000,115928610,1000,1000,1000,1000
55468637,1000,1000,1000,1000,116028570,1000,1000,1000,1000
55471136,1000,1000,1000,1000,116128530,1000,1000,1000,1000
55473635,1000,1000,1000,1000,116228490,1000,1000,1000,1000
55476134,1000,1000,1000,1000,116328450,1000,1000,1000,1000
55478633,1000,1000,1000,1000,116428410,1000,1000,1000,1000
55481132,1000,1000,1000,1000,116528370,1000,1000,1000,1000
55483631,1000,1000,1000,1000,116628330,1000,1000,1000,1000
55486130,1000,1000,1000,1000,116728290,1000,1000,1000,1000
55488629,1000,1000,1000,1000,116828250,1000,1000,1000,1000
55491128,1000,1000,1000,1000,116928210,1000,1000,1000,1000
55493627,1000,1000,1000,1000,117028170,1000,1000,1000,1000
55496126,1000,1000,1000,1000,117128963,1000,1000,1000,1000
55498625,1000,1000,1000,1000,117228923,1000,1000,1000,1000
55501124,1000,1000,1000,1000,117328883,1000,1000,1000,1000
55503623,1000,1000,1000,1000,117428843,1000,1000,1000,1000
55506122,1000,1000,1000,1000,117528803,1000,1000,1000,1000
55508621,1000,1000,1000,1000,117628763,1000,1000,1000,1000
55511120,1000,1000,1000,1000,117728723,1000,1000,1000,1000
55513619,1000,1000,1000,1000,117828683,1000,1000,1000,1000
55516118,1000,1000,1000,1000,117928643,1000,1000,1000,1000
55518617,1000,1000,1000,1000,118028603,1000,1000,1000,1000
55521116,1000,1000,1000,1000,118128563,1000,1000,1000,1000
55523615,1000,1000,1000,1000,118228523,1000,1000,1000,1000
55526114,1000,1000,1000,1000,118328483,1000,1000,1000,1000
55528613,1000,1000,1000,1000,118428443,1000,1000,1000,1000
55531112,1000,1000,1000,1000,118528403,1000,1000,1000,1000
55533611,1000,1000,1000,1000,118628363,1000,1000,1000,1000
55536110,1000,1000,1000,1000,118728323,1000,1000,1000,1000
55538609,1000,1000,1000,1000,118828283,1000,1000,1000,1000
55541108,1000,1000,1000,1000,118928243,1000,1000,1000,1000
55543607,1000,1000,1000,1000,119028203,1000,1000,1000,1000
55546106,1000,1000,1000,1000,119128163,1000,1000,1000,1000
55548605,1000,1000,1000,1000,119228956,1000,1000,1000,1000
55551104,1000,1000,1000,1000,119328916,1000,1000,1000,1000
55553603,1000,1000,1000,1000,119428876,1000,1000,1000,1000
55556102,1000,1000,1000,1000,119528836,1000,1000,1000,1000
55558601,1000,1000,1000,1000,119628796,1000,1000,1000,1000
55561100,1000,1000,1000,1000,119728756,1000,1000,1000,1000
55563599,1000,1000,1000,1000,119828716,1000,1000,1000,1000
55566098,1000,1000,1000,1000,119928676,1000,1000,1000,1000
55568597,1000,1000,1000,1000,120028636,1000,1000,1000,1000
55571096,1000,1000,1000,1000,120128596,1000,1000,1000,1000
55573595,1000,1000,1000,1000,120228556,1000,1000,1000,1000
55576094,1000,1000,1000,1000,120328516,1000,1000,1000,1000
55578593,1000,1000,1000,1000,120428476,1000,1000,1000,1000
55581092,1000,1000,1000,1000,120528436,1000,1000,1000,1000
55583591,1000,1000,1000,1000,120628396,1000,1000,1000,1000
55586090,1000,1000,1000,1000,120728356,1000,1000,1000,1000
55588589,1000,1000,1000,1000,120828316,1000,1000,1000,1000
55591088,1000,1000,1000,1000,120928276,1000,1000,1000,1000
55593587,1000,1000,1000,1000,121028236,1000,1000,1000,1000
55596086,1000,1000,1000,1000,121128196,1000,1000,1000,1000
55598585,1000,1000,1000,1000,121228156,1000,1000,1000,1000
55601084,1000,1000,1000,1000,121328949,1000,1000,1000,1000
55603583,1000,1000,1000,1000,121428909,1000,1000,1000,1000
55606082,1000,1000,1000,1000,121528869,1000,1000,1000,1000
55608581,1000,1000,1000,1000,121628829,1000,1000,1000,1000
55611080,1000,1000,1000,1000,121728789,1000,1000,1000,1000
55613579,1000,1000,1000,1000,121828749,1000,1000,1000,1000
55616078,1000,1000,1000,1000,121928709,1000,1000,1000,1000
55618577,1000,1000,1000,1000,122028669,1000,1000,1000,1000
55621076,1000,1000,1000,1000,,,,,
55623575,1000,1000,1000,1000,,,,,
55626074,1000,1000,1000,1000,,,,,
55628573,1000,1000,1000,1000,,,,,
55631072,1000,1000,1000,1000,,,,,
55633571,1000,1000,1000,1000,,,,,
55636070,1000,1000,1000,1000,,,,,
55638569,1000,1000,1000,1000,,,,,
55641068,1000,1000,1000,1000,,,,,
55643567,1000,1000,1000,1000,,,,,
55646066,1000,1000,1000,1000,,,,,
55648565,1000,1000,1000,1000,,,,,
55651064,1000,1000,1000,1000,,,,,
55653563,1000,1000,1000,1000,,,,,
55656062,1000,1000,1000,1000,,,,,
55658561,1000,1000,1000,1000,,,,,
55661060,1000,1000,1000,1000,,,,,
55663559,1000,1000,1000,1000,,,,,
55666058,1000,1000,1000,1000,,,,,
55668557,1000,1000,1000,1000,,,,,
55671056,1000,1000,1000,1000,,,,,
55673555,1000,1000,1000,1000,,,,,
55676054,1000,1000,1000,1000,,,,,
55678553,1000,1000,1000,1000,,,,,
55681052,1000,1000,1000,1000,,,,,
55683551,1000,1000,1000,1000,,,,,
55686050,1000,1000,1000,1000,,,,,
55688549,1000,1000,1000,1000,,,,,
55691048,1000,1000,1000,1000,,,,,
55693547,1000,1000,1000,1000,,,,,
55696046,1000,1000,1000,1000,,,,,
55698545,1000,1000,1000,1000,,,,,
55701044,1000,1000,1000,1000,,,,,
55703543,1000,1000,1000,1000,,,,,
55706042,1000,1000,1000,1000,,,,,
55708541,1000,1000,1000,1000,,,,,
55711040,1000,1000,1000,1000,,,,,
55713539,1000,1000,1000,1000,,,,,
55716038,1000,1000,1000,1000,,,,,
55718537,1000,1000,1000,1000,,,,,
55721036,1000,1000,1000,1000,,,,,
55723535,1000,1000,1000,1000,,,,,
55726034,1000,1000,1000,1000,,,,,
55728533,1000,1000,1000,1000,,,,,
55731032,1000,1000,1000,1000,,,,,
55733531,1000,1000,1000,1000,,,,,
55736030,1000,1000,1000,1000,,,,,
55738529,1000,1000,1000,1000,,,,,
55741028,1000,1000,1000,1000,,,,,
55743527,1000,1000,1000,1000,,,,,
55746026,1000,1000,1000,1000,,,,,
55748525,1000,1000,1000,1000,,,,,
55751024,1000,1000,1000,1000,,,,,
55753523,1000,1000,1000,1000,,,,,
55756022,1000,1000,1000,1000,,,,,
55758521,1000,1000,1000,1000,,,,,
55761020,1000,1000,1000,1000,,,,,
55763519,1000,1000,1000,1000,,,,,
55766018,1000,1000,1000,1000,,,,,
55768517,1000,1000,1000,1000,,,,,
55771016,1000,1000,1000,1000,,,,,
55773515,1000,1000,1000,1000,,,,,
55776014,1000,1000,1000,1000,,,,,
55778513,1000,1000,1000,1000,,,,,
55781012,1000,1000,1000,1000,,,,,
55783511,1000,1000,1000,1000,,,,,
55786010,1000,1000,1000,1000,,,,,
55788509,1000,1000,1000,1000,,,,,
55791008,1000,1000,1000,1000,,,,,
55793507,1000,1000,1000,1000,,,,,
55796006,1000,1000,1000,1000,,,,,
55798505,1000,1000,1000,1000,,,,,
55801004,1000,1000,1000,1000,,,,,
55803503,1000,1000,1000,1000,,,,,
55806002,1000,1000,1000,1000,,,,,
55808501,1000,1000,1000,1000,,,,,
55811000,1000,1000,1000,1000,,,,,
55813499,1000,1000,1000,1000,,,,,
55815998,1000,1000,1000,1000,,,,,
55818497,1000,1000,1000,1000,,,,,
55820996,1000,1000,1000,1000,,,,,
55823495,1000,1000,1000,1000,,,,,
55825994,1000,1000,1000,1000,,,,,
55828493,1000,1000,1000,1000,,,,,
55830992,1000,1000,1000,1000,,,,,
55833491,1000,1000,1000,1000,,,,,
55835990,1000,1000,1000,1000,,,,,
55838489,1000,1000,1000,1000,,,,,
55840988,1000,1000,1000,1000,,,,,
55843487,1000,1000,1000,1000,,,,,
55845986,1000,1000,1000,1000,,,,,
55848485,1000,1000,1000,1000,,,,,
55850984,1000,1000,1000,1000,,,,,
55853483,1000,1000,1000,1000,,,,,
55855982,1000,1000,1000,1000,,,,,
55858481,1000,1000,1000,1000,,,,,
55860980,1000,1000,1000,1000,,,,,
55863479,1000,1000,1000,1000,,,,,
55865978,1000,1000,1000,1000,,,,,
55868477,1000,1000,1000,1000,,,,,
55870976,1000,1000,1000,1000,,,,,
55873475,1000,1000,1000,1000,,,,,
55875974,1000,1000,1000,1000,,,,,
55878473,1000,1000,1000,1000,,,,,
55880972,1000,1000,1000,1000,,,,,
55883471,1000,1000,1000,1000,,,,,
55885970,1000,1000,1000,1000,,,,,
55888469,1000,1000,1000,1000,,,,,
55890968,1000,1000,1000,1000,,,,,
55893467,1000,1000,1000,1000,,,,,
55895966,1000,1000,1000,1000,,,,,
55898465,1000,1000,1000,1000,,,,,
55900964,1000,1000,1000,1000,,,,,
55903463,1000,1000,1000,1000,,,,,
55905962,1000,1000,1000,1000,,,,,
55908461,1000,1000,1000,1000,,,,,
55910960,1000,1000,1000,1000,,,,,
55913459,1000,1000,1000,1000,,,,,
55915958,1000,1000,1000,1000,,,,,
55918457,1000,1000,1000,1000,,,,,
55920956,1000,1000,1000,1000,,,,,
55923455,1001,1001,1001,1001,,,,,
55925954,1002,1002,1002,1002,,,,,
55928453,1003,1003,1003,1003,,,,,
55930952,1003,1003,1003,1003,,,,,
55933451,1004,1004,1004,1004,,,,,
55935950,1005,1005,1005,1005,,,,,
55938449,1006,1006,1006,1006,,,,,
55940948,1006,1006,1006,1006,,,,,
55943447,1007,1007,1007,1007,,,,,
55945946,1008,1008,1008,1008,,,,,
55948445,1009,1009,1009,1009,,,,,
55950944,1009,1009,1009,1009,,,,,
55953443,1010,1010,1010,1010,,,,,
55955942,1011,1011,1011,1011,,,,,
55958441,1012,1012,1012,1012,,,,,
55960940,1012,1012,1012,1012,,,,,
55963439,1013,1013,1013,1013,,,,,
55965938,1014,1014,1014,1014,,,,,
55968437,1015,1015,1015,1015,,,,,
55970936,1015,1015,1015,1015,,,,,
55973435,1016,1016,1016,1016,,,,,
55975934,1017,1017,1017,1017,,,,,
55978433,1018,1018,1018,1018,,,,,
55980932,1018,1018,1018,1018,,,,,
55983431,1019,1019,1019,1019,,,,,
55985930,1020,1020,1020,1020,,,,,
55988429,1021,1021,1021,1021,,,,,
55990928,1021,1021,1021,1021,,,,,
55993427,1022,1022,1022,1022,,,,,
55995926,1023,1023,1023,1023,,,,,
55998425,1024,1024,1024,1024,,,,,
56000924,1024,1024,1024,1024,,,,,
56003423,1025,1025,1025,1025,,,,,
56005922,1026,1026,1026,1026,,,,,
56008421,1027,1027,1027,1027,,,,,
56010920,1027,1027,1027,1027,,,,,
56013419,1028,1028,1028,1028,,,,,
56015918,1029,1029,1029,1029,,,,,
56018417,1030,1030,1030,1030,,,,,
56020916,1030,1030,1030,1030,,,,,
56023415,1031,1031,1031,1031,,,,,
56025914,1032,1032,1032,1032,,,,,
56028413,1033,1033,1033,1033,,,,,
56030912,1033,1033,1033,1033,,,,,
56033411,1034,1034,1034,1034,,,,,
56035910,1035,1035,1035,1035,,,,,
56038409,1036,1036,1036,1036,,,,,
56040908,1036,1036,1036,1036,,,,,
56043407,1037,1037,1037,1037,,,,,
56045906,1038,1038,1038,1038,,,,,
56048405,1039,1039,1039,1039,,,,,
56050904,1039,1039,1039,1039,,,,,
56053403,1040,1040,1040,1040,,,,,
56055902,1041,1041,1041,1041,,,,,
56058401,1042,1042,1042,1042,,,,,
56060900,1042,1042,1042,1042,,,,,
56063399,1043,1043,1043,1043,,,,,
56065898,1044,1044,1044,1044,,,,,
56068397,1045,1045,1045,1045,,,,,
56070896,1045,1045,1045,1045,,,,,
56073395,1046,1046,1046,1046,,,,,
56075894,1047,1047,1047,1047,,,,,
56078393,1048,1048,1048,1048,,,,,
56080892,1048,1048,1048,1048,,,,,
56083391,1049,1049,1049,1049,,,,,
56085890,1050,1050,1050,1050,,,,,
56088389,1051,1051,1051,1051,,,,,
56090888,1051,1051,1051,1051,,,,,
56093387,1052,1052,1052,1052,,,,,
56095886,1053,1053,1053,1053,,,,,
56098385,1054,1054,1054,1054,,,,,
56100884,1054,1054,1054,1054,,,,,
56103383,1055,1055,1055,1055,,,,,
56105882,1056,1056,1056,1056,,,,,
56108381,1057,1057,1057,1057,,,,,
56110880,1057,1057,1057,1057,,,,,
56113379,1058,1058,1058,1058,,,,,
56115878,1059,1059,1059,1059,,,,,
56118377,1060,1060,1060,1060,,,,,
56120876,1060,1060,1060,1060,,,,,
56123375,1061,1061,1061,1061,,,,,
56125874,1062,1062,1062,1062,,,,,
56128373,1063,1063,1063,1063,,,,,
56130872,1063,1063,1063,1063,,,,,
56133371,1064,1064,1064,1064,,,,,
56135870,1065,1065,1065,1065,,,,,
56138369,1066,1066,1066,1066,,,,,
56140868,1066,1066,1066,1066,,,,,
56143367,1067,1067,1067,1067,,,,,
56145866,1068,1068,1068,1068,,,,,
56148365,1069,1069,1069,1069,,,,,
56150864,1069,1069,1069,1069,,,,,
56153363,1070,1070,1070,1070,,,,,
56155862,1071,1071,1071,1071,,,,,
56158361,1072,1072,1072,1072,,,,,
56160860,1072,1072,1072,1072,,,,,
56163359,1073,1073,1073,1073,,,,,
56165858,1074,1074,1074,1074,,,,,
56168357,1075,1075,1075,1075,,,,,
56170856,1075,1075,1075,1075,,,,,
56173355,1076,1076,1076,1076,,,,,
56175854,1077,1077,1077,1077,,,,,
56178353,1078,1078,1078,1078,,,,,
56180852,1078,1078,1078,1078,,,,,
56183351,1079,1079,1079,1079,,,,,
56185850,1080,1080,1080,1080,,,,,
56188349,1081,1081,1081,1081,,,,,
56190848,1081,1081,1081,1081,,,,,
56193347,1082,1082,1082,1082,,,,,
56195846,1083,1083,1083,1083,,,,,
56198345,1084,1084,1084,1084,,,,,
56200844,1084,1084,1084,1084,,,,,
56203343,1085,1085,1085,1085,,,,,
56205842,1086,1086,1086,1086,,,,,
56208341,1087,1087,1087,1087,,,,,
56210840,1087,1087,1087,1087,,,,,
56213339,1088,1088,1088,1088,,,,,
56215838,1089,1089,1089,1089,,,,,
56218337,1090,1090,1090,1090,,,,,
56220836,1090,1090,1090,1090,,,,,
56223335,1091,1091,1091,1091,,,,,
56225834,1092,1092,1092,1092,,,,,
56228333,1093,1093,1093,1093,,,,,
56230832,1093,1093,1093,1093,,,,,
56233331,1094,1094,1094,1094,,,,,
56235830,1095,1095,1095,1095,,,,,
56238329,1096,1096,1096,1096,,,,,
56240828,1096,1096,1096,1096,,,,,
56243327,1097,1097,1097,1097,,,,,
56245826,1098,1098,1098,1098,,,,,
56248325,1099,1099,1099,1099,,,,,
56250824,1099,1099,1099,1099,,,,,
56253323,1100,1100,1100,1100,,,,,
56255822,1101,1101,1101,1101,,,,,
56258321,1101,1101,1101,1101,,,,,
56260820,1102,1102,1102,1102,,,,,
56263319,1103,1103,1103,1103,,,,,
56265818,1104,1104,1104,1104,,,,,
56268317,1104,1104,1104,1104,,,,,
56270816,1105,1105,1105,1105,,,,,
56273315,1106,1106,1106,1106,,,,,
56275814,1107,1107,1107,1107,,,,,
56278313,1107,1107,1107,1107,,,,,
56280812,1108,1108,1108,1108,,,,,
56283311,1109,1109,1109,1109,,,,,
56285810,1110,1110,1110,1110,,,,,
56288309,1110,1110,1110,1110,,,,,
56290808,1111,1111,1111,1111,,,,,
56293307,1112,1112,1112,1112,,,,,
56295806,1113,1113,1113,1113,,,,,
56298305,1113,1113,1113,1113,,,,,
56300804,1114,1114,1114,1114,,,,,
56303303,1115,1115,1115,1115,,,,,
56305802,1116,1116,1116,1116,,,,,
56308301,1116,1116,1116,1116,,,,,
56310800,1117,1117,1117,1117,,,,,
56313299,1118,1118,1118,1118,,,,,
56315798,1119,1119,1119,1119,,,,,
56318297,1119,1119,1119,1119,,,,,
56320796,1120,1120,1120,1120,,,,,
56323295,1121,1121,1121,1121,,,,,
56325794,1122,1122,1122,1122,,,,,
56328293,1122,1122,1122,1122,,,,,
56330792,1123,1123,1123,1123,,,,,
56333291,1124,1124,1124,1124,,,,,
56335790,1125,1125,1125,1125,,,,,
56338289,1125,1125,1125,1125,,,,,
56340788,1126,1126,1126,1126,,,,,
56343287,1127,1127,1127,1127,,,,,
56345786,1128,1128,1128,1128,,,,,
56348285,1128,1128,1128,1128,,,,,
56350784,1129,1129,1129,1129,,,,,
56353283,1130,1130,1130,1130,,,,,
56355782,1131,1131,1131,1131,,,,,
56358281,1131,1131,1131,1131,,,,,
56360780,1132,1132,1132,1132,,,,,
56363279,1133,1133,1133,1133,,,,,
56365778,1134,1134,1134,1134,,,,,
56368277,1134,1134,1134,1134,,,,,
56370776,1135,1135,1135,1135,,,,,
56373275,1136,1136,1136,1136,,,,,
56375774,1137,1137,1137,1137,,,,,
56378273,1137,1137,1137,1137,,,,,
56380772,1138,1138,1138,1138,,,,,
56383271,1139,1139,1139,1139,,,,,
56385770,1140,1140,1140,1140,,,,,
56388269,1140,1140,1140,1140,,,,,
56390768,1141,1141,1141,1141,,,,,
56393267,1142,1142,1142,1142,,,,,
56395766,1143,1143,1143,1143,,,,,
56398265,1143,1143,1143,1143,,,,,
56400764,1144,1144,1144,1144,,,,,
56403263,1145,1145,1145,1145,,,,,
56405762,1146,1146,1146,1146,,,,,
56408261,1146,1146,1146,1146,,,,,
56410760,1147,1147,1147,1147,,,,,
56413259,1148,1148,1148,1148,,,,,
56415758,1149,1149,1149,1149,,,,,
56418257,1149,1149,1149,1149,,,,,
56420756,1150,1150,1150,1150,,,,,
56423255,1162,1153,1154,1162,,,,,
56425754,1170,1161,1162,1170,,,,,
56428253,1178,1169,1170,1178,,,,,
56430752,1185,1177,1178,1186,,,,,
56433251,1193,1185,1185,1193,,,,,
56435750,1200,1192,1193,1201,,,,,
56438249,1208,1200,1200,1208,,,,,
56440748,1215,1207,1208,1215,,,,,
56443247,1222,1214,1215,1222,,,,,
56445746,1229,1221,1222,1229,,,,,
56448245,1236,1228,1229,1236,,,,,
56450744,1243,1235,1236,1243,,,,,
56453243,1249,1242,1242,1250,,,,,
56455742,1256,1248,1249,1256,,,,,
56458241,1262,1255,1256,1263,,,,,
56460740,1269,1262,1262,1269,,,,,
56463239,1275,1268,1269,1276,,,,,
56465738,1282,1274,1275,1282,,,,,
56468237,1288,1281,1281,1288,,,,,
56470736,1294,1287,1287,1294,,,,,
56473235,1300,1293,1293,1300,,,,,
56475734,1306,1299,1300,1306,,,,,
56478233,1312,1305,1306,1312,,,,,
56480732,1318,1311,1311,1318,,,,,
56483231,1324,1317,1317,1324,,,,,
56485730,1329,1323,1323,1330,,,,,
56488229,1335,1328,1329,1335,,,,,
56490728,1341,1334,1335,1341,,,,,
56493227,1346,1340,1340,1347,,,,,
56495726,1352,1345,1346,1352,,,,,
56498225,1357,1351,1351,1358,,,,,
56500724,1363,1356,1357,1363,,,,,
56503223,1368,1362,1362,1369,,,,,
56505722,1374,1367,1368,1374,,,,,
56508221,1379,1372,1373,1379,,,,,
56510720,1384,1378,1378,1385,,,,,
56513219,1389,1383,1383,1390,,,,,
56515718,1395,1388,1389,1395,,,,,
56518217,1400,1393,1394,1400,,,,,
56520716,1405,1398,1399,1405,,,,,
56523215,1410,1404,1404,1410,,,,,
56525714,1415,1409,1409,1415,,,,,
56528213,1420,1414,1414,1420,,,,,
56530712,1425,1419,1419,1425,,,,,
56533211,1430,1424,1424,1430,,,,,
56535710,1435,1428,1429,1435,,,,,
56538209,1439,1433,1434,1440,,,,,
56540708,1444,1438,1438,1445,,,,,
56543207,1449,1443,1443,1449,,,,,
56545706,1454,1448,1448,1454,,,,,
56548205,1458,1452,1453,1459,,,,,
56550704,1463,1457,1457,1463,,,,,
56553203,1468,1462,1462,1468,,,,,
56555702,1472,1467,1467,1473,,,,,
56558201,1477,1471,1471,1477,,,,,
56560700,1481,1476,1476,1482,,,,,
56563199,1486,1480,1481,1486,,,,,
56565698,1490,1485,1485,1491,,,,,
56568197,1495,1489,1490,1495,,,,,
56570696,1499,1494,1494,1500,,,,,
56573195,1504,1498,1498,1504,,,,,
56575694,1508,1503,1503,1509,,,,,
56578193,1512,1507,1507,1513,,,,,
56580692,1517,1511,1512,1517,,,,,
56583191,1521,1516,1516,1522,,,,,
56585690,1525,1520,1520,1526,,,,,
56588189,1530,1524,1525,1530,,,,,
56590688,1534,1529,1529,1534,,,,,
56593187,1538,1533,1533,1539,,,,,
56595686,1542,1537,1537,1543,,,,,
56598185,1547,1541,1541,1547,,,,,
56600684,1551,1545,1546,1551,,,,,
56603183,1555,1550,1550,1555,,,,,
56605682,1559,1554,1554,1559,,,,,
56608181,1563,1558,1558,1564,,,,,
56610680,1567,1562,1562,1568,,,,,
56613179,1571,1566,1566,1572,,,,,
56615678,1575,1570,1570,1576,,,,,
56618177,1579,1574,1574,1580,,,,,
56620676,1583,1578,1578,1584,,,,,
56623175,1587,1582,1582,1588,,,,,
56625674,1591,1586,1586,1592,,,,,
56628173,1595,1590,1590,1596,,,,,
56630672,1599,1594,1594,1599,,,,,
56633171,1603,1598,1598,1603,,,,,
56635670,1607,1602,1602,1607,,,,,
56638169,1611,1606,1606,1611,,,,,
56640668,1615,1609,1610,1615,,,,,
56643167,1618,1613,1614,1619,,,,,
56645666,1622,1617,1617,1623,,,,,
56648165,1626,1621,1621,1626,,,,,
56650664,1630,1625,1625,1630,,,,,
56653163,1634,1628,1629,1634,,,,,
56655662,1637,1632,1633,1638,,,,,
56658161,1641,1636,1636,1641,,,,,
56660660,1645,1640,1640,1645,,,,,
56663159,1649,1643,1644,1649,,,,,
56665658,1652,1647,1647,1653,,,,,
56668157,1656,1651,1651,1656,,,,,
56670656,1660,1654,1655,1660,,,,,
56673155,1663,1658,1658,1664,,,,,
56675654,1667,1662,1662,1667,,,,,
56678986,1670,1665,1666,1671,,,,,
56681485,1674,1669,1669,1674,,,,,
56683984,1678,1673,1673,1678,,,,,
56686483,1681,1676,1676,1682,,,,,
56688982,1685,1680,1680,1685,,,,,
56691481,1688,1683,1683,1689,,,,,
56693980,1692,1687,1687,1692,,,,,
56696479,1695,1690,1691,1696,,,,,
56698978,1699,1694,1694,1699,,,,,
56701477,1702,1697,1698,1703,,,,,
56703976,1706,1701,1701,1706,,,,,
56706475,1709,1704,1705,1710,,,,,
56708974,1713,1708,1708,1713,,,,,
56711473,1716,1711,1711,1717,,,,,
56713972,1720,1715,1715,1720,,,,,
56716471,1723,1718,1718,1724,,,,,
56718970,1726,1722,1722,1727,,,,,
56721469,1730,1725,1725,1730,,,,,
56723968,1733,1728,1729,1734,,,,,
56726467,1737,1732,1732,1737,,,,,
56728966,1740,1735,1735,1740,,,,,
56731465,1743,1738,1739,1744,,,,,
56733964,1747,1742,1742,1747,,,,,
56736463,1750,1745,1745,1750,,,,,
56738962,1753,1748,1749,1754,,,,,
56741461,1757,1752,1752,1757,,,,,
56743960,1760,1755,1755,1760,,,,,
56746459,1763,1758,1759,1764,,,,,
56748958,1767,1762,1762,1767,,,,,
56751457,1770,1765,1765,1770,,,,,
56753956,1773,1768,1768,1773,,,,,
56756455,1776,1771,1772,1777,,,,,
56758954,1780,1774,1775,1780,,,,,
56761453,1783,1778,1778,1783,,,,,
56763952,1786,1781,1781,1786,,,,,
56766451,1789,1784,1785,1789,,,,,
56768950,1793,1787,1788,1793,,,,,
56771449,1796,1790,1791,1796,,,,,
56773948,1799,1794,1794,1799,,,,,
56776447,1802,1797,1797,1802,,,,,
56778946,1805,1800,1800,1805,,,,,
56781445,1808,1803,1804,1809,,,,,
56783944,1812,1806,1807,1812,,,,,
56786443,1815,1809,1810,1815,,,,,
56788942,1818,1812,1813,1818,,,,,
56791441,1821,1816,1816,1821,,,,,
56793940,1824,1819,1819,1824,,,,,
56796439,1827,1822,1822,1827,,,,,
56798938,1830,1825,1825,1830,,,,,
56801437,1833,1828,1828,1833,,,,,
56803936,1836,1831,1832,1836,,,,,
56806435,1839,1834,1835,1839,,,,,
56808934,1842,1837,1838,1842,,,,,
56811433,1845,1840,1841,1846,,,,,
56813932,1848,1843,1844,1849,,,,,
56816431,1851,1846,1847,1852,,,,,
56818930,1854,1849,1850,1855,,,,,
56821429,1857,1852,1853,1858,,,,,
56823928,1860,1855,1856,1861,,,,,
56826427,1863,1858,1859,1864,,,,,
56828926,1866,1861,1862,1867,,,,,
56831425,1869,1864,1865,1870,,,,,
56833924,1872,1867,1868,1872,,,,,
56836423,1875,1870,1871,1875,,,,,
56838922,1878,1873,1874,1878,,,,,
56841421,1881,1876,1877,1881,,,,,
56843920,1884,1879,1879,1884,,,,,
56846419,1887,1882,1882,1887,,,,,
56848918,1890,1885,1885,1890,,,,,
56851417,1893,1888,1888,1893,,,,,
56853916,1896,1891,1891,1896,,,,,
56856415,1899,1894,1894,1899,,,,,
56858914,1902,1897,1897,1902,,,,,
56861413,1904,1899,1900,1905,,,,,
56863912,1907,1902,1903,1907,,,,,
56866411,1910,1905,1906,1910,,,,,
56868910,1913,1908,1909,1913,,,,,
56871409,1916,1911,1911,1916,,,,,
56873908,1919,1914,1914,1919,,,,,
56876407,1922,1917,1917,1922,,,,,
56878906,1924,1919,1920,1924,,,,,
56881405,1927,1922,1923,1927,,,,,
56883904,1930,1925,1926,1930,,,,,
56886403,1933,1928,1928,1933,,,,,
56888902,1936,1931,1931,1936,,,,,
56891401,1939,1933,1934,1938,,,,,
56893900,1940,1935,1936,1940,,,,,
56896399,1940,1935,1935,1940,,,,,
56898898,1939,1934,1935,1939,,,,,
56901397,1939,1934,1934,1939,,,,,
56903896,1938,1933,1934,1938,,,,,
56906395,1938,1933,1933,1938,,,,,
56908894,1937,1932,1933,1937,,,,,
56911393,1937,1932,1932,1937,,,,,
56913892,1936,1932,1932,1936,,,,,
56916391,1936,1931,1932,1936,,,,,
56918890,1935,1931,1931,1935,,,,,
56921389,1934,1930,1931,1935,,,,,
56923888,1934,1930,1930,1934,,,,,
56926387,1933,1929,1929,1933,,,,,
56928886,1932,1928,1929,1932,,,,,
56931385,1931,1927,1928,1931,,,,,
56933884,1930,1926,1927,1930,,,,,
56936383,1929,1925,1926,1929,,,,,
56938882,1927,1924,1924,1927,,,,,
56941381,1926,1923,1923,1926,,,,,
56943880,1924,1921,1921,1924,,,,,
56946379,1922,1919,1920,1923,,,,,
56948878,1920,1918,1918,1921,,,,,
56951377,1918,1916,1916,1919,,,,,
56953876,1916,1913,1914,1917,,,,,
56956375,1914,1911,1912,1914,,,,,
56958874,1912,1909,1909,1912,,,,,
56961373,1909,1907,1907,1910,,,,,
56963872,1907,1904,1904,1907,,,,,
56966371,1904,1902,1902,1904,,,,,
56968870,1902,1899,1899,1902,,,,,
56971369,1899,1896,1896,1899,,,,,
56973868,1896,1893,1894,1896,,,,,
56976367,1893,1890,1891,1893,,,,,
56978866,1890,1887,1888,1890,,,,,
56981365,1887,1884,1885,1887,,,,,
56983864,1884,1881,1882,1884,,,,,
56986363,1881,1878,1878,1881,,,,,
56988862,1877,1875,1875,1878,,,,,
56991361,1874,1872,1872,1874,,,,,
56993860,1871,1869,1869,1871,,,,,
56996359,1867,1865,1866,1868,,,,,
56998858,1864,1862,1862,1864,,,,,
57001357,1861,1859,1859,1861,,,,,
57003856,1857,1855,1855,1857,,,,,
57006355,1854,1852,1852,1854,,,,,
57008854,1850,1848,1849,1851,,,,,
57011353,1847,1845,1845,1847,,,,,
57013852,1843,1841,1842,1844,,,,,
57016351,1840,1838,1838,1840,,,,,
57018850,1836,1835,1835,1837,,,,,
57021349,1833,1831,1831,1833,,,,,
57023848,1829,1828,1828,1830,,,,,
57026347,1826,1824,1825,1826,,,,,
57028846,1822,1821,1821,1823,,,,,
57031345,1819,1817,1818,1819,,,,,
57033844,1815,1814,1814,1816,,,,,
57036343,1812,1810,1811,1812,,,,,
57038842,1808,1807,1808,1809,,,,,
57041341,1805,1804,1804,1805,,,,,
57043840,1801,1800,1801,1802,,,,,
57046339,1798,1797,1797,1798,,,,,
57048838,1794,1793,1794,1795,,,,,
57051337,1791,1790,1790,1791,,,,,
57053836,1787,1787,1787,1788,,,,,
57056335,1784,1783,1784,1784,,,,,
57058834,1781,1780,1780,1781,,,,,
57061333,1777,1776,1777,1777,,,,,
57063832,1774,1773,1774,1774,,,,,
57066331,1771,1770,1770,1771,,,,,
57068830,1767,1767,1767,1767,,,,,
57071329,1764,1764,1764,1764,,,,,
57073828,1761,1760,1761,1761,,,,,
57076327,1758,1757,1758,1758,,,,,
57078826,1755,1754,1755,1755,,,,,
57081325,1751,1751,1751,1752,,,,,
57083824,1748,1748,1748,1749,,,,,
57086323,1745,1745,1745,1746,,,,,
57088822,1742,1742,1742,1743,,,,,
57091321,1739,1739,1740,1740,,,,,
57093820,1736,1736,1737,1737,,,,,
57096319,1733,1734,1734,1734,,,,,
57098818,1731,1731,1731,1731,,,,,
57101317,1728,1728,1728,1728,,,,,
