TimeUS,M1,M2,M3,M4,TimeUS,C1,C2,C3,C4
80338685,1000,1000,1000,1000,80428649,1000,1000,1000,1000
80341184,1000,1000,1000,1000,80528609,1000,1000,1000,1000
80343683,1000,1000,1000,1000,80628569,1000,1000,1000,1000
80346182,1000,1000,1000,1000,80728529,1000,1000,1000,1000
80348681,1000,1000,1000,1000,80828489,1000,1000,1000,1000
80351180,1000,1000,1000,1000,80928449,1000,1000,1000,1000
80353679,1000,1000,1000,1000,81028409,1000,1000,1000,1000
80356178,1000,1000,1000,1000,81128369,1000,1000,1000,1000
80358677,1000,1000,1000,1000,81228329,1000,1000,1000,1000
80361176,1000,1000,1000,1000,81328289,1000,1000,1000,1000
80363675,1000,1000,1000,1000,81428249,1000,1000,1000,1000
80366174,1000,1000,1000,1000,81528209,1000,1000,1000,1000
80368673,1000,1000,1000,1000,81628169,1000,1000,1000,1000
80371172,1000,1000,1000,1000,81728962,1000,1000,1000,1000
80373671,1000,1000,1000,1000,81828922,1000,1000,1000,1000
80376170,1000,1000,1000,1000,81928882,1000,1000,1000,1000
80378669,1000,1000,1000,1000,82028842,1000,1000,1000,1000
80381168,1000,1000,1000,1000,82128802,1000,1000,1000,1000
80383667,1000,1000,1000,1000,82228762,1000,1000,1000,1000
80386166,1000,1000,1000,1000,82328722,1000,1000,1000,1000
80388665,1000,1000,1000,1000,82428682,1027,1027,1027,1027
80391164,1000,1000,1000,1000,82528642,1057,1057,1057,1057
80393663,1000,1000,1000,1000,82628602,1087,1087,1087,1087
80396162,1000,1000,1000,1000,82728562,1116,1116,1116,1116
80398661,1000,1000,1000,1000,82828522,1146,1146,1146,1146
80401160,1000,1000,1000,1000,82928482,1380,1371,1372,1381
80403659,1000,1000,1000,1000,83028442,1564,1557,1557,1565
80406158,1000,1000,1000,1000,83128402,1714,1707,1707,1714
80408657,1000,1000,1000,1000,83228362,1843,1837,1837,1844
80411156,1000,1000,1000,1000,83328322,1881,1873,1874,1881
80413655,1000,1000,1000,1000,83428282,1820,1818,1818,1821
80416154,1000,1000,1000,1000,83528242,1692,1693,1693,1693
80418653,1000,1000,1000,1000,83628202,1626,1629,1630,1626
80421152,1000,1000,1000,1000,83728162,1619,1622,1622,1619
80423651,1000,1000,1000,1000,83828955,1630,1633,1633,1630
80426150,1000,1000,1000,1000,83928915,1637,1638,1638,1637
80428649,1000,1000,1000,1000,84028875,1633,1633,1632,1633
80431148,1000,1000,1000,1000,84128835,1626,1624,1624,1626
80433647,1000,1000,1000,1000,84228795,1620,1619,1619,1620
80436146,1000,1000,1000,1000,84328755,1609,1611,1610,1610
80438645,1000,1000,1000,1000,84428715,1592,1591,1582,1600
80441144,1000,1000,1000,1000,84528675,1588,1586,1579,1594
80443643,1000,1000,1000,1000,84628635,1587,1586,1582,1589
80446142,1000,1000,1000,1000,84728595,1587,1587,1587,1586
80448641,1000,1000,1000,1000,84828555,1590,1591,1593,1587
80451140,1000,1000,1000,1000,84928515,1583,1583,1590,1575
80453639,1000,1000,1000,1000,85028475,1566,1567,1585,1548
80456138,1000,1000,1000,1000,85128435,1556,1556,1566,1547
80458637,1000,1000,1000,1000,85228395,1546,1546,1545,1550
80461136,1000,1000,1000,1000,85328355,1539,1538,1530,1549
80463635,1000,1000,1000,1000,85428315,1532,1532,1521,1543
80466134,1000,1000,1000,1000,85528275,1530,1529,1522,1538
80468633,1000,1000,1000,1000,85628235,1530,1529,1525,1533
80471132,1000,1000,1000,1000,85728195,1531,1531,1530,1531
80473631,1000,1000,1000,1000,85828155,1534,1534,1537,1531
80476130,1000,1000,1000,1000,85928948,1538,1538,1543,1533
80478629,1000,1000,1000,1000,86028908,1542,1543,1547,1538
80481128,1000,1000,1000,1000,86128868,1545,1545,1548,1543
80483627,1000,1000,1000,1000,86228828,1548,1548,1548,1547
80486126,1000,1000,1000,1000,86328788,1550,1550,1548,1552
80488625,1000,1000,1000,1000,86428748,1551,1550,1552,1557
80491124,1000,1000,1000,1000,86528708,1551,1550,1558,1561
80493623,1000,1000,1000,1000,86628668,1552,1552,1559,1561
80496122,1000,1000,1000,1000,86728628,1555,1555,1561,1562
80498621,1000,1000,1000,1000,86828588,1560,1560,1564,1563
80501120,1000,1000,1000,1000,86928548,1564,1565,1566,1565
80503619,1000,1000,1000,1000,87028508,1566,1567,1566,1564
80506118,1000,1000,1000,1000,87128468,1569,1569,1566,1566
80508617,1000,1000,1000,1000,87228428,1570,1570,1565,1565
80511116,1000,1000,1000,1000,87328388,1572,1572,1566,1567
80513615,1000,1000,1000,1000,87428348,1573,1573,1567,1568
80516114,1000,1000,1000,1000,87528308,1573,1573,1568,1569
80518613,1000,1000,1000,1000,87628268,1573,1573,1570,1570
80521112,1000,1000,1000,1000,87728228,1574,1574,1571,1571
80523611,1000,1000,1000,1000,87828188,1574,1574,1573,1572
80526110,1000,1000,1000,1000,87928981,1574,1574,1574,1573
80528609,1000,1000,1000,1000,88028941,1574,1575,1576,1574
80531108,1000,1000,1000,1000,88128901,1575,1574,1576,1575
80533607,1000,1000,1000,1000,88228861,1575,1575,1576,1576
80536106,1000,1000,1000,1000,88328821,1574,1574,1576,1576
80538605,1000,1000,1000,1000,88428781,1575,1575,1576,1577
80541104,1000,1000,1000,1000,88528741,1576,1575,1577,1577
80543603,1000,1000,1000,1000,88628701,1576,1577,1578,1578
80546102,1000,1000,1000,1000,88728661,1577,1577,1578,1577
80548601,1000,1000,1000,1000,88828621,1578,1578,1578,1577
80551100,1000,1000,1000,1000,88928581,1577,1577,1577,1577
80553599,1000,1000,1000,1000,89028541,1578,1578,1577,1577
80556098,1000,1000,1000,1000,89128501,1577,1577,1577,1577
80558597,1000,1000,1000,1000,89228461,1578,1578,1578,1578
80561096,1000,1000,1000,1000,89328421,1579,1578,1577,1578
80563595,1000,1000,1000,1000,89428381,1578,1578,1577,1577
80566094,1000,1000,1000,1000,89528341,1577,1577,1577,1577
80568593,1000,1000,1000,1000,89628301,1578,1578,1578,1578
80571092,1000,1000,1000,1000,89728261,1579,1578,1578,1579
80573591,1000,1000,1000,1000,89828221,1578,1578,1578,1578
80576090,1000,1000,1000,1000,89928181,1578,1578,1579,1578
80578589,1000,1000,1000,1000,90028974,1578,1578,1579,1579
80581088,1000,1000,1000,1000,90128934,1578,1578,1579,1579
80583587,1000,1000,1000,1000,90228894,1579,1578,1579,1579
80586086,1000,1000,1000,1000,90328854,1578,1578,1578,1578
80588585,1000,1000,1000,1000,90428814,1579,1580,1579,1580
80591084,1000,1000,1000,1000,90528774,1579,1579,1579,1580
80593583,1000,1000,1000,1000,90628734,1579,1579,1579,1579
80596082,1000,1000,1000,1000,90728694,1580,1579,1580,1580
80598581,1000,1000,1000,1000,90828654,1580,1579,1580,1579
80601080,1000,1000,1000,1000,90928614,1580,1580,1580,1580
80603579,1000,1000,1000,1000,91028574,1581,1581,1581,1580
80606078,1000,1000,1000,1000,91128534,1580,1580,1580,1580
80608577,1000,1000,1000,1000,91228494,1580,1580,1580,1579
80611076,1000,1000,1000,1000,91328454,1581,1581,1581,1581
80613575,1000,1000,1000,1000,91428414,1581,1580,1581,1580
80616074,1000,1000,1000,1000,91528374,1580,1580,1580,1580
80618573,1000,1000,1000,1000,91628334,1580,1580,1580,1580
80621072,1000,1000,1000,1000,91728294,1580,1580,1580,1580
80623571,1000,1000,1000,1000,91828254,1581,1581,1581,1581
80626070,1000,1000,1000,1000,91928214,1580,1580,1580,1580
80628569,1000,1000,1000,1000,92028174,1581,1581,1581,1581
80631068,1000,1000,1000,1000,92128967,1581,1581,1581,1581
80633567,1000,1000,1000,1000,92228927,1580,1581,1581,1581
80636066,1000,1000,1000,1000,92328887,1581,1580,1581,1581
80638565,1000,1000,1000,1000,92428847,1581,1581,1581,1581
80641064,1000,1000,1000,1000,92528807,1581,1580,1580,1581
80643563,1000,1000,1000,1000,92628767,1581,1581,1581,1581
80646062,1000,1000,1000,1000,92728727,1581,1583,1588,1575
80648561,1000,1000,1000,1000,92828687,1581,1583,1587,1573
80651060,1000,1000,1000,1000,92928647,1580,1583,1579,1575
80653559,1000,1000,1000,1000,93028607,1578,1581,1569,1572
80656058,1000,1000,1000,1000,93128567,1576,1578,1561,1568
80658557,1000,1000,1000,1000,93228527,1577,1577,1556,1563
80661056,1000,1000,1000,1000,93328487,1579,1578,1555,1559
80663555,1000,1000,1000,1000,93428447,1579,1578,1555,1555
80666054,1000,1000,1000,1000,93528407,1580,1579,1556,1554
80668553,1000,1000,1000,1000,93628367,1578,1578,1556,1553
80671052,1000,1000,1000,1000,93728327,1578,1578,1556,1553
80673551,1000,1000,1000,1000,93828287,1576,1577,1555,1553
80676050,1000,1000,1000,1000,93928247,1576,1577,1554,1554
80678549,1000,1000,1000,1000,94028207,1576,1577,1553,1554
80681048,1000,1000,1000,1000,94128167,1575,1577,1552,1552
80683547,1000,1000,1000,1000,94228960,1576,1578,1550,1550
80686046,1000,1000,1000,1000,94328920,1579,1580,1548,1548
80688545,1000,1000,1000,1000,94428880,1581,1582,1545,1545
80691044,1000,1000,1000,1000,94528840,1584,1584,1543,1543
80693543,1000,1000,1000,1000,94628800,1587,1587,1540,1540
80696042,1000,1000,1000,1000,94728760,1590,1591,1538,1538
80698541,1000,1000,1000,1000,94828720,1592,1593,1535,1536
80701040,1000,1000,1000,1000,94928680,1594,1594,1535,1535
80703539,1000,1000,1000,1000,95028640,1595,1595,1536,1536
80706038,1000,1000,1000,1000,95128600,1594,1594,1536,1539
80708537,1000,1000,1000,1000,95228560,1592,1592,1539,1542
80711036,1000,1000,1000,1000,95328520,1589,1587,1545,1548
80713535,1000,1000,1000,1000,95428480,1583,1580,1553,1556
80716034,1000,1000,1000,1000,95528440,1574,1570,1562,1565
80718533,1000,1000,1000,1000,95628400,1563,1559,1574,1576
80721032,1000,1000,1000,1000,95728360,1552,1548,1587,1588
80723531,1000,1000,1000,1000,95828320,1541,1540,1599,1598
80726030,1000,1000,1000,1000,95928280,1535,1534,1608,1608
80728529,1000,1000,1000,1000,96028240,1530,1531,1614,1613
80731028,1000,1000,1000,1000,96128200,1528,1531,1615,1614
80733527,1000,1000,1000,1000,96228160,1531,1534,1613,1613
80736026,1000,1000,1000,1000,96328953,1538,1539,1609,1608
80738525,1000,1000,1000,1000,96428913,1545,1547,1602,1603
80741024,1000,1000,1000,1000,96528873,1554,1555,1595,1595
80743523,1000,1000,1000,1000,96628833,1564,1564,1588,1588
80746022,1000,1000,1000,1000,96728793,1571,1571,1581,1580
80748521,1000,1000,1000,1000,96828753,1578,1578,1575,1574
80751020,1000,1000,1000,1000,96928713,1584,1583,1571,1570
80753519,1000,1000,1000,1000,97028673,1586,1585,1567,1567
80756018,1000,1000,1000,1000,97128633,1588,1586,1566,1566
80758517,1000,1000,1000,1000,97228593,1588,1586,1566,1567
80761016,1000,1000,1000,1000,97328553,1585,1584,1568,1567
80763515,1000,1000,1000,1000,97428513,1583,1582,1570,1570
80766014,1000,1000,1000,1000,97528473,1579,1580,1573,1573
80768513,1000,1000,1000,1000,97628433,1577,1577,1576,1576
80771012,1000,1000,1000,1000,97728393,1574,1575,1578,1579
80773511,1000,1000,1000,1000,97828353,1573,1573,1581,1581
80776010,1000,1000,1000,1000,97928313,1572,1572,1582,1582
80778509,1000,1000,1000,1000,98028273,1572,1572,1584,1583
80781008,1000,1000,1000,1000,98128233,1573,1573,1584,1584
80783507,1000,1000,1000,1000,98228193,1573,1574,1583,1583
80786006,1000,1000,1000,1000,98328986,1574,1574,1582,1582
80788505,1000,1000,1000,1000,98428946,1575,1576,1581,1580
80791004,1000,1000,1000,1000,98528906,1577,1577,1580,1579
80793503,1000,1000,1000,1000,98628866,1500,1528,1499,1530
80796002,1000,1000,1000,1000,98728826,1563,1559,1559,1561
80798501,1000,1000,1000,1000,98828786,1623,1581,1620,1579
80801000,1000,1000,1000,1000,98928746,1670,1613,1667,1609
80803499,1000,1000,1000,1000,99028706,1691,1637,1685,1631
80805998,1000,1000,1000,1000,99128666,1678,1645,1669,1632
80808497,1000,1000,1000,1000,99228626,1644,1641,1632,1621
80810996,1000,1000,1000,1000,99328586,1606,1627,1597,1613
80813495,1000,1000,1000,1000,99428546,1576,1609,1578,1612
80815994,1000,1000,1000,1000,99528506,1561,1590,1577,1613
80818493,1000,1000,1000,1000,99628466,1555,1572,1582,1608
80820992,1000,1000,1000,1000,99728426,1557,1562,1588,1599
80823491,1000,1000,1000,1000,99828386,1563,1560,1591,1589
80825990,1000,1000,1000,1000,99928346,1571,1565,1591,1582
80828489,1000,1000,1000,1000,100028306,1578,1572,1587,1576
80830988,1000,1000,1000,1000,100128266,1583,1580,1581,1573
80833487,1000,1000,1000,1000,100228226,1585,1585,1574,1570
80835986,1000,1000,1000,1000,100328186,1586,1588,1569,1569
80838485,1000,1000,1000,1000,100428979,1584,1587,1563,1566
80840984,1000,1000,1000,1000,100528939,1583,1585,1561,1565
80843483,1000,1000,1000,1000,100628899,1583,1584,1561,1564
80845982,1000,1000,1000,1000,100728859,1583,1582,1569,1557
80848481,1000,1000,1000,1000,100828819,1580,1580,1568,1556
80850980,1000,1000,1000,1000,100928779,1577,1579,1563,1559
80853479,1000,1000,1000,1000,101028739,1574,1576,1558,1561
80855978,1000,1000,1000,1000,101128699,1571,1573,1555,1562
80858477,1000,1000,1000,1000,101228659,1569,1570,1554,1561
80860976,1000,1000,1000,1000,101328619,1568,1568,1555,1559
80863475,1000,1000,1000,1000,101428579,1568,1568,1556,1558
80865974,1000,1000,1000,1000,101528539,1568,1567,1556,1555
80868473,1000,1000,1000,1000,101628499,1568,1568,1556,1554
80870972,1000,1000,1000,1000,101728459,1569,1569,1555,1553
80873471,1000,1000,1000,1000,101828419,1570,1571,1554,1552
80875970,1000,1000,1000,1000,101928379,1571,1572,1552,1551
80878469,1000,1000,1000,1000,102028339,1573,1574,1551,1550
80880968,1000,1000,1000,1000,102128299,1574,1575,1548,1548
80883467,1000,1000,1000,1000,102228259,1577,1577,1545,1546
80885966,1000,1000,1000,1000,102328219,1579,1580,1543,1544
80888465,1000,1000,1000,1000,102428179,1582,1582,1541,1541
80890964,1000,1000,1000,1000,102528972,1584,1584,1539,1539
80893463,1000,1000,1000,1000,102628932,1588,1587,1538,1537
80895962,1000,1000,1000,1000,102728892,1589,1589,1536,1536
80898461,1000,1000,1000,1000,102828852,1591,1591,1534,1535
80900960,1000,1000,1000,1000,102928812,1592,1591,1535,1536
80903459,1000,1000,1000,1000,103028772,1591,1590,1536,1538
80905958,1000,1000,1000,1000,103128732,1589,1587,1540,1542
80908457,1000,1000,1000,1000,103228692,1585,1583,1545,1547
80910956,1000,1000,1000,1000,103328652,1580,1578,1552,1554
80913455,1000,1000,1000,1000,103428612,1573,1572,1559,1561
80915954,1000,1000,1000,1000,103528572,1565,1564,1566,1568
80918453,1000,1000,1000,1000,103628532,1558,1557,1574,1576
80920952,1000,1000,1000,1000,103728492,1551,1550,1582,1583
80923451,1000,1000,1000,1000,103828452,1545,1545,1589,1590
80925950,1000,1000,1000,1000,103928412,1541,1541,1596,1595
80928449,1000,1000,1000,1000,104028372,1539,1539,1600,1599
80930948,1000,1000,1000,1000,104128332,1539,1539,1603,1601
80933447,1000,1000,1000,1000,104228292,1540,1540,1602,1601
80935946,1000,1000,1000,1000,104328252,1542,1543,1600,1599
80938445,1000,1000,1000,1000,104428212,1548,1549,1597,1597
80940944,1000,1000,1000,1000,104528172,1553,1553,1592,1593
80943443,1000,1000,1000,1000,104628965,1559,1559,1587,1588
80945942,1000,1000,1000,1000,104728925,1564,1564,1582,1583
80948441,1000,1000,1000,1000,104828885,1570,1569,1578,1578
80950940,1000,1000,1000,1000,104928845,1575,1574,1575,1575
80953439,1000,1000,1000,1000,105028805,1579,1577,1572,1572
80955938,1000,1000,1000,1000,105128765,1580,1579,1570,1570
80958437,1000,1000,1000,1000,105228725,1582,1581,1570,1570
80960936,1000,1000,1000,1000,105328685,1582,1581,1570,1570
80963435,1000,1000,1000,1000,105428645,1581,1581,1571,1570
80965934,1000,1000,1000,1000,105528605,1580,1580,1572,1572
80968433,1000,1000,1000,1000,105628565,1578,1578,1573,1573
80970932,1000,1000,1000,1000,105728525,1577,1578,1576,1576
80973431,1000,1000,1000,1000,105828485,1575,1576,1577,1577
80975930,1000,1000,1000,1000,105928445,1576,1576,1579,1579
80978429,1000,1000,1000,1000,106028405,1574,1574,1580,1579
80980928,1000,1000,1000,1000,106128365,1575,1575,1581,1581
80983427,1000,1000,1000,1000,106228325,1574,1575,1581,1580
80985926,1000,1000,1000,1000,106328285,1575,1575,1581,1581
80988425,1000,1000,1000,1000,106428245,1576,1576,1581,1581
80990924,1000,1000,1000,1000,106528205,1576,1576,1580,1580
80993423,1000,1000,1000,1000,106628165,1578,1577,1580,1580
80995922,1000,1000,1000,1000,106728958,1579,1578,1580,1580
80998421,1000,1000,1000,1000,106828918,1579,1579,1579,1579
81000920,1000,1000,1000,1000,106928878,1579,1579,1578,1578
81003419,1000,1000,1000,1000,107028838,1580,1580,1578,1578
81005918,1000,1000,1000,1000,107128798,1580,1580,1577,1577
81008417,1000,1000,1000,1000,107228758,1580,1580,1577,1578
81010916,1000,1000,1000,1000,107328718,1580,1580,1577,1577
81013415,1000,1000,1000,1000,107428678,1580,1580,1578,1578
81015914,1000,1000,1000,1000,107528638,1581,1581,1579,1579
81018413,1000,1000,1000,1000,107628598,1581,1581,1579,1579
81020912,1000,1000,1000,1000,107728558,1581,1581,1580,1580
81023411,1000,1000,1000,1000,107828518,1580,1580,1580,1580
81025910,1000,1000,1000,1000,107928478,1579,1580,1580,1580
81028409,1000,1000,1000,1000,108028438,1580,1580,1581,1581
81030908,1000,1000,1000,1000,108128398,1579,1579,1580,1580
81033407,1000,1000,1000,1000,108228358,1580,1581,1582,1582
81035906,1000,1000,1000,1000,108328318,1581,1580,1581,1581
81038405,1000,1000,1000,1000,108428278,1580,1580,1581,1581
81040904,1000,1000,1000,1000,108528238,1581,1581,1582,1581
81043403,1000,1000,1000,1000,108628198,1581,1581,1581,1581
81045902,1000,1000,1000,1000,108728158,1581,1581,1581,1581
81048401,1000,1000,1000,1000,108828951,1581,1581,1581,1581
81050900,1000,1000,1000,1000,108928911,1582,1582,1581,1582
81053399,1000,1000,1000,1000,109028871,1582,1582,1581,1582
81055898,1000,1000,1000,1000,109128831,1582,1582,1582,1582
81058397,1000,1000,1000,1000,109228791,1582,1582,1581,1582
81060896,1000,1000,1000,1000,109328751,1582,1582,1582,1581
81063395,1000,1000,1000,1000,109428711,1581,1582,1586,1575
81065894,1000,1000,1000,1000,109528671,1582,1584,1587,1574
81068393,1000,1000,1000,1000,109628631,1580,1582,1581,1573
81070892,1000,1000,1000,1000,109728591,1578,1581,1573,1572
81073391,1000,1000,1000,1000,109828551,1577,1579,1564,1571
81075890,1000,1000,1000,1000,109928511,1576,1578,1558,1566
81078389,1000,1000,1000,1000,110028471,1577,1577,1555,1561
81080888,1000,1000,1000,1000,110128431,1578,1577,1554,1557
81083387,1000,1000,1000,1000,110228391,1578,1577,1554,1554
81085886,1000,1000,1000,1000,110328351,1578,1577,1554,1552
81088385,1000,1000,1000,1000,110428311,1578,1578,1555,1553
81090884,1000,1000,1000,1000,110528271,1578,1577,1555,1553
81093383,1000,1000,1000,1000,110628231,1576,1577,1554,1552
81095882,1000,1000,1000,1000,110728191,1575,1577,1553,1553
81098381,1000,1000,1000,1000,110828984,1575,1577,1552,1552
81100880,1000,1000,1000,1000,110928944,1575,1577,1551,1550
81103379,1000,1000,1000,1000,111028904,1577,1579,1550,1549
81105878,1000,1000,1000,1000,111128864,1578,1579,1547,1547
81108377,1000,1000,1000,1000,111228824,1581,1582,1545,1546
81110876,1000,1000,1000,1000,111328784,1584,1585,1543,1544
81113375,1000,1000,1000,1000,111428744,1586,1587,1541,1541
81115874,1000,1000,1000,1000,111528704,1590,1590,1540,1540
81118373,1000,1000,1000,1000,111628664,1591,1591,1538,1538
81120872,1000,1000,1000,1000,111728624,1592,1592,1537,1538
81123371,1000,1000,1000,1000,111828584,1593,1593,1538,1539
81125870,1000,1000,1000,1000,111928544,1593,1592,1540,1542
81128369,1000,1000,1000,1000,112028504,1591,1589,1544,1547
81130868,1000,1000,1000,1000,112128464,1587,1584,1550,1553
81133367,1000,1000,1000,1000,112228424,1580,1577,1558,1562
81135866,1000,1000,1000,1000,112328384,1573,1569,1569,1572
81138365,1000,1000,1000,1000,112428344,1562,1559,1580,1582
81140864,1000,1000,1000,1000,112528304,1553,1550,1592,1592
81143363,1000,1000,1000,1000,112628264,1543,1543,1601,1600
81145862,1000,1000,1000,1000,112728224,1538,1539,1609,1607
81148361,1000,1000,1000,1000,112828184,1535,1538,1613,1611
81150860,1000,1000,1000,1000,112928977,1536,1538,1615,1613
81153359,1000,1000,1000,1000,113028937,1538,1541,1612,1610
81155858,1000,1000,1000,1000,113128897,1543,1545,1607,1607
81158357,1000,1000,1000,1000,113228857,1550,1551,1602,1601
81160856,1000,1000,1000,1000,113328817,1557,1557,1595,1595
81163355,1000,1000,1000,1000,113428777,1565,1564,1589,1588
81165854,1000,1000,1000,1000,113528737,1571,1570,1581,1581
81168353,1000,1000,1000,1000,113628697,1577,1576,1575,1576
81170852,1000,1000,1000,1000,113728657,1582,1580,1571,1572
81173351,1000,1000,1000,1000,113828617,1585,1583,1567,1568
81175850,1000,1000,1000,1000,113928577,1585,1583,1565,1566
81178349,1000,1000,1000,1000,114028537,1586,1584,1565,1566
81180848,1000,1000,1000,1000,114128497,1585,1584,1567,1568
81183347,1000,1000,1000,1000,114228457,1583,1583,1569,1569
81185846,1000,1000,1000,1000,114328417,1581,1581,1572,1572
81188345,1000,1000,1000,1000,114428377,1578,1579,1575,1575
81190844,1000,1000,1000,1000,114528337,1576,1577,1578,1578
81193343,1000,1000,1000,1000,114628297,1575,1576,1581,1580
81195842,1000,1000,1000,1000,114728257,1574,1575,1583,1582
81198341,1000,1000,1000,1000,114828217,1573,1574,1584,1583
81200840,1000,1000,1000,1000,114928177,1573,1574,1585,1584
81203339,1000,1000,1000,1000,115028970,1575,1575,1586,1585
81205838,1000,1000,1000,1000,115128930,1574,1575,1584,1584
81208337,1000,1000,1000,1000,115228890,1575,1576,1582,1583
81210836,1000,1000,1000,1000,115328850,1578,1578,1582,1583
81213335,1000,1000,1000,1000,115428810,1579,1579,1581,1581
81215834,1000,1000,1000,1000,115528770,1580,1579,1580,1580
81218333,1000,1000,1000,1000,115628730,1580,1580,1579,1579
81220832,1000,1000,1000,1000,115728690,1581,1581,1578,1578
81223331,1000,1000,1000,1000,115828650,1582,1581,1578,1577
81225830,1000,1000,1000,1000,115928610,1582,1581,1577,1577
81228329,1000,1000,1000,1000,116028570,1582,1582,1578,1578
81230828,1000,1000,1000,1000,116128530,1582,1582,1578,1578
81233327,1000,1000,1000,1000,116228490,1580,1580,1578,1577
81235826,1000,1000,1000,1000,116328450,1580,1580,1578,1578
81238325,1000,1000,1000,1000,116428410,1580,1581,1579,1580
81240824,1000,1000,1000,1000,116528370,1580,1580,1580,1580
81243323,1000,1000,1000,1000,116628330,1580,1580,1581,1581
81245822,1000,1000,1000,1000,116728290,1580,1580,1581,1581
81248321,1000,1000,1000,1000,116828250,1579,1580,1581,1580
81250820,1000,1000,1000,1000,116928210,1580,1580,1582,1582
81253319,1000,1000,1000,1000,117028170,1580,1580,1582,1582
81255818,1000,1000,1000,1000,117128963,1580,1580,1582,1582
81258317,1000,1000,1000,1000,117228923,1581,1580,1581,1581
81260816,1000,1000,1000,1000,117328883,1580,1580,1581,1581
81263315,1000,1000,1000,1000,117428843,1580,1581,1586,1573
81265814,1000,1000,1000,1000,117528803,1580,1581,1585,1572
81268313,1000,1000,1000,1000,117628763,1578,1578,1579,1574
81270812,1000,1000,1000,1000,117728723,1575,1574,1572,1575
81273311,1000,1000,1000,1000,117828683,1571,1570,1567,1573
81275810,1000,1000,1000,1000,117928643,1569,1568,1564,1571
81278309,1000,1000,1000,1000,118028603,1567,1567,1564,1569
81280808,1000,1000,1000,1000,118128563,1566,1567,1565,1567
81283307,1000,1000,1000,1000,118228523,1565,1565,1565,1564
81285806,1000,1000,1000,1000,118328483,1566,1566,1566,1564
81288305,1000,1000,1000,1000,118428443,1565,1565,1566,1564
81290804,1000,1000,1000,1000,118528403,1565,1565,1566,1564
81293303,1000,1000,1000,1000,118628363,1564,1564,1565,1564
81295802,1000,1000,1000,1000,118728323,1564,1564,1565,1564
81298301,1000,1000,1000,1000,118828283,1563,1563,1563,1564
81300800,1000,1000,1000,1000,118928243,1562,1562,1562,1563
81303299,1000,1000,1000,1000,119028203,1561,1561,1562,1562
81305798,1000,1000,1000,1000,119128163,1562,1561,1562,1562
81308297,1000,1000,1000,1000,119228956,1560,1561,1561,1560
81310796,1000,1000,1000,1000,119328916,1560,1560,1560,1560
81313295,1000,1000,1000,1000,119428876,1559,1560,1560,1559
81315794,1000,1000,1000,1000,119528836,1559,1558,1559,1558
81318293,1000,1000,1000,1000,119628796,1558,1558,1558,1557
81320792,1000,1000,1000,1000,119728756,1558,1558,1558,1557
81323291,1000,1000,1000,1000,119828716,1558,1558,1559,1557
81325790,1000,1000,1000,1000,119928676,1558,1558,1559,1557
81328289,1000,1000,1000,1000,120028636,1558,1558,1559,1557
81330788,1000,1000,1000,1000,120128596,1558,1558,1560,1557
81333287,1000,1000,1000,1000,120228556,1558,1558,1559,1558
81335786,1000,1000,1000,1000,120328516,1559,1559,1558,1562
81338285,1000,1000,1000,1000,120428476,1560,1560,1557,1563
81340784,1000,1000,1000,1000,120528436,1560,1560,1557,1564
81343283,1000,1000,1000,1000,120628396,1562,1562,1559,1564
81345782,1000,1000,1000,1000,120728356,1562,1562,1561,1563
81348281,1000,1000,1000,1000,120828316,1562,1562,1563,1561
81350780,1000,1000,1000,1000,120928276,1562,1562,1563,1559
81353279,1000,1000,1000,1000,121028236,1561,1562,1563,1559
81355778,1000,1000,1000,1000,121128196,1560,1559,1558,1561
81358277,1000,1000,1000,1000,121228156,1556,1556,1554,1559
81360776,1000,1000,1000,1000,121328949,1552,1552,1550,1554
81363275,1000,1000,1000,1000,121428909,1546,1546,1546,1547
81365774,1000,1000,1000,1000,121528869,1540,1540,1540,1540
81368273,1000,1000,1000,1000,121628829,1533,1533,1534,1531
81370772,1000,1000,1000,1000,121728789,1524,1524,1525,1523
81373271,1000,1000,1000,1000,121828749,1520,1520,1521,1520
81375770,1000,1000,1000,1000,121928709,1518,1519,1518,1519
81378269,1000,1000,1000,1000,122028669,1518,1520,1519,1520
81380768,1000,1000,1000,1000,122128629,1521,1521,1520,1522
81383267,1000,1000,1000,1000,122228589,1524,1525,1524,1526
81385766,1000,1000,1000,1000,122328549,1529,1528,1529,1530
81388265,1000,1000,1000,1000,122428509,1534,1533,1534,1534
81390764,1000,1000,1000,1000,122528469,1538,1537,1538,1537
81393263,1000,1000,1000,1000,122628429,1540,1539,1540,1539
81395762,1000,1000,1000,1000,122728389,1542,1541,1543,1541
81398261,1000,1000,1000,1000,122828349,1543,1543,1544,1543
81400760,1000,1000,1000,1000,122928309,1545,1544,1545,1544
81403259,1000,1000,1000,1000,123028269,1546,1546,1546,1546
81405758,1000,1000,1000,1000,123128229,1546,1547,1546,1547
81408257,1000,1000,1000,1000,123228189,1547,1547,1546,1547
81410756,1000,1000,1000,1000,123328982,1547,1546,1546,1546
81413255,1000,1000,1000,1000,123428942,1546,1546,1546,1546
81415754,1000,1000,1000,1000,123528902,1546,1545,1546,1545
81418253,1000,1000,1000,1000,123628862,1546,1546,1546,1546
81420752,1000,1000,1000,1000,123728822,1546,1546,1546,1546
81423251,1000,1000,1000,1000,123828782,1545,1546,1545,1545
81425750,1000,1000,1000,1000,123928742,1545,1545,1546,1545
81428249,1000,1000,1000,1000,124028702,1545,1545,1545,1544
81430748,1000,1000,1000,1000,124128662,1544,1544,1544,1545
81433247,1000,1000,1000,1000,124228622,1544,1544,1544,1544
81435746,1000,1000,1000,1000,124328582,1544,1543,1544,1544
81438245,1000,1000,1000,1000,124428542,1544,1543,1544,1543
81440744,1000,1000,1000,1000,124528502,1543,1543,1543,1543
81443243,1000,1000,1000,1000,124628462,1543,1543,1543,1543
81445742,1000,1000,1000,1000,124728422,1544,1544,1544,1544
81448241,1000,1000,1000,1000,124828382,1544,1544,1544,1544
81450740,1000,1000,1000,1000,124928342,1544,1544,1544,1543
81453239,1000,1000,1000,1000,125028302,1544,1543,1543,1544
81455738,1000,1000,1000,1000,125128262,1543,1543,1543,1544
81458237,1000,1000,1000,1000,125228222,1544,1544,1544,1544
81460736,1000,1000,1000,1000,125328182,1544,1544,1543,1544
81463235,1000,1000,1000,1000,125428975,1544,1544,1545,1544
81465734,1000,1000,1000,1000,125528935,1545,1544,1545,1544
81468233,1000,1000,1000,1000,125628895,1545,1545,1545,1545
81470732,1000,1000,1000,1000,125728855,1544,1543,1544,1544
81473231,1000,1000,1000,1000,125828815,1544,1544,1544,1544
81475730,1000,1000,1000,1000,125928775,1544,1544,1544,1545
81478229,1000,1000,1000,1000,126028735,1545,1545,1545,1545
81480728,1000,1000,1000,1000,126128695,1544,1544,1543,1544
81483227,1000,1000,1000,1000,126228655,1544,1544,1544,1544
81485726,1000,1000,1000,1000,126328615,1544,1544,1544,1544
81488225,1000,1000,1000,1000,126428575,1544,1544,1544,1544
81490724,1000,1000,1000,1000,126528535,1544,1544,1544,1543
81493223,1000,1000,1000,1000,126628495,1544,1544,1544,1543
81495722,1000,1000,1000,1000,126728455,1544,1544,1544,1544
81498221,1000,1000,1000,1000,126828415,1543,1544,1544,1544
81500720,1000,1000,1000,1000,126928375,1543,1543,1543,1544
81503219,1000,1000,1000,1000,127028335,1544,1544,1544,1544
81505718,1000,1000,1000,1000,127128295,1544,1544,1544,1544
81508217,1000,1000,1000,1000,127228255,1544,1544,1545,1544
81510716,1000,1000,1000,1000,127328215,1545,1545,1545,1545
81513215,1000,1000,1000,1000,127428175,1544,1544,1544,1544
81515714,1000,1000,1000,1000,127528968,1545,1544,1544,1544
81518213,1000,1000,1000,1000,127628928,1545,1545,1545,1545
81520712,1000,1000,1000,1000,127728888,1544,1544,1544,1544
81523211,1000,1000,1000,1000,127828848,1544,1544,1544,1544
81525710,1000,1000,1000,1000,127928808,1544,1544,1544,1544
81528209,1000,1000,1000,1000,128028768,1544,1545,1545,1545
81530708,1000,1000,1000,1000,128128728,1545,1545,1545,1545
81533207,1000,1000,1000,1000,128228688,1544,1544,1544,1544
81535706,1000,1000,1000,1000,128328648,1545,1544,1545,1545
81538205,1000,1000,1000,1000,128428608,1544,1544,1544,1544
81540704,1000,1000,1000,1000,128528568,1544,1544,1544,1544
81543203,1000,1000,1000,1000,128628528,1545,1545,1545,1544
81545702,1000,1000,1000,1000,128728488,1544,1545,1544,1545
81548201,1000,1000,1000,1000,128828448,1544,1544,1544,1544
81550700,1000,1000,1000,1000,128928408,1545,1545,1545,1545
81553199,1000,1000,1000,1000,129028368,1544,1545,1544,1545
81555698,1000,1000,1000,1000,129128328,1545,1545,1545,1546
81558197,1000,1000,1000,1000,129228288,1544,1544,1544,1544
81560696,1000,1000,1000,1000,129328248,1545,1545,1545,1545
81563195,1000,1000,1000,1000,129428208,1545,1545,1545,1545
81565694,1000,1000,1000,1000,129528168,1544,1543,1544,1544
81568193,1000,1000,1000,1000,129628961,1544,1544,1544,1544
81570692,1000,1000,1000,1000,129728921,1543,1544,1544,1543
81573191,1000,1000,1000,1000,129828881,1544,1544,1544,1544
81575690,1000,1000,1000,1000,129928841,1545,1544,1544,1545
81578189,1000,1000,1000,1000,130028801,1544,1544,1545,1544
81580688,1000,1000,1000,1000,130128761,1544,1544,1544,1544
81583187,1000,1000,1000,1000,130228721,1543,1544,1544,1543
81585686,1000,1000,1000,1000,130328681,1544,1543,1543,1544
81588185,1000,1000,1000,1000,130428641,1544,1545,1544,1544
81590684,1000,1000,1000,1000,130528601,1544,1544,1544,1544
81593183,1000,1000,1000,1000,130628561,1545,1545,1545,1545
81595682,1000,1000,1000,1000,130728521,1544,1544,1544,1544
81598181,1000,1000,1000,1000,130828481,1544,1544,1544,1544
81600680,1000,1000,1000,1000,130928441,1544,1544,1545,1544
81603179,1000,1000,1000,1000,131028401,1544,1544,1544,1544
81605678,1000,1000,1000,1000,131128361,1545,1544,1544,1545
81608177,1000,1000,1000,1000,131228321,1544,1544,1545,1544
81610676,1000,1000,1000,1000,131328281,1545,1545,1545,1545
81613175,1000,1000,1000,1000,131428241,1544,1544,1544,1544
81615674,1000,1000,1000,1000,131528201,1544,1544,1544,1545
81618173,1000,1000,1000,1000,131628161,1411,1375,1411,1375
81620672,1000,1000,1000,1000,131728954,1326,1256,1326,1256
81623171,1000,1000,1000,1000,131828914,1299,1216,1299,1215
81625670,1000,1000,1000,1000,131928874,1285,1193,1285,1195
81628169,1000,1000,1000,1000,132028834,1258,1150,1258,1151
81630668,1000,1000,1000,1000,132128794,1196,1150,1196,1151
81633167,1000,1000,1000,1000,132228754,1147,1150,1147,1150
81635666,1000,1000,1000,1000,132328714,1147,1150,1147,1150
81638165,1000,1000,1000,1000,132428674,1147,1150,1147,1150
81640664,1000,1000,1000,1000,132528634,1147,1150,1131,1172
81643163,1000,1000,1000,1000,132628594,1147,1150,1136,1165
81645662,1000,1000,1000,1000,132728554,1147,1150,1138,1162
81648161,1000,1000,1000,1000,132828514,1147,1150,1139,1162
81650660,1000,1000,1000,1000,132928474,1147,1150,1138,1163
81653159,1000,1000,1000,1000,133028434,1147,1150,1137,1164
81655658,1000,1000,1000,1000,133128394,1147,1150,1137,1165
81658157,1000,1000,1000,1000,133228354,1147,1150,1136,1165
81660656,1000,1000,1000,1000,133328314,1147,1150,1143,1155
81663155,1000,1000,1000,1000,133428274,1147,1150,1143,1156
81665654,1000,1000,1000,1000,133528234,1147,1150,1142,1157
81668986,1000,1000,1000,1000,133628194,1147,1150,1142,1157
81671485,1000,1000,1000,1000,133728154,1109,1150,1105,1156
81673984,1000,1000,1000,1000,133828947,1000,1000,1000,1000
81676483,1000,1000,1000,1000,133928907,1000,1000,1000,1000
81678982,1000,1000,1000,1000,134028867,1000,1000,1000,1000
81681481,1000,1000,1000,1000,134128827,1000,1000,1000,1000
81683980,1000,1000,1000,1000,134228787,1000,1000,1000,1000
81686479,1000,1000,1000,1000,134328747,1000,1000,1000,1000
81688978,1000,1000,1000,1000,134428707,1000,1000,1000,1000
81691477,1000,1000,1000,1000,134528667,1000,1000,1000,1000
81693976,1000,1000,1000,1000,134628627,1000,1000,1000,1000
81696475,1000,1000,1000,1000,134728587,1000,1000,1000,1000
81698974,1000,1000,1000,1000,134828547,1000,1000,1000,1000
81701473,1000,1000,1000,1000,134928507,1000,1000,1000,1000
81703972,1000,1000,1000,1000,135028467,1000,1000,1000,1000
81706471,1000,1000,1000,1000,135128427,1000,1000,1000,1000
81708970,1000,1000,1000,1000,135228387,1000,1000,1000,1000
81711469,1000,1000,1000,1000,135328347,1000,1000,1000,1000
81713968,1000,1000,1000,1000,135428307,1000,1000,1000,1000
81716467,1000,1000,1000,1000,135528267,1000,1000,1000,1000
81718966,1000,1000,1000,1000,135628227,1000,1000,1000,1000
81721465,1000,1000,1000,1000,135728187,1000,1000,1000,1000
81723964,1000,1000,1000,1000,135828980,1000,1000,1000,1000
81726463,1000,1000,1000,1000,135928940,1000,1000,1000,1000
81728962,1000,1000,1000,1000,136028900,1000,1000,1000,1000
81731461,1000,1000,1000,1000,136128860,1000,1000,1000,1000
81733960,1000,1000,1000,1000,136228820,1000,1000,1000,1000
81736459,1000,1000,1000,1000,136328780,1000,1000,1000,1000
81738958,1000,1000,1000,1000,136428740,1000,1000,1000,1000
81741457,1000,1000,1000,1000,136528700,1000,1000,1000,1000
81743956,1000,1000,1000,1000,136628660,1000,1000,1000,1000
81746455,1000,1000,1000,1000,136728620,1000,1000,1000,1000
81748954,1000,1000,1000,1000,136828580,1000,1000,1000,1000
81751453,1000,1000,1000,1000,136928540,1000,1000,1000,1000
81753952,1000,1000,1000,1000,137028500,1000,1000,1000,1000
81756451,1000,1000,1000,1000,137128460,1000,1000,1000,1000
81758950,1000,1000,1000,1000,137228420,1000,1000,1000,1000
81761449,1000,1000,1000,1000,137328380,1000,1000,1000,1000
81763948,1000,1000,1000,1000,137428340,1000,1000,1000,1000
81766447,1000,1000,1000,1000,137528300,1000,1000,1000,1000
81768946,1000,1000,1000,1000,137628260,1000,1000,1000,1000
81771445,1000,1000,1000,1000,137728220,1000,1000,1000,1000
81773944,1000,1000,1000,1000,137828180,1000,1000,1000,1000
81776443,1000,1000,1000,1000,137928973,1000,1000,1000,1000
81778942,1000,1000,1000,1000,138028933,1000,1000,1000,1000
81781441,1000,1000,1000,1000,138128893,1000,1000,1000,1000
81783940,1000,1000,1000,1000,138228853,1000,1000,1000,1000
81786439,1000,1000,1000,1000,138328813,1000,1000,1000,1000
81788938,1000,1000,1000,1000,138428773,1000,1000,1000,1000
81791437,1000,1000,1000,1000,138528733,1000,1000,1000,1000
81793936,1000,1000,1000,1000,138628693,1000,1000,1000,1000
81796435,1000,1000,1000,1000,138728653,1000,1000,1000,1000
81798934,1000,1000,1000,1000,138828613,1000,1000,1000,1000
81801433,1000,1000,1000,1000,138928573,1000,1000,1000,1000
81803932,1000,1000,1000,1000,139028533,1000,1000,1000,1000
81806431,1000,1000,1000,1000,139128493,1000,1000,1000,1000
81808930,1000,1000,1000,1000,139228453,1000,1000,1000,1000
81811429,1000,1000,1000,1000,139328413,1000,1000,1000,1000
81813928,1000,1000,1000,1000,139428373,1000,1000,1000,1000
81816427,1000,1000,1000,1000,139528333,1000,1000,1000,1000
81818926,1000,1000,1000,1000,139628293,1000,1000,1000,1000
81821425,1000,1000,1000,1000,139728253,1000,1000,1000,1000
81823924,1000,1000,1000,1000,139828213,1000,1000,1000,1000
81826423,1000,1000,1000,1000,139928173,1000,1000,1000,1000
81828922,1000,1000,1000,1000,140028966,1000,1000,1000,1000
81831421,1000,1000,1000,1000,140128926,1000,1000,1000,1000
81833920,1000,1000,1000,1000,140228886,1000,1000,1000,1000
81836419,1000,1000,1000,1000,140328846,1000,1000,1000,1000
81838918,1000,1000,1000,1000,140428806,1000,1000,1000,1000
81841417,1000,1000,1000,1000,140528766,1000,1000,1000,1000
81843916,1000,1000,1000,1000,140628726,1000,1000,1000,1000
81846415,1000,1000,1000,1000,140728686,1000,1000,1000,1000
81848914,1000,1000,1000,1000,140828646,1000,1000,1000,1000
81851413,1000,1000,1000,1000,140928606,1000,1000,1000,1000
81853912,1000,1000,1000,1000,141028566,1000,1000,1000,1000
81856411,1000,1000,1000,1000,141128526,1000,1000,1000,1000
81858910,1000,1000,1000,1000,141228486,1000,1000,1000,1000
81861409,1000,1000,1000,1000,141328446,1000,1000,1000,1000
81863908,1000,1000,1000,1000,141428406,1000,1000,1000,1000
81866407,1000,1000,1000,1000,141528366,1000,1000,1000,1000
81868906,1000,1000,1000,1000,141628326,1000,1000,1000,1000
81871405,1000,1000,1000,1000,141728286,1000,1000,1000,1000
81873904,1000,1000,1000,1000,141828246,1000,1000,1000,1000
81876403,1000,1000,1000,1000,141928206,1000,1000,1000,1000
81878902,1000,1000,1000,1000,142028166,1000,1000,1000,1000
81881401,1000,1000,1000,1000,142128959,1000,1000,1000,1000
81883900,1000,1000,1000,1000,142228919,1000,1000,1000,1000
81886399,1000,1000,1000,1000,142328879,1000,1000,1000,1000
81888898,1000,1000,1000,1000,142428839,1000,1000,1000,1000
81891397,1000,1000,1000,1000,142528799,1000,1000,1000,1000
81893896,1000,1000,1000,1000,142628759,1000,1000,1000,1000
81896395,1000,1000,1000,1000,142728719,1000,1000,1000,1000
81898894,1000,1000,1000,1000,142828679,1000,1000,1000,1000
81901393,1000,1000,1000,1000,142928639,1000,1000,1000,1000
81903892,1000,1000,1000,1000,143028599,1000,1000,1000,1000
81906391,1000,1000,1000,1000,143128559,1000,1000,1000,1000
81908890,1000,1000,1000,1000,143228519,1000,1000,1000,1000
81911389,1000,1000,1000,1000,143328479,1000,1000,1000,1000
81913888,1000,1000,1000,1000,143428439,1000,1000,1000,1000
81916387,1000,1000,1000,1000,143528399,1000,1000,1000,1000
81918886,1000,1000,1000,1000,143628359,1000,1000,1000,1000
81921385,1000,1000,1000,1000,143728319,1000,1000,1000,1000
81923884,1000,1000,1000,1000,143828279,1000,1000,1000,1000
81926383,1000,1000,1000,1000,143928239,1000,1000,1000,1000
81928882,1000,1000,1000,1000,144028199,1000,1000,1000,1000
81931381,1000,1000,1000,1000,144128159,1000,1000,1000,1000
81933880,1000,1000,1000,1000,144228952,1000,1000,1000,1000
81936379,1000,1000,1000,1000,144328912,1000,1000,1000,1000
81938878,1000,1000,1000,1000,144428872,1000,1000,1000,1000
81941377,1000,1000,1000,1000,144528832,1000,1000,1000,1000
81943876,1000,1000,1000,1000,144628792,1000,1000,1000,1000
81946375,1000,1000,1000,1000,144728752,1000,1000,1000,1000
81948874,1000,1000,1000,1000,144828712,1000,1000,1000,1000
81951373,1000,1000,1000,1000,144928672,1000,1000,1000,1000
81953872,1000,1000,1000,1000,145028632,1000,1000,1000,1000
81956371,1000,1000,1000,1000,145128592,1000,1000,1000,1000
81958870,1000,1000,1000,1000,145228552,1000,1000,1000,1000
81961369,1000,1000,1000,1000,145328512,1000,1000,1000,1000
81963868,1000,1000,1000,1000,145428472,1000,1000,1000,1000
81966367,1000,1000,1000,1000,145528432,1000,1000,1000,1000
81968866,1000,1000,1000,1000,145628392,1000,1000,1000,1000
81971365,1000,1000,1000,1000,145728352,1000,1000,1000,1000
81973864,1000,1000,1000,1000,145828312,1000,1000,1000,1000
81976363,1000,1000,1000,1000,145928272,1000,1000,1000,1000
81978862,1000,1000,1000,1000,146028232,1000,1000,1000,1000
81981361,1000,1000,1000,1000,146128192,1000,1000,1000,1000
81983860,1000,1000,1000,1000,146228985,1000,1000,1000,1000
81986359,1000,1000,1000,1000,146328945,1000,1000,1000,1000
81988858,1000,1000,1000,1000,146428905,1000,1000,1000,1000
81991357,1000,1000,1000,1000,146528865,1000,1000,1000,1000
81993856,1000,1000,1000,1000,146628825,1000,1000,1000,1000
81996355,1000,1000,1000,1000,146728785,1000,1000,1000,1000
81998854,1000,1000,1000,1000,146828745,1000,1000,1000,1000
82001353,1000,1000,1000,1000,146928705,1000,1000,1000,1000
82003852,1000,1000,1000,1000,147028665,1000,1000,1000,1000
82006351,1000,1000,1000,1000,147128625,1000,1000,1000,1000
82008850,1000,1000,1000,1000,147228585,1000,1000,1000,1000
82011349,1000,1000,1000,1000,147328545,1000,1000,1000,1000
82013848,1000,1000,1000,1000,147428505,1000,1000,1000,1000
82016347,1000,1000,1000,1000,147528465,1000,1000,1000,1000
82018846,1000,1000,1000,1000,147628425,1000,1000,1000,1000
82021345,1000,1000,1000,1000,147728385,1000,1000,1000,1000
82023844,1000,1000,1000,1000,147828345,1000,1000,1000,1000
82026343,1000,1000,1000,1000,147928305,1000,1000,1000,1000
82028842,1000,1000,1000,1000,148028265,1000,1000,1000,1000
82031341,1000,1000,1000,1000,148128225,1000,1000,1000,1000
82033840,1000,1000,1000,1000,148228185,1000,1000,1000,1000
82036339,1000,1000,1000,1000,148328978,1000,1000,1000,1000
82038838,1000,1000,1000,1000,148428938,1000,1000,1000,1000
82041337,1000,1000,1000,1000,148528898,1000,1000,1000,1000
82043836,1000,1000,1000,1000,148628858,1000,1000,1000,1000
82046335,1000,1000,1000,1000,148728818,1000,1000,1000,1000
82048834,1000,1000,1000,1000,,,,,
82051333,1000,1000,1000,1000,,,,,
82053832,1000,1000,1000,1000,,,,,
82056331,1000,1000,1000,1000,,,,,
82058830,1000,1000,1000,1000,,,,,
82061329,1000,1000,1000,1000,,,,,
82063828,1000,1000,1000,1000,,,,,
82066327,1000,1000,1000,1000,,,,,
82068826,1000,1000,1000,1000,,,,,
82071325,1000,1000,1000,1000,,,,,
82073824,1000,1000,1000,1000,,,,,
82076323,1000,1000,1000,1000,,,,,
82078822,1000,1000,1000,1000,,,,,
82081321,1000,1000,1000,1000,,,,,
82083820,1000,1000,1000,1000,,,,,
82086319,1000,1000,1000,1000,,,,,
82088818,1000,1000,1000,1000,,,,,
82091317,1000,1000,1000,1000,,,,,
82093816,1000,1000,1000,1000,,,,,
82096315,1000,1000,1000,1000,,,,,
82098814,1000,1000,1000,1000,,,,,
82101313,1000,1000,1000,1000,,,,,
82103812,1000,1000,1000,1000,,,,,
82106311,1000,1000,1000,1000,,,,,
82108810,1000,1000,1000,1000,,,,,
82111309,1000,1000,1000,1000,,,,,
82113808,1000,1000,1000,1000,,,,,
82116307,1000,1000,1000,1000,,,,,
82118806,1000,1000,1000,1000,,,,,
82121305,1000,1000,1000,1000,,,,,
82123804,1000,1000,1000,1000,,,,,
82126303,1000,1000,1000,1000,,,,,
82128802,1000,1000,1000,1000,,,,,
82131301,1000,1000,1000,1000,,,,,
82133800,1000,1000,1000,1000,,,,,
82136299,1000,1000,1000,1000,,,,,
82138798,1000,1000,1000,1000,,,,,
82141297,1000,1000,1000,1000,,,,,
82143796,1000,1000,1000,1000,,,,,
82146295,1000,1000,1000,1000,,,,,
82148794,1000,1000,1000,1000,,,,,
82151293,1000,1000,1000,1000,,,,,
82153792,1000,1000,1000,1000,,,,,
82156291,1000,1000,1000,1000,,,,,
82158790,1000,1000,1000,1000,,,,,
82161289,1000,1000,1000,1000,,,,,
82163788,1000,1000,1000,1000,,,,,
82166287,1000,1000,1000,1000,,,,,
82168786,1000,1000,1000,1000,,,,,
82171285,1000,1000,1000,1000,,,,,
82173784,1000,1000,1000,1000,,,,,
82176283,1000,1000,1000,1000,,,,,
82178782,1000,1000,1000,1000,,,,,
82181281,1000,1000,1000,1000,,,,,
82183780,1000,1000,1000,1000,,,,,
82186279,1000,1000,1000,1000,,,,,
82188778,1000,1000,1000,1000,,,,,
82191277,1000,1000,1000,1000,,,,,
82193776,1000,1000,1000,1000,,,,,
82196275,1000,1000,1000,1000,,,,,
82198774,1000,1000,1000,1000,,,,,
82201273,1000,1000,1000,1000,,,,,
82203772,1000,1000,1000,1000,,,,,
82206271,1000,1000,1000,1000,,,,,
82208770,1000,1000,1000,1000,,,,,
82211269,1000,1000,1000,1000,,,,,
82213768,1000,1000,1000,1000,,,,,
82216267,1000,1000,1000,1000,,,,,
82218766,1000,1000,1000,1000,,,,,
82221265,1000,1000,1000,1000,,,,,
82223764,1000,1000,1000,1000,,,,,
82226263,1000,1000,1000,1000,,,,,
82228762,1000,1000,1000,1000,,,,,
82231261,1000,1000,1000,1000,,,,,
82233760,1000,1000,1000,1000,,,,,
82236259,1000,1000,1000,1000,,,,,
82238758,1000,1000,1000,1000,,,,,
82241257,1000,1000,1000,1000,,,,,
82243756,1000,1000,1000,1000,,,,,
82246255,1000,1000,1000,1000,,,,,
82248754,1000,1000,1000,1000,,,,,
82251253,1000,1000,1000,1000,,,,,
82253752,1000,1000,1000,1000,,,,,
82256251,1000,1000,1000,1000,,,,,
82258750,1000,1000,1000,1000,,,,,
82261249,1000,1000,1000,1000,,,,,
82263748,1000,1000,1000,1000,,,,,
82266247,1000,1000,1000,1000,,,,,
82268746,1000,1000,1000,1000,,,,,
82271245,1000,1000,1000,1000,,,,,
82273744,1000,1000,1000,1000,,,,,
82276243,1000,1000,1000,1000,,,,,
82278742,1000,1000,1000,1000,,,,,
82281241,1000,1000,1000,1000,,,,,
82283740,1000,1000,1000,1000,,,,,
82286239,1000,1000,1000,1000,,,,,
82288738,1000,1000,1000,1000,,,,,
82291237,1000,1000,1000,1000,,,,,
82293736,1000,1000,1000,1000,,,,,
82296235,1000,1000,1000,1000,,,,,
82298734,1000,1000,1000,1000,,,,,
82301233,1000,1000,1000,1000,,,,,
82303732,1000,1000,1000,1000,,,,,
82306231,1000,1000,1000,1000,,,,,
82308730,1000,1000,1000,1000,,,,,
82311229,1000,1000,1000,1000,,,,,
82313728,1000,1000,1000,1000,,,,,
82316227,1000,1000,1000,1000,,,,,
82318726,1000,1000,1000,1000,,,,,
82321225,1000,1000,1000,1000,,,,,
82323724,1000,1000,1000,1000,,,,,
82326223,1000,1000,1000,1000,,,,,
82328722,1000,1000,1000,1000,,,,,
82331221,1000,1000,1000,1000,,,,,
82333720,1000,1000,1000,1000,,,,,
82336219,1000,1000,1000,1000,,,,,
82338718,1000,1000,1000,1000,,,,,
82341217,1000,1000,1000,1000,,,,,
82343716,1000,1000,1000,1000,,,,,
82346215,1001,1001,1001,1001,,,,,
82348714,1002,1002,1002,1002,,,,,
82351213,1003,1003,1003,1003,,,,,
82353712,1003,1003,1003,1003,,,,,
82356211,1004,1004,1004,1004,,,,,
82358710,1005,1005,1005,1005,,,,,
82361209,1006,1006,1006,1006,,,,,
82363708,1006,1006,1006,1006,,,,,
82366207,1007,1007,1007,1007,,,,,
82368706,1008,1008,1008,1008,,,,,
82371205,1009,1009,1009,1009,,,,,
82373704,1009,1009,1009,1009,,,,,
82376203,1010,1010,1010,1010,,,,,
82378702,1011,1011,1011,1011,,,,,
82381201,1012,1012,1012,1012,,,,,
82383700,1012,1012,1012,1012,,,,,
82386199,1013,1013,1013,1013,,,,,
82388698,1014,1014,1014,1014,,,,,
82391197,1015,1015,1015,1015,,,,,
82393696,1015,1015,1015,1015,,,,,
82396195,1016,1016,1016,1016,,,,,
82398694,1017,1017,1017,1017,,,,,
82401193,1018,1018,1018,1018,,,,,
82403692,1018,1018,1018,1018,,,,,
82406191,1019,1019,1019,1019,,,,,
82408690,1020,1020,1020,1020,,,,,
82411189,1021,1021,1021,1021,,,,,
82413688,1021,1021,1021,1021,,,,,
82416187,1022,1022,1022,1022,,,,,
82418686,1023,1023,1023,1023,,,,,
82421185,1024,1024,1024,1024,,,,,
82423684,1024,1024,1024,1024,,,,,
82426183,1025,1025,1025,1025,,,,,
82428682,1026,1026,1026,1026,,,,,
82431181,1027,1027,1027,1027,,,,,
82433680,1027,1027,1027,1027,,,,,
82436179,1028,1028,1028,1028,,,,,
82438678,1029,1029,1029,1029,,,,,
82441177,1030,1030,1030,1030,,,,,
82443676,1030,1030,1030,1030,,,,,
82446175,1031,1031,1031,1031,,,,,
82448674,1032,1032,1032,1032,,,,,
82451173,1033,1033,1033,1033,,,,,
82453672,1033,1033,1033,1033,,,,,
82456171,1034,1034,1034,1034,,,,,
82458670,1035,1035,1035,1035,,,,,
82461169,1036,1036,1036,1036,,,,,
82463668,1036,1036,1036,1036,,,,,
82466167,1037,1037,1037,1037,,,,,
82468666,1038,1038,1038,1038,,,,,
82471165,1039,1039,1039,1039,,,,,
82473664,1039,1039,1039,1039,,,,,
82476163,1040,1040,1040,1040,,,,,
82478662,1041,1041,1041,1041,,,,,
82481161,1042,1042,1042,1042,,,,,
82483660,1042,1042,1042,1042,,,,,
82486159,1043,1043,1043,1043,,,,,
82488658,1044,1044,1044,1044,,,,,
82491157,1045,1045,1045,1045,,,,,
82493656,1045,1045,1045,1045,,,,,
82496155,1046,1046,1046,1046,,,,,
82498654,1047,1047,1047,1047,,,,,
82501153,1048,1048,1048,1048,,,,,
82503652,1048,1048,1048,1048,,,,,
82506151,1049,1049,1049,1049,,,,,
82508650,1050,1050,1050,1050,,,,,
82511149,1051,1051,1051,1051,,,,,
82513648,1051,1051,1051,1051,,,,,
82516147,1052,1052,1052,1052,,,,,
82518646,1053,1053,1053,1053,,,,,
82521145,1054,1054,1054,1054,,,,,
82523644,1054,1054,1054,1054,,,,,
82526143,1055,1055,1055,1055,,,,,
82528642,1056,1056,1056,1056,,,,,
82531141,1057,1057,1057,1057,,,,,
82533640,1057,1057,1057,1057,,,,,
82536139,1058,1058,1058,1058,,,,,
82538638,1059,1059,1059,1059,,,,,
82541137,1060,1060,1060,1060,,,,,
82543636,1060,1060,1060,1060,,,,,
82546135,1061,1061,1061,1061,,,,,
82548634,1062,1062,1062,1062,,,,,
82551133,1063,1063,1063,1063,,,,,
82553632,1063,1063,1063,1063,,,,,
82556131,1064,1064,1064,1064,,,,,
82558630,1065,1065,1065,1065,,,,,
82561129,1066,1066,1066,1066,,,,,
82563628,1066,1066,1066,1066,,,,,
82566127,1067,1067,1067,1067,,,,,
82568626,1068,1068,1068,1068,,,,,
82571125,1069,1069,1069,1069,,,,,
82573624,1069,1069,1069,1069,,,,,
82576123,1070,1070,1070,1070,,,,,
82578622,1071,1071,1071,1071,,,,,
82581121,1072,1072,1072,1072,,,,,
82583620,1072,1072,1072,1072,,,,,
82586119,1073,1073,1073,1073,,,,,
82588618,1074,1074,1074,1074,,,,,
82591117,1075,1075,1075,1075,,,,,
82593616,1075,1075,1075,1075,,,,,
82596115,1076,1076,1076,1076,,,,,
82598614,1077,1077,1077,1077,,,,,
82601113,1078,1078,1078,1078,,,,,
82603612,1078,1078,1078,1078,,,,,
82606111,1079,1079,1079,1079,,,,,
82608610,1080,1080,1080,1080,,,,,
82611109,1081,1081,1081,1081,,,,,
82613608,1081,1081,1081,1081,,,,,
82616107,1082,1082,1082,1082,,,,,
82618606,1083,1083,1083,1083,,,,,
82621105,1084,1084,1084,1084,,,,,
82623604,1084,1084,1084,1084,,,,,
82626103,1085,1085,1085,1085,,,,,
82628602,1086,1086,1086,1086,,,,,
82631101,1087,1087,1087,1087,,,,,
82633600,1087,1087,1087,1087,,,,,
82636099,1088,1088,1088,1088,,,,,
82638598,1089,1089,1089,1089,,,,,
82641097,1090,1090,1090,1090,,,,,
82643596,1090,1090,1090,1090,,,,,
82646095,1091,1091,1091,1091,,,,,
82648594,1092,1092,1092,1092,,,,,
82651093,1093,1093,1093,1093,,,,,
82653592,1093,1093,1093,1093,,,,,
82656091,1094,1094,1094,1094,,,,,
82658590,1095,1095,1095,1095,,,,,
82661089,1096,1096,1096,1096,,,,,
82663588,1096,1096,1096,1096,,,,,
82666087,1097,1097,1097,1097,,,,,
82668586,1098,1098,1098,1098,,,,,
82671085,1099,1099,1099,1099,,,,,
82673584,1099,1099,1099,1099,,,,,
82676083,1100,1100,1100,1100,,,,,
82678582,1101,1101,1101,1101,,,,,
82681081,1101,1101,1101,1101,,,,,
82683580,1102,1102,1102,1102,,,,,
82686079,1103,1103,1103,1103,,,,,
82688578,1104,1104,1104,1104,,,,,
82691077,1104,1104,1104,1104,,,,,
82693576,1105,1105,1105,1105,,,,,
82696075,1106,1106,1106,1106,,,,,
82698574,1107,1107,1107,1107,,,,,
82701073,1107,1107,1107,1107,,,,,
82703572,1108,1108,1108,1108,,,,,
82706071,1109,1109,1109,1109,,,,,
82708570,1110,1110,1110,1110,,,,,
82711069,1110,1110,1110,1110,,,,,
82713568,1111,1111,1111,1111,,,,,
82716067,1112,1112,1112,1112,,,,,
82718566,1113,1113,1113,1113,,,,,
82721065,1113,1113,1113,1113,,,,,
82723564,1114,1114,1114,1114,,,,,
82726063,1115,1115,1115,1115,,,,,
82728562,1116,1116,1116,1116,,,,,
82731061,1116,1116,1116,1116,,,,,
82733560,1117,1117,1117,1117,,,,,
82736059,1118,1118,1118,1118,,,,,
82738558,1119,1119,1119,1119,,,,,
82741057,1119,1119,1119,1119,,,,,
82743556,1120,1120,1120,1120,,,,,
82746055,1121,1121,1121,1121,,,,,
82748554,1122,1122,1122,1122,,,,,
82751053,1122,1122,1122,1122,,,,,
82753552,1123,1123,1123,1123,,,,,
82756051,1124,1124,1124,1124,,,,,
82758550,1125,1125,1125,1125,,,,,
82761049,1125,1125,1125,1125,,,,,
82763548,1126,1126,1126,1126,,,,,
82766047,1127,1127,1127,1127,,,,,
82768546,1128,1128,1128,1128,,,,,
82771045,1128,1128,1128,1128,,,,,
82773544,1129,1129,1129,1129,,,,,
82776043,1130,1130,1130,1130,,,,,
82778542,1131,1131,1131,1131,,,,,
82781041,1131,1131,1131,1131,,,,,
82783540,1132,1132,1132,1132,,,,,
82786039,1133,1133,1133,1133,,,,,
82788538,1134,1134,1134,1134,,,,,
82791037,1134,1134,1134,1134,,,,,
82793536,1135,1135,1135,1135,,,,,
82796035,1136,1136,1136,1136,,,,,
82798534,1137,1137,1137,1137,,,,,
82801033,1137,1137,1137,1137,,,,,
82803532,1138,1138,1138,1138,,,,,
82806031,1139,1139,1139,1139,,,,,
82808530,1140,1140,1140,1140,,,,,
82811029,1140,1140,1140,1140,,,,,
82813528,1141,1141,1141,1141,,,,,
82816027,1142,1142,1142,1142,,,,,
82818526,1143,1143,1143,1143,,,,,
82821025,1143,1143,1143,1143,,,,,
82823524,1144,1144,1144,1144,,,,,
82826023,1145,1145,1145,1145,,,,,
82828522,1146,1146,1146,1146,,,,,
82831021,1146,1146,1146,1146,,,,,
82833520,1147,1147,1147,1147,,,,,
82836019,1148,1148,1148,1148,,,,,
82838518,1149,1149,1149,1149,,,,,
82841017,1149,1149,1149,1149,,,,,
82843516,1150,1150,1150,1150,,,,,
82846015,1164,1151,1152,1164,,,,,
82848514,1172,1159,1160,1172,,,,,
82851013,1179,1167,1168,1180,,,,,
82853512,1187,1175,1176,1188,,,,,
82856011,1195,1183,1184,1195,,,,,
82858510,1202,1190,1191,1203,,,,,
82861009,1209,1198,1199,1210,,,,,
82863508,1217,1205,1206,1217,,,,,
82866007,1224,1212,1213,1224,,,,,
82868506,1231,1219,1220,1231,,,,,
82871005,1237,1226,1227,1238,,,,,
82873504,1244,1233,1234,1245,,,,,
82876003,1251,1240,1241,1251,,,,,
82878502,1258,1247,1247,1258,,,,,
82881001,1264,1253,1254,1265,,,,,
82883500,1270,1260,1261,1271,,,,,
82885999,1277,1266,1267,1277,,,,,
82888498,1283,1273,1273,1284,,,,,
82890997,1289,1279,1280,1290,,,,,
82893496,1295,1285,1286,1296,,,,,
82895995,1301,1291,1292,1302,,,,,
82898494,1307,1297,1298,1308,,,,,
82900993,1313,1303,1304,1314,,,,,
82903492,1319,1309,1310,1320,,,,,
82905991,1325,1315,1316,1326,,,,,
82908490,1331,1321,1322,1331,,,,,
82910989,1337,1327,1327,1337,,,,,
82913488,1342,1332,1333,1343,,,,,
82915987,1348,1338,1339,1348,,,,,
82918486,1353,1344,1344,1354,,,,,
82920985,1359,1349,1350,1359,,,,,
82923484,1364,1355,1355,1365,,,,,
82925983,1370,1360,1361,1370,,,,,
82928482,1375,1365,1366,1375,,,,,
82930981,1380,1371,1372,1381,,,,,
82933480,1386,1376,1377,1386,,,,,
82935979,1391,1381,1382,1391,,,,,
82938478,1396,1387,1387,1396,,,,,
82940977,1401,1392,1392,1401,,,,,
82943476,1406,1397,1398,1407,,,,,
82945975,1411,1402,1403,1412,,,,,
82948474,1416,1407,1408,1417,,,,,
82950973,1421,1412,1413,1422,,,,,
82953472,1426,1417,1418,1426,,,,,
82955971,1431,1422,1423,1431,,,,,
82958470,1436,1427,1428,1436,,,,,
82960969,1441,1432,1432,1441,,,,,
82963468,1445,1437,1437,1446,,,,,
82965967,1450,1442,1442,1451,,,,,
82968466,1455,1446,1447,1455,,,,,
82970965,1460,1451,1452,1460,,,,,
82973464,1464,1456,1456,1465,,,,,
82975963,1469,1461,1461,1469,,,,,
82978462,1473,1465,1466,1474,,,,,
82980961,1478,1470,1470,1478,,,,,
82983460,1483,1474,1475,1483,,,,,
82985959,1487,1479,1479,1488,,,,,
82988458,1492,1483,1484,1492,,,,,
82990957,1496,1488,1488,1496,,,,,
82993456,1501,1492,1493,1501,,,,,
82995955,1505,1497,1497,1505,,,,,
82998454,1509,1501,1502,1510,,,,,
83000953,1514,1506,1506,1514,,,,,
83003452,1518,1510,1511,1518,,,,,
83005951,1522,1514,1515,1523,,,,,
83008450,1527,1519,1519,1527,,,,,
83010949,1531,1523,1524,1531,,,,,
83013448,1535,1527,1528,1536,,,,,
83015947,1539,1532,1532,1540,,,,,
83018446,1544,1536,1536,1544,,,,,
83020945,1548,1540,1540,1548,,,,,
83023444,1552,1544,1545,1552,,,,,
83025943,1556,1548,1549,1556,,,,,
83028442,1560,1552,1553,1561,,,,,
83030941,1564,1557,1557,1565,,,,,
83033440,1568,1561,1561,1569,,,,,
83035939,1572,1565,1565,1573,,,,,
83038438,1576,1569,1569,1577,,,,,
83040937,1580,1573,1573,1581,,,,,
83043436,1584,1577,1577,1585,,,,,
83045935,1588,1581,1581,1589,,,,,
83048434,1592,1585,1585,1593,,,,,
83050933,1596,1589,1589,1597,,,,,
83053432,1600,1593,1593,1601,,,,,
83055931,1604,1597,1597,1604,,,,,
83058430,1608,1601,1601,1608,,,,,
83060929,1612,1604,1605,1612,,,,,
83063428,1616,1608,1609,1616,,,,,
83065927,1619,1612,1613,1620,,,,,
83068426,1623,1616,1616,1624,,,,,
83070925,1627,1620,1620,1628,,,,,
83073424,1631,1624,1624,1631,,,,,
83075923,1635,1627,1628,1635,,,,,
83078422,1638,1631,1631,1639,,,,,
83080921,1642,1635,1635,1643,,,,,
83083420,1646,1639,1639,1646,,,,,
83085919,1650,1642,1643,1650,,,,,
83088418,1653,1646,1646,1654,,,,,
83090917,1657,1650,1650,1657,,,,,
83093416,1661,1653,1654,1661,,,,,
83095915,1664,1657,1657,1665,,,,,
83098414,1668,1661,1661,1668,,,,,
83100913,1671,1664,1665,1672,,,,,
83103412,1675,1668,1668,1675,,,,,
83105911,1679,1672,1672,1679,,,,,
83108410,1682,1675,1675,1683,,,,,
83110909,1686,1679,1679,1686,,,,,
83113408,1689,1682,1683,1690,,,,,
83115907,1693,1686,1686,1693,,,,,
83118406,1696,1689,1690,1697,,,,,
83120905,1700,1693,1693,1700,,,,,
83123404,1703,1696,1697,1704,,,,,
83125903,1707,1700,1700,1707,,,,,
83128402,1710,1703,1704,1711,,,,,
83130901,1714,1707,1707,1714,,,,,
83133400,1717,1710,1711,1718,,,,,
83135899,1721,1714,1714,1721,,,,,
83138398,1724,1717,1717,1724,,,,,
83140897,1727,1721,1721,1728,,,,,
83143396,1731,1724,1724,1731,,,,,
83145895,1734,1727,1728,1735,,,,,
83148394,1737,1731,1731,1738,,,,,
83150893,1741,1734,1735,1741,,,,,
83153392,1744,1738,1738,1745,,,,,
83155891,1747,1741,1741,1748,,,,,
83158390,1751,1744,1745,1751,,,,,
83160889,1754,1748,1748,1755,,,,,
83163388,1757,1751,1751,1758,,,,,
83165887,1761,1754,1755,1761,,,,,
83168386,1764,1758,1758,1764,,,,,
83170885,1767,1761,1761,1768,,,,,
83173384,1770,1764,1764,1771,,,,,
83175883,1774,1767,1768,1774,,,,,
83178382,1777,1771,1771,1777,,,,,
83180881,1780,1774,1774,1781,,,,,
83183380,1783,1777,1777,1784,,,,,
83185879,1787,1780,1781,1787,,,,,
83188378,1790,1784,1784,1790,,,,,
83190877,1793,1787,1787,1793,,,,,
83193376,1796,1790,1790,1797,,,,,
83195875,1799,1793,1793,1800,,,,,
83198374,1803,1796,1797,1803,,,,,
83200873,1806,1799,1800,1806,,,,,
83203372,1809,1803,1803,1809,,,,,
83205871,1812,1806,1806,1812,,,,,
83208370,1815,1809,1809,1816,,,,,
83210869,1818,1812,1812,1819,,,,,
83213368,1821,1815,1815,1822,,,,,
83215867,1824,1818,1818,1825,,,,,
83218366,1828,1821,1821,1828,,,,,
83220865,1831,1824,1824,1831,,,,,
83223364,1834,1827,1828,1834,,,,,
83225863,1837,1830,1831,1837,,,,,
83228362,1840,1834,1834,1841,,,,,
83230861,1843,1837,1837,1844,,,,,
83233360,1846,1840,1840,1847,,,,,
83235859,1849,1843,1843,1850,,,,,
83238358,1852,1846,1846,1853,,,,,
83240857,1855,1849,1849,1856,,,,,
83243356,1858,1852,1852,1859,,,,,
83245855,1861,1855,1855,1862,,,,,
83248354,1864,1858,1858,1865,,,,,
83250853,1867,1861,1861,1868,,,,,
83253352,1870,1864,1864,1871,,,,,
83255851,1873,1866,1867,1874,,,,,
83258350,1876,1869,1870,1877,,,,,
83260849,1879,1872,1873,1880,,,,,
83263348,1882,1875,1875,1882,,,,,
83265847,1885,1878,1878,1885,,,,,
83268346,1888,1881,1881,1888,,,,,
83270845,1891,1884,1884,1891,,,,,
83273344,1891,1884,1884,1891,,,,,
83275843,1890,1883,1883,1890,,,,,
83278342,1889,1882,1882,1889,,,,,
83280841,1888,1881,1881,1888,,,,,
83283340,1887,1880,1880,1887,,,,,
83285839,1886,1879,1879,1886,,,,,
83288338,1885,1878,1878,1885,,,,,
83290837,1884,1877,1878,1885,,,,,
83293336,1884,1876,1877,1884,,,,,
83295835,1883,1876,1876,1883,,,,,
83298334,1882,1875,1875,1883,,,,,
83300833,1882,1874,1875,1882,,,,,
83303332,1881,1874,1874,1882,,,,,
83305831,1881,1873,1874,1881,,,,,
83308330,1880,1873,1873,1881,,,,,
83310829,1880,1873,1873,1880,,,,,
83313328,1880,1873,1873,1880,,,,,
83315827,1880,1872,1873,1880,,,,,
83318326,1880,1872,1873,1880,,,,,
83320825,1880,1872,1873,1880,,,,,
83323324,1880,1873,1873,1880,,,,,
83325823,1880,1873,1873,1880,,,,,
83328322,1880,1873,1873,1881,,,,,
83330821,1881,1873,1874,1881,,,,,
83333320,1881,1874,1874,1881,,,,,
83335819,1881,1874,1875,1882,,,,,
83338318,1882,1875,1875,1882,,,,,
83340817,1882,1875,1876,1883,,,,,
83343316,1883,1876,1876,1883,,,,,
83345815,1883,1877,1877,1883,,,,,
83348314,1883,1877,1877,1884,,,,,
83350813,1883,1878,1878,1884,,,,,
83353312,1883,1878,1878,1884,,,,,
83355811,1883,1878,1878,1884,,,,,
83358310,1883,1878,1878,1884,,,,,
83360809,1883,1878,1878,1883,,,,,
83363308,1882,1878,1878,1883,,,,,
83365807,1882,1877,1877,1882,,,,,
83368306,1881,1876,1877,1881,,,,,
83370805,1880,1876,1876,1880,,,,,
83373304,1879,1874,1875,1879,,,,,
83375803,1877,1873,1873,1878,,,,,
83378302,1876,1872,1872,1876,,,,,
83380801,1874,1870,1871,1875,,,,,
83383300,1873,1868,1869,1873,,,,,
83385799,1871,1867,1867,1871,,,,,
83388298,1869,1865,1865,1869,,,,,
83390797,1866,1863,1863,1867,,,,,
83393296,1864,1860,1861,1865,,,,,
83395795,1862,1858,1858,1862,,,,,
83398294,1859,1856,1856,1860,,,,,
83400793,1857,1853,1853,1857,,,,,
83403292,1854,1850,1851,1855,,,,,
83405791,1851,1848,1848,1852,,,,,
83408290,1848,1845,1845,1849,,,,,
83410789,1846,1842,1843,1846,,,,,
83413288,1843,1839,1840,1843,,,,,
83415787,1840,1836,1837,1840,,,,,
83418286,1836,1833,1834,1837,,,,,
83420785,1833,1830,1831,1834,,,,,
83423284,1830,1827,1828,1831,,,,,
83425783,1827,1824,1824,1827,,,,,
83428282,1824,1821,1821,1824,,,,,
83430781,1820,1818,1818,1821,,,,,
83433280,1817,1815,1815,1818,,,,,
83435779,1814,1811,1812,1814,,,,,
83438278,1810,1808,1808,1811,,,,,
83440777,1807,1805,1805,1807,,,,,
83443276,1803,1801,1802,1804,,,,,
83445775,1800,1798,1798,1801,,,,,
83448274,1797,1795,1795,1797,,,,,
83450773,1793,1791,1792,1794,,,,,
83453272,1790,1788,1788,1790,,,,,
83455771,1786,1785,1785,1787,,,,,
83458270,1783,1781,1781,1783,,,,,
83460769,1779,1778,1778,1780,,,,,
83463268,1775,1774,1774,1776,,,,,
83465767,1772,1771,1771,1773,,,,,
83468266,1769,1767,1767,1769,,,,,
83470765,1765,1764,1764,1766,,,,,
83473264,1762,1761,1761,1762,,,,,
83475763,1758,1757,1757,1759,,,,,
83478262,1755,1754,1754,1755,,,,,
83480761,1752,1751,1751,1752,,,,,
83483260,1748,1747,1748,1749,,,,,
83485759,1745,1744,1744,1745,,,,,
83488258,1742,1741,1741,1742,,,,,
83490757,1739,1738,1738,1739,,,,,
83493256,1735,1735,1735,1736,,,,,
83495755,1732,1732,1732,1733,,,,,
83498254,1729,1729,1729,1730,,,,,
83500753,1726,1726,1726,1727,,,,,
