timestamp,TimeUS,C1,C2,C3,C4,C5,C6,C7,C8,C9,C10,C11,C12,C13,C14
1682957928.30004001,59928519,1000,1000,1000,1000,0,0,0,0,0,0,0,0,0,0
1682957928.40000010,60028479,1000,1000,1000,1000,0,0,0,0,0,0,0,0,0,0
1682957928.49995995,60128439,1000,1000,1000,1000,0,0,0,0,0,0,0,0,0,0
1682957928.59992003,60228399,1000,1000,1000,1000,0,0,0,0,0,0,0,0,0,0
1682957928.69987988,60328359,1000,1000,1000,1000,0,0,0,0,0,0,0,0,0,0
1682957928.79983997,60428319,1000,1000,1000,1000,0,0,0,0,0,0,0,0,0,0
1682957928.89980006,60528279,1000,1000,1000,1000,0,0,0,0,0,0,0,0,0,0
1682957928.99975991,60628239,1000,1000,1000,1000,0,0,0,0,0,0,0,0,0,0
1682957929.09972000,60728199,1000,1000,1000,1000,0,0,0,0,0,0,0,0,0,0
1682957929.19968009,60828159,1000,1000,1000,1000,0,0,0,0,0,0,0,0,0,0
1682957929.30047297,60928952,1000,1000,1000,1000,0,0,0,0,0,0,0,0,0,0
1682957929.40043306,61028912,1000,1000,1000,1000,0,0,0,0,0,0,0,0,0,0
1682957929.50039291,61128872,1000,1000,1000,1000,0,0,0,0,0,0,0,0,0,0
1682957929.60035300,61228832,1000,1000,1000,1000,0,0,0,0,0,0,0,0,0,0
1682957929.70031309,61328792,1000,1000,1000,1000,0,0,0,0,0,0,0,0,0,0
1682957929.80027294,61428752,1000,1000,1000,1000,0,0,0,0,0,0,0,0,0,0
1682957929.90023303,61528712,1000,1000,1000,1000,0,0,0,0,0,0,0,0,0,0
1682957930.00019288,61628672,1000,1000,1000,1000,0,0,0,0,0,0,0,0,0,0
1682957930.10015297,61728632,1000,1000,1000,1000,0,0,0,0,0,0,0,0,0,0
1682957930.20011306,61828592,1000,1000,1000,1000,0,0,0,0,0,0,0,0,0,0
1682957930.30007291,61928552,1024,1024,1024,1024,0,0,0,0,0,0,0,0,0,0
1682957930.40003300,62028512,1054,1054,1054,1054,0,0,0,0,0,0,0,0,0,0
1682957930.49999309,62128472,1084,1084,1084,1084,0,0,0,0,0,0,0,0,0,0
1682957930.59995294,62228432,1114,1114,1114,1114,0,0,0,0,0,0,0,0,0,0
1682957930.69991302,62328392,1144,1144,1144,1144,0,0,0,0,0,0,0,0,0,0
1682957930.79987311,62428352,1363,1356,1357,1363,0,0,0,0,0,0,0,0,0,0
1682957930.89983296,62528312,1551,1545,1546,1551,0,0,0,0,0,0,0,0,0,0
1682957930.99979305,62628272,1703,1697,1698,1703,0,0,0,0,0,0,0,0,0,0
1682957931.09975290,62728232,1833,1828,1828,1834,0,0,0,0,0,0,0,0,0,0
1682957931.19971299,62828192,1914,1908,1909,1914,0,0,0,0,0,0,0,0,0,0
1682957931.30050611,62928985,1848,1846,1846,1848,0,0,0,0,0,0,0,0,0,0
1682957931.40046597,63028945,1721,1719,1718,1722,0,0,0,0,0,0,0,0,0,0
1682957931.50042605,63128905,1643,1645,1641,1648,0,0,0,0,0,0,0,0,0,0
1682957931.60038590,63228865,1628,1630,1626,1632,0,0,0,0,0,0,0,0,0,0
1682957931.70034599,63328825,1634,1636,1634,1636,0,0,0,0,0,0,0,0,0,0
1682957931.80030608,63428785,1638,1639,1640,1637,0,0,0,0,0,0,0,0,0,0
1682957931.90026593,63528745,1635,1635,1637,1633,0,0,0,0,0,0,0,0,0,0
1682957932.00022602,63628705,1628,1627,1630,1625,0,0,0,0,0,0,0,0,0,0
1682957932.10018611,63728665,1622,1621,1624,1619,0,0,0,0,0,0,0,0,0,0
1682957932.20014596,63828625,1618,1617,1619,1616,0,0,0,0,0,0,0,0,0,0
1682957932.30010605,63928585,1618,1617,1618,1617,0,0,0,0,0,0,0,0,0,0
1682957932.40006590,64028545,1592,1591,1597,1586,0,0,0,0,0,0,0,0,0,0
1682957932.50002599,64128505,1575,1576,1582,1569,0,0,0,0,0,0,0,0,0,0
1682957932.59998608,64228465,1563,1564,1566,1562,0,0,0,0,0,0,0,0,0,0
1682957932.69994593,64328425,1555,1555,1553,1557,0,0,0,0,0,0,0,0,0,0
1682957932.79990602,64428385,1547,1547,1542,1552,0,0,0,0,0,0,0,0,0,0
1682957932.89986610,64528345,1541,1540,1533,1549,0,0,0,0,0,0,0,0,0,0
1682957932.99982595,64628305,1536,1535,1528,1542,0,0,0,0,0,0,0,0,0,0
1682957933.09978604,64728265,1530,1530,1526,1534,0,0,0,0,0,0,0,0,0,0
1682957933.19974589,64828225,1526,1526,1525,1527,0,0,0,0,0,0,0,0,0,0
1682957933.29970598,64928185,1525,1525,1526,1524,0,0,0,0,0,0,0,0,0,0
1682957933.40049911,65028978,1527,1527,1530,1525,0,0,0,0,0,0,0,0,0,0
1682957933.50045896,65128938,1531,1531,1534,1529,0,0,0,0,0,0,0,0,0,0
1682957933.60041904,65228898,1534,1534,1537,1532,0,0,0,0,0,0,0,0,0,0
1682957933.70037889,65328858,1538,1538,1540,1537,0,0,0,0,0,0,0,0,0,0
1682957933.80033898,65428818,1541,1542,1543,1541,0,0,0,0,0,0,0,0,0,0
1682957933.90029907,65528778,1545,1545,1545,1545,0,0,0,0,0,0,0,0,0,0
1682957934.00025892,65628738,1548,1548,1548,1548,0,0,0,0,0,0,0,0,0,0
1682957934.10021901,65728698,1551,1551,1550,1552,0,0,0,0,0,0,0,0,0,0
1682957934.20017910,65828658,1553,1553,1552,1554,0,0,0,0,0,0,0,0,0,0
1682957934.30013895,65928618,1556,1555,1555,1558,0,0,0,0,0,0,0,0,0,0
1682957934.40009904,66028578,1554,1554,1559,1561,0,0,0,0,0,0,0,0,0,0
1682957934.50005889,66128538,1557,1557,1563,1565,0,0,0,0,0,0,0,0,0,0
1682957934.60001898,66228498,1558,1559,1564,1564,0,0,0,0,0,0,0,0,0,0
1682957934.69997907,66328458,1561,1561,1565,1565,0,0,0,0,0,0,0,0,0,0
1682957934.79993892,66428418,1563,1564,1565,1565,0,0,0,0,0,0,0,0,0,0
1682957934.89989901,66528378,1566,1566,1566,1565,0,0,0,0,0,0,0,0,0,0
1682957934.99985909,66628338,1568,1568,1566,1566,0,0,0,0,0,0,0,0,0,0
1682957935.09981894,66728298,1569,1569,1566,1566,0,0,0,0,0,0,0,0,0,0
1682957935.19977903,66828258,1572,1572,1568,1568,0,0,0,0,0,0,0,0,0,0
1682957935.29973888,66928218,1573,1573,1568,1569,0,0,0,0,0,0,0,0,0,0
1682957935.39969897,67028178,1572,1572,1568,1568,0,0,0,0,0,0,0,0,0,0
1682957935.50049210,67128971,1573,1574,1570,1570,0,0,0,0,0,0,0,0,0,0
1682957935.60045195,67228931,1574,1574,1571,1571,0,0,0,0,0,0,0,0,0,0
1682957935.70041203,67328891,1575,1575,1574,1573,0,0,0,0,0,0,0,0,0,0
1682957935.80037189,67428851,1574,1575,1575,1573,0,0,0,0,0,0,0,0,0,0
1682957935.90033197,67528811,1574,1575,1575,1574,0,0,0,0,0,0,0,0,0,0
1682957936.00029206,67628771,1575,1576,1577,1575,0,0,0,0,0,0,0,0,0,0
1682957936.10025191,67728731,1576,1575,1576,1577,0,0,0,0,0,0,0,0,0,0
1682957936.20021200,67828691,1576,1576,1577,1577,0,0,0,0,0,0,0,0,0,0
1682957936.30017209,67928651,1575,1575,1576,1577,0,0,0,0,0,0,0,0,0,0
1682957936.40013194,68028611,1575,1575,1577,1576,0,0,0,0,0,0,0,0,0,0
1682957936.50009203,68128571,1576,1576,1577,1577,0,0,0,0,0,0,0,0,0,0
1682957936.60005188,68228531,1576,1576,1577,1577,0,0,0,0,0,0,0,0,0,0
1682957936.70001197,68328491,1577,1577,1577,1577,0,0,0,0,0,0,0,0,0,0
1682957936.79997206,68428451,1578,1578,1578,1577,0,0,0,0,0,0,0,0,0,0
1682957936.89993191,68528411,1578,1578,1578,1577,0,0,0,0,0,0,0,0,0,0
1682957936.99989200,68628371,1578,1578,1578,1577,0,0,0,0,0,0,0,0,0,0
1682957937.09985209,68728331,1578,1579,1578,1578,0,0,0,0,0,0,0,0,0,0
1682957937.19981194,68828291,1579,1579,1578,1578,0,0,0,0,0,0,0,0,0,0
1682957937.29977202,68928251,1578,1578,1577,1577,0,0,0,0,0,0,0,0,0,0
1682957937.39973211,69028211,1578,1578,1578,1578,0,0,0,0,0,0,0,0,0,0
1682957937.49969196,69128171,1578,1578,1578,1578,0,0,0,0,0,0,0,0,0,0
1682957937.60048509,69228964,1579,1579,1579,1579,0,0,0,0,0,0,0,0,0,0
1682957937.70044494,69328924,1580,1580,1580,1580,0,0,0,0,0,0,0,0,0,0
1682957937.80040503,69428884,1579,1580,1580,1580,0,0,0,0,0,0,0,0,0,0
1682957937.90036511,69528844,1580,1580,1580,1580,0,0,0,0,0,0,0,0,0,0
1682957938.00032496,69628804,1580,1580,1581,1580,0,0,0,0,0,0,0,0,0,0
1682957938.10028505,69728764,1580,1580,1580,1580,0,0,0,0,0,0,0,0,0,0
1682957938.20024490,69828724,1579,1580,1580,1580,0,0,0,0,0,0,0,0,0,0
1682957938.30020499,69928684,1579,1579,1579,1579,0,0,0,0,0,0,0,0,0,0
1682957938.40016508,70028644,1580,1580,1581,1580,0,0,0,0,0,0,0,0,0,0
1682957938.50012493,70128604,1580,1580,1580,1581,0,0,0,0,0,0,0,0,0,0
1682957938.60008502,70228564,1579,1579,1580,1580,0,0,0,0,0,0,0,0,0,0
1682957938.70004511,70328524,1580,1579,1579,1579,0,0,0,0,0,0,0,0,0,0
1682957938.80000496,70428484,1580,1579,1580,1580,0,0,0,0,0,0,0,0,0,0
1682957938.89996505,70528444,1580,1580,1580,1580,0,0,0,0,0,0,0,0,0,0
1682957938.99992490,70628404,1580,1580,1580,1579,0,0,0,0,0,0,0,0,0,0
1682957939.09988499,70728364,1580,1580,1580,1580,0,0,0,0,0,0,0,0,0,0
1682957939.19984508,70828324,1581,1580,1580,1580,0,0,0,0,0,0,0,0,0,0
1682957939.29980493,70928284,1581,1581,1581,1581,0,0,0,0,0,0,0,0,0,0
1682957939.39976501,71028244,1580,1580,1580,1580,0,0,0,0,0,0,0,0,0,0
1682957939.49972510,71128204,1581,1581,1581,1581,0,0,0,0,0,0,0,0,0,0
1682957939.59968495,71228164,1581,1581,1581,1581,0,0,0,0,0,0,0,0,0,0
1682957939.70047808,71328957,1581,1581,1581,1581,0,0,0,0,0,0,0,0,0,0
1682957939.80043793,71428917,1581,1581,1581,1582,0,0,0,0,0,0,0,0,0,0
1682957939.90039802,71528877,1581,1581,1581,1581,0,0,0,0,0,0,0,0,0,0
1682957940.00035810,71628837,1581,1581,1581,1581,0,0,0,0,0,0,0,0,0,0
1682957940.10031796,71728797,1581,1581,1582,1581,0,0,0,0,0,0,0,0,0,0
1682957940.20027804,71828757,1582,1582,1582,1582,0,0,0,0,0,0,0,0,0,0
1682957940.30023789,71928717,1582,1582,1582,1582,0,0,0,0,0,0,0,0,0,0
1682957940.40019798,72028677,1582,1582,1582,1582,0,0,0,0,0,0,0,0,0,0
1682957940.50015807,72128637,1582,1582,1584,1580,0,0,0,0,0,0,0,0,0,0
1682957940.60011792,72228597,1581,1583,1589,1574,0,0,0,0,0,0,0,0,0,0
1682957940.70007801,72328557,1580,1582,1583,1574,0,0,0,0,0,0,0,0,0,0
1682957940.80003810,72428517,1579,1582,1575,1574,0,0,0,0,0,0,0,0,0,0
1682957940.89999795,72528477,1577,1579,1565,1570,0,0,0,0,0,0,0,0,0,0
1682957940.99995804,72628437,1577,1579,1560,1567,0,0,0,0,0,0,0,0,0,0
1682957941.09991789,72728397,1577,1577,1555,1561,0,0,0,0,0,0,0,0,0,0
1682957941.19987798,72828357,1578,1577,1554,1557,0,0,0,0,0,0,0,0,0,0
1682957941.29983807,72928317,1579,1577,1555,1554,0,0,0,0,0,0,0,0,0,0
1682957941.39979792,73028277,1579,1577,1556,1554,0,0,0,0,0,0,0,0,0,0
1682957941.49975801,73128237,1577,1577,1555,1553,0,0,0,0,0,0,0,0,0,0
1682957941.59971809,73228197,1576,1577,1555,1553,0,0,0,0,0,0,0,0,0,0
1682957941.69967794,73328157,1575,1577,1555,1553,0,0,0,0,0,0,0,0,0,0
1682957941.80047107,73428950,1574,1576,1554,1553,0,0,0,0,0,0,0,0,0,0
1682957941.90043092,73528910,1574,1576,1553,1553,0,0,0,0,0,0,0,0,0,0
1682957942.00039101,73628870,1575,1577,1551,1551,0,0,0,0,0,0,0,0,0,0
1682957942.10035110,73728830,1577,1578,1550,1550,0,0,0,0,0,0,0,0,0,0
1682957942.20031095,73828790,1578,1580,1546,1547,0,0,0,0,0,0,0,0,0,0
1682957942.30027103,73928750,1582,1583,1545,1545,0,0,0,0,0,0,0,0,0,0
1682957942.40023088,74028710,1585,1586,1543,1542,0,0,0,0,0,0,0,0,0,0
1682957942.50019097,74128670,1589,1589,1540,1540,0,0,0,0,0,0,0,0,0,0
1682957942.60015106,74228630,1592,1592,1538,1537,0,0,0,0,0,0,0,0,0,0
1682957942.70011091,74328590,1595,1594,1536,1536,0,0,0,0,0,0,0,0,0,0
1682957942.80007100,74428550,1595,1595,1534,1535,0,0,0,0,0,0,0,0,0,0
1682957942.90003109,74528510,1597,1596,1536,1538,0,0,0,0,0,0,0,0,0,0
1682957942.99999094,74628470,1595,1596,1538,1540,0,0,0,0,0,0,0,0,0,0
1682957943.09995103,74728430,1592,1592,1540,1543,0,0,0,0,0,0,0,0,0,0
1682957943.19991088,74828390,1587,1586,1546,1549,0,0,0,0,0,0,0,0,0,0
1682957943.29987097,74928350,1581,1578,1555,1558,0,0,0,0,0,0,0,0,0,0
1682957943.39983106,75028310,1573,1569,1566,1568,0,0,0,0,0,0,0,0,0,0
1682957943.49979091,75128270,1562,1557,1578,1580,0,0,0,0,0,0,0,0,0,0
1682957943.59975100,75228230,1550,1547,1590,1591,0,0,0,0,0,0,0,0,0,0
1682957943.69971108,75328190,1540,1537,1601,1601,0,0,0,0,0,0,0,0,0,0
1682957943.80050397,75428983,1532,1532,1609,1609,0,0,0,0,0,0,0,0,0,0
1682957943.90046406,75528943,1527,1529,1614,1612,0,0,0,0,0,0,0,0,0,0
1682957944.00042391,75628903,1528,1530,1615,1614,0,0,0,0,0,0,0,0,0,0
1682957944.10038400,75728863,1532,1535,1614,1613,0,0,0,0,0,0,0,0,0,0
1682957944.20034409,75828823,1539,1541,1608,1608,0,0,0,0,0,0,0,0,0,0
1682957944.30030394,75928783,1547,1548,1601,1602,0,0,0,0,0,0,0,0,0,0
1682957944.40026402,76028743,1555,1556,1593,1593,0,0,0,0,0,0,0,0,0,0
1682957944.50022411,76128703,1564,1564,1586,1585,0,0,0,0,0,0,0,0,0,0
1682957944.60018396,76228663,1572,1572,1579,1578,0,0,0,0,0,0,0,0,0,0
1682957944.70014405,76328623,1579,1579,1574,1573,0,0,0,0,0,0,0,0,0,0
1682957944.80010390,76428583,1584,1582,1569,1569,0,0,0,0,0,0,0,0,0,0
1682957944.90006399,76528543,1587,1585,1566,1566,0,0,0,0,0,0,0,0,0,0
1682957945.00002408,76628503,1588,1586,1565,1566,0,0,0,0,0,0,0,0,0,0
1682957945.09998393,76728463,1588,1587,1567,1567,0,0,0,0,0,0,0,0,0,0
1682957945.19994402,76828423,1585,1584,1568,1568,0,0,0,0,0,0,0,0,0,0
1682957945.29990411,76928383,1582,1582,1571,1570,0,0,0,0,0,0,0,0,0,0
1682957945.39986396,77028343,1579,1579,1573,1573,0,0,0,0,0,0,0,0,0,0
1682957945.49982405,77128303,1577,1577,1577,1577,0,0,0,0,0,0,0,0,0,0
1682957945.59978390,77228263,1574,1575,1580,1579,0,0,0,0,0,0,0,0,0,0
1682957945.69974399,77328223,1573,1574,1582,1582,0,0,0,0,0,0,0,0,0,0
1682957945.79970407,77428183,1571,1572,1582,1583,0,0,0,0,0,0,0,0,0,0
1682957945.90049696,77528976,1571,1571,1582,1583,0,0,0,0,0,0,0,0,0,0
1682957946.00045705,77628936,1571,1572,1583,1583,0,0,0,0,0,0,0,0,0,0
1682957946.10041690,77728896,1573,1574,1583,1582,0,0,0,0,0,0,0,0,0,0
1682957946.20037699,77828856,1575,1575,1583,1583,0,0,0,0,0,0,0,0,0,0
1682957946.30033708,77928816,1576,1576,1581,1581,0,0,0,0,0,0,0,0,0,0
1682957946.40029693,78028776,1579,1579,1581,1581,0,0,0,0,0,0,0,0,0,0
1682957946.50025702,78128736,1580,1579,1579,1579,0,0,0,0,0,0,0,0,0,0
1682957946.60021710,78228696,1581,1580,1578,1578,0,0,0,0,0,0,0,0,0,0
1682957946.70017695,78328656,1580,1580,1576,1576,0,0,0,0,0,0,0,0,0,0
1682957946.80013704,78428616,1582,1581,1577,1577,0,0,0,0,0,0,0,0,0,0
1682957946.90009689,78528576,1581,1581,1577,1577,0,0,0,0,0,0,0,0,0,0
1682957947.00005698,78628536,1563,1567,1557,1565,0,0,0,0,0,0,0,0,0,0
1682957947.10001707,78728496,1599,1572,1597,1570,0,0,0,0,0,0,0,0,0,0
1682957947.19997692,78828456,1630,1591,1629,1589,0,0,0,0,0,0,0,0,0,0
1682957947.29993701,78928416,1643,1606,1642,1604,0,0,0,0,0,0,0,0,0,0
1682957947.39989710,79028376,1637,1614,1636,1611,0,0,0,0,0,0,0,0,0,0
1682957947.49985695,79128336,1618,1613,1616,1610,0,0,0,0,0,0,0,0,0,0
1682957947.59981704,79228296,1596,1609,1597,1608,0,0,0,0,0,0,0,0,0,0
1682957947.69977689,79328256,1578,1598,1583,1604,0,0,0,0,0,0,0,0,0,0
1682957947.79973698,79428216,1568,1587,1580,1600,0,0,0,0,0,0,0,0,0,0
1682957947.89969707,79528176,1567,1579,1581,1596,0,0,0,0,0,0,0,0,0,0
1682957948.00048995,79628969,1568,1574,1583,1590,0,0,0,0,0,0,0,0,0,0
1682957948.10045004,79728929,1574,1572,1586,1584,0,0,0,0,0,0,0,0,0,0
1682957948.20040989,79828889,1578,1573,1585,1579,0,0,0,0,0,0,0,0,0,0
1682957948.30036998,79928849,1582,1577,1583,1577,0,0,0,0,0,0,0,0,0,0
1682957948.40033007,80028809,1582,1580,1579,1575,0,0,0,0,0,0,0,0,0,0
1682957948.50028992,80128769,1582,1582,1575,1573,0,0,0,0,0,0,0,0,0,0
1682957948.60025001,80228729,1583,1585,1578,1563,0,0,0,0,0,0,0,0,0,0
1682957948.70021009,80328689,1583,1588,1572,1562,0,0,0,0,0,0,0,0,0,0
1682957948.80016994,80428649,1581,1585,1562,1561,0,0,0,0,0,0,0,0,0,0
1682957948.90013003,80528609,1578,1582,1553,1560,0,0,0,0,0,0,0,0,0,0
1682957949.00008988,80628569,1576,1578,1549,1557,0,0,0,0,0,0,0,0,0,0
1682957949.10004997,80728529,1576,1575,1548,1555,0,0,0,0,0,0,0,0,0,0
1682957949.20001006,80828489,1576,1574,1549,1553,0,0,0,0,0,0,0,0,0,0
1682957949.29996991,80928449,1574,1573,1551,1551,0,0,0,0,0,0,0,0,0,0
1682957949.39993000,81028409,1573,1572,1552,1550,0,0,0,0,0,0,0,0,0,0
1682957949.49989009,81128369,1573,1573,1554,1552,0,0,0,0,0,0,0,0,0,0
1682957949.59984994,81228329,1571,1572,1554,1551,0,0,0,0,0,0,0,0,0,0
1682957949.69981003,81328289,1571,1573,1553,1552,0,0,0,0,0,0,0,0,0,0
1682957949.79976988,81428249,1571,1573,1553,1552,0,0,0,0,0,0,0,0,0,0
1682957949.89972997,81528209,1571,1573,1550,1551,0,0,0,0,0,0,0,0,0,0
1682957949.99969006,81628169,1574,1575,1550,1551,0,0,0,0,0,0,0,0,0,0
1682957950.10048294,81728962,1576,1576,1547,1548,0,0,0,0,0,0,0,0,0,0
1682957950.20044303,81828922,1578,1579,1545,1545,0,0,0,0,0,0,0,0,0,0
1682957950.30040288,81928882,1581,1582,1543,1543,0,0,0,0,0,0,0,0,0,0
1682957950.40036297,82028842,1583,1584,1540,1539,0,0,0,0,0,0,0,0,0,0
1682957950.50032306,82128802,1587,1587,1538,1538,0,0,0,0,0,0,0,0,0,0
1682957950.60028291,82228762,1590,1590,1536,1536,0,0,0,0,0,0,0,0,0,0
1682957950.70024300,82328722,1592,1591,1536,1536,0,0,0,0,0,0,0,0,0,0
1682957950.80020308,82428682,1593,1592,1537,1538,0,0,0,0,0,0,0,0,0,0
1682957950.90016294,82528642,1591,1589,1538,1540,0,0,0,0,0,0,0,0,0,0
1682957951.00012302,82628602,1588,1587,1543,1545,0,0,0,0,0,0,0,0,0,0
1682957951.10008311,82728562,1583,1582,1547,1550,0,0,0,0,0,0,0,0,0,0
1682957951.20004296,82828522,1578,1578,1555,1558,0,0,0,0,0,0,0,0,0,0
1682957951.30000305,82928482,1572,1570,1562,1565,0,0,0,0,0,0,0,0,0,0
1682957951.39996290,83028442,1563,1562,1570,1572,0,0,0,0,0,0,0,0,0,0
1682957951.49992299,83128402,1556,1554,1580,1581,0,0,0,0,0,0,0,0,0,0
1682957951.59988308,83228362,1549,1547,1589,1589,0,0,0,0,0,0,0,0,0,0
1682957951.69984293,83328322,1542,1541,1596,1596,0,0,0,0,0,0,0,0,0,0
1682957951.79980302,83428282,1538,1538,1602,1601,0,0,0,0,0,0,0,0,0,0
1682957951.89976311,83528242,1536,1536,1605,1603,0,0,0,0,0,0,0,0,0,0
1682957951.99972296,83628202,1536,1538,1605,1604,0,0,0,0,0,0,0,0,0,0
1682957952.09968305,83728162,1540,1541,1604,1603,0,0,0,0,0,0,0,0,0,0
1682957952.20047593,83828955,1544,1546,1600,1600,0,0,0,0,0,0,0,0,0,0
1682957952.30043602,83928915,1550,1552,1595,1595,0,0,0,0,0,0,0,0,0,0
1682957952.40039611,84028875,1558,1558,1589,1590,0,0,0,0,0,0,0,0,0,0
1682957952.50035596,84128835,1564,1563,1583,1584,0,0,0,0,0,0,0,0,0,0
1682957952.60031605,84228795,1570,1570,1579,1579,0,0,0,0,0,0,0,0,0,0
1682957952.70027590,84328755,1576,1575,1575,1575,0,0,0,0,0,0,0,0,0,0
1682957952.80023599,84428715,1580,1579,1573,1572,0,0,0,0,0,0,0,0,0,0
1682957952.90019608,84528675,1583,1582,1571,1570,0,0,0,0,0,0,0,0,0,0
1682957953.00015593,84628635,1585,1583,1570,1570,0,0,0,0,0,0,0,0,0,0
1682957953.10011601,84728595,1584,1583,1570,1570,0,0,0,0,0,0,0,0,0,0
1682957953.20007610,84828555,1583,1582,1570,1571,0,0,0,0,0,0,0,0,0,0
1682957953.30003595,84928515,1582,1582,1572,1572,0,0,0,0,0,0,0,0,0,0
1682957953.39999604,85028475,1581,1581,1575,1575,0,0,0,0,0,0,0,0,0,0
1682957953.49995589,85128435,1578,1579,1577,1576,0,0,0,0,0,0,0,0,0,0
1682957953.59991598,85228395,1577,1577,1578,1578,0,0,0,0,0,0,0,0,0,0
1682957953.69987607,85328355,1576,1576,1580,1580,0,0,0,0,0,0,0,0,0,0
1682957953.79983592,85428315,1574,1575,1581,1582,0,0,0,0,0,0,0,0,0,0
1682957953.89979601,85528275,1574,1575,1583,1583,0,0,0,0,0,0,0,0,0,0
1682957953.99975610,85628235,1574,1575,1583,1582,0,0,0,0,0,0,0,0,0,0
1682957954.09971595,85728195,1574,1574,1581,1581,0,0,0,0,0,0,0,0,0,0
1682957954.19967604,85828155,1575,1575,1582,1582,0,0,0,0,0,0,0,0,0,0
1682957954.30046892,85928948,1577,1577,1581,1581,0,0,0,0,0,0,0,0,0,0
1682957954.40042901,86028908,1577,1577,1580,1580,0,0,0,0,0,0,0,0,0,0
1682957954.50038910,86128868,1577,1577,1578,1578,0,0,0,0,0,0,0,0,0,0
1682957954.60034895,86228828,1578,1578,1577,1578,0,0,0,0,0,0,0,0,0,0
1682957954.70030904,86328788,1579,1580,1577,1578,0,0,0,0,0,0,0,0,0,0
1682957954.80026889,86428748,1580,1580,1577,1577,0,0,0,0,0,0,0,0,0,0
1682957954.90022898,86528708,1581,1581,1577,1578,0,0,0,0,0,0,0,0,0,0
1682957955.00018907,86628668,1581,1580,1578,1577,0,0,0,0,0,0,0,0,0,0
1682957955.10014892,86728628,1582,1581,1579,1578,0,0,0,0,0,0,0,0,0,0
1682957955.20010900,86828588,1581,1580,1578,1578,0,0,0,0,0,0,0,0,0,0
1682957955.30006909,86928548,1581,1581,1579,1579,0,0,0,0,0,0,0,0,0,0
1682957955.40002894,87028508,1580,1580,1579,1579,0,0,0,0,0,0,0,0,0,0
1682957955.49998903,87128468,1580,1581,1580,1580,0,0,0,0,0,0,0,0,0,0
1682957955.59994888,87228428,1581,1581,1581,1581,0,0,0,0,0,0,0,0,0,0
1682957955.69990897,87328388,1581,1581,1582,1581,0,0,0,0,0,0,0,0,0,0
1682957955.79986906,87428348,1581,1580,1581,1581,0,0,0,0,0,0,0,0,0,0
1682957955.89982891,87528308,1580,1580,1581,1581,0,0,0,0,0,0,0,0,0,0
1682957955.99978900,87628268,1580,1581,1582,1582,0,0,0,0,0,0,0,0,0,0
1682957956.09974909,87728228,1580,1580,1581,1581,0,0,0,0,0,0,0,0,0,0
1682957956.19970894,87828188,1581,1581,1582,1582,0,0,0,0,0,0,0,0,0,0
1682957956.30050206,87928981,1581,1581,1582,1582,0,0,0,0,0,0,0,0,0,0
1682957956.40046191,88028941,1581,1581,1581,1581,0,0,0,0,0,0,0,0,0,0
1682957956.50042200,88128901,1582,1581,1582,1581,0,0,0,0,0,0,0,0,0,0
1682957956.60038209,88228861,1581,1580,1580,1580,0,0,0,0,0,0,0,0,0,0
1682957956.70034194,88328821,1581,1581,1580,1580,0,0,0,0,0,0,0,0,0,0
1682957956.80030203,88428781,1581,1581,1580,1580,0,0,0,0,0,0,0,0,0,0
1682957956.90026188,88528741,1581,1581,1580,1581,0,0,0,0,0,0,0,0,0,0
1682957957.00022197,88628701,1581,1581,1581,1580,0,0,0,0,0,0,0,0,0,0
1682957957.10018206,88728661,1581,1582,1587,1574,0,0,0,0,0,0,0,0,0,0
1682957957.20014191,88828621,1580,1582,1585,1572,0,0,0,0,0,0,0,0,0,0
1682957957.30010200,88928581,1579,1582,1579,1574,0,0,0,0,0,0,0,0,0,0
1682957957.40006208,89028541,1578,1580,1570,1572,0,0,0,0,0,0,0,0,0,0
1682957957.50002193,89128501,1576,1578,1562,1569,0,0,0,0,0,0,0,0,0,0
1682957957.59998202,89228461,1575,1576,1556,1563,0,0,0,0,0,0,0,0,0,0
1682957957.69994211,89328421,1577,1576,1554,1559,0,0,0,0,0,0,0,0,0,0
1682957957.79990196,89428381,1578,1577,1554,1555,0,0,0,0,0,0,0,0,0,0
1682957957.89986205,89528341,1578,1577,1554,1553,0,0,0,0,0,0,0,0,0,0
1682957957.99982190,89628301,1579,1578,1555,1553,0,0,0,0,0,0,0,0,0,0
1682957958.09978199,89728261,1579,1578,1555,1553,0,0,0,0,0,0,0,0,0,0
1682957958.19974208,89828221,1577,1578,1555,1553,0,0,0,0,0,0,0,0,0,0
1682957958.29970193,89928181,1576,1577,1554,1553,0,0,0,0,0,0,0,0,0,0
1682957958.40049505,90028974,1576,1578,1554,1554,0,0,0,0,0,0,0,0,0,0
1682957958.50045490,90128934,1576,1578,1553,1553,0,0,0,0,0,0,0,0,0,0
1682957958.60041499,90228894,1576,1578,1551,1551,0,0,0,0,0,0,0,0,0,0
1682957958.70037508,90328854,1578,1578,1549,1549,0,0,0,0,0,0,0,0,0,0
1682957958.80033493,90428814,1580,1581,1548,1547,0,0,0,0,0,0,0,0,0,0
1682957958.90029502,90528774,1583,1583,1546,1546,0,0,0,0,0,0,0,0,0,0
1682957959.00025511,90628734,1586,1587,1544,1544,0,0,0,0,0,0,0,0,0,0
1682957959.10021496,90728694,1589,1589,1542,1542,0,0,0,0,0,0,0,0,0,0
1682957959.20017505,90828654,1591,1591,1540,1540,0,0,0,0,0,0,0,0,0,0
1682957959.30013490,90928614,1592,1592,1538,1539,0,0,0,0,0,0,0,0,0,0
1682957959.40009499,91028574,1594,1593,1537,1539,0,0,0,0,0,0,0,0,0,0
1682957959.50005507,91128534,1594,1594,1538,1541,0,0,0,0,0,0,0,0,0,0
1682957959.60001493,91228494,1593,1592,1540,1542,0,0,0,0,0,0,0,0,0,0
1682957959.69997501,91328454,1589,1587,1543,1546,0,0,0,0,0,0,0,0,0,0
1682957959.79993510,91428414,1585,1582,1550,1553,0,0,0,0,0,0,0,0,0,0
1682957959.89989495,91528374,1578,1574,1560,1563,0,0,0,0,0,0,0,0,0,0
1682957959.99985504,91628334,1569,1566,1572,1574,0,0,0,0,0,0,0,0,0,0
1682957960.09981489,91728294,1558,1555,1582,1583,0,0,0,0,0,0,0,0,0,0
1682957960.19977498,91828254,1549,1548,1594,1594,0,0,0,0,0,0,0,0,0,0
1682957960.29973507,91928214,1541,1540,1603,1602,0,0,0,0,0,0,0,0,0,0
1682957960.39969492,92028174,1535,1536,1609,1608,0,0,0,0,0,0,0,0,0,0
1682957960.50048804,92128967,1533,1535,1614,1611,0,0,0,0,0,0,0,0,0,0
1682957960.60044789,92228927,1535,1538,1614,1612,0,0,0,0,0,0,0,0,0,0
1682957960.70040798,92328887,1539,1542,1611,1610,0,0,0,0,0,0,0,0,0,0
1682957960.80036807,92428847,1544,1546,1606,1606,0,0,0,0,0,0,0,0,0,0
1682957960.90032792,92528807,1551,1552,1600,1599,0,0,0,0,0,0,0,0,0,0
1682957961.00028801,92628767,1559,1559,1593,1592,0,0,0,0,0,0,0,0,0,0
1682957961.10024810,92728727,1566,1566,1585,1585,0,0,0,0,0,0,0,0,0,0
1682957961.20020795,92828687,1573,1572,1578,1578,0,0,0,0,0,0,0,0,0,0
1682957961.30016804,92928647,1578,1576,1572,1572,0,0,0,0,0,0,0,0,0,0
1682957961.40012789,93028607,1583,1581,1568,1569,0,0,0,0,0,0,0,0,0,0
1682957961.50008798,93128567,1586,1584,1567,1568,0,0,0,0,0,0,0,0,0,0
1682957961.60004807,93228527,1587,1585,1566,1566,0,0,0,0,0,0,0,0,0,0
1682957961.70000792,93328487,1586,1585,1567,1567,0,0,0,0,0,0,0,0,0,0
1682957961.79996800,93428447,1585,1584,1569,1569,0,0,0,0,0,0,0,0,0,0
1682957961.89992809,93528407,1583,1582,1571,1571,0,0,0,0,0,0,0,0,0,0
1682957961.99988794,93628367,1580,1580,1574,1574,0,0,0,0,0,0,0,0,0,0
1682957962.09984803,93728327,1578,1578,1577,1577,0,0,0,0,0,0,0,0,0,0
1682957962.19980788,93828287,1576,1577,1580,1580,0,0,0,0,0,0,0,0,0,0
1682957962.29976797,93928247,1574,1575,1582,1581,0,0,0,0,0,0,0,0,0,0
1682957962.39972806,94028207,1573,1574,1583,1583,0,0,0,0,0,0,0,0,0,0
1682957962.49968791,94128167,1572,1573,1584,1583,0,0,0,0,0,0,0,0,0,0
1682957962.60048103,94228960,1573,1574,1584,1584,0,0,0,0,0,0,0,0,0,0
1682957962.70044088,94328920,1574,1574,1583,1583,0,0,0,0,0,0,0,0,0,0
1682957962.80040097,94428880,1576,1576,1584,1584,0,0,0,0,0,0,0,0,0,0
1682957962.90036106,94528840,1576,1577,1582,1582,0,0,0,0,0,0,0,0,0,0
1682957963.00032091,94628800,1577,1577,1580,1580,0,0,0,0,0,0,0,0,0,0
1682957963.10028100,94728760,1578,1578,1579,1579,0,0,0,0,0,0,0,0,0,0
1682957963.20024109,94828720,1579,1579,1578,1578,0,0,0,0,0,0,0,0,0,0
1682957963.30020094,94928680,1581,1581,1578,1578,0,0,0,0,0,0,0,0,0,0
1682957963.40016103,95028640,1582,1581,1578,1578,0,0,0,0,0,0,0,0,0,0
1682957963.50012088,95128600,1581,1581,1577,1577,0,0,0,0,0,0,0,0,0,0
1682957963.60008097,95228560,1580,1581,1577,1577,0,0,0,0,0,0,0,0,0,0
1682957963.70004106,95328520,1581,1581,1578,1578,0,0,0,0,0,0,0,0,0,0
1682957963.80000091,95428480,1581,1580,1578,1578,0,0,0,0,0,0,0,0,0,0
1682957963.89996099,95528440,1580,1580,1578,1579,0,0,0,0,0,0,0,0,0,0
1682957963.99992108,95628400,1580,1580,1579,1579,0,0,0,0,0,0,0,0,0,0
1682957964.09988093,95728360,1580,1580,1580,1580,0,0,0,0,0,0,0,0,0,0
1682957964.19984102,95828320,1579,1579,1580,1580,0,0,0,0,0,0,0,0,0,0
1682957964.29980111,95928280,1579,1579,1581,1581,0,0,0,0,0,0,0,0,0,0
1682957964.39976096,96028240,1580,1580,1582,1581,0,0,0,0,0,0,0,0,0,0
1682957964.49972105,96128200,1579,1579,1581,1581,0,0,0,0,0,0,0,0,0,0
1682957964.59968090,96228160,1580,1580,1581,1582,0,0,0,0,0,0,0,0,0,0
1682957964.70047402,96328953,1580,1579,1581,1581,0,0,0,0,0,0,0,0,0,0
1682957964.80043411,96428913,1580,1580,1581,1581,0,0,0,0,0,0,0,0,0,0
1682957964.90039396,96528873,1580,1580,1581,1581,0,0,0,0,0,0,0,0,0,0
1682957965.00035405,96628833,1580,1581,1581,1580,0,0,0,0,0,0,0,0,0,0
1682957965.10031390,96728793,1581,1581,1586,1572,0,0,0,0,0,0,0,0,0,0
1682957965.20027399,96828753,1579,1580,1584,1572,0,0,0,0,0,0,0,0,0,0
1682957965.30023408,96928713,1578,1577,1577,1574,0,0,0,0,0,0,0,0,0,0
1682957965.40019393,97028673,1574,1574,1571,1574,0,0,0,0,0,0,0,0,0,0
1682957965.50015402,97128633,1571,1571,1566,1573,0,0,0,0,0,0,0,0,0,0
1682957965.60011411,97228593,1568,1568,1564,1571,0,0,0,0,0,0,0,0,0,0
1682957965.70007396,97328553,1567,1567,1564,1569,0,0,0,0,0,0,0,0,0,0
1682957965.80003405,97428513,1566,1566,1565,1566,0,0,0,0,0,0,0,0,0,0
1682957965.89999390,97528473,1566,1566,1566,1565,0,0,0,0,0,0,0,0,0,0
1682957965.99995399,97628433,1565,1566,1567,1564,0,0,0,0,0,0,0,0,0,0
1682957966.09991407,97728393,1565,1565,1567,1564,0,0,0,0,0,0,0,0,0,0
1682957966.19987392,97828353,1564,1564,1566,1564,0,0,0,0,0,0,0,0,0,0
1682957966.29983401,97928313,1563,1564,1565,1564,0,0,0,0,0,0,0,0,0,0
1682957966.39979410,98028273,1563,1563,1564,1564,0,0,0,0,0,0,0,0,0,0
1682957966.49975395,98128233,1562,1561,1562,1562,0,0,0,0,0,0,0,0,0,0
1682957966.59971404,98228193,1561,1561,1561,1562,0,0,0,0,0,0,0,0,0,0
1682957966.70050693,98328986,1560,1560,1560,1561,0,0,0,0,0,0,0,0,0,0
1682957966.80046701,98428946,1562,1561,1561,1562,0,0,0,0,0,0,0,0,0,0
1682957966.90042710,98528906,1561,1560,1561,1560,0,0,0,0,0,0,0,0,0,0
1682957967.00038695,98628866,1560,1560,1560,1559,0,0,0,0,0,0,0,0,0,0
1682957967.10034704,98728826,1559,1558,1559,1558,0,0,0,0,0,0,0,0,0,0
1682957967.20030689,98828786,1558,1558,1558,1557,0,0,0,0,0,0,0,0,0,0
1682957967.30026698,98928746,1557,1558,1558,1557,0,0,0,0,0,0,0,0,0,0
1682957967.40022707,99028706,1558,1558,1558,1557,0,0,0,0,0,0,0,0,0,0
1682957967.50018692,99128666,1558,1558,1559,1558,0,0,0,0,0,0,0,0,0,0
1682957967.60014701,99228626,1558,1558,1559,1556,0,0,0,0,0,0,0,0,0,0
1682957967.70010710,99328586,1559,1558,1559,1557,0,0,0,0,0,0,0,0,0,0
1682957967.80006695,99428546,1558,1558,1560,1557,0,0,0,0,0,0,0,0,0,0
1682957967.90002704,99528506,1559,1560,1559,1560,0,0,0,0,0,0,0,0,0,0
1682957967.99998689,99628466,1559,1560,1557,1561,0,0,0,0,0,0,0,0,0,0
1682957968.09994698,99728426,1560,1560,1557,1563,0,0,0,0,0,0,0,0,0,0
1682957968.19990706,99828386,1561,1561,1558,1564,0,0,0,0,0,0,0,0,0,0
1682957968.29986691,99928346,1560,1561,1559,1562,0,0,0,0,0,0,0,0,0,0
1682957968.39982700,100028306,1560,1560,1560,1559,0,0,0,0,0,0,0,0,0,0
1682957968.49978709,100128266,1561,1560,1559,1561,0,0,0,0,0,0,0,0,0,0
1682957968.59974694,100228226,1558,1557,1556,1557,0,0,0,0,0,0,0,0,0,0
1682957968.69970703,100328186,1553,1553,1553,1553,0,0,0,0,0,0,0,0,0,0
1682957968.80049992,100428979,1547,1547,1547,1547,0,0,0,0,0,0,0,0,0,0
1682957968.90046000,100528939,1541,1542,1541,1541,0,0,0,0,0,0,0,0,0,0
1682957969.00042009,100628899,1534,1535,1535,1534,0,0,0,0,0,0,0,0,0,0
1682957969.10037994,100728859,1526,1527,1526,1527,0,0,0,0,0,0,0,0,0,0
1682957969.20034003,100828819,1521,1521,1521,1521,0,0,0,0,0,0,0,0,0,0
1682957969.30029988,100928779,1519,1520,1519,1520,0,0,0,0,0,0,0,0,0,0
1682957969.40025997,101028739,1520,1520,1520,1521,0,0,0,0,0,0,0,0,0,0
1682957969.50022006,101128699,1521,1521,1521,1522,0,0,0,0,0,0,0,0,0,0
1682957969.60017991,101228659,1523,1524,1523,1524,0,0,0,0,0,0,0,0,0,0
1682957969.70014000,101328619,1527,1528,1527,1528,0,0,0,0,0,0,0,0,0,0
1682957969.80010009,101428579,1533,1532,1533,1533,0,0,0,0,0,0,0,0,0,0
1682957969.90005994,101528539,1538,1537,1538,1537,0,0,0,0,0,0,0,0,0,0
1682957970.00002003,101628499,1541,1540,1540,1540,0,0,0,0,0,0,0,0,0,0
1682957970.09997988,101728459,1543,1542,1543,1542,0,0,0,0,0,0,0,0,0,0
1682957970.19993997,101828419,1544,1543,1544,1543,0,0,0,0,0,0,0,0,0,0
1682957970.29990005,101928379,1545,1544,1545,1544,0,0,0,0,0,0,0,0,0,0
1682957970.39985991,102028339,1545,1545,1546,1545,0,0,0,0,0,0,0,0,0,0
1682957970.49981999,102128299,1546,1546,1546,1546,0,0,0,0,0,0,0,0,0,0
1682957970.59978008,102228259,1546,1547,1547,1547,0,0,0,0,0,0,0,0,0,0
1682957970.69973993,102328219,1547,1547,1547,1546,0,0,0,0,0,0,0,0,0,0
1682957970.79970002,102428179,1547,1547,1547,1547,0,0,0,0,0,0,0,0,0,0
1682957970.90049291,102528972,1546,1546,1546,1546,0,0,0,0,0,0,0,0,0,0
1682957971.00045300,102628932,1546,1546,1546,1546,0,0,0,0,0,0,0,0,0,0
1682957971.10041308,102728892,1545,1545,1545,1545,0,0,0,0,0,0,0,0,0,0
1682957971.20037293,102828852,1545,1545,1545,1545,0,0,0,0,0,0,0,0,0,0
1682957971.30033302,102928812,1545,1545,1545,1545,0,0,0,0,0,0,0,0,0,0
1682957971.40029311,103028772,1545,1545,1546,1545,0,0,0,0,0,0,0,0,0,0
1682957971.50025296,103128732,1546,1546,1546,1546,0,0,0,0,0,0,0,0,0,0
1682957971.60021305,103228692,1545,1545,1545,1545,0,0,0,0,0,0,0,0,0,0
1682957971.70017290,103328652,1545,1545,1545,1545,0,0,0,0,0,0,0,0,0,0
1682957971.80013299,103428612,1545,1545,1545,1545,0,0,0,0,0,0,0,0,0,0
1682957971.90009308,103528572,1544,1544,1545,1544,0,0,0,0,0,0,0,0,0,0
1682957972.00005293,103628532,1544,1544,1544,1544,0,0,0,0,0,0,0,0,0,0
1682957972.10001302,103728492,1544,1544,1544,1544,0,0,0,0,0,0,0,0,0,0
1682957972.19997311,103828452,1544,1544,1544,1544,0,0,0,0,0,0,0,0,0,0
1682957972.29993296,103928412,1545,1544,1545,1544,0,0,0,0,0,0,0,0,0,0
1682957972.39989305,104028372,1545,1545,1545,1545,0,0,0,0,0,0,0,0,0,0
1682957972.49985290,104128332,1545,1544,1544,1544,0,0,0,0,0,0,0,0,0,0
1682957972.59981298,104228292,1544,1544,1544,1544,0,0,0,0,0,0,0,0,0,0
1682957972.69977307,104328252,1544,1544,1544,1544,0,0,0,0,0,0,0,0,0,0
1682957972.79973292,104428212,1544,1545,1544,1544,0,0,0,0,0,0,0,0,0,0
1682957972.89969301,104528172,1544,1544,1544,1544,0,0,0,0,0,0,0,0,0,0
1682957973.00048590,104628965,1544,1544,1544,1544,0,0,0,0,0,0,0,0,0,0
1682957973.10044599,104728925,1545,1544,1544,1544,0,0,0,0,0,0,0,0,0,0
1682957973.20040607,104828885,1544,1544,1544,1544,0,0,0,0,0,0,0,0,0,0
1682957973.30036592,104928845,1544,1544,1544,1544,0,0,0,0,0,0,0,0,0,0
1682957973.40032601,105028805,1544,1544,1544,1544,0,0,0,0,0,0,0,0,0,0
1682957973.50028610,105128765,1544,1543,1543,1543,0,0,0,0,0,0,0,0,0,0
1682957973.60024595,105228725,1544,1545,1544,1544,0,0,0,0,0,0,0,0,0,0
1682957973.70020604,105328685,1544,1544,1544,1544,0,0,0,0,0,0,0,0,0,0
1682957973.80016589,105428645,1544,1544,1544,1543,0,0,0,0,0,0,0,0,0,0
1682957973.90012598,105528605,1544,1544,1544,1544,0,0,0,0,0,0,0,0,0,0
1682957974.00008607,105628565,1543,1543,1543,1543,0,0,0,0,0,0,0,0,0,0
1682957974.10004592,105728525,1544,1544,1543,1544,0,0,0,0,0,0,0,0,0,0
1682957974.20000601,105828485,1544,1544,1544,1544,0,0,0,0,0,0,0,0,0,0
1682957974.29996610,105928445,1544,1544,1544,1544,0,0,0,0,0,0,0,0,0,0
1682957974.39992595,106028405,1544,1544,1544,1544,0,0,0,0,0,0,0,0,0,0
1682957974.49988604,106128365,1545,1545,1545,1545,0,0,0,0,0,0,0,0,0,0
1682957974.59984589,106228325,1545,1544,1545,1545,0,0,0,0,0,0,0,0,0,0
1682957974.69980597,106328285,1545,1544,1544,1545,0,0,0,0,0,0,0,0,0,0
1682957974.79976606,106428245,1545,1545,1545,1545,0,0,0,0,0,0,0,0,0,0
1682957974.89972591,106528205,1545,1544,1544,1545,0,0,0,0,0,0,0,0,0,0
1682957974.99968600,106628165,1544,1545,1545,1544,0,0,0,0,0,0,0,0,0,0
1682957975.10047889,106728958,1544,1544,1544,1544,0,0,0,0,0,0,0,0,0,0
1682957975.20043898,106828918,1544,1544,1544,1544,0,0,0,0,0,0,0,0,0,0
1682957975.30039907,106928878,1545,1545,1545,1545,0,0,0,0,0,0,0,0,0,0
1682957975.40035892,107028838,1544,1544,1544,1544,0,0,0,0,0,0,0,0,0,0
1682957975.50031900,107128798,1544,1544,1544,1544,0,0,0,0,0,0,0,0,0,0
1682957975.60027909,107228758,1544,1544,1544,1544,0,0,0,0,0,0,0,0,0,0
1682957975.70023894,107328718,1545,1544,1544,1544,0,0,0,0,0,0,0,0,0,0
1682957975.80019903,107428678,1545,1545,1545,1545,0,0,0,0,0,0,0,0,0,0
1682957975.90015888,107528638,1545,1546,1545,1546,0,0,0,0,0,0,0,0,0,0
1682957976.00011897,107628598,1544,1545,1545,1545,0,0,0,0,0,0,0,0,0,0
1682957976.10007906,107728558,1545,1545,1545,1544,0,0,0,0,0,0,0,0,0,0
1682957976.20003891,107828518,1545,1545,1545,1545,0,0,0,0,0,0,0,0,0,0
1682957976.29999900,107928478,1545,1545,1545,1545,0,0,0,0,0,0,0,0,0,0
1682957976.39995909,108028438,1544,1544,1544,1544,0,0,0,0,0,0,0,0,0,0
1682957976.49991894,108128398,1544,1544,1544,1544,0,0,0,0,0,0,0,0,0,0
1682957976.59987903,108228358,1545,1545,1545,1545,0,0,0,0,0,0,0,0,0,0
1682957976.69983912,108328318,1545,1544,1544,1545,0,0,0,0,0,0,0,0,0,0
1682957976.79979897,108428278,1544,1544,1544,1544,0,0,0,0,0,0,0,0,0,0
1682957976.89975905,108528238,1544,1544,1544,1544,0,0,0,0,0,0,0,0,0,0
1682957976.99971890,108628198,1544,1544,1544,1544,0,0,0,0,0,0,0,0,0,0
1682957977.09967899,108728158,1544,1544,1544,1544,0,0,0,0,0,0,0,0,0,0
1682957977.20047188,108828951,1544,1544,1544,1544,0,0,0,0,0,0,0,0,0,0
1682957977.30043197,108928911,1544,1544,1544,1544,0,0,0,0,0,0,0,0,0,0
1682957977.40039206,109028871,1543,1544,1543,1544,0,0,0,0,0,0,0,0,0,0
1682957977.50035191,109128831,1544,1544,1544,1544,0,0,0,0,0,0,0,0,0,0
1682957977.60031199,109228791,1544,1544,1544,1544,0,0,0,0,0,0,0,0,0,0
1682957977.70027208,109328751,1544,1544,1544,1544,0,0,0,0,0,0,0,0,0,0
1682957977.80023193,109428711,1545,1544,1545,1544,0,0,0,0,0,0,0,0,0,0
1682957977.90019202,109528671,1544,1544,1544,1545,0,0,0,0,0,0,0,0,0,0
1682957978.00015211,109628631,1544,1544,1544,1544,0,0,0,0,0,0,0,0,0,0
1682957978.10011196,109728591,1544,1544,1544,1543,0,0,0,0,0,0,0,0,0,0
1682957978.20007205,109828551,1544,1545,1544,1544,0,0,0,0,0,0,0,0,0,0
1682957978.30003190,109928511,1544,1544,1544,1544,0,0,0,0,0,0,0,0,0,0
1682957978.39999199,110028471,1544,1545,1544,1545,0,0,0,0,0,0,0,0,0,0
1682957978.49995208,110128431,1545,1544,1544,1544,0,0,0,0,0,0,0,0,0,0
1682957978.59991193,110228391,1545,1544,1545,1544,0,0,0,0,0,0,0,0,0,0
1682957978.69987202,110328351,1545,1545,1545,1545,0,0,0,0,0,0,0,0,0,0
1682957978.79983211,110428311,1544,1544,1544,1544,0,0,0,0,0,0,0,0,0,0
1682957978.89979196,110528271,1505,1499,1505,1499,0,0,0,0,0,0,0,0,0,0
1682957978.99975204,110628231,1357,1322,1358,1322,0,0,0,0,0,0,0,0,0,0
1682957979.09971189,110728191,1295,1240,1295,1240,0,0,0,0,0,0,0,0,0,0
1682957979.20050502,110828984,1275,1214,1277,1213,0,0,0,0,0,0,0,0,0,0
1682957979.30046511,110928944,1256,1186,1257,1186,0,0,0,0,0,0,0,0,0,0
1682957979.40042496,111028904,1231,1151,1233,1150,0,0,0,0,0,0,0,0,0,0
1682957979.50038505,111128864,1200,1150,1200,1150,0,0,0,0,0,0,0,0,0,0
1682957979.60034490,111228824,1199,1150,1200,1150,0,0,0,0,0,0,0,0,0,0
1682957979.70030499,111328784,1200,1150,1201,1150,0,0,0,0,0,0,0,0,0,0
1682957979.80026507,111428744,1200,1150,1181,1176,0,0,0,0,0,0,0,0,0,0
1682957979.90022492,111528704,1200,1150,1187,1168,0,0,0,0,0,0,0,0,0,0
1682957980.00018501,111628664,1200,1150,1190,1164,0,0,0,0,0,0,0,0,0,0
1682957980.10014510,111728624,1200,1150,1190,1164,0,0,0,0,0,0,0,0,0,0
1682957980.20010495,111828584,1200,1150,1190,1165,0,0,0,0,0,0,0,0,0,0
1682957980.30006504,111928544,1200,1150,1189,1166,0,0,0,0,0,0,0,0,0,0
1682957980.40002489,112028504,1200,1150,1188,1167,0,0,0,0,0,0,0,0,0,0
1682957980.49998498,112128464,1200,1150,1187,1168,0,0,0,0,0,0,0,0,0,0
1682957980.59994507,112228424,1200,1150,1196,1156,0,0,0,0,0,0,0,0,0,0
1682957980.69990492,112328384,1200,1150,1195,1158,0,0,0,0,0,0,0,0,0,0
1682957980.79986501,112428344,1200,1150,1194,1158,0,0,0,0,0,0,0,0,0,0
1682957980.89982510,112528304,1200,1150,1194,1159,0,0,0,0,0,0,0,0,0,0
1682957980.99978495,112628264,1173,1150,1168,1157,0,0,0,0,0,0,0,0,0,0
1682957981.09974504,112728224,1000,1000,1000,1000,0,0,0,0,0,0,0,0,0,0
1682957981.19970489,112828184,1000,1000,1000,1000,0,0,0,0,0,0,0,0,0,0
1682957981.30049801,112928977,1000,1000,1000,1000,0,0,0,0,0,0,0,0,0,0
1682957981.40045810,113028937,1000,1000,1000,1000,0,0,0,0,0,0,0,0,0,0
1682957981.50041795,113128897,1000,1000,1000,1000,0,0,0,0,0,0,0,0,0,0
1682957981.60037804,113228857,1000,1000,1000,1000,0,0,0,0,0,0,0,0,0,0
1682957981.70033789,113328817,1000,1000,1000,1000,0,0,0,0,0,0,0,0,0,0
1682957981.80029798,113428777,1000,1000,1000,1000,0,0,0,0,0,0,0,0,0,0
1682957981.90025806,113528737,1000,1000,1000,1000,0,0,0,0,0,0,0,0,0,0
1682957982.00021791,113628697,1000,1000,1000,1000,0,0,0,0,0,0,0,0,0,0
1682957982.10017800,113728657,1000,1000,1000,1000,0,0,0,0,0,0,0,0,0,0
1682957982.20013809,113828617,1000,1000,1000,1000,0,0,0,0,0,0,0,0,0,0
1682957982.30009794,113928577,1000,1000,1000,1000,0,0,0,0,0,0,0,0,0,0
1682957982.40005803,114028537,1000,1000,1000,1000,0,0,0,0,0,0,0,0,0,0
1682957982.50001788,114128497,1000,1000,1000,1000,0,0,0,0,0,0,0,0,0,0
1682957982.59997797,114228457,1000,1000,1000,1000,0,0,0,0,0,0,0,0,0,0
1682957982.69993806,114328417,1000,1000,1000,1000,0,0,0,0,0,0,0,0,0,0
1682957982.79989791,114428377,1000,1000,1000,1000,0,0,0,0,0,0,0,0,0,0
1682957982.89985800,114528337,1000,1000,1000,1000,0,0,0,0,0,0,0,0,0,0
1682957982.99981809,114628297,1000,1000,1000,1000,0,0,0,0,0,0,0,0,0,0
1682957983.09977794,114728257,1000,1000,1000,1000,0,0,0,0,0,0,0,0,0,0
1682957983.19973803,114828217,1000,1000,1000,1000,0,0,0,0,0,0,0,0,0,0
1682957983.29969811,114928177,1000,1000,1000,1000,0,0,0,0,0,0,0,0,0,0
1682957983.40049100,115028970,1000,1000,1000,1000,0,0,0,0,0,0,0,0,0,0
1682957983.50045109,115128930,1000,1000,1000,1000,0,0,0,0,0,0,0,0,0,0
1682957983.60041094,115228890,1000,1000,1000,1000,0,0,0,0,0,0,0,0,0,0
1682957983.70037103,115328850,1000,1000,1000,1000,0,0,0,0,0,0,0,0,0,0
1682957983.80033088,115428810,1000,1000,1000,1000,0,0,0,0,0,0,0,0,0,0
1682957983.90029097,115528770,1000,1000,1000,1000,0,0,0,0,0,0,0,0,0,0
1682957984.00025105,115628730,1000,1000,1000,1000,0,0,0,0,0,0,0,0,0,0
1682957984.10021091,115728690,1000,1000,1000,1000,0,0,0,0,0,0,0,0,0,0
1682957984.20017099,115828650,1000,1000,1000,1000,0,0,0,0,0,0,0,0,0,0
1682957984.30013108,115928610,1000,1000,1000,1000,0,0,0,0,0,0,0,0,0,0
1682957984.40009093,116028570,1000,1000,1000,1000,0,0,0,0,0,0,0,0,0,0
1682957984.50005102,116128530,1000,1000,1000,1000,0,0,0,0,0,0,0,0,0,0
1682957984.60001111,116228490,1000,1000,1000,1000,0,0,0,0,0,0,0,0,0,0
1682957984.69997096,116328450,1000,1000,1000,1000,0,0,0,0,0,0,0,0,0,0
1682957984.79993105,116428410,1000,1000,1000,1000,0,0,0,0,0,0,0,0,0,0
1682957984.89989090,116528370,1000,1000,1000,1000,0,0,0,0,0,0,0,0,0,0
1682957984.99985099,116628330,1000,1000,1000,1000,0,0,0,0,0,0,0,0,0,0
1682957985.09981108,116728290,1000,1000,1000,1000,0,0,0,0,0,0,0,0,0,0
1682957985.19977093,116828250,1000,1000,1000,1000,0,0,0,0,0,0,0,0,0,0
1682957985.29973102,116928210,1000,1000,1000,1000,0,0,0,0,0,0,0,0,0,0
1682957985.39969110,117028170,1000,1000,1000,1000,0,0,0,0,0,0,0,0,0,0
1682957985.50048399,117128963,1000,1000,1000,1000,0,0,0,0,0,0,0,0,0,0
1682957985.60044408,117228923,1000,1000,1000,1000,0,0,0,0,0,0,0,0,0,0
1682957985.70040393,117328883,1000,1000,1000,1000,0,0,0,0,0,0,0,0,0,0
1682957985.80036402,117428843,1000,1000,1000,1000,0,0,0,0,0,0,0,0,0,0
1682957985.90032411,117528803,1000,1000,1000,1000,0,0,0,0,0,0,0,0,0,0
1682957986.00028396,117628763,1000,1000,1000,1000,0,0,0,0,0,0,0,0,0,0
1682957986.10024405,117728723,1000,1000,1000,1000,0,0,0,0,0,0,0,0,0,0
1682957986.20020390,117828683,1000,1000,1000,1000,0,0,0,0,0,0,0,0,0,0
1682957986.30016398,117928643,1000,1000,1000,1000,0,0,0,0,0,0,0,0,0,0
1682957986.40012407,118028603,1000,1000,1000,1000,0,0,0,0,0,0,0,0,0,0
1682957986.50008392,118128563,1000,1000,1000,1000,0,0,0,0,0,0,0,0,0,0
1682957986.60004401,118228523,1000,1000,1000,1000,0,0,0,0,0,0,0,0,0,0
1682957986.70000410,118328483,1000,1000,1000,1000,0,0,0,0,0,0,0,0,0,0
1682957986.79996395,118428443,1000,1000,1000,1000,0,0,0,0,0,0,0,0,0,0
1682957986.89992404,118528403,1000,1000,1000,1000,0,0,0,0,0,0,0,0,0,0
1682957986.99988389,118628363,1000,1000,1000,1000,0,0,0,0,0,0,0,0,0,0
1682957987.09984398,118728323,1000,1000,1000,1000,0,0,0,0,0,0,0,0,0,0
1682957987.19980407,118828283,1000,1000,1000,1000,0,0,0,0,0,0,0,0,0,0
1682957987.29976392,118928243,1000,1000,1000,1000,0,0,0,0,0,0,0,0,0,0
1682957987.39972401,119028203,1000,1000,1000,1000,0,0,0,0,0,0,0,0,0,0
1682957987.49968410,119128163,1000,1000,1000,1000,0,0,0,0,0,0,0,0,0,0
1682957987.60047698,119228956,1000,1000,1000,1000,0,0,0,0,0,0,0,0,0,0
1682957987.70043707,119328916,1000,1000,1000,1000,0,0,0,0,0,0,0,0,0,0
1682957987.80039692,119428876,1000,1000,1000,1000,0,0,0,0,0,0,0,0,0,0
1682957987.90035701,119528836,1000,1000,1000,1000,0,0,0,0,0,0,0,0,0,0
1682957988.00031710,119628796,1000,1000,1000,1000,0,0,0,0,0,0,0,0,0,0
1682957988.10027695,119728756,1000,1000,1000,1000,0,0,0,0,0,0,0,0,0,0
1682957988.20023704,119828716,1000,1000,1000,1000,0,0,0,0,0,0,0,0,0,0
1682957988.30019689,119928676,1000,1000,1000,1000,0,0,0,0,0,0,0,0,0,0
1682957988.40015697,120028636,1000,1000,1000,1000,0,0,0,0,0,0,0,0,0,0
1682957988.50011706,120128596,1000,1000,1000,1000,0,0,0,0,0,0,0,0,0,0
1682957988.60007691,120228556,1000,1000,1000,1000,0,0,0,0,0,0,0,0,0,0
1682957988.70003700,120328516,1000,1000,1000,1000,0,0,0,0,0,0,0,0,0,0
1682957988.79999709,120428476,1000,1000,1000,1000,0,0,0,0,0,0,0,0,0,0
1682957988.89995694,120528436,1000,1000,1000,1000,0,0,0,0,0,0,0,0,0,0
1682957988.99991703,120628396,1000,1000,1000,1000,0,0,0,0,0,0,0,0,0,0
1682957989.09987688,120728356,1000,1000,1000,1000,0,0,0,0,0,0,0,0,0,0
1682957989.19983697,120828316,1000,1000,1000,1000,0,0,0,0,0,0,0,0,0,0
1682957989.29979706,120928276,1000,1000,1000,1000,0,0,0,0,0,0,0,0,0,0
1682957989.39975691,121028236,1000,1000,1000,1000,0,0,0,0,0,0,0,0,0,0
1682957989.49971700,121128196,1000,1000,1000,1000,0,0,0,0,0,0,0,0,0,0
1682957989.59967709,121228156,1000,1000,1000,1000,0,0,0,0,0,0,0,0,0,0
1682957989.70046997,121328949,1000,1000,1000,1000,0,0,0,0,0,0,0,0,0,0
1682957989.80043006,121428909,1000,1000,1000,1000,0,0,0,0,0,0,0,0,0,0
1682957989.90038991,121528869,1000,1000,1000,1000,0,0,0,0,0,0,0,0,0,0
1682957990.00035000,121628829,1000,1000,1000,1000,0,0,0,0,0,0,0,0,0,0
1682957990.10031009,121728789,1000,1000,1000,1000,0,0,0,0,0,0,0,0,0,0
1682957990.20026994,121828749,1000,1000,1000,1000,0,0,0,0,0,0,0,0,0,0
1682957990.30023003,121928709,1000,1000,1000,1000,0,0,0,0,0,0,0,0,0,0
1682957990.40019011,122028669,1000,1000,1000,1000,0,0,0,0,0,0,0,0,0,0
1682957990.50014997,122128629,1000,1000,1000,1000,0,0,0,0,0,0,0,0,0,0
1682957990.60011005,122228589,1000,1000,1000,1000,0,0,0,0,0,0,0,0,0,0
1682957990.70006990,122328549,1000,1000,1000,1000,0,0,0,0,0,0,0,0,0,0
1682957990.80002999,122428509,1000,1000,1000,1000,0,0,0,0,0,0,0,0,0,0
1682957990.89999008,122528469,1000,1000,1000,1000,0,0,0,0,0,0,0,0,0,0
1682957990.99994993,122628429,1000,1000,1000,1000,0,0,0,0,0,0,0,0,0,0
1682957991.09991002,122728389,1000,1000,1000,1000,0,0,0,0,0,0,0,0,0,0
1682957991.19987011,122828349,1000,1000,1000,1000,0,0,0,0,0,0,0,0,0,0
1682957991.29982996,122928309,1000,1000,1000,1000,0,0,0,0,0,0,0,0,0,0
1682957991.39979005,123028269,1000,1000,1000,1000,0,0,0,0,0,0,0,0,0,0
1682957991.49974990,123128229,1000,1000,1000,1000,0,0,0,0,0,0,0,0,0,0
1682957991.59970999,123228189,1000,1000,1000,1000,0,0,0,0,0,0,0,0,0,0
1682957991.70050311,123328982,1000,1000,1000,1000,0,0,0,0,0,0,0,0,0,0
1682957991.80046296,123428942,1000,1000,1000,1000,0,0,0,0,0,0,0,0,0,0
1682957991.90042305,123528902,1000,1000,1000,1000,0,0,0,0,0,0,0,0,0,0
1682957992.00038290,123628862,1000,1000,1000,1000,0,0,0,0,0,0,0,0,0,0
1682957992.10034299,123728822,1000,1000,1000,1000,0,0,0,0,0,0,0,0,0,0
1682957992.20030308,123828782,1000,1000,1000,1000,0,0,0,0,0,0,0,0,0,0
1682957992.30026293,123928742,1000,1000,1000,1000,0,0,0,0,0,0,0,0,0,0
1682957992.40022302,124028702,1000,1000,1000,1000,0,0,0,0,0,0,0,0,0,0
1682957992.50018311,124128662,1000,1000,1000,1000,0,0,0,0,0,0,0,0,0,0
1682957992.60014296,124228622,1000,1000,1000,1000,0,0,0,0,0,0,0,0,0,0
1682957992.70010304,124328582,1000,1000,1000,1000,0,0,0,0,0,0,0,0,0,0
1682957992.80006289,124428542,1000,1000,1000,1000,0,0,0,0,0,0,0,0,0,0
1682957992.90002298,124528502,1000,1000,1000,1000,0,0,0,0,0,0,0,0,0,0
1682957992.99998307,124628462,1000,1000,1000,1000,0,0,0,0,0,0,0,0,0,0
1682957993.09994292,124728422,1000,1000,1000,1000,0,0,0,0,0,0,0,0,0,0
1682957993.19990301,124828382,1000,1000,1000,1000,0,0,0,0,0,0,0,0,0,0
1682957993.29986310,124928342,1000,1000,1000,1000,0,0,0,0,0,0,0,0,0,0
1682957993.39982295,125028302,1000,1000,1000,1000,0,0,0,0,0,0,0,0,0,0
1682957993.49978304,125128262,1000,1000,1000,1000,0,0,0,0,0,0,0,0,0,0
1682957993.59974289,125228222,1000,1000,1000,1000,0,0,0,0,0,0,0,0,0,0
1682957993.69970298,125328182,1000,1000,1000,1000,0,0,0,0,0,0,0,0,0,0
1682957993.80049610,125428975,1000,1000,1000,1000,0,0,0,0,0,0,0,0,0,0
1682957993.90045595,125528935,1000,1000,1000,1000,0,0,0,0,0,0,0,0,0,0
1682957994.00041604,125628895,1000,1000,1000,1000,0,0,0,0,0,0,0,0,0,0
1682957994.10037589,125728855,1000,1000,1000,1000,0,0,0,0,0,0,0,0,0,0
1682957994.20033598,125828815,1000,1000,1000,1000,0,0,0,0,0,0,0,0,0,0
1682957994.30029607,125928775,1000,1000,1000,1000,0,0,0,0,0,0,0,0,0,0
1682957994.40025592,126028735,1000,1000,1000,1000,0,0,0,0,0,0,0,0,0,0
1682957994.50021601,126128695,1000,1000,1000,1000,0,0,0,0,0,0,0,0,0,0
1682957994.60017610,126228655,1000,1000,1000,1000,0,0,0,0,0,0,0,0,0,0
1682957994.70013595,126328615,1000,1000,1000,1000,0,0,0,0,0,0,0,0,0,0
1682957994.80009604,126428575,1000,1000,1000,1000,0,0,0,0,0,0,0,0,0,0
1682957994.90005589,126528535,1000,1000,1000,1000,0,0,0,0,0,0,0,0,0,0
1682957995.00001597,126628495,1000,1000,1000,1000,0,0,0,0,0,0,0,0,0,0
1682957995.09997606,126728455,1000,1000,1000,1000,0,0,0,0,0,0,0,0,0,0
1682957995.19993591,126828415,1000,1000,1000,1000,0,0,0,0,0,0,0,0,0,0
1682957995.29989600,126928375,1000,1000,1000,1000,0,0,0,0,0,0,0,0,0,0
1682957995.39985609,127028335,1000,1000,1000,1000,0,0,0,0,0,0,0,0,0,0
1682957995.49981594,127128295,1000,1000,1000,1000,0,0,0,0,0,0,0,0,0,0
1682957995.59977603,127228255,1000,1000,1000,1000,0,0,0,0,0,0,0,0,0,0
1682957995.69973588,127328215,1000,1000,1000,1000,0,0,0,0,0,0,0,0,0,0
1682957995.79969597,127428175,1000,1000,1000,1000,0,0,0,0,0,0,0,0,0,0
1682957995.90048909,127528968,1000,1000,1000,1000,0,0,0,0,0,0,0,0,0,0
1682957996.00044894,127628928,1000,1000,1000,1000,0,0,0,0,0,0,0,0,0,0
