timestamp,TimeUS,C1,C2,C3,C4,C5,C6,C7,C8,C9,C10,C11,C12,C13,C14
1682166361.40000010,50628907,1000,1000,1000,1000,0,0,0,0,0,0,0,0,0,0
1682166361.49996018,50728867,1000,1000,1000,1000,0,0,0,0,0,0,0,0,0,0
1682166361.59992003,50828827,1000,1000,1000,1000,0,0,0,0,0,0,0,0,0,0
1682166361.69988012,50928787,1000,1000,1000,1000,0,0,0,0,0,0,0,0,0,0
1682166361.79984021,51028747,1000,1000,1000,1000,0,0,0,0,0,0,0,0,0,0
1682166361.89980006,51128707,1000,1000,1000,1000,0,0,0,0,0,0,0,0,0,0
1682166361.99976015,51228667,1000,1000,1000,1000,0,0,0,0,0,0,0,0,0,0
1682166362.09972024,51328627,1000,1000,1000,1000,0,0,0,0,0,0,0,0,0,0
1682166362.19968009,51428587,1000,1000,1000,1000,0,0,0,0,0,0,0,0,0,0
1682166362.29964018,51528547,1000,1000,1000,1000,0,0,0,0,0,0,0,0,0,0
1682166362.39960003,51628507,1000,1000,1000,1000,0,0,0,0,0,0,0,0,0,0
1682166362.49956012,51728467,1000,1000,1000,1000,0,0,0,0,0,0,0,0,0,0
1682166362.59952021,51828427,1000,1000,1000,1000,0,0,0,0,0,0,0,0,0,0
1682166362.69948006,51928387,1000,1000,1000,1000,0,0,0,0,0,0,0,0,0,0
1682166362.79944015,52028347,1000,1000,1000,1000,0,0,0,0,0,0,0,0,0,0
1682166362.89940023,52128307,1000,1000,1000,1000,0,0,0,0,0,0,0,0,0,0
1682166362.99936008,52228267,1000,1000,1000,1000,0,0,0,0,0,0,0,0,0,0
1682166363.09932017,52328227,1000,1000,1000,1000,0,0,0,0,0,0,0,0,0,0
1682166363.19928002,52428187,1000,1000,1000,1000,0,0,0,0,0,0,0,0,0,0
1682166363.30007315,52528980,1000,1000,1000,1000,0,0,0,0,0,0,0,0,0,0
1682166363.40003324,52628940,1003,1003,1003,1003,0,0,0,0,0,0,0,0,0,0
1682166363.49999309,52728900,1033,1033,1033,1033,0,0,0,0,0,0,0,0,0,0
1682166363.59995317,52828860,1063,1063,1063,1063,0,0,0,0,0,0,0,0,0,0
1682166363.69991302,52928820,1093,1093,1093,1093,0,0,0,0,0,0,0,0,0,0
1682166363.79987311,53028780,1123,1123,1123,1123,0,0,0,0,0,0,0,0,0,0
1682166363.89983320,53128740,1185,1177,1178,1186,0,0,0,0,0,0,0,0,0,0
1682166363.99979305,53228700,1424,1419,1419,1425,0,0,0,0,0,0,0,0,0,0
1682166364.09975314,53328660,1599,1594,1594,1599,0,0,0,0,0,0,0,0,0,0
1682166364.19971323,53428620,1743,1739,1739,1743,0,0,0,0,0,0,0,0,0,0
1682166364.29967308,53528580,1869,1865,1865,1869,0,0,0,0,0,0,0,0,0,0
1682166364.39963317,53628540,1893,1890,1890,1893,0,0,0,0,0,0,0,0,0,0
1682166364.49959302,53728500,1795,1794,1794,1795,0,0,0,0,0,0,0,0,0,0
1682166364.59955311,53828460,1679,1680,1680,1679,0,0,0,0,0,0,0,0,0,0
1682166364.69951320,53928420,1631,1626,1626,1632,0,0,0,0,0,0,0,0,0,0
1682166364.79947305,54028380,1622,1624,1619,1628,0,0,0,0,0,0,0,0,0,0
1682166364.89943314,54128340,1632,1633,1629,1637,0,0,0,0,0,0,0,0,0,0
1682166364.99939322,54228300,1635,1637,1635,1637,0,0,0,0,0,0,0,0,0,0
1682166365.09935308,54328260,1632,1633,1634,1631,0,0,0,0,0,0,0,0,0,0
1682166365.19931316,54428220,1625,1625,1629,1621,0,0,0,0,0,0,0,0,0,0
1682166365.29927301,54528180,1621,1620,1624,1617,0,0,0,0,0,0,0,0,0,0
1682166365.40006614,54628973,1618,1617,1620,1614,0,0,0,0,0,0,0,0,0,0
1682166365.50002623,54728933,1618,1617,1619,1616,0,0,0,0,0,0,0,0,0,0
1682166365.59998608,54828893,1618,1618,1618,1618,0,0,0,0,0,0,0,0,0,0
1682166365.69994617,54928853,1587,1588,1593,1582,0,0,0,0,0,0,0,0,0,0
1682166365.79990602,55028813,1573,1573,1578,1569,0,0,0,0,0,0,0,0,0,0
1682166365.89986610,55128773,1563,1563,1564,1563,0,0,0,0,0,0,0,0,0,0
1682166365.99982619,55228733,1552,1553,1550,1555,0,0,0,0,0,0,0,0,0,0
1682166366.09978604,55328693,1547,1546,1540,1553,0,0,0,0,0,0,0,0,0,0
1682166366.19974613,55428653,1540,1539,1531,1547,0,0,0,0,0,0,0,0,0,0
1682166366.29970622,55528613,1534,1533,1527,1539,0,0,0,0,0,0,0,0,0,0
1682166366.39966607,55628573,1528,1528,1526,1530,0,0,0,0,0,0,0,0,0,0
1682166366.49962616,55728533,1527,1526,1526,1526,0,0,0,0,0,0,0,0,0,0
1682166366.59958625,55828493,1527,1527,1529,1525,0,0,0,0,0,0,0,0,0,0
1682166366.69954610,55928453,1529,1529,1532,1527,0,0,0,0,0,0,0,0,0,0
1682166366.79950619,56028413,1533,1533,1536,1531,0,0,0,0,0,0,0,0,0,0
1682166366.89946604,56128373,1537,1537,1539,1535,0,0,0,0,0,0,0,0,0,0
1682166366.99942613,56228333,1540,1540,1542,1539,0,0,0,0,0,0,0,0,0,0
1682166367.09938622,56328293,1544,1544,1545,1544,0,0,0,0,0,0,0,0,0,0
1682166367.19934607,56428253,1546,1547,1546,1547,0,0,0,0,0,0,0,0,0,0
1682166367.29930615,56528213,1549,1549,1549,1550,0,0,0,0,0,0,0,0,0,0
1682166367.39926624,56628173,1552,1552,1551,1553,0,0,0,0,0,0,0,0,0,0
1682166367.50005913,56728966,1555,1553,1554,1557,0,0,0,0,0,0,0,0,0,0
1682166367.60001922,56828926,1553,1552,1559,1562,0,0,0,0,0,0,0,0,0,0
1682166367.69997907,56928886,1555,1555,1562,1563,0,0,0,0,0,0,0,0,0,0
1682166367.79993916,57028846,1558,1558,1564,1564,0,0,0,0,0,0,0,0,0,0
1682166367.89989924,57128806,1560,1561,1565,1564,0,0,0,0,0,0,0,0,0,0
1682166367.99985909,57228766,1563,1563,1566,1564,0,0,0,0,0,0,0,0,0,0
1682166368.09981918,57328726,1566,1566,1566,1565,0,0,0,0,0,0,0,0,0,0
1682166368.19977903,57428686,1568,1568,1565,1565,0,0,0,0,0,0,0,0,0,0
1682166368.29973912,57528646,1569,1569,1565,1566,0,0,0,0,0,0,0,0,0,0
1682166368.39969921,57628606,1571,1571,1566,1566,0,0,0,0,0,0,0,0,0,0
1682166368.49965906,57728566,1572,1572,1567,1568,0,0,0,0,0,0,0,0,0,0
1682166368.59961915,57828526,1572,1572,1568,1568,0,0,0,0,0,0,0,0,0,0
1682166368.69957924,57928486,1572,1572,1568,1569,0,0,0,0,0,0,0,0,0,0
1682166368.79953909,58028446,1573,1574,1571,1571,0,0,0,0,0,0,0,0,0,0
1682166368.89949918,58128406,1574,1574,1573,1572,0,0,0,0,0,0,0,0,0,0
1682166368.99945903,58228366,1574,1574,1574,1572,0,0,0,0,0,0,0,0,0,0
1682166369.09941912,58328326,1575,1575,1576,1575,0,0,0,0,0,0,0,0,0,0
1682166369.19937921,58428286,1575,1575,1577,1575,0,0,0,0,0,0,0,0,0,0
1682166369.29933906,58528246,1575,1575,1577,1576,0,0,0,0,0,0,0,0,0,0
1682166369.39929914,58628206,1575,1575,1576,1576,0,0,0,0,0,0,0,0,0,0
1682166369.49925923,58728166,1576,1575,1576,1577,0,0,0,0,0,0,0,0,0,0
1682166369.60005212,58828959,1576,1576,1577,1577,0,0,0,0,0,0,0,0,0,0
1682166369.70001221,58928919,1576,1576,1577,1577,0,0,0,0,0,0,0,0,0,0
1682166369.79997206,59028879,1577,1577,1578,1578,0,0,0,0,0,0,0,0,0,0
1682166369.89993215,59128839,1577,1577,1578,1577,0,0,0,0,0,0,0,0,0,0
1682166369.99989223,59228799,1578,1578,1578,1578,0,0,0,0,0,0,0,0,0,0
1682166370.09985209,59328759,1577,1577,1577,1577,0,0,0,0,0,0,0,0,0,0
1682166370.19981217,59428719,1578,1578,1578,1577,0,0,0,0,0,0,0,0,0,0
1682166370.29977202,59528679,1578,1578,1578,1578,0,0,0,0,0,0,0,0,0,0
1682166370.39973211,59628639,1577,1577,1576,1576,0,0,0,0,0,0,0,0,0,0
1682166370.49969220,59728599,1579,1578,1577,1578,0,0,0,0,0,0,0,0,0,0
1682166370.59965205,59828559,1579,1579,1578,1578,0,0,0,0,0,0,0,0,0,0
1682166370.69961214,59928519,1579,1579,1579,1578,0,0,0,0,0,0,0,0,0,0
1682166370.79957223,60028479,1578,1578,1578,1578,0,0,0,0,0,0,0,0,0,0
1682166370.89953208,60128439,1578,1578,1578,1578,0,0,0,0,0,0,0,0,0,0
1682166370.99949217,60228399,1579,1579,1579,1579,0,0,0,0,0,0,0,0,0,0
1682166371.09945202,60328359,1578,1577,1578,1578,0,0,0,0,0,0,0,0,0,0
1682166371.19941211,60428319,1578,1578,1578,1578,0,0,0,0,0,0,0,0,0,0
1682166371.29937220,60528279,1577,1578,1578,1578,0,0,0,0,0,0,0,0,0,0
1682166371.39933205,60628239,1577,1578,1578,1578,0,0,0,0,0,0,0,0,0,0
1682166371.49929214,60728199,1578,1578,1579,1578,0,0,0,0,0,0,0,0,0,0
1682166371.59925222,60828159,1578,1578,1579,1578,0,0,0,0,0,0,0,0,0,0
1682166371.70004511,60928952,1579,1579,1580,1580,0,0,0,0,0,0,0,0,0,0
1682166371.80000520,61028912,1580,1580,1580,1580,0,0,0,0,0,0,0,0,0,0
1682166371.89996505,61128872,1580,1579,1580,1580,0,0,0,0,0,0,0,0,0,0
1682166371.99992514,61228832,1580,1580,1580,1580,0,0,0,0,0,0,0,0,0,0
1682166372.09988523,61328792,1580,1580,1580,1580,0,0,0,0,0,0,0,0,0,0
1682166372.19984508,61428752,1580,1580,1580,1580,0,0,0,0,0,0,0,0,0,0
1682166372.29980516,61528712,1581,1581,1581,1581,0,0,0,0,0,0,0,0,0,0
1682166372.39976501,61628672,1580,1579,1579,1579,0,0,0,0,0,0,0,0,0,0
1682166372.49972510,61728632,1581,1581,1581,1581,0,0,0,0,0,0,0,0,0,0
1682166372.59968519,61828592,1580,1580,1580,1580,0,0,0,0,0,0,0,0,0,0
1682166372.69964504,61928552,1580,1580,1580,1580,0,0,0,0,0,0,0,0,0,0
1682166372.79960513,62028512,1579,1579,1579,1579,0,0,0,0,0,0,0,0,0,0
1682166372.89956522,62128472,1580,1579,1579,1580,0,0,0,0,0,0,0,0,0,0
1682166372.99952507,62228432,1580,1580,1580,1580,0,0,0,0,0,0,0,0,0,0
1682166373.09948516,62328392,1580,1579,1580,1580,0,0,0,0,0,0,0,0,0,0
1682166373.19944525,62428352,1580,1580,1580,1580,0,0,0,0,0,0,0,0,0,0
1682166373.29940510,62528312,1580,1580,1580,1580,0,0,0,0,0,0,0,0,0,0
1682166373.39936519,62628272,1581,1581,1581,1581,0,0,0,0,0,0,0,0,0,0
1682166373.49932504,62728232,1582,1581,1582,1581,0,0,0,0,0,0,0,0,0,0
1682166373.59928513,62828192,1581,1581,1581,1581,0,0,0,0,0,0,0,0,0,0
1682166373.70007825,62928985,1581,1581,1583,1580,0,0,0,0,0,0,0,0,0,0
1682166373.80003810,63028945,1581,1582,1588,1573,0,0,0,0,0,0,0,0,0,0
1682166373.89999819,63128905,1581,1583,1584,1575,0,0,0,0,0,0,0,0,0,0
1682166373.99995804,63228865,1579,1582,1575,1574,0,0,0,0,0,0,0,0,0,0
1682166374.09991813,63328825,1577,1579,1565,1571,0,0,0,0,0,0,0,0,0,0
1682166374.19987822,63428785,1577,1580,1560,1567,0,0,0,0,0,0,0,0,0,0
1682166374.29983807,63528745,1578,1579,1556,1563,0,0,0,0,0,0,0,0,0,0
1682166374.39979815,63628705,1580,1579,1556,1559,0,0,0,0,0,0,0,0,0,0
1682166374.49975824,63728665,1580,1578,1555,1556,0,0,0,0,0,0,0,0,0,0
1682166374.59971809,63828625,1579,1578,1556,1554,0,0,0,0,0,0,0,0,0,0
1682166374.69967818,63928585,1578,1578,1556,1553,0,0,0,0,0,0,0,0,0,0
1682166374.79963803,64028545,1577,1578,1557,1554,0,0,0,0,0,0,0,0,0,0
1682166374.89959812,64128505,1576,1578,1556,1555,0,0,0,0,0,0,0,0,0,0
1682166374.99955821,64228465,1575,1576,1554,1554,0,0,0,0,0,0,0,0,0,0
1682166375.09951806,64328425,1575,1576,1552,1553,0,0,0,0,0,0,0,0,0,0
1682166375.19947815,64428385,1575,1577,1551,1552,0,0,0,0,0,0,0,0,0,0
1682166375.29943824,64528345,1577,1578,1549,1550,0,0,0,0,0,0,0,0,0,0
1682166375.39939809,64628305,1579,1581,1548,1548,0,0,0,0,0,0,0,0,0,0
1682166375.49935818,64728265,1581,1582,1545,1544,0,0,0,0,0,0,0,0,0,0
1682166375.59931803,64828225,1584,1585,1542,1542,0,0,0,0,0,0,0,0,0,0
1682166375.69927812,64928185,1588,1588,1540,1539,0,0,0,0,0,0,0,0,0,0
1682166375.80007124,65028978,1590,1591,1537,1536,0,0,0,0,0,0,0,0,0,0
1682166375.90003109,65128938,1594,1593,1535,1536,0,0,0,0,0,0,0,0,0,0
1682166375.99999118,65228898,1595,1595,1535,1535,0,0,0,0,0,0,0,0,0,0
1682166376.09995103,65328858,1595,1594,1534,1537,0,0,0,0,0,0,0,0,0,0
1682166376.19991112,65428818,1593,1593,1536,1538,0,0,0,0,0,0,0,0,0,0
1682166376.29987121,65528778,1591,1590,1539,1543,0,0,0,0,0,0,0,0,0,0
1682166376.39983106,65628738,1588,1586,1546,1549,0,0,0,0,0,0,0,0,0,0
1682166376.49979115,65728698,1580,1578,1554,1557,0,0,0,0,0,0,0,0,0,0
1682166376.59975123,65828658,1571,1568,1564,1566,0,0,0,0,0,0,0,0,0,0
1682166376.69971108,65928618,1561,1557,1577,1578,0,0,0,0,0,0,0,0,0,0
1682166376.79967117,66028578,1551,1547,1589,1590,0,0,0,0,0,0,0,0,0,0
1682166376.89963102,66128538,1541,1538,1600,1600,0,0,0,0,0,0,0,0,0,0
1682166376.99959111,66228498,1533,1533,1609,1608,0,0,0,0,0,0,0,0,0,0
1682166377.09955120,66328458,1529,1530,1614,1613,0,0,0,0,0,0,0,0,0,0
1682166377.19951105,66428418,1529,1531,1616,1614,0,0,0,0,0,0,0,0,0,0
1682166377.29947114,66528378,1531,1534,1612,1611,0,0,0,0,0,0,0,0,0,0
1682166377.39943123,66628338,1539,1541,1608,1608,0,0,0,0,0,0,0,0,0,0
1682166377.49939108,66728298,1546,1548,1601,1602,0,0,0,0,0,0,0,0,0,0
1682166377.59935117,66828258,1556,1557,1595,1595,0,0,0,0,0,0,0,0,0,0
1682166377.69931102,66928218,1564,1564,1587,1586,0,0,0,0,0,0,0,0,0,0
1682166377.79927111,67028178,1573,1572,1581,1580,0,0,0,0,0,0,0,0,0,0
1682166377.90006423,67128971,1579,1578,1574,1573,0,0,0,0,0,0,0,0,0,0
1682166378.00002408,67228931,1584,1583,1570,1569,0,0,0,0,0,0,0,0,0,0
1682166378.09998417,67328891,1587,1586,1567,1567,0,0,0,0,0,0,0,0,0,0
1682166378.19994402,67428851,1588,1587,1566,1566,0,0,0,0,0,0,0,0,0,0
1682166378.29990411,67528811,1587,1586,1566,1567,0,0,0,0,0,0,0,0,0,0
1682166378.39986420,67628771,1585,1584,1568,1568,0,0,0,0,0,0,0,0,0,0
1682166378.49982405,67728731,1410,1562,1398,1551,0,0,0,0,0,0,0,0,0,0
1682166378.59978414,67828691,1548,1562,1541,1558,0,0,0,0,0,0,0,0,0,0
1682166378.69974422,67928651,1599,1570,1601,1570,0,0,0,0,0,0,0,0,0,0
1682166378.79970407,68028611,1640,1592,1647,1596,0,0,0,0,0,0,0,0,0,0
1682166378.89966416,68128571,1662,1612,1670,1619,0,0,0,0,0,0,0,0,0,0
1682166378.99962401,68228531,1656,1623,1664,1628,0,0,0,0,0,0,0,0,0,0
1682166379.09958410,68328491,1629,1621,1635,1622,0,0,0,0,0,0,0,0,0,0
1682166379.19954419,68428451,1599,1614,1607,1618,0,0,0,0,0,0,0,0,0,0
1682166379.29950404,68528411,1574,1600,1588,1615,0,0,0,0,0,0,0,0,0,0
1682166379.39946413,68628371,1561,1586,1582,1613,0,0,0,0,0,0,0,0,0,0
1682166379.49942422,68728331,1557,1573,1583,1607,0,0,0,0,0,0,0,0,0,0
1682166379.59938407,68828291,1559,1566,1586,1598,0,0,0,0,0,0,0,0,0,0
1682166379.69934416,68928251,1566,1566,1588,1588,0,0,0,0,0,0,0,0,0,0
1682166379.79930425,69028211,1574,1570,1587,1580,0,0,0,0,0,0,0,0,0,0
1682166379.89926410,69128171,1581,1576,1583,1573,0,0,0,0,0,0,0,0,0,0
1682166380.00005722,69228964,1585,1581,1576,1568,0,0,0,0,0,0,0,0,0,0
1682166380.10001707,69328924,1586,1586,1570,1566,0,0,0,0,0,0,0,0,0,0
1682166380.19997716,69428884,1586,1587,1565,1565,0,0,0,0,0,0,0,0,0,0
1682166380.29993725,69528844,1586,1587,1562,1564,0,0,0,0,0,0,0,0,0,0
1682166380.39989710,69628804,1584,1586,1561,1564,0,0,0,0,0,0,0,0,0,0
1682166380.49985719,69728764,1583,1584,1562,1565,0,0,0,0,0,0,0,0,0,0
1682166380.59981704,69828724,1580,1580,1563,1565,0,0,0,0,0,0,0,0,0,0
1682166380.69977713,69928684,1579,1579,1566,1567,0,0,0,0,0,0,0,0,0,0
1682166380.79973722,70028644,1578,1577,1569,1569,0,0,0,0,0,0,0,0,0,0
1682166380.89969707,70128604,1577,1577,1573,1571,0,0,0,0,0,0,0,0,0,0
1682166380.99965715,70228564,1575,1574,1574,1574,0,0,0,0,0,0,0,0,0,0
1682166381.09961724,70328524,1574,1574,1576,1576,0,0,0,0,0,0,0,0,0,0
1682166381.19957709,70428484,1572,1573,1577,1577,0,0,0,0,0,0,0,0,0,0
1682166381.29953718,70528444,1572,1573,1579,1579,0,0,0,0,0,0,0,0,0,0
1682166381.39949703,70628404,1572,1573,1579,1578,0,0,0,0,0,0,0,0,0,0
1682166381.49945712,70728364,1573,1574,1579,1579,0,0,0,0,0,0,0,0,0,0
1682166381.59941721,70828324,1574,1574,1579,1579,0,0,0,0,0,0,0,0,0,0
1682166381.69937706,70928284,1575,1576,1579,1579,0,0,0,0,0,0,0,0,0,0
1682166381.79933715,71028244,1576,1577,1585,1570,0,0,0,0,0,0,0,0,0,0
1682166381.89929724,71128204,1576,1578,1581,1569,0,0,0,0,0,0,0,0,0,0
1682166381.99925709,71228164,1576,1578,1573,1569,0,0,0,0,0,0,0,0,0,0
1682166382.10005021,71328957,1575,1577,1564,1568,0,0,0,0,0,0,0,0,0,0
1682166382.20001006,71428917,1575,1577,1557,1564,0,0,0,0,0,0,0,0,0,0
1682166382.29997015,71528877,1576,1576,1553,1560,0,0,0,0,0,0,0,0,0,0
1682166382.39993024,71628837,1578,1576,1552,1557,0,0,0,0,0,0,0,0,0,0
1682166382.49989009,71728797,1578,1577,1552,1554,0,0,0,0,0,0,0,0,0,0
1682166382.59985018,71828757,1578,1578,1553,1552,0,0,0,0,0,0,0,0,0,0
1682166382.69981003,71928717,1578,1578,1554,1551,0,0,0,0,0,0,0,0,0,0
1682166382.79977012,72028677,1577,1578,1554,1551,0,0,0,0,0,0,0,0,0,0
1682166382.89973021,72128637,1576,1577,1554,1552,0,0,0,0,0,0,0,0,0,0
1682166382.99969006,72228597,1576,1577,1553,1552,0,0,0,0,0,0,0,0,0,0
1682166383.09965014,72328557,1575,1577,1552,1552,0,0,0,0,0,0,0,0,0,0
1682166383.19961023,72428517,1575,1577,1550,1551,0,0,0,0,0,0,0,0,0,0
1682166383.29957008,72528477,1576,1577,1549,1549,0,0,0,0,0,0,0,0,0,0
1682166383.39953017,72628437,1578,1579,1548,1549,0,0,0,0,0,0,0,0,0,0
1682166383.49949002,72728397,1578,1580,1546,1546,0,0,0,0,0,0,0,0,0,0
1682166383.59945011,72828357,1581,1582,1546,1545,0,0,0,0,0,0,0,0,0,0
1682166383.69941020,72928317,1583,1584,1544,1544,0,0,0,0,0,0,0,0,0,0
1682166383.79937005,73028277,1585,1585,1544,1544,0,0,0,0,0,0,0,0,0,0
1682166383.89933014,73128237,1586,1586,1543,1543,0,0,0,0,0,0,0,0,0,0
1682166383.99929023,73228197,1587,1587,1543,1544,0,0,0,0,0,0,0,0,0,0
1682166384.09925008,73328157,1588,1587,1545,1546,0,0,0,0,0,0,0,0,0,0
1682166384.20004320,73428950,1586,1586,1546,1549,0,0,0,0,0,0,0,0,0,0
1682166384.30000305,73528910,1584,1583,1549,1552,0,0,0,0,0,0,0,0,0,0
1682166384.39996314,73628870,1580,1580,1554,1557,0,0,0,0,0,0,0,0,0,0
1682166384.49992323,73728830,1575,1574,1559,1562,0,0,0,0,0,0,0,0,0,0
1682166384.59988308,73828790,1571,1568,1568,1570,0,0,0,0,0,0,0,0,0,0
1682166384.69984317,73928750,1564,1561,1576,1577,0,0,0,0,0,0,0,0,0,0
1682166384.79980302,74028710,1557,1555,1584,1584,0,0,0,0,0,0,0,0,0,0
1682166384.89976311,74128670,1550,1549,1591,1590,0,0,0,0,0,0,0,0,0,0
1682166384.99972320,74228630,1545,1545,1596,1596,0,0,0,0,0,0,0,0,0,0
1682166385.09968305,74328590,1543,1544,1601,1600,0,0,0,0,0,0,0,0,0,0
1682166385.19964314,74428550,1541,1543,1602,1601,0,0,0,0,0,0,0,0,0,0
1682166385.29960322,74528510,1543,1545,1603,1602,0,0,0,0,0,0,0,0,0,0
1682166385.39956307,74628470,1547,1549,1600,1600,0,0,0,0,0,0,0,0,0,0
1682166385.49952316,74728430,1551,1552,1596,1596,0,0,0,0,0,0,0,0,0,0
1682166385.59948301,74828390,1557,1557,1593,1592,0,0,0,0,0,0,0,0,0,0
1682166385.69944310,74928350,1563,1563,1588,1587,0,0,0,0,0,0,0,0,0,0
1682166385.79940319,75028310,1569,1568,1584,1583,0,0,0,0,0,0,0,0,0,0
1682166385.89936304,75128270,1574,1573,1580,1579,0,0,0,0,0,0,0,0,0,0
1682166385.99932313,75228230,1577,1576,1575,1575,0,0,0,0,0,0,0,0,0,0
1682166386.09928322,75328190,1580,1579,1572,1572,0,0,0,0,0,0,0,0,0,0
1682166386.20007610,75428983,1583,1581,1571,1572,0,0,0,0,0,0,0,0,0,0
1682166386.30003619,75528943,1583,1582,1570,1571,0,0,0,0,0,0,0,0,0,0
1682166386.39999604,75628903,1583,1582,1570,1571,0,0,0,0,0,0,0,0,0,0
1682166386.49995613,75728863,1582,1582,1572,1573,0,0,0,0,0,0,0,0,0,0
1682166386.59991622,75828823,1580,1580,1573,1573,0,0,0,0,0,0,0,0,0,0
1682166386.69987607,75928783,1579,1579,1575,1575,0,0,0,0,0,0,0,0,0,0
1682166386.79983616,76028743,1577,1577,1577,1576,0,0,0,0,0,0,0,0,0,0
1682166386.89979625,76128703,1576,1577,1579,1579,0,0,0,0,0,0,0,0,0,0
1682166386.99975610,76228663,1575,1576,1580,1580,0,0,0,0,0,0,0,0,0,0
1682166387.09971619,76328623,1576,1577,1583,1583,0,0,0,0,0,0,0,0,0,0
1682166387.19967604,76428583,1575,1577,1583,1583,0,0,0,0,0,0,0,0,0,0
1682166387.29963613,76528543,1575,1576,1583,1583,0,0,0,0,0,0,0,0,0,0
1682166387.39959621,76628503,1576,1576,1583,1582,0,0,0,0,0,0,0,0,0,0
1682166387.49955606,76728463,1576,1576,1581,1581,0,0,0,0,0,0,0,0,0,0
1682166387.59951615,76828423,1577,1577,1581,1581,0,0,0,0,0,0,0,0,0,0
1682166387.69947624,76928383,1578,1577,1580,1580,0,0,0,0,0,0,0,0,0,0
1682166387.79943609,77028343,1579,1579,1580,1580,0,0,0,0,0,0,0,0,0,0
1682166387.89939618,77128303,1580,1580,1579,1580,0,0,0,0,0,0,0,0,0,0
1682166387.99935603,77228263,1580,1580,1578,1579,0,0,0,0,0,0,0,0,0,0
1682166388.09931612,77328223,1580,1580,1578,1578,0,0,0,0,0,0,0,0,0,0
1682166388.19927621,77428183,1581,1581,1578,1578,0,0,0,0,0,0,0,0,0,0
1682166388.30006909,77528976,1581,1581,1578,1578,0,0,0,0,0,0,0,0,0,0
1682166388.40002918,77628936,1581,1581,1578,1578,0,0,0,0,0,0,0,0,0,0
1682166388.49998903,77728896,1580,1580,1578,1578,0,0,0,0,0,0,0,0,0,0
1682166388.59994912,77828856,1580,1580,1578,1578,0,0,0,0,0,0,0,0,0,0
1682166388.69990921,77928816,1580,1580,1579,1579,0,0,0,0,0,0,0,0,0,0
1682166388.79986906,78028776,1580,1581,1580,1580,0,0,0,0,0,0,0,0,0,0
1682166388.89982915,78128736,1580,1580,1581,1580,0,0,0,0,0,0,0,0,0,0
1682166388.99978924,78228696,1580,1580,1581,1581,0,0,0,0,0,0,0,0,0,0
1682166389.09974909,78328656,1581,1581,1582,1582,0,0,0,0,0,0,0,0,0,0
1682166389.19970918,78428616,1581,1580,1582,1582,0,0,0,0,0,0,0,0,0,0
1682166389.29966903,78528576,1580,1580,1581,1582,0,0,0,0,0,0,0,0,0,0
1682166389.39962912,78628536,1580,1580,1581,1581,0,0,0,0,0,0,0,0,0,0
1682166389.49958920,78728496,1581,1581,1582,1582,0,0,0,0,0,0,0,0,0,0
1682166389.59954906,78828456,1580,1580,1581,1580,0,0,0,0,0,0,0,0,0,0
1682166389.69950914,78928416,1581,1581,1582,1582,0,0,0,0,0,0,0,0,0,0
1682166389.79946923,79028376,1582,1581,1582,1582,0,0,0,0,0,0,0,0,0,0
1682166389.89942908,79128336,1581,1581,1581,1581,0,0,0,0,0,0,0,0,0,0
1682166389.99938917,79228296,1581,1581,1580,1580,0,0,0,0,0,0,0,0,0,0
1682166390.09934902,79328256,1582,1582,1581,1581,0,0,0,0,0,0,0,0,0,0
1682166390.19930911,79428216,1581,1582,1585,1576,0,0,0,0,0,0,0,0,0,0
1682166390.29926920,79528176,1581,1584,1587,1573,0,0,0,0,0,0,0,0,0,0
1682166390.40006208,79628969,1579,1581,1579,1572,0,0,0,0,0,0,0,0,0,0
1682166390.50002217,79728929,1578,1581,1571,1572,0,0,0,0,0,0,0,0,0,0
1682166390.59998202,79828889,1576,1578,1563,1569,0,0,0,0,0,0,0,0,0,0
1682166390.69994211,79928849,1577,1578,1558,1565,0,0,0,0,0,0,0,0,0,0
1682166390.79990220,80028809,1578,1578,1556,1561,0,0,0,0,0,0,0,0,0,0
1682166390.89986205,80128769,1578,1577,1554,1557,0,0,0,0,0,0,0,0,0,0
1682166390.99982214,80228729,1579,1578,1554,1554,0,0,0,0,0,0,0,0,0,0
1682166391.09978223,80328689,1579,1577,1555,1553,0,0,0,0,0,0,0,0,0,0
1682166391.19974208,80428649,1578,1578,1556,1553,0,0,0,0,0,0,0,0,0,0
1682166391.29970217,80528609,1578,1579,1556,1554,0,0,0,0,0,0,0,0,0,0
1682166391.39966202,80628569,1576,1577,1555,1553,0,0,0,0,0,0,0,0,0,0
1682166391.49962211,80728529,1576,1578,1554,1554,0,0,0,0,0,0,0,0,0,0
1682166391.59958220,80828489,1575,1578,1553,1553,0,0,0,0,0,0,0,0,0,0
1682166391.69954205,80928449,1576,1578,1551,1552,0,0,0,0,0,0,0,0,0,0
1682166391.79950213,81028409,1576,1578,1549,1549,0,0,0,0,0,0,0,0,0,0
1682166391.89946222,81128369,1579,1580,1548,1548,0,0,0,0,0,0,0,0,0,0
1682166391.99942207,81228329,1580,1581,1545,1545,0,0,0,0,0,0,0,0,0,0
1682166392.09938216,81328289,1584,1584,1544,1543,0,0,0,0,0,0,0,0,0,0
1682166392.19934201,81428249,1586,1586,1541,1541,0,0,0,0,0,0,0,0,0,0
1682166392.29930210,81528209,1588,1588,1539,1539,0,0,0,0,0,0,0,0,0,0
1682166392.39926219,81628169,1591,1591,1539,1539,0,0,0,0,0,0,0,0,0,0
1682166392.50005507,81728962,1592,1592,1537,1538,0,0,0,0,0,0,0,0,0,0
1682166392.60001516,81828922,1593,1593,1538,1540,0,0,0,0,0,0,0,0,0,0
1682166392.69997501,81928882,1592,1592,1539,1541,0,0,0,0,0,0,0,0,0,0
1682166392.79993510,82028842,1592,1590,1544,1547,0,0,0,0,0,0,0,0,0,0
1682166392.89989519,82128802,1588,1585,1550,1553,0,0,0,0,0,0,0,0,0,0
1682166392.99985504,82228762,1582,1578,1558,1561,0,0,0,0,0,0,0,0,0,0
1682166393.09981513,82328722,1573,1568,1568,1570,0,0,0,0,0,0,0,0,0,0
1682166393.19977522,82428682,1563,1559,1579,1581,0,0,0,0,0,0,0,0,0,0
1682166393.29973507,82528642,1553,1550,1590,1591,0,0,0,0,0,0,0,0,0,0
1682166393.39969516,82628602,1544,1543,1600,1600,0,0,0,0,0,0,0,0,0,0
1682166393.49965525,82728562,1537,1539,1608,1606,0,0,0,0,0,0,0,0,0,0
1682166393.59961510,82828522,1535,1538,1613,1612,0,0,0,0,0,0,0,0,0,0
1682166393.69957519,82928482,1534,1537,1614,1612,0,0,0,0,0,0,0,0,0,0
1682166393.79953504,83028442,1538,1541,1613,1612,0,0,0,0,0,0,0,0,0,0
1682166393.89949512,83128402,1543,1545,1608,1607,0,0,0,0,0,0,0,0,0,0
1682166393.99945521,83228362,1549,1550,1602,1602,0,0,0,0,0,0,0,0,0,0
1682166394.09941506,83328322,1557,1557,1596,1595,0,0,0,0,0,0,0,0,0,0
1682166394.19937515,83428282,1564,1563,1588,1588,0,0,0,0,0,0,0,0,0,0
1682166394.29933524,83528242,1570,1569,1580,1581,0,0,0,0,0,0,0,0,0,0
1682166394.39929509,83628202,1577,1575,1575,1576,0,0,0,0,0,0,0,0,0,0
1682166394.49925518,83728162,1581,1579,1570,1571,0,0,0,0,0,0,0,0,0,0
1682166394.60004807,83828955,1585,1583,1567,1568,0,0,0,0,0,0,0,0,0,0
1682166394.70000815,83928915,1586,1584,1565,1566,0,0,0,0,0,0,0,0,0,0
1682166394.79996824,84028875,1585,1585,1565,1566,0,0,0,0,0,0,0,0,0,0
1682166394.89992809,84128835,1585,1584,1568,1568,0,0,0,0,0,0,0,0,0,0
1682166394.99988818,84228795,1583,1582,1569,1569,0,0,0,0,0,0,0,0,0,0
1682166395.09984803,84328755,1582,1582,1573,1573,0,0,0,0,0,0,0,0,0,0
1682166395.19980812,84428715,1579,1578,1575,1575,0,0,0,0,0,0,0,0,0,0
1682166395.29976821,84528675,1576,1577,1578,1577,0,0,0,0,0,0,0,0,0,0
1682166395.39972806,84628635,1574,1575,1580,1580,0,0,0,0,0,0,0,0,0,0
1682166395.49968815,84728595,1573,1574,1582,1582,0,0,0,0,0,0,0,0,0,0
1682166395.59964824,84828555,1572,1573,1583,1583,0,0,0,0,0,0,0,0,0,0
1682166395.69960809,84928515,1572,1573,1583,1582,0,0,0,0,0,0,0,0,0,0
1682166395.79956818,85028475,1573,1574,1583,1583,0,0,0,0,0,0,0,0,0,0
1682166395.89952803,85128435,1575,1575,1584,1584,0,0,0,0,0,0,0,0,0,0
1682166395.99948812,85228395,1575,1575,1582,1582,0,0,0,0,0,0,0,0,0,0
1682166396.09944820,85328355,1577,1577,1581,1581,0,0,0,0,0,0,0,0,0,0
1682166396.19940805,85428315,1578,1578,1580,1580,0,0,0,0,0,0,0,0,0,0
1682166396.29936814,85528275,1578,1578,1578,1578,0,0,0,0,0,0,0,0,0,0
1682166396.39932823,85628235,1579,1579,1577,1577,0,0,0,0,0,0,0,0,0,0
1682166396.49928808,85728195,1581,1580,1577,1577,0,0,0,0,0,0,0,0,0,0
1682166396.59924817,85828155,1581,1581,1577,1577,0,0,0,0,0,0,0,0,0,0
1682166396.70004106,85928948,1581,1581,1577,1577,0,0,0,0,0,0,0,0,0,0
1682166396.80000114,86028908,1582,1582,1578,1577,0,0,0,0,0,0,0,0,0,0
1682166396.89996123,86128868,1581,1581,1578,1578,0,0,0,0,0,0,0,0,0,0
1682166396.99992108,86228828,1580,1580,1577,1578,0,0,0,0,0,0,0,0,0,0
1682166397.09988117,86328788,1580,1580,1579,1579,0,0,0,0,0,0,0,0,0,0
1682166397.19984102,86428748,1581,1580,1580,1580,0,0,0,0,0,0,0,0,0,0
1682166397.29980111,86528708,1580,1580,1580,1580,0,0,0,0,0,0,0,0,0,0
1682166397.39976120,86628668,1580,1580,1580,1581,0,0,0,0,0,0,0,0,0,0
1682166397.49972105,86728628,1580,1580,1582,1581,0,0,0,0,0,0,0,0,0,0
1682166397.59968114,86828588,1579,1579,1581,1581,0,0,0,0,0,0,0,0,0,0
1682166397.69964123,86928548,1579,1580,1581,1581,0,0,0,0,0,0,0,0,0,0
1682166397.79960108,87028508,1580,1580,1582,1582,0,0,0,0,0,0,0,0,0,0
1682166397.89956117,87128468,1580,1580,1581,1581,0,0,0,0,0,0,0,0,0,0
1682166397.99952102,87228428,1582,1581,1583,1583,0,0,0,0,0,0,0,0,0,0
1682166398.09948111,87328388,1581,1581,1582,1582,0,0,0,0,0,0,0,0,0,0
1682166398.19944119,87428348,1582,1582,1587,1574,0,0,0,0,0,0,0,0,0,0
1682166398.29940104,87528308,1582,1582,1587,1573,0,0,0,0,0,0,0,0,0,0
1682166398.39936113,87628268,1579,1578,1580,1574,0,0,0,0,0,0,0,0,0,0
1682166398.49932122,87728228,1575,1574,1572,1574,0,0,0,0,0,0,0,0,0,0
1682166398.59928107,87828188,1572,1571,1567,1574,0,0,0,0,0,0,0,0,0,0
1682166398.70007420,87928981,1569,1568,1564,1571,0,0,0,0,0,0,0,0,0,0
1682166398.80003405,88028941,1567,1568,1564,1569,0,0,0,0,0,0,0,0,0,0
1682166398.89999413,88128901,1566,1567,1565,1567,0,0,0,0,0,0,0,0,0,0
1682166398.99995422,88228861,1565,1566,1565,1565,0,0,0,0,0,0,0,0,0,0
1682166399.09991407,88328821,1565,1565,1565,1563,0,0,0,0,0,0,0,0,0,0
1682166399.19987416,88428781,1564,1564,1566,1563,0,0,0,0,0,0,0,0,0,0
1682166399.29983401,88528741,1564,1564,1565,1563,0,0,0,0,0,0,0,0,0,0
1682166399.39979410,88628701,1564,1564,1565,1564,0,0,0,0,0,0,0,0,0,0
1682166399.49975419,88728661,1563,1563,1564,1564,0,0,0,0,0,0,0,0,0,0
1682166399.59971404,88828621,1562,1563,1563,1564,0,0,0,0,0,0,0,0,0,0
1682166399.69967413,88928581,1562,1562,1562,1563,0,0,0,0,0,0,0,0,0,0
1682166399.79963422,89028541,1561,1562,1562,1562,0,0,0,0,0,0,0,0,0,0
1682166399.89959407,89128501,1561,1561,1562,1561,0,0,0,0,0,0,0,0,0,0
1682166399.99955416,89228461,1561,1561,1562,1560,0,0,0,0,0,0,0,0,0,0
1682166400.09951425,89328421,1560,1560,1560,1559,0,0,0,0,0,0,0,0,0,0
1682166400.19947410,89428381,1560,1559,1560,1559,0,0,0,0,0,0,0,0,0,0
1682166400.29943419,89528341,1558,1558,1558,1557,0,0,0,0,0,0,0,0,0,0
1682166400.39939404,89628301,1558,1558,1558,1558,0,0,0,0,0,0,0,0,0,0
1682166400.49935412,89728261,1558,1558,1558,1557,0,0,0,0,0,0,0,0,0,0
1682166400.59931421,89828221,1557,1557,1558,1556,0,0,0,0,0,0,0,0,0,0
1682166400.69927406,89928181,1557,1557,1558,1557,0,0,0,0,0,0,0,0,0,0
1682166400.80006719,90028974,1558,1558,1559,1556,0,0,0,0,0,0,0,0,0,0
1682166400.90002704,90128934,1558,1558,1559,1556,0,0,0,0,0,0,0,0,0,0
1682166400.99998713,90228894,1559,1558,1559,1558,0,0,0,0,0,0,0,0,0,0
1682166401.09994721,90328854,1560,1560,1558,1562,0,0,0,0,0,0,0,0,0,0
1682166401.19990706,90428814,1560,1560,1557,1564,0,0,0,0,0,0,0,0,0,0
1682166401.29986715,90528774,1560,1561,1558,1564,0,0,0,0,0,0,0,0,0,0
1682166401.39982724,90628734,1561,1561,1559,1563,0,0,0,0,0,0,0,0,0,0
1682166401.49978709,90728694,1559,1559,1559,1559,0,0,0,0,0,0,0,0,0,0
1682166401.59974718,90828654,1560,1560,1561,1559,0,0,0,0,0,0,0,0,0,0
1682166401.69970703,90928614,1559,1558,1558,1560,0,0,0,0,0,0,0,0,0,0
1682166401.79966712,91028574,1555,1555,1554,1556,0,0,0,0,0,0,0,0,0,0
1682166401.89962721,91128534,1550,1550,1549,1550,0,0,0,0,0,0,0,0,0,0
1682166401.99958706,91228494,1543,1544,1544,1543,0,0,0,0,0,0,0,0,0,0
1682166402.09954715,91328454,1537,1537,1537,1537,0,0,0,0,0,0,0,0,0,0
1682166402.19950724,91428414,1530,1530,1530,1530,0,0,0,0,0,0,0,0,0,0
1682166402.29946709,91528374,1522,1523,1523,1523,0,0,0,0,0,0,0,0,0,0
1682166402.39942718,91628334,1519,1520,1520,1520,0,0,0,0,0,0,0,0,0,0
1682166402.49938703,91728294,1519,1519,1518,1520,0,0,0,0,0,0,0,0,0,0
1682166402.59934711,91828254,1520,1521,1520,1522,0,0,0,0,0,0,0,0,0,0
1682166402.69930720,91928214,1522,1523,1522,1523,0,0,0,0,0,0,0,0,0,0
1682166402.79926705,92028174,1526,1527,1526,1527,0,0,0,0,0,0,0,0,0,0
1682166402.90006018,92128967,1530,1530,1530,1530,0,0,0,0,0,0,0,0,0,0
1682166403.00002003,92228927,1535,1535,1535,1535,0,0,0,0,0,0,0,0,0,0
1682166403.09998012,92328887,1539,1538,1539,1538,0,0,0,0,0,0,0,0,0,0
1682166403.19994020,92428847,1541,1541,1542,1541,0,0,0,0,0,0,0,0,0,0
1682166403.29990005,92528807,1543,1543,1544,1542,0,0,0,0,0,0,0,0,0,0
1682166403.39986014,92628767,1544,1544,1545,1543,0,0,0,0,0,0,0,0,0,0
1682166403.49982023,92728727,1545,1545,1545,1545,0,0,0,0,0,0,0,0,0,0
1682166403.59978008,92828687,1546,1546,1546,1545,0,0,0,0,0,0,0,0,0,0
1682166403.69974017,92928647,1547,1547,1547,1547,0,0,0,0,0,0,0,0,0,0
1682166403.79970002,93028607,1546,1547,1546,1546,0,0,0,0,0,0,0,0,0,0
1682166403.89966011,93128567,1547,1547,1547,1547,0,0,0,0,0,0,0,0,0,0
1682166403.99962020,93228527,1547,1547,1547,1547,0,0,0,0,0,0,0,0,0,0
1682166404.09958005,93328487,1547,1547,1547,1547,0,0,0,0,0,0,0,0,0,0
1682166404.19954014,93428447,1546,1546,1546,1546,0,0,0,0,0,0,0,0,0,0
1682166404.29950023,93528407,1546,1545,1546,1545,0,0,0,0,0,0,0,0,0,0
1682166404.39946008,93628367,1546,1546,1546,1545,0,0,0,0,0,0,0,0,0,0
1682166404.49942017,93728327,1545,1545,1545,1545,0,0,0,0,0,0,0,0,0,0
1682166404.59938002,93828287,1546,1546,1546,1546,0,0,0,0,0,0,0,0,0,0
1682166404.69934011,93928247,1546,1546,1546,1546,0,0,0,0,0,0,0,0,0,0
1682166404.79930019,94028207,1546,1546,1546,1546,0,0,0,0,0,0,0,0,0,0
1682166404.89926004,94128167,1544,1545,1545,1545,0,0,0,0,0,0,0,0,0,0
1682166405.00005317,94228960,1544,1545,1544,1545,0,0,0,0,0,0,0,0,0,0
1682166405.10001302,94328920,1544,1543,1544,1544,0,0,0,0,0,0,0,0,0,0
1682166405.19997311,94428880,1544,1543,1544,1543,0,0,0,0,0,0,0,0,0,0
1682166405.29993320,94528840,1544,1543,1543,1544,0,0,0,0,0,0,0,0,0,0
1682166405.39989305,94628800,1543,1544,1544,1544,0,0,0,0,0,0,0,0,0,0
1682166405.49985313,94728760,1543,1544,1544,1543,0,0,0,0,0,0,0,0,0,0
1682166405.59981322,94828720,1544,1544,1544,1544,0,0,0,0,0,0,0,0,0,0
1682166405.69977307,94928680,1544,1544,1544,1544,0,0,0,0,0,0,0,0,0,0
1682166405.79973316,95028640,1545,1545,1545,1545,0,0,0,0,0,0,0,0,0,0
1682166405.89969301,95128600,1545,1544,1544,1545,0,0,0,0,0,0,0,0,0,0
1682166405.99965310,95228560,1545,1545,1545,1545,0,0,0,0,0,0,0,0,0,0
1682166406.09961319,95328520,1544,1544,1544,1544,0,0,0,0,0,0,0,0,0,0
1682166406.19957304,95428480,1545,1544,1544,1545,0,0,0,0,0,0,0,0,0,0
1682166406.29953313,95528440,1544,1544,1544,1544,0,0,0,0,0,0,0,0,0,0
1682166406.39949322,95628400,1544,1545,1545,1544,0,0,0,0,0,0,0,0,0,0
1682166406.49945307,95728360,1544,1544,1544,1544,0,0,0,0,0,0,0,0,0,0
1682166406.59941316,95828320,1544,1545,1545,1544,0,0,0,0,0,0,0,0,0,0
1682166406.69937325,95928280,1544,1544,1544,1544,0,0,0,0,0,0,0,0,0,0
1682166406.79933310,96028240,1544,1544,1544,1544,0,0,0,0,0,0,0,0,0,0
1682166406.89929318,96128200,1544,1544,1544,1544,0,0,0,0,0,0,0,0,0,0
1682166406.99925303,96228160,1544,1544,1544,1544,0,0,0,0,0,0,0,0,0,0
1682166407.10004616,96328953,1544,1543,1543,1544,0,0,0,0,0,0,0,0,0,0
1682166407.20000625,96428913,1544,1543,1543,1544,0,0,0,0,0,0,0,0,0,0
1682166407.29996610,96528873,1544,1544,1544,1544,0,0,0,0,0,0,0,0,0,0
1682166407.39992619,96628833,1544,1544,1544,1544,0,0,0,0,0,0,0,0,0,0
1682166407.49988604,96728793,1544,1544,1544,1544,0,0,0,0,0,0,0,0,0,0
1682166407.59984612,96828753,1545,1545,1545,1545,0,0,0,0,0,0,0,0,0,0
1682166407.69980621,96928713,1544,1544,1544,1544,0,0,0,0,0,0,0,0,0,0
1682166407.79976606,97028673,1544,1544,1544,1544,0,0,0,0,0,0,0,0,0,0
1682166407.89972615,97128633,1544,1543,1544,1544,0,0,0,0,0,0,0,0,0,0
1682166407.99968624,97228593,1544,1544,1544,1544,0,0,0,0,0,0,0,0,0,0
1682166408.09964609,97328553,1544,1544,1544,1544,0,0,0,0,0,0,0,0,0,0
1682166408.19960618,97428513,1543,1544,1543,1543,0,0,0,0,0,0,0,0,0,0
1682166408.29956603,97528473,1543,1543,1543,1543,0,0,0,0,0,0,0,0,0,0
1682166408.39952612,97628433,1544,1544,1544,1544,0,0,0,0,0,0,0,0,0,0
1682166408.49948621,97728393,1544,1543,1543,1544,0,0,0,0,0,0,0,0,0,0
1682166408.59944606,97828353,1544,1544,1544,1544,0,0,0,0,0,0,0,0,0,0
1682166408.69940615,97928313,1545,1544,1544,1545,0,0,0,0,0,0,0,0,0,0
1682166408.79936624,98028273,1545,1545,1545,1544,0,0,0,0,0,0,0,0,0,0
1682166408.89932609,98128233,1544,1544,1544,1544,0,0,0,0,0,0,0,0,0,0
1682166408.99928617,98228193,1544,1544,1544,1544,0,0,0,0,0,0,0,0,0,0
1682166409.10007906,98328986,1544,1544,1544,1544,0,0,0,0,0,0,0,0,0,0
1682166409.20003915,98428946,1543,1544,1543,1543,0,0,0,0,0,0,0,0,0,0
1682166409.29999924,98528906,1543,1543,1543,1544,0,0,0,0,0,0,0,0,0,0
1682166409.39995909,98628866,1543,1543,1543,1543,0,0,0,0,0,0,0,0,0,0
1682166409.49991918,98728826,1544,1544,1544,1544,0,0,0,0,0,0,0,0,0,0
1682166409.59987903,98828786,1543,1544,1544,1544,0,0,0,0,0,0,0,0,0,0
1682166409.69983912,98928746,1544,1543,1544,1544,0,0,0,0,0,0,0,0,0,0
1682166409.79979920,99028706,1544,1544,1544,1544,0,0,0,0,0,0,0,0,0,0
1682166409.89975905,99128666,1544,1544,1544,1544,0,0,0,0,0,0,0,0,0,0
1682166409.99971914,99228626,1544,1544,1544,1544,0,0,0,0,0,0,0,0,0,0
1682166410.09967923,99328586,1545,1545,1545,1545,0,0,0,0,0,0,0,0,0,0
1682166410.19963908,99428546,1545,1545,1545,1545,0,0,0,0,0,0,0,0,0,0
1682166410.29959917,99528506,1545,1544,1544,1545,0,0,0,0,0,0,0,0,0,0
1682166410.39955902,99628466,1545,1545,1545,1545,0,0,0,0,0,0,0,0,0,0
1682166410.49951911,99728426,1544,1544,1544,1544,0,0,0,0,0,0,0,0,0,0
1682166410.59947920,99828386,1545,1545,1545,1545,0,0,0,0,0,0,0,0,0,0
1682166410.69943905,99928346,1544,1544,1544,1545,0,0,0,0,0,0,0,0,0,0
1682166410.79939914,100028306,1545,1544,1545,1545,0,0,0,0,0,0,0,0,0,0
1682166410.89935923,100128266,1544,1544,1544,1544,0,0,0,0,0,0,0,0,0,0
1682166410.99931908,100228226,1545,1544,1545,1544,0,0,0,0,0,0,0,0,0,0
1682166411.09927917,100328186,1544,1544,1544,1544,0,0,0,0,0,0,0,0,0,0
1682166411.20007205,100428979,1544,1544,1544,1544,0,0,0,0,0,0,0,0,0,0
1682166411.30003214,100528939,1544,1544,1544,1544,0,0,0,0,0,0,0,0,0,0
1682166411.39999223,100628899,1543,1543,1543,1543,0,0,0,0,0,0,0,0,0,0
1682166411.49995208,100728859,1544,1544,1544,1544,0,0,0,0,0,0,0,0,0,0
1682166411.59991217,100828819,1545,1545,1545,1545,0,0,0,0,0,0,0,0,0,0
1682166411.69987202,100928779,1544,1545,1545,1545,0,0,0,0,0,0,0,0,0,0
1682166411.79983211,101028739,1544,1544,1545,1544,0,0,0,0,0,0,0,0,0,0
1682166411.89979219,101128699,1545,1545,1545,1545,0,0,0,0,0,0,0,0,0,0
1682166411.99975204,101228659,1544,1544,1544,1544,0,0,0,0,0,0,0,0,0,0
1682166412.09971213,101328619,1477,1461,1477,1462,0,0,0,0,0,0,0,0,0,0
1682166412.19967222,101428579,1352,1296,1351,1298,0,0,0,0,0,0,0,0,0,0
1682166412.29963207,101528539,1303,1225,1301,1228,0,0,0,0,0,0,0,0,0,0
1682166412.39959216,101628499,1286,1202,1285,1203,0,0,0,0,0,0,0,0,0,0
1682166412.49955201,101728459,1265,1169,1264,1171,0,0,0,0,0,0,0,0,0,0
1682166412.59951210,101828419,1253,1150,1252,1152,0,0,0,0,0,0,0,0,0,0
1682166412.69947219,101928379,1164,1150,1163,1151,0,0,0,0,0,0,0,0,0,0
1682166412.79943204,102028339,1164,1150,1163,1151,0,0,0,0,0,0,0,0,0,0
1682166412.89939213,102128299,1164,1150,1163,1151,0,0,0,0,0,0,0,0,0,0
1682166412.99935222,102228259,1164,1150,1150,1168,0,0,0,0,0,0,0,0,0,0
1682166413.09931207,102328219,1164,1150,1154,1164,0,0,0,0,0,0,0,0,0,0
1682166413.19927216,102428179,1164,1150,1156,1161,0,0,0,0,0,0,0,0,0,0
1682166413.30006504,102528972,1164,1150,1156,1160,0,0,0,0,0,0,0,0,0,0
1682166413.40002513,102628932,1164,1150,1156,1161,0,0,0,0,0,0,0,0,0,0
1682166413.49998522,102728892,1164,1150,1155,1162,0,0,0,0,0,0,0,0,0,0
1682166413.59994507,102828852,1164,1150,1155,1162,0,0,0,0,0,0,0,0,0,0
1682166413.69990516,102928812,1164,1150,1154,1163,0,0,0,0,0,0,0,0,0,0
1682166413.79986525,103028772,1164,1150,1161,1154,0,0,0,0,0,0,0,0,0,0
1682166413.89982510,103128732,1164,1150,1160,1155,0,0,0,0,0,0,0,0,0,0
1682166413.99978518,103228692,1164,1150,1160,1156,0,0,0,0,0,0,0,0,0,0
1682166414.09974504,103328652,1164,1150,1159,1156,0,0,0,0,0,0,0,0,0,0
1682166414.19970512,103428612,1164,1150,1159,1156,0,0,0,0,0,0,0,0,0,0
1682166414.29966521,103528572,1000,1000,1000,1000,0,0,0,0,0,0,0,0,0,0
1682166414.39962506,103628532,1000,1000,1000,1000,0,0,0,0,0,0,0,0,0,0
1682166414.49958515,103728492,1000,1000,1000,1000,0,0,0,0,0,0,0,0,0,0
1682166414.59954524,103828452,1000,1000,1000,1000,0,0,0,0,0,0,0,0,0,0
1682166414.69950509,103928412,1000,1000,1000,1000,0,0,0,0,0,0,0,0,0,0
1682166414.79946518,104028372,1000,1000,1000,1000,0,0,0,0,0,0,0,0,0,0
1682166414.89942503,104128332,1000,1000,1000,1000,0,0,0,0,0,0,0,0,0,0
1682166414.99938512,104228292,1000,1000,1000,1000,0,0,0,0,0,0,0,0,0,0
1682166415.09934521,104328252,1000,1000,1000,1000,0,0,0,0,0,0,0,0,0,0
1682166415.19930506,104428212,1000,1000,1000,1000,0,0,0,0,0,0,0,0,0,0
1682166415.29926515,104528172,1000,1000,1000,1000,0,0,0,0,0,0,0,0,0,0
1682166415.40005803,104628965,1000,1000,1000,1000,0,0,0,0,0,0,0,0,0,0
1682166415.50001812,104728925,1000,1000,1000,1000,0,0,0,0,0,0,0,0,0,0
1682166415.59997821,104828885,1000,1000,1000,1000,0,0,0,0,0,0,0,0,0,0
1682166415.69993806,104928845,1000,1000,1000,1000,0,0,0,0,0,0,0,0,0,0
1682166415.79989815,105028805,1000,1000,1000,1000,0,0,0,0,0,0,0,0,0,0
1682166415.89985824,105128765,1000,1000,1000,1000,0,0,0,0,0,0,0,0,0,0
1682166415.99981809,105228725,1000,1000,1000,1000,0,0,0,0,0,0,0,0,0,0
1682166416.09977818,105328685,1000,1000,1000,1000,0,0,0,0,0,0,0,0,0,0
1682166416.19973803,105428645,1000,1000,1000,1000,0,0,0,0,0,0,0,0,0,0
1682166416.29969811,105528605,1000,1000,1000,1000,0,0,0,0,0,0,0,0,0,0
1682166416.39965820,105628565,1000,1000,1000,1000,0,0,0,0,0,0,0,0,0,0
1682166416.49961805,105728525,1000,1000,1000,1000,0,0,0,0,0,0,0,0,0,0
1682166416.59957814,105828485,1000,1000,1000,1000,0,0,0,0,0,0,0,0,0,0
1682166416.69953823,105928445,1000,1000,1000,1000,0,0,0,0,0,0,0,0,0,0
1682166416.79949808,106028405,1000,1000,1000,1000,0,0,0,0,0,0,0,0,0,0
1682166416.89945817,106128365,1000,1000,1000,1000,0,0,0,0,0,0,0,0,0,0
1682166416.99941802,106228325,1000,1000,1000,1000,0,0,0,0,0,0,0,0,0,0
1682166417.09937811,106328285,1000,1000,1000,1000,0,0,0,0,0,0,0,0,0,0
1682166417.19933820,106428245,1000,1000,1000,1000,0,0,0,0,0,0,0,0,0,0
1682166417.29929805,106528205,1000,1000,1000,1000,0,0,0,0,0,0,0,0,0,0
1682166417.39925814,106628165,1000,1000,1000,1000,0,0,0,0,0,0,0,0,0,0
1682166417.50005102,106728958,1000,1000,1000,1000,0,0,0,0,0,0,0,0,0,0
1682166417.60001111,106828918,1000,1000,1000,1000,0,0,0,0,0,0,0,0,0,0
1682166417.69997120,106928878,1000,1000,1000,1000,0,0,0,0,0,0,0,0,0,0
1682166417.79993105,107028838,1000,1000,1000,1000,0,0,0,0,0,0,0,0,0,0
1682166417.89989114,107128798,1000,1000,1000,1000,0,0,0,0,0,0,0,0,0,0
1682166417.99985123,107228758,1000,1000,1000,1000,0,0,0,0,0,0,0,0,0,0
1682166418.09981108,107328718,1000,1000,1000,1000,0,0,0,0,0,0,0,0,0,0
1682166418.19977117,107428678,1000,1000,1000,1000,0,0,0,0,0,0,0,0,0,0
1682166418.29973102,107528638,1000,1000,1000,1000,0,0,0,0,0,0,0,0,0,0
1682166418.39969110,107628598,1000,1000,1000,1000,0,0,0,0,0,0,0,0,0,0
1682166418.49965119,107728558,1000,1000,1000,1000,0,0,0,0,0,0,0,0,0,0
1682166418.59961104,107828518,1000,1000,1000,1000,0,0,0,0,0,0,0,0,0,0
1682166418.69957113,107928478,1000,1000,1000,1000,0,0,0,0,0,0,0,0,0,0
1682166418.79953122,108028438,1000,1000,1000,1000,0,0,0,0,0,0,0,0,0,0
1682166418.89949107,108128398,1000,1000,1000,1000,0,0,0,0,0,0,0,0,0,0
1682166418.99945116,108228358,1000,1000,1000,1000,0,0,0,0,0,0,0,0,0,0
1682166419.09941125,108328318,1000,1000,1000,1000,0,0,0,0,0,0,0,0,0,0
1682166419.19937110,108428278,1000,1000,1000,1000,0,0,0,0,0,0,0,0,0,0
1682166419.29933119,108528238,1000,1000,1000,1000,0,0,0,0,0,0,0,0,0,0
1682166419.39929104,108628198,1000,1000,1000,1000,0,0,0,0,0,0,0,0,0,0
1682166419.49925113,108728158,1000,1000,1000,1000,0,0,0,0,0,0,0,0,0,0
1682166419.60004401,108828951,1000,1000,1000,1000,0,0,0,0,0,0,0,0,0,0
1682166419.70000410,108928911,1000,1000,1000,1000,0,0,0,0,0,0,0,0,0,0
1682166419.79996419,109028871,1000,1000,1000,1000,0,0,0,0,0,0,0,0,0,0
1682166419.89992404,109128831,1000,1000,1000,1000,0,0,0,0,0,0,0,0,0,0
1682166419.99988413,109228791,1000,1000,1000,1000,0,0,0,0,0,0,0,0,0,0
1682166420.09984422,109328751,1000,1000,1000,1000,0,0,0,0,0,0,0,0,0,0
1682166420.19980407,109428711,1000,1000,1000,1000,0,0,0,0,0,0,0,0,0,0
1682166420.29976416,109528671,1000,1000,1000,1000,0,0,0,0,0,0,0,0,0,0
1682166420.39972425,109628631,1000,1000,1000,1000,0,0,0,0,0,0,0,0,0,0
1682166420.49968410,109728591,1000,1000,1000,1000,0,0,0,0,0,0,0,0,0,0
1682166420.59964418,109828551,1000,1000,1000,1000,0,0,0,0,0,0,0,0,0,0
1682166420.69960403,109928511,1000,1000,1000,1000,0,0,0,0,0,0,0,0,0,0
1682166420.79956412,110028471,1000,1000,1000,1000,0,0,0,0,0,0,0,0,0,0
1682166420.89952421,110128431,1000,1000,1000,1000,0,0,0,0,0,0,0,0,0,0
1682166420.99948406,110228391,1000,1000,1000,1000,0,0,0,0,0,0,0,0,0,0
1682166421.09944415,110328351,1000,1000,1000,1000,0,0,0,0,0,0,0,0,0,0
1682166421.19940424,110428311,1000,1000,1000,1000,0,0,0,0,0,0,0,0,0,0
1682166421.29936409,110528271,1000,1000,1000,1000,0,0,0,0,0,0,0,0,0,0
1682166421.39932418,110628231,1000,1000,1000,1000,0,0,0,0,0,0,0,0,0,0
1682166421.49928403,110728191,1000,1000,1000,1000,0,0,0,0,0,0,0,0,0,0
1682166421.60007715,110828984,1000,1000,1000,1000,0,0,0,0,0,0,0,0,0,0
1682166421.70003724,110928944,1000,1000,1000,1000,0,0,0,0,0,0,0,0,0,0
1682166421.79999709,111028904,1000,1000,1000,1000,0,0,0,0,0,0,0,0,0,0
1682166421.89995718,111128864,1000,1000,1000,1000,0,0,0,0,0,0,0,0,0,0
1682166421.99991703,111228824,1000,1000,1000,1000,0,0,0,0,0,0,0,0,0,0
1682166422.09987712,111328784,1000,1000,1000,1000,0,0,0,0,0,0,0,0,0,0
1682166422.19983721,111428744,1000,1000,1000,1000,0,0,0,0,0,0,0,0,0,0
1682166422.29979706,111528704,1000,1000,1000,1000,0,0,0,0,0,0,0,0,0,0
1682166422.39975715,111628664,1000,1000,1000,1000,0,0,0,0,0,0,0,0,0,0
1682166422.49971724,111728624,1000,1000,1000,1000,0,0,0,0,0,0,0,0,0,0
1682166422.59967709,111828584,1000,1000,1000,1000,0,0,0,0,0,0,0,0,0,0
1682166422.69963717,111928544,1000,1000,1000,1000,0,0,0,0,0,0,0,0,0,0
1682166422.79959702,112028504,1000,1000,1000,1000,0,0,0,0,0,0,0,0,0,0
1682166422.89955711,112128464,1000,1000,1000,1000,0,0,0,0,0,0,0,0,0,0
1682166422.99951720,112228424,1000,1000,1000,1000,0,0,0,0,0,0,0,0,0,0
1682166423.09947705,112328384,1000,1000,1000,1000,0,0,0,0,0,0,0,0,0,0
1682166423.19943714,112428344,1000,1000,1000,1000,0,0,0,0,0,0,0,0,0,0
1682166423.29939723,112528304,1000,1000,1000,1000,0,0,0,0,0,0,0,0,0,0
1682166423.39935708,112628264,1000,1000,1000,1000,0,0,0,0,0,0,0,0,0,0
1682166423.49931717,112728224,1000,1000,1000,1000,0,0,0,0,0,0,0,0,0,0
1682166423.59927702,112828184,1000,1000,1000,1000,0,0,0,0,0,0,0,0,0,0
1682166423.70007014,112928977,1000,1000,1000,1000,0,0,0,0,0,0,0,0,0,0
1682166423.80003023,113028937,1000,1000,1000,1000,0,0,0,0,0,0,0,0,0,0
1682166423.89999008,113128897,1000,1000,1000,1000,0,0,0,0,0,0,0,0,0,0
1682166423.99995017,113228857,1000,1000,1000,1000,0,0,0,0,0,0,0,0,0,0
1682166424.09991002,113328817,1000,1000,1000,1000,0,0,0,0,0,0,0,0,0,0
1682166424.19987011,113428777,1000,1000,1000,1000,0,0,0,0,0,0,0,0,0,0
1682166424.29983020,113528737,1000,1000,1000,1000,0,0,0,0,0,0,0,0,0,0
1682166424.39979005,113628697,1000,1000,1000,1000,0,0,0,0,0,0,0,0,0,0
1682166424.49975014,113728657,1000,1000,1000,1000,0,0,0,0,0,0,0,0,0,0
1682166424.59971023,113828617,1000,1000,1000,1000,0,0,0,0,0,0,0,0,0,0
1682166424.69967008,113928577,1000,1000,1000,1000,0,0,0,0,0,0,0,0,0,0
1682166424.79963017,114028537,1000,1000,1000,1000,0,0,0,0,0,0,0,0,0,0
1682166424.89959002,114128497,1000,1000,1000,1000,0,0,0,0,0,0,0,0,0,0
1682166424.99955010,114228457,1000,1000,1000,1000,0,0,0,0,0,0,0,0,0,0
1682166425.09951019,114328417,1000,1000,1000,1000,0,0,0,0,0,0,0,0,0,0
1682166425.19947004,114428377,1000,1000,1000,1000,0,0,0,0,0,0,0,0,0,0
