timestamp,TimeUS,C1,C2,C3,C4,C5,C6,C7,C8,C9,C10,C11,C12,C13,C14
1682954899.50003982,57528646,1000,1000,1000,1000,0,0,0,0,0,0,0,0,0,0
1682954899.59999990,57628606,1000,1000,1000,1000,0,0,0,0,0,0,0,0,0,0
1682954899.69995975,57728566,1000,1000,1000,1000,0,0,0,0,0,0,0,0,0,0
1682954899.79991984,57828526,1000,1000,1000,1000,0,0,0,0,0,0,0,0,0,0
1682954899.89987993,57928486,1000,1000,1000,1000,0,0,0,0,0,0,0,0,0,0
1682954899.99983978,58028446,1000,1000,1000,1000,0,0,0,0,0,0,0,0,0,0
1682954900.09979987,58128406,1000,1000,1000,1000,0,0,0,0,0,0,0,0,0,0
1682954900.19975972,58228366,1000,1000,1000,1000,0,0,0,0,0,0,0,0,0,0
1682954900.29971981,58328326,1000,1000,1000,1000,0,0,0,0,0,0,0,0,0,0
1682954900.39967990,58428286,1000,1000,1000,1000,0,0,0,0,0,0,0,0,0,0
1682954900.49963975,58528246,1000,1000,1000,1000,0,0,0,0,0,0,0,0,0,0
1682954900.59959984,58628206,1000,1000,1000,1000,0,0,0,0,0,0,0,0,0,0
1682954900.69955993,58728166,1000,1000,1000,1000,0,0,0,0,0,0,0,0,0,0
1682954900.80035281,58828959,1000,1000,1000,1000,0,0,0,0,0,0,0,0,0,0
1682954900.90031290,58928919,1000,1000,1000,1000,0,0,0,0,0,0,0,0,0,0
1682954901.00027275,59028879,1000,1000,1000,1000,0,0,0,0,0,0,0,0,0,0
1682954901.10023284,59128839,1000,1000,1000,1000,0,0,0,0,0,0,0,0,0,0
1682954901.20019293,59228799,1000,1000,1000,1000,0,0,0,0,0,0,0,0,0,0
1682954901.30015278,59328759,1000,1000,1000,1000,0,0,0,0,0,0,0,0,0,0
1682954901.40011287,59428719,1000,1000,1000,1000,0,0,0,0,0,0,0,0,0,0
1682954901.50007272,59528679,1014,1014,1014,1014,0,0,0,0,0,0,0,0,0,0
1682954901.60003281,59628639,1044,1044,1044,1044,0,0,0,0,0,0,0,0,0,0
1682954901.69999290,59728599,1074,1074,1074,1074,0,0,0,0,0,0,0,0,0,0
1682954901.79995275,59828559,1104,1104,1104,1104,0,0,0,0,0,0,0,0,0,0
1682954901.89991283,59928519,1134,1134,1134,1134,0,0,0,0,0,0,0,0,0,0
1682954901.99987292,60028479,1282,1274,1275,1282,0,0,0,0,0,0,0,0,0,0
1682954902.09983277,60128439,1490,1485,1485,1491,0,0,0,0,0,0,0,0,0,0
1682954902.19979286,60228399,1652,1647,1648,1652,0,0,0,0,0,0,0,0,0,0
1682954902.29975271,60328359,1789,1784,1785,1789,0,0,0,0,0,0,0,0,0,0
1682954902.39971280,60428319,1878,1873,1874,1878,0,0,0,0,0,0,0,0,0,0
1682954902.49967289,60528279,1867,1864,1864,1867,0,0,0,0,0,0,0,0,0,0
1682954902.59963274,60628239,1743,1743,1743,1744,0,0,0,0,0,0,0,0,0,0
1682954902.69959283,60728199,1646,1647,1648,1646,0,0,0,0,0,0,0,0,0,0
1682954902.79955292,60828159,1618,1621,1621,1618,0,0,0,0,0,0,0,0,0,0
1682954902.90034580,60928952,1627,1629,1629,1627,0,0,0,0,0,0,0,0,0,0
1682954903.00030589,61028912,1638,1639,1639,1638,0,0,0,0,0,0,0,0,0,0
1682954903.10026574,61128872,1638,1638,1638,1638,0,0,0,0,0,0,0,0,0,0
1682954903.20022583,61228832,1632,1631,1631,1632,0,0,0,0,0,0,0,0,0,0
1682954903.30018592,61328792,1626,1625,1624,1626,0,0,0,0,0,0,0,0,0,0
1682954903.40014577,61428752,1615,1616,1616,1614,0,0,0,0,0,0,0,0,0,0
1682954903.50010586,61528712,1595,1594,1586,1603,0,0,0,0,0,0,0,0,0,0
1682954903.60006571,61628672,1589,1589,1581,1597,0,0,0,0,0,0,0,0,0,0
1682954903.70002580,61728632,1587,1586,1582,1590,0,0,0,0,0,0,0,0,0,0
1682954903.79998589,61828592,1587,1587,1588,1587,0,0,0,0,0,0,0,0,0,0
1682954903.89994574,61928552,1591,1591,1593,1588,0,0,0,0,0,0,0,0,0,0
1682954903.99990582,62028512,1584,1584,1592,1577,0,0,0,0,0,0,0,0,0,0
1682954904.09986591,62128472,1567,1567,1586,1548,0,0,0,0,0,0,0,0,0,0
1682954904.19982576,62228432,1558,1558,1568,1548,0,0,0,0,0,0,0,0,0,0
1682954904.29978585,62328392,1548,1548,1547,1551,0,0,0,0,0,0,0,0,0,0
1682954904.39974594,62428352,1540,1540,1531,1550,0,0,0,0,0,0,0,0,0,0
1682954904.49970579,62528312,1533,1533,1522,1545,0,0,0,0,0,0,0,0,0,0
1682954904.59966588,62628272,1529,1529,1520,1537,0,0,0,0,0,0,0,0,0,0
1682954904.69962573,62728232,1529,1528,1524,1533,0,0,0,0,0,0,0,0,0,0
1682954904.79958582,62828192,1529,1529,1528,1529,0,0,0,0,0,0,0,0,0,0
1682954904.90037894,62928985,1533,1533,1535,1530,0,0,0,0,0,0,0,0,0,0
1682954905.00033879,63028945,1537,1537,1541,1532,0,0,0,0,0,0,0,0,0,0
1682954905.10029888,63128905,1541,1540,1545,1536,0,0,0,0,0,0,0,0,0,0
1682954905.20025873,63228865,1544,1544,1546,1541,0,0,0,0,0,0,0,0,0,0
1682954905.30021882,63328825,1547,1547,1548,1546,0,0,0,0,0,0,0,0,0,0
1682954905.40017891,63428785,1549,1550,1549,1550,0,0,0,0,0,0,0,0,0,0
1682954905.50013876,63528745,1553,1551,1550,1555,0,0,0,0,0,0,0,0,0,0
1682954905.60009885,63628705,1550,1549,1557,1562,0,0,0,0,0,0,0,0,0,0
1682954905.70005894,63728665,1552,1552,1560,1563,0,0,0,0,0,0,0,0,0,0
1682954905.80001879,63828625,1556,1556,1563,1563,0,0,0,0,0,0,0,0,0,0
1682954905.89997888,63928585,1559,1560,1563,1564,0,0,0,0,0,0,0,0,0,0
1682954905.99993873,64028545,1563,1564,1565,1563,0,0,0,0,0,0,0,0,0,0
1682954906.09989882,64128505,1566,1566,1565,1563,0,0,0,0,0,0,0,0,0,0
1682954906.19985890,64228465,1569,1569,1565,1564,0,0,0,0,0,0,0,0,0,0
1682954906.29981875,64328425,1571,1570,1565,1564,0,0,0,0,0,0,0,0,0,0
1682954906.39977884,64428385,1572,1572,1565,1566,0,0,0,0,0,0,0,0,0,0
1682954906.49973893,64528345,1572,1572,1566,1567,0,0,0,0,0,0,0,0,0,0
1682954906.59969878,64628305,1573,1573,1568,1568,0,0,0,0,0,0,0,0,0,0
1682954906.69965887,64728265,1573,1573,1568,1569,0,0,0,0,0,0,0,0,0,0
1682954906.79961872,64828225,1573,1573,1570,1571,0,0,0,0,0,0,0,0,0,0
1682954906.89957881,64928185,1573,1573,1572,1572,0,0,0,0,0,0,0,0,0,0
1682954907.00037193,65028978,1574,1574,1575,1573,0,0,0,0,0,0,0,0,0,0
1682954907.10033178,65128938,1574,1574,1576,1574,0,0,0,0,0,0,0,0,0,0
1682954907.20029187,65228898,1574,1574,1576,1575,0,0,0,0,0,0,0,0,0,0
1682954907.30025172,65328858,1574,1574,1576,1576,0,0,0,0,0,0,0,0,0,0
1682954907.40021181,65428818,1575,1575,1577,1577,0,0,0,0,0,0,0,0,0,0
1682954907.50017190,65528778,1575,1575,1577,1577,0,0,0,0,0,0,0,0,0,0
1682954907.60013175,65628738,1575,1575,1577,1577,0,0,0,0,0,0,0,0,0,0
1682954907.70009184,65728698,1576,1576,1577,1577,0,0,0,0,0,0,0,0,0,0
1682954907.80005193,65828658,1576,1576,1576,1577,0,0,0,0,0,0,0,0,0,0
1682954907.90001178,65928618,1576,1576,1576,1576,0,0,0,0,0,0,0,0,0,0
1682954907.99997187,66028578,1577,1577,1576,1577,0,0,0,0,0,0,0,0,0,0
1682954908.09993172,66128538,1577,1577,1577,1577,0,0,0,0,0,0,0,0,0,0
1682954908.19989181,66228498,1577,1578,1577,1576,0,0,0,0,0,0,0,0,0,0
1682954908.29985189,66328458,1578,1578,1577,1577,0,0,0,0,0,0,0,0,0,0
1682954908.39981174,66428418,1578,1578,1577,1577,0,0,0,0,0,0,0,0,0,0
1682954908.49977183,66528378,1579,1578,1578,1578,0,0,0,0,0,0,0,0,0,0
1682954908.59973192,66628338,1579,1579,1578,1578,0,0,0,0,0,0,0,0,0,0
1682954908.69969177,66728298,1579,1579,1578,1579,0,0,0,0,0,0,0,0,0,0
1682954908.79965186,66828258,1579,1579,1579,1579,0,0,0,0,0,0,0,0,0,0
1682954908.89961171,66928218,1579,1579,1579,1579,0,0,0,0,0,0,0,0,0,0
1682954908.99957180,67028178,1578,1579,1579,1579,0,0,0,0,0,0,0,0,0,0
1682954909.10036492,67128971,1577,1577,1578,1578,0,0,0,0,0,0,0,0,0,0
1682954909.20032477,67228931,1578,1579,1579,1579,0,0,0,0,0,0,0,0,0,0
1682954909.30028486,67328891,1579,1579,1579,1580,0,0,0,0,0,0,0,0,0,0
1682954909.40024471,67428851,1579,1579,1580,1580,0,0,0,0,0,0,0,0,0,0
1682954909.50020480,67528811,1579,1579,1580,1580,0,0,0,0,0,0,0,0,0,0
1682954909.60016489,67628771,1579,1580,1580,1580,0,0,0,0,0,0,0,0,0,0
1682954909.70012474,67728731,1579,1579,1579,1579,0,0,0,0,0,0,0,0,0,0
1682954909.80008483,67828691,1580,1580,1580,1580,0,0,0,0,0,0,0,0,0,0
1682954909.90004492,67928651,1580,1580,1579,1580,0,0,0,0,0,0,0,0,0,0
1682954910.00000477,68028611,1579,1579,1578,1579,0,0,0,0,0,0,0,0,0,0
1682954910.09996486,68128571,1580,1579,1579,1579,0,0,0,0,0,0,0,0,0,0
1682954910.19992471,68228531,1579,1579,1579,1579,0,0,0,0,0,0,0,0,0,0
1682954910.29988480,68328491,1580,1581,1580,1580,0,0,0,0,0,0,0,0,0,0
1682954910.39984488,68428451,1580,1581,1581,1580,0,0,0,0,0,0,0,0,0,0
1682954910.49980474,68528411,1580,1581,1580,1581,0,0,0,0,0,0,0,0,0,0
1682954910.59976482,68628371,1581,1580,1581,1581,0,0,0,0,0,0,0,0,0,0
1682954910.69972491,68728331,1581,1581,1581,1581,0,0,0,0,0,0,0,0,0,0
1682954910.79968476,68828291,1581,1581,1581,1581,0,0,0,0,0,0,0,0,0,0
1682954910.89964485,68928251,1581,1581,1581,1581,0,0,0,0,0,0,0,0,0,0
1682954910.99960494,69028211,1581,1581,1581,1581,0,0,0,0,0,0,0,0,0,0
1682954911.09956479,69128171,1581,1581,1581,1581,0,0,0,0,0,0,0,0,0,0
1682954911.20035791,69228964,1581,1581,1581,1581,0,0,0,0,0,0,0,0,0,0
1682954911.30031776,69328924,1582,1581,1581,1582,0,0,0,0,0,0,0,0,0,0
1682954911.40027785,69428884,1581,1580,1581,1581,0,0,0,0,0,0,0,0,0,0
1682954911.50023794,69528844,1582,1581,1582,1582,0,0,0,0,0,0,0,0,0,0
1682954911.60019779,69628804,1581,1581,1581,1581,0,0,0,0,0,0,0,0,0,0
1682954911.70015788,69728764,1581,1581,1581,1581,0,0,0,0,0,0,0,0,0,0
1682954911.80011773,69828724,1581,1582,1585,1578,0,0,0,0,0,0,0,0,0,0
1682954911.90007782,69928684,1582,1583,1589,1574,0,0,0,0,0,0,0,0,0,0
1682954912.00003791,70028644,1579,1582,1581,1573,0,0,0,0,0,0,0,0,0,0
1682954912.09999776,70128604,1578,1581,1573,1573,0,0,0,0,0,0,0,0,0,0
1682954912.19995785,70228564,1576,1579,1564,1570,0,0,0,0,0,0,0,0,0,0
1682954912.29991794,70328524,1577,1578,1559,1566,0,0,0,0,0,0,0,0,0,0
1682954912.39987779,70428484,1577,1577,1555,1560,0,0,0,0,0,0,0,0,0,0
1682954912.49983788,70528444,1579,1578,1555,1557,0,0,0,0,0,0,0,0,0,0
1682954912.59979773,70628404,1579,1577,1555,1554,0,0,0,0,0,0,0,0,0,0
1682954912.69975781,70728364,1578,1577,1555,1553,0,0,0,0,0,0,0,0,0,0
1682954912.79971790,70828324,1578,1578,1557,1554,0,0,0,0,0,0,0,0,0,0
1682954912.89967775,70928284,1576,1577,1556,1554,0,0,0,0,0,0,0,0,0,0
1682954912.99963784,71028244,1575,1577,1555,1553,0,0,0,0,0,0,0,0,0,0
1682954913.09959793,71128204,1574,1576,1553,1554,0,0,0,0,0,0,0,0,0,0
1682954913.19955778,71228164,1574,1576,1552,1552,0,0,0,0,0,0,0,0,0,0
1682954913.30035090,71328957,1575,1576,1550,1551,0,0,0,0,0,0,0,0,0,0
1682954913.40031075,71428917,1577,1578,1549,1549,0,0,0,0,0,0,0,0,0,0
1682954913.50027084,71528877,1581,1581,1548,1548,0,0,0,0,0,0,0,0,0,0
1682954913.60023093,71628837,1582,1583,1545,1544,0,0,0,0,0,0,0,0,0,0
1682954913.70019078,71728797,1585,1586,1542,1542,0,0,0,0,0,0,0,0,0,0
1682954913.80015087,71828757,1587,1589,1539,1538,0,0,0,0,0,0,0,0,0,0
1682954913.90011072,71928717,1591,1591,1536,1536,0,0,0,0,0,0,0,0,0,0
1682954914.00007081,72028677,1593,1593,1535,1535,0,0,0,0,0,0,0,0,0,0
1682954914.10003090,72128637,1595,1594,1535,1536,0,0,0,0,0,0,0,0,0,0
1682954914.19999075,72228597,1594,1594,1535,1537,0,0,0,0,0,0,0,0,0,0
1682954914.29995084,72328557,1593,1593,1538,1540,0,0,0,0,0,0,0,0,0,0
1682954914.39991093,72428517,1590,1590,1541,1544,0,0,0,0,0,0,0,0,0,0
1682954914.49987078,72528477,1586,1584,1548,1551,0,0,0,0,0,0,0,0,0,0
1682954914.59983087,72628437,1579,1576,1556,1559,0,0,0,0,0,0,0,0,0,0
1682954914.69979072,72728397,1571,1567,1567,1570,0,0,0,0,0,0,0,0,0,0
1682954914.79975080,72828357,1560,1556,1579,1581,0,0,0,0,0,0,0,0,0,0
1682954914.89971089,72928317,1549,1545,1591,1592,0,0,0,0,0,0,0,0,0,0
1682954914.99967074,73028277,1539,1538,1602,1602,0,0,0,0,0,0,0,0,0,0
1682954915.09963083,73128237,1532,1533,1609,1609,0,0,0,0,0,0,0,0,0,0
1682954915.19959092,73228197,1528,1530,1613,1612,0,0,0,0,0,0,0,0,0,0
1682954915.29955077,73328157,1530,1532,1614,1613,0,0,0,0,0,0,0,0,0,0
1682954915.40034389,73428950,1533,1536,1611,1611,0,0,0,0,0,0,0,0,0,0
1682954915.50030375,73528910,1541,1543,1607,1607,0,0,0,0,0,0,0,0,0,0
1682954915.60026383,73628870,1548,1550,1600,1600,0,0,0,0,0,0,0,0,0,0
1682954915.70022392,73728830,1557,1557,1593,1592,0,0,0,0,0,0,0,0,0,0
1682954915.80018377,73828790,1567,1567,1586,1586,0,0,0,0,0,0,0,0,0,0
1682954915.90014386,73928750,1574,1574,1579,1579,0,0,0,0,0,0,0,0,0,0
1682954916.00010371,74028710,1579,1579,1573,1572,0,0,0,0,0,0,0,0,0,0
1682954916.10006380,74128670,1584,1583,1569,1569,0,0,0,0,0,0,0,0,0,0
1682954916.20002389,74228630,1587,1585,1567,1567,0,0,0,0,0,0,0,0,0,0
1682954916.29998374,74328590,1587,1586,1566,1566,0,0,0,0,0,0,0,0,0,0
1682954916.39994383,74428550,1586,1585,1566,1567,0,0,0,0,0,0,0,0,0,0
1682954916.49990392,74528510,1584,1584,1569,1569,0,0,0,0,0,0,0,0,0,0
1682954916.59986377,74628470,1582,1582,1572,1572,0,0,0,0,0,0,0,0,0,0
1682954916.69982386,74728430,1579,1579,1574,1575,0,0,0,0,0,0,0,0,0,0
1682954916.79978371,74828390,1577,1577,1577,1577,0,0,0,0,0,0,0,0,0,0
1682954916.89974380,74928350,1575,1575,1581,1580,0,0,0,0,0,0,0,0,0,0
1682954916.99970388,75028310,1573,1573,1582,1581,0,0,0,0,0,0,0,0,0,0
1682954917.09966373,75128270,1572,1572,1583,1583,0,0,0,0,0,0,0,0,0,0
1682954917.19962382,75228230,1571,1572,1583,1583,0,0,0,0,0,0,0,0,0,0
1682954917.29958391,75328190,1570,1524,1579,1535,0,0,0,0,0,0,0,0,0,0
1682954917.40037680,75428983,1584,1565,1592,1575,0,0,0,0,0,0,0,0,0,0
1682954917.50033689,75528943,1602,1574,1609,1581,0,0,0,0,0,0,0,0,0,0
1682954917.60029674,75628903,1611,1586,1617,1590,0,0,0,0,0,0,0,0,0,0
1682954917.70025682,75728863,1610,1594,1613,1596,0,0,0,0,0,0,0,0,0,0
1682954917.80021691,75828823,1601,1597,1602,1598,0,0,0,0,0,0,0,0,0,0
1682954917.90017676,75928783,1590,1597,1590,1597,0,0,0,0,0,0,0,0,0,0
1682954918.00013685,76028743,1581,1594,1582,1595,0,0,0,0,0,0,0,0,0,0
1682954918.10009694,76128703,1577,1588,1578,1590,0,0,0,0,0,0,0,0,0,0
1682954918.20005679,76228663,1576,1584,1578,1586,0,0,0,0,0,0,0,0,0,0
1682954918.30001688,76328623,1577,1580,1578,1582,0,0,0,0,0,0,0,0,0,0
1682954918.39997673,76428583,1580,1578,1580,1579,0,0,0,0,0,0,0,0,0,0
1682954918.49993682,76528543,1582,1579,1580,1577,0,0,0,0,0,0,0,0,0,0
1682954918.59989691,76628503,1583,1580,1580,1577,0,0,0,0,0,0,0,0,0,0
1682954918.69985676,76728463,1583,1581,1579,1577,0,0,0,0,0,0,0,0,0,0
1682954918.79981685,76828423,1581,1581,1577,1576,0,0,0,0,0,0,0,0,0,0
1682954918.89977694,76928383,1580,1581,1576,1577,0,0,0,0,0,0,0,0,0,0
1682954918.99973679,77028343,1579,1581,1575,1576,0,0,0,0,0,0,0,0,0,0
1682954919.09969687,77128303,1578,1579,1575,1575,0,0,0,0,0,0,0,0,0,0
1682954919.19965672,77228263,1578,1579,1575,1576,0,0,0,0,0,0,0,0,0,0
1682954919.29961681,77328223,1577,1578,1575,1576,0,0,0,0,0,0,0,0,0,0
1682954919.39957690,77428183,1578,1578,1576,1576,0,0,0,0,0,0,0,0,0,0
1682954919.50036979,77528976,1578,1578,1576,1577,0,0,0,0,0,0,0,0,0,0
1682954919.60032988,77628936,1578,1578,1577,1577,0,0,0,0,0,0,0,0,0,0
1682954919.70028973,77728896,1578,1578,1578,1578,0,0,0,0,0,0,0,0,0,0
1682954919.80024981,77828856,1578,1578,1580,1576,0,0,0,0,0,0,0,0,0,0
1682954919.90020990,77928816,1578,1579,1585,1569,0,0,0,0,0,0,0,0,0,0
1682954920.00016975,78028776,1577,1580,1580,1570,0,0,0,0,0,0,0,0,0,0
1682954920.10012984,78128736,1576,1578,1571,1570,0,0,0,0,0,0,0,0,0,0
1682954920.20008993,78228696,1574,1577,1563,1568,0,0,0,0,0,0,0,0,0,0
1682954920.30004978,78328656,1574,1576,1556,1564,0,0,0,0,0,0,0,0,0,0
1682954920.40000987,78428616,1576,1576,1553,1560,0,0,0,0,0,0,0,0,0,0
1682954920.49996972,78528576,1577,1576,1552,1556,0,0,0,0,0,0,0,0,0,0
1682954920.59992981,78628536,1578,1577,1553,1552,0,0,0,0,0,0,0,0,0,0
1682954920.69988990,78728496,1578,1578,1553,1551,0,0,0,0,0,0,0,0,0,0
1682954920.79984975,78828456,1578,1578,1553,1551,0,0,0,0,0,0,0,0,0,0
1682954920.89980984,78928416,1577,1577,1553,1551,0,0,0,0,0,0,0,0,0,0
1682954920.99976993,79028376,1577,1578,1553,1551,0,0,0,0,0,0,0,0,0,0
1682954921.09972978,79128336,1576,1577,1551,1551,0,0,0,0,0,0,0,0,0,0
1682954921.19968987,79228296,1577,1578,1551,1551,0,0,0,0,0,0,0,0,0,0
1682954921.29964972,79328256,1576,1577,1549,1549,0,0,0,0,0,0,0,0,0,0
1682954921.39960980,79428216,1577,1579,1548,1548,0,0,0,0,0,0,0,0,0,0
1682954921.49956989,79528176,1579,1580,1547,1547,0,0,0,0,0,0,0,0,0,0
1682954921.60036278,79628969,1581,1582,1545,1545,0,0,0,0,0,0,0,0,0,0
1682954921.70032287,79728929,1584,1584,1544,1544,0,0,0,0,0,0,0,0,0,0
1682954921.80028272,79828889,1586,1586,1541,1542,0,0,0,0,0,0,0,0,0,0
1682954921.90024281,79928849,1588,1588,1541,1541,0,0,0,0,0,0,0,0,0,0
1682954922.00020289,80028809,1588,1589,1540,1540,0,0,0,0,0,0,0,0,0,0
1682954922.10016274,80128769,1589,1589,1540,1541,0,0,0,0,0,0,0,0,0,0
1682954922.20012283,80228729,1588,1589,1541,1543,0,0,0,0,0,0,0,0,0,0
1682954922.30008292,80328689,1588,1587,1544,1547,0,0,0,0,0,0,0,0,0,0
1682954922.40004277,80428649,1584,1583,1548,1551,0,0,0,0,0,0,0,0,0,0
1682954922.50000286,80528609,1580,1577,1555,1557,0,0,0,0,0,0,0,0,0,0
1682954922.59996271,80628569,1575,1571,1564,1566,0,0,0,0,0,0,0,0,0,0
1682954922.69992280,80728529,1566,1562,1572,1575,0,0,0,0,0,0,0,0,0,0
1682954922.79988289,80828489,1557,1554,1583,1583,0,0,0,0,0,0,0,0,0,0
1682954922.89984274,80928449,1549,1547,1592,1592,0,0,0,0,0,0,0,0,0,0
1682954922.99980283,81028409,1543,1542,1600,1599,0,0,0,0,0,0,0,0,0,0
1682954923.09976292,81128369,1538,1539,1605,1604,0,0,0,0,0,0,0,0,0,0
1682954923.19972277,81228329,1537,1539,1608,1607,0,0,0,0,0,0,0,0,0,0
1682954923.29968286,81328289,1538,1540,1607,1607,0,0,0,0,0,0,0,0,0,0
1682954923.39964271,81428249,1543,1545,1606,1605,0,0,0,0,0,0,0,0,0,0
1682954923.49960279,81528209,1549,1550,1601,1601,0,0,0,0,0,0,0,0,0,0
1682954923.59956288,81628169,1555,1557,1596,1595,0,0,0,0,0,0,0,0,0,0
1682954923.70035577,81728962,1563,1563,1590,1589,0,0,0,0,0,0,0,0,0,0
1682954923.80031586,81828922,1570,1569,1585,1584,0,0,0,0,0,0,0,0,0,0
1682954923.90027571,81928882,1575,1574,1579,1578,0,0,0,0,0,0,0,0,0,0
1682954924.00023580,82028842,1578,1578,1573,1573,0,0,0,0,0,0,0,0,0,0
1682954924.10019588,82128802,1582,1581,1570,1570,0,0,0,0,0,0,0,0,0,0
1682954924.20015574,82228762,1584,1583,1569,1569,0,0,0,0,0,0,0,0,0,0
1682954924.30011582,82328722,1586,1584,1569,1569,0,0,0,0,0,0,0,0,0,0
1682954924.40007591,82428682,1584,1583,1569,1570,0,0,0,0,0,0,0,0,0,0
1682954924.50003576,82528642,1583,1582,1571,1571,0,0,0,0,0,0,0,0,0,0
1682954924.59999585,82628602,1581,1580,1573,1573,0,0,0,0,0,0,0,0,0,0
1682954924.69995594,82728562,1579,1579,1576,1576,0,0,0,0,0,0,0,0,0,0
1682954924.79991579,82828522,1577,1578,1579,1578,0,0,0,0,0,0,0,0,0,0
1682954924.89987588,82928482,1576,1577,1581,1581,0,0,0,0,0,0,0,0,0,0
1682954924.99983573,83028442,1574,1575,1582,1581,0,0,0,0,0,0,0,0,0,0
1682954925.09979582,83128402,1573,1574,1582,1582,0,0,0,0,0,0,0,0,0,0
1682954925.19975591,83228362,1574,1574,1583,1583,0,0,0,0,0,0,0,0,0,0
1682954925.29971576,83328322,1574,1575,1583,1583,0,0,0,0,0,0,0,0,0,0
1682954925.39967585,83428282,1575,1575,1583,1582,0,0,0,0,0,0,0,0,0,0
1682954925.49963593,83528242,1576,1576,1581,1582,0,0,0,0,0,0,0,0,0,0
1682954925.59959579,83628202,1577,1577,1581,1581,0,0,0,0,0,0,0,0,0,0
1682954925.69955587,83728162,1578,1578,1579,1580,0,0,0,0,0,0,0,0,0,0
1682954925.80034876,83828955,1579,1578,1579,1578,0,0,0,0,0,0,0,0,0,0
1682954925.90030885,83928915,1580,1579,1578,1578,0,0,0,0,0,0,0,0,0,0
1682954926.00026894,84028875,1580,1579,1577,1577,0,0,0,0,0,0,0,0,0,0
1682954926.10022879,84128835,1581,1581,1578,1577,0,0,0,0,0,0,0,0,0,0
1682954926.20018888,84228795,1581,1581,1577,1578,0,0,0,0,0,0,0,0,0,0
1682954926.30014873,84328755,1582,1582,1579,1579,0,0,0,0,0,0,0,0,0,0
1682954926.40010881,84428715,1581,1581,1579,1578,0,0,0,0,0,0,0,0,0,0
1682954926.50006890,84528675,1581,1580,1579,1578,0,0,0,0,0,0,0,0,0,0
1682954926.60002875,84628635,1581,1581,1580,1580,0,0,0,0,0,0,0,0,0,0
1682954926.69998884,84728595,1581,1580,1580,1580,0,0,0,0,0,0,0,0,0,0
1682954926.79994893,84828555,1581,1581,1581,1581,0,0,0,0,0,0,0,0,0,0
1682954926.89990878,84928515,1580,1581,1581,1582,0,0,0,0,0,0,0,0,0,0
1682954926.99986887,85028475,1581,1581,1582,1582,0,0,0,0,0,0,0,0,0,0
1682954927.09982872,85128435,1581,1582,1583,1583,0,0,0,0,0,0,0,0,0,0
1682954927.19978881,85228395,1580,1581,1582,1582,0,0,0,0,0,0,0,0,0,0
1682954927.29974890,85328355,1582,1582,1583,1583,0,0,0,0,0,0,0,0,0,0
1682954927.39970875,85428315,1581,1580,1582,1581,0,0,0,0,0,0,0,0,0,0
1682954927.49966884,85528275,1581,1581,1582,1582,0,0,0,0,0,0,0,0,0,0
1682954927.59962893,85628235,1581,1581,1581,1582,0,0,0,0,0,0,0,0,0,0
1682954927.69958878,85728195,1581,1581,1581,1581,0,0,0,0,0,0,0,0,0,0
1682954927.79954886,85828155,1581,1581,1581,1581,0,0,0,0,0,0,0,0,0,0
1682954927.90034175,85928948,1581,1581,1581,1581,0,0,0,0,0,0,0,0,0,0
1682954928.00030184,86028908,1582,1582,1581,1581,0,0,0,0,0,0,0,0,0,0
1682954928.10026193,86128868,1582,1582,1581,1582,0,0,0,0,0,0,0,0,0,0
1682954928.20022178,86228828,1582,1583,1586,1576,0,0,0,0,0,0,0,0,0,0
1682954928.30018187,86328788,1581,1584,1587,1573,0,0,0,0,0,0,0,0,0,0
1682954928.40014172,86428748,1580,1582,1580,1573,0,0,0,0,0,0,0,0,0,0
1682954928.50010180,86528708,1579,1581,1571,1573,0,0,0,0,0,0,0,0,0,0
1682954928.60006189,86628668,1577,1579,1563,1570,0,0,0,0,0,0,0,0,0,0
1682954928.70002174,86728628,1578,1579,1558,1565,0,0,0,0,0,0,0,0,0,0
1682954928.79998183,86828588,1578,1578,1555,1560,0,0,0,0,0,0,0,0,0,0
1682954928.89994192,86928548,1578,1577,1554,1556,0,0,0,0,0,0,0,0,0,0
1682954928.99990177,87028508,1579,1578,1554,1554,0,0,0,0,0,0,0,0,0,0
1682954929.09986186,87128468,1579,1578,1555,1553,0,0,0,0,0,0,0,0,0,0
1682954929.19982171,87228428,1578,1578,1556,1553,0,0,0,0,0,0,0,0,0,0
1682954929.29978180,87328388,1576,1578,1555,1553,0,0,0,0,0,0,0,0,0,0
1682954929.39974189,87428348,1576,1577,1554,1554,0,0,0,0,0,0,0,0,0,0
1682954929.49970174,87528308,1576,1578,1554,1554,0,0,0,0,0,0,0,0,0,0
1682954929.59966183,87628268,1575,1578,1553,1553,0,0,0,0,0,0,0,0,0,0
1682954929.69962192,87728228,1576,1577,1551,1552,0,0,0,0,0,0,0,0,0,0
1682954929.79958177,87828188,1577,1579,1549,1549,0,0,0,0,0,0,0,0,0,0
1682954929.90037489,87928981,1580,1581,1548,1548,0,0,0,0,0,0,0,0,0,0
1682954930.00033474,88028941,1582,1583,1546,1545,0,0,0,0,0,0,0,0,0,0
1682954930.10029483,88128901,1584,1585,1543,1542,0,0,0,0,0,0,0,0,0,0
1682954930.20025492,88228861,1588,1589,1542,1541,0,0,0,0,0,0,0,0,0,0
1682954930.30021477,88328821,1590,1590,1539,1539,0,0,0,0,0,0,0,0,0,0
1682954930.40017486,88428781,1592,1592,1538,1538,0,0,0,0,0,0,0,0,0,0
1682954930.50013471,88528741,1593,1593,1536,1538,0,0,0,0,0,0,0,0,0,0
1682954930.60009480,88628701,1593,1593,1537,1539,0,0,0,0,0,0,0,0,0,0
1682954930.70005488,88728661,1593,1592,1539,1541,0,0,0,0,0,0,0,0,0,0
1682954930.80001473,88828621,1590,1588,1542,1545,0,0,0,0,0,0,0,0,0,0
1682954930.89997482,88928581,1586,1582,1550,1553,0,0,0,0,0,0,0,0,0,0
1682954930.99993491,89028541,1578,1574,1559,1561,0,0,0,0,0,0,0,0,0,0
1682954931.09989476,89128501,1569,1565,1570,1572,0,0,0,0,0,0,0,0,0,0
1682954931.19985485,89228461,1558,1555,1582,1583,0,0,0,0,0,0,0,0,0,0
1682954931.29981494,89328421,1548,1546,1593,1593,0,0,0,0,0,0,0,0,0,0
1682954931.39977479,89428381,1540,1539,1603,1602,0,0,0,0,0,0,0,0,0,0
1682954931.49973488,89528341,1534,1535,1609,1608,0,0,0,0,0,0,0,0,0,0
1682954931.59969473,89628301,1533,1535,1614,1613,0,0,0,0,0,0,0,0,0,0
1682954931.69965482,89728261,1534,1536,1614,1612,0,0,0,0,0,0,0,0,0,0
1682954931.79961491,89828221,1538,1540,1611,1610,0,0,0,0,0,0,0,0,0,0
1682954931.89957476,89928181,1544,1546,1606,1605,0,0,0,0,0,0,0,0,0,0
1682954932.00036788,90028974,1552,1553,1600,1599,0,0,0,0,0,0,0,0,0,0
1682954932.10032773,90128934,1560,1560,1593,1593,0,0,0,0,0,0,0,0,0,0
1682954932.20028782,90228894,1568,1568,1586,1585,0,0,0,0,0,0,0,0,0,0
1682954932.30024791,90328854,1574,1573,1579,1578,0,0,0,0,0,0,0,0,0,0
1682954932.40020776,90428814,1581,1579,1574,1574,0,0,0,0,0,0,0,0,0,0
1682954932.50016785,90528774,1584,1583,1570,1570,0,0,0,0,0,0,0,0,0,0
1682954932.60012794,90628734,1586,1585,1567,1568,0,0,0,0,0,0,0,0,0,0
1682954932.70008779,90728694,1587,1585,1566,1566,0,0,0,0,0,0,0,0,0,0
1682954932.80004787,90828654,1586,1585,1567,1568,0,0,0,0,0,0,0,0,0,0
1682954932.90000772,90928614,1585,1584,1569,1569,0,0,0,0,0,0,0,0,0,0
1682954932.99996781,91028574,1583,1583,1572,1572,0,0,0,0,0,0,0,0,0,0
1682954933.09992790,91128534,1579,1579,1574,1574,0,0,0,0,0,0,0,0,0,0
1682954933.19988775,91228494,1577,1578,1577,1577,0,0,0,0,0,0,0,0,0,0
1682954933.29984784,91328454,1576,1576,1580,1579,0,0,0,0,0,0,0,0,0,0
1682954933.39980793,91428414,1574,1575,1582,1581,0,0,0,0,0,0,0,0,0,0
1682954933.49976778,91528374,1574,1574,1584,1583,0,0,0,0,0,0,0,0,0,0
1682954933.59972787,91628334,1573,1574,1584,1584,0,0,0,0,0,0,0,0,0,0
1682954933.69968772,91728294,1573,1574,1584,1584,0,0,0,0,0,0,0,0,0,0
1682954933.79964781,91828254,1574,1575,1584,1584,0,0,0,0,0,0,0,0,0,0
1682954933.89960790,91928214,1575,1575,1582,1582,0,0,0,0,0,0,0,0,0,0
1682954933.99956775,92028174,1576,1576,1581,1581,0,0,0,0,0,0,0,0,0,0
1682954934.10036087,92128967,1577,1577,1580,1579,0,0,0,0,0,0,0,0,0,0
1682954934.20032072,92228927,1579,1579,1579,1579,0,0,0,0,0,0,0,0,0,0
1682954934.30028081,92328887,1580,1579,1578,1578,0,0,0,0,0,0,0,0,0,0
1682954934.40024090,92428847,1582,1582,1579,1579,0,0,0,0,0,0,0,0,0,0
1682954934.50020075,92528807,1582,1582,1578,1578,0,0,0,0,0,0,0,0,0,0
1682954934.60016084,92628767,1583,1582,1578,1578,0,0,0,0,0,0,0,0,0,0
1682954934.70012093,92728727,1583,1582,1578,1578,0,0,0,0,0,0,0,0,0,0
1682954934.80008078,92828687,1582,1582,1579,1579,0,0,0,0,0,0,0,0,0,0
1682954934.90004086,92928647,1581,1580,1578,1578,0,0,0,0,0,0,0,0,0,0
1682954935.00000072,93028607,1582,1582,1580,1580,0,0,0,0,0,0,0,0,0,0
1682954935.09996080,93128567,1581,1581,1581,1581,0,0,0,0,0,0,0,0,0,0
1682954935.19992089,93228527,1580,1581,1581,1581,0,0,0,0,0,0,0,0,0,0
1682954935.29988074,93328487,1580,1580,1581,1581,0,0,0,0,0,0,0,0,0,0
1682954935.39984083,93428447,1580,1580,1581,1581,0,0,0,0,0,0,0,0,0,0
1682954935.49980092,93528407,1579,1579,1581,1580,0,0,0,0,0,0,0,0,0,0
1682954935.59976077,93628367,1579,1579,1581,1581,0,0,0,0,0,0,0,0,0,0
1682954935.69972086,93728327,1580,1580,1582,1581,0,0,0,0,0,0,0,0,0,0
1682954935.79968071,93828287,1580,1580,1581,1581,0,0,0,0,0,0,0,0,0,0
1682954935.89964080,93928247,1580,1580,1581,1581,0,0,0,0,0,0,0,0,0,0
1682954935.99960089,94028207,1581,1581,1582,1582,0,0,0,0,0,0,0,0,0,0
1682954936.09956074,94128167,1581,1581,1582,1581,0,0,0,0,0,0,0,0,0,0
1682954936.20035386,94228960,1582,1583,1588,1574,0,0,0,0,0,0,0,0,0,0
1682954936.30031371,94328920,1581,1581,1585,1573,0,0,0,0,0,0,0,0,0,0
1682954936.40027380,94428880,1578,1578,1578,1575,0,0,0,0,0,0,0,0,0,0
1682954936.50023389,94528840,1575,1575,1571,1575,0,0,0,0,0,0,0,0,0,0
1682954936.60019374,94628800,1572,1571,1566,1574,0,0,0,0,0,0,0,0,0,0
1682954936.70015383,94728760,1569,1569,1565,1572,0,0,0,0,0,0,0,0,0,0
1682954936.80011392,94828720,1568,1568,1565,1569,0,0,0,0,0,0,0,0,0,0
1682954936.90007377,94928680,1566,1566,1565,1566,0,0,0,0,0,0,0,0,0,0
1682954937.00003386,95028640,1565,1566,1566,1564,0,0,0,0,0,0,0,0,0,0
1682954937.09999371,95128600,1565,1564,1566,1564,0,0,0,0,0,0,0,0,0,0
1682954937.19995379,95228560,1564,1565,1567,1563,0,0,0,0,0,0,0,0,0,0
1682954937.29991388,95328520,1563,1564,1565,1563,0,0,0,0,0,0,0,0,0,0
1682954937.39987373,95428480,1563,1563,1564,1564,0,0,0,0,0,0,0,0,0,0
1682954937.49983382,95528440,1563,1562,1563,1564,0,0,0,0,0,0,0,0,0,0
1682954937.59979391,95628400,1563,1562,1564,1564,0,0,0,0,0,0,0,0,0,0
1682954937.69975376,95728360,1562,1562,1562,1562,0,0,0,0,0,0,0,0,0,0
1682954937.79971385,95828320,1561,1561,1562,1562,0,0,0,0,0,0,0,0,0,0
1682954937.89967394,95928280,1561,1561,1561,1561,0,0,0,0,0,0,0,0,0,0
1682954937.99963379,96028240,1560,1561,1561,1560,0,0,0,0,0,0,0,0,0,0
1682954938.09959388,96128200,1560,1559,1560,1559,0,0,0,0,0,0,0,0,0,0
1682954938.19955373,96228160,1559,1559,1559,1559,0,0,0,0,0,0,0,0,0,0
1682954938.30034685,96328953,1559,1559,1559,1558,0,0,0,0,0,0,0,0,0,0
1682954938.40030694,96428913,1558,1559,1558,1558,0,0,0,0,0,0,0,0,0,0
1682954938.50026679,96528873,1558,1558,1558,1558,0,0,0,0,0,0,0,0,0,0
1682954938.60022688,96628833,1558,1558,1558,1557,0,0,0,0,0,0,0,0,0,0
1682954938.70018673,96728793,1558,1558,1559,1557,0,0,0,0,0,0,0,0,0,0
1682954938.80014682,96828753,1558,1558,1559,1556,0,0,0,0,0,0,0,0,0,0
1682954938.90010691,96928713,1559,1559,1560,1558,0,0,0,0,0,0,0,0,0,0
1682954939.00006676,97028673,1558,1559,1559,1559,0,0,0,0,0,0,0,0,0,0
1682954939.10002685,97128633,1559,1560,1557,1562,0,0,0,0,0,0,0,0,0,0
1682954939.19998693,97228593,1560,1560,1557,1563,0,0,0,0,0,0,0,0,0,0
1682954939.29994678,97328553,1559,1558,1556,1561,0,0,0,0,0,0,0,0,0,0
1682954939.39990687,97428513,1559,1559,1558,1561,0,0,0,0,0,0,0,0,0,0
1682954939.49986672,97528473,1558,1558,1557,1559,0,0,0,0,0,0,0,0,0,0
1682954939.59982681,97628433,1556,1555,1555,1556,0,0,0,0,0,0,0,0,0,0
1682954939.69978690,97728393,1550,1550,1550,1550,0,0,0,0,0,0,0,0,0,0
1682954939.79974675,97828353,1544,1544,1544,1544,0,0,0,0,0,0,0,0,0,0
1682954939.89970684,97928313,1538,1538,1538,1537,0,0,0,0,0,0,0,0,0,0
1682954939.99966693,98028273,1530,1530,1530,1530,0,0,0,0,0,0,0,0,0,0
1682954940.09962678,98128233,1523,1523,1523,1523,0,0,0,0,0,0,0,0,0,0
1682954940.19958687,98228193,1521,1521,1521,1521,0,0,0,0,0,0,0,0,0,0
1682954940.30037975,98328986,1520,1520,1519,1521,0,0,0,0,0,0,0,0,0,0
1682954940.40033984,98428946,1521,1521,1521,1522,0,0,0,0,0,0,0,0,0,0
1682954940.50029993,98528906,1523,1523,1523,1524,0,0,0,0,0,0,0,0,0,0
1682954940.60025978,98628866,1527,1527,1527,1528,0,0,0,0,0,0,0,0,0,0
1682954940.70021987,98728826,1532,1532,1532,1532,0,0,0,0,0,0,0,0,0,0
1682954940.80017972,98828786,1537,1537,1537,1537,0,0,0,0,0,0,0,0,0,0
1682954940.90013981,98928746,1541,1540,1541,1540,0,0,0,0,0,0,0,0,0,0
1682954941.00009990,99028706,1542,1541,1542,1542,0,0,0,0,0,0,0,0,0,0
1682954941.10005975,99128666,1544,1543,1544,1543,0,0,0,0,0,0,0,0,0,0
1682954941.20001984,99228626,1544,1544,1544,1545,0,0,0,0,0,0,0,0,0,0
1682954941.29997993,99328586,1546,1546,1546,1546,0,0,0,0,0,0,0,0,0,0
1682954941.39993978,99428546,1546,1546,1546,1546,0,0,0,0,0,0,0,0,0,0
1682954941.49989986,99528506,1546,1547,1546,1546,0,0,0,0,0,0,0,0,0,0
1682954941.59985971,99628466,1546,1546,1546,1546,0,0,0,0,0,0,0,0,0,0
1682954941.69981980,99728426,1546,1546,1546,1546,0,0,0,0,0,0,0,0,0,0
1682954941.79977989,99828386,1546,1546,1546,1546,0,0,0,0,0,0,0,0,0,0
1682954941.89973974,99928346,1545,1545,1545,1545,0,0,0,0,0,0,0,0,0,0
1682954941.99969983,100028306,1545,1545,1545,1545,0,0,0,0,0,0,0,0,0,0
1682954942.09965992,100128266,1546,1545,1545,1545,0,0,0,0,0,0,0,0,0,0
1682954942.19961977,100228226,1545,1545,1545,1545,0,0,0,0,0,0,0,0,0,0
1682954942.29957986,100328186,1545,1545,1546,1545,0,0,0,0,0,0,0,0,0,0
1682954942.40037274,100428979,1545,1546,1545,1545,0,0,0,0,0,0,0,0,0,0
1682954942.50033283,100528939,1543,1543,1544,1543,0,0,0,0,0,0,0,0,0,0
1682954942.60029292,100628899,1544,1544,1544,1544,0,0,0,0,0,0,0,0,0,0
1682954942.70025277,100728859,1543,1543,1543,1544,0,0,0,0,0,0,0,0,0,0
1682954942.80021286,100828819,1543,1543,1543,1543,0,0,0,0,0,0,0,0,0,0
1682954942.90017271,100928779,1544,1544,1544,1544,0,0,0,0,0,0,0,0,0,0
1682954943.00013280,101028739,1544,1544,1544,1543,0,0,0,0,0,0,0,0,0,0
1682954943.10009289,101128699,1544,1544,1544,1544,0,0,0,0,0,0,0,0,0,0
1682954943.20005274,101228659,1544,1545,1545,1544,0,0,0,0,0,0,0,0,0,0
1682954943.30001283,101328619,1544,1543,1544,1544,0,0,0,0,0,0,0,0,0,0
1682954943.39997292,101428579,1545,1544,1544,1545,0,0,0,0,0,0,0,0,0,0
1682954943.49993277,101528539,1544,1544,1544,1544,0,0,0,0,0,0,0,0,0,0
1682954943.59989285,101628499,1544,1544,1544,1544,0,0,0,0,0,0,0,0,0,0
1682954943.69985271,101728459,1544,1544,1544,1544,0,0,0,0,0,0,0,0,0,0
1682954943.79981279,101828419,1543,1544,1543,1543,0,0,0,0,0,0,0,0,0,0
1682954943.89977288,101928379,1544,1544,1543,1544,0,0,0,0,0,0,0,0,0,0
1682954943.99973273,102028339,1544,1544,1544,1544,0,0,0,0,0,0,0,0,0,0
1682954944.09969282,102128299,1544,1544,1544,1544,0,0,0,0,0,0,0,0,0,0
1682954944.19965291,102228259,1544,1544,1545,1544,0,0,0,0,0,0,0,0,0,0
1682954944.29961276,102328219,1544,1544,1544,1544,0,0,0,0,0,0,0,0,0,0
1682954944.39957285,102428179,1544,1544,1544,1544,0,0,0,0,0,0,0,0,0,0
1682954944.50036573,102528972,1545,1544,1544,1544,0,0,0,0,0,0,0,0,0,0
1682954944.60032582,102628932,1545,1544,1545,1545,0,0,0,0,0,0,0,0,0,0
1682954944.70028591,102728892,1545,1545,1545,1545,0,0,0,0,0,0,0,0,0,0
1682954944.80024576,102828852,1545,1545,1545,1545,0,0,0,0,0,0,0,0,0,0
1682954944.90020585,102928812,1545,1545,1545,1545,0,0,0,0,0,0,0,0,0,0
1682954945.00016594,103028772,1544,1545,1545,1545,0,0,0,0,0,0,0,0,0,0
1682954945.10012579,103128732,1544,1544,1544,1544,0,0,0,0,0,0,0,0,0,0
1682954945.20008588,103228692,1544,1544,1544,1544,0,0,0,0,0,0,0,0,0,0
1682954945.30004573,103328652,1545,1544,1544,1544,0,0,0,0,0,0,0,0,0,0
1682954945.40000582,103428612,1545,1545,1545,1544,0,0,0,0,0,0,0,0,0,0
1682954945.49996591,103528572,1544,1544,1544,1544,0,0,0,0,0,0,0,0,0,0
1682954945.59992576,103628532,1544,1544,1544,1544,0,0,0,0,0,0,0,0,0,0
1682954945.69988585,103728492,1544,1544,1544,1544,0,0,0,0,0,0,0,0,0,0
1682954945.79984593,103828452,1545,1545,1545,1545,0,0,0,0,0,0,0,0,0,0
1682954945.89980578,103928412,1545,1544,1545,1544,0,0,0,0,0,0,0,0,0,0
1682954945.99976587,104028372,1544,1544,1544,1544,0,0,0,0,0,0,0,0,0,0
1682954946.09972572,104128332,1543,1544,1543,1544,0,0,0,0,0,0,0,0,0,0
1682954946.19968581,104228292,1543,1543,1543,1544,0,0,0,0,0,0,0,0,0,0
1682954946.29964590,104328252,1544,1544,1544,1544,0,0,0,0,0,0,0,0,0,0
1682954946.39960575,104428212,1545,1545,1545,1545,0,0,0,0,0,0,0,0,0,0
1682954946.49956584,104528172,1545,1545,1545,1545,0,0,0,0,0,0,0,0,0,0
1682954946.60035872,104628965,1544,1544,1544,1544,0,0,0,0,0,0,0,0,0,0
1682954946.70031881,104728925,1544,1544,1544,1544,0,0,0,0,0,0,0,0,0,0
1682954946.80027890,104828885,1544,1544,1544,1544,0,0,0,0,0,0,0,0,0,0
1682954946.90023875,104928845,1545,1544,1544,1545,0,0,0,0,0,0,0,0,0,0
1682954947.00019884,105028805,1544,1544,1544,1544,0,0,0,0,0,0,0,0,0,0
1682954947.10015893,105128765,1543,1544,1544,1544,0,0,0,0,0,0,0,0,0,0
1682954947.20011878,105228725,1545,1545,1545,1545,0,0,0,0,0,0,0,0,0,0
1682954947.30007887,105328685,1545,1544,1545,1545,0,0,0,0,0,0,0,0,0,0
1682954947.40003872,105428645,1544,1545,1544,1544,0,0,0,0,0,0,0,0,0,0
1682954947.49999881,105528605,1544,1544,1544,1544,0,0,0,0,0,0,0,0,0,0
1682954947.59995890,105628565,1544,1545,1545,1544,0,0,0,0,0,0,0,0,0,0
1682954947.69991875,105728525,1544,1543,1544,1544,0,0,0,0,0,0,0,0,0,0
1682954947.79987884,105828485,1545,1544,1545,1544,0,0,0,0,0,0,0,0,0,0
1682954947.89983892,105928445,1544,1544,1544,1544,0,0,0,0,0,0,0,0,0,0
1682954947.99979877,106028405,1544,1544,1544,1544,0,0,0,0,0,0,0,0,0,0
1682954948.09975886,106128365,1544,1544,1544,1544,0,0,0,0,0,0,0,0,0,0
1682954948.19971871,106228325,1545,1544,1544,1545,0,0,0,0,0,0,0,0,0,0
1682954948.29967880,106328285,1544,1544,1544,1544,0,0,0,0,0,0,0,0,0,0
1682954948.39963889,106428245,1544,1544,1544,1544,0,0,0,0,0,0,0,0,0,0
1682954948.49959874,106528205,1544,1544,1544,1544,0,0,0,0,0,0,0,0,0,0
1682954948.59955883,106628165,1544,1544,1544,1544,0,0,0,0,0,0,0,0,0,0
1682954948.70035172,106728958,1544,1544,1544,1544,0,0,0,0,0,0,0,0,0,0
1682954948.80031180,106828918,1545,1545,1545,1544,0,0,0,0,0,0,0,0,0,0
1682954948.90027189,106928878,1545,1544,1544,1545,0,0,0,0,0,0,0,0,0,0
1682954949.00023174,107028838,1545,1546,1545,1545,0,0,0,0,0,0,0,0,0,0
1682954949.10019183,107128798,1544,1544,1544,1544,0,0,0,0,0,0,0,0,0,0
1682954949.20015192,107228758,1545,1544,1545,1544,0,0,0,0,0,0,0,0,0,0
1682954949.30011177,107328718,1545,1544,1544,1545,0,0,0,0,0,0,0,0,0,0
1682954949.40007186,107428678,1544,1544,1544,1544,0,0,0,0,0,0,0,0,0,0
1682954949.50003171,107528638,1544,1543,1543,1544,0,0,0,0,0,0,0,0,0,0
1682954949.59999180,107628598,1544,1544,1544,1544,0,0,0,0,0,0,0,0,0,0
1682954949.69995189,107728558,1544,1544,1544,1544,0,0,0,0,0,0,0,0,0,0
1682954949.79991174,107828518,1544,1545,1544,1544,0,0,0,0,0,0,0,0,0,0
1682954949.89987183,107928478,1402,1387,1402,1387,0,0,0,0,0,0,0,0,0,0
1682954949.99983191,108028438,1292,1260,1293,1259,0,0,0,0,0,0,0,0,0,0
1682954950.09979177,108128398,1256,1215,1257,1215,0,0,0,0,0,0,0,0,0,0
1682954950.19975185,108228358,1240,1196,1242,1195,0,0,0,0,0,0,0,0,0,0
1682954950.29971194,108328318,1208,1154,1209,1154,0,0,0,0,0,0,0,0,0,0
1682954950.39967179,108428278,1205,1151,1206,1150,0,0,0,0,0,0,0,0,0,0
1682954950.49963188,108528238,1205,1150,1206,1150,0,0,0,0,0,0,0,0,0,0
1682954950.59959173,108628198,1205,1151,1207,1150,0,0,0,0,0,0,0,0,0,0
1682954950.69955182,108728158,1232,1150,1204,1187,0,0,0,0,0,0,0,0,0,0
1682954950.80034471,108828951,1223,1150,1205,1174,0,0,0,0,0,0,0,0,0,0
1682954950.90030479,108928911,1221,1150,1205,1171,0,0,0,0,0,0,0,0,0,0
1682954951.00026488,109028871,1222,1150,1205,1172,0,0,0,0,0,0,0,0,0,0
1682954951.10022473,109128831,1223,1150,1205,1174,0,0,0,0,0,0,0,0,0,0
1682954951.20018482,109228791,1225,1150,1205,1176,0,0,0,0,0,0,0,0,0,0
1682954951.30014491,109328751,1227,1150,1206,1179,0,0,0,0,0,0,0,0,0,0
1682954951.40010476,109428711,1228,1150,1206,1180,0,0,0,0,0,0,0,0,0,0
1682954951.50006485,109528671,1216,1150,1205,1165,0,0,0,0,0,0,0,0,0,0
1682954951.60002494,109628631,1217,1150,1205,1166,0,0,0,0,0,0,0,0,0,0
1682954951.69998479,109728591,1218,1150,1206,1167,0,0,0,0,0,0,0,0,0,0
1682954951.79994488,109828551,1219,1150,1206,1168,0,0,0,0,0,0,0,0,0,0
1682954951.89990473,109928511,1127,1150,1122,1155,0,0,0,0,0,0,0,0,0,0
1682954951.99986482,110028471,1000,1000,1000,1000,0,0,0,0,0,0,0,0,0,0
1682954952.09982491,110128431,1000,1000,1000,1000,0,0,0,0,0,0,0,0,0,0
1682954952.19978476,110228391,1000,1000,1000,1000,0,0,0,0,0,0,0,0,0,0
1682954952.29974484,110328351,1000,1000,1000,1000,0,0,0,0,0,0,0,0,0,0
1682954952.39970493,110428311,1000,1000,1000,1000,0,0,0,0,0,0,0,0,0,0
1682954952.49966478,110528271,1000,1000,1000,1000,0,0,0,0,0,0,0,0,0,0
1682954952.59962487,110628231,1000,1000,1000,1000,0,0,0,0,0,0,0,0,0,0
1682954952.69958472,110728191,1000,1000,1000,1000,0,0,0,0,0,0,0,0,0,0
1682954952.80037785,110828984,1000,1000,1000,1000,0,0,0,0,0,0,0,0,0,0
1682954952.90033793,110928944,1000,1000,1000,1000,0,0,0,0,0,0,0,0,0,0
1682954953.00029778,111028904,1000,1000,1000,1000,0,0,0,0,0,0,0,0,0,0
1682954953.10025787,111128864,1000,1000,1000,1000,0,0,0,0,0,0,0,0,0,0
1682954953.20021772,111228824,1000,1000,1000,1000,0,0,0,0,0,0,0,0,0,0
1682954953.30017781,111328784,1000,1000,1000,1000,0,0,0,0,0,0,0,0,0,0
1682954953.40013790,111428744,1000,1000,1000,1000,0,0,0,0,0,0,0,0,0,0
1682954953.50009775,111528704,1000,1000,1000,1000,0,0,0,0,0,0,0,0,0,0
1682954953.60005784,111628664,1000,1000,1000,1000,0,0,0,0,0,0,0,0,0,0
1682954953.70001793,111728624,1000,1000,1000,1000,0,0,0,0,0,0,0,0,0,0
1682954953.79997778,111828584,1000,1000,1000,1000,0,0,0,0,0,0,0,0,0,0
1682954953.89993787,111928544,1000,1000,1000,1000,0,0,0,0,0,0,0,0,0,0
1682954953.99989772,112028504,1000,1000,1000,1000,0,0,0,0,0,0,0,0,0,0
1682954954.09985781,112128464,1000,1000,1000,1000,0,0,0,0,0,0,0,0,0,0
1682954954.19981790,112228424,1000,1000,1000,1000,0,0,0,0,0,0,0,0,0,0
1682954954.29977775,112328384,1000,1000,1000,1000,0,0,0,0,0,0,0,0,0,0
1682954954.39973783,112428344,1000,1000,1000,1000,0,0,0,0,0,0,0,0,0,0
1682954954.49969792,112528304,1000,1000,1000,1000,0,0,0,0,0,0,0,0,0,0
1682954954.59965777,112628264,1000,1000,1000,1000,0,0,0,0,0,0,0,0,0,0
1682954954.69961786,112728224,1000,1000,1000,1000,0,0,0,0,0,0,0,0,0,0
1682954954.79957771,112828184,1000,1000,1000,1000,0,0,0,0,0,0,0,0,0,0
1682954954.90037084,112928977,1000,1000,1000,1000,0,0,0,0,0,0,0,0,0,0
1682954955.00033092,113028937,1000,1000,1000,1000,0,0,0,0,0,0,0,0,0,0
1682954955.10029078,113128897,1000,1000,1000,1000,0,0,0,0,0,0,0,0,0,0
1682954955.20025086,113228857,1000,1000,1000,1000,0,0,0,0,0,0,0,0,0,0
1682954955.30021071,113328817,1000,1000,1000,1000,0,0,0,0,0,0,0,0,0,0
1682954955.40017080,113428777,1000,1000,1000,1000,0,0,0,0,0,0,0,0,0,0
1682954955.50013089,113528737,1000,1000,1000,1000,0,0,0,0,0,0,0,0,0,0
1682954955.60009074,113628697,1000,1000,1000,1000,0,0,0,0,0,0,0,0,0,0
1682954955.70005083,113728657,1000,1000,1000,1000,0,0,0,0,0,0,0,0,0,0
1682954955.80001092,113828617,1000,1000,1000,1000,0,0,0,0,0,0,0,0,0,0
1682954955.89997077,113928577,1000,1000,1000,1000,0,0,0,0,0,0,0,0,0,0
1682954955.99993086,114028537,1000,1000,1000,1000,0,0,0,0,0,0,0,0,0,0
1682954956.09989071,114128497,1000,1000,1000,1000,0,0,0,0,0,0,0,0,0,0
1682954956.19985080,114228457,1000,1000,1000,1000,0,0,0,0,0,0,0,0,0,0
1682954956.29981089,114328417,1000,1000,1000,1000,0,0,0,0,0,0,0,0,0,0
1682954956.39977074,114428377,1000,1000,1000,1000,0,0,0,0,0,0,0,0,0,0
1682954956.49973083,114528337,1000,1000,1000,1000,0,0,0,0,0,0,0,0,0,0
1682954956.59969091,114628297,1000,1000,1000,1000,0,0,0,0,0,0,0,0,0,0
1682954956.69965076,114728257,1000,1000,1000,1000,0,0,0,0,0,0,0,0,0,0
1682954956.79961085,114828217,1000,1000,1000,1000,0,0,0,0,0,0,0,0,0,0
1682954956.89957094,114928177,1000,1000,1000,1000,0,0,0,0,0,0,0,0,0,0
1682954957.00036383,115028970,1000,1000,1000,1000,0,0,0,0,0,0,0,0,0,0
1682954957.10032392,115128930,1000,1000,1000,1000,0,0,0,0,0,0,0,0,0,0
1682954957.20028377,115228890,1000,1000,1000,1000,0,0,0,0,0,0,0,0,0,0
1682954957.30024385,115328850,1000,1000,1000,1000,0,0,0,0,0,0,0,0,0,0
1682954957.40020370,115428810,1000,1000,1000,1000,0,0,0,0,0,0,0,0,0,0
1682954957.50016379,115528770,1000,1000,1000,1000,0,0,0,0,0,0,0,0,0,0
1682954957.60012388,115628730,1000,1000,1000,1000,0,0,0,0,0,0,0,0,0,0
1682954957.70008373,115728690,1000,1000,1000,1000,0,0,0,0,0,0,0,0,0,0
1682954957.80004382,115828650,1000,1000,1000,1000,0,0,0,0,0,0,0,0,0,0
1682954957.90000391,115928610,1000,1000,1000,1000,0,0,0,0,0,0,0,0,0,0
1682954957.99996376,116028570,1000,1000,1000,1000,0,0,0,0,0,0,0,0,0,0
1682954958.09992385,116128530,1000,1000,1000,1000,0,0,0,0,0,0,0,0,0,0
1682954958.19988394,116228490,1000,1000,1000,1000,0,0,0,0,0,0,0,0,0,0
1682954958.29984379,116328450,1000,1000,1000,1000,0,0,0,0,0,0,0,0,0,0
1682954958.39980388,116428410,1000,1000,1000,1000,0,0,0,0,0,0,0,0,0,0
1682954958.49976373,116528370,1000,1000,1000,1000,0,0,0,0,0,0,0,0,0,0
1682954958.59972382,116628330,1000,1000,1000,1000,0,0,0,0,0,0,0,0,0,0
1682954958.69968390,116728290,1000,1000,1000,1000,0,0,0,0,0,0,0,0,0,0
1682954958.79964375,116828250,1000,1000,1000,1000,0,0,0,0,0,0,0,0,0,0
1682954958.89960384,116928210,1000,1000,1000,1000,0,0,0,0,0,0,0,0,0,0
1682954958.99956393,117028170,1000,1000,1000,1000,0,0,0,0,0,0,0,0,0,0
1682954959.10035682,117128963,1000,1000,1000,1000,0,0,0,0,0,0,0,0,0,0
1682954959.20031691,117228923,1000,1000,1000,1000,0,0,0,0,0,0,0,0,0,0
1682954959.30027676,117328883,1000,1000,1000,1000,0,0,0,0,0,0,0,0,0,0
1682954959.40023685,117428843,1000,1000,1000,1000,0,0,0,0,0,0,0,0,0,0
1682954959.50019693,117528803,1000,1000,1000,1000,0,0,0,0,0,0,0,0,0,0
1682954959.60015678,117628763,1000,1000,1000,1000,0,0,0,0,0,0,0,0,0,0
1682954959.70011687,117728723,1000,1000,1000,1000,0,0,0,0,0,0,0,0,0,0
1682954959.80007672,117828683,1000,1000,1000,1000,0,0,0,0,0,0,0,0,0,0
1682954959.90003681,117928643,1000,1000,1000,1000,0,0,0,0,0,0,0,0,0,0
1682954959.99999690,118028603,1000,1000,1000,1000,0,0,0,0,0,0,0,0,0,0
1682954960.09995675,118128563,1000,1000,1000,1000,0,0,0,0,0,0,0,0,0,0
1682954960.19991684,118228523,1000,1000,1000,1000,0,0,0,0,0,0,0,0,0,0
1682954960.29987693,118328483,1000,1000,1000,1000,0,0,0,0,0,0,0,0,0,0
1682954960.39983678,118428443,1000,1000,1000,1000,0,0,0,0,0,0,0,0,0,0
1682954960.49979687,118528403,1000,1000,1000,1000,0,0,0,0,0,0,0,0,0,0
1682954960.59975672,118628363,1000,1000,1000,1000,0,0,0,0,0,0,0,0,0,0
1682954960.69971681,118728323,1000,1000,1000,1000,0,0,0,0,0,0,0,0,0,0
1682954960.79967690,118828283,1000,1000,1000,1000,0,0,0,0,0,0,0,0,0,0
1682954960.89963675,118928243,1000,1000,1000,1000,0,0,0,0,0,0,0,0,0,0
1682954960.99959683,119028203,1000,1000,1000,1000,0,0,0,0,0,0,0,0,0,0
1682954961.09955692,119128163,1000,1000,1000,1000,0,0,0,0,0,0,0,0,0,0
1682954961.20034981,119228956,1000,1000,1000,1000,0,0,0,0,0,0,0,0,0,0
1682954961.30030990,119328916,1000,1000,1000,1000,0,0,0,0,0,0,0,0,0,0
1682954961.40026975,119428876,1000,1000,1000,1000,0,0,0,0,0,0,0,0,0,0
1682954961.50022984,119528836,1000,1000,1000,1000,0,0,0,0,0,0,0,0,0,0
1682954961.60018992,119628796,1000,1000,1000,1000,0,0,0,0,0,0,0,0,0,0
1682954961.70014977,119728756,1000,1000,1000,1000,0,0,0,0,0,0,0,0,0,0
1682954961.80010986,119828716,1000,1000,1000,1000,0,0,0,0,0,0,0,0,0,0
1682954961.90006971,119928676,1000,1000,1000,1000,0,0,0,0,0,0,0,0,0,0
1682954962.00002980,120028636,1000,1000,1000,1000,0,0,0,0,0,0,0,0,0,0
1682954962.09998989,120128596,1000,1000,1000,1000,0,0,0,0,0,0,0,0,0,0
1682954962.19994974,120228556,1000,1000,1000,1000,0,0,0,0,0,0,0,0,0,0
1682954962.29990983,120328516,1000,1000,1000,1000,0,0,0,0,0,0,0,0,0,0
1682954962.39986992,120428476,1000,1000,1000,1000,0,0,0,0,0,0,0,0,0,0
1682954962.49982977,120528436,1000,1000,1000,1000,0,0,0,0,0,0,0,0,0,0
1682954962.59978986,120628396,1000,1000,1000,1000,0,0,0,0,0,0,0,0,0,0
1682954962.69974971,120728356,1000,1000,1000,1000,0,0,0,0,0,0,0,0,0,0
1682954962.79970980,120828316,1000,1000,1000,1000,0,0,0,0,0,0,0,0,0,0
1682954962.89966989,120928276,1000,1000,1000,1000,0,0,0,0,0,0,0,0,0,0
1682954962.99962974,121028236,1000,1000,1000,1000,0,0,0,0,0,0,0,0,0,0
1682954963.09958982,121128196,1000,1000,1000,1000,0,0,0,0,0,0,0,0,0,0
1682954963.19954991,121228156,1000,1000,1000,1000,0,0,0,0,0,0,0,0,0,0
1682954963.30034280,121328949,1000,1000,1000,1000,0,0,0,0,0,0,0,0,0,0
1682954963.40030289,121428909,1000,1000,1000,1000,0,0,0,0,0,0,0,0,0,0
1682954963.50026274,121528869,1000,1000,1000,1000,0,0,0,0,0,0,0,0,0,0
1682954963.60022283,121628829,1000,1000,1000,1000,0,0,0,0,0,0,0,0,0,0
1682954963.70018291,121728789,1000,1000,1000,1000,0,0,0,0,0,0,0,0,0,0
1682954963.80014277,121828749,1000,1000,1000,1000,0,0,0,0,0,0,0,0,0,0
1682954963.90010285,121928709,1000,1000,1000,1000,0,0,0,0,0,0,0,0,0,0
1682954964.00006294,122028669,1000,1000,1000,1000,0,0,0,0,0,0,0,0,0,0
1682954964.10002279,122128629,1000,1000,1000,1000,0,0,0,0,0,0,0,0,0,0
1682954964.19998288,122228589,1000,1000,1000,1000,0,0,0,0,0,0,0,0,0,0
1682954964.29994273,122328549,1000,1000,1000,1000,0,0,0,0,0,0,0,0,0,0
1682954964.39990282,122428509,1000,1000,1000,1000,0,0,0,0,0,0,0,0,0,0
1682954964.49986291,122528469,1000,1000,1000,1000,0,0,0,0,0,0,0,0,0,0
1682954964.59982276,122628429,1000,1000,1000,1000,0,0,0,0,0,0,0,0,0,0
1682954964.69978285,122728389,1000,1000,1000,1000,0,0,0,0,0,0,0,0,0,0
1682954964.79974294,122828349,1000,1000,1000,1000,0,0,0,0,0,0,0,0,0,0
1682954964.89970279,122928309,1000,1000,1000,1000,0,0,0,0,0,0,0,0,0,0
1682954964.99966288,123028269,1000,1000,1000,1000,0,0,0,0,0,0,0,0,0,0
1682954965.09962273,123128229,1000,1000,1000,1000,0,0,0,0,0,0,0,0,0,0
1682954965.19958282,123228189,1000,1000,1000,1000,0,0,0,0,0,0,0,0,0,0
1682954965.30037594,123328982,1000,1000,1000,1000,0,0,0,0,0,0,0,0,0,0
1682954965.40033579,123428942,1000,1000,1000,1000,0,0,0,0,0,0,0,0,0,0
1682954965.50029588,123528902,1000,1000,1000,1000,0,0,0,0,0,0,0,0,0,0
1682954965.60025573,123628862,1000,1000,1000,1000,0,0,0,0,0,0,0,0,0,0
1682954965.70021582,123728822,1000,1000,1000,1000,0,0,0,0,0,0,0,0,0,0
1682954965.80017591,123828782,1000,1000,1000,1000,0,0,0,0,0,0,0,0,0,0
1682954965.90013576,123928742,1000,1000,1000,1000,0,0,0,0,0,0,0,0,0,0
1682954966.00009584,124028702,1000,1000,1000,1000,0,0,0,0,0,0,0,0,0,0
1682954966.10005593,124128662,1000,1000,1000,1000,0,0,0,0,0,0,0,0,0,0
1682954966.20001578,124228622,1000,1000,1000,1000,0,0,0,0,0,0,0,0,0,0
1682954966.29997587,124328582,1000,1000,1000,1000,0,0,0,0,0,0,0,0,0,0
1682954966.39993572,124428542,1000,1000,1000,1000,0,0,0,0,0,0,0,0,0,0
1682954966.49989581,124528502,1000,1000,1000,1000,0,0,0,0,0,0,0,0,0,0
1682954966.59985590,124628462,1000,1000,1000,1000,0,0,0,0,0,0,0,0,0,0
1682954966.69981575,124728422,1000,1000,1000,1000,0,0,0,0,0,0,0,0,0,0
1682954966.79977584,124828382,1000,1000,1000,1000,0,0,0,0,0,0,0,0,0,0
1682954966.89973593,124928342,1000,1000,1000,1000,0,0,0,0,0,0,0,0,0,0
