TimeUS,M1,M2,M3,M4,TimeUS,C1,C2,C3,C4
89368405,1000,1000,1000,1000,89428381,1000,1000,1000,1000
89370904,1000,1000,1000,1000,89528341,1000,1000,1000,1000
89373403,1000,1000,1000,1000,89628301,1000,1000,1000,1000
89375902,1000,1000,1000,1000,89728261,1000,1000,1000,1000
89378401,1000,1000,1000,1000,89828221,1000,1000,1000,1000
89380900,1000,1000,1000,1000,89928181,1000,1000,1000,1000
89383399,1000,1000,1000,1000,90028974,1000,1000,1000,1000
89385898,1000,1000,1000,1000,90128934,1000,1000,1000,1000
89388397,1000,1000,1000,1000,90228894,1000,1000,1000,1000
89390896,1000,1000,1000,1000,90328854,1000,1000,1000,1000
89393395,1000,1000,1000,1000,90428814,1000,1000,1000,1000
89395894,1000,1000,1000,1000,90528774,1000,1000,1000,1000
89398393,1000,1000,1000,1000,90628734,1000,1000,1000,1000
89400892,1000,1000,1000,1000,90728694,1000,1000,1000,1000
89403391,1000,1000,1000,1000,90828654,1000,1000,1000,1000
89405890,1000,1000,1000,1000,90928614,1000,1000,1000,1000
89408389,1000,1000,1000,1000,91028574,1000,1000,1000,1000
89410888,1000,1000,1000,1000,91128534,1000,1000,1000,1000
89413387,1000,1000,1000,1000,91228494,1000,1000,1000,1000
89415886,1000,1000,1000,1000,91328454,1000,1000,1000,1000
89418385,1000,1000,1000,1000,91428414,1018,1018,1018,1018
89420884,1000,1000,1000,1000,91528374,1048,1048,1048,1048
89423383,1000,1000,1000,1000,91628334,1078,1078,1078,1078
89425882,1000,1000,1000,1000,91728294,1107,1107,1107,1107
89428381,1000,1000,1000,1000,91828254,1137,1137,1137,1137
89430880,1000,1000,1000,1000,91928214,1314,1303,1303,1315
89433379,1000,1000,1000,1000,92028174,1514,1505,1506,1515
89435878,1000,1000,1000,1000,92128967,1672,1664,1664,1672
89438377,1000,1000,1000,1000,92228927,1807,1799,1799,1807
89440876,1000,1000,1000,1000,92328887,1865,1857,1857,1866
89443375,1000,1000,1000,1000,92428847,1852,1848,1848,1853
89445874,1000,1000,1000,1000,92528807,1723,1723,1724,1724
89448373,1000,1000,1000,1000,92628767,1634,1637,1637,1634
89450872,1000,1000,1000,1000,92728727,1615,1618,1619,1615
89453371,1000,1000,1000,1000,92828687,1627,1629,1629,1626
89455870,1000,1000,1000,1000,92928647,1637,1631,1630,1638
89458369,1000,1000,1000,1000,93028607,1626,1628,1621,1633
89460868,1000,1000,1000,1000,93128567,1620,1621,1615,1625
89463367,1000,1000,1000,1000,93228527,1614,1615,1613,1616
89465866,1000,1000,1000,1000,93328487,1613,1614,1615,1612
89468365,1000,1000,1000,1000,93428447,1616,1616,1619,1612
89470864,1000,1000,1000,1000,93528407,1619,1618,1622,1614
89473363,1000,1000,1000,1000,93628367,1621,1620,1623,1617
89475862,1000,1000,1000,1000,93728327,1608,1607,1611,1603
89478361,1000,1000,1000,1000,93828287,1583,1584,1593,1574
89480860,1000,1000,1000,1000,93928247,1570,1570,1575,1567
89483359,1000,1000,1000,1000,94028207,1560,1560,1559,1563
89485858,1000,1000,1000,1000,94128167,1551,1550,1543,1558
89488357,1000,1000,1000,1000,94228960,1544,1543,1533,1554
89490856,1000,1000,1000,1000,94328920,1538,1537,1529,1545
89493355,1000,1000,1000,1000,94428880,1532,1531,1527,1535
89495854,1000,1000,1000,1000,94528840,1529,1528,1527,1528
89498353,1000,1000,1000,1000,94628800,1528,1528,1529,1526
89500852,1000,1000,1000,1000,94728760,1530,1530,1533,1527
89503351,1000,1000,1000,1000,94828720,1533,1533,1536,1529
89505850,1000,1000,1000,1000,94928680,1537,1536,1539,1534
89508349,1000,1000,1000,1000,95028640,1539,1539,1541,1537
89510848,1000,1000,1000,1000,95128600,1543,1543,1544,1543
89513347,1000,1000,1000,1000,95228560,1545,1545,1545,1546
89515846,1000,1000,1000,1000,95328520,1548,1548,1548,1550
89518345,1000,1000,1000,1000,95428480,1551,1552,1551,1553
89520844,1000,1000,1000,1000,95528440,1553,1554,1553,1555
89523343,1000,1000,1000,1000,95628400,1559,1559,1554,1555
89525842,1000,1000,1000,1000,95728360,1561,1560,1557,1558
89528341,1000,1000,1000,1000,95828320,1561,1559,1561,1561
89530840,1000,1000,1000,1000,95928280,1561,1560,1565,1565
89533339,1000,1000,1000,1000,96028240,1562,1562,1568,1567
89535838,1000,1000,1000,1000,96128200,1563,1563,1569,1570
89538337,1000,1000,1000,1000,96228160,1564,1565,1570,1570
89540836,1000,1000,1000,1000,96328953,1566,1566,1571,1570
89543335,1000,1000,1000,1000,96428913,1566,1567,1570,1570
89545834,1000,1000,1000,1000,96528873,1569,1568,1569,1570
89548333,1000,1000,1000,1000,96628833,1571,1571,1570,1571
89550832,1000,1000,1000,1000,96728793,1572,1572,1570,1571
89553331,1000,1000,1000,1000,96828753,1574,1574,1571,1571
89555830,1000,1000,1000,1000,96928713,1575,1576,1572,1571
89558329,1000,1000,1000,1000,97028673,1576,1576,1573,1571
89560828,1000,1000,1000,1000,97128633,1577,1576,1574,1572
89563327,1000,1000,1000,1000,97228593,1578,1577,1575,1573
89565826,1000,1000,1000,1000,97328553,1578,1578,1575,1576
89568325,1000,1000,1000,1000,97428513,1577,1577,1575,1576
89570824,1000,1000,1000,1000,97528473,1576,1576,1575,1576
89573323,1000,1000,1000,1000,97628433,1576,1577,1576,1577
89575822,1000,1000,1000,1000,97728393,1577,1577,1577,1577
89578321,1000,1000,1000,1000,97828353,1576,1577,1578,1577
89580820,1000,1000,1000,1000,97928313,1576,1576,1577,1577
89583319,1000,1000,1000,1000,98028273,1577,1577,1578,1577
89585818,1000,1000,1000,1000,98128233,1577,1576,1577,1578
89588317,1000,1000,1000,1000,98228193,1577,1576,1577,1578
89590816,1000,1000,1000,1000,98328986,1576,1577,1577,1577
89593315,1000,1000,1000,1000,98428946,1578,1578,1578,1578
89595814,1000,1000,1000,1000,98528906,1578,1578,1578,1579
89598313,1000,1000,1000,1000,98628866,1578,1578,1578,1578
89600812,1000,1000,1000,1000,98728826,1579,1578,1578,1578
89603311,1000,1000,1000,1000,98828786,1579,1579,1579,1579
89605810,1000,1000,1000,1000,98928746,1579,1579,1579,1578
89608309,1000,1000,1000,1000,99028706,1579,1579,1579,1578
89610808,1000,1000,1000,1000,99128666,1579,1579,1579,1579
89613307,1000,1000,1000,1000,99228626,1579,1579,1579,1579
89615806,1000,1000,1000,1000,99328586,1579,1580,1579,1580
89618305,1000,1000,1000,1000,99428546,1579,1579,1578,1579
89620804,1000,1000,1000,1000,99528506,1579,1579,1579,1580
89623303,1000,1000,1000,1000,99628466,1580,1579,1580,1580
89625802,1000,1000,1000,1000,99728426,1581,1580,1581,1580
89628301,1000,1000,1000,1000,99828386,1579,1579,1579,1579
89630800,1000,1000,1000,1000,99928346,1580,1580,1580,1580
89633299,1000,1000,1000,1000,100028306,1580,1580,1580,1580
89635798,1000,1000,1000,1000,100128266,1579,1579,1580,1579
89638297,1000,1000,1000,1000,100228226,1580,1580,1580,1580
89640796,1000,1000,1000,1000,100328186,1580,1580,1580,1580
89643295,1000,1000,1000,1000,100428979,1580,1580,1580,1581
89645794,1000,1000,1000,1000,100528939,1579,1579,1580,1580
89648293,1000,1000,1000,1000,100628899,1579,1579,1579,1579
89650792,1000,1000,1000,1000,100728859,1580,1580,1580,1580
89653291,1000,1000,1000,1000,100828819,1580,1579,1579,1580
89655790,1000,1000,1000,1000,100928779,1580,1580,1580,1580
89658289,1000,1000,1000,1000,101028739,1580,1580,1580,1579
89660788,1000,1000,1000,1000,101128699,1580,1580,1579,1580
89663287,1000,1000,1000,1000,101228659,1579,1579,1579,1579
89665786,1000,1000,1000,1000,101328619,1579,1579,1579,1579
89668285,1000,1000,1000,1000,101428579,1580,1580,1580,1580
89670784,1000,1000,1000,1000,101528539,1580,1580,1580,1580
89673283,1000,1000,1000,1000,101628499,1581,1581,1581,1581
89675782,1000,1000,1000,1000,101728459,1581,1581,1582,1580
89678281,1000,1000,1000,1000,101828419,1582,1582,1588,1574
89680780,1000,1000,1000,1000,101928379,1581,1583,1585,1574
89683279,1000,1000,1000,1000,102028339,1579,1581,1576,1573
89685778,1000,1000,1000,1000,102128299,1577,1580,1567,1572
89688277,1000,1000,1000,1000,102228259,1577,1579,1561,1568
89690776,1000,1000,1000,1000,102328219,1577,1578,1556,1563
89693275,1000,1000,1000,1000,102428179,1578,1578,1554,1558
89695774,1000,1000,1000,1000,102528972,1580,1578,1555,1555
89698273,1000,1000,1000,1000,102628932,1579,1578,1556,1553
89700772,1000,1000,1000,1000,102728892,1580,1578,1557,1554
89703271,1000,1000,1000,1000,102828852,1578,1579,1556,1554
89705770,1000,1000,1000,1000,102928812,1577,1578,1555,1554
89708269,1000,1000,1000,1000,103028772,1576,1578,1555,1554
89710768,1000,1000,1000,1000,103128732,1576,1577,1552,1553
89713267,1000,1000,1000,1000,103228692,1576,1578,1551,1551
89715766,1000,1000,1000,1000,103328652,1577,1578,1548,1549
89718265,1000,1000,1000,1000,103428612,1579,1581,1547,1547
89720764,1000,1000,1000,1000,103528572,1582,1582,1544,1544
89723263,1000,1000,1000,1000,103628532,1584,1586,1542,1542
89725762,1000,1000,1000,1000,103728492,1588,1589,1540,1539
89728261,1000,1000,1000,1000,103828452,1591,1592,1538,1537
89730760,1000,1000,1000,1000,103928412,1594,1594,1536,1536
89733259,1000,1000,1000,1000,104028372,1595,1595,1535,1536
89735758,1000,1000,1000,1000,104128332,1595,1595,1535,1537
89738257,1000,1000,1000,1000,104228292,1593,1593,1537,1539
89740756,1000,1000,1000,1000,104328252,1593,1591,1541,1545
89743255,1000,1000,1000,1000,104428212,1588,1586,1548,1550
89745754,1000,1000,1000,1000,104528172,1581,1578,1557,1560
89748253,1000,1000,1000,1000,104628965,1571,1568,1567,1570
89750752,1000,1000,1000,1000,104728925,1560,1557,1579,1581
89753251,1000,1000,1000,1000,104828885,1550,1547,1592,1593
89755750,1000,1000,1000,1000,104928845,1541,1538,1603,1603
89758249,1000,1000,1000,1000,105028805,1532,1532,1610,1609
89760748,1000,1000,1000,1000,105128765,1529,1530,1615,1614
89763247,1000,1000,1000,1000,105228725,1529,1532,1615,1614
89765746,1000,1000,1000,1000,105328685,1532,1535,1611,1612
89768245,1000,1000,1000,1000,105428645,1538,1541,1606,1606
89770744,1000,1000,1000,1000,105528605,1547,1548,1599,1600
89773243,1000,1000,1000,1000,105628565,1557,1557,1593,1593
89775742,1000,1000,1000,1000,105728525,1566,1566,1586,1585
89778241,1000,1000,1000,1000,105828485,1574,1573,1579,1578
89780740,1000,1000,1000,1000,105928445,1580,1580,1574,1572
89783239,1000,1000,1000,1000,106028405,1586,1584,1570,1569
89785738,1000,1000,1000,1000,106128365,1588,1585,1567,1566
89788237,1000,1000,1000,1000,106228325,1589,1588,1567,1567
89790736,1000,1000,1000,1000,106328285,1587,1587,1567,1568
89793235,1000,1000,1000,1000,106428245,1585,1585,1569,1569
89795734,1000,1000,1000,1000,106528205,1582,1582,1571,1572
89798233,1000,1000,1000,1000,106628165,1580,1580,1575,1575
89800732,1000,1000,1000,1000,106728958,1576,1576,1577,1576
89803231,1000,1000,1000,1000,106828918,1574,1574,1579,1579
89805730,1000,1000,1000,1000,106928878,1572,1573,1582,1582
89808229,1000,1000,1000,1000,107028838,1571,1572,1583,1583
89810728,1000,1000,1000,1000,107128798,1572,1573,1584,1584
89813227,1000,1000,1000,1000,107228758,1572,1572,1583,1583
89815726,1000,1000,1000,1000,107328718,1574,1574,1583,1583
89818225,1000,1000,1000,1000,107428678,1575,1575,1582,1582
89820724,1000,1000,1000,1000,107528638,1576,1577,1581,1581
89823223,1000,1000,1000,1000,107628598,1577,1577,1578,1579
89825722,1000,1000,1000,1000,107728558,1579,1579,1579,1579
89828221,1000,1000,1000,1000,107828518,1581,1581,1578,1579
89830720,1000,1000,1000,1000,107928478,1581,1581,1577,1578
89833219,1000,1000,1000,1000,108028438,1581,1581,1578,1577
89835718,1000,1000,1000,1000,108128398,1582,1581,1577,1577
89838217,1000,1000,1000,1000,108228358,1582,1582,1579,1578
89840716,1000,1000,1000,1000,108328318,1582,1582,1578,1579
89843215,1000,1000,1000,1000,108428278,1581,1581,1579,1579
89845714,1000,1000,1000,1000,108528238,1581,1581,1580,1580
89848213,1000,1000,1000,1000,108628198,1573,1545,1572,1545
89850712,1000,1000,1000,1000,108728158,1585,1571,1585,1572
89853211,1000,1000,1000,1000,108828951,1607,1578,1609,1580
89855710,1000,1000,1000,1000,108928911,1620,1591,1622,1592
89858209,1000,1000,1000,1000,109028871,1619,1599,1621,1600
89860708,1000,1000,1000,1000,109128831,1608,1601,1610,1602
89863207,1000,1000,1000,1000,109228791,1594,1601,1597,1602
89865706,1000,1000,1000,1000,109328751,1583,1596,1587,1600
89868205,1000,1000,1000,1000,109428711,1575,1589,1581,1596
89870704,1000,1000,1000,1000,109528671,1573,1583,1580,1591
89873203,1000,1000,1000,1000,109628631,1575,1580,1582,1587
89875702,1000,1000,1000,1000,109728591,1578,1578,1584,1582
89878201,1000,1000,1000,1000,109828551,1581,1581,1588,1569
89880700,1000,1000,1000,1000,109928511,1584,1585,1581,1566
89883199,1000,1000,1000,1000,110028471,1584,1585,1569,1564
89885698,1000,1000,1000,1000,110128431,1582,1583,1559,1562
89888197,1000,1000,1000,1000,110228391,1580,1581,1551,1559
89890696,1000,1000,1000,1000,110328351,1579,1579,1547,1555
89893195,1000,1000,1000,1000,110428311,1578,1577,1547,1552
89895694,1000,1000,1000,1000,110528271,1578,1577,1548,1550
89898193,1000,1000,1000,1000,110628231,1576,1576,1549,1549
89900692,1000,1000,1000,1000,110728191,1576,1576,1551,1548
89903191,1000,1000,1000,1000,110828984,1575,1576,1552,1549
89905690,1000,1000,1000,1000,110928944,1574,1576,1552,1550
89908189,1000,1000,1000,1000,111028904,1573,1575,1550,1550
89910688,1000,1000,1000,1000,111128864,1574,1575,1550,1550
89913187,1000,1000,1000,1000,111228824,1575,1577,1548,1549
89915686,1000,1000,1000,1000,111328784,1577,1577,1546,1547
89918185,1000,1000,1000,1000,111428744,1580,1581,1545,1546
89920684,1000,1000,1000,1000,111528704,1581,1582,1542,1542
89923183,1000,1000,1000,1000,111628664,1584,1584,1540,1539
89925682,1000,1000,1000,1000,111728624,1586,1587,1538,1538
89928181,1000,1000,1000,1000,111828584,1589,1589,1538,1538
89930680,1000,1000,1000,1000,111928544,1590,1589,1538,1539
89933179,1000,1000,1000,1000,112028504,1589,1589,1539,1541
89935678,1000,1000,1000,1000,112128464,1588,1588,1542,1544
89938177,1000,1000,1000,1000,112228424,1586,1586,1546,1549
89940676,1000,1000,1000,1000,112328384,1583,1580,1552,1555
89943175,1000,1000,1000,1000,112428344,1576,1573,1559,1562
89945674,1000,1000,1000,1000,112528304,1569,1566,1569,1572
89948173,1000,1000,1000,1000,112628264,1560,1557,1579,1581
89950672,1000,1000,1000,1000,112728224,1552,1549,1589,1590
89953171,1000,1000,1000,1000,112828184,1544,1543,1598,1598
89955670,1000,1000,1000,1000,112928977,1538,1539,1604,1603
89958169,1000,1000,1000,1000,113028937,1536,1537,1608,1606
89960668,1000,1000,1000,1000,113128897,1537,1539,1609,1608
89963167,1000,1000,1000,1000,113228857,1539,1542,1607,1606
89965666,1000,1000,1000,1000,113328817,1543,1545,1601,1601
89968165,1000,1000,1000,1000,113428777,1550,1551,1596,1596
89970664,1000,1000,1000,1000,113528737,1558,1558,1591,1591
89973163,1000,1000,1000,1000,113628697,1566,1565,1585,1585
89975662,1000,1000,1000,1000,113728657,1572,1572,1581,1579
89978161,1000,1000,1000,1000,113828617,1577,1577,1575,1575
89980660,1000,1000,1000,1000,113928577,1581,1580,1571,1571
89983159,1000,1000,1000,1000,114028537,1584,1583,1569,1570
89985658,1000,1000,1000,1000,114128497,1585,1584,1568,1569
89988157,1000,1000,1000,1000,114228457,1586,1584,1569,1570
89990656,1000,1000,1000,1000,114328417,1584,1583,1570,1570
89993155,1000,1000,1000,1000,114428377,1582,1582,1573,1572
89995654,1000,1000,1000,1000,114528337,1580,1580,1575,1574
89998986,1000,1000,1000,1000,114628297,1579,1580,1578,1578
90001485,1000,1000,1000,1000,114728257,1577,1577,1580,1579
90003984,1000,1000,1000,1000,114828217,1575,1575,1581,1581
90006483,1000,1000,1000,1000,114928177,1573,1574,1581,1581
90008982,1000,1000,1000,1000,115028970,1573,1574,1582,1582
90011481,1000,1000,1000,1000,115128930,1574,1575,1583,1583
90013980,1000,1000,1000,1000,115228890,1575,1576,1583,1583
90016479,1000,1000,1000,1000,115328850,1576,1576,1582,1583
90018978,1000,1000,1000,1000,115428810,1577,1577,1582,1582
90021477,1000,1000,1000,1000,115528770,1577,1577,1580,1580
90023976,1000,1000,1000,1000,115628730,1578,1578,1579,1579
90026475,1000,1000,1000,1000,115728690,1579,1579,1579,1578
90028974,1000,1000,1000,1000,115828650,1581,1581,1578,1579
90031473,1000,1000,1000,1000,115928610,1581,1580,1578,1578
90033972,1000,1000,1000,1000,116028570,1581,1581,1577,1577
90036471,1000,1000,1000,1000,116128530,1581,1581,1578,1578
90038970,1000,1000,1000,1000,116228490,1582,1581,1578,1579
90041469,1000,1000,1000,1000,116328450,1581,1581,1579,1579
90043968,1000,1000,1000,1000,116428410,1581,1581,1580,1579
90046467,1000,1000,1000,1000,116528370,1581,1581,1580,1580
90048966,1000,1000,1000,1000,116628330,1581,1581,1581,1581
90051465,1000,1000,1000,1000,116728290,1580,1580,1581,1581
90053964,1000,1000,1000,1000,116828250,1581,1582,1582,1582
90056463,1000,1000,1000,1000,116928210,1581,1581,1582,1582
90058962,1000,1000,1000,1000,117028170,1580,1580,1581,1581
90061461,1000,1000,1000,1000,117128963,1580,1581,1582,1582
90063960,1000,1000,1000,1000,117228923,1580,1580,1582,1581
90066459,1000,1000,1000,1000,117328883,1581,1580,1581,1582
90068958,1000,1000,1000,1000,117428843,1580,1580,1581,1581
90071457,1000,1000,1000,1000,117528803,1580,1579,1580,1580
90073956,1000,1000,1000,1000,117628763,1580,1581,1581,1580
90076455,1000,1000,1000,1000,117728723,1582,1582,1581,1582
90078954,1000,1000,1000,1000,117828683,1581,1581,1580,1580
90081453,1000,1000,1000,1000,117928643,1581,1581,1581,1581
90083952,1000,1000,1000,1000,118028603,1581,1582,1582,1579
90086451,1000,1000,1000,1000,118128563,1581,1583,1588,1572
90088950,1000,1000,1000,1000,118228523,1580,1583,1582,1573
90091449,1000,1000,1000,1000,118328483,1579,1581,1574,1573
90093948,1000,1000,1000,1000,118428443,1578,1580,1567,1571
90096447,1000,1000,1000,1000,118528403,1577,1579,1560,1567
90098946,1000,1000,1000,1000,118628363,1578,1579,1556,1563
90101445,1000,1000,1000,1000,118728323,1579,1578,1554,1558
90103944,1000,1000,1000,1000,118828283,1580,1579,1555,1555
90106443,1000,1000,1000,1000,118928243,1580,1578,1555,1553
90108942,1000,1000,1000,1000,119028203,1579,1579,1556,1553
90111441,1000,1000,1000,1000,119128163,1578,1578,1555,1554
90113940,1000,1000,1000,1000,119228956,1577,1578,1555,1554
90116439,1000,1000,1000,1000,119328916,1576,1577,1554,1554
90118938,1000,1000,1000,1000,119428876,1576,1577,1553,1554
90121437,1000,1000,1000,1000,119528836,1577,1578,1552,1553
90123936,1000,1000,1000,1000,119628796,1578,1580,1551,1551
90126435,1000,1000,1000,1000,119728756,1579,1581,1549,1548
90128934,1000,1000,1000,1000,119828716,1582,1583,1547,1547
90131433,1000,1000,1000,1000,119928676,1584,1585,1544,1544
90133932,1000,1000,1000,1000,120028636,1587,1588,1542,1541
90136431,1000,1000,1000,1000,120128596,1590,1590,1541,1541
90138930,1000,1000,1000,1000,120228556,1591,1592,1539,1539
90141429,1000,1000,1000,1000,120328516,1593,1593,1537,1538
90143928,1000,1000,1000,1000,120428476,1593,1594,1536,1538
90146427,1000,1000,1000,1000,120528436,1594,1593,1539,1541
90148926,1000,1000,1000,1000,120628396,1592,1590,1542,1545
90151425,1000,1000,1000,1000,120728356,1588,1585,1549,1552
90153924,1000,1000,1000,1000,120828316,1581,1578,1557,1560
90156423,1000,1000,1000,1000,120928276,1572,1568,1567,1570
90158922,1000,1000,1000,1000,121028236,1562,1559,1579,1581
90161421,1000,1000,1000,1000,121128196,1552,1549,1590,1591
90163920,1000,1000,1000,1000,121228156,1542,1542,1600,1600
90166419,1000,1000,1000,1000,121328949,1536,1537,1609,1607
90168918,1000,1000,1000,1000,121428909,1534,1536,1614,1612
90171417,1000,1000,1000,1000,121528869,1533,1535,1613,1612
90173916,1000,1000,1000,1000,121628829,1537,1539,1612,1611
90176415,1000,1000,1000,1000,121728789,1542,1544,1608,1607
90178914,1000,1000,1000,1000,121828749,1549,1550,1601,1601
90181413,1000,1000,1000,1000,121928709,1557,1557,1594,1594
90183912,1000,1000,1000,1000,122028669,1565,1564,1587,1586
90186411,1000,1000,1000,1000,122128629,1572,1572,1581,1581
90188910,1000,1000,1000,1000,122228589,1578,1577,1574,1575
90191409,1000,1000,1000,1000,122328549,1582,1580,1569,1570
90193908,1000,1000,1000,1000,122428509,1585,1584,1567,1568
90196407,1000,1000,1000,1000,122528469,1586,1586,1566,1567
90198906,1000,1000,1000,1000,122628429,1587,1585,1567,1567
90201405,1000,1000,1000,1000,122728389,1585,1584,1568,1568
90203904,1000,1000,1000,1000,122828349,1584,1583,1572,1571
90206403,1000,1000,1000,1000,122928309,1581,1581,1575,1574
90208902,1000,1000,1000,1000,123028269,1578,1579,1577,1577
90211401,1000,1000,1000,1000,123128229,1577,1578,1581,1580
90213900,1000,1000,1000,1000,123228189,1575,1575,1581,1582
90216399,1000,1000,1000,1000,123328982,1574,1575,1583,1584
90218898,1000,1000,1000,1000,123428942,1573,1573,1583,1583
90221397,1000,1000,1000,1000,123528902,1573,1574,1584,1584
90223896,1000,1000,1000,1000,123628862,1574,1574,1583,1584
90226395,1000,1000,1000,1000,123728822,1574,1574,1582,1582
90228894,1000,1000,1000,1000,123828782,1576,1576,1582,1582
90231393,1000,1000,1000,1000,123928742,1576,1577,1580,1580
90233892,1000,1000,1000,1000,124028702,1578,1578,1579,1579
90236391,1000,1000,1000,1000,124128662,1580,1580,1579,1579
90238890,1000,1000,1000,1000,124228622,1580,1580,1577,1578
90241389,1000,1000,1000,1000,124328582,1581,1581,1578,1578
90243888,1000,1000,1000,1000,124428542,1581,1581,1577,1577
90246387,1000,1000,1000,1000,124528502,1582,1582,1578,1578
90248886,1000,1000,1000,1000,124628462,1582,1582,1578,1578
90251385,1000,1000,1000,1000,124728422,1582,1581,1579,1578
90253884,1000,1000,1000,1000,124828382,1582,1582,1579,1579
90256383,1000,1000,1000,1000,124928342,1581,1580,1579,1579
90258882,1000,1000,1000,1000,125028302,1580,1580,1580,1580
90261381,1000,1000,1000,1000,125128262,1580,1580,1580,1580
90263880,1000,1000,1000,1000,125228222,1579,1580,1581,1581
90266379,1000,1000,1000,1000,125328182,1580,1581,1582,1583
90268878,1000,1000,1000,1000,125428975,1580,1580,1582,1582
90271377,1000,1000,1000,1000,125528935,1579,1579,1581,1581
90273876,1000,1000,1000,1000,125628895,1579,1578,1580,1581
90276375,1000,1000,1000,1000,125728855,1580,1579,1580,1581
90278874,1000,1000,1000,1000,125828815,1579,1580,1580,1580
90281373,1000,1000,1000,1000,125928775,1580,1580,1581,1581
90283872,1000,1000,1000,1000,126028735,1580,1581,1585,1574
90286371,1000,1000,1000,1000,126128695,1581,1582,1587,1572
90288870,1000,1000,1000,1000,126228655,1580,1579,1581,1574
90291369,1000,1000,1000,1000,126328615,1576,1575,1573,1575
90293868,1000,1000,1000,1000,126428575,1572,1571,1567,1573
90296367,1000,1000,1000,1000,126528535,1570,1569,1564,1572
90298866,1000,1000,1000,1000,126628495,1569,1569,1566,1571
90301365,1000,1000,1000,1000,126728455,1567,1567,1565,1568
90303864,1000,1000,1000,1000,126828415,1567,1567,1567,1566
90306363,1000,1000,1000,1000,126928375,1567,1566,1568,1565
90308862,1000,1000,1000,1000,127028335,1566,1566,1567,1565
90311361,1000,1000,1000,1000,127128295,1565,1565,1566,1564
90313860,1000,1000,1000,1000,127228255,1564,1564,1565,1564
90316359,1000,1000,1000,1000,127328215,1563,1563,1564,1564
90318858,1000,1000,1000,1000,127428175,1562,1562,1563,1563
90321357,1000,1000,1000,1000,127528968,1562,1561,1562,1563
90323856,1000,1000,1000,1000,127628928,1561,1562,1562,1562
90326355,1000,1000,1000,1000,127728888,1561,1561,1561,1561
90328854,1000,1000,1000,1000,127828848,1560,1561,1561,1560
90331353,1000,1000,1000,1000,127928808,1560,1559,1560,1559
90333852,1000,1000,1000,1000,128028768,1559,1559,1559,1558
90336351,1000,1000,1000,1000,128128728,1559,1559,1559,1558
90338850,1000,1000,1000,1000,128228688,1558,1558,1558,1557
90341349,1000,1000,1000,1000,128328648,1558,1558,1558,1558
90343848,1000,1000,1000,1000,128428608,1557,1557,1558,1556
90346347,1000,1000,1000,1000,128528568,1558,1558,1558,1557
90348846,1000,1000,1000,1000,128628528,1557,1557,1558,1556
90351345,1000,1000,1000,1000,128728488,1558,1558,1560,1556
90353844,1000,1000,1000,1000,128828448,1558,1558,1558,1557
90356343,1000,1000,1000,1000,128928408,1560,1560,1558,1563
90358842,1000,1000,1000,1000,129028368,1560,1560,1557,1564
90361341,1000,1000,1000,1000,129128328,1561,1561,1557,1564
90363840,1000,1000,1000,1000,129228288,1562,1562,1559,1564
90366339,1000,1000,1000,1000,129328248,1563,1563,1561,1564
90368838,1000,1000,1000,1000,129428208,1563,1563,1563,1561
90371337,1000,1000,1000,1000,129528168,1562,1562,1564,1560
90373836,1000,1000,1000,1000,129628961,1562,1561,1563,1559
90376335,1000,1000,1000,1000,129728921,1561,1561,1560,1563
90378834,1000,1000,1000,1000,129828881,1558,1558,1555,1561
90381333,1000,1000,1000,1000,129928841,1554,1553,1551,1556
90383832,1000,1000,1000,1000,130028801,1548,1548,1547,1549
90386331,1000,1000,1000,1000,130128761,1543,1543,1543,1543
90388830,1000,1000,1000,1000,130228721,1535,1536,1537,1534
90391329,1000,1000,1000,1000,130328681,1528,1528,1529,1527
90393828,1000,1000,1000,1000,130428641,1522,1522,1523,1521
90396327,1000,1000,1000,1000,130528601,1519,1520,1520,1519
90398826,1000,1000,1000,1000,130628561,1519,1520,1519,1520
90401325,1000,1000,1000,1000,130728521,1521,1521,1520,1522
90403824,1000,1000,1000,1000,130828481,1523,1524,1523,1524
90406323,1000,1000,1000,1000,130928441,1526,1527,1526,1527
90408822,1000,1000,1000,1000,131028401,1531,1531,1531,1531
90411321,1000,1000,1000,1000,131128361,1536,1536,1536,1536
90413820,1000,1000,1000,1000,131228321,1539,1538,1539,1538
90416319,1000,1000,1000,1000,131328281,1541,1541,1541,1541
90418818,1000,1000,1000,1000,131428241,1544,1543,1544,1543
90421317,1000,1000,1000,1000,131528201,1544,1544,1544,1543
90423816,1000,1000,1000,1000,131628161,1545,1544,1545,1544
90426315,1000,1000,1000,1000,131728954,1546,1546,1546,1546
90428814,1000,1000,1000,1000,131828914,1546,1546,1546,1546
90431313,1000,1000,1000,1000,131928874,1547,1547,1546,1547
90433812,1000,1000,1000,1000,132028834,1546,1547,1547,1546
90436311,1000,1000,1000,1000,132128794,1547,1547,1547,1547
90438810,1000,1000,1000,1000,132228754,1546,1547,1547,1546
90441309,1000,1000,1000,1000,132328714,1546,1546,1546,1546
90443808,1000,1000,1000,1000,132428674,1546,1546,1546,1546
90446307,1000,1000,1000,1000,132528634,1545,1545,1545,1545
90448806,1000,1000,1000,1000,132628594,1545,1544,1545,1545
90451305,1000,1000,1000,1000,132728554,1545,1544,1545,1545
90453804,1000,1000,1000,1000,132828514,1545,1544,1544,1545
90456303,1000,1000,1000,1000,132928474,1544,1545,1545,1545
90458802,1000,1000,1000,1000,133028434,1544,1545,1545,1545
90461301,1000,1000,1000,1000,133128394,1544,1544,1544,1544
90463800,1000,1000,1000,1000,133228354,1543,1543,1543,1543
90466299,1000,1000,1000,1000,133328314,1544,1543,1544,1543
90468798,1000,1000,1000,1000,133428274,1544,1543,1543,1543
90471297,1000,1000,1000,1000,133528234,1544,1544,1544,1544
90473796,1000,1000,1000,1000,133628194,1543,1544,1544,1543
90476295,1000,1000,1000,1000,133728154,1543,1543,1543,1543
90478794,1000,1000,1000,1000,133828947,1544,1544,1544,1544
90481293,1000,1000,1000,1000,133928907,1544,1544,1544,1544
90483792,1000,1000,1000,1000,134028867,1544,1544,1544,1544
90486291,1000,1000,1000,1000,134128827,1544,1544,1544,1544
90488790,1000,1000,1000,1000,134228787,1543,1544,1543,1543
90491289,1000,1000,1000,1000,134328747,1544,1544,1544,1544
90493788,1000,1000,1000,1000,134428707,1544,1544,1544,1544
90496287,1000,1000,1000,1000,134528667,1544,1544,1544,1544
90498786,1000,1000,1000,1000,134628627,1543,1544,1544,1544
90501285,1000,1000,1000,1000,134728587,1545,1544,1544,1545
90503784,1000,1000,1000,1000,134828547,1544,1544,1544,1544
90506283,1000,1000,1000,1000,134928507,1544,1545,1544,1544
90508782,1000,1000,1000,1000,135028467,1544,1545,1545,1544
90511281,1000,1000,1000,1000,135128427,1545,1545,1545,1545
90513780,1000,1000,1000,1000,135228387,1544,1545,1545,1544
90516279,1000,1000,1000,1000,135328347,1545,1544,1545,1545
90518778,1000,1000,1000,1000,135428307,1544,1544,1544,1544
90521277,1000,1000,1000,1000,135528267,1544,1544,1544,1545
90523776,1000,1000,1000,1000,135628227,1544,1545,1545,1545
90526275,1000,1000,1000,1000,135728187,1544,1544,1544,1544
90528774,1000,1000,1000,1000,135828980,1544,1545,1545,1545
90531273,1000,1000,1000,1000,135928940,1544,1544,1544,1545
90533772,1000,1000,1000,1000,136028900,1545,1544,1544,1544
90536271,1000,1000,1000,1000,136128860,1544,1543,1544,1544
90538770,1000,1000,1000,1000,136228820,1545,1545,1545,1545
90541269,1000,1000,1000,1000,136328780,1544,1544,1544,1544
90543768,1000,1000,1000,1000,136428740,1544,1545,1545,1544
90546267,1000,1000,1000,1000,136528700,1544,1544,1544,1544
90548766,1000,1000,1000,1000,136628660,1543,1543,1543,1543
90551265,1000,1000,1000,1000,136728620,1544,1544,1544,1544
90553764,1000,1000,1000,1000,136828580,1544,1544,1544,1544
90556263,1000,1000,1000,1000,136928540,1545,1544,1544,1545
90558762,1000,1000,1000,1000,137028500,1544,1544,1544,1544
90561261,1000,1000,1000,1000,137128460,1545,1546,1545,1545
90563760,1000,1000,1000,1000,137228420,1545,1546,1546,1545
90566259,1000,1000,1000,1000,137328380,1545,1545,1545,1545
90568758,1000,1000,1000,1000,137428340,1544,1544,1544,1544
90571257,1000,1000,1000,1000,137528300,1544,1544,1544,1544
90573756,1000,1000,1000,1000,137628260,1545,1545,1545,1545
90576255,1000,1000,1000,1000,137728220,1544,1544,1544,1544
90578754,1000,1000,1000,1000,137828180,1544,1544,1544,1544
90581253,1000,1000,1000,1000,137928973,1545,1545,1545,1545
90583752,1000,1000,1000,1000,138028933,1543,1543,1544,1543
90586251,1000,1000,1000,1000,138128893,1544,1543,1544,1544
90588750,1000,1000,1000,1000,138228853,1544,1544,1544,1543
90591249,1000,1000,1000,1000,138328813,1544,1544,1543,1544
90593748,1000,1000,1000,1000,138428773,1544,1544,1544,1544
90596247,1000,1000,1000,1000,138528733,1544,1544,1544,1545
90598746,1000,1000,1000,1000,138628693,1544,1545,1545,1545
90601245,1000,1000,1000,1000,138728653,1544,1544,1544,1544
90603744,1000,1000,1000,1000,138828613,1545,1544,1545,1544
90606243,1000,1000,1000,1000,138928573,1545,1544,1544,1545
90608742,1000,1000,1000,1000,139028533,1544,1544,1544,1544
90611241,1000,1000,1000,1000,139128493,1544,1544,1544,1543
90613740,1000,1000,1000,1000,139228453,1544,1544,1544,1543
90616239,1000,1000,1000,1000,139328413,1543,1544,1543,1544
90618738,1000,1000,1000,1000,139428373,1544,1544,1544,1544
90621237,1000,1000,1000,1000,139528333,1545,1544,1545,1545
90623736,1000,1000,1000,1000,139628293,1544,1544,1544,1544
90626235,1000,1000,1000,1000,139728253,1545,1545,1545,1545
90628734,1000,1000,1000,1000,139828213,1544,1544,1544,1544
90631233,1000,1000,1000,1000,139928173,1544,1543,1544,1544
90633732,1000,1000,1000,1000,140028966,1544,1544,1543,1544
90636231,1000,1000,1000,1000,140128926,1544,1544,1544,1545
90638730,1000,1000,1000,1000,140228886,1436,1423,1436,1424
90641229,1000,1000,1000,1000,140328846,1313,1278,1312,1279
90643728,1000,1000,1000,1000,140428806,1267,1222,1267,1222
90646227,1000,1000,1000,1000,140528766,1251,1201,1251,1202
90648726,1000,1000,1000,1000,140628726,1225,1168,1226,1168
90651225,1000,1000,1000,1000,140728686,1212,1150,1212,1151
90653724,1000,1000,1000,1000,140828646,1211,1150,1212,1150
90656223,1000,1000,1000,1000,140928606,1212,1150,1212,1151
90658722,1000,1000,1000,1000,141028566,1224,1150,1193,1190
90661221,1000,1000,1000,1000,141128526,1224,1150,1200,1182
90663720,1000,1000,1000,1000,141228486,1224,1150,1206,1175
90666219,1000,1000,1000,1000,141328446,1224,1150,1207,1174
90668718,1000,1000,1000,1000,141428406,1224,1150,1206,1175
90671217,1000,1000,1000,1000,141528366,1224,1150,1204,1177
90673716,1000,1000,1000,1000,141628326,1224,1150,1203,1179
90676215,1000,1000,1000,1000,141728286,1223,1150,1202,1181
90678714,1000,1000,1000,1000,141828246,1212,1150,1207,1160
90681213,1000,1000,1000,1000,141928206,1215,1150,1206,1163
90683712,1000,1000,1000,1000,142028166,1216,1150,1206,1165
90686211,1000,1000,1000,1000,142128959,1217,1150,1207,1166
90688710,1000,1000,1000,1000,142228919,1217,1150,1207,1167
90691209,1000,1000,1000,1000,142328879,1000,1000,1000,1000
90693708,1000,1000,1000,1000,142428839,1000,1000,1000,1000
90696207,1000,1000,1000,1000,142528799,1000,1000,1000,1000
90698706,1000,1000,1000,1000,142628759,1000,1000,1000,1000
90701205,1000,1000,1000,1000,142728719,1000,1000,1000,1000
90703704,1000,1000,1000,1000,142828679,1000,1000,1000,1000
90706203,1000,1000,1000,1000,142928639,1000,1000,1000,1000
90708702,1000,1000,1000,1000,143028599,1000,1000,1000,1000
90711201,1000,1000,1000,1000,143128559,1000,1000,1000,1000
90713700,1000,1000,1000,1000,143228519,1000,1000,1000,1000
90716199,1000,1000,1000,1000,143328479,1000,1000,1000,1000
90718698,1000,1000,1000,1000,143428439,1000,1000,1000,1000
90721197,1000,1000,1000,1000,143528399,1000,1000,1000,1000
90723696,1000,1000,1000,1000,143628359,1000,1000,1000,1000
90726195,1000,1000,1000,1000,143728319,1000,1000,1000,1000
90728694,1000,1000,1000,1000,143828279,1000,1000,1000,1000
90731193,1000,1000,1000,1000,143928239,1000,1000,1000,1000
90733692,1000,1000,1000,1000,144028199,1000,1000,1000,1000
90736191,1000,1000,1000,1000,144128159,1000,1000,1000,1000
90738690,1000,1000,1000,1000,144228952,1000,1000,1000,1000
90741189,1000,1000,1000,1000,144328912,1000,1000,1000,1000
90743688,1000,1000,1000,1000,144428872,1000,1000,1000,1000
90746187,1000,1000,1000,1000,144528832,1000,1000,1000,1000
90748686,1000,1000,1000,1000,144628792,1000,1000,1000,1000
90751185,1000,1000,1000,1000,144728752,1000,1000,1000,1000
90753684,1000,1000,1000,1000,144828712,1000,1000,1000,1000
90756183,1000,1000,1000,1000,144928672,1000,1000,1000,1000
90758682,1000,1000,1000,1000,145028632,1000,1000,1000,1000
90761181,1000,1000,1000,1000,145128592,1000,1000,1000,1000
90763680,1000,1000,1000,1000,145228552,1000,1000,1000,1000
90766179,1000,1000,1000,1000,145328512,1000,1000,1000,1000
90768678,1000,1000,1000,1000,145428472,1000,1000,1000,1000
90771177,1000,1000,1000,1000,145528432,1000,1000,1000,1000
90773676,1000,1000,1000,1000,145628392,1000,1000,1000,1000
90776175,1000,1000,1000,1000,145728352,1000,1000,1000,1000
90778674,1000,1000,1000,1000,145828312,1000,1000,1000,1000
90781173,1000,1000,1000,1000,145928272,1000,1000,1000,1000
90783672,1000,1000,1000,1000,146028232,1000,1000,1000,1000
90786171,1000,1000,1000,1000,146128192,1000,1000,1000,1000
90788670,1000,1000,1000,1000,146228985,1000,1000,1000,1000
90791169,1000,1000,1000,1000,146328945,1000,1000,1000,1000
90793668,1000,1000,1000,1000,146428905,1000,1000,1000,1000
90796167,1000,1000,1000,1000,146528865,1000,1000,1000,1000
90798666,1000,1000,1000,1000,146628825,1000,1000,1000,1000
90801165,1000,1000,1000,1000,146728785,1000,1000,1000,1000
90803664,1000,1000,1000,1000,146828745,1000,1000,1000,1000
90806163,1000,1000,1000,1000,146928705,1000,1000,1000,1000
90808662,1000,1000,1000,1000,147028665,1000,1000,1000,1000
90811161,1000,1000,1000,1000,147128625,1000,1000,1000,1000
90813660,1000,1000,1000,1000,147228585,1000,1000,1000,1000
90816159,1000,1000,1000,1000,147328545,1000,1000,1000,1000
90818658,1000,1000,1000,1000,147428505,1000,1000,1000,1000
90821157,1000,1000,1000,1000,147528465,1000,1000,1000,1000
90823656,1000,1000,1000,1000,147628425,1000,1000,1000,1000
90826155,1000,1000,1000,1000,147728385,1000,1000,1000,1000
90828654,1000,1000,1000,1000,147828345,1000,1000,1000,1000
90831153,1000,1000,1000,1000,147928305,1000,1000,1000,1000
90833652,1000,1000,1000,1000,148028265,1000,1000,1000,1000
90836151,1000,1000,1000,1000,148128225,1000,1000,1000,1000
90838650,1000,1000,1000,1000,148228185,1000,1000,1000,1000
90841149,1000,1000,1000,1000,148328978,1000,1000,1000,1000
90843648,1000,1000,1000,1000,148428938,1000,1000,1000,1000
90846147,1000,1000,1000,1000,148528898,1000,1000,1000,1000
90848646,1000,1000,1000,1000,148628858,1000,1000,1000,1000
90851145,1000,1000,1000,1000,148728818,1000,1000,1000,1000
90853644,1000,1000,1000,1000,148828778,1000,1000,1000,1000
90856143,1000,1000,1000,1000,148928738,1000,1000,1000,1000
90858642,1000,1000,1000,1000,149028698,1000,1000,1000,1000
90861141,1000,1000,1000,1000,149128658,1000,1000,1000,1000
90863640,1000,1000,1000,1000,149228618,1000,1000,1000,1000
90866139,1000,1000,1000,1000,149328578,1000,1000,1000,1000
90868638,1000,1000,1000,1000,149428538,1000,1000,1000,1000
90871137,1000,1000,1000,1000,149528498,1000,1000,1000,1000
90873636,1000,1000,1000,1000,149628458,1000,1000,1000,1000
90876135,1000,1000,1000,1000,149728418,1000,1000,1000,1000
90878634,1000,1000,1000,1000,149828378,1000,1000,1000,1000
90881133,1000,1000,1000,1000,149928338,1000,1000,1000,1000
90883632,1000,1000,1000,1000,150028298,1000,1000,1000,1000
90886131,1000,1000,1000,1000,150128258,1000,1000,1000,1000
90888630,1000,1000,1000,1000,150228218,1000,1000,1000,1000
90891129,1000,1000,1000,1000,150328178,1000,1000,1000,1000
90893628,1000,1000,1000,1000,150428971,1000,1000,1000,1000
90896127,1000,1000,1000,1000,150528931,1000,1000,1000,1000
90898626,1000,1000,1000,1000,150628891,1000,1000,1000,1000
90901125,1000,1000,1000,1000,150728851,1000,1000,1000,1000
90903624,1000,1000,1000,1000,150828811,1000,1000,1000,1000
90906123,1000,1000,1000,1000,150928771,1000,1000,1000,1000
90908622,1000,1000,1000,1000,151028731,1000,1000,1000,1000
90911121,1000,1000,1000,1000,151128691,1000,1000,1000,1000
90913620,1000,1000,1000,1000,151228651,1000,1000,1000,1000
90916119,1000,1000,1000,1000,151328611,1000,1000,1000,1000
90918618,1000,1000,1000,1000,151428571,1000,1000,1000,1000
90921117,1000,1000,1000,1000,151528531,1000,1000,1000,1000
90923616,1000,1000,1000,1000,151628491,1000,1000,1000,1000
90926115,1000,1000,1000,1000,151728451,1000,1000,1000,1000
90928614,1000,1000,1000,1000,151828411,1000,1000,1000,1000
90931113,1000,1000,1000,1000,151928371,1000,1000,1000,1000
90933612,1000,1000,1000,1000,152028331,1000,1000,1000,1000
90936111,1000,1000,1000,1000,152128291,1000,1000,1000,1000
90938610,1000,1000,1000,1000,152228251,1000,1000,1000,1000
90941109,1000,1000,1000,1000,152328211,1000,1000,1000,1000
90943608,1000,1000,1000,1000,152428171,1000,1000,1000,1000
90946107,1000,1000,1000,1000,152528964,1000,1000,1000,1000
90948606,1000,1000,1000,1000,152628924,1000,1000,1000,1000
90951105,1000,1000,1000,1000,152728884,1000,1000,1000,1000
90953604,1000,1000,1000,1000,152828844,1000,1000,1000,1000
90956103,1000,1000,1000,1000,152928804,1000,1000,1000,1000
90958602,1000,1000,1000,1000,153028764,1000,1000,1000,1000
90961101,1000,1000,1000,1000,153128724,1000,1000,1000,1000
90963600,1000,1000,1000,1000,153228684,1000,1000,1000,1000
90966099,1000,1000,1000,1000,153328644,1000,1000,1000,1000
90968598,1000,1000,1000,1000,153428604,1000,1000,1000,1000
90971097,1000,1000,1000,1000,153528564,1000,1000,1000,1000
90973596,1000,1000,1000,1000,153628524,1000,1000,1000,1000
90976095,1000,1000,1000,1000,153728484,1000,1000,1000,1000
90978594,1000,1000,1000,1000,153828444,1000,1000,1000,1000
90981093,1000,1000,1000,1000,153928404,1000,1000,1000,1000
90983592,1000,1000,1000,1000,154028364,1000,1000,1000,1000
90986091,1000,1000,1000,1000,154128324,1000,1000,1000,1000
90988590,1000,1000,1000,1000,154228284,1000,1000,1000,1000
90991089,1000,1000,1000,1000,154328244,1000,1000,1000,1000
90993588,1000,1000,1000,1000,154428204,1000,1000,1000,1000
90996087,1000,1000,1000,1000,154528164,1000,1000,1000,1000
90998586,1000,1000,1000,1000,154628957,1000,1000,1000,1000
91001085,1000,1000,1000,1000,154728917,1000,1000,1000,1000
91003584,1000,1000,1000,1000,154828877,1000,1000,1000,1000
91006083,1000,1000,1000,1000,154928837,1000,1000,1000,1000
91008582,1000,1000,1000,1000,155028797,1000,1000,1000,1000
91011081,1000,1000,1000,1000,155128757,1000,1000,1000,1000
91013580,1000,1000,1000,1000,155228717,1000,1000,1000,1000
91016079,1000,1000,1000,1000,155328677,1000,1000,1000,1000
91018578,1000,1000,1000,1000,155428637,1000,1000,1000,1000
91021077,1000,1000,1000,1000,155528597,1000,1000,1000,1000
91023576,1000,1000,1000,1000,155628557,1000,1000,1000,1000
91026075,1000,1000,1000,1000,155728517,1000,1000,1000,1000
91028574,1000,1000,1000,1000,155828477,1000,1000,1000,1000
91031073,1000,1000,1000,1000,155928437,1000,1000,1000,1000
91033572,1000,1000,1000,1000,156028397,1000,1000,1000,1000
91036071,1000,1000,1000,1000,156128357,1000,1000,1000,1000
91038570,1000,1000,1000,1000,156228317,1000,1000,1000,1000
91041069,1000,1000,1000,1000,156328277,1000,1000,1000,1000
91043568,1000,1000,1000,1000,156428237,1000,1000,1000,1000
91046067,1000,1000,1000,1000,156528197,1000,1000,1000,1000
91048566,1000,1000,1000,1000,156628157,1000,1000,1000,1000
91051065,1000,1000,1000,1000,156728950,1000,1000,1000,1000
91053564,1000,1000,1000,1000,156828910,1000,1000,1000,1000
91056063,1000,1000,1000,1000,156928870,1000,1000,1000,1000
91058562,1000,1000,1000,1000,157028830,1000,1000,1000,1000
91061061,1000,1000,1000,1000,157128790,1000,1000,1000,1000
91063560,1000,1000,1000,1000,157228750,1000,1000,1000,1000
91066059,1000,1000,1000,1000,,,,,
91068558,1000,1000,1000,1000,,,,,
91071057,1000,1000,1000,1000,,,,,
91073556,1000,1000,1000,1000,,,,,
91076055,1000,1000,1000,1000,,,,,
91078554,1000,1000,1000,1000,,,,,
91081053,1000,1000,1000,1000,,,,,
91083552,1000,1000,1000,1000,,,,,
91086051,1000,1000,1000,1000,,,,,
91088550,1000,1000,1000,1000,,,,,
91091049,1000,1000,1000,1000,,,,,
91093548,1000,1000,1000,1000,,,,,
91096047,1000,1000,1000,1000,,,,,
91098546,1000,1000,1000,1000,,,,,
91101045,1000,1000,1000,1000,,,,,
91103544,1000,1000,1000,1000,,,,,
91106043,1000,1000,1000,1000,,,,,
91108542,1000,1000,1000,1000,,,,,
91111041,1000,1000,1000,1000,,,,,
91113540,1000,1000,1000,1000,,,,,
91116039,1000,1000,1000,1000,,,,,
91118538,1000,1000,1000,1000,,,,,
91121037,1000,1000,1000,1000,,,,,
91123536,1000,1000,1000,1000,,,,,
91126035,1000,1000,1000,1000,,,,,
91128534,1000,1000,1000,1000,,,,,
91131033,1000,1000,1000,1000,,,,,
91133532,1000,1000,1000,1000,,,,,
91136031,1000,1000,1000,1000,,,,,
91138530,1000,1000,1000,1000,,,,,
91141029,1000,1000,1000,1000,,,,,
91143528,1000,1000,1000,1000,,,,,
91146027,1000,1000,1000,1000,,,,,
91148526,1000,1000,1000,1000,,,,,
91151025,1000,1000,1000,1000,,,,,
91153524,1000,1000,1000,1000,,,,,
91156023,1000,1000,1000,1000,,,,,
91158522,1000,1000,1000,1000,,,,,
91161021,1000,1000,1000,1000,,,,,
91163520,1000,1000,1000,1000,,,,,
91166019,1000,1000,1000,1000,,,,,
91168518,1000,1000,1000,1000,,,,,
91171017,1000,1000,1000,1000,,,,,
91173516,1000,1000,1000,1000,,,,,
91176015,1000,1000,1000,1000,,,,,
91178514,1000,1000,1000,1000,,,,,
91181013,1000,1000,1000,1000,,,,,
91183512,1000,1000,1000,1000,,,,,
91186011,1000,1000,1000,1000,,,,,
91188510,1000,1000,1000,1000,,,,,
91191009,1000,1000,1000,1000,,,,,
91193508,1000,1000,1000,1000,,,,,
91196007,1000,1000,1000,1000,,,,,
91198506,1000,1000,1000,1000,,,,,
91201005,1000,1000,1000,1000,,,,,
91203504,1000,1000,1000,1000,,,,,
91206003,1000,1000,1000,1000,,,,,
91208502,1000,1000,1000,1000,,,,,
91211001,1000,1000,1000,1000,,,,,
91213500,1000,1000,1000,1000,,,,,
91215999,1000,1000,1000,1000,,,,,
91218498,1000,1000,1000,1000,,,,,
91220997,1000,1000,1000,1000,,,,,
91223496,1000,1000,1000,1000,,,,,
91225995,1000,1000,1000,1000,,,,,
91228494,1000,1000,1000,1000,,,,,
91230993,1000,1000,1000,1000,,,,,
91233492,1000,1000,1000,1000,,,,,
91235991,1000,1000,1000,1000,,,,,
91238490,1000,1000,1000,1000,,,,,
91240989,1000,1000,1000,1000,,,,,
91243488,1000,1000,1000,1000,,,,,
91245987,1000,1000,1000,1000,,,,,
91248486,1000,1000,1000,1000,,,,,
91250985,1000,1000,1000,1000,,,,,
91253484,1000,1000,1000,1000,,,,,
91255983,1000,1000,1000,1000,,,,,
91258482,1000,1000,1000,1000,,,,,
91260981,1000,1000,1000,1000,,,,,
91263480,1000,1000,1000,1000,,,,,
91265979,1000,1000,1000,1000,,,,,
91268478,1000,1000,1000,1000,,,,,
91270977,1000,1000,1000,1000,,,,,
91273476,1000,1000,1000,1000,,,,,
91275975,1000,1000,1000,1000,,,,,
91278474,1000,1000,1000,1000,,,,,
91280973,1000,1000,1000,1000,,,,,
91283472,1000,1000,1000,1000,,,,,
91285971,1000,1000,1000,1000,,,,,
91288470,1000,1000,1000,1000,,,,,
91290969,1000,1000,1000,1000,,,,,
91293468,1000,1000,1000,1000,,,,,
91295967,1000,1000,1000,1000,,,,,
91298466,1000,1000,1000,1000,,,,,
91300965,1000,1000,1000,1000,,,,,
91303464,1000,1000,1000,1000,,,,,
91305963,1000,1000,1000,1000,,,,,
91308462,1000,1000,1000,1000,,,,,
91310961,1000,1000,1000,1000,,,,,
91313460,1000,1000,1000,1000,,,,,
91315959,1000,1000,1000,1000,,,,,
91318458,1000,1000,1000,1000,,,,,
91320957,1000,1000,1000,1000,,,,,
91323456,1000,1000,1000,1000,,,,,
91325955,1000,1000,1000,1000,,,,,
91328454,1000,1000,1000,1000,,,,,
91330953,1000,1000,1000,1000,,,,,
91333452,1000,1000,1000,1000,,,,,
91335951,1000,1000,1000,1000,,,,,
91338450,1000,1000,1000,1000,,,,,
91340949,1000,1000,1000,1000,,,,,
91343448,1000,1000,1000,1000,,,,,
91345947,1000,1000,1000,1000,,,,,
91348446,1000,1000,1000,1000,,,,,
91350945,1000,1000,1000,1000,,,,,
91353444,1000,1000,1000,1000,,,,,
91355943,1000,1000,1000,1000,,,,,
91358442,1000,1000,1000,1000,,,,,
91360941,1000,1000,1000,1000,,,,,
91363440,1000,1000,1000,1000,,,,,
91365939,1000,1000,1000,1000,,,,,
91368438,1000,1000,1000,1000,,,,,
91370937,1000,1000,1000,1000,,,,,
91373436,1000,1000,1000,1000,,,,,
91375935,1001,1001,1001,1001,,,,,
91378434,1002,1002,1002,1002,,,,,
91380933,1003,1003,1003,1003,,,,,
91383432,1003,1003,1003,1003,,,,,
91385931,1004,1004,1004,1004,,,,,
91388430,1005,1005,1005,1005,,,,,
91390929,1006,1006,1006,1006,,,,,
91393428,1006,1006,1006,1006,,,,,
91395927,1007,1007,1007,1007,,,,,
91398426,1008,1008,1008,1008,,,,,
91400925,1009,1009,1009,1009,,,,,
91403424,1009,1009,1009,1009,,,,,
91405923,1010,1010,1010,1010,,,,,
91408422,1011,1011,1011,1011,,,,,
91410921,1012,1012,1012,1012,,,,,
91413420,1012,1012,1012,1012,,,,,
91415919,1013,1013,1013,1013,,,,,
91418418,1014,1014,1014,1014,,,,,
91420917,1015,1015,1015,1015,,,,,
91423416,1015,1015,1015,1015,,,,,
91425915,1016,1016,1016,1016,,,,,
91428414,1017,1017,1017,1017,,,,,
91430913,1018,1018,1018,1018,,,,,
91433412,1018,1018,1018,1018,,,,,
91435911,1019,1019,1019,1019,,,,,
91438410,1020,1020,1020,1020,,,,,
91440909,1021,1021,1021,1021,,,,,
91443408,1021,1021,1021,1021,,,,,
91445907,1022,1022,1022,1022,,,,,
91448406,1023,1023,1023,1023,,,,,
91450905,1024,1024,1024,1024,,,,,
91453404,1024,1024,1024,1024,,,,,
91455903,1025,1025,1025,1025,,,,,
91458402,1026,1026,1026,1026,,,,,
91460901,1027,1027,1027,1027,,,,,
91463400,1027,1027,1027,1027,,,,,
91465899,1028,1028,1028,1028,,,,,
91468398,1029,1029,1029,1029,,,,,
91470897,1030,1030,1030,1030,,,,,
91473396,1030,1030,1030,1030,,,,,
91475895,1031,1031,1031,1031,,,,,
91478394,1032,1032,1032,1032,,,,,
91480893,1033,1033,1033,1033,,,,,
91483392,1033,1033,1033,1033,,,,,
91485891,1034,1034,1034,1034,,,,,
91488390,1035,1035,1035,1035,,,,,
91490889,1036,1036,1036,1036,,,,,
91493388,1036,1036,1036,1036,,,,,
91495887,1037,1037,1037,1037,,,,,
91498386,1038,1038,1038,1038,,,,,
91500885,1039,1039,1039,1039,,,,,
91503384,1039,1039,1039,1039,,,,,
91505883,1040,1040,1040,1040,,,,,
91508382,1041,1041,1041,1041,,,,,
91510881,1042,1042,1042,1042,,,,,
91513380,1042,1042,1042,1042,,,,,
91515879,1043,1043,1043,1043,,,,,
91518378,1044,1044,1044,1044,,,,,
91520877,1045,1045,1045,1045,,,,,
91523376,1045,1045,1045,1045,,,,,
91525875,1046,1046,1046,1046,,,,,
91528374,1047,1047,1047,1047,,,,,
91530873,1048,1048,1048,1048,,,,,
91533372,1048,1048,1048,1048,,,,,
91535871,1049,1049,1049,1049,,,,,
91538370,1050,1050,1050,1050,,,,,
91540869,1051,1051,1051,1051,,,,,
91543368,1051,1051,1051,1051,,,,,
91545867,1052,1052,1052,1052,,,,,
91548366,1053,1053,1053,1053,,,,,
91550865,1054,1054,1054,1054,,,,,
91553364,1054,1054,1054,1054,,,,,
91555863,1055,1055,1055,1055,,,,,
91558362,1056,1056,1056,1056,,,,,
91560861,1057,1057,1057,1057,,,,,
91563360,1057,1057,1057,1057,,,,,
91565859,1058,1058,1058,1058,,,,,
91568358,1059,1059,1059,1059,,,,,
91570857,1060,1060,1060,1060,,,,,
91573356,1060,1060,1060,1060,,,,,
91575855,1061,1061,1061,1061,,,,,
91578354,1062,1062,1062,1062,,,,,
91580853,1063,1063,1063,1063,,,,,
91583352,1063,1063,1063,1063,,,,,
91585851,1064,1064,1064,1064,,,,,
91588350,1065,1065,1065,1065,,,,,
91590849,1066,1066,1066,1066,,,,,
91593348,1066,1066,1066,1066,,,,,
91595847,1067,1067,1067,1067,,,,,
91598346,1068,1068,1068,1068,,,,,
91600845,1069,1069,1069,1069,,,,,
91603344,1069,1069,1069,1069,,,,,
91605843,1070,1070,1070,1070,,,,,
91608342,1071,1071,1071,1071,,,,,
91610841,1072,1072,1072,1072,,,,,
91613340,1072,1072,1072,1072,,,,,
91615839,1073,1073,1073,1073,,,,,
91618338,1074,1074,1074,1074,,,,,
91620837,1075,1075,1075,1075,,,,,
91623336,1075,1075,1075,1075,,,,,
91625835,1076,1076,1076,1076,,,,,
91628334,1077,1077,1077,1077,,,,,
91630833,1078,1078,1078,1078,,,,,
91633332,1078,1078,1078,1078,,,,,
91635831,1079,1079,1079,1079,,,,,
91638330,1080,1080,1080,1080,,,,,
91640829,1081,1081,1081,1081,,,,,
91643328,1081,1081,1081,1081,,,,,
91645827,1082,1082,1082,1082,,,,,
91648326,1083,1083,1083,1083,,,,,
91650825,1084,1084,1084,1084,,,,,
91653324,1084,1084,1084,1084,,,,,
91655823,1085,1085,1085,1085,,,,,
91658322,1086,1086,1086,1086,,,,,
91660821,1087,1087,1087,1087,,,,,
91663320,1087,1087,1087,1087,,,,,
91665819,1088,1088,1088,1088,,,,,
91668318,1089,1089,1089,1089,,,,,
91670817,1090,1090,1090,1090,,,,,
91673316,1090,1090,1090,1090,,,,,
91675815,1091,1091,1091,1091,,,,,
91678314,1092,1092,1092,1092,,,,,
91680813,1093,1093,1093,1093,,,,,
91683312,1093,1093,1093,1093,,,,,
91685811,1094,1094,1094,1094,,,,,
91688310,1095,1095,1095,1095,,,,,
91690809,1096,1096,1096,1096,,,,,
91693308,1096,1096,1096,1096,,,,,
91695807,1097,1097,1097,1097,,,,,
91698306,1098,1098,1098,1098,,,,,
91700805,1099,1099,1099,1099,,,,,
91703304,1099,1099,1099,1099,,,,,
91705803,1100,1100,1100,1100,,,,,
91708302,1101,1101,1101,1101,,,,,
91710801,1101,1101,1101,1101,,,,,
91713300,1102,1102,1102,1102,,,,,
91715799,1103,1103,1103,1103,,,,,
91718298,1104,1104,1104,1104,,,,,
91720797,1104,1104,1104,1104,,,,,
91723296,1105,1105,1105,1105,,,,,
91725795,1106,1106,1106,1106,,,,,
91728294,1107,1107,1107,1107,,,,,
91730793,1107,1107,1107,1107,,,,,
91733292,1108,1108,1108,1108,,,,,
91735791,1109,1109,1109,1109,,,,,
91738290,1110,1110,1110,1110,,,,,
91740789,1110,1110,1110,1110,,,,,
91743288,1111,1111,1111,1111,,,,,
91745787,1112,1112,1112,1112,,,,,
91748286,1113,1113,1113,1113,,,,,
91750785,1113,1113,1113,1113,,,,,
91753284,1114,1114,1114,1114,,,,,
91755783,1115,1115,1115,1115,,,,,
91758282,1116,1116,1116,1116,,,,,
91760781,1116,1116,1116,1116,,,,,
91763280,1117,1117,1117,1117,,,,,
91765779,1118,1118,1118,1118,,,,,
91768278,1119,1119,1119,1119,,,,,
91770777,1119,1119,1119,1119,,,,,
91773276,1120,1120,1120,1120,,,,,
91775775,1121,1121,1121,1121,,,,,
91778274,1122,1122,1122,1122,,,,,
91780773,1122,1122,1122,1122,,,,,
91783272,1123,1123,1123,1123,,,,,
91785771,1124,1124,1124,1124,,,,,
91788270,1125,1125,1125,1125,,,,,
91790769,1125,1125,1125,1125,,,,,
91793268,1126,1126,1126,1126,,,,,
91795767,1127,1127,1127,1127,,,,,
91798266,1128,1128,1128,1128,,,,,
91800765,1128,1128,1128,1128,,,,,
91803264,1129,1129,1129,1129,,,,,
91805763,1130,1130,1130,1130,,,,,
91808262,1131,1131,1131,1131,,,,,
91810761,1131,1131,1131,1131,,,,,
91813260,1132,1132,1132,1132,,,,,
91815759,1133,1133,1133,1133,,,,,
91818258,1134,1134,1134,1134,,,,,
91820757,1134,1134,1134,1134,,,,,
91823256,1135,1135,1135,1135,,,,,
91825755,1136,1136,1136,1136,,,,,
91828254,1137,1137,1137,1137,,,,,
91830753,1137,1137,1137,1137,,,,,
91833252,1138,1138,1138,1138,,,,,
91835751,1139,1139,1139,1139,,,,,
91838250,1140,1140,1140,1140,,,,,
91840749,1140,1140,1140,1140,,,,,
91843248,1141,1141,1141,1141,,,,,
91845747,1142,1142,1142,1142,,,,,
91848246,1143,1143,1143,1143,,,,,
91850745,1143,1143,1143,1143,,,,,
91853244,1144,1144,1144,1144,,,,,
91855743,1145,1145,1145,1145,,,,,
91858242,1146,1146,1146,1146,,,,,
91860741,1146,1146,1146,1146,,,,,
91863240,1147,1147,1147,1147,,,,,
91865739,1148,1148,1148,1148,,,,,
91868238,1149,1149,1149,1149,,,,,
91870737,1149,1149,1149,1149,,,,,
91873236,1150,1150,1150,1150,,,,,
91875735,1164,1150,1151,1165,,,,,
91878234,1172,1158,1159,1173,,,,,
91880733,1180,1166,1167,1181,,,,,
91883232,1188,1174,1175,1189,,,,,
91885731,1195,1182,1183,1196,,,,,
91888230,1203,1189,1190,1204,,,,,
91890729,1210,1197,1198,1211,,,,,
91893228,1217,1204,1205,1218,,,,,
91895727,1224,1211,1212,1225,,,,,
91898226,1231,1218,1219,1232,,,,,
91900725,1238,1225,1226,1239,,,,,
91903224,1245,1232,1233,1246,,,,,
91905723,1252,1239,1240,1252,,,,,
91908222,1258,1246,1247,1259,,,,,
91910721,1265,1252,1253,1265,,,,,
91913220,1271,1259,1260,1272,,,,,
91915719,1278,1265,1266,1278,,,,,
91918218,1284,1272,1273,1284,,,,,
91920717,1290,1278,1279,1291,,,,,
91923216,1296,1284,1285,1297,,,,,
91925715,1302,1290,1291,1303,,,,,
91928214,1308,1296,1297,1309,,,,,
91930713,1314,1303,1303,1315,,,,,
91933212,1320,1308,1309,1321,,,,,
91935711,1326,1314,1315,1326,,,,,
91938210,1332,1320,1321,1332,,,,,
91940709,1337,1326,1327,1338,,,,,
91943208,1343,1332,1332,1343,,,,,
91945707,1348,1337,1338,1349,,,,,
91948206,1354,1343,1344,1354,,,,,
91950705,1359,1349,1349,1360,,,,,
91953204,1365,1354,1355,1365,,,,,
91955703,1370,1360,1360,1371,,,,,
91958202,1376,1365,1366,1376,,,,,
91960701,1381,1370,1371,1381,,,,,
91963200,1386,1376,1376,1387,,,,,
91965699,1391,1381,1382,1392,,,,,
91968198,1396,1386,1387,1397,,,,,
91970697,1402,1391,1392,1402,,,,,
91973196,1407,1396,1397,1407,,,,,
91975695,1412,1402,1402,1412,,,,,
91978194,1417,1407,1407,1417,,,,,
91980693,1422,1412,1412,1422,,,,,
91983192,1427,1417,1417,1427,,,,,
91985691,1431,1422,1422,1432,,,,,
91988190,1436,1427,1427,1437,,,,,
91990689,1441,1431,1432,1441,,,,,
91993188,1446,1436,1437,1446,,,,,
91995687,1451,1441,1442,1451,,,,,
91998186,1455,1446,1447,1456,,,,,
92000685,1460,1451,1451,1460,,,,,
92003184,1465,1455,1456,1465,,,,,
92005683,1469,1460,1461,1470,,,,,
92008182,1474,1465,1465,1474,,,,,
92010681,1479,1469,1470,1479,,,,,
92013180,1483,1474,1474,1483,,,,,
92015679,1488,1478,1479,1488,,,,,
92018178,1492,1483,1484,1492,,,,,
92020677,1497,1487,1488,1497,,,,,
92023176,1501,1492,1493,1501,,,,,
92025675,1505,1496,1497,1506,,,,,
92028174,1510,1501,1501,1510,,,,,
92030673,1514,1505,1506,1515,,,,,
92033172,1518,1510,1510,1519,,,,,
92035671,1523,1514,1514,1523,,,,,
92038170,1527,1518,1519,1528,,,,,
92040669,1531,1522,1523,1532,,,,,
92043168,1536,1527,1527,1536,,,,,
92045667,1540,1531,1532,1540,,,,,
92048166,1544,1535,1536,1544,,,,,
92050665,1548,1539,1540,1549,,,,,
92053164,1552,1544,1544,1553,,,,,
92055663,1556,1548,1548,1557,,,,,
92058162,1561,1552,1552,1561,,,,,
92060661,1565,1556,1557,1565,,,,,
92063160,1569,1560,1561,1569,,,,,
92065659,1573,1564,1565,1573,,,,,
92068158,1577,1568,1569,1577,,,,,
92070657,1581,1572,1573,1581,,,,,
92073156,1585,1576,1577,1585,,,,,
92075655,1589,1580,1581,1589,,,,,
92078154,1593,1584,1585,1593,,,,,
92081486,1597,1588,1589,1597,,,,,
92083985,1601,1592,1593,1601,,,,,
92086484,1604,1596,1597,1605,,,,,
92088983,1608,1600,1601,1609,,,,,
92091482,1612,1604,1604,1613,,,,,
92093981,1616,1608,1608,1617,,,,,
92096480,1620,1612,1612,1620,,,,,
92098979,1624,1615,1616,1624,,,,,
92101478,1628,1619,1620,1628,,,,,
92103977,1631,1623,1624,1632,,,,,
92106476,1635,1627,1627,1635,,,,,
92108975,1639,1631,1631,1639,,,,,
92111474,1643,1634,1635,1643,,,,,
92113973,1646,1638,1639,1647,,,,,
92116472,1650,1642,1642,1650,,,,,
92118971,1654,1646,1646,1654,,,,,
92121470,1657,1649,1650,1658,,,,,
92123969,1661,1653,1653,1661,,,,,
92126468,1665,1657,1657,1665,,,,,
92128967,1668,1660,1661,1669,,,,,
92131466,1672,1664,1664,1672,,,,,
92133965,1676,1667,1668,1676,,,,,
92136464,1679,1671,1672,1679,,,,,
92138963,1683,1675,1675,1683,,,,,
92141462,1686,1678,1679,1687,,,,,
92143961,1690,1682,1682,1690,,,,,
92146460,1693,1685,1686,1694,,,,,
92148959,1697,1689,1689,1697,,,,,
92151458,1700,1692,1693,1701,,,,,
92153957,1704,1696,1696,1704,,,,,
92156456,1707,1699,1700,1708,,,,,
92158955,1711,1703,1703,1711,,,,,
92161454,1714,1706,1707,1714,,,,,
92163953,1718,1710,1710,1718,,,,,
92166452,1721,1713,1714,1721,,,,,
92168951,1724,1717,1717,1725,,,,,
92171450,1728,1720,1721,1728,,,,,
92173949,1731,1723,1724,1732,,,,,
92176448,1735,1727,1727,1735,,,,,
92178947,1738,1730,1731,1738,,,,,
92181446,1741,1734,1734,1742,,,,,
92183945,1745,1737,1737,1745,,,,,
92186444,1748,1740,1741,1748,,,,,
92188943,1751,1744,1744,1752,,,,,
92191442,1755,1747,1747,1755,,,,,
92193941,1758,1750,1751,1758,,,,,
92196440,1761,1754,1754,1762,,,,,
92198939,1765,1757,1757,1765,,,,,
92201438,1768,1760,1761,1768,,,,,
92203937,1771,1763,1764,1772,,,,,
92206436,1774,1767,1767,1775,,,,,
92208935,1778,1770,1770,1778,,,,,
92211434,1781,1773,1773,1781,,,,,
92213933,1784,1776,1777,1785,,,,,
92216432,1787,1780,1780,1788,,,,,
92218931,1791,1783,1783,1791,,,,,
92221430,1794,1786,1786,1794,,,,,
92223929,1797,1789,1789,1797,,,,,
92226428,1800,1792,1793,1801,,,,,
92228927,1803,1795,1796,1804,,,,,
92231426,1807,1799,1799,1807,,,,,
92233925,1810,1802,1802,1810,,,,,
92236424,1813,1805,1805,1813,,,,,
92238923,1816,1808,1808,1816,,,,,
92241422,1819,1811,1811,1819,,,,,
92243921,1822,1814,1815,1823,,,,,
92246420,1825,1817,1818,1826,,,,,
92248919,1828,1820,1821,1829,,,,,
92251418,1831,1824,1824,1832,,,,,
92253917,1835,1827,1827,1835,,,,,
92256416,1838,1830,1830,1838,,,,,
92258915,1841,1833,1833,1841,,,,,
92261414,1844,1836,1836,1844,,,,,
92263913,1847,1839,1839,1847,,,,,
92266412,1850,1842,1842,1850,,,,,
92268911,1853,1845,1845,1853,,,,,
92271410,1856,1848,1848,1856,,,,,
92273909,1859,1851,1851,1859,,,,,
92276408,1862,1854,1854,1862,,,,,
92278907,1865,1857,1857,1865,,,,,
92281406,1868,1860,1860,1868,,,,,
92283905,1871,1863,1863,1871,,,,,
92286404,1874,1866,1866,1874,,,,,
92288903,1877,1869,1869,1877,,,,,
92291402,1878,1871,1871,1879,,,,,
92293901,1877,1869,1870,1878,,,,,
92296400,1876,1868,1869,1876,,,,,
92298899,1875,1867,1867,1875,,,,,
92301398,1874,1866,1866,1874,,,,,
92303897,1873,1865,1865,1873,,,,,
92306396,1872,1864,1864,1872,,,,,
92308895,1871,1863,1863,1871,,,,,
92311394,1870,1862,1862,1870,,,,,
92313893,1869,1861,1861,1869,,,,,
92316392,1868,1860,1860,1869,,,,,
92318891,1867,1859,1860,1868,,,,,
92321390,1867,1859,1859,1867,,,,,
92323889,1866,1858,1858,1867,,,,,
92326388,1866,1857,1858,1866,,,,,
92328887,1865,1857,1857,1866,,,,,
92331386,1865,1857,1857,1866,,,,,
92333885,1865,1856,1857,1865,,,,,
92336384,1865,1856,1857,1865,,,,,
92338883,1865,1856,1857,1865,,,,,
92341382,1865,1856,1857,1865,,,,,
92343881,1865,1856,1857,1865,,,,,
92346380,1865,1857,1857,1866,,,,,
92348879,1866,1857,1857,1866,,,,,
92351378,1866,1857,1858,1866,,,,,
92353877,1866,1857,1858,1867,,,,,
92356376,1867,1858,1858,1867,,,,,
92358875,1867,1858,1859,1868,,,,,
92361374,1868,1859,1859,1868,,,,,
92363873,1869,1860,1860,1869,,,,,
92366372,1869,1860,1861,1870,,,,,
92368871,1870,1861,1861,1870,,,,,
92371370,1871,1862,1862,1871,,,,,
92373869,1871,1863,1863,1872,,,,,
92376368,1872,1864,1864,1872,,,,,
92378867,1872,1864,1865,1873,,,,,
92381366,1873,1865,1866,1873,,,,,
92383865,1873,1866,1866,1874,,,,,
92386364,1874,1867,1867,1874,,,,,
92388863,1874,1867,1867,1874,,,,,
92391362,1874,1867,1868,1874,,,,,
92393861,1874,1867,1868,1874,,,,,
92396360,1873,1867,1867,1874,,,,,
92398859,1873,1867,1867,1873,,,,,
92401358,1872,1866,1867,1873,,,,,
92403857,1871,1866,1866,1872,,,,,
92406356,1870,1865,1865,1871,,,,,
92408855,1869,1864,1864,1870,,,,,
92411354,1868,1863,1863,1868,,,,,
92413853,1866,1861,1861,1867,,,,,
92416352,1865,1860,1860,1865,,,,,
92418851,1863,1858,1858,1863,,,,,
92421350,1861,1856,1856,1861,,,,,
92423849,1859,1854,1854,1859,,,,,
92426348,1857,1852,1852,1857,,,,,
92428847,1854,1850,1850,1855,,,,,
92431346,1852,1848,1848,1853,,,,,
92433845,1849,1845,1845,1850,,,,,
92436344,1847,1843,1843,1848,,,,,
92438843,1844,1840,1840,1845,,,,,
92441342,1841,1838,1838,1842,,,,,
92443841,1839,1835,1835,1839,,,,,
92446340,1836,1832,1832,1837,,,,,
92448839,1833,1829,1829,1834,,,,,
92451338,1830,1827,1827,1831,,,,,
92453837,1827,1824,1824,1828,,,,,
92456336,1824,1821,1821,1825,,,,,
92458835,1821,1818,1818,1821,,,,,
92461334,1817,1815,1815,1818,,,,,
92463833,1814,1812,1812,1815,,,,,
92466332,1811,1808,1808,1812,,,,,
92468831,1808,1805,1805,1809,,,,,
92471330,1804,1802,1802,1805,,,,,
92473829,1801,1799,1799,1802,,,,,
92476328,1798,1796,1796,1799,,,,,
92478827,1794,1792,1793,1795,,,,,
92481326,1791,1789,1789,1792,,,,,
92483825,1787,1786,1786,1788,,,,,
92486324,1784,1782,1782,1785,,,,,
92488823,1780,1779,1779,1781,,,,,
92491322,1777,1775,1776,1778,,,,,
92493821,1773,1772,1772,1774,,,,,
92496320,1770,1769,1769,1771,,,,,
92498819,1766,1765,1765,1767,,,,,
92501318,1763,1762,1762,1764,,,,,
92503817,1759,1758,1759,1760,,,,,
92506316,1756,1755,1755,1757,,,,,
92508815,1753,1752,1752,1753,,,,,
92511314,1749,1748,1749,1750,,,,,
92513813,1746,1745,1746,1746,,,,,
92516312,1743,1742,1742,1743,,,,,
92518811,1739,1739,1739,1740,,,,,
92521310,1736,1736,1736,1737,,,,,
92523809,1733,1733,1733,1733,,,,,
92526308,1730,1730,1730,1730,,,,,
92528807,1727,1726,1727,1727,,,,,
92531306,1723,1723,1724,1724,,,,,
92533805,1720,1720,1721,1721,,,,,
