timestamp,TimeUS,C1,C2,C3,C4,C5,C6,C7,C8,C9,C10,C11,C12,C13,C14
1682238472.00000000,45028648,1000,1000,1000,1000,0,0,0,0,0,0,0,0,0,0
1682238472.09996009,45128608,1000,1000,1000,1000,0,0,0,0,0,0,0,0,0,0
1682238472.19992018,45228568,1000,1000,1000,1000,0,0,0,0,0,0,0,0,0,0
1682238472.29988003,45328528,1000,1000,1000,1000,0,0,0,0,0,0,0,0,0,0
1682238472.39984012,45428488,1000,1000,1000,1000,0,0,0,0,0,0,0,0,0,0
1682238472.49980021,45528448,1000,1000,1000,1000,0,0,0,0,0,0,0,0,0,0
1682238472.59976006,45628408,1000,1000,1000,1000,0,0,0,0,0,0,0,0,0,0
1682238472.69972014,45728368,1000,1000,1000,1000,0,0,0,0,0,0,0,0,0,0
1682238472.79967999,45828328,1000,1000,1000,1000,0,0,0,0,0,0,0,0,0,0
1682238472.89964008,45928288,1000,1000,1000,1000,0,0,0,0,0,0,0,0,0,0
1682238472.99960017,46028248,1000,1000,1000,1000,0,0,0,0,0,0,0,0,0,0
1682238473.09956002,46128208,1000,1000,1000,1000,0,0,0,0,0,0,0,0,0,0
1682238473.19952011,46228168,1000,1000,1000,1000,0,0,0,0,0,0,0,0,0,0
1682238473.30031300,46328961,1000,1000,1000,1000,0,0,0,0,0,0,0,0,0,0
1682238473.40027308,46428921,1000,1000,1000,1000,0,0,0,0,0,0,0,0,0,0
1682238473.50023317,46528881,1000,1000,1000,1000,0,0,0,0,0,0,0,0,0,0
1682238473.60019302,46628841,1000,1000,1000,1000,0,0,0,0,0,0,0,0,0,0
1682238473.70015311,46728801,1000,1000,1000,1000,0,0,0,0,0,0,0,0,0,0
1682238473.80011320,46828761,1000,1000,1000,1000,0,0,0,0,0,0,0,0,0,0
1682238473.90007305,46928721,1000,1000,1000,1000,0,0,0,0,0,0,0,0,0,0
1682238474.00003314,47028681,1003,1003,1003,1003,0,0,0,0,0,0,0,0,0,0
1682238474.09999299,47128641,1033,1033,1033,1033,0,0,0,0,0,0,0,0,0,0
1682238474.19995308,47228601,1063,1063,1063,1063,0,0,0,0,0,0,0,0,0,0
1682238474.29991317,47328561,1093,1093,1093,1093,0,0,0,0,0,0,0,0,0,0
1682238474.39987302,47428521,1122,1122,1122,1122,0,0,0,0,0,0,0,0,0,0
1682238474.49983311,47528481,1177,1170,1171,1177,0,0,0,0,0,0,0,0,0,0
1682238474.59979320,47628441,1419,1414,1415,1419,0,0,0,0,0,0,0,0,0,0
1682238474.69975305,47728401,1595,1590,1591,1595,0,0,0,0,0,0,0,0,0,0
1682238474.79971313,47828361,1740,1736,1736,1740,0,0,0,0,0,0,0,0,0,0
1682238474.89967299,47928321,1866,1862,1862,1866,0,0,0,0,0,0,0,0,0,0
1682238474.99963307,48028281,1924,1921,1921,1924,0,0,0,0,0,0,0,0,0,0
1682238475.09959316,48128241,1819,1818,1818,1819,0,0,0,0,0,0,0,0,0,0
1682238475.19955301,48228201,1699,1699,1698,1701,0,0,0,0,0,0,0,0,0,0
1682238475.29951310,48328161,1642,1644,1639,1648,0,0,0,0,0,0,0,0,0,0
1682238475.40030599,48428954,1633,1636,1632,1638,0,0,0,0,0,0,0,0,0,0
1682238475.50026608,48528914,1639,1640,1640,1640,0,0,0,0,0,0,0,0,0,0
1682238475.60022616,48628874,1639,1640,1642,1638,0,0,0,0,0,0,0,0,0,0
1682238475.70018601,48728834,1634,1634,1637,1631,0,0,0,0,0,0,0,0,0,0
1682238475.80014610,48828794,1627,1626,1629,1623,0,0,0,0,0,0,0,0,0,0
1682238475.90010619,48928754,1620,1619,1621,1618,0,0,0,0,0,0,0,0,0,0
1682238476.00006604,49028714,1617,1616,1617,1616,0,0,0,0,0,0,0,0,0,0
1682238476.10002613,49128674,1603,1603,1604,1601,0,0,0,0,0,0,0,0,0,0
1682238476.19998622,49228634,1580,1580,1588,1572,0,0,0,0,0,0,0,0,0,0
1682238476.29994607,49328594,1568,1568,1572,1563,0,0,0,0,0,0,0,0,0,0
1682238476.39990616,49428554,1557,1558,1557,1558,0,0,0,0,0,0,0,0,0,0
1682238476.49986601,49528514,1549,1549,1545,1553,0,0,0,0,0,0,0,0,0,0
1682238476.59982610,49628474,1543,1543,1535,1550,0,0,0,0,0,0,0,0,0,0
1682238476.69978619,49728434,1537,1536,1528,1544,0,0,0,0,0,0,0,0,0,0
1682238476.79974604,49828394,1531,1531,1526,1536,0,0,0,0,0,0,0,0,0,0
1682238476.89970613,49928354,1527,1527,1525,1529,0,0,0,0,0,0,0,0,0,0
1682238476.99966621,50028314,1524,1524,1525,1524,0,0,0,0,0,0,0,0,0,0
1682238477.09962606,50128274,1526,1525,1527,1524,0,0,0,0,0,0,0,0,0,0
1682238477.19958615,50228234,1528,1529,1531,1526,0,0,0,0,0,0,0,0,0,0
1682238477.29954600,50328194,1531,1531,1534,1529,0,0,0,0,0,0,0,0,0,0
1682238477.39950609,50428154,1535,1535,1538,1533,0,0,0,0,0,0,0,0,0,0
1682238477.50029922,50528947,1539,1539,1541,1538,0,0,0,0,0,0,0,0,0,0
1682238477.60025907,50628907,1543,1543,1544,1543,0,0,0,0,0,0,0,0,0,0
1682238477.70021915,50728867,1547,1547,1547,1547,0,0,0,0,0,0,0,0,0,0
1682238477.80017900,50828827,1550,1550,1550,1551,0,0,0,0,0,0,0,0,0,0
1682238477.90013909,50928787,1553,1553,1552,1554,0,0,0,0,0,0,0,0,0,0
1682238478.00009918,51028747,1555,1555,1554,1556,0,0,0,0,0,0,0,0,0,0
1682238478.10005903,51128707,1553,1553,1561,1563,0,0,0,0,0,0,0,0,0,0
1682238478.20001912,51228667,1554,1555,1563,1565,0,0,0,0,0,0,0,0,0,0
1682238478.29997921,51328627,1557,1557,1564,1566,0,0,0,0,0,0,0,0,0,0
1682238478.39993906,51428587,1560,1561,1565,1565,0,0,0,0,0,0,0,0,0,0
1682238478.49989915,51528547,1564,1564,1565,1565,0,0,0,0,0,0,0,0,0,0
1682238478.59985900,51628507,1567,1566,1565,1564,0,0,0,0,0,0,0,0,0,0
1682238478.69981909,51728467,1569,1568,1565,1565,0,0,0,0,0,0,0,0,0,0
1682238478.79977918,51828427,1570,1570,1565,1565,0,0,0,0,0,0,0,0,0,0
1682238478.89973903,51928387,1571,1571,1566,1566,0,0,0,0,0,0,0,0,0,0
1682238478.99969912,52028347,1573,1573,1568,1568,0,0,0,0,0,0,0,0,0,0
1682238479.09965920,52128307,1573,1573,1568,1568,0,0,0,0,0,0,0,0,0,0
1682238479.19961905,52228267,1574,1574,1570,1570,0,0,0,0,0,0,0,0,0,0
1682238479.29957914,52328227,1573,1573,1570,1571,0,0,0,0,0,0,0,0,0,0
1682238479.39953899,52428187,1573,1573,1572,1571,0,0,0,0,0,0,0,0,0,0
1682238479.50033212,52528980,1573,1574,1574,1573,0,0,0,0,0,0,0,0,0,0
1682238479.60029221,52628940,1573,1573,1575,1574,0,0,0,0,0,0,0,0,0,0
1682238479.70025206,52728900,1574,1575,1577,1576,0,0,0,0,0,0,0,0,0,0
1682238479.80021214,52828860,1575,1575,1578,1577,0,0,0,0,0,0,0,0,0,0
1682238479.90017200,52928820,1575,1575,1578,1577,0,0,0,0,0,0,0,0,0,0
1682238480.00013208,53028780,1575,1575,1577,1577,0,0,0,0,0,0,0,0,0,0
1682238480.10009217,53128740,1576,1576,1577,1578,0,0,0,0,0,0,0,0,0,0
1682238480.20005202,53228700,1576,1576,1576,1577,0,0,0,0,0,0,0,0,0,0
1682238480.30001211,53328660,1576,1576,1576,1577,0,0,0,0,0,0,0,0,0,0
1682238480.39997220,53428620,1577,1577,1577,1577,0,0,0,0,0,0,0,0,0,0
1682238480.49993205,53528580,1578,1578,1577,1578,0,0,0,0,0,0,0,0,0,0
1682238480.59989214,53628540,1578,1578,1577,1577,0,0,0,0,0,0,0,0,0,0
1682238480.69985199,53728500,1578,1578,1577,1577,0,0,0,0,0,0,0,0,0,0
1682238480.79981208,53828460,1577,1578,1577,1576,0,0,0,0,0,0,0,0,0,0
1682238480.89977217,53928420,1578,1578,1578,1577,0,0,0,0,0,0,0,0,0,0
1682238480.99973202,54028380,1579,1578,1578,1578,0,0,0,0,0,0,0,0,0,0
1682238481.09969211,54128340,1579,1578,1578,1578,0,0,0,0,0,0,0,0,0,0
1682238481.19965219,54228300,1578,1578,1577,1578,0,0,0,0,0,0,0,0,0,0
1682238481.29961205,54328260,1579,1578,1578,1579,0,0,0,0,0,0,0,0,0,0
1682238481.39957213,54428220,1578,1578,1578,1578,0,0,0,0,0,0,0,0,0,0
1682238481.49953198,54528180,1577,1577,1578,1578,0,0,0,0,0,0,0,0,0,0
1682238481.60032511,54628973,1578,1578,1578,1578,0,0,0,0,0,0,0,0,0,0
1682238481.70028520,54728933,1577,1578,1579,1578,0,0,0,0,0,0,0,0,0,0
1682238481.80024505,54828893,1578,1579,1579,1578,0,0,0,0,0,0,0,0,0,0
1682238481.90020514,54928853,1579,1579,1579,1579,0,0,0,0,0,0,0,0,0,0
1682238482.00016499,55028813,1579,1579,1579,1579,0,0,0,0,0,0,0,0,0,0
1682238482.10012507,55128773,1579,1578,1578,1579,0,0,0,0,0,0,0,0,0,0
1682238482.20008516,55228733,1578,1578,1578,1578,0,0,0,0,0,0,0,0,0,0
1682238482.30004501,55328693,1579,1579,1579,1579,0,0,0,0,0,0,0,0,0,0
1682238482.40000510,55428653,1579,1579,1579,1579,0,0,0,0,0,0,0,0,0,0
1682238482.49996519,55528613,1579,1579,1579,1579,0,0,0,0,0,0,0,0,0,0
1682238482.59992504,55628573,1580,1580,1581,1580,0,0,0,0,0,0,0,0,0,0
1682238482.69988513,55728533,1581,1580,1580,1580,0,0,0,0,0,0,0,0,0,0
1682238482.79984522,55828493,1580,1580,1580,1580,0,0,0,0,0,0,0,0,0,0
1682238482.89980507,55928453,1580,1580,1580,1580,0,0,0,0,0,0,0,0,0,0
1682238482.99976516,56028413,1580,1580,1581,1581,0,0,0,0,0,0,0,0,0,0
1682238483.09972501,56128373,1580,1580,1580,1580,0,0,0,0,0,0,0,0,0,0
1682238483.19968510,56228333,1580,1580,1580,1580,0,0,0,0,0,0,0,0,0,0
1682238483.29964519,56328293,1579,1579,1579,1580,0,0,0,0,0,0,0,0,0,0
1682238483.39960504,56428253,1580,1580,1580,1580,0,0,0,0,0,0,0,0,0,0
1682238483.49956512,56528213,1580,1580,1580,1580,0,0,0,0,0,0,0,0,0,0
1682238483.59952521,56628173,1580,1580,1580,1580,0,0,0,0,0,0,0,0,0,0
1682238483.70031810,56728966,1580,1580,1581,1580,0,0,0,0,0,0,0,0,0,0
1682238483.80027819,56828926,1582,1582,1582,1582,0,0,0,0,0,0,0,0,0,0
1682238483.90023804,56928886,1580,1581,1580,1581,0,0,0,0,0,0,0,0,0,0
1682238484.00019813,57028846,1581,1581,1581,1581,0,0,0,0,0,0,0,0,0,0
1682238484.10015821,57128806,1579,1579,1579,1580,0,0,0,0,0,0,0,0,0,0
1682238484.20011806,57228766,1581,1580,1581,1580,0,0,0,0,0,0,0,0,0,0
1682238484.30007815,57328726,1581,1581,1588,1573,0,0,0,0,0,0,0,0,0,0
1682238484.40003800,57428686,1579,1582,1585,1573,0,0,0,0,0,0,0,0,0,0
1682238484.49999809,57528646,1578,1582,1576,1574,0,0,0,0,0,0,0,0,0,0
1682238484.59995818,57628606,1578,1581,1568,1572,0,0,0,0,0,0,0,0,0,0
1682238484.69991803,57728566,1576,1578,1560,1568,0,0,0,0,0,0,0,0,0,0
1682238484.79987812,57828526,1578,1578,1557,1563,0,0,0,0,0,0,0,0,0,0
1682238484.89983821,57928486,1578,1577,1555,1559,0,0,0,0,0,0,0,0,0,0
1682238484.99979806,58028446,1580,1578,1556,1556,0,0,0,0,0,0,0,0,0,0
1682238485.09975815,58128406,1579,1578,1556,1554,0,0,0,0,0,0,0,0,0,0
1682238485.19971800,58228366,1578,1577,1556,1554,0,0,0,0,0,0,0,0,0,0
1682238485.29967809,58328326,1577,1577,1555,1554,0,0,0,0,0,0,0,0,0,0
1682238485.39963818,58428286,1575,1577,1555,1554,0,0,0,0,0,0,0,0,0,0
1682238485.49959803,58528246,1574,1576,1554,1554,0,0,0,0,0,0,0,0,0,0
1682238485.59955812,58628206,1575,1577,1554,1553,0,0,0,0,0,0,0,0,0,0
1682238485.69951820,58728166,1575,1577,1552,1552,0,0,0,0,0,0,0,0,0,0
1682238485.80031109,58828959,1576,1578,1550,1550,0,0,0,0,0,0,0,0,0,0
1682238485.90027118,58928919,1578,1579,1547,1547,0,0,0,0,0,0,0,0,0,0
1682238486.00023103,59028879,1581,1582,1546,1545,0,0,0,0,0,0,0,0,0,0
1682238486.10019112,59128839,1584,1584,1543,1543,0,0,0,0,0,0,0,0,0,0
1682238486.20015121,59228799,1587,1588,1540,1540,0,0,0,0,0,0,0,0,0,0
1682238486.30011106,59328759,1589,1590,1537,1537,0,0,0,0,0,0,0,0,0,0
1682238486.40007114,59428719,1593,1594,1536,1536,0,0,0,0,0,0,0,0,0,0
1682238486.50003099,59528679,1594,1595,1535,1535,0,0,0,0,0,0,0,0,0,0
1682238486.59999108,59628639,1595,1595,1535,1536,0,0,0,0,0,0,0,0,0,0
1682238486.69995117,59728599,1595,1594,1536,1538,0,0,0,0,0,0,0,0,0,0
1682238486.79991102,59828559,1593,1593,1539,1542,0,0,0,0,0,0,0,0,0,0
1682238486.89987111,59928519,1589,1587,1544,1547,0,0,0,0,0,0,0,0,0,0
1682238486.99983120,60028479,1584,1581,1552,1555,0,0,0,0,0,0,0,0,0,0
1682238487.09979105,60128439,1575,1572,1562,1565,0,0,0,0,0,0,0,0,0,0
1682238487.19975114,60228399,1566,1562,1575,1576,0,0,0,0,0,0,0,0,0,0
1682238487.29971099,60328359,1554,1551,1587,1588,0,0,0,0,0,0,0,0,0,0
1682238487.39967108,60428319,1543,1541,1598,1598,0,0,0,0,0,0,0,0,0,0
1682238487.49963117,60528279,1534,1533,1606,1606,0,0,0,0,0,0,0,0,0,0
1682238487.59959102,60628239,1529,1530,1612,1611,0,0,0,0,0,0,0,0,0,0
1682238487.69955111,60728199,1529,1531,1616,1615,0,0,0,0,0,0,0,0,0,0
1682238487.79951119,60828159,1531,1533,1614,1613,0,0,0,0,0,0,0,0,0,0
1682238487.90030408,60928952,1536,1538,1609,1609,0,0,0,0,0,0,0,0,0,0
1682238488.00026417,61028912,1544,1546,1603,1603,0,0,0,0,0,0,0,0,0,0
1682238488.10022402,61128872,1553,1554,1596,1596,0,0,0,0,0,0,0,0,0,0
1682238488.20018411,61228832,1561,1561,1588,1587,0,0,0,0,0,0,0,0,0,0
1682238488.30014420,61328792,1570,1569,1581,1581,0,0,0,0,0,0,0,0,0,0
1682238488.40010405,61428752,1577,1576,1575,1575,0,0,0,0,0,0,0,0,0,0
1682238488.50006413,61528712,1582,1581,1570,1570,0,0,0,0,0,0,0,0,0,0
1682238488.60002398,61628672,1586,1585,1567,1567,0,0,0,0,0,0,0,0,0,0
1682238488.69998407,61728632,1587,1585,1565,1566,0,0,0,0,0,0,0,0,0,0
1682238488.79994416,61828592,1588,1586,1567,1567,0,0,0,0,0,0,0,0,0,0
1682238488.89990401,61928552,1586,1585,1568,1568,0,0,0,0,0,0,0,0,0,0
1682238488.99986410,62028512,1441,1548,1427,1537,0,0,0,0,0,0,0,0,0,0
1682238489.09982419,62128472,1548,1556,1542,1551,0,0,0,0,0,0,0,0,0,0
1682238489.19978404,62228432,1643,1594,1644,1593,0,0,0,0,0,0,0,0,0,0
1682238489.29974413,62328392,1695,1620,1699,1625,0,0,0,0,0,0,0,0,0,0
1682238489.39970422,62428352,1696,1631,1699,1636,0,0,0,0,0,0,0,0,0,0
1682238489.49966407,62528312,1699,1655,1697,1651,0,0,0,0,0,0,0,0,0,0
1682238489.59962416,62628272,1699,1674,1692,1659,0,0,0,0,0,0,0,0,0,0
1682238489.69958401,62728232,1699,1696,1689,1668,0,0,0,0,0,0,0,0,0,0
1682238489.79954410,62828192,1699,1723,1690,1688,0,0,0,0,0,0,0,0,0,0
1682238489.90033722,62928985,1655,1691,1656,1675,0,0,0,0,0,0,0,0,0,0
1682238490.00029707,63028945,1599,1632,1625,1671,0,0,0,0,0,0,0,0,0,0
1682238490.10025716,63128905,1562,1580,1621,1676,0,0,0,0,0,0,0,0,0,0
1682238490.20021701,63228865,1538,1543,1623,1669,0,0,0,0,0,0,0,0,0,0
1682238490.30017710,63328825,1528,1526,1619,1646,0,0,0,0,0,0,0,0,0,0
1682238490.40013719,63428785,1532,1529,1609,1614,0,0,0,0,0,0,0,0,0,0
1682238490.50009704,63528745,1545,1546,1594,1582,0,0,0,0,0,0,0,0,0,0
1682238490.60005713,63628705,1563,1569,1577,1556,0,0,0,0,0,0,0,0,0,0
1682238490.70001721,63728665,1581,1590,1559,1540,0,0,0,0,0,0,0,0,0,0
1682238490.79997706,63828625,1594,1601,1543,1528,0,0,0,0,0,0,0,0,0,0
1682238490.89993715,63928585,1602,1606,1531,1524,0,0,0,0,0,0,0,0,0,0
1682238490.99989700,64028545,1605,1604,1524,1524,0,0,0,0,0,0,0,0,0,0
1682238491.09985709,64128505,1602,1598,1522,1526,0,0,0,0,0,0,0,0,0,0
1682238491.19981718,64228465,1598,1591,1525,1531,0,0,0,0,0,0,0,0,0,0
1682238491.29977703,64328425,1591,1585,1533,1538,0,0,0,0,0,0,0,0,0,0
1682238491.39973712,64428385,1584,1580,1542,1546,0,0,0,0,0,0,0,0,0,0
1682238491.49969721,64528345,1577,1577,1553,1555,0,0,0,0,0,0,0,0,0,0
1682238491.59965706,64628305,1571,1572,1563,1563,0,0,0,0,0,0,0,0,0,0
1682238491.69961715,64728265,1566,1568,1572,1571,0,0,0,0,0,0,0,0,0,0
1682238491.79957700,64828225,1563,1566,1580,1579,0,0,0,0,0,0,0,0,0,0
1682238491.89953709,64928185,1562,1564,1586,1585,0,0,0,0,0,0,0,0,0,0
1682238492.00033021,65028978,1561,1562,1589,1588,0,0,0,0,0,0,0,0,0,0
1682238492.10029006,65128938,1562,1562,1591,1590,0,0,0,0,0,0,0,0,0,0
1682238492.20025015,65228898,1563,1563,1590,1590,0,0,0,0,0,0,0,0,0,0
1682238492.30021000,65328858,1565,1566,1594,1582,0,0,0,0,0,0,0,0,0,0
1682238492.40017009,65428818,1568,1570,1591,1577,0,0,0,0,0,0,0,0,0,0
1682238492.50013018,65528778,1570,1573,1583,1576,0,0,0,0,0,0,0,0,0,0
1682238492.60009003,65628738,1572,1574,1572,1574,0,0,0,0,0,0,0,0,0,0
1682238492.70005012,65728698,1572,1572,1561,1568,0,0,0,0,0,0,0,0,0,0
1682238492.80001020,65828658,1575,1573,1555,1563,0,0,0,0,0,0,0,0,0,0
1682238492.89997005,65928618,1577,1575,1552,1558,0,0,0,0,0,0,0,0,0,0
1682238492.99993014,66028578,1578,1577,1550,1553,0,0,0,0,0,0,0,0,0,0
1682238493.09988999,66128538,1579,1579,1550,1550,0,0,0,0,0,0,0,0,0,0
1682238493.19985008,66228498,1580,1581,1550,1548,0,0,0,0,0,0,0,0,0,0
1682238493.29981017,66328458,1580,1581,1550,1547,0,0,0,0,0,0,0,0,0,0
1682238493.39977002,66428418,1581,1582,1551,1549,0,0,0,0,0,0,0,0,0,0
1682238493.49973011,66528378,1579,1579,1550,1549,0,0,0,0,0,0,0,0,0,0
1682238493.59969020,66628338,1578,1579,1550,1551,0,0,0,0,0,0,0,0,0,0
1682238493.69965005,66728298,1577,1578,1551,1551,0,0,0,0,0,0,0,0,0,0
1682238493.79961014,66828258,1577,1578,1550,1551,0,0,0,0,0,0,0,0,0,0
1682238493.89956999,66928218,1576,1577,1550,1550,0,0,0,0,0,0,0,0,0,0
1682238493.99953008,67028178,1576,1578,1550,1549,0,0,0,0,0,0,0,0,0,0
1682238494.10032320,67128971,1578,1579,1549,1549,0,0,0,0,0,0,0,0,0,0
1682238494.20028305,67228931,1579,1580,1548,1548,0,0,0,0,0,0,0,0,0,0
1682238494.30024314,67328891,1580,1580,1546,1546,0,0,0,0,0,0,0,0,0,0
1682238494.40020299,67428851,1582,1581,1546,1546,0,0,0,0,0,0,0,0,0,0
1682238494.50016308,67528811,1582,1582,1545,1545,0,0,0,0,0,0,0,0,0,0
1682238494.60012317,67628771,1583,1582,1546,1547,0,0,0,0,0,0,0,0,0,0
1682238494.70008302,67728731,1582,1580,1546,1548,0,0,0,0,0,0,0,0,0,0
1682238494.80004311,67828691,1580,1579,1549,1550,0,0,0,0,0,0,0,0,0,0
1682238494.90000319,67928651,1580,1579,1553,1555,0,0,0,0,0,0,0,0,0,0
1682238494.99996305,68028611,1576,1575,1555,1558,0,0,0,0,0,0,0,0,0,0
1682238495.09992313,68128571,1572,1571,1560,1562,0,0,0,0,0,0,0,0,0,0
1682238495.19988298,68228531,1568,1566,1566,1567,0,0,0,0,0,0,0,0,0,0
1682238495.29984307,68328491,1563,1562,1572,1573,0,0,0,0,0,0,0,0,0,0
1682238495.39980316,68428451,1559,1558,1579,1580,0,0,0,0,0,0,0,0,0,0
1682238495.49976301,68528411,1554,1553,1585,1585,0,0,0,0,0,0,0,0,0,0
1682238495.59972310,68628371,1550,1549,1590,1589,0,0,0,0,0,0,0,0,0,0
1682238495.69968319,68728331,1549,1549,1595,1594,0,0,0,0,0,0,0,0,0,0
1682238495.79964304,68828291,1547,1548,1597,1596,0,0,0,0,0,0,0,0,0,0
1682238495.89960313,68928251,1547,1548,1597,1596,0,0,0,0,0,0,0,0,0,0
1682238495.99956322,69028211,1550,1552,1597,1596,0,0,0,0,0,0,0,0,0,0
1682238496.09952307,69128171,1553,1554,1595,1595,0,0,0,0,0,0,0,0,0,0
1682238496.20031619,69228964,1556,1557,1591,1591,0,0,0,0,0,0,0,0,0,0
1682238496.30027604,69328924,1561,1561,1588,1587,0,0,0,0,0,0,0,0,0,0
1682238496.40023613,69428884,1566,1566,1585,1584,0,0,0,0,0,0,0,0,0,0
1682238496.50019622,69528844,1570,1569,1581,1580,0,0,0,0,0,0,0,0,0,0
1682238496.60015607,69628804,1574,1572,1578,1578,0,0,0,0,0,0,0,0,0,0
1682238496.70011616,69728764,1577,1575,1575,1575,0,0,0,0,0,0,0,0,0,0
1682238496.80007601,69828724,1579,1578,1573,1574,0,0,0,0,0,0,0,0,0,0
1682238496.90003610,69928684,1580,1579,1572,1572,0,0,0,0,0,0,0,0,0,0
1682238496.99999619,70028644,1581,1581,1572,1572,0,0,0,0,0,0,0,0,0,0
1682238497.09995604,70128604,1580,1580,1571,1572,0,0,0,0,0,0,0,0,0,0
1682238497.19991612,70228564,1580,1579,1572,1572,0,0,0,0,0,0,0,0,0,0
1682238497.29987621,70328524,1579,1579,1574,1574,0,0,0,0,0,0,0,0,0,0
1682238497.39983606,70428484,1579,1579,1575,1576,0,0,0,0,0,0,0,0,0,0
1682238497.49979615,70528444,1578,1578,1578,1578,0,0,0,0,0,0,0,0,0,0
1682238497.59975600,70628404,1577,1578,1579,1579,0,0,0,0,0,0,0,0,0,0
1682238497.69971609,70728364,1577,1578,1581,1580,0,0,0,0,0,0,0,0,0,0
1682238497.79967618,70828324,1576,1577,1581,1580,0,0,0,0,0,0,0,0,0,0
1682238497.89963603,70928284,1576,1577,1582,1582,0,0,0,0,0,0,0,0,0,0
1682238497.99959612,71028244,1577,1577,1583,1582,0,0,0,0,0,0,0,0,0,0
1682238498.09955621,71128204,1576,1577,1582,1582,0,0,0,0,0,0,0,0,0,0
1682238498.19951606,71228164,1576,1576,1581,1581,0,0,0,0,0,0,0,0,0,0
1682238498.30030918,71328957,1577,1577,1580,1581,0,0,0,0,0,0,0,0,0,0
1682238498.40026903,71428917,1578,1578,1580,1580,0,0,0,0,0,0,0,0,0,0
1682238498.50022912,71528877,1578,1578,1579,1579,0,0,0,0,0,0,0,0,0,0
1682238498.60018921,71628837,1579,1579,1579,1580,0,0,0,0,0,0,0,0,0,0
1682238498.70014906,71728797,1580,1580,1579,1580,0,0,0,0,0,0,0,0,0,0
1682238498.80010915,71828757,1581,1581,1579,1579,0,0,0,0,0,0,0,0,0,0
1682238498.90006900,71928717,1582,1581,1580,1579,0,0,0,0,0,0,0,0,0,0
1682238499.00002909,72028677,1582,1581,1579,1579,0,0,0,0,0,0,0,0,0,0
1682238499.09998918,72128637,1582,1582,1580,1580,0,0,0,0,0,0,0,0,0,0
1682238499.19994903,72228597,1582,1581,1580,1580,0,0,0,0,0,0,0,0,0,0
1682238499.29990911,72328557,1582,1582,1580,1581,0,0,0,0,0,0,0,0,0,0
1682238499.39986920,72428517,1582,1582,1581,1581,0,0,0,0,0,0,0,0,0,0
1682238499.49982905,72528477,1581,1581,1580,1580,0,0,0,0,0,0,0,0,0,0
1682238499.59978914,72628437,1581,1581,1581,1580,0,0,0,0,0,0,0,0,0,0
1682238499.69974899,72728397,1581,1581,1581,1581,0,0,0,0,0,0,0,0,0,0
1682238499.79970908,72828357,1581,1581,1582,1582,0,0,0,0,0,0,0,0,0,0
1682238499.89966917,72928317,1581,1580,1581,1581,0,0,0,0,0,0,0,0,0,0
1682238499.99962902,73028277,1580,1580,1581,1581,0,0,0,0,0,0,0,0,0,0
1682238500.09958911,73128237,1581,1581,1582,1582,0,0,0,0,0,0,0,0,0,0
1682238500.19954920,73228197,1581,1582,1582,1582,0,0,0,0,0,0,0,0,0,0
1682238500.29950905,73328157,1581,1581,1581,1581,0,0,0,0,0,0,0,0,0,0
1682238500.40030217,73428950,1581,1581,1581,1581,0,0,0,0,0,0,0,0,0,0
1682238500.50026202,73528910,1580,1580,1581,1581,0,0,0,0,0,0,0,0,0,0
1682238500.60022211,73628870,1581,1581,1581,1581,0,0,0,0,0,0,0,0,0,0
1682238500.70018220,73728830,1580,1580,1580,1580,0,0,0,0,0,0,0,0,0,0
1682238500.80014205,73828790,1581,1582,1581,1581,0,0,0,0,0,0,0,0,0,0
1682238500.90010214,73928750,1581,1581,1582,1579,0,0,0,0,0,0,0,0,0,0
1682238501.00006199,74028710,1581,1582,1587,1572,0,0,0,0,0,0,0,0,0,0
1682238501.10002208,74128670,1579,1582,1582,1572,0,0,0,0,0,0,0,0,0,0
1682238501.19998217,74228630,1579,1581,1576,1573,0,0,0,0,0,0,0,0,0,0
1682238501.29994202,74328590,1576,1578,1567,1571,0,0,0,0,0,0,0,0,0,0
1682238501.39990211,74428550,1576,1577,1561,1568,0,0,0,0,0,0,0,0,0,0
1682238501.49986219,74528510,1575,1576,1556,1563,0,0,0,0,0,0,0,0,0,0
1682238501.59982204,74628470,1576,1576,1554,1558,0,0,0,0,0,0,0,0,0,0
1682238501.69978213,74728430,1577,1576,1553,1555,0,0,0,0,0,0,0,0,0,0
1682238501.79974198,74828390,1578,1577,1554,1553,0,0,0,0,0,0,0,0,0,0
1682238501.89970207,74928350,1579,1578,1556,1554,0,0,0,0,0,0,0,0,0,0
1682238501.99966216,75028310,1578,1578,1555,1552,0,0,0,0,0,0,0,0,0,0
1682238502.09962201,75128270,1577,1578,1555,1553,0,0,0,0,0,0,0,0,0,0
1682238502.19958210,75228230,1576,1577,1555,1552,0,0,0,0,0,0,0,0,0,0
1682238502.29954219,75328190,1577,1578,1555,1554,0,0,0,0,0,0,0,0,0,0
1682238502.40033507,75428983,1577,1579,1553,1554,0,0,0,0,0,0,0,0,0,0
1682238502.50029516,75528943,1577,1578,1551,1551,0,0,0,0,0,0,0,0,0,0
1682238502.60025501,75628903,1578,1579,1549,1550,0,0,0,0,0,0,0,0,0,0
1682238502.70021510,75728863,1580,1581,1548,1548,0,0,0,0,0,0,0,0,0,0
1682238502.80017519,75828823,1583,1584,1546,1546,0,0,0,0,0,0,0,0,0,0
1682238502.90013504,75928783,1585,1586,1544,1544,0,0,0,0,0,0,0,0,0,0
1682238503.00009513,76028743,1587,1588,1541,1541,0,0,0,0,0,0,0,0,0,0
1682238503.10005522,76128703,1590,1589,1539,1539,0,0,0,0,0,0,0,0,0,0
1682238503.20001507,76228663,1592,1592,1539,1540,0,0,0,0,0,0,0,0,0,0
1682238503.29997516,76328623,1594,1594,1539,1540,0,0,0,0,0,0,0,0,0,0
1682238503.39993501,76428583,1593,1593,1539,1541,0,0,0,0,0,0,0,0,0,0
1682238503.49989510,76528543,1593,1591,1541,1544,0,0,0,0,0,0,0,0,0,0
1682238503.59985518,76628503,1590,1588,1545,1548,0,0,0,0,0,0,0,0,0,0
1682238503.69981503,76728463,1585,1581,1551,1554,0,0,0,0,0,0,0,0,0,0
1682238503.79977512,76828423,1578,1574,1560,1563,0,0,0,0,0,0,0,0,0,0
1682238503.89973521,76928383,1568,1565,1570,1572,0,0,0,0,0,0,0,0,0,0
1682238503.99969506,77028343,1559,1557,1581,1583,0,0,0,0,0,0,0,0,0,0
1682238504.09965515,77128303,1550,1549,1592,1592,0,0,0,0,0,0,0,0,0,0
1682238504.19961500,77228263,1542,1543,1602,1601,0,0,0,0,0,0,0,0,0,0
1682238504.29957509,77328223,1537,1539,1609,1607,0,0,0,0,0,0,0,0,0,0
1682238504.39953518,77428183,1535,1539,1613,1611,0,0,0,0,0,0,0,0,0,0
1682238504.50032806,77528976,1537,1540,1614,1611,0,0,0,0,0,0,0,0,0,0
1682238504.60028815,77628936,1540,1542,1612,1610,0,0,0,0,0,0,0,0,0,0
1682238504.70024800,77728896,1545,1547,1608,1607,0,0,0,0,0,0,0,0,0,0
1682238504.80020809,77828856,1550,1551,1601,1600,0,0,0,0,0,0,0,0,0,0
1682238504.90016818,77928816,1557,1557,1595,1594,0,0,0,0,0,0,0,0,0,0
1682238505.00012803,78028776,1564,1563,1587,1587,0,0,0,0,0,0,0,0,0,0
1682238505.10008812,78128736,1571,1569,1581,1582,0,0,0,0,0,0,0,0,0,0
1682238505.20004821,78228696,1576,1574,1574,1575,0,0,0,0,0,0,0,0,0,0
1682238505.30000806,78328656,1580,1578,1569,1570,0,0,0,0,0,0,0,0,0,0
1682238505.39996815,78428616,1584,1582,1567,1568,0,0,0,0,0,0,0,0,0,0
1682238505.49992800,78528576,1585,1584,1565,1566,0,0,0,0,0,0,0,0,0,0
1682238505.59988809,78628536,1586,1584,1566,1566,0,0,0,0,0,0,0,0,0,0
1682238505.69984818,78728496,1586,1584,1567,1567,0,0,0,0,0,0,0,0,0,0
1682238505.79980803,78828456,1584,1582,1569,1569,0,0,0,0,0,0,0,0,0,0
1682238505.89976811,78928416,1582,1582,1572,1573,0,0,0,0,0,0,0,0,0,0
1682238505.99972820,79028376,1580,1580,1575,1575,0,0,0,0,0,0,0,0,0,0
1682238506.09968805,79128336,1577,1578,1578,1577,0,0,0,0,0,0,0,0,0,0
1682238506.19964814,79228296,1575,1576,1580,1579,0,0,0,0,0,0,0,0,0,0
1682238506.29960799,79328256,1575,1576,1583,1582,0,0,0,0,0,0,0,0,0,0
1682238506.39956808,79428216,1573,1575,1584,1583,0,0,0,0,0,0,0,0,0,0
1682238506.49952817,79528176,1573,1574,1584,1584,0,0,0,0,0,0,0,0,0,0
1682238506.60032105,79628969,1574,1574,1584,1584,0,0,0,0,0,0,0,0,0,0
1682238506.70028114,79728929,1574,1574,1584,1584,0,0,0,0,0,0,0,0,0,0
1682238506.80024099,79828889,1574,1574,1582,1582,0,0,0,0,0,0,0,0,0,0
1682238506.90020108,79928849,1576,1576,1581,1582,0,0,0,0,0,0,0,0,0,0
1682238507.00016117,80028809,1577,1577,1580,1580,0,0,0,0,0,0,0,0,0,0
1682238507.10012102,80128769,1578,1578,1579,1579,0,0,0,0,0,0,0,0,0,0
1682238507.20008111,80228729,1580,1579,1578,1578,0,0,0,0,0,0,0,0,0,0
1682238507.30004120,80328689,1581,1580,1578,1578,0,0,0,0,0,0,0,0,0,0
1682238507.40000105,80428649,1581,1581,1577,1577,0,0,0,0,0,0,0,0,0,0
1682238507.49996114,80528609,1582,1582,1578,1578,0,0,0,0,0,0,0,0,0,0
1682238507.59992099,80628569,1582,1583,1578,1578,0,0,0,0,0,0,0,0,0,0
1682238507.69988108,80728529,1583,1583,1579,1579,0,0,0,0,0,0,0,0,0,0
1682238507.79984117,80828489,1584,1583,1580,1580,0,0,0,0,0,0,0,0,0,0
1682238507.89980102,80928449,1582,1582,1580,1579,0,0,0,0,0,0,0,0,0,0
1682238507.99976110,81028409,1581,1581,1579,1579,0,0,0,0,0,0,0,0,0,0
1682238508.09972119,81128369,1581,1580,1580,1580,0,0,0,0,0,0,0,0,0,0
1682238508.19968104,81228329,1581,1580,1580,1581,0,0,0,0,0,0,0,0,0,0
1682238508.29964113,81328289,1580,1580,1581,1580,0,0,0,0,0,0,0,0,0,0
1682238508.39960098,81428249,1580,1580,1581,1581,0,0,0,0,0,0,0,0,0,0
1682238508.49956107,81528209,1580,1580,1581,1582,0,0,0,0,0,0,0,0,0,0
1682238508.59952116,81628169,1580,1580,1582,1582,0,0,0,0,0,0,0,0,0,0
1682238508.70031404,81728962,1579,1580,1581,1581,0,0,0,0,0,0,0,0,0,0
1682238508.80027413,81828922,1580,1580,1581,1581,0,0,0,0,0,0,0,0,0,0
1682238508.90023398,81928882,1581,1581,1583,1580,0,0,0,0,0,0,0,0,0,0
1682238509.00019407,82028842,1580,1581,1586,1572,0,0,0,0,0,0,0,0,0,0
1682238509.10015416,82128802,1580,1580,1584,1573,0,0,0,0,0,0,0,0,0,0
1682238509.20011401,82228762,1577,1577,1577,1575,0,0,0,0,0,0,0,0,0,0
1682238509.30007410,82328722,1573,1573,1571,1575,0,0,0,0,0,0,0,0,0,0
1682238509.40003419,82428682,1570,1569,1565,1573,0,0,0,0,0,0,0,0,0,0
1682238509.49999404,82528642,1568,1568,1564,1571,0,0,0,0,0,0,0,0,0,0
1682238509.59995413,82628602,1566,1567,1564,1568,0,0,0,0,0,0,0,0,0,0
1682238509.69991422,82728562,1566,1567,1565,1566,0,0,0,0,0,0,0,0,0,0
1682238509.79987407,82828522,1566,1566,1566,1564,0,0,0,0,0,0,0,0,0,0
1682238509.89983416,82928482,1565,1564,1565,1562,0,0,0,0,0,0,0,0,0,0
1682238509.99979401,83028442,1564,1565,1566,1563,0,0,0,0,0,0,0,0,0,0
1682238510.09975410,83128402,1565,1564,1565,1563,0,0,0,0,0,0,0,0,0,0
1682238510.19971418,83228362,1564,1563,1565,1563,0,0,0,0,0,0,0,0,0,0
1682238510.29967403,83328322,1563,1562,1563,1563,0,0,0,0,0,0,0,0,0,0
1682238510.39963412,83428282,1562,1561,1563,1563,0,0,0,0,0,0,0,0,0,0
1682238510.49959421,83528242,1561,1561,1561,1562,0,0,0,0,0,0,0,0,0,0
1682238510.59955406,83628202,1561,1561,1562,1561,0,0,0,0,0,0,0,0,0,0
1682238510.69951415,83728162,1561,1561,1562,1561,0,0,0,0,0,0,0,0,0,0
1682238510.80030704,83828955,1561,1561,1561,1561,0,0,0,0,0,0,0,0,0,0
1682238510.90026712,83928915,1559,1560,1560,1560,0,0,0,0,0,0,0,0,0,0
1682238511.00022721,84028875,1559,1559,1560,1559,0,0,0,0,0,0,0,0,0,0
1682238511.10018706,84128835,1559,1558,1559,1559,0,0,0,0,0,0,0,0,0,0
1682238511.20014715,84228795,1559,1559,1560,1558,0,0,0,0,0,0,0,0,0,0
1682238511.30010700,84328755,1559,1559,1560,1559,0,0,0,0,0,0,0,0,0,0
1682238511.40006709,84428715,1559,1559,1560,1558,0,0,0,0,0,0,0,0,0,0
1682238511.50002718,84528675,1559,1559,1559,1558,0,0,0,0,0,0,0,0,0,0
1682238511.59998703,84628635,1559,1559,1559,1557,0,0,0,0,0,0,0,0,0,0
1682238511.69994712,84728595,1559,1559,1560,1557,0,0,0,0,0,0,0,0,0,0
1682238511.79990721,84828555,1559,1559,1559,1559,0,0,0,0,0,0,0,0,0,0
1682238511.89986706,84928515,1560,1560,1557,1563,0,0,0,0,0,0,0,0,0,0
1682238511.99982715,85028475,1560,1560,1557,1563,0,0,0,0,0,0,0,0,0,0
1682238512.09978700,85128435,1558,1558,1556,1561,0,0,0,0,0,0,0,0,0,0
1682238512.19974709,85228395,1558,1558,1557,1558,0,0,0,0,0,0,0,0,0,0
1682238512.29970717,85328355,1558,1558,1557,1559,0,0,0,0,0,0,0,0,0,0
1682238512.39966702,85428315,1556,1555,1554,1556,0,0,0,0,0,0,0,0,0,0
1682238512.49962711,85528275,1553,1552,1552,1553,0,0,0,0,0,0,0,0,0,0
1682238512.59958720,85628235,1548,1548,1548,1548,0,0,0,0,0,0,0,0,0,0
1682238512.69954705,85728195,1543,1543,1543,1542,0,0,0,0,0,0,0,0,0,0
1682238512.79950714,85828155,1536,1535,1536,1535,0,0,0,0,0,0,0,0,0,0
1682238512.90030003,85928948,1529,1529,1529,1529,0,0,0,0,0,0,0,0,0,0
1682238513.00026011,86028908,1522,1522,1522,1522,0,0,0,0,0,0,0,0,0,0
1682238513.10022020,86128868,1520,1521,1520,1521,0,0,0,0,0,0,0,0,0,0
1682238513.20018005,86228828,1520,1521,1520,1522,0,0,0,0,0,0,0,0,0,0
1682238513.30014014,86328788,1521,1523,1521,1523,0,0,0,0,0,0,0,0,0,0
1682238513.40009999,86428748,1523,1524,1523,1524,0,0,0,0,0,0,0,0,0,0
1682238513.50006008,86528708,1527,1527,1527,1528,0,0,0,0,0,0,0,0,0,0
1682238513.60002017,86628668,1531,1531,1532,1531,0,0,0,0,0,0,0,0,0,0
1682238513.69998002,86728628,1536,1535,1536,1535,0,0,0,0,0,0,0,0,0,0
1682238513.79994011,86828588,1539,1538,1539,1538,0,0,0,0,0,0,0,0,0,0
1682238513.89990020,86928548,1542,1541,1542,1541,0,0,0,0,0,0,0,0,0,0
1682238513.99986005,87028508,1544,1543,1544,1543,0,0,0,0,0,0,0,0,0,0
1682238514.09982014,87128468,1544,1543,1544,1543,0,0,0,0,0,0,0,0,0,0
1682238514.19977999,87228428,1546,1546,1546,1545,0,0,0,0,0,0,0,0,0,0
1682238514.29974008,87328388,1546,1546,1546,1546,0,0,0,0,0,0,0,0,0,0
1682238514.39970016,87428348,1546,1546,1546,1546,0,0,0,0,0,0,0,0,0,0
1682238514.49966002,87528308,1546,1546,1546,1546,0,0,0,0,0,0,0,0,0,0
1682238514.59962010,87628268,1546,1547,1546,1547,0,0,0,0,0,0,0,0,0,0
1682238514.69958019,87728228,1546,1546,1546,1546,0,0,0,0,0,0,0,0,0,0
1682238514.79954004,87828188,1546,1546,1546,1546,0,0,0,0,0,0,0,0,0,0
1682238514.90033317,87928981,1546,1546,1546,1546,0,0,0,0,0,0,0,0,0,0
1682238515.00029302,88028941,1546,1546,1546,1546,0,0,0,0,0,0,0,0,0,0
1682238515.10025311,88128901,1546,1545,1546,1545,0,0,0,0,0,0,0,0,0,0
1682238515.20021319,88228861,1545,1546,1546,1545,0,0,0,0,0,0,0,0,0,0
1682238515.30017304,88328821,1545,1545,1545,1545,0,0,0,0,0,0,0,0,0,0
1682238515.40013313,88428781,1545,1545,1545,1545,0,0,0,0,0,0,0,0,0,0
1682238515.50009298,88528741,1545,1545,1545,1545,0,0,0,0,0,0,0,0,0,0
1682238515.60005307,88628701,1544,1545,1544,1545,0,0,0,0,0,0,0,0,0,0
1682238515.70001316,88728661,1544,1544,1544,1544,0,0,0,0,0,0,0,0,0,0
1682238515.79997301,88828621,1545,1545,1545,1545,0,0,0,0,0,0,0,0,0,0
1682238515.89993310,88928581,1545,1544,1545,1544,0,0,0,0,0,0,0,0,0,0
1682238515.99989319,89028541,1545,1545,1545,1544,0,0,0,0,0,0,0,0,0,0
1682238516.09985304,89128501,1545,1545,1545,1544,0,0,0,0,0,0,0,0,0,0
1682238516.19981313,89228461,1544,1545,1545,1545,0,0,0,0,0,0,0,0,0,0
1682238516.29977322,89328421,1545,1545,1544,1545,0,0,0,0,0,0,0,0,0,0
1682238516.39973307,89428381,1544,1544,1544,1544,0,0,0,0,0,0,0,0,0,0
1682238516.49969316,89528341,1544,1543,1544,1544,0,0,0,0,0,0,0,0,0,0
1682238516.59965301,89628301,1544,1544,1544,1544,0,0,0,0,0,0,0,0,0,0
1682238516.69961309,89728261,1545,1544,1544,1544,0,0,0,0,0,0,0,0,0,0
1682238516.79957318,89828221,1543,1544,1543,1543,0,0,0,0,0,0,0,0,0,0
1682238516.89953303,89928181,1544,1544,1544,1544,0,0,0,0,0,0,0,0,0,0
1682238517.00032616,90028974,1544,1544,1544,1544,0,0,0,0,0,0,0,0,0,0
1682238517.10028601,90128934,1544,1544,1544,1544,0,0,0,0,0,0,0,0,0,0
1682238517.20024610,90228894,1544,1544,1544,1544,0,0,0,0,0,0,0,0,0,0
1682238517.30020618,90328854,1544,1544,1544,1544,0,0,0,0,0,0,0,0,0,0
1682238517.40016603,90428814,1545,1545,1545,1545,0,0,0,0,0,0,0,0,0,0
1682238517.50012612,90528774,1545,1544,1545,1544,0,0,0,0,0,0,0,0,0,0
1682238517.60008621,90628734,1543,1544,1544,1543,0,0,0,0,0,0,0,0,0,0
1682238517.70004606,90728694,1544,1544,1543,1544,0,0,0,0,0,0,0,0,0,0
1682238517.80000615,90828654,1544,1544,1544,1544,0,0,0,0,0,0,0,0,0,0
1682238517.89996600,90928614,1544,1544,1545,1544,0,0,0,0,0,0,0,0,0,0
1682238517.99992609,91028574,1544,1544,1544,1545,0,0,0,0,0,0,0,0,0,0
1682238518.09988618,91128534,1545,1544,1544,1544,0,0,0,0,0,0,0,0,0,0
1682238518.19984603,91228494,1544,1544,1544,1544,0,0,0,0,0,0,0,0,0,0
1682238518.29980612,91328454,1544,1544,1544,1544,0,0,0,0,0,0,0,0,0,0
1682238518.39976621,91428414,1545,1545,1545,1545,0,0,0,0,0,0,0,0,0,0
1682238518.49972606,91528374,1544,1544,1544,1544,0,0,0,0,0,0,0,0,0,0
1682238518.59968615,91628334,1545,1545,1545,1545,0,0,0,0,0,0,0,0,0,0
1682238518.69964600,91728294,1545,1545,1545,1545,0,0,0,0,0,0,0,0,0,0
1682238518.79960608,91828254,1544,1544,1544,1544,0,0,0,0,0,0,0,0,0,0
1682238518.89956617,91928214,1544,1545,1545,1544,0,0,0,0,0,0,0,0,0,0
1682238518.99952602,92028174,1544,1544,1544,1544,0,0,0,0,0,0,0,0,0,0
1682238519.10031915,92128967,1544,1544,1544,1544,0,0,0,0,0,0,0,0,0,0
1682238519.20027900,92228927,1544,1544,1544,1544,0,0,0,0,0,0,0,0,0,0
1682238519.30023909,92328887,1544,1543,1544,1544,0,0,0,0,0,0,0,0,0,0
1682238519.40019917,92428847,1545,1545,1544,1545,0,0,0,0,0,0,0,0,0,0
1682238519.50015903,92528807,1545,1545,1545,1545,0,0,0,0,0,0,0,0,0,0
1682238519.60011911,92628767,1544,1545,1545,1545,0,0,0,0,0,0,0,0,0,0
1682238519.70007920,92728727,1544,1544,1544,1544,0,0,0,0,0,0,0,0,0,0
1682238519.80003905,92828687,1544,1544,1544,1544,0,0,0,0,0,0,0,0,0,0
1682238519.89999914,92928647,1545,1545,1545,1545,0,0,0,0,0,0,0,0,0,0
1682238519.99995899,93028607,1544,1544,1544,1544,0,0,0,0,0,0,0,0,0,0
1682238520.09991908,93128567,1544,1544,1544,1544,0,0,0,0,0,0,0,0,0,0
1682238520.19987917,93228527,1545,1545,1545,1545,0,0,0,0,0,0,0,0,0,0
1682238520.29983902,93328487,1544,1544,1544,1545,0,0,0,0,0,0,0,0,0,0
1682238520.39979911,93428447,1544,1544,1544,1545,0,0,0,0,0,0,0,0,0,0
1682238520.49975920,93528407,1544,1544,1544,1544,0,0,0,0,0,0,0,0,0,0
1682238520.59971905,93628367,1544,1543,1544,1543,0,0,0,0,0,0,0,0,0,0
1682238520.69967914,93728327,1543,1543,1543,1543,0,0,0,0,0,0,0,0,0,0
1682238520.79963899,93828287,1543,1544,1544,1543,0,0,0,0,0,0,0,0,0,0
1682238520.89959908,93928247,1544,1544,1544,1544,0,0,0,0,0,0,0,0,0,0
1682238520.99955916,94028207,1544,1545,1544,1544,0,0,0,0,0,0,0,0,0,0
1682238521.09951901,94128167,1544,1544,1544,1545,0,0,0,0,0,0,0,0,0,0
1682238521.20031214,94228960,1544,1544,1544,1544,0,0,0,0,0,0,0,0,0,0
1682238521.30027199,94328920,1545,1544,1544,1544,0,0,0,0,0,0,0,0,0,0
1682238521.40023208,94428880,1544,1543,1544,1543,0,0,0,0,0,0,0,0,0,0
1682238521.50019217,94528840,1544,1544,1544,1544,0,0,0,0,0,0,0,0,0,0
1682238521.60015202,94628800,1544,1544,1544,1544,0,0,0,0,0,0,0,0,0,0
1682238521.70011210,94728760,1544,1544,1544,1544,0,0,0,0,0,0,0,0,0,0
1682238521.80007219,94828720,1544,1545,1544,1544,0,0,0,0,0,0,0,0,0,0
1682238521.90003204,94928680,1544,1543,1543,1544,0,0,0,0,0,0,0,0,0,0
1682238521.99999213,95028640,1544,1544,1544,1544,0,0,0,0,0,0,0,0,0,0
1682238522.09995198,95128600,1544,1544,1544,1544,0,0,0,0,0,0,0,0,0,0
1682238522.19991207,95228560,1544,1545,1545,1544,0,0,0,0,0,0,0,0,0,0
1682238522.29987216,95328520,1544,1544,1544,1544,0,0,0,0,0,0,0,0,0,0
1682238522.39983201,95428480,1544,1544,1545,1544,0,0,0,0,0,0,0,0,0,0
1682238522.49979210,95528440,1545,1544,1545,1544,0,0,0,0,0,0,0,0,0,0
1682238522.59975219,95628400,1545,1544,1545,1545,0,0,0,0,0,0,0,0,0,0
1682238522.69971204,95728360,1506,1492,1506,1493,0,0,0,0,0,0,0,0,0,0
1682238522.79967213,95828320,1383,1316,1383,1317,0,0,0,0,0,0,0,0,0,0
1682238522.89963222,95928280,1334,1235,1333,1237,0,0,0,0,0,0,0,0,0,0
1682238522.99959207,96028240,1320,1210,1319,1211,0,0,0,0,0,0,0,0,0,0
1682238523.09955215,96128200,1304,1181,1304,1183,0,0,0,0,0,0,0,0,0,0
1682238523.19951200,96228160,1288,1150,1287,1150,0,0,0,0,0,0,0,0,0,0
1682238523.30030513,96328953,1188,1150,1187,1151,0,0,0,0,0,0,0,0,0,0
1682238523.40026522,96428913,1074,1150,1073,1150,0,0,0,0,0,0,0,0,0,0
1682238523.50022507,96528873,1074,1150,1073,1150,0,0,0,0,0,0,0,0,0,0
1682238523.60018516,96628833,1074,1150,1073,1150,0,0,0,0,0,0,0,0,0,0
1682238523.70014501,96728793,1074,1150,1070,1155,0,0,0,0,0,0,0,0,0,0
1682238523.80010509,96828753,1073,1150,1067,1159,0,0,0,0,0,0,0,0,0,0
1682238523.90006518,96928713,1073,1150,1069,1156,0,0,0,0,0,0,0,0,0,0
1682238524.00002503,97028673,1073,1150,1069,1156,0,0,0,0,0,0,0,0,0,0
1682238524.09998512,97128633,1073,1150,1069,1156,0,0,0,0,0,0,0,0,0,0
1682238524.19994521,97228593,1073,1150,1069,1156,0,0,0,0,0,0,0,0,0,0
1682238524.29990506,97328553,1073,1150,1068,1157,0,0,0,0,0,0,0,0,0,0
1682238524.39986515,97428513,1073,1150,1068,1157,0,0,0,0,0,0,0,0,0,0
1682238524.49982500,97528473,1072,1151,1074,1150,0,0,0,0,0,0,0,0,0,0
1682238524.59978509,97628433,1073,1150,1071,1153,0,0,0,0,0,0,0,0,0,0
1682238524.69974518,97728393,1074,1150,1071,1153,0,0,0,0,0,0,0,0,0,0
1682238524.79970503,97828353,1073,1150,1071,1153,0,0,0,0,0,0,0,0,0,0
1682238524.89966512,97928313,1073,1150,1071,1153,0,0,0,0,0,0,0,0,0,0
1682238524.99962521,98028273,894,1145,894,1145,0,0,0,0,0,0,0,0,0,0
1682238525.09958506,98128233,1000,1000,1000,1000,0,0,0,0,0,0,0,0,0,0
1682238525.19954515,98228193,1000,1000,1000,1000,0,0,0,0,0,0,0,0,0,0
1682238525.30033803,98328986,1000,1000,1000,1000,0,0,0,0,0,0,0,0,0,0
1682238525.40029812,98428946,1000,1000,1000,1000,0,0,0,0,0,0,0,0,0,0
1682238525.50025821,98528906,1000,1000,1000,1000,0,0,0,0,0,0,0,0,0,0
1682238525.60021806,98628866,1000,1000,1000,1000,0,0,0,0,0,0,0,0,0,0
1682238525.70017815,98728826,1000,1000,1000,1000,0,0,0,0,0,0,0,0,0,0
1682238525.80013800,98828786,1000,1000,1000,1000,0,0,0,0,0,0,0,0,0,0
1682238525.90009809,98928746,1000,1000,1000,1000,0,0,0,0,0,0,0,0,0,0
1682238526.00005817,99028706,1000,1000,1000,1000,0,0,0,0,0,0,0,0,0,0
1682238526.10001802,99128666,1000,1000,1000,1000,0,0,0,0,0,0,0,0,0,0
1682238526.19997811,99228626,1000,1000,1000,1000,0,0,0,0,0,0,0,0,0,0
1682238526.29993820,99328586,1000,1000,1000,1000,0,0,0,0,0,0,0,0,0,0
1682238526.39989805,99428546,1000,1000,1000,1000,0,0,0,0,0,0,0,0,0,0
1682238526.49985814,99528506,1000,1000,1000,1000,0,0,0,0,0,0,0,0,0,0
1682238526.59981799,99628466,1000,1000,1000,1000,0,0,0,0,0,0,0,0,0,0
1682238526.69977808,99728426,1000,1000,1000,1000,0,0,0,0,0,0,0,0,0,0
1682238526.79973817,99828386,1000,1000,1000,1000,0,0,0,0,0,0,0,0,0,0
1682238526.89969802,99928346,1000,1000,1000,1000,0,0,0,0,0,0,0,0,0,0
1682238526.99965811,100028306,1000,1000,1000,1000,0,0,0,0,0,0,0,0,0,0
1682238527.09961820,100128266,1000,1000,1000,1000,0,0,0,0,0,0,0,0,0,0
1682238527.19957805,100228226,1000,1000,1000,1000,0,0,0,0,0,0,0,0,0,0
1682238527.29953814,100328186,1000,1000,1000,1000,0,0,0,0,0,0,0,0,0,0
1682238527.40033102,100428979,1000,1000,1000,1000,0,0,0,0,0,0,0,0,0,0
1682238527.50029111,100528939,1000,1000,1000,1000,0,0,0,0,0,0,0,0,0,0
1682238527.60025120,100628899,1000,1000,1000,1000,0,0,0,0,0,0,0,0,0,0
1682238527.70021105,100728859,1000,1000,1000,1000,0,0,0,0,0,0,0,0,0,0
1682238527.80017114,100828819,1000,1000,1000,1000,0,0,0,0,0,0,0,0,0,0
1682238527.90013099,100928779,1000,1000,1000,1000,0,0,0,0,0,0,0,0,0,0
1682238528.00009108,101028739,1000,1000,1000,1000,0,0,0,0,0,0,0,0,0,0
1682238528.10005116,101128699,1000,1000,1000,1000,0,0,0,0,0,0,0,0,0,0
1682238528.20001101,101228659,1000,1000,1000,1000,0,0,0,0,0,0,0,0,0,0
1682238528.29997110,101328619,1000,1000,1000,1000,0,0,0,0,0,0,0,0,0,0
1682238528.39993119,101428579,1000,1000,1000,1000,0,0,0,0,0,0,0,0,0,0
1682238528.49989104,101528539,1000,1000,1000,1000,0,0,0,0,0,0,0,0,0,0
1682238528.59985113,101628499,1000,1000,1000,1000,0,0,0,0,0,0,0,0,0,0
1682238528.69981098,101728459,1000,1000,1000,1000,0,0,0,0,0,0,0,0,0,0
1682238528.79977107,101828419,1000,1000,1000,1000,0,0,0,0,0,0,0,0,0,0
1682238528.89973116,101928379,1000,1000,1000,1000,0,0,0,0,0,0,0,0,0,0
1682238528.99969101,102028339,1000,1000,1000,1000,0,0,0,0,0,0,0,0,0,0
1682238529.09965110,102128299,1000,1000,1000,1000,0,0,0,0,0,0,0,0,0,0
1682238529.19961119,102228259,1000,1000,1000,1000,0,0,0,0,0,0,0,0,0,0
1682238529.29957104,102328219,1000,1000,1000,1000,0,0,0,0,0,0,0,0,0,0
1682238529.39953113,102428179,1000,1000,1000,1000,0,0,0,0,0,0,0,0,0,0
1682238529.50032401,102528972,1000,1000,1000,1000,0,0,0,0,0,0,0,0,0,0
1682238529.60028410,102628932,1000,1000,1000,1000,0,0,0,0,0,0,0,0,0,0
1682238529.70024419,102728892,1000,1000,1000,1000,0,0,0,0,0,0,0,0,0,0
1682238529.80020404,102828852,1000,1000,1000,1000,0,0,0,0,0,0,0,0,0,0
1682238529.90016413,102928812,1000,1000,1000,1000,0,0,0,0,0,0,0,0,0,0
1682238530.00012422,103028772,1000,1000,1000,1000,0,0,0,0,0,0,0,0,0,0
1682238530.10008407,103128732,1000,1000,1000,1000,0,0,0,0,0,0,0,0,0,0
1682238530.20004416,103228692,1000,1000,1000,1000,0,0,0,0,0,0,0,0,0,0
1682238530.30000401,103328652,1000,1000,1000,1000,0,0,0,0,0,0,0,0,0,0
1682238530.39996409,103428612,1000,1000,1000,1000,0,0,0,0,0,0,0,0,0,0
1682238530.49992418,103528572,1000,1000,1000,1000,0,0,0,0,0,0,0,0,0,0
1682238530.59988403,103628532,1000,1000,1000,1000,0,0,0,0,0,0,0,0,0,0
1682238530.69984412,103728492,1000,1000,1000,1000,0,0,0,0,0,0,0,0,0,0
1682238530.79980421,103828452,1000,1000,1000,1000,0,0,0,0,0,0,0,0,0,0
1682238530.89976406,103928412,1000,1000,1000,1000,0,0,0,0,0,0,0,0,0,0
1682238530.99972415,104028372,1000,1000,1000,1000,0,0,0,0,0,0,0,0,0,0
1682238531.09968400,104128332,1000,1000,1000,1000,0,0,0,0,0,0,0,0,0,0
1682238531.19964409,104228292,1000,1000,1000,1000,0,0,0,0,0,0,0,0,0,0
1682238531.29960418,104328252,1000,1000,1000,1000,0,0,0,0,0,0,0,0,0,0
1682238531.39956403,104428212,1000,1000,1000,1000,0,0,0,0,0,0,0,0,0,0
1682238531.49952412,104528172,1000,1000,1000,1000,0,0,0,0,0,0,0,0,0,0
1682238531.60031700,104628965,1000,1000,1000,1000,0,0,0,0,0,0,0,0,0,0
1682238531.70027709,104728925,1000,1000,1000,1000,0,0,0,0,0,0,0,0,0,0
1682238531.80023718,104828885,1000,1000,1000,1000,0,0,0,0,0,0,0,0,0,0
1682238531.90019703,104928845,1000,1000,1000,1000,0,0,0,0,0,0,0,0,0,0
1682238532.00015712,105028805,1000,1000,1000,1000,0,0,0,0,0,0,0,0,0,0
1682238532.10011721,105128765,1000,1000,1000,1000,0,0,0,0,0,0,0,0,0,0
1682238532.20007706,105228725,1000,1000,1000,1000,0,0,0,0,0,0,0,0,0,0
1682238532.30003715,105328685,1000,1000,1000,1000,0,0,0,0,0,0,0,0,0,0
1682238532.39999700,105428645,1000,1000,1000,1000,0,0,0,0,0,0,0,0,0,0
1682238532.49995708,105528605,1000,1000,1000,1000,0,0,0,0,0,0,0,0,0,0
1682238532.59991717,105628565,1000,1000,1000,1000,0,0,0,0,0,0,0,0,0,0
1682238532.69987702,105728525,1000,1000,1000,1000,0,0,0,0,0,0,0,0,0,0
1682238532.79983711,105828485,1000,1000,1000,1000,0,0,0,0,0,0,0,0,0,0
1682238532.89979720,105928445,1000,1000,1000,1000,0,0,0,0,0,0,0,0,0,0
1682238532.99975705,106028405,1000,1000,1000,1000,0,0,0,0,0,0,0,0,0,0
1682238533.09971714,106128365,1000,1000,1000,1000,0,0,0,0,0,0,0,0,0,0
1682238533.19967699,106228325,1000,1000,1000,1000,0,0,0,0,0,0,0,0,0,0
1682238533.29963708,106328285,1000,1000,1000,1000,0,0,0,0,0,0,0,0,0,0
1682238533.39959717,106428245,1000,1000,1000,1000,0,0,0,0,0,0,0,0,0,0
1682238533.49955702,106528205,1000,1000,1000,1000,0,0,0,0,0,0,0,0,0,0
1682238533.59951711,106628165,1000,1000,1000,1000,0,0,0,0,0,0,0,0,0,0
1682238533.70030999,106728958,1000,1000,1000,1000,0,0,0,0,0,0,0,0,0,0
1682238533.80027008,106828918,1000,1000,1000,1000,0,0,0,0,0,0,0,0,0,0
1682238533.90023017,106928878,1000,1000,1000,1000,0,0,0,0,0,0,0,0,0,0
1682238534.00019002,107028838,1000,1000,1000,1000,0,0,0,0,0,0,0,0,0,0
1682238534.10015011,107128798,1000,1000,1000,1000,0,0,0,0,0,0,0,0,0,0
1682238534.20011020,107228758,1000,1000,1000,1000,0,0,0,0,0,0,0,0,0,0
1682238534.30007005,107328718,1000,1000,1000,1000,0,0,0,0,0,0,0,0,0,0
1682238534.40003014,107428678,1000,1000,1000,1000,0,0,0,0,0,0,0,0,0,0
1682238534.49998999,107528638,1000,1000,1000,1000,0,0,0,0,0,0,0,0,0,0
1682238534.59995008,107628598,1000,1000,1000,1000,0,0,0,0,0,0,0,0,0,0
1682238534.69991016,107728558,1000,1000,1000,1000,0,0,0,0,0,0,0,0,0,0
1682238534.79987001,107828518,1000,1000,1000,1000,0,0,0,0,0,0,0,0,0,0
1682238534.89983010,107928478,1000,1000,1000,1000,0,0,0,0,0,0,0,0,0,0
1682238534.99979019,108028438,1000,1000,1000,1000,0,0,0,0,0,0,0,0,0,0
1682238535.09975004,108128398,1000,1000,1000,1000,0,0,0,0,0,0,0,0,0,0
1682238535.19971013,108228358,1000,1000,1000,1000,0,0,0,0,0,0,0,0,0,0
1682238535.29967022,108328318,1000,1000,1000,1000,0,0,0,0,0,0,0,0,0,0
1682238535.39963007,108428278,1000,1000,1000,1000,0,0,0,0,0,0,0,0,0,0
1682238535.49959016,108528238,1000,1000,1000,1000,0,0,0,0,0,0,0,0,0,0
1682238535.59955001,108628198,1000,1000,1000,1000,0,0,0,0,0,0,0,0,0,0
1682238535.69951010,108728158,1000,1000,1000,1000,0,0,0,0,0,0,0,0,0,0
1682238535.80030298,108828951,1000,1000,1000,1000,0,0,0,0,0,0,0,0,0,0
1682238535.90026307,108928911,1000,1000,1000,1000,0,0,0,0,0,0,0,0,0,0
1682238536.00022316,109028871,1000,1000,1000,1000,0,0,0,0,0,0,0,0,0,0
1682238536.10018301,109128831,1000,1000,1000,1000,0,0,0,0,0,0,0,0,0,0
1682238536.20014310,109228791,1000,1000,1000,1000,0,0,0,0,0,0,0,0,0,0
1682238536.30010319,109328751,1000,1000,1000,1000,0,0,0,0,0,0,0,0,0,0
1682238536.40006304,109428711,1000,1000,1000,1000,0,0,0,0,0,0,0,0,0,0
1682238536.50002313,109528671,1000,1000,1000,1000,0,0,0,0,0,0,0,0,0,0
1682238536.59998322,109628631,1000,1000,1000,1000,0,0,0,0,0,0,0,0,0,0
1682238536.69994307,109728591,1000,1000,1000,1000,0,0,0,0,0,0,0,0,0,0
1682238536.79990315,109828551,1000,1000,1000,1000,0,0,0,0,0,0,0,0,0,0
1682238536.89986300,109928511,1000,1000,1000,1000,0,0,0,0,0,0,0,0,0,0
1682238536.99982309,110028471,1000,1000,1000,1000,0,0,0,0,0,0,0,0,0,0
1682238537.09978318,110128431,1000,1000,1000,1000,0,0,0,0,0,0,0,0,0,0
1682238537.19974303,110228391,1000,1000,1000,1000,0,0,0,0,0,0,0,0,0,0
1682238537.29970312,110328351,1000,1000,1000,1000,0,0,0,0,0,0,0,0,0,0
