TimeUS,M1,M2,M3,M4,TimeUS,C1,C2,C3,C4
58480765,1000,1000,1000,1000,58528246,1000,1000,1000,1000
58483264,1000,1000,1000,1000,58628206,1000,1000,1000,1000
58485763,1000,1000,1000,1000,58728166,1000,1000,1000,1000
58488262,1000,1000,1000,1000,58828959,1000,1000,1000,1000
58490761,1000,1000,1000,1000,58928919,1000,1000,1000,1000
58493260,1000,1000,1000,1000,59028879,1000,1000,1000,1000
58495759,1000,1000,1000,1000,59128839,1000,1000,1000,1000
58498258,1000,1000,1000,1000,59228799,1000,1000,1000,1000
58500757,1000,1000,1000,1000,59328759,1000,1000,1000,1000
58503256,1000,1000,1000,1000,59428719,1000,1000,1000,1000
58505755,1000,1000,1000,1000,59528679,1000,1000,1000,1000
58508254,1000,1000,1000,1000,59628639,1000,1000,1000,1000
58510753,1000,1000,1000,1000,59728599,1000,1000,1000,1000
58513252,1000,1000,1000,1000,59828559,1000,1000,1000,1000
58515751,1000,1000,1000,1000,59928519,1000,1000,1000,1000
58518250,1000,1000,1000,1000,60028479,1000,1000,1000,1000
58520749,1000,1000,1000,1000,60128439,1000,1000,1000,1000
58523248,1000,1000,1000,1000,60228399,1000,1000,1000,1000
58525747,1000,1000,1000,1000,60328359,1000,1000,1000,1000
58528246,1000,1000,1000,1000,60428319,1000,1000,1000,1000
58530745,1000,1000,1000,1000,60528279,1014,1014,1014,1014
58533244,1000,1000,1000,1000,60628239,1044,1044,1044,1044
58535743,1000,1000,1000,1000,60728199,1074,1074,1074,1074
58538242,1000,1000,1000,1000,60828159,1104,1104,1104,1104
58540741,1000,1000,1000,1000,60928952,1134,1134,1134,1134
58543240,1000,1000,1000,1000,61028912,1282,1274,1275,1282
58545739,1000,1000,1000,1000,61128872,1491,1485,1485,1491
58548238,1000,1000,1000,1000,61228832,1652,1647,1647,1653
58550737,1000,1000,1000,1000,61328792,1789,1784,1784,1790
58553236,1000,1000,1000,1000,61428752,1874,1870,1870,1874
58555735,1000,1000,1000,1000,61528712,1864,1861,1862,1864
58558234,1000,1000,1000,1000,61628672,1742,1741,1741,1742
58560733,1000,1000,1000,1000,61728632,1645,1646,1647,1645
58563232,1000,1000,1000,1000,61828592,1618,1621,1621,1619
58565731,1000,1000,1000,1000,61928552,1623,1624,1619,1627
58568230,1000,1000,1000,1000,62028512,1631,1633,1628,1637
58570729,1000,1000,1000,1000,62128472,1633,1635,1632,1636
58573228,1000,1000,1000,1000,62228432,1628,1629,1630,1628
58575727,1000,1000,1000,1000,62328392,1623,1623,1626,1621
58578226,1000,1000,1000,1000,62428352,1621,1620,1624,1617
58580725,1000,1000,1000,1000,62528312,1620,1619,1622,1617
58583224,1000,1000,1000,1000,62628272,1621,1619,1622,1618
58585723,1000,1000,1000,1000,62728232,1621,1620,1621,1621
58588222,1000,1000,1000,1000,62828192,1589,1590,1596,1583
58590721,1000,1000,1000,1000,62928985,1575,1576,1581,1570
58593220,1000,1000,1000,1000,63028945,1564,1564,1565,1564
58595719,1000,1000,1000,1000,63128905,1555,1555,1551,1558
58598218,1000,1000,1000,1000,63228865,1547,1547,1539,1555
58600717,1000,1000,1000,1000,63328825,1541,1540,1531,1549
58603216,1000,1000,1000,1000,63428785,1535,1535,1529,1540
58605715,1000,1000,1000,1000,63528745,1530,1530,1528,1531
58608214,1000,1000,1000,1000,63628705,1527,1527,1528,1526
58610713,1000,1000,1000,1000,63728665,1528,1528,1529,1526
58613212,1000,1000,1000,1000,63828625,1530,1530,1533,1527
58615711,1000,1000,1000,1000,63928585,1533,1533,1536,1530
58618210,1000,1000,1000,1000,64028545,1537,1537,1540,1535
58620709,1000,1000,1000,1000,64128505,1541,1540,1542,1539
58623208,1000,1000,1000,1000,64228465,1544,1544,1544,1544
58625707,1000,1000,1000,1000,64328425,1547,1547,1547,1548
58628206,1000,1000,1000,1000,64428385,1549,1549,1549,1550
58630705,1000,1000,1000,1000,64528345,1552,1552,1552,1553
58633204,1000,1000,1000,1000,64628305,1555,1555,1554,1556
58635703,1000,1000,1000,1000,64728265,1556,1556,1556,1558
58638202,1000,1000,1000,1000,64828225,1557,1558,1560,1561
58640701,1000,1000,1000,1000,64928185,1560,1560,1564,1564
58643200,1000,1000,1000,1000,65028978,1561,1561,1566,1566
58645699,1000,1000,1000,1000,65128938,1563,1563,1567,1567
58648198,1000,1000,1000,1000,65228898,1564,1564,1567,1567
58650697,1000,1000,1000,1000,65328858,1566,1567,1568,1568
58653196,1000,1000,1000,1000,65428818,1569,1569,1569,1569
58655695,1000,1000,1000,1000,65528778,1570,1570,1568,1569
58658194,1000,1000,1000,1000,65628738,1572,1572,1569,1569
58660693,1000,1000,1000,1000,65728698,1573,1573,1570,1570
58663192,1000,1000,1000,1000,65828658,1575,1574,1571,1571
58665691,1000,1000,1000,1000,65928618,1574,1574,1571,1571
58668190,1000,1000,1000,1000,66028578,1575,1575,1572,1572
58670689,1000,1000,1000,1000,66128538,1575,1575,1573,1573
58673188,1000,1000,1000,1000,66228498,1576,1576,1575,1573
58675687,1000,1000,1000,1000,66328458,1575,1575,1574,1574
58678186,1000,1000,1000,1000,66428418,1575,1576,1576,1575
58680685,1000,1000,1000,1000,66528378,1575,1575,1576,1575
58683184,1000,1000,1000,1000,66628338,1575,1575,1576,1576
58685683,1000,1000,1000,1000,66728298,1575,1575,1576,1576
58688182,1000,1000,1000,1000,66828258,1576,1576,1577,1576
58690681,1000,1000,1000,1000,66928218,1576,1576,1577,1577
58693180,1000,1000,1000,1000,67028178,1576,1577,1577,1577
58695679,1000,1000,1000,1000,67128971,1576,1577,1577,1577
58698178,1000,1000,1000,1000,67228931,1577,1577,1577,1577
58700677,1000,1000,1000,1000,67328891,1578,1577,1577,1577
58703176,1000,1000,1000,1000,67428851,1577,1577,1577,1577
58705675,1000,1000,1000,1000,67528811,1578,1577,1577,1577
58708174,1000,1000,1000,1000,67628771,1577,1577,1577,1577
58710673,1000,1000,1000,1000,67728731,1577,1578,1577,1577
58713172,1000,1000,1000,1000,67828691,1578,1578,1578,1578
58715671,1000,1000,1000,1000,67928651,1578,1578,1578,1578
58718170,1000,1000,1000,1000,68028611,1579,1579,1579,1579
58720669,1000,1000,1000,1000,68128571,1579,1579,1579,1579
58723168,1000,1000,1000,1000,68228531,1579,1579,1580,1580
58725667,1000,1000,1000,1000,68328491,1579,1579,1579,1579
58728166,1000,1000,1000,1000,68428451,1579,1579,1579,1580
58730665,1000,1000,1000,1000,68528411,1578,1578,1579,1579
58733164,1000,1000,1000,1000,68628371,1579,1579,1580,1579
58735663,1000,1000,1000,1000,68728331,1580,1579,1580,1580
58738162,1000,1000,1000,1000,68828291,1580,1580,1580,1580
58740661,1000,1000,1000,1000,68928251,1579,1579,1579,1579
58743160,1000,1000,1000,1000,69028211,1579,1580,1579,1580
58745659,1000,1000,1000,1000,69128171,1580,1580,1580,1580
58748158,1000,1000,1000,1000,69228964,1580,1581,1580,1580
58750657,1000,1000,1000,1000,69328924,1580,1580,1580,1580
58753156,1000,1000,1000,1000,69428884,1580,1580,1580,1580
58755655,1000,1000,1000,1000,69528844,1580,1580,1580,1579
58758154,1000,1000,1000,1000,69628804,1580,1580,1580,1580
58761486,1000,1000,1000,1000,69728764,1580,1580,1579,1580
58763985,1000,1000,1000,1000,69828724,1580,1580,1579,1580
58766484,1000,1000,1000,1000,69928684,1580,1580,1580,1580
58768983,1000,1000,1000,1000,70028644,1580,1580,1580,1580
58771482,1000,1000,1000,1000,70128604,1580,1581,1580,1581
58773981,1000,1000,1000,1000,70228564,1581,1580,1581,1580
58776480,1000,1000,1000,1000,70328524,1581,1580,1581,1581
58778979,1000,1000,1000,1000,70428484,1580,1581,1581,1581
58781478,1000,1000,1000,1000,70528444,1581,1580,1580,1581
58783977,1000,1000,1000,1000,70628404,1581,1581,1580,1581
58786476,1000,1000,1000,1000,70728364,1580,1580,1580,1580
58788975,1000,1000,1000,1000,70828324,1581,1580,1582,1579
58791474,1000,1000,1000,1000,70928284,1580,1581,1587,1572
58793973,1000,1000,1000,1000,71028244,1579,1582,1582,1573
58796472,1000,1000,1000,1000,71128204,1578,1581,1574,1573
58798971,1000,1000,1000,1000,71228164,1576,1579,1565,1570
58801470,1000,1000,1000,1000,71328957,1577,1578,1560,1567
58803969,1000,1000,1000,1000,71428917,1577,1577,1555,1561
58806468,1000,1000,1000,1000,71528877,1579,1578,1555,1558
58808967,1000,1000,1000,1000,71628837,1579,1577,1555,1555
58811466,1000,1000,1000,1000,71728797,1578,1577,1555,1553
58813965,1000,1000,1000,1000,71828757,1577,1578,1556,1553
58816464,1000,1000,1000,1000,71928717,1577,1577,1556,1553
58818963,1000,1000,1000,1000,72028677,1576,1578,1556,1554
58821462,1000,1000,1000,1000,72128637,1575,1577,1554,1554
58823961,1000,1000,1000,1000,72228597,1574,1576,1552,1553
58826460,1000,1000,1000,1000,72328557,1576,1577,1551,1552
58828959,1000,1000,1000,1000,72428517,1578,1579,1550,1550
58831458,1000,1000,1000,1000,72528477,1580,1581,1548,1548
58833957,1000,1000,1000,1000,72628437,1582,1583,1545,1545
58836456,1000,1000,1000,1000,72728397,1585,1586,1542,1542
58838955,1000,1000,1000,1000,72828357,1589,1589,1540,1539
58841454,1000,1000,1000,1000,72928317,1591,1591,1537,1537
58843953,1000,1000,1000,1000,73028277,1594,1594,1535,1536
58846452,1000,1000,1000,1000,73128237,1595,1595,1535,1536
58848951,1000,1000,1000,1000,73228197,1595,1595,1535,1537
58851450,1000,1000,1000,1000,73328157,1594,1594,1536,1539
58853949,1000,1000,1000,1000,73428950,1592,1591,1541,1544
58856448,1000,1000,1000,1000,73528910,1587,1585,1546,1550
58858947,1000,1000,1000,1000,73628870,1581,1578,1555,1558
58861446,1000,1000,1000,1000,73728830,1572,1568,1567,1569
58863945,1000,1000,1000,1000,73828790,1561,1557,1578,1580
58866444,1000,1000,1000,1000,73928750,1550,1547,1591,1592
58868943,1000,1000,1000,1000,74028710,1539,1538,1601,1601
58871442,1000,1000,1000,1000,74128670,1532,1532,1609,1608
58873941,1000,1000,1000,1000,74228630,1528,1529,1614,1613
58876440,1000,1000,1000,1000,74328590,1528,1530,1615,1614
58878939,1000,1000,1000,1000,74428550,1533,1535,1613,1612
58881438,1000,1000,1000,1000,74528510,1538,1540,1607,1606
58883937,1000,1000,1000,1000,74628470,1548,1549,1601,1602
58886436,1000,1000,1000,1000,74728430,1556,1557,1593,1594
58888935,1000,1000,1000,1000,74828390,1565,1565,1586,1585
58891434,1000,1000,1000,1000,74928350,1573,1572,1579,1578
58893933,1000,1000,1000,1000,75028310,1580,1578,1573,1573
58896432,1000,1000,1000,1000,75128270,1585,1583,1569,1569
58898931,1000,1000,1000,1000,75228230,1588,1586,1568,1567
58901430,1000,1000,1000,1000,75328190,1588,1587,1567,1567
58903929,1000,1000,1000,1000,75428983,1587,1586,1567,1567
58906428,1000,1000,1000,1000,75528943,1586,1586,1570,1570
58908927,1000,1000,1000,1000,75628903,1583,1583,1572,1573
58911426,1000,1000,1000,1000,75728863,1581,1580,1575,1575
58913925,1000,1000,1000,1000,75828823,1577,1578,1578,1577
58916424,1000,1000,1000,1000,75928783,1576,1576,1581,1581
58918923,1000,1000,1000,1000,76028743,1574,1574,1582,1582
58921422,1000,1000,1000,1000,76128703,1468,1548,1477,1560
58923921,1000,1000,1000,1000,76228663,1558,1551,1568,1563
58926420,1000,1000,1000,1000,76328623,1641,1588,1652,1598
58928919,1000,1000,1000,1000,76428583,1711,1643,1719,1652
58931418,1000,1000,1000,1000,76528543,1726,1665,1729,1668
58933917,1000,1000,1000,1000,76628503,1729,1690,1724,1680
58936416,1000,1000,1000,1000,76728463,1699,1680,1687,1654
58938915,1000,1000,1000,1000,76828423,1647,1655,1630,1620
58941414,1000,1000,1000,1000,76928383,1597,1631,1586,1613
58943913,1000,1000,1000,1000,77028343,1561,1599,1573,1624
58946412,1000,1000,1000,1000,77128303,1540,1570,1581,1633
58948911,1000,1000,1000,1000,77228263,1532,1547,1592,1629
58951410,1000,1000,1000,1000,77328223,1536,1540,1598,1615
58953909,1000,1000,1000,1000,77428183,1548,1545,1598,1595
58956408,1000,1000,1000,1000,77528976,1564,1560,1593,1578
58958907,1000,1000,1000,1000,77628936,1580,1576,1585,1565
58961406,1000,1000,1000,1000,77728896,1591,1591,1573,1558
58963905,1000,1000,1000,1000,77828856,1597,1598,1562,1553
58966404,1000,1000,1000,1000,77928816,1599,1601,1553,1551
58968903,1000,1000,1000,1000,78028776,1598,1599,1548,1551
58971402,1000,1000,1000,1000,78128736,1595,1596,1547,1552
58973901,1000,1000,1000,1000,78228696,1590,1589,1547,1553
58976400,1000,1000,1000,1000,78328656,1586,1585,1552,1556
58978899,1000,1000,1000,1000,78428616,1582,1581,1558,1559
58981398,1000,1000,1000,1000,78528576,1579,1578,1564,1564
58983897,1000,1000,1000,1000,78628536,1575,1575,1569,1569
58986396,1000,1000,1000,1000,78728496,1572,1573,1575,1573
58988895,1000,1000,1000,1000,78828456,1570,1571,1580,1576
58991394,1000,1000,1000,1000,78928416,1569,1569,1588,1571
58993893,1000,1000,1000,1000,79028376,1567,1570,1585,1574
58996392,1000,1000,1000,1000,79128336,1564,1568,1578,1575
58998891,1000,1000,1000,1000,79228296,1563,1566,1570,1575
59001390,1000,1000,1000,1000,79328256,1563,1564,1564,1573
59003889,1000,1000,1000,1000,79428216,1565,1565,1561,1568
59006388,1000,1000,1000,1000,79528176,1567,1566,1558,1563
59008887,1000,1000,1000,1000,79628969,1569,1569,1557,1558
59011386,1000,1000,1000,1000,79728929,1572,1571,1555,1554
59013885,1000,1000,1000,1000,79828889,1575,1575,1554,1551
59016384,1000,1000,1000,1000,79928849,1576,1577,1552,1549
59018883,1000,1000,1000,1000,80028809,1577,1577,1549,1547
59021382,1000,1000,1000,1000,80128769,1578,1578,1547,1547
59023881,1000,1000,1000,1000,80228729,1578,1579,1546,1546
59026380,1000,1000,1000,1000,80328689,1578,1579,1544,1545
59028879,1000,1000,1000,1000,80428649,1579,1580,1544,1545
59031378,1000,1000,1000,1000,80528609,1579,1580,1543,1544
59033877,1000,1000,1000,1000,80628569,1581,1582,1543,1543
59036376,1000,1000,1000,1000,80728529,1582,1583,1542,1542
59038875,1000,1000,1000,1000,80828489,1583,1584,1542,1541
59041374,1000,1000,1000,1000,80928449,1585,1585,1542,1543
59043873,1000,1000,1000,1000,81028409,1585,1585,1542,1542
59046372,1000,1000,1000,1000,81128369,1586,1585,1542,1543
59048871,1000,1000,1000,1000,81228329,1585,1584,1543,1544
59051370,1000,1000,1000,1000,81328289,1584,1582,1545,1548
59053869,1000,1000,1000,1000,81428249,1581,1579,1548,1550
59056368,1000,1000,1000,1000,81528209,1577,1576,1553,1555
59058867,1000,1000,1000,1000,81628169,1573,1573,1558,1561
59061366,1000,1000,1000,1000,81728962,1568,1567,1564,1566
59063865,1000,1000,1000,1000,81828922,1563,1563,1572,1573
59066364,1000,1000,1000,1000,81928882,1558,1557,1578,1579
59068863,1000,1000,1000,1000,82028842,1554,1553,1584,1585
59071362,1000,1000,1000,1000,82128802,1549,1547,1589,1589
59073861,1000,1000,1000,1000,82228762,1546,1545,1594,1593
59076360,1000,1000,1000,1000,82328722,1545,1545,1598,1596
59078859,1000,1000,1000,1000,82428682,1544,1545,1599,1597
59081358,1000,1000,1000,1000,82528642,1546,1547,1598,1597
59083857,1000,1000,1000,1000,82628602,1549,1550,1596,1596
59086356,1000,1000,1000,1000,82728562,1552,1553,1593,1593
59088855,1000,1000,1000,1000,82828522,1557,1558,1590,1590
59091354,1000,1000,1000,1000,82928482,1562,1562,1585,1586
59093853,1000,1000,1000,1000,83028442,1567,1566,1581,1582
59096352,1000,1000,1000,1000,83128402,1571,1570,1578,1578
59098851,1000,1000,1000,1000,83228362,1575,1575,1576,1575
59101350,1000,1000,1000,1000,83328322,1578,1577,1574,1573
59103849,1000,1000,1000,1000,83428282,1579,1579,1572,1571
59106348,1000,1000,1000,1000,83528242,1580,1579,1571,1571
59108847,1000,1000,1000,1000,83628202,1582,1580,1572,1572
59111346,1000,1000,1000,1000,83728162,1581,1579,1571,1572
59113845,1000,1000,1000,1000,83828955,1580,1579,1573,1573
59116344,1000,1000,1000,1000,83928915,1578,1578,1574,1574
59118843,1000,1000,1000,1000,84028875,1578,1578,1576,1576
59121342,1000,1000,1000,1000,84128835,1577,1578,1578,1578
59123841,1000,1000,1000,1000,84228795,1576,1577,1580,1579
59126340,1000,1000,1000,1000,84328755,1575,1575,1580,1579
59128839,1000,1000,1000,1000,84428715,1575,1576,1580,1580
59131338,1000,1000,1000,1000,84528675,1575,1575,1581,1581
59133837,1000,1000,1000,1000,84628635,1577,1577,1582,1582
59136336,1000,1000,1000,1000,84728595,1576,1577,1582,1581
59138835,1000,1000,1000,1000,84828555,1577,1578,1581,1581
59141334,1000,1000,1000,1000,84928515,1578,1578,1581,1581
59143833,1000,1000,1000,1000,85028475,1580,1580,1582,1582
59146332,1000,1000,1000,1000,85128435,1580,1580,1580,1580
59148831,1000,1000,1000,1000,85228395,1580,1579,1579,1579
59151330,1000,1000,1000,1000,85328355,1580,1580,1579,1579
59153829,1000,1000,1000,1000,85428315,1580,1580,1578,1578
59156328,1000,1000,1000,1000,85528275,1580,1580,1578,1578
59158827,1000,1000,1000,1000,85628235,1581,1581,1578,1579
59161326,1000,1000,1000,1000,85728195,1581,1581,1579,1579
59163825,1000,1000,1000,1000,85828155,1580,1580,1579,1578
59166324,1000,1000,1000,1000,85928948,1581,1581,1579,1579
59168823,1000,1000,1000,1000,86028908,1580,1581,1580,1580
59171322,1000,1000,1000,1000,86128868,1580,1580,1580,1580
59173821,1000,1000,1000,1000,86228828,1580,1580,1580,1580
59176320,1000,1000,1000,1000,86328788,1580,1580,1580,1581
59178819,1000,1000,1000,1000,86428748,1580,1580,1580,1580
59181318,1000,1000,1000,1000,86528708,1579,1579,1580,1580
59183817,1000,1000,1000,1000,86628668,1581,1580,1581,1581
59186316,1000,1000,1000,1000,86728628,1580,1581,1581,1581
59188815,1000,1000,1000,1000,86828588,1581,1581,1582,1582
59191314,1000,1000,1000,1000,86928548,1581,1581,1582,1582
59193813,1000,1000,1000,1000,87028508,1581,1581,1581,1581
59196312,1000,1000,1000,1000,87128468,1581,1580,1580,1581
59198811,1000,1000,1000,1000,87228428,1581,1581,1581,1581
59201310,1000,1000,1000,1000,87328388,1580,1580,1580,1580
59203809,1000,1000,1000,1000,87428348,1580,1580,1580,1580
59206308,1000,1000,1000,1000,87528308,1581,1581,1580,1581
59208807,1000,1000,1000,1000,87628268,1580,1581,1583,1576
59211306,1000,1000,1000,1000,87728228,1580,1583,1586,1572
59213805,1000,1000,1000,1000,87828188,1579,1582,1581,1573
59216304,1000,1000,1000,1000,87928981,1578,1581,1574,1572
59218803,1000,1000,1000,1000,88028941,1576,1578,1566,1570
59221302,1000,1000,1000,1000,88128901,1577,1579,1560,1568
59223801,1000,1000,1000,1000,88228861,1577,1578,1557,1563
59226300,1000,1000,1000,1000,88328821,1578,1576,1554,1558
59228799,1000,1000,1000,1000,88428781,1578,1578,1555,1555
59231298,1000,1000,1000,1000,88528741,1580,1579,1556,1555
59233797,1000,1000,1000,1000,88628701,1579,1578,1556,1553
59236296,1000,1000,1000,1000,88728661,1579,1579,1556,1554
59238795,1000,1000,1000,1000,88828621,1577,1578,1556,1554
59241294,1000,1000,1000,1000,88928581,1576,1577,1554,1553
59243793,1000,1000,1000,1000,89028541,1576,1578,1553,1553
59246292,1000,1000,1000,1000,89128501,1575,1578,1552,1552
59248791,1000,1000,1000,1000,89228461,1577,1579,1550,1551
59251290,1000,1000,1000,1000,89328421,1578,1578,1548,1548
59253789,1000,1000,1000,1000,89428381,1580,1581,1547,1546
59256288,1000,1000,1000,1000,89528341,1583,1584,1545,1545
59258787,1000,1000,1000,1000,89628301,1586,1587,1543,1543
59261286,1000,1000,1000,1000,89728261,1588,1588,1540,1540
59263785,1000,1000,1000,1000,89828221,1590,1590,1539,1540
59266284,1000,1000,1000,1000,89928181,1592,1592,1538,1539
59268783,1000,1000,1000,1000,90028974,1593,1593,1538,1539
59271282,1000,1000,1000,1000,90128934,1593,1593,1538,1541
59273781,1000,1000,1000,1000,90228894,1592,1591,1542,1544
59276280,1000,1000,1000,1000,90328854,1589,1586,1547,1550
59278779,1000,1000,1000,1000,90428814,1584,1580,1554,1557
59281278,1000,1000,1000,1000,90528774,1576,1572,1563,1566
59283777,1000,1000,1000,1000,90628734,1567,1563,1574,1577
59286276,1000,1000,1000,1000,90728694,1556,1554,1585,1586
59288775,1000,1000,1000,1000,90828654,1548,1547,1596,1596
59291274,1000,1000,1000,1000,90928614,1540,1541,1605,1603
59293773,1000,1000,1000,1000,91028574,1535,1538,1610,1608
59296272,1000,1000,1000,1000,91128534,1534,1537,1613,1611
59298771,1000,1000,1000,1000,91228494,1536,1539,1613,1610
59301270,1000,1000,1000,1000,91328454,1541,1543,1611,1609
59303769,1000,1000,1000,1000,91428414,1546,1547,1605,1604
59306268,1000,1000,1000,1000,91528374,1552,1553,1599,1599
59308767,1000,1000,1000,1000,91628334,1560,1560,1593,1592
59311266,1000,1000,1000,1000,91728294,1566,1565,1585,1584
59313765,1000,1000,1000,1000,91828254,1573,1571,1578,1579
59316264,1000,1000,1000,1000,91928214,1578,1575,1572,1573
59318763,1000,1000,1000,1000,92028174,1582,1580,1568,1570
59321262,1000,1000,1000,1000,92128967,1584,1582,1565,1567
59323761,1000,1000,1000,1000,92228927,1586,1584,1565,1566
59326260,1000,1000,1000,1000,92328887,1586,1585,1566,1566
59328759,1000,1000,1000,1000,92428847,1585,1584,1568,1568
59331258,1000,1000,1000,1000,92528807,1583,1583,1570,1570
59333757,1000,1000,1000,1000,92628767,1581,1581,1573,1573
59336256,1000,1000,1000,1000,92728727,1579,1579,1576,1576
59338755,1000,1000,1000,1000,92828687,1577,1578,1579,1579
59341254,1000,1000,1000,1000,92928647,1575,1576,1581,1581
59343753,1000,1000,1000,1000,93028607,1574,1575,1583,1583
59346252,1000,1000,1000,1000,93128567,1574,1575,1585,1584
59348751,1000,1000,1000,1000,93228527,1573,1575,1585,1585
59351250,1000,1000,1000,1000,93328487,1573,1574,1584,1584
59353749,1000,1000,1000,1000,93428447,1574,1575,1583,1583
59356248,1000,1000,1000,1000,93528407,1576,1576,1582,1583
59358747,1000,1000,1000,1000,93628367,1577,1577,1581,1582
59361246,1000,1000,1000,1000,93728327,1579,1579,1581,1581
59363745,1000,1000,1000,1000,93828287,1580,1580,1580,1580
59366244,1000,1000,1000,1000,93928247,1582,1581,1579,1579
59368743,1000,1000,1000,1000,94028207,1582,1581,1578,1579
59371242,1000,1000,1000,1000,94128167,1582,1582,1578,1578
59373741,1000,1000,1000,1000,94228960,1582,1581,1578,1578
59376240,1000,1000,1000,1000,94328920,1583,1582,1578,1579
59378739,1000,1000,1000,1000,94428880,1581,1581,1578,1578
59381238,1000,1000,1000,1000,94528840,1582,1583,1579,1579
59383737,1000,1000,1000,1000,94628800,1581,1582,1579,1579
59386236,1000,1000,1000,1000,94728760,1581,1581,1580,1580
59388735,1000,1000,1000,1000,94828720,1580,1580,1580,1580
59391234,1000,1000,1000,1000,94928680,1579,1579,1580,1580
59393733,1000,1000,1000,1000,95028640,1580,1581,1582,1582
59396232,1000,1000,1000,1000,95128600,1580,1580,1581,1581
59398731,1000,1000,1000,1000,95228560,1580,1580,1582,1582
59401230,1000,1000,1000,1000,95328520,1580,1581,1582,1583
59403729,1000,1000,1000,1000,95428480,1580,1581,1582,1582
59406228,1000,1000,1000,1000,95528440,1580,1581,1582,1581
59408727,1000,1000,1000,1000,95628400,1581,1583,1585,1578
59411226,1000,1000,1000,1000,95728360,1581,1581,1587,1573
59413725,1000,1000,1000,1000,95828320,1580,1580,1583,1574
59416224,1000,1000,1000,1000,95928280,1577,1576,1576,1575
59418723,1000,1000,1000,1000,96028240,1574,1573,1570,1575
59421222,1000,1000,1000,1000,96128200,1570,1570,1565,1573
59423721,1000,1000,1000,1000,96228160,1568,1568,1564,1570
59426220,1000,1000,1000,1000,96328953,1567,1567,1564,1568
59428719,1000,1000,1000,1000,96428913,1566,1566,1565,1566
59431218,1000,1000,1000,1000,96528873,1566,1567,1566,1565
59433717,1000,1000,1000,1000,96628833,1566,1566,1567,1564
59436216,1000,1000,1000,1000,96728793,1565,1565,1566,1564
59438715,1000,1000,1000,1000,96828753,1565,1565,1566,1564
59441214,1000,1000,1000,1000,96928713,1564,1563,1565,1564
59443713,1000,1000,1000,1000,97028673,1564,1563,1564,1564
59446212,1000,1000,1000,1000,97128633,1563,1562,1563,1563
59448711,1000,1000,1000,1000,97228593,1562,1562,1562,1563
59451210,1000,1000,1000,1000,97328553,1561,1561,1561,1562
59453709,1000,1000,1000,1000,97428513,1561,1561,1561,1561
59456208,1000,1000,1000,1000,97528473,1560,1560,1561,1560
59458707,1000,1000,1000,1000,97628433,1560,1560,1560,1560
59461206,1000,1000,1000,1000,97728393,1559,1559,1559,1559
59463705,1000,1000,1000,1000,97828353,1559,1559,1559,1558
59466204,1000,1000,1000,1000,97928313,1559,1559,1559,1558
59468703,1000,1000,1000,1000,98028273,1558,1558,1559,1557
59471202,1000,1000,1000,1000,98128233,1559,1558,1559,1558
59473701,1000,1000,1000,1000,98228193,1559,1559,1559,1558
59476200,1000,1000,1000,1000,98328986,1559,1558,1559,1557
59478699,1000,1000,1000,1000,98428946,1559,1558,1560,1558
59481198,1000,1000,1000,1000,98528906,1560,1559,1558,1562
59483697,1000,1000,1000,1000,98628866,1560,1560,1558,1563
59486196,1000,1000,1000,1000,98728826,1560,1561,1557,1564
59488695,1000,1000,1000,1000,98828786,1561,1561,1558,1563
59491194,1000,1000,1000,1000,98928746,1562,1561,1560,1562
59493693,1000,1000,1000,1000,99028706,1560,1560,1560,1559
59496192,1000,1000,1000,1000,99128666,1559,1559,1560,1557
59498691,1000,1000,1000,1000,99228626,1558,1557,1557,1557
59501190,1000,1000,1000,1000,99328586,1555,1554,1553,1555
59503689,1000,1000,1000,1000,99428546,1551,1551,1550,1551
59506188,1000,1000,1000,1000,99528506,1545,1545,1545,1545
59508687,1000,1000,1000,1000,99628466,1539,1539,1539,1539
59511186,1000,1000,1000,1000,99728426,1532,1532,1532,1531
59513685,1000,1000,1000,1000,99828386,1524,1524,1525,1524
59516184,1000,1000,1000,1000,99928346,1519,1520,1519,1520
59518683,1000,1000,1000,1000,100028306,1517,1519,1518,1519
59521182,1000,1000,1000,1000,100128266,1518,1520,1518,1521
59523681,1000,1000,1000,1000,100228226,1520,1520,1520,1521
59526180,1000,1000,1000,1000,100328186,1523,1523,1523,1524
59528679,1000,1000,1000,1000,100428979,1527,1528,1528,1528
59531178,1000,1000,1000,1000,100528939,1532,1532,1533,1532
59533677,1000,1000,1000,1000,100628899,1537,1536,1537,1536
59536176,1000,1000,1000,1000,100728859,1541,1539,1541,1539
59538675,1000,1000,1000,1000,100828819,1542,1542,1543,1541
59541174,1000,1000,1000,1000,100928779,1545,1544,1545,1544
59543673,1000,1000,1000,1000,101028739,1546,1545,1546,1545
59546172,1000,1000,1000,1000,101128699,1547,1546,1547,1546
59548671,1000,1000,1000,1000,101228659,1547,1547,1547,1547
59551170,1000,1000,1000,1000,101328619,1547,1547,1547,1547
59553669,1000,1000,1000,1000,101428579,1547,1548,1547,1547
59556168,1000,1000,1000,1000,101528539,1547,1547,1547,1548
59558667,1000,1000,1000,1000,101628499,1546,1546,1545,1546
59561166,1000,1000,1000,1000,101728459,1546,1546,1546,1546
59563665,1000,1000,1000,1000,101828419,1545,1545,1545,1545
59566164,1000,1000,1000,1000,101928379,1545,1545,1545,1545
59568663,1000,1000,1000,1000,102028339,1545,1545,1545,1544
59571162,1000,1000,1000,1000,102128299,1544,1545,1545,1545
59573661,1000,1000,1000,1000,102228259,1545,1545,1545,1545
59576160,1000,1000,1000,1000,102328219,1544,1544,1544,1545
59578659,1000,1000,1000,1000,102428179,1544,1545,1545,1544
59581158,1000,1000,1000,1000,102528972,1545,1545,1545,1545
59583657,1000,1000,1000,1000,102628932,1545,1544,1544,1545
59586156,1000,1000,1000,1000,102728892,1545,1545,1545,1545
59588655,1000,1000,1000,1000,102828852,1545,1545,1545,1545
59591154,1000,1000,1000,1000,102928812,1544,1544,1544,1544
59593653,1000,1000,1000,1000,103028772,1544,1544,1544,1544
59596152,1000,1000,1000,1000,103128732,1544,1544,1544,1544
59598651,1000,1000,1000,1000,103228692,1543,1543,1543,1543
59601150,1000,1000,1000,1000,103328652,1544,1544,1544,1544
59603649,1000,1000,1000,1000,103428612,1544,1544,1544,1544
59606148,1000,1000,1000,1000,103528572,1543,1543,1543,1544
59608647,1000,1000,1000,1000,103628532,1544,1545,1545,1544
59611146,1000,1000,1000,1000,103728492,1544,1543,1544,1544
59613645,1000,1000,1000,1000,103828452,1544,1544,1544,1543
59616144,1000,1000,1000,1000,103928412,1544,1543,1543,1543
59618643,1000,1000,1000,1000,104028372,1543,1544,1544,1543
59621142,1000,1000,1000,1000,104128332,1544,1544,1544,1544
59623641,1000,1000,1000,1000,104228292,1544,1544,1544,1544
59626140,1000,1000,1000,1000,104328252,1544,1544,1544,1544
59628639,1000,1000,1000,1000,104428212,1543,1544,1544,1543
59631138,1000,1000,1000,1000,104528172,1545,1544,1544,1545
59633637,1000,1000,1000,1000,104628965,1544,1543,1544,1544
59636136,1000,1000,1000,1000,104728925,1545,1544,1545,1544
59638635,1000,1000,1000,1000,104828885,1545,1545,1545,1545
59641134,1000,1000,1000,1000,104928845,1544,1544,1544,1545
59643633,1000,1000,1000,1000,105028805,1544,1544,1544,1544
59646132,1000,1000,1000,1000,105128765,1545,1545,1545,1545
59648631,1000,1000,1000,1000,105228725,1545,1544,1545,1544
59651130,1000,1000,1000,1000,105328685,1544,1544,1544,1544
59653629,1000,1000,1000,1000,105428645,1544,1544,1544,1544
59656128,1000,1000,1000,1000,105528605,1543,1543,1543,1544
59658627,1000,1000,1000,1000,105628565,1544,1544,1544,1544
59661126,1000,1000,1000,1000,105728525,1544,1544,1544,1544
59663625,1000,1000,1000,1000,105828485,1543,1544,1544,1543
59666124,1000,1000,1000,1000,105928445,1543,1543,1543,1543
59668623,1000,1000,1000,1000,106028405,1544,1544,1544,1544
59671122,1000,1000,1000,1000,106128365,1545,1544,1544,1545
59673621,1000,1000,1000,1000,106228325,1544,1543,1544,1544
59676120,1000,1000,1000,1000,106328285,1544,1544,1544,1545
59678619,1000,1000,1000,1000,106428245,1544,1544,1544,1544
59681118,1000,1000,1000,1000,106528205,1545,1545,1545,1545
59683617,1000,1000,1000,1000,106628165,1545,1545,1545,1545
59686116,1000,1000,1000,1000,106728958,1544,1544,1544,1544
59688615,1000,1000,1000,1000,106828918,1544,1544,1544,1543
59691114,1000,1000,1000,1000,106928878,1544,1544,1544,1544
59693613,1000,1000,1000,1000,107028838,1545,1545,1545,1545
59696112,1000,1000,1000,1000,107128798,1544,1544,1544,1545
59698611,1000,1000,1000,1000,107228758,1544,1544,1544,1544
59701110,1000,1000,1000,1000,107328718,1544,1544,1544,1544
59703609,1000,1000,1000,1000,107428678,1544,1545,1544,1544
59706108,1000,1000,1000,1000,107528638,1544,1545,1545,1545
59708607,1000,1000,1000,1000,107628598,1544,1544,1544,1544
59711106,1000,1000,1000,1000,107728558,1545,1544,1544,1545
59713605,1000,1000,1000,1000,107828518,1545,1545,1545,1545
59716104,1000,1000,1000,1000,107928478,1544,1544,1544,1544
59718603,1000,1000,1000,1000,108028438,1544,1545,1544,1544
59721102,1000,1000,1000,1000,108128398,1545,1544,1544,1545
59723601,1000,1000,1000,1000,108228358,1545,1545,1545,1545
59726100,1000,1000,1000,1000,108328318,1544,1544,1544,1544
59728599,1000,1000,1000,1000,108428278,1544,1544,1544,1544
59731098,1000,1000,1000,1000,108528238,1545,1544,1544,1545
59733597,1000,1000,1000,1000,108628198,1544,1544,1544,1544
59736096,1000,1000,1000,1000,108728158,1544,1544,1544,1544
59738595,1000,1000,1000,1000,108828951,1544,1544,1544,1544
59741094,1000,1000,1000,1000,108928911,1544,1544,1544,1544
59743593,1000,1000,1000,1000,109028871,1544,1544,1544,1543
59746092,1000,1000,1000,1000,109128831,1544,1544,1544,1544
59748591,1000,1000,1000,1000,109228791,1545,1546,1545,1546
59751090,1000,1000,1000,1000,109328751,1545,1545,1545,1546
59753589,1000,1000,1000,1000,109428711,1545,1545,1546,1545
59756088,1000,1000,1000,1000,109528671,1545,1545,1545,1545
59758587,1000,1000,1000,1000,109628631,1505,1492,1505,1492
59761086,1000,1000,1000,1000,109728591,1380,1316,1379,1318
59763585,1000,1000,1000,1000,109828551,1328,1237,1328,1237
59766084,1000,1000,1000,1000,109928511,1315,1212,1314,1214
59768583,1000,1000,1000,1000,110028471,1301,1189,1301,1189
59771082,1000,1000,1000,1000,110128431,1280,1150,1279,1151
59773581,1000,1000,1000,1000,110228391,1183,1150,1183,1150
59776080,1000,1000,1000,1000,110328351,1090,1150,1090,1150
59778579,1000,1000,1000,1000,110428311,1090,1150,1090,1150
59781078,1000,1000,1000,1000,110528271,1090,1150,1090,1150
59783577,1000,1000,1000,1000,110628231,1090,1150,1082,1161
59786076,1000,1000,1000,1000,110728191,1090,1150,1082,1161
59788575,1000,1000,1000,1000,110828984,1090,1150,1085,1157
59791074,1000,1000,1000,1000,110928944,1090,1150,1085,1157
59793573,1000,1000,1000,1000,111028904,1090,1150,1085,1157
59796072,1000,1000,1000,1000,111128864,1090,1150,1084,1158
59798571,1000,1000,1000,1000,111228824,1090,1150,1084,1158
59801070,1000,1000,1000,1000,111328784,1090,1150,1083,1159
59803569,1000,1000,1000,1000,111428744,1090,1150,1089,1151
59806068,1000,1000,1000,1000,111528704,1090,1150,1087,1153
59808567,1000,1000,1000,1000,111628664,1090,1150,1087,1154
59811066,1000,1000,1000,1000,111728624,1090,1150,1087,1154
59813565,1000,1000,1000,1000,111828584,1090,1150,1087,1154
59816064,1000,1000,1000,1000,111928544,1000,1000,1000,1000
59818563,1000,1000,1000,1000,112028504,1000,1000,1000,1000
59821062,1000,1000,1000,1000,112128464,1000,1000,1000,1000
59823561,1000,1000,1000,1000,112228424,1000,1000,1000,1000
59826060,1000,1000,1000,1000,112328384,1000,1000,1000,1000
59828559,1000,1000,1000,1000,112428344,1000,1000,1000,1000
59831058,1000,1000,1000,1000,112528304,1000,1000,1000,1000
59833557,1000,1000,1000,1000,112628264,1000,1000,1000,1000
59836056,1000,1000,1000,1000,112728224,1000,1000,1000,1000
59838555,1000,1000,1000,1000,112828184,1000,1000,1000,1000
59841054,1000,1000,1000,1000,112928977,1000,1000,1000,1000
59843553,1000,1000,1000,1000,113028937,1000,1000,1000,1000
59846052,1000,1000,1000,1000,113128897,1000,1000,1000,1000
59848551,1000,1000,1000,1000,113228857,1000,1000,1000,1000
59851050,1000,1000,1000,1000,113328817,1000,1000,1000,1000
59853549,1000,1000,1000,1000,113428777,1000,1000,1000,1000
59856048,1000,1000,1000,1000,113528737,1000,1000,1000,1000
59858547,1000,1000,1000,1000,113628697,1000,1000,1000,1000
59861046,1000,1000,1000,1000,113728657,1000,1000,1000,1000
59863545,1000,1000,1000,1000,113828617,1000,1000,1000,1000
59866044,1000,1000,1000,1000,113928577,1000,1000,1000,1000
59868543,1000,1000,1000,1000,114028537,1000,1000,1000,1000
59871042,1000,1000,1000,1000,114128497,1000,1000,1000,1000
59873541,1000,1000,1000,1000,114228457,1000,1000,1000,1000
59876040,1000,1000,1000,1000,114328417,1000,1000,1000,1000
59878539,1000,1000,1000,1000,114428377,1000,1000,1000,1000
59881038,1000,1000,1000,1000,114528337,1000,1000,1000,1000
59883537,1000,1000,1000,1000,114628297,1000,1000,1000,1000
59886036,1000,1000,1000,1000,114728257,1000,1000,1000,1000
59888535,1000,1000,1000,1000,114828217,1000,1000,1000,1000
59891034,1000,1000,1000,1000,114928177,1000,1000,1000,1000
59893533,1000,1000,1000,1000,115028970,1000,1000,1000,1000
59896032,1000,1000,1000,1000,115128930,1000,1000,1000,1000
59898531,1000,1000,1000,1000,115228890,1000,1000,1000,1000
59901030,1000,1000,1000,1000,115328850,1000,1000,1000,1000
59903529,1000,1000,1000,1000,115428810,1000,1000,1000,1000
59906028,1000,1000,1000,1000,115528770,1000,1000,1000,1000
59908527,1000,1000,1000,1000,115628730,1000,1000,1000,1000
59911026,1000,1000,1000,1000,115728690,1000,1000,1000,1000
59913525,1000,1000,1000,1000,115828650,1000,1000,1000,1000
59916024,1000,1000,1000,1000,115928610,1000,1000,1000,1000
59918523,1000,1000,1000,1000,116028570,1000,1000,1000,1000
59921022,1000,1000,1000,1000,116128530,1000,1000,1000,1000
59923521,1000,1000,1000,1000,116228490,1000,1000,1000,1000
59926020,1000,1000,1000,1000,116328450,1000,1000,1000,1000
59928519,1000,1000,1000,1000,116428410,1000,1000,1000,1000
59931018,1000,1000,1000,1000,116528370,1000,1000,1000,1000
59933517,1000,1000,1000,1000,116628330,1000,1000,1000,1000
59936016,1000,1000,1000,1000,116728290,1000,1000,1000,1000
59938515,1000,1000,1000,1000,116828250,1000,1000,1000,1000
59941014,1000,1000,1000,1000,116928210,1000,1000,1000,1000
59943513,1000,1000,1000,1000,117028170,1000,1000,1000,1000
59946012,1000,1000,1000,1000,117128963,1000,1000,1000,1000
59948511,1000,1000,1000,1000,117228923,1000,1000,1000,1000
59951010,1000,1000,1000,1000,117328883,1000,1000,1000,1000
59953509,1000,1000,1000,1000,117428843,1000,1000,1000,1000
59956008,1000,1000,1000,1000,117528803,1000,1000,1000,1000
59958507,1000,1000,1000,1000,117628763,1000,1000,1000,1000
59961006,1000,1000,1000,1000,117728723,1000,1000,1000,1000
59963505,1000,1000,1000,1000,117828683,1000,1000,1000,1000
59966004,1000,1000,1000,1000,117928643,1000,1000,1000,1000
59968503,1000,1000,1000,1000,118028603,1000,1000,1000,1000
59971002,1000,1000,1000,1000,118128563,1000,1000,1000,1000
59973501,1000,1000,1000,1000,118228523,1000,1000,1000,1000
59976000,1000,1000,1000,1000,118328483,1000,1000,1000,1000
59978499,1000,1000,1000,1000,118428443,1000,1000,1000,1000
59980998,1000,1000,1000,1000,118528403,1000,1000,1000,1000
59983497,1000,1000,1000,1000,118628363,1000,1000,1000,1000
59985996,1000,1000,1000,1000,118728323,1000,1000,1000,1000
59988495,1000,1000,1000,1000,118828283,1000,1000,1000,1000
59990994,1000,1000,1000,1000,118928243,1000,1000,1000,1000
59993493,1000,1000,1000,1000,119028203,1000,1000,1000,1000
59995992,1000,1000,1000,1000,119128163,1000,1000,1000,1000
59998491,1000,1000,1000,1000,119228956,1000,1000,1000,1000
60000990,1000,1000,1000,1000,119328916,1000,1000,1000,1000
60003489,1000,1000,1000,1000,119428876,1000,1000,1000,1000
60005988,1000,1000,1000,1000,119528836,1000,1000,1000,1000
60008487,1000,1000,1000,1000,119628796,1000,1000,1000,1000
60010986,1000,1000,1000,1000,119728756,1000,1000,1000,1000
60013485,1000,1000,1000,1000,119828716,1000,1000,1000,1000
60015984,1000,1000,1000,1000,119928676,1000,1000,1000,1000
60018483,1000,1000,1000,1000,120028636,1000,1000,1000,1000
60020982,1000,1000,1000,1000,120128596,1000,1000,1000,1000
60023481,1000,1000,1000,1000,120228556,1000,1000,1000,1000
60025980,1000,1000,1000,1000,120328516,1000,1000,1000,1000
60028479,1000,1000,1000,1000,120428476,1000,1000,1000,1000
60030978,1000,1000,1000,1000,120528436,1000,1000,1000,1000
60033477,1000,1000,1000,1000,120628396,1000,1000,1000,1000
60035976,1000,1000,1000,1000,120728356,1000,1000,1000,1000
60038475,1000,1000,1000,1000,120828316,1000,1000,1000,1000
60040974,1000,1000,1000,1000,120928276,1000,1000,1000,1000
60043473,1000,1000,1000,1000,121028236,1000,1000,1000,1000
60045972,1000,1000,1000,1000,121128196,1000,1000,1000,1000
60048471,1000,1000,1000,1000,121228156,1000,1000,1000,1000
60050970,1000,1000,1000,1000,121328949,1000,1000,1000,1000
60053469,1000,1000,1000,1000,121428909,1000,1000,1000,1000
60055968,1000,1000,1000,1000,121528869,1000,1000,1000,1000
60058467,1000,1000,1000,1000,121628829,1000,1000,1000,1000
60060966,1000,1000,1000,1000,121728789,1000,1000,1000,1000
60063465,1000,1000,1000,1000,121828749,1000,1000,1000,1000
60065964,1000,1000,1000,1000,121928709,1000,1000,1000,1000
60068463,1000,1000,1000,1000,122028669,1000,1000,1000,1000
60070962,1000,1000,1000,1000,122128629,1000,1000,1000,1000
60073461,1000,1000,1000,1000,122228589,1000,1000,1000,1000
60075960,1000,1000,1000,1000,122328549,1000,1000,1000,1000
60078459,1000,1000,1000,1000,122428509,1000,1000,1000,1000
60080958,1000,1000,1000,1000,122528469,1000,1000,1000,1000
60083457,1000,1000,1000,1000,122628429,1000,1000,1000,1000
60085956,1000,1000,1000,1000,122728389,1000,1000,1000,1000
60088455,1000,1000,1000,1000,122828349,1000,1000,1000,1000
60090954,1000,1000,1000,1000,122928309,1000,1000,1000,1000
60093453,1000,1000,1000,1000,123028269,1000,1000,1000,1000
60095952,1000,1000,1000,1000,123128229,1000,1000,1000,1000
60098451,1000,1000,1000,1000,123228189,1000,1000,1000,1000
60100950,1000,1000,1000,1000,123328982,1000,1000,1000,1000
60103449,1000,1000,1000,1000,123428942,1000,1000,1000,1000
60105948,1000,1000,1000,1000,123528902,1000,1000,1000,1000
60108447,1000,1000,1000,1000,123628862,1000,1000,1000,1000
60110946,1000,1000,1000,1000,123728822,1000,1000,1000,1000
60113445,1000,1000,1000,1000,123828782,1000,1000,1000,1000
60115944,1000,1000,1000,1000,123928742,1000,1000,1000,1000
60118443,1000,1000,1000,1000,124028702,1000,1000,1000,1000
60120942,1000,1000,1000,1000,124128662,1000,1000,1000,1000
60123441,1000,1000,1000,1000,124228622,1000,1000,1000,1000
60125940,1000,1000,1000,1000,124328582,1000,1000,1000,1000
60128439,1000,1000,1000,1000,124428542,1000,1000,1000,1000
60130938,1000,1000,1000,1000,124528502,1000,1000,1000,1000
60133437,1000,1000,1000,1000,124628462,1000,1000,1000,1000
60135936,1000,1000,1000,1000,124728422,1000,1000,1000,1000
60138435,1000,1000,1000,1000,124828382,1000,1000,1000,1000
60140934,1000,1000,1000,1000,124928342,1000,1000,1000,1000
60143433,1000,1000,1000,1000,125028302,1000,1000,1000,1000
60145932,1000,1000,1000,1000,125128262,1000,1000,1000,1000
60148431,1000,1000,1000,1000,125228222,1000,1000,1000,1000
60150930,1000,1000,1000,1000,125328182,1000,1000,1000,1000
60153429,1000,1000,1000,1000,125428975,1000,1000,1000,1000
60155928,1000,1000,1000,1000,125528935,1000,1000,1000,1000
60158427,1000,1000,1000,1000,125628895,1000,1000,1000,1000
60160926,1000,1000,1000,1000,125728855,1000,1000,1000,1000
60163425,1000,1000,1000,1000,125828815,1000,1000,1000,1000
60165924,1000,1000,1000,1000,125928775,1000,1000,1000,1000
60168423,1000,1000,1000,1000,126028735,1000,1000,1000,1000
60170922,1000,1000,1000,1000,126128695,1000,1000,1000,1000
60173421,1000,1000,1000,1000,126228655,1000,1000,1000,1000
60175920,1000,1000,1000,1000,126328615,1000,1000,1000,1000
60178419,1000,1000,1000,1000,126428575,1000,1000,1000,1000
60180918,1000,1000,1000,1000,126528535,1000,1000,1000,1000
60183417,1000,1000,1000,1000,126628495,1000,1000,1000,1000
60185916,1000,1000,1000,1000,126728455,1000,1000,1000,1000
60188415,1000,1000,1000,1000,126828415,1000,1000,1000,1000
60190914,1000,1000,1000,1000,,,,,
60193413,1000,1000,1000,1000,,,,,
60195912,1000,1000,1000,1000,,,,,
60198411,1000,1000,1000,1000,,,,,
60200910,1000,1000,1000,1000,,,,,
60203409,1000,1000,1000,1000,,,,,
60205908,1000,1000,1000,1000,,,,,
60208407,1000,1000,1000,1000,,,,,
60210906,1000,1000,1000,1000,,,,,
60213405,1000,1000,1000,1000,,,,,
60215904,1000,1000,1000,1000,,,,,
60218403,1000,1000,1000,1000,,,,,
60220902,1000,1000,1000,1000,,,,,
60223401,1000,1000,1000,1000,,,,,
60225900,1000,1000,1000,1000,,,,,
60228399,1000,1000,1000,1000,,,,,
60230898,1000,1000,1000,1000,,,,,
60233397,1000,1000,1000,1000,,,,,
60235896,1000,1000,1000,1000,,,,,
60238395,1000,1000,1000,1000,,,,,
60240894,1000,1000,1000,1000,,,,,
60243393,1000,1000,1000,1000,,,,,
60245892,1000,1000,1000,1000,,,,,
60248391,1000,1000,1000,1000,,,,,
60250890,1000,1000,1000,1000,,,,,
60253389,1000,1000,1000,1000,,,,,
60255888,1000,1000,1000,1000,,,,,
60258387,1000,1000,1000,1000,,,,,
60260886,1000,1000,1000,1000,,,,,
60263385,1000,1000,1000,1000,,,,,
60265884,1000,1000,1000,1000,,,,,
60268383,1000,1000,1000,1000,,,,,
60270882,1000,1000,1000,1000,,,,,
60273381,1000,1000,1000,1000,,,,,
60275880,1000,1000,1000,1000,,,,,
60278379,1000,1000,1000,1000,,,,,
60280878,1000,1000,1000,1000,,,,,
60283377,1000,1000,1000,1000,,,,,
60285876,1000,1000,1000,1000,,,,,
60288375,1000,1000,1000,1000,,,,,
60290874,1000,1000,1000,1000,,,,,
60293373,1000,1000,1000,1000,,,,,
60295872,1000,1000,1000,1000,,,,,
60298371,1000,1000,1000,1000,,,,,
60300870,1000,1000,1000,1000,,,,,
60303369,1000,1000,1000,1000,,,,,
60305868,1000,1000,1000,1000,,,,,
60308367,1000,1000,1000,1000,,,,,
60310866,1000,1000,1000,1000,,,,,
60313365,1000,1000,1000,1000,,,,,
60315864,1000,1000,1000,1000,,,,,
60318363,1000,1000,1000,1000,,,,,
60320862,1000,1000,1000,1000,,,,,
60323361,1000,1000,1000,1000,,,,,
60325860,1000,1000,1000,1000,,,,,
60328359,1000,1000,1000,1000,,,,,
60330858,1000,1000,1000,1000,,,,,
60333357,1000,1000,1000,1000,,,,,
60335856,1000,1000,1000,1000,,,,,
60338355,1000,1000,1000,1000,,,,,
60340854,1000,1000,1000,1000,,,,,
60343353,1000,1000,1000,1000,,,,,
60345852,1000,1000,1000,1000,,,,,
60348351,1000,1000,1000,1000,,,,,
60350850,1000,1000,1000,1000,,,,,
60353349,1000,1000,1000,1000,,,,,
60355848,1000,1000,1000,1000,,,,,
60358347,1000,1000,1000,1000,,,,,
60360846,1000,1000,1000,1000,,,,,
60363345,1000,1000,1000,1000,,,,,
60365844,1000,1000,1000,1000,,,,,
60368343,1000,1000,1000,1000,,,,,
60370842,1000,1000,1000,1000,,,,,
60373341,1000,1000,1000,1000,,,,,
60375840,1000,1000,1000,1000,,,,,
60378339,1000,1000,1000,1000,,,,,
60380838,1000,1000,1000,1000,,,,,
60383337,1000,1000,1000,1000,,,,,
60385836,1000,1000,1000,1000,,,,,
60388335,1000,1000,1000,1000,,,,,
60390834,1000,1000,1000,1000,,,,,
60393333,1000,1000,1000,1000,,,,,
60395832,1000,1000,1000,1000,,,,,
60398331,1000,1000,1000,1000,,,,,
60400830,1000,1000,1000,1000,,,,,
60403329,1000,1000,1000,1000,,,,,
60405828,1000,1000,1000,1000,,,,,
60408327,1000,1000,1000,1000,,,,,
60410826,1000,1000,1000,1000,,,,,
60413325,1000,1000,1000,1000,,,,,
60415824,1000,1000,1000,1000,,,,,
60418323,1000,1000,1000,1000,,,,,
60420822,1000,1000,1000,1000,,,,,
60423321,1000,1000,1000,1000,,,,,
60425820,1000,1000,1000,1000,,,,,
60428319,1000,1000,1000,1000,,,,,
60430818,1000,1000,1000,1000,,,,,
60433317,1000,1000,1000,1000,,,,,
60435816,1000,1000,1000,1000,,,,,
60438315,1000,1000,1000,1000,,,,,
60440814,1000,1000,1000,1000,,,,,
60443313,1000,1000,1000,1000,,,,,
60445812,1000,1000,1000,1000,,,,,
60448311,1000,1000,1000,1000,,,,,
60450810,1000,1000,1000,1000,,,,,
60453309,1000,1000,1000,1000,,,,,
60455808,1000,1000,1000,1000,,,,,
60458307,1000,1000,1000,1000,,,,,
60460806,1000,1000,1000,1000,,,,,
60463305,1000,1000,1000,1000,,,,,
60465804,1000,1000,1000,1000,,,,,
60468303,1000,1000,1000,1000,,,,,
60470802,1000,1000,1000,1000,,,,,
60473301,1000,1000,1000,1000,,,,,
60475800,1000,1000,1000,1000,,,,,
60478299,1000,1000,1000,1000,,,,,
60480798,1000,1000,1000,1000,,,,,
60483297,1000,1000,1000,1000,,,,,
60485796,1000,1000,1000,1000,,,,,
60488295,1001,1001,1001,1001,,,,,
60490794,1002,1002,1002,1002,,,,,
60493293,1003,1003,1003,1003,,,,,
60495792,1003,1003,1003,1003,,,,,
60498291,1004,1004,1004,1004,,,,,
60500790,1005,1005,1005,1005,,,,,
60503289,1006,1006,1006,1006,,,,,
60505788,1006,1006,1006,1006,,,,,
60508287,1007,1007,1007,1007,,,,,
60510786,1008,1008,1008,1008,,,,,
60513285,1009,1009,1009,1009,,,,,
60515784,1009,1009,1009,1009,,,,,
60518283,1010,1010,1010,1010,,,,,
60520782,1011,1011,1011,1011,,,,,
60523281,1012,1012,1012,1012,,,,,
60525780,1012,1012,1012,1012,,,,,
60528279,1013,1013,1013,1013,,,,,
60530778,1014,1014,1014,1014,,,,,
60533277,1015,1015,1015,1015,,,,,
60535776,1015,1015,1015,1015,,,,,
60538275,1016,1016,1016,1016,,,,,
60540774,1017,1017,1017,1017,,,,,
60543273,1018,1018,1018,1018,,,,,
60545772,1018,1018,1018,1018,,,,,
60548271,1019,1019,1019,1019,,,,,
60550770,1020,1020,1020,1020,,,,,
60553269,1021,1021,1021,1021,,,,,
60555768,1021,1021,1021,1021,,,,,
60558267,1022,1022,1022,1022,,,,,
60560766,1023,1023,1023,1023,,,,,
60563265,1024,1024,1024,1024,,,,,
60565764,1024,1024,1024,1024,,,,,
60568263,1025,1025,1025,1025,,,,,
60570762,1026,1026,1026,1026,,,,,
60573261,1027,1027,1027,1027,,,,,
60575760,1027,1027,1027,1027,,,,,
60578259,1028,1028,1028,1028,,,,,
60580758,1029,1029,1029,1029,,,,,
60583257,1030,1030,1030,1030,,,,,
60585756,1030,1030,1030,1030,,,,,
60588255,1031,1031,1031,1031,,,,,
60590754,1032,1032,1032,1032,,,,,
60593253,1033,1033,1033,1033,,,,,
60595752,1033,1033,1033,1033,,,,,
60598251,1034,1034,1034,1034,,,,,
60600750,1035,1035,1035,1035,,,,,
60603249,1036,1036,1036,1036,,,,,
60605748,1036,1036,1036,1036,,,,,
60608247,1037,1037,1037,1037,,,,,
60610746,1038,1038,1038,1038,,,,,
60613245,1039,1039,1039,1039,,,,,
60615744,1039,1039,1039,1039,,,,,
60618243,1040,1040,1040,1040,,,,,
60620742,1041,1041,1041,1041,,,,,
60623241,1042,1042,1042,1042,,,,,
60625740,1042,1042,1042,1042,,,,,
60628239,1043,1043,1043,1043,,,,,
60630738,1044,1044,1044,1044,,,,,
60633237,1045,1045,1045,1045,,,,,
60635736,1045,1045,1045,1045,,,,,
60638235,1046,1046,1046,1046,,,,,
60640734,1047,1047,1047,1047,,,,,
60643233,1048,1048,1048,1048,,,,,
60645732,1048,1048,1048,1048,,,,,
60648231,1049,1049,1049,1049,,,,,
60650730,1050,1050,1050,1050,,,,,
60653229,1051,1051,1051,1051,,,,,
60655728,1051,1051,1051,1051,,,,,
60658227,1052,1052,1052,1052,,,,,
60660726,1053,1053,1053,1053,,,,,
60663225,1054,1054,1054,1054,,,,,
60665724,1054,1054,1054,1054,,,,,
60668223,1055,1055,1055,1055,,,,,
60670722,1056,1056,1056,1056,,,,,
60673221,1057,1057,1057,1057,,,,,
60675720,1057,1057,1057,1057,,,,,
60678219,1058,1058,1058,1058,,,,,
60680718,1059,1059,1059,1059,,,,,
60683217,1060,1060,1060,1060,,,,,
60685716,1060,1060,1060,1060,,,,,
60688215,1061,1061,1061,1061,,,,,
60690714,1062,1062,1062,1062,,,,,
60693213,1063,1063,1063,1063,,,,,
60695712,1063,1063,1063,1063,,,,,
60698211,1064,1064,1064,1064,,,,,
60700710,1065,1065,1065,1065,,,,,
60703209,1066,1066,1066,1066,,,,,
60705708,1066,1066,1066,1066,,,,,
60708207,1067,1067,1067,1067,,,,,
60710706,1068,1068,1068,1068,,,,,
60713205,1069,1069,1069,1069,,,,,
60715704,1069,1069,1069,1069,,,,,
60718203,1070,1070,1070,1070,,,,,
60720702,1071,1071,1071,1071,,,,,
60723201,1072,1072,1072,1072,,,,,
60725700,1072,1072,1072,1072,,,,,
60728199,1073,1073,1073,1073,,,,,
60730698,1074,1074,1074,1074,,,,,
60733197,1075,1075,1075,1075,,,,,
60735696,1075,1075,1075,1075,,,,,
60738195,1076,1076,1076,1076,,,,,
60740694,1077,1077,1077,1077,,,,,
60743193,1078,1078,1078,1078,,,,,
60745692,1078,1078,1078,1078,,,,,
60748191,1079,1079,1079,1079,,,,,
60750690,1080,1080,1080,1080,,,,,
60753189,1081,1081,1081,1081,,,,,
60755688,1081,1081,1081,1081,,,,,
60758187,1082,1082,1082,1082,,,,,
60760686,1083,1083,1083,1083,,,,,
60763185,1084,1084,1084,1084,,,,,
60765684,1084,1084,1084,1084,,,,,
60768183,1085,1085,1085,1085,,,,,
60770682,1086,1086,1086,1086,,,,,
60773181,1087,1087,1087,1087,,,,,
60775680,1087,1087,1087,1087,,,,,
60778179,1088,1088,1088,1088,,,,,
60780678,1089,1089,1089,1089,,,,,
60783177,1090,1090,1090,1090,,,,,
60785676,1090,1090,1090,1090,,,,,
60788175,1091,1091,1091,1091,,,,,
60790674,1092,1092,1092,1092,,,,,
60793173,1093,1093,1093,1093,,,,,
60795672,1093,1093,1093,1093,,,,,
60798171,1094,1094,1094,1094,,,,,
60800670,1095,1095,1095,1095,,,,,
60803169,1096,1096,1096,1096,,,,,
60805668,1096,1096,1096,1096,,,,,
60808167,1097,1097,1097,1097,,,,,
60810666,1098,1098,1098,1098,,,,,
60813165,1099,1099,1099,1099,,,,,
60815664,1099,1099,1099,1099,,,,,
60818163,1100,1100,1100,1100,,,,,
60820662,1101,1101,1101,1101,,,,,
60823161,1101,1101,1101,1101,,,,,
60825660,1102,1102,1102,1102,,,,,
60828159,1103,1103,1103,1103,,,,,
60830658,1104,1104,1104,1104,,,,,
60833157,1104,1104,1104,1104,,,,,
60835656,1105,1105,1105,1105,,,,,
60838155,1106,1106,1106,1106,,,,,
60840654,1107,1107,1107,1107,,,,,
60843986,1107,1107,1107,1107,,,,,
60846485,1108,1108,1108,1108,,,,,
60848984,1109,1109,1109,1109,,,,,
60851483,1110,1110,1110,1110,,,,,
60853982,1110,1110,1110,1110,,,,,
60856481,1111,1111,1111,1111,,,,,
60858980,1112,1112,1112,1112,,,,,
60861479,1113,1113,1113,1113,,,,,
60863978,1113,1113,1113,1113,,,,,
60866477,1114,1114,1114,1114,,,,,
60868976,1115,1115,1115,1115,,,,,
60871475,1116,1116,1116,1116,,,,,
60873974,1116,1116,1116,1116,,,,,
60876473,1117,1117,1117,1117,,,,,
60878972,1118,1118,1118,1118,,,,,
60881471,1119,1119,1119,1119,,,,,
60883970,1119,1119,1119,1119,,,,,
60886469,1120,1120,1120,1120,,,,,
60888968,1121,1121,1121,1121,,,,,
60891467,1122,1122,1122,1122,,,,,
60893966,1122,1122,1122,1122,,,,,
60896465,1123,1123,1123,1123,,,,,
60898964,1124,1124,1124,1124,,,,,
60901463,1125,1125,1125,1125,,,,,
60903962,1125,1125,1125,1125,,,,,
60906461,1126,1126,1126,1126,,,,,
60908960,1127,1127,1127,1127,,,,,
60911459,1128,1128,1128,1128,,,,,
60913958,1128,1128,1128,1128,,,,,
60916457,1129,1129,1129,1129,,,,,
60918956,1130,1130,1130,1130,,,,,
60921455,1131,1131,1131,1131,,,,,
60923954,1131,1131,1131,1131,,,,,
60926453,1132,1132,1132,1132,,,,,
60928952,1133,1133,1133,1133,,,,,
60931451,1134,1134,1134,1134,,,,,
60933950,1134,1134,1134,1134,,,,,
60936449,1135,1135,1135,1135,,,,,
60938948,1136,1136,1136,1136,,,,,
60941447,1137,1137,1137,1137,,,,,
60943946,1137,1137,1137,1137,,,,,
60946445,1138,1138,1138,1138,,,,,
60948944,1139,1139,1139,1139,,,,,
60951443,1140,1140,1140,1140,,,,,
60953942,1140,1140,1140,1140,,,,,
60956441,1141,1141,1141,1141,,,,,
60958940,1142,1142,1142,1142,,,,,
60961439,1143,1143,1143,1143,,,,,
60963938,1143,1143,1143,1143,,,,,
60966437,1144,1144,1144,1144,,,,,
60968936,1145,1145,1145,1145,,,,,
60971435,1146,1146,1146,1146,,,,,
60973934,1146,1146,1146,1146,,,,,
60976433,1147,1147,1147,1147,,,,,
60978932,1148,1148,1148,1148,,,,,
60981431,1149,1149,1149,1149,,,,,
60983930,1149,1149,1149,1149,,,,,
60986429,1150,1150,1150,1150,,,,,
60988928,1162,1153,1154,1162,,,,,
60991427,1170,1161,1162,1170,,,,,
60993926,1178,1169,1170,1178,,,,,
60996425,1185,1177,1177,1186,,,,,
60998924,1193,1184,1185,1193,,,,,
61001423,1200,1192,1193,1201,,,,,
61003922,1208,1199,1200,1208,,,,,
61006421,1215,1207,1207,1215,,,,,
61008920,1222,1214,1215,1222,,,,,
61011419,1229,1221,1222,1229,,,,,
61013918,1236,1228,1229,1236,,,,,
61016417,1243,1235,1236,1243,,,,,
61018916,1249,1242,1242,1250,,,,,
61021415,1256,1248,1249,1256,,,,,
61023914,1263,1255,1256,1263,,,,,
61026413,1269,1261,1262,1269,,,,,
61028912,1275,1268,1269,1276,,,,,
61031411,1282,1274,1275,1282,,,,,
61033910,1288,1281,1281,1288,,,,,
61036409,1294,1287,1287,1294,,,,,
61038908,1300,1293,1293,1300,,,,,
61041407,1306,1299,1300,1306,,,,,
61043906,1312,1305,1306,1312,,,,,
61046405,1318,1311,1311,1318,,,,,
61048904,1324,1317,1317,1324,,,,,
61051403,1329,1323,1323,1330,,,,,
61053902,1335,1328,1329,1335,,,,,
61056401,1341,1334,1335,1341,,,,,
61058900,1346,1340,1340,1347,,,,,
61061399,1352,1345,1346,1352,,,,,
61063898,1357,1351,1351,1358,,,,,
61066397,1363,1356,1357,1363,,,,,
61068896,1368,1362,1362,1369,,,,,
61071395,1374,1367,1368,1374,,,,,
61073894,1379,1372,1373,1379,,,,,
61076393,1384,1378,1378,1384,,,,,
61078892,1389,1383,1383,1390,,,,,
61081391,1395,1388,1389,1395,,,,,
61083890,1400,1393,1394,1400,,,,,
61086389,1405,1398,1399,1405,,,,,
61088888,1410,1404,1404,1410,,,,,
61091387,1415,1409,1409,1415,,,,,
61093886,1420,1414,1414,1420,,,,,
61096385,1425,1419,1419,1425,,,,,
61098884,1430,1423,1424,1430,,,,,
61101383,1435,1428,1429,1435,,,,,
61103882,1439,1433,1434,1440,,,,,
61106381,1444,1438,1438,1445,,,,,
61108880,1449,1443,1443,1449,,,,,
61111379,1454,1448,1448,1454,,,,,
61113878,1458,1452,1453,1459,,,,,
61116377,1463,1457,1457,1464,,,,,
61118876,1468,1462,1462,1468,,,,,
61121375,1472,1466,1467,1473,,,,,
61123874,1477,1471,1471,1477,,,,,
61126373,1482,1476,1476,1482,,,,,
61128872,1486,1480,1480,1486,,,,,
61131371,1491,1485,1485,1491,,,,,
61133870,1495,1489,1489,1495,,,,,
61136369,1500,1494,1494,1500,,,,,
61138868,1504,1498,1498,1504,,,,,
61141367,1508,1502,1503,1509,,,,,
61143866,1513,1507,1507,1513,,,,,
61146365,1517,1511,1511,1517,,,,,
61148864,1521,1516,1516,1522,,,,,
61151363,1526,1520,1520,1526,,,,,
61153862,1530,1524,1524,1530,,,,,
61156361,1534,1528,1529,1535,,,,,
61158860,1538,1533,1533,1539,,,,,
61161359,1543,1537,1537,1543,,,,,
61163858,1547,1541,1541,1547,,,,,
61166357,1551,1545,1545,1551,,,,,
61168856,1555,1549,1550,1555,,,,,
61171355,1559,1554,1554,1560,,,,,
61173854,1563,1558,1558,1564,,,,,
61176353,1567,1562,1562,1568,,,,,
61178852,1571,1566,1566,1572,,,,,
61181351,1575,1570,1570,1576,,,,,
61183850,1579,1574,1574,1580,,,,,
61186349,1583,1578,1578,1584,,,,,
61188848,1587,1582,1582,1588,,,,,
61191347,1591,1586,1586,1592,,,,,
61193846,1595,1590,1590,1596,,,,,
61196345,1599,1594,1594,1600,,,,,
61198844,1603,1598,1598,1603,,,,,
61201343,1607,1602,1602,1607,,,,,
61203842,1611,1605,1606,1611,,,,,
61206341,1615,1609,1610,1615,,,,,
61208840,1619,1613,1613,1619,,,,,
61211339,1622,1617,1617,1623,,,,,
61213838,1626,1621,1621,1627,,,,,
61216337,1630,1625,1625,1630,,,,,
61218836,1634,1628,1629,1634,,,,,
61221335,1637,1632,1632,1638,,,,,
61223834,1641,1636,1636,1642,,,,,
61226333,1645,1640,1640,1645,,,,,
61228832,1649,1643,1644,1649,,,,,
61231331,1652,1647,1647,1653,,,,,
61233830,1656,1651,1651,1656,,,,,
61236329,1660,1654,1655,1660,,,,,
61238828,1663,1658,1658,1664,,,,,
61241327,1667,1662,1662,1667,,,,,
61243826,1671,1665,1665,1671,,,,,
61246325,1674,1669,1669,1675,,,,,
61248824,1678,1672,1673,1678,,,,,
61251323,1681,1676,1676,1682,,,,,
61253822,1685,1680,1680,1685,,,,,
61256321,1689,1683,1683,1689,,,,,
61258820,1692,1687,1687,1692,,,,,
61261319,1696,1690,1690,1696,,,,,
61263818,1699,1694,1694,1699,,,,,
61266317,1703,1697,1698,1703,,,,,
61268816,1706,1701,1701,1706,,,,,
61271315,1710,1704,1704,1710,,,,,
61273814,1713,1708,1708,1713,,,,,
61276313,1716,1711,1711,1717,,,,,
61278812,1720,1714,1715,1720,,,,,
61281311,1723,1718,1718,1724,,,,,
61283810,1727,1721,1722,1727,,,,,
61286309,1730,1725,1725,1730,,,,,
61288808,1734,1728,1728,1734,,,,,
61291307,1737,1731,1732,1737,,,,,
61293806,1740,1735,1735,1740,,,,,
61296305,1744,1738,1739,1744,,,,,
61298804,1747,1742,1742,1747,,,,,
61301303,1750,1745,1745,1751,,,,,
61303802,1754,1748,1749,1754,,,,,
61306301,1757,1752,1752,1757,,,,,
61308800,1760,1755,1755,1760,,,,,
61311299,1764,1758,1758,1764,,,,,
61313798,1767,1761,1762,1767,,,,,
61316297,1770,1765,1765,1770,,,,,
61318796,1773,1768,1768,1774,,,,,
61321295,1777,1771,1771,1777,,,,,
61323794,1780,1774,1775,1780,,,,,
61326293,1783,1778,1778,1783,,,,,
61328792,1786,1781,1781,1786,,,,,
61331291,1789,1784,1784,1790,,,,,
61333790,1793,1787,1788,1793,,,,,
61336289,1796,1790,1791,1796,,,,,
61338788,1799,1794,1794,1799,,,,,
61341287,1802,1797,1797,1802,,,,,
61343786,1805,1800,1800,1806,,,,,
61346285,1808,1803,1803,1809,,,,,
61348784,1812,1806,1807,1812,,,,,
61351283,1815,1809,1810,1815,,,,,
61353782,1818,1813,1813,1818,,,,,
61356281,1821,1816,1816,1821,,,,,
61358780,1824,1819,1819,1824,,,,,
61361279,1827,1822,1822,1827,,,,,
61363778,1830,1825,1825,1830,,,,,
61366277,1833,1828,1828,1833,,,,,
61368776,1836,1831,1831,1836,,,,,
61371275,1839,1834,1835,1839,,,,,
61373774,1842,1837,1838,1843,,,,,
61376273,1845,1840,1841,1846,,,,,
61378772,1848,1843,1844,1849,,,,,
61381271,1851,1846,1847,1852,,,,,
61383770,1854,1849,1850,1855,,,,,
61386269,1857,1852,1853,1858,,,,,
61388768,1860,1855,1856,1860,,,,,
61391267,1863,1858,1859,1863,,,,,
61393766,1866,1861,1862,1866,,,,,
61396265,1869,1864,1865,1869,,,,,
61398764,1872,1867,1868,1872,,,,,
61401263,1875,1870,1871,1875,,,,,
61403762,1878,1873,1874,1878,,,,,
61406261,1881,1876,1877,1881,,,,,
61408760,1883,1879,1879,1883,,,,,
61411259,1882,1877,1878,1882,,,,,
61413758,1881,1876,1877,1881,,,,,
61416257,1880,1875,1876,1880,,,,,
61418756,1879,1874,1875,1879,,,,,
61421255,1878,1873,1874,1878,,,,,
61423754,1877,1872,1873,1877,,,,,
61426253,1876,1871,1872,1876,,,,,
61428752,1875,1870,1871,1875,,,,,
61431251,1874,1870,1870,1874,,,,,
61433750,1873,1869,1869,1874,,,,,
61436249,1873,1868,1868,1873,,,,,
61438748,1872,1868,1868,1872,,,,,
61441247,1871,1867,1867,1872,,,,,
61443746,1871,1866,1867,1871,,,,,
61446245,1870,1866,1866,1871,,,,,
61448744,1870,1866,1866,1870,,,,,
61451243,1870,1865,1866,1870,,,,,
61453742,1870,1865,1865,1870,,,,,
61456241,1870,1865,1865,1870,,,,,
61458740,1870,1865,1865,1870,,,,,
61461239,1870,1865,1865,1870,,,,,
61463738,1870,1865,1866,1870,,,,,
61466237,1870,1865,1866,1870,,,,,
61468736,1871,1866,1866,1871,,,,,
61471235,1871,1866,1866,1871,,,,,
61473734,1871,1866,1867,1872,,,,,
61476233,1872,1867,1867,1872,,,,,
61478732,1873,1868,1868,1873,,,,,
61481231,1873,1868,1869,1873,,,,,
61483730,1874,1869,1869,1874,,,,,
61486229,1874,1870,1870,1874,,,,,
61488728,1875,1870,1871,1875,,,,,
61491227,1875,1871,1871,1875,,,,,
61493726,1876,1871,1872,1876,,,,,
61496225,1876,1872,1872,1876,,,,,
61498724,1876,1872,1873,1876,,,,,
61501223,1876,1872,1873,1876,,,,,
61503722,1876,1872,1873,1876,,,,,
61506221,1876,1872,1873,1876,,,,,
61508720,1875,1872,1873,1875,,,,,
61511219,1875,1871,1872,1875,,,,,
61513718,1874,1871,1871,1874,,,,,
61516217,1873,1870,1870,1873,,,,,
61518716,1872,1869,1869,1872,,,,,
61521215,1871,1867,1868,1871,,,,,
61523714,1869,1866,1867,1869,,,,,
61526213,1868,1865,1865,1868,,,,,
61528712,1866,1863,1863,1866,,,,,
61531211,1864,1861,1862,1864,,,,,
61533710,1862,1859,1860,1862,,,,,
61536209,1860,1857,1858,1860,,,,,
61538708,1858,1855,1855,1858,,,,,
61541207,1855,1853,1853,1856,,,,,
61543706,1853,1850,1851,1853,,,,,
61546205,1850,1848,1848,1851,,,,,
61548704,1848,1845,1845,1848,,,,,
61551203,1845,1843,1843,1845,,,,,
61553702,1842,1840,1840,1843,,,,,
61556201,1839,1837,1837,1840,,,,,
61558700,1836,1834,1834,1837,,,,,
61561199,1834,1831,1831,1834,,,,,
61563698,1830,1828,1828,1831,,,,,
61566197,1827,1825,1825,1828,,,,,
61568696,1824,1822,1822,1825,,,,,
61571195,1821,1819,1819,1821,,,,,
61573694,1818,1816,1816,1818,,,,,
61576193,1814,1813,1813,1815,,,,,
61578692,1811,1810,1810,1812,,,,,
61581191,1808,1806,1806,1808,,,,,
61583690,1805,1803,1803,1805,,,,,
61586189,1801,1800,1800,1802,,,,,
61588688,1798,1796,1796,1798,,,,,
61591187,1794,1793,1793,1795,,,,,
61593686,1791,1790,1790,1792,,,,,
61596185,1788,1786,1787,1788,,,,,
61598684,1784,1783,1783,1785,,,,,
61601183,1781,1780,1780,1781,,,,,
61603682,1778,1777,1777,1778,,,,,
61606181,1774,1773,1774,1775,,,,,
61608680,1771,1770,1770,1771,,,,,
61611179,1768,1767,1767,1768,,,,,
61613678,1765,1763,1764,1765,,,,,
61616177,1761,1760,1761,1762,,,,,
61618676,1758,1757,1757,1758,,,,,
61621175,1755,1754,1754,1755,,,,,
61623674,1752,1750,1751,1752,,,,,
61626173,1748,1747,1748,1748,,,,,
61628672,1745,1744,1744,1745,,,,,
61631171,1742,1741,1741,1742,,,,,
61633670,1739,1738,1738,1739,,,,,
61636169,1735,1734,1735,1735,,,,,
61638668,1732,1731,1732,1732,,,,,
61641167,1729,1728,1729,1729,,,,,
61643666,1726,1725,1726,1726,,,,,
61646165,1723,1722,1723,1723,,,,,
61648664,1720,1719,1720,1720,,,,,
61651163,1717,1716,1717,1717,,,,,
61653662,1714,1713,1714,1714,,,,,
61656161,1711,1710,1711,1711,,,,,
61658660,1708,1708,1708,1708,,,,,
