TimeUS,M1,M2,M3,M4,TimeUS,C1,C2,C3,C4
44018219,1000,1000,1000,1000,44028215,1000,1000,1000,1000
44020718,1000,1000,1000,1000,44128175,1000,1000,1000,1000
44023217,1000,1000,1000,1000,44228968,1000,1000,1000,1000
44025716,1000,1000,1000,1000,44328928,1000,1000,1000,1000
44028215,1000,1000,1000,1000,44428888,1000,1000,1000,1000
44030714,1000,1000,1000,1000,44528848,1000,1000,1000,1000
44033213,1000,1000,1000,1000,44628808,1000,1000,1000,1000
44035712,1000,1000,1000,1000,44728768,1000,1000,1000,1000
44038211,1000,1000,1000,1000,44828728,1000,1000,1000,1000
44040710,1000,1000,1000,1000,44928688,1000,1000,1000,1000
44043209,1000,1000,1000,1000,45028648,1000,1000,1000,1000
44045708,1000,1000,1000,1000,45128608,1000,1000,1000,1000
44048207,1000,1000,1000,1000,45228568,1000,1000,1000,1000
44050706,1000,1000,1000,1000,45328528,1000,1000,1000,1000
44053205,1000,1000,1000,1000,45428488,1000,1000,1000,1000
44055704,1000,1000,1000,1000,45528448,1000,1000,1000,1000
44058203,1000,1000,1000,1000,45628408,1000,1000,1000,1000
44060702,1000,1000,1000,1000,45728368,1000,1000,1000,1000
44063201,1000,1000,1000,1000,45828328,1000,1000,1000,1000
44065700,1000,1000,1000,1000,45928288,1000,1000,1000,1000
44068199,1000,1000,1000,1000,46028248,1003,1003,1003,1003
44070698,1000,1000,1000,1000,46128208,1033,1033,1033,1033
44073197,1000,1000,1000,1000,46228168,1063,1063,1063,1063
44075696,1000,1000,1000,1000,46328961,1093,1093,1093,1093
44078195,1000,1000,1000,1000,46428921,1122,1122,1122,1122
44080694,1000,1000,1000,1000,46528881,1177,1170,1170,1177
44083193,1000,1000,1000,1000,46628841,1419,1415,1415,1419
44085692,1000,1000,1000,1000,46728801,1595,1591,1591,1595
44088191,1000,1000,1000,1000,46828761,1739,1736,1736,1740
44090690,1000,1000,1000,1000,46928721,1866,1862,1863,1866
44093189,1000,1000,1000,1000,47028681,1938,1936,1936,1938
44095688,1000,1000,1000,1000,47128641,1827,1826,1826,1827
44098187,1000,1000,1000,1000,47228601,1706,1707,1707,1706
44100686,1000,1000,1000,1000,47328561,1651,1652,1652,1651
44103185,1000,1000,1000,1000,47428521,1643,1644,1645,1643
44105684,1000,1000,1000,1000,47528481,1647,1648,1648,1647
44108183,1000,1000,1000,1000,47628441,1646,1647,1646,1647
44110682,1000,1000,1000,1000,47728401,1637,1636,1636,1637
44113181,1000,1000,1000,1000,47828361,1627,1626,1626,1627
44115680,1000,1000,1000,1000,47928321,1619,1618,1618,1619
44118179,1000,1000,1000,1000,48028281,1615,1615,1614,1615
44120678,1000,1000,1000,1000,48128241,1614,1614,1614,1613
44123177,1000,1000,1000,1000,48228201,1612,1614,1613,1613
44125676,1000,1000,1000,1000,48328161,1582,1582,1582,1582
44128175,1000,1000,1000,1000,48428954,1569,1569,1569,1570
44130674,1000,1000,1000,1000,48528914,1559,1560,1559,1560
44133173,1000,1000,1000,1000,48628874,1550,1550,1549,1551
44135672,1000,1000,1000,1000,48728834,1542,1542,1541,1543
44138171,1000,1000,1000,1000,48828794,1534,1534,1534,1535
44140670,1000,1000,1000,1000,48928754,1528,1528,1527,1528
44143169,1000,1000,1000,1000,49028714,1518,1518,1518,1519
44145668,1000,1000,1000,1000,49128674,1512,1512,1511,1513
44148167,1000,1000,1000,1000,49228634,1509,1509,1509,1510
44150666,1000,1000,1000,1000,49328594,1510,1510,1510,1510
44153165,1000,1000,1000,1000,49428554,1509,1509,1509,1509
44155664,1000,1000,1000,1000,49528514,1510,1510,1510,1510
44158163,1000,1000,1000,1000,49628474,1510,1510,1510,1510
44160662,1000,1000,1000,1000,49728434,1511,1511,1511,1511
44163161,1000,1000,1000,1000,49828394,1512,1511,1511,1512
44165660,1000,1000,1000,1000,49928354,1524,1523,1525,1523
44168159,1000,1000,1000,1000,50028314,1540,1540,1546,1534
44170658,1000,1000,1000,1000,50128274,1548,1548,1551,1545
44173157,1000,1000,1000,1000,50228234,1554,1555,1553,1555
44175656,1000,1000,1000,1000,50328194,1559,1559,1555,1563
44178155,1000,1000,1000,1000,50428154,1561,1561,1557,1566
44180654,1000,1000,1000,1000,50528947,1563,1562,1558,1567
44183986,1000,1000,1000,1000,50628907,1565,1565,1564,1566
44186485,1000,1000,1000,1000,50728867,1566,1566,1567,1565
44188984,1000,1000,1000,1000,50828827,1568,1568,1571,1565
44191483,1000,1000,1000,1000,50928787,1570,1570,1573,1567
44193982,1000,1000,1000,1000,51028747,1570,1571,1572,1568
44196481,1000,1000,1000,1000,51128707,1570,1570,1570,1569
44198980,1000,1000,1000,1000,51228667,1569,1569,1568,1570
44201479,1000,1000,1000,1000,51328627,1562,1561,1571,1576
44203978,1000,1000,1000,1000,51428587,1561,1562,1572,1575
44206477,1000,1000,1000,1000,51528547,1564,1565,1572,1574
44208976,1000,1000,1000,1000,51628507,1566,1567,1570,1570
44211475,1000,1000,1000,1000,51728467,1569,1569,1569,1569
44213974,1000,1000,1000,1000,51828427,1570,1570,1567,1566
44216473,1000,1000,1000,1000,51928387,1572,1572,1566,1565
44218972,1000,1000,1000,1000,52028347,1572,1572,1565,1565
44221471,1000,1000,1000,1000,52128307,1573,1573,1565,1566
44223970,1000,1000,1000,1000,52228267,1574,1573,1566,1567
44226469,1000,1000,1000,1000,52328227,1574,1573,1568,1568
44228968,1000,1000,1000,1000,52428187,1574,1574,1570,1570
44231467,1000,1000,1000,1000,52528980,1573,1572,1570,1570
44233966,1000,1000,1000,1000,52628940,1574,1574,1573,1573
44236465,1000,1000,1000,1000,52728900,1573,1573,1574,1573
44238964,1000,1000,1000,1000,52828860,1573,1573,1576,1575
44241463,1000,1000,1000,1000,52928820,1574,1574,1578,1577
44243962,1000,1000,1000,1000,53028780,1574,1574,1577,1577
44246461,1000,1000,1000,1000,53128740,1574,1574,1578,1577
44248960,1000,1000,1000,1000,53228700,1575,1575,1577,1578
44251459,1000,1000,1000,1000,53328660,1577,1577,1579,1578
44253958,1000,1000,1000,1000,53428620,1577,1577,1578,1578
44256457,1000,1000,1000,1000,53528580,1577,1576,1577,1577
44258956,1000,1000,1000,1000,53628540,1577,1577,1576,1577
44261455,1000,1000,1000,1000,53728500,1577,1577,1576,1576
44263954,1000,1000,1000,1000,53828460,1578,1578,1577,1577
44266453,1000,1000,1000,1000,53928420,1578,1578,1577,1577
44268952,1000,1000,1000,1000,54028380,1579,1579,1578,1577
44271451,1000,1000,1000,1000,54128340,1578,1579,1577,1577
44273950,1000,1000,1000,1000,54228300,1579,1579,1578,1577
44276449,1000,1000,1000,1000,54328260,1579,1578,1578,1578
44278948,1000,1000,1000,1000,54428220,1578,1578,1578,1578
44281447,1000,1000,1000,1000,54528180,1578,1578,1578,1578
44283946,1000,1000,1000,1000,54628973,1578,1578,1578,1579
44286445,1000,1000,1000,1000,54728933,1579,1578,1579,1579
44288944,1000,1000,1000,1000,54828893,1578,1579,1580,1579
44291443,1000,1000,1000,1000,54928853,1578,1578,1579,1578
44293942,1000,1000,1000,1000,55028813,1578,1579,1579,1579
44296441,1000,1000,1000,1000,55128773,1579,1580,1580,1580
44298940,1000,1000,1000,1000,55228733,1580,1580,1581,1580
44301439,1000,1000,1000,1000,55328693,1579,1579,1579,1579
44303938,1000,1000,1000,1000,55428653,1579,1579,1579,1579
44306437,1000,1000,1000,1000,55528613,1580,1579,1579,1580
44308936,1000,1000,1000,1000,55628573,1579,1579,1579,1579
44311435,1000,1000,1000,1000,55728533,1580,1580,1580,1580
44313934,1000,1000,1000,1000,55828493,1579,1579,1579,1579
44316433,1000,1000,1000,1000,55928453,1580,1580,1580,1580
44318932,1000,1000,1000,1000,56028413,1580,1580,1580,1580
44321431,1000,1000,1000,1000,56128373,1580,1580,1580,1580
44323930,1000,1000,1000,1000,56228333,1580,1580,1580,1580
44326429,1000,1000,1000,1000,56328293,1580,1579,1580,1580
44328928,1000,1000,1000,1000,56428253,1580,1579,1579,1579
44331427,1000,1000,1000,1000,56528213,1580,1580,1580,1581
44333926,1000,1000,1000,1000,56628173,1580,1580,1580,1580
44336425,1000,1000,1000,1000,56728966,1580,1580,1580,1580
44338924,1000,1000,1000,1000,56828926,1580,1580,1580,1580
44341423,1000,1000,1000,1000,56928886,1580,1580,1580,1580
44343922,1000,1000,1000,1000,57028846,1580,1580,1580,1580
44346421,1000,1000,1000,1000,57128806,1580,1580,1580,1580
44348920,1000,1000,1000,1000,57228766,1580,1580,1580,1580
44351419,1000,1000,1000,1000,57328726,1581,1581,1581,1581
44353918,1000,1000,1000,1000,57428686,1580,1581,1581,1580
44356417,1000,1000,1000,1000,57528646,1580,1581,1584,1577
44358916,1000,1000,1000,1000,57628606,1581,1582,1588,1573
44361415,1000,1000,1000,1000,57728566,1579,1582,1581,1574
44363914,1000,1000,1000,1000,57828526,1579,1581,1573,1573
44366413,1000,1000,1000,1000,57928486,1576,1579,1564,1569
44368912,1000,1000,1000,1000,58028446,1578,1579,1560,1566
44371411,1000,1000,1000,1000,58128406,1578,1578,1556,1561
44373910,1000,1000,1000,1000,58228366,1578,1577,1555,1557
44376409,1000,1000,1000,1000,58328326,1579,1577,1555,1555
44378908,1000,1000,1000,1000,58428286,1578,1577,1556,1554
44381407,1000,1000,1000,1000,58528246,1577,1577,1555,1553
44383906,1000,1000,1000,1000,58628206,1576,1577,1556,1554
44386405,1000,1000,1000,1000,58728166,1574,1576,1554,1554
44388904,1000,1000,1000,1000,58828959,1574,1576,1554,1553
44391403,1000,1000,1000,1000,58928919,1575,1576,1552,1553
44393902,1000,1000,1000,1000,59028879,1575,1577,1551,1551
44396401,1000,1000,1000,1000,59128839,1577,1578,1549,1550
44398900,1000,1000,1000,1000,59228799,1579,1580,1547,1547
44401399,1000,1000,1000,1000,59328759,1582,1582,1544,1544
44403898,1000,1000,1000,1000,59428719,1585,1586,1542,1542
44406397,1000,1000,1000,1000,59528679,1587,1588,1538,1538
44408896,1000,1000,1000,1000,59628639,1590,1591,1536,1536
44411395,1000,1000,1000,1000,59728599,1593,1594,1535,1535
44413894,1000,1000,1000,1000,59828559,1595,1596,1535,1536
44416393,1000,1000,1000,1000,59928519,1595,1595,1536,1537
44418892,1000,1000,1000,1000,60028479,1593,1593,1537,1538
44421391,1000,1000,1000,1000,60128439,1591,1590,1540,1544
44423890,1000,1000,1000,1000,60228399,1587,1585,1546,1550
44426389,1000,1000,1000,1000,60328359,1581,1577,1555,1558
44428888,1000,1000,1000,1000,60428319,1571,1567,1566,1568
44431387,1000,1000,1000,1000,60528279,1561,1557,1578,1580
44433886,1000,1000,1000,1000,60628239,1550,1547,1591,1592
44436385,1000,1000,1000,1000,60728199,1540,1538,1602,1601
44438884,1000,1000,1000,1000,60828159,1533,1532,1610,1609
44441383,1000,1000,1000,1000,60928952,1529,1530,1615,1613
44443882,1000,1000,1000,1000,61028912,1529,1532,1615,1615
44446381,1000,1000,1000,1000,61128872,1532,1534,1611,1611
44448880,1000,1000,1000,1000,61228832,1538,1541,1607,1607
44451379,1000,1000,1000,1000,61328792,1546,1548,1599,1600
44453878,1000,1000,1000,1000,61428752,1556,1557,1593,1593
44456377,1000,1000,1000,1000,61528712,1566,1566,1587,1586
44458876,1000,1000,1000,1000,61628672,1574,1573,1579,1578
44461375,1000,1000,1000,1000,61728632,1581,1580,1575,1574
44463874,1000,1000,1000,1000,61828592,1584,1584,1570,1569
44466373,1000,1000,1000,1000,61928552,1587,1586,1568,1567
44468872,1000,1000,1000,1000,62028512,1589,1588,1567,1568
44471371,1000,1000,1000,1000,62128472,1588,1586,1567,1568
44473870,1000,1000,1000,1000,62228432,1584,1583,1568,1568
44476369,1000,1000,1000,1000,62328392,1581,1581,1570,1571
44478868,1000,1000,1000,1000,62428352,1580,1580,1575,1575
44481367,1000,1000,1000,1000,62528312,1577,1577,1578,1577
44483866,1000,1000,1000,1000,62628272,1263,1543,1268,1548
44486365,1000,1000,1000,1000,62728232,1510,1542,1516,1554
44488864,1000,1000,1000,1000,62828192,1609,1572,1621,1582
44491363,1000,1000,1000,1000,62928985,1679,1604,1690,1615
44493862,1000,1000,1000,1000,63028945,1684,1612,1690,1621
44496361,1000,1000,1000,1000,63128905,1689,1639,1690,1640
44498860,1000,1000,1000,1000,63228865,1690,1657,1684,1648
44501359,1000,1000,1000,1000,63328825,1690,1676,1680,1653
44503858,1000,1000,1000,1000,63428785,1690,1701,1676,1664
44506357,1000,1000,1000,1000,63528745,1690,1726,1677,1689
44508856,1000,1000,1000,1000,63628705,1659,1701,1660,1695
44511355,1000,1000,1000,1000,63728665,1608,1636,1638,1686
44513854,1000,1000,1000,1000,63828625,1574,1583,1634,1682
44516353,1000,1000,1000,1000,63928585,1550,1546,1630,1666
44518852,1000,1000,1000,1000,64028545,1541,1534,1623,1638
44521351,1000,1000,1000,1000,64128505,1544,1541,1609,1606
44523850,1000,1000,1000,1000,64228465,1555,1558,1592,1577
44526349,1000,1000,1000,1000,64328425,1569,1578,1573,1554
44528848,1000,1000,1000,1000,64428385,1583,1594,1555,1539
44531347,1000,1000,1000,1000,64528345,1593,1602,1540,1531
44533846,1000,1000,1000,1000,64628305,1598,1601,1529,1526
44536345,1000,1000,1000,1000,64728265,1598,1597,1523,1525
44538844,1000,1000,1000,1000,64828225,1596,1590,1523,1527
44541343,1000,1000,1000,1000,64928185,1592,1585,1528,1533
44543842,1000,1000,1000,1000,65028978,1586,1581,1536,1540
44546341,1000,1000,1000,1000,65128938,1580,1577,1545,1547
44548840,1000,1000,1000,1000,65228898,1575,1573,1555,1555
44551339,1000,1000,1000,1000,65328858,1570,1571,1565,1564
44553838,1000,1000,1000,1000,65428818,1566,1568,1573,1572
44556337,1000,1000,1000,1000,65528778,1564,1566,1580,1579
44558836,1000,1000,1000,1000,65628738,1563,1563,1592,1576
44561335,1000,1000,1000,1000,65728698,1563,1565,1593,1580
44563834,1000,1000,1000,1000,65828658,1560,1563,1587,1582
44566333,1000,1000,1000,1000,65928618,1559,1561,1579,1583
44568832,1000,1000,1000,1000,66028578,1559,1560,1572,1581
44571331,1000,1000,1000,1000,66128538,1561,1561,1567,1576
44573830,1000,1000,1000,1000,66228498,1563,1563,1563,1569
44576329,1000,1000,1000,1000,66328458,1567,1567,1560,1562
44578828,1000,1000,1000,1000,66428418,1571,1571,1558,1556
44581327,1000,1000,1000,1000,66528378,1575,1575,1555,1552
44583826,1000,1000,1000,1000,66628338,1578,1578,1552,1549
44586325,1000,1000,1000,1000,66728298,1581,1580,1549,1547
44588824,1000,1000,1000,1000,66828258,1582,1582,1547,1546
44591323,1000,1000,1000,1000,66928218,1583,1582,1545,1546
44593822,1000,1000,1000,1000,67028178,1582,1582,1544,1545
44596321,1000,1000,1000,1000,67128971,1582,1583,1544,1545
44598820,1000,1000,1000,1000,67228931,1581,1582,1543,1544
44601319,1000,1000,1000,1000,67328891,1581,1582,1543,1543
44603818,1000,1000,1000,1000,67428851,1581,1583,1544,1543
44606317,1000,1000,1000,1000,67528811,1581,1583,1543,1543
44608816,1000,1000,1000,1000,67628771,1582,1583,1544,1544
44611315,1000,1000,1000,1000,67728731,1583,1583,1544,1543
44613814,1000,1000,1000,1000,67828691,1584,1584,1544,1545
44616313,1000,1000,1000,1000,67928651,1583,1583,1545,1545
44618812,1000,1000,1000,1000,68028611,1584,1582,1546,1548
44621311,1000,1000,1000,1000,68128571,1582,1580,1549,1550
44623810,1000,1000,1000,1000,68228531,1579,1577,1552,1554
44626309,1000,1000,1000,1000,68328491,1575,1573,1556,1558
44628808,1000,1000,1000,1000,68428451,1570,1570,1561,1563
44631307,1000,1000,1000,1000,68528411,1567,1566,1567,1569
44633806,1000,1000,1000,1000,68628371,1561,1561,1573,1574
44636305,1000,1000,1000,1000,68728331,1557,1557,1578,1580
44638804,1000,1000,1000,1000,68828291,1553,1553,1584,1584
44641303,1000,1000,1000,1000,68928251,1550,1549,1589,1589
44643802,1000,1000,1000,1000,69028211,1547,1547,1592,1592
44646301,1000,1000,1000,1000,69128171,1546,1546,1595,1594
44648800,1000,1000,1000,1000,69228964,1547,1548,1597,1596
44651299,1000,1000,1000,1000,69328924,1549,1550,1596,1595
44653798,1000,1000,1000,1000,69428884,1552,1552,1595,1594
44656297,1000,1000,1000,1000,69528844,1555,1556,1592,1591
44658796,1000,1000,1000,1000,69628804,1558,1558,1587,1587
44661295,1000,1000,1000,1000,69728764,1563,1562,1583,1584
44663794,1000,1000,1000,1000,69828724,1567,1566,1580,1581
44666293,1000,1000,1000,1000,69928684,1571,1570,1578,1578
44668792,1000,1000,1000,1000,70028644,1575,1574,1576,1575
44671291,1000,1000,1000,1000,70128604,1578,1576,1575,1574
44673790,1000,1000,1000,1000,70228564,1579,1578,1573,1573
44676289,1000,1000,1000,1000,70328524,1580,1578,1572,1572
44678788,1000,1000,1000,1000,70428484,1580,1579,1572,1572
44681287,1000,1000,1000,1000,70528444,1579,1580,1573,1573
44683786,1000,1000,1000,1000,70628404,1580,1579,1574,1574
44686285,1000,1000,1000,1000,70728364,1579,1579,1575,1575
44688784,1000,1000,1000,1000,70828324,1577,1577,1576,1576
44691283,1000,1000,1000,1000,70928284,1577,1578,1578,1578
44693782,1000,1000,1000,1000,71028244,1576,1577,1579,1579
44696281,1000,1000,1000,1000,71128204,1576,1577,1581,1580
44698780,1000,1000,1000,1000,71228164,1576,1577,1581,1581
44701279,1000,1000,1000,1000,71328957,1577,1578,1582,1582
44703778,1000,1000,1000,1000,71428917,1577,1577,1582,1581
44706277,1000,1000,1000,1000,71528877,1577,1576,1581,1581
44708776,1000,1000,1000,1000,71628837,1577,1577,1580,1580
44711275,1000,1000,1000,1000,71728797,1578,1577,1580,1580
44713774,1000,1000,1000,1000,71828757,1578,1579,1580,1580
44716273,1000,1000,1000,1000,71928717,1579,1579,1579,1579
44718772,1000,1000,1000,1000,72028677,1579,1579,1578,1578
44721271,1000,1000,1000,1000,72128637,1580,1580,1579,1579
44723770,1000,1000,1000,1000,72228597,1580,1580,1578,1578
44726269,1000,1000,1000,1000,72328557,1581,1580,1578,1578
44728768,1000,1000,1000,1000,72428517,1581,1581,1579,1579
44731267,1000,1000,1000,1000,72528477,1581,1581,1580,1580
44733766,1000,1000,1000,1000,72628437,1581,1582,1580,1580
44736265,1000,1000,1000,1000,72728397,1581,1581,1580,1580
44738764,1000,1000,1000,1000,72828357,1580,1580,1580,1580
44741263,1000,1000,1000,1000,72928317,1580,1581,1580,1580
44743762,1000,1000,1000,1000,73028277,1580,1580,1580,1580
44746261,1000,1000,1000,1000,73128237,1581,1581,1581,1581
44748760,1000,1000,1000,1000,73228197,1581,1581,1582,1581
44751259,1000,1000,1000,1000,73328157,1581,1581,1581,1581
44753758,1000,1000,1000,1000,73428950,1581,1581,1581,1581
44756257,1000,1000,1000,1000,73528910,1581,1581,1581,1582
44758756,1000,1000,1000,1000,73628870,1581,1581,1581,1581
44761255,1000,1000,1000,1000,73728830,1581,1581,1582,1582
44763754,1000,1000,1000,1000,73828790,1581,1581,1582,1581
44766253,1000,1000,1000,1000,73928750,1582,1582,1582,1582
44768752,1000,1000,1000,1000,74028710,1581,1581,1581,1581
44771251,1000,1000,1000,1000,74128670,1581,1581,1581,1581
44773750,1000,1000,1000,1000,74228630,1581,1581,1581,1581
44776249,1000,1000,1000,1000,74328590,1581,1582,1581,1581
44778748,1000,1000,1000,1000,74428550,1582,1582,1581,1581
44781247,1000,1000,1000,1000,74528510,1582,1583,1587,1574
44783746,1000,1000,1000,1000,74628470,1580,1582,1584,1572
44786245,1000,1000,1000,1000,74728430,1579,1581,1577,1573
44788744,1000,1000,1000,1000,74828390,1576,1578,1569,1571
44791243,1000,1000,1000,1000,74928350,1575,1577,1562,1568
44793742,1000,1000,1000,1000,75028310,1574,1576,1557,1564
44796241,1000,1000,1000,1000,75128270,1576,1576,1554,1560
44798740,1000,1000,1000,1000,75228230,1577,1576,1553,1556
44801239,1000,1000,1000,1000,75328190,1578,1577,1554,1554
44803738,1000,1000,1000,1000,75428983,1578,1577,1554,1552
44806237,1000,1000,1000,1000,75528943,1577,1577,1555,1552
44808736,1000,1000,1000,1000,75628903,1577,1578,1555,1553
44811235,1000,1000,1000,1000,75728863,1577,1578,1555,1553
44813734,1000,1000,1000,1000,75828823,1575,1577,1553,1553
44816233,1000,1000,1000,1000,75928783,1576,1578,1553,1553
44818732,1000,1000,1000,1000,76028743,1576,1578,1551,1551
44821231,1000,1000,1000,1000,76128703,1577,1579,1550,1550
44823730,1000,1000,1000,1000,76228663,1579,1581,1548,1548
44826229,1000,1000,1000,1000,76328623,1581,1582,1546,1546
44828728,1000,1000,1000,1000,76428583,1584,1584,1544,1543
44831227,1000,1000,1000,1000,76528543,1586,1586,1541,1541
44833726,1000,1000,1000,1000,76628503,1589,1589,1540,1540
44836225,1000,1000,1000,1000,76728463,1591,1591,1539,1540
44838724,1000,1000,1000,1000,76828423,1592,1593,1538,1539
44841223,1000,1000,1000,1000,76928383,1593,1593,1538,1540
44843722,1000,1000,1000,1000,77028343,1593,1592,1540,1542
44846221,1000,1000,1000,1000,77128303,1591,1589,1543,1546
44848720,1000,1000,1000,1000,77228263,1588,1585,1550,1553
44851219,1000,1000,1000,1000,77328223,1581,1577,1558,1561
44853718,1000,1000,1000,1000,77428183,1572,1568,1567,1570
44856217,1000,1000,1000,1000,77528976,1563,1559,1578,1580
44858716,1000,1000,1000,1000,77628936,1553,1551,1589,1590
44861215,1000,1000,1000,1000,77728896,1544,1545,1599,1599
44863714,1000,1000,1000,1000,77828856,1538,1541,1608,1606
44866213,1000,1000,1000,1000,77928816,1535,1538,1613,1610
44868712,1000,1000,1000,1000,78028776,1535,1539,1615,1612
44871211,1000,1000,1000,1000,78128736,1539,1542,1614,1611
44873710,1000,1000,1000,1000,78228696,1543,1545,1610,1608
44876209,1000,1000,1000,1000,78328656,1549,1549,1604,1602
44878708,1000,1000,1000,1000,78428616,1555,1555,1597,1597
44881207,1000,1000,1000,1000,78528576,1562,1561,1590,1590
44883706,1000,1000,1000,1000,78628536,1568,1567,1583,1583
44886205,1000,1000,1000,1000,78728496,1574,1573,1576,1577
44888704,1000,1000,1000,1000,78828456,1579,1577,1570,1572
44891203,1000,1000,1000,1000,78928416,1583,1581,1567,1569
44893702,1000,1000,1000,1000,79028376,1585,1583,1565,1567
44896201,1000,1000,1000,1000,79128336,1586,1584,1565,1566
44898700,1000,1000,1000,1000,79228296,1586,1585,1566,1567
44901199,1000,1000,1000,1000,79328256,1585,1583,1568,1568
44903698,1000,1000,1000,1000,79428216,1584,1583,1571,1571
44906197,1000,1000,1000,1000,79528176,1581,1581,1574,1573
44908696,1000,1000,1000,1000,79628969,1579,1579,1577,1577
44911195,1000,1000,1000,1000,79728929,1576,1577,1579,1579
44913694,1000,1000,1000,1000,79828889,1575,1577,1582,1582
44916193,1000,1000,1000,1000,79928849,1574,1575,1584,1584
44918692,1000,1000,1000,1000,80028809,1574,1575,1585,1584
44921191,1000,1000,1000,1000,80128769,1573,1575,1585,1585
44923690,1000,1000,1000,1000,80228729,1574,1575,1584,1584
44926189,1000,1000,1000,1000,80328689,1575,1575,1583,1583
44928688,1000,1000,1000,1000,80428649,1576,1576,1582,1582
44931187,1000,1000,1000,1000,80528609,1577,1577,1581,1581
44933686,1000,1000,1000,1000,80628569,1579,1578,1580,1580
44936185,1000,1000,1000,1000,80728529,1579,1579,1578,1579
44938684,1000,1000,1000,1000,80828489,1580,1580,1578,1578
44941183,1000,1000,1000,1000,80928449,1580,1580,1577,1577
44943682,1000,1000,1000,1000,81028409,1582,1581,1577,1577
44946181,1000,1000,1000,1000,81128369,1582,1582,1577,1578
44948680,1000,1000,1000,1000,81228329,1582,1582,1578,1578
44951179,1000,1000,1000,1000,81328289,1582,1582,1578,1578
44953678,1000,1000,1000,1000,81428249,1582,1582,1579,1579
44956177,1000,1000,1000,1000,81528209,1581,1581,1579,1579
44958676,1000,1000,1000,1000,81628169,1581,1582,1581,1580
44961175,1000,1000,1000,1000,81728962,1582,1581,1581,1581
44963674,1000,1000,1000,1000,81828922,1580,1580,1581,1581
44966173,1000,1000,1000,1000,81928882,1580,1580,1581,1581
44968672,1000,1000,1000,1000,82028842,1579,1580,1581,1581
44971171,1000,1000,1000,1000,82128802,1579,1580,1581,1582
44973670,1000,1000,1000,1000,82228762,1579,1579,1581,1581
44976169,1000,1000,1000,1000,82328722,1579,1579,1581,1581
44978668,1000,1000,1000,1000,82428682,1580,1580,1582,1581
44981167,1000,1000,1000,1000,82528642,1581,1582,1587,1574
44983666,1000,1000,1000,1000,82628602,1581,1581,1586,1573
44986165,1000,1000,1000,1000,82728562,1579,1578,1580,1575
44988664,1000,1000,1000,1000,82828522,1575,1574,1573,1575
44991163,1000,1000,1000,1000,82928482,1572,1571,1568,1574
44993662,1000,1000,1000,1000,83028442,1569,1568,1564,1572
44996161,1000,1000,1000,1000,83128402,1567,1568,1564,1570
44998660,1000,1000,1000,1000,83228362,1566,1568,1565,1567
45001159,1000,1000,1000,1000,83328322,1567,1568,1566,1566
45003658,1000,1000,1000,1000,83428282,1567,1567,1567,1565
45006157,1000,1000,1000,1000,83528242,1566,1566,1567,1564
45008656,1000,1000,1000,1000,83628202,1566,1566,1567,1564
45011155,1000,1000,1000,1000,83728162,1564,1564,1565,1563
45013654,1000,1000,1000,1000,83828955,1564,1563,1564,1564
45016153,1000,1000,1000,1000,83928915,1562,1562,1563,1563
45018652,1000,1000,1000,1000,84028875,1562,1562,1563,1564
45021151,1000,1000,1000,1000,84128835,1562,1562,1562,1563
45023650,1000,1000,1000,1000,84228795,1561,1561,1562,1561
45026149,1000,1000,1000,1000,84328755,1561,1561,1561,1561
45028648,1000,1000,1000,1000,84428715,1560,1560,1561,1560
45031147,1000,1000,1000,1000,84528675,1559,1559,1560,1559
45033646,1000,1000,1000,1000,84628635,1558,1558,1559,1558
45036145,1000,1000,1000,1000,84728595,1559,1558,1559,1558
45038644,1000,1000,1000,1000,84828555,1559,1559,1559,1558
45041143,1000,1000,1000,1000,84928515,1558,1558,1558,1558
45043642,1000,1000,1000,1000,85028475,1558,1558,1559,1557
45046141,1000,1000,1000,1000,85128435,1559,1559,1560,1558
45048640,1000,1000,1000,1000,85228395,1559,1559,1561,1557
45051139,1000,1000,1000,1000,85328355,1560,1560,1560,1559
45053638,1000,1000,1000,1000,85428315,1559,1559,1558,1561
45056137,1000,1000,1000,1000,85528275,1559,1559,1556,1562
45058636,1000,1000,1000,1000,85628235,1560,1561,1557,1564
45061135,1000,1000,1000,1000,85728195,1562,1561,1559,1563
45063634,1000,1000,1000,1000,85828155,1561,1561,1560,1562
45066133,1000,1000,1000,1000,85928948,1560,1560,1560,1559
45068632,1000,1000,1000,1000,86028908,1559,1559,1560,1556
45071131,1000,1000,1000,1000,86128868,1558,1557,1559,1555
45073630,1000,1000,1000,1000,86228828,1558,1558,1557,1560
45076129,1000,1000,1000,1000,86328788,1556,1556,1554,1560
45078628,1000,1000,1000,1000,86428748,1552,1553,1550,1555
45081127,1000,1000,1000,1000,86528708,1548,1547,1546,1549
45083626,1000,1000,1000,1000,86628668,1543,1542,1543,1542
45086125,1000,1000,1000,1000,86728628,1536,1536,1537,1535
45088624,1000,1000,1000,1000,86828588,1528,1528,1530,1527
45091123,1000,1000,1000,1000,86928548,1522,1522,1523,1521
45093622,1000,1000,1000,1000,87028508,1519,1520,1519,1520
45096121,1000,1000,1000,1000,87128468,1519,1520,1519,1521
45098620,1000,1000,1000,1000,87228428,1520,1522,1520,1522
45101119,1000,1000,1000,1000,87328388,1522,1524,1522,1524
45103618,1000,1000,1000,1000,87428348,1527,1527,1527,1528
45106117,1000,1000,1000,1000,87528308,1532,1531,1531,1531
45108616,1000,1000,1000,1000,87628268,1535,1534,1535,1534
45111115,1000,1000,1000,1000,87728228,1539,1538,1539,1537
45113614,1000,1000,1000,1000,87828188,1541,1540,1542,1540
45116113,1000,1000,1000,1000,87928981,1543,1542,1544,1541
45118612,1000,1000,1000,1000,88028941,1545,1544,1545,1544
45121111,1000,1000,1000,1000,88128901,1546,1545,1546,1546
45123610,1000,1000,1000,1000,88228861,1546,1546,1546,1546
45126109,1000,1000,1000,1000,88328821,1547,1547,1547,1547
45128608,1000,1000,1000,1000,88428781,1547,1547,1547,1547
45131107,1000,1000,1000,1000,88528741,1546,1547,1546,1546
45133606,1000,1000,1000,1000,88628701,1546,1546,1546,1546
45136105,1000,1000,1000,1000,88728661,1546,1546,1546,1545
45138604,1000,1000,1000,1000,88828621,1546,1546,1546,1545
45141103,1000,1000,1000,1000,88928581,1545,1545,1545,1545
45143602,1000,1000,1000,1000,89028541,1545,1545,1545,1545
45146101,1000,1000,1000,1000,89128501,1545,1545,1545,1545
45148600,1000,1000,1000,1000,89228461,1545,1545,1545,1545
45151099,1000,1000,1000,1000,89328421,1544,1544,1544,1544
45153598,1000,1000,1000,1000,89428381,1545,1545,1545,1544
45156097,1000,1000,1000,1000,89528341,1545,1545,1545,1545
45158596,1000,1000,1000,1000,89628301,1544,1544,1544,1545
45161095,1000,1000,1000,1000,89728261,1544,1544,1544,1544
45163594,1000,1000,1000,1000,89828221,1545,1545,1545,1545
45166093,1000,1000,1000,1000,89928181,1544,1544,1544,1544
45168592,1000,1000,1000,1000,90028974,1544,1545,1544,1544
45171091,1000,1000,1000,1000,90128934,1544,1545,1544,1544
45173590,1000,1000,1000,1000,90228894,1544,1544,1544,1544
45176089,1000,1000,1000,1000,90328854,1544,1544,1544,1544
45178588,1000,1000,1000,1000,90428814,1543,1544,1544,1543
45181087,1000,1000,1000,1000,90528774,1543,1543,1543,1543
45183586,1000,1000,1000,1000,90628734,1544,1544,1543,1544
45186085,1000,1000,1000,1000,90728694,1544,1544,1544,1544
45188584,1000,1000,1000,1000,90828654,1544,1544,1544,1544
45191083,1000,1000,1000,1000,90928614,1544,1544,1544,1544
45193582,1000,1000,1000,1000,91028574,1544,1544,1544,1544
45196081,1000,1000,1000,1000,91128534,1544,1543,1543,1543
45198580,1000,1000,1000,1000,91228494,1543,1543,1543,1543
45201079,1000,1000,1000,1000,91328454,1544,1544,1544,1544
45203578,1000,1000,1000,1000,91428414,1544,1544,1544,1544
45206077,1000,1000,1000,1000,91528374,1544,1545,1544,1545
45208576,1000,1000,1000,1000,91628334,1543,1544,1544,1544
45211075,1000,1000,1000,1000,91728294,1544,1544,1544,1544
45213574,1000,1000,1000,1000,91828254,1544,1543,1544,1543
45216073,1000,1000,1000,1000,91928214,1544,1544,1544,1544
45218572,1000,1000,1000,1000,92028174,1544,1544,1544,1544
45221071,1000,1000,1000,1000,92128967,1545,1544,1545,1544
45223570,1000,1000,1000,1000,92228927,1544,1544,1544,1544
45226069,1000,1000,1000,1000,92328887,1543,1544,1543,1544
45228568,1000,1000,1000,1000,92428847,1544,1544,1544,1544
45231067,1000,1000,1000,1000,92528807,1544,1544,1544,1544
45233566,1000,1000,1000,1000,92628767,1544,1544,1544,1544
45236065,1000,1000,1000,1000,92728727,1544,1544,1544,1544
45238564,1000,1000,1000,1000,92828687,1544,1544,1544,1544
45241063,1000,1000,1000,1000,92928647,1544,1544,1544,1544
45243562,1000,1000,1000,1000,93028607,1545,1544,1545,1545
45246061,1000,1000,1000,1000,93128567,1544,1544,1544,1544
45248560,1000,1000,1000,1000,93228527,1544,1544,1544,1544
45251059,1000,1000,1000,1000,93328487,1544,1544,1544,1544
45253558,1000,1000,1000,1000,93428447,1543,1544,1544,1544
45256057,1000,1000,1000,1000,93528407,1544,1544,1544,1544
45258556,1000,1000,1000,1000,93628367,1544,1545,1544,1544
45261055,1000,1000,1000,1000,93728327,1544,1544,1544,1544
45263554,1000,1000,1000,1000,93828287,1544,1544,1544,1544
45266053,1000,1000,1000,1000,93928247,1544,1544,1544,1544
45268552,1000,1000,1000,1000,94028207,1544,1544,1544,1544
45271051,1000,1000,1000,1000,94128167,1545,1543,1544,1544
45273550,1000,1000,1000,1000,94228960,1545,1544,1545,1544
45276049,1000,1000,1000,1000,94328920,1544,1545,1544,1545
45278548,1000,1000,1000,1000,94428880,1544,1544,1544,1544
45281047,1000,1000,1000,1000,94528840,1544,1544,1544,1545
45283546,1000,1000,1000,1000,94628800,1545,1545,1545,1545
45286045,1000,1000,1000,1000,94728760,1544,1544,1544,1544
45288544,1000,1000,1000,1000,94828720,1544,1544,1544,1544
45291043,1000,1000,1000,1000,94928680,1544,1544,1544,1545
45293542,1000,1000,1000,1000,95028640,1544,1545,1544,1544
45296041,1000,1000,1000,1000,95128600,1543,1543,1543,1543
45298540,1000,1000,1000,1000,95228560,1543,1543,1543,1543
45301039,1000,1000,1000,1000,95328520,1544,1544,1544,1544
45303538,1000,1000,1000,1000,95428480,1544,1544,1544,1544
45306037,1000,1000,1000,1000,95528440,1544,1543,1543,1544
45308536,1000,1000,1000,1000,95628400,1543,1543,1543,1543
45311035,1000,1000,1000,1000,95728360,1544,1544,1544,1544
45313534,1000,1000,1000,1000,95828320,1544,1544,1544,1544
45316033,1000,1000,1000,1000,95928280,1545,1544,1545,1545
45318532,1000,1000,1000,1000,96028240,1546,1545,1546,1545
45321031,1000,1000,1000,1000,96128200,1545,1545,1545,1545
45323530,1000,1000,1000,1000,96228160,1546,1546,1546,1546
45326029,1000,1000,1000,1000,96328953,1545,1545,1545,1545
45328528,1000,1000,1000,1000,96428913,1544,1545,1545,1545
45331027,1000,1000,1000,1000,96528873,1545,1545,1544,1545
45333526,1000,1000,1000,1000,96628833,1525,1520,1525,1520
45336025,1000,1000,1000,1000,96728793,1397,1334,1396,1335
45338524,1000,1000,1000,1000,96828753,1341,1244,1341,1245
45341023,1000,1000,1000,1000,96928713,1326,1216,1325,1218
45343522,1000,1000,1000,1000,97028673,1314,1196,1314,1196
45346021,1000,1000,1000,1000,97128633,1290,1150,1290,1151
45348520,1000,1000,1000,1000,97228593,1223,1150,1223,1150
45351019,1000,1000,1000,1000,97328553,1115,1150,1115,1150
45353518,1000,1000,1000,1000,97428513,1066,1150,1066,1150
45356017,1000,1000,1000,1000,97528473,1066,1150,1066,1150
45358516,1000,1000,1000,1000,97628433,1066,1150,1066,1150
45361015,1000,1000,1000,1000,97728393,1066,1150,1058,1161
45363514,1000,1000,1000,1000,97828353,1066,1150,1061,1157
45366013,1000,1000,1000,1000,97928313,1066,1150,1062,1156
45368512,1000,1000,1000,1000,98028273,1066,1150,1062,1156
45371011,1000,1000,1000,1000,98128233,1066,1150,1061,1156
45373510,1000,1000,1000,1000,98228193,1066,1150,1061,1156
45376009,1000,1000,1000,1000,98328986,1066,1150,1061,1157
45378508,1000,1000,1000,1000,98428946,1066,1150,1061,1157
45381007,1000,1000,1000,1000,98528906,1066,1150,1064,1152
45383506,1000,1000,1000,1000,98628866,1066,1150,1064,1153
45386005,1000,1000,1000,1000,98728826,1066,1150,1064,1153
45388504,1000,1000,1000,1000,98828786,1066,1150,1063,1153
45391003,1000,1000,1000,1000,98928746,1043,1150,1040,1153
45393502,1000,1000,1000,1000,99028706,1000,1000,1000,1000
45396001,1000,1000,1000,1000,99128666,1000,1000,1000,1000
45398500,1000,1000,1000,1000,99228626,1000,1000,1000,1000
45400999,1000,1000,1000,1000,99328586,1000,1000,1000,1000
45403498,1000,1000,1000,1000,99428546,1000,1000,1000,1000
45405997,1000,1000,1000,1000,99528506,1000,1000,1000,1000
45408496,1000,1000,1000,1000,99628466,1000,1000,1000,1000
45410995,1000,1000,1000,1000,99728426,1000,1000,1000,1000
45413494,1000,1000,1000,1000,99828386,1000,1000,1000,1000
45415993,1000,1000,1000,1000,99928346,1000,1000,1000,1000
45418492,1000,1000,1000,1000,100028306,1000,1000,1000,1000
45420991,1000,1000,1000,1000,100128266,1000,1000,1000,1000
45423490,1000,1000,1000,1000,100228226,1000,1000,1000,1000
45425989,1000,1000,1000,1000,100328186,1000,1000,1000,1000
45428488,1000,1000,1000,1000,100428979,1000,1000,1000,1000
45430987,1000,1000,1000,1000,100528939,1000,1000,1000,1000
45433486,1000,1000,1000,1000,100628899,1000,1000,1000,1000
45435985,1000,1000,1000,1000,100728859,1000,1000,1000,1000
45438484,1000,1000,1000,1000,100828819,1000,1000,1000,1000
45440983,1000,1000,1000,1000,100928779,1000,1000,1000,1000
45443482,1000,1000,1000,1000,101028739,1000,1000,1000,1000
45445981,1000,1000,1000,1000,101128699,1000,1000,1000,1000
45448480,1000,1000,1000,1000,101228659,1000,1000,1000,1000
45450979,1000,1000,1000,1000,101328619,1000,1000,1000,1000
45453478,1000,1000,1000,1000,101428579,1000,1000,1000,1000
45455977,1000,1000,1000,1000,101528539,1000,1000,1000,1000
45458476,1000,1000,1000,1000,101628499,1000,1000,1000,1000
45460975,1000,1000,1000,1000,101728459,1000,1000,1000,1000
45463474,1000,1000,1000,1000,101828419,1000,1000,1000,1000
45465973,1000,1000,1000,1000,101928379,1000,1000,1000,1000
45468472,1000,1000,1000,1000,102028339,1000,1000,1000,1000
45470971,1000,1000,1000,1000,102128299,1000,1000,1000,1000
45473470,1000,1000,1000,1000,102228259,1000,1000,1000,1000
45475969,1000,1000,1000,1000,102328219,1000,1000,1000,1000
45478468,1000,1000,1000,1000,102428179,1000,1000,1000,1000
45480967,1000,1000,1000,1000,102528972,1000,1000,1000,1000
45483466,1000,1000,1000,1000,102628932,1000,1000,1000,1000
45485965,1000,1000,1000,1000,102728892,1000,1000,1000,1000
45488464,1000,1000,1000,1000,102828852,1000,1000,1000,1000
45490963,1000,1000,1000,1000,102928812,1000,1000,1000,1000
45493462,1000,1000,1000,1000,103028772,1000,1000,1000,1000
45495961,1000,1000,1000,1000,103128732,1000,1000,1000,1000
45498460,1000,1000,1000,1000,103228692,1000,1000,1000,1000
45500959,1000,1000,1000,1000,103328652,1000,1000,1000,1000
45503458,1000,1000,1000,1000,103428612,1000,1000,1000,1000
45505957,1000,1000,1000,1000,103528572,1000,1000,1000,1000
45508456,1000,1000,1000,1000,103628532,1000,1000,1000,1000
45510955,1000,1000,1000,1000,103728492,1000,1000,1000,1000
45513454,1000,1000,1000,1000,103828452,1000,1000,1000,1000
45515953,1000,1000,1000,1000,103928412,1000,1000,1000,1000
45518452,1000,1000,1000,1000,104028372,1000,1000,1000,1000
45520951,1000,1000,1000,1000,104128332,1000,1000,1000,1000
45523450,1000,1000,1000,1000,104228292,1000,1000,1000,1000
45525949,1000,1000,1000,1000,104328252,1000,1000,1000,1000
45528448,1000,1000,1000,1000,104428212,1000,1000,1000,1000
45530947,1000,1000,1000,1000,104528172,1000,1000,1000,1000
45533446,1000,1000,1000,1000,104628965,1000,1000,1000,1000
45535945,1000,1000,1000,1000,104728925,1000,1000,1000,1000
45538444,1000,1000,1000,1000,104828885,1000,1000,1000,1000
45540943,1000,1000,1000,1000,104928845,1000,1000,1000,1000
45543442,1000,1000,1000,1000,105028805,1000,1000,1000,1000
45545941,1000,1000,1000,1000,105128765,1000,1000,1000,1000
45548440,1000,1000,1000,1000,105228725,1000,1000,1000,1000
45550939,1000,1000,1000,1000,105328685,1000,1000,1000,1000
45553438,1000,1000,1000,1000,105428645,1000,1000,1000,1000
45555937,1000,1000,1000,1000,105528605,1000,1000,1000,1000
45558436,1000,1000,1000,1000,105628565,1000,1000,1000,1000
45560935,1000,1000,1000,1000,105728525,1000,1000,1000,1000
45563434,1000,1000,1000,1000,105828485,1000,1000,1000,1000
45565933,1000,1000,1000,1000,105928445,1000,1000,1000,1000
45568432,1000,1000,1000,1000,106028405,1000,1000,1000,1000
45570931,1000,1000,1000,1000,106128365,1000,1000,1000,1000
45573430,1000,1000,1000,1000,106228325,1000,1000,1000,1000
45575929,1000,1000,1000,1000,106328285,1000,1000,1000,1000
45578428,1000,1000,1000,1000,106428245,1000,1000,1000,1000
45580927,1000,1000,1000,1000,106528205,1000,1000,1000,1000
45583426,1000,1000,1000,1000,106628165,1000,1000,1000,1000
45585925,1000,1000,1000,1000,106728958,1000,1000,1000,1000
45588424,1000,1000,1000,1000,106828918,1000,1000,1000,1000
45590923,1000,1000,1000,1000,106928878,1000,1000,1000,1000
45593422,1000,1000,1000,1000,107028838,1000,1000,1000,1000
45595921,1000,1000,1000,1000,107128798,1000,1000,1000,1000
45598420,1000,1000,1000,1000,107228758,1000,1000,1000,1000
45600919,1000,1000,1000,1000,107328718,1000,1000,1000,1000
45603418,1000,1000,1000,1000,107428678,1000,1000,1000,1000
45605917,1000,1000,1000,1000,107528638,1000,1000,1000,1000
45608416,1000,1000,1000,1000,107628598,1000,1000,1000,1000
45610915,1000,1000,1000,1000,107728558,1000,1000,1000,1000
45613414,1000,1000,1000,1000,107828518,1000,1000,1000,1000
45615913,1000,1000,1000,1000,107928478,1000,1000,1000,1000
45618412,1000,1000,1000,1000,108028438,1000,1000,1000,1000
45620911,1000,1000,1000,1000,108128398,1000,1000,1000,1000
45623410,1000,1000,1000,1000,108228358,1000,1000,1000,1000
45625909,1000,1000,1000,1000,108328318,1000,1000,1000,1000
45628408,1000,1000,1000,1000,108428278,1000,1000,1000,1000
45630907,1000,1000,1000,1000,108528238,1000,1000,1000,1000
45633406,1000,1000,1000,1000,108628198,1000,1000,1000,1000
45635905,1000,1000,1000,1000,108728158,1000,1000,1000,1000
45638404,1000,1000,1000,1000,108828951,1000,1000,1000,1000
45640903,1000,1000,1000,1000,108928911,1000,1000,1000,1000
45643402,1000,1000,1000,1000,109028871,1000,1000,1000,1000
45645901,1000,1000,1000,1000,109128831,1000,1000,1000,1000
45648400,1000,1000,1000,1000,109228791,1000,1000,1000,1000
45650899,1000,1000,1000,1000,109328751,1000,1000,1000,1000
45653398,1000,1000,1000,1000,109428711,1000,1000,1000,1000
45655897,1000,1000,1000,1000,109528671,1000,1000,1000,1000
45658396,1000,1000,1000,1000,109628631,1000,1000,1000,1000
45660895,1000,1000,1000,1000,109728591,1000,1000,1000,1000
45663394,1000,1000,1000,1000,109828551,1000,1000,1000,1000
45665893,1000,1000,1000,1000,109928511,1000,1000,1000,1000
45668392,1000,1000,1000,1000,110028471,1000,1000,1000,1000
45670891,1000,1000,1000,1000,110128431,1000,1000,1000,1000
45673390,1000,1000,1000,1000,110228391,1000,1000,1000,1000
45675889,1000,1000,1000,1000,110328351,1000,1000,1000,1000
45678388,1000,1000,1000,1000,110428311,1000,1000,1000,1000
45680887,1000,1000,1000,1000,110528271,1000,1000,1000,1000
45683386,1000,1000,1000,1000,110628231,1000,1000,1000,1000
45685885,1000,1000,1000,1000,110728191,1000,1000,1000,1000
45688384,1000,1000,1000,1000,110828984,1000,1000,1000,1000
45690883,1000,1000,1000,1000,110928944,1000,1000,1000,1000
45693382,1000,1000,1000,1000,111028904,1000,1000,1000,1000
45695881,1000,1000,1000,1000,111128864,1000,1000,1000,1000
45698380,1000,1000,1000,1000,111228824,1000,1000,1000,1000
45700879,1000,1000,1000,1000,111328784,1000,1000,1000,1000
45703378,1000,1000,1000,1000,111428744,1000,1000,1000,1000
45705877,1000,1000,1000,1000,111528704,1000,1000,1000,1000
45708376,1000,1000,1000,1000,111628664,1000,1000,1000,1000
45710875,1000,1000,1000,1000,111728624,1000,1000,1000,1000
45713374,1000,1000,1000,1000,111828584,1000,1000,1000,1000
45715873,1000,1000,1000,1000,111928544,1000,1000,1000,1000
45718372,1000,1000,1000,1000,112028504,1000,1000,1000,1000
45720871,1000,1000,1000,1000,112128464,1000,1000,1000,1000
45723370,1000,1000,1000,1000,112228424,1000,1000,1000,1000
45725869,1000,1000,1000,1000,112328384,1000,1000,1000,1000
45728368,1000,1000,1000,1000,112428344,1000,1000,1000,1000
45730867,1000,1000,1000,1000,112528304,1000,1000,1000,1000
45733366,1000,1000,1000,1000,112628264,1000,1000,1000,1000
45735865,1000,1000,1000,1000,112728224,1000,1000,1000,1000
45738364,1000,1000,1000,1000,112828184,1000,1000,1000,1000
45740863,1000,1000,1000,1000,112928977,1000,1000,1000,1000
45743362,1000,1000,1000,1000,113028937,1000,1000,1000,1000
45745861,1000,1000,1000,1000,113128897,1000,1000,1000,1000
45748360,1000,1000,1000,1000,113228857,1000,1000,1000,1000
45750859,1000,1000,1000,1000,113328817,1000,1000,1000,1000
45753358,1000,1000,1000,1000,113428777,1000,1000,1000,1000
45755857,1000,1000,1000,1000,113528737,1000,1000,1000,1000
45758356,1000,1000,1000,1000,113628697,1000,1000,1000,1000
45760855,1000,1000,1000,1000,113728657,1000,1000,1000,1000
45763354,1000,1000,1000,1000,113828617,1000,1000,1000,1000
45765853,1000,1000,1000,1000,113928577,1000,1000,1000,1000
45768352,1000,1000,1000,1000,,,,,
45770851,1000,1000,1000,1000,,,,,
45773350,1000,1000,1000,1000,,,,,
45775849,1000,1000,1000,1000,,,,,
45778348,1000,1000,1000,1000,,,,,
45780847,1000,1000,1000,1000,,,,,
45783346,1000,1000,1000,1000,,,,,
45785845,1000,1000,1000,1000,,,,,
45788344,1000,1000,1000,1000,,,,,
45790843,1000,1000,1000,1000,,,,,
45793342,1000,1000,1000,1000,,,,,
45795841,1000,1000,1000,1000,,,,,
45798340,1000,1000,1000,1000,,,,,
45800839,1000,1000,1000,1000,,,,,
45803338,1000,1000,1000,1000,,,,,
45805837,1000,1000,1000,1000,,,,,
45808336,1000,1000,1000,1000,,,,,
45810835,1000,1000,1000,1000,,,,,
45813334,1000,1000,1000,1000,,,,,
45815833,1000,1000,1000,1000,,,,,
45818332,1000,1000,1000,1000,,,,,
45820831,1000,1000,1000,1000,,,,,
45823330,1000,1000,1000,1000,,,,,
45825829,1000,1000,1000,1000,,,,,
45828328,1000,1000,1000,1000,,,,,
45830827,1000,1000,1000,1000,,,,,
45833326,1000,1000,1000,1000,,,,,
45835825,1000,1000,1000,1000,,,,,
45838324,1000,1000,1000,1000,,,,,
45840823,1000,1000,1000,1000,,,,,
45843322,1000,1000,1000,1000,,,,,
45845821,1000,1000,1000,1000,,,,,
45848320,1000,1000,1000,1000,,,,,
45850819,1000,1000,1000,1000,,,,,
45853318,1000,1000,1000,1000,,,,,
45855817,1000,1000,1000,1000,,,,,
45858316,1000,1000,1000,1000,,,,,
45860815,1000,1000,1000,1000,,,,,
45863314,1000,1000,1000,1000,,,,,
45865813,1000,1000,1000,1000,,,,,
45868312,1000,1000,1000,1000,,,,,
45870811,1000,1000,1000,1000,,,,,
45873310,1000,1000,1000,1000,,,,,
45875809,1000,1000,1000,1000,,,,,
45878308,1000,1000,1000,1000,,,,,
45880807,1000,1000,1000,1000,,,,,
45883306,1000,1000,1000,1000,,,,,
45885805,1000,1000,1000,1000,,,,,
45888304,1000,1000,1000,1000,,,,,
45890803,1000,1000,1000,1000,,,,,
45893302,1000,1000,1000,1000,,,,,
45895801,1000,1000,1000,1000,,,,,
45898300,1000,1000,1000,1000,,,,,
45900799,1000,1000,1000,1000,,,,,
45903298,1000,1000,1000,1000,,,,,
45905797,1000,1000,1000,1000,,,,,
45908296,1000,1000,1000,1000,,,,,
45910795,1000,1000,1000,1000,,,,,
45913294,1000,1000,1000,1000,,,,,
45915793,1000,1000,1000,1000,,,,,
45918292,1000,1000,1000,1000,,,,,
45920791,1000,1000,1000,1000,,,,,
45923290,1000,1000,1000,1000,,,,,
45925789,1000,1000,1000,1000,,,,,
45928288,1000,1000,1000,1000,,,,,
45930787,1000,1000,1000,1000,,,,,
45933286,1000,1000,1000,1000,,,,,
45935785,1000,1000,1000,1000,,,,,
45938284,1000,1000,1000,1000,,,,,
45940783,1000,1000,1000,1000,,,,,
45943282,1000,1000,1000,1000,,,,,
45945781,1000,1000,1000,1000,,,,,
45948280,1000,1000,1000,1000,,,,,
45950779,1000,1000,1000,1000,,,,,
45953278,1000,1000,1000,1000,,,,,
45955777,1000,1000,1000,1000,,,,,
45958276,1000,1000,1000,1000,,,,,
45960775,1000,1000,1000,1000,,,,,
45963274,1000,1000,1000,1000,,,,,
45965773,1000,1000,1000,1000,,,,,
45968272,1000,1000,1000,1000,,,,,
45970771,1000,1000,1000,1000,,,,,
45973270,1000,1000,1000,1000,,,,,
45975769,1000,1000,1000,1000,,,,,
45978268,1000,1000,1000,1000,,,,,
45980767,1000,1000,1000,1000,,,,,
45983266,1000,1000,1000,1000,,,,,
45985765,1000,1000,1000,1000,,,,,
45988264,1000,1000,1000,1000,,,,,
45990763,1000,1000,1000,1000,,,,,
45993262,1000,1000,1000,1000,,,,,
45995761,1000,1000,1000,1000,,,,,
45998260,1000,1000,1000,1000,,,,,
46000759,1000,1000,1000,1000,,,,,
46003258,1000,1000,1000,1000,,,,,
46005757,1000,1000,1000,1000,,,,,
46008256,1000,1000,1000,1000,,,,,
46010755,1000,1000,1000,1000,,,,,
46013254,1000,1000,1000,1000,,,,,
46015753,1000,1000,1000,1000,,,,,
46018252,1000,1000,1000,1000,,,,,
46020751,1000,1000,1000,1000,,,,,
46023250,1000,1000,1000,1000,,,,,
46025749,1001,1001,1001,1001,,,,,
46028248,1002,1002,1002,1002,,,,,
46030747,1003,1003,1003,1003,,,,,
46033246,1003,1003,1003,1003,,,,,
46035745,1004,1004,1004,1004,,,,,
46038244,1005,1005,1005,1005,,,,,
46040743,1006,1006,1006,1006,,,,,
46043242,1006,1006,1006,1006,,,,,
46045741,1007,1007,1007,1007,,,,,
46048240,1008,1008,1008,1008,,,,,
46050739,1009,1009,1009,1009,,,,,
46053238,1009,1009,1009,1009,,,,,
46055737,1010,1010,1010,1010,,,,,
46058236,1011,1011,1011,1011,,,,,
46060735,1012,1012,1012,1012,,,,,
46063234,1012,1012,1012,1012,,,,,
46065733,1013,1013,1013,1013,,,,,
46068232,1014,1014,1014,1014,,,,,
46070731,1015,1015,1015,1015,,,,,
46073230,1015,1015,1015,1015,,,,,
46075729,1016,1016,1016,1016,,,,,
46078228,1017,1017,1017,1017,,,,,
46080727,1018,1018,1018,1018,,,,,
46083226,1018,1018,1018,1018,,,,,
46085725,1019,1019,1019,1019,,,,,
46088224,1020,1020,1020,1020,,,,,
46090723,1021,1021,1021,1021,,,,,
46093222,1021,1021,1021,1021,,,,,
46095721,1022,1022,1022,1022,,,,,
46098220,1023,1023,1023,1023,,,,,
46100719,1024,1024,1024,1024,,,,,
46103218,1024,1024,1024,1024,,,,,
46105717,1025,1025,1025,1025,,,,,
46108216,1026,1026,1026,1026,,,,,
46110715,1027,1027,1027,1027,,,,,
46113214,1027,1027,1027,1027,,,,,
46115713,1028,1028,1028,1028,,,,,
46118212,1029,1029,1029,1029,,,,,
46120711,1030,1030,1030,1030,,,,,
46123210,1030,1030,1030,1030,,,,,
46125709,1031,1031,1031,1031,,,,,
46128208,1032,1032,1032,1032,,,,,
46130707,1033,1033,1033,1033,,,,,
46133206,1033,1033,1033,1033,,,,,
46135705,1034,1034,1034,1034,,,,,
46138204,1035,1035,1035,1035,,,,,
46140703,1036,1036,1036,1036,,,,,
46143202,1036,1036,1036,1036,,,,,
46145701,1037,1037,1037,1037,,,,,
46148200,1038,1038,1038,1038,,,,,
46150699,1039,1039,1039,1039,,,,,
46153198,1039,1039,1039,1039,,,,,
46155697,1040,1040,1040,1040,,,,,
46158196,1041,1041,1041,1041,,,,,
46160695,1042,1042,1042,1042,,,,,
46163194,1042,1042,1042,1042,,,,,
46165693,1043,1043,1043,1043,,,,,
46168192,1044,1044,1044,1044,,,,,
46170691,1045,1045,1045,1045,,,,,
46173190,1045,1045,1045,1045,,,,,
46175689,1046,1046,1046,1046,,,,,
46178188,1047,1047,1047,1047,,,,,
46180687,1048,1048,1048,1048,,,,,
46183186,1048,1048,1048,1048,,,,,
46185685,1049,1049,1049,1049,,,,,
46188184,1050,1050,1050,1050,,,,,
46190683,1051,1051,1051,1051,,,,,
46193182,1051,1051,1051,1051,,,,,
46195681,1052,1052,1052,1052,,,,,
46198180,1053,1053,1053,1053,,,,,
46200679,1054,1054,1054,1054,,,,,
46203178,1054,1054,1054,1054,,,,,
46205677,1055,1055,1055,1055,,,,,
46208176,1056,1056,1056,1056,,,,,
46210675,1057,1057,1057,1057,,,,,
46213174,1057,1057,1057,1057,,,,,
46215673,1058,1058,1058,1058,,,,,
46218172,1059,1059,1059,1059,,,,,
46220671,1060,1060,1060,1060,,,,,
46223170,1060,1060,1060,1060,,,,,
46225669,1061,1061,1061,1061,,,,,
46228168,1062,1062,1062,1062,,,,,
46230667,1063,1063,1063,1063,,,,,
46233166,1063,1063,1063,1063,,,,,
46235665,1064,1064,1064,1064,,,,,
46238164,1065,1065,1065,1065,,,,,
46240663,1066,1066,1066,1066,,,,,
46243162,1066,1066,1066,1066,,,,,
46245661,1067,1067,1067,1067,,,,,
46248160,1068,1068,1068,1068,,,,,
46250659,1069,1069,1069,1069,,,,,
46253158,1069,1069,1069,1069,,,,,
46255657,1070,1070,1070,1070,,,,,
46258156,1071,1071,1071,1071,,,,,
46260655,1072,1072,1072,1072,,,,,
46263154,1072,1072,1072,1072,,,,,
46266486,1073,1073,1073,1073,,,,,
46268985,1074,1074,1074,1074,,,,,
46271484,1075,1075,1075,1075,,,,,
46273983,1075,1075,1075,1075,,,,,
46276482,1076,1076,1076,1076,,,,,
46278981,1077,1077,1077,1077,,,,,
46281480,1078,1078,1078,1078,,,,,
46283979,1078,1078,1078,1078,,,,,
46286478,1079,1079,1079,1079,,,,,
46288977,1080,1080,1080,1080,,,,,
46291476,1081,1081,1081,1081,,,,,
46293975,1081,1081,1081,1081,,,,,
46296474,1082,1082,1082,1082,,,,,
46298973,1083,1083,1083,1083,,,,,
46301472,1084,1084,1084,1084,,,,,
46303971,1084,1084,1084,1084,,,,,
46306470,1085,1085,1085,1085,,,,,
46308969,1086,1086,1086,1086,,,,,
46311468,1087,1087,1087,1087,,,,,
46313967,1087,1087,1087,1087,,,,,
46316466,1088,1088,1088,1088,,,,,
46318965,1089,1089,1089,1089,,,,,
46321464,1090,1090,1090,1090,,,,,
46323963,1090,1090,1090,1090,,,,,
46326462,1091,1091,1091,1091,,,,,
46328961,1092,1092,1092,1092,,,,,
46331460,1093,1093,1093,1093,,,,,
46333959,1093,1093,1093,1093,,,,,
46336458,1094,1094,1094,1094,,,,,
46338957,1095,1095,1095,1095,,,,,
46341456,1096,1096,1096,1096,,,,,
46343955,1096,1096,1096,1096,,,,,
46346454,1097,1097,1097,1097,,,,,
46348953,1098,1098,1098,1098,,,,,
46351452,1099,1099,1099,1099,,,,,
46353951,1099,1099,1099,1099,,,,,
46356450,1100,1100,1100,1100,,,,,
46358949,1101,1101,1101,1101,,,,,
46361448,1101,1101,1101,1101,,,,,
46363947,1102,1102,1102,1102,,,,,
46366446,1103,1103,1103,1103,,,,,
46368945,1104,1104,1104,1104,,,,,
46371444,1104,1104,1104,1104,,,,,
46373943,1105,1105,1105,1105,,,,,
46376442,1106,1106,1106,1106,,,,,
46378941,1107,1107,1107,1107,,,,,
46381440,1107,1107,1107,1107,,,,,
46383939,1108,1108,1108,1108,,,,,
46386438,1109,1109,1109,1109,,,,,
46388937,1110,1110,1110,1110,,,,,
46391436,1110,1110,1110,1110,,,,,
46393935,1111,1111,1111,1111,,,,,
46396434,1112,1112,1112,1112,,,,,
46398933,1113,1113,1113,1113,,,,,
46401432,1113,1113,1113,1113,,,,,
46403931,1114,1114,1114,1114,,,,,
46406430,1115,1115,1115,1115,,,,,
46408929,1116,1116,1116,1116,,,,,
46411428,1116,1116,1116,1116,,,,,
46413927,1117,1117,1117,1117,,,,,
46416426,1118,1118,1118,1118,,,,,
46418925,1119,1119,1119,1119,,,,,
46421424,1119,1119,1119,1119,,,,,
46423923,1120,1120,1120,1120,,,,,
46426422,1121,1121,1121,1121,,,,,
46428921,1122,1122,1122,1122,,,,,
46431420,1122,1122,1122,1122,,,,,
46433919,1123,1123,1123,1123,,,,,
46436418,1124,1124,1124,1124,,,,,
46438917,1125,1125,1125,1125,,,,,
46441416,1125,1125,1125,1125,,,,,
46443915,1126,1126,1126,1126,,,,,
46446414,1127,1127,1127,1127,,,,,
46448913,1128,1128,1128,1128,,,,,
46451412,1128,1128,1128,1128,,,,,
46453911,1129,1129,1129,1129,,,,,
46456410,1130,1130,1130,1130,,,,,
46458909,1131,1131,1131,1131,,,,,
46461408,1131,1131,1131,1131,,,,,
46463907,1132,1132,1132,1132,,,,,
46466406,1133,1133,1133,1133,,,,,
46468905,1134,1134,1134,1134,,,,,
46471404,1134,1134,1134,1134,,,,,
46473903,1135,1135,1135,1135,,,,,
46476402,1136,1136,1136,1136,,,,,
46478901,1137,1137,1137,1137,,,,,
46481400,1137,1137,1137,1137,,,,,
46483899,1138,1138,1138,1138,,,,,
46486398,1139,1139,1139,1139,,,,,
46488897,1140,1140,1140,1140,,,,,
46491396,1140,1140,1140,1140,,,,,
46493895,1141,1141,1141,1141,,,,,
46496394,1142,1142,1142,1142,,,,,
46498893,1143,1143,1143,1143,,,,,
46501392,1143,1143,1143,1143,,,,,
46503891,1144,1144,1144,1144,,,,,
46506390,1145,1145,1145,1145,,,,,
46508889,1146,1146,1146,1146,,,,,
46511388,1146,1146,1146,1146,,,,,
46513887,1147,1147,1147,1147,,,,,
46516386,1148,1148,1148,1148,,,,,
46518885,1149,1149,1149,1149,,,,,
46521384,1149,1149,1149,1149,,,,,
46523883,1150,1150,1150,1150,,,,,
46526382,1161,1154,1154,1162,,,,,
46528881,1169,1162,1163,1170,,,,,
46531380,1177,1170,1170,1177,,,,,
46533879,1184,1178,1178,1185,,,,,
46536378,1192,1185,1186,1193,,,,,
46538877,1199,1193,1193,1200,,,,,
46541376,1207,1200,1201,1207,,,,,
46543875,1214,1208,1208,1215,,,,,
46546374,1221,1215,1215,1222,,,,,
46548873,1228,1222,1222,1229,,,,,
46551372,1235,1229,1229,1236,,,,,
46553871,1242,1236,1236,1242,,,,,
46556370,1248,1243,1243,1249,,,,,
46558869,1255,1249,1250,1256,,,,,
46561368,1262,1256,1256,1262,,,,,
46563867,1268,1262,1263,1269,,,,,
46566366,1274,1269,1269,1275,,,,,
46568865,1281,1275,1276,1281,,,,,
46571364,1287,1281,1282,1287,,,,,
46573863,1293,1288,1288,1294,,,,,
46576362,1299,1294,1294,1300,,,,,
46578861,1305,1300,1300,1306,,,,,
46581360,1311,1306,1306,1312,,,,,
46583859,1317,1312,1312,1318,,,,,
46586358,1323,1318,1318,1323,,,,,
46588857,1329,1323,1324,1329,,,,,
46591356,1334,1329,1330,1335,,,,,
46593855,1340,1335,1335,1340,,,,,
46596354,1346,1341,1341,1346,,,,,
46598853,1351,1346,1347,1352,,,,,
46601352,1357,1352,1352,1357,,,,,
46603851,1362,1357,1358,1362,,,,,
46606350,1367,1363,1363,1368,,,,,
46608849,1373,1368,1368,1373,,,,,
46611348,1378,1373,1374,1379,,,,,
46613847,1383,1379,1379,1384,,,,,
46616346,1389,1384,1384,1389,,,,,
46618845,1394,1389,1389,1394,,,,,
46621344,1399,1394,1395,1399,,,,,
46623843,1404,1399,1400,1404,,,,,
46626342,1409,1404,1405,1409,,,,,
46628841,1414,1410,1410,1414,,,,,
46631340,1419,1415,1415,1419,,,,,
46633839,1424,1420,1420,1424,,,,,
46636338,1429,1424,1425,1429,,,,,
46638837,1434,1429,1430,1434,,,,,
46641336,1439,1434,1434,1439,,,,,
46643835,1443,1439,1439,1444,,,,,
46646334,1448,1444,1444,1449,,,,,
46648833,1453,1449,1449,1453,,,,,
46651332,1458,1453,1454,1458,,,,,
46653831,1462,1458,1458,1463,,,,,
46656330,1467,1463,1463,1467,,,,,
46658829,1471,1467,1467,1472,,,,,
46661328,1476,1472,1472,1477,,,,,
46663827,1481,1476,1477,1481,,,,,
46666326,1485,1481,1481,1486,,,,,
46668825,1490,1486,1486,1490,,,,,
46671324,1494,1490,1490,1495,,,,,
46673823,1499,1494,1495,1499,,,,,
46676322,1503,1499,1499,1504,,,,,
46678821,1507,1503,1504,1508,,,,,
46681320,1512,1508,1508,1512,,,,,
46683819,1516,1512,1512,1517,,,,,
46686318,1521,1516,1517,1521,,,,,
46688817,1525,1521,1521,1525,,,,,
46691316,1529,1525,1525,1530,,,,,
46693815,1533,1529,1529,1534,,,,,
46696314,1538,1533,1534,1538,,,,,
46698813,1542,1538,1538,1542,,,,,
46701312,1546,1542,1542,1546,,,,,
46703811,1550,1546,1546,1551,,,,,
46706310,1554,1550,1550,1555,,,,,
46708809,1559,1554,1555,1559,,,,,
46711308,1563,1558,1559,1563,,,,,
46713807,1567,1562,1563,1567,,,,,
46716306,1571,1566,1567,1571,,,,,
46718805,1575,1571,1571,1575,,,,,
46721304,1579,1575,1575,1579,,,,,
46723803,1583,1579,1579,1583,,,,,
46726302,1587,1583,1583,1587,,,,,
46728801,1591,1587,1587,1591,,,,,
46731300,1595,1591,1591,1595,,,,,
46733799,1599,1594,1595,1599,,,,,
46736298,1602,1598,1599,1603,,,,,
46738797,1606,1602,1602,1607,,,,,
46741296,1610,1606,1606,1611,,,,,
46743795,1614,1610,1610,1614,,,,,
46746294,1618,1614,1614,1618,,,,,
46748793,1622,1618,1618,1622,,,,,
46751292,1625,1622,1622,1626,,,,,
46753791,1629,1625,1625,1630,,,,,
46756290,1633,1629,1629,1633,,,,,
46758789,1637,1633,1633,1637,,,,,
46761288,1640,1637,1637,1641,,,,,
46763787,1644,1640,1641,1645,,,,,
46766286,1648,1644,1644,1648,,,,,
46768785,1652,1648,1648,1652,,,,,
46771284,1655,1652,1652,1656,,,,,
46773783,1659,1655,1655,1659,,,,,
46776282,1663,1659,1659,1663,,,,,
46778781,1666,1662,1663,1667,,,,,
46781280,1670,1666,1666,1670,,,,,
46783779,1673,1670,1670,1674,,,,,
46786278,1677,1673,1673,1677,,,,,
46788777,1681,1677,1677,1681,,,,,
46791276,1684,1680,1681,1685,,,,,
46793775,1688,1684,1684,1688,,,,,
46796274,1691,1688,1688,1692,,,,,
46798773,1695,1691,1691,1695,,,,,
46801272,1698,1695,1695,1699,,,,,
46803771,1702,1698,1698,1702,,,,,
46806270,1705,1702,1702,1706,,,,,
46808769,1709,1705,1705,1709,,,,,
46811268,1712,1708,1709,1713,,,,,
46813767,1716,1712,1712,1716,,,,,
46816266,1719,1715,1716,1719,,,,,
46818765,1722,1719,1719,1723,,,,,
46821264,1726,1722,1722,1726,,,,,
46823763,1729,1726,1726,1730,,,,,
46826262,1733,1729,1729,1733,,,,,
46828761,1736,1732,1733,1736,,,,,
46831260,1739,1736,1736,1740,,,,,
46833759,1743,1739,1739,1743,,,,,
46836258,1746,1742,1743,1746,,,,,
46838757,1749,1746,1746,1750,,,,,
46841256,1753,1749,1749,1753,,,,,
46843755,1756,1752,1753,1756,,,,,
46846254,1759,1756,1756,1760,,,,,
46848753,1763,1759,1759,1763,,,,,
46851252,1766,1762,1763,1766,,,,,
46853751,1769,1765,1766,1769,,,,,
46856250,1772,1769,1769,1773,,,,,
46858749,1776,1772,1772,1776,,,,,
46861248,1779,1775,1776,1779,,,,,
46863747,1782,1778,1779,1782,,,,,
46866246,1785,1782,1782,1786,,,,,
46868745,1789,1785,1785,1789,,,,,
46871244,1792,1788,1788,1792,,,,,
46873743,1795,1791,1792,1795,,,,,
46876242,1798,1794,1795,1798,,,,,
46878741,1801,1798,1798,1801,,,,,
46881240,1805,1801,1801,1805,,,,,
46883739,1808,1804,1804,1808,,,,,
46886238,1811,1807,1807,1811,,,,,
46888737,1814,1810,1811,1814,,,,,
46891236,1817,1813,1814,1817,,,,,
46893735,1820,1816,1817,1820,,,,,
46896234,1823,1819,1820,1823,,,,,
46898733,1826,1823,1823,1826,,,,,
46901232,1829,1826,1826,1829,,,,,
46903731,1833,1829,1829,1833,,,,,
46906230,1836,1832,1832,1836,,,,,
46908729,1839,1835,1835,1839,,,,,
46911228,1842,1838,1838,1842,,,,,
46913727,1845,1841,1841,1845,,,,,
46916226,1848,1844,1844,1848,,,,,
46918725,1851,1847,1847,1851,,,,,
46921224,1854,1850,1851,1854,,,,,
46923723,1857,1853,1854,1857,,,,,
46926222,1860,1856,1857,1860,,,,,
46928721,1863,1859,1860,1863,,,,,
46931220,1866,1862,1863,1866,,,,,
46933719,1869,1865,1865,1869,,,,,
46936218,1872,1868,1868,1872,,,,,
46938717,1875,1871,1871,1875,,,,,
46941216,1878,1874,1874,1878,,,,,
46943715,1881,1877,1877,1881,,,,,
46946214,1884,1880,1880,1883,,,,,
46948713,1887,1883,1883,1886,,,,,
46951212,1889,1885,1886,1889,,,,,
46953711,1892,1888,1889,1892,,,,,
46956210,1895,1891,1892,1895,,,,,
46958709,1898,1894,1895,1898,,,,,
46961208,1901,1897,1898,1901,,,,,
46963707,1904,1900,1901,1904,,,,,
46966206,1907,1903,1903,1907,,,,,
46968705,1910,1906,1906,1910,,,,,
46971204,1912,1909,1909,1912,,,,,
46973703,1915,1912,1912,1915,,,,,
46976202,1918,1914,1915,1918,,,,,
46978701,1921,1917,1918,1921,,,,,
46981200,1924,1920,1921,1924,,,,,
46983699,1927,1923,1923,1927,,,,,
46986198,1929,1926,1926,1929,,,,,
46988697,1932,1929,1929,1932,,,,,
46991196,1935,1931,1932,1935,,,,,
46993695,1938,1934,1935,1938,,,,,
46996194,1941,1937,1937,1941,,,,,
46998693,1943,1940,1940,1943,,,,,
47001192,1945,1942,1942,1945,,,,,
47003691,1945,1941,1942,1945,,,,,
47006190,1944,1941,1941,1944,,,,,
47008689,1944,1940,1941,1944,,,,,
47011188,1943,1940,1940,1943,,,,,
47013687,1943,1940,1940,1943,,,,,
47016186,1942,1939,1939,1942,,,,,
47018685,1942,1939,1939,1942,,,,,
47021184,1941,1938,1938,1941,,,,,
47023683,1940,1938,1938,1941,,,,,
47026182,1939,1937,1937,1940,,,,,
47028681,1939,1936,1937,1939,,,,,
47031180,1938,1936,1936,1938,,,,,
47033679,1937,1935,1935,1937,,,,,
47036178,1935,1933,1934,1936,,,,,
47038677,1934,1932,1932,1934,,,,,
47041176,1933,1931,1931,1933,,,,,
47043675,1931,1929,1929,1931,,,,,
47046174,1929,1928,1928,1930,,,,,
47048673,1928,1926,1926,1928,,,,,
47051172,1926,1924,1924,1926,,,,,
47053671,1923,1922,1922,1924,,,,,
47056170,1921,1920,1920,1922,,,,,
47058669,1919,1917,1917,1919,,,,,
47061168,1917,1915,1915,1917,,,,,
47063667,1914,1913,1913,1915,,,,,
47066166,1912,1910,1910,1912,,,,,
47068665,1909,1907,1908,1909,,,,,
47071164,1906,1905,1905,1907,,,,,
47073663,1903,1902,1902,1904,,,,,
47076162,1901,1899,1899,1901,,,,,
47078661,1898,1896,1896,1898,,,,,
47081160,1895,1893,1893,1895,,,,,
47083659,1892,1890,1890,1892,,,,,
47086158,1888,1887,1887,1889,,,,,
47088657,1885,1884,1884,1886,,,,,
47091156,1882,1880,1881,1882,,,,,
47093655,1879,1877,1877,1879,,,,,
47096154,1875,1874,1874,1876,,,,,
47098653,1872,1871,1871,1872,,,,,
47101152,1869,1867,1867,1869,,,,,
47103651,1865,1864,1864,1865,,,,,
47106150,1862,1860,1860,1862,,,,,
47108649,1858,1857,1857,1859,,,,,
47111148,1855,1854,1854,1855,,,,,
47113647,1851,1850,1850,1852,,,,,
47116146,1848,1847,1847,1848,,,,,
47118645,1844,1843,1843,1845,,,,,
47121144,1841,1840,1840,1841,,,,,
47123643,1837,1836,1836,1838,,,,,
47126142,1834,1833,1833,1834,,,,,
47128641,1830,1830,1830,1831,,,,,
47131140,1827,1826,1826,1827,,,,,
47133639,1823,1823,1823,1824,,,,,
47136138,1820,1819,1819,1820,,,,,
47138637,1816,1816,1816,1817,,,,,
47141136,1813,1812,1812,1813,,,,,
47143635,1809,1809,1809,1810,,,,,
47146134,1806,1805,1805,1807,,,,,
47148633,1802,1802,1802,1803,,,,,
47151132,1799,1799,1798,1800,,,,,
47153631,1796,1795,1795,1796,,,,,
47156130,1792,1792,1792,1793,,,,,
47158629,1789,1789,1788,1789,,,,,
47161128,1785,1785,1785,1786,,,,,
47163627,1782,1782,1782,1783,,,,,
47166126,1779,1779,1779,1779,,,,,
47168625,1776,1776,1776,1776,,,,,
47171124,1772,1772,1772,1773,,,,,
47173623,1769,1769,1769,1770,,,,,
47176122,1766,1766,1766,1766,,,,,
47178621,1763,1763,1763,1763,,,,,
