timestamp,TimeUS,C1,C2,C3,C4,C5,C6,C7,C8,C9,C10,C11,C12,C13,C14
1682696892.10004020,53928420,1000,1000,1000,1000,0,0,0,0,0,0,0,0,0,0
1682696892.20000005,54028380,1000,1000,1000,1000,0,0,0,0,0,0,0,0,0,0
1682696892.29996014,54128340,1000,1000,1000,1000,0,0,0,0,0,0,0,0,0,0
1682696892.39992023,54228300,1000,1000,1000,1000,0,0,0,0,0,0,0,0,0,0
1682696892.49988008,54328260,1000,1000,1000,1000,0,0,0,0,0,0,0,0,0,0
1682696892.59984016,54428220,1000,1000,1000,1000,0,0,0,0,0,0,0,0,0,0
1682696892.69980001,54528180,1000,1000,1000,1000,0,0,0,0,0,0,0,0,0,0
1682696892.80059314,54628973,1000,1000,1000,1000,0,0,0,0,0,0,0,0,0,0
1682696892.90055323,54728933,1000,1000,1000,1000,0,0,0,0,0,0,0,0,0,0
1682696893.00051308,54828893,1000,1000,1000,1000,0,0,0,0,0,0,0,0,0,0
1682696893.10047317,54928853,1000,1000,1000,1000,0,0,0,0,0,0,0,0,0,0
1682696893.20043302,55028813,1000,1000,1000,1000,0,0,0,0,0,0,0,0,0,0
1682696893.30039310,55128773,1000,1000,1000,1000,0,0,0,0,0,0,0,0,0,0
1682696893.40035319,55228733,1000,1000,1000,1000,0,0,0,0,0,0,0,0,0,0
1682696893.50031304,55328693,1000,1000,1000,1000,0,0,0,0,0,0,0,0,0,0
1682696893.60027313,55428653,1000,1000,1000,1000,0,0,0,0,0,0,0,0,0,0
1682696893.70023322,55528613,1000,1000,1000,1000,0,0,0,0,0,0,0,0,0,0
1682696893.80019307,55628573,1000,1000,1000,1000,0,0,0,0,0,0,0,0,0,0
1682696893.90015316,55728533,1000,1000,1000,1000,0,0,0,0,0,0,0,0,0,0
1682696894.00011325,55828493,1000,1000,1000,1000,0,0,0,0,0,0,0,0,0,0
1682696894.10007310,55928453,1003,1003,1003,1003,0,0,0,0,0,0,0,0,0,0
1682696894.20003319,56028413,1033,1033,1033,1033,0,0,0,0,0,0,0,0,0,0
1682696894.29999304,56128373,1063,1063,1063,1063,0,0,0,0,0,0,0,0,0,0
1682696894.39995313,56228333,1093,1093,1093,1093,0,0,0,0,0,0,0,0,0,0
1682696894.49991322,56328293,1123,1123,1123,1123,0,0,0,0,0,0,0,0,0,0
1682696894.59987307,56428253,1185,1177,1178,1186,0,0,0,0,0,0,0,0,0,0
1682696894.69983315,56528213,1425,1419,1419,1425,0,0,0,0,0,0,0,0,0,0
1682696894.79979324,56628173,1599,1594,1594,1599,0,0,0,0,0,0,0,0,0,0
1682696894.90058613,56728966,1743,1738,1739,1744,0,0,0,0,0,0,0,0,0,0
1682696895.00054622,56828926,1869,1864,1865,1870,0,0,0,0,0,0,0,0,0,0
1682696895.10050607,56928886,1931,1927,1928,1931,0,0,0,0,0,0,0,0,0,0
1682696895.20046616,57028846,1819,1817,1818,1819,0,0,0,0,0,0,0,0,0,0
1682696895.30042624,57128806,1698,1699,1699,1699,0,0,0,0,0,0,0,0,0,0
1682696895.40038610,57228766,1645,1647,1647,1645,0,0,0,0,0,0,0,0,0,0
1682696895.50034618,57328726,1638,1640,1641,1638,0,0,0,0,0,0,0,0,0,0
1682696895.60030603,57428686,1645,1646,1646,1644,0,0,0,0,0,0,0,0,0,0
1682696895.70026612,57528646,1642,1643,1643,1642,0,0,0,0,0,0,0,0,0,0
1682696895.80022621,57628606,1634,1633,1633,1634,0,0,0,0,0,0,0,0,0,0
1682696895.90018606,57728566,1625,1624,1624,1625,0,0,0,0,0,0,0,0,0,0
1682696896.00014615,57828526,1618,1617,1616,1618,0,0,0,0,0,0,0,0,0,0
1682696896.10010624,57928486,1596,1596,1596,1596,0,0,0,0,0,0,0,0,0,0
1682696896.20006609,58028446,1575,1574,1574,1574,0,0,0,0,0,0,0,0,0,0
1682696896.30002618,58128406,1562,1561,1561,1562,0,0,0,0,0,0,0,0,0,0
1682696896.39998603,58228366,1553,1552,1552,1553,0,0,0,0,0,0,0,0,0,0
1682696896.49994612,58328326,1544,1545,1544,1545,0,0,0,0,0,0,0,0,0,0
1682696896.59990621,58428286,1540,1540,1536,1544,0,0,0,0,0,0,0,0,0,0
1682696896.69986606,58528246,1536,1536,1532,1540,0,0,0,0,0,0,0,0,0,0
1682696896.79982615,58628206,1534,1534,1531,1537,0,0,0,0,0,0,0,0,0,0
1682696896.89978623,58728166,1532,1532,1531,1534,0,0,0,0,0,0,0,0,0,0
1682696897.00057912,58828959,1532,1532,1533,1531,0,0,0,0,0,0,0,0,0,0
1682696897.10053921,58928919,1535,1535,1538,1533,0,0,0,0,0,0,0,0,0,0
1682696897.20049906,59028879,1539,1539,1542,1536,0,0,0,0,0,0,0,0,0,0
1682696897.30045915,59128839,1544,1544,1546,1542,0,0,0,0,0,0,0,0,0,0
1682696897.40041924,59228799,1542,1542,1549,1535,0,0,0,0,0,0,0,0,0,0
1682696897.50037909,59328759,1543,1542,1549,1536,0,0,0,0,0,0,0,0,0,0
1682696897.60033917,59428719,1543,1543,1544,1543,0,0,0,0,0,0,0,0,0,0
1682696897.70029902,59528679,1544,1544,1540,1549,0,0,0,0,0,0,0,0,0,0
1682696897.80025911,59628639,1544,1544,1538,1551,0,0,0,0,0,0,0,0,0,0
1682696897.90021920,59728599,1545,1545,1540,1551,0,0,0,0,0,0,0,0,0,0
1682696898.00017905,59828559,1547,1547,1544,1550,0,0,0,0,0,0,0,0,0,0
1682696898.10013914,59928519,1551,1551,1551,1551,0,0,0,0,0,0,0,0,0,0
1682696898.20009923,60028479,1554,1554,1557,1551,0,0,0,0,0,0,0,0,0,0
1682696898.30005908,60128439,1558,1558,1561,1555,0,0,0,0,0,0,0,0,0,0
1682696898.40001917,60228399,1560,1560,1563,1557,0,0,0,0,0,0,0,0,0,0
1682696898.49997902,60328359,1562,1562,1562,1561,0,0,0,0,0,0,0,0,0,0
1682696898.59993911,60428319,1563,1563,1562,1564,0,0,0,0,0,0,0,0,0,0
1682696898.69989920,60528279,1558,1557,1567,1571,0,0,0,0,0,0,0,0,0,0
1682696898.79985905,60628239,1557,1558,1568,1572,0,0,0,0,0,0,0,0,0,0
1682696898.89981914,60728199,1560,1560,1568,1570,0,0,0,0,0,0,0,0,0,0
1682696898.99977922,60828159,1563,1564,1567,1569,0,0,0,0,0,0,0,0,0,0
1682696899.10057211,60928952,1565,1566,1566,1566,0,0,0,0,0,0,0,0,0,0
1682696899.20053220,61028912,1568,1568,1565,1564,0,0,0,0,0,0,0,0,0,0
1682696899.30049205,61128872,1571,1570,1565,1564,0,0,0,0,0,0,0,0,0,0
1682696899.40045214,61228832,1573,1573,1566,1566,0,0,0,0,0,0,0,0,0,0
1682696899.50041223,61328792,1574,1574,1566,1566,0,0,0,0,0,0,0,0,0,0
1682696899.60037208,61428752,1574,1574,1567,1567,0,0,0,0,0,0,0,0,0,0
1682696899.70033216,61528712,1575,1575,1568,1569,0,0,0,0,0,0,0,0,0,0
1682696899.80029202,61628672,1574,1574,1570,1570,0,0,0,0,0,0,0,0,0,0
1682696899.90025210,61728632,1574,1574,1571,1571,0,0,0,0,0,0,0,0,0,0
1682696900.00021219,61828592,1573,1573,1572,1572,0,0,0,0,0,0,0,0,0,0
1682696900.10017204,61928552,1573,1573,1574,1573,0,0,0,0,0,0,0,0,0,0
1682696900.20013213,62028512,1574,1574,1576,1575,0,0,0,0,0,0,0,0,0,0
1682696900.30009222,62128472,1573,1573,1576,1575,0,0,0,0,0,0,0,0,0,0
1682696900.40005207,62228432,1574,1574,1577,1576,0,0,0,0,0,0,0,0,0,0
1682696900.50001216,62328392,1574,1574,1577,1576,0,0,0,0,0,0,0,0,0,0
1682696900.59997225,62428352,1574,1575,1577,1577,0,0,0,0,0,0,0,0,0,0
1682696900.69993210,62528312,1575,1574,1576,1577,0,0,0,0,0,0,0,0,0,0
1682696900.79989219,62628272,1576,1576,1577,1577,0,0,0,0,0,0,0,0,0,0
1682696900.89985204,62728232,1576,1576,1576,1577,0,0,0,0,0,0,0,0,0,0
1682696900.99981213,62828192,1577,1577,1576,1577,0,0,0,0,0,0,0,0,0,0
1682696901.10060525,62928985,1577,1577,1577,1576,0,0,0,0,0,0,0,0,0,0
1682696901.20056510,63028945,1577,1578,1577,1576,0,0,0,0,0,0,0,0,0,0
1682696901.30052519,63128905,1577,1577,1576,1576,0,0,0,0,0,0,0,0,0,0
1682696901.40048504,63228865,1578,1578,1577,1577,0,0,0,0,0,0,0,0,0,0
1682696901.50044513,63328825,1578,1577,1577,1577,0,0,0,0,0,0,0,0,0,0
1682696901.60040522,63428785,1579,1579,1578,1578,0,0,0,0,0,0,0,0,0,0
1682696901.70036507,63528745,1578,1578,1577,1578,0,0,0,0,0,0,0,0,0,0
1682696901.80032516,63628705,1578,1579,1578,1578,0,0,0,0,0,0,0,0,0,0
1682696901.90028524,63728665,1579,1579,1579,1579,0,0,0,0,0,0,0,0,0,0
1682696902.00024509,63828625,1579,1579,1579,1579,0,0,0,0,0,0,0,0,0,0
1682696902.10020518,63928585,1579,1579,1579,1580,0,0,0,0,0,0,0,0,0,0
1682696902.20016503,64028545,1578,1578,1579,1578,0,0,0,0,0,0,0,0,0,0
1682696902.30012512,64128505,1579,1579,1579,1580,0,0,0,0,0,0,0,0,0,0
1682696902.40008521,64228465,1579,1579,1579,1579,0,0,0,0,0,0,0,0,0,0
1682696902.50004506,64328425,1579,1579,1579,1579,0,0,0,0,0,0,0,0,0,0
1682696902.60000515,64428385,1579,1579,1580,1580,0,0,0,0,0,0,0,0,0,0
1682696902.69996524,64528345,1579,1579,1579,1580,0,0,0,0,0,0,0,0,0,0
1682696902.79992509,64628305,1579,1579,1579,1579,0,0,0,0,0,0,0,0,0,0
1682696902.89988518,64728265,1579,1579,1579,1579,0,0,0,0,0,0,0,0,0,0
1682696902.99984503,64828225,1580,1580,1580,1580,0,0,0,0,0,0,0,0,0,0
1682696903.09980512,64928185,1580,1580,1580,1580,0,0,0,0,0,0,0,0,0,0
1682696903.20059824,65028978,1580,1579,1579,1579,0,0,0,0,0,0,0,0,0,0
1682696903.30055809,65128938,1580,1579,1579,1579,0,0,0,0,0,0,0,0,0,0
1682696903.40051818,65228898,1580,1580,1580,1580,0,0,0,0,0,0,0,0,0,0
1682696903.50047803,65328858,1580,1580,1580,1580,0,0,0,0,0,0,0,0,0,0
1682696903.60043812,65428818,1580,1580,1580,1580,0,0,0,0,0,0,0,0,0,0
1682696903.70039821,65528778,1580,1580,1580,1580,0,0,0,0,0,0,0,0,0,0
1682696903.80035806,65628738,1580,1580,1580,1580,0,0,0,0,0,0,0,0,0,0
1682696903.90031815,65728698,1580,1580,1580,1580,0,0,0,0,0,0,0,0,0,0
1682696904.00027823,65828658,1579,1579,1580,1579,0,0,0,0,0,0,0,0,0,0
1682696904.10023808,65928618,1580,1580,1580,1580,0,0,0,0,0,0,0,0,0,0
1682696904.20019817,66028578,1580,1581,1581,1581,0,0,0,0,0,0,0,0,0,0
1682696904.30015802,66128538,1580,1581,1581,1581,0,0,0,0,0,0,0,0,0,0
1682696904.40011811,66228498,1581,1581,1581,1580,0,0,0,0,0,0,0,0,0,0
1682696904.50007820,66328458,1581,1580,1580,1581,0,0,0,0,0,0,0,0,0,0
1682696904.60003805,66428418,1581,1581,1581,1581,0,0,0,0,0,0,0,0,0,0
1682696904.69999814,66528378,1582,1581,1581,1581,0,0,0,0,0,0,0,0,0,0
1682696904.79995823,66628338,1582,1582,1582,1582,0,0,0,0,0,0,0,0,0,0
1682696904.89991808,66728298,1581,1581,1582,1581,0,0,0,0,0,0,0,0,0,0
1682696904.99987817,66828258,1582,1583,1589,1574,0,0,0,0,0,0,0,0,0,0
1682696905.09983802,66928218,1581,1583,1586,1574,0,0,0,0,0,0,0,0,0,0
1682696905.19979811,67028178,1578,1581,1576,1573,0,0,0,0,0,0,0,0,0,0
1682696905.30059123,67128971,1577,1580,1568,1572,0,0,0,0,0,0,0,0,0,0
1682696905.40055108,67228931,1577,1579,1561,1568,0,0,0,0,0,0,0,0,0,0
1682696905.50051117,67328891,1578,1578,1557,1563,0,0,0,0,0,0,0,0,0,0
1682696905.60047102,67428851,1579,1578,1555,1558,0,0,0,0,0,0,0,0,0,0
1682696905.70043111,67528811,1579,1577,1555,1555,0,0,0,0,0,0,0,0,0,0
1682696905.80039120,67628771,1578,1577,1555,1553,0,0,0,0,0,0,0,0,0,0
1682696905.90035105,67728731,1577,1577,1555,1553,0,0,0,0,0,0,0,0,0,0
1682696906.00031114,67828691,1577,1578,1556,1554,0,0,0,0,0,0,0,0,0,0
1682696906.10027122,67928651,1575,1576,1555,1554,0,0,0,0,0,0,0,0,0,0
1682696906.20023108,68028611,1575,1576,1554,1554,0,0,0,0,0,0,0,0,0,0
1682696906.30019116,68128571,1575,1576,1553,1554,0,0,0,0,0,0,0,0,0,0
1682696906.40015101,68228531,1575,1577,1552,1552,0,0,0,0,0,0,0,0,0,0
1682696906.50011110,68328491,1577,1579,1551,1551,0,0,0,0,0,0,0,0,0,0
1682696906.60007119,68428451,1578,1580,1548,1548,0,0,0,0,0,0,0,0,0,0
1682696906.70003104,68528411,1581,1582,1545,1545,0,0,0,0,0,0,0,0,0,0
1682696906.79999113,68628371,1582,1583,1541,1541,0,0,0,0,0,0,0,0,0,0
1682696906.89995122,68728331,1587,1587,1539,1539,0,0,0,0,0,0,0,0,0,0
1682696906.99991107,68828291,1590,1590,1537,1537,0,0,0,0,0,0,0,0,0,0
1682696907.09987116,68928251,1592,1592,1535,1535,0,0,0,0,0,0,0,0,0,0
1682696907.19983125,69028211,1594,1594,1534,1535,0,0,0,0,0,0,0,0,0,0
1682696907.29979110,69128171,1594,1594,1535,1535,0,0,0,0,0,0,0,0,0,0
1682696907.40058422,69228964,1594,1594,1537,1539,0,0,0,0,0,0,0,0,0,0
1682696907.50054407,69328924,1592,1591,1540,1542,0,0,0,0,0,0,0,0,0,0
1682696907.60050416,69428884,1588,1587,1545,1548,0,0,0,0,0,0,0,0,0,0
1682696907.70046425,69528844,1582,1579,1552,1555,0,0,0,0,0,0,0,0,0,0
1682696907.80042410,69628804,1574,1570,1562,1565,0,0,0,0,0,0,0,0,0,0
1682696907.90038419,69728764,1564,1560,1574,1576,0,0,0,0,0,0,0,0,0,0
1682696908.00034404,69828724,1554,1550,1587,1588,0,0,0,0,0,0,0,0,0,0
1682696908.10030413,69928684,1543,1541,1599,1598,0,0,0,0,0,0,0,0,0,0
1682696908.20026422,70028644,1535,1535,1608,1607,0,0,0,0,0,0,0,0,0,0
1682696908.30022407,70128604,1530,1531,1613,1612,0,0,0,0,0,0,0,0,0,0
1682696908.40018415,70228564,1529,1530,1615,1614,0,0,0,0,0,0,0,0,0,0
1682696908.50014424,70328524,1533,1535,1614,1613,0,0,0,0,0,0,0,0,0,0
1682696908.60010409,70428484,1536,1539,1608,1608,0,0,0,0,0,0,0,0,0,0
1682696908.70006418,70528444,1545,1546,1603,1603,0,0,0,0,0,0,0,0,0,0
1682696908.80002403,70628404,1553,1554,1595,1595,0,0,0,0,0,0,0,0,0,0
1682696908.89998412,70728364,1562,1563,1589,1588,0,0,0,0,0,0,0,0,0,0
1682696908.99994421,70828324,1571,1571,1582,1581,0,0,0,0,0,0,0,0,0,0
1682696909.09990406,70928284,1579,1578,1576,1576,0,0,0,0,0,0,0,0,0,0
1682696909.19986415,71028244,1584,1582,1571,1571,0,0,0,0,0,0,0,0,0,0
1682696909.29982424,71128204,1587,1585,1568,1568,0,0,0,0,0,0,0,0,0,0
1682696909.39978409,71228164,1588,1586,1566,1566,0,0,0,0,0,0,0,0,0,0
1682696909.50057721,71328957,1603,1557,1583,1537,0,0,0,0,0,0,0,0,0,0
1682696909.60053706,71428917,1605,1582,1587,1566,0,0,0,0,0,0,0,0,0,0
1682696909.70049715,71528877,1602,1583,1590,1571,0,0,0,0,0,0,0,0,0,0
1682696909.80045724,71628837,1596,1585,1590,1579,0,0,0,0,0,0,0,0,0,0
1682696909.90041709,71728797,1588,1586,1587,1585,0,0,0,0,0,0,0,0,0,0
1682696910.00037718,71828757,1578,1583,1583,1587,0,0,0,0,0,0,0,0,0,0
1682696910.10033703,71928717,1572,1580,1581,1588,0,0,0,0,0,0,0,0,0,0
1682696910.20029712,72028677,1568,1576,1580,1588,0,0,0,0,0,0,0,0,0,0
1682696910.30025721,72128637,1569,1574,1582,1587,0,0,0,0,0,0,0,0,0,0
1682696910.40021706,72228597,1571,1573,1583,1584,0,0,0,0,0,0,0,0,0,0
1682696910.50017715,72328557,1573,1573,1583,1583,0,0,0,0,0,0,0,0,0,0
1682696910.60013723,72428517,1576,1574,1583,1581,0,0,0,0,0,0,0,0,0,0
1682696910.70009708,72528477,1578,1576,1582,1580,0,0,0,0,0,0,0,0,0,0
1682696910.80005717,72628437,1580,1579,1582,1580,0,0,0,0,0,0,0,0,0,0
1682696910.90001702,72728397,1581,1580,1579,1579,0,0,0,0,0,0,0,0,0,0
1682696910.99997711,72828357,1581,1581,1577,1577,0,0,0,0,0,0,0,0,0,0
1682696911.09993720,72928317,1580,1580,1575,1576,0,0,0,0,0,0,0,0,0,0
1682696911.19989705,73028277,1580,1581,1574,1576,0,0,0,0,0,0,0,0,0,0
1682696911.29985714,73128237,1580,1581,1574,1575,0,0,0,0,0,0,0,0,0,0
1682696911.39981723,73228197,1580,1581,1575,1576,0,0,0,0,0,0,0,0,0,0
1682696911.49977708,73328157,1580,1580,1576,1576,0,0,0,0,0,0,0,0,0,0
1682696911.60057020,73428950,1581,1580,1578,1577,0,0,0,0,0,0,0,0,0,0
1682696911.70053005,73528910,1580,1580,1578,1578,0,0,0,0,0,0,0,0,0,0
1682696911.80049014,73628870,1579,1579,1578,1578,0,0,0,0,0,0,0,0,0,0
1682696911.90045023,73728830,1579,1579,1579,1579,0,0,0,0,0,0,0,0,0,0
1682696912.00041008,73828790,1578,1579,1580,1580,0,0,0,0,0,0,0,0,0,0
1682696912.10037017,73928750,1578,1578,1579,1580,0,0,0,0,0,0,0,0,0,0
1682696912.20033002,74028710,1579,1579,1581,1581,0,0,0,0,0,0,0,0,0,0
1682696912.30029011,74128670,1579,1579,1581,1580,0,0,0,0,0,0,0,0,0,0
1682696912.40025020,74228630,1580,1580,1581,1581,0,0,0,0,0,0,0,0,0,0
1682696912.50021005,74328590,1580,1580,1581,1581,0,0,0,0,0,0,0,0,0,0
1682696912.60017014,74428550,1579,1579,1579,1580,0,0,0,0,0,0,0,0,0,0
1682696912.70013022,74528510,1580,1580,1580,1580,0,0,0,0,0,0,0,0,0,0
1682696912.80009007,74628470,1580,1581,1580,1580,0,0,0,0,0,0,0,0,0,0
1682696912.90005016,74728430,1580,1580,1580,1580,0,0,0,0,0,0,0,0,0,0
1682696913.00001001,74828390,1580,1581,1585,1572,0,0,0,0,0,0,0,0,0,0
1682696913.09997010,74928350,1580,1583,1583,1570,0,0,0,0,0,0,0,0,0,0
1682696913.19993019,75028310,1580,1583,1576,1572,0,0,0,0,0,0,0,0,0,0
1682696913.29989004,75128270,1579,1581,1566,1569,0,0,0,0,0,0,0,0,0,0
1682696913.39985013,75228230,1578,1580,1559,1566,0,0,0,0,0,0,0,0,0,0
1682696913.49981022,75328190,1579,1580,1555,1561,0,0,0,0,0,0,0,0,0,0
1682696913.60060310,75428983,1581,1580,1554,1558,0,0,0,0,0,0,0,0,0,0
1682696913.70056319,75528943,1581,1579,1553,1554,0,0,0,0,0,0,0,0,0,0
1682696913.80052304,75628903,1580,1579,1553,1552,0,0,0,0,0,0,0,0,0,0
1682696913.90048313,75728863,1580,1580,1555,1552,0,0,0,0,0,0,0,0,0,0
1682696914.00044322,75828823,1579,1580,1555,1553,0,0,0,0,0,0,0,0,0,0
1682696914.10040307,75928783,1578,1579,1554,1553,0,0,0,0,0,0,0,0,0,0
1682696914.20036316,76028743,1576,1578,1554,1553,0,0,0,0,0,0,0,0,0,0
1682696914.30032325,76128703,1576,1578,1552,1553,0,0,0,0,0,0,0,0,0,0
1682696914.40028310,76228663,1576,1578,1551,1551,0,0,0,0,0,0,0,0,0,0
1682696914.50024319,76328623,1577,1579,1549,1550,0,0,0,0,0,0,0,0,0,0
1682696914.60020304,76428583,1579,1580,1548,1549,0,0,0,0,0,0,0,0,0,0
1682696914.70016313,76528543,1581,1582,1547,1547,0,0,0,0,0,0,0,0,0,0
1682696914.80012321,76628503,1583,1584,1545,1544,0,0,0,0,0,0,0,0,0,0
1682696914.90008307,76728463,1586,1586,1543,1543,0,0,0,0,0,0,0,0,0,0
1682696915.00004315,76828423,1587,1587,1541,1542,0,0,0,0,0,0,0,0,0,0
1682696915.10000324,76928383,1589,1589,1540,1541,0,0,0,0,0,0,0,0,0,0
1682696915.19996309,77028343,1590,1591,1539,1541,0,0,0,0,0,0,0,0,0,0
1682696915.29992318,77128303,1591,1591,1540,1542,0,0,0,0,0,0,0,0,0,0
1682696915.39988303,77228263,1590,1590,1543,1545,0,0,0,0,0,0,0,0,0,0
1682696915.49984312,77328223,1587,1585,1547,1550,0,0,0,0,0,0,0,0,0,0
1682696915.59980321,77428183,1581,1579,1554,1557,0,0,0,0,0,0,0,0,0,0
1682696915.70059609,77528976,1575,1571,1564,1566,0,0,0,0,0,0,0,0,0,0
1682696915.80055618,77628936,1566,1562,1574,1576,0,0,0,0,0,0,0,0,0,0
1682696915.90051603,77728896,1557,1554,1586,1586,0,0,0,0,0,0,0,0,0,0
1682696916.00047612,77828856,1548,1547,1595,1595,0,0,0,0,0,0,0,0,0,0
1682696916.10043621,77928816,1542,1541,1602,1602,0,0,0,0,0,0,0,0,0,0
1682696916.20039606,78028776,1538,1539,1608,1607,0,0,0,0,0,0,0,0,0,0
1682696916.30035615,78128736,1537,1539,1610,1609,0,0,0,0,0,0,0,0,0,0
1682696916.40031624,78228696,1539,1541,1608,1608,0,0,0,0,0,0,0,0,0,0
1682696916.50027609,78328656,1544,1545,1606,1605,0,0,0,0,0,0,0,0,0,0
1682696916.60023618,78428616,1550,1551,1602,1600,0,0,0,0,0,0,0,0,0,0
1682696916.70019603,78528576,1557,1557,1595,1594,0,0,0,0,0,0,0,0,0,0
1682696916.80015612,78628536,1562,1563,1587,1587,0,0,0,0,0,0,0,0,0,0
1682696916.90011621,78728496,1569,1569,1581,1581,0,0,0,0,0,0,0,0,0,0
1682696917.00007606,78828456,1576,1575,1576,1576,0,0,0,0,0,0,0,0,0,0
1682696917.10003614,78928416,1580,1579,1573,1573,0,0,0,0,0,0,0,0,0,0
1682696917.19999623,79028376,1584,1583,1570,1570,0,0,0,0,0,0,0,0,0,0
1682696917.29995608,79128336,1585,1584,1569,1569,0,0,0,0,0,0,0,0,0,0
1682696917.39991617,79228296,1585,1584,1569,1569,0,0,0,0,0,0,0,0,0,0
1682696917.49987602,79328256,1584,1583,1570,1570,0,0,0,0,0,0,0,0,0,0
1682696917.59983611,79428216,1583,1583,1573,1573,0,0,0,0,0,0,0,0,0,0
1682696917.69979620,79528176,1580,1581,1575,1575,0,0,0,0,0,0,0,0,0,0
1682696917.80058908,79628969,1578,1579,1578,1577,0,0,0,0,0,0,0,0,0,0
1682696917.90054917,79728929,1576,1576,1579,1579,0,0,0,0,0,0,0,0,0,0
1682696918.00050902,79828889,1576,1576,1582,1582,0,0,0,0,0,0,0,0,0,0
1682696918.10046911,79928849,1574,1574,1582,1582,0,0,0,0,0,0,0,0,0,0
1682696918.20042920,80028809,1574,1575,1584,1583,0,0,0,0,0,0,0,0,0,0
1682696918.30038905,80128769,1574,1575,1584,1584,0,0,0,0,0,0,0,0,0,0
1682696918.40034914,80228729,1575,1575,1584,1584,0,0,0,0,0,0,0,0,0,0
1682696918.50030923,80328689,1574,1575,1582,1582,0,0,0,0,0,0,0,0,0,0
1682696918.60026908,80428649,1577,1576,1582,1582,0,0,0,0,0,0,0,0,0,0
1682696918.70022917,80528609,1577,1577,1580,1580,0,0,0,0,0,0,0,0,0,0
1682696918.80018902,80628569,1578,1578,1579,1580,0,0,0,0,0,0,0,0,0,0
1682696918.90014911,80728529,1579,1579,1578,1578,0,0,0,0,0,0,0,0,0,0
1682696919.00010920,80828489,1581,1580,1579,1578,0,0,0,0,0,0,0,0,0,0
1682696919.10006905,80928449,1582,1581,1578,1578,0,0,0,0,0,0,0,0,0,0
1682696919.20002913,81028409,1581,1581,1578,1578,0,0,0,0,0,0,0,0,0,0
1682696919.29998922,81128369,1581,1581,1578,1578,0,0,0,0,0,0,0,0,0,0
1682696919.39994907,81228329,1581,1581,1578,1578,0,0,0,0,0,0,0,0,0,0
1682696919.49990916,81328289,1581,1581,1578,1579,0,0,0,0,0,0,0,0,0,0
1682696919.59986901,81428249,1581,1580,1579,1579,0,0,0,0,0,0,0,0,0,0
1682696919.69982910,81528209,1581,1581,1580,1580,0,0,0,0,0,0,0,0,0,0
1682696919.79978919,81628169,1580,1580,1580,1580,0,0,0,0,0,0,0,0,0,0
1682696919.90058208,81728962,1580,1580,1581,1581,0,0,0,0,0,0,0,0,0,0
1682696920.00054216,81828922,1579,1579,1580,1580,0,0,0,0,0,0,0,0,0,0
1682696920.10050201,81928882,1580,1580,1581,1581,0,0,0,0,0,0,0,0,0,0
1682696920.20046210,82028842,1579,1580,1581,1581,0,0,0,0,0,0,0,0,0,0
1682696920.30042219,82128802,1580,1580,1581,1582,0,0,0,0,0,0,0,0,0,0
1682696920.40038204,82228762,1581,1580,1582,1581,0,0,0,0,0,0,0,0,0,0
1682696920.50034213,82328722,1581,1581,1582,1582,0,0,0,0,0,0,0,0,0,0
1682696920.60030222,82428682,1582,1581,1582,1582,0,0,0,0,0,0,0,0,0,0
1682696920.70026207,82528642,1582,1582,1582,1582,0,0,0,0,0,0,0,0,0,0
1682696920.80022216,82628602,1581,1581,1581,1581,0,0,0,0,0,0,0,0,0,0
1682696920.90018225,82728562,1581,1581,1581,1581,0,0,0,0,0,0,0,0,0,0
1682696921.00014210,82828522,1582,1581,1581,1581,0,0,0,0,0,0,0,0,0,0
1682696921.10010219,82928482,1582,1582,1581,1581,0,0,0,0,0,0,0,0,0,0
1682696921.20006204,83028442,1582,1583,1587,1574,0,0,0,0,0,0,0,0,0,0
1682696921.30002213,83128402,1581,1583,1585,1572,0,0,0,0,0,0,0,0,0,0
1682696921.39998221,83228362,1579,1582,1577,1573,0,0,0,0,0,0,0,0,0,0
1682696921.49994206,83328322,1577,1580,1568,1571,0,0,0,0,0,0,0,0,0,0
1682696921.59990215,83428282,1577,1579,1561,1568,0,0,0,0,0,0,0,0,0,0
1682696921.69986224,83528242,1579,1580,1558,1564,0,0,0,0,0,0,0,0,0,0
1682696921.79982209,83628202,1580,1579,1556,1560,0,0,0,0,0,0,0,0,0,0
1682696921.89978218,83728162,1579,1578,1555,1555,0,0,0,0,0,0,0,0,0,0
1682696922.00057507,83828955,1581,1579,1556,1555,0,0,0,0,0,0,0,0,0,0
1682696922.10053515,83928915,1579,1578,1556,1553,0,0,0,0,0,0,0,0,0,0
1682696922.20049524,84028875,1578,1578,1556,1554,0,0,0,0,0,0,0,0,0,0
1682696922.30045509,84128835,1576,1577,1555,1553,0,0,0,0,0,0,0,0,0,0
1682696922.40041518,84228795,1575,1577,1555,1554,0,0,0,0,0,0,0,0,0,0
1682696922.50037503,84328755,1575,1576,1554,1554,0,0,0,0,0,0,0,0,0,0
1682696922.60033512,84428715,1576,1577,1552,1553,0,0,0,0,0,0,0,0,0,0
1682696922.70029521,84528675,1577,1579,1552,1552,0,0,0,0,0,0,0,0,0,0
1682696922.80025506,84628635,1579,1580,1550,1550,0,0,0,0,0,0,0,0,0,0
1682696922.90021515,84728595,1580,1581,1547,1547,0,0,0,0,0,0,0,0,0,0
1682696923.00017524,84828555,1583,1584,1545,1544,0,0,0,0,0,0,0,0,0,0
1682696923.10013509,84928515,1586,1586,1542,1542,0,0,0,0,0,0,0,0,0,0
1682696923.20009518,85028475,1588,1589,1540,1540,0,0,0,0,0,0,0,0,0,0
1682696923.30005503,85128435,1591,1591,1539,1539,0,0,0,0,0,0,0,0,0,0
1682696923.40001512,85228395,1592,1593,1537,1538,0,0,0,0,0,0,0,0,0,0
1682696923.49997520,85328355,1593,1594,1536,1538,0,0,0,0,0,0,0,0,0,0
1682696923.59993505,85428315,1594,1594,1538,1540,0,0,0,0,0,0,0,0,0,0
1682696923.69989514,85528275,1592,1591,1541,1543,0,0,0,0,0,0,0,0,0,0
1682696923.79985523,85628235,1589,1587,1545,1548,0,0,0,0,0,0,0,0,0,0
1682696923.89981508,85728195,1583,1580,1553,1556,0,0,0,0,0,0,0,0,0,0
1682696923.99977517,85828155,1576,1572,1564,1566,0,0,0,0,0,0,0,0,0,0
1682696924.10056806,85928948,1566,1562,1576,1577,0,0,0,0,0,0,0,0,0,0
1682696924.20052814,86028908,1554,1551,1586,1587,0,0,0,0,0,0,0,0,0,0
1682696924.30048823,86128868,1544,1542,1596,1596,0,0,0,0,0,0,0,0,0,0
1682696924.40044808,86228828,1536,1536,1604,1604,0,0,0,0,0,0,0,0,0,0
1682696924.50040817,86328788,1532,1533,1610,1609,0,0,0,0,0,0,0,0,0,0
1682696924.60036802,86428748,1532,1534,1613,1612,0,0,0,0,0,0,0,0,0,0
1682696924.70032811,86528708,1535,1536,1611,1610,0,0,0,0,0,0,0,0,0,0
1682696924.80028820,86628668,1540,1542,1608,1608,0,0,0,0,0,0,0,0,0,0
1682696924.90024805,86728628,1547,1548,1602,1602,0,0,0,0,0,0,0,0,0,0
1682696925.00020814,86828588,1555,1556,1596,1595,0,0,0,0,0,0,0,0,0,0
1682696925.10016823,86928548,1563,1563,1589,1588,0,0,0,0,0,0,0,0,0,0
1682696925.20012808,87028508,1570,1570,1582,1581,0,0,0,0,0,0,0,0,0,0
1682696925.30008817,87128468,1577,1575,1575,1575,0,0,0,0,0,0,0,0,0,0
1682696925.40004802,87228428,1582,1581,1572,1572,0,0,0,0,0,0,0,0,0,0
1682696925.50000811,87328388,1585,1583,1568,1568,0,0,0,0,0,0,0,0,0,0
1682696925.59996819,87428348,1586,1584,1566,1566,0,0,0,0,0,0,0,0,0,0
1682696925.69992805,87528308,1585,1584,1566,1567,0,0,0,0,0,0,0,0,0,0
1682696925.79988813,87628268,1585,1584,1568,1569,0,0,0,0,0,0,0,0,0,0
1682696925.89984822,87728228,1583,1582,1571,1570,0,0,0,0,0,0,0,0,0,0
1682696925.99980807,87828188,1581,1580,1574,1573,0,0,0,0,0,0,0,0,0,0
1682696926.10060120,87928981,1577,1578,1576,1576,0,0,0,0,0,0,0,0,0,0
1682696926.20056105,88028941,1577,1577,1579,1579,0,0,0,0,0,0,0,0,0,0
1682696926.30052114,88128901,1575,1575,1581,1581,0,0,0,0,0,0,0,0,0,0
1682696926.40048122,88228861,1573,1574,1583,1582,0,0,0,0,0,0,0,0,0,0
1682696926.50044107,88328821,1572,1573,1583,1583,0,0,0,0,0,0,0,0,0,0
1682696926.60040116,88428781,1573,1574,1584,1584,0,0,0,0,0,0,0,0,0,0
1682696926.70036101,88528741,1574,1574,1583,1583,0,0,0,0,0,0,0,0,0,0
1682696926.80032110,88628701,1575,1576,1583,1583,0,0,0,0,0,0,0,0,0,0
1682696926.90028119,88728661,1576,1576,1581,1581,0,0,0,0,0,0,0,0,0,0
1682696927.00024104,88828621,1577,1577,1581,1580,0,0,0,0,0,0,0,0,0,0
1682696927.10020113,88928581,1579,1579,1579,1580,0,0,0,0,0,0,0,0,0,0
1682696927.20016122,89028541,1580,1580,1579,1579,0,0,0,0,0,0,0,0,0,0
1682696927.30012107,89128501,1582,1581,1579,1579,0,0,0,0,0,0,0,0,0,0
1682696927.40008116,89228461,1582,1582,1578,1578,0,0,0,0,0,0,0,0,0,0
1682696927.50004125,89328421,1583,1582,1579,1579,0,0,0,0,0,0,0,0,0,0
1682696927.60000110,89428381,1582,1582,1578,1578,0,0,0,0,0,0,0,0,0,0
1682696927.69996119,89528341,1583,1583,1579,1580,0,0,0,0,0,0,0,0,0,0
1682696927.79992104,89628301,1581,1582,1579,1579,0,0,0,0,0,0,0,0,0,0
1682696927.89988112,89728261,1581,1581,1579,1579,0,0,0,0,0,0,0,0,0,0
1682696927.99984121,89828221,1581,1580,1580,1580,0,0,0,0,0,0,0,0,0,0
1682696928.09980106,89928181,1581,1580,1580,1581,0,0,0,0,0,0,0,0,0,0
1682696928.20059419,90028974,1580,1580,1580,1581,0,0,0,0,0,0,0,0,0,0
1682696928.30055404,90128934,1580,1580,1581,1582,0,0,0,0,0,0,0,0,0,0
1682696928.40051413,90228894,1580,1580,1582,1581,0,0,0,0,0,0,0,0,0,0
1682696928.50047421,90328854,1580,1580,1582,1582,0,0,0,0,0,0,0,0,0,0
1682696928.60043406,90428814,1579,1580,1581,1581,0,0,0,0,0,0,0,0,0,0
1682696928.70039415,90528774,1581,1580,1582,1582,0,0,0,0,0,0,0,0,0,0
1682696928.80035424,90628734,1580,1580,1581,1581,0,0,0,0,0,0,0,0,0,0
1682696928.90031409,90728694,1580,1580,1581,1581,0,0,0,0,0,0,0,0,0,0
1682696929.00027418,90828654,1580,1581,1581,1581,0,0,0,0,0,0,0,0,0,0
1682696929.10023403,90928614,1580,1581,1582,1579,0,0,0,0,0,0,0,0,0,0
1682696929.20019412,91028574,1581,1582,1587,1572,0,0,0,0,0,0,0,0,0,0
1682696929.30015421,91128534,1580,1580,1584,1573,0,0,0,0,0,0,0,0,0,0
1682696929.40011406,91228494,1578,1577,1576,1575,0,0,0,0,0,0,0,0,0,0
1682696929.50007415,91328454,1574,1574,1570,1575,0,0,0,0,0,0,0,0,0,0
1682696929.60003424,91428414,1571,1571,1566,1573,0,0,0,0,0,0,0,0,0,0
1682696929.69999409,91528374,1569,1569,1565,1571,0,0,0,0,0,0,0,0,0,0
1682696929.79995418,91628334,1568,1568,1566,1568,0,0,0,0,0,0,0,0,0,0
1682696929.89991403,91728294,1567,1567,1567,1567,0,0,0,0,0,0,0,0,0,0
1682696929.99987411,91828254,1565,1565,1566,1564,0,0,0,0,0,0,0,0,0,0
1682696930.09983420,91928214,1564,1564,1567,1564,0,0,0,0,0,0,0,0,0,0
1682696930.19979405,92028174,1564,1564,1566,1563,0,0,0,0,0,0,0,0,0,0
1682696930.30058718,92128967,1563,1563,1565,1564,0,0,0,0,0,0,0,0,0,0
1682696930.40054703,92228927,1563,1562,1563,1563,0,0,0,0,0,0,0,0,0,0
1682696930.50050712,92328887,1561,1562,1562,1562,0,0,0,0,0,0,0,0,0,0
1682696930.60046721,92428847,1560,1561,1561,1561,0,0,0,0,0,0,0,0,0,0
1682696930.70042706,92528807,1561,1561,1561,1562,0,0,0,0,0,0,0,0,0,0
1682696930.80038714,92628767,1560,1561,1561,1560,0,0,0,0,0,0,0,0,0,0
1682696930.90034723,92728727,1561,1561,1561,1560,0,0,0,0,0,0,0,0,0,0
1682696931.00030708,92828687,1561,1560,1560,1560,0,0,0,0,0,0,0,0,0,0
1682696931.10026717,92928647,1560,1559,1560,1559,0,0,0,0,0,0,0,0,0,0
1682696931.20022702,93028607,1558,1558,1558,1557,0,0,0,0,0,0,0,0,0,0
1682696931.30018711,93128567,1557,1557,1557,1556,0,0,0,0,0,0,0,0,0,0
1682696931.40014720,93228527,1556,1556,1557,1555,0,0,0,0,0,0,0,0,0,0
1682696931.50010705,93328487,1556,1557,1557,1555,0,0,0,0,0,0,0,0,0,0
1682696931.60006714,93428447,1557,1557,1557,1556,0,0,0,0,0,0,0,0,0,0
1682696931.70002723,93528407,1558,1557,1558,1557,0,0,0,0,0,0,0,0,0,0
1682696931.79998708,93628367,1559,1558,1560,1557,0,0,0,0,0,0,0,0,0,0
1682696931.89994717,93728327,1558,1558,1559,1557,0,0,0,0,0,0,0,0,0,0
1682696931.99990702,93828287,1559,1559,1558,1560,0,0,0,0,0,0,0,0,0,0
1682696932.09986711,93928247,1560,1560,1557,1563,0,0,0,0,0,0,0,0,0,0
1682696932.19982719,94028207,1560,1560,1557,1563,0,0,0,0,0,0,0,0,0,0
1682696932.29978704,94128167,1561,1562,1558,1564,0,0,0,0,0,0,0,0,0,0
1682696932.40058017,94228960,1562,1562,1560,1564,0,0,0,0,0,0,0,0,0,0
1682696932.50054002,94328920,1562,1562,1561,1562,0,0,0,0,0,0,0,0,0,0
1682696932.60050011,94428880,1562,1561,1564,1560,0,0,0,0,0,0,0,0,0,0
1682696932.70046020,94528840,1560,1559,1562,1558,0,0,0,0,0,0,0,0,0,0
1682696932.80042005,94628800,1559,1559,1558,1561,0,0,0,0,0,0,0,0,0,0
1682696932.90038013,94728760,1558,1557,1555,1560,0,0,0,0,0,0,0,0,0,0
1682696933.00034022,94828720,1553,1552,1551,1554,0,0,0,0,0,0,0,0,0,0
1682696933.10030007,94928680,1548,1548,1547,1549,0,0,0,0,0,0,0,0,0,0
1682696933.20026016,95028640,1541,1542,1542,1541,0,0,0,0,0,0,0,0,0,0
1682696933.30022001,95128600,1535,1535,1536,1534,0,0,0,0,0,0,0,0,0,0
1682696933.40018010,95228560,1526,1527,1528,1526,0,0,0,0,0,0,0,0,0,0
1682696933.50014019,95328520,1522,1522,1522,1522,0,0,0,0,0,0,0,0,0,0
1682696933.60010004,95428480,1521,1521,1521,1522,0,0,0,0,0,0,0,0,0,0
1682696933.70006013,95528440,1521,1520,1520,1521,0,0,0,0,0,0,0,0,0,0
1682696933.80002022,95628400,1522,1522,1522,1522,0,0,0,0,0,0,0,0,0,0
1682696933.89998007,95728360,1524,1524,1524,1525,0,0,0,0,0,0,0,0,0,0
1682696933.99994016,95828320,1529,1529,1529,1529,0,0,0,0,0,0,0,0,0,0
1682696934.09990025,95928280,1534,1533,1534,1534,0,0,0,0,0,0,0,0,0,0
1682696934.19986010,96028240,1538,1538,1538,1538,0,0,0,0,0,0,0,0,0,0
1682696934.29982018,96128200,1541,1541,1541,1541,0,0,0,0,0,0,0,0,0,0
1682696934.39978004,96228160,1542,1542,1542,1542,0,0,0,0,0,0,0,0,0,0
1682696934.50057316,96328953,1543,1543,1543,1543,0,0,0,0,0,0,0,0,0,0
1682696934.60053325,96428913,1545,1545,1545,1544,0,0,0,0,0,0,0,0,0,0
1682696934.70049310,96528873,1546,1545,1546,1545,0,0,0,0,0,0,0,0,0,0
1682696934.80045319,96628833,1546,1546,1546,1546,0,0,0,0,0,0,0,0,0,0
1682696934.90041304,96728793,1546,1547,1547,1546,0,0,0,0,0,0,0,0,0,0
1682696935.00037313,96828753,1547,1547,1547,1547,0,0,0,0,0,0,0,0,0,0
1682696935.10033321,96928713,1547,1547,1547,1547,0,0,0,0,0,0,0,0,0,0
1682696935.20029306,97028673,1547,1547,1546,1546,0,0,0,0,0,0,0,0,0,0
1682696935.30025315,97128633,1546,1546,1546,1546,0,0,0,0,0,0,0,0,0,0
1682696935.40021324,97228593,1547,1547,1547,1547,0,0,0,0,0,0,0,0,0,0
1682696935.50017309,97328553,1545,1545,1545,1545,0,0,0,0,0,0,0,0,0,0
1682696935.60013318,97428513,1546,1545,1546,1545,0,0,0,0,0,0,0,0,0,0
1682696935.70009303,97528473,1545,1545,1545,1545,0,0,0,0,0,0,0,0,0,0
1682696935.80005312,97628433,1545,1545,1545,1545,0,0,0,0,0,0,0,0,0,0
1682696935.90001321,97728393,1544,1544,1544,1544,0,0,0,0,0,0,0,0,0,0
1682696935.99997306,97828353,1544,1544,1544,1544,0,0,0,0,0,0,0,0,0,0
1682696936.09993315,97928313,1545,1544,1544,1544,0,0,0,0,0,0,0,0,0,0
1682696936.19989324,98028273,1544,1544,1544,1544,0,0,0,0,0,0,0,0,0,0
1682696936.29985309,98128233,1545,1545,1545,1545,0,0,0,0,0,0,0,0,0,0
1682696936.39981318,98228193,1544,1544,1544,1544,0,0,0,0,0,0,0,0,0,0
1682696936.50060606,98328986,1544,1544,1544,1544,0,0,0,0,0,0,0,0,0,0
1682696936.60056615,98428946,1544,1544,1544,1544,0,0,0,0,0,0,0,0,0,0
1682696936.70052624,98528906,1545,1545,1545,1545,0,0,0,0,0,0,0,0,0,0
1682696936.80048609,98628866,1544,1544,1544,1544,0,0,0,0,0,0,0,0,0,0
1682696936.90044618,98728826,1545,1545,1544,1545,0,0,0,0,0,0,0,0,0,0
1682696937.00040603,98828786,1545,1544,1544,1545,0,0,0,0,0,0,0,0,0,0
1682696937.10036612,98928746,1544,1544,1544,1544,0,0,0,0,0,0,0,0,0,0
1682696937.20032620,99028706,1544,1545,1544,1544,0,0,0,0,0,0,0,0,0,0
1682696937.30028605,99128666,1545,1545,1545,1544,0,0,0,0,0,0,0,0,0,0
1682696937.40024614,99228626,1545,1545,1545,1545,0,0,0,0,0,0,0,0,0,0
1682696937.50020623,99328586,1545,1544,1544,1544,0,0,0,0,0,0,0,0,0,0
1682696937.60016608,99428546,1543,1544,1544,1544,0,0,0,0,0,0,0,0,0,0
1682696937.70012617,99528506,1545,1545,1545,1545,0,0,0,0,0,0,0,0,0,0
1682696937.80008602,99628466,1545,1546,1545,1545,0,0,0,0,0,0,0,0,0,0
1682696937.90004611,99728426,1545,1545,1545,1545,0,0,0,0,0,0,0,0,0,0
1682696938.00000620,99828386,1545,1544,1545,1545,0,0,0,0,0,0,0,0,0,0
1682696938.09996605,99928346,1544,1544,1544,1544,0,0,0,0,0,0,0,0,0,0
1682696938.19992614,100028306,1545,1545,1545,1545,0,0,0,0,0,0,0,0,0,0
1682696938.29988623,100128266,1546,1545,1546,1545,0,0,0,0,0,0,0,0,0,0
1682696938.39984608,100228226,1545,1545,1545,1545,0,0,0,0,0,0,0,0,0,0
1682696938.49980617,100328186,1545,1545,1545,1545,0,0,0,0,0,0,0,0,0,0
1682696938.60059905,100428979,1546,1546,1546,1545,0,0,0,0,0,0,0,0,0,0
1682696938.70055914,100528939,1545,1545,1544,1545,0,0,0,0,0,0,0,0,0,0
1682696938.80051923,100628899,1545,1545,1545,1545,0,0,0,0,0,0,0,0,0,0
1682696938.90047908,100728859,1545,1545,1545,1545,0,0,0,0,0,0,0,0,0,0
1682696939.00043917,100828819,1544,1544,1544,1545,0,0,0,0,0,0,0,0,0,0
1682696939.10039902,100928779,1544,1544,1544,1545,0,0,0,0,0,0,0,0,0,0
1682696939.20035911,101028739,1544,1544,1544,1544,0,0,0,0,0,0,0,0,0,0
1682696939.30031919,101128699,1545,1545,1545,1545,0,0,0,0,0,0,0,0,0,0
1682696939.40027905,101228659,1544,1545,1545,1545,0,0,0,0,0,0,0,0,0,0
1682696939.50023913,101328619,1545,1545,1545,1545,0,0,0,0,0,0,0,0,0,0
1682696939.60019922,101428579,1545,1545,1545,1545,0,0,0,0,0,0,0,0,0,0
1682696939.70015907,101528539,1545,1544,1544,1545,0,0,0,0,0,0,0,0,0,0
1682696939.80011916,101628499,1544,1544,1544,1544,0,0,0,0,0,0,0,0,0,0
1682696939.90007901,101728459,1545,1545,1545,1545,0,0,0,0,0,0,0,0,0,0
1682696940.00003910,101828419,1544,1544,1544,1544,0,0,0,0,0,0,0,0,0,0
1682696940.09999919,101928379,1544,1544,1543,1544,0,0,0,0,0,0,0,0,0,0
1682696940.19995904,102028339,1544,1545,1544,1545,0,0,0,0,0,0,0,0,0,0
1682696940.29991913,102128299,1544,1544,1544,1544,0,0,0,0,0,0,0,0,0,0
1682696940.39987922,102228259,1544,1544,1544,1544,0,0,0,0,0,0,0,0,0,0
1682696940.49983907,102328219,1545,1544,1544,1545,0,0,0,0,0,0,0,0,0,0
1682696940.59979916,102428179,1544,1544,1544,1544,0,0,0,0,0,0,0,0,0,0
1682696940.70059204,102528972,1544,1544,1544,1544,0,0,0,0,0,0,0,0,0,0
1682696940.80055213,102628932,1543,1544,1544,1544,0,0,0,0,0,0,0,0,0,0
1682696940.90051222,102728892,1544,1544,1544,1544,0,0,0,0,0,0,0,0,0,0
1682696941.00047207,102828852,1544,1544,1544,1544,0,0,0,0,0,0,0,0,0,0
1682696941.10043216,102928812,1545,1545,1545,1545,0,0,0,0,0,0,0,0,0,0
1682696941.20039225,103028772,1545,1545,1545,1545,0,0,0,0,0,0,0,0,0,0
1682696941.30035210,103128732,1544,1544,1544,1544,0,0,0,0,0,0,0,0,0,0
1682696941.40031219,103228692,1545,1544,1545,1545,0,0,0,0,0,0,0,0,0,0
1682696941.50027204,103328652,1544,1544,1544,1545,0,0,0,0,0,0,0,0,0,0
1682696941.60023212,103428612,1544,1544,1544,1545,0,0,0,0,0,0,0,0,0,0
1682696941.70019221,103528572,1545,1545,1545,1545,0,0,0,0,0,0,0,0,0,0
1682696941.80015206,103628532,1544,1545,1545,1545,0,0,0,0,0,0,0,0,0,0
1682696941.90011215,103728492,1544,1545,1545,1544,0,0,0,0,0,0,0,0,0,0
1682696942.00007224,103828452,1543,1544,1544,1543,0,0,0,0,0,0,0,0,0,0
1682696942.10003209,103928412,1545,1544,1545,1545,0,0,0,0,0,0,0,0,0,0
1682696942.19999218,104028372,1544,1544,1544,1543,0,0,0,0,0,0,0,0,0,0
1682696942.29995203,104128332,1545,1544,1544,1545,0,0,0,0,0,0,0,0,0,0
1682696942.39991212,104228292,1543,1543,1543,1543,0,0,0,0,0,0,0,0,0,0
1682696942.49987221,104328252,1544,1543,1544,1544,0,0,0,0,0,0,0,0,0,0
1682696942.59983206,104428212,1544,1544,1544,1543,0,0,0,0,0,0,0,0,0,0
1682696942.69979215,104528172,1544,1543,1544,1543,0,0,0,0,0,0,0,0,0,0
1682696942.80058503,104628965,1544,1544,1544,1544,0,0,0,0,0,0,0,0,0,0
1682696942.90054512,104728925,1544,1544,1544,1544,0,0,0,0,0,0,0,0,0,0
1682696943.00050521,104828885,1545,1545,1545,1545,0,0,0,0,0,0,0,0,0,0
1682696943.10046506,104928845,1544,1544,1544,1544,0,0,0,0,0,0,0,0,0,0
1682696943.20042515,105028805,1543,1543,1544,1543,0,0,0,0,0,0,0,0,0,0
1682696943.30038524,105128765,1370,1361,1369,1362,0,0,0,0,0,0,0,0,0,0
1682696943.40034509,105228725,1267,1251,1265,1253,0,0,0,0,0,0,0,0,0,0
1682696943.50030518,105328685,1235,1215,1232,1218,0,0,0,0,0,0,0,0,0,0
1682696943.60026503,105428645,1217,1198,1216,1199,0,0,0,0,0,0,0,0,0,0
1682696943.70022511,105528605,1176,1152,1175,1154,0,0,0,0,0,0,0,0,0,0
1682696943.80018520,105628565,1174,1150,1173,1151,0,0,0,0,0,0,0,0,0,0
1682696943.90014505,105728525,1175,1150,1173,1152,0,0,0,0,0,0,0,0,0,0
1682696944.00010514,105828485,1202,1150,1172,1184,0,0,0,0,0,0,0,0,0,0
1682696944.10006523,105928445,1197,1150,1172,1178,0,0,0,0,0,0,0,0,0,0
1682696944.20002508,106028405,1192,1150,1173,1172,0,0,0,0,0,0,0,0,0,0
1682696944.29998517,106128365,1193,1150,1173,1172,0,0,0,0,0,0,0,0,0,0
1682696944.39994502,106228325,1194,1150,1173,1174,0,0,0,0,0,0,0,0,0,0
1682696944.49990511,106328285,1196,1150,1173,1176,0,0,0,0,0,0,0,0,0,0
1682696944.59986520,106428245,1198,1150,1173,1178,0,0,0,0,0,0,0,0,0,0
1682696944.69982505,106528205,1200,1150,1173,1180,0,0,0,0,0,0,0,0,0,0
1682696944.79978514,106628165,1185,1150,1173,1164,0,0,0,0,0,0,0,0,0,0
1682696944.90057802,106728958,1188,1150,1173,1167,0,0,0,0,0,0,0,0,0,0
1682696945.00053811,106828918,1189,1150,1173,1168,0,0,0,0,0,0,0,0,0,0
1682696945.10049820,106928878,1189,1150,1173,1169,0,0,0,0,0,0,0,0,0,0
1682696945.20045805,107028838,1190,1150,1173,1169,0,0,0,0,0,0,0,0,0,0
1682696945.30041814,107128798,1000,1000,1000,1000,0,0,0,0,0,0,0,0,0,0
1682696945.40037823,107228758,1000,1000,1000,1000,0,0,0,0,0,0,0,0,0,0
1682696945.50033808,107328718,1000,1000,1000,1000,0,0,0,0,0,0,0,0,0,0
1682696945.60029817,107428678,1000,1000,1000,1000,0,0,0,0,0,0,0,0,0,0
1682696945.70025802,107528638,1000,1000,1000,1000,0,0,0,0,0,0,0,0,0,0
1682696945.80021811,107628598,1000,1000,1000,1000,0,0,0,0,0,0,0,0,0,0
1682696945.90017819,107728558,1000,1000,1000,1000,0,0,0,0,0,0,0,0,0,0
1682696946.00013804,107828518,1000,1000,1000,1000,0,0,0,0,0,0,0,0,0,0
1682696946.10009813,107928478,1000,1000,1000,1000,0,0,0,0,0,0,0,0,0,0
1682696946.20005822,108028438,1000,1000,1000,1000,0,0,0,0,0,0,0,0,0,0
1682696946.30001807,108128398,1000,1000,1000,1000,0,0,0,0,0,0,0,0,0,0
1682696946.39997816,108228358,1000,1000,1000,1000,0,0,0,0,0,0,0,0,0,0
1682696946.49993825,108328318,1000,1000,1000,1000,0,0,0,0,0,0,0,0,0,0
1682696946.59989810,108428278,1000,1000,1000,1000,0,0,0,0,0,0,0,0,0,0
1682696946.69985819,108528238,1000,1000,1000,1000,0,0,0,0,0,0,0,0,0,0
1682696946.79981804,108628198,1000,1000,1000,1000,0,0,0,0,0,0,0,0,0,0
1682696946.89977813,108728158,1000,1000,1000,1000,0,0,0,0,0,0,0,0,0,0
1682696947.00057101,108828951,1000,1000,1000,1000,0,0,0,0,0,0,0,0,0,0
1682696947.10053110,108928911,1000,1000,1000,1000,0,0,0,0,0,0,0,0,0,0
1682696947.20049119,109028871,1000,1000,1000,1000,0,0,0,0,0,0,0,0,0,0
1682696947.30045104,109128831,1000,1000,1000,1000,0,0,0,0,0,0,0,0,0,0
1682696947.40041113,109228791,1000,1000,1000,1000,0,0,0,0,0,0,0,0,0,0
1682696947.50037122,109328751,1000,1000,1000,1000,0,0,0,0,0,0,0,0,0,0
1682696947.60033107,109428711,1000,1000,1000,1000,0,0,0,0,0,0,0,0,0,0
1682696947.70029116,109528671,1000,1000,1000,1000,0,0,0,0,0,0,0,0,0,0
1682696947.80025125,109628631,1000,1000,1000,1000,0,0,0,0,0,0,0,0,0,0
1682696947.90021110,109728591,1000,1000,1000,1000,0,0,0,0,0,0,0,0,0,0
1682696948.00017118,109828551,1000,1000,1000,1000,0,0,0,0,0,0,0,0,0,0
1682696948.10013103,109928511,1000,1000,1000,1000,0,0,0,0,0,0,0,0,0,0
1682696948.20009112,110028471,1000,1000,1000,1000,0,0,0,0,0,0,0,0,0,0
1682696948.30005121,110128431,1000,1000,1000,1000,0,0,0,0,0,0,0,0,0,0
1682696948.40001106,110228391,1000,1000,1000,1000,0,0,0,0,0,0,0,0,0,0
1682696948.49997115,110328351,1000,1000,1000,1000,0,0,0,0,0,0,0,0,0,0
1682696948.59993124,110428311,1000,1000,1000,1000,0,0,0,0,0,0,0,0,0,0
1682696948.69989109,110528271,1000,1000,1000,1000,0,0,0,0,0,0,0,0,0,0
1682696948.79985118,110628231,1000,1000,1000,1000,0,0,0,0,0,0,0,0,0,0
1682696948.89981103,110728191,1000,1000,1000,1000,0,0,0,0,0,0,0,0,0,0
1682696949.00060415,110828984,1000,1000,1000,1000,0,0,0,0,0,0,0,0,0,0
1682696949.10056424,110928944,1000,1000,1000,1000,0,0,0,0,0,0,0,0,0,0
1682696949.20052409,111028904,1000,1000,1000,1000,0,0,0,0,0,0,0,0,0,0
1682696949.30048418,111128864,1000,1000,1000,1000,0,0,0,0,0,0,0,0,0,0
1682696949.40044403,111228824,1000,1000,1000,1000,0,0,0,0,0,0,0,0,0,0
1682696949.50040412,111328784,1000,1000,1000,1000,0,0,0,0,0,0,0,0,0,0
1682696949.60036421,111428744,1000,1000,1000,1000,0,0,0,0,0,0,0,0,0,0
1682696949.70032406,111528704,1000,1000,1000,1000,0,0,0,0,0,0,0,0,0,0
1682696949.80028415,111628664,1000,1000,1000,1000,0,0,0,0,0,0,0,0,0,0
1682696949.90024424,111728624,1000,1000,1000,1000,0,0,0,0,0,0,0,0,0,0
1682696950.00020409,111828584,1000,1000,1000,1000,0,0,0,0,0,0,0,0,0,0
1682696950.10016418,111928544,1000,1000,1000,1000,0,0,0,0,0,0,0,0,0,0
1682696950.20012403,112028504,1000,1000,1000,1000,0,0,0,0,0,0,0,0,0,0
1682696950.30008411,112128464,1000,1000,1000,1000,0,0,0,0,0,0,0,0,0,0
1682696950.40004420,112228424,1000,1000,1000,1000,0,0,0,0,0,0,0,0,0,0
1682696950.50000405,112328384,1000,1000,1000,1000,0,0,0,0,0,0,0,0,0,0
1682696950.59996414,112428344,1000,1000,1000,1000,0,0,0,0,0,0,0,0,0,0
1682696950.69992423,112528304,1000,1000,1000,1000,0,0,0,0,0,0,0,0,0,0
1682696950.79988408,112628264,1000,1000,1000,1000,0,0,0,0,0,0,0,0,0,0
1682696950.89984417,112728224,1000,1000,1000,1000,0,0,0,0,0,0,0,0,0,0
1682696950.99980402,112828184,1000,1000,1000,1000,0,0,0,0,0,0,0,0,0,0
1682696951.10059714,112928977,1000,1000,1000,1000,0,0,0,0,0,0,0,0,0,0
1682696951.20055723,113028937,1000,1000,1000,1000,0,0,0,0,0,0,0,0,0,0
1682696951.30051708,113128897,1000,1000,1000,1000,0,0,0,0,0,0,0,0,0,0
1682696951.40047717,113228857,1000,1000,1000,1000,0,0,0,0,0,0,0,0,0,0
1682696951.50043702,113328817,1000,1000,1000,1000,0,0,0,0,0,0,0,0,0,0
1682696951.60039711,113428777,1000,1000,1000,1000,0,0,0,0,0,0,0,0,0,0
1682696951.70035720,113528737,1000,1000,1000,1000,0,0,0,0,0,0,0,0,0,0
1682696951.80031705,113628697,1000,1000,1000,1000,0,0,0,0,0,0,0,0,0,0
1682696951.90027714,113728657,1000,1000,1000,1000,0,0,0,0,0,0,0,0,0,0
1682696952.00023723,113828617,1000,1000,1000,1000,0,0,0,0,0,0,0,0,0,0
1682696952.10019708,113928577,1000,1000,1000,1000,0,0,0,0,0,0,0,0,0,0
1682696952.20015717,114028537,1000,1000,1000,1000,0,0,0,0,0,0,0,0,0,0
1682696952.30011702,114128497,1000,1000,1000,1000,0,0,0,0,0,0,0,0,0,0
1682696952.40007710,114228457,1000,1000,1000,1000,0,0,0,0,0,0,0,0,0,0
1682696952.50003719,114328417,1000,1000,1000,1000,0,0,0,0,0,0,0,0,0,0
1682696952.59999704,114428377,1000,1000,1000,1000,0,0,0,0,0,0,0,0,0,0
1682696952.69995713,114528337,1000,1000,1000,1000,0,0,0,0,0,0,0,0,0,0
1682696952.79991722,114628297,1000,1000,1000,1000,0,0,0,0,0,0,0,0,0,0
1682696952.89987707,114728257,1000,1000,1000,1000,0,0,0,0,0,0,0,0,0,0
1682696952.99983716,114828217,1000,1000,1000,1000,0,0,0,0,0,0,0,0,0,0
1682696953.09979725,114928177,1000,1000,1000,1000,0,0,0,0,0,0,0,0,0,0
1682696953.20059013,115028970,1000,1000,1000,1000,0,0,0,0,0,0,0,0,0,0
1682696953.30055022,115128930,1000,1000,1000,1000,0,0,0,0,0,0,0,0,0,0
1682696953.40051007,115228890,1000,1000,1000,1000,0,0,0,0,0,0,0,0,0,0
1682696953.50047016,115328850,1000,1000,1000,1000,0,0,0,0,0,0,0,0,0,0
1682696953.60043001,115428810,1000,1000,1000,1000,0,0,0,0,0,0,0,0,0,0
1682696953.70039010,115528770,1000,1000,1000,1000,0,0,0,0,0,0,0,0,0,0
1682696953.80035019,115628730,1000,1000,1000,1000,0,0,0,0,0,0,0,0,0,0
1682696953.90031004,115728690,1000,1000,1000,1000,0,0,0,0,0,0,0,0,0,0
1682696954.00027013,115828650,1000,1000,1000,1000,0,0,0,0,0,0,0,0,0,0
1682696954.10023022,115928610,1000,1000,1000,1000,0,0,0,0,0,0,0,0,0,0
1682696954.20019007,116028570,1000,1000,1000,1000,0,0,0,0,0,0,0,0,0,0
1682696954.30015016,116128530,1000,1000,1000,1000,0,0,0,0,0,0,0,0,0,0
1682696954.40011024,116228490,1000,1000,1000,1000,0,0,0,0,0,0,0,0,0,0
1682696954.50007010,116328450,1000,1000,1000,1000,0,0,0,0,0,0,0,0,0,0
1682696954.60003018,116428410,1000,1000,1000,1000,0,0,0,0,0,0,0,0,0,0
1682696954.69999003,116528370,1000,1000,1000,1000,0,0,0,0,0,0,0,0,0,0
1682696954.79995012,116628330,1000,1000,1000,1000,0,0,0,0,0,0,0,0,0,0
1682696954.89991021,116728290,1000,1000,1000,1000,0,0,0,0,0,0,0,0,0,0
1682696954.99987006,116828250,1000,1000,1000,1000,0,0,0,0,0,0,0,0,0,0
1682696955.09983015,116928210,1000,1000,1000,1000,0,0,0,0,0,0,0,0,0,0
1682696955.19979024,117028170,1000,1000,1000,1000,0,0,0,0,0,0,0,0,0,0
1682696955.30058312,117128963,1000,1000,1000,1000,0,0,0,0,0,0,0,0,0,0
1682696955.40054321,117228923,1000,1000,1000,1000,0,0,0,0,0,0,0,0,0,0
1682696955.50050306,117328883,1000,1000,1000,1000,0,0,0,0,0,0,0,0,0,0
1682696955.60046315,117428843,1000,1000,1000,1000,0,0,0,0,0,0,0,0,0,0
1682696955.70042324,117528803,1000,1000,1000,1000,0,0,0,0,0,0,0,0,0,0
1682696955.80038309,117628763,1000,1000,1000,1000,0,0,0,0,0,0,0,0,0,0
1682696955.90034318,117728723,1000,1000,1000,1000,0,0,0,0,0,0,0,0,0,0
1682696956.00030303,117828683,1000,1000,1000,1000,0,0,0,0,0,0,0,0,0,0
1682696956.10026312,117928643,1000,1000,1000,1000,0,0,0,0,0,0,0,0,0,0
1682696956.20022321,118028603,1000,1000,1000,1000,0,0,0,0,0,0,0,0,0,0
1682696956.30018306,118128563,1000,1000,1000,1000,0,0,0,0,0,0,0,0,0,0
1682696956.40014315,118228523,1000,1000,1000,1000,0,0,0,0,0,0,0,0,0,0
1682696956.50010324,118328483,1000,1000,1000,1000,0,0,0,0,0,0,0,0,0,0
1682696956.60006309,118428443,1000,1000,1000,1000,0,0,0,0,0,0,0,0,0,0
1682696956.70002317,118528403,1000,1000,1000,1000,0,0,0,0,0,0,0,0,0,0
1682696956.79998302,118628363,1000,1000,1000,1000,0,0,0,0,0,0,0,0,0,0
1682696956.89994311,118728323,1000,1000,1000,1000,0,0,0,0,0,0,0,0,0,0
1682696956.99990320,118828283,1000,1000,1000,1000,0,0,0,0,0,0,0,0,0,0
1682696957.09986305,118928243,1000,1000,1000,1000,0,0,0,0,0,0,0,0,0,0
1682696957.19982314,119028203,1000,1000,1000,1000,0,0,0,0,0,0,0,0,0,0
1682696957.29978323,119128163,1000,1000,1000,1000,0,0,0,0,0,0,0,0,0,0
1682696957.40057611,119228956,1000,1000,1000,1000,0,0,0,0,0,0,0,0,0,0
1682696957.50053620,119328916,1000,1000,1000,1000,0,0,0,0,0,0,0,0,0,0
1682696957.60049605,119428876,1000,1000,1000,1000,0,0,0,0,0,0,0,0,0,0
1682696957.70045614,119528836,1000,1000,1000,1000,0,0,0,0,0,0,0,0,0,0
1682696957.80041623,119628796,1000,1000,1000,1000,0,0,0,0,0,0,0,0,0,0
1682696957.90037608,119728756,1000,1000,1000,1000,0,0,0,0,0,0,0,0,0,0
1682696958.00033617,119828716,1000,1000,1000,1000,0,0,0,0,0,0,0,0,0,0
1682696958.10029602,119928676,1000,1000,1000,1000,0,0,0,0,0,0,0,0,0,0
1682696958.20025611,120028636,1000,1000,1000,1000,0,0,0,0,0,0,0,0,0,0
1682696958.30021620,120128596,1000,1000,1000,1000,0,0,0,0,0,0,0,0,0,0
1682696958.40017605,120228556,1000,1000,1000,1000,0,0,0,0,0,0,0,0,0,0
1682696958.50013614,120328516,1000,1000,1000,1000,0,0,0,0,0,0,0,0,0,0
1682696958.60009623,120428476,1000,1000,1000,1000,0,0,0,0,0,0,0,0,0,0
1682696958.70005608,120528436,1000,1000,1000,1000,0,0,0,0,0,0,0,0,0,0
1682696958.80001616,120628396,1000,1000,1000,1000,0,0,0,0,0,0,0,0,0,0
1682696958.89997602,120728356,1000,1000,1000,1000,0,0,0,0,0,0,0,0,0,0
1682696958.99993610,120828316,1000,1000,1000,1000,0,0,0,0,0,0,0,0,0,0
1682696959.09989619,120928276,1000,1000,1000,1000,0,0,0,0,0,0,0,0,0,0
1682696959.19985604,121028236,1000,1000,1000,1000,0,0,0,0,0,0,0,0,0,0
1682696959.29981613,121128196,1000,1000,1000,1000,0,0,0,0,0,0,0,0,0,0
1682696959.39977622,121228156,1000,1000,1000,1000,0,0,0,0,0,0,0,0,0,0
1682696959.50056911,121328949,1000,1000,1000,1000,0,0,0,0,0,0,0,0,0,0
1682696959.60052919,121428909,1000,1000,1000,1000,0,0,0,0,0,0,0,0,0,0
1682696959.70048904,121528869,1000,1000,1000,1000,0,0,0,0,0,0,0,0,0,0
1682696959.80044913,121628829,1000,1000,1000,1000,0,0,0,0,0,0,0,0,0,0
1682696959.90040922,121728789,1000,1000,1000,1000,0,0,0,0,0,0,0,0,0,0
1682696960.00036907,121828749,1000,1000,1000,1000,0,0,0,0,0,0,0,0,0,0
1682696960.10032916,121928709,1000,1000,1000,1000,0,0,0,0,0,0,0,0,0,0
1682696960.20028925,122028669,1000,1000,1000,1000,0,0,0,0,0,0,0,0,0,0
