timestamp,TimeUS,C1,C2,C3,C4,C5,C6,C7,C8,C9,C10,C11,C12,C13,C14
1683032416.79999995,67428851,1000,1000,1000,1000,0,0,0,0,0,0,0,0,0,0
1683032416.89996004,67528811,1000,1000,1000,1000,0,0,0,0,0,0,0,0,0,0
1683032416.99992013,67628771,1000,1000,1000,1000,0,0,0,0,0,0,0,0,0,0
1683032417.09987998,67728731,1000,1000,1000,1000,0,0,0,0,0,0,0,0,0,0
1683032417.19984007,67828691,1000,1000,1000,1000,0,0,0,0,0,0,0,0,0,0
1683032417.29980016,67928651,1000,1000,1000,1000,0,0,0,0,0,0,0,0,0,0
1683032417.39976001,68028611,1000,1000,1000,1000,0,0,0,0,0,0,0,0,0,0
1683032417.49972010,68128571,1000,1000,1000,1000,0,0,0,0,0,0,0,0,0,0
1683032417.59967995,68228531,1000,1000,1000,1000,0,0,0,0,0,0,0,0,0,0
1683032417.69964004,68328491,1000,1000,1000,1000,0,0,0,0,0,0,0,0,0,0
1683032417.79960012,68428451,1000,1000,1000,1000,0,0,0,0,0,0,0,0,0,0
1683032417.89955997,68528411,1000,1000,1000,1000,0,0,0,0,0,0,0,0,0,0
1683032417.99952006,68628371,1000,1000,1000,1000,0,0,0,0,0,0,0,0,0,0
1683032418.09948015,68728331,1000,1000,1000,1000,0,0,0,0,0,0,0,0,0,0
1683032418.19944000,68828291,1000,1000,1000,1000,0,0,0,0,0,0,0,0,0,0
1683032418.29940009,68928251,1000,1000,1000,1000,0,0,0,0,0,0,0,0,0,0
1683032418.39936018,69028211,1000,1000,1000,1000,0,0,0,0,0,0,0,0,0,0
1683032418.49932003,69128171,1000,1000,1000,1000,0,0,0,0,0,0,0,0,0,0
1683032418.60011315,69228964,1000,1000,1000,1000,0,0,0,0,0,0,0,0,0,0
1683032418.70007300,69328924,1000,1000,1000,1000,0,0,0,0,0,0,0,0,0,0
1683032418.80003309,69428884,1006,1006,1006,1006,0,0,0,0,0,0,0,0,0,0
1683032418.89999318,69528844,1036,1036,1036,1036,0,0,0,0,0,0,0,0,0,0
1683032418.99995303,69628804,1066,1066,1066,1066,0,0,0,0,0,0,0,0,0,0
1683032419.09991312,69728764,1096,1096,1096,1096,0,0,0,0,0,0,0,0,0,0
1683032419.19987297,69828724,1125,1125,1125,1125,0,0,0,0,0,0,0,0,0,0
1683032419.29983306,69928684,1209,1198,1199,1209,0,0,0,0,0,0,0,0,0,0
1683032419.39979315,70028644,1440,1433,1433,1440,0,0,0,0,0,0,0,0,0,0
1683032419.49975300,70128604,1611,1605,1605,1612,0,0,0,0,0,0,0,0,0,0
1683032419.59971309,70228564,1754,1748,1748,1754,0,0,0,0,0,0,0,0,0,0
1683032419.69967318,70328524,1879,1873,1873,1879,0,0,0,0,0,0,0,0,0,0
1683032419.79963303,70428484,1883,1878,1878,1883,0,0,0,0,0,0,0,0,0,0
1683032419.89959311,70528444,1780,1779,1779,1781,0,0,0,0,0,0,0,0,0,0
1683032419.99955297,70628404,1666,1667,1668,1666,0,0,0,0,0,0,0,0,0,0
1683032420.09951305,70728364,1622,1624,1625,1622,0,0,0,0,0,0,0,0,0,0
1683032420.19947314,70828324,1624,1627,1627,1624,0,0,0,0,0,0,0,0,0,0
1683032420.29943299,70928284,1635,1637,1636,1635,0,0,0,0,0,0,0,0,0,0
1683032420.39939308,71028244,1638,1639,1638,1638,0,0,0,0,0,0,0,0,0,0
1683032420.49935317,71128204,1625,1624,1621,1628,0,0,0,0,0,0,0,0,0,0
1683032420.59931302,71228164,1612,1611,1603,1619,0,0,0,0,0,0,0,0,0,0
1683032420.70010614,71328957,1605,1604,1599,1609,0,0,0,0,0,0,0,0,0,0
1683032420.80006599,71428917,1604,1604,1602,1605,0,0,0,0,0,0,0,0,0,0
1683032420.90002608,71528877,1607,1607,1609,1605,0,0,0,0,0,0,0,0,0,0
1683032420.99998617,71628837,1614,1614,1617,1610,0,0,0,0,0,0,0,0,0,0
1683032421.09994602,71728797,1618,1617,1622,1613,0,0,0,0,0,0,0,0,0,0
1683032421.19990611,71828757,1588,1588,1603,1574,0,0,0,0,0,0,0,0,0,0
1683032421.29986596,71928717,1574,1575,1587,1563,0,0,0,0,0,0,0,0,0,0
1683032421.39982605,72028677,1562,1563,1566,1560,0,0,0,0,0,0,0,0,0,0
1683032421.49978614,72128637,1552,1552,1546,1559,0,0,0,0,0,0,0,0,0,0
1683032421.59974599,72228597,1544,1544,1532,1556,0,0,0,0,0,0,0,0,0,0
1683032421.69970608,72328557,1538,1538,1527,1549,0,0,0,0,0,0,0,0,0,0
1683032421.79966617,72428517,1532,1531,1524,1538,0,0,0,0,0,0,0,0,0,0
1683032421.89962602,72528477,1528,1527,1525,1529,0,0,0,0,0,0,0,0,0,0
1683032421.99958611,72628437,1528,1527,1528,1526,0,0,0,0,0,0,0,0,0,0
1683032422.09954596,72728397,1529,1529,1531,1526,0,0,0,0,0,0,0,0,0,0
1683032422.19950604,72828357,1532,1533,1536,1529,0,0,0,0,0,0,0,0,0,0
1683032422.29946613,72928317,1535,1536,1539,1532,0,0,0,0,0,0,0,0,0,0
1683032422.39942598,73028277,1540,1539,1542,1537,0,0,0,0,0,0,0,0,0,0
1683032422.49938607,73128237,1543,1543,1544,1542,0,0,0,0,0,0,0,0,0,0
1683032422.59934616,73228197,1545,1546,1546,1546,0,0,0,0,0,0,0,0,0,0
1683032422.69930601,73328157,1548,1548,1548,1549,0,0,0,0,0,0,0,0,0,0
1683032422.80009913,73428950,1551,1551,1550,1553,0,0,0,0,0,0,0,0,0,0
1683032422.90005898,73528910,1554,1553,1552,1556,0,0,0,0,0,0,0,0,0,0
1683032423.00001907,73628870,1554,1554,1556,1559,0,0,0,0,0,0,0,0,0,0
1683032423.09997916,73728830,1556,1556,1560,1562,0,0,0,0,0,0,0,0,0,0
1683032423.19993901,73828790,1558,1558,1563,1563,0,0,0,0,0,0,0,0,0,0
1683032423.29989910,73928750,1561,1561,1566,1564,0,0,0,0,0,0,0,0,0,0
1683032423.39985895,74028710,1563,1563,1566,1565,0,0,0,0,0,0,0,0,0,0
1683032423.49981904,74128670,1565,1565,1566,1566,0,0,0,0,0,0,0,0,0,0
1683032423.59977913,74228630,1567,1567,1566,1567,0,0,0,0,0,0,0,0,0,0
1683032423.69973898,74328590,1569,1569,1567,1568,0,0,0,0,0,0,0,0,0,0
1683032423.79969907,74428550,1570,1570,1568,1568,0,0,0,0,0,0,0,0,0,0
1683032423.89965916,74528510,1570,1570,1567,1567,0,0,0,0,0,0,0,0,0,0
1683032423.99961901,74628470,1572,1572,1568,1568,0,0,0,0,0,0,0,0,0,0
1683032424.09957910,74728430,1572,1572,1569,1569,0,0,0,0,0,0,0,0,0,0
1683032424.19953895,74828390,1573,1574,1571,1571,0,0,0,0,0,0,0,0,0,0
1683032424.29949903,74928350,1574,1574,1572,1571,0,0,0,0,0,0,0,0,0,0
1683032424.39945912,75028310,1575,1575,1574,1573,0,0,0,0,0,0,0,0,0,0
1683032424.49941897,75128270,1576,1576,1576,1574,0,0,0,0,0,0,0,0,0,0
1683032424.59937906,75228230,1575,1575,1576,1574,0,0,0,0,0,0,0,0,0,0
1683032424.69933915,75328190,1575,1575,1575,1575,0,0,0,0,0,0,0,0,0,0
1683032424.80013204,75428983,1574,1575,1575,1575,0,0,0,0,0,0,0,0,0,0
1683032424.90009212,75528943,1575,1575,1576,1576,0,0,0,0,0,0,0,0,0,0
1683032425.00005198,75628903,1575,1576,1576,1577,0,0,0,0,0,0,0,0,0,0
1683032425.10001206,75728863,1575,1575,1576,1576,0,0,0,0,0,0,0,0,0,0
1683032425.19997215,75828823,1576,1575,1576,1576,0,0,0,0,0,0,0,0,0,0
1683032425.29993200,75928783,1577,1576,1577,1577,0,0,0,0,0,0,0,0,0,0
1683032425.39989209,76028743,1576,1577,1577,1576,0,0,0,0,0,0,0,0,0,0
1683032425.49985218,76128703,1577,1577,1577,1576,0,0,0,0,0,0,0,0,0,0
1683032425.59981203,76228663,1578,1578,1578,1578,0,0,0,0,0,0,0,0,0,0
1683032425.69977212,76328623,1578,1577,1577,1577,0,0,0,0,0,0,0,0,0,0
1683032425.79973197,76428583,1579,1579,1579,1578,0,0,0,0,0,0,0,0,0,0
1683032425.89969206,76528543,1578,1577,1578,1578,0,0,0,0,0,0,0,0,0,0
1683032425.99965215,76628503,1579,1579,1579,1579,0,0,0,0,0,0,0,0,0,0
1683032426.09961200,76728463,1578,1578,1578,1578,0,0,0,0,0,0,0,0,0,0
1683032426.19957209,76828423,1579,1579,1579,1579,0,0,0,0,0,0,0,0,0,0
1683032426.29953218,76928383,1579,1579,1578,1579,0,0,0,0,0,0,0,0,0,0
1683032426.39949203,77028343,1579,1579,1579,1579,0,0,0,0,0,0,0,0,0,0
1683032426.49945211,77128303,1579,1579,1579,1579,0,0,0,0,0,0,0,0,0,0
1683032426.59941196,77228263,1579,1579,1580,1579,0,0,0,0,0,0,0,0,0,0
1683032426.69937205,77328223,1579,1579,1579,1579,0,0,0,0,0,0,0,0,0,0
1683032426.79933214,77428183,1579,1579,1579,1579,0,0,0,0,0,0,0,0,0,0
1683032426.90012503,77528976,1580,1579,1579,1580,0,0,0,0,0,0,0,0,0,0
1683032427.00008512,77628936,1579,1579,1580,1579,0,0,0,0,0,0,0,0,0,0
1683032427.10004497,77728896,1579,1579,1580,1579,0,0,0,0,0,0,0,0,0,0
1683032427.20000505,77828856,1580,1580,1580,1580,0,0,0,0,0,0,0,0,0,0
1683032427.29996514,77928816,1580,1580,1580,1580,0,0,0,0,0,0,0,0,0,0
1683032427.39992499,78028776,1580,1580,1580,1580,0,0,0,0,0,0,0,0,0,0
1683032427.49988508,78128736,1579,1579,1580,1579,0,0,0,0,0,0,0,0,0,0
1683032427.59984517,78228696,1580,1581,1580,1580,0,0,0,0,0,0,0,0,0,0
1683032427.69980502,78328656,1579,1580,1580,1580,0,0,0,0,0,0,0,0,0,0
1683032427.79976511,78428616,1580,1579,1579,1579,0,0,0,0,0,0,0,0,0,0
1683032427.89972496,78528576,1579,1579,1579,1579,0,0,0,0,0,0,0,0,0,0
1683032427.99968505,78628536,1580,1580,1580,1580,0,0,0,0,0,0,0,0,0,0
1683032428.09964514,78728496,1580,1580,1580,1580,0,0,0,0,0,0,0,0,0,0
1683032428.19960499,78828456,1580,1580,1580,1580,0,0,0,0,0,0,0,0,0,0
1683032428.29956508,78928416,1581,1581,1581,1581,0,0,0,0,0,0,0,0,0,0
1683032428.39952517,79028376,1580,1580,1580,1580,0,0,0,0,0,0,0,0,0,0
1683032428.49948502,79128336,1580,1580,1580,1580,0,0,0,0,0,0,0,0,0,0
1683032428.59944510,79228296,1581,1581,1581,1581,0,0,0,0,0,0,0,0,0,0
1683032428.69940495,79328256,1580,1581,1581,1580,0,0,0,0,0,0,0,0,0,0
1683032428.79936504,79428216,1581,1581,1581,1581,0,0,0,0,0,0,0,0,0,0
1683032428.89932513,79528176,1581,1581,1582,1582,0,0,0,0,0,0,0,0,0,0
1683032429.00011802,79628969,1581,1581,1581,1581,0,0,0,0,0,0,0,0,0,0
1683032429.10007811,79728929,1580,1580,1580,1580,0,0,0,0,0,0,0,0,0,0
1683032429.20003796,79828889,1580,1581,1587,1572,0,0,0,0,0,0,0,0,0,0
1683032429.29999804,79928849,1580,1582,1585,1573,0,0,0,0,0,0,0,0,0,0
1683032429.39995813,80028809,1578,1581,1576,1573,0,0,0,0,0,0,0,0,0,0
1683032429.49991798,80128769,1577,1580,1567,1571,0,0,0,0,0,0,0,0,0,0
1683032429.59987807,80228729,1576,1579,1560,1568,0,0,0,0,0,0,0,0,0,0
1683032429.69983816,80328689,1578,1579,1557,1563,0,0,0,0,0,0,0,0,0,0
1683032429.79979801,80428649,1580,1579,1556,1559,0,0,0,0,0,0,0,0,0,0
1683032429.89975810,80528609,1581,1578,1556,1556,0,0,0,0,0,0,0,0,0,0
1683032429.99971795,80628569,1579,1578,1556,1554,0,0,0,0,0,0,0,0,0,0
1683032430.09967804,80728529,1579,1578,1556,1554,0,0,0,0,0,0,0,0,0,0
1683032430.19963813,80828489,1578,1578,1557,1554,0,0,0,0,0,0,0,0,0,0
1683032430.29959798,80928449,1575,1577,1555,1553,0,0,0,0,0,0,0,0,0,0
1683032430.39955807,81028409,1574,1576,1554,1553,0,0,0,0,0,0,0,0,0,0
1683032430.49951816,81128369,1574,1576,1552,1553,0,0,0,0,0,0,0,0,0,0
1683032430.59947801,81228329,1576,1577,1552,1552,0,0,0,0,0,0,0,0,0,0
1683032430.69943810,81328289,1577,1578,1550,1550,0,0,0,0,0,0,0,0,0,0
1683032430.79939795,81428249,1578,1579,1547,1547,0,0,0,0,0,0,0,0,0,0
1683032430.89935803,81528209,1581,1582,1545,1545,0,0,0,0,0,0,0,0,0,0
1683032430.99931812,81628169,1584,1585,1542,1542,0,0,0,0,0,0,0,0,0,0
1683032431.10011101,81728962,1588,1588,1540,1540,0,0,0,0,0,0,0,0,0,0
1683032431.20007110,81828922,1591,1592,1538,1538,0,0,0,0,0,0,0,0,0,0
1683032431.30003095,81928882,1593,1593,1535,1536,0,0,0,0,0,0,0,0,0,0
1683032431.39999104,82028842,1595,1595,1535,1536,0,0,0,0,0,0,0,0,0,0
1683032431.49995112,82128802,1595,1595,1535,1537,0,0,0,0,0,0,0,0,0,0
1683032431.59991097,82228762,1594,1593,1536,1538,0,0,0,0,0,0,0,0,0,0
1683032431.69987106,82328722,1592,1591,1539,1542,0,0,0,0,0,0,0,0,0,0
1683032431.79983115,82428682,1588,1587,1545,1548,0,0,0,0,0,0,0,0,0,0
1683032431.89979100,82528642,1583,1580,1553,1557,0,0,0,0,0,0,0,0,0,0
1683032431.99975109,82628602,1574,1570,1563,1566,0,0,0,0,0,0,0,0,0,0
1683032432.09971118,82728562,1564,1559,1576,1578,0,0,0,0,0,0,0,0,0,0
1683032432.19967103,82828522,1554,1550,1589,1590,0,0,0,0,0,0,0,0,0,0
1683032432.29963112,82928482,1542,1540,1600,1600,0,0,0,0,0,0,0,0,0,0
1683032432.39959097,83028442,1533,1533,1608,1608,0,0,0,0,0,0,0,0,0,0
1683032432.49955106,83128402,1530,1531,1615,1614,0,0,0,0,0,0,0,0,0,0
1683032432.59951115,83228362,1528,1531,1616,1615,0,0,0,0,0,0,0,0,0,0
1683032432.69947100,83328322,1532,1534,1614,1614,0,0,0,0,0,0,0,0,0,0
1683032432.79943109,83428282,1537,1539,1608,1609,0,0,0,0,0,0,0,0,0,0
1683032432.89939117,83528242,1545,1546,1602,1602,0,0,0,0,0,0,0,0,0,0
1683032432.99935102,83628202,1554,1555,1595,1595,0,0,0,0,0,0,0,0,0,0
1683032433.09931111,83728162,1563,1563,1587,1586,0,0,0,0,0,0,0,0,0,0
1683032433.20010400,83828955,1571,1572,1581,1580,0,0,0,0,0,0,0,0,0,0
1683032433.30006409,83928915,1579,1578,1575,1574,0,0,0,0,0,0,0,0,0,0
1683032433.40002418,84028875,1583,1582,1569,1569,0,0,0,0,0,0,0,0,0,0
1683032433.49998403,84128835,1586,1585,1566,1566,0,0,0,0,0,0,0,0,0,0
1683032433.59994411,84228795,1588,1587,1566,1567,0,0,0,0,0,0,0,0,0,0
1683032433.69990396,84328755,1588,1587,1567,1567,0,0,0,0,0,0,0,0,0,0
1683032433.79986405,84428715,1586,1586,1569,1569,0,0,0,0,0,0,0,0,0,0
1683032433.89982414,84528675,1583,1583,1571,1571,0,0,0,0,0,0,0,0,0,0
1683032433.99978399,84628635,1580,1580,1573,1574,0,0,0,0,0,0,0,0,0,0
1683032434.09974408,84728595,1578,1578,1577,1577,0,0,0,0,0,0,0,0,0,0
1683032434.19970417,84828555,1575,1574,1579,1578,0,0,0,0,0,0,0,0,0,0
1683032434.29966402,84928515,1573,1574,1582,1581,0,0,0,0,0,0,0,0,0,0
1683032434.39962411,85028475,1571,1573,1582,1583,0,0,0,0,0,0,0,0,0,0
1683032434.49958396,85128435,1571,1572,1583,1583,0,0,0,0,0,0,0,0,0,0
1683032434.59954405,85228395,1572,1573,1583,1583,0,0,0,0,0,0,0,0,0,0
1683032434.69950414,85328355,1572,1572,1582,1582,0,0,0,0,0,0,0,0,0,0
1683032434.79946399,85428315,1574,1574,1582,1582,0,0,0,0,0,0,0,0,0,0
1683032434.89942408,85528275,1575,1575,1581,1580,0,0,0,0,0,0,0,0,0,0
1683032434.99938416,85628235,1577,1576,1579,1579,0,0,0,0,0,0,0,0,0,0
1683032435.09934402,85728195,1578,1578,1578,1578,0,0,0,0,0,0,0,0,0,0
1683032435.19930410,85828155,1579,1579,1577,1577,0,0,0,0,0,0,0,0,0,0
1683032435.30009699,85928948,1580,1581,1577,1577,0,0,0,0,0,0,0,0,0,0
1683032435.40005708,86028908,1580,1581,1576,1576,0,0,0,0,0,0,0,0,0,0
1683032435.50001717,86128868,1582,1582,1578,1577,0,0,0,0,0,0,0,0,0,0
1683032435.59997702,86228828,1582,1581,1577,1577,0,0,0,0,0,0,0,0,0,0
1683032435.69993711,86328788,1583,1582,1579,1579,0,0,0,0,0,0,0,0,0,0
1683032435.79989696,86428748,1581,1582,1579,1579,0,0,0,0,0,0,0,0,0,0
1683032435.89985704,86528708,1581,1581,1579,1579,0,0,0,0,0,0,0,0,0,0
1683032435.99981713,86628668,1580,1580,1580,1579,0,0,0,0,0,0,0,0,0,0
1683032436.09977698,86728628,1792,1543,1792,1544,0,0,0,0,0,0,0,0,0,0
1683032436.19973707,86828588,1641,1596,1645,1595,0,0,0,0,0,0,0,0,0,0
1683032436.29969716,86928548,1578,1601,1583,1602,0,0,0,0,0,0,0,0,0,0
1683032436.39965701,87028508,1549,1600,1551,1601,0,0,0,0,0,0,0,0,0,0
1683032436.49961710,87128468,1547,1590,1543,1589,0,0,0,0,0,0,0,0,0,0
1683032436.59957695,87228428,1556,1578,1545,1572,0,0,0,0,0,0,0,0,0,0
1683032436.69953704,87328388,1566,1568,1550,1555,0,0,0,0,0,0,0,0,0,0
1683032436.79949713,87428348,1575,1563,1559,1548,0,0,0,0,0,0,0,0,0,0
1683032436.89945698,87528308,1579,1564,1567,1552,0,0,0,0,0,0,0,0,0,0
1683032436.99941707,87628268,1580,1566,1574,1560,0,0,0,0,0,0,0,0,0,0
1683032437.09937716,87728228,1577,1569,1578,1569,0,0,0,0,0,0,0,0,0,0
1683032437.19933701,87828188,1574,1574,1589,1572,0,0,0,0,0,0,0,0,0,0
1683032437.30013013,87928981,1569,1575,1590,1577,0,0,0,0,0,0,0,0,0,0
1683032437.40008998,88028941,1569,1576,1582,1581,0,0,0,0,0,0,0,0,0,0
1683032437.50005007,88128901,1572,1577,1572,1578,0,0,0,0,0,0,0,0,0,0
1683032437.60001016,88228861,1578,1579,1564,1572,0,0,0,0,0,0,0,0,0,0
1683032437.69997001,88328821,1584,1583,1561,1566,0,0,0,0,0,0,0,0,0,0
1683032437.79993010,88428781,1588,1585,1558,1560,0,0,0,0,0,0,0,0,0,0
1683032437.89988995,88528741,1591,1587,1560,1558,0,0,0,0,0,0,0,0,0,0
1683032437.99985003,88628701,1591,1588,1561,1557,0,0,0,0,0,0,0,0,0,0
1683032438.09981012,88728661,1589,1588,1561,1558,0,0,0,0,0,0,0,0,0,0
1683032438.19976997,88828621,1587,1587,1562,1560,0,0,0,0,0,0,0,0,0,0
1683032438.29973006,88928581,1585,1586,1561,1561,0,0,0,0,0,0,0,0,0,0
1683032438.39969015,89028541,1582,1584,1560,1560,0,0,0,0,0,0,0,0,0,0
1683032438.49965000,89128501,1582,1583,1560,1560,0,0,0,0,0,0,0,0,0,0
1683032438.59961009,89228461,1581,1583,1559,1559,0,0,0,0,0,0,0,0,0,0
1683032438.69957018,89328421,1582,1584,1558,1558,0,0,0,0,0,0,0,0,0,0
1683032438.79953003,89428381,1584,1585,1557,1557,0,0,0,0,0,0,0,0,0,0
1683032438.89949012,89528341,1585,1587,1554,1554,0,0,0,0,0,0,0,0,0,0
1683032438.99944997,89628301,1589,1591,1551,1551,0,0,0,0,0,0,0,0,0,0
1683032439.09941006,89728261,1592,1593,1547,1547,0,0,0,0,0,0,0,0,0,0
1683032439.19937015,89828221,1595,1597,1545,1545,0,0,0,0,0,0,0,0,0,0
1683032439.29933000,89928181,1596,1597,1541,1542,0,0,0,0,0,0,0,0,0,0
1683032439.40012312,90028974,1598,1597,1543,1543,0,0,0,0,0,0,0,0,0,0
1683032439.50008297,90128934,1597,1595,1545,1547,0,0,0,0,0,0,0,0,0,0
1683032439.60004306,90228894,1594,1592,1551,1553,0,0,0,0,0,0,0,0,0,0
1683032439.70000315,90328854,1588,1585,1558,1560,0,0,0,0,0,0,0,0,0,0
1683032439.79996300,90428814,1580,1577,1567,1569,0,0,0,0,0,0,0,0,0,0
1683032439.89992309,90528774,1571,1568,1577,1578,0,0,0,0,0,0,0,0,0,0
1683032439.99988317,90628734,1563,1560,1587,1589,0,0,0,0,0,0,0,0,0,0
1683032440.09984303,90728694,1554,1551,1595,1596,0,0,0,0,0,0,0,0,0,0
1683032440.19980311,90828654,1548,1547,1603,1604,0,0,0,0,0,0,0,0,0,0
1683032440.29976296,90928614,1543,1543,1607,1607,0,0,0,0,0,0,0,0,0,0
1683032440.39972305,91028574,1544,1544,1610,1610,0,0,0,0,0,0,0,0,0,0
1683032440.49968314,91128534,1544,1545,1608,1608,0,0,0,0,0,0,0,0,0,0
1683032440.59964299,91228494,1549,1550,1606,1605,0,0,0,0,0,0,0,0,0,0
1683032440.69960308,91328454,1554,1555,1601,1600,0,0,0,0,0,0,0,0,0,0
1683032440.79956317,91428414,1562,1563,1596,1595,0,0,0,0,0,0,0,0,0,0
1683032440.89952302,91528374,1567,1568,1588,1588,0,0,0,0,0,0,0,0,0,0
1683032440.99948311,91628334,1574,1574,1583,1583,0,0,0,0,0,0,0,0,0,0
1683032441.09944296,91728294,1578,1578,1578,1577,0,0,0,0,0,0,0,0,0,0
1683032441.19940305,91828254,1582,1581,1574,1574,0,0,0,0,0,0,0,0,0,0
1683032441.29936314,91928214,1585,1584,1573,1572,0,0,0,0,0,0,0,0,0,0
1683032441.39932299,92028174,1585,1584,1572,1572,0,0,0,0,0,0,0,0,0,0
1683032441.50011611,92128967,1585,1584,1573,1573,0,0,0,0,0,0,0,0,0,0
1683032441.60007596,92228927,1583,1582,1574,1573,0,0,0,0,0,0,0,0,0,0
1683032441.70003605,92328887,1582,1582,1577,1577,0,0,0,0,0,0,0,0,0,0
1683032441.79999614,92428847,1579,1579,1578,1579,0,0,0,0,0,0,0,0,0,0
1683032441.89995599,92528807,1577,1577,1580,1581,0,0,0,0,0,0,0,0,0,0
1683032441.99991608,92628767,1576,1576,1583,1583,0,0,0,0,0,0,0,0,0,0
1683032442.09987617,92728727,1573,1573,1581,1582,0,0,0,0,0,0,0,0,0,0
1683032442.19983602,92828687,1574,1574,1583,1583,0,0,0,0,0,0,0,0,0,0
1683032442.29979610,92928647,1574,1574,1583,1583,0,0,0,0,0,0,0,0,0,0
1683032442.39975595,93028607,1574,1574,1583,1583,0,0,0,0,0,0,0,0,0,0
1683032442.49971604,93128567,1575,1575,1581,1582,0,0,0,0,0,0,0,0,0,0
1683032442.59967613,93228527,1576,1576,1581,1581,0,0,0,0,0,0,0,0,0,0
1683032442.69963598,93328487,1577,1577,1580,1580,0,0,0,0,0,0,0,0,0,0
1683032442.79959607,93428447,1579,1579,1581,1580,0,0,0,0,0,0,0,0,0,0
1683032442.89955616,93528407,1579,1579,1579,1579,0,0,0,0,0,0,0,0,0,0
1683032442.99951601,93628367,1578,1579,1577,1577,0,0,0,0,0,0,0,0,0,0
1683032443.09947610,93728327,1580,1580,1578,1578,0,0,0,0,0,0,0,0,0,0
1683032443.19943595,93828287,1582,1581,1579,1579,0,0,0,0,0,0,0,0,0,0
1683032443.29939604,93928247,1581,1580,1578,1578,0,0,0,0,0,0,0,0,0,0
1683032443.39935613,94028207,1581,1581,1579,1579,0,0,0,0,0,0,0,0,0,0
1683032443.49931598,94128167,1581,1580,1579,1579,0,0,0,0,0,0,0,0,0,0
1683032443.60010910,94228960,1581,1581,1581,1581,0,0,0,0,0,0,0,0,0,0
1683032443.70006895,94328920,1579,1581,1581,1580,0,0,0,0,0,0,0,0,0,0
1683032443.80002904,94428880,1580,1580,1581,1581,0,0,0,0,0,0,0,0,0,0
1683032443.89998913,94528840,1578,1578,1579,1579,0,0,0,0,0,0,0,0,0,0
1683032443.99994898,94628800,1578,1579,1580,1580,0,0,0,0,0,0,0,0,0,0
1683032444.09990907,94728760,1578,1578,1579,1580,0,0,0,0,0,0,0,0,0,0
1683032444.19986916,94828720,1579,1579,1580,1580,0,0,0,0,0,0,0,0,0,0
1683032444.29982901,94928680,1579,1579,1580,1580,0,0,0,0,0,0,0,0,0,0
1683032444.39978909,95028640,1580,1580,1581,1580,0,0,0,0,0,0,0,0,0,0
1683032444.49974895,95128600,1580,1580,1580,1580,0,0,0,0,0,0,0,0,0,0
1683032444.59970903,95228560,1580,1580,1580,1580,0,0,0,0,0,0,0,0,0,0
1683032444.69966912,95328520,1580,1579,1579,1580,0,0,0,0,0,0,0,0,0,0
1683032444.79962897,95428480,1579,1580,1579,1580,0,0,0,0,0,0,0,0,0,0
1683032444.89958906,95528440,1580,1580,1580,1580,0,0,0,0,0,0,0,0,0,0
1683032444.99954915,95628400,1580,1580,1580,1579,0,0,0,0,0,0,0,0,0,0
1683032445.09950900,95728360,1580,1581,1584,1576,0,0,0,0,0,0,0,0,0,0
1683032445.19946909,95828320,1580,1583,1586,1571,0,0,0,0,0,0,0,0,0,0
1683032445.29942918,95928280,1579,1583,1578,1571,0,0,0,0,0,0,0,0,0,0
1683032445.39938903,96028240,1580,1582,1569,1570,0,0,0,0,0,0,0,0,0,0
1683032445.49934912,96128200,1579,1581,1561,1567,0,0,0,0,0,0,0,0,0,0
1683032445.59930897,96228160,1580,1580,1555,1562,0,0,0,0,0,0,0,0,0,0
1683032445.70010209,96328953,1581,1580,1553,1558,0,0,0,0,0,0,0,0,0,0
1683032445.80006218,96428913,1581,1579,1553,1554,0,0,0,0,0,0,0,0,0,0
1683032445.90002203,96528873,1581,1580,1555,1553,0,0,0,0,0,0,0,0,0,0
1683032445.99998212,96628833,1579,1579,1556,1553,0,0,0,0,0,0,0,0,0,0
1683032446.09994197,96728793,1578,1578,1556,1554,0,0,0,0,0,0,0,0,0,0
1683032446.19990206,96828753,1577,1578,1556,1555,0,0,0,0,0,0,0,0,0,0
1683032446.29986215,96928713,1576,1577,1556,1555,0,0,0,0,0,0,0,0,0,0
1683032446.39982200,97028673,1576,1578,1555,1555,0,0,0,0,0,0,0,0,0,0
1683032446.49978209,97128633,1576,1577,1553,1554,0,0,0,0,0,0,0,0,0,0
1683032446.59974217,97228593,1577,1579,1551,1551,0,0,0,0,0,0,0,0,0,0
1683032446.69970202,97328553,1579,1580,1549,1549,0,0,0,0,0,0,0,0,0,0
1683032446.79966211,97428513,1581,1582,1547,1546,0,0,0,0,0,0,0,0,0,0
1683032446.89962196,97528473,1583,1584,1544,1544,0,0,0,0,0,0,0,0,0,0
1683032446.99958205,97628433,1587,1588,1543,1542,0,0,0,0,0,0,0,0,0,0
1683032447.09954214,97728393,1590,1590,1541,1540,0,0,0,0,0,0,0,0,0,0
1683032447.19950199,97828353,1590,1591,1538,1538,0,0,0,0,0,0,0,0,0,0
1683032447.29946208,97928313,1592,1593,1538,1539,0,0,0,0,0,0,0,0,0,0
1683032447.39942217,98028273,1593,1594,1537,1539,0,0,0,0,0,0,0,0,0,0
1683032447.49938202,98128233,1593,1593,1539,1541,0,0,0,0,0,0,0,0,0,0
1683032447.59934211,98228193,1591,1590,1543,1545,0,0,0,0,0,0,0,0,0,0
1683032447.70013499,98328986,1586,1583,1549,1551,0,0,0,0,0,0,0,0,0,0
1683032447.80009508,98428946,1579,1576,1559,1561,0,0,0,0,0,0,0,0,0,0
1683032447.90005517,98528906,1569,1565,1569,1571,0,0,0,0,0,0,0,0,0,0
1683032448.00001502,98628866,1560,1556,1582,1583,0,0,0,0,0,0,0,0,0,0
1683032448.09997511,98728826,1548,1545,1592,1593,0,0,0,0,0,0,0,0,0,0
1683032448.19993496,98828786,1540,1538,1602,1603,0,0,0,0,0,0,0,0,0,0
1683032448.29989505,98928746,1534,1533,1609,1609,0,0,0,0,0,0,0,0,0,0
1683032448.39985514,99028706,1533,1533,1612,1612,0,0,0,0,0,0,0,0,0,0
1683032448.49981499,99128666,1535,1536,1612,1612,0,0,0,0,0,0,0,0,0,0
1683032448.59977508,99228626,1539,1540,1607,1609,0,0,0,0,0,0,0,0,0,0
1683032448.69973516,99328586,1546,1547,1602,1603,0,0,0,0,0,0,0,0,0,0
1683032448.79969501,99428546,1554,1556,1596,1596,0,0,0,0,0,0,0,0,0,0
1683032448.89965510,99528506,1563,1564,1589,1588,0,0,0,0,0,0,0,0,0,0
1683032448.99961495,99628466,1571,1571,1583,1582,0,0,0,0,0,0,0,0,0,0
1683032449.09957504,99728426,1577,1577,1577,1575,0,0,0,0,0,0,0,0,0,0
1683032449.19953513,99828386,1582,1582,1573,1571,0,0,0,0,0,0,0,0,0,0
1683032449.29949498,99928346,1586,1586,1571,1570,0,0,0,0,0,0,0,0,0,0
1683032449.39945507,100028306,1586,1586,1569,1568,0,0,0,0,0,0,0,0,0,0
1683032449.49941516,100128266,1586,1585,1569,1569,0,0,0,0,0,0,0,0,0,0
1683032449.59937501,100228226,1584,1584,1570,1570,0,0,0,0,0,0,0,0,0,0
1683032449.69933510,100328186,1582,1581,1572,1572,0,0,0,0,0,0,0,0,0,0
1683032449.80012798,100428979,1580,1579,1575,1575,0,0,0,0,0,0,0,0,0,0
1683032449.90008807,100528939,1577,1577,1578,1578,0,0,0,0,0,0,0,0,0,0
1683032450.00004816,100628899,1574,1575,1579,1579,0,0,0,0,0,0,0,0,0,0
1683032450.10000801,100728859,1573,1573,1581,1581,0,0,0,0,0,0,0,0,0,0
1683032450.19996810,100828819,1573,1573,1582,1583,0,0,0,0,0,0,0,0,0,0
1683032450.29992795,100928779,1573,1573,1584,1584,0,0,0,0,0,0,0,0,0,0
1683032450.39988804,101028739,1574,1575,1584,1584,0,0,0,0,0,0,0,0,0,0
1683032450.49984813,101128699,1574,1575,1583,1583,0,0,0,0,0,0,0,0,0,0
1683032450.59980798,101228659,1575,1576,1581,1582,0,0,0,0,0,0,0,0,0,0
1683032450.69976807,101328619,1577,1577,1580,1580,0,0,0,0,0,0,0,0,0,0
1683032450.79972816,101428579,1579,1578,1579,1579,0,0,0,0,0,0,0,0,0,0
1683032450.89968801,101528539,1579,1579,1578,1578,0,0,0,0,0,0,0,0,0,0
1683032450.99964809,101628499,1582,1582,1580,1579,0,0,0,0,0,0,0,0,0,0
1683032451.09960794,101728459,1580,1580,1577,1577,0,0,0,0,0,0,0,0,0,0
1683032451.19956803,101828419,1581,1581,1577,1578,0,0,0,0,0,0,0,0,0,0
1683032451.29952812,101928379,1581,1581,1577,1578,0,0,0,0,0,0,0,0,0,0
1683032451.39948797,102028339,1581,1581,1578,1578,0,0,0,0,0,0,0,0,0,0
1683032451.49944806,102128299,1580,1580,1578,1578,0,0,0,0,0,0,0,0,0,0
1683032451.59940815,102228259,1580,1579,1579,1578,0,0,0,0,0,0,0,0,0,0
1683032451.69936800,102328219,1580,1580,1580,1580,0,0,0,0,0,0,0,0,0,0
1683032451.79932809,102428179,1579,1579,1580,1580,0,0,0,0,0,0,0,0,0,0
1683032451.90012097,102528972,1580,1580,1581,1581,0,0,0,0,0,0,0,0,0,0
1683032452.00008106,102628932,1579,1579,1581,1581,0,0,0,0,0,0,0,0,0,0
1683032452.10004115,102728892,1579,1579,1580,1581,0,0,0,0,0,0,0,0,0,0
1683032452.20000100,102828852,1578,1579,1580,1580,0,0,0,0,0,0,0,0,0,0
1683032452.29996109,102928812,1580,1580,1581,1582,0,0,0,0,0,0,0,0,0,0
1683032452.39992118,103028772,1579,1580,1580,1580,0,0,0,0,0,0,0,0,0,0
1683032452.49988103,103128732,1580,1580,1581,1581,0,0,0,0,0,0,0,0,0,0
1683032452.59984112,103228692,1582,1581,1582,1581,0,0,0,0,0,0,0,0,0,0
1683032452.69980097,103328652,1581,1581,1581,1581,0,0,0,0,0,0,0,0,0,0
1683032452.79976106,103428612,1582,1582,1581,1582,0,0,0,0,0,0,0,0,0,0
1683032452.89972115,103528572,1582,1582,1582,1582,0,0,0,0,0,0,0,0,0,0
1683032452.99968100,103628532,1582,1583,1589,1575,0,0,0,0,0,0,0,0,0,0
1683032453.09964108,103728492,1582,1583,1588,1574,0,0,0,0,0,0,0,0,0,0
1683032453.19960117,103828452,1578,1579,1578,1575,0,0,0,0,0,0,0,0,0,0
1683032453.29956102,103928412,1575,1575,1570,1575,0,0,0,0,0,0,0,0,0,0
1683032453.39952111,104028372,1572,1573,1567,1574,0,0,0,0,0,0,0,0,0,0
1683032453.49948096,104128332,1571,1570,1566,1573,0,0,0,0,0,0,0,0,0,0
1683032453.59944105,104228292,1569,1568,1567,1570,0,0,0,0,0,0,0,0,0,0
1683032453.69940114,104328252,1568,1567,1568,1568,0,0,0,0,0,0,0,0,0,0
1683032453.79936099,104428212,1566,1566,1568,1566,0,0,0,0,0,0,0,0,0,0
1683032453.89932108,104528172,1566,1566,1568,1566,0,0,0,0,0,0,0,0,0,0
1683032454.00011396,104628965,1565,1565,1568,1565,0,0,0,0,0,0,0,0,0,0
1683032454.10007405,104728925,1564,1565,1566,1565,0,0,0,0,0,0,0,0,0,0
1683032454.20003414,104828885,1563,1563,1564,1564,0,0,0,0,0,0,0,0,0,0
1683032454.29999399,104928845,1563,1563,1563,1563,0,0,0,0,0,0,0,0,0,0
1683032454.39995408,105028805,1562,1562,1562,1562,0,0,0,0,0,0,0,0,0,0
1683032454.49991417,105128765,1563,1562,1563,1562,0,0,0,0,0,0,0,0,0,0
1683032454.59987402,105228725,1561,1561,1561,1561,0,0,0,0,0,0,0,0,0,0
1683032454.69983411,105328685,1562,1562,1562,1561,0,0,0,0,0,0,0,0,0,0
1683032454.79979396,105428645,1561,1561,1561,1561,0,0,0,0,0,0,0,0,0,0
1683032454.89975405,105528605,1559,1559,1559,1558,0,0,0,0,0,0,0,0,0,0
1683032454.99971414,105628565,1557,1557,1557,1556,0,0,0,0,0,0,0,0,0,0
1683032455.09967399,105728525,1556,1557,1556,1556,0,0,0,0,0,0,0,0,0,0
1683032455.19963408,105828485,1556,1556,1557,1555,0,0,0,0,0,0,0,0,0,0
1683032455.29959416,105928445,1556,1556,1556,1555,0,0,0,0,0,0,0,0,0,0
1683032455.39955401,106028405,1556,1556,1557,1555,0,0,0,0,0,0,0,0,0,0
1683032455.49951410,106128365,1558,1558,1559,1557,0,0,0,0,0,0,0,0,0,0
1683032455.59947395,106228325,1557,1557,1559,1556,0,0,0,0,0,0,0,0,0,0
1683032455.69943404,106328285,1559,1558,1560,1557,0,0,0,0,0,0,0,0,0,0
1683032455.79939413,106428245,1559,1558,1558,1559,0,0,0,0,0,0,0,0,0,0
1683032455.89935398,106528205,1559,1560,1557,1562,0,0,0,0,0,0,0,0,0,0
1683032455.99931407,106628165,1560,1560,1557,1563,0,0,0,0,0,0,0,0,0,0
1683032456.10010695,106728958,1562,1562,1559,1565,0,0,0,0,0,0,0,0,0,0
1683032456.20006704,106828918,1564,1564,1562,1566,0,0,0,0,0,0,0,0,0,0
1683032456.30002713,106928878,1564,1563,1563,1565,0,0,0,0,0,0,0,0,0,0
1683032456.39998698,107028838,1563,1564,1565,1563,0,0,0,0,0,0,0,0,0,0
1683032456.49994707,107128798,1562,1562,1564,1560,0,0,0,0,0,0,0,0,0,0
1683032456.59990716,107228758,1562,1563,1565,1561,0,0,0,0,0,0,0,0,0,0
1683032456.69986701,107328718,1562,1562,1559,1565,0,0,0,0,0,0,0,0,0,0
1683032456.79982710,107428678,1557,1558,1553,1561,0,0,0,0,0,0,0,0,0,0
1683032456.89978695,107528638,1554,1554,1551,1556,0,0,0,0,0,0,0,0,0,0
1683032456.99974704,107628598,1546,1547,1546,1547,0,0,0,0,0,0,0,0,0,0
1683032457.09970713,107728558,1539,1540,1540,1539,0,0,0,0,0,0,0,0,0,0
1683032457.19966698,107828518,1531,1531,1533,1530,0,0,0,0,0,0,0,0,0,0
1683032457.29962707,107928478,1525,1524,1526,1524,0,0,0,0,0,0,0,0,0,0
1683032457.39958715,108028438,1520,1519,1521,1519,0,0,0,0,0,0,0,0,0,0
1683032457.49954700,108128398,1519,1518,1519,1518,0,0,0,0,0,0,0,0,0,0
1683032457.59950709,108228358,1520,1519,1519,1519,0,0,0,0,0,0,0,0,0,0
1683032457.69946718,108328318,1522,1521,1522,1522,0,0,0,0,0,0,0,0,0,0
1683032457.79942703,108428278,1525,1525,1525,1525,0,0,0,0,0,0,0,0,0,0
1683032457.89938712,108528238,1529,1529,1529,1529,0,0,0,0,0,0,0,0,0,0
1683032457.99934697,108628198,1533,1533,1533,1533,0,0,0,0,0,0,0,0,0,0
1683032458.09930706,108728158,1538,1538,1538,1538,0,0,0,0,0,0,0,0,0,0
1683032458.20009995,108828951,1540,1540,1539,1540,0,0,0,0,0,0,0,0,0,0
1683032458.30006003,108928911,1542,1542,1542,1543,0,0,0,0,0,0,0,0,0,0
1683032458.40002012,109028871,1543,1544,1544,1543,0,0,0,0,0,0,0,0,0,0
1683032458.49997997,109128831,1544,1544,1545,1544,0,0,0,0,0,0,0,0,0,0
1683032458.59994006,109228791,1545,1545,1545,1545,0,0,0,0,0,0,0,0,0,0
1683032458.69990015,109328751,1546,1546,1546,1545,0,0,0,0,0,0,0,0,0,0
1683032458.79986000,109428711,1546,1546,1546,1545,0,0,0,0,0,0,0,0,0,0
1683032458.89982009,109528671,1547,1546,1547,1546,0,0,0,0,0,0,0,0,0,0
1683032458.99978018,109628631,1546,1546,1546,1546,0,0,0,0,0,0,0,0,0,0
1683032459.09974003,109728591,1545,1545,1545,1545,0,0,0,0,0,0,0,0,0,0
1683032459.19970012,109828551,1546,1546,1547,1546,0,0,0,0,0,0,0,0,0,0
1683032459.29965997,109928511,1545,1545,1546,1545,0,0,0,0,0,0,0,0,0,0
1683032459.39962006,110028471,1545,1545,1545,1545,0,0,0,0,0,0,0,0,0,0
1683032459.49958014,110128431,1545,1544,1545,1544,0,0,0,0,0,0,0,0,0,0
1683032459.59954000,110228391,1545,1545,1545,1544,0,0,0,0,0,0,0,0,0,0
1683032459.69950008,110328351,1544,1544,1544,1544,0,0,0,0,0,0,0,0,0,0
1683032459.79946017,110428311,1543,1544,1544,1544,0,0,0,0,0,0,0,0,0,0
1683032459.89942002,110528271,1544,1543,1543,1544,0,0,0,0,0,0,0,0,0,0
1683032459.99938011,110628231,1545,1544,1544,1544,0,0,0,0,0,0,0,0,0,0
1683032460.09933996,110728191,1545,1545,1545,1544,0,0,0,0,0,0,0,0,0,0
1683032460.20013309,110828984,1544,1544,1545,1544,0,0,0,0,0,0,0,0,0,0
1683032460.30009317,110928944,1544,1544,1545,1544,0,0,0,0,0,0,0,0,0,0
1683032460.40005302,111028904,1544,1544,1544,1544,0,0,0,0,0,0,0,0,0,0
1683032460.50001311,111128864,1544,1543,1543,1544,0,0,0,0,0,0,0,0,0,0
1683032460.59997296,111228824,1545,1545,1545,1545,0,0,0,0,0,0,0,0,0,0
1683032460.69993305,111328784,1545,1544,1544,1544,0,0,0,0,0,0,0,0,0,0
1683032460.79989314,111428744,1544,1544,1544,1544,0,0,0,0,0,0,0,0,0,0
1683032460.89985299,111528704,1545,1544,1544,1545,0,0,0,0,0,0,0,0,0,0
1683032460.99981308,111628664,1544,1545,1544,1545,0,0,0,0,0,0,0,0,0,0
1683032461.09977317,111728624,1544,1544,1544,1544,0,0,0,0,0,0,0,0,0,0
1683032461.19973302,111828584,1544,1545,1545,1544,0,0,0,0,0,0,0,0,0,0
1683032461.29969311,111928544,1545,1544,1545,1545,0,0,0,0,0,0,0,0,0,0
1683032461.39965296,112028504,1544,1544,1544,1543,0,0,0,0,0,0,0,0,0,0
1683032461.49961305,112128464,1544,1544,1544,1544,0,0,0,0,0,0,0,0,0,0
1683032461.59957314,112228424,1544,1544,1544,1544,0,0,0,0,0,0,0,0,0,0
1683032461.69953299,112328384,1543,1543,1543,1543,0,0,0,0,0,0,0,0,0,0
1683032461.79949307,112428344,1542,1543,1543,1543,0,0,0,0,0,0,0,0,0,0
1683032461.89945316,112528304,1543,1543,1543,1543,0,0,0,0,0,0,0,0,0,0
1683032461.99941301,112628264,1544,1544,1544,1544,0,0,0,0,0,0,0,0,0,0
1683032462.09937310,112728224,1544,1544,1544,1544,0,0,0,0,0,0,0,0,0,0
1683032462.19933295,112828184,1544,1544,1544,1544,0,0,0,0,0,0,0,0,0,0
1683032462.30012608,112928977,1544,1544,1544,1544,0,0,0,0,0,0,0,0,0,0
1683032462.40008616,113028937,1544,1544,1544,1544,0,0,0,0,0,0,0,0,0,0
1683032462.50004601,113128897,1545,1544,1545,1544,0,0,0,0,0,0,0,0,0,0
1683032462.60000610,113228857,1544,1545,1544,1545,0,0,0,0,0,0,0,0,0,0
1683032462.69996595,113328817,1545,1545,1545,1545,0,0,0,0,0,0,0,0,0,0
1683032462.79992604,113428777,1544,1545,1545,1545,0,0,0,0,0,0,0,0,0,0
1683032462.89988613,113528737,1545,1545,1544,1546,0,0,0,0,0,0,0,0,0,0
1683032462.99984598,113628697,1545,1545,1545,1545,0,0,0,0,0,0,0,0,0,0
1683032463.09980607,113728657,1544,1544,1544,1544,0,0,0,0,0,0,0,0,0,0
1683032463.19976616,113828617,1544,1545,1545,1545,0,0,0,0,0,0,0,0,0,0
1683032463.29972601,113928577,1544,1544,1543,1544,0,0,0,0,0,0,0,0,0,0
1683032463.39968610,114028537,1544,1544,1544,1544,0,0,0,0,0,0,0,0,0,0
1683032463.49964595,114128497,1544,1544,1544,1544,0,0,0,0,0,0,0,0,0,0
1683032463.59960604,114228457,1544,1544,1544,1543,0,0,0,0,0,0,0,0,0,0
1683032463.69956613,114328417,1545,1544,1544,1544,0,0,0,0,0,0,0,0,0,0
1683032463.79952598,114428377,1545,1545,1545,1544,0,0,0,0,0,0,0,0,0,0
1683032463.89948606,114528337,1545,1545,1545,1545,0,0,0,0,0,0,0,0,0,0
1683032463.99944615,114628297,1545,1545,1544,1545,0,0,0,0,0,0,0,0,0,0
1683032464.09940600,114728257,1545,1545,1545,1546,0,0,0,0,0,0,0,0,0,0
1683032464.19936609,114828217,1544,1545,1545,1545,0,0,0,0,0,0,0,0,0,0
1683032464.29932618,114928177,1543,1544,1543,1544,0,0,0,0,0,0,0,0,0,0
1683032464.40011907,115028970,1544,1544,1545,1543,0,0,0,0,0,0,0,0,0,0
1683032464.50007915,115128930,1544,1544,1544,1544,0,0,0,0,0,0,0,0,0,0
1683032464.60003901,115228890,1545,1545,1545,1545,0,0,0,0,0,0,0,0,0,0
1683032464.69999909,115328850,1545,1544,1544,1545,0,0,0,0,0,0,0,0,0,0
1683032464.79995894,115428810,1544,1544,1544,1544,0,0,0,0,0,0,0,0,0,0
1683032464.89991903,115528770,1544,1544,1544,1545,0,0,0,0,0,0,0,0,0,0
1683032464.99987912,115628730,1543,1545,1544,1544,0,0,0,0,0,0,0,0,0,0
1683032465.09983897,115728690,1545,1545,1545,1545,0,0,0,0,0,0,0,0,0,0
1683032465.19979906,115828650,1544,1544,1544,1544,0,0,0,0,0,0,0,0,0,0
1683032465.29975915,115928610,1546,1545,1545,1545,0,0,0,0,0,0,0,0,0,0
1683032465.39971900,116028570,1544,1544,1545,1544,0,0,0,0,0,0,0,0,0,0
1683032465.49967909,116128530,1544,1544,1544,1544,0,0,0,0,0,0,0,0,0,0
1683032465.59963918,116228490,1544,1545,1545,1545,0,0,0,0,0,0,0,0,0,0
1683032465.69959903,116328450,1545,1544,1544,1545,0,0,0,0,0,0,0,0,0,0
1683032465.79955912,116428410,1544,1545,1544,1544,0,0,0,0,0,0,0,0,0,0
1683032465.89951897,116528370,1545,1545,1545,1545,0,0,0,0,0,0,0,0,0,0
1683032465.99947906,116628330,1544,1544,1544,1544,0,0,0,0,0,0,0,0,0,0
1683032466.09943914,116728290,1544,1544,1544,1544,0,0,0,0,0,0,0,0,0,0
1683032466.19939899,116828250,1544,1544,1544,1544,0,0,0,0,0,0,0,0,0,0
1683032466.29935908,116928210,1545,1544,1544,1544,0,0,0,0,0,0,0,0,0,0
1683032466.39931917,117028170,1545,1544,1544,1545,0,0,0,0,0,0,0,0,0,0
1683032466.50011206,117128963,1545,1545,1545,1545,0,0,0,0,0,0,0,0,0,0
1683032466.60007215,117228923,1544,1545,1545,1545,0,0,0,0,0,0,0,0,0,0
1683032466.70003200,117328883,1546,1545,1546,1545,0,0,0,0,0,0,0,0,0,0
1683032466.79999208,117428843,1545,1546,1546,1546,0,0,0,0,0,0,0,0,0,0
1683032466.89995217,117528803,1545,1545,1544,1545,0,0,0,0,0,0,0,0,0,0
1683032466.99991202,117628763,1545,1545,1545,1545,0,0,0,0,0,0,0,0,0,0
1683032467.09987211,117728723,1524,1530,1524,1530,0,0,0,0,0,0,0,0,0,0
1683032467.19983196,117828683,1303,1366,1303,1366,0,0,0,0,0,0,0,0,0,0
1683032467.29979205,117928643,1304,1365,1303,1366,0,0,0,0,0,0,0,0,0,0
1683032467.39975214,118028603,1303,1366,1303,1366,0,0,0,0,0,0,0,0,0,0
1683032467.49971199,118128563,1303,1366,1303,1367,0,0,0,0,0,0,0,0,0,0
1683032467.59967208,118228523,1303,1310,1303,1310,0,0,0,0,0,0,0,0,0,0
1683032467.69963217,118328483,1303,1308,1303,1309,0,0,0,0,0,0,0,0,0,0
1683032467.79959202,118428443,1324,1292,1303,1309,0,0,0,0,0,0,0,0,0,0
1683032467.89955211,118528403,1322,1294,1303,1309,0,0,0,0,0,0,0,0,0,0
1683032467.99951196,118628363,1316,1298,1303,1309,0,0,0,0,0,0,0,0,0,0
1683032468.09947205,118728323,1315,1299,1303,1309,0,0,0,0,0,0,0,0,0,0
1683032468.19943213,118828283,1316,1298,1303,1309,0,0,0,0,0,0,0,0,0,0
1683032468.29939198,118928243,1317,1297,1303,1309,0,0,0,0,0,0,0,0,0,0
1683032468.39935207,119028203,1318,1297,1303,1309,0,0,0,0,0,0,0,0,0,0
1683032468.49931216,119128163,1319,1296,1303,1309,0,0,0,0,0,0,0,0,0,0
1683032468.60010505,119228956,1306,1306,1303,1309,0,0,0,0,0,0,0,0,0,0
1683032468.70006514,119328916,1309,1304,1303,1309,0,0,0,0,0,0,0,0,0,0
1683032468.80002499,119428876,1310,1303,1303,1309,0,0,0,0,0,0,0,0,0,0
1683032468.89998507,119528836,1310,1303,1303,1309,0,0,0,0,0,0,0,0,0,0
1683032468.99994516,119628796,1310,1302,1303,1309,0,0,0,0,0,0,0,0,0,0
1683032469.09990501,119728756,1000,1000,1000,1000,0,0,0,0,0,0,0,0,0,0
1683032469.19986510,119828716,1000,1000,1000,1000,0,0,0,0,0,0,0,0,0,0
1683032469.29982495,119928676,1000,1000,1000,1000,0,0,0,0,0,0,0,0,0,0
1683032469.39978504,120028636,1000,1000,1000,1000,0,0,0,0,0,0,0,0,0,0
1683032469.49974513,120128596,1000,1000,1000,1000,0,0,0,0,0,0,0,0,0,0
1683032469.59970498,120228556,1000,1000,1000,1000,0,0,0,0,0,0,0,0,0,0
1683032469.69966507,120328516,1000,1000,1000,1000,0,0,0,0,0,0,0,0,0,0
1683032469.79962516,120428476,1000,1000,1000,1000,0,0,0,0,0,0,0,0,0,0
1683032469.89958501,120528436,1000,1000,1000,1000,0,0,0,0,0,0,0,0,0,0
1683032469.99954510,120628396,1000,1000,1000,1000,0,0,0,0,0,0,0,0,0,0
1683032470.09950495,120728356,1000,1000,1000,1000,0,0,0,0,0,0,0,0,0,0
1683032470.19946504,120828316,1000,1000,1000,1000,0,0,0,0,0,0,0,0,0,0
1683032470.29942513,120928276,1000,1000,1000,1000,0,0,0,0,0,0,0,0,0,0
1683032470.39938498,121028236,1000,1000,1000,1000,0,0,0,0,0,0,0,0,0,0
1683032470.49934506,121128196,1000,1000,1000,1000,0,0,0,0,0,0,0,0,0,0
1683032470.59930515,121228156,1000,1000,1000,1000,0,0,0,0,0,0,0,0,0,0
1683032470.70009804,121328949,1000,1000,1000,1000,0,0,0,0,0,0,0,0,0,0
1683032470.80005813,121428909,1000,1000,1000,1000,0,0,0,0,0,0,0,0,0,0
1683032470.90001798,121528869,1000,1000,1000,1000,0,0,0,0,0,0,0,0,0,0
1683032470.99997807,121628829,1000,1000,1000,1000,0,0,0,0,0,0,0,0,0,0
1683032471.09993815,121728789,1000,1000,1000,1000,0,0,0,0,0,0,0,0,0,0
1683032471.19989800,121828749,1000,1000,1000,1000,0,0,0,0,0,0,0,0,0,0
1683032471.29985809,121928709,1000,1000,1000,1000,0,0,0,0,0,0,0,0,0,0
1683032471.39981818,122028669,1000,1000,1000,1000,0,0,0,0,0,0,0,0,0,0
1683032471.49977803,122128629,1000,1000,1000,1000,0,0,0,0,0,0,0,0,0,0
1683032471.59973812,122228589,1000,1000,1000,1000,0,0,0,0,0,0,0,0,0,0
1683032471.69969797,122328549,1000,1000,1000,1000,0,0,0,0,0,0,0,0,0,0
1683032471.79965806,122428509,1000,1000,1000,1000,0,0,0,0,0,0,0,0,0,0
1683032471.89961815,122528469,1000,1000,1000,1000,0,0,0,0,0,0,0,0,0,0
1683032471.99957800,122628429,1000,1000,1000,1000,0,0,0,0,0,0,0,0,0,0
1683032472.09953809,122728389,1000,1000,1000,1000,0,0,0,0,0,0,0,0,0,0
1683032472.19949818,122828349,1000,1000,1000,1000,0,0,0,0,0,0,0,0,0,0
1683032472.29945803,122928309,1000,1000,1000,1000,0,0,0,0,0,0,0,0,0,0
1683032472.39941812,123028269,1000,1000,1000,1000,0,0,0,0,0,0,0,0,0,0
1683032472.49937797,123128229,1000,1000,1000,1000,0,0,0,0,0,0,0,0,0,0
1683032472.59933805,123228189,1000,1000,1000,1000,0,0,0,0,0,0,0,0,0,0
1683032472.70013118,123328982,1000,1000,1000,1000,0,0,0,0,0,0,0,0,0,0
1683032472.80009103,123428942,1000,1000,1000,1000,0,0,0,0,0,0,0,0,0,0
1683032472.90005112,123528902,1000,1000,1000,1000,0,0,0,0,0,0,0,0,0,0
1683032473.00001097,123628862,1000,1000,1000,1000,0,0,0,0,0,0,0,0,0,0
1683032473.09997106,123728822,1000,1000,1000,1000,0,0,0,0,0,0,0,0,0,0
1683032473.19993114,123828782,1000,1000,1000,1000,0,0,0,0,0,0,0,0,0,0
1683032473.29989100,123928742,1000,1000,1000,1000,0,0,0,0,0,0,0,0,0,0
1683032473.39985108,124028702,1000,1000,1000,1000,0,0,0,0,0,0,0,0,0,0
1683032473.49981117,124128662,1000,1000,1000,1000,0,0,0,0,0,0,0,0,0,0
1683032473.59977102,124228622,1000,1000,1000,1000,0,0,0,0,0,0,0,0,0,0
1683032473.69973111,124328582,1000,1000,1000,1000,0,0,0,0,0,0,0,0,0,0
1683032473.79969096,124428542,1000,1000,1000,1000,0,0,0,0,0,0,0,0,0,0
1683032473.89965105,124528502,1000,1000,1000,1000,0,0,0,0,0,0,0,0,0,0
1683032473.99961114,124628462,1000,1000,1000,1000,0,0,0,0,0,0,0,0,0,0
1683032474.09957099,124728422,1000,1000,1000,1000,0,0,0,0,0,0,0,0,0,0
1683032474.19953108,124828382,1000,1000,1000,1000,0,0,0,0,0,0,0,0,0,0
1683032474.29949117,124928342,1000,1000,1000,1000,0,0,0,0,0,0,0,0,0,0
1683032474.39945102,125028302,1000,1000,1000,1000,0,0,0,0,0,0,0,0,0,0
1683032474.49941111,125128262,1000,1000,1000,1000,0,0,0,0,0,0,0,0,0,0
1683032474.59937096,125228222,1000,1000,1000,1000,0,0,0,0,0,0,0,0,0,0
1683032474.69933105,125328182,1000,1000,1000,1000,0,0,0,0,0,0,0,0,0,0
1683032474.80012417,125428975,1000,1000,1000,1000,0,0,0,0,0,0,0,0,0,0
1683032474.90008402,125528935,1000,1000,1000,1000,0,0,0,0,0,0,0,0,0,0
1683032475.00004411,125628895,1000,1000,1000,1000,0,0,0,0,0,0,0,0,0,0
1683032475.10000396,125728855,1000,1000,1000,1000,0,0,0,0,0,0,0,0,0,0
1683032475.19996405,125828815,1000,1000,1000,1000,0,0,0,0,0,0,0,0,0,0
1683032475.29992414,125928775,1000,1000,1000,1000,0,0,0,0,0,0,0,0,0,0
1683032475.39988399,126028735,1000,1000,1000,1000,0,0,0,0,0,0,0,0,0,0
1683032475.49984407,126128695,1000,1000,1000,1000,0,0,0,0,0,0,0,0,0,0
1683032475.59980416,126228655,1000,1000,1000,1000,0,0,0,0,0,0,0,0,0,0
1683032475.69976401,126328615,1000,1000,1000,1000,0,0,0,0,0,0,0,0,0,0
1683032475.79972410,126428575,1000,1000,1000,1000,0,0,0,0,0,0,0,0,0,0
1683032475.89968395,126528535,1000,1000,1000,1000,0,0,0,0,0,0,0,0,0,0
1683032475.99964404,126628495,1000,1000,1000,1000,0,0,0,0,0,0,0,0,0,0
1683032476.09960413,126728455,1000,1000,1000,1000,0,0,0,0,0,0,0,0,0,0
1683032476.19956398,126828415,1000,1000,1000,1000,0,0,0,0,0,0,0,0,0,0
1683032476.29952407,126928375,1000,1000,1000,1000,0,0,0,0,0,0,0,0,0,0
1683032476.39948416,127028335,1000,1000,1000,1000,0,0,0,0,0,0,0,0,0,0
1683032476.49944401,127128295,1000,1000,1000,1000,0,0,0,0,0,0,0,0,0,0
1683032476.59940410,127228255,1000,1000,1000,1000,0,0,0,0,0,0,0,0,0,0
1683032476.69936395,127328215,1000,1000,1000,1000,0,0,0,0,0,0,0,0,0,0
1683032476.79932404,127428175,1000,1000,1000,1000,0,0,0,0,0,0,0,0,0,0
1683032476.90011716,127528968,1000,1000,1000,1000,0,0,0,0,0,0,0,0,0,0
1683032477.00007701,127628928,1000,1000,1000,1000,0,0,0,0,0,0,0,0,0,0
1683032477.10003710,127728888,1000,1000,1000,1000,0,0,0,0,0,0,0,0,0,0
1683032477.19999695,127828848,1000,1000,1000,1000,0,0,0,0,0,0,0,0,0,0
1683032477.29995704,127928808,1000,1000,1000,1000,0,0,0,0,0,0,0,0,0,0
1683032477.39991713,128028768,1000,1000,1000,1000,0,0,0,0,0,0,0,0,0,0
1683032477.49987698,128128728,1000,1000,1000,1000,0,0,0,0,0,0,0,0,0,0
1683032477.59983706,128228688,1000,1000,1000,1000,0,0,0,0,0,0,0,0,0,0
1683032477.69979715,128328648,1000,1000,1000,1000,0,0,0,0,0,0,0,0,0,0
1683032477.79975700,128428608,1000,1000,1000,1000,0,0,0,0,0,0,0,0,0,0
1683032477.89971709,128528568,1000,1000,1000,1000,0,0,0,0,0,0,0,0,0,0
1683032477.99967718,128628528,1000,1000,1000,1000,0,0,0,0,0,0,0,0,0,0
1683032478.09963703,128728488,1000,1000,1000,1000,0,0,0,0,0,0,0,0,0,0
1683032478.19959712,128828448,1000,1000,1000,1000,0,0,0,0,0,0,0,0,0,0
1683032478.29955697,128928408,1000,1000,1000,1000,0,0,0,0,0,0,0,0,0,0
1683032478.39951706,129028368,1000,1000,1000,1000,0,0,0,0,0,0,0,0,0,0
1683032478.49947715,129128328,1000,1000,1000,1000,0,0,0,0,0,0,0,0,0,0
1683032478.59943700,129228288,1000,1000,1000,1000,0,0,0,0,0,0,0,0,0,0
1683032478.69939709,129328248,1000,1000,1000,1000,0,0,0,0,0,0,0,0,0,0
1683032478.79935718,129428208,1000,1000,1000,1000,0,0,0,0,0,0,0,0,0,0
1683032478.89931703,129528168,1000,1000,1000,1000,0,0,0,0,0,0,0,0,0,0
1683032479.00011015,129628961,1000,1000,1000,1000,0,0,0,0,0,0,0,0,0,0
1683032479.10007000,129728921,1000,1000,1000,1000,0,0,0,0,0,0,0,0,0,0
1683032479.20003009,129828881,1000,1000,1000,1000,0,0,0,0,0,0,0,0,0,0
1683032479.29999018,129928841,1000,1000,1000,1000,0,0,0,0,0,0,0,0,0,0
1683032479.39995003,130028801,1000,1000,1000,1000,0,0,0,0,0,0,0,0,0,0
1683032479.49991012,130128761,1000,1000,1000,1000,0,0,0,0,0,0,0,0,0,0
1683032479.59986997,130228721,1000,1000,1000,1000,0,0,0,0,0,0,0,0,0,0
1683032479.69983006,130328681,1000,1000,1000,1000,0,0,0,0,0,0,0,0,0,0
1683032479.79979014,130428641,1000,1000,1000,1000,0,0,0,0,0,0,0,0,0,0
1683032479.89974999,130528601,1000,1000,1000,1000,0,0,0,0,0,0,0,0,0,0
1683032479.99971008,130628561,1000,1000,1000,1000,0,0,0,0,0,0,0,0,0,0
1683032480.09967017,130728521,1000,1000,1000,1000,0,0,0,0,0,0,0,0,0,0
1683032480.19963002,130828481,1000,1000,1000,1000,0,0,0,0,0,0,0,0,0,0
1683032480.29959011,130928441,1000,1000,1000,1000,0,0,0,0,0,0,0,0,0,0
1683032480.39954996,131028401,1000,1000,1000,1000,0,0,0,0,0,0,0,0,0,0
1683032480.49951005,131128361,1000,1000,1000,1000,0,0,0,0,0,0,0,0,0,0
1683032480.59947014,131228321,1000,1000,1000,1000,0,0,0,0,0,0,0,0,0,0
1683032480.69942999,131328281,1000,1000,1000,1000,0,0,0,0,0,0,0,0,0,0
1683032480.79939008,131428241,1000,1000,1000,1000,0,0,0,0,0,0,0,0,0,0
1683032480.89935017,131528201,1000,1000,1000,1000,0,0,0,0,0,0,0,0,0,0
1683032480.99931002,131628161,1000,1000,1000,1000,0,0,0,0,0,0,0,0,0,0
1683032481.10010314,131728954,1000,1000,1000,1000,0,0,0,0,0,0,0,0,0,0
1683032481.20006299,131828914,1000,1000,1000,1000,0,0,0,0,0,0,0,0,0,0
1683032481.30002308,131928874,1000,1000,1000,1000,0,0,0,0,0,0,0,0,0,0
1683032481.39998317,132028834,1000,1000,1000,1000,0,0,0,0,0,0,0,0,0,0
1683032481.49994302,132128794,1000,1000,1000,1000,0,0,0,0,0,0,0,0,0,0
1683032481.59990311,132228754,1000,1000,1000,1000,0,0,0,0,0,0,0,0,0,0
1683032481.69986296,132328714,1000,1000,1000,1000,0,0,0,0,0,0,0,0,0,0
1683032481.79982305,132428674,1000,1000,1000,1000,0,0,0,0,0,0,0,0,0,0
1683032481.89978313,132528634,1000,1000,1000,1000,0,0,0,0,0,0,0,0,0,0
1683032481.99974298,132628594,1000,1000,1000,1000,0,0,0,0,0,0,0,0,0,0
1683032482.09970307,132728554,1000,1000,1000,1000,0,0,0,0,0,0,0,0,0,0
1683032482.19966316,132828514,1000,1000,1000,1000,0,0,0,0,0,0,0,0,0,0
1683032482.29962301,132928474,1000,1000,1000,1000,0,0,0,0,0,0,0,0,0,0
1683032482.39958310,133028434,1000,1000,1000,1000,0,0,0,0,0,0,0,0,0,0
1683032482.49954295,133128394,1000,1000,1000,1000,0,0,0,0,0,0,0,0,0,0
1683032482.59950304,133228354,1000,1000,1000,1000,0,0,0,0,0,0,0,0,0,0
1683032482.69946313,133328314,1000,1000,1000,1000,0,0,0,0,0,0,0,0,0,0
1683032482.79942298,133428274,1000,1000,1000,1000,0,0,0,0,0,0,0,0,0,0
1683032482.89938307,133528234,1000,1000,1000,1000,0,0,0,0,0,0,0,0,0,0
1683032482.99934316,133628194,1000,1000,1000,1000,0,0,0,0,0,0,0,0,0,0
1683032483.09930301,133728154,1000,1000,1000,1000,0,0,0,0,0,0,0,0,0,0
1683032483.20009613,133828947,1000,1000,1000,1000,0,0,0,0,0,0,0,0,0,0
1683032483.30005598,133928907,1000,1000,1000,1000,0,0,0,0,0,0,0,0,0,0
1683032483.40001607,134028867,1000,1000,1000,1000,0,0,0,0,0,0,0,0,0,0
1683032483.49997616,134128827,1000,1000,1000,1000,0,0,0,0,0,0,0,0,0,0
1683032483.59993601,134228787,1000,1000,1000,1000,0,0,0,0,0,0,0,0,0,0
1683032483.69989610,134328747,1000,1000,1000,1000,0,0,0,0,0,0,0,0,0,0
1683032483.79985595,134428707,1000,1000,1000,1000,0,0,0,0,0,0,0,0,0,0
1683032483.89981604,134528667,1000,1000,1000,1000,0,0,0,0,0,0,0,0,0,0
1683032483.99977612,134628627,1000,1000,1000,1000,0,0,0,0,0,0,0,0,0,0
