TimeUS,M1,M2,M3,M4,TimeUS,C1,C2,C3,C4
60846485,1000,1000,1000,1000,60928952,1000,1000,1000,1000
60848984,1000,1000,1000,1000,61028912,1000,1000,1000,1000
60851483,1000,1000,1000,1000,61128872,1000,1000,1000,1000
60853982,1000,1000,1000,1000,61228832,1000,1000,1000,1000
60856481,1000,1000,1000,1000,61328792,1000,1000,1000,1000
60858980,1000,1000,1000,1000,61428752,1000,1000,1000,1000
60861479,1000,1000,1000,1000,61528712,1000,1000,1000,1000
60863978,1000,1000,1000,1000,61628672,1000,1000,1000,1000
60866477,1000,1000,1000,1000,61728632,1000,1000,1000,1000
60868976,1000,1000,1000,1000,61828592,1000,1000,1000,1000
60871475,1000,1000,1000,1000,61928552,1000,1000,1000,1000
60873974,1000,1000,1000,1000,62028512,1000,1000,1000,1000
60876473,1000,1000,1000,1000,62128472,1000,1000,1000,1000
60878972,1000,1000,1000,1000,62228432,1000,1000,1000,1000
60881471,1000,1000,1000,1000,62328392,1000,1000,1000,1000
60883970,1000,1000,1000,1000,62428352,1000,1000,1000,1000
60886469,1000,1000,1000,1000,62528312,1000,1000,1000,1000
60888968,1000,1000,1000,1000,62628272,1000,1000,1000,1000
60891467,1000,1000,1000,1000,62728232,1000,1000,1000,1000
60893966,1000,1000,1000,1000,62828192,1000,1000,1000,1000
60896465,1000,1000,1000,1000,62928985,1024,1024,1024,1024
60898964,1000,1000,1000,1000,63028945,1054,1054,1054,1054
60901463,1000,1000,1000,1000,63128905,1084,1084,1084,1084
60903962,1000,1000,1000,1000,63228865,1114,1114,1114,1114
60906461,1000,1000,1000,1000,63328825,1144,1144,1144,1144
60908960,1000,1000,1000,1000,63428785,1363,1356,1357,1363
60911459,1000,1000,1000,1000,63528745,1551,1545,1545,1551
60913958,1000,1000,1000,1000,63628705,1703,1697,1697,1703
60916457,1000,1000,1000,1000,63728665,1833,1828,1828,1834
60918956,1000,1000,1000,1000,63828625,1920,1914,1915,1919
60921455,1000,1000,1000,1000,63928585,1850,1847,1847,1850
60923954,1000,1000,1000,1000,64028545,1721,1721,1721,1721
60926453,1000,1000,1000,1000,64128505,1650,1652,1652,1650
60928952,1000,1000,1000,1000,64228465,1634,1638,1638,1635
60931451,1000,1000,1000,1000,64328425,1641,1643,1643,1641
60933950,1000,1000,1000,1000,64428385,1644,1645,1645,1644
60936449,1000,1000,1000,1000,64528345,1638,1637,1637,1638
60938948,1000,1000,1000,1000,64628305,1614,1613,1606,1621
60941447,1000,1000,1000,1000,64728265,1601,1600,1591,1610
60943946,1000,1000,1000,1000,64828225,1596,1595,1590,1600
60946445,1000,1000,1000,1000,64928185,1595,1595,1594,1595
60948944,1000,1000,1000,1000,65028978,1598,1598,1601,1595
60951443,1000,1000,1000,1000,65128938,1593,1593,1601,1584
60953942,1000,1000,1000,1000,65228898,1573,1574,1594,1552
60956441,1000,1000,1000,1000,65328858,1562,1563,1576,1549
60958940,1000,1000,1000,1000,65428818,1553,1553,1555,1552
60961439,1000,1000,1000,1000,65528778,1544,1543,1534,1554
60963938,1000,1000,1000,1000,65628738,1537,1536,1523,1550
60966437,1000,1000,1000,1000,65728698,1531,1530,1520,1542
60968936,1000,1000,1000,1000,65828658,1526,1526,1520,1532
60971435,1000,1000,1000,1000,65928618,1526,1525,1524,1527
60973934,1000,1000,1000,1000,66028578,1527,1527,1529,1525
60976433,1000,1000,1000,1000,66128538,1530,1530,1533,1527
60978932,1000,1000,1000,1000,66228498,1534,1534,1538,1531
60981431,1000,1000,1000,1000,66328458,1539,1538,1542,1535
60983930,1000,1000,1000,1000,66428418,1542,1542,1545,1540
60986429,1000,1000,1000,1000,66528378,1544,1544,1545,1544
60988928,1000,1000,1000,1000,66628338,1548,1548,1548,1549
60991427,1000,1000,1000,1000,66728298,1551,1550,1549,1552
60993926,1000,1000,1000,1000,66828258,1553,1552,1551,1554
60996425,1000,1000,1000,1000,66928218,1554,1553,1556,1559
60998924,1000,1000,1000,1000,67028178,1555,1555,1561,1562
61001423,1000,1000,1000,1000,67128971,1557,1557,1563,1563
61003922,1000,1000,1000,1000,67228931,1560,1560,1565,1564
61006421,1000,1000,1000,1000,67328891,1561,1562,1565,1565
61008920,1000,1000,1000,1000,67428851,1563,1564,1565,1565
61011419,1000,1000,1000,1000,67528811,1567,1567,1567,1566
61013918,1000,1000,1000,1000,67628771,1570,1570,1568,1567
61016417,1000,1000,1000,1000,67728731,1570,1570,1567,1567
61018916,1000,1000,1000,1000,67828691,1572,1571,1567,1568
61021415,1000,1000,1000,1000,67928651,1572,1572,1568,1568
61023914,1000,1000,1000,1000,68028611,1573,1573,1569,1569
61026413,1000,1000,1000,1000,68128571,1574,1574,1571,1571
61028912,1000,1000,1000,1000,68228531,1574,1574,1572,1572
61031411,1000,1000,1000,1000,68328491,1574,1574,1573,1573
61033910,1000,1000,1000,1000,68428451,1575,1575,1575,1574
61036409,1000,1000,1000,1000,68528411,1575,1575,1576,1575
61038908,1000,1000,1000,1000,68628371,1575,1575,1577,1575
61041407,1000,1000,1000,1000,68728331,1575,1575,1576,1576
61043906,1000,1000,1000,1000,68828291,1574,1575,1576,1575
61046405,1000,1000,1000,1000,68928251,1576,1575,1576,1577
61048904,1000,1000,1000,1000,69028211,1576,1575,1576,1577
61051403,1000,1000,1000,1000,69128171,1576,1576,1576,1577
61053902,1000,1000,1000,1000,69228964,1576,1576,1577,1576
61056401,1000,1000,1000,1000,69328924,1577,1577,1577,1577
61058900,1000,1000,1000,1000,69428884,1577,1577,1578,1577
61061399,1000,1000,1000,1000,69528844,1577,1577,1576,1576
61063898,1000,1000,1000,1000,69628804,1578,1578,1578,1578
61066397,1000,1000,1000,1000,69728764,1578,1577,1577,1577
61068896,1000,1000,1000,1000,69828724,1578,1578,1578,1578
61071395,1000,1000,1000,1000,69928684,1578,1578,1578,1578
61073894,1000,1000,1000,1000,70028644,1577,1577,1577,1577
61076393,1000,1000,1000,1000,70128604,1578,1578,1578,1578
61078892,1000,1000,1000,1000,70228564,1578,1578,1578,1578
61081391,1000,1000,1000,1000,70328524,1577,1578,1578,1577
61083890,1000,1000,1000,1000,70428484,1578,1579,1579,1579
61086389,1000,1000,1000,1000,70528444,1578,1578,1578,1578
61088888,1000,1000,1000,1000,70628404,1578,1578,1578,1578
61091387,1000,1000,1000,1000,70728364,1578,1578,1578,1578
61093886,1000,1000,1000,1000,70828324,1578,1579,1579,1579
61096385,1000,1000,1000,1000,70928284,1579,1579,1579,1579
61098884,1000,1000,1000,1000,71028244,1579,1579,1579,1580
61101383,1000,1000,1000,1000,71128204,1580,1579,1580,1580
61103882,1000,1000,1000,1000,71228164,1580,1580,1580,1580
61106381,1000,1000,1000,1000,71328957,1579,1579,1579,1579
61108880,1000,1000,1000,1000,71428917,1579,1579,1579,1579
61111379,1000,1000,1000,1000,71528877,1580,1580,1580,1581
61113878,1000,1000,1000,1000,71628837,1580,1580,1580,1580
61116377,1000,1000,1000,1000,71728797,1580,1581,1580,1581
61118876,1000,1000,1000,1000,71828757,1581,1580,1581,1580
61121375,1000,1000,1000,1000,71928717,1581,1580,1581,1581
61123874,1000,1000,1000,1000,72028677,1582,1581,1581,1582
61126373,1000,1000,1000,1000,72128637,1581,1581,1581,1581
61128872,1000,1000,1000,1000,72228597,1581,1581,1581,1581
61131371,1000,1000,1000,1000,72328557,1581,1581,1581,1582
61133870,1000,1000,1000,1000,72428517,1581,1581,1581,1581
61136369,1000,1000,1000,1000,72528477,1581,1581,1581,1581
61138868,1000,1000,1000,1000,72628437,1581,1581,1581,1581
61141367,1000,1000,1000,1000,72728397,1581,1581,1581,1581
61143866,1000,1000,1000,1000,72828357,1581,1581,1581,1581
61146365,1000,1000,1000,1000,72928317,1582,1582,1582,1582
61148864,1000,1000,1000,1000,73028277,1581,1581,1581,1581
61151363,1000,1000,1000,1000,73128237,1581,1582,1587,1576
61153862,1000,1000,1000,1000,73228197,1581,1583,1588,1573
61156361,1000,1000,1000,1000,73328157,1579,1581,1579,1573
61158860,1000,1000,1000,1000,73428950,1577,1580,1570,1572
61161359,1000,1000,1000,1000,73528910,1577,1579,1562,1570
61163858,1000,1000,1000,1000,73628870,1576,1578,1557,1564
61166357,1000,1000,1000,1000,73728830,1578,1577,1555,1560
61168856,1000,1000,1000,1000,73828790,1579,1578,1556,1557
61171355,1000,1000,1000,1000,73928750,1580,1579,1557,1555
61173854,1000,1000,1000,1000,74028710,1578,1578,1556,1553
61176353,1000,1000,1000,1000,74128670,1577,1578,1556,1553
61178852,1000,1000,1000,1000,74228630,1575,1577,1554,1553
61181351,1000,1000,1000,1000,74328590,1576,1577,1554,1554
61183850,1000,1000,1000,1000,74428550,1575,1576,1553,1553
61186349,1000,1000,1000,1000,74528510,1576,1577,1552,1553
61188848,1000,1000,1000,1000,74628470,1576,1577,1550,1551
61191347,1000,1000,1000,1000,74728430,1578,1579,1548,1549
61193846,1000,1000,1000,1000,74828390,1580,1582,1547,1546
61196345,1000,1000,1000,1000,74928350,1583,1585,1544,1544
61198844,1000,1000,1000,1000,75028310,1587,1588,1543,1541
61201343,1000,1000,1000,1000,75128270,1590,1590,1540,1540
61203842,1000,1000,1000,1000,75228230,1594,1594,1538,1538
61206341,1000,1000,1000,1000,75328190,1596,1595,1536,1537
61208840,1000,1000,1000,1000,75428983,1596,1596,1535,1536
61211339,1000,1000,1000,1000,75528943,1595,1595,1536,1538
61213838,1000,1000,1000,1000,75628903,1593,1594,1539,1541
61216337,1000,1000,1000,1000,75728863,1590,1589,1543,1546
61218836,1000,1000,1000,1000,75828823,1585,1582,1548,1552
61221335,1000,1000,1000,1000,75928783,1577,1573,1558,1561
61223834,1000,1000,1000,1000,76028743,1568,1564,1570,1573
61226333,1000,1000,1000,1000,76128703,1557,1553,1583,1585
61228832,1000,1000,1000,1000,76228663,1546,1543,1595,1595
61231331,1000,1000,1000,1000,76328623,1537,1535,1605,1604
61233830,1000,1000,1000,1000,76428583,1530,1531,1612,1611
61236329,1000,1000,1000,1000,76528543,1529,1530,1616,1615
61238828,1000,1000,1000,1000,76628503,1530,1533,1615,1614
61241327,1000,1000,1000,1000,76728463,1535,1537,1611,1611
61243826,1000,1000,1000,1000,76828423,1542,1544,1605,1606
61246325,1000,1000,1000,1000,76928383,1550,1551,1597,1598
61248824,1000,1000,1000,1000,77028343,1560,1561,1591,1591
61251323,1000,1000,1000,1000,77128303,1568,1568,1584,1583
61253822,1000,1000,1000,1000,77228263,1576,1576,1577,1577
61256321,1000,1000,1000,1000,77328223,1582,1581,1572,1572
61258820,1000,1000,1000,1000,77428183,1586,1585,1569,1568
61261319,1000,1000,1000,1000,77528976,1588,1586,1566,1566
61263818,1000,1000,1000,1000,77628936,1587,1587,1566,1566
61266317,1000,1000,1000,1000,77728896,1587,1586,1567,1568
61268816,1000,1000,1000,1000,77828856,1585,1584,1570,1570
61271315,1000,1000,1000,1000,77928816,1581,1581,1572,1572
61273814,1000,1000,1000,1000,78028776,1639,1543,1635,1540
61276313,1000,1000,1000,1000,78128736,1605,1577,1608,1579
61278812,1000,1000,1000,1000,78228696,1589,1579,1597,1584
61281311,1000,1000,1000,1000,78328656,1576,1579,1587,1588
61283810,1000,1000,1000,1000,78428616,1567,1578,1579,1589
61286309,1000,1000,1000,1000,78528576,1563,1574,1575,1586
61288808,1000,1000,1000,1000,78628536,1564,1572,1574,1583
61291307,1000,1000,1000,1000,78728496,1568,1572,1576,1579
61293806,1000,1000,1000,1000,78828456,1572,1571,1577,1575
61296305,1000,1000,1000,1000,78928416,1576,1573,1577,1575
61298804,1000,1000,1000,1000,79028376,1579,1576,1578,1575
61301303,1000,1000,1000,1000,79128336,1581,1578,1578,1575
61303802,1000,1000,1000,1000,79228296,1581,1579,1577,1575
61306301,1000,1000,1000,1000,79328256,1581,1581,1576,1576
61308800,1000,1000,1000,1000,79428216,1581,1582,1576,1577
61311299,1000,1000,1000,1000,79528176,1581,1581,1577,1577
61313798,1000,1000,1000,1000,79628969,1581,1581,1578,1578
61316297,1000,1000,1000,1000,79728929,1580,1580,1578,1578
61318796,1000,1000,1000,1000,79828889,1580,1580,1579,1579
61321295,1000,1000,1000,1000,79928849,1580,1580,1581,1581
61323794,1000,1000,1000,1000,80028809,1580,1579,1581,1581
61326293,1000,1000,1000,1000,80128769,1579,1579,1581,1581
61328792,1000,1000,1000,1000,80228729,1580,1580,1582,1582
61331291,1000,1000,1000,1000,80328689,1580,1580,1582,1582
61333790,1000,1000,1000,1000,80428649,1581,1581,1583,1583
61336289,1000,1000,1000,1000,80528609,1581,1580,1582,1582
61338788,1000,1000,1000,1000,80628569,1580,1580,1581,1582
61341287,1000,1000,1000,1000,80728529,1581,1581,1582,1581
61343786,1000,1000,1000,1000,80828489,1581,1581,1581,1581
61346285,1000,1000,1000,1000,80928449,1581,1582,1581,1581
61348784,1000,1000,1000,1000,81028409,1580,1580,1580,1580
61351283,1000,1000,1000,1000,81128369,1581,1582,1585,1574
61353782,1000,1000,1000,1000,81228329,1581,1585,1585,1571
61356281,1000,1000,1000,1000,81328289,1581,1584,1577,1571
61358780,1000,1000,1000,1000,81428249,1580,1582,1567,1570
61361279,1000,1000,1000,1000,81528209,1580,1581,1560,1566
61363778,1000,1000,1000,1000,81628169,1580,1581,1555,1562
61366277,1000,1000,1000,1000,81728962,1582,1581,1553,1557
61368776,1000,1000,1000,1000,81828922,1582,1580,1553,1553
61371275,1000,1000,1000,1000,81928882,1581,1580,1553,1552
61373774,1000,1000,1000,1000,82028842,1581,1580,1554,1552
61376273,1000,1000,1000,1000,82128802,1579,1580,1555,1552
61378772,1000,1000,1000,1000,82228762,1578,1579,1555,1553
61381271,1000,1000,1000,1000,82328722,1575,1577,1553,1552
61383770,1000,1000,1000,1000,82428682,1575,1577,1552,1553
61386269,1000,1000,1000,1000,82528642,1576,1577,1551,1552
61388768,1000,1000,1000,1000,82628602,1578,1579,1551,1551
61391267,1000,1000,1000,1000,82728562,1580,1581,1549,1550
61393766,1000,1000,1000,1000,82828522,1582,1583,1548,1548
61396265,1000,1000,1000,1000,82928482,1584,1584,1545,1545
61398764,1000,1000,1000,1000,83028442,1586,1587,1544,1543
61401263,1000,1000,1000,1000,83128402,1588,1590,1541,1542
61403762,1000,1000,1000,1000,83228362,1591,1593,1539,1541
61406261,1000,1000,1000,1000,83328322,1594,1594,1539,1540
61408760,1000,1000,1000,1000,83428282,1594,1593,1540,1541
61411259,1000,1000,1000,1000,83528242,1592,1591,1543,1546
61413758,1000,1000,1000,1000,83628202,1589,1586,1549,1552
61416257,1000,1000,1000,1000,83728162,1584,1580,1559,1561
61418756,1000,1000,1000,1000,83828955,1573,1569,1568,1570
61421255,1000,1000,1000,1000,83928915,1564,1560,1579,1581
61423754,1000,1000,1000,1000,84028875,1553,1550,1588,1590
61426253,1000,1000,1000,1000,84128835,1545,1544,1598,1599
61428752,1000,1000,1000,1000,84228795,1539,1539,1606,1605
61431251,1000,1000,1000,1000,84328755,1535,1536,1609,1608
61433750,1000,1000,1000,1000,84428715,1536,1538,1610,1610
61436249,1000,1000,1000,1000,84528675,1539,1542,1608,1608
61438748,1000,1000,1000,1000,84628635,1546,1548,1606,1605
61441247,1000,1000,1000,1000,84728595,1553,1554,1600,1598
61443746,1000,1000,1000,1000,84828555,1560,1560,1593,1592
61446245,1000,1000,1000,1000,84928515,1567,1567,1586,1585
61448744,1000,1000,1000,1000,85028475,1575,1574,1580,1581
61451243,1000,1000,1000,1000,85128435,1580,1579,1576,1576
61453742,1000,1000,1000,1000,85228395,1583,1582,1572,1572
61456241,1000,1000,1000,1000,85328355,1585,1584,1569,1569
61458740,1000,1000,1000,1000,85428315,1586,1585,1569,1569
61461239,1000,1000,1000,1000,85528275,1585,1584,1569,1569
61463738,1000,1000,1000,1000,85628235,1584,1583,1572,1571
61466237,1000,1000,1000,1000,85728195,1582,1581,1573,1573
61468736,1000,1000,1000,1000,85828155,1580,1580,1576,1576
61471235,1000,1000,1000,1000,85928948,1578,1578,1579,1579
61473734,1000,1000,1000,1000,86028908,1576,1577,1581,1581
61476233,1000,1000,1000,1000,86128868,1575,1575,1582,1582
61478732,1000,1000,1000,1000,86228828,1574,1574,1583,1583
61481231,1000,1000,1000,1000,86328788,1574,1575,1584,1584
61483730,1000,1000,1000,1000,86428748,1575,1575,1584,1584
61486229,1000,1000,1000,1000,86528708,1575,1575,1583,1583
61488728,1000,1000,1000,1000,86628668,1576,1576,1582,1582
61491227,1000,1000,1000,1000,86728628,1577,1577,1581,1581
61493726,1000,1000,1000,1000,86828588,1578,1578,1580,1580
61496225,1000,1000,1000,1000,86928548,1579,1579,1579,1579
61498724,1000,1000,1000,1000,87028508,1580,1580,1578,1579
61501223,1000,1000,1000,1000,87128468,1582,1581,1579,1579
61503722,1000,1000,1000,1000,87228428,1581,1581,1578,1578
61506221,1000,1000,1000,1000,87328388,1582,1581,1578,1578
61508720,1000,1000,1000,1000,87428348,1581,1581,1578,1578
61511219,1000,1000,1000,1000,87528308,1581,1581,1578,1578
61513718,1000,1000,1000,1000,87628268,1580,1580,1578,1579
61516217,1000,1000,1000,1000,87728228,1580,1580,1579,1579
61518716,1000,1000,1000,1000,87828188,1580,1580,1580,1580
61521215,1000,1000,1000,1000,87928981,1580,1580,1581,1581
61523714,1000,1000,1000,1000,88028941,1580,1580,1581,1581
61526213,1000,1000,1000,1000,88128901,1580,1580,1581,1581
61528712,1000,1000,1000,1000,88228861,1579,1580,1581,1581
61531211,1000,1000,1000,1000,88328821,1579,1579,1580,1581
61533710,1000,1000,1000,1000,88428781,1580,1580,1581,1581
61536209,1000,1000,1000,1000,88528741,1580,1579,1580,1580
61538708,1000,1000,1000,1000,88628701,1580,1580,1580,1580
61541207,1000,1000,1000,1000,88728661,1581,1581,1581,1580
61543706,1000,1000,1000,1000,88828621,1581,1581,1581,1581
61546205,1000,1000,1000,1000,88928581,1581,1582,1581,1581
61548704,1000,1000,1000,1000,89028541,1582,1582,1581,1581
61551203,1000,1000,1000,1000,89128501,1582,1582,1581,1581
61553702,1000,1000,1000,1000,89228461,1581,1582,1587,1574
61556201,1000,1000,1000,1000,89328421,1581,1583,1585,1573
61558700,1000,1000,1000,1000,89428381,1580,1582,1578,1573
61561199,1000,1000,1000,1000,89528341,1580,1582,1569,1572
61563698,1000,1000,1000,1000,89628301,1578,1580,1562,1568
61566197,1000,1000,1000,1000,89728261,1579,1579,1557,1563
61568696,1000,1000,1000,1000,89828221,1580,1579,1555,1559
61571195,1000,1000,1000,1000,89928181,1580,1579,1555,1556
61573694,1000,1000,1000,1000,90028974,1580,1579,1556,1554
61576193,1000,1000,1000,1000,90128934,1579,1579,1556,1554
61578692,1000,1000,1000,1000,90228894,1577,1578,1555,1553
61581191,1000,1000,1000,1000,90328854,1576,1577,1555,1554
61583690,1000,1000,1000,1000,90428814,1574,1576,1553,1553
61586189,1000,1000,1000,1000,90528774,1574,1576,1552,1553
61588688,1000,1000,1000,1000,90628734,1575,1576,1551,1551
61591187,1000,1000,1000,1000,90728694,1576,1578,1550,1551
61593686,1000,1000,1000,1000,90828654,1578,1579,1548,1548
61596185,1000,1000,1000,1000,90928614,1580,1581,1547,1546
61598684,1000,1000,1000,1000,91028574,1583,1584,1545,1544
61601183,1000,1000,1000,1000,91128534,1585,1586,1542,1542
61603682,1000,1000,1000,1000,91228494,1589,1589,1540,1540
61606181,1000,1000,1000,1000,91328454,1591,1591,1539,1539
61608680,1000,1000,1000,1000,91428414,1592,1593,1537,1538
61611179,1000,1000,1000,1000,91528374,1593,1593,1536,1538
61613678,1000,1000,1000,1000,91628334,1592,1593,1537,1539
61616177,1000,1000,1000,1000,91728294,1591,1591,1542,1544
61618676,1000,1000,1000,1000,91828254,1589,1587,1548,1551
61621175,1000,1000,1000,1000,91928214,1581,1578,1555,1557
61623674,1000,1000,1000,1000,92028174,1574,1571,1566,1568
61626173,1000,1000,1000,1000,92128967,1564,1560,1578,1579
61628672,1000,1000,1000,1000,92228927,1554,1550,1589,1590
61631171,1000,1000,1000,1000,92328887,1544,1542,1599,1600
61633670,1000,1000,1000,1000,92428847,1537,1537,1607,1607
61636169,1000,1000,1000,1000,92528807,1533,1533,1611,1611
61638668,1000,1000,1000,1000,92628767,1533,1534,1613,1612
61641167,1000,1000,1000,1000,92728727,1536,1538,1611,1610
61643666,1000,1000,1000,1000,92828687,1542,1544,1607,1607
61646165,1000,1000,1000,1000,92928647,1548,1550,1600,1599
61648664,1000,1000,1000,1000,93028607,1556,1557,1593,1593
61651163,1000,1000,1000,1000,93128567,1565,1565,1586,1586
61653662,1000,1000,1000,1000,93228527,1573,1572,1580,1580
61656161,1000,1000,1000,1000,93328487,1577,1577,1574,1573
61658660,1000,1000,1000,1000,93428447,1582,1582,1570,1570
61661159,1000,1000,1000,1000,93528407,1585,1584,1568,1568
61663658,1000,1000,1000,1000,93628367,1587,1586,1568,1568
61666157,1000,1000,1000,1000,93728327,1586,1585,1568,1568
61668656,1000,1000,1000,1000,93828287,1584,1583,1569,1569
61671155,1000,1000,1000,1000,93928247,1583,1582,1572,1572
61673654,1000,1000,1000,1000,94028207,1579,1579,1574,1574
61676153,1000,1000,1000,1000,94128167,1577,1578,1577,1577
61678652,1000,1000,1000,1000,94228960,1575,1576,1580,1580
61681151,1000,1000,1000,1000,94328920,1573,1574,1581,1581
61683650,1000,1000,1000,1000,94428880,1572,1573,1582,1582
61686149,1000,1000,1000,1000,94528840,1572,1573,1583,1583
61688648,1000,1000,1000,1000,94628800,1572,1573,1583,1583
61691147,1000,1000,1000,1000,94728760,1574,1574,1583,1582
61693646,1000,1000,1000,1000,94828720,1575,1575,1581,1581
61696145,1000,1000,1000,1000,94928680,1576,1577,1581,1581
61698644,1000,1000,1000,1000,95028640,1577,1577,1579,1579
61701143,1000,1000,1000,1000,95128600,1578,1578,1578,1578
61703642,1000,1000,1000,1000,95228560,1579,1579,1577,1577
61706141,1000,1000,1000,1000,95328520,1580,1580,1577,1578
61708640,1000,1000,1000,1000,95428480,1581,1581,1577,1577
61711139,1000,1000,1000,1000,95528440,1581,1580,1577,1577
61713638,1000,1000,1000,1000,95628400,1581,1581,1578,1578
61716137,1000,1000,1000,1000,95728360,1581,1581,1578,1578
61718636,1000,1000,1000,1000,95828320,1581,1580,1578,1578
61721135,1000,1000,1000,1000,95928280,1580,1580,1579,1579
61723634,1000,1000,1000,1000,96028240,1580,1581,1580,1580
61726133,1000,1000,1000,1000,96128200,1579,1579,1580,1580
61728632,1000,1000,1000,1000,96228160,1580,1580,1581,1581
61731131,1000,1000,1000,1000,96328953,1580,1580,1582,1581
61733630,1000,1000,1000,1000,96428913,1580,1580,1581,1581
61736129,1000,1000,1000,1000,96528873,1581,1581,1583,1583
61738628,1000,1000,1000,1000,96628833,1580,1580,1582,1582
61741127,1000,1000,1000,1000,96728793,1581,1581,1582,1582
61743626,1000,1000,1000,1000,96828753,1581,1581,1581,1582
61746125,1000,1000,1000,1000,96928713,1580,1580,1580,1581
61748624,1000,1000,1000,1000,97028673,1581,1581,1581,1580
61751123,1000,1000,1000,1000,97128633,1580,1580,1583,1576
61753622,1000,1000,1000,1000,97228593,1581,1581,1587,1571
61756121,1000,1000,1000,1000,97328553,1580,1581,1583,1574
61758620,1000,1000,1000,1000,97428513,1577,1577,1574,1575
61761119,1000,1000,1000,1000,97528473,1574,1574,1569,1576
61763618,1000,1000,1000,1000,97628433,1571,1571,1566,1574
61766117,1000,1000,1000,1000,97728393,1569,1569,1565,1571
61768616,1000,1000,1000,1000,97828353,1567,1567,1566,1568
61771115,1000,1000,1000,1000,97928313,1565,1565,1566,1565
61773614,1000,1000,1000,1000,98028273,1566,1566,1568,1565
61776113,1000,1000,1000,1000,98128233,1565,1565,1567,1564
61778612,1000,1000,1000,1000,98228193,1564,1564,1566,1564
61781111,1000,1000,1000,1000,98328986,1564,1564,1566,1564
61783610,1000,1000,1000,1000,98428946,1563,1563,1563,1563
61786109,1000,1000,1000,1000,98528906,1563,1563,1563,1564
61788608,1000,1000,1000,1000,98628866,1562,1562,1562,1563
61791107,1000,1000,1000,1000,98728826,1561,1561,1561,1562
61793606,1000,1000,1000,1000,98828786,1561,1561,1561,1561
61796105,1000,1000,1000,1000,98928746,1561,1561,1561,1561
61798604,1000,1000,1000,1000,99028706,1560,1560,1561,1559
61801103,1000,1000,1000,1000,99128666,1559,1558,1559,1558
61803602,1000,1000,1000,1000,99228626,1557,1557,1558,1557
61806101,1000,1000,1000,1000,99328586,1556,1556,1556,1556
61808600,1000,1000,1000,1000,99428546,1555,1555,1556,1555
61811099,1000,1000,1000,1000,99528506,1557,1556,1557,1556
61813598,1000,1000,1000,1000,99628466,1556,1557,1557,1555
61816097,1000,1000,1000,1000,99728426,1557,1557,1558,1556
61818596,1000,1000,1000,1000,99828386,1558,1558,1560,1556
61821095,1000,1000,1000,1000,99928346,1560,1559,1560,1559
61823594,1000,1000,1000,1000,100028306,1561,1560,1559,1562
61826093,1000,1000,1000,1000,100128266,1561,1561,1558,1564
61828592,1000,1000,1000,1000,100228226,1561,1562,1559,1565
61831091,1000,1000,1000,1000,100328186,1563,1563,1560,1565
61833590,1000,1000,1000,1000,100428979,1563,1564,1562,1565
61836089,1000,1000,1000,1000,100528939,1563,1563,1563,1562
61838588,1000,1000,1000,1000,100628899,1561,1561,1563,1559
61841087,1000,1000,1000,1000,100728859,1561,1560,1562,1559
61843586,1000,1000,1000,1000,100828819,1560,1559,1558,1561
61846085,1000,1000,1000,1000,100928779,1557,1557,1554,1559
61848584,1000,1000,1000,1000,101028739,1552,1552,1550,1554
61851083,1000,1000,1000,1000,101128699,1547,1548,1547,1548
61853582,1000,1000,1000,1000,101228659,1540,1540,1540,1540
61856081,1000,1000,1000,1000,101328619,1533,1534,1534,1533
61858580,1000,1000,1000,1000,101428579,1526,1526,1527,1525
61861079,1000,1000,1000,1000,101528539,1520,1520,1521,1520
61863578,1000,1000,1000,1000,101628499,1519,1518,1519,1518
61866077,1000,1000,1000,1000,101728459,1519,1519,1520,1520
61868576,1000,1000,1000,1000,101828419,1521,1521,1521,1522
61871075,1000,1000,1000,1000,101928379,1524,1524,1524,1525
61873574,1000,1000,1000,1000,102028339,1528,1528,1528,1529
61876073,1000,1000,1000,1000,102128299,1534,1533,1533,1534
61878572,1000,1000,1000,1000,102228259,1539,1539,1539,1539
61881071,1000,1000,1000,1000,102328219,1541,1541,1541,1541
61883570,1000,1000,1000,1000,102428179,1542,1543,1543,1542
61886069,1000,1000,1000,1000,102528972,1544,1544,1544,1544
61888568,1000,1000,1000,1000,102628932,1545,1545,1545,1545
61891067,1000,1000,1000,1000,102728892,1547,1547,1547,1546
61893566,1000,1000,1000,1000,102828852,1547,1546,1547,1546
61896065,1000,1000,1000,1000,102928812,1546,1546,1546,1546
61898564,1000,1000,1000,1000,103028772,1546,1546,1546,1546
61901063,1000,1000,1000,1000,103128732,1546,1546,1546,1546
61903562,1000,1000,1000,1000,103228692,1546,1546,1545,1545
61906061,1000,1000,1000,1000,103328652,1546,1546,1546,1546
61908560,1000,1000,1000,1000,103428612,1546,1546,1546,1546
61911059,1000,1000,1000,1000,103528572,1546,1545,1546,1545
61913558,1000,1000,1000,1000,103628532,1545,1545,1545,1544
61916057,1000,1000,1000,1000,103728492,1545,1544,1545,1545
61918556,1000,1000,1000,1000,103828452,1545,1545,1545,1545
61921055,1000,1000,1000,1000,103928412,1544,1545,1544,1545
61923554,1000,1000,1000,1000,104028372,1544,1544,1545,1544
61926053,1000,1000,1000,1000,104128332,1544,1544,1544,1544
61928552,1000,1000,1000,1000,104228292,1545,1545,1545,1545
61931051,1000,1000,1000,1000,104328252,1544,1544,1544,1544
61933550,1000,1000,1000,1000,104428212,1544,1544,1544,1544
61936049,1000,1000,1000,1000,104528172,1544,1544,1544,1544
61938548,1000,1000,1000,1000,104628965,1544,1545,1544,1544
61941047,1000,1000,1000,1000,104728925,1544,1544,1544,1544
61943546,1000,1000,1000,1000,104828885,1545,1545,1545,1545
61946045,1000,1000,1000,1000,104928845,1544,1544,1544,1544
61948544,1000,1000,1000,1000,105028805,1544,1544,1544,1544
61951043,1000,1000,1000,1000,105128765,1545,1544,1544,1545
61953542,1000,1000,1000,1000,105228725,1544,1544,1544,1544
61956041,1000,1000,1000,1000,105328685,1545,1544,1544,1545
61958540,1000,1000,1000,1000,105428645,1544,1544,1544,1544
61961039,1000,1000,1000,1000,105528605,1544,1544,1544,1544
61963538,1000,1000,1000,1000,105628565,1543,1544,1544,1544
61966037,1000,1000,1000,1000,105728525,1544,1545,1544,1545
61968536,1000,1000,1000,1000,105828485,1543,1544,1544,1544
61971035,1000,1000,1000,1000,105928445,1544,1544,1544,1544
61973534,1000,1000,1000,1000,106028405,1544,1544,1545,1544
61976033,1000,1000,1000,1000,106128365,1545,1544,1545,1545
61978532,1000,1000,1000,1000,106228325,1544,1544,1544,1544
61981031,1000,1000,1000,1000,106328285,1544,1543,1543,1543
61983530,1000,1000,1000,1000,106428245,1544,1544,1544,1544
61986029,1000,1000,1000,1000,106528205,1544,1544,1544,1544
61988528,1000,1000,1000,1000,106628165,1544,1544,1544,1544
61991027,1000,1000,1000,1000,106728958,1544,1544,1544,1544
61993526,1000,1000,1000,1000,106828918,1545,1545,1545,1545
61996025,1000,1000,1000,1000,106928878,1544,1544,1544,1544
61998524,1000,1000,1000,1000,107028838,1545,1545,1545,1545
62001023,1000,1000,1000,1000,107128798,1545,1544,1544,1545
62003522,1000,1000,1000,1000,107228758,1544,1544,1544,1544
62006021,1000,1000,1000,1000,107328718,1544,1544,1545,1544
62008520,1000,1000,1000,1000,107428678,1544,1545,1545,1544
62011019,1000,1000,1000,1000,107528638,1543,1544,1543,1544
62013518,1000,1000,1000,1000,107628598,1544,1544,1544,1543
62016017,1000,1000,1000,1000,107728558,1544,1544,1544,1544
62018516,1000,1000,1000,1000,107828518,1544,1544,1544,1544
62021015,1000,1000,1000,1000,107928478,1544,1544,1544,1544
62023514,1000,1000,1000,1000,108028438,1545,1544,1544,1544
62026013,1000,1000,1000,1000,108128398,1545,1544,1544,1544
62028512,1000,1000,1000,1000,108228358,1544,1545,1545,1544
62031011,1000,1000,1000,1000,108328318,1544,1544,1544,1544
62033510,1000,1000,1000,1000,108428278,1544,1545,1545,1544
62036009,1000,1000,1000,1000,108528238,1544,1544,1544,1544
62038508,1000,1000,1000,1000,108628198,1545,1544,1544,1544
62041007,1000,1000,1000,1000,108728158,1545,1544,1544,1544
62043506,1000,1000,1000,1000,108828951,1544,1544,1545,1544
62046005,1000,1000,1000,1000,108928911,1544,1544,1544,1545
62048504,1000,1000,1000,1000,109028871,1543,1545,1543,1545
62051003,1000,1000,1000,1000,109128831,1544,1544,1544,1544
62053502,1000,1000,1000,1000,109228791,1544,1544,1544,1544
62056001,1000,1000,1000,1000,109328751,1544,1544,1544,1544
62058500,1000,1000,1000,1000,109428711,1544,1544,1544,1543
62060999,1000,1000,1000,1000,109528671,1545,1545,1545,1545
62063498,1000,1000,1000,1000,109628631,1545,1545,1545,1545
62065997,1000,1000,1000,1000,109728591,1545,1544,1544,1545
62068496,1000,1000,1000,1000,109828551,1545,1545,1545,1545
62070995,1000,1000,1000,1000,109928511,1544,1544,1544,1544
62073494,1000,1000,1000,1000,110028471,1544,1544,1544,1544
62075993,1000,1000,1000,1000,110128431,1545,1544,1544,1545
62078492,1000,1000,1000,1000,110228391,1544,1544,1544,1544
62080991,1000,1000,1000,1000,110328351,1544,1544,1544,1544
62083490,1000,1000,1000,1000,110428311,1543,1544,1544,1543
62085989,1000,1000,1000,1000,110528271,1544,1544,1544,1545
62088488,1000,1000,1000,1000,110628231,1543,1543,1543,1543
62090987,1000,1000,1000,1000,110728191,1544,1544,1544,1545
62093486,1000,1000,1000,1000,110828984,1543,1543,1543,1543
62095985,1000,1000,1000,1000,110928944,1544,1544,1544,1544
62098484,1000,1000,1000,1000,111028904,1544,1544,1544,1544
62100983,1000,1000,1000,1000,111128864,1545,1544,1545,1544
62103482,1000,1000,1000,1000,111228824,1535,1534,1534,1535
62105981,1000,1000,1000,1000,111328784,1341,1345,1340,1345
62108480,1000,1000,1000,1000,111428744,1237,1246,1238,1244
62110979,1000,1000,1000,1000,111528704,1206,1215,1207,1215
62113478,1000,1000,1000,1000,111628664,1186,1197,1187,1196
62115977,1000,1000,1000,1000,111728624,1162,1173,1162,1173
62118476,1000,1000,1000,1000,111828584,1162,1174,1163,1173
62120975,1000,1000,1000,1000,111928544,1174,1172,1162,1185
62123474,1000,1000,1000,1000,112028504,1195,1172,1162,1204
62125973,1000,1000,1000,1000,112128464,1184,1172,1162,1194
62128472,1000,1000,1000,1000,112228424,1182,1172,1162,1192
62130971,1000,1000,1000,1000,112328384,1184,1172,1162,1194
62133470,1000,1000,1000,1000,112428344,1185,1172,1162,1195
62135969,1000,1000,1000,1000,112528304,1188,1172,1162,1198
62138468,1000,1000,1000,1000,112628264,1190,1172,1162,1200
62140967,1000,1000,1000,1000,112728224,1162,1172,1163,1173
62143466,1000,1000,1000,1000,112828184,1176,1171,1162,1187
62145965,1000,1000,1000,1000,112928977,1178,1171,1162,1188
62148464,1000,1000,1000,1000,113028937,1178,1171,1162,1189
62150963,1000,1000,1000,1000,113128897,1179,1171,1162,1190
62153462,1000,1000,1000,1000,113228857,1158,1146,1158,1146
62155961,1000,1000,1000,1000,113328817,1000,1000,1000,1000
62158460,1000,1000,1000,1000,113428777,1000,1000,1000,1000
62160959,1000,1000,1000,1000,113528737,1000,1000,1000,1000
62163458,1000,1000,1000,1000,113628697,1000,1000,1000,1000
62165957,1000,1000,1000,1000,113728657,1000,1000,1000,1000
62168456,1000,1000,1000,1000,113828617,1000,1000,1000,1000
62170955,1000,1000,1000,1000,113928577,1000,1000,1000,1000
62173454,1000,1000,1000,1000,114028537,1000,1000,1000,1000
62175953,1000,1000,1000,1000,114128497,1000,1000,1000,1000
62178452,1000,1000,1000,1000,114228457,1000,1000,1000,1000
62180951,1000,1000,1000,1000,114328417,1000,1000,1000,1000
62183450,1000,1000,1000,1000,114428377,1000,1000,1000,1000
62185949,1000,1000,1000,1000,114528337,1000,1000,1000,1000
62188448,1000,1000,1000,1000,114628297,1000,1000,1000,1000
62190947,1000,1000,1000,1000,114728257,1000,1000,1000,1000
62193446,1000,1000,1000,1000,114828217,1000,1000,1000,1000
62195945,1000,1000,1000,1000,114928177,1000,1000,1000,1000
62198444,1000,1000,1000,1000,115028970,1000,1000,1000,1000
62200943,1000,1000,1000,1000,115128930,1000,1000,1000,1000
62203442,1000,1000,1000,1000,115228890,1000,1000,1000,1000
62205941,1000,1000,1000,1000,115328850,1000,1000,1000,1000
62208440,1000,1000,1000,1000,115428810,1000,1000,1000,1000
62210939,1000,1000,1000,1000,115528770,1000,1000,1000,1000
62213438,1000,1000,1000,1000,115628730,1000,1000,1000,1000
62215937,1000,1000,1000,1000,115728690,1000,1000,1000,1000
62218436,1000,1000,1000,1000,115828650,1000,1000,1000,1000
62220935,1000,1000,1000,1000,115928610,1000,1000,1000,1000
62223434,1000,1000,1000,1000,116028570,1000,1000,1000,1000
62225933,1000,1000,1000,1000,116128530,1000,1000,1000,1000
62228432,1000,1000,1000,1000,116228490,1000,1000,1000,1000
62230931,1000,1000,1000,1000,116328450,1000,1000,1000,1000
62233430,1000,1000,1000,1000,116428410,1000,1000,1000,1000
62235929,1000,1000,1000,1000,116528370,1000,1000,1000,1000
62238428,1000,1000,1000,1000,116628330,1000,1000,1000,1000
62240927,1000,1000,1000,1000,116728290,1000,1000,1000,1000
62243426,1000,1000,1000,1000,116828250,1000,1000,1000,1000
62245925,1000,1000,1000,1000,116928210,1000,1000,1000,1000
62248424,1000,1000,1000,1000,117028170,1000,1000,1000,1000
62250923,1000,1000,1000,1000,117128963,1000,1000,1000,1000
62253422,1000,1000,1000,1000,117228923,1000,1000,1000,1000
62255921,1000,1000,1000,1000,117328883,1000,1000,1000,1000
62258420,1000,1000,1000,1000,117428843,1000,1000,1000,1000
62260919,1000,1000,1000,1000,117528803,1000,1000,1000,1000
62263418,1000,1000,1000,1000,117628763,1000,1000,1000,1000
62265917,1000,1000,1000,1000,117728723,1000,1000,1000,1000
62268416,1000,1000,1000,1000,117828683,1000,1000,1000,1000
62270915,1000,1000,1000,1000,117928643,1000,1000,1000,1000
62273414,1000,1000,1000,1000,118028603,1000,1000,1000,1000
62275913,1000,1000,1000,1000,118128563,1000,1000,1000,1000
62278412,1000,1000,1000,1000,118228523,1000,1000,1000,1000
62280911,1000,1000,1000,1000,118328483,1000,1000,1000,1000
62283410,1000,1000,1000,1000,118428443,1000,1000,1000,1000
62285909,1000,1000,1000,1000,118528403,1000,1000,1000,1000
62288408,1000,1000,1000,1000,118628363,1000,1000,1000,1000
62290907,1000,1000,1000,1000,118728323,1000,1000,1000,1000
62293406,1000,1000,1000,1000,118828283,1000,1000,1000,1000
62295905,1000,1000,1000,1000,118928243,1000,1000,1000,1000
62298404,1000,1000,1000,1000,119028203,1000,1000,1000,1000
62300903,1000,1000,1000,1000,119128163,1000,1000,1000,1000
62303402,1000,1000,1000,1000,119228956,1000,1000,1000,1000
62305901,1000,1000,1000,1000,119328916,1000,1000,1000,1000
62308400,1000,1000,1000,1000,119428876,1000,1000,1000,1000
62310899,1000,1000,1000,1000,119528836,1000,1000,1000,1000
62313398,1000,1000,1000,1000,119628796,1000,1000,1000,1000
62315897,1000,1000,1000,1000,119728756,1000,1000,1000,1000
62318396,1000,1000,1000,1000,119828716,1000,1000,1000,1000
62320895,1000,1000,1000,1000,119928676,1000,1000,1000,1000
62323394,1000,1000,1000,1000,120028636,1000,1000,1000,1000
62325893,1000,1000,1000,1000,120128596,1000,1000,1000,1000
62328392,1000,1000,1000,1000,120228556,1000,1000,1000,1000
62330891,1000,1000,1000,1000,120328516,1000,1000,1000,1000
62333390,1000,1000,1000,1000,120428476,1000,1000,1000,1000
62335889,1000,1000,1000,1000,120528436,1000,1000,1000,1000
62338388,1000,1000,1000,1000,120628396,1000,1000,1000,1000
62340887,1000,1000,1000,1000,120728356,1000,1000,1000,1000
62343386,1000,1000,1000,1000,120828316,1000,1000,1000,1000
62345885,1000,1000,1000,1000,120928276,1000,1000,1000,1000
62348384,1000,1000,1000,1000,121028236,1000,1000,1000,1000
62350883,1000,1000,1000,1000,121128196,1000,1000,1000,1000
62353382,1000,1000,1000,1000,121228156,1000,1000,1000,1000
62355881,1000,1000,1000,1000,121328949,1000,1000,1000,1000
62358380,1000,1000,1000,1000,121428909,1000,1000,1000,1000
62360879,1000,1000,1000,1000,121528869,1000,1000,1000,1000
62363378,1000,1000,1000,1000,121628829,1000,1000,1000,1000
62365877,1000,1000,1000,1000,121728789,1000,1000,1000,1000
62368376,1000,1000,1000,1000,121828749,1000,1000,1000,1000
62370875,1000,1000,1000,1000,121928709,1000,1000,1000,1000
62373374,1000,1000,1000,1000,122028669,1000,1000,1000,1000
62375873,1000,1000,1000,1000,122128629,1000,1000,1000,1000
62378372,1000,1000,1000,1000,122228589,1000,1000,1000,1000
62380871,1000,1000,1000,1000,122328549,1000,1000,1000,1000
62383370,1000,1000,1000,1000,122428509,1000,1000,1000,1000
62385869,1000,1000,1000,1000,122528469,1000,1000,1000,1000
62388368,1000,1000,1000,1000,122628429,1000,1000,1000,1000
62390867,1000,1000,1000,1000,122728389,1000,1000,1000,1000
62393366,1000,1000,1000,1000,122828349,1000,1000,1000,1000
62395865,1000,1000,1000,1000,122928309,1000,1000,1000,1000
62398364,1000,1000,1000,1000,123028269,1000,1000,1000,1000
62400863,1000,1000,1000,1000,123128229,1000,1000,1000,1000
62403362,1000,1000,1000,1000,123228189,1000,1000,1000,1000
62405861,1000,1000,1000,1000,123328982,1000,1000,1000,1000
62408360,1000,1000,1000,1000,123428942,1000,1000,1000,1000
62410859,1000,1000,1000,1000,123528902,1000,1000,1000,1000
62413358,1000,1000,1000,1000,123628862,1000,1000,1000,1000
62415857,1000,1000,1000,1000,123728822,1000,1000,1000,1000
62418356,1000,1000,1000,1000,123828782,1000,1000,1000,1000
62420855,1000,1000,1000,1000,123928742,1000,1000,1000,1000
62423354,1000,1000,1000,1000,124028702,1000,1000,1000,1000
62425853,1000,1000,1000,1000,124128662,1000,1000,1000,1000
62428352,1000,1000,1000,1000,124228622,1000,1000,1000,1000
62430851,1000,1000,1000,1000,124328582,1000,1000,1000,1000
62433350,1000,1000,1000,1000,124428542,1000,1000,1000,1000
62435849,1000,1000,1000,1000,124528502,1000,1000,1000,1000
62438348,1000,1000,1000,1000,124628462,1000,1000,1000,1000
62440847,1000,1000,1000,1000,124728422,1000,1000,1000,1000
62443346,1000,1000,1000,1000,124828382,1000,1000,1000,1000
62445845,1000,1000,1000,1000,124928342,1000,1000,1000,1000
62448344,1000,1000,1000,1000,125028302,1000,1000,1000,1000
62450843,1000,1000,1000,1000,125128262,1000,1000,1000,1000
62453342,1000,1000,1000,1000,125228222,1000,1000,1000,1000
62455841,1000,1000,1000,1000,125328182,1000,1000,1000,1000
62458340,1000,1000,1000,1000,125428975,1000,1000,1000,1000
62460839,1000,1000,1000,1000,125528935,1000,1000,1000,1000
62463338,1000,1000,1000,1000,125628895,1000,1000,1000,1000
62465837,1000,1000,1000,1000,125728855,1000,1000,1000,1000
62468336,1000,1000,1000,1000,125828815,1000,1000,1000,1000
62470835,1000,1000,1000,1000,125928775,1000,1000,1000,1000
62473334,1000,1000,1000,1000,126028735,1000,1000,1000,1000
62475833,1000,1000,1000,1000,126128695,1000,1000,1000,1000
62478332,1000,1000,1000,1000,126228655,1000,1000,1000,1000
62480831,1000,1000,1000,1000,126328615,1000,1000,1000,1000
62483330,1000,1000,1000,1000,126428575,1000,1000,1000,1000
62485829,1000,1000,1000,1000,126528535,1000,1000,1000,1000
62488328,1000,1000,1000,1000,126628495,1000,1000,1000,1000
62490827,1000,1000,1000,1000,126728455,1000,1000,1000,1000
62493326,1000,1000,1000,1000,126828415,1000,1000,1000,1000
62495825,1000,1000,1000,1000,126928375,1000,1000,1000,1000
62498324,1000,1000,1000,1000,127028335,1000,1000,1000,1000
62500823,1000,1000,1000,1000,127128295,1000,1000,1000,1000
62503322,1000,1000,1000,1000,127228255,1000,1000,1000,1000
62505821,1000,1000,1000,1000,127328215,1000,1000,1000,1000
62508320,1000,1000,1000,1000,127428175,1000,1000,1000,1000
62510819,1000,1000,1000,1000,127528968,1000,1000,1000,1000
62513318,1000,1000,1000,1000,127628928,1000,1000,1000,1000
62515817,1000,1000,1000,1000,127728888,1000,1000,1000,1000
62518316,1000,1000,1000,1000,127828848,1000,1000,1000,1000
62520815,1000,1000,1000,1000,127928808,1000,1000,1000,1000
62523314,1000,1000,1000,1000,128028768,1000,1000,1000,1000
62525813,1000,1000,1000,1000,128128728,1000,1000,1000,1000
62528312,1000,1000,1000,1000,,,,,
62530811,1000,1000,1000,1000,,,,,
62533310,1000,1000,1000,1000,,,,,
62535809,1000,1000,1000,1000,,,,,
62538308,1000,1000,1000,1000,,,,,
62540807,1000,1000,1000,1000,,,,,
62543306,1000,1000,1000,1000,,,,,
62545805,1000,1000,1000,1000,,,,,
62548304,1000,1000,1000,1000,,,,,
62550803,1000,1000,1000,1000,,,,,
62553302,1000,1000,1000,1000,,,,,
62555801,1000,1000,1000,1000,,,,,
62558300,1000,1000,1000,1000,,,,,
62560799,1000,1000,1000,1000,,,,,
62563298,1000,1000,1000,1000,,,,,
62565797,1000,1000,1000,1000,,,,,
62568296,1000,1000,1000,1000,,,,,
62570795,1000,1000,1000,1000,,,,,
62573294,1000,1000,1000,1000,,,,,
62575793,1000,1000,1000,1000,,,,,
62578292,1000,1000,1000,1000,,,,,
62580791,1000,1000,1000,1000,,,,,
62583290,1000,1000,1000,1000,,,,,
62585789,1000,1000,1000,1000,,,,,
62588288,1000,1000,1000,1000,,,,,
62590787,1000,1000,1000,1000,,,,,
62593286,1000,1000,1000,1000,,,,,
62595785,1000,1000,1000,1000,,,,,
62598284,1000,1000,1000,1000,,,,,
62600783,1000,1000,1000,1000,,,,,
62603282,1000,1000,1000,1000,,,,,
62605781,1000,1000,1000,1000,,,,,
62608280,1000,1000,1000,1000,,,,,
62610779,1000,1000,1000,1000,,,,,
62613278,1000,1000,1000,1000,,,,,
62615777,1000,1000,1000,1000,,,,,
62618276,1000,1000,1000,1000,,,,,
62620775,1000,1000,1000,1000,,,,,
62623274,1000,1000,1000,1000,,,,,
62625773,1000,1000,1000,1000,,,,,
62628272,1000,1000,1000,1000,,,,,
62630771,1000,1000,1000,1000,,,,,
62633270,1000,1000,1000,1000,,,,,
62635769,1000,1000,1000,1000,,,,,
62638268,1000,1000,1000,1000,,,,,
62640767,1000,1000,1000,1000,,,,,
62643266,1000,1000,1000,1000,,,,,
62645765,1000,1000,1000,1000,,,,,
62648264,1000,1000,1000,1000,,,,,
62650763,1000,1000,1000,1000,,,,,
62653262,1000,1000,1000,1000,,,,,
62655761,1000,1000,1000,1000,,,,,
62658260,1000,1000,1000,1000,,,,,
62660759,1000,1000,1000,1000,,,,,
62663258,1000,1000,1000,1000,,,,,
62665757,1000,1000,1000,1000,,,,,
62668256,1000,1000,1000,1000,,,,,
62670755,1000,1000,1000,1000,,,,,
62673254,1000,1000,1000,1000,,,,,
62675753,1000,1000,1000,1000,,,,,
62678252,1000,1000,1000,1000,,,,,
62680751,1000,1000,1000,1000,,,,,
62683250,1000,1000,1000,1000,,,,,
62685749,1000,1000,1000,1000,,,,,
62688248,1000,1000,1000,1000,,,,,
62690747,1000,1000,1000,1000,,,,,
62693246,1000,1000,1000,1000,,,,,
62695745,1000,1000,1000,1000,,,,,
62698244,1000,1000,1000,1000,,,,,
62700743,1000,1000,1000,1000,,,,,
62703242,1000,1000,1000,1000,,,,,
62705741,1000,1000,1000,1000,,,,,
62708240,1000,1000,1000,1000,,,,,
62710739,1000,1000,1000,1000,,,,,
62713238,1000,1000,1000,1000,,,,,
62715737,1000,1000,1000,1000,,,,,
62718236,1000,1000,1000,1000,,,,,
62720735,1000,1000,1000,1000,,,,,
62723234,1000,1000,1000,1000,,,,,
62725733,1000,1000,1000,1000,,,,,
62728232,1000,1000,1000,1000,,,,,
62730731,1000,1000,1000,1000,,,,,
62733230,1000,1000,1000,1000,,,,,
62735729,1000,1000,1000,1000,,,,,
62738228,1000,1000,1000,1000,,,,,
62740727,1000,1000,1000,1000,,,,,
62743226,1000,1000,1000,1000,,,,,
62745725,1000,1000,1000,1000,,,,,
62748224,1000,1000,1000,1000,,,,,
62750723,1000,1000,1000,1000,,,,,
62753222,1000,1000,1000,1000,,,,,
62755721,1000,1000,1000,1000,,,,,
62758220,1000,1000,1000,1000,,,,,
62760719,1000,1000,1000,1000,,,,,
62763218,1000,1000,1000,1000,,,,,
62765717,1000,1000,1000,1000,,,,,
62768216,1000,1000,1000,1000,,,,,
62770715,1000,1000,1000,1000,,,,,
62773214,1000,1000,1000,1000,,,,,
62775713,1000,1000,1000,1000,,,,,
62778212,1000,1000,1000,1000,,,,,
62780711,1000,1000,1000,1000,,,,,
62783210,1000,1000,1000,1000,,,,,
62785709,1000,1000,1000,1000,,,,,
62788208,1000,1000,1000,1000,,,,,
62790707,1000,1000,1000,1000,,,,,
62793206,1000,1000,1000,1000,,,,,
62795705,1000,1000,1000,1000,,,,,
62798204,1000,1000,1000,1000,,,,,
62800703,1000,1000,1000,1000,,,,,
62803202,1000,1000,1000,1000,,,,,
62805701,1000,1000,1000,1000,,,,,
62808200,1000,1000,1000,1000,,,,,
62810699,1000,1000,1000,1000,,,,,
62813198,1000,1000,1000,1000,,,,,
62815697,1000,1000,1000,1000,,,,,
62818196,1000,1000,1000,1000,,,,,
62820695,1000,1000,1000,1000,,,,,
62823194,1000,1000,1000,1000,,,,,
62825693,1000,1000,1000,1000,,,,,
62828192,1000,1000,1000,1000,,,,,
62830691,1000,1000,1000,1000,,,,,
62833190,1000,1000,1000,1000,,,,,
62835689,1000,1000,1000,1000,,,,,
62838188,1000,1000,1000,1000,,,,,
62840687,1000,1000,1000,1000,,,,,
62843186,1000,1000,1000,1000,,,,,
62845685,1000,1000,1000,1000,,,,,
62848184,1000,1000,1000,1000,,,,,
62850683,1000,1000,1000,1000,,,,,
62853182,1001,1001,1001,1001,,,,,
62855681,1002,1002,1002,1002,,,,,
62858180,1003,1003,1003,1003,,,,,
62860679,1003,1003,1003,1003,,,,,
62863178,1004,1004,1004,1004,,,,,
62865677,1005,1005,1005,1005,,,,,
62868176,1006,1006,1006,1006,,,,,
62870675,1006,1006,1006,1006,,,,,
62873174,1007,1007,1007,1007,,,,,
62875673,1008,1008,1008,1008,,,,,
62878172,1009,1009,1009,1009,,,,,
62880671,1009,1009,1009,1009,,,,,
62883170,1010,1010,1010,1010,,,,,
62885669,1011,1011,1011,1011,,,,,
62888168,1012,1012,1012,1012,,,,,
62890667,1012,1012,1012,1012,,,,,
62893166,1013,1013,1013,1013,,,,,
62895665,1014,1014,1014,1014,,,,,
62898164,1015,1015,1015,1015,,,,,
62900663,1015,1015,1015,1015,,,,,
62903162,1016,1016,1016,1016,,,,,
62905661,1017,1017,1017,1017,,,,,
62908160,1018,1018,1018,1018,,,,,
62910659,1018,1018,1018,1018,,,,,
62913158,1019,1019,1019,1019,,,,,
62915657,1020,1020,1020,1020,,,,,
62918156,1021,1021,1021,1021,,,,,
62920655,1021,1021,1021,1021,,,,,
62923154,1022,1022,1022,1022,,,,,
62926486,1023,1023,1023,1023,,,,,
62928985,1024,1024,1024,1024,,,,,
62931484,1024,1024,1024,1024,,,,,
62933983,1025,1025,1025,1025,,,,,
62936482,1026,1026,1026,1026,,,,,
62938981,1027,1027,1027,1027,,,,,
62941480,1027,1027,1027,1027,,,,,
62943979,1028,1028,1028,1028,,,,,
62946478,1029,1029,1029,1029,,,,,
62948977,1030,1030,1030,1030,,,,,
62951476,1030,1030,1030,1030,,,,,
62953975,1031,1031,1031,1031,,,,,
62956474,1032,1032,1032,1032,,,,,
62958973,1033,1033,1033,1033,,,,,
62961472,1033,1033,1033,1033,,,,,
62963971,1034,1034,1034,1034,,,,,
62966470,1035,1035,1035,1035,,,,,
62968969,1036,1036,1036,1036,,,,,
62971468,1036,1036,1036,1036,,,,,
62973967,1037,1037,1037,1037,,,,,
62976466,1038,1038,1038,1038,,,,,
62978965,1039,1039,1039,1039,,,,,
62981464,1039,1039,1039,1039,,,,,
62983963,1040,1040,1040,1040,,,,,
62986462,1041,1041,1041,1041,,,,,
62988961,1042,1042,1042,1042,,,,,
62991460,1042,1042,1042,1042,,,,,
62993959,1043,1043,1043,1043,,,,,
62996458,1044,1044,1044,1044,,,,,
62998957,1045,1045,1045,1045,,,,,
63001456,1045,1045,1045,1045,,,,,
63003955,1046,1046,1046,1046,,,,,
63006454,1047,1047,1047,1047,,,,,
63008953,1048,1048,1048,1048,,,,,
63011452,1048,1048,1048,1048,,,,,
63013951,1049,1049,1049,1049,,,,,
63016450,1050,1050,1050,1050,,,,,
63018949,1051,1051,1051,1051,,,,,
63021448,1051,1051,1051,1051,,,,,
63023947,1052,1052,1052,1052,,,,,
63026446,1053,1053,1053,1053,,,,,
63028945,1054,1054,1054,1054,,,,,
63031444,1054,1054,1054,1054,,,,,
63033943,1055,1055,1055,1055,,,,,
63036442,1056,1056,1056,1056,,,,,
63038941,1057,1057,1057,1057,,,,,
63041440,1057,1057,1057,1057,,,,,
63043939,1058,1058,1058,1058,,,,,
63046438,1059,1059,1059,1059,,,,,
63048937,1060,1060,1060,1060,,,,,
63051436,1060,1060,1060,1060,,,,,
63053935,1061,1061,1061,1061,,,,,
63056434,1062,1062,1062,1062,,,,,
63058933,1063,1063,1063,1063,,,,,
63061432,1063,1063,1063,1063,,,,,
63063931,1064,1064,1064,1064,,,,,
63066430,1065,1065,1065,1065,,,,,
63068929,1066,1066,1066,1066,,,,,
63071428,1066,1066,1066,1066,,,,,
63073927,1067,1067,1067,1067,,,,,
63076426,1068,1068,1068,1068,,,,,
63078925,1069,1069,1069,1069,,,,,
63081424,1069,1069,1069,1069,,,,,
63083923,1070,1070,1070,1070,,,,,
63086422,1071,1071,1071,1071,,,,,
63088921,1072,1072,1072,1072,,,,,
63091420,1072,1072,1072,1072,,,,,
63093919,1073,1073,1073,1073,,,,,
63096418,1074,1074,1074,1074,,,,,
63098917,1075,1075,1075,1075,,,,,
63101416,1075,1075,1075,1075,,,,,
63103915,1076,1076,1076,1076,,,,,
63106414,1077,1077,1077,1077,,,,,
63108913,1078,1078,1078,1078,,,,,
63111412,1078,1078,1078,1078,,,,,
63113911,1079,1079,1079,1079,,,,,
63116410,1080,1080,1080,1080,,,,,
63118909,1081,1081,1081,1081,,,,,
63121408,1081,1081,1081,1081,,,,,
63123907,1082,1082,1082,1082,,,,,
63126406,1083,1083,1083,1083,,,,,
63128905,1084,1084,1084,1084,,,,,
63131404,1084,1084,1084,1084,,,,,
63133903,1085,1085,1085,1085,,,,,
63136402,1086,1086,1086,1086,,,,,
63138901,1087,1087,1087,1087,,,,,
63141400,1087,1087,1087,1087,,,,,
63143899,1088,1088,1088,1088,,,,,
63146398,1089,1089,1089,1089,,,,,
63148897,1090,1090,1090,1090,,,,,
63151396,1090,1090,1090,1090,,,,,
63153895,1091,1091,1091,1091,,,,,
63156394,1092,1092,1092,1092,,,,,
63158893,1093,1093,1093,1093,,,,,
63161392,1093,1093,1093,1093,,,,,
63163891,1094,1094,1094,1094,,,,,
63166390,1095,1095,1095,1095,,,,,
63168889,1096,1096,1096,1096,,,,,
63171388,1096,1096,1096,1096,,,,,
63173887,1097,1097,1097,1097,,,,,
63176386,1098,1098,1098,1098,,,,,
63178885,1099,1099,1099,1099,,,,,
63181384,1099,1099,1099,1099,,,,,
63183883,1100,1100,1100,1100,,,,,
63186382,1101,1101,1101,1101,,,,,
63188881,1101,1101,1101,1101,,,,,
63191380,1102,1102,1102,1102,,,,,
63193879,1103,1103,1103,1103,,,,,
63196378,1104,1104,1104,1104,,,,,
63198877,1104,1104,1104,1104,,,,,
63201376,1105,1105,1105,1105,,,,,
63203875,1106,1106,1106,1106,,,,,
63206374,1107,1107,1107,1107,,,,,
63208873,1107,1107,1107,1107,,,,,
63211372,1108,1108,1108,1108,,,,,
63213871,1109,1109,1109,1109,,,,,
63216370,1110,1110,1110,1110,,,,,
63218869,1110,1110,1110,1110,,,,,
63221368,1111,1111,1111,1111,,,,,
63223867,1112,1112,1112,1112,,,,,
63226366,1113,1113,1113,1113,,,,,
63228865,1113,1113,1113,1113,,,,,
63231364,1114,1114,1114,1114,,,,,
63233863,1115,1115,1115,1115,,,,,
63236362,1116,1116,1116,1116,,,,,
63238861,1116,1116,1116,1116,,,,,
63241360,1117,1117,1117,1117,,,,,
63243859,1118,1118,1118,1118,,,,,
63246358,1119,1119,1119,1119,,,,,
63248857,1119,1119,1119,1119,,,,,
63251356,1120,1120,1120,1120,,,,,
63253855,1121,1121,1121,1121,,,,,
63256354,1122,1122,1122,1122,,,,,
63258853,1122,1122,1122,1122,,,,,
63261352,1123,1123,1123,1123,,,,,
63263851,1124,1124,1124,1124,,,,,
63266350,1125,1125,1125,1125,,,,,
63268849,1125,1125,1125,1125,,,,,
63271348,1126,1126,1126,1126,,,,,
63273847,1127,1127,1127,1127,,,,,
63276346,1128,1128,1128,1128,,,,,
63278845,1128,1128,1128,1128,,,,,
63281344,1129,1129,1129,1129,,,,,
63283843,1130,1130,1130,1130,,,,,
63286342,1131,1131,1131,1131,,,,,
63288841,1131,1131,1131,1131,,,,,
63291340,1132,1132,1132,1132,,,,,
63293839,1133,1133,1133,1133,,,,,
63296338,1134,1134,1134,1134,,,,,
63298837,1134,1134,1134,1134,,,,,
63301336,1135,1135,1135,1135,,,,,
63303835,1136,1136,1136,1136,,,,,
63306334,1137,1137,1137,1137,,,,,
63308833,1137,1137,1137,1137,,,,,
63311332,1138,1138,1138,1138,,,,,
63313831,1139,1139,1139,1139,,,,,
63316330,1140,1140,1140,1140,,,,,
63318829,1140,1140,1140,1140,,,,,
63321328,1141,1141,1141,1141,,,,,
63323827,1142,1142,1142,1142,,,,,
63326326,1143,1143,1143,1143,,,,,
63328825,1143,1143,1143,1143,,,,,
63331324,1144,1144,1144,1144,,,,,
63333823,1145,1145,1145,1145,,,,,
63336322,1146,1146,1146,1146,,,,,
63338821,1146,1146,1146,1146,,,,,
63341320,1147,1147,1147,1147,,,,,
63343819,1148,1148,1148,1148,,,,,
63346318,1149,1149,1149,1149,,,,,
63348817,1149,1149,1149,1149,,,,,
63351316,1150,1150,1150,1150,,,,,
63353815,1162,1152,1153,1163,,,,,
63356314,1170,1160,1161,1171,,,,,
63358813,1178,1168,1169,1179,,,,,
63361312,1186,1176,1177,1186,,,,,
63363811,1193,1184,1185,1194,,,,,
63366310,1201,1191,1192,1201,,,,,
63368809,1208,1199,1200,1209,,,,,
63371308,1215,1206,1207,1216,,,,,
63373807,1222,1213,1214,1223,,,,,
63376306,1229,1221,1221,1230,,,,,
63378805,1236,1228,1228,1237,,,,,
63381304,1243,1234,1235,1243,,,,,
63383803,1250,1241,1242,1250,,,,,
63386302,1256,1248,1249,1257,,,,,
63388801,1263,1255,1255,1263,,,,,
63391300,1269,1261,1262,1270,,,,,
63393799,1276,1268,1268,1276,,,,,
63396298,1282,1274,1275,1282,,,,,
63398797,1288,1280,1281,1289,,,,,
63401296,1294,1286,1287,1295,,,,,
63403795,1300,1293,1293,1301,,,,,
63406294,1306,1299,1299,1307,,,,,
63408793,1312,1305,1305,1313,,,,,
63411292,1318,1311,1311,1318,,,,,
63413791,1324,1316,1317,1324,,,,,
63416290,1330,1322,1323,1330,,,,,
63418789,1335,1328,1329,1336,,,,,
63421288,1341,1334,1334,1341,,,,,
63423787,1347,1339,1340,1347,,,,,
63426286,1352,1345,1346,1353,,,,,
63428785,1358,1350,1351,1358,,,,,
63431284,1363,1356,1357,1363,,,,,
63433783,1368,1361,1362,1369,,,,,
63436282,1374,1367,1367,1374,,,,,
63438781,1379,1372,1373,1379,,,,,
63441280,1384,1377,1378,1385,,,,,
63443779,1390,1383,1383,1390,,,,,
63446278,1395,1388,1389,1395,,,,,
63448777,1400,1393,1394,1400,,,,,
63451276,1405,1398,1399,1405,,,,,
63453775,1410,1403,1404,1410,,,,,
63456274,1415,1408,1409,1415,,,,,
63458773,1420,1413,1414,1420,,,,,
63461272,1425,1418,1419,1425,,,,,
63463771,1430,1423,1424,1430,,,,,
63466270,1435,1428,1429,1435,,,,,
63468769,1440,1433,1434,1440,,,,,
63471268,1444,1438,1438,1445,,,,,
63473767,1449,1443,1443,1450,,,,,
63476266,1454,1447,1448,1454,,,,,
63478765,1459,1452,1453,1459,,,,,
63481264,1463,1457,1457,1464,,,,,
63483763,1468,1461,1462,1468,,,,,
63486262,1473,1466,1467,1473,,,,,
63488761,1477,1471,1471,1478,,,,,
63491260,1482,1475,1476,1482,,,,,
63493759,1486,1480,1480,1487,,,,,
63496258,1491,1484,1485,1491,,,,,
63498757,1495,1489,1489,1496,,,,,
63501256,1500,1493,1494,1500,,,,,
63503755,1504,1498,1498,1504,,,,,
63506254,1509,1502,1503,1509,,,,,
63508753,1513,1507,1507,1513,,,,,
63511252,1517,1511,1511,1518,,,,,
63513751,1522,1515,1516,1522,,,,,
63516250,1526,1520,1520,1526,,,,,
63518749,1530,1524,1524,1530,,,,,
63521248,1534,1528,1529,1535,,,,,
63523747,1539,1532,1533,1539,,,,,
63526246,1543,1537,1537,1543,,,,,
63528745,1547,1541,1541,1547,,,,,
63531244,1551,1545,1545,1551,,,,,
63533743,1555,1549,1550,1556,,,,,
63536242,1559,1553,1554,1560,,,,,
63538741,1563,1557,1558,1564,,,,,
63541240,1568,1561,1562,1568,,,,,
63543739,1572,1565,1566,1572,,,,,
63546238,1576,1570,1570,1576,,,,,
63548737,1580,1574,1574,1580,,,,,
63551236,1584,1578,1578,1584,,,,,
63553735,1588,1582,1582,1588,,,,,
63556234,1592,1586,1586,1592,,,,,
63558733,1596,1589,1590,1596,,,,,
63561232,1599,1593,1594,1600,,,,,
63563731,1603,1597,1598,1604,,,,,
63566230,1607,1601,1602,1607,,,,,
63568729,1611,1605,1606,1611,,,,,
63571228,1615,1609,1610,1615,,,,,
63573727,1619,1613,1613,1619,,,,,
63576226,1623,1617,1617,1623,,,,,
63578725,1626,1621,1621,1627,,,,,
63581224,1630,1624,1625,1630,,,,,
63583723,1634,1628,1629,1634,,,,,
63586222,1638,1632,1632,1638,,,,,
63588721,1641,1636,1636,1642,,,,,
63591220,1645,1639,1640,1645,,,,,
63593719,1649,1643,1644,1649,,,,,
63596218,1652,1647,1647,1653,,,,,
63598717,1656,1651,1651,1656,,,,,
63601216,1660,1654,1655,1660,,,,,
63603715,1663,1658,1658,1664,,,,,
63606214,1667,1662,1662,1667,,,,,
63608713,1671,1665,1665,1671,,,,,
63611212,1674,1669,1669,1675,,,,,
63613711,1678,1672,1673,1678,,,,,
63616210,1681,1676,1676,1682,,,,,
63618709,1685,1680,1680,1685,,,,,
63621208,1689,1683,1683,1689,,,,,
63623707,1692,1687,1687,1692,,,,,
63626206,1696,1690,1690,1696,,,,,
63628705,1699,1694,1694,1700,,,,,
63631204,1703,1697,1697,1703,,,,,
63633703,1706,1701,1701,1707,,,,,
63636202,1710,1704,1704,1710,,,,,
63638701,1713,1708,1708,1713,,,,,
63641200,1716,1711,1711,1717,,,,,
63643699,1720,1714,1715,1720,,,,,
63646198,1723,1718,1718,1724,,,,,
63648697,1727,1721,1722,1727,,,,,
63651196,1730,1725,1725,1731,,,,,
63653695,1733,1728,1728,1734,,,,,
63656194,1737,1732,1732,1737,,,,,
63658693,1740,1735,1735,1741,,,,,
63661192,1744,1738,1739,1744,,,,,
63663691,1747,1742,1742,1747,,,,,
63666190,1750,1745,1745,1751,,,,,
63668689,1754,1748,1749,1754,,,,,
63671188,1757,1752,1752,1757,,,,,
63673687,1760,1755,1755,1761,,,,,
63676186,1763,1758,1758,1764,,,,,
63678685,1767,1761,1762,1767,,,,,
63681184,1770,1765,1765,1770,,,,,
63683683,1773,1768,1768,1774,,,,,
63686182,1777,1771,1771,1777,,,,,
63688681,1780,1774,1775,1780,,,,,
63691180,1783,1777,1778,1783,,,,,
63693679,1786,1781,1781,1787,,,,,
63696178,1790,1784,1784,1790,,,,,
63698677,1793,1787,1788,1793,,,,,
63701176,1796,1790,1791,1796,,,,,
63703675,1799,1793,1794,1799,,,,,
63706174,1802,1797,1797,1802,,,,,
63708673,1805,1800,1800,1806,,,,,
63711172,1809,1803,1803,1809,,,,,
63713671,1812,1806,1807,1812,,,,,
63716170,1815,1809,1810,1815,,,,,
63718669,1818,1812,1813,1818,,,,,
63721168,1821,1815,1816,1821,,,,,
63723667,1824,1818,1819,1824,,,,,
63726166,1827,1822,1822,1827,,,,,
63728665,1830,1825,1825,1831,,,,,
63731164,1833,1828,1828,1834,,,,,
63733663,1837,1831,1831,1837,,,,,
63736162,1840,1834,1834,1840,,,,,
63738661,1843,1837,1837,1843,,,,,
63741160,1846,1840,1840,1846,,,,,
63743659,1849,1843,1844,1849,,,,,
63746158,1852,1846,1847,1852,,,,,
63748657,1855,1849,1850,1855,,,,,
63751156,1858,1852,1853,1858,,,,,
63753655,1861,1855,1856,1861,,,,,
63756154,1864,1858,1859,1864,,,,,
63758653,1867,1861,1862,1867,,,,,
63761152,1870,1864,1865,1870,,,,,
63763651,1873,1867,1867,1873,,,,,
63766150,1876,1870,1870,1876,,,,,
63768649,1879,1873,1873,1879,,,,,
63771148,1882,1876,1876,1882,,,,,
63773647,1885,1879,1879,1885,,,,,
63776146,1887,1882,1882,1887,,,,,
63778645,1890,1884,1885,1890,,,,,
63781144,1893,1887,1888,1893,,,,,
63783643,1896,1890,1891,1896,,,,,
63786142,1899,1893,1894,1899,,,,,
63788641,1902,1896,1897,1902,,,,,
63791140,1905,1899,1900,1905,,,,,
63793639,1908,1902,1903,1908,,,,,
63796138,1911,1905,1905,1911,,,,,
63798637,1913,1908,1908,1913,,,,,
63801136,1916,1910,1911,1916,,,,,
63803635,1919,1913,1914,1919,,,,,
63806134,1922,1916,1917,1922,,,,,
63808633,1925,1919,1920,1925,,,,,
63811132,1925,1919,1920,1924,,,,,
63813631,1924,1918,1919,1924,,,,,
63816130,1923,1917,1918,1923,,,,,
63818629,1922,1917,1917,1922,,,,,
63821128,1922,1916,1917,1922,,,,,
63823627,1921,1915,1916,1921,,,,,
63826126,1921,1915,1916,1920,,,,,
63828625,1920,1914,1915,1920,,,,,
63831124,1920,1914,1915,1919,,,,,
63833623,1919,1913,1914,1919,,,,,
63836122,1919,1913,1914,1919,,,,,
63838621,1919,1913,1914,1918,,,,,
63841120,1918,1913,1913,1918,,,,,
63843619,1918,1912,1913,1918,,,,,
63846118,1918,1912,1913,1918,,,,,
63848617,1917,1912,1913,1917,,,,,
63851116,1917,1912,1913,1917,,,,,
63853615,1917,1912,1913,1916,,,,,
63856114,1916,1912,1912,1916,,,,,
63858613,1915,1911,1912,1915,,,,,
63861112,1915,1911,1911,1915,,,,,
63863611,1914,1910,1911,1914,,,,,
63866110,1913,1909,1910,1913,,,,,
63868609,1912,1908,1909,1912,,,,,
63871108,1910,1907,1908,1911,,,,,
63873607,1909,1906,1906,1909,,,,,
63876106,1908,1904,1905,1908,,,,,
63878605,1906,1903,1903,1906,,,,,
63881104,1904,1901,1902,1904,,,,,
63883603,1902,1899,1900,1902,,,,,
63886102,1900,1897,1898,1900,,,,,
63888601,1898,1895,1896,1898,,,,,
63891100,1896,1893,1893,1896,,,,,
63893599,1893,1890,1891,1894,,,,,
63896098,1891,1888,1888,1891,,,,,
63898597,1888,1885,1886,1888,,,,,
63901096,1886,1883,1883,1886,,,,,
63903595,1883,1880,1881,1883,,,,,
63906094,1880,1877,1878,1880,,,,,
63908593,1877,1875,1875,1877,,,,,
63911092,1874,1872,1872,1875,,,,,
63913591,1871,1869,1869,1872,,,,,
63916090,1868,1866,1866,1869,,,,,
63918589,1865,1863,1863,1866,,,,,
63921088,1862,1860,1860,1862,,,,,
63923587,1859,1857,1857,1859,,,,,
63926086,1856,1853,1854,1856,,,,,
63928585,1853,1850,1851,1853,,,,,
63931084,1850,1847,1847,1850,,,,,
63933583,1846,1844,1844,1847,,,,,
63936082,1843,1841,1841,1843,,,,,
63938581,1840,1838,1838,1840,,,,,
63941080,1836,1834,1835,1837,,,,,
63943579,1833,1831,1831,1833,,,,,
63946078,1830,1828,1828,1830,,,,,
63948577,1826,1824,1825,1827,,,,,
63951076,1823,1821,1821,1823,,,,,
63953575,1820,1818,1818,1820,,,,,
63956074,1816,1814,1815,1816,,,,,
63958573,1813,1811,1811,1813,,,,,
63961072,1809,1808,1808,1810,,,,,
63963571,1806,1804,1805,1806,,,,,
63966070,1803,1801,1801,1803,,,,,
63968569,1799,1798,1798,1799,,,,,
63971068,1796,1794,1795,1796,,,,,
63973567,1792,1791,1791,1793,,,,,
63976066,1789,1788,1788,1789,,,,,
63978565,1786,1784,1785,1786,,,,,
63981064,1782,1781,1781,1783,,,,,
63983563,1779,1778,1778,1779,,,,,
63986062,1776,1775,1775,1776,,,,,
63988561,1772,1771,1772,1773,,,,,
63991060,1769,1768,1768,1769,,,,,
63993559,1766,1765,1765,1766,,,,,
63996058,1762,1762,1762,1763,,,,,
63998557,1759,1759,1759,1760,,,,,
64001056,1756,1755,1756,1756,,,,,
64003555,1753,1752,1753,1753,,,,,
64006054,1750,1749,1750,1750,,,,,
64008553,1747,1746,1747,1747,,,,,
64011052,1744,1743,1744,1744,,,,,
64013551,1741,1740,1741,1741,,,,,
64016050,1738,1737,1738,1738,,,,,
64018549,1735,1734,1735,1735,,,,,
64021048,1732,1732,1732,1732,,,,,
64023547,1729,1729,1729,1729,,,,,
64026046,1726,1726,1726,1726,,,,,
64028545,1723,1723,1724,1724,,,,,
64031044,1721,1721,1721,1721,,,,,
64033543,1718,1718,1718,1718,,,,,
64036042,1715,1716,1716,1716,,,,,
64038541,1713,1713,1713,1713,,,,,
64041040,1710,1711,1711,1711,,,,,
64043539,1708,1708,1708,1708,,,,,
