TimeUS,M1,M2,M3,M4,TimeUS,C1,C2,C3,C4
55880972,1000,1000,1000,1000,55928453,1000,1000,1000,1000
55883471,1000,1000,1000,1000,56028413,1000,1000,1000,1000
55885970,1000,1000,1000,1000,56128373,1000,1000,1000,1000
55888469,1000,1000,1000,1000,56228333,1000,1000,1000,1000
55890968,1000,1000,1000,1000,56328293,1000,1000,1000,1000
55893467,1000,1000,1000,1000,56428253,1000,1000,1000,1000
55895966,1000,1000,1000,1000,56528213,1000,1000,1000,1000
55898465,1000,1000,1000,1000,56628173,1000,1000,1000,1000
55900964,1000,1000,1000,1000,56728966,1000,1000,1000,1000
55903463,1000,1000,1000,1000,56828926,1000,1000,1000,1000
55905962,1000,1000,1000,1000,56928886,1000,1000,1000,1000
55908461,1000,1000,1000,1000,57028846,1000,1000,1000,1000
55910960,1000,1000,1000,1000,57128806,1000,1000,1000,1000
55913459,1000,1000,1000,1000,57228766,1000,1000,1000,1000
55915958,1000,1000,1000,1000,57328726,1000,1000,1000,1000
55918457,1000,1000,1000,1000,57428686,1000,1000,1000,1000
55920956,1000,1000,1000,1000,57528646,1000,1000,1000,1000
55923455,1000,1000,1000,1000,57628606,1000,1000,1000,1000
55925954,1000,1000,1000,1000,57728566,1000,1000,1000,1000
55928453,1000,1000,1000,1000,57828526,1000,1000,1000,1000
55930952,1000,1000,1000,1000,57928486,1014,1014,1014,1014
55933451,1000,1000,1000,1000,58028446,1044,1044,1044,1044
55935950,1000,1000,1000,1000,58128406,1074,1074,1074,1074
55938449,1000,1000,1000,1000,58228366,1104,1104,1104,1104
55940948,1000,1000,1000,1000,58328326,1134,1134,1134,1134
55943447,1000,1000,1000,1000,58428286,1282,1274,1275,1282
55945946,1000,1000,1000,1000,58528246,1491,1485,1485,1491
55948445,1000,1000,1000,1000,58628206,1652,1647,1648,1652
55950944,1000,1000,1000,1000,58728166,1789,1784,1785,1789
55953443,1000,1000,1000,1000,58828959,1910,1905,1905,1911
55955942,1000,1000,1000,1000,58928919,1887,1885,1885,1888
55958441,1000,1000,1000,1000,59028879,1757,1756,1755,1758
55960940,1000,1000,1000,1000,59128839,1657,1658,1654,1661
55963439,1000,1000,1000,1000,59228799,1625,1627,1625,1628
55965938,1000,1000,1000,1000,59328759,1627,1629,1628,1628
55968437,1000,1000,1000,1000,59428719,1632,1633,1634,1631
55970936,1000,1000,1000,1000,59528679,1631,1631,1633,1629
55973435,1000,1000,1000,1000,59628639,1625,1624,1626,1623
55975934,1000,1000,1000,1000,59728599,1620,1619,1619,1618
55978433,1000,1000,1000,1000,59828559,1617,1616,1616,1616
55980932,1000,1000,1000,1000,59928519,1615,1614,1615,1614
55983431,1000,1000,1000,1000,60028479,1617,1616,1617,1616
55985930,1000,1000,1000,1000,60128439,1590,1591,1596,1585
55988429,1000,1000,1000,1000,60228399,1575,1576,1582,1569
55990928,1000,1000,1000,1000,60328359,1564,1564,1567,1562
55993427,1000,1000,1000,1000,60428319,1554,1555,1553,1556
55995926,1000,1000,1000,1000,60528279,1547,1547,1541,1553
55998425,1000,1000,1000,1000,60628239,1541,1541,1532,1550
56000924,1000,1000,1000,1000,60728199,1536,1535,1528,1542
56003423,1000,1000,1000,1000,60828159,1530,1529,1526,1533
56005922,1000,1000,1000,1000,60928952,1526,1525,1525,1526
56008421,1000,1000,1000,1000,61028912,1527,1527,1528,1525
56010920,1000,1000,1000,1000,61128872,1529,1529,1531,1526
56013419,1000,1000,1000,1000,61228832,1532,1532,1535,1529
56015918,1000,1000,1000,1000,61328792,1535,1535,1538,1533
56018417,1000,1000,1000,1000,61428752,1539,1539,1542,1538
56020916,1000,1000,1000,1000,61528712,1543,1543,1544,1542
56023415,1000,1000,1000,1000,61628672,1546,1546,1546,1547
56025914,1000,1000,1000,1000,61728632,1549,1549,1549,1550
56028413,1000,1000,1000,1000,61828592,1552,1552,1551,1552
56030912,1000,1000,1000,1000,61928552,1554,1554,1552,1555
56033411,1000,1000,1000,1000,62028512,1553,1553,1559,1561
56035910,1000,1000,1000,1000,62128472,1552,1553,1562,1564
56038409,1000,1000,1000,1000,62228432,1556,1556,1565,1565
56040908,1000,1000,1000,1000,62328392,1558,1559,1564,1565
56043407,1000,1000,1000,1000,62428352,1562,1563,1565,1565
56045906,1000,1000,1000,1000,62528312,1566,1565,1564,1564
56048405,1000,1000,1000,1000,62628272,1569,1569,1565,1565
56050904,1000,1000,1000,1000,62728232,1570,1570,1565,1565
56053403,1000,1000,1000,1000,62828192,1572,1572,1566,1566
56055902,1000,1000,1000,1000,62928985,1572,1572,1566,1566
56058401,1000,1000,1000,1000,63028945,1574,1574,1568,1568
56060900,1000,1000,1000,1000,63128905,1574,1574,1570,1570
56063399,1000,1000,1000,1000,63228865,1574,1573,1570,1570
56065898,1000,1000,1000,1000,63328825,1574,1573,1572,1572
56068397,1000,1000,1000,1000,63428785,1573,1573,1573,1572
56070896,1000,1000,1000,1000,63528745,1574,1574,1576,1574
56073395,1000,1000,1000,1000,63628705,1574,1575,1577,1575
56075894,1000,1000,1000,1000,63728665,1574,1574,1576,1575
56078393,1000,1000,1000,1000,63828625,1575,1574,1577,1576
56080892,1000,1000,1000,1000,63928585,1574,1574,1576,1577
56083391,1000,1000,1000,1000,64028545,1575,1575,1577,1577
56085890,1000,1000,1000,1000,64128505,1575,1575,1576,1577
56088389,1000,1000,1000,1000,64228465,1576,1576,1577,1577
56090888,1000,1000,1000,1000,64328425,1576,1576,1576,1576
56093387,1000,1000,1000,1000,64428385,1577,1577,1577,1577
56095886,1000,1000,1000,1000,64528345,1577,1577,1576,1577
56098385,1000,1000,1000,1000,64628305,1578,1578,1577,1577
56100884,1000,1000,1000,1000,64728265,1578,1577,1577,1577
56103383,1000,1000,1000,1000,64828225,1578,1578,1577,1577
56105882,1000,1000,1000,1000,64928185,1578,1578,1577,1578
56108381,1000,1000,1000,1000,65028978,1578,1578,1577,1577
56110880,1000,1000,1000,1000,65128938,1578,1579,1578,1578
56113379,1000,1000,1000,1000,65228898,1579,1579,1579,1578
56115878,1000,1000,1000,1000,65328858,1580,1579,1579,1580
56118377,1000,1000,1000,1000,65428818,1578,1578,1579,1579
56120876,1000,1000,1000,1000,65528778,1580,1580,1580,1580
56123375,1000,1000,1000,1000,65628738,1579,1579,1580,1580
56125874,1000,1000,1000,1000,65728698,1579,1579,1580,1579
56128373,1000,1000,1000,1000,65828658,1579,1579,1579,1579
56130872,1000,1000,1000,1000,65928618,1578,1579,1579,1579
56133371,1000,1000,1000,1000,66028578,1579,1579,1579,1579
56135870,1000,1000,1000,1000,66128538,1580,1579,1579,1580
56138369,1000,1000,1000,1000,66228498,1579,1579,1579,1579
56140868,1000,1000,1000,1000,66328458,1579,1578,1579,1579
56143367,1000,1000,1000,1000,66428418,1579,1578,1579,1578
56145866,1000,1000,1000,1000,66528378,1579,1580,1579,1580
56148365,1000,1000,1000,1000,66628338,1579,1579,1579,1579
56150864,1000,1000,1000,1000,66728298,1579,1580,1579,1579
56153363,1000,1000,1000,1000,66828258,1580,1579,1580,1579
56155862,1000,1000,1000,1000,66928218,1579,1579,1579,1579
56158361,1000,1000,1000,1000,67028178,1580,1580,1580,1580
56160860,1000,1000,1000,1000,67128971,1581,1580,1580,1581
56163359,1000,1000,1000,1000,67228931,1580,1581,1581,1580
56165858,1000,1000,1000,1000,67328891,1580,1580,1580,1580
56168357,1000,1000,1000,1000,67428851,1580,1581,1581,1581
56170856,1000,1000,1000,1000,67528811,1580,1580,1581,1580
56173355,1000,1000,1000,1000,67628771,1580,1580,1580,1580
56175854,1000,1000,1000,1000,67728731,1581,1580,1580,1581
56178353,1000,1000,1000,1000,67828691,1581,1581,1581,1581
56180852,1000,1000,1000,1000,67928651,1581,1581,1581,1582
56183351,1000,1000,1000,1000,68028611,1581,1581,1581,1581
56185850,1000,1000,1000,1000,68128571,1581,1581,1581,1581
56188349,1000,1000,1000,1000,68228531,1581,1581,1586,1576
56190848,1000,1000,1000,1000,68328491,1580,1581,1586,1572
56193347,1000,1000,1000,1000,68428451,1580,1583,1581,1575
56195846,1000,1000,1000,1000,68528411,1577,1580,1571,1572
56198345,1000,1000,1000,1000,68628371,1576,1579,1563,1569
56200844,1000,1000,1000,1000,68728331,1578,1578,1558,1565
56203343,1000,1000,1000,1000,68828291,1578,1578,1556,1560
56205842,1000,1000,1000,1000,68928251,1579,1578,1556,1557
56208341,1000,1000,1000,1000,69028211,1579,1577,1556,1554
56210840,1000,1000,1000,1000,69128171,1578,1577,1556,1553
56213339,1000,1000,1000,1000,69228964,1577,1577,1556,1553
56215838,1000,1000,1000,1000,69328924,1576,1577,1555,1554
56218337,1000,1000,1000,1000,69428884,1574,1575,1554,1553
56220836,1000,1000,1000,1000,69528844,1575,1577,1554,1554
56223335,1000,1000,1000,1000,69628804,1574,1576,1552,1552
56225834,1000,1000,1000,1000,69728764,1575,1577,1550,1551
56228333,1000,1000,1000,1000,69828724,1577,1578,1548,1548
56230832,1000,1000,1000,1000,69928684,1580,1581,1546,1546
56233331,1000,1000,1000,1000,70028644,1583,1584,1544,1543
56235830,1000,1000,1000,1000,70128604,1586,1586,1541,1540
56238329,1000,1000,1000,1000,70228564,1589,1589,1538,1537
56240828,1000,1000,1000,1000,70328524,1592,1593,1536,1536
56243327,1000,1000,1000,1000,70428484,1593,1593,1533,1534
56245826,1000,1000,1000,1000,70528444,1594,1594,1533,1534
56248325,1000,1000,1000,1000,70628404,1595,1594,1535,1536
56250824,1000,1000,1000,1000,70728364,1593,1593,1537,1540
56253323,1000,1000,1000,1000,70828324,1590,1589,1542,1545
56255822,1000,1000,1000,1000,70928284,1585,1583,1550,1552
56258321,1000,1000,1000,1000,71028244,1578,1575,1560,1562
56260820,1000,1000,1000,1000,71128204,1568,1564,1570,1572
56263319,1000,1000,1000,1000,71228164,1557,1553,1583,1584
56265818,1000,1000,1000,1000,71328957,1546,1543,1594,1594
56268317,1000,1000,1000,1000,71428917,1537,1536,1605,1604
56270816,1000,1000,1000,1000,71528877,1530,1530,1611,1610
56273315,1000,1000,1000,1000,71628837,1528,1529,1614,1613
56275814,1000,1000,1000,1000,71728797,1530,1532,1614,1613
56278313,1000,1000,1000,1000,71828757,1535,1538,1612,1611
56280812,1000,1000,1000,1000,71928717,1542,1543,1605,1605
56283311,1000,1000,1000,1000,72028677,1551,1551,1599,1599
56285810,1000,1000,1000,1000,72128637,1559,1559,1591,1591
56288309,1000,1000,1000,1000,72228597,1567,1567,1584,1583
56290808,1000,1000,1000,1000,72328557,1575,1575,1578,1577
56293307,1000,1000,1000,1000,72428517,1580,1580,1572,1571
56295806,1000,1000,1000,1000,72528477,1584,1583,1568,1567
56298305,1000,1000,1000,1000,72628437,1587,1585,1566,1566
56300804,1000,1000,1000,1000,72728397,1588,1586,1566,1566
56303303,1000,1000,1000,1000,72828357,1586,1585,1567,1567
56305802,1000,1000,1000,1000,72928317,1585,1585,1571,1570
56308301,1000,1000,1000,1000,73028277,1582,1582,1573,1573
56310800,1000,1000,1000,1000,73128237,1579,1579,1575,1575
56313299,1000,1000,1000,1000,73228197,1577,1577,1578,1579
56315798,1000,1000,1000,1000,73328157,1575,1575,1580,1581
56318297,1000,1000,1000,1000,73428950,1573,1574,1583,1582
56320796,1000,1000,1000,1000,73528910,1572,1573,1583,1583
56323295,1000,1000,1000,1000,73628870,1540,1564,1548,1577
56325794,1000,1000,1000,1000,73728830,1580,1561,1589,1572
56328293,1000,1000,1000,1000,73828790,1617,1578,1626,1586
56330792,1000,1000,1000,1000,73928750,1638,1597,1645,1603
56333291,1000,1000,1000,1000,74028710,1640,1610,1644,1612
56335790,1000,1000,1000,1000,74128670,1624,1613,1626,1612
56338289,1000,1000,1000,1000,74228630,1604,1612,1604,1609
56340788,1000,1000,1000,1000,74328590,1584,1604,1586,1605
56343287,1000,1000,1000,1000,74428550,1573,1593,1578,1601
56345786,1000,1000,1000,1000,74528510,1569,1584,1578,1596
56348285,1000,1000,1000,1000,74628470,1570,1577,1580,1589
56350784,1000,1000,1000,1000,74728430,1573,1574,1582,1583
56353283,1000,1000,1000,1000,74828390,1578,1574,1582,1577
56355782,1000,1000,1000,1000,74928350,1581,1577,1581,1575
56358281,1000,1000,1000,1000,75028310,1583,1580,1579,1573
56360780,1000,1000,1000,1000,75128270,1583,1582,1575,1573
56363279,1000,1000,1000,1000,75228230,1582,1582,1572,1571
56365778,1000,1000,1000,1000,75328190,1582,1583,1570,1572
56368277,1000,1000,1000,1000,75428983,1579,1581,1568,1571
56370776,1000,1000,1000,1000,75528943,1579,1580,1568,1571
56373275,1000,1000,1000,1000,75628903,1578,1579,1570,1571
56375774,1000,1000,1000,1000,75728863,1578,1578,1571,1572
56378273,1000,1000,1000,1000,75828823,1577,1577,1572,1572
56380772,1000,1000,1000,1000,75928783,1576,1575,1573,1572
56383271,1000,1000,1000,1000,76028743,1576,1575,1575,1574
56385770,1000,1000,1000,1000,76128703,1575,1575,1575,1575
56388269,1000,1000,1000,1000,76228663,1575,1575,1578,1575
56390768,1000,1000,1000,1000,76328623,1576,1577,1585,1569
56393267,1000,1000,1000,1000,76428583,1575,1578,1580,1569
56395766,1000,1000,1000,1000,76528543,1574,1577,1572,1571
56398265,1000,1000,1000,1000,76628503,1572,1576,1564,1569
56400764,1000,1000,1000,1000,76728463,1573,1574,1558,1565
56403263,1000,1000,1000,1000,76828423,1574,1574,1555,1561
56405762,1000,1000,1000,1000,76928383,1575,1574,1553,1557
56408261,1000,1000,1000,1000,77028343,1576,1575,1553,1554
56410760,1000,1000,1000,1000,77128303,1577,1576,1554,1551
56413259,1000,1000,1000,1000,77228263,1577,1577,1553,1550
56415758,1000,1000,1000,1000,77328223,1577,1577,1553,1551
56418257,1000,1000,1000,1000,77428183,1576,1577,1552,1550
56420756,1000,1000,1000,1000,77528976,1576,1577,1551,1551
56423255,1000,1000,1000,1000,77628936,1576,1577,1550,1550
56425754,1000,1000,1000,1000,77728896,1577,1578,1549,1550
56428253,1000,1000,1000,1000,77828856,1579,1580,1548,1549
56430752,1000,1000,1000,1000,77928816,1580,1581,1547,1547
56433251,1000,1000,1000,1000,78028776,1582,1583,1546,1545
56435750,1000,1000,1000,1000,78128736,1583,1583,1543,1543
56438249,1000,1000,1000,1000,78228696,1585,1586,1541,1541
56440748,1000,1000,1000,1000,78328656,1587,1587,1540,1540
56443247,1000,1000,1000,1000,78428616,1588,1588,1539,1540
56445746,1000,1000,1000,1000,78528576,1589,1587,1540,1542
56448245,1000,1000,1000,1000,78628536,1588,1587,1543,1545
56450744,1000,1000,1000,1000,78728496,1586,1586,1546,1548
56453243,1000,1000,1000,1000,78828456,1583,1583,1550,1552
56455742,1000,1000,1000,1000,78928416,1579,1578,1555,1557
56458241,1000,1000,1000,1000,79028376,1573,1571,1561,1563
56460740,1000,1000,1000,1000,79128336,1568,1564,1570,1572
56463239,1000,1000,1000,1000,79228296,1560,1557,1578,1580
56465738,1000,1000,1000,1000,79328256,1552,1550,1587,1587
56468237,1000,1000,1000,1000,79428216,1546,1546,1595,1594
56470736,1000,1000,1000,1000,79528176,1542,1542,1600,1599
56473235,1000,1000,1000,1000,79628969,1540,1541,1604,1602
56475734,1000,1000,1000,1000,79728929,1539,1541,1604,1603
56478233,1000,1000,1000,1000,79828889,1542,1544,1603,1602
56480732,1000,1000,1000,1000,79928849,1547,1549,1600,1600
56483231,1000,1000,1000,1000,80028809,1552,1553,1596,1595
56485730,1000,1000,1000,1000,80128769,1559,1559,1591,1591
56488229,1000,1000,1000,1000,80228729,1564,1564,1585,1585
56490728,1000,1000,1000,1000,80328689,1571,1570,1582,1581
56493227,1000,1000,1000,1000,80428649,1576,1575,1577,1576
56495726,1000,1000,1000,1000,80528609,1579,1578,1574,1573
56498225,1000,1000,1000,1000,80628569,1583,1582,1572,1573
56500724,1000,1000,1000,1000,80728529,1584,1583,1571,1571
56503223,1000,1000,1000,1000,80828489,1584,1583,1570,1571
56505722,1000,1000,1000,1000,80928449,1583,1582,1571,1571
56508221,1000,1000,1000,1000,81028409,1583,1582,1573,1573
56510720,1000,1000,1000,1000,81128369,1581,1581,1575,1575
56513219,1000,1000,1000,1000,81228329,1579,1579,1577,1576
56515718,1000,1000,1000,1000,81328289,1577,1578,1579,1578
56518217,1000,1000,1000,1000,81428249,1575,1576,1580,1580
56520716,1000,1000,1000,1000,81528209,1575,1576,1582,1582
56523215,1000,1000,1000,1000,81628169,1574,1574,1582,1582
56525714,1000,1000,1000,1000,81728962,1574,1574,1582,1582
56528213,1000,1000,1000,1000,81828922,1575,1575,1582,1582
56530712,1000,1000,1000,1000,81928882,1575,1576,1582,1582
56533211,1000,1000,1000,1000,82028842,1577,1577,1582,1582
56535710,1000,1000,1000,1000,82128802,1578,1578,1581,1581
56538209,1000,1000,1000,1000,82228762,1579,1579,1580,1580
56540708,1000,1000,1000,1000,82328722,1580,1579,1579,1580
56543207,1000,1000,1000,1000,82428682,1581,1580,1579,1579
56545706,1000,1000,1000,1000,82528642,1581,1581,1579,1578
56548205,1000,1000,1000,1000,82628602,1581,1582,1579,1579
56550704,1000,1000,1000,1000,82728562,1581,1582,1578,1579
56553203,1000,1000,1000,1000,82828522,1581,1581,1578,1578
56555702,1000,1000,1000,1000,82928482,1581,1581,1578,1579
56558201,1000,1000,1000,1000,83028442,1582,1581,1579,1580
56560700,1000,1000,1000,1000,83128402,1581,1582,1580,1580
56563199,1000,1000,1000,1000,83228362,1581,1581,1580,1579
56565698,1000,1000,1000,1000,83328322,1579,1580,1580,1579
56568197,1000,1000,1000,1000,83428282,1580,1580,1581,1581
56570696,1000,1000,1000,1000,83528242,1580,1580,1581,1581
56573195,1000,1000,1000,1000,83628202,1580,1580,1581,1581
56575694,1000,1000,1000,1000,83728162,1580,1580,1581,1581
56578193,1000,1000,1000,1000,83828955,1580,1579,1581,1581
56580692,1000,1000,1000,1000,83928915,1580,1580,1581,1581
56583191,1000,1000,1000,1000,84028875,1580,1581,1581,1581
56585690,1000,1000,1000,1000,84128835,1581,1581,1581,1582
56588189,1000,1000,1000,1000,84228795,1581,1581,1581,1581
56590688,1000,1000,1000,1000,84328755,1582,1582,1581,1582
56593187,1000,1000,1000,1000,84428715,1582,1582,1582,1581
56595686,1000,1000,1000,1000,84528675,1582,1582,1582,1581
56598185,1000,1000,1000,1000,84628635,1582,1582,1582,1581
56600684,1000,1000,1000,1000,84728595,1582,1583,1584,1578
56603183,1000,1000,1000,1000,84828555,1581,1583,1587,1572
56605682,1000,1000,1000,1000,84928515,1580,1582,1581,1573
56608181,1000,1000,1000,1000,85028475,1578,1581,1572,1573
56610680,1000,1000,1000,1000,85128435,1577,1580,1565,1571
56613179,1000,1000,1000,1000,85228395,1576,1578,1559,1566
56615678,1000,1000,1000,1000,85328355,1578,1578,1556,1562
56618177,1000,1000,1000,1000,85428315,1580,1579,1556,1558
56620676,1000,1000,1000,1000,85528275,1580,1579,1555,1556
56623175,1000,1000,1000,1000,85628235,1580,1579,1556,1554
56625674,1000,1000,1000,1000,85728195,1579,1578,1556,1553
56628173,1000,1000,1000,1000,85828155,1578,1579,1556,1554
56630672,1000,1000,1000,1000,85928948,1577,1578,1555,1554
56633171,1000,1000,1000,1000,86028908,1576,1577,1554,1554
56635670,1000,1000,1000,1000,86128868,1575,1577,1553,1553
56638169,1000,1000,1000,1000,86228828,1576,1578,1552,1552
56640668,1000,1000,1000,1000,86328788,1577,1578,1550,1550
56643167,1000,1000,1000,1000,86428748,1579,1580,1549,1548
56645666,1000,1000,1000,1000,86528708,1582,1583,1547,1547
56648165,1000,1000,1000,1000,86628668,1584,1585,1544,1544
56650664,1000,1000,1000,1000,86728628,1586,1586,1541,1541
56653163,1000,1000,1000,1000,86828588,1589,1589,1540,1540
56655662,1000,1000,1000,1000,86928548,1591,1591,1539,1540
56658161,1000,1000,1000,1000,87028508,1592,1592,1537,1538
56660660,1000,1000,1000,1000,87128468,1593,1593,1537,1539
56663159,1000,1000,1000,1000,87228428,1592,1592,1539,1541
56665658,1000,1000,1000,1000,87328388,1591,1589,1543,1545
56668157,1000,1000,1000,1000,87428348,1586,1584,1548,1551
56670656,1000,1000,1000,1000,87528308,1580,1576,1557,1560
56673155,1000,1000,1000,1000,87628268,1572,1569,1567,1570
56675654,1000,1000,1000,1000,87728228,1562,1558,1579,1580
56678986,1000,1000,1000,1000,87828188,1552,1550,1590,1590
56681485,1000,1000,1000,1000,87928981,1544,1542,1600,1599
56683984,1000,1000,1000,1000,88028941,1537,1538,1608,1606
56686483,1000,1000,1000,1000,88128901,1534,1536,1612,1610
56688982,1000,1000,1000,1000,88228861,1534,1537,1613,1612
56691481,1000,1000,1000,1000,88328821,1538,1540,1612,1610
56693980,1000,1000,1000,1000,88428781,1543,1545,1607,1607
56696479,1000,1000,1000,1000,88528741,1550,1552,1602,1602
56698978,1000,1000,1000,1000,88628701,1557,1557,1595,1594
56701477,1000,1000,1000,1000,88728661,1564,1564,1588,1587
56703976,1000,1000,1000,1000,88828621,1571,1571,1581,1581
56706475,1000,1000,1000,1000,88928581,1577,1576,1575,1575
56708974,1000,1000,1000,1000,89028541,1581,1580,1570,1571
56711473,1000,1000,1000,1000,89128501,1585,1583,1567,1568
56713972,1000,1000,1000,1000,89228461,1586,1584,1566,1567
56716471,1000,1000,1000,1000,89328421,1586,1585,1567,1567
56718970,1000,1000,1000,1000,89428381,1585,1584,1568,1568
56721469,1000,1000,1000,1000,89528341,1583,1582,1570,1570
56723968,1000,1000,1000,1000,89628301,1581,1581,1573,1573
56726467,1000,1000,1000,1000,89728261,1579,1579,1576,1576
56728966,1000,1000,1000,1000,89828221,1576,1578,1579,1579
56731465,1000,1000,1000,1000,89928181,1575,1576,1582,1581
56733964,1000,1000,1000,1000,90028974,1574,1575,1584,1583
56736463,1000,1000,1000,1000,90128934,1573,1574,1584,1583
56738962,1000,1000,1000,1000,90228894,1573,1574,1584,1584
56741461,1000,1000,1000,1000,90328854,1573,1574,1583,1583
56743960,1000,1000,1000,1000,90428814,1574,1575,1582,1583
56746459,1000,1000,1000,1000,90528774,1575,1575,1581,1581
56748958,1000,1000,1000,1000,90628734,1577,1576,1580,1580
56751457,1000,1000,1000,1000,90728694,1578,1578,1580,1579
56753956,1000,1000,1000,1000,90828654,1579,1579,1579,1578
56756455,1000,1000,1000,1000,90928614,1580,1580,1577,1577
56758954,1000,1000,1000,1000,91028574,1581,1581,1577,1577
56761453,1000,1000,1000,1000,91128534,1582,1582,1578,1578
56763952,1000,1000,1000,1000,91228494,1582,1582,1578,1578
56766451,1000,1000,1000,1000,91328454,1581,1581,1577,1578
56768950,1000,1000,1000,1000,91428414,1582,1582,1579,1579
56771449,1000,1000,1000,1000,91528374,1581,1581,1579,1579
56773948,1000,1000,1000,1000,91628334,1581,1581,1580,1580
56776447,1000,1000,1000,1000,91728294,1580,1581,1580,1580
56778946,1000,1000,1000,1000,91828254,1580,1581,1581,1581
56781445,1000,1000,1000,1000,91928214,1579,1580,1581,1581
56783944,1000,1000,1000,1000,92028174,1580,1579,1581,1581
56786443,1000,1000,1000,1000,92128967,1579,1580,1581,1581
56788942,1000,1000,1000,1000,92228927,1579,1579,1581,1581
56791441,1000,1000,1000,1000,92328887,1580,1581,1581,1582
56793940,1000,1000,1000,1000,92428847,1580,1581,1582,1581
56796439,1000,1000,1000,1000,92528807,1581,1581,1582,1581
56798938,1000,1000,1000,1000,92628767,1582,1581,1582,1582
56801437,1000,1000,1000,1000,92728727,1581,1581,1586,1574
56803936,1000,1000,1000,1000,92828687,1581,1581,1586,1573
56806435,1000,1000,1000,1000,92928647,1579,1579,1580,1575
56808934,1000,1000,1000,1000,93028607,1575,1575,1573,1575
56811433,1000,1000,1000,1000,93128567,1572,1571,1567,1574
56813932,1000,1000,1000,1000,93228527,1570,1570,1566,1573
56816431,1000,1000,1000,1000,93328487,1569,1568,1565,1571
56818930,1000,1000,1000,1000,93428447,1567,1567,1566,1567
56821429,1000,1000,1000,1000,93528407,1566,1566,1567,1565
56823928,1000,1000,1000,1000,93628367,1566,1567,1568,1565
56826427,1000,1000,1000,1000,93728327,1565,1565,1567,1564
56828926,1000,1000,1000,1000,93828287,1564,1564,1566,1564
56831425,1000,1000,1000,1000,93928247,1563,1563,1564,1564
56833924,1000,1000,1000,1000,94028207,1563,1563,1564,1564
56836423,1000,1000,1000,1000,94128167,1563,1563,1564,1563
56838922,1000,1000,1000,1000,94228960,1562,1562,1562,1562
56841421,1000,1000,1000,1000,94328920,1561,1561,1561,1561
56843920,1000,1000,1000,1000,94428880,1560,1560,1560,1561
56846419,1000,1000,1000,1000,94528840,1560,1560,1560,1560
56848918,1000,1000,1000,1000,94628800,1559,1559,1559,1558
56851417,1000,1000,1000,1000,94728760,1558,1557,1558,1557
56853916,1000,1000,1000,1000,94828720,1558,1558,1558,1557
56856415,1000,1000,1000,1000,94928680,1558,1558,1558,1557
56858914,1000,1000,1000,1000,95028640,1557,1558,1558,1556
56861413,1000,1000,1000,1000,95128600,1557,1557,1558,1557
56863912,1000,1000,1000,1000,95228560,1557,1557,1558,1556
56866411,1000,1000,1000,1000,95328520,1558,1558,1559,1557
56868910,1000,1000,1000,1000,95428480,1558,1558,1560,1556
56871409,1000,1000,1000,1000,95528440,1558,1558,1558,1558
56873908,1000,1000,1000,1000,95628400,1559,1560,1558,1562
56876407,1000,1000,1000,1000,95728360,1561,1561,1558,1565
56878906,1000,1000,1000,1000,95828320,1561,1561,1558,1564
56881405,1000,1000,1000,1000,95928280,1562,1563,1560,1565
56883904,1000,1000,1000,1000,96028240,1563,1563,1562,1563
56886403,1000,1000,1000,1000,96128200,1562,1561,1563,1560
56888902,1000,1000,1000,1000,96228160,1560,1560,1560,1560
56891401,1000,1000,1000,1000,96328953,1557,1557,1556,1558
56893900,1000,1000,1000,1000,96428913,1553,1553,1552,1554
56896399,1000,1000,1000,1000,96528873,1548,1548,1548,1548
56898898,1000,1000,1000,1000,96628833,1542,1542,1542,1542
56901397,1000,1000,1000,1000,96728793,1535,1535,1535,1535
56903896,1000,1000,1000,1000,96828753,1527,1528,1528,1528
56906395,1000,1000,1000,1000,96928713,1521,1521,1521,1521
56908894,1000,1000,1000,1000,97028673,1519,1520,1519,1520
56911393,1000,1000,1000,1000,97128633,1519,1519,1519,1520
56913892,1000,1000,1000,1000,97228593,1521,1521,1521,1522
56916391,1000,1000,1000,1000,97328553,1524,1524,1524,1524
56918890,1000,1000,1000,1000,97428513,1528,1528,1528,1528
56921389,1000,1000,1000,1000,97528473,1532,1532,1533,1532
56923888,1000,1000,1000,1000,97628433,1537,1536,1537,1536
56926387,1000,1000,1000,1000,97728393,1540,1540,1540,1540
56928886,1000,1000,1000,1000,97828353,1542,1541,1542,1541
56931385,1000,1000,1000,1000,97928313,1544,1543,1544,1543
56933884,1000,1000,1000,1000,98028273,1545,1545,1545,1544
56936383,1000,1000,1000,1000,98128233,1546,1545,1546,1545
56938882,1000,1000,1000,1000,98228193,1546,1546,1546,1546
56941381,1000,1000,1000,1000,98328986,1547,1546,1547,1547
56943880,1000,1000,1000,1000,98428946,1547,1547,1547,1547
56946379,1000,1000,1000,1000,98528906,1546,1546,1546,1547
56948878,1000,1000,1000,1000,98628866,1547,1547,1547,1546
56951377,1000,1000,1000,1000,98728826,1546,1547,1546,1547
56953876,1000,1000,1000,1000,98828786,1547,1547,1547,1547
56956375,1000,1000,1000,1000,98928746,1546,1546,1546,1546
56958874,1000,1000,1000,1000,99028706,1546,1546,1546,1546
56961373,1000,1000,1000,1000,99128666,1546,1546,1546,1546
56963872,1000,1000,1000,1000,99228626,1545,1545,1545,1545
56966371,1000,1000,1000,1000,99328586,1544,1544,1544,1544
56968870,1000,1000,1000,1000,99428546,1543,1543,1543,1543
56971369,1000,1000,1000,1000,99528506,1544,1544,1544,1544
56973868,1000,1000,1000,1000,99628466,1544,1544,1544,1544
56976367,1000,1000,1000,1000,99728426,1543,1544,1543,1544
56978866,1000,1000,1000,1000,99828386,1543,1544,1543,1543
56981365,1000,1000,1000,1000,99928346,1543,1543,1543,1543
56983864,1000,1000,1000,1000,100028306,1543,1543,1543,1543
56986363,1000,1000,1000,1000,100128266,1544,1543,1544,1544
56988862,1000,1000,1000,1000,100228226,1543,1543,1543,1543
56991361,1000,1000,1000,1000,100328186,1544,1544,1544,1544
56993860,1000,1000,1000,1000,100428979,1544,1544,1544,1543
56996359,1000,1000,1000,1000,100528939,1544,1544,1544,1543
56998858,1000,1000,1000,1000,100628899,1544,1545,1544,1544
57001357,1000,1000,1000,1000,100728859,1543,1543,1543,1543
57003856,1000,1000,1000,1000,100828819,1544,1544,1544,1544
57006355,1000,1000,1000,1000,100928779,1544,1543,1543,1544
57008854,1000,1000,1000,1000,101028739,1543,1543,1543,1543
57011353,1000,1000,1000,1000,101128699,1544,1544,1544,1544
57013852,1000,1000,1000,1000,101228659,1543,1544,1544,1543
57016351,1000,1000,1000,1000,101328619,1543,1543,1544,1544
57018850,1000,1000,1000,1000,101428579,1544,1544,1544,1544
57021349,1000,1000,1000,1000,101528539,1544,1543,1543,1544
57023848,1000,1000,1000,1000,101628499,1544,1544,1544,1544
57026347,1000,1000,1000,1000,101728459,1543,1543,1543,1543
57028846,1000,1000,1000,1000,101828419,1543,1544,1544,1543
57031345,1000,1000,1000,1000,101928379,1543,1543,1543,1543
57033844,1000,1000,1000,1000,102028339,1543,1544,1544,1543
57036343,1000,1000,1000,1000,102128299,1544,1543,1544,1544
57038842,1000,1000,1000,1000,102228259,1544,1544,1544,1543
57041341,1000,1000,1000,1000,102328219,1544,1544,1544,1544
57043840,1000,1000,1000,1000,102428179,1544,1544,1544,1544
57046339,1000,1000,1000,1000,102528972,1544,1544,1544,1544
57048838,1000,1000,1000,1000,102628932,1544,1544,1544,1544
57051337,1000,1000,1000,1000,102728892,1545,1544,1544,1544
57053836,1000,1000,1000,1000,102828852,1545,1545,1545,1545
57056335,1000,1000,1000,1000,102928812,1544,1544,1544,1544
57058834,1000,1000,1000,1000,103028772,1544,1544,1544,1544
57061333,1000,1000,1000,1000,103128732,1544,1543,1543,1543
57063832,1000,1000,1000,1000,103228692,1543,1543,1543,1543
57066331,1000,1000,1000,1000,103328652,1544,1543,1543,1544
57068830,1000,1000,1000,1000,103428612,1543,1543,1543,1544
57071329,1000,1000,1000,1000,103528572,1543,1544,1543,1544
57073828,1000,1000,1000,1000,103628532,1543,1544,1544,1543
57076327,1000,1000,1000,1000,103728492,1544,1543,1544,1544
57078826,1000,1000,1000,1000,103828452,1544,1545,1545,1545
57081325,1000,1000,1000,1000,103928412,1543,1543,1544,1543
57083824,1000,1000,1000,1000,104028372,1545,1545,1545,1545
57086323,1000,1000,1000,1000,104128332,1545,1544,1544,1544
57088822,1000,1000,1000,1000,104228292,1545,1545,1545,1544
57091321,1000,1000,1000,1000,104328252,1545,1544,1544,1545
57093820,1000,1000,1000,1000,104428212,1545,1545,1545,1545
57096319,1000,1000,1000,1000,104528172,1545,1545,1545,1545
57098818,1000,1000,1000,1000,104628965,1545,1546,1546,1545
57101317,1000,1000,1000,1000,104728925,1546,1546,1546,1546
57103816,1000,1000,1000,1000,104828885,1545,1546,1545,1546
57106315,1000,1000,1000,1000,104928845,1545,1545,1545,1545
57108814,1000,1000,1000,1000,105028805,1545,1545,1545,1545
57111313,1000,1000,1000,1000,105128765,1545,1545,1545,1546
57113812,1000,1000,1000,1000,105228725,1545,1545,1546,1545
57116311,1000,1000,1000,1000,105328685,1545,1545,1545,1545
57118810,1000,1000,1000,1000,105428645,1545,1544,1544,1544
57121309,1000,1000,1000,1000,105528605,1544,1544,1544,1544
57123808,1000,1000,1000,1000,105628565,1544,1545,1545,1544
57126307,1000,1000,1000,1000,105728525,1545,1545,1545,1545
57128806,1000,1000,1000,1000,105828485,1544,1544,1544,1544
57131305,1000,1000,1000,1000,105928445,1544,1544,1544,1544
57133804,1000,1000,1000,1000,106028405,1543,1544,1544,1543
57136303,1000,1000,1000,1000,106128365,1544,1544,1544,1544
57138802,1000,1000,1000,1000,106228325,1543,1543,1544,1543
57141301,1000,1000,1000,1000,106328285,1544,1543,1543,1544
57143800,1000,1000,1000,1000,106428245,1545,1545,1544,1545
57146299,1000,1000,1000,1000,106528205,1545,1544,1544,1545
57148798,1000,1000,1000,1000,106628165,1528,1526,1529,1525
57151297,1000,1000,1000,1000,106728958,1373,1336,1372,1337
57153796,1000,1000,1000,1000,106828918,1300,1242,1301,1242
57156295,1000,1000,1000,1000,106928878,1280,1213,1280,1214
57158794,1000,1000,1000,1000,107028838,1265,1193,1266,1193
57161293,1000,1000,1000,1000,107128798,1236,1150,1236,1150
57163792,1000,1000,1000,1000,107228758,1197,1150,1198,1150
57166291,1000,1000,1000,1000,107328718,1197,1150,1197,1150
57168790,1000,1000,1000,1000,107428678,1197,1150,1198,1150
57171289,1000,1000,1000,1000,107528638,1197,1150,1180,1174
57173788,1000,1000,1000,1000,107628598,1197,1150,1184,1168
57176287,1000,1000,1000,1000,107728558,1197,1150,1188,1164
57178786,1000,1000,1000,1000,107828518,1197,1150,1188,1163
57181285,1000,1000,1000,1000,107928478,1197,1150,1188,1164
57183784,1000,1000,1000,1000,108028438,1197,1150,1187,1165
57186283,1000,1000,1000,1000,108128398,1197,1150,1186,1166
57188782,1000,1000,1000,1000,108228358,1197,1150,1186,1166
57191281,1000,1000,1000,1000,108328318,1197,1150,1194,1155
57193780,1000,1000,1000,1000,108428278,1197,1150,1193,1157
57196279,1000,1000,1000,1000,108528238,1197,1150,1192,1158
57198778,1000,1000,1000,1000,108628198,1197,1150,1192,1158
57201277,1000,1000,1000,1000,108728158,1197,1150,1192,1158
57203776,1000,1000,1000,1000,108828951,1000,1000,1000,1000
57206275,1000,1000,1000,1000,108928911,1000,1000,1000,1000
57208774,1000,1000,1000,1000,109028871,1000,1000,1000,1000
57211273,1000,1000,1000,1000,109128831,1000,1000,1000,1000
57213772,1000,1000,1000,1000,109228791,1000,1000,1000,1000
57216271,1000,1000,1000,1000,109328751,1000,1000,1000,1000
57218770,1000,1000,1000,1000,109428711,1000,1000,1000,1000
57221269,1000,1000,1000,1000,109528671,1000,1000,1000,1000
57223768,1000,1000,1000,1000,109628631,1000,1000,1000,1000
57226267,1000,1000,1000,1000,109728591,1000,1000,1000,1000
57228766,1000,1000,1000,1000,109828551,1000,1000,1000,1000
57231265,1000,1000,1000,1000,109928511,1000,1000,1000,1000
57233764,1000,1000,1000,1000,110028471,1000,1000,1000,1000
57236263,1000,1000,1000,1000,110128431,1000,1000,1000,1000
57238762,1000,1000,1000,1000,110228391,1000,1000,1000,1000
57241261,1000,1000,1000,1000,110328351,1000,1000,1000,1000
57243760,1000,1000,1000,1000,110428311,1000,1000,1000,1000
57246259,1000,1000,1000,1000,110528271,1000,1000,1000,1000
57248758,1000,1000,1000,1000,110628231,1000,1000,1000,1000
57251257,1000,1000,1000,1000,110728191,1000,1000,1000,1000
57253756,1000,1000,1000,1000,110828984,1000,1000,1000,1000
57256255,1000,1000,1000,1000,110928944,1000,1000,1000,1000
57258754,1000,1000,1000,1000,111028904,1000,1000,1000,1000
57261253,1000,1000,1000,1000,111128864,1000,1000,1000,1000
57263752,1000,1000,1000,1000,111228824,1000,1000,1000,1000
57266251,1000,1000,1000,1000,111328784,1000,1000,1000,1000
57268750,1000,1000,1000,1000,111428744,1000,1000,1000,1000
57271249,1000,1000,1000,1000,111528704,1000,1000,1000,1000
57273748,1000,1000,1000,1000,111628664,1000,1000,1000,1000
57276247,1000,1000,1000,1000,111728624,1000,1000,1000,1000
57278746,1000,1000,1000,1000,111828584,1000,1000,1000,1000
57281245,1000,1000,1000,1000,111928544,1000,1000,1000,1000
57283744,1000,1000,1000,1000,112028504,1000,1000,1000,1000
57286243,1000,1000,1000,1000,112128464,1000,1000,1000,1000
57288742,1000,1000,1000,1000,112228424,1000,1000,1000,1000
57291241,1000,1000,1000,1000,112328384,1000,1000,1000,1000
57293740,1000,1000,1000,1000,112428344,1000,1000,1000,1000
57296239,1000,1000,1000,1000,112528304,1000,1000,1000,1000
57298738,1000,1000,1000,1000,112628264,1000,1000,1000,1000
57301237,1000,1000,1000,1000,112728224,1000,1000,1000,1000
57303736,1000,1000,1000,1000,112828184,1000,1000,1000,1000
57306235,1000,1000,1000,1000,112928977,1000,1000,1000,1000
57308734,1000,1000,1000,1000,113028937,1000,1000,1000,1000
57311233,1000,1000,1000,1000,113128897,1000,1000,1000,1000
57313732,1000,1000,1000,1000,113228857,1000,1000,1000,1000
57316231,1000,1000,1000,1000,113328817,1000,1000,1000,1000
57318730,1000,1000,1000,1000,113428777,1000,1000,1000,1000
57321229,1000,1000,1000,1000,113528737,1000,1000,1000,1000
57323728,1000,1000,1000,1000,113628697,1000,1000,1000,1000
57326227,1000,1000,1000,1000,113728657,1000,1000,1000,1000
57328726,1000,1000,1000,1000,113828617,1000,1000,1000,1000
57331225,1000,1000,1000,1000,113928577,1000,1000,1000,1000
57333724,1000,1000,1000,1000,114028537,1000,1000,1000,1000
57336223,1000,1000,1000,1000,114128497,1000,1000,1000,1000
57338722,1000,1000,1000,1000,114228457,1000,1000,1000,1000
57341221,1000,1000,1000,1000,114328417,1000,1000,1000,1000
57343720,1000,1000,1000,1000,114428377,1000,1000,1000,1000
57346219,1000,1000,1000,1000,114528337,1000,1000,1000,1000
57348718,1000,1000,1000,1000,114628297,1000,1000,1000,1000
57351217,1000,1000,1000,1000,114728257,1000,1000,1000,1000
57353716,1000,1000,1000,1000,114828217,1000,1000,1000,1000
57356215,1000,1000,1000,1000,114928177,1000,1000,1000,1000
57358714,1000,1000,1000,1000,115028970,1000,1000,1000,1000
57361213,1000,1000,1000,1000,115128930,1000,1000,1000,1000
57363712,1000,1000,1000,1000,115228890,1000,1000,1000,1000
57366211,1000,1000,1000,1000,115328850,1000,1000,1000,1000
57368710,1000,1000,1000,1000,115428810,1000,1000,1000,1000
57371209,1000,1000,1000,1000,115528770,1000,1000,1000,1000
57373708,1000,1000,1000,1000,115628730,1000,1000,1000,1000
57376207,1000,1000,1000,1000,115728690,1000,1000,1000,1000
57378706,1000,1000,1000,1000,115828650,1000,1000,1000,1000
57381205,1000,1000,1000,1000,115928610,1000,1000,1000,1000
57383704,1000,1000,1000,1000,116028570,1000,1000,1000,1000
57386203,1000,1000,1000,1000,116128530,1000,1000,1000,1000
57388702,1000,1000,1000,1000,116228490,1000,1000,1000,1000
57391201,1000,1000,1000,1000,116328450,1000,1000,1000,1000
57393700,1000,1000,1000,1000,116428410,1000,1000,1000,1000
57396199,1000,1000,1000,1000,116528370,1000,1000,1000,1000
57398698,1000,1000,1000,1000,116628330,1000,1000,1000,1000
57401197,1000,1000,1000,1000,116728290,1000,1000,1000,1000
57403696,1000,1000,1000,1000,116828250,1000,1000,1000,1000
57406195,1000,1000,1000,1000,116928210,1000,1000,1000,1000
57408694,1000,1000,1000,1000,117028170,1000,1000,1000,1000
57411193,1000,1000,1000,1000,117128963,1000,1000,1000,1000
57413692,1000,1000,1000,1000,117228923,1000,1000,1000,1000
57416191,1000,1000,1000,1000,117328883,1000,1000,1000,1000
57418690,1000,1000,1000,1000,117428843,1000,1000,1000,1000
57421189,1000,1000,1000,1000,117528803,1000,1000,1000,1000
57423688,1000,1000,1000,1000,117628763,1000,1000,1000,1000
57426187,1000,1000,1000,1000,117728723,1000,1000,1000,1000
57428686,1000,1000,1000,1000,117828683,1000,1000,1000,1000
57431185,1000,1000,1000,1000,117928643,1000,1000,1000,1000
57433684,1000,1000,1000,1000,118028603,1000,1000,1000,1000
57436183,1000,1000,1000,1000,118128563,1000,1000,1000,1000
57438682,1000,1000,1000,1000,118228523,1000,1000,1000,1000
57441181,1000,1000,1000,1000,118328483,1000,1000,1000,1000
57443680,1000,1000,1000,1000,118428443,1000,1000,1000,1000
57446179,1000,1000,1000,1000,118528403,1000,1000,1000,1000
57448678,1000,1000,1000,1000,118628363,1000,1000,1000,1000
57451177,1000,1000,1000,1000,118728323,1000,1000,1000,1000
57453676,1000,1000,1000,1000,118828283,1000,1000,1000,1000
57456175,1000,1000,1000,1000,118928243,1000,1000,1000,1000
57458674,1000,1000,1000,1000,119028203,1000,1000,1000,1000
57461173,1000,1000,1000,1000,119128163,1000,1000,1000,1000
57463672,1000,1000,1000,1000,119228956,1000,1000,1000,1000
57466171,1000,1000,1000,1000,119328916,1000,1000,1000,1000
57468670,1000,1000,1000,1000,119428876,1000,1000,1000,1000
57471169,1000,1000,1000,1000,119528836,1000,1000,1000,1000
57473668,1000,1000,1000,1000,119628796,1000,1000,1000,1000
57476167,1000,1000,1000,1000,119728756,1000,1000,1000,1000
57478666,1000,1000,1000,1000,119828716,1000,1000,1000,1000
57481165,1000,1000,1000,1000,119928676,1000,1000,1000,1000
57483664,1000,1000,1000,1000,120028636,1000,1000,1000,1000
57486163,1000,1000,1000,1000,120128596,1000,1000,1000,1000
57488662,1000,1000,1000,1000,120228556,1000,1000,1000,1000
57491161,1000,1000,1000,1000,120328516,1000,1000,1000,1000
57493660,1000,1000,1000,1000,120428476,1000,1000,1000,1000
57496159,1000,1000,1000,1000,120528436,1000,1000,1000,1000
57498658,1000,1000,1000,1000,120628396,1000,1000,1000,1000
57501157,1000,1000,1000,1000,120728356,1000,1000,1000,1000
57503656,1000,1000,1000,1000,120828316,1000,1000,1000,1000
57506155,1000,1000,1000,1000,120928276,1000,1000,1000,1000
57508654,1000,1000,1000,1000,121028236,1000,1000,1000,1000
57511153,1000,1000,1000,1000,121128196,1000,1000,1000,1000
57513652,1000,1000,1000,1000,121228156,1000,1000,1000,1000
57516151,1000,1000,1000,1000,121328949,1000,1000,1000,1000
57518650,1000,1000,1000,1000,121428909,1000,1000,1000,1000
57521149,1000,1000,1000,1000,121528869,1000,1000,1000,1000
57523648,1000,1000,1000,1000,121628829,1000,1000,1000,1000
57526147,1000,1000,1000,1000,121728789,1000,1000,1000,1000
57528646,1000,1000,1000,1000,121828749,1000,1000,1000,1000
57531145,1000,1000,1000,1000,121928709,1000,1000,1000,1000
57533644,1000,1000,1000,1000,122028669,1000,1000,1000,1000
57536143,1000,1000,1000,1000,122128629,1000,1000,1000,1000
57538642,1000,1000,1000,1000,122228589,1000,1000,1000,1000
57541141,1000,1000,1000,1000,122328549,1000,1000,1000,1000
57543640,1000,1000,1000,1000,122428509,1000,1000,1000,1000
57546139,1000,1000,1000,1000,122528469,1000,1000,1000,1000
57548638,1000,1000,1000,1000,122628429,1000,1000,1000,1000
57551137,1000,1000,1000,1000,122728389,1000,1000,1000,1000
57553636,1000,1000,1000,1000,122828349,1000,1000,1000,1000
57556135,1000,1000,1000,1000,122928309,1000,1000,1000,1000
57558634,1000,1000,1000,1000,123028269,1000,1000,1000,1000
57561133,1000,1000,1000,1000,123128229,1000,1000,1000,1000
57563632,1000,1000,1000,1000,123228189,1000,1000,1000,1000
57566131,1000,1000,1000,1000,123328982,1000,1000,1000,1000
57568630,1000,1000,1000,1000,123428942,1000,1000,1000,1000
57571129,1000,1000,1000,1000,123528902,1000,1000,1000,1000
57573628,1000,1000,1000,1000,123628862,1000,1000,1000,1000
57576127,1000,1000,1000,1000,123728822,1000,1000,1000,1000
57578626,1000,1000,1000,1000,,,,,
57581125,1000,1000,1000,1000,,,,,
57583624,1000,1000,1000,1000,,,,,
57586123,1000,1000,1000,1000,,,,,
57588622,1000,1000,1000,1000,,,,,
57591121,1000,1000,1000,1000,,,,,
57593620,1000,1000,1000,1000,,,,,
57596119,1000,1000,1000,1000,,,,,
57598618,1000,1000,1000,1000,,,,,
57601117,1000,1000,1000,1000,,,,,
57603616,1000,1000,1000,1000,,,,,
57606115,1000,1000,1000,1000,,,,,
57608614,1000,1000,1000,1000,,,,,
57611113,1000,1000,1000,1000,,,,,
57613612,1000,1000,1000,1000,,,,,
57616111,1000,1000,1000,1000,,,,,
57618610,1000,1000,1000,1000,,,,,
57621109,1000,1000,1000,1000,,,,,
57623608,1000,1000,1000,1000,,,,,
57626107,1000,1000,1000,1000,,,,,
57628606,1000,1000,1000,1000,,,,,
57631105,1000,1000,1000,1000,,,,,
57633604,1000,1000,1000,1000,,,,,
57636103,1000,1000,1000,1000,,,,,
57638602,1000,1000,1000,1000,,,,,
57641101,1000,1000,1000,1000,,,,,
57643600,1000,1000,1000,1000,,,,,
57646099,1000,1000,1000,1000,,,,,
57648598,1000,1000,1000,1000,,,,,
57651097,1000,1000,1000,1000,,,,,
57653596,1000,1000,1000,1000,,,,,
57656095,1000,1000,1000,1000,,,,,
57658594,1000,1000,1000,1000,,,,,
57661093,1000,1000,1000,1000,,,,,
57663592,1000,1000,1000,1000,,,,,
57666091,1000,1000,1000,1000,,,,,
57668590,1000,1000,1000,1000,,,,,
57671089,1000,1000,1000,1000,,,,,
57673588,1000,1000,1000,1000,,,,,
57676087,1000,1000,1000,1000,,,,,
57678586,1000,1000,1000,1000,,,,,
57681085,1000,1000,1000,1000,,,,,
57683584,1000,1000,1000,1000,,,,,
57686083,1000,1000,1000,1000,,,,,
57688582,1000,1000,1000,1000,,,,,
57691081,1000,1000,1000,1000,,,,,
57693580,1000,1000,1000,1000,,,,,
57696079,1000,1000,1000,1000,,,,,
57698578,1000,1000,1000,1000,,,,,
57701077,1000,1000,1000,1000,,,,,
57703576,1000,1000,1000,1000,,,,,
57706075,1000,1000,1000,1000,,,,,
57708574,1000,1000,1000,1000,,,,,
57711073,1000,1000,1000,1000,,,,,
57713572,1000,1000,1000,1000,,,,,
57716071,1000,1000,1000,1000,,,,,
57718570,1000,1000,1000,1000,,,,,
57721069,1000,1000,1000,1000,,,,,
57723568,1000,1000,1000,1000,,,,,
57726067,1000,1000,1000,1000,,,,,
57728566,1000,1000,1000,1000,,,,,
57731065,1000,1000,1000,1000,,,,,
57733564,1000,1000,1000,1000,,,,,
57736063,1000,1000,1000,1000,,,,,
57738562,1000,1000,1000,1000,,,,,
57741061,1000,1000,1000,1000,,,,,
57743560,1000,1000,1000,1000,,,,,
57746059,1000,1000,1000,1000,,,,,
57748558,1000,1000,1000,1000,,,,,
57751057,1000,1000,1000,1000,,,,,
57753556,1000,1000,1000,1000,,,,,
57756055,1000,1000,1000,1000,,,,,
57758554,1000,1000,1000,1000,,,,,
57761053,1000,1000,1000,1000,,,,,
57763552,1000,1000,1000,1000,,,,,
57766051,1000,1000,1000,1000,,,,,
57768550,1000,1000,1000,1000,,,,,
57771049,1000,1000,1000,1000,,,,,
57773548,1000,1000,1000,1000,,,,,
57776047,1000,1000,1000,1000,,,,,
57778546,1000,1000,1000,1000,,,,,
57781045,1000,1000,1000,1000,,,,,
57783544,1000,1000,1000,1000,,,,,
57786043,1000,1000,1000,1000,,,,,
57788542,1000,1000,1000,1000,,,,,
57791041,1000,1000,1000,1000,,,,,
57793540,1000,1000,1000,1000,,,,,
57796039,1000,1000,1000,1000,,,,,
57798538,1000,1000,1000,1000,,,,,
57801037,1000,1000,1000,1000,,,,,
57803536,1000,1000,1000,1000,,,,,
57806035,1000,1000,1000,1000,,,,,
57808534,1000,1000,1000,1000,,,,,
57811033,1000,1000,1000,1000,,,,,
57813532,1000,1000,1000,1000,,,,,
57816031,1000,1000,1000,1000,,,,,
57818530,1000,1000,1000,1000,,,,,
57821029,1000,1000,1000,1000,,,,,
57823528,1000,1000,1000,1000,,,,,
57826027,1000,1000,1000,1000,,,,,
57828526,1000,1000,1000,1000,,,,,
57831025,1000,1000,1000,1000,,,,,
57833524,1000,1000,1000,1000,,,,,
57836023,1000,1000,1000,1000,,,,,
57838522,1000,1000,1000,1000,,,,,
57841021,1000,1000,1000,1000,,,,,
57843520,1000,1000,1000,1000,,,,,
57846019,1000,1000,1000,1000,,,,,
57848518,1000,1000,1000,1000,,,,,
57851017,1000,1000,1000,1000,,,,,
57853516,1000,1000,1000,1000,,,,,
57856015,1000,1000,1000,1000,,,,,
57858514,1000,1000,1000,1000,,,,,
57861013,1000,1000,1000,1000,,,,,
57863512,1000,1000,1000,1000,,,,,
57866011,1000,1000,1000,1000,,,,,
57868510,1000,1000,1000,1000,,,,,
57871009,1000,1000,1000,1000,,,,,
57873508,1000,1000,1000,1000,,,,,
57876007,1000,1000,1000,1000,,,,,
57878506,1000,1000,1000,1000,,,,,
57881005,1000,1000,1000,1000,,,,,
57883504,1000,1000,1000,1000,,,,,
57886003,1000,1000,1000,1000,,,,,
57888502,1001,1001,1001,1001,,,,,
57891001,1002,1002,1002,1002,,,,,
57893500,1003,1003,1003,1003,,,,,
57895999,1003,1003,1003,1003,,,,,
57898498,1004,1004,1004,1004,,,,,
57900997,1005,1005,1005,1005,,,,,
57903496,1006,1006,1006,1006,,,,,
57905995,1006,1006,1006,1006,,,,,
57908494,1007,1007,1007,1007,,,,,
57910993,1008,1008,1008,1008,,,,,
57913492,1009,1009,1009,1009,,,,,
57915991,1009,1009,1009,1009,,,,,
57918490,1010,1010,1010,1010,,,,,
57920989,1011,1011,1011,1011,,,,,
57923488,1012,1012,1012,1012,,,,,
57925987,1012,1012,1012,1012,,,,,
57928486,1013,1013,1013,1013,,,,,
57930985,1014,1014,1014,1014,,,,,
57933484,1015,1015,1015,1015,,,,,
57935983,1015,1015,1015,1015,,,,,
57938482,1016,1016,1016,1016,,,,,
57940981,1017,1017,1017,1017,,,,,
57943480,1018,1018,1018,1018,,,,,
57945979,1018,1018,1018,1018,,,,,
57948478,1019,1019,1019,1019,,,,,
57950977,1020,1020,1020,1020,,,,,
57953476,1021,1021,1021,1021,,,,,
57955975,1021,1021,1021,1021,,,,,
57958474,1022,1022,1022,1022,,,,,
57960973,1023,1023,1023,1023,,,,,
57963472,1024,1024,1024,1024,,,,,
57965971,1024,1024,1024,1024,,,,,
57968470,1025,1025,1025,1025,,,,,
57970969,1026,1026,1026,1026,,,,,
57973468,1027,1027,1027,1027,,,,,
57975967,1027,1027,1027,1027,,,,,
57978466,1028,1028,1028,1028,,,,,
57980965,1029,1029,1029,1029,,,,,
57983464,1030,1030,1030,1030,,,,,
57985963,1030,1030,1030,1030,,,,,
57988462,1031,1031,1031,1031,,,,,
57990961,1032,1032,1032,1032,,,,,
57993460,1033,1033,1033,1033,,,,,
57995959,1033,1033,1033,1033,,,,,
57998458,1034,1034,1034,1034,,,,,
58000957,1035,1035,1035,1035,,,,,
58003456,1036,1036,1036,1036,,,,,
58005955,1036,1036,1036,1036,,,,,
58008454,1037,1037,1037,1037,,,,,
58010953,1038,1038,1038,1038,,,,,
58013452,1039,1039,1039,1039,,,,,
58015951,1039,1039,1039,1039,,,,,
58018450,1040,1040,1040,1040,,,,,
58020949,1041,1041,1041,1041,,,,,
58023448,1042,1042,1042,1042,,,,,
58025947,1042,1042,1042,1042,,,,,
58028446,1043,1043,1043,1043,,,,,
58030945,1044,1044,1044,1044,,,,,
58033444,1045,1045,1045,1045,,,,,
58035943,1045,1045,1045,1045,,,,,
58038442,1046,1046,1046,1046,,,,,
58040941,1047,1047,1047,1047,,,,,
58043440,1048,1048,1048,1048,,,,,
58045939,1048,1048,1048,1048,,,,,
58048438,1049,1049,1049,1049,,,,,
58050937,1050,1050,1050,1050,,,,,
58053436,1051,1051,1051,1051,,,,,
58055935,1051,1051,1051,1051,,,,,
58058434,1052,1052,1052,1052,,,,,
58060933,1053,1053,1053,1053,,,,,
58063432,1054,1054,1054,1054,,,,,
58065931,1054,1054,1054,1054,,,,,
58068430,1055,1055,1055,1055,,,,,
58070929,1056,1056,1056,1056,,,,,
58073428,1057,1057,1057,1057,,,,,
58075927,1057,1057,1057,1057,,,,,
58078426,1058,1058,1058,1058,,,,,
58080925,1059,1059,1059,1059,,,,,
58083424,1060,1060,1060,1060,,,,,
58085923,1060,1060,1060,1060,,,,,
58088422,1061,1061,1061,1061,,,,,
58090921,1062,1062,1062,1062,,,,,
58093420,1063,1063,1063,1063,,,,,
58095919,1063,1063,1063,1063,,,,,
58098418,1064,1064,1064,1064,,,,,
58100917,1065,1065,1065,1065,,,,,
58103416,1066,1066,1066,1066,,,,,
58105915,1066,1066,1066,1066,,,,,
58108414,1067,1067,1067,1067,,,,,
58110913,1068,1068,1068,1068,,,,,
58113412,1069,1069,1069,1069,,,,,
58115911,1069,1069,1069,1069,,,,,
58118410,1070,1070,1070,1070,,,,,
58120909,1071,1071,1071,1071,,,,,
58123408,1072,1072,1072,1072,,,,,
58125907,1072,1072,1072,1072,,,,,
58128406,1073,1073,1073,1073,,,,,
58130905,1074,1074,1074,1074,,,,,
58133404,1075,1075,1075,1075,,,,,
58135903,1075,1075,1075,1075,,,,,
58138402,1076,1076,1076,1076,,,,,
58140901,1077,1077,1077,1077,,,,,
58143400,1078,1078,1078,1078,,,,,
58145899,1078,1078,1078,1078,,,,,
58148398,1079,1079,1079,1079,,,,,
58150897,1080,1080,1080,1080,,,,,
58153396,1081,1081,1081,1081,,,,,
58155895,1081,1081,1081,1081,,,,,
58158394,1082,1082,1082,1082,,,,,
58160893,1083,1083,1083,1083,,,,,
58163392,1084,1084,1084,1084,,,,,
58165891,1084,1084,1084,1084,,,,,
58168390,1085,1085,1085,1085,,,,,
58170889,1086,1086,1086,1086,,,,,
58173388,1087,1087,1087,1087,,,,,
58175887,1087,1087,1087,1087,,,,,
58178386,1088,1088,1088,1088,,,,,
58180885,1089,1089,1089,1089,,,,,
58183384,1090,1090,1090,1090,,,,,
58185883,1090,1090,1090,1090,,,,,
58188382,1091,1091,1091,1091,,,,,
58190881,1092,1092,1092,1092,,,,,
58193380,1093,1093,1093,1093,,,,,
58195879,1093,1093,1093,1093,,,,,
58198378,1094,1094,1094,1094,,,,,
58200877,1095,1095,1095,1095,,,,,
58203376,1096,1096,1096,1096,,,,,
58205875,1096,1096,1096,1096,,,,,
58208374,1097,1097,1097,1097,,,,,
58210873,1098,1098,1098,1098,,,,,
58213372,1099,1099,1099,1099,,,,,
58215871,1099,1099,1099,1099,,,,,
58218370,1100,1100,1100,1100,,,,,
58220869,1101,1101,1101,1101,,,,,
58223368,1101,1101,1101,1101,,,,,
58225867,1102,1102,1102,1102,,,,,
58228366,1103,1103,1103,1103,,,,,
58230865,1104,1104,1104,1104,,,,,
58233364,1104,1104,1104,1104,,,,,
58235863,1105,1105,1105,1105,,,,,
58238362,1106,1106,1106,1106,,,,,
58240861,1107,1107,1107,1107,,,,,
58243360,1107,1107,1107,1107,,,,,
58245859,1108,1108,1108,1108,,,,,
58248358,1109,1109,1109,1109,,,,,
58250857,1110,1110,1110,1110,,,,,
58253356,1110,1110,1110,1110,,,,,
58255855,1111,1111,1111,1111,,,,,
58258354,1112,1112,1112,1112,,,,,
58260853,1113,1113,1113,1113,,,,,
58263352,1113,1113,1113,1113,,,,,
58265851,1114,1114,1114,1114,,,,,
58268350,1115,1115,1115,1115,,,,,
58270849,1116,1116,1116,1116,,,,,
58273348,1116,1116,1116,1116,,,,,
58275847,1117,1117,1117,1117,,,,,
58278346,1118,1118,1118,1118,,,,,
58280845,1119,1119,1119,1119,,,,,
58283344,1119,1119,1119,1119,,,,,
58285843,1120,1120,1120,1120,,,,,
58288342,1121,1121,1121,1121,,,,,
58290841,1122,1122,1122,1122,,,,,
58293340,1122,1122,1122,1122,,,,,
58295839,1123,1123,1123,1123,,,,,
58298338,1124,1124,1124,1124,,,,,
58300837,1125,1125,1125,1125,,,,,
58303336,1125,1125,1125,1125,,,,,
58305835,1126,1126,1126,1126,,,,,
58308334,1127,1127,1127,1127,,,,,
58310833,1128,1128,1128,1128,,,,,
58313332,1128,1128,1128,1128,,,,,
58315831,1129,1129,1129,1129,,,,,
58318330,1130,1130,1130,1130,,,,,
58320829,1131,1131,1131,1131,,,,,
58323328,1131,1131,1131,1131,,,,,
58325827,1132,1132,1132,1132,,,,,
58328326,1133,1133,1133,1133,,,,,
58330825,1134,1134,1134,1134,,,,,
58333324,1134,1134,1134,1134,,,,,
58335823,1135,1135,1135,1135,,,,,
58338322,1136,1136,1136,1136,,,,,
58340821,1137,1137,1137,1137,,,,,
58343320,1137,1137,1137,1137,,,,,
58345819,1138,1138,1138,1138,,,,,
58348318,1139,1139,1139,1139,,,,,
58350817,1140,1140,1140,1140,,,,,
58353316,1140,1140,1140,1140,,,,,
58355815,1141,1141,1141,1141,,,,,
58358314,1142,1142,1142,1142,,,,,
58360813,1143,1143,1143,1143,,,,,
58363312,1143,1143,1143,1143,,,,,
58365811,1144,1144,1144,1144,,,,,
58368310,1145,1145,1145,1145,,,,,
58370809,1146,1146,1146,1146,,,,,
58373308,1146,1146,1146,1146,,,,,
58375807,1147,1147,1147,1147,,,,,
58378306,1148,1148,1148,1148,,,,,
58380805,1149,1149,1149,1149,,,,,
58383304,1149,1149,1149,1149,,,,,
58385803,1150,1150,1150,1150,,,,,
58388302,1162,1153,1154,1162,,,,,
58390801,1170,1161,1162,1170,,,,,
58393300,1178,1169,1170,1178,,,,,
58395799,1185,1177,1178,1186,,,,,
58398298,1193,1184,1185,1193,,,,,
58400797,1200,1192,1193,1201,,,,,
58403296,1208,1199,1200,1208,,,,,
58405795,1215,1207,1208,1215,,,,,
58408294,1222,1214,1215,1222,,,,,
58410793,1229,1221,1222,1229,,,,,
58413292,1236,1228,1229,1236,,,,,
58415791,1243,1235,1236,1243,,,,,
58418290,1249,1242,1242,1250,,,,,
58420789,1256,1248,1249,1256,,,,,
58423288,1262,1255,1256,1263,,,,,
58425787,1269,1261,1262,1269,,,,,
58428286,1275,1268,1269,1276,,,,,
58430785,1282,1274,1275,1282,,,,,
58433284,1288,1281,1281,1288,,,,,
58435783,1294,1287,1288,1294,,,,,
58438282,1300,1293,1294,1300,,,,,
58440781,1306,1299,1300,1306,,,,,
58443280,1312,1305,1306,1312,,,,,
58445779,1318,1311,1312,1318,,,,,
58448278,1324,1317,1317,1324,,,,,
58450777,1329,1323,1323,1330,,,,,
58453276,1335,1328,1329,1335,,,,,
58455775,1341,1334,1335,1341,,,,,
58458274,1346,1340,1340,1347,,,,,
58460773,1352,1345,1346,1352,,,,,
58463272,1357,1351,1351,1358,,,,,
58465771,1363,1356,1357,1363,,,,,
58468270,1368,1362,1362,1369,,,,,
58470769,1374,1367,1368,1374,,,,,
58473268,1379,1372,1373,1379,,,,,
58475767,1384,1378,1378,1384,,,,,
58478266,1389,1383,1384,1390,,,,,
58480765,1395,1388,1389,1395,,,,,
58483264,1400,1393,1394,1400,,,,,
58485763,1405,1398,1399,1405,,,,,
58488262,1410,1403,1404,1410,,,,,
58490761,1415,1409,1409,1415,,,,,
58493260,1420,1414,1414,1420,,,,,
58495759,1425,1419,1419,1425,,,,,
58498258,1430,1423,1424,1430,,,,,
58500757,1435,1428,1429,1435,,,,,
58503256,1439,1433,1434,1440,,,,,
58505755,1444,1438,1439,1445,,,,,
58508254,1449,1443,1443,1449,,,,,
58510753,1454,1448,1448,1454,,,,,
58513252,1458,1452,1453,1459,,,,,
58515751,1463,1457,1458,1463,,,,,
58518250,1468,1462,1462,1468,,,,,
58520749,1472,1466,1467,1473,,,,,
58523248,1477,1471,1471,1477,,,,,
58525747,1482,1476,1476,1482,,,,,
58528246,1486,1480,1481,1486,,,,,
58530745,1491,1485,1485,1491,,,,,
58533244,1495,1489,1490,1495,,,,,
58535743,1499,1494,1494,1500,,,,,
58538242,1504,1498,1498,1504,,,,,
58540741,1508,1502,1503,1509,,,,,
58543240,1513,1507,1507,1513,,,,,
58545739,1517,1511,1512,1517,,,,,
58548238,1521,1516,1516,1522,,,,,
58550737,1526,1520,1520,1526,,,,,
58553236,1530,1524,1525,1530,,,,,
58555735,1534,1528,1529,1534,,,,,
58558234,1538,1533,1533,1539,,,,,
58560733,1542,1537,1537,1543,,,,,
58563232,1547,1541,1541,1547,,,,,
58565731,1551,1545,1546,1551,,,,,
58568230,1555,1550,1550,1555,,,,,
58570729,1559,1554,1554,1559,,,,,
58573228,1563,1558,1558,1563,,,,,
58575727,1567,1562,1562,1568,,,,,
58578226,1571,1566,1566,1572,,,,,
58580725,1575,1570,1570,1576,,,,,
58583224,1579,1574,1574,1580,,,,,
58585723,1583,1578,1578,1584,,,,,
58588222,1587,1582,1582,1588,,,,,
58590721,1591,1586,1586,1591,,,,,
58593220,1595,1590,1590,1595,,,,,
58595719,1599,1594,1594,1599,,,,,
58598218,1603,1598,1598,1603,,,,,
58600717,1607,1602,1602,1607,,,,,
58603216,1611,1606,1606,1611,,,,,
58605715,1615,1609,1610,1615,,,,,
58608214,1618,1613,1614,1619,,,,,
58610713,1622,1617,1618,1622,,,,,
58613212,1626,1621,1621,1626,,,,,
58615711,1630,1625,1625,1630,,,,,
58618210,1634,1628,1629,1634,,,,,
58620709,1637,1632,1633,1637,,,,,
58623208,1641,1636,1637,1641,,,,,
58625707,1645,1640,1640,1645,,,,,
58628206,1649,1643,1644,1649,,,,,
58630705,1652,1647,1648,1652,,,,,
58633204,1656,1651,1651,1656,,,,,
58635703,1660,1654,1655,1660,,,,,
58638202,1663,1658,1659,1663,,,,,
58640701,1667,1662,1662,1667,,,,,
58643200,1671,1665,1666,1670,,,,,
58645699,1674,1669,1670,1674,,,,,
58648198,1678,1673,1673,1678,,,,,
58650697,1681,1676,1677,1681,,,,,
58653196,1685,1680,1680,1685,,,,,
58655695,1688,1683,1684,1688,,,,,
58658194,1692,1687,1688,1692,,,,,
58660693,1695,1690,1691,1695,,,,,
58663192,1699,1694,1695,1699,,,,,
58665691,1702,1697,1698,1702,,,,,
58668190,1706,1701,1702,1706,,,,,
58670689,1709,1704,1705,1709,,,,,
58673188,1713,1708,1709,1713,,,,,
58675687,1716,1711,1712,1716,,,,,
58678186,1720,1715,1715,1720,,,,,
58680685,1723,1718,1719,1723,,,,,
58683184,1727,1722,1722,1726,,,,,
58685683,1730,1725,1726,1730,,,,,
58688182,1733,1728,1729,1733,,,,,
58690681,1737,1732,1732,1737,,,,,
58693180,1740,1735,1736,1740,,,,,
58695679,1743,1738,1739,1743,,,,,
58698178,1747,1742,1742,1747,,,,,
58700677,1750,1745,1746,1750,,,,,
58703176,1753,1748,1749,1753,,,,,
58705675,1757,1752,1752,1757,,,,,
58708174,1760,1755,1756,1760,,,,,
58710673,1763,1758,1759,1763,,,,,
58713172,1767,1762,1762,1767,,,,,
58715671,1770,1765,1765,1770,,,,,
58718170,1773,1768,1769,1773,,,,,
58720669,1776,1771,1772,1776,,,,,
58723168,1780,1775,1775,1780,,,,,
58725667,1783,1778,1778,1783,,,,,
58728166,1786,1781,1781,1786,,,,,
58730665,1789,1784,1785,1789,,,,,
58733164,1792,1787,1788,1793,,,,,
58735663,1796,1791,1791,1796,,,,,
58738162,1799,1794,1794,1799,,,,,
58740661,1802,1797,1797,1802,,,,,
58743160,1805,1800,1800,1805,,,,,
58745659,1808,1803,1804,1808,,,,,
58748158,1811,1806,1807,1812,,,,,
58750657,1815,1809,1810,1815,,,,,
58753156,1818,1813,1813,1818,,,,,
58755655,1821,1816,1816,1821,,,,,
58758154,1824,1819,1819,1824,,,,,
58761486,1827,1822,1822,1827,,,,,
58763985,1830,1825,1825,1830,,,,,
58766484,1833,1828,1828,1833,,,,,
58768983,1836,1831,1831,1836,,,,,
58771482,1839,1834,1834,1840,,,,,
58773981,1842,1837,1838,1843,,,,,
58776480,1845,1840,1841,1846,,,,,
58778979,1848,1843,1844,1849,,,,,
58781478,1851,1846,1847,1852,,,,,
58783977,1854,1849,1850,1855,,,,,
58786476,1857,1852,1853,1858,,,,,
58788975,1860,1855,1856,1861,,,,,
58791474,1863,1858,1859,1864,,,,,
58793973,1866,1861,1862,1867,,,,,
58796472,1869,1864,1865,1870,,,,,
58798971,1872,1867,1867,1873,,,,,
58801470,1875,1870,1870,1876,,,,,
58803969,1878,1873,1873,1879,,,,,
58806468,1881,1876,1876,1882,,,,,
58808967,1884,1879,1879,1885,,,,,
58811466,1887,1882,1882,1887,,,,,
58813965,1890,1885,1885,1890,,,,,
58816464,1893,1888,1888,1893,,,,,
58818963,1896,1891,1891,1896,,,,,
58821462,1899,1894,1894,1899,,,,,
58823961,1901,1897,1897,1902,,,,,
58826460,1904,1900,1900,1905,,,,,
58828959,1907,1902,1902,1908,,,,,
58831458,1910,1905,1905,1911,,,,,
58833957,1913,1908,1908,1913,,,,,
58836456,1916,1911,1911,1916,,,,,
58838955,1919,1914,1914,1919,,,,,
58841454,1920,1915,1915,1920,,,,,
58843953,1919,1914,1914,1919,,,,,
58846452,1918,1913,1913,1919,,,,,
58848951,1917,1913,1913,1918,,,,,
58851450,1917,1912,1912,1917,,,,,
58853949,1916,1911,1911,1917,,,,,
58856448,1915,1911,1911,1916,,,,,
58858947,1915,1910,1910,1916,,,,,
58861446,1914,1910,1910,1915,,,,,
58863945,1914,1909,1909,1915,,,,,
58866444,1914,1909,1909,1914,,,,,
58868943,1913,1908,1908,1914,,,,,
58871442,1913,1908,1908,1914,,,,,
58873941,1913,1908,1908,1913,,,,,
58876440,1913,1908,1908,1913,,,,,
58878939,1913,1908,1908,1913,,,,,
58881438,1913,1908,1908,1913,,,,,
58883937,1912,1908,1908,1913,,,,,
58886436,1912,1908,1908,1913,,,,,
58888935,1912,1908,1908,1912,,,,,
58891434,1911,1907,1908,1912,,,,,
58893933,1911,1907,1907,1911,,,,,
58896432,1910,1907,1907,1911,,,,,
58898931,1910,1906,1906,1910,,,,,
58901430,1909,1905,1905,1909,,,,,
58903929,1908,1904,1904,1908,,,,,
58906428,1907,1903,1903,1907,,,,,
58908927,1905,1902,1902,1906,,,,,
58911426,1904,1901,1901,1904,,,,,
58913925,1902,1899,1899,1903,,,,,
58916424,1900,1897,1898,1901,,,,,
58918923,1899,1896,1896,1899,,,,,
58921422,1897,1894,1894,1897,,,,,
58923921,1894,1892,1892,1895,,,,,
58926420,1892,1889,1890,1893,,,,,
58928919,1890,1887,1887,1890,,,,,
58931418,1887,1885,1885,1888,,,,,
58933917,1885,1882,1883,1885,,,,,
58936416,1882,1880,1880,1883,,,,,
58938915,1880,1877,1878,1880,,,,,
58941414,1877,1875,1875,1877,,,,,
58943913,1874,1872,1872,1874,,,,,
58946412,1871,1869,1869,1872,,,,,
58948911,1868,1866,1867,1869,,,,,
58951410,1865,1863,1864,1866,,,,,
58953909,1863,1860,1861,1863,,,,,
58956408,1859,1857,1858,1860,,,,,
58958907,1856,1854,1855,1857,,,,,
58961406,1853,1851,1852,1854,,,,,
58963905,1850,1848,1849,1850,,,,,
58966404,1847,1845,1846,1847,,,,,
58968903,1844,1842,1842,1844,,,,,
58971402,1840,1839,1839,1841,,,,,
58973901,1837,1836,1836,1837,,,,,
58976400,1834,1832,1833,1834,,,,,
58978899,1830,1829,1829,1831,,,,,
58981398,1827,1826,1826,1827,,,,,
58983897,1823,1822,1823,1824,,,,,
58986396,1820,1819,1819,1820,,,,,
58988895,1816,1815,1816,1817,,,,,
58991394,1813,1812,1812,1813,,,,,
58993893,1809,1808,1808,1810,,,,,
58996392,1806,1805,1805,1806,,,,,
58998891,1802,1801,1801,1803,,,,,
59001390,1799,1798,1798,1799,,,,,
59003889,1795,1794,1794,1795,,,,,
59006388,1792,1791,1791,1792,,,,,
59008887,1788,1787,1787,1788,,,,,
59011386,1784,1784,1784,1785,,,,,
59013885,1781,1780,1780,1782,,,,,
59016384,1777,1777,1776,1778,,,,,
59018883,1774,1773,1773,1775,,,,,
59021382,1770,1770,1769,1771,,,,,
59023881,1767,1766,1766,1768,,,,,
59026380,1764,1763,1762,1765,,,,,
59028879,1760,1759,1759,1761,,,,,
59031378,1757,1756,1755,1758,,,,,
59033877,1753,1753,1752,1755,,,,,
59036376,1750,1749,1749,1751,,,,,
59038875,1747,1746,1745,1748,,,,,
59041374,1744,1743,1742,1745,,,,,
59043873,1740,1740,1739,1742,,,,,
59046372,1737,1737,1735,1739,,,,,
59048871,1734,1734,1732,1736,,,,,
59051370,1731,1730,1729,1733,,,,,
59053869,1728,1727,1726,1730,,,,,
59056368,1725,1724,1723,1727,,,,,
59058867,1722,1722,1720,1724,,,,,
59061366,1719,1719,1717,1721,,,,,
59063865,1716,1716,1714,1719,,,,,
59066364,1713,1713,1711,1716,,,,,
59068863,1710,1710,1708,1713,,,,,
59071362,1708,1708,1705,1710,,,,,
