timestamp,TimeUS,C1,C2,C3,C4,C5,C6,C7,C8,C9,C10,C11,C12,C13,C14
1682161783.00000000,63828625,1000,1000,1000,1000,0,0,0,0,0,0,0,0,0,0
1682161783.09996009,63928585,1000,1000,1000,1000,0,0,0,0,0,0,0,0,0,0
1682161783.19991994,64028545,1000,1000,1000,1000,0,0,0,0,0,0,0,0,0,0
1682161783.29988003,64128505,1000,1000,1000,1000,0,0,0,0,0,0,0,0,0,0
1682161783.39984012,64228465,1000,1000,1000,1000,0,0,0,0,0,0,0,0,0,0
1682161783.49979997,64328425,1000,1000,1000,1000,0,0,0,0,0,0,0,0,0,0
1682161783.59976006,64428385,1000,1000,1000,1000,0,0,0,0,0,0,0,0,0,0
1682161783.69972014,64528345,1000,1000,1000,1000,0,0,0,0,0,0,0,0,0,0
1682161783.79967999,64628305,1000,1000,1000,1000,0,0,0,0,0,0,0,0,0,0
1682161783.89964008,64728265,1000,1000,1000,1000,0,0,0,0,0,0,0,0,0,0
1682161783.99959993,64828225,1000,1000,1000,1000,0,0,0,0,0,0,0,0,0,0
1682161784.09956002,64928185,1000,1000,1000,1000,0,0,0,0,0,0,0,0,0,0
1682161784.20035315,65028978,1000,1000,1000,1000,0,0,0,0,0,0,0,0,0,0
1682161784.30031300,65128938,1000,1000,1000,1000,0,0,0,0,0,0,0,0,0,0
1682161784.40027308,65228898,1000,1000,1000,1000,0,0,0,0,0,0,0,0,0,0
1682161784.50023293,65328858,1000,1000,1000,1000,0,0,0,0,0,0,0,0,0,0
1682161784.60019302,65428818,1000,1000,1000,1000,0,0,0,0,0,0,0,0,0,0
1682161784.70015311,65528778,1000,1000,1000,1000,0,0,0,0,0,0,0,0,0,0
1682161784.80011296,65628738,1000,1000,1000,1000,0,0,0,0,0,0,0,0,0,0
1682161784.90007305,65728698,1000,1000,1000,1000,0,0,0,0,0,0,0,0,0,0
1682161785.00003314,65828658,1015,1015,1015,1015,0,0,0,0,0,0,0,0,0,0
1682161785.09999299,65928618,1045,1045,1045,1045,0,0,0,0,0,0,0,0,0,0
1682161785.19995308,66028578,1075,1075,1075,1075,0,0,0,0,0,0,0,0,0,0
1682161785.29991293,66128538,1104,1104,1104,1104,0,0,0,0,0,0,0,0,0,0
1682161785.39987302,66228498,1134,1134,1134,1134,0,0,0,0,0,0,0,0,0,0
1682161785.49983311,66328458,1288,1280,1281,1289,0,0,0,0,0,0,0,0,0,0
1682161785.59979296,66428418,1495,1489,1489,1496,0,0,0,0,0,0,0,0,0,0
1682161785.69975305,66528378,1656,1650,1651,1657,0,0,0,0,0,0,0,0,0,0
1682161785.79971313,66628338,1793,1787,1788,1793,0,0,0,0,0,0,0,0,0,0
1682161785.89967299,66728298,1913,1908,1908,1914,0,0,0,0,0,0,0,0,0,0
1682161785.99963307,66828258,1881,1878,1879,1882,0,0,0,0,0,0,0,0,0,0
1682161786.09959292,66928218,1753,1753,1753,1754,0,0,0,0,0,0,0,0,0,0
1682161786.19955301,67028178,1660,1662,1662,1661,0,0,0,0,0,0,0,0,0,0
1682161786.30034614,67128971,1631,1631,1629,1633,0,0,0,0,0,0,0,0,0,0
1682161786.40030599,67228931,1633,1636,1629,1640,0,0,0,0,0,0,0,0,0,0
1682161786.50026608,67328891,1639,1642,1638,1643,0,0,0,0,0,0,0,0,0,0
1682161786.60022593,67428851,1639,1640,1640,1639,0,0,0,0,0,0,0,0,0,0
1682161786.70018601,67528811,1632,1632,1635,1630,0,0,0,0,0,0,0,0,0,0
1682161786.80014610,67628771,1626,1625,1629,1621,0,0,0,0,0,0,0,0,0,0
1682161786.90010595,67728731,1621,1619,1623,1617,0,0,0,0,0,0,0,0,0,0
1682161787.00006604,67828691,1620,1619,1621,1617,0,0,0,0,0,0,0,0,0,0
1682161787.10002613,67928651,1605,1605,1607,1602,0,0,0,0,0,0,0,0,0,0
1682161787.19998598,68028611,1582,1582,1590,1574,0,0,0,0,0,0,0,0,0,0
1682161787.29994607,68128571,1568,1570,1573,1565,0,0,0,0,0,0,0,0,0,0
1682161787.39990592,68228531,1558,1559,1557,1560,0,0,0,0,0,0,0,0,0,0
1682161787.49986601,68328491,1550,1550,1546,1555,0,0,0,0,0,0,0,0,0,0
1682161787.59982610,68428451,1544,1543,1535,1552,0,0,0,0,0,0,0,0,0,0
1682161787.69978595,68528411,1537,1536,1528,1545,0,0,0,0,0,0,0,0,0,0
1682161787.79974604,68628371,1531,1531,1526,1536,0,0,0,0,0,0,0,0,0,0
1682161787.89970613,68728331,1527,1527,1525,1528,0,0,0,0,0,0,0,0,0,0
1682161787.99966598,68828291,1526,1524,1526,1524,0,0,0,0,0,0,0,0,0,0
1682161788.09962606,68928251,1527,1526,1529,1525,0,0,0,0,0,0,0,0,0,0
1682161788.19958615,69028211,1529,1529,1532,1526,0,0,0,0,0,0,0,0,0,0
1682161788.29954600,69128171,1533,1533,1536,1531,0,0,0,0,0,0,0,0,0,0
1682161788.40033913,69228964,1535,1536,1538,1534,0,0,0,0,0,0,0,0,0,0
1682161788.50029898,69328924,1540,1540,1542,1540,0,0,0,0,0,0,0,0,0,0
1682161788.60025907,69428884,1543,1544,1544,1544,0,0,0,0,0,0,0,0,0,0
1682161788.70021915,69528844,1548,1547,1548,1548,0,0,0,0,0,0,0,0,0,0
1682161788.80017900,69628804,1550,1549,1549,1550,0,0,0,0,0,0,0,0,0,0
1682161788.90013909,69728764,1553,1553,1553,1554,0,0,0,0,0,0,0,0,0,0
1682161789.00009894,69828724,1555,1556,1555,1557,0,0,0,0,0,0,0,0,0,0
1682161789.10005903,69928684,1558,1557,1557,1559,0,0,0,0,0,0,0,0,0,0
1682161789.20001912,70028644,1558,1558,1560,1561,0,0,0,0,0,0,0,0,0,0
1682161789.29997897,70128604,1559,1559,1562,1563,0,0,0,0,0,0,0,0,0,0
1682161789.39993906,70228564,1561,1561,1565,1565,0,0,0,0,0,0,0,0,0,0
1682161789.49989915,70328524,1563,1562,1567,1566,0,0,0,0,0,0,0,0,0,0
1682161789.59985900,70428484,1565,1565,1568,1568,0,0,0,0,0,0,0,0,0,0
1682161789.69981909,70528444,1565,1565,1567,1567,0,0,0,0,0,0,0,0,0,0
1682161789.79977894,70628404,1567,1567,1568,1568,0,0,0,0,0,0,0,0,0,0
1682161789.89973903,70728364,1569,1570,1569,1569,0,0,0,0,0,0,0,0,0,0
1682161789.99969912,70828324,1571,1571,1569,1569,0,0,0,0,0,0,0,0,0,0
1682161790.09965897,70928284,1572,1571,1569,1569,0,0,0,0,0,0,0,0,0,0
1682161790.19961905,71028244,1572,1572,1569,1569,0,0,0,0,0,0,0,0,0,0
1682161790.29957914,71128204,1573,1573,1570,1570,0,0,0,0,0,0,0,0,0,0
1682161790.39953899,71228164,1574,1573,1571,1571,0,0,0,0,0,0,0,0,0,0
1682161790.50033212,71328957,1575,1575,1573,1572,0,0,0,0,0,0,0,0,0,0
1682161790.60029197,71428917,1576,1576,1575,1574,0,0,0,0,0,0,0,0,0,0
1682161790.70025206,71528877,1576,1575,1575,1574,0,0,0,0,0,0,0,0,0,0
1682161790.80021214,71628837,1576,1576,1576,1575,0,0,0,0,0,0,0,0,0,0
1682161790.90017200,71728797,1576,1576,1576,1576,0,0,0,0,0,0,0,0,0,0
1682161791.00013208,71828757,1575,1575,1575,1575,0,0,0,0,0,0,0,0,0,0
1682161791.10009193,71928717,1576,1576,1576,1577,0,0,0,0,0,0,0,0,0,0
1682161791.20005202,72028677,1576,1576,1576,1577,0,0,0,0,0,0,0,0,0,0
1682161791.30001211,72128637,1576,1575,1576,1577,0,0,0,0,0,0,0,0,0,0
1682161791.39997196,72228597,1576,1576,1577,1577,0,0,0,0,0,0,0,0,0,0
1682161791.49993205,72328557,1577,1577,1578,1578,0,0,0,0,0,0,0,0,0,0
1682161791.59989214,72428517,1578,1578,1578,1578,0,0,0,0,0,0,0,0,0,0
1682161791.69985199,72528477,1578,1578,1578,1578,0,0,0,0,0,0,0,0,0,0
1682161791.79981208,72628437,1577,1577,1577,1577,0,0,0,0,0,0,0,0,0,0
1682161791.89977193,72728397,1578,1578,1578,1578,0,0,0,0,0,0,0,0,0,0
1682161791.99973202,72828357,1578,1578,1578,1578,0,0,0,0,0,0,0,0,0,0
1682161792.09969211,72928317,1578,1578,1577,1578,0,0,0,0,0,0,0,0,0,0
1682161792.19965196,73028277,1578,1578,1578,1578,0,0,0,0,0,0,0,0,0,0
1682161792.29961205,73128237,1579,1578,1578,1578,0,0,0,0,0,0,0,0,0,0
1682161792.39957213,73228197,1579,1579,1578,1578,0,0,0,0,0,0,0,0,0,0
1682161792.49953198,73328157,1579,1578,1578,1578,0,0,0,0,0,0,0,0,0,0
1682161792.60032511,73428950,1578,1578,1578,1578,0,0,0,0,0,0,0,0,0,0
1682161792.70028496,73528910,1578,1579,1579,1579,0,0,0,0,0,0,0,0,0,0
1682161792.80024505,73628870,1578,1579,1579,1579,0,0,0,0,0,0,0,0,0,0
1682161792.90020514,73728830,1579,1578,1578,1579,0,0,0,0,0,0,0,0,0,0
1682161793.00016499,73828790,1579,1579,1579,1579,0,0,0,0,0,0,0,0,0,0
1682161793.10012507,73928750,1579,1579,1579,1579,0,0,0,0,0,0,0,0,0,0
1682161793.20008492,74028710,1579,1579,1579,1579,0,0,0,0,0,0,0,0,0,0
1682161793.30004501,74128670,1579,1579,1579,1579,0,0,0,0,0,0,0,0,0,0
1682161793.40000510,74228630,1579,1580,1580,1579,0,0,0,0,0,0,0,0,0,0
1682161793.49996495,74328590,1579,1580,1580,1580,0,0,0,0,0,0,0,0,0,0
1682161793.59992504,74428550,1580,1580,1580,1580,0,0,0,0,0,0,0,0,0,0
1682161793.69988513,74528510,1580,1580,1580,1580,0,0,0,0,0,0,0,0,0,0
1682161793.79984498,74628470,1580,1580,1581,1580,0,0,0,0,0,0,0,0,0,0
1682161793.89980507,74728430,1580,1580,1580,1580,0,0,0,0,0,0,0,0,0,0
1682161793.99976492,74828390,1580,1581,1580,1580,0,0,0,0,0,0,0,0,0,0
1682161794.09972501,74928350,1580,1580,1580,1580,0,0,0,0,0,0,0,0,0,0
1682161794.19968510,75028310,1580,1580,1580,1580,0,0,0,0,0,0,0,0,0,0
1682161794.29964495,75128270,1580,1580,1580,1580,0,0,0,0,0,0,0,0,0,0
1682161794.39960504,75228230,1581,1581,1580,1581,0,0,0,0,0,0,0,0,0,0
1682161794.49956512,75328190,1581,1580,1581,1581,0,0,0,0,0,0,0,0,0,0
1682161794.60035801,75428983,1581,1581,1581,1581,0,0,0,0,0,0,0,0,0,0
1682161794.70031810,75528943,1580,1581,1580,1581,0,0,0,0,0,0,0,0,0,0
1682161794.80027795,75628903,1581,1581,1582,1581,0,0,0,0,0,0,0,0,0,0
1682161794.90023804,75728863,1581,1581,1582,1581,0,0,0,0,0,0,0,0,0,0
1682161795.00019813,75828823,1581,1581,1581,1581,0,0,0,0,0,0,0,0,0,0
1682161795.10015798,75928783,1581,1581,1582,1582,0,0,0,0,0,0,0,0,0,0
1682161795.20011806,76028743,1582,1582,1583,1581,0,0,0,0,0,0,0,0,0,0
1682161795.30007815,76128703,1580,1581,1587,1573,0,0,0,0,0,0,0,0,0,0
1682161795.40003800,76228663,1580,1582,1585,1573,0,0,0,0,0,0,0,0,0,0
1682161795.49999809,76328623,1578,1582,1576,1574,0,0,0,0,0,0,0,0,0,0
1682161795.59995794,76428583,1577,1580,1567,1572,0,0,0,0,0,0,0,0,0,0
1682161795.69991803,76528543,1577,1580,1561,1569,0,0,0,0,0,0,0,0,0,0
1682161795.79987812,76628503,1578,1579,1557,1563,0,0,0,0,0,0,0,0,0,0
1682161795.89983797,76728463,1580,1578,1556,1559,0,0,0,0,0,0,0,0,0,0
1682161795.99979806,76828423,1579,1578,1555,1555,0,0,0,0,0,0,0,0,0,0
1682161796.09975815,76928383,1578,1577,1554,1553,0,0,0,0,0,0,0,0,0,0
1682161796.19971800,77028343,1578,1578,1556,1553,0,0,0,0,0,0,0,0,0,0
1682161796.29967809,77128303,1577,1578,1556,1554,0,0,0,0,0,0,0,0,0,0
1682161796.39963794,77228263,1576,1577,1555,1554,0,0,0,0,0,0,0,0,0,0
1682161796.49959803,77328223,1575,1576,1554,1553,0,0,0,0,0,0,0,0,0,0
1682161796.59955812,77428183,1575,1577,1553,1553,0,0,0,0,0,0,0,0,0,0
1682161796.70035100,77528976,1575,1577,1551,1552,0,0,0,0,0,0,0,0,0,0
1682161796.80031109,77628936,1577,1579,1550,1550,0,0,0,0,0,0,0,0,0,0
1682161796.90027094,77728896,1579,1580,1548,1548,0,0,0,0,0,0,0,0,0,0
1682161797.00023103,77828856,1581,1582,1545,1545,0,0,0,0,0,0,0,0,0,0
1682161797.10019112,77928816,1585,1585,1543,1543,0,0,0,0,0,0,0,0,0,0
1682161797.20015097,78028776,1588,1588,1540,1540,0,0,0,0,0,0,0,0,0,0
1682161797.30011106,78128736,1590,1591,1537,1537,0,0,0,0,0,0,0,0,0,0
1682161797.40007114,78228696,1593,1594,1535,1536,0,0,0,0,0,0,0,0,0,0
1682161797.50003099,78328656,1595,1594,1534,1535,0,0,0,0,0,0,0,0,0,0
1682161797.59999108,78428616,1596,1596,1535,1537,0,0,0,0,0,0,0,0,0,0
1682161797.69995093,78528576,1594,1594,1535,1538,0,0,0,0,0,0,0,0,0,0
1682161797.79991102,78628536,1593,1592,1539,1542,0,0,0,0,0,0,0,0,0,0
1682161797.89987111,78728496,1588,1587,1545,1548,0,0,0,0,0,0,0,0,0,0
1682161797.99983096,78828456,1583,1580,1553,1556,0,0,0,0,0,0,0,0,0,0
1682161798.09979105,78928416,1575,1570,1564,1567,0,0,0,0,0,0,0,0,0,0
1682161798.19975114,79028376,1564,1561,1577,1579,0,0,0,0,0,0,0,0,0,0
1682161798.29971099,79128336,1553,1549,1589,1590,0,0,0,0,0,0,0,0,0,0
1682161798.39967108,79228296,1541,1539,1600,1600,0,0,0,0,0,0,0,0,0,0
1682161798.49963093,79328256,1533,1532,1608,1608,0,0,0,0,0,0,0,0,0,0
1682161798.59959102,79428216,1528,1529,1614,1612,0,0,0,0,0,0,0,0,0,0
1682161798.69955111,79528176,1528,1530,1615,1615,0,0,0,0,0,0,0,0,0,0
1682161798.80034399,79628969,1531,1533,1613,1612,0,0,0,0,0,0,0,0,0,0
1682161798.90030408,79728929,1536,1539,1608,1608,0,0,0,0,0,0,0,0,0,0
1682161799.00026393,79828889,1544,1546,1601,1602,0,0,0,0,0,0,0,0,0,0
1682161799.10022402,79928849,1554,1555,1595,1595,0,0,0,0,0,0,0,0,0,0
1682161799.20018411,80028809,1562,1562,1586,1585,0,0,0,0,0,0,0,0,0,0
1682161799.30014396,80128769,1572,1572,1581,1580,0,0,0,0,0,0,0,0,0,0
1682161799.40010405,80228729,1578,1578,1574,1573,0,0,0,0,0,0,0,0,0,0
1682161799.50006413,80328689,1585,1583,1571,1570,0,0,0,0,0,0,0,0,0,0
1682161799.60002398,80428649,1587,1586,1567,1567,0,0,0,0,0,0,0,0,0,0
1682161799.69998407,80528609,1588,1586,1566,1566,0,0,0,0,0,0,0,0,0,0
1682161799.79994392,80628569,1587,1586,1566,1566,0,0,0,0,0,0,0,0,0,0
1682161799.89990401,80728529,1586,1585,1568,1568,0,0,0,0,0,0,0,0,0,0
1682161799.99986410,80828489,1583,1582,1570,1570,0,0,0,0,0,0,0,0,0,0
1682161800.09982395,80928449,1581,1580,1574,1574,0,0,0,0,0,0,0,0,0,0
1682161800.19978404,81028409,1577,1577,1576,1576,0,0,0,0,0,0,0,0,0,0
1682161800.29974413,81128369,1575,1575,1579,1579,0,0,0,0,0,0,0,0,0,0
1682161800.39970398,81228329,1573,1574,1582,1581,0,0,0,0,0,0,0,0,0,0
1682161800.49966407,81328289,1573,1574,1584,1584,0,0,0,0,0,0,0,0,0,0
1682161800.59962392,81428249,1572,1573,1585,1584,0,0,0,0,0,0,0,0,0,0
1682161800.69958401,81528209,1572,1573,1584,1584,0,0,0,0,0,0,0,0,0,0
1682161800.79954410,81628169,1573,1574,1583,1583,0,0,0,0,0,0,0,0,0,0
1682161800.90033698,81728962,1574,1574,1581,1582,0,0,0,0,0,0,0,0,0,0
1682161801.00029707,81828922,1575,1576,1580,1581,0,0,0,0,0,0,0,0,0,0
1682161801.10025692,81928882,1576,1577,1579,1579,0,0,0,0,0,0,0,0,0,0
1682161801.20021701,82028842,1579,1579,1579,1579,0,0,0,0,0,0,0,0,0,0
1682161801.30017710,82128802,1580,1579,1578,1578,0,0,0,0,0,0,0,0,0,0
1682161801.40013695,82228762,1581,1581,1578,1577,0,0,0,0,0,0,0,0,0,0
1682161801.50009704,82328722,1582,1582,1577,1577,0,0,0,0,0,0,0,0,0,0
1682161801.60005713,82428682,1582,1582,1578,1578,0,0,0,0,0,0,0,0,0,0
1682161801.70001698,82528642,1581,1581,1577,1578,0,0,0,0,0,0,0,0,0,0
1682161801.79997706,82628602,1582,1582,1578,1578,0,0,0,0,0,0,0,0,0,0
1682161801.89993715,82728562,1581,1581,1579,1579,0,0,0,0,0,0,0,0,0,0
1682161801.99989700,82828522,1580,1580,1579,1579,0,0,0,0,0,0,0,0,0,0
1682161802.09985709,82928482,1580,1581,1580,1580,0,0,0,0,0,0,0,0,0,0
1682161802.19981694,83028442,1580,1580,1580,1580,0,0,0,0,0,0,0,0,0,0
1682161802.29977703,83128402,1579,1579,1580,1580,0,0,0,0,0,0,0,0,0,0
1682161802.39973712,83228362,1579,1579,1580,1580,0,0,0,0,0,0,0,0,0,0
1682161802.49969697,83328322,1579,1579,1580,1581,0,0,0,0,0,0,0,0,0,0
1682161802.59965706,83428282,1579,1579,1581,1581,0,0,0,0,0,0,0,0,0,0
1682161802.69961715,83528242,1579,1579,1581,1581,0,0,0,0,0,0,0,0,0,0
1682161802.79957700,83628202,1580,1580,1582,1581,0,0,0,0,0,0,0,0,0,0
1682161802.89953709,83728162,1579,1579,1580,1580,0,0,0,0,0,0,0,0,0,0
1682161803.00032997,83828955,1581,1581,1581,1581,0,0,0,0,0,0,0,0,0,0
1682161803.10029006,83928915,1580,1581,1580,1580,0,0,0,0,0,0,0,0,0,0
1682161803.20025015,84028875,1417,1542,1414,1545,0,0,0,0,0,0,0,0,0,0
1682161803.30021000,84128835,1548,1556,1551,1549,0,0,0,0,0,0,0,0,0,0
1682161803.40017009,84228795,1650,1582,1647,1567,0,0,0,0,0,0,0,0,0,0
1682161803.50012994,84328755,1650,1567,1640,1560,0,0,0,0,0,0,0,0,0,0
1682161803.60009003,84428715,1650,1590,1644,1587,0,0,0,0,0,0,0,0,0,0
1682161803.70005012,84528675,1650,1608,1646,1604,0,0,0,0,0,0,0,0,0,0
1682161803.80000997,84628635,1649,1618,1650,1614,0,0,0,0,0,0,0,0,0,0
1682161803.89997005,84728595,1648,1628,1650,1620,0,0,0,0,0,0,0,0,0,0
1682161803.99993014,84828555,1650,1661,1647,1633,0,0,0,0,0,0,0,0,0,0
1682161804.09988999,84928515,1650,1695,1638,1646,0,0,0,0,0,0,0,0,0,0
1682161804.19985008,85028475,1650,1700,1630,1660,0,0,0,0,0,0,0,0,0,0
1682161804.29980993,85128435,1650,1679,1637,1677,0,0,0,0,0,0,0,0,0,0
1682161804.39977002,85228395,1650,1657,1649,1688,0,0,0,0,0,0,0,0,0,0
1682161804.49973011,85328355,1645,1634,1650,1675,0,0,0,0,0,0,0,0,0,0
1682161804.59968996,85428315,1650,1630,1643,1650,0,0,0,0,0,0,0,0,0,0
1682161804.69965005,85528275,1650,1633,1616,1605,0,0,0,0,0,0,0,0,0,0
1682161804.79961014,85628235,1650,1645,1574,1551,0,0,0,0,0,0,0,0,0,0
1682161804.89956999,85728195,1650,1672,1527,1513,0,0,0,0,0,0,0,0,0,0
1682161804.99953008,85828155,1650,1685,1509,1507,0,0,0,0,0,0,0,0,0,0
1682161805.10032296,85928948,1650,1665,1504,1510,0,0,0,0,0,0,0,0,0,0
1682161805.20028305,86028908,1650,1651,1514,1529,0,0,0,0,0,0,0,0,0,0
1682161805.30024314,86128868,1650,1642,1529,1549,0,0,0,0,0,0,0,0,0,0
1682161805.40020299,86228828,1648,1644,1554,1578,0,0,0,0,0,0,0,0,0,0
1682161805.50016308,86328788,1614,1594,1573,1588,0,0,0,0,0,0,0,0,0,0
1682161805.60012293,86428748,1603,1581,1575,1569,0,0,0,0,0,0,0,0,0,0
1682161805.70008302,86528708,1595,1583,1565,1553,0,0,0,0,0,0,0,0,0,0
1682161805.80004311,86628668,1580,1577,1559,1549,0,0,0,0,0,0,0,0,0,0
1682161805.90000296,86728628,1567,1568,1556,1551,0,0,0,0,0,0,0,0,0,0
1682161805.99996305,86828588,1557,1561,1554,1554,0,0,0,0,0,0,0,0,0,0
1682161806.09992313,86928548,1542,1542,1561,1570,0,0,0,0,0,0,0,0,0,0
1682161806.19988298,87028508,1512,1506,1587,1599,0,0,0,0,0,0,0,0,0,0
1682161806.29984307,87128468,1485,1479,1617,1623,0,0,0,0,0,0,0,0,0,0
1682161806.39980292,87228428,1470,1470,1637,1633,0,0,0,0,0,0,0,0,0,0
1682161806.49976301,87328388,1469,1476,1647,1634,0,0,0,0,0,0,0,0,0,0
1682161806.59972310,87428348,1478,1489,1646,1631,0,0,0,0,0,0,0,0,0,0
1682161806.69968295,87528308,1492,1502,1638,1625,0,0,0,0,0,0,0,0,0,0
1682161806.79964304,87628268,1506,1513,1625,1618,0,0,0,0,0,0,0,0,0,0
1682161806.89960313,87728228,1519,1522,1607,1608,0,0,0,0,0,0,0,0,0,0
1682161806.99956298,87828188,1532,1532,1590,1597,0,0,0,0,0,0,0,0,0,0
1682161807.10035610,87928981,1545,1543,1574,1586,0,0,0,0,0,0,0,0,0,0
1682161807.20031595,88028941,1558,1556,1561,1571,0,0,0,0,0,0,0,0,0,0
1682161807.30027604,88128901,1573,1572,1548,1555,0,0,0,0,0,0,0,0,0,0
1682161807.40023613,88228861,1588,1587,1538,1542,0,0,0,0,0,0,0,0,0,0
1682161807.50019598,88328821,1598,1597,1531,1532,0,0,0,0,0,0,0,0,0,0
1682161807.60015607,88428781,1606,1604,1529,1528,0,0,0,0,0,0,0,0,0,0
1682161807.70011592,88528741,1610,1607,1530,1530,0,0,0,0,0,0,0,0,0,0
1682161807.80007601,88628701,1610,1606,1535,1535,0,0,0,0,0,0,0,0,0,0
1682161807.90003610,88728661,1606,1601,1542,1541,0,0,0,0,0,0,0,0,0,0
1682161807.99999595,88828621,1600,1597,1552,1551,0,0,0,0,0,0,0,0,0,0
1682161808.09995604,88928581,1593,1591,1561,1560,0,0,0,0,0,0,0,0,0,0
1682161808.19991612,89028541,1585,1585,1572,1570,0,0,0,0,0,0,0,0,0,0
1682161808.29987597,89128501,1577,1579,1580,1578,0,0,0,0,0,0,0,0,0,0
1682161808.39983606,89228461,1571,1574,1587,1586,0,0,0,0,0,0,0,0,0,0
1682161808.49979615,89328421,1565,1570,1592,1590,0,0,0,0,0,0,0,0,0,0
1682161808.59975600,89428381,1564,1568,1595,1594,0,0,0,0,0,0,0,0,0,0
1682161808.69971609,89528341,1562,1566,1595,1594,0,0,0,0,0,0,0,0,0,0
1682161808.79967594,89628301,1562,1565,1594,1593,0,0,0,0,0,0,0,0,0,0
1682161808.89963603,89728261,1565,1566,1591,1591,0,0,0,0,0,0,0,0,0,0
1682161808.99959612,89828221,1569,1569,1589,1589,0,0,0,0,0,0,0,0,0,0
1682161809.09955597,89928181,1573,1572,1585,1585,0,0,0,0,0,0,0,0,0,0
1682161809.20034909,90028974,1576,1575,1581,1581,0,0,0,0,0,0,0,0,0,0
1682161809.30030894,90128934,1579,1578,1578,1578,0,0,0,0,0,0,0,0,0,0
1682161809.40026903,90228894,1582,1581,1574,1575,0,0,0,0,0,0,0,0,0,0
1682161809.50022912,90328854,1584,1583,1572,1573,0,0,0,0,0,0,0,0,0,0
1682161809.60018897,90428814,1586,1584,1571,1571,0,0,0,0,0,0,0,0,0,0
1682161809.70014906,90528774,1585,1584,1569,1570,0,0,0,0,0,0,0,0,0,0
1682161809.80010915,90628734,1586,1584,1570,1571,0,0,0,0,0,0,0,0,0,0
1682161809.90006900,90728694,1585,1585,1572,1572,0,0,0,0,0,0,0,0,0,0
1682161810.00002909,90828654,1584,1584,1574,1574,0,0,0,0,0,0,0,0,0,0
1682161810.09998894,90928614,1583,1583,1576,1576,0,0,0,0,0,0,0,0,0,0
1682161810.19994903,91028574,1582,1582,1578,1577,0,0,0,0,0,0,0,0,0,0
1682161810.29990911,91128534,1580,1580,1580,1579,0,0,0,0,0,0,0,0,0,0
1682161810.39986897,91228494,1580,1580,1582,1582,0,0,0,0,0,0,0,0,0,0
1682161810.49982905,91328454,1579,1579,1583,1583,0,0,0,0,0,0,0,0,0,0
1682161810.59978914,91428414,1578,1578,1584,1583,0,0,0,0,0,0,0,0,0,0
1682161810.69974899,91528374,1578,1579,1585,1584,0,0,0,0,0,0,0,0,0,0
1682161810.79970908,91628334,1577,1578,1584,1584,0,0,0,0,0,0,0,0,0,0
1682161810.89966893,91728294,1578,1579,1584,1585,0,0,0,0,0,0,0,0,0,0
1682161810.99962902,91828254,1578,1579,1583,1583,0,0,0,0,0,0,0,0,0,0
1682161811.09958911,91928214,1579,1579,1582,1582,0,0,0,0,0,0,0,0,0,0
1682161811.19954896,92028174,1579,1579,1581,1581,0,0,0,0,0,0,0,0,0,0
1682161811.30034208,92128967,1581,1580,1581,1581,0,0,0,0,0,0,0,0,0,0
1682161811.40030193,92228927,1581,1580,1580,1580,0,0,0,0,0,0,0,0,0,0
1682161811.50026202,92328887,1582,1581,1580,1580,0,0,0,0,0,0,0,0,0,0
1682161811.60022211,92428847,1582,1582,1579,1580,0,0,0,0,0,0,0,0,0,0
1682161811.70018196,92528807,1583,1582,1580,1579,0,0,0,0,0,0,0,0,0,0
1682161811.80014205,92628767,1582,1583,1580,1579,0,0,0,0,0,0,0,0,0,0
1682161811.90010214,92728727,1583,1583,1586,1573,0,0,0,0,0,0,0,0,0,0
1682161812.00006199,92828687,1581,1582,1584,1572,0,0,0,0,0,0,0,0,0,0
1682161812.10002208,92928647,1578,1581,1578,1573,0,0,0,0,0,0,0,0,0,0
1682161812.19998193,93028607,1576,1579,1570,1572,0,0,0,0,0,0,0,0,0,0
1682161812.29994202,93128567,1573,1576,1563,1569,0,0,0,0,0,0,0,0,0,0
1682161812.39990211,93228527,1573,1575,1558,1565,0,0,0,0,0,0,0,0,0,0
1682161812.49986196,93328487,1574,1575,1557,1562,0,0,0,0,0,0,0,0,0,0
1682161812.59982204,93428447,1576,1575,1557,1560,0,0,0,0,0,0,0,0,0,0
1682161812.69978213,93528407,1576,1575,1556,1556,0,0,0,0,0,0,0,0,0,0
1682161812.79974198,93628367,1576,1575,1556,1554,0,0,0,0,0,0,0,0,0,0
1682161812.89970207,93728327,1576,1577,1557,1554,0,0,0,0,0,0,0,0,0,0
1682161812.99966192,93828287,1577,1577,1558,1555,0,0,0,0,0,0,0,0,0,0
1682161813.09962201,93928247,1576,1576,1556,1554,0,0,0,0,0,0,0,0,0,0
1682161813.19958210,94028207,1576,1577,1555,1554,0,0,0,0,0,0,0,0,0,0
1682161813.29954195,94128167,1576,1578,1554,1554,0,0,0,0,0,0,0,0,0,0
1682161813.40033507,94228960,1576,1577,1551,1551,0,0,0,0,0,0,0,0,0,0
1682161813.50029492,94328920,1578,1579,1550,1550,0,0,0,0,0,0,0,0,0,0
1682161813.60025501,94428880,1579,1580,1548,1547,0,0,0,0,0,0,0,0,0,0
1682161813.70021510,94528840,1581,1582,1545,1545,0,0,0,0,0,0,0,0,0,0
1682161813.80017495,94628800,1583,1584,1543,1542,0,0,0,0,0,0,0,0,0,0
1682161813.90013504,94728760,1586,1587,1541,1540,0,0,0,0,0,0,0,0,0,0
1682161814.00009513,94828720,1590,1590,1538,1539,0,0,0,0,0,0,0,0,0,0
1682161814.10005498,94928680,1593,1592,1537,1538,0,0,0,0,0,0,0,0,0,0
1682161814.20001507,95028640,1595,1593,1536,1537,0,0,0,0,0,0,0,0,0,0
1682161814.29997492,95128600,1595,1594,1536,1538,0,0,0,0,0,0,0,0,0,0
1682161814.39993501,95228560,1594,1594,1537,1539,0,0,0,0,0,0,0,0,0,0
1682161814.49989510,95328520,1593,1591,1540,1543,0,0,0,0,0,0,0,0,0,0
1682161814.59985495,95428480,1590,1589,1545,1549,0,0,0,0,0,0,0,0,0,0
1682161814.69981503,95528440,1585,1581,1552,1555,0,0,0,0,0,0,0,0,0,0
1682161814.79977512,95628400,1578,1574,1561,1565,0,0,0,0,0,0,0,0,0,0
1682161814.89973497,95728360,1568,1564,1572,1574,0,0,0,0,0,0,0,0,0,0
1682161814.99969506,95828320,1558,1555,1583,1585,0,0,0,0,0,0,0,0,0,0
1682161815.09965515,95928280,1549,1547,1595,1595,0,0,0,0,0,0,0,0,0,0
1682161815.19961500,96028240,1540,1541,1604,1603,0,0,0,0,0,0,0,0,0,0
1682161815.29957509,96128200,1535,1538,1611,1609,0,0,0,0,0,0,0,0,0,0
1682161815.39953494,96228160,1532,1536,1615,1612,0,0,0,0,0,0,0,0,0,0
1682161815.50032806,96328953,1533,1537,1615,1612,0,0,0,0,0,0,0,0,0,0
1682161815.60028815,96428913,1538,1542,1613,1611,0,0,0,0,0,0,0,0,0,0
1682161815.70024800,96528873,1543,1544,1608,1607,0,0,0,0,0,0,0,0,0,0
1682161815.80020809,96628833,1549,1549,1601,1601,0,0,0,0,0,0,0,0,0,0
1682161815.90016794,96728793,1556,1555,1595,1595,0,0,0,0,0,0,0,0,0,0
1682161816.00012803,96828753,1563,1561,1587,1588,0,0,0,0,0,0,0,0,0,0
1682161816.10008812,96928713,1569,1567,1580,1580,0,0,0,0,0,0,0,0,0,0
1682161816.20004797,97028673,1575,1573,1574,1574,0,0,0,0,0,0,0,0,0,0
1682161816.30000806,97128633,1579,1577,1568,1569,0,0,0,0,0,0,0,0,0,0
1682161816.39996815,97228593,1583,1581,1565,1566,0,0,0,0,0,0,0,0,0,0
1682161816.49992800,97328553,1585,1583,1563,1564,0,0,0,0,0,0,0,0,0,0
1682161816.59988809,97428513,1585,1583,1562,1563,0,0,0,0,0,0,0,0,0,0
1682161816.69984794,97528473,1585,1584,1564,1565,0,0,0,0,0,0,0,0,0,0
1682161816.79980803,97628433,1585,1583,1567,1568,0,0,0,0,0,0,0,0,0,0
1682161816.89976811,97728393,1583,1582,1571,1571,0,0,0,0,0,0,0,0,0,0
1682161816.99972796,97828353,1581,1581,1574,1573,0,0,0,0,0,0,0,0,0,0
1682161817.09968805,97928313,1579,1579,1578,1577,0,0,0,0,0,0,0,0,0,0
1682161817.19964814,98028273,1576,1577,1580,1579,0,0,0,0,0,0,0,0,0,0
1682161817.29960799,98128233,1575,1576,1582,1582,0,0,0,0,0,0,0,0,0,0
1682161817.39956808,98228193,1574,1575,1584,1584,0,0,0,0,0,0,0,0,0,0
1682161817.50036097,98328986,1573,1574,1585,1584,0,0,0,0,0,0,0,0,0,0
1682161817.60032105,98428946,1573,1574,1584,1584,0,0,0,0,0,0,0,0,0,0
1682161817.70028114,98528906,1573,1574,1584,1584,0,0,0,0,0,0,0,0,0,0
1682161817.80024099,98628866,1574,1574,1583,1583,0,0,0,0,0,0,0,0,0,0
1682161817.90020108,98728826,1574,1575,1582,1582,0,0,0,0,0,0,0,0,0,0
1682161818.00016093,98828786,1577,1577,1581,1581,0,0,0,0,0,0,0,0,0,0
1682161818.10012102,98928746,1578,1578,1580,1580,0,0,0,0,0,0,0,0,0,0
1682161818.20008111,99028706,1580,1579,1579,1579,0,0,0,0,0,0,0,0,0,0
1682161818.30004096,99128666,1581,1580,1578,1578,0,0,0,0,0,0,0,0,0,0
1682161818.40000105,99228626,1582,1581,1578,1578,0,0,0,0,0,0,0,0,0,0
1682161818.49996114,99328586,1582,1581,1577,1577,0,0,0,0,0,0,0,0,0,0
1682161818.59992099,99428546,1581,1581,1576,1576,0,0,0,0,0,0,0,0,0,0
1682161818.69988108,99528506,1581,1581,1576,1577,0,0,0,0,0,0,0,0,0,0
1682161818.79984093,99628466,1582,1581,1577,1577,0,0,0,0,0,0,0,0,0,0
1682161818.89980102,99728426,1582,1582,1579,1579,0,0,0,0,0,0,0,0,0,0
1682161818.99976110,99828386,1582,1582,1580,1580,0,0,0,0,0,0,0,0,0,0
1682161819.09972095,99928346,1581,1581,1581,1580,0,0,0,0,0,0,0,0,0,0
1682161819.19968104,100028306,1581,1581,1581,1580,0,0,0,0,0,0,0,0,0,0
1682161819.29964113,100128266,1581,1581,1582,1582,0,0,0,0,0,0,0,0,0,0
1682161819.39960098,100228226,1580,1580,1581,1581,0,0,0,0,0,0,0,0,0,0
1682161819.49956107,100328186,1579,1579,1581,1581,0,0,0,0,0,0,0,0,0,0
1682161819.60035396,100428979,1580,1580,1582,1582,0,0,0,0,0,0,0,0,0,0
1682161819.70031404,100528939,1580,1579,1581,1582,0,0,0,0,0,0,0,0,0,0
1682161819.80027413,100628899,1579,1578,1580,1580,0,0,0,0,0,0,0,0,0,0
1682161819.90023398,100728859,1579,1579,1581,1580,0,0,0,0,0,0,0,0,0,0
1682161820.00019407,100828819,1580,1581,1584,1575,0,0,0,0,0,0,0,0,0,0
1682161820.10015392,100928779,1579,1580,1585,1571,0,0,0,0,0,0,0,0,0,0
1682161820.20011401,101028739,1578,1578,1581,1573,0,0,0,0,0,0,0,0,0,0
1682161820.30007410,101128699,1576,1575,1575,1575,0,0,0,0,0,0,0,0,0,0
1682161820.40003395,101228659,1572,1570,1568,1573,0,0,0,0,0,0,0,0,0,0
1682161820.49999404,101328619,1569,1567,1564,1571,0,0,0,0,0,0,0,0,0,0
1682161820.59995413,101428579,1567,1567,1563,1569,0,0,0,0,0,0,0,0,0,0
1682161820.69991398,101528539,1565,1566,1563,1567,0,0,0,0,0,0,0,0,0,0
1682161820.79987407,101628499,1566,1567,1565,1565,0,0,0,0,0,0,0,0,0,0
1682161820.89983392,101728459,1566,1566,1566,1564,0,0,0,0,0,0,0,0,0,0
1682161820.99979401,101828419,1566,1567,1567,1564,0,0,0,0,0,0,0,0,0,0
1682161821.09975410,101928379,1565,1566,1567,1564,0,0,0,0,0,0,0,0,0,0
1682161821.19971395,102028339,1565,1565,1566,1564,0,0,0,0,0,0,0,0,0,0
1682161821.29967403,102128299,1564,1563,1564,1564,0,0,0,0,0,0,0,0,0,0
1682161821.39963412,102228259,1563,1563,1563,1564,0,0,0,0,0,0,0,0,0,0
1682161821.49959397,102328219,1563,1563,1563,1564,0,0,0,0,0,0,0,0,0,0
1682161821.59955406,102428179,1562,1562,1563,1563,0,0,0,0,0,0,0,0,0,0
1682161821.70034695,102528972,1562,1562,1563,1562,0,0,0,0,0,0,0,0,0,0
1682161821.80030704,102628932,1562,1561,1562,1562,0,0,0,0,0,0,0,0,0,0
1682161821.90026712,102728892,1561,1561,1562,1561,0,0,0,0,0,0,0,0,0,0
1682161822.00022697,102828852,1560,1560,1561,1559,0,0,0,0,0,0,0,0,0,0
1682161822.10018706,102928812,1560,1560,1561,1559,0,0,0,0,0,0,0,0,0,0
1682161822.20014715,103028772,1559,1560,1560,1559,0,0,0,0,0,0,0,0,0,0
1682161822.30010700,103128732,1559,1560,1560,1559,0,0,0,0,0,0,0,0,0,0
1682161822.40006709,103228692,1559,1559,1559,1558,0,0,0,0,0,0,0,0,0,0
1682161822.50002694,103328652,1559,1558,1559,1557,0,0,0,0,0,0,0,0,0,0
1682161822.59998703,103428612,1560,1559,1560,1559,0,0,0,0,0,0,0,0,0,0
1682161822.69994712,103528572,1559,1559,1560,1557,0,0,0,0,0,0,0,0,0,0
1682161822.79990697,103628532,1559,1559,1560,1559,0,0,0,0,0,0,0,0,0,0
1682161822.89986706,103728492,1559,1560,1559,1561,0,0,0,0,0,0,0,0,0,0
1682161822.99982715,103828452,1560,1560,1558,1563,0,0,0,0,0,0,0,0,0,0
1682161823.09978700,103928412,1560,1561,1558,1564,0,0,0,0,0,0,0,0,0,0
1682161823.19974709,104028372,1561,1561,1558,1563,0,0,0,0,0,0,0,0,0,0
1682161823.29970694,104128332,1561,1561,1560,1562,0,0,0,0,0,0,0,0,0,0
1682161823.39966702,104228292,1561,1561,1561,1560,0,0,0,0,0,0,0,0,0,0
1682161823.49962711,104328252,1560,1560,1561,1558,0,0,0,0,0,0,0,0,0,0
1682161823.59958696,104428212,1560,1560,1561,1558,0,0,0,0,0,0,0,0,0,0
1682161823.69954705,104528172,1558,1557,1556,1559,0,0,0,0,0,0,0,0,0,0
1682161823.80033994,104628965,1554,1553,1552,1555,0,0,0,0,0,0,0,0,0,0
1682161823.90030003,104728925,1549,1548,1547,1550,0,0,0,0,0,0,0,0,0,0
1682161824.00026011,104828885,1543,1543,1543,1543,0,0,0,0,0,0,0,0,0,0
1682161824.10021996,104928845,1537,1537,1537,1536,0,0,0,0,0,0,0,0,0,0
1682161824.20018005,105028805,1530,1530,1531,1529,0,0,0,0,0,0,0,0,0,0
1682161824.30014014,105128765,1523,1523,1524,1523,0,0,0,0,0,0,0,0,0,0
1682161824.40009999,105228725,1519,1521,1520,1521,0,0,0,0,0,0,0,0,0,0
1682161824.50006008,105328685,1518,1520,1518,1520,0,0,0,0,0,0,0,0,0,0
1682161824.60001993,105428645,1519,1521,1519,1522,0,0,0,0,0,0,0,0,0,0
1682161824.69998002,105528605,1521,1523,1521,1524,0,0,0,0,0,0,0,0,0,0
1682161824.79994011,105628565,1525,1525,1525,1526,0,0,0,0,0,0,0,0,0,0
1682161824.89989996,105728525,1529,1529,1530,1529,0,0,0,0,0,0,0,0,0,0
1682161824.99986005,105828485,1534,1534,1535,1533,0,0,0,0,0,0,0,0,0,0
1682161825.09982014,105928445,1538,1537,1538,1537,0,0,0,0,0,0,0,0,0,0
1682161825.19977999,106028405,1541,1540,1541,1539,0,0,0,0,0,0,0,0,0,0
1682161825.29974008,106128365,1544,1542,1544,1542,0,0,0,0,0,0,0,0,0,0
1682161825.39969993,106228325,1545,1544,1545,1544,0,0,0,0,0,0,0,0,0,0
1682161825.49966002,106328285,1545,1545,1546,1545,0,0,0,0,0,0,0,0,0,0
1682161825.59962010,106428245,1546,1546,1546,1545,0,0,0,0,0,0,0,0,0,0
1682161825.69957995,106528205,1547,1547,1547,1547,0,0,0,0,0,0,0,0,0,0
1682161825.79954004,106628165,1546,1547,1546,1546,0,0,0,0,0,0,0,0,0,0
1682161825.90033293,106728958,1546,1546,1546,1546,0,0,0,0,0,0,0,0,0,0
1682161826.00029302,106828918,1546,1547,1546,1546,0,0,0,0,0,0,0,0,0,0
1682161826.10025311,106928878,1546,1546,1546,1546,0,0,0,0,0,0,0,0,0,0
1682161826.20021296,107028838,1545,1546,1546,1546,0,0,0,0,0,0,0,0,0,0
1682161826.30017304,107128798,1546,1546,1545,1546,0,0,0,0,0,0,0,0,0,0
1682161826.40013313,107228758,1545,1545,1545,1545,0,0,0,0,0,0,0,0,0,0
1682161826.50009298,107328718,1545,1545,1545,1545,0,0,0,0,0,0,0,0,0,0
1682161826.60005307,107428678,1545,1545,1545,1545,0,0,0,0,0,0,0,0,0,0
1682161826.70001292,107528638,1544,1544,1545,1544,0,0,0,0,0,0,0,0,0,0
1682161826.79997301,107628598,1544,1544,1544,1544,0,0,0,0,0,0,0,0,0,0
1682161826.89993310,107728558,1544,1544,1544,1544,0,0,0,0,0,0,0,0,0,0
1682161826.99989295,107828518,1543,1544,1543,1544,0,0,0,0,0,0,0,0,0,0
1682161827.09985304,107928478,1544,1543,1544,1544,0,0,0,0,0,0,0,0,0,0
1682161827.19981313,108028438,1544,1544,1544,1544,0,0,0,0,0,0,0,0,0,0
1682161827.29977298,108128398,1544,1544,1544,1544,0,0,0,0,0,0,0,0,0,0
1682161827.39973307,108228358,1544,1544,1544,1543,0,0,0,0,0,0,0,0,0,0
1682161827.49969316,108328318,1544,1543,1544,1544,0,0,0,0,0,0,0,0,0,0
1682161827.59965301,108428278,1544,1544,1544,1544,0,0,0,0,0,0,0,0,0,0
1682161827.69961309,108528238,1543,1543,1543,1543,0,0,0,0,0,0,0,0,0,0
1682161827.79957294,108628198,1543,1544,1543,1543,0,0,0,0,0,0,0,0,0,0
1682161827.89953303,108728158,1544,1544,1544,1544,0,0,0,0,0,0,0,0,0,0
1682161828.00032592,108828951,1544,1544,1544,1544,0,0,0,0,0,0,0,0,0,0
1682161828.10028601,108928911,1544,1543,1543,1543,0,0,0,0,0,0,0,0,0,0
1682161828.20024610,109028871,1543,1543,1543,1543,0,0,0,0,0,0,0,0,0,0
1682161828.30020595,109128831,1544,1544,1544,1544,0,0,0,0,0,0,0,0,0,0
1682161828.40016603,109228791,1544,1544,1544,1544,0,0,0,0,0,0,0,0,0,0
1682161828.50012612,109328751,1545,1544,1544,1545,0,0,0,0,0,0,0,0,0,0
1682161828.60008597,109428711,1543,1544,1544,1543,0,0,0,0,0,0,0,0,0,0
1682161828.70004606,109528671,1544,1544,1544,1544,0,0,0,0,0,0,0,0,0,0
1682161828.80000615,109628631,1545,1545,1545,1545,0,0,0,0,0,0,0,0,0,0
1682161828.89996600,109728591,1545,1545,1545,1544,0,0,0,0,0,0,0,0,0,0
1682161828.99992609,109828551,1544,1544,1545,1544,0,0,0,0,0,0,0,0,0,0
1682161829.09988594,109928511,1545,1544,1544,1545,0,0,0,0,0,0,0,0,0,0
1682161829.19984603,110028471,1544,1544,1544,1544,0,0,0,0,0,0,0,0,0,0
1682161829.29980612,110128431,1544,1544,1544,1545,0,0,0,0,0,0,0,0,0,0
1682161829.39976597,110228391,1545,1545,1545,1545,0,0,0,0,0,0,0,0,0,0
1682161829.49972606,110328351,1545,1544,1544,1545,0,0,0,0,0,0,0,0,0,0
1682161829.59968615,110428311,1545,1545,1545,1545,0,0,0,0,0,0,0,0,0,0
1682161829.69964600,110528271,1545,1544,1544,1544,0,0,0,0,0,0,0,0,0,0
1682161829.79960608,110628231,1545,1545,1545,1544,0,0,0,0,0,0,0,0,0,0
1682161829.89956594,110728191,1545,1545,1545,1545,0,0,0,0,0,0,0,0,0,0
1682161830.00035906,110828984,1545,1545,1545,1545,0,0,0,0,0,0,0,0,0,0
1682161830.10031915,110928944,1545,1545,1545,1545,0,0,0,0,0,0,0,0,0,0
1682161830.20027900,111028904,1545,1545,1545,1545,0,0,0,0,0,0,0,0,0,0
1682161830.30023909,111128864,1544,1543,1544,1544,0,0,0,0,0,0,0,0,0,0
1682161830.40019894,111228824,1544,1543,1543,1543,0,0,0,0,0,0,0,0,0,0
1682161830.50015903,111328784,1544,1544,1544,1544,0,0,0,0,0,0,0,0,0,0
1682161830.60011911,111428744,1544,1545,1544,1545,0,0,0,0,0,0,0,0,0,0
1682161830.70007896,111528704,1544,1545,1544,1545,0,0,0,0,0,0,0,0,0,0
1682161830.80003905,111628664,1544,1545,1544,1545,0,0,0,0,0,0,0,0,0,0
1682161830.89999914,111728624,1544,1544,1544,1544,0,0,0,0,0,0,0,0,0,0
1682161830.99995899,111828584,1545,1545,1545,1544,0,0,0,0,0,0,0,0,0,0
1682161831.09991908,111928544,1544,1544,1544,1544,0,0,0,0,0,0,0,0,0,0
1682161831.19987893,112028504,1544,1543,1544,1543,0,0,0,0,0,0,0,0,0,0
1682161831.29983902,112128464,1544,1543,1543,1543,0,0,0,0,0,0,0,0,0,0
1682161831.39979911,112228424,1544,1545,1544,1544,0,0,0,0,0,0,0,0,0,0
1682161831.49975896,112328384,1544,1545,1544,1545,0,0,0,0,0,0,0,0,0,0
1682161831.59971905,112428344,1544,1545,1544,1545,0,0,0,0,0,0,0,0,0,0
1682161831.69967914,112528304,1545,1544,1545,1545,0,0,0,0,0,0,0,0,0,0
1682161831.79963899,112628264,1545,1544,1544,1545,0,0,0,0,0,0,0,0,0,0
1682161831.89959908,112728224,1544,1543,1544,1543,0,0,0,0,0,0,0,0,0,0
1682161831.99955893,112828184,1544,1545,1545,1544,0,0,0,0,0,0,0,0,0,0
1682161832.10035205,112928977,1544,1544,1544,1544,0,0,0,0,0,0,0,0,0,0
1682161832.20031214,113028937,1544,1545,1545,1544,0,0,0,0,0,0,0,0,0,0
1682161832.30027199,113128897,1544,1544,1544,1544,0,0,0,0,0,0,0,0,0,0
1682161832.40023208,113228857,1544,1544,1544,1545,0,0,0,0,0,0,0,0,0,0
1682161832.50019193,113328817,1544,1543,1543,1544,0,0,0,0,0,0,0,0,0,0
1682161832.60015202,113428777,1543,1544,1544,1543,0,0,0,0,0,0,0,0,0,0
1682161832.70011210,113528737,1544,1545,1544,1545,0,0,0,0,0,0,0,0,0,0
1682161832.80007195,113628697,1544,1544,1544,1544,0,0,0,0,0,0,0,0,0,0
1682161832.90003204,113728657,1544,1544,1544,1544,0,0,0,0,0,0,0,0,0,0
1682161832.99999213,113828617,1545,1545,1545,1544,0,0,0,0,0,0,0,0,0,0
1682161833.09995198,113928577,1545,1544,1544,1544,0,0,0,0,0,0,0,0,0,0
1682161833.19991207,114028537,1544,1544,1544,1543,0,0,0,0,0,0,0,0,0,0
1682161833.29987192,114128497,1544,1544,1544,1544,0,0,0,0,0,0,0,0,0,0
1682161833.39983201,114228457,1544,1544,1544,1543,0,0,0,0,0,0,0,0,0,0
1682161833.49979210,114328417,1543,1543,1543,1543,0,0,0,0,0,0,0,0,0,0
1682161833.59975195,114428377,1544,1545,1544,1545,0,0,0,0,0,0,0,0,0,0
1682161833.69971204,114528337,1545,1545,1545,1545,0,0,0,0,0,0,0,0,0,0
1682161833.79967213,114628297,1544,1545,1545,1545,0,0,0,0,0,0,0,0,0,0
1682161833.89963198,114728257,1545,1544,1544,1545,0,0,0,0,0,0,0,0,0,0
1682161833.99959207,114828217,1545,1545,1545,1545,0,0,0,0,0,0,0,0,0,0
1682161834.09955215,114928177,1462,1428,1463,1427,0,0,0,0,0,0,0,0,0,0
1682161834.20034504,115028970,1371,1283,1371,1282,0,0,0,0,0,0,0,0,0,0
1682161834.30030513,115128930,1340,1226,1340,1226,0,0,0,0,0,0,0,0,0,0
1682161834.40026498,115228890,1329,1206,1329,1205,0,0,0,0,0,0,0,0,0,0
1682161834.50022507,115328850,1310,1169,1311,1169,0,0,0,0,0,0,0,0,0,0
1682161834.60018492,115428810,1284,1151,1285,1150,0,0,0,0,0,0,0,0,0,0
1682161834.70014501,115528770,1170,1150,1170,1150,0,0,0,0,0,0,0,0,0,0
1682161834.80010509,115628730,1060,1150,1060,1150,0,0,0,0,0,0,0,0,0,0
1682161834.90006495,115728690,1022,1150,1022,1150,0,0,0,0,0,0,0,0,0,0
1682161835.00002503,115828650,1022,1150,1022,1150,0,0,0,0,0,0,0,0,0,0
1682161835.09998512,115928610,1022,1150,1022,1150,0,0,0,0,0,0,0,0,0,0
1682161835.19994497,116028570,1022,1150,1014,1161,0,0,0,0,0,0,0,0,0,0
1682161835.29990506,116128530,1022,1150,1017,1157,0,0,0,0,0,0,0,0,0,0
1682161835.39986515,116228490,1022,1150,1018,1155,0,0,0,0,0,0,0,0,0,0
1682161835.49982500,116328450,1022,1150,1018,1155,0,0,0,0,0,0,0,0,0,0
1682161835.59978509,116428410,1022,1150,1018,1155,0,0,0,0,0,0,0,0,0,0
1682161835.69974494,116528370,1022,1150,1018,1156,0,0,0,0,0,0,0,0,0,0
1682161835.79970503,116628330,1022,1150,1017,1156,0,0,0,0,0,0,0,0,0,0
1682161835.89966512,116728290,1022,1150,1017,1157,0,0,0,0,0,0,0,0,0,0
1682161835.99962497,116828250,1022,1150,1020,1152,0,0,0,0,0,0,0,0,0,0
1682161836.09958506,116928210,1022,1150,1020,1153,0,0,0,0,0,0,0,0,0,0
1682161836.19954515,117028170,1022,1150,1020,1153,0,0,0,0,0,0,0,0,0,0
1682161836.30033803,117128963,1022,1150,1020,1153,0,0,0,0,0,0,0,0,0,0
1682161836.40029812,117228923,952,1150,951,1152,0,0,0,0,0,0,0,0,0,0
1682161836.50025797,117328883,1000,1000,1000,1000,0,0,0,0,0,0,0,0,0,0
1682161836.60021806,117428843,1000,1000,1000,1000,0,0,0,0,0,0,0,0,0,0
1682161836.70017815,117528803,1000,1000,1000,1000,0,0,0,0,0,0,0,0,0,0
1682161836.80013800,117628763,1000,1000,1000,1000,0,0,0,0,0,0,0,0,0,0
1682161836.90009809,117728723,1000,1000,1000,1000,0,0,0,0,0,0,0,0,0,0
1682161837.00005794,117828683,1000,1000,1000,1000,0,0,0,0,0,0,0,0,0,0
1682161837.10001802,117928643,1000,1000,1000,1000,0,0,0,0,0,0,0,0,0,0
1682161837.19997811,118028603,1000,1000,1000,1000,0,0,0,0,0,0,0,0,0,0
1682161837.29993796,118128563,1000,1000,1000,1000,0,0,0,0,0,0,0,0,0,0
1682161837.39989805,118228523,1000,1000,1000,1000,0,0,0,0,0,0,0,0,0,0
1682161837.49985814,118328483,1000,1000,1000,1000,0,0,0,0,0,0,0,0,0,0
1682161837.59981799,118428443,1000,1000,1000,1000,0,0,0,0,0,0,0,0,0,0
1682161837.69977808,118528403,1000,1000,1000,1000,0,0,0,0,0,0,0,0,0,0
1682161837.79973793,118628363,1000,1000,1000,1000,0,0,0,0,0,0,0,0,0,0
1682161837.89969802,118728323,1000,1000,1000,1000,0,0,0,0,0,0,0,0,0,0
1682161837.99965811,118828283,1000,1000,1000,1000,0,0,0,0,0,0,0,0,0,0
1682161838.09961796,118928243,1000,1000,1000,1000,0,0,0,0,0,0,0,0,0,0
1682161838.19957805,119028203,1000,1000,1000,1000,0,0,0,0,0,0,0,0,0,0
1682161838.29953814,119128163,1000,1000,1000,1000,0,0,0,0,0,0,0,0,0,0
1682161838.40033102,119228956,1000,1000,1000,1000,0,0,0,0,0,0,0,0,0,0
1682161838.50029111,119328916,1000,1000,1000,1000,0,0,0,0,0,0,0,0,0,0
1682161838.60025096,119428876,1000,1000,1000,1000,0,0,0,0,0,0,0,0,0,0
1682161838.70021105,119528836,1000,1000,1000,1000,0,0,0,0,0,0,0,0,0,0
1682161838.80017114,119628796,1000,1000,1000,1000,0,0,0,0,0,0,0,0,0,0
1682161838.90013099,119728756,1000,1000,1000,1000,0,0,0,0,0,0,0,0,0,0
1682161839.00009108,119828716,1000,1000,1000,1000,0,0,0,0,0,0,0,0,0,0
1682161839.10005093,119928676,1000,1000,1000,1000,0,0,0,0,0,0,0,0,0,0
1682161839.20001101,120028636,1000,1000,1000,1000,0,0,0,0,0,0,0,0,0,0
1682161839.29997110,120128596,1000,1000,1000,1000,0,0,0,0,0,0,0,0,0,0
1682161839.39993095,120228556,1000,1000,1000,1000,0,0,0,0,0,0,0,0,0,0
1682161839.49989104,120328516,1000,1000,1000,1000,0,0,0,0,0,0,0,0,0,0
1682161839.59985113,120428476,1000,1000,1000,1000,0,0,0,0,0,0,0,0,0,0
1682161839.69981098,120528436,1000,1000,1000,1000,0,0,0,0,0,0,0,0,0,0
1682161839.79977107,120628396,1000,1000,1000,1000,0,0,0,0,0,0,0,0,0,0
1682161839.89973092,120728356,1000,1000,1000,1000,0,0,0,0,0,0,0,0,0,0
1682161839.99969101,120828316,1000,1000,1000,1000,0,0,0,0,0,0,0,0,0,0
1682161840.09965110,120928276,1000,1000,1000,1000,0,0,0,0,0,0,0,0,0,0
1682161840.19961095,121028236,1000,1000,1000,1000,0,0,0,0,0,0,0,0,0,0
1682161840.29957104,121128196,1000,1000,1000,1000,0,0,0,0,0,0,0,0,0,0
1682161840.39953113,121228156,1000,1000,1000,1000,0,0,0,0,0,0,0,0,0,0
1682161840.50032401,121328949,1000,1000,1000,1000,0,0,0,0,0,0,0,0,0,0
1682161840.60028410,121428909,1000,1000,1000,1000,0,0,0,0,0,0,0,0,0,0
1682161840.70024395,121528869,1000,1000,1000,1000,0,0,0,0,0,0,0,0,0,0
1682161840.80020404,121628829,1000,1000,1000,1000,0,0,0,0,0,0,0,0,0,0
1682161840.90016413,121728789,1000,1000,1000,1000,0,0,0,0,0,0,0,0,0,0
1682161841.00012398,121828749,1000,1000,1000,1000,0,0,0,0,0,0,0,0,0,0
1682161841.10008407,121928709,1000,1000,1000,1000,0,0,0,0,0,0,0,0,0,0
1682161841.20004416,122028669,1000,1000,1000,1000,0,0,0,0,0,0,0,0,0,0
1682161841.30000401,122128629,1000,1000,1000,1000,0,0,0,0,0,0,0,0,0,0
1682161841.39996409,122228589,1000,1000,1000,1000,0,0,0,0,0,0,0,0,0,0
1682161841.49992394,122328549,1000,1000,1000,1000,0,0,0,0,0,0,0,0,0,0
1682161841.59988403,122428509,1000,1000,1000,1000,0,0,0,0,0,0,0,0,0,0
1682161841.69984412,122528469,1000,1000,1000,1000,0,0,0,0,0,0,0,0,0,0
1682161841.79980397,122628429,1000,1000,1000,1000,0,0,0,0,0,0,0,0,0,0
1682161841.89976406,122728389,1000,1000,1000,1000,0,0,0,0,0,0,0,0,0,0
1682161841.99972415,122828349,1000,1000,1000,1000,0,0,0,0,0,0,0,0,0,0
1682161842.09968400,122928309,1000,1000,1000,1000,0,0,0,0,0,0,0,0,0,0
1682161842.19964409,123028269,1000,1000,1000,1000,0,0,0,0,0,0,0,0,0,0
1682161842.29960394,123128229,1000,1000,1000,1000,0,0,0,0,0,0,0,0,0,0
1682161842.39956403,123228189,1000,1000,1000,1000,0,0,0,0,0,0,0,0,0,0
1682161842.50035715,123328982,1000,1000,1000,1000,0,0,0,0,0,0,0,0,0,0
1682161842.60031700,123428942,1000,1000,1000,1000,0,0,0,0,0,0,0,0,0,0
1682161842.70027709,123528902,1000,1000,1000,1000,0,0,0,0,0,0,0,0,0,0
1682161842.80023694,123628862,1000,1000,1000,1000,0,0,0,0,0,0,0,0,0,0
1682161842.90019703,123728822,1000,1000,1000,1000,0,0,0,0,0,0,0,0,0,0
1682161843.00015712,123828782,1000,1000,1000,1000,0,0,0,0,0,0,0,0,0,0
1682161843.10011697,123928742,1000,1000,1000,1000,0,0,0,0,0,0,0,0,0,0
1682161843.20007706,124028702,1000,1000,1000,1000,0,0,0,0,0,0,0,0,0,0
1682161843.30003715,124128662,1000,1000,1000,1000,0,0,0,0,0,0,0,0,0,0
1682161843.39999700,124228622,1000,1000,1000,1000,0,0,0,0,0,0,0,0,0,0
1682161843.49995708,124328582,1000,1000,1000,1000,0,0,0,0,0,0,0,0,0,0
1682161843.59991693,124428542,1000,1000,1000,1000,0,0,0,0,0,0,0,0,0,0
1682161843.69987702,124528502,1000,1000,1000,1000,0,0,0,0,0,0,0,0,0,0
1682161843.79983711,124628462,1000,1000,1000,1000,0,0,0,0,0,0,0,0,0,0
1682161843.89979696,124728422,1000,1000,1000,1000,0,0,0,0,0,0,0,0,0,0
1682161843.99975705,124828382,1000,1000,1000,1000,0,0,0,0,0,0,0,0,0,0
1682161844.09971714,124928342,1000,1000,1000,1000,0,0,0,0,0,0,0,0,0,0
1682161844.19967699,125028302,1000,1000,1000,1000,0,0,0,0,0,0,0,0,0,0
1682161844.29963708,125128262,1000,1000,1000,1000,0,0,0,0,0,0,0,0,0,0
1682161844.39959693,125228222,1000,1000,1000,1000,0,0,0,0,0,0,0,0,0,0
1682161844.49955702,125328182,1000,1000,1000,1000,0,0,0,0,0,0,0,0,0,0
1682161844.60035014,125428975,1000,1000,1000,1000,0,0,0,0,0,0,0,0,0,0
1682161844.70030999,125528935,1000,1000,1000,1000,0,0,0,0,0,0,0,0,0,0
1682161844.80027008,125628895,1000,1000,1000,1000,0,0,0,0,0,0,0,0,0,0
1682161844.90022993,125728855,1000,1000,1000,1000,0,0,0,0,0,0,0,0,0,0
1682161845.00019002,125828815,1000,1000,1000,1000,0,0,0,0,0,0,0,0,0,0
1682161845.10015011,125928775,1000,1000,1000,1000,0,0,0,0,0,0,0,0,0,0
1682161845.20010996,126028735,1000,1000,1000,1000,0,0,0,0,0,0,0,0,0,0
1682161845.30007005,126128695,1000,1000,1000,1000,0,0,0,0,0,0,0,0,0,0
1682161845.40003014,126228655,1000,1000,1000,1000,0,0,0,0,0,0,0,0,0,0
1682161845.49998999,126328615,1000,1000,1000,1000,0,0,0,0,0,0,0,0,0,0
1682161845.59995008,126428575,1000,1000,1000,1000,0,0,0,0,0,0,0,0,0,0
1682161845.69990993,126528535,1000,1000,1000,1000,0,0,0,0,0,0,0,0,0,0
1682161845.79987001,126628495,1000,1000,1000,1000,0,0,0,0,0,0,0,0,0,0
1682161845.89983010,126728455,1000,1000,1000,1000,0,0,0,0,0,0,0,0,0,0
1682161845.99978995,126828415,1000,1000,1000,1000,0,0,0,0,0,0,0,0,0,0
1682161846.09975004,126928375,1000,1000,1000,1000,0,0,0,0,0,0,0,0,0,0
1682161846.19971013,127028335,1000,1000,1000,1000,0,0,0,0,0,0,0,0,0,0
1682161846.29966998,127128295,1000,1000,1000,1000,0,0,0,0,0,0,0,0,0,0
1682161846.39963007,127228255,1000,1000,1000,1000,0,0,0,0,0,0,0,0,0,0
1682161846.49958992,127328215,1000,1000,1000,1000,0,0,0,0,0,0,0,0,0,0
1682161846.59955001,127428175,1000,1000,1000,1000,0,0,0,0,0,0,0,0,0,0
1682161846.70034313,127528968,1000,1000,1000,1000,0,0,0,0,0,0,0,0,0,0
1682161846.80030298,127628928,1000,1000,1000,1000,0,0,0,0,0,0,0,0,0,0
1682161846.90026307,127728888,1000,1000,1000,1000,0,0,0,0,0,0,0,0,0,0
1682161847.00022292,127828848,1000,1000,1000,1000,0,0,0,0,0,0,0,0,0,0
1682161847.10018301,127928808,1000,1000,1000,1000,0,0,0,0,0,0,0,0,0,0
1682161847.20014310,128028768,1000,1000,1000,1000,0,0,0,0,0,0,0,0,0,0
1682161847.30010295,128128728,1000,1000,1000,1000,0,0,0,0,0,0,0,0,0,0
1682161847.40006304,128228688,1000,1000,1000,1000,0,0,0,0,0,0,0,0,0,0
1682161847.50002313,128328648,1000,1000,1000,1000,0,0,0,0,0,0,0,0,0,0
1682161847.59998298,128428608,1000,1000,1000,1000,0,0,0,0,0,0,0,0,0,0
1682161847.69994307,128528568,1000,1000,1000,1000,0,0,0,0,0,0,0,0,0,0
1682161847.79990315,128628528,1000,1000,1000,1000,0,0,0,0,0,0,0,0,0,0
1682161847.89986300,128728488,1000,1000,1000,1000,0,0,0,0,0,0,0,0,0,0
1682161847.99982309,128828448,1000,1000,1000,1000,0,0,0,0,0,0,0,0,0,0
1682161848.09978294,128928408,1000,1000,1000,1000,0,0,0,0,0,0,0,0,0,0
1682161848.19974303,129028368,1000,1000,1000,1000,0,0,0,0,0,0,0,0,0,0
1682161848.29970312,129128328,1000,1000,1000,1000,0,0,0,0,0,0,0,0,0,0
1682161848.39966297,129228288,1000,1000,1000,1000,0,0,0,0,0,0,0,0,0,0
1682161848.49962306,129328248,1000,1000,1000,1000,0,0,0,0,0,0,0,0,0,0
1682161848.59958315,129428208,1000,1000,1000,1000,0,0,0,0,0,0,0,0,0,0
1682161848.69954300,129528168,1000,1000,1000,1000,0,0,0,0,0,0,0,0,0,0
1682161848.80033612,129628961,1000,1000,1000,1000,0,0,0,0,0,0,0,0,0,0
1682161848.90029597,129728921,1000,1000,1000,1000,0,0,0,0,0,0,0,0,0,0
