timestamp,TimeUS,C1,C2,C3,C4,C5,C6,C7,C8,C9,C10,C11,C12,C13,C14
1682944064.40000010,82428682,1000,1000,1000,1000,0,0,0,0,0,0,0,0,0,0
1682944064.49995995,82528642,1000,1000,1000,1000,0,0,0,0,0,0,0,0,0,0
1682944064.59992003,82628602,1000,1000,1000,1000,0,0,0,0,0,0,0,0,0,0
1682944064.69988012,82728562,1000,1000,1000,1000,0,0,0,0,0,0,0,0,0,0
1682944064.79983997,82828522,1000,1000,1000,1000,0,0,0,0,0,0,0,0,0,0
1682944064.89980006,82928482,1000,1000,1000,1000,0,0,0,0,0,0,0,0,0,0
1682944064.99975991,83028442,1000,1000,1000,1000,0,0,0,0,0,0,0,0,0,0
1682944065.09972000,83128402,1000,1000,1000,1000,0,0,0,0,0,0,0,0,0,0
1682944065.19968009,83228362,1000,1000,1000,1000,0,0,0,0,0,0,0,0,0,0
1682944065.29963994,83328322,1000,1000,1000,1000,0,0,0,0,0,0,0,0,0,0
1682944065.39960003,83428282,1000,1000,1000,1000,0,0,0,0,0,0,0,0,0,0
1682944065.49956012,83528242,1000,1000,1000,1000,0,0,0,0,0,0,0,0,0,0
1682944065.59951997,83628202,1000,1000,1000,1000,0,0,0,0,0,0,0,0,0,0
1682944065.69948006,83728162,1000,1000,1000,1000,0,0,0,0,0,0,0,0,0,0
1682944065.80027294,83828955,1000,1000,1000,1000,0,0,0,0,0,0,0,0,0,0
1682944065.90023303,83928915,1000,1000,1000,1000,0,0,0,0,0,0,0,0,0,0
1682944066.00019312,84028875,1000,1000,1000,1000,0,0,0,0,0,0,0,0,0,0
1682944066.10015297,84128835,1000,1000,1000,1000,0,0,0,0,0,0,0,0,0,0
1682944066.20011306,84228795,1000,1000,1000,1000,0,0,0,0,0,0,0,0,0,0
1682944066.30007291,84328755,1000,1000,1000,1000,0,0,0,0,0,0,0,0,0,0
1682944066.40003300,84428715,1007,1007,1007,1007,0,0,0,0,0,0,0,0,0,0
1682944066.49999309,84528675,1037,1037,1037,1037,0,0,0,0,0,0,0,0,0,0
1682944066.59995294,84628635,1067,1067,1067,1067,0,0,0,0,0,0,0,0,0,0
1682944066.69991302,84728595,1097,1097,1097,1097,0,0,0,0,0,0,0,0,0,0
1682944066.79987311,84828555,1127,1127,1127,1127,0,0,0,0,0,0,0,0,0,0
1682944066.89983296,84928515,1224,1212,1213,1225,0,0,0,0,0,0,0,0,0,0
1682944066.99979305,85028475,1450,1442,1442,1451,0,0,0,0,0,0,0,0,0,0
1682944067.09975290,85128435,1620,1612,1612,1620,0,0,0,0,0,0,0,0,0,0
1682944067.19971299,85228395,1761,1754,1754,1761,0,0,0,0,0,0,0,0,0,0
1682944067.29967308,85328355,1885,1877,1878,1886,0,0,0,0,0,0,0,0,0,0
1682944067.39963293,85428315,1877,1872,1872,1877,0,0,0,0,0,0,0,0,0,0
1682944067.49959302,85528275,1771,1770,1770,1772,0,0,0,0,0,0,0,0,0,0
1682944067.59955311,85628235,1659,1661,1661,1660,0,0,0,0,0,0,0,0,0,0
1682944067.69951296,85728195,1617,1619,1620,1617,0,0,0,0,0,0,0,0,0,0
1682944067.79947305,85828155,1622,1625,1625,1622,0,0,0,0,0,0,0,0,0,0
1682944067.90026593,85928948,1634,1636,1636,1634,0,0,0,0,0,0,0,0,0,0
1682944068.00022602,86028908,1629,1629,1623,1634,0,0,0,0,0,0,0,0,0,0
1682944068.10018611,86128868,1620,1622,1615,1626,0,0,0,0,0,0,0,0,0,0
1682944068.20014596,86228828,1614,1616,1612,1617,0,0,0,0,0,0,0,0,0,0
1682944068.30010605,86328788,1612,1613,1613,1612,0,0,0,0,0,0,0,0,0,0
1682944068.40006590,86428748,1614,1613,1616,1610,0,0,0,0,0,0,0,0,0,0
1682944068.50002599,86528708,1617,1616,1621,1613,0,0,0,0,0,0,0,0,0,0
1682944068.59998608,86628668,1618,1618,1622,1614,0,0,0,0,0,0,0,0,0,0
1682944068.69994593,86728628,1617,1617,1619,1614,0,0,0,0,0,0,0,0,0,0
1682944068.79990602,86828588,1585,1586,1595,1576,0,0,0,0,0,0,0,0,0,0
1682944068.89986610,86928548,1572,1573,1579,1567,0,0,0,0,0,0,0,0,0,0
1682944068.99982595,87028508,1561,1562,1561,1562,0,0,0,0,0,0,0,0,0,0
1682944069.09978604,87128468,1553,1553,1547,1560,0,0,0,0,0,0,0,0,0,0
1682944069.19974589,87228428,1546,1545,1535,1556,0,0,0,0,0,0,0,0,0,0
1682944069.29970598,87328388,1539,1538,1530,1547,0,0,0,0,0,0,0,0,0,0
1682944069.39966607,87428348,1533,1532,1528,1537,0,0,0,0,0,0,0,0,0,0
1682944069.49962592,87528308,1529,1528,1527,1529,0,0,0,0,0,0,0,0,0,0
1682944069.59958601,87628268,1528,1528,1529,1526,0,0,0,0,0,0,0,0,0,0
1682944069.69954610,87728228,1530,1529,1532,1527,0,0,0,0,0,0,0,0,0,0
1682944069.79950595,87828188,1532,1532,1535,1529,0,0,0,0,0,0,0,0,0,0
1682944069.90029907,87928981,1535,1535,1538,1532,0,0,0,0,0,0,0,0,0,0
1682944070.00025892,88028941,1538,1538,1541,1536,0,0,0,0,0,0,0,0,0,0
1682944070.10021901,88128901,1543,1542,1544,1542,0,0,0,0,0,0,0,0,0,0
1682944070.20017910,88228861,1545,1545,1545,1545,0,0,0,0,0,0,0,0,0,0
1682944070.30013895,88328821,1548,1548,1548,1550,0,0,0,0,0,0,0,0,0,0
1682944070.40009904,88428781,1551,1551,1550,1552,0,0,0,0,0,0,0,0,0,0
1682944070.50005889,88528741,1554,1554,1553,1555,0,0,0,0,0,0,0,0,0,0
1682944070.60001898,88628701,1557,1557,1553,1555,0,0,0,0,0,0,0,0,0,0
1682944070.69997907,88728661,1559,1559,1556,1558,0,0,0,0,0,0,0,0,0,0
1682944070.79993892,88828621,1560,1560,1561,1562,0,0,0,0,0,0,0,0,0,0
1682944070.89989901,88928581,1559,1559,1563,1564,0,0,0,0,0,0,0,0,0,0
1682944070.99985909,89028541,1561,1561,1566,1567,0,0,0,0,0,0,0,0,0,0
1682944071.09981894,89128501,1562,1563,1569,1568,0,0,0,0,0,0,0,0,0,0
1682944071.19977903,89228461,1564,1564,1569,1569,0,0,0,0,0,0,0,0,0,0
1682944071.29973912,89328421,1566,1567,1571,1570,0,0,0,0,0,0,0,0,0,0
1682944071.39969897,89428381,1568,1569,1571,1570,0,0,0,0,0,0,0,0,0,0
1682944071.49965906,89528341,1570,1571,1571,1571,0,0,0,0,0,0,0,0,0,0
1682944071.59961891,89628301,1571,1571,1569,1569,0,0,0,0,0,0,0,0,0,0
1682944071.69957900,89728261,1572,1571,1569,1570,0,0,0,0,0,0,0,0,0,0
1682944071.79953909,89828221,1574,1574,1571,1571,0,0,0,0,0,0,0,0,0,0
1682944071.89949894,89928181,1575,1575,1571,1571,0,0,0,0,0,0,0,0,0,0
1682944072.00029206,90028974,1575,1576,1573,1571,0,0,0,0,0,0,0,0,0,0
1682944072.10025191,90128934,1577,1576,1574,1573,0,0,0,0,0,0,0,0,0,0
1682944072.20021200,90228894,1576,1576,1575,1573,0,0,0,0,0,0,0,0,0,0
1682944072.30017209,90328854,1576,1576,1575,1574,0,0,0,0,0,0,0,0,0,0
1682944072.40013194,90428814,1577,1577,1576,1575,0,0,0,0,0,0,0,0,0,0
1682944072.50009203,90528774,1576,1575,1575,1575,0,0,0,0,0,0,0,0,0,0
1682944072.60005212,90628734,1577,1576,1576,1576,0,0,0,0,0,0,0,0,0,0
1682944072.70001197,90728694,1575,1576,1576,1576,0,0,0,0,0,0,0,0,0,0
1682944072.79997206,90828654,1575,1575,1576,1576,0,0,0,0,0,0,0,0,0,0
1682944072.89993191,90928614,1576,1575,1576,1576,0,0,0,0,0,0,0,0,0,0
1682944072.99989200,91028574,1576,1576,1577,1577,0,0,0,0,0,0,0,0,0,0
1682944073.09985209,91128534,1577,1577,1578,1578,0,0,0,0,0,0,0,0,0,0
1682944073.19981194,91228494,1577,1578,1579,1579,0,0,0,0,0,0,0,0,0,0
1682944073.29977202,91328454,1579,1579,1580,1580,0,0,0,0,0,0,0,0,0,0
1682944073.39973211,91428414,1578,1578,1579,1579,0,0,0,0,0,0,0,0,0,0
1682944073.49969196,91528374,1579,1579,1579,1579,0,0,0,0,0,0,0,0,0,0
1682944073.59965205,91628334,1578,1579,1579,1578,0,0,0,0,0,0,0,0,0,0
1682944073.69961190,91728294,1579,1579,1578,1579,0,0,0,0,0,0,0,0,0,0
1682944073.79957199,91828254,1579,1579,1579,1579,0,0,0,0,0,0,0,0,0,0
1682944073.89953208,91928214,1578,1579,1578,1578,0,0,0,0,0,0,0,0,0,0
1682944073.99949193,92028174,1578,1578,1578,1578,0,0,0,0,0,0,0,0,0,0
1682944074.10028505,92128967,1579,1578,1578,1578,0,0,0,0,0,0,0,0,0,0
1682944074.20024490,92228927,1579,1579,1578,1579,0,0,0,0,0,0,0,0,0,0
1682944074.30020499,92328887,1579,1578,1578,1578,0,0,0,0,0,0,0,0,0,0
1682944074.40016508,92428847,1579,1580,1579,1579,0,0,0,0,0,0,0,0,0,0
1682944074.50012493,92528807,1579,1579,1579,1579,0,0,0,0,0,0,0,0,0,0
1682944074.60008502,92628767,1579,1579,1580,1579,0,0,0,0,0,0,0,0,0,0
1682944074.70004511,92728727,1578,1578,1579,1579,0,0,0,0,0,0,0,0,0,0
1682944074.80000496,92828687,1579,1579,1579,1579,0,0,0,0,0,0,0,0,0,0
1682944074.89996505,92928647,1579,1579,1579,1580,0,0,0,0,0,0,0,0,0,0
1682944074.99992490,93028607,1579,1579,1579,1579,0,0,0,0,0,0,0,0,0,0
1682944075.09988499,93128567,1579,1579,1580,1579,0,0,0,0,0,0,0,0,0,0
1682944075.19984508,93228527,1579,1579,1579,1579,0,0,0,0,0,0,0,0,0,0
1682944075.29980493,93328487,1579,1579,1579,1579,0,0,0,0,0,0,0,0,0,0
1682944075.39976501,93428447,1579,1579,1579,1579,0,0,0,0,0,0,0,0,0,0
1682944075.49972510,93528407,1579,1579,1579,1579,0,0,0,0,0,0,0,0,0,0
1682944075.59968495,93628367,1580,1580,1580,1580,0,0,0,0,0,0,0,0,0,0
1682944075.69964504,93728327,1580,1580,1580,1580,0,0,0,0,0,0,0,0,0,0
1682944075.79960489,93828287,1580,1580,1580,1580,0,0,0,0,0,0,0,0,0,0
1682944075.89956498,93928247,1580,1580,1580,1580,0,0,0,0,0,0,0,0,0,0
1682944075.99952507,94028207,1580,1580,1580,1580,0,0,0,0,0,0,0,0,0,0
1682944076.09948492,94128167,1581,1581,1581,1581,0,0,0,0,0,0,0,0,0,0
1682944076.20027804,94228960,1580,1581,1580,1580,0,0,0,0,0,0,0,0,0,0
1682944076.30023789,94328920,1580,1581,1580,1581,0,0,0,0,0,0,0,0,0,0
1682944076.40019798,94428880,1580,1581,1580,1581,0,0,0,0,0,0,0,0,0,0
1682944076.50015807,94528840,1581,1580,1581,1581,0,0,0,0,0,0,0,0,0,0
1682944076.60011792,94628800,1581,1581,1581,1581,0,0,0,0,0,0,0,0,0,0
1682944076.70007801,94728760,1582,1581,1582,1581,0,0,0,0,0,0,0,0,0,0
1682944076.80003810,94828720,1581,1582,1588,1575,0,0,0,0,0,0,0,0,0,0
1682944076.89999795,94928680,1581,1583,1586,1574,0,0,0,0,0,0,0,0,0,0
1682944076.99995804,95028640,1578,1581,1577,1573,0,0,0,0,0,0,0,0,0,0
1682944077.09991789,95128600,1576,1579,1568,1572,0,0,0,0,0,0,0,0,0,0
1682944077.19987798,95228560,1576,1578,1561,1567,0,0,0,0,0,0,0,0,0,0
1682944077.29983807,95328520,1577,1578,1556,1563,0,0,0,0,0,0,0,0,0,0
1682944077.39979792,95428480,1579,1578,1556,1559,0,0,0,0,0,0,0,0,0,0
1682944077.49975801,95528440,1580,1579,1556,1556,0,0,0,0,0,0,0,0,0,0
1682944077.59971809,95628400,1580,1578,1556,1554,0,0,0,0,0,0,0,0,0,0
1682944077.69967794,95728360,1579,1578,1556,1554,0,0,0,0,0,0,0,0,0,0
1682944077.79963803,95828320,1578,1578,1556,1554,0,0,0,0,0,0,0,0,0,0
1682944077.89959812,95928280,1577,1579,1556,1555,0,0,0,0,0,0,0,0,0,0
1682944077.99955797,96028240,1575,1577,1554,1554,0,0,0,0,0,0,0,0,0,0
1682944078.09951806,96128200,1575,1576,1553,1553,0,0,0,0,0,0,0,0,0,0
1682944078.19947791,96228160,1575,1577,1551,1551,0,0,0,0,0,0,0,0,0,0
1682944078.30027103,96328953,1576,1578,1550,1550,0,0,0,0,0,0,0,0,0,0
1682944078.40023112,96428913,1579,1580,1548,1548,0,0,0,0,0,0,0,0,0,0
1682944078.50019097,96528873,1581,1582,1546,1545,0,0,0,0,0,0,0,0,0,0
1682944078.60015106,96628833,1584,1585,1543,1543,0,0,0,0,0,0,0,0,0,0
1682944078.70011091,96728793,1587,1588,1540,1539,0,0,0,0,0,0,0,0,0,0
1682944078.80007100,96828753,1590,1591,1537,1537,0,0,0,0,0,0,0,0,0,0
1682944078.90003109,96928713,1593,1593,1535,1536,0,0,0,0,0,0,0,0,0,0
1682944078.99999094,97028673,1596,1596,1535,1536,0,0,0,0,0,0,0,0,0,0
1682944079.09995103,97128633,1596,1595,1535,1536,0,0,0,0,0,0,0,0,0,0
1682944079.19991112,97228593,1594,1594,1536,1537,0,0,0,0,0,0,0,0,0,0
1682944079.29987097,97328553,1593,1592,1539,1542,0,0,0,0,0,0,0,0,0,0
1682944079.39983106,97428513,1589,1588,1546,1549,0,0,0,0,0,0,0,0,0,0
1682944079.49979091,97528473,1583,1580,1553,1556,0,0,0,0,0,0,0,0,0,0
1682944079.59975100,97628433,1575,1572,1564,1567,0,0,0,0,0,0,0,0,0,0
1682944079.69971108,97728393,1565,1560,1575,1578,0,0,0,0,0,0,0,0,0,0
1682944079.79967093,97828353,1554,1551,1589,1590,0,0,0,0,0,0,0,0,0,0
1682944079.89963102,97928313,1542,1539,1599,1599,0,0,0,0,0,0,0,0,0,0
1682944079.99959111,98028273,1534,1534,1608,1608,0,0,0,0,0,0,0,0,0,0
1682944080.09955096,98128233,1529,1529,1614,1613,0,0,0,0,0,0,0,0,0,0
1682944080.19951105,98228193,1527,1529,1615,1614,0,0,0,0,0,0,0,0,0,0
1682944080.30030394,98328986,1530,1532,1613,1612,0,0,0,0,0,0,0,0,0,0
1682944080.40026402,98428946,1537,1539,1609,1608,0,0,0,0,0,0,0,0,0,0
1682944080.50022411,98528906,1545,1546,1602,1603,0,0,0,0,0,0,0,0,0,0
1682944080.60018396,98628866,1553,1554,1595,1595,0,0,0,0,0,0,0,0,0,0
1682944080.70014405,98728826,1563,1563,1588,1587,0,0,0,0,0,0,0,0,0,0
1682944080.80010390,98828786,1571,1571,1581,1580,0,0,0,0,0,0,0,0,0,0
1682944080.90006399,98928746,1578,1578,1575,1574,0,0,0,0,0,0,0,0,0,0
1682944081.00002408,99028706,1583,1582,1570,1569,0,0,0,0,0,0,0,0,0,0
1682944081.09998393,99128666,1587,1585,1567,1567,0,0,0,0,0,0,0,0,0,0
1682944081.19994402,99228626,1588,1587,1566,1566,0,0,0,0,0,0,0,0,0,0
1682944081.29990411,99328586,1587,1586,1566,1566,0,0,0,0,0,0,0,0,0,0
1682944081.39986396,99428546,1586,1585,1568,1568,0,0,0,0,0,0,0,0,0,0
1682944081.49982405,99528506,1584,1583,1571,1571,0,0,0,0,0,0,0,0,0,0
1682944081.59978390,99628466,1580,1580,1574,1573,0,0,0,0,0,0,0,0,0,0
1682944081.69974399,99728426,1577,1578,1577,1577,0,0,0,0,0,0,0,0,0,0
1682944081.79970407,99828386,1574,1575,1579,1578,0,0,0,0,0,0,0,0,0,0
1682944081.89966393,99928346,1573,1574,1581,1582,0,0,0,0,0,0,0,0,0,0
1682944081.99962401,100028306,1573,1573,1584,1583,0,0,0,0,0,0,0,0,0,0
1682944082.09958410,100128266,1572,1572,1583,1584,0,0,0,0,0,0,0,0,0,0
1682944082.19954395,100228226,1572,1573,1584,1584,0,0,0,0,0,0,0,0,0,0
1682944082.29950404,100328186,1573,1573,1583,1583,0,0,0,0,0,0,0,0,0,0
1682944082.40029693,100428979,1575,1576,1584,1583,0,0,0,0,0,0,0,0,0,0
1682944082.50025702,100528939,1576,1576,1581,1582,0,0,0,0,0,0,0,0,0,0
1682944082.60021710,100628899,1578,1578,1580,1581,0,0,0,0,0,0,0,0,0,0
1682944082.70017695,100728859,1579,1579,1579,1579,0,0,0,0,0,0,0,0,0,0
1682944082.80013704,100828819,1580,1579,1577,1577,0,0,0,0,0,0,0,0,0,0
1682944082.90009689,100928779,1581,1581,1578,1577,0,0,0,0,0,0,0,0,0,0
1682944083.00005698,101028739,1582,1581,1577,1577,0,0,0,0,0,0,0,0,0,0
1682944083.10001707,101128699,1582,1582,1577,1577,0,0,0,0,0,0,0,0,0,0
1682944083.19997692,101228659,1182,1582,1177,1577,0,0,0,0,0,0,0,0,0,0
1682944083.29993701,101328619,1527,1556,1521,1556,0,0,0,0,0,0,0,0,0,0
1682944083.39989710,101428579,1604,1572,1602,1571,0,0,0,0,0,0,0,0,0,0
1682944083.49985695,101528539,1677,1615,1677,1614,0,0,0,0,0,0,0,0,0,0
1682944083.59981704,101628499,1725,1660,1723,1659,0,0,0,0,0,0,0,0,0,0
1682944083.69977689,101728459,1732,1683,1726,1674,0,0,0,0,0,0,0,0,0,0
1682944083.79973698,101828419,1702,1675,1690,1653,0,0,0,0,0,0,0,0,0,0
1682944083.89969707,101928379,1657,1656,1640,1624,0,0,0,0,0,0,0,0,0,0
1682944083.99965692,102028339,1606,1635,1592,1612,0,0,0,0,0,0,0,0,0,0
1682944084.09961700,102128299,1568,1606,1574,1619,0,0,0,0,0,0,0,0,0,0
1682944084.19957709,102228259,1545,1578,1577,1627,0,0,0,0,0,0,0,0,0,0
1682944084.29953694,102328219,1537,1557,1589,1627,0,0,0,0,0,0,0,0,0,0
1682944084.39949703,102428179,1540,1545,1597,1615,0,0,0,0,0,0,0,0,0,0
1682944084.50028992,102528972,1549,1546,1599,1598,0,0,0,0,0,0,0,0,0,0
1682944084.60025001,102628932,1563,1556,1596,1583,0,0,0,0,0,0,0,0,0,0
1682944084.70021009,102728892,1576,1571,1589,1572,0,0,0,0,0,0,0,0,0,0
1682944084.80016994,102828852,1588,1585,1585,1556,0,0,0,0,0,0,0,0,0,0
1682944084.90013003,102928812,1596,1598,1571,1548,0,0,0,0,0,0,0,0,0,0
1682944085.00009012,103028772,1597,1601,1555,1547,0,0,0,0,0,0,0,0,0,0
1682944085.10004997,103128732,1594,1599,1542,1547,0,0,0,0,0,0,0,0,0,0
1682944085.20001006,103228692,1590,1591,1534,1548,0,0,0,0,0,0,0,0,0,0
1682944085.29996991,103328652,1584,1584,1534,1547,0,0,0,0,0,0,0,0,0,0
1682944085.39993000,103428612,1580,1578,1538,1547,0,0,0,0,0,0,0,0,0,0
1682944085.49989009,103528572,1576,1574,1542,1546,0,0,0,0,0,0,0,0,0,0
1682944085.59984994,103628532,1572,1572,1547,1546,0,0,0,0,0,0,0,0,0,0
1682944085.69981003,103728492,1570,1571,1552,1549,0,0,0,0,0,0,0,0,0,0
1682944085.79977012,103828452,1567,1568,1554,1550,0,0,0,0,0,0,0,0,0,0
1682944085.89972997,103928412,1565,1568,1556,1553,0,0,0,0,0,0,0,0,0,0
1682944085.99969006,104028372,1564,1566,1555,1554,0,0,0,0,0,0,0,0,0,0
1682944086.09964991,104128332,1564,1566,1554,1554,0,0,0,0,0,0,0,0,0,0
1682944086.19960999,104228292,1565,1566,1552,1552,0,0,0,0,0,0,0,0,0,0
1682944086.29957008,104328252,1567,1567,1548,1550,0,0,0,0,0,0,0,0,0,0
1682944086.39952993,104428212,1571,1572,1546,1547,0,0,0,0,0,0,0,0,0,0
1682944086.49949002,104528172,1575,1576,1543,1542,0,0,0,0,0,0,0,0,0,0
1682944086.60028291,104628965,1580,1581,1539,1538,0,0,0,0,0,0,0,0,0,0
1682944086.70024300,104728925,1584,1585,1535,1534,0,0,0,0,0,0,0,0,0,0
1682944086.80020308,104828885,1590,1590,1532,1531,0,0,0,0,0,0,0,0,0,0
1682944086.90016294,104928845,1594,1594,1529,1530,0,0,0,0,0,0,0,0,0,0
1682944087.00012302,105028805,1596,1595,1527,1528,0,0,0,0,0,0,0,0,0,0
1682944087.10008311,105128765,1598,1595,1529,1530,0,0,0,0,0,0,0,0,0,0
1682944087.20004296,105228725,1596,1593,1532,1534,0,0,0,0,0,0,0,0,0,0
1682944087.30000305,105328685,1592,1589,1536,1539,0,0,0,0,0,0,0,0,0,0
1682944087.39996290,105428645,1586,1583,1544,1548,0,0,0,0,0,0,0,0,0,0
1682944087.49992299,105528605,1576,1574,1553,1555,0,0,0,0,0,0,0,0,0,0
1682944087.59988308,105628565,1567,1565,1564,1566,0,0,0,0,0,0,0,0,0,0
1682944087.69984293,105728525,1556,1555,1576,1577,0,0,0,0,0,0,0,0,0,0
1682944087.79980302,105828485,1546,1546,1585,1586,0,0,0,0,0,0,0,0,0,0
1682944087.89976311,105928445,1538,1539,1593,1594,0,0,0,0,0,0,0,0,0,0
1682944087.99972296,106028405,1533,1535,1599,1599,0,0,0,0,0,0,0,0,0,0
1682944088.09968305,106128365,1531,1532,1603,1602,0,0,0,0,0,0,0,0,0,0
1682944088.19964290,106228325,1531,1532,1604,1602,0,0,0,0,0,0,0,0,0,0
1682944088.29960299,106328285,1534,1535,1603,1602,0,0,0,0,0,0,0,0,0,0
1682944088.39956307,106428245,1539,1540,1600,1599,0,0,0,0,0,0,0,0,0,0
1682944088.49952292,106528205,1544,1544,1596,1595,0,0,0,0,0,0,0,0,0,0
1682944088.59948301,106628165,1551,1551,1590,1590,0,0,0,0,0,0,0,0,0,0
1682944088.70027590,106728958,1558,1557,1584,1585,0,0,0,0,0,0,0,0,0,0
1682944088.80023599,106828918,1563,1562,1578,1579,0,0,0,0,0,0,0,0,0,0
1682944088.90019608,106928878,1569,1567,1573,1575,0,0,0,0,0,0,0,0,0,0
1682944089.00015593,107028838,1573,1571,1569,1571,0,0,0,0,0,0,0,0,0,0
1682944089.10011601,107128798,1577,1575,1568,1569,0,0,0,0,0,0,0,0,0,0
1682944089.20007610,107228758,1579,1578,1567,1567,0,0,0,0,0,0,0,0,0,0
1682944089.30003595,107328718,1580,1579,1567,1567,0,0,0,0,0,0,0,0,0,0
1682944089.39999604,107428678,1580,1580,1568,1568,0,0,0,0,0,0,0,0,0,0
1682944089.49995589,107528638,1580,1580,1570,1569,0,0,0,0,0,0,0,0,0,0
1682944089.59991598,107628598,1580,1580,1573,1572,0,0,0,0,0,0,0,0,0,0
1682944089.69987607,107728558,1579,1579,1575,1574,0,0,0,0,0,0,0,0,0,0
1682944089.79983592,107828518,1577,1577,1576,1576,0,0,0,0,0,0,0,0,0,0
1682944089.89979601,107928478,1576,1577,1579,1578,0,0,0,0,0,0,0,0,0,0
1682944089.99975610,108028438,1575,1575,1580,1580,0,0,0,0,0,0,0,0,0,0
1682944090.09971595,108128398,1575,1575,1581,1581,0,0,0,0,0,0,0,0,0,0
1682944090.19967604,108228358,1573,1574,1581,1580,0,0,0,0,0,0,0,0,0,0
1682944090.29963613,108328318,1573,1574,1580,1580,0,0,0,0,0,0,0,0,0,0
1682944090.39959598,108428278,1575,1576,1581,1581,0,0,0,0,0,0,0,0,0,0
1682944090.49955606,108528238,1575,1575,1580,1580,0,0,0,0,0,0,0,0,0,0
1682944090.59951591,108628198,1575,1576,1579,1579,0,0,0,0,0,0,0,0,0,0
1682944090.69947600,108728158,1578,1578,1579,1580,0,0,0,0,0,0,0,0,0,0
1682944090.80026889,108828951,1579,1578,1579,1578,0,0,0,0,0,0,0,0,0,0
1682944090.90022898,108928911,1580,1580,1579,1578,0,0,0,0,0,0,0,0,0,0
1682944091.00018907,109028871,1580,1580,1578,1578,0,0,0,0,0,0,0,0,0,0
1682944091.10014892,109128831,1580,1580,1577,1577,0,0,0,0,0,0,0,0,0,0
1682944091.20010900,109228791,1580,1580,1577,1578,0,0,0,0,0,0,0,0,0,0
1682944091.30006909,109328751,1580,1580,1577,1577,0,0,0,0,0,0,0,0,0,0
1682944091.40002894,109428711,1581,1580,1577,1578,0,0,0,0,0,0,0,0,0,0
1682944091.49998903,109528671,1581,1581,1578,1579,0,0,0,0,0,0,0,0,0,0
1682944091.59994912,109628631,1580,1580,1579,1578,0,0,0,0,0,0,0,0,0,0
1682944091.69990897,109728591,1581,1581,1580,1579,0,0,0,0,0,0,0,0,0,0
1682944091.79986906,109828551,1580,1580,1580,1579,0,0,0,0,0,0,0,0,0,0
1682944091.89982891,109928511,1580,1580,1581,1580,0,0,0,0,0,0,0,0,0,0
1682944091.99978900,110028471,1580,1580,1581,1581,0,0,0,0,0,0,0,0,0,0
1682944092.09974909,110128431,1580,1580,1581,1581,0,0,0,0,0,0,0,0,0,0
1682944092.19970894,110228391,1580,1580,1581,1582,0,0,0,0,0,0,0,0,0,0
1682944092.29966903,110328351,1579,1579,1580,1580,0,0,0,0,0,0,0,0,0,0
1682944092.39962912,110428311,1579,1579,1580,1580,0,0,0,0,0,0,0,0,0,0
1682944092.49958897,110528271,1579,1579,1580,1580,0,0,0,0,0,0,0,0,0,0
1682944092.59954906,110628231,1579,1579,1580,1580,0,0,0,0,0,0,0,0,0,0
1682944092.69950891,110728191,1579,1580,1580,1580,0,0,0,0,0,0,0,0,0,0
1682944092.80030203,110828984,1581,1581,1581,1581,0,0,0,0,0,0,0,0,0,0
1682944092.90026212,110928944,1581,1580,1580,1580,0,0,0,0,0,0,0,0,0,0
1682944093.00022197,111028904,1581,1581,1580,1580,0,0,0,0,0,0,0,0,0,0
1682944093.10018206,111128864,1581,1581,1580,1580,0,0,0,0,0,0,0,0,0,0
1682944093.20014191,111228824,1581,1581,1581,1581,0,0,0,0,0,0,0,0,0,0
1682944093.30010200,111328784,1582,1581,1581,1581,0,0,0,0,0,0,0,0,0,0
1682944093.40006208,111428744,1581,1581,1581,1581,0,0,0,0,0,0,0,0,0,0
1682944093.50002193,111528704,1582,1582,1581,1582,0,0,0,0,0,0,0,0,0,0
1682944093.59998202,111628664,1582,1582,1581,1581,0,0,0,0,0,0,0,0,0,0
1682944093.69994211,111728624,1581,1581,1582,1581,0,0,0,0,0,0,0,0,0,0
1682944093.79990196,111828584,1581,1583,1587,1574,0,0,0,0,0,0,0,0,0,0
1682944093.89986205,111928544,1580,1582,1585,1573,0,0,0,0,0,0,0,0,0,0
1682944093.99982190,112028504,1578,1581,1577,1573,0,0,0,0,0,0,0,0,0,0
1682944094.09978199,112128464,1576,1579,1569,1571,0,0,0,0,0,0,0,0,0,0
1682944094.19974208,112228424,1575,1578,1562,1568,0,0,0,0,0,0,0,0,0,0
1682944094.29970193,112328384,1576,1577,1557,1564,0,0,0,0,0,0,0,0,0,0
1682944094.39966202,112428344,1577,1577,1555,1560,0,0,0,0,0,0,0,0,0,0
1682944094.49962211,112528304,1578,1577,1554,1556,0,0,0,0,0,0,0,0,0,0
1682944094.59958196,112628264,1578,1577,1554,1554,0,0,0,0,0,0,0,0,0,0
1682944094.69954205,112728224,1580,1579,1556,1554,0,0,0,0,0,0,0,0,0,0
1682944094.79950190,112828184,1579,1579,1556,1553,0,0,0,0,0,0,0,0,0,0
1682944094.90029502,112928977,1578,1578,1555,1553,0,0,0,0,0,0,0,0,0,0
1682944095.00025511,113028937,1577,1578,1555,1554,0,0,0,0,0,0,0,0,0,0
1682944095.10021496,113128897,1577,1579,1554,1554,0,0,0,0,0,0,0,0,0,0
1682944095.20017505,113228857,1576,1578,1553,1552,0,0,0,0,0,0,0,0,0,0
1682944095.30013490,113328817,1577,1579,1551,1552,0,0,0,0,0,0,0,0,0,0
1682944095.40009499,113428777,1578,1580,1549,1549,0,0,0,0,0,0,0,0,0,0
1682944095.50005507,113528737,1580,1582,1548,1548,0,0,0,0,0,0,0,0,0,0
1682944095.60001493,113628697,1583,1584,1546,1546,0,0,0,0,0,0,0,0,0,0
1682944095.69997501,113728657,1585,1586,1543,1543,0,0,0,0,0,0,0,0,0,0
1682944095.79993510,113828617,1587,1587,1540,1540,0,0,0,0,0,0,0,0,0,0
1682944095.89989495,113928577,1590,1590,1539,1540,0,0,0,0,0,0,0,0,0,0
1682944095.99985504,114028537,1592,1592,1538,1539,0,0,0,0,0,0,0,0,0,0
1682944096.09981489,114128497,1593,1593,1538,1539,0,0,0,0,0,0,0,0,0,0
1682944096.19977498,114228457,1593,1593,1538,1540,0,0,0,0,0,0,0,0,0,0
1682944096.29973507,114328417,1594,1592,1541,1545,0,0,0,0,0,0,0,0,0,0
1682944096.39969492,114428377,1591,1588,1545,1549,0,0,0,0,0,0,0,0,0,0
1682944096.49965501,114528337,1586,1583,1553,1556,0,0,0,0,0,0,0,0,0,0
1682944096.59961510,114628297,1579,1575,1562,1565,0,0,0,0,0,0,0,0,0,0
1682944096.69957495,114728257,1569,1565,1572,1574,0,0,0,0,0,0,0,0,0,0
1682944096.79953504,114828217,1559,1557,1584,1585,0,0,0,0,0,0,0,0,0,0
1682944096.89949512,114928177,1550,1548,1594,1594,0,0,0,0,0,0,0,0,0,0
1682944097.00028801,115028970,1541,1542,1603,1602,0,0,0,0,0,0,0,0,0,0
1682944097.10024810,115128930,1536,1539,1610,1609,0,0,0,0,0,0,0,0,0,0
1682944097.20020795,115228890,1534,1538,1614,1612,0,0,0,0,0,0,0,0,0,0
1682944097.30016804,115328850,1535,1539,1614,1611,0,0,0,0,0,0,0,0,0,0
1682944097.40012789,115428810,1539,1542,1611,1609,0,0,0,0,0,0,0,0,0,0
1682944097.50008798,115528770,1545,1546,1606,1605,0,0,0,0,0,0,0,0,0,0
1682944097.60004807,115628730,1551,1552,1601,1600,0,0,0,0,0,0,0,0,0,0
1682944097.70000792,115728690,1559,1558,1594,1593,0,0,0,0,0,0,0,0,0,0
1682944097.79996800,115828650,1566,1564,1587,1586,0,0,0,0,0,0,0,0,0,0
1682944097.89992809,115928610,1571,1570,1579,1579,0,0,0,0,0,0,0,0,0,0
1682944097.99988794,116028570,1577,1576,1574,1575,0,0,0,0,0,0,0,0,0,0
1682944098.09984803,116128530,1582,1580,1569,1571,0,0,0,0,0,0,0,0,0,0
1682944098.19980812,116228490,1585,1582,1567,1567,0,0,0,0,0,0,0,0,0,0
1682944098.29976797,116328450,1585,1584,1565,1566,0,0,0,0,0,0,0,0,0,0
1682944098.39972806,116428410,1586,1584,1565,1567,0,0,0,0,0,0,0,0,0,0
1682944098.49968791,116528370,1585,1584,1567,1567,0,0,0,0,0,0,0,0,0,0
1682944098.59964800,116628330,1583,1583,1570,1570,0,0,0,0,0,0,0,0,0,0
1682944098.69960809,116728290,1581,1581,1573,1572,0,0,0,0,0,0,0,0,0,0
1682944098.79956794,116828250,1578,1579,1575,1575,0,0,0,0,0,0,0,0,0,0
1682944098.89952803,116928210,1576,1577,1578,1578,0,0,0,0,0,0,0,0,0,0
1682944098.99948812,117028170,1574,1575,1580,1580,0,0,0,0,0,0,0,0,0,0
1682944099.10028100,117128963,1572,1573,1581,1581,0,0,0,0,0,0,0,0,0,0
1682944099.20024109,117228923,1572,1573,1583,1583,0,0,0,0,0,0,0,0,0,0
1682944099.30020094,117328883,1573,1574,1584,1584,0,0,0,0,0,0,0,0,0,0
1682944099.40016103,117428843,1573,1574,1584,1583,0,0,0,0,0,0,0,0,0,0
1682944099.50012112,117528803,1574,1575,1583,1583,0,0,0,0,0,0,0,0,0,0
1682944099.60008097,117628763,1575,1576,1582,1582,0,0,0,0,0,0,0,0,0,0
1682944099.70004106,117728723,1577,1577,1581,1581,0,0,0,0,0,0,0,0,0,0
1682944099.80000091,117828683,1578,1578,1580,1580,0,0,0,0,0,0,0,0,0,0
1682944099.89996099,117928643,1579,1578,1579,1579,0,0,0,0,0,0,0,0,0,0
1682944099.99992108,118028603,1580,1580,1578,1579,0,0,0,0,0,0,0,0,0,0
1682944100.09988093,118128563,1581,1581,1578,1578,0,0,0,0,0,0,0,0,0,0
1682944100.19984102,118228523,1581,1581,1577,1577,0,0,0,0,0,0,0,0,0,0
1682944100.29980111,118328483,1582,1582,1578,1577,0,0,0,0,0,0,0,0,0,0
1682944100.39976096,118428443,1582,1581,1577,1577,0,0,0,0,0,0,0,0,0,0
1682944100.49972105,118528403,1581,1582,1578,1578,0,0,0,0,0,0,0,0,0,0
1682944100.59968090,118628363,1581,1581,1578,1579,0,0,0,0,0,0,0,0,0,0
1682944100.69964099,118728323,1580,1581,1579,1579,0,0,0,0,0,0,0,0,0,0
1682944100.79960108,118828283,1581,1581,1580,1580,0,0,0,0,0,0,0,0,0,0
1682944100.89956093,118928243,1581,1581,1581,1581,0,0,0,0,0,0,0,0,0,0
1682944100.99952102,119028203,1580,1580,1581,1581,0,0,0,0,0,0,0,0,0,0
1682944101.09948111,119128163,1580,1580,1581,1582,0,0,0,0,0,0,0,0,0,0
1682944101.20027399,119228956,1580,1579,1581,1581,0,0,0,0,0,0,0,0,0,0
1682944101.30023408,119328916,1580,1580,1582,1581,0,0,0,0,0,0,0,0,0,0
1682944101.40019393,119428876,1579,1580,1581,1581,0,0,0,0,0,0,0,0,0,0
1682944101.50015402,119528836,1579,1580,1581,1582,0,0,0,0,0,0,0,0,0,0
1682944101.60011411,119628796,1579,1579,1580,1581,0,0,0,0,0,0,0,0,0,0
1682944101.70007396,119728756,1579,1580,1581,1578,0,0,0,0,0,0,0,0,0,0
1682944101.80003405,119828716,1581,1581,1587,1572,0,0,0,0,0,0,0,0,0,0
1682944101.89999390,119928676,1580,1580,1583,1573,0,0,0,0,0,0,0,0,0,0
1682944101.99995399,120028636,1577,1576,1577,1574,0,0,0,0,0,0,0,0,0,0
1682944102.09991407,120128596,1574,1573,1571,1575,0,0,0,0,0,0,0,0,0,0
1682944102.19987392,120228556,1570,1569,1566,1573,0,0,0,0,0,0,0,0,0,0
1682944102.29983401,120328516,1568,1568,1564,1571,0,0,0,0,0,0,0,0,0,0
1682944102.39979410,120428476,1566,1567,1564,1568,0,0,0,0,0,0,0,0,0,0
1682944102.49975395,120528436,1567,1568,1566,1567,0,0,0,0,0,0,0,0,0,0
1682944102.59971404,120628396,1566,1567,1566,1565,0,0,0,0,0,0,0,0,0,0
1682944102.69967389,120728356,1566,1566,1567,1564,0,0,0,0,0,0,0,0,0,0
1682944102.79963398,120828316,1566,1565,1566,1564,0,0,0,0,0,0,0,0,0,0
1682944102.89959407,120928276,1565,1565,1566,1564,0,0,0,0,0,0,0,0,0,0
1682944102.99955392,121028236,1564,1564,1565,1564,0,0,0,0,0,0,0,0,0,0
1682944103.09951401,121128196,1563,1562,1563,1563,0,0,0,0,0,0,0,0,0,0
1682944103.19947410,121228156,1562,1563,1563,1563,0,0,0,0,0,0,0,0,0,0
1682944103.30026698,121328949,1561,1561,1562,1562,0,0,0,0,0,0,0,0,0,0
1682944103.40022707,121428909,1561,1561,1561,1562,0,0,0,0,0,0,0,0,0,0
1682944103.50018692,121528869,1560,1561,1561,1561,0,0,0,0,0,0,0,0,0,0
1682944103.60014701,121628829,1560,1560,1561,1560,0,0,0,0,0,0,0,0,0,0
1682944103.70010710,121728789,1560,1559,1560,1559,0,0,0,0,0,0,0,0,0,0
1682944103.80006695,121828749,1560,1560,1560,1559,0,0,0,0,0,0,0,0,0,0
1682944103.90002704,121928709,1559,1559,1560,1559,0,0,0,0,0,0,0,0,0,0
1682944103.99998713,122028669,1559,1559,1560,1559,0,0,0,0,0,0,0,0,0,0
1682944104.09994698,122128629,1559,1559,1559,1558,0,0,0,0,0,0,0,0,0,0
1682944104.19990706,122228589,1559,1559,1560,1558,0,0,0,0,0,0,0,0,0,0
1682944104.29986691,122328549,1559,1559,1560,1559,0,0,0,0,0,0,0,0,0,0
1682944104.39982700,122428509,1559,1558,1560,1557,0,0,0,0,0,0,0,0,0,0
1682944104.49978709,122528469,1561,1560,1562,1559,0,0,0,0,0,0,0,0,0,0
1682944104.59974694,122628429,1560,1560,1560,1561,0,0,0,0,0,0,0,0,0,0
1682944104.69970703,122728389,1561,1561,1558,1564,0,0,0,0,0,0,0,0,0,0
1682944104.79966712,122828349,1561,1562,1558,1565,0,0,0,0,0,0,0,0,0,0
1682944104.89962697,122928309,1562,1562,1559,1565,0,0,0,0,0,0,0,0,0,0
1682944104.99958706,123028269,1562,1563,1560,1564,0,0,0,0,0,0,0,0,0,0
1682944105.09954691,123128229,1562,1562,1562,1562,0,0,0,0,0,0,0,0,0,0
1682944105.19950700,123228189,1562,1562,1563,1560,0,0,0,0,0,0,0,0,0,0
1682944105.30030012,123328982,1560,1560,1559,1560,0,0,0,0,0,0,0,0,0,0
1682944105.40025997,123428942,1557,1556,1556,1556,0,0,0,0,0,0,0,0,0,0
1682944105.50022006,123528902,1551,1551,1550,1551,0,0,0,0,0,0,0,0,0,0
1682944105.60017991,123628862,1545,1545,1545,1544,0,0,0,0,0,0,0,0,0,0
1682944105.70014000,123728822,1538,1537,1538,1538,0,0,0,0,0,0,0,0,0,0
1682944105.80010009,123828782,1531,1531,1531,1531,0,0,0,0,0,0,0,0,0,0
1682944105.90005994,123928742,1523,1524,1523,1524,0,0,0,0,0,0,0,0,0,0
1682944106.00002003,124028702,1519,1520,1519,1521,0,0,0,0,0,0,0,0,0,0
1682944106.09998012,124128662,1518,1520,1518,1520,0,0,0,0,0,0,0,0,0,0
1682944106.19993997,124228622,1519,1521,1519,1521,0,0,0,0,0,0,0,0,0,0
1682944106.29990005,124328582,1521,1522,1521,1523,0,0,0,0,0,0,0,0,0,0
1682944106.39985991,124428542,1524,1524,1524,1525,0,0,0,0,0,0,0,0,0,0
1682944106.49981999,124528502,1529,1529,1529,1530,0,0,0,0,0,0,0,0,0,0
1682944106.59978008,124628462,1534,1534,1534,1534,0,0,0,0,0,0,0,0,0,0
1682944106.69973993,124728422,1538,1536,1537,1536,0,0,0,0,0,0,0,0,0,0
1682944106.79970002,124828382,1540,1538,1540,1538,0,0,0,0,0,0,0,0,0,0
1682944106.89966011,124928342,1542,1542,1543,1541,0,0,0,0,0,0,0,0,0,0
1682944106.99961996,125028302,1544,1544,1544,1544,0,0,0,0,0,0,0,0,0,0
1682944107.09958005,125128262,1545,1545,1545,1545,0,0,0,0,0,0,0,0,0,0
1682944107.19953990,125228222,1546,1546,1546,1545,0,0,0,0,0,0,0,0,0,0
1682944107.29949999,125328182,1546,1547,1547,1546,0,0,0,0,0,0,0,0,0,0
1682944107.40029311,125428975,1546,1546,1546,1546,0,0,0,0,0,0,0,0,0,0
1682944107.50025296,125528935,1546,1546,1546,1547,0,0,0,0,0,0,0,0,0,0
1682944107.60021305,125628895,1546,1546,1546,1546,0,0,0,0,0,0,0,0,0,0
1682944107.70017290,125728855,1546,1546,1546,1546,0,0,0,0,0,0,0,0,0,0
1682944107.80013299,125828815,1546,1546,1546,1546,0,0,0,0,0,0,0,0,0,0
1682944107.90009308,125928775,1545,1545,1546,1545,0,0,0,0,0,0,0,0,0,0
1682944108.00005293,126028735,1545,1545,1545,1545,0,0,0,0,0,0,0,0,0,0
1682944108.10001302,126128695,1545,1545,1545,1545,0,0,0,0,0,0,0,0,0,0
1682944108.19997311,126228655,1544,1544,1544,1544,0,0,0,0,0,0,0,0,0,0
1682944108.29993296,126328615,1544,1544,1544,1544,0,0,0,0,0,0,0,0,0,0
1682944108.39989305,126428575,1545,1545,1545,1545,0,0,0,0,0,0,0,0,0,0
1682944108.49985290,126528535,1545,1544,1545,1544,0,0,0,0,0,0,0,0,0,0
1682944108.59981298,126628495,1544,1544,1544,1544,0,0,0,0,0,0,0,0,0,0
1682944108.69977307,126728455,1544,1544,1544,1544,0,0,0,0,0,0,0,0,0,0
1682944108.79973292,126828415,1544,1544,1544,1544,0,0,0,0,0,0,0,0,0,0
1682944108.89969301,126928375,1545,1544,1545,1545,0,0,0,0,0,0,0,0,0,0
1682944108.99965310,127028335,1544,1544,1544,1544,0,0,0,0,0,0,0,0,0,0
1682944109.09961295,127128295,1544,1544,1544,1545,0,0,0,0,0,0,0,0,0,0
1682944109.19957304,127228255,1543,1543,1543,1543,0,0,0,0,0,0,0,0,0,0
1682944109.29953289,127328215,1544,1544,1544,1544,0,0,0,0,0,0,0,0,0,0
1682944109.39949298,127428175,1544,1544,1544,1544,0,0,0,0,0,0,0,0,0,0
1682944109.50028610,127528968,1544,1544,1544,1544,0,0,0,0,0,0,0,0,0,0
1682944109.60024595,127628928,1544,1543,1543,1543,0,0,0,0,0,0,0,0,0,0
1682944109.70020604,127728888,1544,1543,1543,1544,0,0,0,0,0,0,0,0,0,0
1682944109.80016589,127828848,1543,1544,1543,1543,0,0,0,0,0,0,0,0,0,0
1682944109.90012598,127928808,1544,1544,1544,1544,0,0,0,0,0,0,0,0,0,0
1682944110.00008607,128028768,1543,1544,1544,1544,0,0,0,0,0,0,0,0,0,0
1682944110.10004592,128128728,1544,1544,1544,1544,0,0,0,0,0,0,0,0,0,0
1682944110.20000601,128228688,1544,1544,1544,1544,0,0,0,0,0,0,0,0,0,0
1682944110.29996610,128328648,1545,1544,1544,1544,0,0,0,0,0,0,0,0,0,0
1682944110.39992595,128428608,1544,1544,1544,1544,0,0,0,0,0,0,0,0,0,0
1682944110.49988604,128528568,1545,1544,1544,1544,0,0,0,0,0,0,0,0,0,0
1682944110.59984612,128628528,1543,1542,1543,1542,0,0,0,0,0,0,0,0,0,0
1682944110.69980597,128728488,1543,1543,1543,1543,0,0,0,0,0,0,0,0,0,0
1682944110.79976606,128828448,1542,1543,1543,1543,0,0,0,0,0,0,0,0,0,0
1682944110.89972591,128928408,1543,1543,1543,1544,0,0,0,0,0,0,0,0,0,0
1682944110.99968600,129028368,1544,1544,1544,1544,0,0,0,0,0,0,0,0,0,0
1682944111.09964609,129128328,1544,1544,1544,1544,0,0,0,0,0,0,0,0,0,0
1682944111.19960594,129228288,1544,1544,1544,1543,0,0,0,0,0,0,0,0,0,0
1682944111.29956603,129328248,1544,1544,1544,1544,0,0,0,0,0,0,0,0,0,0
1682944111.39952612,129428208,1544,1543,1544,1543,0,0,0,0,0,0,0,0,0,0
1682944111.49948597,129528168,1543,1543,1543,1543,0,0,0,0,0,0,0,0,0,0
1682944111.60027909,129628961,1543,1544,1544,1543,0,0,0,0,0,0,0,0,0,0
1682944111.70023894,129728921,1544,1544,1544,1545,0,0,0,0,0,0,0,0,0,0
1682944111.80019903,129828881,1544,1544,1544,1544,0,0,0,0,0,0,0,0,0,0
1682944111.90015912,129928841,1545,1545,1544,1545,0,0,0,0,0,0,0,0,0,0
1682944112.00011897,130028801,1544,1544,1544,1544,0,0,0,0,0,0,0,0,0,0
1682944112.10007906,130128761,1544,1544,1544,1544,0,0,0,0,0,0,0,0,0,0
1682944112.20003891,130228721,1544,1544,1544,1544,0,0,0,0,0,0,0,0,0,0
1682944112.29999900,130328681,1545,1545,1545,1545,0,0,0,0,0,0,0,0,0,0
1682944112.39995909,130428641,1544,1544,1544,1544,0,0,0,0,0,0,0,0,0,0
1682944112.49991894,130528601,1544,1544,1544,1544,0,0,0,0,0,0,0,0,0,0
1682944112.59987903,130628561,1544,1545,1544,1544,0,0,0,0,0,0,0,0,0,0
1682944112.69983912,130728521,1544,1544,1544,1545,0,0,0,0,0,0,0,0,0,0
1682944112.79979897,130828481,1544,1544,1544,1544,0,0,0,0,0,0,0,0,0,0
1682944112.89975905,130928441,1544,1544,1544,1544,0,0,0,0,0,0,0,0,0,0
1682944112.99971890,131028401,1544,1544,1544,1543,0,0,0,0,0,0,0,0,0,0
1682944113.09967899,131128361,1544,1544,1544,1544,0,0,0,0,0,0,0,0,0,0
1682944113.19963908,131228321,1544,1544,1544,1544,0,0,0,0,0,0,0,0,0,0
1682944113.29959893,131328281,1544,1543,1544,1544,0,0,0,0,0,0,0,0,0,0
1682944113.39955902,131428241,1543,1544,1544,1544,0,0,0,0,0,0,0,0,0,0
1682944113.49951911,131528201,1543,1543,1543,1543,0,0,0,0,0,0,0,0,0,0
1682944113.59947896,131628161,1543,1544,1543,1543,0,0,0,0,0,0,0,0,0,0
1682944113.70027208,131728954,1543,1544,1543,1544,0,0,0,0,0,0,0,0,0,0
1682944113.80023193,131828914,1543,1543,1543,1543,0,0,0,0,0,0,0,0,0,0
1682944113.90019202,131928874,1544,1544,1544,1543,0,0,0,0,0,0,0,0,0,0
1682944114.00015211,132028834,1544,1544,1544,1544,0,0,0,0,0,0,0,0,0,0
1682944114.10011196,132128794,1545,1545,1545,1545,0,0,0,0,0,0,0,0,0,0
1682944114.20007205,132228754,1544,1544,1544,1544,0,0,0,0,0,0,0,0,0,0
1682944114.30003190,132328714,1545,1544,1544,1545,0,0,0,0,0,0,0,0,0,0
1682944114.39999199,132428674,1544,1544,1544,1544,0,0,0,0,0,0,0,0,0,0
1682944114.49995208,132528634,1543,1544,1544,1544,0,0,0,0,0,0,0,0,0,0
1682944114.59991193,132628594,1544,1545,1544,1545,0,0,0,0,0,0,0,0,0,0
1682944114.69987202,132728554,1544,1544,1544,1544,0,0,0,0,0,0,0,0,0,0
1682944114.79983211,132828514,1544,1544,1544,1544,0,0,0,0,0,0,0,0,0,0
1682944114.89979196,132928474,1545,1545,1545,1545,0,0,0,0,0,0,0,0,0,0
1682944114.99975204,133028434,1544,1544,1544,1544,0,0,0,0,0,0,0,0,0,0
1682944115.09971189,133128394,1545,1545,1544,1545,0,0,0,0,0,0,0,0,0,0
1682944115.19967198,133228354,1543,1544,1544,1544,0,0,0,0,0,0,0,0,0,0
1682944115.29963207,133328314,1544,1544,1544,1544,0,0,0,0,0,0,0,0,0,0
1682944115.39959192,133428274,1544,1544,1544,1544,0,0,0,0,0,0,0,0,0,0
1682944115.49955201,133528234,1544,1543,1543,1544,0,0,0,0,0,0,0,0,0,0
1682944115.59951210,133628194,1543,1543,1543,1543,0,0,0,0,0,0,0,0,0,0
1682944115.69947195,133728154,1537,1534,1537,1534,0,0,0,0,0,0,0,0,0,0
1682944115.80026507,133828947,1394,1344,1395,1344,0,0,0,0,0,0,0,0,0,0
1682944115.90022492,133928907,1327,1244,1328,1243,0,0,0,0,0,0,0,0,0,0
1682944116.00018501,134028867,1307,1212,1308,1210,0,0,0,0,0,0,0,0,0,0
1682944116.10014510,134128827,1293,1187,1294,1187,0,0,0,0,0,0,0,0,0,0
1682944116.20010495,134228787,1272,1151,1273,1150,0,0,0,0,0,0,0,0,0,0
1682944116.30006504,134328747,1182,1150,1182,1150,0,0,0,0,0,0,0,0,0,0
1682944116.40002489,134428707,1103,1150,1104,1150,0,0,0,0,0,0,0,0,0,0
1682944116.49998498,134528667,1104,1150,1104,1150,0,0,0,0,0,0,0,0,0,0
1682944116.59994507,134628627,1103,1150,1104,1150,0,0,0,0,0,0,0,0,0,0
1682944116.69990492,134728587,1104,1150,1091,1167,0,0,0,0,0,0,0,0,0,0
1682944116.79986501,134828547,1104,1150,1094,1163,0,0,0,0,0,0,0,0,0,0
1682944116.89982510,134928507,1104,1150,1097,1159,0,0,0,0,0,0,0,0,0,0
1682944116.99978495,135028467,1104,1150,1097,1159,0,0,0,0,0,0,0,0,0,0
1682944117.09974504,135128427,1104,1150,1097,1159,0,0,0,0,0,0,0,0,0,0
1682944117.19970512,135228387,1104,1150,1097,1160,0,0,0,0,0,0,0,0,0,0
1682944117.29966497,135328347,1104,1150,1096,1161,0,0,0,0,0,0,0,0,0,0
1682944117.39962506,135428307,1104,1150,1096,1161,0,0,0,0,0,0,0,0,0,0
1682944117.49958491,135528267,1104,1150,1102,1153,0,0,0,0,0,0,0,0,0,0
1682944117.59954500,135628227,1104,1150,1101,1154,0,0,0,0,0,0,0,0,0,0
1682944117.69950509,135728187,1104,1150,1100,1155,0,0,0,0,0,0,0,0,0,0
1682944117.80029798,135828980,1103,1150,1100,1155,0,0,0,0,0,0,0,0,0,0
1682944117.90025806,135928940,1103,1150,1100,1156,0,0,0,0,0,0,0,0,0,0
1682944118.00021791,136028900,1000,1000,1000,1000,0,0,0,0,0,0,0,0,0,0
1682944118.10017800,136128860,1000,1000,1000,1000,0,0,0,0,0,0,0,0,0,0
1682944118.20013809,136228820,1000,1000,1000,1000,0,0,0,0,0,0,0,0,0,0
1682944118.30009794,136328780,1000,1000,1000,1000,0,0,0,0,0,0,0,0,0,0
1682944118.40005803,136428740,1000,1000,1000,1000,0,0,0,0,0,0,0,0,0,0
1682944118.50001812,136528700,1000,1000,1000,1000,0,0,0,0,0,0,0,0,0,0
1682944118.59997797,136628660,1000,1000,1000,1000,0,0,0,0,0,0,0,0,0,0
1682944118.69993806,136728620,1000,1000,1000,1000,0,0,0,0,0,0,0,0,0,0
1682944118.79989791,136828580,1000,1000,1000,1000,0,0,0,0,0,0,0,0,0,0
1682944118.89985800,136928540,1000,1000,1000,1000,0,0,0,0,0,0,0,0,0,0
1682944118.99981809,137028500,1000,1000,1000,1000,0,0,0,0,0,0,0,0,0,0
1682944119.09977794,137128460,1000,1000,1000,1000,0,0,0,0,0,0,0,0,0,0
1682944119.19973803,137228420,1000,1000,1000,1000,0,0,0,0,0,0,0,0,0,0
1682944119.29969811,137328380,1000,1000,1000,1000,0,0,0,0,0,0,0,0,0,0
1682944119.39965796,137428340,1000,1000,1000,1000,0,0,0,0,0,0,0,0,0,0
1682944119.49961805,137528300,1000,1000,1000,1000,0,0,0,0,0,0,0,0,0,0
1682944119.59957790,137628260,1000,1000,1000,1000,0,0,0,0,0,0,0,0,0,0
1682944119.69953799,137728220,1000,1000,1000,1000,0,0,0,0,0,0,0,0,0,0
1682944119.79949808,137828180,1000,1000,1000,1000,0,0,0,0,0,0,0,0,0,0
1682944119.90029097,137928973,1000,1000,1000,1000,0,0,0,0,0,0,0,0,0,0
1682944120.00025105,138028933,1000,1000,1000,1000,0,0,0,0,0,0,0,0,0,0
1682944120.10021091,138128893,1000,1000,1000,1000,0,0,0,0,0,0,0,0,0,0
1682944120.20017099,138228853,1000,1000,1000,1000,0,0,0,0,0,0,0,0,0,0
1682944120.30013108,138328813,1000,1000,1000,1000,0,0,0,0,0,0,0,0,0,0
1682944120.40009093,138428773,1000,1000,1000,1000,0,0,0,0,0,0,0,0,0,0
1682944120.50005102,138528733,1000,1000,1000,1000,0,0,0,0,0,0,0,0,0,0
1682944120.60001111,138628693,1000,1000,1000,1000,0,0,0,0,0,0,0,0,0,0
1682944120.69997096,138728653,1000,1000,1000,1000,0,0,0,0,0,0,0,0,0,0
1682944120.79993105,138828613,1000,1000,1000,1000,0,0,0,0,0,0,0,0,0,0
1682944120.89989090,138928573,1000,1000,1000,1000,0,0,0,0,0,0,0,0,0,0
1682944120.99985099,139028533,1000,1000,1000,1000,0,0,0,0,0,0,0,0,0,0
1682944121.09981108,139128493,1000,1000,1000,1000,0,0,0,0,0,0,0,0,0,0
1682944121.19977093,139228453,1000,1000,1000,1000,0,0,0,0,0,0,0,0,0,0
1682944121.29973102,139328413,1000,1000,1000,1000,0,0,0,0,0,0,0,0,0,0
1682944121.39969110,139428373,1000,1000,1000,1000,0,0,0,0,0,0,0,0,0,0
1682944121.49965096,139528333,1000,1000,1000,1000,0,0,0,0,0,0,0,0,0,0
1682944121.59961104,139628293,1000,1000,1000,1000,0,0,0,0,0,0,0,0,0,0
1682944121.69957089,139728253,1000,1000,1000,1000,0,0,0,0,0,0,0,0,0,0
1682944121.79953098,139828213,1000,1000,1000,1000,0,0,0,0,0,0,0,0,0,0
1682944121.89949107,139928173,1000,1000,1000,1000,0,0,0,0,0,0,0,0,0,0
1682944122.00028396,140028966,1000,1000,1000,1000,0,0,0,0,0,0,0,0,0,0
1682944122.10024405,140128926,1000,1000,1000,1000,0,0,0,0,0,0,0,0,0,0
1682944122.20020390,140228886,1000,1000,1000,1000,0,0,0,0,0,0,0,0,0,0
1682944122.30016398,140328846,1000,1000,1000,1000,0,0,0,0,0,0,0,0,0,0
1682944122.40012407,140428806,1000,1000,1000,1000,0,0,0,0,0,0,0,0,0,0
1682944122.50008392,140528766,1000,1000,1000,1000,0,0,0,0,0,0,0,0,0,0
1682944122.60004401,140628726,1000,1000,1000,1000,0,0,0,0,0,0,0,0,0,0
1682944122.70000410,140728686,1000,1000,1000,1000,0,0,0,0,0,0,0,0,0,0
1682944122.79996395,140828646,1000,1000,1000,1000,0,0,0,0,0,0,0,0,0,0
1682944122.89992404,140928606,1000,1000,1000,1000,0,0,0,0,0,0,0,0,0,0
1682944122.99988389,141028566,1000,1000,1000,1000,0,0,0,0,0,0,0,0,0,0
1682944123.09984398,141128526,1000,1000,1000,1000,0,0,0,0,0,0,0,0,0,0
1682944123.19980407,141228486,1000,1000,1000,1000,0,0,0,0,0,0,0,0,0,0
1682944123.29976392,141328446,1000,1000,1000,1000,0,0,0,0,0,0,0,0,0,0
1682944123.39972401,141428406,1000,1000,1000,1000,0,0,0,0,0,0,0,0,0,0
1682944123.49968410,141528366,1000,1000,1000,1000,0,0,0,0,0,0,0,0,0,0
1682944123.59964395,141628326,1000,1000,1000,1000,0,0,0,0,0,0,0,0,0,0
1682944123.69960403,141728286,1000,1000,1000,1000,0,0,0,0,0,0,0,0,0,0
1682944123.79956412,141828246,1000,1000,1000,1000,0,0,0,0,0,0,0,0,0,0
1682944123.89952397,141928206,1000,1000,1000,1000,0,0,0,0,0,0,0,0,0,0
1682944123.99948406,142028166,1000,1000,1000,1000,0,0,0,0,0,0,0,0,0,0
1682944124.10027695,142128959,1000,1000,1000,1000,0,0,0,0,0,0,0,0,0,0
1682944124.20023704,142228919,1000,1000,1000,1000,0,0,0,0,0,0,0,0,0,0
1682944124.30019712,142328879,1000,1000,1000,1000,0,0,0,0,0,0,0,0,0,0
1682944124.40015697,142428839,1000,1000,1000,1000,0,0,0,0,0,0,0,0,0,0
1682944124.50011706,142528799,1000,1000,1000,1000,0,0,0,0,0,0,0,0,0,0
1682944124.60007691,142628759,1000,1000,1000,1000,0,0,0,0,0,0,0,0,0,0
1682944124.70003700,142728719,1000,1000,1000,1000,0,0,0,0,0,0,0,0,0,0
1682944124.79999709,142828679,1000,1000,1000,1000,0,0,0,0,0,0,0,0,0,0
1682944124.89995694,142928639,1000,1000,1000,1000,0,0,0,0,0,0,0,0,0,0
1682944124.99991703,143028599,1000,1000,1000,1000,0,0,0,0,0,0,0,0,0,0
1682944125.09987712,143128559,1000,1000,1000,1000,0,0,0,0,0,0,0,0,0,0
1682944125.19983697,143228519,1000,1000,1000,1000,0,0,0,0,0,0,0,0,0,0
1682944125.29979706,143328479,1000,1000,1000,1000,0,0,0,0,0,0,0,0,0,0
1682944125.39975691,143428439,1000,1000,1000,1000,0,0,0,0,0,0,0,0,0,0
1682944125.49971700,143528399,1000,1000,1000,1000,0,0,0,0,0,0,0,0,0,0
1682944125.59967709,143628359,1000,1000,1000,1000,0,0,0,0,0,0,0,0,0,0
1682944125.69963694,143728319,1000,1000,1000,1000,0,0,0,0,0,0,0,0,0,0
1682944125.79959702,143828279,1000,1000,1000,1000,0,0,0,0,0,0,0,0,0,0
1682944125.89955711,143928239,1000,1000,1000,1000,0,0,0,0,0,0,0,0,0,0
1682944125.99951696,144028199,1000,1000,1000,1000,0,0,0,0,0,0,0,0,0,0
1682944126.09947705,144128159,1000,1000,1000,1000,0,0,0,0,0,0,0,0,0,0
1682944126.20026994,144228952,1000,1000,1000,1000,0,0,0,0,0,0,0,0,0,0
1682944126.30023003,144328912,1000,1000,1000,1000,0,0,0,0,0,0,0,0,0,0
1682944126.40019011,144428872,1000,1000,1000,1000,0,0,0,0,0,0,0,0,0,0
1682944126.50014997,144528832,1000,1000,1000,1000,0,0,0,0,0,0,0,0,0,0
1682944126.60011005,144628792,1000,1000,1000,1000,0,0,0,0,0,0,0,0,0,0
1682944126.70006990,144728752,1000,1000,1000,1000,0,0,0,0,0,0,0,0,0,0
1682944126.80002999,144828712,1000,1000,1000,1000,0,0,0,0,0,0,0,0,0,0
1682944126.89999008,144928672,1000,1000,1000,1000,0,0,0,0,0,0,0,0,0,0
1682944126.99994993,145028632,1000,1000,1000,1000,0,0,0,0,0,0,0,0,0,0
1682944127.09991002,145128592,1000,1000,1000,1000,0,0,0,0,0,0,0,0,0,0
1682944127.19987011,145228552,1000,1000,1000,1000,0,0,0,0,0,0,0,0,0,0
1682944127.29982996,145328512,1000,1000,1000,1000,0,0,0,0,0,0,0,0,0,0
1682944127.39979005,145428472,1000,1000,1000,1000,0,0,0,0,0,0,0,0,0,0
1682944127.49974990,145528432,1000,1000,1000,1000,0,0,0,0,0,0,0,0,0,0
1682944127.59970999,145628392,1000,1000,1000,1000,0,0,0,0,0,0,0,0,0,0
1682944127.69967008,145728352,1000,1000,1000,1000,0,0,0,0,0,0,0,0,0,0
1682944127.79962993,145828312,1000,1000,1000,1000,0,0,0,0,0,0,0,0,0,0
1682944127.89959002,145928272,1000,1000,1000,1000,0,0,0,0,0,0,0,0,0,0
1682944127.99955010,146028232,1000,1000,1000,1000,0,0,0,0,0,0,0,0,0,0
1682944128.09950995,146128192,1000,1000,1000,1000,0,0,0,0,0,0,0,0,0,0
1682944128.20030308,146228985,1000,1000,1000,1000,0,0,0,0,0,0,0,0,0,0
1682944128.30026293,146328945,1000,1000,1000,1000,0,0,0,0,0,0,0,0,0,0
1682944128.40022302,146428905,1000,1000,1000,1000,0,0,0,0,0,0,0,0,0,0
1682944128.50018311,146528865,1000,1000,1000,1000,0,0,0,0,0,0,0,0,0,0
1682944128.60014296,146628825,1000,1000,1000,1000,0,0,0,0,0,0,0,0,0,0
1682944128.70010304,146728785,1000,1000,1000,1000,0,0,0,0,0,0,0,0,0,0
1682944128.80006289,146828745,1000,1000,1000,1000,0,0,0,0,0,0,0,0,0,0
1682944128.90002298,146928705,1000,1000,1000,1000,0,0,0,0,0,0,0,0,0,0
1682944128.99998307,147028665,1000,1000,1000,1000,0,0,0,0,0,0,0,0,0,0
1682944129.09994292,147128625,1000,1000,1000,1000,0,0,0,0,0,0,0,0,0,0
1682944129.19990301,147228585,1000,1000,1000,1000,0,0,0,0,0,0,0,0,0,0
1682944129.29986310,147328545,1000,1000,1000,1000,0,0,0,0,0,0,0,0,0,0
1682944129.39982295,147428505,1000,1000,1000,1000,0,0,0,0,0,0,0,0,0,0
1682944129.49978304,147528465,1000,1000,1000,1000,0,0,0,0,0,0,0,0,0,0
1682944129.59974289,147628425,1000,1000,1000,1000,0,0,0,0,0,0,0,0,0,0
1682944129.69970298,147728385,1000,1000,1000,1000,0,0,0,0,0,0,0,0,0,0
1682944129.79966307,147828345,1000,1000,1000,1000,0,0,0,0,0,0,0,0,0,0
