TimeUS,M1,M2,M3,M4,TimeUS,C1,C2,C3,C4
57646099,1000,1000,1000,1000,57728566,1000,1000,1000,1000
57648598,1000,1000,1000,1000,57828526,1000,1000,1000,1000
57651097,1000,1000,1000,1000,57928486,1000,1000,1000,1000
57653596,1000,1000,1000,1000,58028446,1000,1000,1000,1000
57656095,1000,1000,1000,1000,58128406,1000,1000,1000,1000
57658594,1000,1000,1000,1000,58228366,1000,1000,1000,1000
57661093,1000,1000,1000,1000,58328326,1000,1000,1000,1000
57663592,1000,1000,1000,1000,58428286,1000,1000,1000,1000
57666091,1000,1000,1000,1000,58528246,1000,1000,1000,1000
57668590,1000,1000,1000,1000,58628206,1000,1000,1000,1000
57671089,1000,1000,1000,1000,58728166,1000,1000,1000,1000
57673588,1000,1000,1000,1000,58828959,1000,1000,1000,1000
57676087,1000,1000,1000,1000,58928919,1000,1000,1000,1000
57678586,1000,1000,1000,1000,59028879,1000,1000,1000,1000
57681085,1000,1000,1000,1000,59128839,1000,1000,1000,1000
57683584,1000,1000,1000,1000,59228799,1000,1000,1000,1000
57686083,1000,1000,1000,1000,59328759,1000,1000,1000,1000
57688582,1000,1000,1000,1000,59428719,1000,1000,1000,1000
57691081,1000,1000,1000,1000,59528679,1000,1000,1000,1000
57693580,1000,1000,1000,1000,59628639,1000,1000,1000,1000
57696079,1000,1000,1000,1000,59728599,1024,1024,1024,1024
57698578,1000,1000,1000,1000,59828559,1054,1054,1054,1054
57701077,1000,1000,1000,1000,59928519,1084,1084,1084,1084
57703576,1000,1000,1000,1000,60028479,1114,1114,1114,1114
57706075,1000,1000,1000,1000,60128439,1144,1144,1144,1144
57708574,1000,1000,1000,1000,60228399,1363,1356,1357,1363
57711073,1000,1000,1000,1000,60328359,1551,1545,1546,1551
57713572,1000,1000,1000,1000,60428319,1702,1697,1698,1703
57716071,1000,1000,1000,1000,60528279,1833,1828,1828,1833
57718570,1000,1000,1000,1000,60628239,1891,1887,1887,1892
57721069,1000,1000,1000,1000,60728199,1836,1834,1835,1837
57723568,1000,1000,1000,1000,60828159,1710,1710,1711,1710
57726067,1000,1000,1000,1000,60928952,1641,1643,1643,1641
57728566,1000,1000,1000,1000,61028912,1629,1631,1631,1629
57731065,1000,1000,1000,1000,61128872,1637,1639,1639,1637
57733564,1000,1000,1000,1000,61228832,1642,1644,1643,1643
57736063,1000,1000,1000,1000,61328792,1639,1638,1638,1639
57738562,1000,1000,1000,1000,61428752,1630,1629,1629,1630
57741061,1000,1000,1000,1000,61528712,1618,1619,1619,1617
57743560,1000,1000,1000,1000,61628672,1586,1585,1585,1587
57746059,1000,1000,1000,1000,61728632,1582,1581,1573,1591
57748558,1000,1000,1000,1000,61828592,1580,1579,1571,1586
57751057,1000,1000,1000,1000,61928552,1577,1577,1574,1580
57753556,1000,1000,1000,1000,62028512,1580,1580,1580,1579
57756055,1000,1000,1000,1000,62128472,1583,1583,1586,1579
57758554,1000,1000,1000,1000,62228432,1576,1576,1584,1568
57761053,1000,1000,1000,1000,62328392,1561,1562,1579,1544
57763552,1000,1000,1000,1000,62428352,1553,1553,1562,1546
57766051,1000,1000,1000,1000,62528312,1545,1544,1543,1548
57768550,1000,1000,1000,1000,62628272,1537,1537,1529,1547
57771049,1000,1000,1000,1000,62728232,1532,1531,1522,1542
57773548,1000,1000,1000,1000,62828192,1530,1529,1522,1537
57776047,1000,1000,1000,1000,62928985,1530,1529,1526,1533
57778546,1000,1000,1000,1000,63028945,1532,1532,1532,1532
57781045,1000,1000,1000,1000,63128905,1536,1536,1539,1532
57783544,1000,1000,1000,1000,63228865,1539,1540,1544,1535
57786043,1000,1000,1000,1000,63328825,1544,1544,1548,1541
57788542,1000,1000,1000,1000,63428785,1547,1547,1549,1545
57791041,1000,1000,1000,1000,63528745,1549,1549,1549,1549
57793540,1000,1000,1000,1000,63628705,1552,1549,1551,1555
57796039,1000,1000,1000,1000,63728665,1549,1549,1558,1563
57798538,1000,1000,1000,1000,63828625,1550,1552,1560,1564
57801037,1000,1000,1000,1000,63928585,1554,1555,1561,1563
57803536,1000,1000,1000,1000,64028545,1559,1560,1563,1563
57806035,1000,1000,1000,1000,64128505,1564,1564,1564,1563
57808534,1000,1000,1000,1000,64228465,1567,1567,1564,1563
57811033,1000,1000,1000,1000,64328425,1571,1570,1565,1564
57813532,1000,1000,1000,1000,64428385,1573,1572,1566,1565
57816031,1000,1000,1000,1000,64528345,1573,1572,1565,1565
57818530,1000,1000,1000,1000,64628305,1573,1574,1567,1567
57821029,1000,1000,1000,1000,64728265,1573,1573,1567,1568
57823528,1000,1000,1000,1000,64828225,1573,1573,1569,1570
57826027,1000,1000,1000,1000,64928185,1573,1572,1570,1571
57828526,1000,1000,1000,1000,65028978,1573,1573,1572,1572
57831025,1000,1000,1000,1000,65128938,1573,1573,1574,1573
57833524,1000,1000,1000,1000,65228898,1573,1573,1576,1574
57836023,1000,1000,1000,1000,65328858,1574,1574,1577,1576
57838522,1000,1000,1000,1000,65428818,1574,1575,1578,1577
57841021,1000,1000,1000,1000,65528778,1574,1574,1577,1577
57843520,1000,1000,1000,1000,65628738,1574,1574,1576,1577
57846019,1000,1000,1000,1000,65728698,1574,1575,1575,1576
57848518,1000,1000,1000,1000,65828658,1575,1575,1576,1576
57851017,1000,1000,1000,1000,65928618,1576,1576,1576,1576
57853516,1000,1000,1000,1000,66028578,1577,1576,1577,1576
57856015,1000,1000,1000,1000,66128538,1578,1578,1577,1577
57858514,1000,1000,1000,1000,66228498,1578,1578,1577,1576
57861013,1000,1000,1000,1000,66328458,1578,1579,1578,1577
57863512,1000,1000,1000,1000,66428418,1577,1577,1576,1576
57866011,1000,1000,1000,1000,66528378,1578,1578,1577,1577
57868510,1000,1000,1000,1000,66628338,1578,1578,1577,1577
57871009,1000,1000,1000,1000,66728298,1578,1578,1577,1578
57873508,1000,1000,1000,1000,66828258,1579,1579,1579,1579
57876007,1000,1000,1000,1000,66928218,1578,1579,1579,1578
57878506,1000,1000,1000,1000,67028178,1579,1579,1579,1579
57881005,1000,1000,1000,1000,67128971,1578,1578,1578,1579
57883504,1000,1000,1000,1000,67228931,1578,1578,1579,1579
57886003,1000,1000,1000,1000,67328891,1577,1579,1579,1579
57888502,1000,1000,1000,1000,67428851,1578,1578,1579,1579
57891001,1000,1000,1000,1000,67528811,1579,1579,1580,1579
57893500,1000,1000,1000,1000,67628771,1580,1580,1580,1580
57895999,1000,1000,1000,1000,67728731,1580,1580,1580,1580
57898498,1000,1000,1000,1000,67828691,1581,1580,1580,1581
57900997,1000,1000,1000,1000,67928651,1579,1579,1579,1579
57903496,1000,1000,1000,1000,68028611,1579,1579,1579,1579
57905995,1000,1000,1000,1000,68128571,1579,1580,1579,1579
57908494,1000,1000,1000,1000,68228531,1580,1580,1580,1580
57910993,1000,1000,1000,1000,68328491,1580,1580,1580,1580
57913492,1000,1000,1000,1000,68428451,1579,1580,1580,1579
57915991,1000,1000,1000,1000,68528411,1580,1580,1580,1580
57918490,1000,1000,1000,1000,68628371,1580,1579,1580,1580
57920989,1000,1000,1000,1000,68728331,1580,1580,1581,1580
57923488,1000,1000,1000,1000,68828291,1580,1580,1580,1581
57925987,1000,1000,1000,1000,68928251,1581,1581,1581,1581
57928486,1000,1000,1000,1000,69028211,1580,1580,1580,1580
57930985,1000,1000,1000,1000,69128171,1581,1581,1581,1581
57933484,1000,1000,1000,1000,69228964,1581,1581,1581,1582
57935983,1000,1000,1000,1000,69328924,1581,1581,1581,1582
57938482,1000,1000,1000,1000,69428884,1580,1580,1580,1580
57940981,1000,1000,1000,1000,69528844,1581,1581,1580,1581
57943480,1000,1000,1000,1000,69628804,1580,1581,1581,1580
57945979,1000,1000,1000,1000,69728764,1580,1580,1580,1580
57948478,1000,1000,1000,1000,69828724,1580,1581,1581,1581
57950977,1000,1000,1000,1000,69928684,1581,1581,1585,1577
57953476,1000,1000,1000,1000,70028644,1579,1582,1587,1572
57955975,1000,1000,1000,1000,70128604,1579,1581,1580,1573
57958474,1000,1000,1000,1000,70228564,1577,1580,1572,1573
57960973,1000,1000,1000,1000,70328524,1577,1579,1564,1570
57963472,1000,1000,1000,1000,70428484,1577,1579,1559,1566
57965971,1000,1000,1000,1000,70528444,1578,1577,1555,1561
57968470,1000,1000,1000,1000,70628404,1578,1576,1554,1556
57970969,1000,1000,1000,1000,70728364,1579,1577,1555,1555
57973468,1000,1000,1000,1000,70828324,1579,1578,1557,1554
57975967,1000,1000,1000,1000,70928284,1578,1578,1556,1554
57978466,1000,1000,1000,1000,71028244,1577,1578,1556,1555
57980965,1000,1000,1000,1000,71128204,1574,1576,1554,1554
57983464,1000,1000,1000,1000,71228164,1575,1576,1554,1554
57985963,1000,1000,1000,1000,71328957,1576,1577,1554,1553
57988462,1000,1000,1000,1000,71428917,1576,1578,1552,1552
57990961,1000,1000,1000,1000,71528877,1577,1579,1549,1550
57993460,1000,1000,1000,1000,71628837,1579,1581,1547,1547
57995959,1000,1000,1000,1000,71728797,1582,1583,1545,1545
57998458,1000,1000,1000,1000,71828757,1585,1586,1542,1541
58000957,1000,1000,1000,1000,71928717,1588,1589,1539,1539
58003456,1000,1000,1000,1000,72028677,1591,1591,1536,1536
58005955,1000,1000,1000,1000,72128637,1594,1593,1535,1535
58008454,1000,1000,1000,1000,72228597,1595,1594,1534,1535
58010953,1000,1000,1000,1000,72328557,1595,1595,1536,1537
58013452,1000,1000,1000,1000,72428517,1593,1593,1537,1539
58015951,1000,1000,1000,1000,72528477,1590,1589,1540,1543
58018450,1000,1000,1000,1000,72628437,1586,1585,1546,1550
58020949,1000,1000,1000,1000,72728397,1579,1576,1555,1558
58023448,1000,1000,1000,1000,72828357,1571,1567,1567,1569
58025947,1000,1000,1000,1000,72928317,1560,1556,1579,1580
58028446,1000,1000,1000,1000,73028277,1549,1546,1591,1591
58030945,1000,1000,1000,1000,73128237,1540,1538,1603,1602
58033444,1000,1000,1000,1000,73228197,1533,1533,1610,1610
58035943,1000,1000,1000,1000,73328157,1529,1530,1614,1614
58038442,1000,1000,1000,1000,73428950,1528,1531,1615,1613
58040941,1000,1000,1000,1000,73528910,1532,1535,1612,1611
58043440,1000,1000,1000,1000,73628870,1540,1541,1607,1607
58045939,1000,1000,1000,1000,73728830,1548,1548,1599,1600
58048438,1000,1000,1000,1000,73828790,1557,1558,1593,1594
58050937,1000,1000,1000,1000,73928750,1566,1566,1586,1585
58053436,1000,1000,1000,1000,74028710,1574,1574,1579,1578
58055935,1000,1000,1000,1000,74128670,1580,1579,1574,1573
58058434,1000,1000,1000,1000,74228630,1585,1583,1569,1569
58060933,1000,1000,1000,1000,74328590,1587,1586,1567,1567
58063432,1000,1000,1000,1000,74428550,1588,1586,1566,1567
58065931,1000,1000,1000,1000,74528510,1587,1585,1566,1567
58068430,1000,1000,1000,1000,74628470,1586,1585,1569,1570
58070929,1000,1000,1000,1000,74728430,1583,1582,1572,1572
58073428,1000,1000,1000,1000,74828390,1581,1581,1576,1575
58075927,1000,1000,1000,1000,74928350,1576,1577,1577,1577
58078426,1000,1000,1000,1000,75028310,1574,1574,1579,1579
58080925,1000,1000,1000,1000,75128270,1408,1549,1416,1557
58083424,1000,1000,1000,1000,75228230,1601,1575,1613,1585
58085923,1000,1000,1000,1000,75328190,1584,1578,1597,1589
58088422,1000,1000,1000,1000,75428983,1572,1579,1583,1589
58090921,1000,1000,1000,1000,75528943,1566,1579,1575,1588
58093420,1000,1000,1000,1000,75628903,1564,1576,1570,1583
58095919,1000,1000,1000,1000,75728863,1566,1573,1569,1577
58098418,1000,1000,1000,1000,75828823,1572,1572,1571,1572
58100917,1000,1000,1000,1000,75928783,1577,1573,1573,1570
58103416,1000,1000,1000,1000,76028743,1581,1576,1576,1571
58105915,1000,1000,1000,1000,76128703,1582,1578,1577,1571
58108414,1000,1000,1000,1000,76228663,1583,1580,1578,1575
58110913,1000,1000,1000,1000,76328623,1583,1581,1577,1576
58113412,1000,1000,1000,1000,76428583,1581,1581,1578,1577
58115911,1000,1000,1000,1000,76528543,1580,1582,1578,1580
58118410,1000,1000,1000,1000,76628503,1581,1582,1580,1581
58120909,1000,1000,1000,1000,76728463,1580,1580,1581,1581
58123408,1000,1000,1000,1000,76828423,1580,1580,1582,1582
58125907,1000,1000,1000,1000,76928383,1581,1580,1584,1583
58128406,1000,1000,1000,1000,77028343,1580,1581,1584,1583
58130905,1000,1000,1000,1000,77128303,1579,1579,1583,1582
58133404,1000,1000,1000,1000,77228263,1579,1580,1583,1583
58135903,1000,1000,1000,1000,77328223,1580,1579,1582,1582
58138402,1000,1000,1000,1000,77428183,1581,1581,1582,1583
58140901,1000,1000,1000,1000,77528976,1581,1580,1582,1581
58143400,1000,1000,1000,1000,77628936,1581,1582,1582,1582
58145899,1000,1000,1000,1000,77728896,1582,1582,1582,1582
58148398,1000,1000,1000,1000,77828856,1582,1582,1581,1581
58150897,1000,1000,1000,1000,77928816,1581,1582,1582,1578
58153396,1000,1000,1000,1000,78028776,1581,1585,1588,1572
58155895,1000,1000,1000,1000,78128736,1581,1585,1581,1571
58158394,1000,1000,1000,1000,78228696,1580,1582,1571,1570
58160893,1000,1000,1000,1000,78328656,1580,1581,1562,1568
58163392,1000,1000,1000,1000,78428616,1580,1581,1555,1563
58165891,1000,1000,1000,1000,78528576,1580,1580,1552,1558
58168390,1000,1000,1000,1000,78628536,1582,1580,1552,1554
58170889,1000,1000,1000,1000,78728496,1583,1582,1554,1554
58173388,1000,1000,1000,1000,78828456,1582,1581,1555,1552
58175887,1000,1000,1000,1000,78928416,1581,1581,1555,1553
58178386,1000,1000,1000,1000,79028376,1579,1579,1555,1553
58180885,1000,1000,1000,1000,79128336,1577,1578,1554,1553
58183384,1000,1000,1000,1000,79228296,1576,1578,1554,1553
58185883,1000,1000,1000,1000,79328256,1575,1577,1551,1552
58188382,1000,1000,1000,1000,79428216,1577,1579,1551,1552
58190881,1000,1000,1000,1000,79528176,1579,1580,1550,1550
58193380,1000,1000,1000,1000,79628969,1581,1581,1548,1548
58195879,1000,1000,1000,1000,79728929,1583,1584,1547,1547
58198378,1000,1000,1000,1000,79828889,1585,1586,1545,1544
58200877,1000,1000,1000,1000,79928849,1588,1589,1542,1542
58203376,1000,1000,1000,1000,80028809,1590,1592,1539,1540
58205875,1000,1000,1000,1000,80128769,1593,1594,1537,1540
58208374,1000,1000,1000,1000,80228729,1595,1594,1539,1541
58210873,1000,1000,1000,1000,80328689,1593,1591,1541,1544
58213372,1000,1000,1000,1000,80428649,1590,1587,1547,1549
58215871,1000,1000,1000,1000,80528609,1584,1580,1555,1557
58218370,1000,1000,1000,1000,80628569,1576,1573,1566,1567
58220869,1000,1000,1000,1000,80728529,1566,1563,1576,1578
58223368,1000,1000,1000,1000,80828489,1556,1554,1588,1589
58225867,1000,1000,1000,1000,80928449,1548,1547,1598,1598
58228366,1000,1000,1000,1000,81028409,1542,1541,1605,1605
58230865,1000,1000,1000,1000,81128369,1537,1538,1610,1609
58233364,1000,1000,1000,1000,81228329,1536,1538,1611,1611
58235863,1000,1000,1000,1000,81328289,1539,1541,1610,1610
58238362,1000,1000,1000,1000,81428249,1544,1545,1606,1605
58240861,1000,1000,1000,1000,81528209,1551,1552,1601,1600
58243360,1000,1000,1000,1000,81628169,1559,1560,1595,1594
58245859,1000,1000,1000,1000,81728962,1567,1567,1588,1587
58248358,1000,1000,1000,1000,81828922,1573,1573,1582,1581
58250857,1000,1000,1000,1000,81928882,1578,1578,1576,1577
58253356,1000,1000,1000,1000,82028842,1582,1582,1572,1572
58255855,1000,1000,1000,1000,82128802,1585,1584,1570,1570
58258354,1000,1000,1000,1000,82228762,1587,1586,1569,1569
58260853,1000,1000,1000,1000,82328722,1586,1585,1570,1569
58263352,1000,1000,1000,1000,82428682,1585,1584,1572,1571
58265851,1000,1000,1000,1000,82528642,1583,1582,1573,1573
58268350,1000,1000,1000,1000,82628602,1580,1580,1576,1576
58270849,1000,1000,1000,1000,82728562,1577,1577,1577,1578
58273348,1000,1000,1000,1000,82828522,1575,1576,1580,1581
58275847,1000,1000,1000,1000,82928482,1573,1574,1581,1581
58278346,1000,1000,1000,1000,83028442,1573,1574,1583,1583
58280845,1000,1000,1000,1000,83128402,1573,1573,1584,1583
58283344,1000,1000,1000,1000,83228362,1574,1574,1584,1583
58285843,1000,1000,1000,1000,83328322,1575,1575,1583,1583
58288342,1000,1000,1000,1000,83428282,1576,1576,1582,1582
58290841,1000,1000,1000,1000,83528242,1577,1577,1581,1581
58293340,1000,1000,1000,1000,83628202,1578,1578,1580,1580
58295839,1000,1000,1000,1000,83728162,1579,1580,1580,1580
58298338,1000,1000,1000,1000,83828955,1580,1580,1578,1579
58300837,1000,1000,1000,1000,83928915,1582,1581,1578,1578
58303336,1000,1000,1000,1000,84028875,1582,1582,1578,1578
58305835,1000,1000,1000,1000,84128835,1582,1581,1578,1578
58308334,1000,1000,1000,1000,84228795,1581,1581,1578,1578
58310833,1000,1000,1000,1000,84328755,1581,1581,1578,1578
58313332,1000,1000,1000,1000,84428715,1581,1580,1579,1579
58315831,1000,1000,1000,1000,84528675,1580,1580,1580,1580
58318330,1000,1000,1000,1000,84628635,1580,1580,1580,1580
58320829,1000,1000,1000,1000,84728595,1579,1579,1580,1580
58323328,1000,1000,1000,1000,84828555,1580,1580,1580,1581
58325827,1000,1000,1000,1000,84928515,1580,1580,1581,1581
58328326,1000,1000,1000,1000,85028475,1580,1580,1581,1581
58330825,1000,1000,1000,1000,85128435,1579,1579,1580,1580
58333324,1000,1000,1000,1000,85228395,1580,1580,1581,1581
58335823,1000,1000,1000,1000,85328355,1580,1580,1581,1581
58338322,1000,1000,1000,1000,85428315,1579,1580,1580,1580
58340821,1000,1000,1000,1000,85528275,1580,1580,1580,1581
58343320,1000,1000,1000,1000,85628235,1581,1581,1581,1581
58345819,1000,1000,1000,1000,85728195,1581,1581,1581,1581
58348318,1000,1000,1000,1000,85828155,1582,1582,1581,1581
58350817,1000,1000,1000,1000,85928948,1582,1582,1581,1582
58353316,1000,1000,1000,1000,86028908,1581,1582,1587,1574
58355815,1000,1000,1000,1000,86128868,1581,1583,1585,1572
58358314,1000,1000,1000,1000,86228828,1580,1583,1577,1573
58360813,1000,1000,1000,1000,86328788,1578,1581,1568,1571
58363312,1000,1000,1000,1000,86428748,1578,1580,1560,1567
58365811,1000,1000,1000,1000,86528708,1578,1579,1556,1563
58368310,1000,1000,1000,1000,86628668,1580,1578,1554,1558
58370809,1000,1000,1000,1000,86728628,1580,1579,1555,1555
58373308,1000,1000,1000,1000,86828588,1580,1579,1556,1554
58375807,1000,1000,1000,1000,86928548,1579,1579,1556,1554
58378306,1000,1000,1000,1000,87028508,1578,1578,1556,1553
58380805,1000,1000,1000,1000,87128468,1577,1577,1555,1555
58383304,1000,1000,1000,1000,87228428,1576,1577,1555,1555
58385803,1000,1000,1000,1000,87328388,1576,1577,1554,1554
58388302,1000,1000,1000,1000,87428348,1576,1577,1552,1553
58390801,1000,1000,1000,1000,87528308,1577,1578,1551,1551
58393300,1000,1000,1000,1000,87628268,1578,1580,1549,1549
58395799,1000,1000,1000,1000,87728228,1580,1580,1545,1545
58398298,1000,1000,1000,1000,87828188,1583,1584,1544,1543
58400797,1000,1000,1000,1000,87928981,1586,1587,1542,1541
58403296,1000,1000,1000,1000,88028941,1588,1588,1539,1539
58405795,1000,1000,1000,1000,88128901,1590,1590,1537,1537
58408294,1000,1000,1000,1000,88228861,1591,1592,1537,1538
58410793,1000,1000,1000,1000,88328821,1592,1593,1536,1538
58413292,1000,1000,1000,1000,88428781,1593,1592,1537,1540
58415791,1000,1000,1000,1000,88528741,1591,1590,1541,1544
58418290,1000,1000,1000,1000,88628701,1588,1585,1547,1550
58420789,1000,1000,1000,1000,88728661,1582,1578,1556,1559
58423288,1000,1000,1000,1000,88828621,1573,1570,1568,1569
58425787,1000,1000,1000,1000,88928581,1563,1560,1579,1581
58428286,1000,1000,1000,1000,89028541,1551,1549,1589,1590
58430785,1000,1000,1000,1000,89128501,1543,1541,1600,1600
58433284,1000,1000,1000,1000,89228461,1536,1536,1607,1607
58435783,1000,1000,1000,1000,89328421,1534,1535,1612,1612
58438282,1000,1000,1000,1000,89428381,1534,1535,1613,1613
58440781,1000,1000,1000,1000,89528341,1537,1539,1611,1610
58443280,1000,1000,1000,1000,89628301,1543,1545,1607,1607
58445779,1000,1000,1000,1000,89728261,1551,1552,1601,1600
58448278,1000,1000,1000,1000,89828221,1559,1560,1594,1593
58450777,1000,1000,1000,1000,89928181,1567,1567,1587,1586
58453276,1000,1000,1000,1000,90028974,1574,1574,1581,1580
58455775,1000,1000,1000,1000,90128934,1580,1579,1575,1574
58458274,1000,1000,1000,1000,90228894,1583,1583,1571,1571
58460773,1000,1000,1000,1000,90328854,1586,1585,1568,1568
58463272,1000,1000,1000,1000,90428814,1586,1585,1567,1567
58465771,1000,1000,1000,1000,90528774,1586,1584,1568,1568
58468270,1000,1000,1000,1000,90628734,1584,1583,1570,1570
58470769,1000,1000,1000,1000,90728694,1582,1581,1572,1572
58473268,1000,1000,1000,1000,90828654,1579,1579,1575,1575
58475767,1000,1000,1000,1000,90928614,1577,1578,1578,1578
58478266,1000,1000,1000,1000,91028574,1576,1576,1581,1581
58480765,1000,1000,1000,1000,91128534,1574,1575,1583,1582
58483264,1000,1000,1000,1000,91228494,1573,1574,1584,1583
58485763,1000,1000,1000,1000,91328454,1573,1573,1584,1583
58488262,1000,1000,1000,1000,91428414,1573,1573,1583,1583
58490761,1000,1000,1000,1000,91528374,1575,1575,1583,1583
58493260,1000,1000,1000,1000,91628334,1576,1576,1582,1582
58495759,1000,1000,1000,1000,91728294,1577,1577,1580,1581
58498258,1000,1000,1000,1000,91828254,1578,1578,1579,1579
58500757,1000,1000,1000,1000,91928214,1579,1579,1578,1578
58503256,1000,1000,1000,1000,92028174,1579,1579,1577,1577
58505755,1000,1000,1000,1000,92128967,1580,1580,1577,1577
58508254,1000,1000,1000,1000,92228927,1580,1580,1576,1576
58510753,1000,1000,1000,1000,92328887,1581,1581,1577,1577
58513252,1000,1000,1000,1000,92428847,1581,1581,1579,1578
58515751,1000,1000,1000,1000,92528807,1582,1581,1579,1579
58518250,1000,1000,1000,1000,92628767,1580,1580,1578,1579
58520749,1000,1000,1000,1000,92728727,1580,1580,1579,1579
58523248,1000,1000,1000,1000,92828687,1579,1579,1579,1579
58525747,1000,1000,1000,1000,92928647,1579,1579,1580,1580
58528246,1000,1000,1000,1000,93028607,1580,1580,1581,1581
58530745,1000,1000,1000,1000,93128567,1581,1581,1583,1582
58533244,1000,1000,1000,1000,93228527,1580,1580,1581,1581
58535743,1000,1000,1000,1000,93328487,1579,1579,1581,1581
58538242,1000,1000,1000,1000,93428447,1579,1579,1580,1580
58540741,1000,1000,1000,1000,93528407,1580,1580,1581,1580
58543240,1000,1000,1000,1000,93628367,1580,1580,1581,1581
58545739,1000,1000,1000,1000,93728327,1580,1580,1580,1580
58548238,1000,1000,1000,1000,93828287,1581,1581,1581,1581
58550737,1000,1000,1000,1000,93928247,1581,1581,1585,1574
58553236,1000,1000,1000,1000,94028207,1581,1582,1587,1573
58555735,1000,1000,1000,1000,94128167,1579,1580,1581,1574
58558234,1000,1000,1000,1000,94228960,1576,1575,1572,1575
58560733,1000,1000,1000,1000,94328920,1573,1572,1567,1574
58563232,1000,1000,1000,1000,94428880,1570,1569,1565,1572
58565731,1000,1000,1000,1000,94528840,1568,1568,1565,1570
58568230,1000,1000,1000,1000,94628800,1566,1566,1565,1567
58570729,1000,1000,1000,1000,94728760,1565,1566,1566,1565
58573228,1000,1000,1000,1000,94828720,1566,1566,1568,1565
58575727,1000,1000,1000,1000,94928680,1564,1564,1566,1563
58578226,1000,1000,1000,1000,95028640,1564,1564,1566,1564
58580725,1000,1000,1000,1000,95128600,1564,1564,1565,1564
58583224,1000,1000,1000,1000,95228560,1563,1563,1564,1564
58585723,1000,1000,1000,1000,95328520,1562,1562,1562,1563
58588222,1000,1000,1000,1000,95428480,1562,1562,1562,1563
58590721,1000,1000,1000,1000,95528440,1562,1562,1562,1562
58593220,1000,1000,1000,1000,95628400,1562,1563,1562,1562
58595719,1000,1000,1000,1000,95728360,1562,1562,1561,1561
58598218,1000,1000,1000,1000,95828320,1560,1560,1560,1559
58600717,1000,1000,1000,1000,95928280,1559,1559,1559,1558
58603216,1000,1000,1000,1000,96028240,1558,1558,1558,1557
58605715,1000,1000,1000,1000,96128200,1557,1557,1558,1557
58608214,1000,1000,1000,1000,96228160,1556,1557,1557,1556
58610713,1000,1000,1000,1000,96328953,1557,1557,1558,1556
58613212,1000,1000,1000,1000,96428913,1557,1558,1558,1557
58615711,1000,1000,1000,1000,96528873,1558,1558,1559,1557
58618210,1000,1000,1000,1000,96628833,1558,1557,1559,1556
58620709,1000,1000,1000,1000,96728793,1558,1558,1559,1558
58623208,1000,1000,1000,1000,96828753,1559,1559,1557,1560
58625707,1000,1000,1000,1000,96928713,1560,1560,1557,1563
58628206,1000,1000,1000,1000,97028673,1561,1561,1558,1564
58630705,1000,1000,1000,1000,97128633,1563,1562,1560,1565
58633204,1000,1000,1000,1000,97228593,1563,1563,1562,1564
58635703,1000,1000,1000,1000,97328553,1564,1564,1564,1564
58638202,1000,1000,1000,1000,97428513,1563,1563,1564,1561
58640701,1000,1000,1000,1000,97528473,1561,1560,1560,1561
58643200,1000,1000,1000,1000,97628433,1556,1556,1555,1557
58645699,1000,1000,1000,1000,97728393,1551,1551,1550,1552
58648198,1000,1000,1000,1000,97828353,1545,1545,1545,1545
58650697,1000,1000,1000,1000,97928313,1538,1538,1538,1538
58653196,1000,1000,1000,1000,98028273,1531,1531,1531,1531
58655695,1000,1000,1000,1000,98128233,1523,1523,1523,1523
58658194,1000,1000,1000,1000,98228193,1520,1520,1520,1520
58660693,1000,1000,1000,1000,98328986,1520,1520,1520,1520
58663192,1000,1000,1000,1000,98428946,1520,1520,1520,1520
58665691,1000,1000,1000,1000,98528906,1523,1523,1523,1523
58668190,1000,1000,1000,1000,98628866,1526,1526,1526,1527
58670689,1000,1000,1000,1000,98728826,1530,1530,1530,1530
58673188,1000,1000,1000,1000,98828786,1536,1535,1536,1535
58675687,1000,1000,1000,1000,98928746,1538,1538,1538,1538
58678186,1000,1000,1000,1000,99028706,1540,1541,1541,1540
58680685,1000,1000,1000,1000,99128666,1544,1543,1543,1543
58683184,1000,1000,1000,1000,99228626,1544,1544,1544,1544
58685683,1000,1000,1000,1000,99328586,1545,1546,1545,1546
58688182,1000,1000,1000,1000,99428546,1546,1546,1546,1546
58690681,1000,1000,1000,1000,99528506,1547,1546,1546,1547
58693180,1000,1000,1000,1000,99628466,1546,1546,1547,1546
58695679,1000,1000,1000,1000,99728426,1546,1546,1546,1545
58698178,1000,1000,1000,1000,99828386,1545,1546,1545,1546
58700677,1000,1000,1000,1000,99928346,1545,1545,1545,1545
58703176,1000,1000,1000,1000,100028306,1545,1545,1545,1545
58705675,1000,1000,1000,1000,100128266,1545,1545,1545,1545
58708174,1000,1000,1000,1000,100228226,1545,1545,1545,1545
58710673,1000,1000,1000,1000,100328186,1545,1545,1545,1545
58713172,1000,1000,1000,1000,100428979,1544,1545,1545,1545
58715671,1000,1000,1000,1000,100528939,1544,1545,1544,1544
58718170,1000,1000,1000,1000,100628899,1544,1544,1544,1544
58720669,1000,1000,1000,1000,100728859,1543,1543,1544,1543
58723168,1000,1000,1000,1000,100828819,1545,1545,1545,1545
58725667,1000,1000,1000,1000,100928779,1545,1544,1544,1544
58728166,1000,1000,1000,1000,101028739,1544,1544,1544,1544
58730665,1000,1000,1000,1000,101128699,1543,1543,1543,1543
58733164,1000,1000,1000,1000,101228659,1543,1544,1543,1544
58735663,1000,1000,1000,1000,101328619,1544,1544,1544,1544
58738162,1000,1000,1000,1000,101428579,1544,1545,1544,1544
58740661,1000,1000,1000,1000,101528539,1544,1543,1543,1543
58743160,1000,1000,1000,1000,101628499,1544,1544,1543,1544
58745659,1000,1000,1000,1000,101728459,1544,1544,1544,1544
58748158,1000,1000,1000,1000,101828419,1544,1544,1544,1544
58750657,1000,1000,1000,1000,101928379,1544,1543,1543,1543
58753156,1000,1000,1000,1000,102028339,1544,1544,1544,1544
58755655,1000,1000,1000,1000,102128299,1544,1544,1544,1544
58758154,1000,1000,1000,1000,102228259,1544,1544,1544,1544
58761486,1000,1000,1000,1000,102328219,1544,1544,1544,1544
58763985,1000,1000,1000,1000,102428179,1544,1544,1544,1544
58766484,1000,1000,1000,1000,102528972,1544,1544,1544,1544
58768983,1000,1000,1000,1000,102628932,1544,1544,1544,1544
58771482,1000,1000,1000,1000,102728892,1544,1543,1543,1544
58773981,1000,1000,1000,1000,102828852,1544,1543,1543,1544
58776480,1000,1000,1000,1000,102928812,1544,1544,1544,1544
58778979,1000,1000,1000,1000,103028772,1544,1545,1544,1544
58781478,1000,1000,1000,1000,103128732,1543,1544,1544,1543
58783977,1000,1000,1000,1000,103228692,1544,1545,1545,1544
58786476,1000,1000,1000,1000,103328652,1544,1544,1544,1544
58788975,1000,1000,1000,1000,103428612,1543,1543,1543,1544
58791474,1000,1000,1000,1000,103528572,1544,1543,1543,1544
58793973,1000,1000,1000,1000,103628532,1544,1544,1544,1544
58796472,1000,1000,1000,1000,103728492,1544,1543,1543,1544
58798971,1000,1000,1000,1000,103828452,1544,1544,1544,1544
58801470,1000,1000,1000,1000,103928412,1544,1543,1544,1543
58803969,1000,1000,1000,1000,104028372,1544,1544,1544,1544
58806468,1000,1000,1000,1000,104128332,1544,1544,1543,1544
58808967,1000,1000,1000,1000,104228292,1544,1545,1544,1544
58811466,1000,1000,1000,1000,104328252,1544,1545,1544,1544
58813965,1000,1000,1000,1000,104428212,1544,1544,1544,1544
58816464,1000,1000,1000,1000,104528172,1544,1544,1544,1544
58818963,1000,1000,1000,1000,104628965,1544,1545,1544,1545
58821462,1000,1000,1000,1000,104728925,1545,1545,1545,1545
58823961,1000,1000,1000,1000,104828885,1544,1544,1544,1544
58826460,1000,1000,1000,1000,104928845,1545,1545,1545,1545
58828959,1000,1000,1000,1000,105028805,1545,1545,1545,1545
58831458,1000,1000,1000,1000,105128765,1545,1545,1545,1545
58833957,1000,1000,1000,1000,105228725,1545,1545,1545,1544
58836456,1000,1000,1000,1000,105328685,1544,1543,1544,1544
58838955,1000,1000,1000,1000,105428645,1544,1544,1544,1544
58841454,1000,1000,1000,1000,105528605,1545,1545,1545,1545
58843953,1000,1000,1000,1000,105628565,1544,1544,1544,1544
58846452,1000,1000,1000,1000,105728525,1545,1545,1545,1545
58848951,1000,1000,1000,1000,105828485,1545,1545,1546,1545
58851450,1000,1000,1000,1000,105928445,1544,1544,1544,1544
58853949,1000,1000,1000,1000,106028405,1544,1545,1544,1545
58856448,1000,1000,1000,1000,106128365,1544,1544,1544,1544
58858947,1000,1000,1000,1000,106228325,1545,1544,1545,1544
58861446,1000,1000,1000,1000,106328285,1544,1543,1543,1543
58863945,1000,1000,1000,1000,106428245,1544,1544,1544,1543
58866444,1000,1000,1000,1000,106528205,1544,1544,1544,1544
58868943,1000,1000,1000,1000,106628165,1543,1544,1544,1544
58871442,1000,1000,1000,1000,106728958,1544,1544,1544,1545
58873941,1000,1000,1000,1000,106828918,1544,1544,1544,1544
58876440,1000,1000,1000,1000,106928878,1545,1544,1544,1545
58878939,1000,1000,1000,1000,107028838,1544,1544,1544,1544
58881438,1000,1000,1000,1000,107128798,1545,1545,1545,1545
58883937,1000,1000,1000,1000,107228758,1544,1545,1545,1544
58886436,1000,1000,1000,1000,107328718,1545,1544,1544,1545
58888935,1000,1000,1000,1000,107428678,1544,1543,1543,1544
58891434,1000,1000,1000,1000,107528638,1544,1544,1544,1544
58893933,1000,1000,1000,1000,107628598,1543,1544,1544,1543
58896432,1000,1000,1000,1000,107728558,1544,1544,1544,1544
58898931,1000,1000,1000,1000,107828518,1544,1544,1544,1544
58901430,1000,1000,1000,1000,107928478,1456,1459,1456,1458
58903929,1000,1000,1000,1000,108028438,1284,1298,1287,1296
58906428,1000,1000,1000,1000,108128398,1210,1229,1213,1227
58908927,1000,1000,1000,1000,108228358,1185,1206,1188,1204
58911426,1000,1000,1000,1000,108328318,1176,1197,1177,1196
58913925,1000,1000,1000,1000,108428278,1176,1197,1178,1195
58916424,1000,1000,1000,1000,108528238,1176,1196,1178,1195
58918923,1000,1000,1000,1000,108628198,1212,1197,1176,1230
58921422,1000,1000,1000,1000,108728158,1199,1195,1176,1218
58923921,1000,1000,1000,1000,108828951,1195,1195,1176,1213
58926420,1000,1000,1000,1000,108928911,1196,1195,1176,1214
58928919,1000,1000,1000,1000,109028871,1197,1195,1176,1215
58931418,1000,1000,1000,1000,109128831,1200,1194,1176,1217
58933917,1000,1000,1000,1000,109228791,1201,1194,1176,1219
58936416,1000,1000,1000,1000,109328751,1204,1194,1176,1221
58938915,1000,1000,1000,1000,109428711,1189,1195,1176,1208
58941414,1000,1000,1000,1000,109528671,1190,1195,1176,1210
58943913,1000,1000,1000,1000,109628631,1191,1195,1176,1210
58946412,1000,1000,1000,1000,109728591,1192,1195,1176,1211
58948911,1000,1000,1000,1000,109828551,1192,1195,1176,1211
58951410,1000,1000,1000,1000,109928511,1000,1000,1000,1000
58953909,1000,1000,1000,1000,110028471,1000,1000,1000,1000
58956408,1000,1000,1000,1000,110128431,1000,1000,1000,1000
58958907,1000,1000,1000,1000,110228391,1000,1000,1000,1000
58961406,1000,1000,1000,1000,110328351,1000,1000,1000,1000
58963905,1000,1000,1000,1000,110428311,1000,1000,1000,1000
58966404,1000,1000,1000,1000,110528271,1000,1000,1000,1000
58968903,1000,1000,1000,1000,110628231,1000,1000,1000,1000
58971402,1000,1000,1000,1000,110728191,1000,1000,1000,1000
58973901,1000,1000,1000,1000,110828984,1000,1000,1000,1000
58976400,1000,1000,1000,1000,110928944,1000,1000,1000,1000
58978899,1000,1000,1000,1000,111028904,1000,1000,1000,1000
58981398,1000,1000,1000,1000,111128864,1000,1000,1000,1000
58983897,1000,1000,1000,1000,111228824,1000,1000,1000,1000
58986396,1000,1000,1000,1000,111328784,1000,1000,1000,1000
58988895,1000,1000,1000,1000,111428744,1000,1000,1000,1000
58991394,1000,1000,1000,1000,111528704,1000,1000,1000,1000
58993893,1000,1000,1000,1000,111628664,1000,1000,1000,1000
58996392,1000,1000,1000,1000,111728624,1000,1000,1000,1000
58998891,1000,1000,1000,1000,111828584,1000,1000,1000,1000
59001390,1000,1000,1000,1000,111928544,1000,1000,1000,1000
59003889,1000,1000,1000,1000,112028504,1000,1000,1000,1000
59006388,1000,1000,1000,1000,112128464,1000,1000,1000,1000
59008887,1000,1000,1000,1000,112228424,1000,1000,1000,1000
59011386,1000,1000,1000,1000,112328384,1000,1000,1000,1000
59013885,1000,1000,1000,1000,112428344,1000,1000,1000,1000
59016384,1000,1000,1000,1000,112528304,1000,1000,1000,1000
59018883,1000,1000,1000,1000,112628264,1000,1000,1000,1000
59021382,1000,1000,1000,1000,112728224,1000,1000,1000,1000
59023881,1000,1000,1000,1000,112828184,1000,1000,1000,1000
59026380,1000,1000,1000,1000,112928977,1000,1000,1000,1000
59028879,1000,1000,1000,1000,113028937,1000,1000,1000,1000
59031378,1000,1000,1000,1000,113128897,1000,1000,1000,1000
59033877,1000,1000,1000,1000,113228857,1000,1000,1000,1000
59036376,1000,1000,1000,1000,113328817,1000,1000,1000,1000
59038875,1000,1000,1000,1000,113428777,1000,1000,1000,1000
59041374,1000,1000,1000,1000,113528737,1000,1000,1000,1000
59043873,1000,1000,1000,1000,113628697,1000,1000,1000,1000
59046372,1000,1000,1000,1000,113728657,1000,1000,1000,1000
59048871,1000,1000,1000,1000,113828617,1000,1000,1000,1000
59051370,1000,1000,1000,1000,113928577,1000,1000,1000,1000
59053869,1000,1000,1000,1000,114028537,1000,1000,1000,1000
59056368,1000,1000,1000,1000,114128497,1000,1000,1000,1000
59058867,1000,1000,1000,1000,114228457,1000,1000,1000,1000
59061366,1000,1000,1000,1000,114328417,1000,1000,1000,1000
59063865,1000,1000,1000,1000,114428377,1000,1000,1000,1000
59066364,1000,1000,1000,1000,114528337,1000,1000,1000,1000
59068863,1000,1000,1000,1000,114628297,1000,1000,1000,1000
59071362,1000,1000,1000,1000,114728257,1000,1000,1000,1000
59073861,1000,1000,1000,1000,114828217,1000,1000,1000,1000
59076360,1000,1000,1000,1000,114928177,1000,1000,1000,1000
59078859,1000,1000,1000,1000,115028970,1000,1000,1000,1000
59081358,1000,1000,1000,1000,115128930,1000,1000,1000,1000
59083857,1000,1000,1000,1000,115228890,1000,1000,1000,1000
59086356,1000,1000,1000,1000,115328850,1000,1000,1000,1000
59088855,1000,1000,1000,1000,115428810,1000,1000,1000,1000
59091354,1000,1000,1000,1000,115528770,1000,1000,1000,1000
59093853,1000,1000,1000,1000,115628730,1000,1000,1000,1000
59096352,1000,1000,1000,1000,115728690,1000,1000,1000,1000
59098851,1000,1000,1000,1000,115828650,1000,1000,1000,1000
59101350,1000,1000,1000,1000,115928610,1000,1000,1000,1000
59103849,1000,1000,1000,1000,116028570,1000,1000,1000,1000
59106348,1000,1000,1000,1000,116128530,1000,1000,1000,1000
59108847,1000,1000,1000,1000,116228490,1000,1000,1000,1000
59111346,1000,1000,1000,1000,116328450,1000,1000,1000,1000
59113845,1000,1000,1000,1000,116428410,1000,1000,1000,1000
59116344,1000,1000,1000,1000,116528370,1000,1000,1000,1000
59118843,1000,1000,1000,1000,116628330,1000,1000,1000,1000
59121342,1000,1000,1000,1000,116728290,1000,1000,1000,1000
59123841,1000,1000,1000,1000,116828250,1000,1000,1000,1000
59126340,1000,1000,1000,1000,116928210,1000,1000,1000,1000
59128839,1000,1000,1000,1000,117028170,1000,1000,1000,1000
59131338,1000,1000,1000,1000,117128963,1000,1000,1000,1000
59133837,1000,1000,1000,1000,117228923,1000,1000,1000,1000
59136336,1000,1000,1000,1000,117328883,1000,1000,1000,1000
59138835,1000,1000,1000,1000,117428843,1000,1000,1000,1000
59141334,1000,1000,1000,1000,117528803,1000,1000,1000,1000
59143833,1000,1000,1000,1000,117628763,1000,1000,1000,1000
59146332,1000,1000,1000,1000,117728723,1000,1000,1000,1000
59148831,1000,1000,1000,1000,117828683,1000,1000,1000,1000
59151330,1000,1000,1000,1000,117928643,1000,1000,1000,1000
59153829,1000,1000,1000,1000,118028603,1000,1000,1000,1000
59156328,1000,1000,1000,1000,118128563,1000,1000,1000,1000
59158827,1000,1000,1000,1000,118228523,1000,1000,1000,1000
59161326,1000,1000,1000,1000,118328483,1000,1000,1000,1000
59163825,1000,1000,1000,1000,118428443,1000,1000,1000,1000
59166324,1000,1000,1000,1000,118528403,1000,1000,1000,1000
59168823,1000,1000,1000,1000,118628363,1000,1000,1000,1000
59171322,1000,1000,1000,1000,118728323,1000,1000,1000,1000
59173821,1000,1000,1000,1000,118828283,1000,1000,1000,1000
59176320,1000,1000,1000,1000,118928243,1000,1000,1000,1000
59178819,1000,1000,1000,1000,119028203,1000,1000,1000,1000
59181318,1000,1000,1000,1000,119128163,1000,1000,1000,1000
59183817,1000,1000,1000,1000,119228956,1000,1000,1000,1000
59186316,1000,1000,1000,1000,119328916,1000,1000,1000,1000
59188815,1000,1000,1000,1000,119428876,1000,1000,1000,1000
59191314,1000,1000,1000,1000,119528836,1000,1000,1000,1000
59193813,1000,1000,1000,1000,119628796,1000,1000,1000,1000
59196312,1000,1000,1000,1000,119728756,1000,1000,1000,1000
59198811,1000,1000,1000,1000,119828716,1000,1000,1000,1000
59201310,1000,1000,1000,1000,119928676,1000,1000,1000,1000
59203809,1000,1000,1000,1000,120028636,1000,1000,1000,1000
59206308,1000,1000,1000,1000,120128596,1000,1000,1000,1000
59208807,1000,1000,1000,1000,120228556,1000,1000,1000,1000
59211306,1000,1000,1000,1000,120328516,1000,1000,1000,1000
59213805,1000,1000,1000,1000,120428476,1000,1000,1000,1000
59216304,1000,1000,1000,1000,120528436,1000,1000,1000,1000
59218803,1000,1000,1000,1000,120628396,1000,1000,1000,1000
59221302,1000,1000,1000,1000,120728356,1000,1000,1000,1000
59223801,1000,1000,1000,1000,120828316,1000,1000,1000,1000
59226300,1000,1000,1000,1000,120928276,1000,1000,1000,1000
59228799,1000,1000,1000,1000,121028236,1000,1000,1000,1000
59231298,1000,1000,1000,1000,121128196,1000,1000,1000,1000
59233797,1000,1000,1000,1000,121228156,1000,1000,1000,1000
59236296,1000,1000,1000,1000,121328949,1000,1000,1000,1000
59238795,1000,1000,1000,1000,121428909,1000,1000,1000,1000
59241294,1000,1000,1000,1000,121528869,1000,1000,1000,1000
59243793,1000,1000,1000,1000,121628829,1000,1000,1000,1000
59246292,1000,1000,1000,1000,121728789,1000,1000,1000,1000
59248791,1000,1000,1000,1000,121828749,1000,1000,1000,1000
59251290,1000,1000,1000,1000,121928709,1000,1000,1000,1000
59253789,1000,1000,1000,1000,122028669,1000,1000,1000,1000
59256288,1000,1000,1000,1000,122128629,1000,1000,1000,1000
59258787,1000,1000,1000,1000,122228589,1000,1000,1000,1000
59261286,1000,1000,1000,1000,122328549,1000,1000,1000,1000
59263785,1000,1000,1000,1000,122428509,1000,1000,1000,1000
59266284,1000,1000,1000,1000,122528469,1000,1000,1000,1000
59268783,1000,1000,1000,1000,122628429,1000,1000,1000,1000
59271282,1000,1000,1000,1000,122728389,1000,1000,1000,1000
59273781,1000,1000,1000,1000,122828349,1000,1000,1000,1000
59276280,1000,1000,1000,1000,122928309,1000,1000,1000,1000
59278779,1000,1000,1000,1000,123028269,1000,1000,1000,1000
59281278,1000,1000,1000,1000,123128229,1000,1000,1000,1000
59283777,1000,1000,1000,1000,123228189,1000,1000,1000,1000
59286276,1000,1000,1000,1000,123328982,1000,1000,1000,1000
59288775,1000,1000,1000,1000,123428942,1000,1000,1000,1000
59291274,1000,1000,1000,1000,123528902,1000,1000,1000,1000
59293773,1000,1000,1000,1000,123628862,1000,1000,1000,1000
59296272,1000,1000,1000,1000,123728822,1000,1000,1000,1000
59298771,1000,1000,1000,1000,123828782,1000,1000,1000,1000
59301270,1000,1000,1000,1000,123928742,1000,1000,1000,1000
59303769,1000,1000,1000,1000,124028702,1000,1000,1000,1000
59306268,1000,1000,1000,1000,124128662,1000,1000,1000,1000
59308767,1000,1000,1000,1000,124228622,1000,1000,1000,1000
59311266,1000,1000,1000,1000,124328582,1000,1000,1000,1000
59313765,1000,1000,1000,1000,124428542,1000,1000,1000,1000
59316264,1000,1000,1000,1000,124528502,1000,1000,1000,1000
59318763,1000,1000,1000,1000,124628462,1000,1000,1000,1000
59321262,1000,1000,1000,1000,124728422,1000,1000,1000,1000
59323761,1000,1000,1000,1000,124828382,1000,1000,1000,1000
59326260,1000,1000,1000,1000,,,,,
59328759,1000,1000,1000,1000,,,,,
59331258,1000,1000,1000,1000,,,,,
59333757,1000,1000,1000,1000,,,,,
59336256,1000,1000,1000,1000,,,,,
59338755,1000,1000,1000,1000,,,,,
59341254,1000,1000,1000,1000,,,,,
59343753,1000,1000,1000,1000,,,,,
59346252,1000,1000,1000,1000,,,,,
59348751,1000,1000,1000,1000,,,,,
59351250,1000,1000,1000,1000,,,,,
59353749,1000,1000,1000,1000,,,,,
59356248,1000,1000,1000,1000,,,,,
59358747,1000,1000,1000,1000,,,,,
59361246,1000,1000,1000,1000,,,,,
59363745,1000,1000,1000,1000,,,,,
59366244,1000,1000,1000,1000,,,,,
59368743,1000,1000,1000,1000,,,,,
59371242,1000,1000,1000,1000,,,,,
59373741,1000,1000,1000,1000,,,,,
59376240,1000,1000,1000,1000,,,,,
59378739,1000,1000,1000,1000,,,,,
59381238,1000,1000,1000,1000,,,,,
59383737,1000,1000,1000,1000,,,,,
59386236,1000,1000,1000,1000,,,,,
59388735,1000,1000,1000,1000,,,,,
59391234,1000,1000,1000,1000,,,,,
59393733,1000,1000,1000,1000,,,,,
59396232,1000,1000,1000,1000,,,,,
59398731,1000,1000,1000,1000,,,,,
59401230,1000,1000,1000,1000,,,,,
59403729,1000,1000,1000,1000,,,,,
59406228,1000,1000,1000,1000,,,,,
59408727,1000,1000,1000,1000,,,,,
59411226,1000,1000,1000,1000,,,,,
59413725,1000,1000,1000,1000,,,,,
59416224,1000,1000,1000,1000,,,,,
59418723,1000,1000,1000,1000,,,,,
59421222,1000,1000,1000,1000,,,,,
59423721,1000,1000,1000,1000,,,,,
59426220,1000,1000,1000,1000,,,,,
59428719,1000,1000,1000,1000,,,,,
59431218,1000,1000,1000,1000,,,,,
59433717,1000,1000,1000,1000,,,,,
59436216,1000,1000,1000,1000,,,,,
59438715,1000,1000,1000,1000,,,,,
59441214,1000,1000,1000,1000,,,,,
59443713,1000,1000,1000,1000,,,,,
59446212,1000,1000,1000,1000,,,,,
59448711,1000,1000,1000,1000,,,,,
59451210,1000,1000,1000,1000,,,,,
59453709,1000,1000,1000,1000,,,,,
59456208,1000,1000,1000,1000,,,,,
59458707,1000,1000,1000,1000,,,,,
59461206,1000,1000,1000,1000,,,,,
59463705,1000,1000,1000,1000,,,,,
59466204,1000,1000,1000,1000,,,,,
59468703,1000,1000,1000,1000,,,,,
59471202,1000,1000,1000,1000,,,,,
59473701,1000,1000,1000,1000,,,,,
59476200,1000,1000,1000,1000,,,,,
59478699,1000,1000,1000,1000,,,,,
59481198,1000,1000,1000,1000,,,,,
59483697,1000,1000,1000,1000,,,,,
59486196,1000,1000,1000,1000,,,,,
59488695,1000,1000,1000,1000,,,,,
59491194,1000,1000,1000,1000,,,,,
59493693,1000,1000,1000,1000,,,,,
59496192,1000,1000,1000,1000,,,,,
59498691,1000,1000,1000,1000,,,,,
59501190,1000,1000,1000,1000,,,,,
59503689,1000,1000,1000,1000,,,,,
59506188,1000,1000,1000,1000,,,,,
59508687,1000,1000,1000,1000,,,,,
59511186,1000,1000,1000,1000,,,,,
59513685,1000,1000,1000,1000,,,,,
59516184,1000,1000,1000,1000,,,,,
59518683,1000,1000,1000,1000,,,,,
59521182,1000,1000,1000,1000,,,,,
59523681,1000,1000,1000,1000,,,,,
59526180,1000,1000,1000,1000,,,,,
59528679,1000,1000,1000,1000,,,,,
59531178,1000,1000,1000,1000,,,,,
59533677,1000,1000,1000,1000,,,,,
59536176,1000,1000,1000,1000,,,,,
59538675,1000,1000,1000,1000,,,,,
59541174,1000,1000,1000,1000,,,,,
59543673,1000,1000,1000,1000,,,,,
59546172,1000,1000,1000,1000,,,,,
59548671,1000,1000,1000,1000,,,,,
59551170,1000,1000,1000,1000,,,,,
59553669,1000,1000,1000,1000,,,,,
59556168,1000,1000,1000,1000,,,,,
59558667,1000,1000,1000,1000,,,,,
59561166,1000,1000,1000,1000,,,,,
59563665,1000,1000,1000,1000,,,,,
59566164,1000,1000,1000,1000,,,,,
59568663,1000,1000,1000,1000,,,,,
59571162,1000,1000,1000,1000,,,,,
59573661,1000,1000,1000,1000,,,,,
59576160,1000,1000,1000,1000,,,,,
59578659,1000,1000,1000,1000,,,,,
59581158,1000,1000,1000,1000,,,,,
59583657,1000,1000,1000,1000,,,,,
59586156,1000,1000,1000,1000,,,,,
59588655,1000,1000,1000,1000,,,,,
59591154,1000,1000,1000,1000,,,,,
59593653,1000,1000,1000,1000,,,,,
59596152,1000,1000,1000,1000,,,,,
59598651,1000,1000,1000,1000,,,,,
59601150,1000,1000,1000,1000,,,,,
59603649,1000,1000,1000,1000,,,,,
59606148,1000,1000,1000,1000,,,,,
59608647,1000,1000,1000,1000,,,,,
59611146,1000,1000,1000,1000,,,,,
59613645,1000,1000,1000,1000,,,,,
59616144,1000,1000,1000,1000,,,,,
59618643,1000,1000,1000,1000,,,,,
59621142,1000,1000,1000,1000,,,,,
59623641,1000,1000,1000,1000,,,,,
59626140,1000,1000,1000,1000,,,,,
59628639,1000,1000,1000,1000,,,,,
59631138,1000,1000,1000,1000,,,,,
59633637,1000,1000,1000,1000,,,,,
59636136,1000,1000,1000,1000,,,,,
59638635,1000,1000,1000,1000,,,,,
59641134,1000,1000,1000,1000,,,,,
59643633,1000,1000,1000,1000,,,,,
59646132,1000,1000,1000,1000,,,,,
59648631,1000,1000,1000,1000,,,,,
59651130,1000,1000,1000,1000,,,,,
59653629,1001,1001,1001,1001,,,,,
59656128,1002,1002,1002,1002,,,,,
59658627,1003,1003,1003,1003,,,,,
59661126,1003,1003,1003,1003,,,,,
59663625,1004,1004,1004,1004,,,,,
59666124,1005,1005,1005,1005,,,,,
59668623,1006,1006,1006,1006,,,,,
59671122,1006,1006,1006,1006,,,,,
59673621,1007,1007,1007,1007,,,,,
59676120,1008,1008,1008,1008,,,,,
59678619,1009,1009,1009,1009,,,,,
59681118,1009,1009,1009,1009,,,,,
59683617,1010,1010,1010,1010,,,,,
59686116,1011,1011,1011,1011,,,,,
59688615,1012,1012,1012,1012,,,,,
59691114,1012,1012,1012,1012,,,,,
59693613,1013,1013,1013,1013,,,,,
59696112,1014,1014,1014,1014,,,,,
59698611,1015,1015,1015,1015,,,,,
59701110,1015,1015,1015,1015,,,,,
59703609,1016,1016,1016,1016,,,,,
59706108,1017,1017,1017,1017,,,,,
59708607,1018,1018,1018,1018,,,,,
59711106,1018,1018,1018,1018,,,,,
59713605,1019,1019,1019,1019,,,,,
59716104,1020,1020,1020,1020,,,,,
59718603,1021,1021,1021,1021,,,,,
59721102,1021,1021,1021,1021,,,,,
59723601,1022,1022,1022,1022,,,,,
59726100,1023,1023,1023,1023,,,,,
59728599,1024,1024,1024,1024,,,,,
59731098,1024,1024,1024,1024,,,,,
59733597,1025,1025,1025,1025,,,,,
59736096,1026,1026,1026,1026,,,,,
59738595,1027,1027,1027,1027,,,,,
59741094,1027,1027,1027,1027,,,,,
59743593,1028,1028,1028,1028,,,,,
59746092,1029,1029,1029,1029,,,,,
59748591,1030,1030,1030,1030,,,,,
59751090,1030,1030,1030,1030,,,,,
59753589,1031,1031,1031,1031,,,,,
59756088,1032,1032,1032,1032,,,,,
59758587,1033,1033,1033,1033,,,,,
59761086,1033,1033,1033,1033,,,,,
59763585,1034,1034,1034,1034,,,,,
59766084,1035,1035,1035,1035,,,,,
59768583,1036,1036,1036,1036,,,,,
59771082,1036,1036,1036,1036,,,,,
59773581,1037,1037,1037,1037,,,,,
59776080,1038,1038,1038,1038,,,,,
59778579,1039,1039,1039,1039,,,,,
59781078,1039,1039,1039,1039,,,,,
59783577,1040,1040,1040,1040,,,,,
59786076,1041,1041,1041,1041,,,,,
59788575,1042,1042,1042,1042,,,,,
59791074,1042,1042,1042,1042,,,,,
59793573,1043,1043,1043,1043,,,,,
59796072,1044,1044,1044,1044,,,,,
59798571,1045,1045,1045,1045,,,,,
59801070,1045,1045,1045,1045,,,,,
59803569,1046,1046,1046,1046,,,,,
59806068,1047,1047,1047,1047,,,,,
59808567,1048,1048,1048,1048,,,,,
59811066,1048,1048,1048,1048,,,,,
59813565,1049,1049,1049,1049,,,,,
59816064,1050,1050,1050,1050,,,,,
59818563,1051,1051,1051,1051,,,,,
59821062,1051,1051,1051,1051,,,,,
59823561,1052,1052,1052,1052,,,,,
59826060,1053,1053,1053,1053,,,,,
59828559,1054,1054,1054,1054,,,,,
59831058,1054,1054,1054,1054,,,,,
59833557,1055,1055,1055,1055,,,,,
59836056,1056,1056,1056,1056,,,,,
59838555,1057,1057,1057,1057,,,,,
59841054,1057,1057,1057,1057,,,,,
59843553,1058,1058,1058,1058,,,,,
59846052,1059,1059,1059,1059,,,,,
59848551,1060,1060,1060,1060,,,,,
59851050,1060,1060,1060,1060,,,,,
59853549,1061,1061,1061,1061,,,,,
59856048,1062,1062,1062,1062,,,,,
59858547,1063,1063,1063,1063,,,,,
59861046,1063,1063,1063,1063,,,,,
59863545,1064,1064,1064,1064,,,,,
59866044,1065,1065,1065,1065,,,,,
59868543,1066,1066,1066,1066,,,,,
59871042,1066,1066,1066,1066,,,,,
59873541,1067,1067,1067,1067,,,,,
59876040,1068,1068,1068,1068,,,,,
59878539,1069,1069,1069,1069,,,,,
59881038,1069,1069,1069,1069,,,,,
59883537,1070,1070,1070,1070,,,,,
59886036,1071,1071,1071,1071,,,,,
59888535,1072,1072,1072,1072,,,,,
59891034,1072,1072,1072,1072,,,,,
59893533,1073,1073,1073,1073,,,,,
59896032,1074,1074,1074,1074,,,,,
59898531,1075,1075,1075,1075,,,,,
59901030,1075,1075,1075,1075,,,,,
59903529,1076,1076,1076,1076,,,,,
59906028,1077,1077,1077,1077,,,,,
59908527,1078,1078,1078,1078,,,,,
59911026,1078,1078,1078,1078,,,,,
59913525,1079,1079,1079,1079,,,,,
59916024,1080,1080,1080,1080,,,,,
59918523,1081,1081,1081,1081,,,,,
59921022,1081,1081,1081,1081,,,,,
59923521,1082,1082,1082,1082,,,,,
59926020,1083,1083,1083,1083,,,,,
59928519,1084,1084,1084,1084,,,,,
59931018,1084,1084,1084,1084,,,,,
59933517,1085,1085,1085,1085,,,,,
59936016,1086,1086,1086,1086,,,,,
59938515,1087,1087,1087,1087,,,,,
59941014,1087,1087,1087,1087,,,,,
59943513,1088,1088,1088,1088,,,,,
59946012,1089,1089,1089,1089,,,,,
59948511,1090,1090,1090,1090,,,,,
59951010,1090,1090,1090,1090,,,,,
59953509,1091,1091,1091,1091,,,,,
59956008,1092,1092,1092,1092,,,,,
59958507,1093,1093,1093,1093,,,,,
59961006,1093,1093,1093,1093,,,,,
59963505,1094,1094,1094,1094,,,,,
59966004,1095,1095,1095,1095,,,,,
59968503,1096,1096,1096,1096,,,,,
59971002,1096,1096,1096,1096,,,,,
59973501,1097,1097,1097,1097,,,,,
59976000,1098,1098,1098,1098,,,,,
59978499,1099,1099,1099,1099,,,,,
59980998,1099,1099,1099,1099,,,,,
59983497,1100,1100,1100,1100,,,,,
59985996,1101,1101,1101,1101,,,,,
59988495,1101,1101,1101,1101,,,,,
59990994,1102,1102,1102,1102,,,,,
59993493,1103,1103,1103,1103,,,,,
59995992,1104,1104,1104,1104,,,,,
59998491,1104,1104,1104,1104,,,,,
60000990,1105,1105,1105,1105,,,,,
60003489,1106,1106,1106,1106,,,,,
60005988,1107,1107,1107,1107,,,,,
60008487,1107,1107,1107,1107,,,,,
60010986,1108,1108,1108,1108,,,,,
60013485,1109,1109,1109,1109,,,,,
60015984,1110,1110,1110,1110,,,,,
60018483,1110,1110,1110,1110,,,,,
60020982,1111,1111,1111,1111,,,,,
60023481,1112,1112,1112,1112,,,,,
60025980,1113,1113,1113,1113,,,,,
60028479,1113,1113,1113,1113,,,,,
60030978,1114,1114,1114,1114,,,,,
60033477,1115,1115,1115,1115,,,,,
60035976,1116,1116,1116,1116,,,,,
60038475,1116,1116,1116,1116,,,,,
60040974,1117,1117,1117,1117,,,,,
60043473,1118,1118,1118,1118,,,,,
60045972,1119,1119,1119,1119,,,,,
60048471,1119,1119,1119,1119,,,,,
60050970,1120,1120,1120,1120,,,,,
60053469,1121,1121,1121,1121,,,,,
60055968,1122,1122,1122,1122,,,,,
60058467,1122,1122,1122,1122,,,,,
60060966,1123,1123,1123,1123,,,,,
60063465,1124,1124,1124,1124,,,,,
60065964,1125,1125,1125,1125,,,,,
60068463,1125,1125,1125,1125,,,,,
60070962,1126,1126,1126,1126,,,,,
60073461,1127,1127,1127,1127,,,,,
60075960,1128,1128,1128,1128,,,,,
60078459,1128,1128,1128,1128,,,,,
60080958,1129,1129,1129,1129,,,,,
60083457,1130,1130,1130,1130,,,,,
60085956,1131,1131,1131,1131,,,,,
60088455,1131,1131,1131,1131,,,,,
60090954,1132,1132,1132,1132,,,,,
60093453,1133,1133,1133,1133,,,,,
60095952,1134,1134,1134,1134,,,,,
60098451,1134,1134,1134,1134,,,,,
60100950,1135,1135,1135,1135,,,,,
60103449,1136,1136,1136,1136,,,,,
60105948,1137,1137,1137,1137,,,,,
60108447,1137,1137,1137,1137,,,,,
60110946,1138,1138,1138,1138,,,,,
60113445,1139,1139,1139,1139,,,,,
60115944,1140,1140,1140,1140,,,,,
60118443,1140,1140,1140,1140,,,,,
60120942,1141,1141,1141,1141,,,,,
60123441,1142,1142,1142,1142,,,,,
60125940,1143,1143,1143,1143,,,,,
60128439,1143,1143,1143,1143,,,,,
60130938,1144,1144,1144,1144,,,,,
60133437,1145,1145,1145,1145,,,,,
60135936,1146,1146,1146,1146,,,,,
60138435,1146,1146,1146,1146,,,,,
60140934,1147,1147,1147,1147,,,,,
60143433,1148,1148,1148,1148,,,,,
60145932,1149,1149,1149,1149,,,,,
60148431,1149,1149,1149,1149,,,,,
60150930,1150,1150,1150,1150,,,,,
60153429,1162,1153,1153,1163,,,,,
60155928,1170,1161,1162,1170,,,,,
60158427,1178,1169,1170,1178,,,,,
60160926,1186,1177,1177,1186,,,,,
60163425,1193,1184,1185,1194,,,,,
60165924,1201,1192,1193,1201,,,,,
60168423,1208,1199,1200,1208,,,,,
60170922,1215,1207,1207,1215,,,,,
60173421,1222,1214,1215,1223,,,,,
60175920,1229,1221,1222,1229,,,,,
60178419,1236,1228,1229,1236,,,,,
60180918,1243,1235,1235,1243,,,,,
60183417,1249,1242,1242,1250,,,,,
60185916,1256,1248,1249,1256,,,,,
60188415,1263,1255,1256,1263,,,,,
60190914,1269,1261,1262,1269,,,,,
60193413,1275,1268,1268,1276,,,,,
60195912,1282,1274,1275,1282,,,,,
60198411,1288,1281,1281,1288,,,,,
60200910,1294,1287,1287,1294,,,,,
60203409,1300,1293,1293,1300,,,,,
60205908,1306,1299,1299,1306,,,,,
60208407,1312,1305,1305,1312,,,,,
60210906,1318,1311,1311,1318,,,,,
60213405,1324,1317,1317,1324,,,,,
60215904,1329,1323,1323,1330,,,,,
60218403,1335,1328,1329,1336,,,,,
60220902,1341,1334,1334,1341,,,,,
60223401,1346,1340,1340,1347,,,,,
60225900,1352,1345,1346,1352,,,,,
60228399,1357,1351,1351,1358,,,,,
60230898,1363,1356,1357,1363,,,,,
60233397,1368,1362,1362,1369,,,,,
60235896,1374,1367,1368,1374,,,,,
60238395,1379,1373,1373,1379,,,,,
60240894,1384,1378,1378,1385,,,,,
60243393,1389,1383,1383,1390,,,,,
60245892,1394,1388,1389,1395,,,,,
60248391,1400,1393,1394,1400,,,,,
60250890,1405,1399,1399,1405,,,,,
60253389,1410,1404,1404,1410,,,,,
60255888,1415,1409,1409,1415,,,,,
60258387,1420,1414,1414,1420,,,,,
60260886,1425,1419,1419,1425,,,,,
60263385,1430,1424,1424,1430,,,,,
60265884,1434,1429,1429,1435,,,,,
60268383,1439,1433,1434,1440,,,,,
60270882,1444,1438,1439,1445,,,,,
60273381,1449,1443,1443,1449,,,,,
60275880,1454,1448,1448,1454,,,,,
60278379,1458,1453,1453,1459,,,,,
60280878,1463,1457,1458,1463,,,,,
60283377,1468,1462,1462,1468,,,,,
60285876,1472,1467,1467,1473,,,,,
60288375,1477,1471,1471,1477,,,,,
60290874,1481,1476,1476,1482,,,,,
60293373,1486,1480,1481,1486,,,,,
60295872,1490,1485,1485,1491,,,,,
60298371,1495,1489,1490,1495,,,,,
60300870,1499,1494,1494,1500,,,,,
60303369,1504,1498,1499,1504,,,,,
60305868,1508,1503,1503,1508,,,,,
60308367,1513,1507,1507,1513,,,,,
60310866,1517,1511,1512,1517,,,,,
60313365,1521,1516,1516,1521,,,,,
60315864,1525,1520,1520,1526,,,,,
60318363,1530,1524,1525,1530,,,,,
60320862,1534,1529,1529,1534,,,,,
60323361,1538,1533,1533,1539,,,,,
60325860,1542,1537,1537,1543,,,,,
60328359,1547,1541,1542,1547,,,,,
60330858,1551,1545,1546,1551,,,,,
60333357,1555,1550,1550,1555,,,,,
60335856,1559,1554,1554,1559,,,,,
60338355,1563,1558,1558,1563,,,,,
60340854,1567,1562,1562,1567,,,,,
60343353,1571,1566,1566,1571,,,,,
60345852,1575,1570,1570,1575,,,,,
60348351,1579,1574,1574,1580,,,,,
60350850,1583,1578,1578,1584,,,,,
60353349,1587,1582,1582,1587,,,,,
60355848,1591,1586,1586,1591,,,,,
60358347,1595,1590,1590,1595,,,,,
60360846,1599,1594,1594,1599,,,,,
60363345,1603,1598,1598,1603,,,,,
60365844,1607,1602,1602,1607,,,,,
60368343,1611,1605,1606,1611,,,,,
60370842,1615,1609,1610,1615,,,,,
60373341,1619,1613,1614,1619,,,,,
60375840,1622,1617,1618,1622,,,,,
60378339,1626,1621,1621,1626,,,,,
60380838,1630,1625,1625,1630,,,,,
60383337,1634,1628,1629,1634,,,,,
60385836,1637,1632,1633,1638,,,,,
60388335,1641,1636,1636,1641,,,,,
60390834,1645,1640,1640,1645,,,,,
60393333,1649,1643,1644,1649,,,,,
60395832,1652,1647,1648,1652,,,,,
60398331,1656,1651,1651,1656,,,,,
60400830,1660,1654,1655,1660,,,,,
60403329,1663,1658,1659,1663,,,,,
60405828,1667,1662,1662,1667,,,,,
60408327,1671,1665,1666,1671,,,,,
60410826,1674,1669,1669,1674,,,,,
60413325,1678,1673,1673,1678,,,,,
60415824,1681,1676,1677,1681,,,,,
60418323,1685,1680,1680,1685,,,,,
60420822,1688,1683,1684,1689,,,,,
60423321,1692,1687,1687,1692,,,,,
60425820,1695,1690,1691,1696,,,,,
60428319,1699,1694,1694,1699,,,,,
60430818,1702,1697,1698,1703,,,,,
60433317,1706,1701,1701,1706,,,,,
60435816,1709,1704,1705,1710,,,,,
60438315,1713,1708,1708,1713,,,,,
60440814,1716,1711,1712,1717,,,,,
60443313,1720,1715,1715,1720,,,,,
60445812,1723,1718,1718,1724,,,,,
60448311,1727,1722,1722,1727,,,,,
60450810,1730,1725,1725,1730,,,,,
60453309,1733,1728,1729,1734,,,,,
60455808,1737,1732,1732,1737,,,,,
60458307,1740,1735,1735,1741,,,,,
60460806,1743,1738,1739,1744,,,,,
60463305,1747,1742,1742,1747,,,,,
60465804,1750,1745,1745,1751,,,,,
60468303,1753,1748,1748,1754,,,,,
60470802,1757,1752,1752,1757,,,,,
60473301,1760,1755,1755,1761,,,,,
60475800,1763,1758,1758,1764,,,,,
60478299,1767,1761,1762,1767,,,,,
60480798,1770,1765,1765,1770,,,,,
60483297,1773,1768,1768,1774,,,,,
60485796,1777,1771,1771,1777,,,,,
60488295,1780,1774,1775,1780,,,,,
60490794,1783,1778,1778,1783,,,,,
60493293,1786,1781,1781,1787,,,,,
60495792,1790,1784,1784,1790,,,,,
60498291,1793,1787,1787,1793,,,,,
60500790,1796,1790,1791,1796,,,,,
60503289,1799,1793,1794,1799,,,,,
60505788,1802,1797,1797,1802,,,,,
60508287,1805,1800,1800,1806,,,,,
60510786,1809,1803,1803,1809,,,,,
60513285,1812,1806,1807,1812,,,,,
60515784,1815,1809,1810,1815,,,,,
60518283,1818,1812,1813,1818,,,,,
60520782,1821,1815,1816,1821,,,,,
60523281,1824,1818,1819,1824,,,,,
60525780,1827,1822,1822,1827,,,,,
60528279,1830,1825,1825,1830,,,,,
60530778,1833,1828,1828,1833,,,,,
60533277,1837,1831,1831,1837,,,,,
60535776,1840,1834,1834,1840,,,,,
60538275,1843,1837,1837,1843,,,,,
60540774,1846,1840,1841,1846,,,,,
60543273,1849,1843,1844,1849,,,,,
60545772,1852,1846,1847,1852,,,,,
60548271,1855,1849,1850,1855,,,,,
60550770,1858,1852,1853,1858,,,,,
60553269,1861,1855,1856,1861,,,,,
60555768,1864,1858,1859,1864,,,,,
60558267,1867,1861,1862,1867,,,,,
60560766,1870,1864,1865,1870,,,,,
60563265,1872,1867,1868,1873,,,,,
60565764,1875,1870,1871,1876,,,,,
60568263,1878,1873,1874,1878,,,,,
60570762,1881,1876,1876,1881,,,,,
60573261,1884,1879,1879,1884,,,,,
60575760,1887,1882,1882,1887,,,,,
60578259,1890,1885,1885,1890,,,,,
60580758,1893,1888,1888,1893,,,,,
60583257,1896,1891,1891,1896,,,,,
60585756,1899,1894,1894,1899,,,,,
60588255,1902,1897,1897,1902,,,,,
60590754,1901,1896,1896,1901,,,,,
60593253,1900,1895,1895,1900,,,,,
60595752,1899,1894,1894,1899,,,,,
60598251,1898,1893,1893,1898,,,,,
60600750,1897,1892,1893,1898,,,,,
60603249,1896,1892,1892,1897,,,,,
60605748,1896,1891,1891,1896,,,,,
60608247,1895,1890,1890,1895,,,,,
60610746,1894,1890,1890,1895,,,,,
60613245,1894,1889,1889,1894,,,,,
60615744,1893,1888,1889,1894,,,,,
60618243,1893,1888,1888,1893,,,,,
60620742,1892,1888,1888,1893,,,,,
60623241,1892,1887,1887,1892,,,,,
60625740,1892,1887,1887,1892,,,,,
60628239,1891,1887,1887,1892,,,,,
60630738,1891,1887,1887,1892,,,,,
60633237,1891,1887,1887,1892,,,,,
60635736,1891,1887,1887,1892,,,,,
60638235,1892,1887,1887,1892,,,,,
60640734,1892,1887,1887,1892,,,,,
60643233,1892,1888,1888,1893,,,,,
60645732,1892,1888,1888,1893,,,,,
60648231,1893,1888,1889,1893,,,,,
60650730,1893,1889,1889,1893,,,,,
60653229,1893,1889,1889,1893,,,,,
60655728,1893,1889,1889,1893,,,,,
60658227,1893,1889,1890,1893,,,,,
60660726,1893,1890,1890,1893,,,,,
60663225,1893,1889,1889,1893,,,,,
60665724,1892,1889,1889,1893,,,,,
60668223,1892,1889,1889,1892,,,,,
60670722,1891,1888,1888,1891,,,,,
60673221,1890,1887,1887,1891,,,,,
60675720,1889,1886,1886,1890,,,,,
60678219,1888,1885,1885,1888,,,,,
60680718,1887,1884,1884,1887,,,,,
60683217,1885,1882,1883,1886,,,,,
60685716,1884,1881,1881,1884,,,,,
60688215,1882,1879,1880,1882,,,,,
60690714,1880,1877,1878,1880,,,,,
60693213,1878,1876,1876,1878,,,,,
60695712,1876,1873,1874,1876,,,,,
60698211,1874,1871,1872,1874,,,,,
60700710,1872,1869,1869,1872,,,,,
60703209,1869,1866,1867,1869,,,,,
60705708,1866,1864,1864,1867,,,,,
60708207,1864,1861,1861,1864,,,,,
60710706,1861,1858,1859,1861,,,,,
60713205,1858,1856,1856,1858,,,,,
60715704,1855,1853,1853,1855,,,,,
60718203,1852,1850,1850,1852,,,,,
60720702,1849,1847,1847,1849,,,,,
60723201,1846,1844,1844,1846,,,,,
60725700,1843,1841,1841,1843,,,,,
60728199,1840,1837,1838,1840,,,,,
60730698,1836,1834,1835,1837,,,,,
60733197,1833,1831,1832,1833,,,,,
60735696,1830,1828,1828,1830,,,,,
60738195,1827,1825,1825,1827,,,,,
60740694,1823,1821,1822,1823,,,,,
60743193,1820,1818,1819,1820,,,,,
60745692,1817,1815,1815,1817,,,,,
60748191,1813,1812,1812,1813,,,,,
60750690,1810,1808,1809,1810,,,,,
60753189,1807,1805,1806,1807,,,,,
60755688,1803,1802,1802,1803,,,,,
60758187,1800,1799,1799,1800,,,,,
60760686,1797,1795,1796,1797,,,,,
60763185,1793,1792,1793,1793,,,,,
60765684,1790,1789,1789,1790,,,,,
60768183,1787,1786,1786,1787,,,,,
60770682,1783,1782,1783,1783,,,,,
60773181,1780,1779,1780,1780,,,,,
60775680,1777,1776,1777,1777,,,,,
60778179,1773,1773,1773,1773,,,,,
60780678,1770,1770,1770,1770,,,,,
60783177,1767,1766,1767,1767,,,,,
60785676,1764,1763,1764,1764,,,,,
60788175,1761,1760,1761,1761,,,,,
60790674,1757,1757,1758,1757,,,,,
60793173,1754,1754,1754,1754,,,,,
60795672,1751,1751,1751,1751,,,,,
60798171,1748,1748,1748,1748,,,,,
60800670,1745,1745,1745,1745,,,,,
60803169,1742,1742,1742,1742,,,,,
60805668,1739,1738,1739,1739,,,,,
60808167,1736,1735,1736,1736,,,,,
60810666,1733,1732,1733,1733,,,,,
60813165,1730,1729,1730,1729,,,,,
60815664,1727,1726,1727,1727,,,,,
60818163,1724,1724,1724,1724,,,,,
60820662,1721,1721,1721,1721,,,,,
60823161,1718,1718,1719,1718,,,,,
60825660,1715,1715,1716,1715,,,,,
60828159,1713,1712,1713,1712,,,,,
60830658,1710,1710,1711,1710,,,,,
60833157,1707,1707,1708,1707,,,,,
60835656,1705,1705,1705,1704,,,,,
60838155,1702,1702,1703,1702,,,,,
60840654,1700,1700,1701,1699,,,,,
60843986,1697,1697,1698,1697,,,,,
60846485,1695,1695,1696,1695,,,,,
