TimeUS,M1,M2,M3,M4,TimeUS,C1,C2,C3,C4
62345885,1000,1000,1000,1000,62428352,1000,1000,1000,1000
62348384,1000,1000,1000,1000,62528312,1000,1000,1000,1000
62350883,1000,1000,1000,1000,62628272,1000,1000,1000,1000
62353382,1000,1000,1000,1000,62728232,1000,1000,1000,1000
62355881,1000,1000,1000,1000,62828192,1000,1000,1000,1000
62358380,1000,1000,1000,1000,62928985,1000,1000,1000,1000
62360879,1000,1000,1000,1000,63028945,1000,1000,1000,1000
62363378,1000,1000,1000,1000,63128905,1000,1000,1000,1000
62365877,1000,1000,1000,1000,63228865,1000,1000,1000,1000
62368376,1000,1000,1000,1000,63328825,1000,1000,1000,1000
62370875,1000,1000,1000,1000,63428785,1000,1000,1000,1000
62373374,1000,1000,1000,1000,63528745,1000,1000,1000,1000
62375873,1000,1000,1000,1000,63628705,1000,1000,1000,1000
62378372,1000,1000,1000,1000,63728665,1000,1000,1000,1000
62380871,1000,1000,1000,1000,63828625,1000,1000,1000,1000
62383370,1000,1000,1000,1000,63928585,1000,1000,1000,1000
62385869,1000,1000,1000,1000,64028545,1000,1000,1000,1000
62388368,1000,1000,1000,1000,64128505,1000,1000,1000,1000
62390867,1000,1000,1000,1000,64228465,1000,1000,1000,1000
62393366,1000,1000,1000,1000,64328425,1000,1000,1000,1000
62395865,1000,1000,1000,1000,64428385,1024,1024,1024,1024
62398364,1000,1000,1000,1000,64528345,1054,1054,1054,1054
62400863,1000,1000,1000,1000,64628305,1084,1084,1084,1084
62403362,1000,1000,1000,1000,64728265,1114,1114,1114,1114
62405861,1000,1000,1000,1000,64828225,1144,1144,1144,1144
62408360,1000,1000,1000,1000,64928185,1363,1356,1356,1364
62410859,1000,1000,1000,1000,65028978,1551,1545,1545,1551
62413358,1000,1000,1000,1000,65128938,1702,1697,1697,1703
62415857,1000,1000,1000,1000,65228898,1833,1828,1828,1834
62418356,1000,1000,1000,1000,65328858,1860,1854,1854,1861
62420855,1000,1000,1000,1000,65428818,1826,1824,1824,1827
62423354,1000,1000,1000,1000,65528778,1698,1698,1698,1698
62425853,1000,1000,1000,1000,65628738,1624,1627,1627,1625
62428352,1000,1000,1000,1000,65728698,1616,1618,1618,1615
62430851,1000,1000,1000,1000,65828658,1625,1626,1622,1630
62433350,1000,1000,1000,1000,65928618,1631,1633,1627,1636
62435849,1000,1000,1000,1000,66028578,1630,1632,1629,1632
62438348,1000,1000,1000,1000,66128538,1626,1626,1627,1625
62440847,1000,1000,1000,1000,66228498,1622,1621,1624,1619
62443346,1000,1000,1000,1000,66328458,1620,1619,1622,1616
62445845,1000,1000,1000,1000,66428418,1620,1619,1622,1617
62448344,1000,1000,1000,1000,66528378,1622,1621,1623,1620
62450843,1000,1000,1000,1000,66628338,1622,1623,1623,1622
62453342,1000,1000,1000,1000,66728298,1591,1591,1597,1585
62455841,1000,1000,1000,1000,66828258,1576,1577,1582,1571
62458340,1000,1000,1000,1000,66928218,1565,1565,1566,1564
62460839,1000,1000,1000,1000,67028178,1556,1556,1553,1559
62463338,1000,1000,1000,1000,67128971,1548,1547,1540,1556
62465837,1000,1000,1000,1000,67228931,1541,1541,1532,1549
62468336,1000,1000,1000,1000,67328891,1535,1535,1529,1540
62470835,1000,1000,1000,1000,67428851,1530,1530,1528,1531
62473334,1000,1000,1000,1000,67528811,1528,1528,1528,1527
62475833,1000,1000,1000,1000,67628771,1529,1529,1531,1527
62478332,1000,1000,1000,1000,67728731,1530,1530,1533,1527
62480831,1000,1000,1000,1000,67828691,1534,1534,1537,1531
62483330,1000,1000,1000,1000,67928651,1537,1537,1539,1535
62485829,1000,1000,1000,1000,68028611,1541,1541,1543,1540
62488328,1000,1000,1000,1000,68128571,1544,1544,1544,1543
62490827,1000,1000,1000,1000,68228531,1546,1546,1546,1547
62493326,1000,1000,1000,1000,68328491,1549,1550,1549,1550
62495825,1000,1000,1000,1000,68428451,1551,1552,1551,1553
62498324,1000,1000,1000,1000,68528411,1554,1554,1553,1556
62500823,1000,1000,1000,1000,68628371,1556,1556,1555,1557
62503322,1000,1000,1000,1000,68728331,1558,1557,1559,1561
62505821,1000,1000,1000,1000,68828291,1559,1559,1563,1563
62508320,1000,1000,1000,1000,68928251,1561,1561,1566,1565
62510819,1000,1000,1000,1000,69028211,1562,1563,1567,1566
62513318,1000,1000,1000,1000,69128171,1564,1564,1568,1567
62515817,1000,1000,1000,1000,69228964,1567,1567,1569,1569
62518316,1000,1000,1000,1000,69328924,1568,1568,1568,1569
62520815,1000,1000,1000,1000,69428884,1569,1570,1569,1569
62523314,1000,1000,1000,1000,69528844,1571,1571,1569,1569
62525813,1000,1000,1000,1000,69628804,1573,1572,1570,1570
62528312,1000,1000,1000,1000,69728764,1573,1572,1569,1570
62530811,1000,1000,1000,1000,69828724,1574,1574,1571,1571
62533310,1000,1000,1000,1000,69928684,1574,1575,1572,1571
62535809,1000,1000,1000,1000,70028644,1575,1575,1573,1572
62538308,1000,1000,1000,1000,70128604,1576,1576,1575,1574
62540807,1000,1000,1000,1000,70228564,1575,1575,1574,1573
62543306,1000,1000,1000,1000,70328524,1576,1575,1575,1575
62545805,1000,1000,1000,1000,70428484,1575,1575,1575,1575
62548304,1000,1000,1000,1000,70528444,1576,1576,1576,1576
62550803,1000,1000,1000,1000,70628404,1576,1576,1577,1577
62553302,1000,1000,1000,1000,70728364,1576,1575,1576,1576
62555801,1000,1000,1000,1000,70828324,1575,1576,1577,1577
62558300,1000,1000,1000,1000,70928284,1576,1576,1577,1577
62560799,1000,1000,1000,1000,71028244,1576,1577,1577,1577
62563298,1000,1000,1000,1000,71128204,1576,1576,1577,1577
62565797,1000,1000,1000,1000,71228164,1577,1577,1577,1577
62568296,1000,1000,1000,1000,71328957,1579,1577,1578,1578
62570795,1000,1000,1000,1000,71428917,1578,1578,1578,1578
62573294,1000,1000,1000,1000,71528877,1578,1578,1578,1578
62575793,1000,1000,1000,1000,71628837,1579,1579,1578,1578
62578292,1000,1000,1000,1000,71728797,1577,1578,1577,1577
62580791,1000,1000,1000,1000,71828757,1579,1579,1578,1579
62583290,1000,1000,1000,1000,71928717,1579,1579,1579,1579
62585789,1000,1000,1000,1000,72028677,1579,1579,1578,1579
62588288,1000,1000,1000,1000,72128637,1580,1580,1580,1580
62590787,1000,1000,1000,1000,72228597,1579,1579,1579,1579
62593286,1000,1000,1000,1000,72328557,1578,1578,1578,1579
62595785,1000,1000,1000,1000,72428517,1579,1580,1580,1580
62598284,1000,1000,1000,1000,72528477,1580,1580,1580,1580
62600783,1000,1000,1000,1000,72628437,1579,1580,1580,1579
62603282,1000,1000,1000,1000,72728397,1579,1580,1580,1580
62605781,1000,1000,1000,1000,72828357,1581,1580,1580,1581
62608280,1000,1000,1000,1000,72928317,1580,1580,1580,1580
62610779,1000,1000,1000,1000,73028277,1580,1579,1580,1579
62613278,1000,1000,1000,1000,73128237,1580,1579,1579,1580
62615777,1000,1000,1000,1000,73228197,1579,1580,1580,1580
62618276,1000,1000,1000,1000,73328157,1581,1581,1581,1581
62620775,1000,1000,1000,1000,73428950,1580,1579,1580,1580
62623274,1000,1000,1000,1000,73528910,1580,1580,1580,1580
62625773,1000,1000,1000,1000,73628870,1580,1580,1580,1580
62628272,1000,1000,1000,1000,73728830,1581,1581,1581,1581
62630771,1000,1000,1000,1000,73828790,1579,1579,1580,1580
62633270,1000,1000,1000,1000,73928750,1580,1580,1580,1581
62635769,1000,1000,1000,1000,74028710,1580,1580,1580,1580
62638268,1000,1000,1000,1000,74128670,1581,1581,1581,1581
62640767,1000,1000,1000,1000,74228630,1580,1581,1581,1581
62643266,1000,1000,1000,1000,74328590,1581,1581,1581,1581
62645765,1000,1000,1000,1000,74428550,1581,1581,1581,1581
62648264,1000,1000,1000,1000,74528510,1582,1581,1582,1581
62650763,1000,1000,1000,1000,74628470,1581,1580,1581,1581
62653262,1000,1000,1000,1000,74728430,1581,1581,1582,1579
62655761,1000,1000,1000,1000,74828390,1581,1583,1588,1574
62658260,1000,1000,1000,1000,74928350,1580,1582,1583,1574
62660759,1000,1000,1000,1000,75028310,1578,1582,1575,1573
62663258,1000,1000,1000,1000,75128270,1576,1580,1565,1571
62665757,1000,1000,1000,1000,75228230,1577,1579,1559,1566
62668256,1000,1000,1000,1000,75328190,1578,1578,1556,1562
62670755,1000,1000,1000,1000,75428983,1579,1577,1555,1557
62673254,1000,1000,1000,1000,75528943,1580,1578,1555,1555
62675753,1000,1000,1000,1000,75628903,1578,1577,1555,1553
62678252,1000,1000,1000,1000,75728863,1578,1578,1556,1554
62680751,1000,1000,1000,1000,75828823,1577,1578,1556,1554
62683250,1000,1000,1000,1000,75928783,1576,1577,1556,1555
62685749,1000,1000,1000,1000,76028743,1574,1576,1554,1553
62688248,1000,1000,1000,1000,76128703,1574,1576,1552,1553
62690747,1000,1000,1000,1000,76228663,1575,1577,1551,1551
62693246,1000,1000,1000,1000,76328623,1576,1577,1548,1549
62695745,1000,1000,1000,1000,76428583,1579,1580,1546,1547
62698244,1000,1000,1000,1000,76528543,1580,1581,1542,1542
62700743,1000,1000,1000,1000,76628503,1584,1584,1541,1540
62703242,1000,1000,1000,1000,76728463,1588,1588,1538,1538
62705741,1000,1000,1000,1000,76828423,1590,1590,1535,1535
62708240,1000,1000,1000,1000,76928383,1593,1593,1534,1534
62710739,1000,1000,1000,1000,77028343,1595,1595,1534,1535
62713238,1000,1000,1000,1000,77128303,1594,1595,1534,1536
62715737,1000,1000,1000,1000,77228263,1594,1594,1536,1538
62718236,1000,1000,1000,1000,77328223,1592,1591,1540,1543
62720735,1000,1000,1000,1000,77428183,1587,1585,1546,1549
62723234,1000,1000,1000,1000,77528976,1581,1578,1555,1558
62725733,1000,1000,1000,1000,77628936,1572,1569,1566,1569
62728232,1000,1000,1000,1000,77728896,1562,1557,1578,1580
62730731,1000,1000,1000,1000,77828856,1550,1547,1590,1592
62733230,1000,1000,1000,1000,77928816,1539,1537,1601,1601
62735729,1000,1000,1000,1000,78028776,1532,1532,1610,1609
62738228,1000,1000,1000,1000,78128736,1529,1530,1615,1614
62740727,1000,1000,1000,1000,78228696,1529,1530,1616,1615
62743226,1000,1000,1000,1000,78328656,1532,1535,1613,1613
62745725,1000,1000,1000,1000,78428616,1539,1541,1608,1609
62748224,1000,1000,1000,1000,78528576,1547,1549,1602,1602
62750723,1000,1000,1000,1000,78628536,1556,1557,1594,1594
62753222,1000,1000,1000,1000,78728496,1565,1565,1587,1586
62755721,1000,1000,1000,1000,78828456,1573,1572,1580,1578
62758220,1000,1000,1000,1000,78928416,1579,1579,1574,1573
62760719,1000,1000,1000,1000,79028376,1584,1583,1569,1569
62763218,1000,1000,1000,1000,79128336,1587,1586,1567,1567
62765717,1000,1000,1000,1000,79228296,1588,1586,1565,1565
62768216,1000,1000,1000,1000,79328256,1587,1586,1566,1566
62770715,1000,1000,1000,1000,79428216,1584,1583,1567,1567
62773214,1000,1000,1000,1000,79528176,1398,1538,1387,1527
62775713,1000,1000,1000,1000,79628969,1527,1552,1521,1548
62778212,1000,1000,1000,1000,79728929,1618,1577,1620,1578
62780711,1000,1000,1000,1000,79828889,1700,1629,1706,1636
62783210,1000,1000,1000,1000,79928849,1701,1630,1706,1637
62785709,1000,1000,1000,1000,80028809,1705,1657,1706,1656
62788208,1000,1000,1000,1000,80128769,1706,1678,1701,1665
62790707,1000,1000,1000,1000,80228729,1706,1701,1697,1675
62793206,1000,1000,1000,1000,80328689,1682,1700,1674,1665
62795705,1000,1000,1000,1000,80428649,1618,1651,1618,1637
62798204,1000,1000,1000,1000,80528609,1574,1608,1600,1650
62800703,1000,1000,1000,1000,80628569,1545,1569,1604,1663
62803202,1000,1000,1000,1000,80728529,1530,1541,1612,1659
62805701,1000,1000,1000,1000,80828489,1529,1530,1615,1639
62808200,1000,1000,1000,1000,80928449,1538,1537,1609,1611
62810699,1000,1000,1000,1000,81028409,1555,1554,1597,1582
62813198,1000,1000,1000,1000,81128369,1575,1577,1583,1562
62815697,1000,1000,1000,1000,81228329,1591,1595,1566,1546
62818196,1000,1000,1000,1000,81328289,1603,1608,1551,1538
62820695,1000,1000,1000,1000,81428249,1609,1611,1540,1534
62823194,1000,1000,1000,1000,81528209,1608,1608,1532,1534
62825693,1000,1000,1000,1000,81628169,1605,1602,1531,1536
62828192,1000,1000,1000,1000,81728962,1599,1595,1533,1540
62830691,1000,1000,1000,1000,81828922,1592,1588,1540,1546
62833190,1000,1000,1000,1000,81928882,1585,1582,1549,1553
62835689,1000,1000,1000,1000,82028842,1578,1578,1559,1559
62838188,1000,1000,1000,1000,82128802,1572,1573,1567,1566
62840687,1000,1000,1000,1000,82228762,1567,1569,1574,1573
62843186,1000,1000,1000,1000,82328722,1565,1566,1581,1580
62845685,1000,1000,1000,1000,82428682,1562,1564,1585,1583
62848184,1000,1000,1000,1000,82528642,1562,1563,1588,1587
62850683,1000,1000,1000,1000,82628602,1563,1564,1589,1589
62853182,1000,1000,1000,1000,82728562,1564,1563,1588,1587
62855681,1000,1000,1000,1000,82828522,1566,1566,1593,1577
62858180,1000,1000,1000,1000,82928482,1568,1570,1588,1575
62860679,1000,1000,1000,1000,83028442,1569,1572,1577,1573
62863178,1000,1000,1000,1000,83128402,1571,1571,1567,1571
62865677,1000,1000,1000,1000,83228362,1571,1571,1558,1566
62868176,1000,1000,1000,1000,83328322,1573,1572,1553,1560
62870675,1000,1000,1000,1000,83428282,1576,1575,1551,1556
62873174,1000,1000,1000,1000,83528242,1577,1576,1549,1552
62875673,1000,1000,1000,1000,83628202,1579,1578,1549,1548
62878172,1000,1000,1000,1000,83728162,1579,1579,1550,1547
62880671,1000,1000,1000,1000,83828955,1579,1580,1550,1547
62883170,1000,1000,1000,1000,83928915,1580,1580,1551,1549
62885669,1000,1000,1000,1000,84028875,1579,1580,1551,1550
62888168,1000,1000,1000,1000,84128835,1578,1579,1551,1550
62890667,1000,1000,1000,1000,84228795,1577,1578,1550,1550
62893166,1000,1000,1000,1000,84328755,1577,1578,1550,1550
62895665,1000,1000,1000,1000,84428715,1577,1578,1550,1550
62898164,1000,1000,1000,1000,84528675,1578,1579,1549,1550
62900663,1000,1000,1000,1000,84628635,1579,1580,1548,1549
62903162,1000,1000,1000,1000,84728595,1580,1581,1547,1547
62905661,1000,1000,1000,1000,84828555,1581,1582,1546,1546
62908160,1000,1000,1000,1000,84928515,1583,1583,1547,1546
62910659,1000,1000,1000,1000,85028475,1584,1584,1546,1547
62913158,1000,1000,1000,1000,85128435,1583,1582,1546,1547
62915657,1000,1000,1000,1000,85228395,1583,1582,1549,1550
62918156,1000,1000,1000,1000,85328355,1582,1581,1551,1553
62920655,1000,1000,1000,1000,85428315,1579,1579,1554,1556
62923154,1000,1000,1000,1000,85528275,1576,1575,1558,1560
62926486,1000,1000,1000,1000,85628235,1571,1570,1562,1564
62928985,1000,1000,1000,1000,85728195,1568,1567,1569,1571
62931484,1000,1000,1000,1000,85828155,1563,1561,1576,1577
62933983,1000,1000,1000,1000,85928948,1558,1556,1582,1583
62936482,1000,1000,1000,1000,86028908,1554,1553,1588,1588
62938981,1000,1000,1000,1000,86128868,1551,1550,1594,1593
62941480,1000,1000,1000,1000,86228828,1548,1549,1597,1596
62943979,1000,1000,1000,1000,86328788,1548,1549,1599,1598
62946478,1000,1000,1000,1000,86428748,1549,1550,1599,1598
62948977,1000,1000,1000,1000,86528708,1551,1552,1597,1596
62951476,1000,1000,1000,1000,86628668,1554,1555,1594,1594
62953975,1000,1000,1000,1000,86728628,1558,1558,1590,1590
62956474,1000,1000,1000,1000,86828588,1564,1563,1587,1588
62958973,1000,1000,1000,1000,86928548,1568,1568,1584,1584
62961472,1000,1000,1000,1000,87028508,1572,1572,1581,1580
62963971,1000,1000,1000,1000,87128468,1575,1574,1577,1577
62966470,1000,1000,1000,1000,87228428,1579,1577,1575,1575
62968969,1000,1000,1000,1000,87328388,1581,1580,1573,1574
62971468,1000,1000,1000,1000,87428348,1582,1581,1573,1573
62973967,1000,1000,1000,1000,87528308,1582,1581,1572,1573
62976466,1000,1000,1000,1000,87628268,1581,1581,1573,1573
62978965,1000,1000,1000,1000,87728228,1581,1581,1574,1575
62981464,1000,1000,1000,1000,87828188,1580,1580,1576,1576
62983963,1000,1000,1000,1000,87928981,1579,1579,1577,1577
62986462,1000,1000,1000,1000,88028941,1579,1579,1579,1579
62988961,1000,1000,1000,1000,88128901,1579,1579,1581,1581
62991460,1000,1000,1000,1000,88228861,1578,1578,1582,1581
62993959,1000,1000,1000,1000,88328821,1577,1577,1582,1581
62996458,1000,1000,1000,1000,88428781,1576,1577,1582,1582
62998957,1000,1000,1000,1000,88528741,1576,1577,1582,1582
63001456,1000,1000,1000,1000,88628701,1577,1577,1582,1583
63003955,1000,1000,1000,1000,88728661,1576,1576,1581,1581
63006454,1000,1000,1000,1000,88828621,1578,1578,1581,1581
63008953,1000,1000,1000,1000,88928581,1578,1578,1580,1580
63011452,1000,1000,1000,1000,89028541,1579,1579,1579,1580
63013951,1000,1000,1000,1000,89128501,1579,1579,1578,1579
63016450,1000,1000,1000,1000,89228461,1580,1580,1579,1579
63018949,1000,1000,1000,1000,89328421,1580,1580,1579,1578
63021448,1000,1000,1000,1000,89428381,1582,1581,1579,1579
63023947,1000,1000,1000,1000,89528341,1581,1580,1579,1579
63026446,1000,1000,1000,1000,89628301,1581,1581,1579,1578
63028945,1000,1000,1000,1000,89728261,1581,1581,1579,1579
63031444,1000,1000,1000,1000,89828221,1580,1581,1579,1579
63033943,1000,1000,1000,1000,89928181,1580,1581,1580,1580
63036442,1000,1000,1000,1000,90028974,1581,1582,1580,1581
63038941,1000,1000,1000,1000,90128934,1581,1581,1581,1581
63041440,1000,1000,1000,1000,90228894,1581,1581,1581,1582
63043939,1000,1000,1000,1000,90328854,1580,1579,1581,1581
63046438,1000,1000,1000,1000,90428814,1580,1580,1581,1581
63048937,1000,1000,1000,1000,90528774,1581,1580,1581,1581
63051436,1000,1000,1000,1000,90628734,1581,1581,1582,1582
63053935,1000,1000,1000,1000,90728694,1580,1580,1581,1581
63056434,1000,1000,1000,1000,90828654,1580,1581,1581,1581
63058933,1000,1000,1000,1000,90928614,1581,1581,1581,1582
63061432,1000,1000,1000,1000,91028574,1581,1581,1581,1582
63063931,1000,1000,1000,1000,91128534,1581,1581,1581,1581
63066430,1000,1000,1000,1000,91228494,1581,1582,1581,1581
63068929,1000,1000,1000,1000,91328454,1583,1583,1582,1582
63071428,1000,1000,1000,1000,91428414,1582,1583,1586,1576
63073927,1000,1000,1000,1000,91528374,1582,1583,1587,1573
63076426,1000,1000,1000,1000,91628334,1581,1583,1581,1574
63078925,1000,1000,1000,1000,91728294,1578,1580,1573,1572
63081424,1000,1000,1000,1000,91828254,1576,1579,1565,1570
63083923,1000,1000,1000,1000,91928214,1576,1578,1559,1566
63086422,1000,1000,1000,1000,92028174,1577,1577,1555,1562
63088921,1000,1000,1000,1000,92128967,1579,1578,1555,1559
63091420,1000,1000,1000,1000,92228927,1579,1577,1555,1555
63093919,1000,1000,1000,1000,92328887,1579,1578,1555,1554
63096418,1000,1000,1000,1000,92428847,1578,1578,1555,1552
63098917,1000,1000,1000,1000,92528807,1578,1578,1555,1553
63101416,1000,1000,1000,1000,92628767,1577,1578,1555,1553
63103915,1000,1000,1000,1000,92728727,1576,1577,1553,1553
63106414,1000,1000,1000,1000,92828687,1576,1577,1553,1553
63108913,1000,1000,1000,1000,92928647,1576,1577,1551,1551
63111412,1000,1000,1000,1000,93028607,1576,1578,1549,1550
63113911,1000,1000,1000,1000,93128567,1578,1580,1548,1549
63116410,1000,1000,1000,1000,93228527,1581,1582,1547,1547
63118909,1000,1000,1000,1000,93328487,1583,1584,1544,1544
63121408,1000,1000,1000,1000,93428447,1585,1586,1542,1542
63123907,1000,1000,1000,1000,93528407,1589,1589,1541,1541
63126406,1000,1000,1000,1000,93628367,1591,1591,1540,1540
63128905,1000,1000,1000,1000,93728327,1592,1592,1538,1539
63131404,1000,1000,1000,1000,93828287,1593,1593,1538,1540
63133903,1000,1000,1000,1000,93928247,1593,1593,1540,1542
63136402,1000,1000,1000,1000,94028207,1592,1591,1543,1546
63138901,1000,1000,1000,1000,94128167,1589,1586,1548,1552
63141400,1000,1000,1000,1000,94228960,1583,1578,1556,1559
63143899,1000,1000,1000,1000,94328920,1574,1570,1565,1568
63146398,1000,1000,1000,1000,94428880,1565,1561,1576,1578
63148897,1000,1000,1000,1000,94528840,1556,1554,1588,1589
63151396,1000,1000,1000,1000,94628800,1546,1546,1598,1597
63153895,1000,1000,1000,1000,94728760,1540,1541,1606,1604
63156394,1000,1000,1000,1000,94828720,1535,1539,1611,1609
63158893,1000,1000,1000,1000,94928680,1535,1538,1613,1611
63161392,1000,1000,1000,1000,95028640,1537,1541,1613,1611
63163891,1000,1000,1000,1000,95128600,1543,1545,1610,1609
63166390,1000,1000,1000,1000,95228560,1549,1550,1606,1604
63168889,1000,1000,1000,1000,95328520,1555,1555,1599,1598
63171388,1000,1000,1000,1000,95428480,1561,1560,1592,1591
63173887,1000,1000,1000,1000,95528440,1568,1567,1584,1585
63176386,1000,1000,1000,1000,95628400,1574,1571,1577,1578
63178885,1000,1000,1000,1000,95728360,1578,1576,1571,1573
63181384,1000,1000,1000,1000,95828320,1582,1581,1567,1569
63183883,1000,1000,1000,1000,95928280,1584,1582,1565,1567
63186382,1000,1000,1000,1000,96028240,1585,1583,1565,1565
63188881,1000,1000,1000,1000,96128200,1585,1583,1565,1566
63191380,1000,1000,1000,1000,96228160,1585,1584,1568,1568
63193879,1000,1000,1000,1000,96328953,1583,1582,1570,1570
63196378,1000,1000,1000,1000,96428913,1580,1579,1572,1572
63198877,1000,1000,1000,1000,96528873,1578,1578,1576,1575
63201376,1000,1000,1000,1000,96628833,1576,1577,1579,1578
63203875,1000,1000,1000,1000,96728793,1574,1575,1581,1580
63206374,1000,1000,1000,1000,96828753,1572,1573,1582,1581
63208873,1000,1000,1000,1000,96928713,1572,1573,1583,1582
63211372,1000,1000,1000,1000,97028673,1573,1574,1584,1584
63213871,1000,1000,1000,1000,97128633,1573,1573,1583,1583
63216370,1000,1000,1000,1000,97228593,1574,1575,1583,1583
63218869,1000,1000,1000,1000,97328553,1575,1575,1582,1582
63221368,1000,1000,1000,1000,97428513,1577,1577,1581,1582
63223867,1000,1000,1000,1000,97528473,1578,1578,1580,1580
63226366,1000,1000,1000,1000,97628433,1579,1578,1579,1579
63228865,1000,1000,1000,1000,97728393,1580,1580,1578,1578
63231364,1000,1000,1000,1000,97828353,1581,1581,1578,1578
63233863,1000,1000,1000,1000,97928313,1582,1582,1578,1578
63236362,1000,1000,1000,1000,98028273,1583,1582,1578,1578
63238861,1000,1000,1000,1000,98128233,1582,1582,1578,1578
63241360,1000,1000,1000,1000,98228193,1582,1582,1578,1579
63243859,1000,1000,1000,1000,98328986,1582,1582,1579,1579
63246358,1000,1000,1000,1000,98428946,1581,1582,1579,1579
63248857,1000,1000,1000,1000,98528906,1581,1582,1581,1580
63251356,1000,1000,1000,1000,98628866,1580,1581,1581,1580
63253855,1000,1000,1000,1000,98728826,1581,1581,1581,1581
63256354,1000,1000,1000,1000,98828786,1580,1580,1581,1581
63258853,1000,1000,1000,1000,98928746,1580,1580,1581,1582
63261352,1000,1000,1000,1000,99028706,1579,1579,1581,1581
63263851,1000,1000,1000,1000,99128666,1579,1579,1581,1581
63266350,1000,1000,1000,1000,99228626,1579,1579,1581,1581
63268849,1000,1000,1000,1000,99328586,1580,1580,1581,1581
63271348,1000,1000,1000,1000,99428546,1580,1581,1586,1574
63273847,1000,1000,1000,1000,99528506,1582,1582,1587,1574
63276346,1000,1000,1000,1000,99628466,1579,1579,1580,1575
63278845,1000,1000,1000,1000,99728426,1576,1574,1573,1575
63281344,1000,1000,1000,1000,99828386,1572,1571,1568,1574
63283843,1000,1000,1000,1000,99928346,1569,1568,1564,1571
63286342,1000,1000,1000,1000,100028306,1567,1568,1564,1570
63288841,1000,1000,1000,1000,100128266,1566,1567,1564,1567
63291340,1000,1000,1000,1000,100228226,1566,1567,1565,1565
63293839,1000,1000,1000,1000,100328186,1566,1567,1566,1565
63296338,1000,1000,1000,1000,100428979,1566,1567,1567,1565
63298837,1000,1000,1000,1000,100528939,1566,1565,1566,1564
63301336,1000,1000,1000,1000,100628899,1565,1564,1566,1564
63303835,1000,1000,1000,1000,100728859,1564,1563,1564,1564
63306334,1000,1000,1000,1000,100828819,1563,1564,1564,1564
63308833,1000,1000,1000,1000,100928779,1563,1562,1563,1563
63311332,1000,1000,1000,1000,101028739,1562,1562,1562,1562
63313831,1000,1000,1000,1000,101128699,1561,1561,1562,1562
63316330,1000,1000,1000,1000,101228659,1560,1561,1561,1561
63318829,1000,1000,1000,1000,101328619,1560,1560,1561,1560
63321328,1000,1000,1000,1000,101428579,1560,1560,1561,1560
63323827,1000,1000,1000,1000,101528539,1560,1559,1560,1559
63326326,1000,1000,1000,1000,101628499,1559,1559,1560,1559
63328825,1000,1000,1000,1000,101728459,1559,1559,1560,1559
63331324,1000,1000,1000,1000,101828419,1559,1559,1559,1558
63333823,1000,1000,1000,1000,101928379,1559,1559,1559,1558
63336322,1000,1000,1000,1000,102028339,1559,1559,1559,1557
63338821,1000,1000,1000,1000,102128299,1559,1559,1560,1557
63341320,1000,1000,1000,1000,102228259,1560,1560,1560,1559
63343819,1000,1000,1000,1000,102328219,1560,1560,1559,1562
63346318,1000,1000,1000,1000,102428179,1560,1560,1558,1563
63348817,1000,1000,1000,1000,102528972,1560,1560,1557,1563
63351316,1000,1000,1000,1000,102628932,1560,1561,1558,1563
63353815,1000,1000,1000,1000,102728892,1561,1561,1559,1561
63356314,1000,1000,1000,1000,102828852,1559,1559,1560,1557
63358813,1000,1000,1000,1000,102928812,1559,1559,1559,1559
63361312,1000,1000,1000,1000,103028772,1556,1556,1555,1556
63363811,1000,1000,1000,1000,103128732,1552,1551,1551,1552
63366310,1000,1000,1000,1000,103228692,1547,1547,1547,1547
63368809,1000,1000,1000,1000,103328652,1541,1541,1541,1541
63371308,1000,1000,1000,1000,103428612,1534,1534,1534,1534
63373807,1000,1000,1000,1000,103528572,1527,1527,1527,1527
63376306,1000,1000,1000,1000,103628532,1521,1522,1521,1522
63378805,1000,1000,1000,1000,103728492,1519,1520,1519,1520
63381304,1000,1000,1000,1000,103828452,1519,1520,1519,1521
63383803,1000,1000,1000,1000,103928412,1520,1522,1520,1522
63386302,1000,1000,1000,1000,104028372,1523,1524,1523,1524
63388801,1000,1000,1000,1000,104128332,1527,1527,1527,1527
63391300,1000,1000,1000,1000,104228292,1532,1532,1532,1532
63393799,1000,1000,1000,1000,104328252,1536,1536,1537,1536
63396298,1000,1000,1000,1000,104428212,1540,1538,1540,1538
63398797,1000,1000,1000,1000,104528172,1543,1541,1542,1541
63401296,1000,1000,1000,1000,104628965,1544,1542,1544,1542
63403795,1000,1000,1000,1000,104728925,1545,1544,1545,1545
63406294,1000,1000,1000,1000,104828885,1546,1546,1547,1546
63408793,1000,1000,1000,1000,104928845,1547,1547,1547,1547
63411292,1000,1000,1000,1000,105028805,1546,1546,1546,1546
63413791,1000,1000,1000,1000,105128765,1546,1546,1546,1546
63416290,1000,1000,1000,1000,105228725,1546,1546,1546,1545
63418789,1000,1000,1000,1000,105328685,1546,1546,1546,1546
63421288,1000,1000,1000,1000,105428645,1546,1547,1546,1546
63423787,1000,1000,1000,1000,105528605,1546,1546,1546,1546
63426286,1000,1000,1000,1000,105628565,1546,1546,1546,1546
63428785,1000,1000,1000,1000,105728525,1546,1545,1546,1545
63431284,1000,1000,1000,1000,105828485,1546,1546,1546,1546
63433783,1000,1000,1000,1000,105928445,1546,1545,1546,1545
63436282,1000,1000,1000,1000,106028405,1545,1545,1545,1545
63438781,1000,1000,1000,1000,106128365,1545,1544,1545,1544
63441280,1000,1000,1000,1000,106228325,1544,1545,1544,1544
63443779,1000,1000,1000,1000,106328285,1544,1544,1544,1544
63446278,1000,1000,1000,1000,106428245,1544,1544,1544,1544
63448777,1000,1000,1000,1000,106528205,1544,1544,1544,1544
63451276,1000,1000,1000,1000,106628165,1545,1544,1544,1544
63453775,1000,1000,1000,1000,106728958,1545,1544,1544,1544
63456274,1000,1000,1000,1000,106828918,1544,1545,1544,1545
63458773,1000,1000,1000,1000,106928878,1544,1544,1544,1544
63461272,1000,1000,1000,1000,107028838,1545,1545,1545,1545
63463771,1000,1000,1000,1000,107128798,1544,1545,1544,1544
63466270,1000,1000,1000,1000,107228758,1545,1545,1545,1545
63468769,1000,1000,1000,1000,107328718,1545,1544,1544,1544
63471268,1000,1000,1000,1000,107428678,1544,1544,1544,1544
63473767,1000,1000,1000,1000,107528638,1545,1544,1544,1545
63476266,1000,1000,1000,1000,107628598,1544,1544,1544,1544
63478765,1000,1000,1000,1000,107728558,1544,1543,1544,1543
63481264,1000,1000,1000,1000,107828518,1543,1544,1544,1543
63483763,1000,1000,1000,1000,107928478,1544,1544,1543,1544
63486262,1000,1000,1000,1000,108028438,1544,1544,1544,1544
63488761,1000,1000,1000,1000,108128398,1544,1543,1543,1544
63491260,1000,1000,1000,1000,108228358,1544,1543,1543,1544
63493759,1000,1000,1000,1000,108328318,1544,1544,1544,1544
63496258,1000,1000,1000,1000,108428278,1545,1545,1545,1545
63498757,1000,1000,1000,1000,108528238,1544,1544,1544,1544
63501256,1000,1000,1000,1000,108628198,1544,1544,1544,1544
63503755,1000,1000,1000,1000,108728158,1544,1544,1544,1544
63506254,1000,1000,1000,1000,108828951,1544,1544,1544,1544
63508753,1000,1000,1000,1000,108928911,1545,1544,1544,1545
63511252,1000,1000,1000,1000,109028871,1544,1544,1544,1544
63513751,1000,1000,1000,1000,109128831,1545,1544,1544,1544
63516250,1000,1000,1000,1000,109228791,1544,1545,1544,1545
63518749,1000,1000,1000,1000,109328751,1544,1544,1544,1544
63521248,1000,1000,1000,1000,109428711,1544,1544,1545,1544
63523747,1000,1000,1000,1000,109528671,1545,1545,1544,1545
63526246,1000,1000,1000,1000,109628631,1544,1545,1545,1544
63528745,1000,1000,1000,1000,109728591,1544,1544,1544,1545
63531244,1000,1000,1000,1000,109828551,1545,1545,1544,1545
63533743,1000,1000,1000,1000,109928511,1545,1544,1545,1545
63536242,1000,1000,1000,1000,110028471,1544,1544,1544,1544
63538741,1000,1000,1000,1000,110128431,1544,1544,1544,1543
63541240,1000,1000,1000,1000,110228391,1543,1544,1543,1543
63543739,1000,1000,1000,1000,110328351,1544,1544,1544,1544
63546238,1000,1000,1000,1000,110428311,1544,1545,1544,1544
63548737,1000,1000,1000,1000,110528271,1544,1544,1544,1544
63551236,1000,1000,1000,1000,110628231,1543,1544,1544,1544
63553735,1000,1000,1000,1000,110728191,1544,1543,1544,1544
63556234,1000,1000,1000,1000,110828984,1544,1544,1544,1544
63558733,1000,1000,1000,1000,110928944,1545,1545,1545,1545
63561232,1000,1000,1000,1000,111028904,1544,1545,1544,1544
63563731,1000,1000,1000,1000,111128864,1545,1545,1545,1545
63566230,1000,1000,1000,1000,111228824,1545,1545,1546,1545
63568729,1000,1000,1000,1000,111328784,1545,1544,1545,1545
63571228,1000,1000,1000,1000,111428744,1545,1545,1545,1545
63573727,1000,1000,1000,1000,111528704,1545,1545,1545,1546
63576226,1000,1000,1000,1000,111628664,1545,1546,1545,1545
63578725,1000,1000,1000,1000,111728624,1546,1546,1545,1546
63581224,1000,1000,1000,1000,111828584,1545,1546,1546,1545
63583723,1000,1000,1000,1000,111928544,1546,1545,1545,1545
63586222,1000,1000,1000,1000,112028504,1546,1545,1546,1545
63588721,1000,1000,1000,1000,112128464,1545,1545,1545,1545
63591220,1000,1000,1000,1000,112228424,1545,1545,1545,1545
63593719,1000,1000,1000,1000,112328384,1544,1544,1544,1545
63596218,1000,1000,1000,1000,112428344,1544,1544,1544,1543
63598717,1000,1000,1000,1000,112528304,1544,1544,1544,1545
63601216,1000,1000,1000,1000,112628264,1544,1544,1544,1544
63603715,1000,1000,1000,1000,112728224,1545,1545,1544,1545
63606214,1000,1000,1000,1000,112828184,1543,1543,1543,1543
63608713,1000,1000,1000,1000,112928977,1544,1544,1544,1544
63611212,1000,1000,1000,1000,113028937,1544,1544,1544,1544
63613711,1000,1000,1000,1000,113128897,1544,1544,1544,1544
63616210,1000,1000,1000,1000,113228857,1544,1544,1544,1544
63618709,1000,1000,1000,1000,113328817,1544,1544,1544,1544
63621208,1000,1000,1000,1000,113428777,1450,1415,1449,1415
63623707,1000,1000,1000,1000,113528737,1357,1274,1357,1273
63626206,1000,1000,1000,1000,113628697,1324,1220,1325,1219
63628705,1000,1000,1000,1000,113728657,1313,1200,1313,1200
63631204,1000,1000,1000,1000,113828617,1293,1165,1294,1165
63633703,1000,1000,1000,1000,113928577,1242,1150,1241,1150
63636202,1000,1000,1000,1000,114028537,1135,1150,1135,1150
63638701,1000,1000,1000,1000,114128497,1064,1150,1064,1150
63641200,1000,1000,1000,1000,114228457,1064,1150,1065,1150
63643699,1000,1000,1000,1000,114328417,1064,1150,1064,1150
63646198,1000,1000,1000,1000,114428377,1064,1150,1055,1162
63648697,1000,1000,1000,1000,114528337,1064,1150,1058,1159
63651196,1000,1000,1000,1000,114628297,1064,1150,1060,1156
63653695,1000,1000,1000,1000,114728257,1064,1150,1060,1156
63656194,1000,1000,1000,1000,114828217,1064,1150,1060,1156
63658693,1000,1000,1000,1000,114928177,1064,1150,1059,1157
63661192,1000,1000,1000,1000,115028970,1064,1150,1059,1157
63663691,1000,1000,1000,1000,115128930,1064,1150,1059,1158
63666190,1000,1000,1000,1000,115228890,1064,1150,1063,1152
63668689,1000,1000,1000,1000,115328850,1064,1150,1062,1153
63671188,1000,1000,1000,1000,115428810,1064,1150,1062,1153
63673687,1000,1000,1000,1000,115528770,1064,1150,1062,1153
63676186,1000,1000,1000,1000,115628730,1064,1150,1062,1154
63678685,1000,1000,1000,1000,115728690,1000,1000,1000,1000
63681184,1000,1000,1000,1000,115828650,1000,1000,1000,1000
63683683,1000,1000,1000,1000,115928610,1000,1000,1000,1000
63686182,1000,1000,1000,1000,116028570,1000,1000,1000,1000
63688681,1000,1000,1000,1000,116128530,1000,1000,1000,1000
63691180,1000,1000,1000,1000,116228490,1000,1000,1000,1000
63693679,1000,1000,1000,1000,116328450,1000,1000,1000,1000
63696178,1000,1000,1000,1000,116428410,1000,1000,1000,1000
63698677,1000,1000,1000,1000,116528370,1000,1000,1000,1000
63701176,1000,1000,1000,1000,116628330,1000,1000,1000,1000
63703675,1000,1000,1000,1000,116728290,1000,1000,1000,1000
63706174,1000,1000,1000,1000,116828250,1000,1000,1000,1000
63708673,1000,1000,1000,1000,116928210,1000,1000,1000,1000
63711172,1000,1000,1000,1000,117028170,1000,1000,1000,1000
63713671,1000,1000,1000,1000,117128963,1000,1000,1000,1000
63716170,1000,1000,1000,1000,117228923,1000,1000,1000,1000
63718669,1000,1000,1000,1000,117328883,1000,1000,1000,1000
63721168,1000,1000,1000,1000,117428843,1000,1000,1000,1000
63723667,1000,1000,1000,1000,117528803,1000,1000,1000,1000
63726166,1000,1000,1000,1000,117628763,1000,1000,1000,1000
63728665,1000,1000,1000,1000,117728723,1000,1000,1000,1000
63731164,1000,1000,1000,1000,117828683,1000,1000,1000,1000
63733663,1000,1000,1000,1000,117928643,1000,1000,1000,1000
63736162,1000,1000,1000,1000,118028603,1000,1000,1000,1000
63738661,1000,1000,1000,1000,118128563,1000,1000,1000,1000
63741160,1000,1000,1000,1000,118228523,1000,1000,1000,1000
63743659,1000,1000,1000,1000,118328483,1000,1000,1000,1000
63746158,1000,1000,1000,1000,118428443,1000,1000,1000,1000
63748657,1000,1000,1000,1000,118528403,1000,1000,1000,1000
63751156,1000,1000,1000,1000,118628363,1000,1000,1000,1000
63753655,1000,1000,1000,1000,118728323,1000,1000,1000,1000
63756154,1000,1000,1000,1000,118828283,1000,1000,1000,1000
63758653,1000,1000,1000,1000,118928243,1000,1000,1000,1000
63761152,1000,1000,1000,1000,119028203,1000,1000,1000,1000
63763651,1000,1000,1000,1000,119128163,1000,1000,1000,1000
63766150,1000,1000,1000,1000,119228956,1000,1000,1000,1000
63768649,1000,1000,1000,1000,119328916,1000,1000,1000,1000
63771148,1000,1000,1000,1000,119428876,1000,1000,1000,1000
63773647,1000,1000,1000,1000,119528836,1000,1000,1000,1000
63776146,1000,1000,1000,1000,119628796,1000,1000,1000,1000
63778645,1000,1000,1000,1000,119728756,1000,1000,1000,1000
63781144,1000,1000,1000,1000,119828716,1000,1000,1000,1000
63783643,1000,1000,1000,1000,119928676,1000,1000,1000,1000
63786142,1000,1000,1000,1000,120028636,1000,1000,1000,1000
63788641,1000,1000,1000,1000,120128596,1000,1000,1000,1000
63791140,1000,1000,1000,1000,120228556,1000,1000,1000,1000
63793639,1000,1000,1000,1000,120328516,1000,1000,1000,1000
63796138,1000,1000,1000,1000,120428476,1000,1000,1000,1000
63798637,1000,1000,1000,1000,120528436,1000,1000,1000,1000
63801136,1000,1000,1000,1000,120628396,1000,1000,1000,1000
63803635,1000,1000,1000,1000,120728356,1000,1000,1000,1000
63806134,1000,1000,1000,1000,120828316,1000,1000,1000,1000
63808633,1000,1000,1000,1000,120928276,1000,1000,1000,1000
63811132,1000,1000,1000,1000,121028236,1000,1000,1000,1000
63813631,1000,1000,1000,1000,121128196,1000,1000,1000,1000
63816130,1000,1000,1000,1000,121228156,1000,1000,1000,1000
63818629,1000,1000,1000,1000,121328949,1000,1000,1000,1000
63821128,1000,1000,1000,1000,121428909,1000,1000,1000,1000
63823627,1000,1000,1000,1000,121528869,1000,1000,1000,1000
63826126,1000,1000,1000,1000,121628829,1000,1000,1000,1000
63828625,1000,1000,1000,1000,121728789,1000,1000,1000,1000
63831124,1000,1000,1000,1000,121828749,1000,1000,1000,1000
63833623,1000,1000,1000,1000,121928709,1000,1000,1000,1000
63836122,1000,1000,1000,1000,122028669,1000,1000,1000,1000
63838621,1000,1000,1000,1000,122128629,1000,1000,1000,1000
63841120,1000,1000,1000,1000,122228589,1000,1000,1000,1000
63843619,1000,1000,1000,1000,122328549,1000,1000,1000,1000
63846118,1000,1000,1000,1000,122428509,1000,1000,1000,1000
63848617,1000,1000,1000,1000,122528469,1000,1000,1000,1000
63851116,1000,1000,1000,1000,122628429,1000,1000,1000,1000
63853615,1000,1000,1000,1000,122728389,1000,1000,1000,1000
63856114,1000,1000,1000,1000,122828349,1000,1000,1000,1000
63858613,1000,1000,1000,1000,122928309,1000,1000,1000,1000
63861112,1000,1000,1000,1000,123028269,1000,1000,1000,1000
63863611,1000,1000,1000,1000,123128229,1000,1000,1000,1000
63866110,1000,1000,1000,1000,123228189,1000,1000,1000,1000
63868609,1000,1000,1000,1000,123328982,1000,1000,1000,1000
63871108,1000,1000,1000,1000,123428942,1000,1000,1000,1000
63873607,1000,1000,1000,1000,123528902,1000,1000,1000,1000
63876106,1000,1000,1000,1000,123628862,1000,1000,1000,1000
63878605,1000,1000,1000,1000,123728822,1000,1000,1000,1000
63881104,1000,1000,1000,1000,123828782,1000,1000,1000,1000
63883603,1000,1000,1000,1000,123928742,1000,1000,1000,1000
63886102,1000,1000,1000,1000,124028702,1000,1000,1000,1000
63888601,1000,1000,1000,1000,124128662,1000,1000,1000,1000
63891100,1000,1000,1000,1000,124228622,1000,1000,1000,1000
63893599,1000,1000,1000,1000,124328582,1000,1000,1000,1000
63896098,1000,1000,1000,1000,124428542,1000,1000,1000,1000
63898597,1000,1000,1000,1000,124528502,1000,1000,1000,1000
63901096,1000,1000,1000,1000,124628462,1000,1000,1000,1000
63903595,1000,1000,1000,1000,124728422,1000,1000,1000,1000
63906094,1000,1000,1000,1000,124828382,1000,1000,1000,1000
63908593,1000,1000,1000,1000,124928342,1000,1000,1000,1000
63911092,1000,1000,1000,1000,125028302,1000,1000,1000,1000
63913591,1000,1000,1000,1000,125128262,1000,1000,1000,1000
63916090,1000,1000,1000,1000,125228222,1000,1000,1000,1000
63918589,1000,1000,1000,1000,125328182,1000,1000,1000,1000
63921088,1000,1000,1000,1000,125428975,1000,1000,1000,1000
63923587,1000,1000,1000,1000,125528935,1000,1000,1000,1000
63926086,1000,1000,1000,1000,125628895,1000,1000,1000,1000
63928585,1000,1000,1000,1000,125728855,1000,1000,1000,1000
63931084,1000,1000,1000,1000,125828815,1000,1000,1000,1000
63933583,1000,1000,1000,1000,125928775,1000,1000,1000,1000
63936082,1000,1000,1000,1000,126028735,1000,1000,1000,1000
63938581,1000,1000,1000,1000,126128695,1000,1000,1000,1000
63941080,1000,1000,1000,1000,126228655,1000,1000,1000,1000
63943579,1000,1000,1000,1000,126328615,1000,1000,1000,1000
63946078,1000,1000,1000,1000,126428575,1000,1000,1000,1000
63948577,1000,1000,1000,1000,126528535,1000,1000,1000,1000
63951076,1000,1000,1000,1000,126628495,1000,1000,1000,1000
63953575,1000,1000,1000,1000,126728455,1000,1000,1000,1000
63956074,1000,1000,1000,1000,126828415,1000,1000,1000,1000
63958573,1000,1000,1000,1000,126928375,1000,1000,1000,1000
63961072,1000,1000,1000,1000,127028335,1000,1000,1000,1000
63963571,1000,1000,1000,1000,127128295,1000,1000,1000,1000
63966070,1000,1000,1000,1000,127228255,1000,1000,1000,1000
63968569,1000,1000,1000,1000,127328215,1000,1000,1000,1000
63971068,1000,1000,1000,1000,127428175,1000,1000,1000,1000
63973567,1000,1000,1000,1000,127528968,1000,1000,1000,1000
63976066,1000,1000,1000,1000,127628928,1000,1000,1000,1000
63978565,1000,1000,1000,1000,127728888,1000,1000,1000,1000
63981064,1000,1000,1000,1000,127828848,1000,1000,1000,1000
63983563,1000,1000,1000,1000,127928808,1000,1000,1000,1000
63986062,1000,1000,1000,1000,128028768,1000,1000,1000,1000
63988561,1000,1000,1000,1000,128128728,1000,1000,1000,1000
63991060,1000,1000,1000,1000,128228688,1000,1000,1000,1000
63993559,1000,1000,1000,1000,128328648,1000,1000,1000,1000
63996058,1000,1000,1000,1000,128428608,1000,1000,1000,1000
63998557,1000,1000,1000,1000,128528568,1000,1000,1000,1000
64001056,1000,1000,1000,1000,128628528,1000,1000,1000,1000
64003555,1000,1000,1000,1000,128728488,1000,1000,1000,1000
64006054,1000,1000,1000,1000,128828448,1000,1000,1000,1000
64008553,1000,1000,1000,1000,128928408,1000,1000,1000,1000
64011052,1000,1000,1000,1000,129028368,1000,1000,1000,1000
64013551,1000,1000,1000,1000,129128328,1000,1000,1000,1000
64016050,1000,1000,1000,1000,129228288,1000,1000,1000,1000
64018549,1000,1000,1000,1000,129328248,1000,1000,1000,1000
64021048,1000,1000,1000,1000,129428208,1000,1000,1000,1000
64023547,1000,1000,1000,1000,129528168,1000,1000,1000,1000
64026046,1000,1000,1000,1000,129628961,1000,1000,1000,1000
64028545,1000,1000,1000,1000,129728921,1000,1000,1000,1000
64031044,1000,1000,1000,1000,129828881,1000,1000,1000,1000
64033543,1000,1000,1000,1000,129928841,1000,1000,1000,1000
64036042,1000,1000,1000,1000,130028801,1000,1000,1000,1000
64038541,1000,1000,1000,1000,130128761,1000,1000,1000,1000
64041040,1000,1000,1000,1000,130228721,1000,1000,1000,1000
64043539,1000,1000,1000,1000,130328681,1000,1000,1000,1000
64046038,1000,1000,1000,1000,130428641,1000,1000,1000,1000
64048537,1000,1000,1000,1000,130528601,1000,1000,1000,1000
64051036,1000,1000,1000,1000,130628561,1000,1000,1000,1000
64053535,1000,1000,1000,1000,,,,,
64056034,1000,1000,1000,1000,,,,,
64058533,1000,1000,1000,1000,,,,,
64061032,1000,1000,1000,1000,,,,,
64063531,1000,1000,1000,1000,,,,,
64066030,1000,1000,1000,1000,,,,,
64068529,1000,1000,1000,1000,,,,,
64071028,1000,1000,1000,1000,,,,,
64073527,1000,1000,1000,1000,,,,,
64076026,1000,1000,1000,1000,,,,,
64078525,1000,1000,1000,1000,,,,,
64081024,1000,1000,1000,1000,,,,,
64083523,1000,1000,1000,1000,,,,,
64086022,1000,1000,1000,1000,,,,,
64088521,1000,1000,1000,1000,,,,,
64091020,1000,1000,1000,1000,,,,,
64093519,1000,1000,1000,1000,,,,,
64096018,1000,1000,1000,1000,,,,,
64098517,1000,1000,1000,1000,,,,,
64101016,1000,1000,1000,1000,,,,,
64103515,1000,1000,1000,1000,,,,,
64106014,1000,1000,1000,1000,,,,,
64108513,1000,1000,1000,1000,,,,,
64111012,1000,1000,1000,1000,,,,,
64113511,1000,1000,1000,1000,,,,,
64116010,1000,1000,1000,1000,,,,,
64118509,1000,1000,1000,1000,,,,,
64121008,1000,1000,1000,1000,,,,,
64123507,1000,1000,1000,1000,,,,,
64126006,1000,1000,1000,1000,,,,,
64128505,1000,1000,1000,1000,,,,,
64131004,1000,1000,1000,1000,,,,,
64133503,1000,1000,1000,1000,,,,,
64136002,1000,1000,1000,1000,,,,,
64138501,1000,1000,1000,1000,,,,,
64141000,1000,1000,1000,1000,,,,,
64143499,1000,1000,1000,1000,,,,,
64145998,1000,1000,1000,1000,,,,,
64148497,1000,1000,1000,1000,,,,,
64150996,1000,1000,1000,1000,,,,,
64153495,1000,1000,1000,1000,,,,,
64155994,1000,1000,1000,1000,,,,,
64158493,1000,1000,1000,1000,,,,,
64160992,1000,1000,1000,1000,,,,,
64163491,1000,1000,1000,1000,,,,,
64165990,1000,1000,1000,1000,,,,,
64168489,1000,1000,1000,1000,,,,,
64170988,1000,1000,1000,1000,,,,,
64173487,1000,1000,1000,1000,,,,,
64175986,1000,1000,1000,1000,,,,,
64178485,1000,1000,1000,1000,,,,,
64180984,1000,1000,1000,1000,,,,,
64183483,1000,1000,1000,1000,,,,,
64185982,1000,1000,1000,1000,,,,,
64188481,1000,1000,1000,1000,,,,,
64190980,1000,1000,1000,1000,,,,,
64193479,1000,1000,1000,1000,,,,,
64195978,1000,1000,1000,1000,,,,,
64198477,1000,1000,1000,1000,,,,,
64200976,1000,1000,1000,1000,,,,,
64203475,1000,1000,1000,1000,,,,,
64205974,1000,1000,1000,1000,,,,,
64208473,1000,1000,1000,1000,,,,,
64210972,1000,1000,1000,1000,,,,,
64213471,1000,1000,1000,1000,,,,,
64215970,1000,1000,1000,1000,,,,,
64218469,1000,1000,1000,1000,,,,,
64220968,1000,1000,1000,1000,,,,,
64223467,1000,1000,1000,1000,,,,,
64225966,1000,1000,1000,1000,,,,,
64228465,1000,1000,1000,1000,,,,,
64230964,1000,1000,1000,1000,,,,,
64233463,1000,1000,1000,1000,,,,,
64235962,1000,1000,1000,1000,,,,,
64238461,1000,1000,1000,1000,,,,,
64240960,1000,1000,1000,1000,,,,,
64243459,1000,1000,1000,1000,,,,,
64245958,1000,1000,1000,1000,,,,,
64248457,1000,1000,1000,1000,,,,,
64250956,1000,1000,1000,1000,,,,,
64253455,1000,1000,1000,1000,,,,,
64255954,1000,1000,1000,1000,,,,,
64258453,1000,1000,1000,1000,,,,,
64260952,1000,1000,1000,1000,,,,,
64263451,1000,1000,1000,1000,,,,,
64265950,1000,1000,1000,1000,,,,,
64268449,1000,1000,1000,1000,,,,,
64270948,1000,1000,1000,1000,,,,,
64273447,1000,1000,1000,1000,,,,,
64275946,1000,1000,1000,1000,,,,,
64278445,1000,1000,1000,1000,,,,,
64280944,1000,1000,1000,1000,,,,,
64283443,1000,1000,1000,1000,,,,,
64285942,1000,1000,1000,1000,,,,,
64288441,1000,1000,1000,1000,,,,,
64290940,1000,1000,1000,1000,,,,,
64293439,1000,1000,1000,1000,,,,,
64295938,1000,1000,1000,1000,,,,,
64298437,1000,1000,1000,1000,,,,,
64300936,1000,1000,1000,1000,,,,,
64303435,1000,1000,1000,1000,,,,,
64305934,1000,1000,1000,1000,,,,,
64308433,1000,1000,1000,1000,,,,,
64310932,1000,1000,1000,1000,,,,,
64313431,1000,1000,1000,1000,,,,,
64315930,1000,1000,1000,1000,,,,,
64318429,1000,1000,1000,1000,,,,,
64320928,1000,1000,1000,1000,,,,,
64323427,1000,1000,1000,1000,,,,,
64325926,1000,1000,1000,1000,,,,,
64328425,1000,1000,1000,1000,,,,,
64330924,1000,1000,1000,1000,,,,,
64333423,1000,1000,1000,1000,,,,,
64335922,1000,1000,1000,1000,,,,,
64338421,1000,1000,1000,1000,,,,,
64340920,1000,1000,1000,1000,,,,,
64343419,1000,1000,1000,1000,,,,,
64345918,1000,1000,1000,1000,,,,,
64348417,1000,1000,1000,1000,,,,,
64350916,1000,1000,1000,1000,,,,,
64353415,1001,1001,1001,1001,,,,,
64355914,1002,1002,1002,1002,,,,,
64358413,1003,1003,1003,1003,,,,,
64360912,1003,1003,1003,1003,,,,,
64363411,1004,1004,1004,1004,,,,,
64365910,1005,1005,1005,1005,,,,,
64368409,1006,1006,1006,1006,,,,,
64370908,1006,1006,1006,1006,,,,,
64373407,1007,1007,1007,1007,,,,,
64375906,1008,1008,1008,1008,,,,,
64378405,1009,1009,1009,1009,,,,,
64380904,1009,1009,1009,1009,,,,,
64383403,1010,1010,1010,1010,,,,,
64385902,1011,1011,1011,1011,,,,,
64388401,1012,1012,1012,1012,,,,,
64390900,1012,1012,1012,1012,,,,,
64393399,1013,1013,1013,1013,,,,,
64395898,1014,1014,1014,1014,,,,,
64398397,1015,1015,1015,1015,,,,,
64400896,1015,1015,1015,1015,,,,,
64403395,1016,1016,1016,1016,,,,,
64405894,1017,1017,1017,1017,,,,,
64408393,1018,1018,1018,1018,,,,,
64410892,1018,1018,1018,1018,,,,,
64413391,1019,1019,1019,1019,,,,,
64415890,1020,1020,1020,1020,,,,,
64418389,1021,1021,1021,1021,,,,,
64420888,1021,1021,1021,1021,,,,,
64423387,1022,1022,1022,1022,,,,,
64425886,1023,1023,1023,1023,,,,,
64428385,1024,1024,1024,1024,,,,,
64430884,1024,1024,1024,1024,,,,,
64433383,1025,1025,1025,1025,,,,,
64435882,1026,1026,1026,1026,,,,,
64438381,1027,1027,1027,1027,,,,,
64440880,1027,1027,1027,1027,,,,,
64443379,1028,1028,1028,1028,,,,,
64445878,1029,1029,1029,1029,,,,,
64448377,1030,1030,1030,1030,,,,,
64450876,1030,1030,1030,1030,,,,,
64453375,1031,1031,1031,1031,,,,,
64455874,1032,1032,1032,1032,,,,,
64458373,1033,1033,1033,1033,,,,,
64460872,1033,1033,1033,1033,,,,,
64463371,1034,1034,1034,1034,,,,,
64465870,1035,1035,1035,1035,,,,,
64468369,1036,1036,1036,1036,,,,,
64470868,1036,1036,1036,1036,,,,,
64473367,1037,1037,1037,1037,,,,,
64475866,1038,1038,1038,1038,,,,,
64478365,1039,1039,1039,1039,,,,,
64480864,1039,1039,1039,1039,,,,,
64483363,1040,1040,1040,1040,,,,,
64485862,1041,1041,1041,1041,,,,,
64488361,1042,1042,1042,1042,,,,,
64490860,1042,1042,1042,1042,,,,,
64493359,1043,1043,1043,1043,,,,,
64495858,1044,1044,1044,1044,,,,,
64498357,1045,1045,1045,1045,,,,,
64500856,1045,1045,1045,1045,,,,,
64503355,1046,1046,1046,1046,,,,,
64505854,1047,1047,1047,1047,,,,,
64508353,1048,1048,1048,1048,,,,,
64510852,1048,1048,1048,1048,,,,,
64513351,1049,1049,1049,1049,,,,,
64515850,1050,1050,1050,1050,,,,,
64518349,1051,1051,1051,1051,,,,,
64520848,1051,1051,1051,1051,,,,,
64523347,1052,1052,1052,1052,,,,,
64525846,1053,1053,1053,1053,,,,,
64528345,1054,1054,1054,1054,,,,,
64530844,1054,1054,1054,1054,,,,,
64533343,1055,1055,1055,1055,,,,,
64535842,1056,1056,1056,1056,,,,,
64538341,1057,1057,1057,1057,,,,,
64540840,1057,1057,1057,1057,,,,,
64543339,1058,1058,1058,1058,,,,,
64545838,1059,1059,1059,1059,,,,,
64548337,1060,1060,1060,1060,,,,,
64550836,1060,1060,1060,1060,,,,,
64553335,1061,1061,1061,1061,,,,,
64555834,1062,1062,1062,1062,,,,,
64558333,1063,1063,1063,1063,,,,,
64560832,1063,1063,1063,1063,,,,,
64563331,1064,1064,1064,1064,,,,,
64565830,1065,1065,1065,1065,,,,,
64568329,1066,1066,1066,1066,,,,,
64570828,1066,1066,1066,1066,,,,,
64573327,1067,1067,1067,1067,,,,,
64575826,1068,1068,1068,1068,,,,,
64578325,1069,1069,1069,1069,,,,,
64580824,1069,1069,1069,1069,,,,,
64583323,1070,1070,1070,1070,,,,,
64585822,1071,1071,1071,1071,,,,,
64588321,1072,1072,1072,1072,,,,,
64590820,1072,1072,1072,1072,,,,,
64593319,1073,1073,1073,1073,,,,,
64595818,1074,1074,1074,1074,,,,,
64598317,1075,1075,1075,1075,,,,,
64600816,1075,1075,1075,1075,,,,,
64603315,1076,1076,1076,1076,,,,,
64605814,1077,1077,1077,1077,,,,,
64608313,1078,1078,1078,1078,,,,,
64610812,1078,1078,1078,1078,,,,,
64613311,1079,1079,1079,1079,,,,,
64615810,1080,1080,1080,1080,,,,,
64618309,1081,1081,1081,1081,,,,,
64620808,1081,1081,1081,1081,,,,,
64623307,1082,1082,1082,1082,,,,,
64625806,1083,1083,1083,1083,,,,,
64628305,1084,1084,1084,1084,,,,,
64630804,1084,1084,1084,1084,,,,,
64633303,1085,1085,1085,1085,,,,,
64635802,1086,1086,1086,1086,,,,,
64638301,1087,1087,1087,1087,,,,,
64640800,1087,1087,1087,1087,,,,,
64643299,1088,1088,1088,1088,,,,,
64645798,1089,1089,1089,1089,,,,,
64648297,1090,1090,1090,1090,,,,,
64650796,1090,1090,1090,1090,,,,,
64653295,1091,1091,1091,1091,,,,,
64655794,1092,1092,1092,1092,,,,,
64658293,1093,1093,1093,1093,,,,,
64660792,1093,1093,1093,1093,,,,,
64663291,1094,1094,1094,1094,,,,,
64665790,1095,1095,1095,1095,,,,,
64668289,1096,1096,1096,1096,,,,,
64670788,1096,1096,1096,1096,,,,,
64673287,1097,1097,1097,1097,,,,,
64675786,1098,1098,1098,1098,,,,,
64678285,1099,1099,1099,1099,,,,,
64680784,1099,1099,1099,1099,,,,,
64683283,1100,1100,1100,1100,,,,,
64685782,1101,1101,1101,1101,,,,,
64688281,1101,1101,1101,1101,,,,,
64690780,1102,1102,1102,1102,,,,,
64693279,1103,1103,1103,1103,,,,,
64695778,1104,1104,1104,1104,,,,,
64698277,1104,1104,1104,1104,,,,,
64700776,1105,1105,1105,1105,,,,,
64703275,1106,1106,1106,1106,,,,,
64705774,1107,1107,1107,1107,,,,,
64708273,1107,1107,1107,1107,,,,,
64710772,1108,1108,1108,1108,,,,,
64713271,1109,1109,1109,1109,,,,,
64715770,1110,1110,1110,1110,,,,,
64718269,1110,1110,1110,1110,,,,,
64720768,1111,1111,1111,1111,,,,,
64723267,1112,1112,1112,1112,,,,,
64725766,1113,1113,1113,1113,,,,,
64728265,1113,1113,1113,1113,,,,,
64730764,1114,1114,1114,1114,,,,,
64733263,1115,1115,1115,1115,,,,,
64735762,1116,1116,1116,1116,,,,,
64738261,1116,1116,1116,1116,,,,,
64740760,1117,1117,1117,1117,,,,,
64743259,1118,1118,1118,1118,,,,,
64745758,1119,1119,1119,1119,,,,,
64748257,1119,1119,1119,1119,,,,,
64750756,1120,1120,1120,1120,,,,,
64753255,1121,1121,1121,1121,,,,,
64755754,1122,1122,1122,1122,,,,,
64758253,1122,1122,1122,1122,,,,,
64760752,1123,1123,1123,1123,,,,,
64763251,1124,1124,1124,1124,,,,,
64765750,1125,1125,1125,1125,,,,,
64768249,1125,1125,1125,1125,,,,,
64770748,1126,1126,1126,1126,,,,,
64773247,1127,1127,1127,1127,,,,,
64775746,1128,1128,1128,1128,,,,,
64778245,1128,1128,1128,1128,,,,,
64780744,1129,1129,1129,1129,,,,,
64783243,1130,1130,1130,1130,,,,,
64785742,1131,1131,1131,1131,,,,,
64788241,1131,1131,1131,1131,,,,,
64790740,1132,1132,1132,1132,,,,,
64793239,1133,1133,1133,1133,,,,,
64795738,1134,1134,1134,1134,,,,,
64798237,1134,1134,1134,1134,,,,,
64800736,1135,1135,1135,1135,,,,,
64803235,1136,1136,1136,1136,,,,,
64805734,1137,1137,1137,1137,,,,,
64808233,1137,1137,1137,1137,,,,,
64810732,1138,1138,1138,1138,,,,,
64813231,1139,1139,1139,1139,,,,,
64815730,1140,1140,1140,1140,,,,,
64818229,1140,1140,1140,1140,,,,,
64820728,1141,1141,1141,1141,,,,,
64823227,1142,1142,1142,1142,,,,,
64825726,1143,1143,1143,1143,,,,,
64828225,1143,1143,1143,1143,,,,,
64830724,1144,1144,1144,1144,,,,,
64833223,1145,1145,1145,1145,,,,,
64835722,1146,1146,1146,1146,,,,,
64838221,1146,1146,1146,1146,,,,,
64840720,1147,1147,1147,1147,,,,,
64843219,1148,1148,1148,1148,,,,,
64845718,1149,1149,1149,1149,,,,,
64848217,1149,1149,1149,1149,,,,,
64850716,1150,1150,1150,1150,,,,,
64853215,1162,1153,1153,1163,,,,,
64855714,1170,1161,1161,1171,,,,,
64858213,1178,1169,1169,1179,,,,,
64860712,1186,1177,1177,1186,,,,,
64863211,1193,1184,1185,1194,,,,,
64865710,1201,1192,1192,1201,,,,,
64868209,1208,1199,1200,1209,,,,,
64870708,1215,1207,1207,1216,,,,,
64873207,1222,1214,1214,1223,,,,,
64875706,1229,1221,1221,1230,,,,,
64878205,1236,1228,1228,1237,,,,,
64880704,1243,1235,1235,1243,,,,,
64883203,1250,1242,1242,1250,,,,,
64885702,1256,1248,1249,1257,,,,,
64888201,1263,1255,1255,1263,,,,,
64890700,1269,1261,1262,1270,,,,,
64893199,1275,1268,1268,1276,,,,,
64895698,1282,1274,1274,1282,,,,,
64898197,1288,1280,1281,1289,,,,,
64900696,1294,1287,1287,1295,,,,,
64903195,1300,1293,1293,1301,,,,,
64905694,1306,1299,1299,1307,,,,,
64908193,1312,1305,1305,1313,,,,,
64910692,1318,1311,1311,1319,,,,,
64913191,1324,1317,1317,1324,,,,,
64915690,1330,1322,1323,1330,,,,,
64918189,1335,1328,1328,1336,,,,,
64920688,1341,1334,1334,1342,,,,,
64923187,1347,1339,1340,1347,,,,,
64925686,1352,1345,1345,1353,,,,,
64928185,1358,1351,1351,1358,,,,,
64930684,1363,1356,1356,1364,,,,,
64933183,1368,1361,1362,1369,,,,,
64935682,1374,1367,1367,1374,,,,,
64938181,1379,1372,1373,1380,,,,,
64940680,1384,1377,1378,1385,,,,,
64943179,1390,1383,1383,1390,,,,,
64945678,1395,1388,1388,1395,,,,,
64948177,1400,1393,1394,1400,,,,,
64950676,1405,1398,1399,1405,,,,,
64953175,1410,1403,1404,1410,,,,,
64955674,1415,1408,1409,1415,,,,,
64958173,1420,1413,1414,1420,,,,,
64960672,1425,1418,1419,1425,,,,,
64963171,1430,1423,1424,1430,,,,,
64965670,1435,1428,1429,1435,,,,,
64968169,1440,1433,1434,1440,,,,,
64970668,1444,1438,1438,1445,,,,,
64973167,1449,1443,1443,1449,,,,,
64975666,1454,1448,1448,1454,,,,,
64978165,1458,1452,1453,1459,,,,,
64980664,1463,1457,1457,1464,,,,,
64983163,1468,1462,1462,1468,,,,,
64985662,1472,1466,1467,1473,,,,,
64988161,1477,1471,1471,1477,,,,,
64990660,1482,1475,1476,1482,,,,,
64993159,1486,1480,1480,1486,,,,,
64995658,1491,1485,1485,1491,,,,,
64998157,1495,1489,1489,1495,,,,,
65000656,1500,1494,1494,1500,,,,,
65003155,1504,1498,1498,1504,,,,,
65005654,1508,1502,1503,1509,,,,,
65008986,1513,1507,1507,1513,,,,,
65011485,1517,1511,1511,1517,,,,,
65013984,1521,1515,1516,1522,,,,,
65016483,1526,1520,1520,1526,,,,,
65018982,1530,1524,1524,1530,,,,,
65021481,1534,1528,1529,1535,,,,,
65023980,1538,1533,1533,1539,,,,,
65026479,1543,1537,1537,1543,,,,,
65028978,1547,1541,1541,1547,,,,,
65031477,1551,1545,1545,1551,,,,,
65033976,1555,1549,1550,1555,,,,,
65036475,1559,1554,1554,1560,,,,,
65038974,1563,1558,1558,1564,,,,,
65041473,1567,1562,1562,1568,,,,,
65043972,1571,1566,1566,1572,,,,,
65046471,1575,1570,1570,1576,,,,,
65048970,1579,1574,1574,1580,,,,,
65051469,1583,1578,1578,1584,,,,,
65053968,1587,1582,1582,1588,,,,,
65056467,1591,1586,1586,1592,,,,,
65058966,1595,1590,1590,1596,,,,,
65061465,1599,1594,1594,1600,,,,,
65063964,1603,1598,1598,1604,,,,,
65066463,1607,1602,1602,1607,,,,,
65068962,1611,1605,1606,1611,,,,,
65071461,1615,1609,1609,1615,,,,,
65073960,1619,1613,1613,1619,,,,,
65076459,1622,1617,1617,1623,,,,,
65078958,1626,1621,1621,1627,,,,,
65081457,1630,1625,1625,1630,,,,,
65083956,1634,1628,1628,1634,,,,,
65086455,1637,1632,1632,1638,,,,,
65088954,1641,1636,1636,1642,,,,,
65091453,1645,1640,1640,1645,,,,,
65093952,1649,1643,1643,1649,,,,,
65096451,1652,1647,1647,1653,,,,,
65098950,1656,1651,1651,1657,,,,,
65101449,1660,1654,1654,1660,,,,,
65103948,1663,1658,1658,1664,,,,,
65106447,1667,1662,1662,1668,,,,,
65108946,1671,1665,1665,1671,,,,,
65111445,1674,1669,1669,1675,,,,,
65113944,1678,1673,1673,1678,,,,,
65116443,1681,1676,1676,1682,,,,,
65118942,1685,1680,1680,1685,,,,,
65121441,1688,1683,1683,1689,,,,,
65123940,1692,1687,1687,1693,,,,,
65126439,1695,1690,1690,1696,,,,,
65128938,1699,1694,1694,1700,,,,,
65131437,1702,1697,1697,1703,,,,,
65133936,1706,1701,1701,1707,,,,,
65136435,1709,1704,1704,1710,,,,,
65138934,1713,1708,1708,1713,,,,,
65141433,1716,1711,1711,1717,,,,,
65143932,1720,1715,1715,1720,,,,,
65146431,1723,1718,1718,1724,,,,,
65148930,1727,1721,1721,1727,,,,,
65151429,1730,1725,1725,1731,,,,,
65153928,1734,1728,1728,1734,,,,,
65156427,1737,1731,1732,1737,,,,,
65158926,1740,1735,1735,1741,,,,,
65161425,1744,1738,1738,1744,,,,,
65163924,1747,1742,1742,1747,,,,,
65166423,1750,1745,1745,1751,,,,,
65168922,1754,1748,1748,1754,,,,,
65171421,1757,1751,1752,1757,,,,,
65173920,1760,1755,1755,1761,,,,,
65176419,1764,1758,1758,1764,,,,,
65178918,1767,1761,1761,1767,,,,,
65181417,1770,1765,1765,1771,,,,,
65183916,1773,1768,1768,1774,,,,,
65186415,1777,1771,1771,1777,,,,,
65188914,1780,1774,1774,1780,,,,,
65191413,1783,1778,1778,1783,,,,,
65193912,1786,1781,1781,1787,,,,,
65196411,1789,1784,1784,1790,,,,,
65198910,1793,1787,1787,1793,,,,,
65201409,1796,1790,1791,1796,,,,,
65203908,1799,1794,1794,1799,,,,,
65206407,1802,1797,1797,1803,,,,,
65208906,1805,1800,1800,1806,,,,,
65211405,1808,1803,1803,1809,,,,,
65213904,1812,1806,1806,1812,,,,,
65216403,1815,1809,1809,1815,,,,,
65218902,1818,1813,1813,1818,,,,,
65221401,1821,1816,1816,1821,,,,,
65223900,1824,1819,1819,1824,,,,,
65226399,1827,1822,1822,1828,,,,,
65228898,1830,1825,1825,1831,,,,,
65231397,1833,1828,1828,1834,,,,,
65233896,1836,1831,1831,1837,,,,,
65236395,1839,1834,1834,1840,,,,,
65238894,1842,1837,1837,1843,,,,,
65241393,1845,1840,1840,1846,,,,,
65243892,1848,1843,1843,1849,,,,,
65246391,1851,1846,1846,1852,,,,,
65248890,1854,1849,1849,1855,,,,,
65251389,1857,1852,1852,1858,,,,,
65253888,1860,1855,1855,1861,,,,,
65256387,1863,1858,1858,1864,,,,,
65258886,1866,1861,1861,1867,,,,,
65261385,1869,1864,1864,1870,,,,,
65263884,1872,1867,1867,1873,,,,,
65266383,1872,1867,1867,1872,,,,,
65268882,1871,1865,1865,1871,,,,,
65271381,1869,1864,1864,1870,,,,,
65273880,1868,1863,1863,1869,,,,,
65276379,1867,1862,1862,1868,,,,,
65278878,1866,1861,1861,1867,,,,,
65281377,1865,1860,1860,1866,,,,,
65283876,1864,1859,1859,1865,,,,,
65286375,1863,1858,1858,1864,,,,,
65288874,1863,1857,1857,1863,,,,,
65291373,1862,1857,1857,1863,,,,,
65293872,1861,1856,1856,1862,,,,,
65296371,1861,1855,1855,1861,,,,,
65298870,1860,1855,1855,1861,,,,,
65301369,1860,1854,1854,1860,,,,,
65303868,1859,1854,1854,1860,,,,,
65306367,1859,1854,1853,1860,,,,,
65308866,1859,1853,1853,1859,,,,,
65311365,1859,1853,1853,1859,,,,,
65313864,1859,1853,1853,1859,,,,,
65316363,1859,1853,1853,1859,,,,,
65318862,1859,1853,1853,1859,,,,,
65321361,1859,1853,1853,1859,,,,,
65323860,1859,1853,1853,1860,,,,,
65326359,1859,1854,1853,1860,,,,,
65328858,1860,1854,1854,1860,,,,,
65331357,1860,1854,1854,1861,,,,,
65333856,1861,1855,1855,1861,,,,,
65336355,1861,1855,1855,1862,,,,,
65338854,1862,1856,1856,1863,,,,,
65341353,1862,1857,1856,1863,,,,,
65343852,1863,1857,1857,1864,,,,,
65346351,1864,1858,1858,1865,,,,,
65348850,1865,1859,1859,1865,,,,,
65351349,1865,1860,1860,1866,,,,,
65353848,1866,1861,1861,1867,,,,,
65356347,1867,1862,1861,1868,,,,,
65358846,1868,1862,1862,1868,,,,,
65361345,1868,1863,1863,1869,,,,,
65363844,1869,1864,1864,1869,,,,,
65366343,1869,1864,1864,1870,,,,,
65368842,1869,1865,1865,1870,,,,,
65371341,1869,1865,1865,1870,,,,,
65373840,1869,1865,1865,1870,,,,,
65376339,1869,1865,1865,1870,,,,,
65378838,1868,1865,1865,1869,,,,,
65381337,1868,1864,1864,1869,,,,,
65383836,1867,1864,1864,1868,,,,,
65386335,1866,1863,1863,1867,,,,,
65388834,1865,1862,1862,1866,,,,,
65391333,1864,1861,1861,1865,,,,,
65393832,1863,1860,1860,1863,,,,,
65396331,1861,1858,1858,1862,,,,,
65398830,1859,1857,1857,1860,,,,,
65401329,1858,1855,1855,1858,,,,,
65403828,1855,1853,1853,1856,,,,,
65406327,1853,1851,1851,1854,,,,,
65408826,1851,1848,1849,1852,,,,,
65411325,1849,1846,1846,1849,,,,,
65413824,1846,1844,1844,1847,,,,,
65416323,1844,1841,1841,1844,,,,,
65418822,1841,1839,1839,1841,,,,,
65421321,1838,1836,1836,1839,,,,,
65423820,1835,1833,1833,1836,,,,,
65426319,1832,1830,1830,1833,,,,,
65428818,1829,1827,1827,1830,,,,,
65431317,1826,1824,1824,1827,,,,,
65433816,1823,1821,1821,1824,,,,,
65436315,1820,1818,1818,1821,,,,,
65438814,1817,1815,1815,1818,,,,,
65441313,1814,1812,1812,1814,,,,,
65443812,1811,1809,1809,1811,,,,,
65446311,1807,1806,1806,1808,,,,,
65448810,1804,1802,1803,1804,,,,,
65451309,1801,1799,1799,1801,,,,,
65453808,1797,1796,1796,1798,,,,,
65456307,1794,1792,1793,1794,,,,,
65458806,1791,1789,1789,1791,,,,,
65461305,1787,1786,1786,1787,,,,,
65463804,1784,1782,1783,1784,,,,,
65466303,1780,1779,1779,1781,,,,,
65468802,1777,1776,1776,1777,,,,,
65471301,1773,1772,1773,1774,,,,,
65473800,1770,1769,1769,1770,,,,,
65476299,1767,1765,1766,1767,,,,,
65478798,1763,1762,1762,1763,,,,,
65481297,1760,1759,1759,1760,,,,,
65483796,1756,1755,1756,1757,,,,,
65486295,1753,1752,1752,1753,,,,,
65488794,1749,1749,1749,1750,,,,,
65491293,1746,1745,1746,1746,,,,,
65493792,1743,1742,1742,1743,,,,,
65496291,1739,1739,1739,1740,,,,,
65498790,1736,1735,1736,1736,,,,,
65501289,1733,1732,1733,1733,,,,,
65503788,1730,1729,1730,1730,,,,,
65506287,1727,1726,1726,1727,,,,,
65508786,1724,1723,1723,1724,,,,,
65511285,1721,1720,1720,1721,,,,,
65513784,1718,1717,1717,1718,,,,,
65516283,1715,1714,1715,1715,,,,,
65518782,1712,1711,1712,1712,,,,,
65521281,1709,1708,1709,1709,,,,,
65523780,1706,1706,1706,1706,,,,,
