TimeUS,M1,M2,M3,M4,TimeUS,C1,C2,C3,C4
70840819,1000,1000,1000,1000,70928284,1000,1000,1000,1000
70843318,1000,1000,1000,1000,71028244,1000,1000,1000,1000
70845817,1000,1000,1000,1000,71128204,1000,1000,1000,1000
70848316,1000,1000,1000,1000,71228164,1000,1000,1000,1000
70850815,1000,1000,1000,1000,71328957,1000,1000,1000,1000
70853314,1000,1000,1000,1000,71428917,1000,1000,1000,1000
70855813,1000,1000,1000,1000,71528877,1000,1000,1000,1000
70858312,1000,1000,1000,1000,71628837,1000,1000,1000,1000
70860811,1000,1000,1000,1000,71728797,1000,1000,1000,1000
70863310,1000,1000,1000,1000,71828757,1000,1000,1000,1000
70865809,1000,1000,1000,1000,71928717,1000,1000,1000,1000
70868308,1000,1000,1000,1000,72028677,1000,1000,1000,1000
70870807,1000,1000,1000,1000,72128637,1000,1000,1000,1000
70873306,1000,1000,1000,1000,72228597,1000,1000,1000,1000
70875805,1000,1000,1000,1000,72328557,1000,1000,1000,1000
70878304,1000,1000,1000,1000,72428517,1000,1000,1000,1000
70880803,1000,1000,1000,1000,72528477,1000,1000,1000,1000
70883302,1000,1000,1000,1000,72628437,1000,1000,1000,1000
70885801,1000,1000,1000,1000,72728397,1000,1000,1000,1000
70888300,1000,1000,1000,1000,72828357,1000,1000,1000,1000
70890799,1000,1000,1000,1000,72928317,1026,1026,1026,1026
70893298,1000,1000,1000,1000,73028277,1056,1056,1056,1056
70895797,1000,1000,1000,1000,73128237,1086,1086,1086,1086
70898296,1000,1000,1000,1000,73228197,1116,1116,1116,1116
70900795,1000,1000,1000,1000,73328157,1146,1146,1146,1146
70903294,1000,1000,1000,1000,73428950,1375,1366,1367,1375
70905793,1000,1000,1000,1000,73528910,1560,1553,1553,1560
70908292,1000,1000,1000,1000,73628870,1710,1703,1704,1710
70910791,1000,1000,1000,1000,73728830,1840,1833,1834,1840
70913290,1000,1000,1000,1000,73828790,1901,1895,1895,1902
70915789,1000,1000,1000,1000,73928750,1836,1833,1834,1836
70918288,1000,1000,1000,1000,74028710,1711,1711,1712,1711
70920787,1000,1000,1000,1000,74128670,1645,1647,1647,1645
70923286,1000,1000,1000,1000,74228630,1634,1638,1637,1635
70925785,1000,1000,1000,1000,74328590,1643,1646,1646,1643
70928284,1000,1000,1000,1000,74428550,1647,1648,1648,1647
70930783,1000,1000,1000,1000,74528510,1642,1641,1641,1641
70933282,1000,1000,1000,1000,74628470,1633,1632,1632,1633
70935781,1000,1000,1000,1000,74728430,1617,1617,1617,1617
70938280,1000,1000,1000,1000,74828390,1585,1585,1584,1585
70940779,1000,1000,1000,1000,74928350,1571,1570,1570,1571
70943278,1000,1000,1000,1000,75028310,1560,1560,1559,1560
70945777,1000,1000,1000,1000,75128270,1560,1559,1552,1566
70948276,1000,1000,1000,1000,75228230,1558,1558,1550,1565
70950775,1000,1000,1000,1000,75328190,1558,1557,1553,1561
70953274,1000,1000,1000,1000,75428983,1559,1559,1558,1559
70955773,1000,1000,1000,1000,75528943,1561,1561,1563,1558
70958272,1000,1000,1000,1000,75628903,1563,1564,1568,1559
70960771,1000,1000,1000,1000,75728863,1555,1555,1564,1546
70963270,1000,1000,1000,1000,75828823,1545,1546,1558,1534
70965769,1000,1000,1000,1000,75928783,1539,1539,1543,1536
70968268,1000,1000,1000,1000,76028743,1535,1535,1532,1540
70970767,1000,1000,1000,1000,76128703,1535,1534,1527,1543
70973266,1000,1000,1000,1000,76228663,1535,1534,1527,1542
70975765,1000,1000,1000,1000,76328623,1537,1537,1531,1542
70978264,1000,1000,1000,1000,76428583,1539,1539,1537,1540
70980763,1000,1000,1000,1000,76528543,1542,1543,1544,1541
70983262,1000,1000,1000,1000,76628503,1546,1546,1550,1542
70985761,1000,1000,1000,1000,76728463,1550,1550,1554,1546
70988260,1000,1000,1000,1000,76828423,1552,1553,1554,1550
70990759,1000,1000,1000,1000,76928383,1555,1555,1555,1554
70993258,1000,1000,1000,1000,77028343,1554,1553,1558,1560
70995757,1000,1000,1000,1000,77128303,1552,1552,1561,1565
70998256,1000,1000,1000,1000,77228263,1554,1554,1562,1566
71000755,1000,1000,1000,1000,77328223,1558,1558,1563,1566
71003254,1000,1000,1000,1000,77428183,1561,1562,1564,1565
71005753,1000,1000,1000,1000,77528976,1565,1565,1564,1564
71008252,1000,1000,1000,1000,77628936,1568,1568,1565,1564
71010751,1000,1000,1000,1000,77728896,1569,1569,1564,1563
71013250,1000,1000,1000,1000,77828856,1571,1571,1564,1564
71015749,1000,1000,1000,1000,77928816,1573,1572,1566,1565
71018248,1000,1000,1000,1000,78028776,1574,1574,1567,1567
71020747,1000,1000,1000,1000,78128736,1573,1573,1568,1568
71023246,1000,1000,1000,1000,78228696,1573,1573,1569,1570
71025745,1000,1000,1000,1000,78328656,1574,1574,1572,1572
71028244,1000,1000,1000,1000,78428616,1573,1573,1573,1573
71030743,1000,1000,1000,1000,78528576,1573,1574,1575,1574
71033242,1000,1000,1000,1000,78628536,1573,1573,1576,1574
71035741,1000,1000,1000,1000,78728496,1573,1573,1576,1575
71038240,1000,1000,1000,1000,78828456,1574,1574,1577,1577
71040739,1000,1000,1000,1000,78928416,1575,1575,1577,1577
71043238,1000,1000,1000,1000,79028376,1575,1575,1577,1577
71045737,1000,1000,1000,1000,79128336,1576,1576,1577,1577
71048236,1000,1000,1000,1000,79228296,1577,1577,1578,1578
71050735,1000,1000,1000,1000,79328256,1577,1577,1577,1577
71053234,1000,1000,1000,1000,79428216,1578,1578,1578,1578
71055733,1000,1000,1000,1000,79528176,1578,1578,1577,1577
71058232,1000,1000,1000,1000,79628969,1578,1578,1577,1577
71060731,1000,1000,1000,1000,79728929,1579,1579,1577,1578
71063230,1000,1000,1000,1000,79828889,1578,1578,1578,1577
71065729,1000,1000,1000,1000,79928849,1579,1579,1579,1578
71068228,1000,1000,1000,1000,80028809,1579,1579,1578,1578
71070727,1000,1000,1000,1000,80128769,1581,1580,1580,1580
71073226,1000,1000,1000,1000,80228729,1578,1579,1578,1579
71075725,1000,1000,1000,1000,80328689,1579,1579,1579,1579
71078224,1000,1000,1000,1000,80428649,1579,1579,1579,1579
71080723,1000,1000,1000,1000,80528609,1579,1579,1580,1579
71083222,1000,1000,1000,1000,80628569,1579,1578,1579,1579
71085721,1000,1000,1000,1000,80728529,1578,1578,1579,1578
71088220,1000,1000,1000,1000,80828489,1578,1578,1579,1579
71090719,1000,1000,1000,1000,80928449,1578,1578,1578,1579
71093218,1000,1000,1000,1000,81028409,1579,1579,1579,1580
71095717,1000,1000,1000,1000,81128369,1579,1579,1579,1579
71098216,1000,1000,1000,1000,81228329,1579,1579,1579,1579
71100715,1000,1000,1000,1000,81328289,1579,1579,1579,1579
71103214,1000,1000,1000,1000,81428249,1579,1579,1579,1579
71105713,1000,1000,1000,1000,81528209,1580,1580,1580,1580
71108212,1000,1000,1000,1000,81628169,1580,1580,1580,1580
71110711,1000,1000,1000,1000,81728962,1579,1579,1579,1579
71113210,1000,1000,1000,1000,81828922,1580,1580,1580,1581
71115709,1000,1000,1000,1000,81928882,1580,1580,1580,1580
71118208,1000,1000,1000,1000,82028842,1580,1580,1580,1580
71120707,1000,1000,1000,1000,82128802,1580,1580,1580,1580
71123206,1000,1000,1000,1000,82228762,1581,1580,1581,1580
71125705,1000,1000,1000,1000,82328722,1581,1581,1581,1581
71128204,1000,1000,1000,1000,82428682,1580,1580,1580,1581
71130703,1000,1000,1000,1000,82528642,1581,1581,1581,1581
71133202,1000,1000,1000,1000,82628602,1581,1581,1581,1581
71135701,1000,1000,1000,1000,82728562,1581,1581,1581,1581
71138200,1000,1000,1000,1000,82828522,1581,1581,1582,1581
71140699,1000,1000,1000,1000,82928482,1582,1582,1582,1582
71143198,1000,1000,1000,1000,83028442,1581,1581,1581,1582
71145697,1000,1000,1000,1000,83128402,1582,1582,1582,1582
71148196,1000,1000,1000,1000,83228362,1582,1582,1582,1582
71150695,1000,1000,1000,1000,83328322,1582,1582,1585,1578
71153194,1000,1000,1000,1000,83428282,1580,1582,1587,1572
71155693,1000,1000,1000,1000,83528242,1579,1581,1581,1573
71158192,1000,1000,1000,1000,83628202,1578,1581,1572,1573
71160691,1000,1000,1000,1000,83728162,1576,1579,1563,1569
71163190,1000,1000,1000,1000,83828955,1577,1579,1558,1566
71165689,1000,1000,1000,1000,83928915,1578,1578,1555,1561
71168188,1000,1000,1000,1000,84028875,1580,1578,1556,1558
71170687,1000,1000,1000,1000,84128835,1580,1578,1556,1555
71173186,1000,1000,1000,1000,84228795,1578,1577,1555,1553
71175685,1000,1000,1000,1000,84328755,1578,1577,1555,1553
71178184,1000,1000,1000,1000,84428715,1576,1577,1555,1553
71180683,1000,1000,1000,1000,84528675,1575,1576,1554,1553
71183182,1000,1000,1000,1000,84628635,1576,1577,1554,1554
71185681,1000,1000,1000,1000,84728595,1576,1577,1553,1553
71188180,1000,1000,1000,1000,84828555,1577,1578,1551,1552
71190679,1000,1000,1000,1000,84928515,1578,1579,1549,1550
71193178,1000,1000,1000,1000,85028475,1580,1581,1547,1547
71195677,1000,1000,1000,1000,85128435,1583,1584,1545,1544
71198176,1000,1000,1000,1000,85228395,1585,1586,1541,1541
71200675,1000,1000,1000,1000,85328355,1590,1590,1540,1539
71203174,1000,1000,1000,1000,85428315,1591,1592,1536,1536
71205673,1000,1000,1000,1000,85528275,1594,1594,1535,1535
71208172,1000,1000,1000,1000,85628235,1594,1594,1534,1535
71210671,1000,1000,1000,1000,85728195,1595,1595,1535,1537
71213170,1000,1000,1000,1000,85828155,1593,1593,1537,1539
71215669,1000,1000,1000,1000,85928948,1591,1589,1542,1545
71218168,1000,1000,1000,1000,86028908,1586,1584,1549,1552
71220667,1000,1000,1000,1000,86128868,1580,1576,1559,1562
71223166,1000,1000,1000,1000,86228828,1569,1566,1569,1572
71225665,1000,1000,1000,1000,86328788,1559,1555,1582,1584
71228164,1000,1000,1000,1000,86428748,1547,1544,1593,1594
71230663,1000,1000,1000,1000,86528708,1537,1535,1603,1603
71233162,1000,1000,1000,1000,86628668,1532,1532,1612,1610
71235661,1000,1000,1000,1000,86728628,1528,1530,1615,1614
71238160,1000,1000,1000,1000,86828588,1530,1532,1616,1615
71240659,1000,1000,1000,1000,86928548,1535,1537,1613,1612
71243158,1000,1000,1000,1000,87028508,1542,1544,1608,1608
71245657,1000,1000,1000,1000,87128468,1549,1551,1599,1600
71248156,1000,1000,1000,1000,87228428,1559,1559,1592,1592
71250655,1000,1000,1000,1000,87328388,1567,1567,1584,1583
71253154,1000,1000,1000,1000,87428348,1575,1574,1577,1577
71256486,1000,1000,1000,1000,87528308,1581,1580,1572,1572
71258985,1000,1000,1000,1000,87628268,1586,1584,1569,1568
71261484,1000,1000,1000,1000,87728228,1588,1587,1567,1567
71263983,1000,1000,1000,1000,87828188,1588,1587,1566,1566
71266482,1000,1000,1000,1000,87928981,1587,1585,1567,1567
71268981,1000,1000,1000,1000,88028941,1584,1583,1569,1569
71271480,1000,1000,1000,1000,88128901,1582,1582,1572,1572
71273979,1000,1000,1000,1000,88228861,1579,1579,1575,1575
71276478,1000,1000,1000,1000,88328821,1577,1577,1579,1579
71278977,1000,1000,1000,1000,88428781,1404,1520,1410,1527
71281476,1000,1000,1000,1000,88528741,1524,1545,1532,1556
71283975,1000,1000,1000,1000,88628701,1622,1578,1633,1589
71286474,1000,1000,1000,1000,88728661,1686,1610,1697,1623
71288973,1000,1000,1000,1000,88828621,1691,1621,1697,1630
71291472,1000,1000,1000,1000,88928581,1697,1648,1696,1648
71293971,1000,1000,1000,1000,89028541,1697,1668,1690,1655
71296470,1000,1000,1000,1000,89128501,1697,1689,1685,1662
71298969,1000,1000,1000,1000,89228461,1697,1715,1682,1677
71301468,1000,1000,1000,1000,89328421,1662,1696,1651,1665
71303967,1000,1000,1000,1000,89428381,1608,1644,1617,1657
71306466,1000,1000,1000,1000,89528341,1572,1595,1613,1666
71308965,1000,1000,1000,1000,89628301,1549,1558,1618,1665
71311464,1000,1000,1000,1000,89728261,1537,1538,1619,1648
71313963,1000,1000,1000,1000,89828221,1540,1537,1614,1622
71316462,1000,1000,1000,1000,89928181,1551,1550,1603,1594
71318961,1000,1000,1000,1000,90028974,1567,1570,1588,1569
71321460,1000,1000,1000,1000,90128934,1583,1589,1572,1553
71323959,1000,1000,1000,1000,90228894,1595,1601,1556,1541
71326458,1000,1000,1000,1000,90328854,1601,1605,1542,1534
71328957,1000,1000,1000,1000,90428814,1603,1603,1533,1533
71331456,1000,1000,1000,1000,90528774,1601,1598,1530,1534
71333955,1000,1000,1000,1000,90628734,1597,1593,1531,1538
71336454,1000,1000,1000,1000,90728694,1591,1587,1536,1542
71338953,1000,1000,1000,1000,90828654,1585,1582,1544,1547
71341452,1000,1000,1000,1000,90928614,1579,1577,1552,1554
71343951,1000,1000,1000,1000,91028574,1574,1574,1562,1562
71346450,1000,1000,1000,1000,91128534,1569,1571,1570,1569
71348949,1000,1000,1000,1000,91228494,1566,1568,1577,1576
71351448,1000,1000,1000,1000,91328454,1565,1565,1586,1577
71353947,1000,1000,1000,1000,91428414,1564,1565,1592,1576
71356446,1000,1000,1000,1000,91528374,1562,1565,1589,1579
71358945,1000,1000,1000,1000,91628334,1560,1562,1581,1580
71361444,1000,1000,1000,1000,91728294,1558,1559,1572,1578
71363943,1000,1000,1000,1000,91828254,1559,1560,1567,1575
71366442,1000,1000,1000,1000,91928214,1562,1562,1563,1570
71368941,1000,1000,1000,1000,92028174,1565,1565,1560,1564
71371440,1000,1000,1000,1000,92128967,1569,1568,1557,1558
71373939,1000,1000,1000,1000,92228927,1573,1573,1555,1553
71376438,1000,1000,1000,1000,92328887,1576,1576,1553,1549
71378937,1000,1000,1000,1000,92428847,1578,1578,1550,1547
71381436,1000,1000,1000,1000,92528807,1580,1580,1548,1546
71383935,1000,1000,1000,1000,92628767,1581,1582,1546,1546
71386434,1000,1000,1000,1000,92728727,1582,1582,1545,1546
71388933,1000,1000,1000,1000,92828687,1582,1582,1545,1545
71391432,1000,1000,1000,1000,92928647,1583,1582,1545,1545
71393931,1000,1000,1000,1000,93028607,1582,1583,1544,1544
71396430,1000,1000,1000,1000,93128567,1583,1584,1545,1545
71398929,1000,1000,1000,1000,93228527,1583,1584,1545,1544
71401428,1000,1000,1000,1000,93328487,1582,1583,1543,1543
71403927,1000,1000,1000,1000,93428447,1583,1584,1544,1543
71406426,1000,1000,1000,1000,93528407,1584,1584,1544,1544
71408925,1000,1000,1000,1000,93628367,1584,1583,1544,1545
71411424,1000,1000,1000,1000,93728327,1583,1583,1545,1547
71413923,1000,1000,1000,1000,93828287,1582,1581,1547,1549
71416422,1000,1000,1000,1000,93928247,1580,1577,1551,1552
71418921,1000,1000,1000,1000,94028207,1576,1575,1555,1557
71421420,1000,1000,1000,1000,94128167,1572,1571,1560,1562
71423919,1000,1000,1000,1000,94228960,1567,1567,1565,1567
71426418,1000,1000,1000,1000,94328920,1563,1563,1571,1573
71428917,1000,1000,1000,1000,94428880,1558,1557,1576,1577
71431416,1000,1000,1000,1000,94528840,1555,1554,1582,1583
71433915,1000,1000,1000,1000,94628800,1551,1550,1587,1587
71436414,1000,1000,1000,1000,94728760,1549,1548,1592,1591
71438913,1000,1000,1000,1000,94828720,1547,1547,1595,1594
71441412,1000,1000,1000,1000,94928680,1547,1548,1597,1596
71443911,1000,1000,1000,1000,95028640,1548,1549,1596,1596
71446410,1000,1000,1000,1000,95128600,1551,1551,1595,1594
71448909,1000,1000,1000,1000,95228560,1553,1554,1592,1591
71451408,1000,1000,1000,1000,95328520,1558,1558,1590,1590
71453907,1000,1000,1000,1000,95428480,1562,1562,1585,1586
71456406,1000,1000,1000,1000,95528440,1566,1565,1581,1582
71458905,1000,1000,1000,1000,95628400,1570,1569,1579,1579
71461404,1000,1000,1000,1000,95728360,1574,1573,1577,1576
71463903,1000,1000,1000,1000,95828320,1576,1576,1575,1574
71466402,1000,1000,1000,1000,95928280,1578,1577,1573,1573
71468901,1000,1000,1000,1000,96028240,1580,1579,1572,1572
71471400,1000,1000,1000,1000,96128200,1580,1579,1572,1572
71473899,1000,1000,1000,1000,96228160,1580,1579,1572,1573
71476398,1000,1000,1000,1000,96328953,1580,1580,1574,1574
71478897,1000,1000,1000,1000,96428913,1579,1579,1575,1575
71481396,1000,1000,1000,1000,96528873,1579,1579,1577,1577
71483895,1000,1000,1000,1000,96628833,1578,1579,1578,1578
71486394,1000,1000,1000,1000,96728793,1577,1578,1580,1579
71488893,1000,1000,1000,1000,96828753,1576,1577,1580,1579
71491392,1000,1000,1000,1000,96928713,1575,1576,1580,1580
71493891,1000,1000,1000,1000,97028673,1576,1576,1581,1581
71496390,1000,1000,1000,1000,97128633,1576,1576,1581,1582
71498889,1000,1000,1000,1000,97228593,1576,1577,1581,1581
71501388,1000,1000,1000,1000,97328553,1577,1577,1581,1580
71503887,1000,1000,1000,1000,97428513,1578,1578,1581,1580
71506386,1000,1000,1000,1000,97528473,1578,1578,1580,1580
71508885,1000,1000,1000,1000,97628433,1578,1578,1578,1579
71511384,1000,1000,1000,1000,97728393,1579,1578,1578,1578
71513883,1000,1000,1000,1000,97828353,1579,1579,1578,1578
71516382,1000,1000,1000,1000,97928313,1580,1581,1579,1579
71518881,1000,1000,1000,1000,98028273,1581,1580,1579,1579
71521380,1000,1000,1000,1000,98128233,1581,1580,1579,1579
71523879,1000,1000,1000,1000,98228193,1581,1581,1579,1579
71526378,1000,1000,1000,1000,98328986,1581,1581,1579,1579
71528877,1000,1000,1000,1000,98428946,1580,1580,1579,1579
71531376,1000,1000,1000,1000,98528906,1581,1581,1579,1580
71533875,1000,1000,1000,1000,98628866,1580,1580,1580,1580
71536374,1000,1000,1000,1000,98728826,1581,1581,1581,1581
71538873,1000,1000,1000,1000,98828786,1582,1581,1582,1581
71541372,1000,1000,1000,1000,98928746,1581,1581,1582,1581
71543871,1000,1000,1000,1000,99028706,1581,1581,1582,1581
71546370,1000,1000,1000,1000,99128666,1580,1581,1581,1581
71548869,1000,1000,1000,1000,99228626,1580,1580,1581,1581
71551368,1000,1000,1000,1000,99328586,1581,1581,1581,1581
71553867,1000,1000,1000,1000,99428546,1581,1581,1582,1582
71556366,1000,1000,1000,1000,99528506,1581,1581,1581,1582
71558865,1000,1000,1000,1000,99628466,1582,1582,1582,1582
71561364,1000,1000,1000,1000,99728426,1581,1581,1581,1581
71563863,1000,1000,1000,1000,99828386,1582,1582,1582,1581
71566362,1000,1000,1000,1000,99928346,1581,1581,1581,1581
71568861,1000,1000,1000,1000,100028306,1582,1582,1581,1581
71571360,1000,1000,1000,1000,100128266,1583,1582,1582,1582
71573859,1000,1000,1000,1000,100228226,1581,1582,1586,1575
71576358,1000,1000,1000,1000,100328186,1581,1584,1586,1573
71578857,1000,1000,1000,1000,100428979,1580,1582,1580,1573
71581356,1000,1000,1000,1000,100528939,1578,1580,1571,1573
71583855,1000,1000,1000,1000,100628899,1576,1579,1564,1570
71586354,1000,1000,1000,1000,100728859,1576,1578,1558,1565
71588853,1000,1000,1000,1000,100828819,1576,1576,1555,1560
71591352,1000,1000,1000,1000,100928779,1577,1576,1553,1556
71593851,1000,1000,1000,1000,101028739,1578,1577,1554,1554
71596350,1000,1000,1000,1000,101128699,1579,1577,1555,1553
71598849,1000,1000,1000,1000,101228659,1578,1578,1555,1553
71601348,1000,1000,1000,1000,101328619,1577,1577,1555,1553
71603847,1000,1000,1000,1000,101428579,1577,1578,1555,1553
71606346,1000,1000,1000,1000,101528539,1576,1577,1554,1553
71608845,1000,1000,1000,1000,101628499,1576,1578,1553,1553
71611344,1000,1000,1000,1000,101728459,1576,1578,1551,1552
71613843,1000,1000,1000,1000,101828419,1578,1580,1551,1551
71616342,1000,1000,1000,1000,101928379,1580,1581,1549,1549
71618841,1000,1000,1000,1000,102028339,1582,1583,1547,1546
71621340,1000,1000,1000,1000,102128299,1584,1585,1545,1544
71623839,1000,1000,1000,1000,102228259,1587,1588,1543,1542
71626338,1000,1000,1000,1000,102328219,1589,1589,1540,1540
71628837,1000,1000,1000,1000,102428179,1592,1592,1540,1540
71631336,1000,1000,1000,1000,102528972,1594,1594,1539,1541
71633835,1000,1000,1000,1000,102628932,1594,1594,1539,1540
71636334,1000,1000,1000,1000,102728892,1594,1593,1540,1543
71638833,1000,1000,1000,1000,102828852,1592,1591,1544,1547
71641332,1000,1000,1000,1000,102928812,1589,1585,1549,1553
71643831,1000,1000,1000,1000,103028772,1582,1578,1557,1560
71646330,1000,1000,1000,1000,103128732,1574,1569,1567,1570
71648829,1000,1000,1000,1000,103228692,1563,1560,1578,1580
71651328,1000,1000,1000,1000,103328652,1553,1551,1588,1590
71653827,1000,1000,1000,1000,103428612,1545,1545,1598,1598
71656326,1000,1000,1000,1000,103528572,1539,1541,1607,1606
71658825,1000,1000,1000,1000,103628532,1535,1539,1613,1610
71661324,1000,1000,1000,1000,103728492,1536,1540,1615,1613
71663823,1000,1000,1000,1000,103828452,1538,1541,1613,1611
71666322,1000,1000,1000,1000,103928412,1542,1544,1609,1607
71668821,1000,1000,1000,1000,104028372,1548,1549,1604,1603
71671320,1000,1000,1000,1000,104128332,1555,1555,1598,1597
71673819,1000,1000,1000,1000,104228292,1562,1562,1591,1591
71676318,1000,1000,1000,1000,104328252,1568,1567,1583,1584
71678817,1000,1000,1000,1000,104428212,1574,1573,1577,1578
71681316,1000,1000,1000,1000,104528172,1579,1577,1571,1572
71683815,1000,1000,1000,1000,104628965,1583,1581,1568,1569
71686314,1000,1000,1000,1000,104728925,1585,1582,1565,1566
71688813,1000,1000,1000,1000,104828885,1585,1583,1564,1565
71691312,1000,1000,1000,1000,104928845,1585,1584,1565,1566
71693811,1000,1000,1000,1000,105028805,1584,1583,1567,1567
71696310,1000,1000,1000,1000,105128765,1582,1581,1570,1569
71698809,1000,1000,1000,1000,105228725,1580,1580,1573,1573
71701308,1000,1000,1000,1000,105328685,1578,1578,1576,1575
71703807,1000,1000,1000,1000,105428645,1575,1577,1579,1578
71706306,1000,1000,1000,1000,105528605,1575,1576,1582,1581
71708805,1000,1000,1000,1000,105628565,1573,1574,1583,1582
71711304,1000,1000,1000,1000,105728525,1573,1574,1584,1584
71713803,1000,1000,1000,1000,105828485,1573,1575,1585,1585
71716302,1000,1000,1000,1000,105928445,1574,1575,1584,1584
71718801,1000,1000,1000,1000,106028405,1574,1574,1583,1582
71721300,1000,1000,1000,1000,106128365,1576,1576,1583,1583
71723799,1000,1000,1000,1000,106228325,1577,1577,1581,1581
71726298,1000,1000,1000,1000,106328285,1578,1578,1580,1580
71728797,1000,1000,1000,1000,106428245,1579,1579,1579,1579
71731296,1000,1000,1000,1000,106528205,1581,1580,1578,1579
71733795,1000,1000,1000,1000,106628165,1582,1581,1578,1578
71736294,1000,1000,1000,1000,106728958,1582,1581,1577,1577
71738793,1000,1000,1000,1000,106828918,1582,1582,1578,1578
71741292,1000,1000,1000,1000,106928878,1582,1582,1578,1578
71743791,1000,1000,1000,1000,107028838,1582,1582,1578,1579
71746290,1000,1000,1000,1000,107128798,1582,1582,1578,1579
71748789,1000,1000,1000,1000,107228758,1581,1581,1579,1579
71751288,1000,1000,1000,1000,107328718,1581,1581,1580,1580
71753787,1000,1000,1000,1000,107428678,1580,1580,1580,1580
71756286,1000,1000,1000,1000,107528638,1580,1580,1581,1581
71758785,1000,1000,1000,1000,107628598,1580,1581,1582,1582
71761284,1000,1000,1000,1000,107728558,1580,1581,1582,1582
71763783,1000,1000,1000,1000,107828518,1580,1579,1582,1581
71766282,1000,1000,1000,1000,107928478,1580,1580,1581,1582
71768781,1000,1000,1000,1000,108028438,1579,1580,1581,1581
71771280,1000,1000,1000,1000,108128398,1581,1581,1582,1582
71773779,1000,1000,1000,1000,108228358,1581,1582,1587,1574
71776278,1000,1000,1000,1000,108328318,1581,1582,1586,1573
71778777,1000,1000,1000,1000,108428278,1579,1579,1580,1575
71781276,1000,1000,1000,1000,108528238,1576,1575,1574,1575
71783775,1000,1000,1000,1000,108628198,1572,1570,1567,1574
71786274,1000,1000,1000,1000,108728158,1569,1568,1564,1572
71788773,1000,1000,1000,1000,108828951,1567,1567,1564,1569
71791272,1000,1000,1000,1000,108928911,1566,1567,1564,1567
71793771,1000,1000,1000,1000,109028871,1565,1567,1565,1565
71796270,1000,1000,1000,1000,109128831,1565,1566,1566,1564
71798769,1000,1000,1000,1000,109228791,1565,1565,1566,1563
71801268,1000,1000,1000,1000,109328751,1565,1565,1566,1564
71803767,1000,1000,1000,1000,109428711,1564,1563,1564,1562
71806266,1000,1000,1000,1000,109528671,1563,1563,1564,1563
71808765,1000,1000,1000,1000,109628631,1562,1562,1563,1562
71811264,1000,1000,1000,1000,109728591,1563,1562,1563,1563
71813763,1000,1000,1000,1000,109828551,1562,1562,1562,1563
71816262,1000,1000,1000,1000,109928511,1561,1562,1562,1562
71818761,1000,1000,1000,1000,110028471,1561,1561,1561,1561
71821260,1000,1000,1000,1000,110128431,1561,1561,1561,1561
71823759,1000,1000,1000,1000,110228391,1559,1559,1560,1559
71826258,1000,1000,1000,1000,110328351,1559,1559,1560,1559
71828757,1000,1000,1000,1000,110428311,1559,1559,1560,1559
71831256,1000,1000,1000,1000,110528271,1559,1559,1559,1558
71833755,1000,1000,1000,1000,110628231,1559,1559,1559,1558
71836254,1000,1000,1000,1000,110728191,1559,1559,1560,1558
71838753,1000,1000,1000,1000,110828984,1559,1559,1560,1558
71841252,1000,1000,1000,1000,110928944,1560,1560,1561,1559
71843751,1000,1000,1000,1000,111028904,1560,1560,1560,1560
71846250,1000,1000,1000,1000,111128864,1561,1561,1559,1563
71848749,1000,1000,1000,1000,111228824,1561,1561,1559,1564
71851248,1000,1000,1000,1000,111328784,1561,1561,1558,1564
71853747,1000,1000,1000,1000,111428744,1561,1561,1559,1563
71856246,1000,1000,1000,1000,111528704,1561,1560,1560,1561
71858745,1000,1000,1000,1000,111628664,1559,1559,1560,1557
71861244,1000,1000,1000,1000,111728624,1559,1559,1559,1558
71863743,1000,1000,1000,1000,111828584,1557,1556,1555,1557
71866242,1000,1000,1000,1000,111928544,1553,1553,1552,1554
71868741,1000,1000,1000,1000,112028504,1548,1547,1547,1548
71871240,1000,1000,1000,1000,112128464,1542,1542,1541,1542
71873739,1000,1000,1000,1000,112228424,1536,1536,1536,1536
71876238,1000,1000,1000,1000,112328384,1528,1528,1528,1528
71878737,1000,1000,1000,1000,112428344,1522,1522,1522,1522
71881236,1000,1000,1000,1000,112528304,1519,1520,1519,1520
71883735,1000,1000,1000,1000,112628264,1518,1520,1519,1520
71886234,1000,1000,1000,1000,112728224,1519,1521,1520,1521
71888733,1000,1000,1000,1000,112828184,1522,1523,1522,1523
71891232,1000,1000,1000,1000,112928977,1525,1526,1525,1526
71893731,1000,1000,1000,1000,113028937,1530,1530,1530,1530
71896230,1000,1000,1000,1000,113128897,1536,1535,1536,1535
71898729,1000,1000,1000,1000,113228857,1539,1537,1539,1537
71901228,1000,1000,1000,1000,113328817,1542,1541,1543,1540
71903727,1000,1000,1000,1000,113428777,1544,1543,1544,1543
71906226,1000,1000,1000,1000,113528737,1545,1545,1545,1545
71908725,1000,1000,1000,1000,113628697,1546,1545,1546,1545
71911224,1000,1000,1000,1000,113728657,1547,1546,1547,1546
71913723,1000,1000,1000,1000,113828617,1546,1547,1546,1547
71916222,1000,1000,1000,1000,113928577,1547,1548,1547,1547
71918721,1000,1000,1000,1000,114028537,1546,1547,1547,1546
71921220,1000,1000,1000,1000,114128497,1548,1548,1547,1548
71923719,1000,1000,1000,1000,114228457,1547,1547,1547,1548
71926218,1000,1000,1000,1000,114328417,1547,1547,1546,1546
71928717,1000,1000,1000,1000,114428377,1546,1546,1546,1546
71931216,1000,1000,1000,1000,114528337,1546,1547,1546,1546
71933715,1000,1000,1000,1000,114628297,1545,1545,1545,1545
71936214,1000,1000,1000,1000,114728257,1545,1545,1545,1545
71938713,1000,1000,1000,1000,114828217,1545,1546,1545,1545
71941212,1000,1000,1000,1000,114928177,1545,1545,1545,1545
71943711,1000,1000,1000,1000,115028970,1543,1544,1544,1543
71946210,1000,1000,1000,1000,115128930,1544,1544,1544,1544
71948709,1000,1000,1000,1000,115228890,1543,1544,1544,1543
71951208,1000,1000,1000,1000,115328850,1544,1544,1544,1544
71953707,1000,1000,1000,1000,115428810,1543,1543,1543,1543
71956206,1000,1000,1000,1000,115528770,1544,1543,1544,1544
71958705,1000,1000,1000,1000,115628730,1544,1544,1544,1544
71961204,1000,1000,1000,1000,115728690,1544,1544,1544,1544
71963703,1000,1000,1000,1000,115828650,1544,1543,1543,1543
71966202,1000,1000,1000,1000,115928610,1544,1544,1544,1544
71968701,1000,1000,1000,1000,116028570,1543,1544,1544,1543
71971200,1000,1000,1000,1000,116128530,1544,1544,1544,1544
71973699,1000,1000,1000,1000,116228490,1543,1544,1544,1543
71976198,1000,1000,1000,1000,116328450,1544,1544,1544,1544
71978697,1000,1000,1000,1000,116428410,1544,1544,1544,1544
71981196,1000,1000,1000,1000,116528370,1544,1544,1544,1544
71983695,1000,1000,1000,1000,116628330,1544,1544,1544,1544
71986194,1000,1000,1000,1000,116728290,1544,1543,1544,1544
71988693,1000,1000,1000,1000,116828250,1544,1545,1544,1544
71991192,1000,1000,1000,1000,116928210,1544,1544,1544,1544
71993691,1000,1000,1000,1000,117028170,1544,1545,1544,1544
71996190,1000,1000,1000,1000,117128963,1544,1544,1544,1544
71998689,1000,1000,1000,1000,117228923,1545,1545,1544,1545
72001188,1000,1000,1000,1000,117328883,1544,1544,1544,1544
72003687,1000,1000,1000,1000,117428843,1545,1544,1545,1544
72006186,1000,1000,1000,1000,117528803,1545,1544,1545,1545
72008685,1000,1000,1000,1000,117628763,1544,1544,1545,1544
72011184,1000,1000,1000,1000,117728723,1544,1544,1544,1544
72013683,1000,1000,1000,1000,117828683,1544,1545,1544,1545
72016182,1000,1000,1000,1000,117928643,1544,1544,1544,1544
72018681,1000,1000,1000,1000,118028603,1545,1544,1544,1544
72021180,1000,1000,1000,1000,118128563,1545,1545,1545,1545
72023679,1000,1000,1000,1000,118228523,1545,1546,1546,1545
72026178,1000,1000,1000,1000,118328483,1546,1546,1546,1546
72028677,1000,1000,1000,1000,118428443,1545,1546,1545,1545
72031176,1000,1000,1000,1000,118528403,1544,1544,1544,1544
72033675,1000,1000,1000,1000,118628363,1544,1544,1544,1545
72036174,1000,1000,1000,1000,118728323,1545,1545,1545,1545
72038673,1000,1000,1000,1000,118828283,1544,1545,1545,1544
72041172,1000,1000,1000,1000,118928243,1544,1544,1545,1544
72043671,1000,1000,1000,1000,119028203,1544,1544,1544,1544
72046170,1000,1000,1000,1000,119128163,1544,1544,1544,1545
72048669,1000,1000,1000,1000,119228956,1545,1545,1544,1545
72051168,1000,1000,1000,1000,119328916,1545,1544,1544,1545
72053667,1000,1000,1000,1000,119428876,1544,1544,1544,1544
72056166,1000,1000,1000,1000,119528836,1545,1544,1544,1545
72058665,1000,1000,1000,1000,119628796,1544,1545,1545,1544
72061164,1000,1000,1000,1000,119728756,1545,1545,1545,1545
72063663,1000,1000,1000,1000,119828716,1545,1545,1545,1545
72066162,1000,1000,1000,1000,119928676,1545,1544,1545,1545
72068661,1000,1000,1000,1000,120028636,1545,1545,1545,1545
72071160,1000,1000,1000,1000,120128596,1544,1544,1544,1545
72073659,1000,1000,1000,1000,120228556,1545,1545,1545,1545
72076158,1000,1000,1000,1000,120328516,1544,1544,1544,1545
72078657,1000,1000,1000,1000,120428476,1544,1545,1545,1545
72081156,1000,1000,1000,1000,120528436,1545,1545,1545,1545
72083655,1000,1000,1000,1000,120628396,1545,1545,1545,1545
72086154,1000,1000,1000,1000,120728356,1545,1544,1544,1544
72088653,1000,1000,1000,1000,120828316,1544,1544,1544,1544
72091152,1000,1000,1000,1000,120928276,1544,1544,1544,1544
72093651,1000,1000,1000,1000,121028236,1543,1543,1543,1543
72096150,1000,1000,1000,1000,121128196,1544,1544,1544,1544
72098649,1000,1000,1000,1000,121228156,1544,1544,1544,1544
72101148,1000,1000,1000,1000,121328949,1545,1544,1544,1545
72103647,1000,1000,1000,1000,121428909,1544,1544,1544,1543
72106146,1000,1000,1000,1000,121528869,1544,1544,1544,1544
72108645,1000,1000,1000,1000,121628829,1543,1544,1543,1543
72111144,1000,1000,1000,1000,121728789,1544,1544,1544,1545
72113643,1000,1000,1000,1000,121828749,1545,1545,1545,1545
72116142,1000,1000,1000,1000,121928709,1545,1545,1545,1545
72118641,1000,1000,1000,1000,122028669,1545,1545,1545,1545
72121140,1000,1000,1000,1000,122128629,1545,1545,1545,1545
72123639,1000,1000,1000,1000,122228589,1435,1393,1435,1393
72126138,1000,1000,1000,1000,122328549,1353,1266,1352,1267
72128637,1000,1000,1000,1000,122428509,1326,1222,1326,1222
72131136,1000,1000,1000,1000,122528469,1316,1202,1315,1203
72133635,1000,1000,1000,1000,122628429,1295,1163,1295,1164
72136134,1000,1000,1000,1000,122728389,1242,1150,1241,1151
72138633,1000,1000,1000,1000,122828349,1137,1150,1137,1150
72141132,1000,1000,1000,1000,122928309,1061,1150,1061,1150
72143631,1000,1000,1000,1000,123028269,1061,1150,1061,1150
72146130,1000,1000,1000,1000,123128229,1061,1150,1061,1150
72148629,1000,1000,1000,1000,123228189,1061,1150,1051,1163
72151128,1000,1000,1000,1000,123328982,1061,1150,1054,1160
72153627,1000,1000,1000,1000,123428942,1061,1150,1056,1157
72156126,1000,1000,1000,1000,123528902,1061,1150,1056,1157
72158625,1000,1000,1000,1000,123628862,1061,1150,1056,1157
72161124,1000,1000,1000,1000,123728822,1061,1150,1055,1158
72163623,1000,1000,1000,1000,123828782,1061,1150,1055,1159
72166122,1000,1000,1000,1000,123928742,1061,1150,1054,1159
72168621,1000,1000,1000,1000,124028702,1061,1150,1059,1153
72171120,1000,1000,1000,1000,124128662,1061,1150,1058,1154
72173619,1000,1000,1000,1000,124228622,1061,1150,1058,1154
72176118,1000,1000,1000,1000,124328582,1061,1150,1058,1154
72178617,1000,1000,1000,1000,124428542,1061,1150,1058,1155
72181116,1000,1000,1000,1000,124528502,1000,1000,1000,1000
72183615,1000,1000,1000,1000,124628462,1000,1000,1000,1000
72186114,1000,1000,1000,1000,124728422,1000,1000,1000,1000
72188613,1000,1000,1000,1000,124828382,1000,1000,1000,1000
72191112,1000,1000,1000,1000,124928342,1000,1000,1000,1000
72193611,1000,1000,1000,1000,125028302,1000,1000,1000,1000
72196110,1000,1000,1000,1000,125128262,1000,1000,1000,1000
72198609,1000,1000,1000,1000,125228222,1000,1000,1000,1000
72201108,1000,1000,1000,1000,125328182,1000,1000,1000,1000
72203607,1000,1000,1000,1000,125428975,1000,1000,1000,1000
72206106,1000,1000,1000,1000,125528935,1000,1000,1000,1000
72208605,1000,1000,1000,1000,125628895,1000,1000,1000,1000
72211104,1000,1000,1000,1000,125728855,1000,1000,1000,1000
72213603,1000,1000,1000,1000,125828815,1000,1000,1000,1000
72216102,1000,1000,1000,1000,125928775,1000,1000,1000,1000
72218601,1000,1000,1000,1000,126028735,1000,1000,1000,1000
72221100,1000,1000,1000,1000,126128695,1000,1000,1000,1000
72223599,1000,1000,1000,1000,126228655,1000,1000,1000,1000
72226098,1000,1000,1000,1000,126328615,1000,1000,1000,1000
72228597,1000,1000,1000,1000,126428575,1000,1000,1000,1000
72231096,1000,1000,1000,1000,126528535,1000,1000,1000,1000
72233595,1000,1000,1000,1000,126628495,1000,1000,1000,1000
72236094,1000,1000,1000,1000,126728455,1000,1000,1000,1000
72238593,1000,1000,1000,1000,126828415,1000,1000,1000,1000
72241092,1000,1000,1000,1000,126928375,1000,1000,1000,1000
72243591,1000,1000,1000,1000,127028335,1000,1000,1000,1000
72246090,1000,1000,1000,1000,127128295,1000,1000,1000,1000
72248589,1000,1000,1000,1000,127228255,1000,1000,1000,1000
72251088,1000,1000,1000,1000,127328215,1000,1000,1000,1000
72253587,1000,1000,1000,1000,127428175,1000,1000,1000,1000
72256086,1000,1000,1000,1000,127528968,1000,1000,1000,1000
72258585,1000,1000,1000,1000,127628928,1000,1000,1000,1000
72261084,1000,1000,1000,1000,127728888,1000,1000,1000,1000
72263583,1000,1000,1000,1000,127828848,1000,1000,1000,1000
72266082,1000,1000,1000,1000,127928808,1000,1000,1000,1000
72268581,1000,1000,1000,1000,128028768,1000,1000,1000,1000
72271080,1000,1000,1000,1000,128128728,1000,1000,1000,1000
72273579,1000,1000,1000,1000,128228688,1000,1000,1000,1000
72276078,1000,1000,1000,1000,128328648,1000,1000,1000,1000
72278577,1000,1000,1000,1000,128428608,1000,1000,1000,1000
72281076,1000,1000,1000,1000,128528568,1000,1000,1000,1000
72283575,1000,1000,1000,1000,128628528,1000,1000,1000,1000
72286074,1000,1000,1000,1000,128728488,1000,1000,1000,1000
72288573,1000,1000,1000,1000,128828448,1000,1000,1000,1000
72291072,1000,1000,1000,1000,128928408,1000,1000,1000,1000
72293571,1000,1000,1000,1000,129028368,1000,1000,1000,1000
72296070,1000,1000,1000,1000,129128328,1000,1000,1000,1000
72298569,1000,1000,1000,1000,129228288,1000,1000,1000,1000
72301068,1000,1000,1000,1000,129328248,1000,1000,1000,1000
72303567,1000,1000,1000,1000,129428208,1000,1000,1000,1000
72306066,1000,1000,1000,1000,129528168,1000,1000,1000,1000
72308565,1000,1000,1000,1000,129628961,1000,1000,1000,1000
72311064,1000,1000,1000,1000,129728921,1000,1000,1000,1000
72313563,1000,1000,1000,1000,129828881,1000,1000,1000,1000
72316062,1000,1000,1000,1000,129928841,1000,1000,1000,1000
72318561,1000,1000,1000,1000,130028801,1000,1000,1000,1000
72321060,1000,1000,1000,1000,130128761,1000,1000,1000,1000
72323559,1000,1000,1000,1000,130228721,1000,1000,1000,1000
72326058,1000,1000,1000,1000,130328681,1000,1000,1000,1000
72328557,1000,1000,1000,1000,130428641,1000,1000,1000,1000
72331056,1000,1000,1000,1000,130528601,1000,1000,1000,1000
72333555,1000,1000,1000,1000,130628561,1000,1000,1000,1000
72336054,1000,1000,1000,1000,130728521,1000,1000,1000,1000
72338553,1000,1000,1000,1000,130828481,1000,1000,1000,1000
72341052,1000,1000,1000,1000,130928441,1000,1000,1000,1000
72343551,1000,1000,1000,1000,131028401,1000,1000,1000,1000
72346050,1000,1000,1000,1000,131128361,1000,1000,1000,1000
72348549,1000,1000,1000,1000,131228321,1000,1000,1000,1000
72351048,1000,1000,1000,1000,131328281,1000,1000,1000,1000
72353547,1000,1000,1000,1000,131428241,1000,1000,1000,1000
72356046,1000,1000,1000,1000,131528201,1000,1000,1000,1000
72358545,1000,1000,1000,1000,131628161,1000,1000,1000,1000
72361044,1000,1000,1000,1000,131728954,1000,1000,1000,1000
72363543,1000,1000,1000,1000,131828914,1000,1000,1000,1000
72366042,1000,1000,1000,1000,131928874,1000,1000,1000,1000
72368541,1000,1000,1000,1000,132028834,1000,1000,1000,1000
72371040,1000,1000,1000,1000,132128794,1000,1000,1000,1000
72373539,1000,1000,1000,1000,132228754,1000,1000,1000,1000
72376038,1000,1000,1000,1000,132328714,1000,1000,1000,1000
72378537,1000,1000,1000,1000,132428674,1000,1000,1000,1000
72381036,1000,1000,1000,1000,132528634,1000,1000,1000,1000
72383535,1000,1000,1000,1000,132628594,1000,1000,1000,1000
72386034,1000,1000,1000,1000,132728554,1000,1000,1000,1000
72388533,1000,1000,1000,1000,132828514,1000,1000,1000,1000
72391032,1000,1000,1000,1000,132928474,1000,1000,1000,1000
72393531,1000,1000,1000,1000,133028434,1000,1000,1000,1000
72396030,1000,1000,1000,1000,133128394,1000,1000,1000,1000
72398529,1000,1000,1000,1000,133228354,1000,1000,1000,1000
72401028,1000,1000,1000,1000,133328314,1000,1000,1000,1000
72403527,1000,1000,1000,1000,133428274,1000,1000,1000,1000
72406026,1000,1000,1000,1000,133528234,1000,1000,1000,1000
72408525,1000,1000,1000,1000,133628194,1000,1000,1000,1000
72411024,1000,1000,1000,1000,133728154,1000,1000,1000,1000
72413523,1000,1000,1000,1000,133828947,1000,1000,1000,1000
72416022,1000,1000,1000,1000,133928907,1000,1000,1000,1000
72418521,1000,1000,1000,1000,134028867,1000,1000,1000,1000
72421020,1000,1000,1000,1000,134128827,1000,1000,1000,1000
72423519,1000,1000,1000,1000,134228787,1000,1000,1000,1000
72426018,1000,1000,1000,1000,134328747,1000,1000,1000,1000
72428517,1000,1000,1000,1000,134428707,1000,1000,1000,1000
72431016,1000,1000,1000,1000,134528667,1000,1000,1000,1000
72433515,1000,1000,1000,1000,134628627,1000,1000,1000,1000
72436014,1000,1000,1000,1000,134728587,1000,1000,1000,1000
72438513,1000,1000,1000,1000,134828547,1000,1000,1000,1000
72441012,1000,1000,1000,1000,134928507,1000,1000,1000,1000
72443511,1000,1000,1000,1000,135028467,1000,1000,1000,1000
72446010,1000,1000,1000,1000,135128427,1000,1000,1000,1000
72448509,1000,1000,1000,1000,135228387,1000,1000,1000,1000
72451008,1000,1000,1000,1000,135328347,1000,1000,1000,1000
72453507,1000,1000,1000,1000,135428307,1000,1000,1000,1000
72456006,1000,1000,1000,1000,135528267,1000,1000,1000,1000
72458505,1000,1000,1000,1000,135628227,1000,1000,1000,1000
72461004,1000,1000,1000,1000,135728187,1000,1000,1000,1000
72463503,1000,1000,1000,1000,135828980,1000,1000,1000,1000
72466002,1000,1000,1000,1000,135928940,1000,1000,1000,1000
72468501,1000,1000,1000,1000,136028900,1000,1000,1000,1000
72471000,1000,1000,1000,1000,136128860,1000,1000,1000,1000
72473499,1000,1000,1000,1000,136228820,1000,1000,1000,1000
72475998,1000,1000,1000,1000,136328780,1000,1000,1000,1000
72478497,1000,1000,1000,1000,136428740,1000,1000,1000,1000
72480996,1000,1000,1000,1000,136528700,1000,1000,1000,1000
72483495,1000,1000,1000,1000,136628660,1000,1000,1000,1000
72485994,1000,1000,1000,1000,136728620,1000,1000,1000,1000
72488493,1000,1000,1000,1000,136828580,1000,1000,1000,1000
72490992,1000,1000,1000,1000,136928540,1000,1000,1000,1000
72493491,1000,1000,1000,1000,137028500,1000,1000,1000,1000
72495990,1000,1000,1000,1000,137128460,1000,1000,1000,1000
72498489,1000,1000,1000,1000,137228420,1000,1000,1000,1000
72500988,1000,1000,1000,1000,137328380,1000,1000,1000,1000
72503487,1000,1000,1000,1000,137428340,1000,1000,1000,1000
72505986,1000,1000,1000,1000,137528300,1000,1000,1000,1000
72508485,1000,1000,1000,1000,137628260,1000,1000,1000,1000
72510984,1000,1000,1000,1000,137728220,1000,1000,1000,1000
72513483,1000,1000,1000,1000,137828180,1000,1000,1000,1000
72515982,1000,1000,1000,1000,137928973,1000,1000,1000,1000
72518481,1000,1000,1000,1000,,,,,
72520980,1000,1000,1000,1000,,,,,
72523479,1000,1000,1000,1000,,,,,
72525978,1000,1000,1000,1000,,,,,
72528477,1000,1000,1000,1000,,,,,
72530976,1000,1000,1000,1000,,,,,
72533475,1000,1000,1000,1000,,,,,
72535974,1000,1000,1000,1000,,,,,
72538473,1000,1000,1000,1000,,,,,
72540972,1000,1000,1000,1000,,,,,
72543471,1000,1000,1000,1000,,,,,
72545970,1000,1000,1000,1000,,,,,
72548469,1000,1000,1000,1000,,,,,
72550968,1000,1000,1000,1000,,,,,
72553467,1000,1000,1000,1000,,,,,
72555966,1000,1000,1000,1000,,,,,
72558465,1000,1000,1000,1000,,,,,
72560964,1000,1000,1000,1000,,,,,
72563463,1000,1000,1000,1000,,,,,
72565962,1000,1000,1000,1000,,,,,
72568461,1000,1000,1000,1000,,,,,
72570960,1000,1000,1000,1000,,,,,
72573459,1000,1000,1000,1000,,,,,
72575958,1000,1000,1000,1000,,,,,
72578457,1000,1000,1000,1000,,,,,
72580956,1000,1000,1000,1000,,,,,
72583455,1000,1000,1000,1000,,,,,
72585954,1000,1000,1000,1000,,,,,
72588453,1000,1000,1000,1000,,,,,
72590952,1000,1000,1000,1000,,,,,
72593451,1000,1000,1000,1000,,,,,
72595950,1000,1000,1000,1000,,,,,
72598449,1000,1000,1000,1000,,,,,
72600948,1000,1000,1000,1000,,,,,
72603447,1000,1000,1000,1000,,,,,
72605946,1000,1000,1000,1000,,,,,
72608445,1000,1000,1000,1000,,,,,
72610944,1000,1000,1000,1000,,,,,
72613443,1000,1000,1000,1000,,,,,
72615942,1000,1000,1000,1000,,,,,
72618441,1000,1000,1000,1000,,,,,
72620940,1000,1000,1000,1000,,,,,
72623439,1000,1000,1000,1000,,,,,
72625938,1000,1000,1000,1000,,,,,
72628437,1000,1000,1000,1000,,,,,
72630936,1000,1000,1000,1000,,,,,
72633435,1000,1000,1000,1000,,,,,
72635934,1000,1000,1000,1000,,,,,
72638433,1000,1000,1000,1000,,,,,
72640932,1000,1000,1000,1000,,,,,
72643431,1000,1000,1000,1000,,,,,
72645930,1000,1000,1000,1000,,,,,
72648429,1000,1000,1000,1000,,,,,
72650928,1000,1000,1000,1000,,,,,
72653427,1000,1000,1000,1000,,,,,
72655926,1000,1000,1000,1000,,,,,
72658425,1000,1000,1000,1000,,,,,
72660924,1000,1000,1000,1000,,,,,
72663423,1000,1000,1000,1000,,,,,
72665922,1000,1000,1000,1000,,,,,
72668421,1000,1000,1000,1000,,,,,
72670920,1000,1000,1000,1000,,,,,
72673419,1000,1000,1000,1000,,,,,
72675918,1000,1000,1000,1000,,,,,
72678417,1000,1000,1000,1000,,,,,
72680916,1000,1000,1000,1000,,,,,
72683415,1000,1000,1000,1000,,,,,
72685914,1000,1000,1000,1000,,,,,
72688413,1000,1000,1000,1000,,,,,
72690912,1000,1000,1000,1000,,,,,
72693411,1000,1000,1000,1000,,,,,
72695910,1000,1000,1000,1000,,,,,
72698409,1000,1000,1000,1000,,,,,
72700908,1000,1000,1000,1000,,,,,
72703407,1000,1000,1000,1000,,,,,
72705906,1000,1000,1000,1000,,,,,
72708405,1000,1000,1000,1000,,,,,
72710904,1000,1000,1000,1000,,,,,
72713403,1000,1000,1000,1000,,,,,
72715902,1000,1000,1000,1000,,,,,
72718401,1000,1000,1000,1000,,,,,
72720900,1000,1000,1000,1000,,,,,
72723399,1000,1000,1000,1000,,,,,
72725898,1000,1000,1000,1000,,,,,
72728397,1000,1000,1000,1000,,,,,
72730896,1000,1000,1000,1000,,,,,
72733395,1000,1000,1000,1000,,,,,
72735894,1000,1000,1000,1000,,,,,
72738393,1000,1000,1000,1000,,,,,
72740892,1000,1000,1000,1000,,,,,
72743391,1000,1000,1000,1000,,,,,
72745890,1000,1000,1000,1000,,,,,
72748389,1000,1000,1000,1000,,,,,
72750888,1000,1000,1000,1000,,,,,
72753387,1000,1000,1000,1000,,,,,
72755886,1000,1000,1000,1000,,,,,
72758385,1000,1000,1000,1000,,,,,
72760884,1000,1000,1000,1000,,,,,
72763383,1000,1000,1000,1000,,,,,
72765882,1000,1000,1000,1000,,,,,
72768381,1000,1000,1000,1000,,,,,
72770880,1000,1000,1000,1000,,,,,
72773379,1000,1000,1000,1000,,,,,
72775878,1000,1000,1000,1000,,,,,
72778377,1000,1000,1000,1000,,,,,
72780876,1000,1000,1000,1000,,,,,
72783375,1000,1000,1000,1000,,,,,
72785874,1000,1000,1000,1000,,,,,
72788373,1000,1000,1000,1000,,,,,
72790872,1000,1000,1000,1000,,,,,
72793371,1000,1000,1000,1000,,,,,
72795870,1000,1000,1000,1000,,,,,
72798369,1000,1000,1000,1000,,,,,
72800868,1000,1000,1000,1000,,,,,
72803367,1000,1000,1000,1000,,,,,
72805866,1000,1000,1000,1000,,,,,
72808365,1000,1000,1000,1000,,,,,
72810864,1000,1000,1000,1000,,,,,
72813363,1000,1000,1000,1000,,,,,
72815862,1000,1000,1000,1000,,,,,
72818361,1000,1000,1000,1000,,,,,
72820860,1000,1000,1000,1000,,,,,
72823359,1000,1000,1000,1000,,,,,
72825858,1000,1000,1000,1000,,,,,
72828357,1000,1000,1000,1000,,,,,
72830856,1000,1000,1000,1000,,,,,
72833355,1000,1000,1000,1000,,,,,
72835854,1000,1000,1000,1000,,,,,
72838353,1000,1000,1000,1000,,,,,
72840852,1000,1000,1000,1000,,,,,
72843351,1000,1000,1000,1000,,,,,
72845850,1000,1000,1000,1000,,,,,
72848349,1001,1001,1001,1001,,,,,
72850848,1002,1002,1002,1002,,,,,
72853347,1003,1003,1003,1003,,,,,
72855846,1003,1003,1003,1003,,,,,
72858345,1004,1004,1004,1004,,,,,
72860844,1005,1005,1005,1005,,,,,
72863343,1006,1006,1006,1006,,,,,
72865842,1006,1006,1006,1006,,,,,
72868341,1007,1007,1007,1007,,,,,
72870840,1008,1008,1008,1008,,,,,
72873339,1009,1009,1009,1009,,,,,
72875838,1009,1009,1009,1009,,,,,
72878337,1010,1010,1010,1010,,,,,
72880836,1011,1011,1011,1011,,,,,
72883335,1012,1012,1012,1012,,,,,
72885834,1012,1012,1012,1012,,,,,
72888333,1013,1013,1013,1013,,,,,
72890832,1014,1014,1014,1014,,,,,
72893331,1015,1015,1015,1015,,,,,
72895830,1015,1015,1015,1015,,,,,
72898329,1016,1016,1016,1016,,,,,
72900828,1017,1017,1017,1017,,,,,
72903327,1018,1018,1018,1018,,,,,
72905826,1018,1018,1018,1018,,,,,
72908325,1019,1019,1019,1019,,,,,
72910824,1020,1020,1020,1020,,,,,
72913323,1021,1021,1021,1021,,,,,
72915822,1021,1021,1021,1021,,,,,
72918321,1022,1022,1022,1022,,,,,
72920820,1023,1023,1023,1023,,,,,
72923319,1024,1024,1024,1024,,,,,
72925818,1024,1024,1024,1024,,,,,
72928317,1025,1025,1025,1025,,,,,
72930816,1026,1026,1026,1026,,,,,
72933315,1027,1027,1027,1027,,,,,
72935814,1027,1027,1027,1027,,,,,
72938313,1028,1028,1028,1028,,,,,
72940812,1029,1029,1029,1029,,,,,
72943311,1030,1030,1030,1030,,,,,
72945810,1030,1030,1030,1030,,,,,
72948309,1031,1031,1031,1031,,,,,
72950808,1032,1032,1032,1032,,,,,
72953307,1033,1033,1033,1033,,,,,
72955806,1033,1033,1033,1033,,,,,
72958305,1034,1034,1034,1034,,,,,
72960804,1035,1035,1035,1035,,,,,
72963303,1036,1036,1036,1036,,,,,
72965802,1036,1036,1036,1036,,,,,
72968301,1037,1037,1037,1037,,,,,
72970800,1038,1038,1038,1038,,,,,
72973299,1039,1039,1039,1039,,,,,
72975798,1039,1039,1039,1039,,,,,
72978297,1040,1040,1040,1040,,,,,
72980796,1041,1041,1041,1041,,,,,
72983295,1042,1042,1042,1042,,,,,
72985794,1042,1042,1042,1042,,,,,
72988293,1043,1043,1043,1043,,,,,
72990792,1044,1044,1044,1044,,,,,
72993291,1045,1045,1045,1045,,,,,
72995790,1045,1045,1045,1045,,,,,
72998289,1046,1046,1046,1046,,,,,
73000788,1047,1047,1047,1047,,,,,
73003287,1048,1048,1048,1048,,,,,
73005786,1048,1048,1048,1048,,,,,
73008285,1049,1049,1049,1049,,,,,
73010784,1050,1050,1050,1050,,,,,
73013283,1051,1051,1051,1051,,,,,
73015782,1051,1051,1051,1051,,,,,
73018281,1052,1052,1052,1052,,,,,
73020780,1053,1053,1053,1053,,,,,
73023279,1054,1054,1054,1054,,,,,
73025778,1054,1054,1054,1054,,,,,
73028277,1055,1055,1055,1055,,,,,
73030776,1056,1056,1056,1056,,,,,
73033275,1057,1057,1057,1057,,,,,
73035774,1057,1057,1057,1057,,,,,
73038273,1058,1058,1058,1058,,,,,
73040772,1059,1059,1059,1059,,,,,
73043271,1060,1060,1060,1060,,,,,
73045770,1060,1060,1060,1060,,,,,
73048269,1061,1061,1061,1061,,,,,
73050768,1062,1062,1062,1062,,,,,
73053267,1063,1063,1063,1063,,,,,
73055766,1063,1063,1063,1063,,,,,
73058265,1064,1064,1064,1064,,,,,
73060764,1065,1065,1065,1065,,,,,
73063263,1066,1066,1066,1066,,,,,
73065762,1066,1066,1066,1066,,,,,
73068261,1067,1067,1067,1067,,,,,
73070760,1068,1068,1068,1068,,,,,
73073259,1069,1069,1069,1069,,,,,
73075758,1069,1069,1069,1069,,,,,
73078257,1070,1070,1070,1070,,,,,
73080756,1071,1071,1071,1071,,,,,
73083255,1072,1072,1072,1072,,,,,
73085754,1072,1072,1072,1072,,,,,
73088253,1073,1073,1073,1073,,,,,
73090752,1074,1074,1074,1074,,,,,
73093251,1075,1075,1075,1075,,,,,
73095750,1075,1075,1075,1075,,,,,
73098249,1076,1076,1076,1076,,,,,
73100748,1077,1077,1077,1077,,,,,
73103247,1078,1078,1078,1078,,,,,
73105746,1078,1078,1078,1078,,,,,
73108245,1079,1079,1079,1079,,,,,
73110744,1080,1080,1080,1080,,,,,
73113243,1081,1081,1081,1081,,,,,
73115742,1081,1081,1081,1081,,,,,
73118241,1082,1082,1082,1082,,,,,
73120740,1083,1083,1083,1083,,,,,
73123239,1084,1084,1084,1084,,,,,
73125738,1084,1084,1084,1084,,,,,
73128237,1085,1085,1085,1085,,,,,
73130736,1086,1086,1086,1086,,,,,
73133235,1087,1087,1087,1087,,,,,
73135734,1087,1087,1087,1087,,,,,
73138233,1088,1088,1088,1088,,,,,
73140732,1089,1089,1089,1089,,,,,
73143231,1090,1090,1090,1090,,,,,
73145730,1090,1090,1090,1090,,,,,
73148229,1091,1091,1091,1091,,,,,
73150728,1092,1092,1092,1092,,,,,
73153227,1093,1093,1093,1093,,,,,
73155726,1093,1093,1093,1093,,,,,
73158225,1094,1094,1094,1094,,,,,
73160724,1095,1095,1095,1095,,,,,
73163223,1096,1096,1096,1096,,,,,
73165722,1096,1096,1096,1096,,,,,
73168221,1097,1097,1097,1097,,,,,
73170720,1098,1098,1098,1098,,,,,
73173219,1099,1099,1099,1099,,,,,
73175718,1099,1099,1099,1099,,,,,
73178217,1100,1100,1100,1100,,,,,
73180716,1101,1101,1101,1101,,,,,
73183215,1101,1101,1101,1101,,,,,
73185714,1102,1102,1102,1102,,,,,
73188213,1103,1103,1103,1103,,,,,
73190712,1104,1104,1104,1104,,,,,
73193211,1104,1104,1104,1104,,,,,
73195710,1105,1105,1105,1105,,,,,
73198209,1106,1106,1106,1106,,,,,
73200708,1107,1107,1107,1107,,,,,
73203207,1107,1107,1107,1107,,,,,
73205706,1108,1108,1108,1108,,,,,
73208205,1109,1109,1109,1109,,,,,
73210704,1110,1110,1110,1110,,,,,
73213203,1110,1110,1110,1110,,,,,
73215702,1111,1111,1111,1111,,,,,
73218201,1112,1112,1112,1112,,,,,
73220700,1113,1113,1113,1113,,,,,
73223199,1113,1113,1113,1113,,,,,
73225698,1114,1114,1114,1114,,,,,
73228197,1115,1115,1115,1115,,,,,
73230696,1116,1116,1116,1116,,,,,
73233195,1116,1116,1116,1116,,,,,
73235694,1117,1117,1117,1117,,,,,
73238193,1118,1118,1118,1118,,,,,
73240692,1119,1119,1119,1119,,,,,
73243191,1119,1119,1119,1119,,,,,
73245690,1120,1120,1120,1120,,,,,
73248189,1121,1121,1121,1121,,,,,
73250688,1122,1122,1122,1122,,,,,
73253187,1122,1122,1122,1122,,,,,
73255686,1123,1123,1123,1123,,,,,
73258185,1124,1124,1124,1124,,,,,
73260684,1125,1125,1125,1125,,,,,
73263183,1125,1125,1125,1125,,,,,
73265682,1126,1126,1126,1126,,,,,
73268181,1127,1127,1127,1127,,,,,
73270680,1128,1128,1128,1128,,,,,
73273179,1128,1128,1128,1128,,,,,
73275678,1129,1129,1129,1129,,,,,
73278177,1130,1130,1130,1130,,,,,
73280676,1131,1131,1131,1131,,,,,
73283175,1131,1131,1131,1131,,,,,
73285674,1132,1132,1132,1132,,,,,
73288173,1133,1133,1133,1133,,,,,
73290672,1134,1134,1134,1134,,,,,
73293171,1134,1134,1134,1134,,,,,
73295670,1135,1135,1135,1135,,,,,
73298169,1136,1136,1136,1136,,,,,
73300668,1137,1137,1137,1137,,,,,
73303167,1137,1137,1137,1137,,,,,
73305666,1138,1138,1138,1138,,,,,
73308165,1139,1139,1139,1139,,,,,
73310664,1140,1140,1140,1140,,,,,
73313163,1140,1140,1140,1140,,,,,
73315662,1141,1141,1141,1141,,,,,
73318161,1142,1142,1142,1142,,,,,
73320660,1143,1143,1143,1143,,,,,
73323159,1143,1143,1143,1143,,,,,
73325658,1144,1144,1144,1144,,,,,
73328157,1145,1145,1145,1145,,,,,
73330656,1146,1146,1146,1146,,,,,
73333155,1146,1146,1146,1146,,,,,
73335654,1147,1147,1147,1147,,,,,
73338986,1148,1148,1148,1148,,,,,
73341485,1149,1149,1149,1149,,,,,
73343984,1149,1149,1149,1149,,,,,
73346483,1150,1150,1150,1150,,,,,
73348982,1163,1151,1152,1164,,,,,
73351481,1171,1159,1160,1172,,,,,
73353980,1179,1167,1168,1180,,,,,
73356479,1187,1175,1176,1187,,,,,
73358978,1194,1183,1184,1195,,,,,
73361477,1202,1191,1191,1202,,,,,
73363976,1209,1198,1199,1210,,,,,
73366475,1216,1205,1206,1217,,,,,
73368974,1223,1213,1213,1224,,,,,
73371473,1230,1220,1221,1231,,,,,
73373972,1237,1227,1228,1238,,,,,
73376471,1244,1234,1234,1244,,,,,
73378970,1250,1240,1241,1251,,,,,
73381469,1257,1247,1248,1258,,,,,
73383968,1264,1254,1255,1264,,,,,
73386467,1270,1260,1261,1270,,,,,
73388966,1276,1267,1268,1277,,,,,
73391465,1283,1273,1274,1283,,,,,
73393964,1289,1279,1280,1289,,,,,
73396463,1295,1286,1286,1295,,,,,
73398962,1301,1292,1292,1301,,,,,
73401461,1307,1298,1299,1307,,,,,
73403960,1313,1304,1305,1313,,,,,
73406459,1319,1310,1311,1319,,,,,
73408958,1325,1316,1316,1325,,,,,
73411457,1330,1321,1322,1331,,,,,
73413956,1336,1327,1328,1336,,,,,
73416455,1342,1333,1334,1342,,,,,
73418954,1347,1339,1339,1348,,,,,
73421453,1353,1344,1345,1353,,,,,
73423952,1358,1350,1350,1359,,,,,
73426451,1364,1355,1356,1364,,,,,
73428950,1369,1361,1361,1370,,,,,
73431449,1375,1366,1367,1375,,,,,
73433948,1380,1371,1372,1380,,,,,
73436447,1385,1377,1377,1385,,,,,
73438946,1390,1382,1383,1391,,,,,
73441445,1396,1387,1388,1396,,,,,
73443944,1401,1392,1393,1401,,,,,
73446443,1406,1397,1398,1406,,,,,
73448942,1411,1402,1403,1411,,,,,
73451441,1416,1408,1408,1416,,,,,
73453940,1421,1413,1413,1421,,,,,
73456439,1426,1418,1418,1426,,,,,
73458938,1431,1423,1423,1431,,,,,
73461437,1435,1427,1428,1436,,,,,
73463936,1440,1432,1433,1441,,,,,
73466435,1445,1437,1438,1445,,,,,
73468934,1450,1442,1443,1450,,,,,
73471433,1455,1447,1447,1455,,,,,
73473932,1459,1451,1452,1460,,,,,
73476431,1464,1456,1457,1464,,,,,
73478930,1469,1461,1461,1469,,,,,
73481429,1473,1465,1466,1473,,,,,
73483928,1478,1470,1471,1478,,,,,
73486427,1482,1475,1475,1483,,,,,
73488926,1487,1479,1480,1487,,,,,
73491425,1491,1484,1484,1492,,,,,
73493924,1496,1488,1489,1496,,,,,
73496423,1500,1493,1493,1501,,,,,
73498922,1505,1497,1498,1505,,,,,
73501421,1509,1502,1502,1509,,,,,
73503920,1513,1506,1507,1514,,,,,
73506419,1518,1510,1511,1518,,,,,
73508918,1522,1515,1515,1522,,,,,
73511417,1526,1519,1520,1527,,,,,
73513916,1531,1523,1524,1531,,,,,
73516415,1535,1528,1528,1535,,,,,
73518914,1539,1532,1532,1539,,,,,
73521413,1543,1536,1537,1544,,,,,
73523912,1547,1540,1541,1548,,,,,
73526411,1552,1544,1545,1552,,,,,
73528910,1556,1549,1549,1556,,,,,
73531409,1560,1553,1553,1560,,,,,
73533908,1564,1557,1557,1564,,,,,
73536407,1568,1561,1561,1568,,,,,
73538906,1572,1565,1565,1572,,,,,
73541405,1576,1569,1570,1577,,,,,
73543904,1580,1573,1574,1581,,,,,
73546403,1584,1577,1578,1585,,,,,
73548902,1588,1581,1582,1589,,,,,
73551401,1592,1585,1585,1592,,,,,
73553900,1596,1589,1589,1596,,,,,
73556399,1600,1593,1593,1600,,,,,
73558898,1604,1597,1597,1604,,,,,
73561397,1608,1601,1601,1608,,,,,
73563896,1612,1604,1605,1612,,,,,
73566395,1616,1608,1609,1616,,,,,
73568894,1619,1612,1613,1620,,,,,
73571393,1623,1616,1617,1623,,,,,
73573892,1627,1620,1620,1627,,,,,
73576391,1631,1624,1624,1631,,,,,
73578890,1635,1627,1628,1635,,,,,
73581389,1638,1631,1632,1639,,,,,
73583888,1642,1635,1636,1642,,,,,
73586387,1646,1639,1639,1646,,,,,
73588886,1649,1642,1643,1650,,,,,
73591385,1653,1646,1647,1653,,,,,
73593884,1657,1650,1650,1657,,,,,
73596383,1660,1653,1654,1661,,,,,
73598882,1664,1657,1658,1664,,,,,
73601381,1668,1661,1661,1668,,,,,
73603880,1671,1664,1665,1672,,,,,
73606379,1675,1668,1669,1675,,,,,
73608878,1678,1672,1672,1679,,,,,
73611377,1682,1675,1676,1682,,,,,
73613876,1686,1679,1679,1686,,,,,
73616375,1689,1682,1683,1689,,,,,
73618874,1693,1686,1686,1693,,,,,
73621373,1696,1689,1690,1696,,,,,
73623872,1700,1693,1694,1700,,,,,
73626371,1703,1696,1697,1703,,,,,
73628870,1707,1700,1701,1707,,,,,
73631369,1710,1703,1704,1710,,,,,
73633868,1714,1707,1708,1714,,,,,
73636367,1717,1710,1711,1717,,,,,
73638866,1720,1714,1714,1721,,,,,
73641365,1724,1717,1718,1724,,,,,
73643864,1727,1721,1721,1727,,,,,
73646363,1731,1724,1725,1731,,,,,
73648862,1734,1728,1728,1734,,,,,
73651361,1737,1731,1732,1738,,,,,
73653860,1741,1734,1735,1741,,,,,
73656359,1744,1738,1738,1744,,,,,
73658858,1747,1741,1742,1748,,,,,
73661357,1751,1744,1745,1751,,,,,
73663856,1754,1748,1748,1754,,,,,
73666355,1757,1751,1752,1757,,,,,
73668854,1761,1754,1755,1761,,,,,
73671353,1764,1758,1758,1764,,,,,
73673852,1767,1761,1762,1767,,,,,
73676351,1771,1764,1765,1771,,,,,
73678850,1774,1767,1768,1774,,,,,
73681349,1777,1771,1771,1777,,,,,
73683848,1780,1774,1775,1780,,,,,
73686347,1783,1777,1778,1784,,,,,
73688846,1787,1780,1781,1787,,,,,
73691345,1790,1783,1784,1790,,,,,
73693844,1793,1787,1787,1793,,,,,
73696343,1796,1790,1791,1796,,,,,
73698842,1799,1793,1794,1800,,,,,
73701341,1803,1796,1797,1803,,,,,
73703840,1806,1799,1800,1806,,,,,
73706339,1809,1802,1803,1809,,,,,
73708838,1812,1806,1806,1812,,,,,
73711337,1815,1809,1809,1815,,,,,
73713836,1818,1812,1812,1819,,,,,
73716335,1821,1815,1816,1822,,,,,
73718834,1825,1818,1819,1825,,,,,
73721333,1828,1821,1822,1828,,,,,
73723832,1831,1824,1825,1831,,,,,
73726331,1834,1827,1828,1834,,,,,
73728830,1837,1830,1831,1837,,,,,
73731329,1840,1833,1834,1840,,,,,
73733828,1843,1837,1837,1843,,,,,
73736327,1846,1840,1840,1846,,,,,
73738826,1849,1843,1843,1849,,,,,
73741325,1852,1846,1846,1852,,,,,
73743824,1855,1849,1849,1855,,,,,
73746323,1858,1852,1852,1858,,,,,
73748822,1861,1855,1855,1861,,,,,
73751321,1864,1858,1858,1864,,,,,
73753820,1867,1861,1861,1867,,,,,
73756319,1870,1864,1864,1870,,,,,
73758818,1873,1867,1867,1873,,,,,
73761317,1876,1870,1870,1876,,,,,
73763816,1879,1873,1873,1879,,,,,
73766315,1882,1876,1876,1882,,,,,
73768814,1885,1878,1879,1885,,,,,
73771313,1888,1881,1882,1888,,,,,
73773812,1890,1884,1884,1891,,,,,
73776311,1893,1887,1887,1894,,,,,
73778810,1896,1890,1890,1897,,,,,
73781309,1899,1893,1893,1900,,,,,
73783808,1902,1896,1896,1903,,,,,
73786307,1905,1899,1899,1906,,,,,
73788806,1908,1902,1902,1909,,,,,
73791305,1910,1904,1904,1910,,,,,
73793804,1909,1903,1903,1909,,,,,
73796303,1908,1902,1902,1909,,,,,
73798802,1907,1901,1901,1908,,,,,
73801301,1906,1900,1900,1907,,,,,
73803800,1905,1899,1899,1906,,,,,
73806299,1904,1899,1898,1905,,,,,
73808798,1904,1898,1898,1905,,,,,
73811297,1903,1897,1897,1904,,,,,
73813796,1903,1897,1896,1903,,,,,
73816295,1902,1896,1896,1903,,,,,
73818794,1902,1896,1896,1902,,,,,
73821293,1901,1895,1895,1902,,,,,
73823792,1901,1895,1895,1902,,,,,
73826291,1901,1895,1895,1902,,,,,
73828790,1901,1895,1895,1902,,,,,
73831289,1901,1895,1895,1902,,,,,
73833788,1901,1895,1895,1902,,,,,
73836287,1901,1895,1895,1902,,,,,
73838786,1901,1895,1895,1902,,,,,
73841285,1901,1895,1895,1902,,,,,
73843784,1901,1896,1896,1902,,,,,
73846283,1901,1896,1896,1902,,,,,
73848782,1901,1896,1896,1902,,,,,
73851281,1901,1896,1896,1902,,,,,
73853780,1901,1896,1896,1902,,,,,
73856279,1901,1896,1896,1901,,,,,
73858778,1900,1896,1896,1901,,,,,
73861277,1900,1895,1895,1900,,,,,
73863776,1899,1895,1895,1899,,,,,
73866275,1898,1894,1894,1899,,,,,
73868774,1897,1893,1893,1898,,,,,
73871273,1896,1892,1892,1897,,,,,
73873772,1895,1891,1891,1895,,,,,
73876271,1894,1889,1890,1894,,,,,
73878770,1892,1888,1888,1892,,,,,
73881269,1890,1886,1887,1891,,,,,
73883768,1889,1884,1885,1889,,,,,
73886267,1887,1882,1883,1887,,,,,
73888766,1885,1880,1881,1885,,,,,
73891265,1882,1878,1879,1882,,,,,
73893764,1880,1876,1877,1880,,,,,
73896263,1878,1874,1874,1878,,,,,
73898762,1875,1871,1872,1875,,,,,
73901261,1873,1869,1869,1873,,,,,
73903760,1870,1866,1867,1870,,,,,
73906259,1867,1863,1864,1867,,,,,
73908758,1864,1861,1861,1864,,,,,
73911257,1861,1858,1858,1861,,,,,
73913756,1858,1855,1856,1858,,,,,
73916255,1855,1852,1853,1855,,,,,
73918754,1852,1849,1850,1852,,,,,
73921253,1849,1846,1847,1849,,,,,
73923752,1846,1843,1844,1846,,,,,
73926251,1843,1840,1840,1843,,,,,
73928750,1840,1836,1837,1840,,,,,
73931249,1836,1833,1834,1836,,,,,
73933748,1833,1830,1831,1833,,,,,
73936247,1830,1827,1827,1830,,,,,
73938746,1826,1823,1824,1826,,,,,
73941245,1823,1820,1821,1823,,,,,
73943744,1820,1817,1818,1820,,,,,
73946243,1816,1814,1814,1816,,,,,
73948742,1813,1810,1811,1813,,,,,
73951241,1810,1807,1808,1810,,,,,
73953740,1806,1804,1805,1806,,,,,
73956239,1803,1801,1801,1803,,,,,
73958738,1800,1797,1798,1800,,,,,
73961237,1796,1794,1795,1796,,,,,
73963736,1793,1791,1792,1793,,,,,
73966235,1790,1788,1789,1790,,,,,
73968734,1787,1785,1785,1786,,,,,
73971233,1783,1781,1782,1783,,,,,
73973732,1780,1778,1779,1780,,,,,
73976231,1777,1775,1776,1777,,,,,
73978730,1773,1772,1773,1773,,,,,
73981229,1770,1769,1769,1770,,,,,
73983728,1767,1765,1766,1767,,,,,
73986227,1764,1762,1763,1764,,,,,
73988726,1760,1759,1760,1760,,,,,
73991225,1757,1756,1757,1757,,,,,
73993724,1754,1753,1754,1754,,,,,
73996223,1751,1750,1751,1751,,,,,
73998722,1748,1747,1748,1748,,,,,
74001221,1745,1744,1745,1745,,,,,
74003720,1742,1741,1742,1742,,,,,
74006219,1739,1738,1739,1738,,,,,
74008718,1736,1735,1736,1736,,,,,
74011217,1733,1732,1733,1733,,,,,
74013716,1730,1730,1730,1730,,,,,
74016215,1727,1727,1727,1727,,,,,
74018714,1724,1724,1725,1724,,,,,
74021213,1721,1721,1722,1721,,,,,
74023712,1719,1719,1720,1719,,,,,
74026211,1716,1716,1717,1716,,,,,
74028710,1713,1714,1714,1713,,,,,
74031209,1711,1711,1712,1711,,,,,
74033708,1708,1709,1710,1708,,,,,
