timestamp,TimeUS,C1,C2,C3,C4,C5,C6,C7,C8,C9,C10,C11,C12,C13,C14
1682932415.00000000,34028883,1000,1000,1000,1000,0,0,0,0,0,0,0,0,0,0
1682932415.09996009,34128843,1000,1000,1000,1000,0,0,0,0,0,0,0,0,0,0
1682932415.19991994,34228803,1000,1000,1000,1000,0,0,0,0,0,0,0,0,0,0
1682932415.29988003,34328763,1000,1000,1000,1000,0,0,0,0,0,0,0,0,0,0
1682932415.39984012,34428723,1000,1000,1000,1000,0,0,0,0,0,0,0,0,0,0
1682932415.49979997,34528683,1000,1000,1000,1000,0,0,0,0,0,0,0,0,0,0
1682932415.59976006,34628643,1000,1000,1000,1000,0,0,0,0,0,0,0,0,0,0
1682932415.69971991,34728603,1000,1000,1000,1000,0,0,0,0,0,0,0,0,0,0
1682932415.79967999,34828563,1000,1000,1000,1000,0,0,0,0,0,0,0,0,0,0
1682932415.89964008,34928523,1000,1000,1000,1000,0,0,0,0,0,0,0,0,0,0
1682932415.99959993,35028483,1000,1000,1000,1000,0,0,0,0,0,0,0,0,0,0
1682932416.09956002,35128443,1000,1000,1000,1000,0,0,0,0,0,0,0,0,0,0
1682932416.19952011,35228403,1000,1000,1000,1000,0,0,0,0,0,0,0,0,0,0
1682932416.29947996,35328363,1000,1000,1000,1000,0,0,0,0,0,0,0,0,0,0
1682932416.39944005,35428323,1000,1000,1000,1000,0,0,0,0,0,0,0,0,0,0
1682932416.49940014,35528283,1000,1000,1000,1000,0,0,0,0,0,0,0,0,0,0
1682932416.59935999,35628243,1000,1000,1000,1000,0,0,0,0,0,0,0,0,0,0
1682932416.69932008,35728203,1000,1000,1000,1000,0,0,0,0,0,0,0,0,0,0
1682932416.79927993,35828163,1000,1000,1000,1000,0,0,0,0,0,0,0,0,0,0
1682932416.90007305,35928956,1000,1000,1000,1000,0,0,0,0,0,0,0,0,0,0
1682932417.00003290,36028916,1000,1000,1000,1000,0,0,0,0,0,0,0,0,0,0
1682932417.09999299,36128876,1000,1000,1000,1000,0,0,0,0,0,0,0,0,0,0
1682932417.19995308,36228836,1000,1000,1000,1000,0,0,0,0,0,0,0,0,0,0
1682932417.29991293,36328796,1000,1000,1000,1000,0,0,0,0,0,0,0,0,0,0
1682932417.39987302,36428756,1000,1000,1000,1000,0,0,0,0,0,0,0,0,0,0
1682932417.49983311,36528716,1000,1000,1000,1000,0,0,0,0,0,0,0,0,0,0
1682932417.59979296,36628676,1000,1000,1000,1000,0,0,0,0,0,0,0,0,0,0
1682932417.69975305,36728636,1000,1000,1000,1000,0,0,0,0,0,0,0,0,0,0
1682932417.79971313,36828596,1000,1000,1000,1000,0,0,0,0,0,0,0,0,0,0
1682932417.89967299,36928556,1000,1000,1000,1000,0,0,0,0,0,0,0,0,0,0
1682932417.99963307,37028516,1000,1000,1000,1000,0,0,0,0,0,0,0,0,0,0
1682932418.09959292,37128476,1000,1000,1000,1000,0,0,0,0,0,0,0,0,0,0
1682932418.19955301,37228436,1000,1000,1000,1000,0,0,0,0,0,0,0,0,0,0
1682932418.29951310,37328396,1000,1000,1000,1000,0,0,0,0,0,0,0,0,0,0
1682932418.39947295,37428356,1000,1000,1000,1000,0,0,0,0,0,0,0,0,0,0
1682932418.49943304,37528316,1000,1000,1000,1000,0,0,0,0,0,0,0,0,0,0
1682932418.59939313,37628276,1000,1000,1000,1000,0,0,0,0,0,0,0,0,0,0
1682932418.69935298,37728236,1000,1000,1000,1000,0,0,0,0,0,0,0,0,0,0
1682932418.79931307,37828196,1000,1000,1000,1000,0,0,0,0,0,0,0,0,0,0
1682932418.89927292,37928156,1000,1000,1000,1000,0,0,0,0,0,0,0,0,0,0
1682932419.00006604,38028949,1000,1000,1000,1000,0,0,0,0,0,0,0,0,0,0
1682932419.10002613,38128909,1000,1000,1000,1000,0,0,0,0,0,0,0,0,0,0
1682932419.19998598,38228869,1000,1000,1000,1000,0,0,0,0,0,0,0,0,0,0
1682932419.29994607,38328829,1000,1000,1000,1000,0,0,0,0,0,0,0,0,0,0
1682932419.39990592,38428789,1000,1000,1000,1000,0,0,0,0,0,0,0,0,0,0
1682932419.49986601,38528749,1000,1000,1000,1000,0,0,0,0,0,0,0,0,0,0
1682932419.59982610,38628709,1000,1000,1000,1000,0,0,0,0,0,0,0,0,0,0
1682932419.69978595,38728669,1000,1000,1000,1000,0,0,0,0,0,0,0,0,0,0
1682932419.79974604,38828629,1000,1000,1000,1000,0,0,0,0,0,0,0,0,0,0
1682932419.89970613,38928589,1000,1000,1000,1000,0,0,0,0,0,0,0,0,0,0
1682932419.99966598,39028549,1000,1000,1000,1000,0,0,0,0,0,0,0,0,0,0
1682932420.09962606,39128509,1000,1000,1000,1000,0,0,0,0,0,0,0,0,0,0
1682932420.19958591,39228469,1000,1000,1000,1000,0,0,0,0,0,0,0,0,0,0
1682932420.29954600,39328429,1000,1000,1000,1000,0,0,0,0,0,0,0,0,0,0
1682932420.39950609,39428389,1000,1000,1000,1000,0,0,0,0,0,0,0,0,0,0
1682932420.49946594,39528349,1000,1000,1000,1000,0,0,0,0,0,0,0,0,0,0
1682932420.59942603,39628309,1000,1000,1000,1000,0,0,0,0,0,0,0,0,0,0
1682932420.69938612,39728269,1000,1000,1000,1000,0,0,0,0,0,0,0,0,0,0
1682932420.79934597,39828229,1000,1000,1000,1000,0,0,0,0,0,0,0,0,0,0
1682932420.89930606,39928189,1000,1000,1000,1000,0,0,0,0,0,0,0,0,0,0
1682932421.00009894,40028982,1000,1000,1000,1000,0,0,0,0,0,0,0,0,0,0
1682932421.10005903,40128942,1000,1000,1000,1000,0,0,0,0,0,0,0,0,0,0
1682932421.20001912,40228902,1000,1000,1000,1000,0,0,0,0,0,0,0,0,0,0
1682932421.29997897,40328862,1000,1000,1000,1000,0,0,0,0,0,0,0,0,0,0
1682932421.39993906,40428822,1000,1000,1000,1000,0,0,0,0,0,0,0,0,0,0
1682932421.49989891,40528782,1000,1000,1000,1000,0,0,0,0,0,0,0,0,0,0
1682932421.59985900,40628742,1000,1000,1000,1000,0,0,0,0,0,0,0,0,0,0
1682932421.69981909,40728702,1000,1000,1000,1000,0,0,0,0,0,0,0,0,0,0
1682932421.79977894,40828662,1000,1000,1000,1000,0,0,0,0,0,0,0,0,0,0
1682932421.89973903,40928622,1000,1000,1000,1000,0,0,0,0,0,0,0,0,0,0
1682932421.99969912,41028582,1000,1000,1000,1000,0,0,0,0,0,0,0,0,0,0
1682932422.09965897,41128542,1000,1000,1000,1000,0,0,0,0,0,0,0,0,0,0
1682932422.19961905,41228502,1000,1000,1000,1000,0,0,0,0,0,0,0,0,0,0
1682932422.29957891,41328462,1000,1000,1000,1000,0,0,0,0,0,0,0,0,0,0
1682932422.39953899,41428422,1000,1000,1000,1000,0,0,0,0,0,0,0,0,0,0
1682932422.49949908,41528382,1000,1000,1000,1000,0,0,0,0,0,0,0,0,0,0
1682932422.59945893,41628342,1000,1000,1000,1000,0,0,0,0,0,0,0,0,0,0
1682932422.69941902,41728302,1000,1000,1000,1000,0,0,0,0,0,0,0,0,0,0
1682932422.79937911,41828262,1000,1000,1000,1000,0,0,0,0,0,0,0,0,0,0
1682932422.89933896,41928222,1000,1000,1000,1000,0,0,0,0,0,0,0,0,0,0
1682932422.99929905,42028182,1000,1000,1000,1000,0,0,0,0,0,0,0,0,0,0
1682932423.10009193,42128975,1000,1000,1000,1000,0,0,0,0,0,0,0,0,0,0
1682932423.20005202,42228935,1000,1000,1000,1000,0,0,0,0,0,0,0,0,0,0
1682932423.30001211,42328895,1000,1000,1000,1000,0,0,0,0,0,0,0,0,0,0
1682932423.39997196,42428855,1000,1000,1000,1000,0,0,0,0,0,0,0,0,0,0
1682932423.49993205,42528815,1000,1000,1000,1000,0,0,0,0,0,0,0,0,0,0
1682932423.59989190,42628775,1000,1000,1000,1000,0,0,0,0,0,0,0,0,0,0
1682932423.69985199,42728735,1000,1000,1000,1000,0,0,0,0,0,0,0,0,0,0
1682932423.79981208,42828695,1000,1000,1000,1000,0,0,0,0,0,0,0,0,0,0
1682932423.89977193,42928655,1000,1000,1000,1000,0,0,0,0,0,0,0,0,0,0
1682932423.99973202,43028615,1000,1000,1000,1000,0,0,0,0,0,0,0,0,0,0
1682932424.09969211,43128575,1000,1000,1000,1000,0,0,0,0,0,0,0,0,0,0
1682932424.19965196,43228535,1000,1000,1000,1000,0,0,0,0,0,0,0,0,0,0
1682932424.29961205,43328495,1000,1000,1000,1000,0,0,0,0,0,0,0,0,0,0
1682932424.39957213,43428455,1000,1000,1000,1000,0,0,0,0,0,0,0,0,0,0
1682932424.49953198,43528415,1000,1000,1000,1000,0,0,0,0,0,0,0,0,0,0
1682932424.59949207,43628375,1000,1000,1000,1000,0,0,0,0,0,0,0,0,0,0
1682932424.69945192,43728335,1000,1000,1000,1000,0,0,0,0,0,0,0,0,0,0
1682932424.79941201,43828295,1000,1000,1000,1000,0,0,0,0,0,0,0,0,0,0
1682932424.89937210,43928255,1000,1000,1000,1000,0,0,0,0,0,0,0,0,0,0
1682932424.99933195,44028215,1000,1000,1000,1000,0,0,0,0,0,0,0,0,0,0
1682932425.09929204,44128175,1000,1000,1000,1000,0,0,0,0,0,0,0,0,0,0
1682932425.20008492,44228968,1000,1000,1000,1000,0,0,0,0,0,0,0,0,0,0
1682932425.30004501,44328928,1000,1000,1000,1000,0,0,0,0,0,0,0,0,0,0
1682932425.40000510,44428888,1000,1000,1000,1000,0,0,0,0,0,0,0,0,0,0
1682932425.49996495,44528848,1000,1000,1000,1000,0,0,0,0,0,0,0,0,0,0
1682932425.59992504,44628808,1000,1000,1000,1000,0,0,0,0,0,0,0,0,0,0
1682932425.69988513,44728768,1000,1000,1000,1000,0,0,0,0,0,0,0,0,0,0
1682932425.79984498,44828728,1000,1000,1000,1000,0,0,0,0,0,0,0,0,0,0
1682932425.89980507,44928688,1000,1000,1000,1000,0,0,0,0,0,0,0,0,0,0
1682932425.99976492,45028648,1000,1000,1000,1000,0,0,0,0,0,0,0,0,0,0
1682932426.09972501,45128608,1000,1000,1000,1000,0,0,0,0,0,0,0,0,0,0
1682932426.19968510,45228568,1000,1000,1000,1000,0,0,0,0,0,0,0,0,0,0
1682932426.29964495,45328528,1000,1000,1000,1000,0,0,0,0,0,0,0,0,0,0
1682932426.39960504,45428488,1000,1000,1000,1000,0,0,0,0,0,0,0,0,0,0
1682932426.49956512,45528448,1000,1000,1000,1000,0,0,0,0,0,0,0,0,0,0
1682932426.59952497,45628408,1000,1000,1000,1000,0,0,0,0,0,0,0,0,0,0
1682932426.69948506,45728368,1000,1000,1000,1000,0,0,0,0,0,0,0,0,0,0
1682932426.79944491,45828328,1000,1000,1000,1000,0,0,0,0,0,0,0,0,0,0
1682932426.89940500,45928288,1000,1000,1000,1000,0,0,0,0,0,0,0,0,0,0
1682932426.99936509,46028248,1000,1000,1000,1000,0,0,0,0,0,0,0,0,0,0
1682932427.09932494,46128208,1000,1000,1000,1000,0,0,0,0,0,0,0,0,0,0
1682932427.19928503,46228168,1000,1000,1000,1000,0,0,0,0,0,0,0,0,0,0
1682932427.30007792,46328961,1000,1000,1000,1000,0,0,0,0,0,0,0,0,0,0
1682932427.40003800,46428921,1000,1000,1000,1000,0,0,0,0,0,0,0,0,0,0
1682932427.49999809,46528881,1000,1000,1000,1000,0,0,0,0,0,0,0,0,0,0
1682932427.59995794,46628841,1000,1000,1000,1000,0,0,0,0,0,0,0,0,0,0
1682932427.69991803,46728801,1000,1000,1000,1000,0,0,0,0,0,0,0,0,0,0
1682932427.79987812,46828761,1023,1023,1023,1023,0,0,0,0,0,0,0,0,0,0
1682932427.89983797,46928721,1053,1053,1053,1053,0,0,0,0,0,0,0,0,0,0
1682932427.99979806,47028681,1083,1083,1083,1083,0,0,0,0,0,0,0,0,0,0
1682932428.09975791,47128641,1113,1113,1113,1113,0,0,0,0,0,0,0,0,0,0
1682932428.19971800,47228601,1143,1143,1143,1143,0,0,0,0,0,0,0,0,0,0
1682932428.29967809,47328561,1351,1346,1346,1351,0,0,0,0,0,0,0,0,0,0
1682932428.39963794,47428521,1542,1538,1538,1542,0,0,0,0,0,0,0,0,0,0
1682932428.49959803,47528481,1695,1691,1691,1695,0,0,0,0,0,0,0,0,0,0
1682932428.59955812,47628441,1826,1823,1823,1826,0,0,0,0,0,0,0,0,0,0
1682932428.69951797,47728401,1880,1876,1876,1880,0,0,0,0,0,0,0,0,0,0
1682932428.79947805,47828361,1841,1839,1839,1841,0,0,0,0,0,0,0,0,0,0
1682932428.89943790,47928321,1715,1715,1715,1715,0,0,0,0,0,0,0,0,0,0
1682932428.99939799,48028281,1642,1644,1644,1643,0,0,0,0,0,0,0,0,0,0
1682932429.09935808,48128241,1630,1632,1632,1631,0,0,0,0,0,0,0,0,0,0
1682932429.19931793,48228201,1641,1643,1642,1641,0,0,0,0,0,0,0,0,0,0
1682932429.29927802,48328161,1647,1647,1647,1647,0,0,0,0,0,0,0,0,0,0
1682932429.40007091,48428954,1643,1643,1643,1643,0,0,0,0,0,0,0,0,0,0
1682932429.50003099,48528914,1634,1633,1632,1635,0,0,0,0,0,0,0,0,0,0
1682932429.59999108,48628874,1609,1607,1599,1616,0,0,0,0,0,0,0,0,0,0
1682932429.69995093,48728834,1599,1598,1590,1607,0,0,0,0,0,0,0,0,0,0
1682932429.79991102,48828794,1595,1595,1591,1599,0,0,0,0,0,0,0,0,0,0
1682932429.89987111,48928754,1596,1596,1596,1595,0,0,0,0,0,0,0,0,0,0
1682932429.99983096,49028714,1598,1599,1602,1595,0,0,0,0,0,0,0,0,0,0
1682932430.09979105,49128674,1586,1586,1598,1574,0,0,0,0,0,0,0,0,0,0
1682932430.19975114,49228634,1571,1572,1591,1552,0,0,0,0,0,0,0,0,0,0
1682932430.29971099,49328594,1562,1562,1573,1551,0,0,0,0,0,0,0,0,0,0
1682932430.39967108,49428554,1551,1551,1550,1554,0,0,0,0,0,0,0,0,0,0
1682932430.49963093,49528514,1544,1543,1533,1555,0,0,0,0,0,0,0,0,0,0
1682932430.59959102,49628474,1537,1536,1524,1549,0,0,0,0,0,0,0,0,0,0
1682932430.69955111,49728434,1531,1530,1521,1541,0,0,0,0,0,0,0,0,0,0
1682932430.79951096,49828394,1527,1527,1522,1532,0,0,0,0,0,0,0,0,0,0
1682932430.89947104,49928354,1527,1527,1526,1528,0,0,0,0,0,0,0,0,0,0
1682932430.99943113,50028314,1529,1529,1531,1527,0,0,0,0,0,0,0,0,0,0
1682932431.09939098,50128274,1532,1532,1535,1529,0,0,0,0,0,0,0,0,0,0
1682932431.19935107,50228234,1535,1535,1539,1532,0,0,0,0,0,0,0,0,0,0
1682932431.29931092,50328194,1540,1540,1543,1536,0,0,0,0,0,0,0,0,0,0
1682932431.39927101,50428154,1543,1543,1546,1541,0,0,0,0,0,0,0,0,0,0
1682932431.50006413,50528947,1546,1547,1547,1546,0,0,0,0,0,0,0,0,0,0
1682932431.60002398,50628907,1550,1550,1549,1551,0,0,0,0,0,0,0,0,0,0
1682932431.69998407,50728867,1552,1552,1551,1554,0,0,0,0,0,0,0,0,0,0
1682932431.79994392,50828827,1552,1551,1554,1558,0,0,0,0,0,0,0,0,0,0
1682932431.89990401,50928787,1551,1550,1561,1564,0,0,0,0,0,0,0,0,0,0
1682932431.99986410,51028747,1553,1554,1563,1564,0,0,0,0,0,0,0,0,0,0
1682932432.09982395,51128707,1557,1557,1563,1563,0,0,0,0,0,0,0,0,0,0
1682932432.19978404,51228667,1562,1562,1565,1564,0,0,0,0,0,0,0,0,0,0
1682932432.29974413,51328627,1564,1564,1564,1563,0,0,0,0,0,0,0,0,0,0
1682932432.39970398,51428587,1567,1568,1564,1563,0,0,0,0,0,0,0,0,0,0
1682932432.49966407,51528547,1570,1570,1564,1564,0,0,0,0,0,0,0,0,0,0
1682932432.59962392,51628507,1572,1571,1565,1565,0,0,0,0,0,0,0,0,0,0
1682932432.69958401,51728467,1573,1572,1566,1566,0,0,0,0,0,0,0,0,0,0
1682932432.79954410,51828427,1574,1573,1567,1568,0,0,0,0,0,0,0,0,0,0
1682932432.89950395,51928387,1573,1573,1568,1569,0,0,0,0,0,0,0,0,0,0
1682932432.99946404,52028347,1574,1574,1570,1571,0,0,0,0,0,0,0,0,0,0
1682932433.09942412,52128307,1573,1574,1572,1572,0,0,0,0,0,0,0,0,0,0
1682932433.19938397,52228267,1574,1574,1574,1573,0,0,0,0,0,0,0,0,0,0
1682932433.29934406,52328227,1575,1575,1576,1575,0,0,0,0,0,0,0,0,0,0
1682932433.39930391,52428187,1574,1575,1577,1575,0,0,0,0,0,0,0,0,0,0
1682932433.50009704,52528980,1574,1574,1577,1576,0,0,0,0,0,0,0,0,0,0
1682932433.60005713,52628940,1575,1575,1578,1577,0,0,0,0,0,0,0,0,0,0
1682932433.70001698,52728900,1575,1574,1576,1577,0,0,0,0,0,0,0,0,0,0
1682932433.79997706,52828860,1576,1576,1577,1578,0,0,0,0,0,0,0,0,0,0
1682932433.89993691,52928820,1576,1576,1577,1577,0,0,0,0,0,0,0,0,0,0
1682932433.99989700,53028780,1576,1577,1577,1577,0,0,0,0,0,0,0,0,0,0
1682932434.09985709,53128740,1577,1577,1577,1577,0,0,0,0,0,0,0,0,0,0
1682932434.19981694,53228700,1576,1576,1576,1576,0,0,0,0,0,0,0,0,0,0
1682932434.29977703,53328660,1577,1577,1577,1576,0,0,0,0,0,0,0,0,0,0
1682932434.39973712,53428620,1577,1577,1576,1576,0,0,0,0,0,0,0,0,0,0
1682932434.49969697,53528580,1578,1578,1577,1577,0,0,0,0,0,0,0,0,0,0
1682932434.59965706,53628540,1578,1578,1577,1577,0,0,0,0,0,0,0,0,0,0
1682932434.69961691,53728500,1579,1578,1578,1578,0,0,0,0,0,0,0,0,0,0
1682932434.79957700,53828460,1579,1579,1578,1578,0,0,0,0,0,0,0,0,0,0
1682932434.89953709,53928420,1578,1578,1578,1578,0,0,0,0,0,0,0,0,0,0
1682932434.99949694,54028380,1577,1577,1577,1578,0,0,0,0,0,0,0,0,0,0
1682932435.09945703,54128340,1579,1578,1579,1579,0,0,0,0,0,0,0,0,0,0
1682932435.19941711,54228300,1578,1579,1579,1579,0,0,0,0,0,0,0,0,0,0
1682932435.29937696,54328260,1578,1578,1578,1578,0,0,0,0,0,0,0,0,0,0
1682932435.39933705,54428220,1578,1578,1579,1579,0,0,0,0,0,0,0,0,0,0
1682932435.49929690,54528180,1579,1578,1579,1579,0,0,0,0,0,0,0,0,0,0
1682932435.60009003,54628973,1578,1578,1578,1578,0,0,0,0,0,0,0,0,0,0
1682932435.70005012,54728933,1579,1578,1578,1579,0,0,0,0,0,0,0,0,0,0
1682932435.80000997,54828893,1580,1580,1580,1579,0,0,0,0,0,0,0,0,0,0
1682932435.89997005,54928853,1580,1581,1581,1580,0,0,0,0,0,0,0,0,0,0
1682932435.99992990,55028813,1581,1581,1581,1581,0,0,0,0,0,0,0,0,0,0
1682932436.09988999,55128773,1581,1580,1580,1580,0,0,0,0,0,0,0,0,0,0
1682932436.19985008,55228733,1580,1580,1580,1580,0,0,0,0,0,0,0,0,0,0
1682932436.29980993,55328693,1580,1579,1579,1580,0,0,0,0,0,0,0,0,0,0
1682932436.39977002,55428653,1580,1580,1580,1580,0,0,0,0,0,0,0,0,0,0
1682932436.49973011,55528613,1579,1579,1579,1579,0,0,0,0,0,0,0,0,0,0
1682932436.59968996,55628573,1580,1580,1580,1580,0,0,0,0,0,0,0,0,0,0
1682932436.69965005,55728533,1579,1579,1579,1579,0,0,0,0,0,0,0,0,0,0
1682932436.79961014,55828493,1579,1579,1579,1579,0,0,0,0,0,0,0,0,0,0
1682932436.89956999,55928453,1579,1579,1579,1579,0,0,0,0,0,0,0,0,0,0
1682932436.99953008,56028413,1581,1581,1581,1581,0,0,0,0,0,0,0,0,0,0
1682932437.09948993,56128373,1580,1580,1580,1580,0,0,0,0,0,0,0,0,0,0
1682932437.19945002,56228333,1580,1580,1580,1580,0,0,0,0,0,0,0,0,0,0
1682932437.29941010,56328293,1580,1580,1580,1580,0,0,0,0,0,0,0,0,0,0
1682932437.39936996,56428253,1581,1581,1581,1581,0,0,0,0,0,0,0,0,0,0
1682932437.49933004,56528213,1581,1581,1581,1581,0,0,0,0,0,0,0,0,0,0
1682932437.59929013,56628173,1581,1581,1581,1581,0,0,0,0,0,0,0,0,0,0
1682932437.70008302,56728966,1581,1582,1581,1581,0,0,0,0,0,0,0,0,0,0
1682932437.80004311,56828926,1582,1582,1582,1581,0,0,0,0,0,0,0,0,0,0
1682932437.90000296,56928886,1582,1581,1582,1581,0,0,0,0,0,0,0,0,0,0
1682932437.99996305,57028846,1581,1581,1582,1581,0,0,0,0,0,0,0,0,0,0
1682932438.09992313,57128806,1580,1582,1588,1573,0,0,0,0,0,0,0,0,0,0
1682932438.19988298,57228766,1580,1583,1585,1574,0,0,0,0,0,0,0,0,0,0
1682932438.29984307,57328726,1578,1581,1576,1574,0,0,0,0,0,0,0,0,0,0
1682932438.39980292,57428686,1577,1580,1567,1572,0,0,0,0,0,0,0,0,0,0
1682932438.49976301,57528646,1576,1578,1560,1568,0,0,0,0,0,0,0,0,0,0
1682932438.59972310,57628606,1576,1577,1556,1562,0,0,0,0,0,0,0,0,0,0
1682932438.69968295,57728566,1579,1578,1556,1559,0,0,0,0,0,0,0,0,0,0
1682932438.79964304,57828526,1580,1577,1556,1556,0,0,0,0,0,0,0,0,0,0
1682932438.89960313,57928486,1578,1577,1556,1554,0,0,0,0,0,0,0,0,0,0
1682932438.99956298,58028446,1578,1578,1557,1554,0,0,0,0,0,0,0,0,0,0
1682932439.09952307,58128406,1576,1577,1556,1554,0,0,0,0,0,0,0,0,0,0
1682932439.19948292,58228366,1575,1576,1555,1554,0,0,0,0,0,0,0,0,0,0
1682932439.29944301,58328326,1574,1576,1554,1554,0,0,0,0,0,0,0,0,0,0
1682932439.39940310,58428286,1574,1576,1553,1553,0,0,0,0,0,0,0,0,0,0
1682932439.49936295,58528246,1576,1577,1552,1553,0,0,0,0,0,0,0,0,0,0
1682932439.59932303,58628206,1577,1578,1550,1551,0,0,0,0,0,0,0,0,0,0
1682932439.69928312,58728166,1577,1578,1547,1547,0,0,0,0,0,0,0,0,0,0
1682932439.80007601,58828959,1579,1580,1545,1544,0,0,0,0,0,0,0,0,0,0
1682932439.90003610,58928919,1583,1584,1543,1542,0,0,0,0,0,0,0,0,0,0
1682932439.99999595,59028879,1586,1587,1540,1540,0,0,0,0,0,0,0,0,0,0
1682932440.09995604,59128839,1589,1589,1537,1537,0,0,0,0,0,0,0,0,0,0
1682932440.19991612,59228799,1591,1591,1534,1535,0,0,0,0,0,0,0,0,0,0
1682932440.29987597,59328759,1594,1594,1534,1535,0,0,0,0,0,0,0,0,0,0
1682932440.39983606,59428719,1595,1595,1534,1535,0,0,0,0,0,0,0,0,0,0
1682932440.49979591,59528679,1594,1594,1535,1537,0,0,0,0,0,0,0,0,0,0
1682932440.59975600,59628639,1594,1593,1540,1542,0,0,0,0,0,0,0,0,0,0
1682932440.69971609,59728599,1590,1588,1544,1547,0,0,0,0,0,0,0,0,0,0
1682932440.79967594,59828559,1584,1582,1552,1555,0,0,0,0,0,0,0,0,0,0
1682932440.89963603,59928519,1577,1573,1561,1564,0,0,0,0,0,0,0,0,0,0
1682932440.99959612,60028479,1567,1563,1572,1575,0,0,0,0,0,0,0,0,0,0
1682932441.09955597,60128439,1555,1551,1584,1586,0,0,0,0,0,0,0,0,0,0
1682932441.19951606,60228399,1544,1541,1596,1596,0,0,0,0,0,0,0,0,0,0
1682932441.29947591,60328359,1535,1534,1605,1605,0,0,0,0,0,0,0,0,0,0
1682932441.39943600,60428319,1530,1531,1612,1611,0,0,0,0,0,0,0,0,0,0
1682932441.49939609,60528279,1528,1530,1615,1613,0,0,0,0,0,0,0,0,0,0
1682932441.59935594,60628239,1530,1532,1613,1613,0,0,0,0,0,0,0,0,0,0
1682932441.69931602,60728199,1535,1537,1610,1609,0,0,0,0,0,0,0,0,0,0
1682932441.79927611,60828159,1543,1544,1604,1604,0,0,0,0,0,0,0,0,0,0
1682932441.90006900,60928952,1552,1553,1597,1598,0,0,0,0,0,0,0,0,0,0
1682932442.00002909,61028912,1561,1561,1590,1590,0,0,0,0,0,0,0,0,0,0
1682932442.09998894,61128872,1569,1569,1582,1581,0,0,0,0,0,0,0,0,0,0
1682932442.19994903,61228832,1577,1576,1576,1575,0,0,0,0,0,0,0,0,0,0
1682932442.29990911,61328792,1583,1581,1572,1571,0,0,0,0,0,0,0,0,0,0
1682932442.39986897,61428752,1585,1584,1567,1567,0,0,0,0,0,0,0,0,0,0
1682932442.49982905,61528712,1587,1586,1566,1566,0,0,0,0,0,0,0,0,0,0
1682932442.59978890,61628672,1588,1588,1567,1567,0,0,0,0,0,0,0,0,0,0
1682932442.69974899,61728632,1587,1586,1568,1569,0,0,0,0,0,0,0,0,0,0
1682932442.79970908,61828592,1584,1584,1570,1570,0,0,0,0,0,0,0,0,0,0
1682932442.89966893,61928552,1582,1581,1573,1573,0,0,0,0,0,0,0,0,0,0
1682932442.99962902,62028512,1534,1562,1530,1561,0,0,0,0,0,0,0,0,0,0
1682932443.09958911,62128472,1575,1564,1578,1567,0,0,0,0,0,0,0,0,0,0
1682932443.19954896,62228432,1610,1575,1618,1581,0,0,0,0,0,0,0,0,0,0
1682932443.29950905,62328392,1633,1592,1643,1601,0,0,0,0,0,0,0,0,0,0
1682932443.39946914,62428352,1637,1605,1648,1614,0,0,0,0,0,0,0,0,0,0
1682932443.49942899,62528312,1623,1608,1633,1616,0,0,0,0,0,0,0,0,0,0
1682932443.59938908,62628272,1600,1605,1610,1613,0,0,0,0,0,0,0,0,0,0
1682932443.69934893,62728232,1581,1599,1592,1610,0,0,0,0,0,0,0,0,0,0
1682932443.79930902,62828192,1568,1589,1583,1606,0,0,0,0,0,0,0,0,0,0
1682932443.90010214,62928985,1563,1580,1580,1601,0,0,0,0,0,0,0,0,0,0
1682932444.00006199,63028945,1565,1574,1582,1594,0,0,0,0,0,0,0,0,0,0
1682932444.10002208,63128905,1570,1571,1583,1585,0,0,0,0,0,0,0,0,0,0
1682932444.19998193,63228865,1576,1573,1583,1579,0,0,0,0,0,0,0,0,0,0
1682932444.29994202,63328825,1581,1576,1581,1574,0,0,0,0,0,0,0,0,0,0
1682932444.39990211,63428785,1584,1580,1577,1571,0,0,0,0,0,0,0,0,0,0
1682932444.49986196,63528745,1585,1584,1573,1570,0,0,0,0,0,0,0,0,0,0
1682932444.59982204,63628705,1584,1585,1569,1569,0,0,0,0,0,0,0,0,0,0
1682932444.69978213,63728665,1583,1584,1566,1568,0,0,0,0,0,0,0,0,0,0
1682932444.79974198,63828625,1582,1584,1566,1569,0,0,0,0,0,0,0,0,0,0
1682932444.89970207,63928585,1581,1582,1567,1569,0,0,0,0,0,0,0,0,0,0
1682932444.99966192,64028545,1581,1581,1568,1570,0,0,0,0,0,0,0,0,0,0
1682932445.09962201,64128505,1578,1578,1569,1570,0,0,0,0,0,0,0,0,0,0
1682932445.19958210,64228465,1577,1577,1572,1572,0,0,0,0,0,0,0,0,0,0
1682932445.29954195,64328425,1577,1576,1574,1573,0,0,0,0,0,0,0,0,0,0
1682932445.39950204,64428385,1575,1575,1575,1575,0,0,0,0,0,0,0,0,0,0
1682932445.49946213,64528345,1574,1575,1577,1576,0,0,0,0,0,0,0,0,0,0
1682932445.59942198,64628305,1574,1574,1578,1577,0,0,0,0,0,0,0,0,0,0
1682932445.69938207,64728265,1575,1575,1579,1578,0,0,0,0,0,0,0,0,0,0
1682932445.79934192,64828225,1575,1575,1579,1579,0,0,0,0,0,0,0,0,0,0
1682932445.89930201,64928185,1575,1576,1579,1579,0,0,0,0,0,0,0,0,0,0
1682932446.00009513,65028978,1576,1576,1579,1578,0,0,0,0,0,0,0,0,0,0
1682932446.10005498,65128938,1576,1576,1583,1573,0,0,0,0,0,0,0,0,0,0
1682932446.20001507,65228898,1577,1578,1583,1569,0,0,0,0,0,0,0,0,0,0
1682932446.29997492,65328858,1576,1578,1576,1569,0,0,0,0,0,0,0,0,0,0
1682932446.39993501,65428818,1575,1578,1567,1568,0,0,0,0,0,0,0,0,0,0
1682932446.49989510,65528778,1574,1577,1560,1566,0,0,0,0,0,0,0,0,0,0
1682932446.59985495,65628738,1575,1576,1554,1562,0,0,0,0,0,0,0,0,0,0
1682932446.69981503,65728698,1576,1576,1552,1557,0,0,0,0,0,0,0,0,0,0
1682932446.79977512,65828658,1577,1576,1551,1554,0,0,0,0,0,0,0,0,0,0
1682932446.89973497,65928618,1579,1577,1553,1553,0,0,0,0,0,0,0,0,0,0
1682932446.99969506,66028578,1579,1578,1553,1551,0,0,0,0,0,0,0,0,0,0
1682932447.09965491,66128538,1578,1578,1554,1551,0,0,0,0,0,0,0,0,0,0
1682932447.19961500,66228498,1577,1578,1554,1551,0,0,0,0,0,0,0,0,0,0
1682932447.29957509,66328458,1576,1577,1552,1552,0,0,0,0,0,0,0,0,0,0
1682932447.39953494,66428418,1576,1578,1553,1553,0,0,0,0,0,0,0,0,0,0
1682932447.49949503,66528378,1576,1578,1551,1552,0,0,0,0,0,0,0,0,0,0
1682932447.59945512,66628338,1577,1579,1551,1551,0,0,0,0,0,0,0,0,0,0
1682932447.69941497,66728298,1578,1579,1549,1549,0,0,0,0,0,0,0,0,0,0
1682932447.79937506,66828258,1580,1581,1548,1547,0,0,0,0,0,0,0,0,0,0
1682932447.89933491,66928218,1582,1583,1547,1547,0,0,0,0,0,0,0,0,0,0
1682932447.99929500,67028178,1584,1584,1544,1544,0,0,0,0,0,0,0,0,0,0
1682932448.10008812,67128971,1587,1586,1543,1543,0,0,0,0,0,0,0,0,0,0
1682932448.20004797,67228931,1588,1587,1542,1543,0,0,0,0,0,0,0,0,0,0
1682932448.30000806,67328891,1589,1589,1543,1544,0,0,0,0,0,0,0,0,0,0
1682932448.39996791,67428851,1588,1589,1543,1544,0,0,0,0,0,0,0,0,0,0
1682932448.49992800,67528811,1587,1586,1543,1545,0,0,0,0,0,0,0,0,0,0
1682932448.59988809,67628771,1585,1585,1546,1549,0,0,0,0,0,0,0,0,0,0
1682932448.69984794,67728731,1583,1581,1551,1554,0,0,0,0,0,0,0,0,0,0
1682932448.79980803,67828691,1578,1576,1558,1560,0,0,0,0,0,0,0,0,0,0
1682932448.89976811,67928651,1573,1570,1565,1568,0,0,0,0,0,0,0,0,0,0
1682932448.99972796,68028611,1566,1563,1575,1576,0,0,0,0,0,0,0,0,0,0
1682932449.09968805,68128571,1557,1554,1582,1583,0,0,0,0,0,0,0,0,0,0
1682932449.19964790,68228531,1550,1549,1591,1591,0,0,0,0,0,0,0,0,0,0
1682932449.29960799,68328491,1544,1544,1597,1597,0,0,0,0,0,0,0,0,0,0
1682932449.39956808,68428451,1540,1542,1602,1601,0,0,0,0,0,0,0,0,0,0
1682932449.49952793,68528411,1540,1541,1604,1604,0,0,0,0,0,0,0,0,0,0
1682932449.59948802,68628371,1542,1544,1606,1604,0,0,0,0,0,0,0,0,0,0
1682932449.69944811,68728331,1545,1547,1603,1602,0,0,0,0,0,0,0,0,0,0
1682932449.79940796,68828291,1551,1551,1599,1599,0,0,0,0,0,0,0,0,0,0
1682932449.89936805,68928251,1557,1557,1595,1594,0,0,0,0,0,0,0,0,0,0
1682932449.99932814,69028211,1562,1562,1589,1589,0,0,0,0,0,0,0,0,0,0
1682932450.09928799,69128171,1568,1568,1584,1584,0,0,0,0,0,0,0,0,0,0
1682932450.20008111,69228964,1574,1574,1580,1580,0,0,0,0,0,0,0,0,0,0
1682932450.30004096,69328924,1578,1577,1575,1575,0,0,0,0,0,0,0,0,0,0
1682932450.40000105,69428884,1581,1579,1572,1572,0,0,0,0,0,0,0,0,0,0
1682932450.49996114,69528844,1583,1581,1570,1570,0,0,0,0,0,0,0,0,0,0
1682932450.59992099,69628804,1583,1583,1569,1571,0,0,0,0,0,0,0,0,0,0
1682932450.69988108,69728764,1583,1583,1570,1571,0,0,0,0,0,0,0,0,0,0
1682932450.79984093,69828724,1582,1582,1571,1571,0,0,0,0,0,0,0,0,0,0
1682932450.89980102,69928684,1581,1580,1573,1573,0,0,0,0,0,0,0,0,0,0
1682932450.99976110,70028644,1579,1580,1575,1575,0,0,0,0,0,0,0,0,0,0
1682932451.09972095,70128604,1578,1579,1578,1577,0,0,0,0,0,0,0,0,0,0
1682932451.19968104,70228564,1577,1577,1580,1580,0,0,0,0,0,0,0,0,0,0
1682932451.29964113,70328524,1576,1577,1581,1582,0,0,0,0,0,0,0,0,0,0
1682932451.39960098,70428484,1575,1575,1582,1582,0,0,0,0,0,0,0,0,0,0
1682932451.49956107,70528444,1575,1575,1583,1583,0,0,0,0,0,0,0,0,0,0
1682932451.59952092,70628404,1575,1576,1583,1583,0,0,0,0,0,0,0,0,0,0
1682932451.69948101,70728364,1576,1576,1583,1583,0,0,0,0,0,0,0,0,0,0
1682932451.79944110,70828324,1576,1576,1582,1582,0,0,0,0,0,0,0,0,0,0
1682932451.89940095,70928284,1576,1577,1581,1580,0,0,0,0,0,0,0,0,0,0
1682932451.99936104,71028244,1578,1578,1580,1581,0,0,0,0,0,0,0,0,0,0
1682932452.09932113,71128204,1578,1578,1579,1579,0,0,0,0,0,0,0,0,0,0
1682932452.19928098,71228164,1580,1580,1579,1579,0,0,0,0,0,0,0,0,0,0
1682932452.30007410,71328957,1580,1581,1579,1579,0,0,0,0,0,0,0,0,0,0
1682932452.40003395,71428917,1581,1580,1578,1578,0,0,0,0,0,0,0,0,0,0
1682932452.49999404,71528877,1581,1580,1577,1578,0,0,0,0,0,0,0,0,0,0
1682932452.59995413,71628837,1580,1580,1578,1577,0,0,0,0,0,0,0,0,0,0
1682932452.69991398,71728797,1580,1580,1577,1578,0,0,0,0,0,0,0,0,0,0
1682932452.79987407,71828757,1580,1580,1578,1578,0,0,0,0,0,0,0,0,0,0
1682932452.89983392,71928717,1579,1580,1578,1578,0,0,0,0,0,0,0,0,0,0
1682932452.99979401,72028677,1580,1580,1579,1579,0,0,0,0,0,0,0,0,0,0
1682932453.09975410,72128637,1580,1580,1579,1579,0,0,0,0,0,0,0,0,0,0
1682932453.19971395,72228597,1581,1581,1582,1581,0,0,0,0,0,0,0,0,0,0
1682932453.29967403,72328557,1581,1581,1582,1582,0,0,0,0,0,0,0,0,0,0
1682932453.39963412,72428517,1581,1581,1582,1582,0,0,0,0,0,0,0,0,0,0
1682932453.49959397,72528477,1580,1581,1582,1582,0,0,0,0,0,0,0,0,0,0
1682932453.59955406,72628437,1580,1580,1581,1581,0,0,0,0,0,0,0,0,0,0
1682932453.69951391,72728397,1580,1580,1581,1581,0,0,0,0,0,0,0,0,0,0
1682932453.79947400,72828357,1580,1580,1581,1581,0,0,0,0,0,0,0,0,0,0
1682932453.89943409,72928317,1580,1581,1581,1581,0,0,0,0,0,0,0,0,0,0
1682932453.99939394,73028277,1580,1580,1581,1580,0,0,0,0,0,0,0,0,0,0
1682932454.09935403,73128237,1580,1579,1580,1580,0,0,0,0,0,0,0,0,0,0
1682932454.19931412,73228197,1580,1579,1579,1579,0,0,0,0,0,0,0,0,0,0
1682932454.29927397,73328157,1580,1580,1579,1580,0,0,0,0,0,0,0,0,0,0
1682932454.40006709,73428950,1581,1580,1580,1580,0,0,0,0,0,0,0,0,0,0
1682932454.50002694,73528910,1581,1582,1584,1577,0,0,0,0,0,0,0,0,0,0
1682932454.59998703,73628870,1581,1583,1587,1572,0,0,0,0,0,0,0,0,0,0
1682932454.69994712,73728830,1580,1582,1581,1572,0,0,0,0,0,0,0,0,0,0
1682932454.79990697,73828790,1578,1581,1573,1573,0,0,0,0,0,0,0,0,0,0
1682932454.89986706,73928750,1576,1578,1564,1570,0,0,0,0,0,0,0,0,0,0
1682932454.99982691,74028710,1577,1579,1559,1567,0,0,0,0,0,0,0,0,0,0
1682932455.09978700,74128670,1577,1577,1556,1562,0,0,0,0,0,0,0,0,0,0
1682932455.19974709,74228630,1579,1577,1555,1558,0,0,0,0,0,0,0,0,0,0
1682932455.29970694,74328590,1579,1577,1555,1555,0,0,0,0,0,0,0,0,0,0
1682932455.39966702,74428550,1579,1578,1555,1554,0,0,0,0,0,0,0,0,0,0
1682932455.49962711,74528510,1578,1578,1555,1553,0,0,0,0,0,0,0,0,0,0
1682932455.59958696,74628470,1577,1578,1555,1553,0,0,0,0,0,0,0,0,0,0
1682932455.69954705,74728430,1576,1577,1555,1553,0,0,0,0,0,0,0,0,0,0
1682932455.79950690,74828390,1575,1577,1554,1553,0,0,0,0,0,0,0,0,0,0
1682932455.89946699,74928350,1576,1577,1553,1554,0,0,0,0,0,0,0,0,0,0
1682932455.99942708,75028310,1577,1579,1553,1553,0,0,0,0,0,0,0,0,0,0
1682932456.09938693,75128270,1577,1578,1550,1550,0,0,0,0,0,0,0,0,0,0
1682932456.19934702,75228230,1578,1580,1548,1548,0,0,0,0,0,0,0,0,0,0
1682932456.29930711,75328190,1581,1582,1547,1546,0,0,0,0,0,0,0,0,0,0
1682932456.40009999,75428983,1583,1584,1544,1544,0,0,0,0,0,0,0,0,0,0
1682932456.50006008,75528943,1586,1586,1542,1542,0,0,0,0,0,0,0,0,0,0
1682932456.60001993,75628903,1589,1589,1540,1540,0,0,0,0,0,0,0,0,0,0
1682932456.69998002,75728863,1591,1590,1538,1538,0,0,0,0,0,0,0,0,0,0
1682932456.79994011,75828823,1592,1593,1537,1539,0,0,0,0,0,0,0,0,0,0
1682932456.89989996,75928783,1593,1594,1537,1539,0,0,0,0,0,0,0,0,0,0
1682932456.99986005,76028743,1594,1594,1539,1541,0,0,0,0,0,0,0,0,0,0
1682932457.09982014,76128703,1592,1590,1541,1544,0,0,0,0,0,0,0,0,0,0
1682932457.19977999,76228663,1588,1585,1547,1550,0,0,0,0,0,0,0,0,0,0
1682932457.29974008,76328623,1582,1578,1555,1558,0,0,0,0,0,0,0,0,0,0
1682932457.39969993,76428583,1574,1570,1566,1568,0,0,0,0,0,0,0,0,0,0
1682932457.49966002,76528543,1564,1560,1576,1578,0,0,0,0,0,0,0,0,0,0
1682932457.59962010,76628503,1554,1552,1589,1590,0,0,0,0,0,0,0,0,0,0
1682932457.69957995,76728463,1544,1543,1599,1598,0,0,0,0,0,0,0,0,0,0
1682932457.79954004,76828423,1537,1538,1607,1606,0,0,0,0,0,0,0,0,0,0
1682932457.89950013,76928383,1534,1535,1612,1610,0,0,0,0,0,0,0,0,0,0
1682932457.99945998,77028343,1534,1537,1615,1613,0,0,0,0,0,0,0,0,0,0
1682932458.09942007,77128303,1536,1538,1612,1611,0,0,0,0,0,0,0,0,0,0
1682932458.19937992,77228263,1541,1544,1609,1608,0,0,0,0,0,0,0,0,0,0
1682932458.29934001,77328223,1548,1549,1603,1603,0,0,0,0,0,0,0,0,0,0
1682932458.39930010,77428183,1555,1555,1596,1596,0,0,0,0,0,0,0,0,0,0
1682932458.50009298,77528976,1563,1563,1590,1589,0,0,0,0,0,0,0,0,0,0
1682932458.60005307,77628936,1571,1570,1583,1583,0,0,0,0,0,0,0,0,0,0
1682932458.70001292,77728896,1578,1577,1578,1578,0,0,0,0,0,0,0,0,0,0
1682932458.79997301,77828856,1582,1581,1572,1572,0,0,0,0,0,0,0,0,0,0
1682932458.89993310,77928816,1585,1583,1568,1569,0,0,0,0,0,0,0,0,0,0
1682932458.99989295,78028776,1587,1585,1566,1568,0,0,0,0,0,0,0,0,0,0
1682932459.09985304,78128736,1587,1585,1566,1567,0,0,0,0,0,0,0,0,0,0
1682932459.19981313,78228696,1586,1585,1568,1568,0,0,0,0,0,0,0,0,0,0
1682932459.29977298,78328656,1585,1584,1571,1571,0,0,0,0,0,0,0,0,0,0
1682932459.39973307,78428616,1582,1581,1573,1572,0,0,0,0,0,0,0,0,0,0
1682932459.49969292,78528576,1580,1580,1576,1576,0,0,0,0,0,0,0,0,0,0
1682932459.59965301,78628536,1577,1578,1579,1578,0,0,0,0,0,0,0,0,0,0
1682932459.69961309,78728496,1575,1575,1580,1580,0,0,0,0,0,0,0,0,0,0
1682932459.79957294,78828456,1574,1574,1582,1582,0,0,0,0,0,0,0,0,0,0
1682932459.89953303,78928416,1574,1574,1584,1584,0,0,0,0,0,0,0,0,0,0
1682932459.99949312,79028376,1573,1574,1584,1584,0,0,0,0,0,0,0,0,0,0
1682932460.09945297,79128336,1574,1575,1584,1584,0,0,0,0,0,0,0,0,0,0
1682932460.19941306,79228296,1574,1575,1584,1583,0,0,0,0,0,0,0,0,0,0
1682932460.29937291,79328256,1575,1576,1583,1582,0,0,0,0,0,0,0,0,0,0
1682932460.39933300,79428216,1577,1577,1582,1582,0,0,0,0,0,0,0,0,0,0
1682932460.49929309,79528176,1578,1577,1579,1580,0,0,0,0,0,0,0,0,0,0
1682932460.60008597,79628969,1579,1579,1579,1579,0,0,0,0,0,0,0,0,0,0
1682932460.70004606,79728929,1580,1580,1578,1578,0,0,0,0,0,0,0,0,0,0
1682932460.80000591,79828889,1581,1581,1578,1578,0,0,0,0,0,0,0,0,0,0
1682932460.89996600,79928849,1582,1582,1578,1578,0,0,0,0,0,0,0,0,0,0
1682932460.99992609,80028809,1582,1581,1577,1577,0,0,0,0,0,0,0,0,0,0
1682932461.09988594,80128769,1582,1581,1578,1578,0,0,0,0,0,0,0,0,0,0
1682932461.19984603,80228729,1582,1582,1578,1579,0,0,0,0,0,0,0,0,0,0
1682932461.29980612,80328689,1581,1581,1579,1578,0,0,0,0,0,0,0,0,0,0
1682932461.39976597,80428649,1580,1581,1579,1579,0,0,0,0,0,0,0,0,0,0
1682932461.49972606,80528609,1580,1580,1579,1579,0,0,0,0,0,0,0,0,0,0
1682932461.59968591,80628569,1579,1580,1579,1580,0,0,0,0,0,0,0,0,0,0
1682932461.69964600,80728529,1579,1579,1580,1580,0,0,0,0,0,0,0,0,0,0
1682932461.79960608,80828489,1580,1579,1581,1580,0,0,0,0,0,0,0,0,0,0
1682932461.89956594,80928449,1579,1579,1580,1580,0,0,0,0,0,0,0,0,0,0
1682932461.99952602,81028409,1579,1579,1581,1581,0,0,0,0,0,0,0,0,0,0
1682932462.09948611,81128369,1580,1581,1581,1582,0,0,0,0,0,0,0,0,0,0
1682932462.19944596,81228329,1580,1581,1582,1581,0,0,0,0,0,0,0,0,0,0
1682932462.29940605,81328289,1581,1581,1582,1582,0,0,0,0,0,0,0,0,0,0
1682932462.39936590,81428249,1581,1581,1581,1581,0,0,0,0,0,0,0,0,0,0
1682932462.49932599,81528209,1581,1581,1584,1577,0,0,0,0,0,0,0,0,0,0
1682932462.59928608,81628169,1582,1582,1587,1573,0,0,0,0,0,0,0,0,0,0
1682932462.70007896,81728962,1580,1580,1583,1574,0,0,0,0,0,0,0,0,0,0
1682932462.80003905,81828922,1577,1577,1576,1576,0,0,0,0,0,0,0,0,0,0
1682932462.89999890,81928882,1573,1573,1569,1575,0,0,0,0,0,0,0,0,0,0
1682932462.99995899,82028842,1570,1570,1565,1573,0,0,0,0,0,0,0,0,0,0
1682932463.09991908,82128802,1568,1568,1564,1571,0,0,0,0,0,0,0,0,0,0
1682932463.19987893,82228762,1567,1567,1565,1568,0,0,0,0,0,0,0,0,0,0
1682932463.29983902,82328722,1567,1567,1566,1566,0,0,0,0,0,0,0,0,0,0
1682932463.39979911,82428682,1566,1567,1567,1565,0,0,0,0,0,0,0,0,0,0
1682932463.49975896,82528642,1565,1566,1567,1564,0,0,0,0,0,0,0,0,0,0
1682932463.59971905,82628602,1564,1564,1566,1563,0,0,0,0,0,0,0,0,0,0
1682932463.69967914,82728562,1564,1564,1565,1564,0,0,0,0,0,0,0,0,0,0
1682932463.79963899,82828522,1564,1563,1565,1564,0,0,0,0,0,0,0,0,0,0
1682932463.89959908,82928482,1563,1563,1564,1564,0,0,0,0,0,0,0,0,0,0
1682932463.99955893,83028442,1562,1562,1563,1563,0,0,0,0,0,0,0,0,0,0
1682932464.09951901,83128402,1562,1562,1562,1563,0,0,0,0,0,0,0,0,0,0
1682932464.19947910,83228362,1561,1561,1561,1562,0,0,0,0,0,0,0,0,0,0
1682932464.29943895,83328322,1561,1561,1561,1561,0,0,0,0,0,0,0,0,0,0
1682932464.39939904,83428282,1561,1561,1561,1560,0,0,0,0,0,0,0,0,0,0
1682932464.49935913,83528242,1560,1560,1561,1560,0,0,0,0,0,0,0,0,0,0
1682932464.59931898,83628202,1560,1559,1561,1558,0,0,0,0,0,0,0,0,0,0
1682932464.69927907,83728162,1558,1558,1558,1558,0,0,0,0,0,0,0,0,0,0
1682932464.80007195,83828955,1557,1557,1557,1557,0,0,0,0,0,0,0,0,0,0
1682932464.90003204,83928915,1558,1557,1558,1557,0,0,0,0,0,0,0,0,0,0
1682932464.99999213,84028875,1558,1558,1559,1557,0,0,0,0,0,0,0,0,0,0
1682932465.09995198,84128835,1558,1558,1558,1557,0,0,0,0,0,0,0,0,0,0
1682932465.19991207,84228795,1558,1558,1559,1556,0,0,0,0,0,0,0,0,0,0
1682932465.29987192,84328755,1558,1558,1559,1557,0,0,0,0,0,0,0,0,0,0
1682932465.39983201,84428715,1559,1559,1558,1560,0,0,0,0,0,0,0,0,0,0
1682932465.49979210,84528675,1560,1559,1557,1562,0,0,0,0,0,0,0,0,0,0
1682932465.59975195,84628635,1560,1560,1557,1563,0,0,0,0,0,0,0,0,0,0
1682932465.69971204,84728595,1561,1561,1558,1563,0,0,0,0,0,0,0,0,0,0
1682932465.79967213,84828555,1561,1561,1560,1562,0,0,0,0,0,0,0,0,0,0
1682932465.89963198,84928515,1561,1561,1561,1561,0,0,0,0,0,0,0,0,0,0
1682932465.99959207,85028475,1561,1561,1562,1558,0,0,0,0,0,0,0,0,0,0
1682932466.09955192,85128435,1560,1560,1561,1558,0,0,0,0,0,0,0,0,0,0
1682932466.19951200,85228395,1560,1559,1559,1560,0,0,0,0,0,0,0,0,0,0
1682932466.29947209,85328355,1558,1558,1555,1562,0,0,0,0,0,0,0,0,0,0
1682932466.39943194,85428315,1555,1554,1552,1557,0,0,0,0,0,0,0,0,0,0
1682932466.49939203,85528275,1549,1549,1548,1550,0,0,0,0,0,0,0,0,0,0
1682932466.59935212,85628235,1543,1543,1543,1543,0,0,0,0,0,0,0,0,0,0
1682932466.69931197,85728195,1537,1536,1537,1536,0,0,0,0,0,0,0,0,0,0
1682932466.79927206,85828155,1529,1529,1530,1528,0,0,0,0,0,0,0,0,0,0
1682932466.90006495,85928948,1523,1523,1524,1522,0,0,0,0,0,0,0,0,0,0
1682932467.00002503,86028908,1520,1521,1521,1520,0,0,0,0,0,0,0,0,0,0
1682932467.09998512,86128868,1519,1520,1519,1520,0,0,0,0,0,0,0,0,0,0
1682932467.19994497,86228828,1521,1522,1521,1522,0,0,0,0,0,0,0,0,0,0
1682932467.29990506,86328788,1523,1523,1523,1524,0,0,0,0,0,0,0,0,0,0
1682932467.39986491,86428748,1526,1526,1526,1526,0,0,0,0,0,0,0,0,0,0
1682932467.49982500,86528708,1531,1531,1531,1532,0,0,0,0,0,0,0,0,0,0
1682932467.59978509,86628668,1536,1536,1535,1536,0,0,0,0,0,0,0,0,0,0
1682932467.69974494,86728628,1539,1538,1539,1538,0,0,0,0,0,0,0,0,0,0
1682932467.79970503,86828588,1541,1541,1542,1540,0,0,0,0,0,0,0,0,0,0
1682932467.89966512,86928548,1544,1543,1544,1543,0,0,0,0,0,0,0,0,0,0
1682932467.99962497,87028508,1545,1545,1545,1544,0,0,0,0,0,0,0,0,0,0
1682932468.09958506,87128468,1546,1546,1547,1546,0,0,0,0,0,0,0,0,0,0
1682932468.19954491,87228428,1547,1547,1547,1547,0,0,0,0,0,0,0,0,0,0
1682932468.29950500,87328388,1547,1547,1547,1547,0,0,0,0,0,0,0,0,0,0
1682932468.39946508,87428348,1546,1547,1547,1546,0,0,0,0,0,0,0,0,0,0
1682932468.49942493,87528308,1547,1547,1547,1547,0,0,0,0,0,0,0,0,0,0
1682932468.59938502,87628268,1547,1547,1547,1547,0,0,0,0,0,0,0,0,0,0
1682932468.69934511,87728228,1546,1547,1547,1546,0,0,0,0,0,0,0,0,0,0
1682932468.79930496,87828188,1546,1546,1546,1546,0,0,0,0,0,0,0,0,0,0
1682932468.90009809,87928981,1546,1546,1545,1546,0,0,0,0,0,0,0,0,0,0
1682932469.00005794,88028941,1545,1545,1545,1544,0,0,0,0,0,0,0,0,0,0
1682932469.10001802,88128901,1545,1545,1545,1545,0,0,0,0,0,0,0,0,0,0
1682932469.19997811,88228861,1545,1545,1545,1544,0,0,0,0,0,0,0,0,0,0
1682932469.29993796,88328821,1545,1544,1544,1544,0,0,0,0,0,0,0,0,0,0
1682932469.39989805,88428781,1544,1545,1545,1544,0,0,0,0,0,0,0,0,0,0
1682932469.49985790,88528741,1544,1544,1544,1544,0,0,0,0,0,0,0,0,0,0
1682932469.59981799,88628701,1544,1544,1544,1544,0,0,0,0,0,0,0,0,0,0
1682932469.69977808,88728661,1543,1543,1543,1544,0,0,0,0,0,0,0,0,0,0
1682932469.79973793,88828621,1544,1544,1544,1544,0,0,0,0,0,0,0,0,0,0
1682932469.89969802,88928581,1544,1543,1544,1543,0,0,0,0,0,0,0,0,0,0
1682932469.99965811,89028541,1543,1544,1544,1543,0,0,0,0,0,0,0,0,0,0
1682932470.09961796,89128501,1544,1545,1545,1544,0,0,0,0,0,0,0,0,0,0
1682932470.19957805,89228461,1543,1544,1544,1543,0,0,0,0,0,0,0,0,0,0
1682932470.29953814,89328421,1544,1544,1544,1544,0,0,0,0,0,0,0,0,0,0
1682932470.39949799,89428381,1544,1545,1544,1545,0,0,0,0,0,0,0,0,0,0
1682932470.49945807,89528341,1544,1543,1543,1544,0,0,0,0,0,0,0,0,0,0
1682932470.59941792,89628301,1544,1544,1544,1544,0,0,0,0,0,0,0,0,0,0
1682932470.69937801,89728261,1544,1543,1544,1544,0,0,0,0,0,0,0,0,0,0
1682932470.79933810,89828221,1544,1544,1544,1544,0,0,0,0,0,0,0,0,0,0
1682932470.89929795,89928181,1544,1544,1544,1544,0,0,0,0,0,0,0,0,0,0
1682932471.00009108,90028974,1544,1544,1544,1544,0,0,0,0,0,0,0,0,0,0
1682932471.10005093,90128934,1544,1544,1544,1544,0,0,0,0,0,0,0,0,0,0
1682932471.20001101,90228894,1544,1544,1545,1544,0,0,0,0,0,0,0,0,0,0
1682932471.29997110,90328854,1544,1545,1544,1545,0,0,0,0,0,0,0,0,0,0
1682932471.39993095,90428814,1544,1545,1544,1545,0,0,0,0,0,0,0,0,0,0
1682932471.49989104,90528774,1545,1545,1545,1545,0,0,0,0,0,0,0,0,0,0
1682932471.59985113,90628734,1545,1544,1545,1544,0,0,0,0,0,0,0,0,0,0
1682932471.69981098,90728694,1543,1543,1544,1543,0,0,0,0,0,0,0,0,0,0
1682932471.79977107,90828654,1544,1543,1543,1544,0,0,0,0,0,0,0,0,0,0
1682932471.89973092,90928614,1544,1544,1543,1544,0,0,0,0,0,0,0,0,0,0
1682932471.99969101,91028574,1544,1544,1544,1544,0,0,0,0,0,0,0,0,0,0
1682932472.09965110,91128534,1544,1544,1544,1544,0,0,0,0,0,0,0,0,0,0
1682932472.19961095,91228494,1543,1544,1543,1544,0,0,0,0,0,0,0,0,0,0
1682932472.29957104,91328454,1544,1544,1544,1544,0,0,0,0,0,0,0,0,0,0
1682932472.39953113,91428414,1543,1543,1544,1543,0,0,0,0,0,0,0,0,0,0
1682932472.49949098,91528374,1545,1544,1544,1544,0,0,0,0,0,0,0,0,0,0
1682932472.59945107,91628334,1544,1544,1543,1544,0,0,0,0,0,0,0,0,0,0
1682932472.69941092,91728294,1543,1543,1543,1543,0,0,0,0,0,0,0,0,0,0
1682932472.79937100,91828254,1543,1543,1543,1543,0,0,0,0,0,0,0,0,0,0
1682932472.89933109,91928214,1544,1543,1543,1544,0,0,0,0,0,0,0,0,0,0
1682932472.99929094,92028174,1543,1544,1543,1543,0,0,0,0,0,0,0,0,0,0
1682932473.10008407,92128967,1544,1544,1544,1544,0,0,0,0,0,0,0,0,0,0
1682932473.20004392,92228927,1544,1544,1544,1544,0,0,0,0,0,0,0,0,0,0
1682932473.30000401,92328887,1545,1545,1545,1545,0,0,0,0,0,0,0,0,0,0
1682932473.39996409,92428847,1544,1544,1544,1544,0,0,0,0,0,0,0,0,0,0
1682932473.49992394,92528807,1545,1544,1544,1545,0,0,0,0,0,0,0,0,0,0
1682932473.59988403,92628767,1544,1544,1544,1544,0,0,0,0,0,0,0,0,0,0
1682932473.69984412,92728727,1545,1545,1545,1545,0,0,0,0,0,0,0,0,0,0
1682932473.79980397,92828687,1544,1544,1544,1544,0,0,0,0,0,0,0,0,0,0
1682932473.89976406,92928647,1545,1544,1545,1545,0,0,0,0,0,0,0,0,0,0
1682932473.99972391,93028607,1545,1544,1545,1544,0,0,0,0,0,0,0,0,0,0
1682932474.09968400,93128567,1545,1545,1545,1545,0,0,0,0,0,0,0,0,0,0
1682932474.19964409,93228527,1545,1545,1545,1545,0,0,0,0,0,0,0,0,0,0
1682932474.29960394,93328487,1545,1544,1544,1544,0,0,0,0,0,0,0,0,0,0
1682932474.39956403,93428447,1545,1545,1545,1545,0,0,0,0,0,0,0,0,0,0
1682932474.49952412,93528407,1545,1546,1545,1546,0,0,0,0,0,0,0,0,0,0
1682932474.59948397,93628367,1545,1545,1545,1546,0,0,0,0,0,0,0,0,0,0
1682932474.69944406,93728327,1546,1545,1545,1546,0,0,0,0,0,0,0,0,0,0
1682932474.79940391,93828287,1544,1544,1544,1544,0,0,0,0,0,0,0,0,0,0
1682932474.89936399,93928247,1545,1545,1545,1545,0,0,0,0,0,0,0,0,0,0
1682932474.99932408,94028207,1545,1545,1545,1545,0,0,0,0,0,0,0,0,0,0
1682932475.09928393,94128167,1546,1545,1545,1545,0,0,0,0,0,0,0,0,0,0
1682932475.20007706,94228960,1545,1545,1545,1545,0,0,0,0,0,0,0,0,0,0
1682932475.30003691,94328920,1544,1545,1544,1545,0,0,0,0,0,0,0,0,0,0
1682932475.39999700,94428880,1545,1545,1545,1545,0,0,0,0,0,0,0,0,0,0
1682932475.49995708,94528840,1544,1544,1544,1544,0,0,0,0,0,0,0,0,0,0
1682932475.59991693,94628800,1544,1544,1544,1544,0,0,0,0,0,0,0,0,0,0
1682932475.69987702,94728760,1545,1544,1544,1545,0,0,0,0,0,0,0,0,0,0
1682932475.79983711,94828720,1544,1545,1545,1545,0,0,0,0,0,0,0,0,0,0
1682932475.89979696,94928680,1544,1544,1544,1544,0,0,0,0,0,0,0,0,0,0
1682932475.99975705,95028640,1544,1545,1544,1544,0,0,0,0,0,0,0,0,0,0
1682932476.09971690,95128600,1544,1544,1544,1544,0,0,0,0,0,0,0,0,0,0
1682932476.19967699,95228560,1544,1544,1544,1544,0,0,0,0,0,0,0,0,0,0
1682932476.29963708,95328520,1544,1543,1544,1544,0,0,0,0,0,0,0,0,0,0
1682932476.39959693,95428480,1544,1544,1544,1544,0,0,0,0,0,0,0,0,0,0
1682932476.49955702,95528440,1545,1545,1545,1545,0,0,0,0,0,0,0,0,0,0
1682932476.59951711,95628400,1545,1545,1545,1545,0,0,0,0,0,0,0,0,0,0
1682932476.69947696,95728360,1475,1465,1476,1464,0,0,0,0,0,0,0,0,0,0
1682932476.79943705,95828320,1342,1301,1343,1300,0,0,0,0,0,0,0,0,0,0
1682932476.89939713,95928280,1290,1230,1290,1230,0,0,0,0,0,0,0,0,0,0
1682932476.99935699,96028240,1273,1208,1274,1206,0,0,0,0,0,0,0,0,0,0
1682932477.09931707,96128200,1251,1176,1252,1174,0,0,0,0,0,0,0,0,0,0
1682932477.19927692,96228160,1235,1153,1237,1150,0,0,0,0,0,0,0,0,0,0
1682932477.30007005,96328953,1180,1152,1181,1150,0,0,0,0,0,0,0,0,0,0
1682932477.40003014,96428913,1179,1152,1181,1150,0,0,0,0,0,0,0,0,0,0
1682932477.49998999,96528873,1180,1152,1181,1150,0,0,0,0,0,0,0,0,0,0
1682932477.59995008,96628833,1181,1150,1167,1169,0,0,0,0,0,0,0,0,0,0
1682932477.69990993,96728793,1181,1150,1173,1161,0,0,0,0,0,0,0,0,0,0
1682932477.79987001,96828753,1181,1150,1175,1159,0,0,0,0,0,0,0,0,0,0
1682932477.89983010,96928713,1181,1150,1175,1159,0,0,0,0,0,0,0,0,0,0
1682932477.99978995,97028673,1181,1150,1174,1159,0,0,0,0,0,0,0,0,0,0
1682932478.09975004,97128633,1181,1150,1174,1160,0,0,0,0,0,0,0,0,0,0
1682932478.19971013,97228593,1181,1150,1173,1161,0,0,0,0,0,0,0,0,0,0
1682932478.29966998,97328553,1181,1150,1172,1162,0,0,0,0,0,0,0,0,0,0
1682932478.39963007,97428513,1181,1150,1179,1154,0,0,0,0,0,0,0,0,0,0
1682932478.49958992,97528473,1181,1150,1178,1154,0,0,0,0,0,0,0,0,0,0
1682932478.59955001,97628433,1181,1150,1178,1155,0,0,0,0,0,0,0,0,0,0
1682932478.69951010,97728393,1181,1150,1177,1155,0,0,0,0,0,0,0,0,0,0
1682932478.79946995,97828353,1088,1150,1086,1152,0,0,0,0,0,0,0,0,0,0
1682932478.89943004,97928313,1000,1000,1000,1000,0,0,0,0,0,0,0,0,0,0
1682932478.99939013,98028273,1000,1000,1000,1000,0,0,0,0,0,0,0,0,0,0
1682932479.09934998,98128233,1000,1000,1000,1000,0,0,0,0,0,0,0,0,0,0
1682932479.19931006,98228193,1000,1000,1000,1000,0,0,0,0,0,0,0,0,0,0
1682932479.30010295,98328986,1000,1000,1000,1000,0,0,0,0,0,0,0,0,0,0
1682932479.40006304,98428946,1000,1000,1000,1000,0,0,0,0,0,0,0,0,0,0
1682932479.50002313,98528906,1000,1000,1000,1000,0,0,0,0,0,0,0,0,0,0
1682932479.59998298,98628866,1000,1000,1000,1000,0,0,0,0,0,0,0,0,0,0
1682932479.69994307,98728826,1000,1000,1000,1000,0,0,0,0,0,0,0,0,0,0
1682932479.79990292,98828786,1000,1000,1000,1000,0,0,0,0,0,0,0,0,0,0
1682932479.89986300,98928746,1000,1000,1000,1000,0,0,0,0,0,0,0,0,0,0
1682932479.99982309,99028706,1000,1000,1000,1000,0,0,0,0,0,0,0,0,0,0
1682932480.09978294,99128666,1000,1000,1000,1000,0,0,0,0,0,0,0,0,0,0
1682932480.19974303,99228626,1000,1000,1000,1000,0,0,0,0,0,0,0,0,0,0
1682932480.29970312,99328586,1000,1000,1000,1000,0,0,0,0,0,0,0,0,0,0
1682932480.39966297,99428546,1000,1000,1000,1000,0,0,0,0,0,0,0,0,0,0
1682932480.49962306,99528506,1000,1000,1000,1000,0,0,0,0,0,0,0,0,0,0
1682932480.59958291,99628466,1000,1000,1000,1000,0,0,0,0,0,0,0,0,0,0
1682932480.69954300,99728426,1000,1000,1000,1000,0,0,0,0,0,0,0,0,0,0
1682932480.79950309,99828386,1000,1000,1000,1000,0,0,0,0,0,0,0,0,0,0
1682932480.89946294,99928346,1000,1000,1000,1000,0,0,0,0,0,0,0,0,0,0
1682932480.99942303,100028306,1000,1000,1000,1000,0,0,0,0,0,0,0,0,0,0
1682932481.09938312,100128266,1000,1000,1000,1000,0,0,0,0,0,0,0,0,0,0
1682932481.19934297,100228226,1000,1000,1000,1000,0,0,0,0,0,0,0,0,0,0
1682932481.29930305,100328186,1000,1000,1000,1000,0,0,0,0,0,0,0,0,0,0
1682932481.40009594,100428979,1000,1000,1000,1000,0,0,0,0,0,0,0,0,0,0
1682932481.50005603,100528939,1000,1000,1000,1000,0,0,0,0,0,0,0,0,0,0
1682932481.60001612,100628899,1000,1000,1000,1000,0,0,0,0,0,0,0,0,0,0
1682932481.69997597,100728859,1000,1000,1000,1000,0,0,0,0,0,0,0,0,0,0
1682932481.79993606,100828819,1000,1000,1000,1000,0,0,0,0,0,0,0,0,0,0
1682932481.89989591,100928779,1000,1000,1000,1000,0,0,0,0,0,0,0,0,0,0
1682932481.99985600,101028739,1000,1000,1000,1000,0,0,0,0,0,0,0,0,0,0
1682932482.09981608,101128699,1000,1000,1000,1000,0,0,0,0,0,0,0,0,0,0
1682932482.19977593,101228659,1000,1000,1000,1000,0,0,0,0,0,0,0,0,0,0
1682932482.29973602,101328619,1000,1000,1000,1000,0,0,0,0,0,0,0,0,0,0
1682932482.39969611,101428579,1000,1000,1000,1000,0,0,0,0,0,0,0,0,0,0
1682932482.49965596,101528539,1000,1000,1000,1000,0,0,0,0,0,0,0,0,0,0
1682932482.59961605,101628499,1000,1000,1000,1000,0,0,0,0,0,0,0,0,0,0
1682932482.69957590,101728459,1000,1000,1000,1000,0,0,0,0,0,0,0,0,0,0
1682932482.79953599,101828419,1000,1000,1000,1000,0,0,0,0,0,0,0,0,0,0
1682932482.89949608,101928379,1000,1000,1000,1000,0,0,0,0,0,0,0,0,0,0
1682932482.99945593,102028339,1000,1000,1000,1000,0,0,0,0,0,0,0,0,0,0
1682932483.09941602,102128299,1000,1000,1000,1000,0,0,0,0,0,0,0,0,0,0
1682932483.19937611,102228259,1000,1000,1000,1000,0,0,0,0,0,0,0,0,0,0
1682932483.29933596,102328219,1000,1000,1000,1000,0,0,0,0,0,0,0,0,0,0
1682932483.39929605,102428179,1000,1000,1000,1000,0,0,0,0,0,0,0,0,0,0
1682932483.50008893,102528972,1000,1000,1000,1000,0,0,0,0,0,0,0,0,0,0
1682932483.60004902,102628932,1000,1000,1000,1000,0,0,0,0,0,0,0,0,0,0
1682932483.70000911,102728892,1000,1000,1000,1000,0,0,0,0,0,0,0,0,0,0
1682932483.79996896,102828852,1000,1000,1000,1000,0,0,0,0,0,0,0,0,0,0
1682932483.89992905,102928812,1000,1000,1000,1000,0,0,0,0,0,0,0,0,0,0
1682932483.99988914,103028772,1000,1000,1000,1000,0,0,0,0,0,0,0,0,0,0
1682932484.09984899,103128732,1000,1000,1000,1000,0,0,0,0,0,0,0,0,0,0
1682932484.19980907,103228692,1000,1000,1000,1000,0,0,0,0,0,0,0,0,0,0
1682932484.29976892,103328652,1000,1000,1000,1000,0,0,0,0,0,0,0,0,0,0
1682932484.39972901,103428612,1000,1000,1000,1000,0,0,0,0,0,0,0,0,0,0
1682932484.49968910,103528572,1000,1000,1000,1000,0,0,0,0,0,0,0,0,0,0
1682932484.59964895,103628532,1000,1000,1000,1000,0,0,0,0,0,0,0,0,0,0
1682932484.69960904,103728492,1000,1000,1000,1000,0,0,0,0,0,0,0,0,0,0
1682932484.79956913,103828452,1000,1000,1000,1000,0,0,0,0,0,0,0,0,0,0
1682932484.89952898,103928412,1000,1000,1000,1000,0,0,0,0,0,0,0,0,0,0
1682932484.99948907,104028372,1000,1000,1000,1000,0,0,0,0,0,0,0,0,0,0
1682932485.09944892,104128332,1000,1000,1000,1000,0,0,0,0,0,0,0,0,0,0
1682932485.19940901,104228292,1000,1000,1000,1000,0,0,0,0,0,0,0,0,0,0
1682932485.29936910,104328252,1000,1000,1000,1000,0,0,0,0,0,0,0,0,0,0
1682932485.39932895,104428212,1000,1000,1000,1000,0,0,0,0,0,0,0,0,0,0
1682932485.49928904,104528172,1000,1000,1000,1000,0,0,0,0,0,0,0,0,0,0
1682932485.60008192,104628965,1000,1000,1000,1000,0,0,0,0,0,0,0,0,0,0
1682932485.70004201,104728925,1000,1000,1000,1000,0,0,0,0,0,0,0,0,0,0
1682932485.80000210,104828885,1000,1000,1000,1000,0,0,0,0,0,0,0,0,0,0
1682932485.89996195,104928845,1000,1000,1000,1000,0,0,0,0,0,0,0,0,0,0
1682932485.99992204,105028805,1000,1000,1000,1000,0,0,0,0,0,0,0,0,0,0
1682932486.09988213,105128765,1000,1000,1000,1000,0,0,0,0,0,0,0,0,0,0
1682932486.19984198,105228725,1000,1000,1000,1000,0,0,0,0,0,0,0,0,0,0
1682932486.29980206,105328685,1000,1000,1000,1000,0,0,0,0,0,0,0,0,0,0
1682932486.39976192,105428645,1000,1000,1000,1000,0,0,0,0,0,0,0,0,0,0
1682932486.49972200,105528605,1000,1000,1000,1000,0,0,0,0,0,0,0,0,0,0
1682932486.59968209,105628565,1000,1000,1000,1000,0,0,0,0,0,0,0,0,0,0
1682932486.69964194,105728525,1000,1000,1000,1000,0,0,0,0,0,0,0,0,0,0
1682932486.79960203,105828485,1000,1000,1000,1000,0,0,0,0,0,0,0,0,0,0
1682932486.89956212,105928445,1000,1000,1000,1000,0,0,0,0,0,0,0,0,0,0
1682932486.99952197,106028405,1000,1000,1000,1000,0,0,0,0,0,0,0,0,0,0
1682932487.09948206,106128365,1000,1000,1000,1000,0,0,0,0,0,0,0,0,0,0
1682932487.19944191,106228325,1000,1000,1000,1000,0,0,0,0,0,0,0,0,0,0
1682932487.29940200,106328285,1000,1000,1000,1000,0,0,0,0,0,0,0,0,0,0
1682932487.39936209,106428245,1000,1000,1000,1000,0,0,0,0,0,0,0,0,0,0
1682932487.49932194,106528205,1000,1000,1000,1000,0,0,0,0,0,0,0,0,0,0
1682932487.59928203,106628165,1000,1000,1000,1000,0,0,0,0,0,0,0,0,0,0
1682932487.70007491,106728958,1000,1000,1000,1000,0,0,0,0,0,0,0,0,0,0
1682932487.80003500,106828918,1000,1000,1000,1000,0,0,0,0,0,0,0,0,0,0
1682932487.89999509,106928878,1000,1000,1000,1000,0,0,0,0,0,0,0,0,0,0
1682932487.99995494,107028838,1000,1000,1000,1000,0,0,0,0,0,0,0,0,0,0
1682932488.09991503,107128798,1000,1000,1000,1000,0,0,0,0,0,0,0,0,0,0
1682932488.19987512,107228758,1000,1000,1000,1000,0,0,0,0,0,0,0,0,0,0
1682932488.29983497,107328718,1000,1000,1000,1000,0,0,0,0,0,0,0,0,0,0
1682932488.39979506,107428678,1000,1000,1000,1000,0,0,0,0,0,0,0,0,0,0
1682932488.49975491,107528638,1000,1000,1000,1000,0,0,0,0,0,0,0,0,0,0
1682932488.59971499,107628598,1000,1000,1000,1000,0,0,0,0,0,0,0,0,0,0
1682932488.69967508,107728558,1000,1000,1000,1000,0,0,0,0,0,0,0,0,0,0
1682932488.79963493,107828518,1000,1000,1000,1000,0,0,0,0,0,0,0,0,0,0
1682932488.89959502,107928478,1000,1000,1000,1000,0,0,0,0,0,0,0,0,0,0
1682932488.99955511,108028438,1000,1000,1000,1000,0,0,0,0,0,0,0,0,0,0
1682932489.09951496,108128398,1000,1000,1000,1000,0,0,0,0,0,0,0,0,0,0
1682932489.19947505,108228358,1000,1000,1000,1000,0,0,0,0,0,0,0,0,0,0
1682932489.29943514,108328318,1000,1000,1000,1000,0,0,0,0,0,0,0,0,0,0
1682932489.39939499,108428278,1000,1000,1000,1000,0,0,0,0,0,0,0,0,0,0
1682932489.49935508,108528238,1000,1000,1000,1000,0,0,0,0,0,0,0,0,0,0
1682932489.59931493,108628198,1000,1000,1000,1000,0,0,0,0,0,0,0,0,0,0
1682932489.69927502,108728158,1000,1000,1000,1000,0,0,0,0,0,0,0,0,0,0
1682932489.80006790,108828951,1000,1000,1000,1000,0,0,0,0,0,0,0,0,0,0
1682932489.90002799,108928911,1000,1000,1000,1000,0,0,0,0,0,0,0,0,0,0
1682932489.99998808,109028871,1000,1000,1000,1000,0,0,0,0,0,0,0,0,0,0
1682932490.09994793,109128831,1000,1000,1000,1000,0,0,0,0,0,0,0,0,0,0
1682932490.19990802,109228791,1000,1000,1000,1000,0,0,0,0,0,0,0,0,0,0
1682932490.29986811,109328751,1000,1000,1000,1000,0,0,0,0,0,0,0,0,0,0
1682932490.39982796,109428711,1000,1000,1000,1000,0,0,0,0,0,0,0,0,0,0
1682932490.49978805,109528671,1000,1000,1000,1000,0,0,0,0,0,0,0,0,0,0
1682932490.59974813,109628631,1000,1000,1000,1000,0,0,0,0,0,0,0,0,0,0
1682932490.69970798,109728591,1000,1000,1000,1000,0,0,0,0,0,0,0,0,0,0
1682932490.79966807,109828551,1000,1000,1000,1000,0,0,0,0,0,0,0,0,0,0
1682932490.89962792,109928511,1000,1000,1000,1000,0,0,0,0,0,0,0,0,0,0
1682932490.99958801,110028471,1000,1000,1000,1000,0,0,0,0,0,0,0,0,0,0
1682932491.09954810,110128431,1000,1000,1000,1000,0,0,0,0,0,0,0,0,0,0
1682932491.19950795,110228391,1000,1000,1000,1000,0,0,0,0,0,0,0,0,0,0
1682932491.29946804,110328351,1000,1000,1000,1000,0,0,0,0,0,0,0,0,0,0
1682932491.39942813,110428311,1000,1000,1000,1000,0,0,0,0,0,0,0,0,0,0
1682932491.49938798,110528271,1000,1000,1000,1000,0,0,0,0,0,0,0,0,0,0
1682932491.59934807,110628231,1000,1000,1000,1000,0,0,0,0,0,0,0,0,0,0
1682932491.69930792,110728191,1000,1000,1000,1000,0,0,0,0,0,0,0,0,0,0
1682932491.80010104,110828984,1000,1000,1000,1000,0,0,0,0,0,0,0,0,0,0
1682932491.90006113,110928944,1000,1000,1000,1000,0,0,0,0,0,0,0,0,0,0
1682932492.00002098,111028904,1000,1000,1000,1000,0,0,0,0,0,0,0,0,0,0
1682932492.09998107,111128864,1000,1000,1000,1000,0,0,0,0,0,0,0,0,0,0
1682932492.19994092,111228824,1000,1000,1000,1000,0,0,0,0,0,0,0,0,0,0
1682932492.29990101,111328784,1000,1000,1000,1000,0,0,0,0,0,0,0,0,0,0
1682932492.39986110,111428744,1000,1000,1000,1000,0,0,0,0,0,0,0,0,0,0
1682932492.49982095,111528704,1000,1000,1000,1000,0,0,0,0,0,0,0,0,0,0
1682932492.59978104,111628664,1000,1000,1000,1000,0,0,0,0,0,0,0,0,0,0
1682932492.69974113,111728624,1000,1000,1000,1000,0,0,0,0,0,0,0,0,0,0
1682932492.79970098,111828584,1000,1000,1000,1000,0,0,0,0,0,0,0,0,0,0
1682932492.89966106,111928544,1000,1000,1000,1000,0,0,0,0,0,0,0,0,0,0
1682932492.99962091,112028504,1000,1000,1000,1000,0,0,0,0,0,0,0,0,0,0
1682932493.09958100,112128464,1000,1000,1000,1000,0,0,0,0,0,0,0,0,0,0
1682932493.19954109,112228424,1000,1000,1000,1000,0,0,0,0,0,0,0,0,0,0
1682932493.29950094,112328384,1000,1000,1000,1000,0,0,0,0,0,0,0,0,0,0
1682932493.39946103,112428344,1000,1000,1000,1000,0,0,0,0,0,0,0,0,0,0
1682932493.49942112,112528304,1000,1000,1000,1000,0,0,0,0,0,0,0,0,0,0
1682932493.59938097,112628264,1000,1000,1000,1000,0,0,0,0,0,0,0,0,0,0
1682932493.69934106,112728224,1000,1000,1000,1000,0,0,0,0,0,0,0,0,0,0
1682932493.79930091,112828184,1000,1000,1000,1000,0,0,0,0,0,0,0,0,0,0
