timestamp,TimeUS,C1,C2,C3,C4,C5,C6,C7,C8,C9,C10,C11,C12,C13,C14
1682697432.79999995,81628169,1000,1000,1000,1000,0,0,0,0,0,0,0,0,0,0
1682697432.90079284,81728962,1000,1000,1000,1000,0,0,0,0,0,0,0,0,0,0
1682697433.00075293,81828922,1000,1000,1000,1000,0,0,0,0,0,0,0,0,0,0
1682697433.10071278,81928882,1000,1000,1000,1000,0,0,0,0,0,0,0,0,0,0
1682697433.20067286,82028842,1000,1000,1000,1000,0,0,0,0,0,0,0,0,0,0
1682697433.30063295,82128802,1000,1000,1000,1000,0,0,0,0,0,0,0,0,0,0
1682697433.40059280,82228762,1000,1000,1000,1000,0,0,0,0,0,0,0,0,0,0
1682697433.50055289,82328722,1000,1000,1000,1000,0,0,0,0,0,0,0,0,0,0
1682697433.60051298,82428682,1000,1000,1000,1000,0,0,0,0,0,0,0,0,0,0
1682697433.70047283,82528642,1000,1000,1000,1000,0,0,0,0,0,0,0,0,0,0
1682697433.80043292,82628602,1000,1000,1000,1000,0,0,0,0,0,0,0,0,0,0
1682697433.90039301,82728562,1000,1000,1000,1000,0,0,0,0,0,0,0,0,0,0
1682697434.00035286,82828522,1000,1000,1000,1000,0,0,0,0,0,0,0,0,0,0
1682697434.10031295,82928482,1000,1000,1000,1000,0,0,0,0,0,0,0,0,0,0
1682697434.20027280,83028442,1000,1000,1000,1000,0,0,0,0,0,0,0,0,0,0
1682697434.30023289,83128402,1000,1000,1000,1000,0,0,0,0,0,0,0,0,0,0
1682697434.40019298,83228362,1000,1000,1000,1000,0,0,0,0,0,0,0,0,0,0
1682697434.50015283,83328322,1000,1000,1000,1000,0,0,0,0,0,0,0,0,0,0
1682697434.60011292,83428282,1000,1000,1000,1000,0,0,0,0,0,0,0,0,0,0
1682697434.70007300,83528242,1000,1000,1000,1000,0,0,0,0,0,0,0,0,0,0
1682697434.80003285,83628202,1007,1007,1007,1007,0,0,0,0,0,0,0,0,0,0
1682697434.89999294,83728162,1037,1037,1037,1037,0,0,0,0,0,0,0,0,0,0
1682697435.00078583,83828955,1067,1067,1067,1067,0,0,0,0,0,0,0,0,0,0
1682697435.10074592,83928915,1097,1097,1097,1097,0,0,0,0,0,0,0,0,0,0
1682697435.20070601,84028875,1127,1127,1127,1127,0,0,0,0,0,0,0,0,0,0
1682697435.30066586,84128835,1224,1212,1212,1225,0,0,0,0,0,0,0,0,0,0
1682697435.40062594,84228795,1450,1442,1442,1451,0,0,0,0,0,0,0,0,0,0
1682697435.50058579,84328755,1620,1612,1612,1620,0,0,0,0,0,0,0,0,0,0
1682697435.60054588,84428715,1761,1754,1754,1761,0,0,0,0,0,0,0,0,0,0
1682697435.70050597,84528675,1885,1878,1878,1886,0,0,0,0,0,0,0,0,0,0
1682697435.80046582,84628635,1900,1895,1895,1900,0,0,0,0,0,0,0,0,0,0
1682697435.90042591,84728595,1784,1782,1782,1784,0,0,0,0,0,0,0,0,0,0
1682697436.00038600,84828555,1672,1674,1674,1673,0,0,0,0,0,0,0,0,0,0
1682697436.10034585,84928515,1628,1632,1632,1628,0,0,0,0,0,0,0,0,0,0
1682697436.20030594,85028475,1629,1632,1633,1629,0,0,0,0,0,0,0,0,0,0
1682697436.30026579,85128435,1636,1638,1638,1636,0,0,0,0,0,0,0,0,0,0
1682697436.40022588,85228395,1637,1638,1638,1637,0,0,0,0,0,0,0,0,0,0
1682697436.50018597,85328355,1630,1630,1629,1630,0,0,0,0,0,0,0,0,0,0
1682697436.60014582,85428315,1622,1621,1621,1623,0,0,0,0,0,0,0,0,0,0
1682697436.70010591,85528275,1617,1616,1615,1617,0,0,0,0,0,0,0,0,0,0
1682697436.80006599,85628235,1615,1613,1613,1615,0,0,0,0,0,0,0,0,0,0
1682697436.90002584,85728195,1614,1614,1613,1614,0,0,0,0,0,0,0,0,0,0
1682697436.99998593,85828155,1616,1616,1616,1615,0,0,0,0,0,0,0,0,0,0
1682697437.10077882,85928948,1593,1594,1594,1593,0,0,0,0,0,0,0,0,0,0
1682697437.20073891,86028908,1575,1575,1574,1576,0,0,0,0,0,0,0,0,0,0
1682697437.30069900,86128868,1563,1563,1561,1566,0,0,0,0,0,0,0,0,0,0
1682697437.40065885,86228828,1553,1552,1550,1555,0,0,0,0,0,0,0,0,0,0
1682697437.50061893,86328788,1544,1544,1543,1545,0,0,0,0,0,0,0,0,0,0
1682697437.60057878,86428748,1536,1536,1536,1536,0,0,0,0,0,0,0,0,0,0
1682697437.70053887,86528708,1528,1527,1529,1527,0,0,0,0,0,0,0,0,0,0
1682697437.80049896,86628668,1520,1520,1521,1519,0,0,0,0,0,0,0,0,0,0
1682697437.90045881,86728628,1516,1516,1517,1516,0,0,0,0,0,0,0,0,0,0
1682697438.00041890,86828588,1516,1516,1516,1516,0,0,0,0,0,0,0,0,0,0
1682697438.10037899,86928548,1517,1517,1517,1518,0,0,0,0,0,0,0,0,0,0
1682697438.20033884,87028508,1518,1518,1518,1519,0,0,0,0,0,0,0,0,0,0
1682697438.30029893,87128468,1520,1520,1519,1521,0,0,0,0,0,0,0,0,0,0
1682697438.40025878,87228428,1528,1529,1531,1525,0,0,0,0,0,0,0,0,0,0
1682697438.50021887,87328388,1537,1536,1542,1531,0,0,0,0,0,0,0,0,0,0
1682697438.60017896,87428348,1542,1542,1544,1540,0,0,0,0,0,0,0,0,0,0
1682697438.70013881,87528308,1547,1546,1545,1548,0,0,0,0,0,0,0,0,0,0
1682697438.80009890,87628268,1549,1549,1545,1553,0,0,0,0,0,0,0,0,0,0
1682697438.90005898,87728228,1551,1551,1547,1555,0,0,0,0,0,0,0,0,0,0
1682697439.00001884,87828188,1554,1554,1551,1557,0,0,0,0,0,0,0,0,0,0
1682697439.10081196,87928981,1558,1557,1557,1559,0,0,0,0,0,0,0,0,0,0
1682697439.20077181,88028941,1560,1560,1562,1558,0,0,0,0,0,0,0,0,0,0
1682697439.30073190,88128901,1562,1562,1565,1559,0,0,0,0,0,0,0,0,0,0
1682697439.40069199,88228861,1564,1565,1568,1561,0,0,0,0,0,0,0,0,0,0
1682697439.50065184,88328821,1566,1566,1568,1565,0,0,0,0,0,0,0,0,0,0
1682697439.60061193,88428781,1567,1567,1567,1567,0,0,0,0,0,0,0,0,0,0
1682697439.70057178,88528741,1567,1566,1565,1568,0,0,0,0,0,0,0,0,0,0
1682697439.80053186,88628701,1563,1563,1568,1572,0,0,0,0,0,0,0,0,0,0
1682697439.90049195,88728661,1563,1563,1569,1573,0,0,0,0,0,0,0,0,0,0
1682697440.00045180,88828621,1563,1563,1568,1570,0,0,0,0,0,0,0,0,0,0
1682697440.10041189,88928581,1565,1565,1569,1570,0,0,0,0,0,0,0,0,0,0
1682697440.20037198,89028541,1566,1567,1568,1568,0,0,0,0,0,0,0,0,0,0
1682697440.30033183,89128501,1568,1568,1568,1566,0,0,0,0,0,0,0,0,0,0
1682697440.40029192,89228461,1569,1569,1567,1566,0,0,0,0,0,0,0,0,0,0
1682697440.50025201,89328421,1571,1571,1567,1566,0,0,0,0,0,0,0,0,0,0
1682697440.60021186,89428381,1572,1572,1567,1567,0,0,0,0,0,0,0,0,0,0
1682697440.70017195,89528341,1573,1572,1567,1568,0,0,0,0,0,0,0,0,0,0
1682697440.80013180,89628301,1573,1573,1568,1569,0,0,0,0,0,0,0,0,0,0
1682697440.90009189,89728261,1572,1572,1569,1569,0,0,0,0,0,0,0,0,0,0
1682697441.00005198,89828221,1574,1573,1571,1571,0,0,0,0,0,0,0,0,0,0
1682697441.10001183,89928181,1573,1573,1572,1572,0,0,0,0,0,0,0,0,0,0
1682697441.20080495,90028974,1574,1574,1574,1573,0,0,0,0,0,0,0,0,0,0
1682697441.30076480,90128934,1574,1574,1576,1574,0,0,0,0,0,0,0,0,0,0
1682697441.40072489,90228894,1575,1575,1576,1575,0,0,0,0,0,0,0,0,0,0
1682697441.50068498,90328854,1575,1575,1577,1577,0,0,0,0,0,0,0,0,0,0
1682697441.60064483,90428814,1575,1575,1577,1577,0,0,0,0,0,0,0,0,0,0
1682697441.70060492,90528774,1575,1574,1576,1576,0,0,0,0,0,0,0,0,0,0
1682697441.80056500,90628734,1575,1576,1577,1577,0,0,0,0,0,0,0,0,0,0
1682697441.90052485,90728694,1576,1576,1577,1577,0,0,0,0,0,0,0,0,0,0
1682697442.00048494,90828654,1576,1577,1577,1577,0,0,0,0,0,0,0,0,0,0
1682697442.10044479,90928614,1578,1578,1578,1578,0,0,0,0,0,0,0,0,0,0
1682697442.20040488,91028574,1577,1577,1577,1577,0,0,0,0,0,0,0,0,0,0
1682697442.30036497,91128534,1577,1577,1577,1576,0,0,0,0,0,0,0,0,0,0
1682697442.40032482,91228494,1579,1579,1579,1578,0,0,0,0,0,0,0,0,0,0
1682697442.50028491,91328454,1578,1578,1577,1577,0,0,0,0,0,0,0,0,0,0
1682697442.60024500,91428414,1578,1578,1578,1577,0,0,0,0,0,0,0,0,0,0
1682697442.70020485,91528374,1578,1578,1578,1578,0,0,0,0,0,0,0,0,0,0
1682697442.80016494,91628334,1579,1579,1578,1579,0,0,0,0,0,0,0,0,0,0
1682697442.90012479,91728294,1578,1579,1578,1579,0,0,0,0,0,0,0,0,0,0
1682697443.00008488,91828254,1579,1579,1579,1578,0,0,0,0,0,0,0,0,0,0
1682697443.10004497,91928214,1580,1579,1580,1579,0,0,0,0,0,0,0,0,0,0
1682697443.20000482,92028174,1580,1579,1580,1579,0,0,0,0,0,0,0,0,0,0
1682697443.30079794,92128967,1578,1578,1578,1578,0,0,0,0,0,0,0,0,0,0
1682697443.40075779,92228927,1579,1578,1579,1579,0,0,0,0,0,0,0,0,0,0
1682697443.50071788,92328887,1579,1578,1579,1579,0,0,0,0,0,0,0,0,0,0
1682697443.60067797,92428847,1579,1579,1579,1579,0,0,0,0,0,0,0,0,0,0
1682697443.70063782,92528807,1579,1579,1580,1579,0,0,0,0,0,0,0,0,0,0
1682697443.80059791,92628767,1579,1579,1579,1579,0,0,0,0,0,0,0,0,0,0
1682697443.90055799,92728727,1579,1579,1579,1579,0,0,0,0,0,0,0,0,0,0
1682697444.00051785,92828687,1578,1579,1579,1579,0,0,0,0,0,0,0,0,0,0
1682697444.10047793,92928647,1578,1579,1579,1579,0,0,0,0,0,0,0,0,0,0
1682697444.20043778,93028607,1579,1580,1580,1579,0,0,0,0,0,0,0,0,0,0
1682697444.30039787,93128567,1580,1580,1580,1580,0,0,0,0,0,0,0,0,0,0
1682697444.40035796,93228527,1581,1580,1581,1580,0,0,0,0,0,0,0,0,0,0
1682697444.50031781,93328487,1579,1579,1579,1579,0,0,0,0,0,0,0,0,0,0
1682697444.60027790,93428447,1580,1580,1580,1579,0,0,0,0,0,0,0,0,0,0
1682697444.70023799,93528407,1581,1580,1580,1581,0,0,0,0,0,0,0,0,0,0
1682697444.80019784,93628367,1579,1579,1579,1579,0,0,0,0,0,0,0,0,0,0
1682697444.90015793,93728327,1580,1580,1580,1580,0,0,0,0,0,0,0,0,0,0
1682697445.00011778,93828287,1581,1582,1581,1581,0,0,0,0,0,0,0,0,0,0
1682697445.10007787,93928247,1580,1581,1580,1581,0,0,0,0,0,0,0,0,0,0
1682697445.20003796,94028207,1581,1581,1581,1581,0,0,0,0,0,0,0,0,0,0
1682697445.29999781,94128167,1581,1581,1581,1580,0,0,0,0,0,0,0,0,0,0
1682697445.40079093,94228960,1581,1581,1581,1581,0,0,0,0,0,0,0,0,0,0
1682697445.50075078,94328920,1581,1581,1581,1581,0,0,0,0,0,0,0,0,0,0
1682697445.60071087,94428880,1581,1581,1580,1581,0,0,0,0,0,0,0,0,0,0
1682697445.70067096,94528840,1580,1580,1580,1580,0,0,0,0,0,0,0,0,0,0
1682697445.80063081,94628800,1581,1581,1582,1581,0,0,0,0,0,0,0,0,0,0
1682697445.90059090,94728760,1581,1582,1582,1582,0,0,0,0,0,0,0,0,0,0
1682697446.00055099,94828720,1582,1583,1586,1578,0,0,0,0,0,0,0,0,0,0
1682697446.10051084,94928680,1580,1583,1588,1573,0,0,0,0,0,0,0,0,0,0
1682697446.20047092,95028640,1580,1583,1582,1574,0,0,0,0,0,0,0,0,0,0
1682697446.30043077,95128600,1578,1580,1572,1573,0,0,0,0,0,0,0,0,0,0
1682697446.40039086,95228560,1577,1579,1564,1570,0,0,0,0,0,0,0,0,0,0
1682697446.50035095,95328520,1577,1578,1557,1565,0,0,0,0,0,0,0,0,0,0
1682697446.60031080,95428480,1578,1579,1556,1561,0,0,0,0,0,0,0,0,0,0
1682697446.70027089,95528440,1578,1577,1554,1556,0,0,0,0,0,0,0,0,0,0
1682697446.80023098,95628400,1578,1577,1554,1553,0,0,0,0,0,0,0,0,0,0
1682697446.90019083,95728360,1578,1577,1555,1553,0,0,0,0,0,0,0,0,0,0
1682697447.00015092,95828320,1577,1577,1555,1552,0,0,0,0,0,0,0,0,0,0
1682697447.10011101,95928280,1576,1577,1555,1553,0,0,0,0,0,0,0,0,0,0
1682697447.20007086,96028240,1575,1577,1554,1553,0,0,0,0,0,0,0,0,0,0
1682697447.30003095,96128200,1575,1577,1553,1553,0,0,0,0,0,0,0,0,0,0
1682697447.39999080,96228160,1575,1576,1552,1552,0,0,0,0,0,0,0,0,0,0
1682697447.50078392,96328953,1576,1577,1550,1551,0,0,0,0,0,0,0,0,0,0
1682697447.60074401,96428913,1578,1579,1548,1548,0,0,0,0,0,0,0,0,0,0
1682697447.70070386,96528873,1580,1581,1546,1546,0,0,0,0,0,0,0,0,0,0
1682697447.80066395,96628833,1582,1583,1544,1543,0,0,0,0,0,0,0,0,0,0
1682697447.90062380,96728793,1585,1586,1541,1541,0,0,0,0,0,0,0,0,0,0
1682697448.00058389,96828753,1588,1589,1538,1538,0,0,0,0,0,0,0,0,0,0
1682697448.10054398,96928713,1591,1591,1536,1536,0,0,0,0,0,0,0,0,0,0
1682697448.20050383,97028673,1594,1594,1535,1535,0,0,0,0,0,0,0,0,0,0
1682697448.30046391,97128633,1595,1594,1535,1535,0,0,0,0,0,0,0,0,0,0
1682697448.40042400,97228593,1594,1595,1536,1538,0,0,0,0,0,0,0,0,0,0
1682697448.50038385,97328553,1593,1593,1538,1541,0,0,0,0,0,0,0,0,0,0
1682697448.60034394,97428513,1590,1589,1542,1545,0,0,0,0,0,0,0,0,0,0
1682697448.70030379,97528473,1585,1582,1549,1553,0,0,0,0,0,0,0,0,0,0
1682697448.80026388,97628433,1577,1575,1559,1562,0,0,0,0,0,0,0,0,0,0
1682697448.90022397,97728393,1568,1564,1570,1572,0,0,0,0,0,0,0,0,0,0
1682697449.00018382,97828353,1557,1553,1583,1584,0,0,0,0,0,0,0,0,0,0
1682697449.10014391,97928313,1546,1543,1595,1595,0,0,0,0,0,0,0,0,0,0
1682697449.20010400,98028273,1536,1536,1604,1604,0,0,0,0,0,0,0,0,0,0
1682697449.30006385,98128233,1531,1531,1612,1611,0,0,0,0,0,0,0,0,0,0
1682697449.40002394,98228193,1528,1530,1614,1613,0,0,0,0,0,0,0,0,0,0
1682697449.50081682,98328986,1529,1531,1613,1613,0,0,0,0,0,0,0,0,0,0
1682697449.60077691,98428946,1535,1537,1611,1611,0,0,0,0,0,0,0,0,0,0
1682697449.70073700,98528906,1542,1544,1605,1605,0,0,0,0,0,0,0,0,0,0
1682697449.80069685,98628866,1549,1551,1597,1597,0,0,0,0,0,0,0,0,0,0
1682697449.90065694,98728826,1559,1560,1591,1590,0,0,0,0,0,0,0,0,0,0
1682697450.00061679,98828786,1566,1567,1582,1581,0,0,0,0,0,0,0,0,0,0
1682697450.10057688,98928746,1575,1575,1577,1576,0,0,0,0,0,0,0,0,0,0
1682697450.20053697,99028706,1581,1580,1572,1571,0,0,0,0,0,0,0,0,0,0
1682697450.30049682,99128666,1585,1583,1567,1567,0,0,0,0,0,0,0,0,0,0
1682697450.40045691,99228626,1588,1586,1566,1566,0,0,0,0,0,0,0,0,0,0
1682697450.50041699,99328586,1588,1587,1566,1566,0,0,0,0,0,0,0,0,0,0
1682697450.60037684,99428546,1587,1586,1568,1568,0,0,0,0,0,0,0,0,0,0
1682697450.70033693,99528506,1584,1584,1570,1570,0,0,0,0,0,0,0,0,0,0
1682697450.80029678,99628466,1581,1581,1572,1572,0,0,0,0,0,0,0,0,0,0
1682697450.90025687,99728426,1561,1576,1557,1574,0,0,0,0,0,0,0,0,0,0
1682697451.00021696,99828386,1585,1568,1588,1570,0,0,0,0,0,0,0,0,0,0
1682697451.10017681,99928346,1605,1576,1613,1582,0,0,0,0,0,0,0,0,0,0
1682697451.20013690,100028306,1615,1587,1626,1596,0,0,0,0,0,0,0,0,0,0
1682697451.30009699,100128266,1610,1592,1622,1603,0,0,0,0,0,0,0,0,0,0
1682697451.40005684,100228226,1598,1595,1611,1606,0,0,0,0,0,0,0,0,0,0
1682697451.50001693,100328186,1585,1593,1598,1606,0,0,0,0,0,0,0,0,0,0
1682697451.60080981,100428979,1573,1588,1586,1602,0,0,0,0,0,0,0,0,0,0
1682697451.70076990,100528939,1568,1582,1581,1597,0,0,0,0,0,0,0,0,0,0
1682697451.80072999,100628899,1569,1578,1581,1592,0,0,0,0,0,0,0,0,0,0
1682697451.90068984,100728859,1573,1576,1582,1586,0,0,0,0,0,0,0,0,0,0
1682697452.00064993,100828819,1576,1576,1581,1580,0,0,0,0,0,0,0,0,0,0
1682697452.10060978,100928779,1579,1576,1579,1575,0,0,0,0,0,0,0,0,0,0
1682697452.20056987,101028739,1583,1580,1579,1574,0,0,0,0,0,0,0,0,0,0
1682697452.30052996,101128699,1584,1582,1576,1572,0,0,0,0,0,0,0,0,0,0
1682697452.40048981,101228659,1584,1583,1573,1572,0,0,0,0,0,0,0,0,0,0
1682697452.50044990,101328619,1583,1584,1572,1573,0,0,0,0,0,0,0,0,0,0
1682697452.60040998,101428579,1582,1584,1571,1573,0,0,0,0,0,0,0,0,0,0
1682697452.70036983,101528539,1579,1581,1569,1571,0,0,0,0,0,0,0,0,0,0
1682697452.80032992,101628499,1579,1580,1570,1572,0,0,0,0,0,0,0,0,0,0
1682697452.90028977,101728459,1579,1579,1572,1573,0,0,0,0,0,0,0,0,0,0
1682697453.00024986,101828419,1578,1577,1574,1574,0,0,0,0,0,0,0,0,0,0
1682697453.10020995,101928379,1577,1576,1575,1574,0,0,0,0,0,0,0,0,0,0
1682697453.20016980,102028339,1577,1576,1577,1576,0,0,0,0,0,0,0,0,0,0
1682697453.30012989,102128299,1576,1577,1578,1577,0,0,0,0,0,0,0,0,0,0
1682697453.40008998,102228259,1576,1576,1579,1578,0,0,0,0,0,0,0,0,0,0
1682697453.50004983,102328219,1575,1576,1578,1578,0,0,0,0,0,0,0,0,0,0
1682697453.60000992,102428179,1577,1577,1579,1580,0,0,0,0,0,0,0,0,0,0
1682697453.70080280,102528972,1577,1576,1579,1579,0,0,0,0,0,0,0,0,0,0
1682697453.80076289,102628932,1576,1577,1578,1579,0,0,0,0,0,0,0,0,0,0
1682697453.90072298,102728892,1577,1577,1578,1578,0,0,0,0,0,0,0,0,0,0
1682697454.00068283,102828852,1578,1579,1584,1573,0,0,0,0,0,0,0,0,0,0
1682697454.10064292,102928812,1578,1580,1584,1569,0,0,0,0,0,0,0,0,0,0
1682697454.20060301,103028772,1578,1581,1577,1570,0,0,0,0,0,0,0,0,0,0
1682697454.30056286,103128732,1577,1580,1569,1569,0,0,0,0,0,0,0,0,0,0
1682697454.40052295,103228692,1576,1579,1561,1567,0,0,0,0,0,0,0,0,0,0
1682697454.50048280,103328652,1576,1578,1555,1563,0,0,0,0,0,0,0,0,0,0
1682697454.60044289,103428612,1578,1578,1553,1558,0,0,0,0,0,0,0,0,0,0
1682697454.70040298,103528572,1579,1577,1552,1554,0,0,0,0,0,0,0,0,0,0
1682697454.80036283,103628532,1580,1578,1553,1552,0,0,0,0,0,0,0,0,0,0
1682697454.90032291,103728492,1580,1579,1554,1552,0,0,0,0,0,0,0,0,0,0
1682697455.00028300,103828452,1579,1579,1554,1551,0,0,0,0,0,0,0,0,0,0
1682697455.10024285,103928412,1578,1579,1554,1552,0,0,0,0,0,0,0,0,0,0
1682697455.20020294,104028372,1577,1579,1553,1552,0,0,0,0,0,0,0,0,0,0
1682697455.30016279,104128332,1576,1577,1552,1552,0,0,0,0,0,0,0,0,0,0
1682697455.40012288,104228292,1576,1577,1551,1551,0,0,0,0,0,0,0,0,0,0
1682697455.50008297,104328252,1576,1578,1550,1550,0,0,0,0,0,0,0,0,0,0
1682697455.60004282,104428212,1578,1580,1549,1550,0,0,0,0,0,0,0,0,0,0
1682697455.70000291,104528172,1580,1581,1547,1548,0,0,0,0,0,0,0,0,0,0
1682697455.80079579,104628965,1582,1583,1546,1546,0,0,0,0,0,0,0,0,0,0
1682697455.90075588,104728925,1584,1584,1544,1544,0,0,0,0,0,0,0,0,0,0
1682697456.00071597,104828885,1586,1587,1543,1543,0,0,0,0,0,0,0,0,0,0
1682697456.10067582,104928845,1588,1588,1543,1543,0,0,0,0,0,0,0,0,0,0
1682697456.20063591,105028805,1589,1590,1543,1543,0,0,0,0,0,0,0,0,0,0
1682697456.30059600,105128765,1589,1589,1542,1544,0,0,0,0,0,0,0,0,0,0
1682697456.40055585,105228725,1589,1589,1544,1546,0,0,0,0,0,0,0,0,0,0
1682697456.50051594,105328685,1587,1586,1547,1549,0,0,0,0,0,0,0,0,0,0
1682697456.60047579,105428645,1583,1582,1552,1554,0,0,0,0,0,0,0,0,0,0
1682697456.70043588,105528605,1578,1575,1559,1562,0,0,0,0,0,0,0,0,0,0
1682697456.80039597,105628565,1571,1568,1567,1569,0,0,0,0,0,0,0,0,0,0
1682697456.90035582,105728525,1564,1560,1577,1579,0,0,0,0,0,0,0,0,0,0
1682697457.00031590,105828485,1555,1553,1586,1587,0,0,0,0,0,0,0,0,0,0
1682697457.10027599,105928445,1548,1546,1594,1595,0,0,0,0,0,0,0,0,0,0
1682697457.20023584,106028405,1544,1544,1602,1601,0,0,0,0,0,0,0,0,0,0
1682697457.30019593,106128365,1539,1541,1606,1604,0,0,0,0,0,0,0,0,0,0
1682697457.40015578,106228325,1539,1541,1607,1605,0,0,0,0,0,0,0,0,0,0
1682697457.50011587,106328285,1542,1543,1606,1605,0,0,0,0,0,0,0,0,0,0
1682697457.60007596,106428245,1547,1549,1604,1603,0,0,0,0,0,0,0,0,0,0
1682697457.70003581,106528205,1552,1553,1599,1598,0,0,0,0,0,0,0,0,0,0
1682697457.79999590,106628165,1559,1559,1593,1593,0,0,0,0,0,0,0,0,0,0
1682697457.90078878,106728958,1565,1565,1588,1587,0,0,0,0,0,0,0,0,0,0
1682697458.00074887,106828918,1572,1572,1583,1583,0,0,0,0,0,0,0,0,0,0
1682697458.10070896,106928878,1576,1575,1577,1577,0,0,0,0,0,0,0,0,0,0
1682697458.20066881,107028838,1581,1580,1575,1575,0,0,0,0,0,0,0,0,0,0
1682697458.30062890,107128798,1584,1582,1572,1572,0,0,0,0,0,0,0,0,0,0
1682697458.40058899,107228758,1584,1583,1570,1570,0,0,0,0,0,0,0,0,0,0
1682697458.50054884,107328718,1585,1583,1569,1570,0,0,0,0,0,0,0,0,0,0
1682697458.60050893,107428678,1584,1583,1571,1571,0,0,0,0,0,0,0,0,0,0
1682697458.70046878,107528638,1582,1582,1572,1573,0,0,0,0,0,0,0,0,0,0
1682697458.80042887,107628598,1581,1580,1575,1574,0,0,0,0,0,0,0,0,0,0
1682697458.90038896,107728558,1578,1579,1577,1576,0,0,0,0,0,0,0,0,0,0
1682697459.00034881,107828518,1577,1577,1579,1578,0,0,0,0,0,0,0,0,0,0
1682697459.10030890,107928478,1575,1575,1580,1580,0,0,0,0,0,0,0,0,0,0
1682697459.20026898,108028438,1574,1575,1582,1582,0,0,0,0,0,0,0,0,0,0
1682697459.30022883,108128398,1574,1575,1583,1582,0,0,0,0,0,0,0,0,0,0
1682697459.40018892,108228358,1574,1575,1583,1583,0,0,0,0,0,0,0,0,0,0
1682697459.50014901,108328318,1575,1575,1583,1583,0,0,0,0,0,0,0,0,0,0
1682697459.60010886,108428278,1576,1576,1582,1582,0,0,0,0,0,0,0,0,0,0
1682697459.70006895,108528238,1576,1577,1582,1581,0,0,0,0,0,0,0,0,0,0
1682697459.80002880,108628198,1578,1578,1581,1581,0,0,0,0,0,0,0,0,0,0
1682697459.89998889,108728158,1578,1577,1580,1579,0,0,0,0,0,0,0,0,0,0
1682697460.00078177,108828951,1579,1578,1578,1578,0,0,0,0,0,0,0,0,0,0
1682697460.10074186,108928911,1579,1580,1578,1578,0,0,0,0,0,0,0,0,0,0
1682697460.20070195,109028871,1580,1580,1578,1578,0,0,0,0,0,0,0,0,0,0
1682697460.30066180,109128831,1581,1581,1578,1578,0,0,0,0,0,0,0,0,0,0
1682697460.40062189,109228791,1580,1580,1577,1577,0,0,0,0,0,0,0,0,0,0
1682697460.50058198,109328751,1581,1580,1578,1577,0,0,0,0,0,0,0,0,0,0
1682697460.60054183,109428711,1580,1580,1578,1578,0,0,0,0,0,0,0,0,0,0
1682697460.70050192,109528671,1581,1580,1579,1579,0,0,0,0,0,0,0,0,0,0
1682697460.80046201,109628631,1580,1580,1579,1579,0,0,0,0,0,0,0,0,0,0
1682697460.90042186,109728591,1580,1580,1580,1579,0,0,0,0,0,0,0,0,0,0
1682697461.00038195,109828551,1579,1580,1580,1580,0,0,0,0,0,0,0,0,0,0
1682697461.10034180,109928511,1579,1580,1580,1580,0,0,0,0,0,0,0,0,0,0
1682697461.20030189,110028471,1580,1579,1580,1581,0,0,0,0,0,0,0,0,0,0
1682697461.30026197,110128431,1580,1580,1581,1581,0,0,0,0,0,0,0,0,0,0
1682697461.40022182,110228391,1581,1581,1582,1582,0,0,0,0,0,0,0,0,0,0
1682697461.50018191,110328351,1580,1581,1581,1581,0,0,0,0,0,0,0,0,0,0
1682697461.60014200,110428311,1581,1581,1582,1582,0,0,0,0,0,0,0,0,0,0
1682697461.70010185,110528271,1580,1580,1581,1581,0,0,0,0,0,0,0,0,0,0
1682697461.80006194,110628231,1580,1580,1580,1580,0,0,0,0,0,0,0,0,0,0
1682697461.90002179,110728191,1581,1581,1581,1581,0,0,0,0,0,0,0,0,0,0
1682697462.00081491,110828984,1581,1581,1581,1581,0,0,0,0,0,0,0,0,0,0
1682697462.10077500,110928944,1581,1582,1581,1581,0,0,0,0,0,0,0,0,0,0
1682697462.20073485,111028904,1582,1582,1581,1582,0,0,0,0,0,0,0,0,0,0
1682697462.30069494,111128864,1582,1583,1585,1578,0,0,0,0,0,0,0,0,0,0
1682697462.40065479,111228824,1582,1584,1588,1573,0,0,0,0,0,0,0,0,0,0
1682697462.50061488,111328784,1581,1583,1582,1573,0,0,0,0,0,0,0,0,0,0
1682697462.60057497,111428744,1580,1582,1573,1573,0,0,0,0,0,0,0,0,0,0
1682697462.70053482,111528704,1578,1580,1564,1570,0,0,0,0,0,0,0,0,0,0
1682697462.80049491,111628664,1578,1579,1559,1566,0,0,0,0,0,0,0,0,0,0
1682697462.90045500,111728624,1577,1578,1555,1561,0,0,0,0,0,0,0,0,0,0
1682697463.00041485,111828584,1579,1578,1554,1557,0,0,0,0,0,0,0,0,0,0
1682697463.10037494,111928544,1579,1578,1554,1554,0,0,0,0,0,0,0,0,0,0
1682697463.20033479,112028504,1579,1578,1555,1553,0,0,0,0,0,0,0,0,0,0
1682697463.30029488,112128464,1579,1578,1555,1553,0,0,0,0,0,0,0,0,0,0
1682697463.40025496,112228424,1577,1578,1556,1553,0,0,0,0,0,0,0,0,0,0
1682697463.50021482,112328384,1577,1577,1555,1553,0,0,0,0,0,0,0,0,0,0
1682697463.60017490,112428344,1575,1577,1554,1553,0,0,0,0,0,0,0,0,0,0
1682697463.70013499,112528304,1575,1576,1552,1552,0,0,0,0,0,0,0,0,0,0
1682697463.80009484,112628264,1575,1577,1550,1551,0,0,0,0,0,0,0,0,0,0
1682697463.90005493,112728224,1577,1579,1550,1550,0,0,0,0,0,0,0,0,0,0
1682697464.00001478,112828184,1580,1581,1549,1549,0,0,0,0,0,0,0,0,0,0
1682697464.10080791,112928977,1582,1583,1547,1546,0,0,0,0,0,0,0,0,0,0
1682697464.20076799,113028937,1585,1586,1545,1544,0,0,0,0,0,0,0,0,0,0
1682697464.30072784,113128897,1588,1588,1543,1543,0,0,0,0,0,0,0,0,0,0
1682697464.40068793,113228857,1589,1590,1540,1540,0,0,0,0,0,0,0,0,0,0
1682697464.50064778,113328817,1591,1591,1538,1538,0,0,0,0,0,0,0,0,0,0
1682697464.60060787,113428777,1593,1593,1537,1539,0,0,0,0,0,0,0,0,0,0
1682697464.70056796,113528737,1594,1594,1538,1540,0,0,0,0,0,0,0,0,0,0
1682697464.80052781,113628697,1593,1593,1540,1543,0,0,0,0,0,0,0,0,0,0
1682697464.90048790,113728657,1591,1589,1544,1547,0,0,0,0,0,0,0,0,0,0
1682697465.00044799,113828617,1586,1584,1551,1554,0,0,0,0,0,0,0,0,0,0
1682697465.10040784,113928577,1579,1576,1560,1563,0,0,0,0,0,0,0,0,0,0
1682697465.20036793,114028537,1570,1565,1570,1572,0,0,0,0,0,0,0,0,0,0
1682697465.30032778,114128497,1560,1556,1582,1583,0,0,0,0,0,0,0,0,0,0
1682697465.40028787,114228457,1550,1548,1592,1593,0,0,0,0,0,0,0,0,0,0
1682697465.50024796,114328417,1542,1541,1603,1602,0,0,0,0,0,0,0,0,0,0
1682697465.60020781,114428377,1536,1537,1610,1608,0,0,0,0,0,0,0,0,0,0
1682697465.70016789,114528337,1533,1535,1612,1610,0,0,0,0,0,0,0,0,0,0
1682697465.80012798,114628297,1534,1537,1613,1611,0,0,0,0,0,0,0,0,0,0
1682697465.90008783,114728257,1538,1540,1610,1609,0,0,0,0,0,0,0,0,0,0
1682697466.00004792,114828217,1544,1546,1606,1605,0,0,0,0,0,0,0,0,0,0
1682697466.10000801,114928177,1552,1552,1600,1599,0,0,0,0,0,0,0,0,0,0
1682697466.20080090,115028970,1559,1559,1592,1592,0,0,0,0,0,0,0,0,0,0
1682697466.30076098,115128930,1567,1567,1586,1586,0,0,0,0,0,0,0,0,0,0
1682697466.40072083,115228890,1572,1572,1578,1579,0,0,0,0,0,0,0,0,0,0
1682697466.50068092,115328850,1578,1577,1572,1573,0,0,0,0,0,0,0,0,0,0
1682697466.60064077,115428810,1583,1581,1569,1570,0,0,0,0,0,0,0,0,0,0
1682697466.70060086,115528770,1586,1583,1567,1568,0,0,0,0,0,0,0,0,0,0
1682697466.80056095,115628730,1586,1584,1565,1566,0,0,0,0,0,0,0,0,0,0
1682697466.90052080,115728690,1585,1584,1566,1567,0,0,0,0,0,0,0,0,0,0
1682697467.00048089,115828650,1584,1584,1569,1569,0,0,0,0,0,0,0,0,0,0
1682697467.10044098,115928610,1583,1582,1572,1572,0,0,0,0,0,0,0,0,0,0
1682697467.20040083,116028570,1580,1580,1575,1574,0,0,0,0,0,0,0,0,0,0
1682697467.30036092,116128530,1578,1578,1578,1577,0,0,0,0,0,0,0,0,0,0
1682697467.40032101,116228490,1575,1576,1580,1580,0,0,0,0,0,0,0,0,0,0
1682697467.50028086,116328450,1574,1575,1582,1582,0,0,0,0,0,0,0,0,0,0
1682697467.60024095,116428410,1573,1574,1583,1583,0,0,0,0,0,0,0,0,0,0
1682697467.70020080,116528370,1573,1574,1584,1584,0,0,0,0,0,0,0,0,0,0
1682697467.80016088,116628330,1573,1574,1584,1584,0,0,0,0,0,0,0,0,0,0
1682697467.90012097,116728290,1574,1575,1584,1584,0,0,0,0,0,0,0,0,0,0
1682697468.00008082,116828250,1576,1576,1583,1583,0,0,0,0,0,0,0,0,0,0
1682697468.10004091,116928210,1576,1577,1582,1581,0,0,0,0,0,0,0,0,0,0
1682697468.20000100,117028170,1579,1579,1582,1581,0,0,0,0,0,0,0,0,0,0
1682697468.30079389,117128963,1579,1579,1580,1580,0,0,0,0,0,0,0,0,0,0
1682697468.40075397,117228923,1581,1580,1579,1579,0,0,0,0,0,0,0,0,0,0
1682697468.50071383,117328883,1581,1581,1578,1578,0,0,0,0,0,0,0,0,0,0
1682697468.60067391,117428843,1581,1581,1577,1577,0,0,0,0,0,0,0,0,0,0
1682697468.70063400,117528803,1583,1582,1578,1578,0,0,0,0,0,0,0,0,0,0
1682697468.80059385,117628763,1582,1582,1578,1578,0,0,0,0,0,0,0,0,0,0
1682697468.90055394,117728723,1580,1580,1577,1577,0,0,0,0,0,0,0,0,0,0
1682697469.00051379,117828683,1581,1581,1579,1579,0,0,0,0,0,0,0,0,0,0
1682697469.10047388,117928643,1581,1580,1579,1579,0,0,0,0,0,0,0,0,0,0
1682697469.20043397,118028603,1581,1580,1580,1580,0,0,0,0,0,0,0,0,0,0
1682697469.30039382,118128563,1580,1581,1581,1581,0,0,0,0,0,0,0,0,0,0
1682697469.40035391,118228523,1579,1580,1580,1580,0,0,0,0,0,0,0,0,0,0
1682697469.50031400,118328483,1579,1579,1581,1581,0,0,0,0,0,0,0,0,0,0
1682697469.60027385,118428443,1579,1579,1581,1581,0,0,0,0,0,0,0,0,0,0
1682697469.70023394,118528403,1580,1580,1582,1582,0,0,0,0,0,0,0,0,0,0
1682697469.80019379,118628363,1580,1580,1581,1581,0,0,0,0,0,0,0,0,0,0
1682697469.90015388,118728323,1580,1580,1581,1581,0,0,0,0,0,0,0,0,0,0
1682697470.00011396,118828283,1580,1580,1581,1581,0,0,0,0,0,0,0,0,0,0
1682697470.10007381,118928243,1580,1580,1580,1581,0,0,0,0,0,0,0,0,0,0
1682697470.20003390,119028203,1580,1581,1581,1580,0,0,0,0,0,0,0,0,0,0
1682697470.29999399,119128163,1581,1582,1587,1573,0,0,0,0,0,0,0,0,0,0
1682697470.40078688,119228956,1581,1581,1586,1573,0,0,0,0,0,0,0,0,0,0
1682697470.50074697,119328916,1579,1579,1579,1576,0,0,0,0,0,0,0,0,0,0
1682697470.60070682,119428876,1575,1574,1571,1575,0,0,0,0,0,0,0,0,0,0
1682697470.70066690,119528836,1571,1571,1566,1573,0,0,0,0,0,0,0,0,0,0
1682697470.80062699,119628796,1570,1569,1565,1572,0,0,0,0,0,0,0,0,0,0
1682697470.90058684,119728756,1567,1567,1564,1569,0,0,0,0,0,0,0,0,0,0
1682697471.00054693,119828716,1566,1566,1565,1566,0,0,0,0,0,0,0,0,0,0
1682697471.10050678,119928676,1566,1566,1566,1565,0,0,0,0,0,0,0,0,0,0
1682697471.20046687,120028636,1564,1565,1566,1563,0,0,0,0,0,0,0,0,0,0
1682697471.30042696,120128596,1565,1565,1567,1564,0,0,0,0,0,0,0,0,0,0
1682697471.40038681,120228556,1565,1564,1566,1564,0,0,0,0,0,0,0,0,0,0
1682697471.50034690,120328516,1564,1564,1566,1565,0,0,0,0,0,0,0,0,0,0
1682697471.60030699,120428476,1562,1562,1563,1563,0,0,0,0,0,0,0,0,0,0
1682697471.70026684,120528436,1563,1562,1563,1564,0,0,0,0,0,0,0,0,0,0
1682697471.80022693,120628396,1561,1562,1562,1562,0,0,0,0,0,0,0,0,0,0
1682697471.90018678,120728356,1561,1561,1562,1562,0,0,0,0,0,0,0,0,0,0
1682697472.00014687,120828316,1562,1561,1562,1562,0,0,0,0,0,0,0,0,0,0
1682697472.10010695,120928276,1561,1560,1561,1560,0,0,0,0,0,0,0,0,0,0
1682697472.20006680,121028236,1559,1559,1560,1558,0,0,0,0,0,0,0,0,0,0
1682697472.30002689,121128196,1559,1558,1559,1558,0,0,0,0,0,0,0,0,0,0
1682697472.39998698,121228156,1558,1558,1558,1557,0,0,0,0,0,0,0,0,0,0
1682697472.50077987,121328949,1557,1557,1557,1557,0,0,0,0,0,0,0,0,0,0
1682697472.60073996,121428909,1557,1557,1557,1556,0,0,0,0,0,0,0,0,0,0
1682697472.70069981,121528869,1557,1557,1557,1556,0,0,0,0,0,0,0,0,0,0
1682697472.80065989,121628829,1557,1557,1558,1556,0,0,0,0,0,0,0,0,0,0
1682697472.90061998,121728789,1559,1558,1560,1557,0,0,0,0,0,0,0,0,0,0
1682697473.00057983,121828749,1559,1558,1560,1557,0,0,0,0,0,0,0,0,0,0
1682697473.10053992,121928709,1559,1559,1559,1560,0,0,0,0,0,0,0,0,0,0
1682697473.20050001,122028669,1560,1560,1558,1563,0,0,0,0,0,0,0,0,0,0
1682697473.30045986,122128629,1560,1560,1557,1564,0,0,0,0,0,0,0,0,0,0
1682697473.40041995,122228589,1562,1562,1559,1565,0,0,0,0,0,0,0,0,0,0
1682697473.50037980,122328549,1563,1563,1561,1565,0,0,0,0,0,0,0,0,0,0
1682697473.60033989,122428509,1563,1563,1562,1563,0,0,0,0,0,0,0,0,0,0
1682697473.70029998,122528469,1563,1563,1564,1561,0,0,0,0,0,0,0,0,0,0
1682697473.80025983,122628429,1563,1562,1564,1560,0,0,0,0,0,0,0,0,0,0
1682697473.90021992,122728389,1561,1560,1562,1559,0,0,0,0,0,0,0,0,0,0
1682697474.00018001,122828349,1559,1559,1556,1561,0,0,0,0,0,0,0,0,0,0
1682697474.10013986,122928309,1555,1555,1552,1558,0,0,0,0,0,0,0,0,0,0
1682697474.20009995,123028269,1551,1550,1549,1553,0,0,0,0,0,0,0,0,0,0
1682697474.30005980,123128229,1545,1545,1545,1546,0,0,0,0,0,0,0,0,0,0
1682697474.40001988,123228189,1538,1538,1539,1537,0,0,0,0,0,0,0,0,0,0
1682697474.50081301,123328982,1532,1532,1533,1531,0,0,0,0,0,0,0,0,0,0
1682697474.60077286,123428942,1523,1523,1524,1522,0,0,0,0,0,0,0,0,0,0
1682697474.70073295,123528902,1520,1521,1521,1520,0,0,0,0,0,0,0,0,0,0
1682697474.80069280,123628862,1519,1519,1519,1520,0,0,0,0,0,0,0,0,0,0
1682697474.90065289,123728822,1520,1521,1520,1521,0,0,0,0,0,0,0,0,0,0
1682697475.00061297,123828782,1523,1523,1522,1524,0,0,0,0,0,0,0,0,0,0
1682697475.10057282,123928742,1526,1526,1526,1527,0,0,0,0,0,0,0,0,0,0
1682697475.20053291,124028702,1530,1530,1530,1530,0,0,0,0,0,0,0,0,0,0
1682697475.30049300,124128662,1535,1535,1535,1535,0,0,0,0,0,0,0,0,0,0
1682697475.40045285,124228622,1539,1539,1539,1538,0,0,0,0,0,0,0,0,0,0
1682697475.50041294,124328582,1541,1541,1541,1540,0,0,0,0,0,0,0,0,0,0
1682697475.60037279,124428542,1543,1542,1543,1542,0,0,0,0,0,0,0,0,0,0
1682697475.70033288,124528502,1544,1544,1544,1544,0,0,0,0,0,0,0,0,0,0
1682697475.80029297,124628462,1545,1544,1545,1544,0,0,0,0,0,0,0,0,0,0
1682697475.90025282,124728422,1545,1544,1545,1545,0,0,0,0,0,0,0,0,0,0
1682697476.00021291,124828382,1546,1546,1546,1545,0,0,0,0,0,0,0,0,0,0
1682697476.10017300,124928342,1546,1546,1546,1546,0,0,0,0,0,0,0,0,0,0
1682697476.20013285,125028302,1546,1547,1547,1546,0,0,0,0,0,0,0,0,0,0
1682697476.30009294,125128262,1547,1546,1547,1547,0,0,0,0,0,0,0,0,0,0
1682697476.40005279,125228222,1546,1546,1546,1546,0,0,0,0,0,0,0,0,0,0
1682697476.50001287,125328182,1546,1546,1546,1546,0,0,0,0,0,0,0,0,0,0
1682697476.60080600,125428975,1545,1545,1545,1545,0,0,0,0,0,0,0,0,0,0
1682697476.70076585,125528935,1544,1544,1545,1544,0,0,0,0,0,0,0,0,0,0
1682697476.80072594,125628895,1544,1545,1545,1545,0,0,0,0,0,0,0,0,0,0
1682697476.90068579,125728855,1544,1544,1544,1544,0,0,0,0,0,0,0,0,0,0
1682697477.00064588,125828815,1545,1545,1545,1545,0,0,0,0,0,0,0,0,0,0
1682697477.10060596,125928775,1544,1543,1543,1544,0,0,0,0,0,0,0,0,0,0
1682697477.20056581,126028735,1544,1544,1544,1544,0,0,0,0,0,0,0,0,0,0
1682697477.30052590,126128695,1545,1545,1545,1545,0,0,0,0,0,0,0,0,0,0
1682697477.40048599,126228655,1544,1544,1544,1544,0,0,0,0,0,0,0,0,0,0
1682697477.50044584,126328615,1544,1544,1544,1544,0,0,0,0,0,0,0,0,0,0
1682697477.60040593,126428575,1545,1545,1545,1545,0,0,0,0,0,0,0,0,0,0
1682697477.70036578,126528535,1544,1544,1544,1544,0,0,0,0,0,0,0,0,0,0
1682697477.80032587,126628495,1544,1544,1544,1543,0,0,0,0,0,0,0,0,0,0
1682697477.90028596,126728455,1544,1543,1544,1544,0,0,0,0,0,0,0,0,0,0
1682697478.00024581,126828415,1543,1543,1543,1543,0,0,0,0,0,0,0,0,0,0
1682697478.10020590,126928375,1544,1544,1544,1544,0,0,0,0,0,0,0,0,0,0
1682697478.20016599,127028335,1544,1544,1544,1544,0,0,0,0,0,0,0,0,0,0
1682697478.30012584,127128295,1544,1545,1544,1545,0,0,0,0,0,0,0,0,0,0
1682697478.40008593,127228255,1544,1544,1544,1544,0,0,0,0,0,0,0,0,0,0
1682697478.50004578,127328215,1544,1543,1543,1544,0,0,0,0,0,0,0,0,0,0
1682697478.60000587,127428175,1544,1544,1544,1543,0,0,0,0,0,0,0,0,0,0
1682697478.70079899,127528968,1543,1543,1543,1543,0,0,0,0,0,0,0,0,0,0
1682697478.80075884,127628928,1544,1544,1544,1544,0,0,0,0,0,0,0,0,0,0
1682697478.90071893,127728888,1545,1544,1544,1545,0,0,0,0,0,0,0,0,0,0
1682697479.00067878,127828848,1544,1545,1544,1544,0,0,0,0,0,0,0,0,0,0
1682697479.10063887,127928808,1544,1544,1544,1544,0,0,0,0,0,0,0,0,0,0
1682697479.20059896,128028768,1544,1544,1544,1544,0,0,0,0,0,0,0,0,0,0
1682697479.30055881,128128728,1544,1543,1543,1544,0,0,0,0,0,0,0,0,0,0
1682697479.40051889,128228688,1543,1544,1544,1543,0,0,0,0,0,0,0,0,0,0
1682697479.50047898,128328648,1544,1543,1543,1543,0,0,0,0,0,0,0,0,0,0
1682697479.60043883,128428608,1543,1544,1544,1543,0,0,0,0,0,0,0,0,0,0
1682697479.70039892,128528568,1544,1543,1543,1544,0,0,0,0,0,0,0,0,0,0
1682697479.80035901,128628528,1544,1544,1544,1543,0,0,0,0,0,0,0,0,0,0
1682697479.90031886,128728488,1544,1543,1544,1544,0,0,0,0,0,0,0,0,0,0
1682697480.00027895,128828448,1545,1544,1545,1545,0,0,0,0,0,0,0,0,0,0
1682697480.10023880,128928408,1544,1544,1544,1544,0,0,0,0,0,0,0,0,0,0
1682697480.20019889,129028368,1544,1544,1544,1544,0,0,0,0,0,0,0,0,0,0
1682697480.30015898,129128328,1544,1545,1544,1545,0,0,0,0,0,0,0,0,0,0
1682697480.40011883,129228288,1545,1545,1545,1545,0,0,0,0,0,0,0,0,0,0
1682697480.50007892,129328248,1544,1544,1544,1544,0,0,0,0,0,0,0,0,0,0
1682697480.60003901,129428208,1544,1544,1544,1544,0,0,0,0,0,0,0,0,0,0
1682697480.69999886,129528168,1544,1544,1544,1544,0,0,0,0,0,0,0,0,0,0
1682697480.80079198,129628961,1544,1544,1544,1544,0,0,0,0,0,0,0,0,0,0
1682697480.90075183,129728921,1545,1545,1545,1545,0,0,0,0,0,0,0,0,0,0
1682697481.00071192,129828881,1545,1545,1545,1545,0,0,0,0,0,0,0,0,0,0
1682697481.10067201,129928841,1545,1544,1544,1545,0,0,0,0,0,0,0,0,0,0
1682697481.20063186,130028801,1545,1545,1545,1544,0,0,0,0,0,0,0,0,0,0
1682697481.30059195,130128761,1544,1544,1544,1544,0,0,0,0,0,0,0,0,0,0
1682697481.40055180,130228721,1545,1546,1545,1545,0,0,0,0,0,0,0,0,0,0
1682697481.50051188,130328681,1545,1545,1545,1545,0,0,0,0,0,0,0,0,0,0
1682697481.60047197,130428641,1544,1544,1544,1544,0,0,0,0,0,0,0,0,0,0
1682697481.70043182,130528601,1544,1544,1544,1545,0,0,0,0,0,0,0,0,0,0
1682697481.80039191,130628561,1545,1546,1546,1545,0,0,0,0,0,0,0,0,0,0
1682697481.90035200,130728521,1545,1545,1545,1545,0,0,0,0,0,0,0,0,0,0
1682697482.00031185,130828481,1545,1546,1545,1546,0,0,0,0,0,0,0,0,0,0
1682697482.10027194,130928441,1545,1544,1545,1545,0,0,0,0,0,0,0,0,0,0
1682697482.20023179,131028401,1545,1545,1545,1545,0,0,0,0,0,0,0,0,0,0
1682697482.30019188,131128361,1545,1545,1545,1545,0,0,0,0,0,0,0,0,0,0
1682697482.40015197,131228321,1545,1545,1545,1544,0,0,0,0,0,0,0,0,0,0
1682697482.50011182,131328281,1544,1544,1544,1544,0,0,0,0,0,0,0,0,0,0
1682697482.60007191,131428241,1544,1544,1545,1544,0,0,0,0,0,0,0,0,0,0
1682697482.70003200,131528201,1544,1543,1544,1544,0,0,0,0,0,0,0,0,0,0
1682697482.79999185,131628161,1543,1544,1543,1544,0,0,0,0,0,0,0,0,0,0
1682697482.90078497,131728954,1544,1544,1544,1544,0,0,0,0,0,0,0,0,0,0
1682697483.00074482,131828914,1544,1544,1544,1544,0,0,0,0,0,0,0,0,0,0
1682697483.10070491,131928874,1544,1544,1544,1544,0,0,0,0,0,0,0,0,0,0
1682697483.20066500,132028834,1544,1544,1545,1544,0,0,0,0,0,0,0,0,0,0
1682697483.30062485,132128794,1544,1544,1544,1544,0,0,0,0,0,0,0,0,0,0
1682697483.40058494,132228754,1544,1544,1544,1544,0,0,0,0,0,0,0,0,0,0
1682697483.50054479,132328714,1544,1544,1544,1544,0,0,0,0,0,0,0,0,0,0
1682697483.60050488,132428674,1544,1544,1544,1544,0,0,0,0,0,0,0,0,0,0
1682697483.70046496,132528634,1545,1544,1544,1545,0,0,0,0,0,0,0,0,0,0
1682697483.80042481,132628594,1544,1545,1544,1545,0,0,0,0,0,0,0,0,0,0
1682697483.90038490,132728554,1545,1544,1545,1545,0,0,0,0,0,0,0,0,0,0
1682697484.00034499,132828514,1545,1545,1545,1545,0,0,0,0,0,0,0,0,0,0
1682697484.10030484,132928474,1544,1544,1544,1544,0,0,0,0,0,0,0,0,0,0
1682697484.20026493,133028434,1543,1543,1543,1543,0,0,0,0,0,0,0,0,0,0
1682697484.30022478,133128394,1544,1543,1543,1544,0,0,0,0,0,0,0,0,0,0
1682697484.40018487,133228354,1544,1543,1544,1543,0,0,0,0,0,0,0,0,0,0
1682697484.50014496,133328314,1388,1365,1387,1366,0,0,0,0,0,0,0,0,0,0
1682697484.60010481,133428274,1296,1255,1297,1255,0,0,0,0,0,0,0,0,0,0
1682697484.70006490,133528234,1269,1219,1269,1220,0,0,0,0,0,0,0,0,0,0
1682697484.80002499,133628194,1254,1201,1255,1201,0,0,0,0,0,0,0,0,0,0
1682697484.89998484,133728154,1221,1156,1221,1157,0,0,0,0,0,0,0,0,0,0
1682697485.00077796,133828947,1216,1150,1217,1150,0,0,0,0,0,0,0,0,0,0
1682697485.10073781,133928907,1216,1150,1217,1150,0,0,0,0,0,0,0,0,0,0
1682697485.20069790,134028867,1216,1150,1217,1150,0,0,0,0,0,0,0,0,0,0
1682697485.30065799,134128827,1231,1150,1200,1191,0,0,0,0,0,0,0,0,0,0
1682697485.40061784,134228787,1230,1150,1210,1179,0,0,0,0,0,0,0,0,0,0
1682697485.50057793,134328747,1230,1150,1214,1174,0,0,0,0,0,0,0,0,0,0
1682697485.60053778,134428707,1230,1150,1214,1174,0,0,0,0,0,0,0,0,0,0
1682697485.70049787,134528667,1230,1150,1213,1175,0,0,0,0,0,0,0,0,0,0
1682697485.80045795,134628627,1230,1150,1212,1177,0,0,0,0,0,0,0,0,0,0
1682697485.90041780,134728587,1230,1150,1210,1179,0,0,0,0,0,0,0,0,0,0
1682697486.00037789,134828547,1230,1150,1210,1180,0,0,0,0,0,0,0,0,0,0
1682697486.10033798,134928507,1218,1150,1211,1161,0,0,0,0,0,0,0,0,0,0
1682697486.20029783,135028467,1220,1150,1211,1163,0,0,0,0,0,0,0,0,0,0
1682697486.30025792,135128427,1221,1150,1211,1165,0,0,0,0,0,0,0,0,0,0
1682697486.40021801,135228387,1221,1150,1212,1166,0,0,0,0,0,0,0,0,0,0
1682697486.50017786,135328347,1222,1150,1212,1167,0,0,0,0,0,0,0,0,0,0
1682697486.60013795,135428307,1000,1000,1000,1000,0,0,0,0,0,0,0,0,0,0
1682697486.70009780,135528267,1000,1000,1000,1000,0,0,0,0,0,0,0,0,0,0
1682697486.80005789,135628227,1000,1000,1000,1000,0,0,0,0,0,0,0,0,0,0
1682697486.90001798,135728187,1000,1000,1000,1000,0,0,0,0,0,0,0,0,0,0
1682697487.00081086,135828980,1000,1000,1000,1000,0,0,0,0,0,0,0,0,0,0
1682697487.10077095,135928940,1000,1000,1000,1000,0,0,0,0,0,0,0,0,0,0
1682697487.20073080,136028900,1000,1000,1000,1000,0,0,0,0,0,0,0,0,0,0
1682697487.30069089,136128860,1000,1000,1000,1000,0,0,0,0,0,0,0,0,0,0
1682697487.40065098,136228820,1000,1000,1000,1000,0,0,0,0,0,0,0,0,0,0
1682697487.50061083,136328780,1000,1000,1000,1000,0,0,0,0,0,0,0,0,0,0
1682697487.60057092,136428740,1000,1000,1000,1000,0,0,0,0,0,0,0,0,0,0
1682697487.70053101,136528700,1000,1000,1000,1000,0,0,0,0,0,0,0,0,0,0
1682697487.80049086,136628660,1000,1000,1000,1000,0,0,0,0,0,0,0,0,0,0
1682697487.90045094,136728620,1000,1000,1000,1000,0,0,0,0,0,0,0,0,0,0
1682697488.00041080,136828580,1000,1000,1000,1000,0,0,0,0,0,0,0,0,0,0
1682697488.10037088,136928540,1000,1000,1000,1000,0,0,0,0,0,0,0,0,0,0
1682697488.20033097,137028500,1000,1000,1000,1000,0,0,0,0,0,0,0,0,0,0
1682697488.30029082,137128460,1000,1000,1000,1000,0,0,0,0,0,0,0,0,0,0
1682697488.40025091,137228420,1000,1000,1000,1000,0,0,0,0,0,0,0,0,0,0
1682697488.50021100,137328380,1000,1000,1000,1000,0,0,0,0,0,0,0,0,0,0
1682697488.60017085,137428340,1000,1000,1000,1000,0,0,0,0,0,0,0,0,0,0
1682697488.70013094,137528300,1000,1000,1000,1000,0,0,0,0,0,0,0,0,0,0
1682697488.80009079,137628260,1000,1000,1000,1000,0,0,0,0,0,0,0,0,0,0
1682697488.90005088,137728220,1000,1000,1000,1000,0,0,0,0,0,0,0,0,0,0
1682697489.00001097,137828180,1000,1000,1000,1000,0,0,0,0,0,0,0,0,0,0
1682697489.10080385,137928973,1000,1000,1000,1000,0,0,0,0,0,0,0,0,0,0
1682697489.20076394,138028933,1000,1000,1000,1000,0,0,0,0,0,0,0,0,0,0
1682697489.30072379,138128893,1000,1000,1000,1000,0,0,0,0,0,0,0,0,0,0
1682697489.40068388,138228853,1000,1000,1000,1000,0,0,0,0,0,0,0,0,0,0
1682697489.50064397,138328813,1000,1000,1000,1000,0,0,0,0,0,0,0,0,0,0
1682697489.60060382,138428773,1000,1000,1000,1000,0,0,0,0,0,0,0,0,0,0
1682697489.70056391,138528733,1000,1000,1000,1000,0,0,0,0,0,0,0,0,0,0
1682697489.80052400,138628693,1000,1000,1000,1000,0,0,0,0,0,0,0,0,0,0
1682697489.90048385,138728653,1000,1000,1000,1000,0,0,0,0,0,0,0,0,0,0
1682697490.00044394,138828613,1000,1000,1000,1000,0,0,0,0,0,0,0,0,0,0
1682697490.10040379,138928573,1000,1000,1000,1000,0,0,0,0,0,0,0,0,0,0
1682697490.20036387,139028533,1000,1000,1000,1000,0,0,0,0,0,0,0,0,0,0
1682697490.30032396,139128493,1000,1000,1000,1000,0,0,0,0,0,0,0,0,0,0
1682697490.40028381,139228453,1000,1000,1000,1000,0,0,0,0,0,0,0,0,0,0
1682697490.50024390,139328413,1000,1000,1000,1000,0,0,0,0,0,0,0,0,0,0
1682697490.60020399,139428373,1000,1000,1000,1000,0,0,0,0,0,0,0,0,0,0
1682697490.70016384,139528333,1000,1000,1000,1000,0,0,0,0,0,0,0,0,0,0
1682697490.80012393,139628293,1000,1000,1000,1000,0,0,0,0,0,0,0,0,0,0
1682697490.90008378,139728253,1000,1000,1000,1000,0,0,0,0,0,0,0,0,0,0
1682697491.00004387,139828213,1000,1000,1000,1000,0,0,0,0,0,0,0,0,0,0
1682697491.10000396,139928173,1000,1000,1000,1000,0,0,0,0,0,0,0,0,0,0
1682697491.20079684,140028966,1000,1000,1000,1000,0,0,0,0,0,0,0,0,0,0
1682697491.30075693,140128926,1000,1000,1000,1000,0,0,0,0,0,0,0,0,0,0
1682697491.40071678,140228886,1000,1000,1000,1000,0,0,0,0,0,0,0,0,0,0
1682697491.50067687,140328846,1000,1000,1000,1000,0,0,0,0,0,0,0,0,0,0
1682697491.60063696,140428806,1000,1000,1000,1000,0,0,0,0,0,0,0,0,0,0
1682697491.70059681,140528766,1000,1000,1000,1000,0,0,0,0,0,0,0,0,0,0
1682697491.80055690,140628726,1000,1000,1000,1000,0,0,0,0,0,0,0,0,0,0
1682697491.90051699,140728686,1000,1000,1000,1000,0,0,0,0,0,0,0,0,0,0
1682697492.00047684,140828646,1000,1000,1000,1000,0,0,0,0,0,0,0,0,0,0
1682697492.10043693,140928606,1000,1000,1000,1000,0,0,0,0,0,0,0,0,0,0
1682697492.20039678,141028566,1000,1000,1000,1000,0,0,0,0,0,0,0,0,0,0
1682697492.30035686,141128526,1000,1000,1000,1000,0,0,0,0,0,0,0,0,0,0
1682697492.40031695,141228486,1000,1000,1000,1000,0,0,0,0,0,0,0,0,0,0
1682697492.50027680,141328446,1000,1000,1000,1000,0,0,0,0,0,0,0,0,0,0
1682697492.60023689,141428406,1000,1000,1000,1000,0,0,0,0,0,0,0,0,0,0
1682697492.70019698,141528366,1000,1000,1000,1000,0,0,0,0,0,0,0,0,0,0
1682697492.80015683,141628326,1000,1000,1000,1000,0,0,0,0,0,0,0,0,0,0
1682697492.90011692,141728286,1000,1000,1000,1000,0,0,0,0,0,0,0,0,0,0
1682697493.00007701,141828246,1000,1000,1000,1000,0,0,0,0,0,0,0,0,0,0
1682697493.10003686,141928206,1000,1000,1000,1000,0,0,0,0,0,0,0,0,0,0
1682697493.19999695,142028166,1000,1000,1000,1000,0,0,0,0,0,0,0,0,0,0
1682697493.30078983,142128959,1000,1000,1000,1000,0,0,0,0,0,0,0,0,0,0
1682697493.40074992,142228919,1000,1000,1000,1000,0,0,0,0,0,0,0,0,0,0
1682697493.50071001,142328879,1000,1000,1000,1000,0,0,0,0,0,0,0,0,0,0
1682697493.60066986,142428839,1000,1000,1000,1000,0,0,0,0,0,0,0,0,0,0
1682697493.70062995,142528799,1000,1000,1000,1000,0,0,0,0,0,0,0,0,0,0
1682697493.80058980,142628759,1000,1000,1000,1000,0,0,0,0,0,0,0,0,0,0
1682697493.90054989,142728719,1000,1000,1000,1000,0,0,0,0,0,0,0,0,0,0
1682697494.00050998,142828679,1000,1000,1000,1000,0,0,0,0,0,0,0,0,0,0
1682697494.10046983,142928639,1000,1000,1000,1000,0,0,0,0,0,0,0,0,0,0
1682697494.20042992,143028599,1000,1000,1000,1000,0,0,0,0,0,0,0,0,0,0
1682697494.30039001,143128559,1000,1000,1000,1000,0,0,0,0,0,0,0,0,0,0
1682697494.40034986,143228519,1000,1000,1000,1000,0,0,0,0,0,0,0,0,0,0
1682697494.50030994,143328479,1000,1000,1000,1000,0,0,0,0,0,0,0,0,0,0
1682697494.60026979,143428439,1000,1000,1000,1000,0,0,0,0,0,0,0,0,0,0
1682697494.70022988,143528399,1000,1000,1000,1000,0,0,0,0,0,0,0,0,0,0
1682697494.80018997,143628359,1000,1000,1000,1000,0,0,0,0,0,0,0,0,0,0
1682697494.90014982,143728319,1000,1000,1000,1000,0,0,0,0,0,0,0,0,0,0
1682697495.00010991,143828279,1000,1000,1000,1000,0,0,0,0,0,0,0,0,0,0
1682697495.10007000,143928239,1000,1000,1000,1000,0,0,0,0,0,0,0,0,0,0
1682697495.20002985,144028199,1000,1000,1000,1000,0,0,0,0,0,0,0,0,0,0
1682697495.29998994,144128159,1000,1000,1000,1000,0,0,0,0,0,0,0,0,0,0
1682697495.40078282,144228952,1000,1000,1000,1000,0,0,0,0,0,0,0,0,0,0
1682697495.50074291,144328912,1000,1000,1000,1000,0,0,0,0,0,0,0,0,0,0
1682697495.60070300,144428872,1000,1000,1000,1000,0,0,0,0,0,0,0,0,0,0
1682697495.70066285,144528832,1000,1000,1000,1000,0,0,0,0,0,0,0,0,0,0
1682697495.80062294,144628792,1000,1000,1000,1000,0,0,0,0,0,0,0,0,0,0
1682697495.90058279,144728752,1000,1000,1000,1000,0,0,0,0,0,0,0,0,0,0
1682697496.00054288,144828712,1000,1000,1000,1000,0,0,0,0,0,0,0,0,0,0
1682697496.10050297,144928672,1000,1000,1000,1000,0,0,0,0,0,0,0,0,0,0
1682697496.20046282,145028632,1000,1000,1000,1000,0,0,0,0,0,0,0,0,0,0
1682697496.30042291,145128592,1000,1000,1000,1000,0,0,0,0,0,0,0,0,0,0
1682697496.40038300,145228552,1000,1000,1000,1000,0,0,0,0,0,0,0,0,0,0
1682697496.50034285,145328512,1000,1000,1000,1000,0,0,0,0,0,0,0,0,0,0
1682697496.60030293,145428472,1000,1000,1000,1000,0,0,0,0,0,0,0,0,0,0
1682697496.70026278,145528432,1000,1000,1000,1000,0,0,0,0,0,0,0,0,0,0
1682697496.80022287,145628392,1000,1000,1000,1000,0,0,0,0,0,0,0,0,0,0
1682697496.90018296,145728352,1000,1000,1000,1000,0,0,0,0,0,0,0,0,0,0
1682697497.00014281,145828312,1000,1000,1000,1000,0,0,0,0,0,0,0,0,0,0
1682697497.10010290,145928272,1000,1000,1000,1000,0,0,0,0,0,0,0,0,0,0
1682697497.20006299,146028232,1000,1000,1000,1000,0,0,0,0,0,0,0,0,0,0
1682697497.30002284,146128192,1000,1000,1000,1000,0,0,0,0,0,0,0,0,0,0
1682697497.40081596,146228985,1000,1000,1000,1000,0,0,0,0,0,0,0,0,0,0
1682697497.50077581,146328945,1000,1000,1000,1000,0,0,0,0,0,0,0,0,0,0
1682697497.60073590,146428905,1000,1000,1000,1000,0,0,0,0,0,0,0,0,0,0
1682697497.70069599,146528865,1000,1000,1000,1000,0,0,0,0,0,0,0,0,0,0
1682697497.80065584,146628825,1000,1000,1000,1000,0,0,0,0,0,0,0,0,0,0
1682697497.90061593,146728785,1000,1000,1000,1000,0,0,0,0,0,0,0,0,0,0
1682697498.00057578,146828745,1000,1000,1000,1000,0,0,0,0,0,0,0,0,0,0
1682697498.10053587,146928705,1000,1000,1000,1000,0,0,0,0,0,0,0,0,0,0
1682697498.20049596,147028665,1000,1000,1000,1000,0,0,0,0,0,0,0,0,0,0
1682697498.30045581,147128625,1000,1000,1000,1000,0,0,0,0,0,0,0,0,0,0
1682697498.40041590,147228585,1000,1000,1000,1000,0,0,0,0,0,0,0,0,0,0
1682697498.50037599,147328545,1000,1000,1000,1000,0,0,0,0,0,0,0,0,0,0
1682697498.60033584,147428505,1000,1000,1000,1000,0,0,0,0,0,0,0,0,0,0
1682697498.70029593,147528465,1000,1000,1000,1000,0,0,0,0,0,0,0,0,0,0
1682697498.80025578,147628425,1000,1000,1000,1000,0,0,0,0,0,0,0,0,0,0
1682697498.90021586,147728385,1000,1000,1000,1000,0,0,0,0,0,0,0,0,0,0
1682697499.00017595,147828345,1000,1000,1000,1000,0,0,0,0,0,0,0,0,0,0
1682697499.10013580,147928305,1000,1000,1000,1000,0,0,0,0,0,0,0,0,0,0
1682697499.20009589,148028265,1000,1000,1000,1000,0,0,0,0,0,0,0,0,0,0
1682697499.30005598,148128225,1000,1000,1000,1000,0,0,0,0,0,0,0,0,0,0
1682697499.40001583,148228185,1000,1000,1000,1000,0,0,0,0,0,0,0,0,0,0
1682697499.50080895,148328978,1000,1000,1000,1000,0,0,0,0,0,0,0,0,0,0
1682697499.60076880,148428938,1000,1000,1000,1000,0,0,0,0,0,0,0,0,0,0
1682697499.70072889,148528898,1000,1000,1000,1000,0,0,0,0,0,0,0,0,0,0
1682697499.80068898,148628858,1000,1000,1000,1000,0,0,0,0,0,0,0,0,0,0
1682697499.90064883,148728818,1000,1000,1000,1000,0,0,0,0,0,0,0,0,0,0
1682697500.00060892,148828778,1000,1000,1000,1000,0,0,0,0,0,0,0,0,0,0
1682697500.10056901,148928738,1000,1000,1000,1000,0,0,0,0,0,0,0,0,0,0
1682697500.20052886,149028698,1000,1000,1000,1000,0,0,0,0,0,0,0,0,0,0
1682697500.30048895,149128658,1000,1000,1000,1000,0,0,0,0,0,0,0,0,0,0
1682697500.40044880,149228618,1000,1000,1000,1000,0,0,0,0,0,0,0,0,0,0
1682697500.50040889,149328578,1000,1000,1000,1000,0,0,0,0,0,0,0,0,0,0
1682697500.60036898,149428538,1000,1000,1000,1000,0,0,0,0,0,0,0,0,0,0
1682697500.70032883,149528498,1000,1000,1000,1000,0,0,0,0,0,0,0,0,0,0
1682697500.80028892,149628458,1000,1000,1000,1000,0,0,0,0,0,0,0,0,0,0
1682697500.90024900,149728418,1000,1000,1000,1000,0,0,0,0,0,0,0,0,0,0
1682697501.00020885,149828378,1000,1000,1000,1000,0,0,0,0,0,0,0,0,0,0
1682697501.10016894,149928338,1000,1000,1000,1000,0,0,0,0,0,0,0,0,0,0
1682697501.20012879,150028298,1000,1000,1000,1000,0,0,0,0,0,0,0,0,0,0
1682697501.30008888,150128258,1000,1000,1000,1000,0,0,0,0,0,0,0,0,0,0
1682697501.40004897,150228218,1000,1000,1000,1000,0,0,0,0,0,0,0,0,0,0
1682697501.50000882,150328178,1000,1000,1000,1000,0,0,0,0,0,0,0,0,0,0
