TimeUS,M1,M2,M3,M4,TimeUS,C1,C2,C3,C4
45018652,1000,1000,1000,1000,45028648,1000,1000,1000,1000
45021151,1000,1000,1000,1000,45128608,1000,1000,1000,1000
45023650,1000,1000,1000,1000,45228568,1000,1000,1000,1000
45026149,1000,1000,1000,1000,45328528,1000,1000,1000,1000
45028648,1000,1000,1000,1000,45428488,1000,1000,1000,1000
45031147,1000,1000,1000,1000,45528448,1000,1000,1000,1000
45033646,1000,1000,1000,1000,45628408,1000,1000,1000,1000
45036145,1000,1000,1000,1000,45728368,1000,1000,1000,1000
45038644,1000,1000,1000,1000,45828328,1000,1000,1000,1000
45041143,1000,1000,1000,1000,45928288,1000,1000,1000,1000
45043642,1000,1000,1000,1000,46028248,1000,1000,1000,1000
45046141,1000,1000,1000,1000,46128208,1000,1000,1000,1000
45048640,1000,1000,1000,1000,46228168,1000,1000,1000,1000
45051139,1000,1000,1000,1000,46328961,1000,1000,1000,1000
45053638,1000,1000,1000,1000,46428921,1000,1000,1000,1000
45056137,1000,1000,1000,1000,46528881,1000,1000,1000,1000
45058636,1000,1000,1000,1000,46628841,1000,1000,1000,1000
45061135,1000,1000,1000,1000,46728801,1000,1000,1000,1000
45063634,1000,1000,1000,1000,46828761,1000,1000,1000,1000
45066133,1000,1000,1000,1000,46928721,1000,1000,1000,1000
45068632,1000,1000,1000,1000,47028681,1003,1003,1003,1003
45071131,1000,1000,1000,1000,47128641,1033,1033,1033,1033
45073630,1000,1000,1000,1000,47228601,1063,1063,1063,1063
45076129,1000,1000,1000,1000,47328561,1093,1093,1093,1093
45078628,1000,1000,1000,1000,47428521,1122,1122,1122,1122
45081127,1000,1000,1000,1000,47528481,1177,1170,1171,1177
45083626,1000,1000,1000,1000,47628441,1419,1414,1415,1419
45086125,1000,1000,1000,1000,47728401,1595,1590,1591,1595
45088624,1000,1000,1000,1000,47828361,1740,1736,1736,1740
45091123,1000,1000,1000,1000,47928321,1866,1862,1862,1866
45093622,1000,1000,1000,1000,48028281,1924,1921,1921,1924
45096121,1000,1000,1000,1000,48128241,1819,1818,1818,1819
45098620,1000,1000,1000,1000,48228201,1699,1699,1698,1701
45101119,1000,1000,1000,1000,48328161,1642,1644,1639,1648
45103618,1000,1000,1000,1000,48428954,1633,1636,1632,1638
45106117,1000,1000,1000,1000,48528914,1639,1640,1640,1640
45108616,1000,1000,1000,1000,48628874,1639,1640,1642,1638
45111115,1000,1000,1000,1000,48728834,1634,1634,1637,1631
45113614,1000,1000,1000,1000,48828794,1627,1626,1629,1623
45116113,1000,1000,1000,1000,48928754,1620,1619,1621,1618
45118612,1000,1000,1000,1000,49028714,1617,1616,1617,1616
45121111,1000,1000,1000,1000,49128674,1603,1603,1604,1601
45123610,1000,1000,1000,1000,49228634,1580,1580,1588,1572
45126109,1000,1000,1000,1000,49328594,1568,1568,1572,1563
45128608,1000,1000,1000,1000,49428554,1557,1558,1557,1558
45131107,1000,1000,1000,1000,49528514,1549,1549,1545,1553
45133606,1000,1000,1000,1000,49628474,1543,1543,1535,1550
45136105,1000,1000,1000,1000,49728434,1537,1536,1528,1544
45138604,1000,1000,1000,1000,49828394,1531,1531,1526,1536
45141103,1000,1000,1000,1000,49928354,1527,1527,1525,1529
45143602,1000,1000,1000,1000,50028314,1524,1524,1525,1524
45146101,1000,1000,1000,1000,50128274,1526,1525,1527,1524
45148600,1000,1000,1000,1000,50228234,1528,1529,1531,1526
45151099,1000,1000,1000,1000,50328194,1531,1531,1534,1529
45153598,1000,1000,1000,1000,50428154,1535,1535,1538,1533
45156097,1000,1000,1000,1000,50528947,1539,1539,1541,1538
45158596,1000,1000,1000,1000,50628907,1543,1543,1544,1543
45161095,1000,1000,1000,1000,50728867,1547,1547,1547,1547
45163594,1000,1000,1000,1000,50828827,1550,1550,1550,1551
45166093,1000,1000,1000,1000,50928787,1553,1553,1552,1554
45168592,1000,1000,1000,1000,51028747,1555,1555,1554,1556
45171091,1000,1000,1000,1000,51128707,1553,1553,1561,1563
45173590,1000,1000,1000,1000,51228667,1554,1555,1563,1565
45176089,1000,1000,1000,1000,51328627,1557,1557,1564,1566
45178588,1000,1000,1000,1000,51428587,1560,1561,1565,1565
45181087,1000,1000,1000,1000,51528547,1564,1564,1565,1565
45183586,1000,1000,1000,1000,51628507,1567,1566,1565,1564
45186085,1000,1000,1000,1000,51728467,1569,1568,1565,1565
45188584,1000,1000,1000,1000,51828427,1570,1570,1565,1565
45191083,1000,1000,1000,1000,51928387,1571,1571,1566,1566
45193582,1000,1000,1000,1000,52028347,1573,1573,1568,1568
45196081,1000,1000,1000,1000,52128307,1573,1573,1568,1568
45198580,1000,1000,1000,1000,52228267,1574,1574,1570,1570
45201079,1000,1000,1000,1000,52328227,1573,1573,1570,1571
45203578,1000,1000,1000,1000,52428187,1573,1573,1572,1571
45206077,1000,1000,1000,1000,52528980,1573,1574,1574,1573
45208576,1000,1000,1000,1000,52628940,1573,1573,1575,1574
45211075,1000,1000,1000,1000,52728900,1574,1575,1577,1576
45213574,1000,1000,1000,1000,52828860,1575,1575,1578,1577
45216073,1000,1000,1000,1000,52928820,1575,1575,1578,1577
45218572,1000,1000,1000,1000,53028780,1575,1575,1577,1577
45221071,1000,1000,1000,1000,53128740,1576,1576,1577,1578
45223570,1000,1000,1000,1000,53228700,1576,1576,1576,1577
45226069,1000,1000,1000,1000,53328660,1576,1576,1576,1577
45228568,1000,1000,1000,1000,53428620,1577,1577,1577,1577
45231067,1000,1000,1000,1000,53528580,1578,1578,1577,1578
45233566,1000,1000,1000,1000,53628540,1578,1578,1577,1577
45236065,1000,1000,1000,1000,53728500,1578,1578,1577,1577
45238564,1000,1000,1000,1000,53828460,1577,1578,1577,1576
45241063,1000,1000,1000,1000,53928420,1578,1578,1578,1577
45243562,1000,1000,1000,1000,54028380,1579,1578,1578,1578
45246061,1000,1000,1000,1000,54128340,1579,1578,1578,1578
45248560,1000,1000,1000,1000,54228300,1578,1578,1577,1578
45251059,1000,1000,1000,1000,54328260,1579,1578,1578,1579
45253558,1000,1000,1000,1000,54428220,1578,1578,1578,1578
45256057,1000,1000,1000,1000,54528180,1577,1577,1578,1578
45258556,1000,1000,1000,1000,54628973,1578,1578,1578,1578
45261055,1000,1000,1000,1000,54728933,1577,1578,1579,1578
45263554,1000,1000,1000,1000,54828893,1578,1579,1579,1578
45266053,1000,1000,1000,1000,54928853,1579,1579,1579,1579
45268552,1000,1000,1000,1000,55028813,1579,1579,1579,1579
45271051,1000,1000,1000,1000,55128773,1579,1578,1578,1579
45273550,1000,1000,1000,1000,55228733,1578,1578,1578,1578
45276049,1000,1000,1000,1000,55328693,1579,1579,1579,1579
45278548,1000,1000,1000,1000,55428653,1579,1579,1579,1579
45281047,1000,1000,1000,1000,55528613,1579,1579,1579,1579
45283546,1000,1000,1000,1000,55628573,1580,1580,1581,1580
45286045,1000,1000,1000,1000,55728533,1581,1580,1580,1580
45288544,1000,1000,1000,1000,55828493,1580,1580,1580,1580
45291043,1000,1000,1000,1000,55928453,1580,1580,1580,1580
45293542,1000,1000,1000,1000,56028413,1580,1580,1581,1581
45296041,1000,1000,1000,1000,56128373,1580,1580,1580,1580
45298540,1000,1000,1000,1000,56228333,1580,1580,1580,1580
45301039,1000,1000,1000,1000,56328293,1579,1579,1579,1580
45303538,1000,1000,1000,1000,56428253,1580,1580,1580,1580
45306037,1000,1000,1000,1000,56528213,1580,1580,1580,1580
45308536,1000,1000,1000,1000,56628173,1580,1580,1580,1580
45311035,1000,1000,1000,1000,56728966,1580,1580,1581,1580
45313534,1000,1000,1000,1000,56828926,1582,1582,1582,1582
45316033,1000,1000,1000,1000,56928886,1580,1581,1580,1581
45318532,1000,1000,1000,1000,57028846,1581,1581,1581,1581
45321031,1000,1000,1000,1000,57128806,1579,1579,1579,1580
45323530,1000,1000,1000,1000,57228766,1581,1580,1581,1580
45326029,1000,1000,1000,1000,57328726,1581,1581,1588,1573
45328528,1000,1000,1000,1000,57428686,1579,1582,1585,1573
45331027,1000,1000,1000,1000,57528646,1578,1582,1576,1574
45333526,1000,1000,1000,1000,57628606,1578,1581,1568,1572
45336025,1000,1000,1000,1000,57728566,1576,1578,1560,1568
45338524,1000,1000,1000,1000,57828526,1578,1578,1557,1563
45341023,1000,1000,1000,1000,57928486,1578,1577,1555,1559
45343522,1000,1000,1000,1000,58028446,1580,1578,1556,1556
45346021,1000,1000,1000,1000,58128406,1579,1578,1556,1554
45348520,1000,1000,1000,1000,58228366,1578,1577,1556,1554
45351019,1000,1000,1000,1000,58328326,1577,1577,1555,1554
45353518,1000,1000,1000,1000,58428286,1575,1577,1555,1554
45356017,1000,1000,1000,1000,58528246,1574,1576,1554,1554
45358516,1000,1000,1000,1000,58628206,1575,1577,1554,1553
45361015,1000,1000,1000,1000,58728166,1575,1577,1552,1552
45363514,1000,1000,1000,1000,58828959,1576,1578,1550,1550
45366013,1000,1000,1000,1000,58928919,1578,1579,1547,1547
45368512,1000,1000,1000,1000,59028879,1581,1582,1546,1545
45371011,1000,1000,1000,1000,59128839,1584,1584,1543,1543
45373510,1000,1000,1000,1000,59228799,1587,1588,1540,1540
45376009,1000,1000,1000,1000,59328759,1589,1590,1537,1537
45378508,1000,1000,1000,1000,59428719,1593,1594,1536,1536
45381007,1000,1000,1000,1000,59528679,1594,1595,1535,1535
45383506,1000,1000,1000,1000,59628639,1595,1595,1535,1536
45386005,1000,1000,1000,1000,59728599,1595,1594,1536,1538
45388504,1000,1000,1000,1000,59828559,1593,1593,1539,1542
45391003,1000,1000,1000,1000,59928519,1589,1587,1544,1547
45393502,1000,1000,1000,1000,60028479,1584,1581,1552,1555
45396001,1000,1000,1000,1000,60128439,1575,1572,1562,1565
45398500,1000,1000,1000,1000,60228399,1566,1562,1575,1576
45400999,1000,1000,1000,1000,60328359,1554,1551,1587,1588
45403498,1000,1000,1000,1000,60428319,1543,1541,1598,1598
45405997,1000,1000,1000,1000,60528279,1534,1533,1606,1606
45408496,1000,1000,1000,1000,60628239,1529,1530,1612,1611
45410995,1000,1000,1000,1000,60728199,1529,1531,1616,1615
45413494,1000,1000,1000,1000,60828159,1531,1533,1614,1613
45415993,1000,1000,1000,1000,60928952,1536,1538,1609,1609
45418492,1000,1000,1000,1000,61028912,1544,1546,1603,1603
45420991,1000,1000,1000,1000,61128872,1553,1554,1596,1596
45423490,1000,1000,1000,1000,61228832,1561,1561,1588,1587
45425989,1000,1000,1000,1000,61328792,1570,1569,1581,1581
45428488,1000,1000,1000,1000,61428752,1577,1576,1575,1575
45430987,1000,1000,1000,1000,61528712,1582,1581,1570,1570
45433486,1000,1000,1000,1000,61628672,1586,1585,1567,1567
45435985,1000,1000,1000,1000,61728632,1587,1585,1565,1566
45438484,1000,1000,1000,1000,61828592,1588,1586,1567,1567
45440983,1000,1000,1000,1000,61928552,1586,1585,1568,1568
45443482,1000,1000,1000,1000,62028512,1441,1548,1427,1537
45445981,1000,1000,1000,1000,62128472,1548,1556,1542,1551
45448480,1000,1000,1000,1000,62228432,1643,1594,1644,1593
45450979,1000,1000,1000,1000,62328392,1695,1620,1699,1625
45453478,1000,1000,1000,1000,62428352,1696,1631,1699,1636
45455977,1000,1000,1000,1000,62528312,1699,1655,1697,1651
45458476,1000,1000,1000,1000,62628272,1699,1674,1692,1659
45460975,1000,1000,1000,1000,62728232,1699,1696,1689,1668
45463474,1000,1000,1000,1000,62828192,1699,1723,1690,1688
45465973,1000,1000,1000,1000,62928985,1655,1691,1656,1675
45468472,1000,1000,1000,1000,63028945,1599,1632,1625,1671
45470971,1000,1000,1000,1000,63128905,1562,1580,1621,1676
45473470,1000,1000,1000,1000,63228865,1538,1543,1623,1669
45475969,1000,1000,1000,1000,63328825,1528,1526,1619,1646
45478468,1000,1000,1000,1000,63428785,1532,1529,1609,1614
45480967,1000,1000,1000,1000,63528745,1545,1546,1594,1582
45483466,1000,1000,1000,1000,63628705,1563,1569,1577,1556
45485965,1000,1000,1000,1000,63728665,1581,1590,1559,1540
45488464,1000,1000,1000,1000,63828625,1594,1601,1543,1528
45490963,1000,1000,1000,1000,63928585,1602,1606,1531,1524
45493462,1000,1000,1000,1000,64028545,1605,1604,1524,1524
45495961,1000,1000,1000,1000,64128505,1602,1598,1522,1526
45498460,1000,1000,1000,1000,64228465,1598,1591,1525,1531
45500959,1000,1000,1000,1000,64328425,1591,1585,1533,1538
45503458,1000,1000,1000,1000,64428385,1584,1580,1542,1546
45505957,1000,1000,1000,1000,64528345,1577,1577,1553,1555
45508456,1000,1000,1000,1000,64628305,1571,1572,1563,1563
45510955,1000,1000,1000,1000,64728265,1566,1568,1572,1571
45513454,1000,1000,1000,1000,64828225,1563,1566,1580,1579
45515953,1000,1000,1000,1000,64928185,1562,1564,1586,1585
45518452,1000,1000,1000,1000,65028978,1561,1562,1589,1588
45520951,1000,1000,1000,1000,65128938,1562,1562,1591,1590
45523450,1000,1000,1000,1000,65228898,1563,1563,1590,1590
45525949,1000,1000,1000,1000,65328858,1565,1566,1594,1582
45528448,1000,1000,1000,1000,65428818,1568,1570,1591,1577
45530947,1000,1000,1000,1000,65528778,1570,1573,1583,1576
45533446,1000,1000,1000,1000,65628738,1572,1574,1572,1574
45535945,1000,1000,1000,1000,65728698,1572,1572,1561,1568
45538444,1000,1000,1000,1000,65828658,1575,1573,1555,1563
45540943,1000,1000,1000,1000,65928618,1577,1575,1552,1558
45543442,1000,1000,1000,1000,66028578,1578,1577,1550,1553
45545941,1000,1000,1000,1000,66128538,1579,1579,1550,1550
45548440,1000,1000,1000,1000,66228498,1580,1581,1550,1548
45550939,1000,1000,1000,1000,66328458,1580,1581,1550,1547
45553438,1000,1000,1000,1000,66428418,1581,1582,1551,1549
45555937,1000,1000,1000,1000,66528378,1579,1579,1550,1549
45558436,1000,1000,1000,1000,66628338,1578,1579,1550,1551
45560935,1000,1000,1000,1000,66728298,1577,1578,1551,1551
45563434,1000,1000,1000,1000,66828258,1577,1578,1550,1551
45565933,1000,1000,1000,1000,66928218,1576,1577,1550,1550
45568432,1000,1000,1000,1000,67028178,1576,1578,1550,1549
45570931,1000,1000,1000,1000,67128971,1578,1579,1549,1549
45573430,1000,1000,1000,1000,67228931,1579,1580,1548,1548
45575929,1000,1000,1000,1000,67328891,1580,1580,1546,1546
45578428,1000,1000,1000,1000,67428851,1582,1581,1546,1546
45580927,1000,1000,1000,1000,67528811,1582,1582,1545,1545
45583426,1000,1000,1000,1000,67628771,1583,1582,1546,1547
45585925,1000,1000,1000,1000,67728731,1582,1580,1546,1548
45588424,1000,1000,1000,1000,67828691,1580,1579,1549,1550
45590923,1000,1000,1000,1000,67928651,1580,1579,1553,1555
45593422,1000,1000,1000,1000,68028611,1576,1575,1555,1558
45595921,1000,1000,1000,1000,68128571,1572,1571,1560,1562
45598420,1000,1000,1000,1000,68228531,1568,1566,1566,1567
45600919,1000,1000,1000,1000,68328491,1563,1562,1572,1573
45603418,1000,1000,1000,1000,68428451,1559,1558,1579,1580
45605917,1000,1000,1000,1000,68528411,1554,1553,1585,1585
45608416,1000,1000,1000,1000,68628371,1550,1549,1590,1589
45610915,1000,1000,1000,1000,68728331,1549,1549,1595,1594
45613414,1000,1000,1000,1000,68828291,1547,1548,1597,1596
45615913,1000,1000,1000,1000,68928251,1547,1548,1597,1596
45618412,1000,1000,1000,1000,69028211,1550,1552,1597,1596
45620911,1000,1000,1000,1000,69128171,1553,1554,1595,1595
45623410,1000,1000,1000,1000,69228964,1556,1557,1591,1591
45625909,1000,1000,1000,1000,69328924,1561,1561,1588,1587
45628408,1000,1000,1000,1000,69428884,1566,1566,1585,1584
45630907,1000,1000,1000,1000,69528844,1570,1569,1581,1580
45633406,1000,1000,1000,1000,69628804,1574,1572,1578,1578
45635905,1000,1000,1000,1000,69728764,1577,1575,1575,1575
45638404,1000,1000,1000,1000,69828724,1579,1578,1573,1574
45640903,1000,1000,1000,1000,69928684,1580,1579,1572,1572
45643402,1000,1000,1000,1000,70028644,1581,1581,1572,1572
45645901,1000,1000,1000,1000,70128604,1580,1580,1571,1572
45648400,1000,1000,1000,1000,70228564,1580,1579,1572,1572
45650899,1000,1000,1000,1000,70328524,1579,1579,1574,1574
45653398,1000,1000,1000,1000,70428484,1579,1579,1575,1576
45655897,1000,1000,1000,1000,70528444,1578,1578,1578,1578
45658396,1000,1000,1000,1000,70628404,1577,1578,1579,1579
45660895,1000,1000,1000,1000,70728364,1577,1578,1581,1580
45663394,1000,1000,1000,1000,70828324,1576,1577,1581,1580
45665893,1000,1000,1000,1000,70928284,1576,1577,1582,1582
45668392,1000,1000,1000,1000,71028244,1577,1577,1583,1582
45670891,1000,1000,1000,1000,71128204,1576,1577,1582,1582
45673390,1000,1000,1000,1000,71228164,1576,1576,1581,1581
45675889,1000,1000,1000,1000,71328957,1577,1577,1580,1581
45678388,1000,1000,1000,1000,71428917,1578,1578,1580,1580
45680887,1000,1000,1000,1000,71528877,1578,1578,1579,1579
45683386,1000,1000,1000,1000,71628837,1579,1579,1579,1580
45685885,1000,1000,1000,1000,71728797,1580,1580,1579,1580
45688384,1000,1000,1000,1000,71828757,1581,1581,1579,1579
45690883,1000,1000,1000,1000,71928717,1582,1581,1580,1579
45693382,1000,1000,1000,1000,72028677,1582,1581,1579,1579
45695881,1000,1000,1000,1000,72128637,1582,1582,1580,1580
45698380,1000,1000,1000,1000,72228597,1582,1581,1580,1580
45700879,1000,1000,1000,1000,72328557,1582,1582,1580,1581
45703378,1000,1000,1000,1000,72428517,1582,1582,1581,1581
45705877,1000,1000,1000,1000,72528477,1581,1581,1580,1580
45708376,1000,1000,1000,1000,72628437,1581,1581,1581,1580
45710875,1000,1000,1000,1000,72728397,1581,1581,1581,1581
45713374,1000,1000,1000,1000,72828357,1581,1581,1582,1582
45715873,1000,1000,1000,1000,72928317,1581,1580,1581,1581
45718372,1000,1000,1000,1000,73028277,1580,1580,1581,1581
45720871,1000,1000,1000,1000,73128237,1581,1581,1582,1582
45723370,1000,1000,1000,1000,73228197,1581,1582,1582,1582
45725869,1000,1000,1000,1000,73328157,1581,1581,1581,1581
45728368,1000,1000,1000,1000,73428950,1581,1581,1581,1581
45730867,1000,1000,1000,1000,73528910,1580,1580,1581,1581
45733366,1000,1000,1000,1000,73628870,1581,1581,1581,1581
45735865,1000,1000,1000,1000,73728830,1580,1580,1580,1580
45738364,1000,1000,1000,1000,73828790,1581,1582,1581,1581
45740863,1000,1000,1000,1000,73928750,1581,1581,1582,1579
45743362,1000,1000,1000,1000,74028710,1581,1582,1587,1572
45745861,1000,1000,1000,1000,74128670,1579,1582,1582,1572
45748360,1000,1000,1000,1000,74228630,1579,1581,1576,1573
45750859,1000,1000,1000,1000,74328590,1576,1578,1567,1571
45753358,1000,1000,1000,1000,74428550,1576,1577,1561,1568
45755857,1000,1000,1000,1000,74528510,1575,1576,1556,1563
45758356,1000,1000,1000,1000,74628470,1576,1576,1554,1558
45760855,1000,1000,1000,1000,74728430,1577,1576,1553,1555
45763354,1000,1000,1000,1000,74828390,1578,1577,1554,1553
45765853,1000,1000,1000,1000,74928350,1579,1578,1556,1554
45768352,1000,1000,1000,1000,75028310,1578,1578,1555,1552
45770851,1000,1000,1000,1000,75128270,1577,1578,1555,1553
45773350,1000,1000,1000,1000,75228230,1576,1577,1555,1552
45775849,1000,1000,1000,1000,75328190,1577,1578,1555,1554
45778348,1000,1000,1000,1000,75428983,1577,1579,1553,1554
45780847,1000,1000,1000,1000,75528943,1577,1578,1551,1551
45783346,1000,1000,1000,1000,75628903,1578,1579,1549,1550
45785845,1000,1000,1000,1000,75728863,1580,1581,1548,1548
45788344,1000,1000,1000,1000,75828823,1583,1584,1546,1546
45790843,1000,1000,1000,1000,75928783,1585,1586,1544,1544
45793342,1000,1000,1000,1000,76028743,1587,1588,1541,1541
45795841,1000,1000,1000,1000,76128703,1590,1589,1539,1539
45798340,1000,1000,1000,1000,76228663,1592,1592,1539,1540
45800839,1000,1000,1000,1000,76328623,1594,1594,1539,1540
45803338,1000,1000,1000,1000,76428583,1593,1593,1539,1541
45805837,1000,1000,1000,1000,76528543,1593,1591,1541,1544
45808336,1000,1000,1000,1000,76628503,1590,1588,1545,1548
45810835,1000,1000,1000,1000,76728463,1585,1581,1551,1554
45813334,1000,1000,1000,1000,76828423,1578,1574,1560,1563
45815833,1000,1000,1000,1000,76928383,1568,1565,1570,1572
45818332,1000,1000,1000,1000,77028343,1559,1557,1581,1583
45820831,1000,1000,1000,1000,77128303,1550,1549,1592,1592
45823330,1000,1000,1000,1000,77228263,1542,1543,1602,1601
45825829,1000,1000,1000,1000,77328223,1537,1539,1609,1607
45828328,1000,1000,1000,1000,77428183,1535,1539,1613,1611
45830827,1000,1000,1000,1000,77528976,1537,1540,1614,1611
45833326,1000,1000,1000,1000,77628936,1540,1542,1612,1610
45835825,1000,1000,1000,1000,77728896,1545,1547,1608,1607
45838324,1000,1000,1000,1000,77828856,1550,1551,1601,1600
45840823,1000,1000,1000,1000,77928816,1557,1557,1595,1594
45843322,1000,1000,1000,1000,78028776,1564,1563,1587,1587
45845821,1000,1000,1000,1000,78128736,1571,1569,1581,1582
45848320,1000,1000,1000,1000,78228696,1576,1574,1574,1575
45850819,1000,1000,1000,1000,78328656,1580,1578,1569,1570
45853318,1000,1000,1000,1000,78428616,1584,1582,1567,1568
45855817,1000,1000,1000,1000,78528576,1585,1584,1565,1566
45858316,1000,1000,1000,1000,78628536,1586,1584,1566,1566
45860815,1000,1000,1000,1000,78728496,1586,1584,1567,1567
45863314,1000,1000,1000,1000,78828456,1584,1582,1569,1569
45865813,1000,1000,1000,1000,78928416,1582,1582,1572,1573
45868312,1000,1000,1000,1000,79028376,1580,1580,1575,1575
45870811,1000,1000,1000,1000,79128336,1577,1578,1578,1577
45873310,1000,1000,1000,1000,79228296,1575,1576,1580,1579
45875809,1000,1000,1000,1000,79328256,1575,1576,1583,1582
45878308,1000,1000,1000,1000,79428216,1573,1575,1584,1583
45880807,1000,1000,1000,1000,79528176,1573,1574,1584,1584
45883306,1000,1000,1000,1000,79628969,1574,1574,1584,1584
45885805,1000,1000,1000,1000,79728929,1574,1574,1584,1584
45888304,1000,1000,1000,1000,79828889,1574,1574,1582,1582
45890803,1000,1000,1000,1000,79928849,1576,1576,1581,1582
45893302,1000,1000,1000,1000,80028809,1577,1577,1580,1580
45895801,1000,1000,1000,1000,80128769,1578,1578,1579,1579
45898300,1000,1000,1000,1000,80228729,1580,1579,1578,1578
45900799,1000,1000,1000,1000,80328689,1581,1580,1578,1578
45903298,1000,1000,1000,1000,80428649,1581,1581,1577,1577
45905797,1000,1000,1000,1000,80528609,1582,1582,1578,1578
45908296,1000,1000,1000,1000,80628569,1582,1583,1578,1578
45910795,1000,1000,1000,1000,80728529,1583,1583,1579,1579
45913294,1000,1000,1000,1000,80828489,1584,1583,1580,1580
45915793,1000,1000,1000,1000,80928449,1582,1582,1580,1579
45918292,1000,1000,1000,1000,81028409,1581,1581,1579,1579
45920791,1000,1000,1000,1000,81128369,1581,1580,1580,1580
45923290,1000,1000,1000,1000,81228329,1581,1580,1580,1581
45925789,1000,1000,1000,1000,81328289,1580,1580,1581,1580
45928288,1000,1000,1000,1000,81428249,1580,1580,1581,1581
45930787,1000,1000,1000,1000,81528209,1580,1580,1581,1582
45933286,1000,1000,1000,1000,81628169,1580,1580,1582,1582
45935785,1000,1000,1000,1000,81728962,1579,1580,1581,1581
45938284,1000,1000,1000,1000,81828922,1580,1580,1581,1581
45940783,1000,1000,1000,1000,81928882,1581,1581,1583,1580
45943282,1000,1000,1000,1000,82028842,1580,1581,1586,1572
45945781,1000,1000,1000,1000,82128802,1580,1580,1584,1573
45948280,1000,1000,1000,1000,82228762,1577,1577,1577,1575
45950779,1000,1000,1000,1000,82328722,1573,1573,1571,1575
45953278,1000,1000,1000,1000,82428682,1570,1569,1565,1573
45955777,1000,1000,1000,1000,82528642,1568,1568,1564,1571
45958276,1000,1000,1000,1000,82628602,1566,1567,1564,1568
45960775,1000,1000,1000,1000,82728562,1566,1567,1565,1566
45963274,1000,1000,1000,1000,82828522,1566,1566,1566,1564
45965773,1000,1000,1000,1000,82928482,1565,1564,1565,1562
45968272,1000,1000,1000,1000,83028442,1564,1565,1566,1563
45970771,1000,1000,1000,1000,83128402,1565,1564,1565,1563
45973270,1000,1000,1000,1000,83228362,1564,1563,1565,1563
45975769,1000,1000,1000,1000,83328322,1563,1562,1563,1563
45978268,1000,1000,1000,1000,83428282,1562,1561,1563,1563
45980767,1000,1000,1000,1000,83528242,1561,1561,1561,1562
45983266,1000,1000,1000,1000,83628202,1561,1561,1562,1561
45985765,1000,1000,1000,1000,83728162,1561,1561,1562,1561
45988264,1000,1000,1000,1000,83828955,1561,1561,1561,1561
45990763,1000,1000,1000,1000,83928915,1559,1560,1560,1560
45993262,1000,1000,1000,1000,84028875,1559,1559,1560,1559
45995761,1000,1000,1000,1000,84128835,1559,1558,1559,1559
45998260,1000,1000,1000,1000,84228795,1559,1559,1560,1558
46000759,1000,1000,1000,1000,84328755,1559,1559,1560,1559
46003258,1000,1000,1000,1000,84428715,1559,1559,1560,1558
46005757,1000,1000,1000,1000,84528675,1559,1559,1559,1558
46008256,1000,1000,1000,1000,84628635,1559,1559,1559,1557
46010755,1000,1000,1000,1000,84728595,1559,1559,1560,1557
46013254,1000,1000,1000,1000,84828555,1559,1559,1559,1559
46015753,1000,1000,1000,1000,84928515,1560,1560,1557,1563
46018252,1000,1000,1000,1000,85028475,1560,1560,1557,1563
46020751,1000,1000,1000,1000,85128435,1558,1558,1556,1561
46023250,1000,1000,1000,1000,85228395,1558,1558,1557,1558
46025749,1000,1000,1000,1000,85328355,1558,1558,1557,1559
46028248,1000,1000,1000,1000,85428315,1556,1555,1554,1556
46030747,1000,1000,1000,1000,85528275,1553,1552,1552,1553
46033246,1000,1000,1000,1000,85628235,1548,1548,1548,1548
46035745,1000,1000,1000,1000,85728195,1543,1543,1543,1542
46038244,1000,1000,1000,1000,85828155,1536,1535,1536,1535
46040743,1000,1000,1000,1000,85928948,1529,1529,1529,1529
46043242,1000,1000,1000,1000,86028908,1522,1522,1522,1522
46045741,1000,1000,1000,1000,86128868,1520,1521,1520,1521
46048240,1000,1000,1000,1000,86228828,1520,1521,1520,1522
46050739,1000,1000,1000,1000,86328788,1521,1523,1521,1523
46053238,1000,1000,1000,1000,86428748,1523,1524,1523,1524
46055737,1000,1000,1000,1000,86528708,1527,1527,1527,1528
46058236,1000,1000,1000,1000,86628668,1531,1531,1532,1531
46060735,1000,1000,1000,1000,86728628,1536,1535,1536,1535
46063234,1000,1000,1000,1000,86828588,1539,1538,1539,1538
46065733,1000,1000,1000,1000,86928548,1542,1541,1542,1541
46068232,1000,1000,1000,1000,87028508,1544,1543,1544,1543
46070731,1000,1000,1000,1000,87128468,1544,1543,1544,1543
46073230,1000,1000,1000,1000,87228428,1546,1546,1546,1545
46075729,1000,1000,1000,1000,87328388,1546,1546,1546,1546
46078228,1000,1000,1000,1000,87428348,1546,1546,1546,1546
46080727,1000,1000,1000,1000,87528308,1546,1546,1546,1546
46083226,1000,1000,1000,1000,87628268,1546,1547,1546,1547
46085725,1000,1000,1000,1000,87728228,1546,1546,1546,1546
46088224,1000,1000,1000,1000,87828188,1546,1546,1546,1546
46090723,1000,1000,1000,1000,87928981,1546,1546,1546,1546
46093222,1000,1000,1000,1000,88028941,1546,1546,1546,1546
46095721,1000,1000,1000,1000,88128901,1546,1545,1546,1545
46098220,1000,1000,1000,1000,88228861,1545,1546,1546,1545
46100719,1000,1000,1000,1000,88328821,1545,1545,1545,1545
46103218,1000,1000,1000,1000,88428781,1545,1545,1545,1545
46105717,1000,1000,1000,1000,88528741,1545,1545,1545,1545
46108216,1000,1000,1000,1000,88628701,1544,1545,1544,1545
46110715,1000,1000,1000,1000,88728661,1544,1544,1544,1544
46113214,1000,1000,1000,1000,88828621,1545,1545,1545,1545
46115713,1000,1000,1000,1000,88928581,1545,1544,1545,1544
46118212,1000,1000,1000,1000,89028541,1545,1545,1545,1544
46120711,1000,1000,1000,1000,89128501,1545,1545,1545,1544
46123210,1000,1000,1000,1000,89228461,1544,1545,1545,1545
46125709,1000,1000,1000,1000,89328421,1545,1545,1544,1545
46128208,1000,1000,1000,1000,89428381,1544,1544,1544,1544
46130707,1000,1000,1000,1000,89528341,1544,1543,1544,1544
46133206,1000,1000,1000,1000,89628301,1544,1544,1544,1544
46135705,1000,1000,1000,1000,89728261,1545,1544,1544,1544
46138204,1000,1000,1000,1000,89828221,1543,1544,1543,1543
46140703,1000,1000,1000,1000,89928181,1544,1544,1544,1544
46143202,1000,1000,1000,1000,90028974,1544,1544,1544,1544
46145701,1000,1000,1000,1000,90128934,1544,1544,1544,1544
46148200,1000,1000,1000,1000,90228894,1544,1544,1544,1544
46150699,1000,1000,1000,1000,90328854,1544,1544,1544,1544
46153198,1000,1000,1000,1000,90428814,1545,1545,1545,1545
46155697,1000,1000,1000,1000,90528774,1545,1544,1545,1544
46158196,1000,1000,1000,1000,90628734,1543,1544,1544,1543
46160695,1000,1000,1000,1000,90728694,1544,1544,1543,1544
46163194,1000,1000,1000,1000,90828654,1544,1544,1544,1544
46165693,1000,1000,1000,1000,90928614,1544,1544,1545,1544
46168192,1000,1000,1000,1000,91028574,1544,1544,1544,1545
46170691,1000,1000,1000,1000,91128534,1545,1544,1544,1544
46173190,1000,1000,1000,1000,91228494,1544,1544,1544,1544
46175689,1000,1000,1000,1000,91328454,1544,1544,1544,1544
46178188,1000,1000,1000,1000,91428414,1545,1545,1545,1545
46180687,1000,1000,1000,1000,91528374,1544,1544,1544,1544
46183186,1000,1000,1000,1000,91628334,1545,1545,1545,1545
46185685,1000,1000,1000,1000,91728294,1545,1545,1545,1545
46188184,1000,1000,1000,1000,91828254,1544,1544,1544,1544
46190683,1000,1000,1000,1000,91928214,1544,1545,1545,1544
46193182,1000,1000,1000,1000,92028174,1544,1544,1544,1544
46195681,1000,1000,1000,1000,92128967,1544,1544,1544,1544
46198180,1000,1000,1000,1000,92228927,1544,1544,1544,1544
46200679,1000,1000,1000,1000,92328887,1544,1543,1544,1544
46203178,1000,1000,1000,1000,92428847,1545,1545,1544,1545
46205677,1000,1000,1000,1000,92528807,1545,1545,1545,1545
46208176,1000,1000,1000,1000,92628767,1544,1545,1545,1545
46210675,1000,1000,1000,1000,92728727,1544,1544,1544,1544
46213174,1000,1000,1000,1000,92828687,1544,1544,1544,1544
46215673,1000,1000,1000,1000,92928647,1545,1545,1545,1545
46218172,1000,1000,1000,1000,93028607,1544,1544,1544,1544
46220671,1000,1000,1000,1000,93128567,1544,1544,1544,1544
46223170,1000,1000,1000,1000,93228527,1545,1545,1545,1545
46225669,1000,1000,1000,1000,93328487,1544,1544,1544,1545
46228168,1000,1000,1000,1000,93428447,1544,1544,1544,1545
46230667,1000,1000,1000,1000,93528407,1544,1544,1544,1544
46233166,1000,1000,1000,1000,93628367,1544,1543,1544,1543
46235665,1000,1000,1000,1000,93728327,1543,1543,1543,1543
46238164,1000,1000,1000,1000,93828287,1543,1544,1544,1543
46240663,1000,1000,1000,1000,93928247,1544,1544,1544,1544
46243162,1000,1000,1000,1000,94028207,1544,1545,1544,1544
46245661,1000,1000,1000,1000,94128167,1544,1544,1544,1545
46248160,1000,1000,1000,1000,94228960,1544,1544,1544,1544
46250659,1000,1000,1000,1000,94328920,1545,1544,1544,1544
46253158,1000,1000,1000,1000,94428880,1544,1543,1544,1543
46255657,1000,1000,1000,1000,94528840,1544,1544,1544,1544
46258156,1000,1000,1000,1000,94628800,1544,1544,1544,1544
46260655,1000,1000,1000,1000,94728760,1544,1544,1544,1544
46263154,1000,1000,1000,1000,94828720,1544,1545,1544,1544
46266486,1000,1000,1000,1000,94928680,1544,1543,1543,1544
46268985,1000,1000,1000,1000,95028640,1544,1544,1544,1544
46271484,1000,1000,1000,1000,95128600,1544,1544,1544,1544
46273983,1000,1000,1000,1000,95228560,1544,1545,1545,1544
46276482,1000,1000,1000,1000,95328520,1544,1544,1544,1544
46278981,1000,1000,1000,1000,95428480,1544,1544,1545,1544
46281480,1000,1000,1000,1000,95528440,1545,1544,1545,1544
46283979,1000,1000,1000,1000,95628400,1545,1544,1545,1545
46286478,1000,1000,1000,1000,95728360,1506,1492,1506,1493
46288977,1000,1000,1000,1000,95828320,1383,1316,1383,1317
46291476,1000,1000,1000,1000,95928280,1334,1235,1333,1237
46293975,1000,1000,1000,1000,96028240,1320,1210,1319,1211
46296474,1000,1000,1000,1000,96128200,1304,1181,1304,1183
46298973,1000,1000,1000,1000,96228160,1288,1150,1287,1150
46301472,1000,1000,1000,1000,96328953,1188,1150,1187,1151
46303971,1000,1000,1000,1000,96428913,1074,1150,1073,1150
46306470,1000,1000,1000,1000,96528873,1074,1150,1073,1150
46308969,1000,1000,1000,1000,96628833,1074,1150,1073,1150
46311468,1000,1000,1000,1000,96728793,1074,1150,1070,1155
46313967,1000,1000,1000,1000,96828753,1073,1150,1067,1159
46316466,1000,1000,1000,1000,96928713,1073,1150,1069,1156
46318965,1000,1000,1000,1000,97028673,1073,1150,1069,1156
46321464,1000,1000,1000,1000,97128633,1073,1150,1069,1156
46323963,1000,1000,1000,1000,97228593,1073,1150,1069,1156
46326462,1000,1000,1000,1000,97328553,1073,1150,1068,1157
46328961,1000,1000,1000,1000,97428513,1073,1150,1068,1157
46331460,1000,1000,1000,1000,97528473,1072,1151,1074,1150
46333959,1000,1000,1000,1000,97628433,1073,1150,1071,1153
46336458,1000,1000,1000,1000,97728393,1074,1150,1071,1153
46338957,1000,1000,1000,1000,97828353,1073,1150,1071,1153
46341456,1000,1000,1000,1000,97928313,1073,1150,1071,1153
46343955,1000,1000,1000,1000,98028273,894,1145,894,1145
46346454,1000,1000,1000,1000,98128233,1000,1000,1000,1000
46348953,1000,1000,1000,1000,98228193,1000,1000,1000,1000
46351452,1000,1000,1000,1000,98328986,1000,1000,1000,1000
46353951,1000,1000,1000,1000,98428946,1000,1000,1000,1000
46356450,1000,1000,1000,1000,98528906,1000,1000,1000,1000
46358949,1000,1000,1000,1000,98628866,1000,1000,1000,1000
46361448,1000,1000,1000,1000,98728826,1000,1000,1000,1000
46363947,1000,1000,1000,1000,98828786,1000,1000,1000,1000
46366446,1000,1000,1000,1000,98928746,1000,1000,1000,1000
46368945,1000,1000,1000,1000,99028706,1000,1000,1000,1000
46371444,1000,1000,1000,1000,99128666,1000,1000,1000,1000
46373943,1000,1000,1000,1000,99228626,1000,1000,1000,1000
46376442,1000,1000,1000,1000,99328586,1000,1000,1000,1000
46378941,1000,1000,1000,1000,99428546,1000,1000,1000,1000
46381440,1000,1000,1000,1000,99528506,1000,1000,1000,1000
46383939,1000,1000,1000,1000,99628466,1000,1000,1000,1000
46386438,1000,1000,1000,1000,99728426,1000,1000,1000,1000
46388937,1000,1000,1000,1000,99828386,1000,1000,1000,1000
46391436,1000,1000,1000,1000,99928346,1000,1000,1000,1000
46393935,1000,1000,1000,1000,100028306,1000,1000,1000,1000
46396434,1000,1000,1000,1000,100128266,1000,1000,1000,1000
46398933,1000,1000,1000,1000,100228226,1000,1000,1000,1000
46401432,1000,1000,1000,1000,100328186,1000,1000,1000,1000
46403931,1000,1000,1000,1000,100428979,1000,1000,1000,1000
46406430,1000,1000,1000,1000,100528939,1000,1000,1000,1000
46408929,1000,1000,1000,1000,100628899,1000,1000,1000,1000
46411428,1000,1000,1000,1000,100728859,1000,1000,1000,1000
46413927,1000,1000,1000,1000,100828819,1000,1000,1000,1000
46416426,1000,1000,1000,1000,100928779,1000,1000,1000,1000
46418925,1000,1000,1000,1000,101028739,1000,1000,1000,1000
46421424,1000,1000,1000,1000,101128699,1000,1000,1000,1000
46423923,1000,1000,1000,1000,101228659,1000,1000,1000,1000
46426422,1000,1000,1000,1000,101328619,1000,1000,1000,1000
46428921,1000,1000,1000,1000,101428579,1000,1000,1000,1000
46431420,1000,1000,1000,1000,101528539,1000,1000,1000,1000
46433919,1000,1000,1000,1000,101628499,1000,1000,1000,1000
46436418,1000,1000,1000,1000,101728459,1000,1000,1000,1000
46438917,1000,1000,1000,1000,101828419,1000,1000,1000,1000
46441416,1000,1000,1000,1000,101928379,1000,1000,1000,1000
46443915,1000,1000,1000,1000,102028339,1000,1000,1000,1000
46446414,1000,1000,1000,1000,102128299,1000,1000,1000,1000
46448913,1000,1000,1000,1000,102228259,1000,1000,1000,1000
46451412,1000,1000,1000,1000,102328219,1000,1000,1000,1000
46453911,1000,1000,1000,1000,102428179,1000,1000,1000,1000
46456410,1000,1000,1000,1000,102528972,1000,1000,1000,1000
46458909,1000,1000,1000,1000,102628932,1000,1000,1000,1000
46461408,1000,1000,1000,1000,102728892,1000,1000,1000,1000
46463907,1000,1000,1000,1000,102828852,1000,1000,1000,1000
46466406,1000,1000,1000,1000,102928812,1000,1000,1000,1000
46468905,1000,1000,1000,1000,103028772,1000,1000,1000,1000
46471404,1000,1000,1000,1000,103128732,1000,1000,1000,1000
46473903,1000,1000,1000,1000,103228692,1000,1000,1000,1000
46476402,1000,1000,1000,1000,103328652,1000,1000,1000,1000
46478901,1000,1000,1000,1000,103428612,1000,1000,1000,1000
46481400,1000,1000,1000,1000,103528572,1000,1000,1000,1000
46483899,1000,1000,1000,1000,103628532,1000,1000,1000,1000
46486398,1000,1000,1000,1000,103728492,1000,1000,1000,1000
46488897,1000,1000,1000,1000,103828452,1000,1000,1000,1000
46491396,1000,1000,1000,1000,103928412,1000,1000,1000,1000
46493895,1000,1000,1000,1000,104028372,1000,1000,1000,1000
46496394,1000,1000,1000,1000,104128332,1000,1000,1000,1000
46498893,1000,1000,1000,1000,104228292,1000,1000,1000,1000
46501392,1000,1000,1000,1000,104328252,1000,1000,1000,1000
46503891,1000,1000,1000,1000,104428212,1000,1000,1000,1000
46506390,1000,1000,1000,1000,104528172,1000,1000,1000,1000
46508889,1000,1000,1000,1000,104628965,1000,1000,1000,1000
46511388,1000,1000,1000,1000,104728925,1000,1000,1000,1000
46513887,1000,1000,1000,1000,104828885,1000,1000,1000,1000
46516386,1000,1000,1000,1000,104928845,1000,1000,1000,1000
46518885,1000,1000,1000,1000,105028805,1000,1000,1000,1000
46521384,1000,1000,1000,1000,105128765,1000,1000,1000,1000
46523883,1000,1000,1000,1000,105228725,1000,1000,1000,1000
46526382,1000,1000,1000,1000,105328685,1000,1000,1000,1000
46528881,1000,1000,1000,1000,105428645,1000,1000,1000,1000
46531380,1000,1000,1000,1000,105528605,1000,1000,1000,1000
46533879,1000,1000,1000,1000,105628565,1000,1000,1000,1000
46536378,1000,1000,1000,1000,105728525,1000,1000,1000,1000
46538877,1000,1000,1000,1000,105828485,1000,1000,1000,1000
46541376,1000,1000,1000,1000,105928445,1000,1000,1000,1000
46543875,1000,1000,1000,1000,106028405,1000,1000,1000,1000
46546374,1000,1000,1000,1000,106128365,1000,1000,1000,1000
46548873,1000,1000,1000,1000,106228325,1000,1000,1000,1000
46551372,1000,1000,1000,1000,106328285,1000,1000,1000,1000
46553871,1000,1000,1000,1000,106428245,1000,1000,1000,1000
46556370,1000,1000,1000,1000,106528205,1000,1000,1000,1000
46558869,1000,1000,1000,1000,106628165,1000,1000,1000,1000
46561368,1000,1000,1000,1000,106728958,1000,1000,1000,1000
46563867,1000,1000,1000,1000,106828918,1000,1000,1000,1000
46566366,1000,1000,1000,1000,106928878,1000,1000,1000,1000
46568865,1000,1000,1000,1000,107028838,1000,1000,1000,1000
46571364,1000,1000,1000,1000,107128798,1000,1000,1000,1000
46573863,1000,1000,1000,1000,107228758,1000,1000,1000,1000
46576362,1000,1000,1000,1000,107328718,1000,1000,1000,1000
46578861,1000,1000,1000,1000,107428678,1000,1000,1000,1000
46581360,1000,1000,1000,1000,107528638,1000,1000,1000,1000
46583859,1000,1000,1000,1000,107628598,1000,1000,1000,1000
46586358,1000,1000,1000,1000,107728558,1000,1000,1000,1000
46588857,1000,1000,1000,1000,107828518,1000,1000,1000,1000
46591356,1000,1000,1000,1000,107928478,1000,1000,1000,1000
46593855,1000,1000,1000,1000,108028438,1000,1000,1000,1000
46596354,1000,1000,1000,1000,108128398,1000,1000,1000,1000
46598853,1000,1000,1000,1000,108228358,1000,1000,1000,1000
46601352,1000,1000,1000,1000,108328318,1000,1000,1000,1000
46603851,1000,1000,1000,1000,108428278,1000,1000,1000,1000
46606350,1000,1000,1000,1000,108528238,1000,1000,1000,1000
46608849,1000,1000,1000,1000,108628198,1000,1000,1000,1000
46611348,1000,1000,1000,1000,108728158,1000,1000,1000,1000
46613847,1000,1000,1000,1000,108828951,1000,1000,1000,1000
46616346,1000,1000,1000,1000,108928911,1000,1000,1000,1000
46618845,1000,1000,1000,1000,109028871,1000,1000,1000,1000
46621344,1000,1000,1000,1000,109128831,1000,1000,1000,1000
46623843,1000,1000,1000,1000,109228791,1000,1000,1000,1000
46626342,1000,1000,1000,1000,109328751,1000,1000,1000,1000
46628841,1000,1000,1000,1000,109428711,1000,1000,1000,1000
46631340,1000,1000,1000,1000,109528671,1000,1000,1000,1000
46633839,1000,1000,1000,1000,109628631,1000,1000,1000,1000
46636338,1000,1000,1000,1000,109728591,1000,1000,1000,1000
46638837,1000,1000,1000,1000,109828551,1000,1000,1000,1000
46641336,1000,1000,1000,1000,109928511,1000,1000,1000,1000
46643835,1000,1000,1000,1000,110028471,1000,1000,1000,1000
46646334,1000,1000,1000,1000,110128431,1000,1000,1000,1000
46648833,1000,1000,1000,1000,110228391,1000,1000,1000,1000
46651332,1000,1000,1000,1000,110328351,1000,1000,1000,1000
46653831,1000,1000,1000,1000,,,,,
46656330,1000,1000,1000,1000,,,,,
46658829,1000,1000,1000,1000,,,,,
46661328,1000,1000,1000,1000,,,,,
46663827,1000,1000,1000,1000,,,,,
46666326,1000,1000,1000,1000,,,,,
46668825,1000,1000,1000,1000,,,,,
46671324,1000,1000,1000,1000,,,,,
46673823,1000,1000,1000,1000,,,,,
46676322,1000,1000,1000,1000,,,,,
46678821,1000,1000,1000,1000,,,,,
46681320,1000,1000,1000,1000,,,,,
46683819,1000,1000,1000,1000,,,,,
46686318,1000,1000,1000,1000,,,,,
46688817,1000,1000,1000,1000,,,,,
46691316,1000,1000,1000,1000,,,,,
46693815,1000,1000,1000,1000,,,,,
46696314,1000,1000,1000,1000,,,,,
46698813,1000,1000,1000,1000,,,,,
46701312,1000,1000,1000,1000,,,,,
46703811,1000,1000,1000,1000,,,,,
46706310,1000,1000,1000,1000,,,,,
46708809,1000,1000,1000,1000,,,,,
46711308,1000,1000,1000,1000,,,,,
46713807,1000,1000,1000,1000,,,,,
46716306,1000,1000,1000,1000,,,,,
46718805,1000,1000,1000,1000,,,,,
46721304,1000,1000,1000,1000,,,,,
46723803,1000,1000,1000,1000,,,,,
46726302,1000,1000,1000,1000,,,,,
46728801,1000,1000,1000,1000,,,,,
46731300,1000,1000,1000,1000,,,,,
46733799,1000,1000,1000,1000,,,,,
46736298,1000,1000,1000,1000,,,,,
46738797,1000,1000,1000,1000,,,,,
46741296,1000,1000,1000,1000,,,,,
46743795,1000,1000,1000,1000,,,,,
46746294,1000,1000,1000,1000,,,,,
46748793,1000,1000,1000,1000,,,,,
46751292,1000,1000,1000,1000,,,,,
46753791,1000,1000,1000,1000,,,,,
46756290,1000,1000,1000,1000,,,,,
46758789,1000,1000,1000,1000,,,,,
46761288,1000,1000,1000,1000,,,,,
46763787,1000,1000,1000,1000,,,,,
46766286,1000,1000,1000,1000,,,,,
46768785,1000,1000,1000,1000,,,,,
46771284,1000,1000,1000,1000,,,,,
46773783,1000,1000,1000,1000,,,,,
46776282,1000,1000,1000,1000,,,,,
46778781,1000,1000,1000,1000,,,,,
46781280,1000,1000,1000,1000,,,,,
46783779,1000,1000,1000,1000,,,,,
46786278,1000,1000,1000,1000,,,,,
46788777,1000,1000,1000,1000,,,,,
46791276,1000,1000,1000,1000,,,,,
46793775,1000,1000,1000,1000,,,,,
46796274,1000,1000,1000,1000,,,,,
46798773,1000,1000,1000,1000,,,,,
46801272,1000,1000,1000,1000,,,,,
46803771,1000,1000,1000,1000,,,,,
46806270,1000,1000,1000,1000,,,,,
46808769,1000,1000,1000,1000,,,,,
46811268,1000,1000,1000,1000,,,,,
46813767,1000,1000,1000,1000,,,,,
46816266,1000,1000,1000,1000,,,,,
46818765,1000,1000,1000,1000,,,,,
46821264,1000,1000,1000,1000,,,,,
46823763,1000,1000,1000,1000,,,,,
46826262,1000,1000,1000,1000,,,,,
46828761,1000,1000,1000,1000,,,,,
46831260,1000,1000,1000,1000,,,,,
46833759,1000,1000,1000,1000,,,,,
46836258,1000,1000,1000,1000,,,,,
46838757,1000,1000,1000,1000,,,,,
46841256,1000,1000,1000,1000,,,,,
46843755,1000,1000,1000,1000,,,,,
46846254,1000,1000,1000,1000,,,,,
46848753,1000,1000,1000,1000,,,,,
46851252,1000,1000,1000,1000,,,,,
46853751,1000,1000,1000,1000,,,,,
46856250,1000,1000,1000,1000,,,,,
46858749,1000,1000,1000,1000,,,,,
46861248,1000,1000,1000,1000,,,,,
46863747,1000,1000,1000,1000,,,,,
46866246,1000,1000,1000,1000,,,,,
46868745,1000,1000,1000,1000,,,,,
46871244,1000,1000,1000,1000,,,,,
46873743,1000,1000,1000,1000,,,,,
46876242,1000,1000,1000,1000,,,,,
46878741,1000,1000,1000,1000,,,,,
46881240,1000,1000,1000,1000,,,,,
46883739,1000,1000,1000,1000,,,,,
46886238,1000,1000,1000,1000,,,,,
46888737,1000,1000,1000,1000,,,,,
46891236,1000,1000,1000,1000,,,,,
46893735,1000,1000,1000,1000,,,,,
46896234,1000,1000,1000,1000,,,,,
46898733,1000,1000,1000,1000,,,,,
46901232,1000,1000,1000,1000,,,,,
46903731,1000,1000,1000,1000,,,,,
46906230,1000,1000,1000,1000,,,,,
46908729,1000,1000,1000,1000,,,,,
46911228,1000,1000,1000,1000,,,,,
46913727,1000,1000,1000,1000,,,,,
46916226,1000,1000,1000,1000,,,,,
46918725,1000,1000,1000,1000,,,,,
46921224,1000,1000,1000,1000,,,,,
46923723,1000,1000,1000,1000,,,,,
46926222,1000,1000,1000,1000,,,,,
46928721,1000,1000,1000,1000,,,,,
46931220,1000,1000,1000,1000,,,,,
46933719,1000,1000,1000,1000,,,,,
46936218,1000,1000,1000,1000,,,,,
46938717,1000,1000,1000,1000,,,,,
46941216,1000,1000,1000,1000,,,,,
46943715,1000,1000,1000,1000,,,,,
46946214,1000,1000,1000,1000,,,,,
46948713,1000,1000,1000,1000,,,,,
46951212,1000,1000,1000,1000,,,,,
46953711,1000,1000,1000,1000,,,,,
46956210,1000,1000,1000,1000,,,,,
46958709,1000,1000,1000,1000,,,,,
46961208,1000,1000,1000,1000,,,,,
46963707,1000,1000,1000,1000,,,,,
46966206,1000,1000,1000,1000,,,,,
46968705,1000,1000,1000,1000,,,,,
46971204,1000,1000,1000,1000,,,,,
46973703,1000,1000,1000,1000,,,,,
46976202,1000,1000,1000,1000,,,,,
46978701,1000,1000,1000,1000,,,,,
46981200,1000,1000,1000,1000,,,,,
46983699,1000,1000,1000,1000,,,,,
46986198,1000,1000,1000,1000,,,,,
46988697,1000,1000,1000,1000,,,,,
46991196,1000,1000,1000,1000,,,,,
46993695,1000,1000,1000,1000,,,,,
46996194,1000,1000,1000,1000,,,,,
46998693,1000,1000,1000,1000,,,,,
47001192,1000,1000,1000,1000,,,,,
47003691,1000,1000,1000,1000,,,,,
47006190,1000,1000,1000,1000,,,,,
47008689,1000,1000,1000,1000,,,,,
47011188,1000,1000,1000,1000,,,,,
47013687,1000,1000,1000,1000,,,,,
47016186,1000,1000,1000,1000,,,,,
47018685,1000,1000,1000,1000,,,,,
47021184,1000,1000,1000,1000,,,,,
47023683,1000,1000,1000,1000,,,,,
47026182,1001,1001,1001,1001,,,,,
47028681,1002,1002,1002,1002,,,,,
47031180,1003,1003,1003,1003,,,,,
47033679,1003,1003,1003,1003,,,,,
47036178,1004,1004,1004,1004,,,,,
47038677,1005,1005,1005,1005,,,,,
47041176,1006,1006,1006,1006,,,,,
47043675,1006,1006,1006,1006,,,,,
47046174,1007,1007,1007,1007,,,,,
47048673,1008,1008,1008,1008,,,,,
47051172,1009,1009,1009,1009,,,,,
47053671,1009,1009,1009,1009,,,,,
47056170,1010,1010,1010,1010,,,,,
47058669,1011,1011,1011,1011,,,,,
47061168,1012,1012,1012,1012,,,,,
47063667,1012,1012,1012,1012,,,,,
47066166,1013,1013,1013,1013,,,,,
47068665,1014,1014,1014,1014,,,,,
47071164,1015,1015,1015,1015,,,,,
47073663,1015,1015,1015,1015,,,,,
47076162,1016,1016,1016,1016,,,,,
47078661,1017,1017,1017,1017,,,,,
47081160,1018,1018,1018,1018,,,,,
47083659,1018,1018,1018,1018,,,,,
47086158,1019,1019,1019,1019,,,,,
47088657,1020,1020,1020,1020,,,,,
47091156,1021,1021,1021,1021,,,,,
47093655,1021,1021,1021,1021,,,,,
47096154,1022,1022,1022,1022,,,,,
47098653,1023,1023,1023,1023,,,,,
47101152,1024,1024,1024,1024,,,,,
47103651,1024,1024,1024,1024,,,,,
47106150,1025,1025,1025,1025,,,,,
47108649,1026,1026,1026,1026,,,,,
47111148,1027,1027,1027,1027,,,,,
47113647,1027,1027,1027,1027,,,,,
47116146,1028,1028,1028,1028,,,,,
47118645,1029,1029,1029,1029,,,,,
47121144,1030,1030,1030,1030,,,,,
47123643,1030,1030,1030,1030,,,,,
47126142,1031,1031,1031,1031,,,,,
47128641,1032,1032,1032,1032,,,,,
47131140,1033,1033,1033,1033,,,,,
47133639,1033,1033,1033,1033,,,,,
47136138,1034,1034,1034,1034,,,,,
47138637,1035,1035,1035,1035,,,,,
47141136,1036,1036,1036,1036,,,,,
47143635,1036,1036,1036,1036,,,,,
47146134,1037,1037,1037,1037,,,,,
47148633,1038,1038,1038,1038,,,,,
47151132,1039,1039,1039,1039,,,,,
47153631,1039,1039,1039,1039,,,,,
47156130,1040,1040,1040,1040,,,,,
47158629,1041,1041,1041,1041,,,,,
47161128,1042,1042,1042,1042,,,,,
47163627,1042,1042,1042,1042,,,,,
47166126,1043,1043,1043,1043,,,,,
47168625,1044,1044,1044,1044,,,,,
47171124,1045,1045,1045,1045,,,,,
47173623,1045,1045,1045,1045,,,,,
47176122,1046,1046,1046,1046,,,,,
47178621,1047,1047,1047,1047,,,,,
47181120,1048,1048,1048,1048,,,,,
47183619,1048,1048,1048,1048,,,,,
47186118,1049,1049,1049,1049,,,,,
47188617,1050,1050,1050,1050,,,,,
47191116,1051,1051,1051,1051,,,,,
47193615,1051,1051,1051,1051,,,,,
47196114,1052,1052,1052,1052,,,,,
47198613,1053,1053,1053,1053,,,,,
47201112,1054,1054,1054,1054,,,,,
47203611,1054,1054,1054,1054,,,,,
47206110,1055,1055,1055,1055,,,,,
47208609,1056,1056,1056,1056,,,,,
47211108,1057,1057,1057,1057,,,,,
47213607,1057,1057,1057,1057,,,,,
47216106,1058,1058,1058,1058,,,,,
47218605,1059,1059,1059,1059,,,,,
47221104,1060,1060,1060,1060,,,,,
47223603,1060,1060,1060,1060,,,,,
47226102,1061,1061,1061,1061,,,,,
47228601,1062,1062,1062,1062,,,,,
47231100,1063,1063,1063,1063,,,,,
47233599,1063,1063,1063,1063,,,,,
47236098,1064,1064,1064,1064,,,,,
47238597,1065,1065,1065,1065,,,,,
47241096,1066,1066,1066,1066,,,,,
47243595,1066,1066,1066,1066,,,,,
47246094,1067,1067,1067,1067,,,,,
47248593,1068,1068,1068,1068,,,,,
47251092,1069,1069,1069,1069,,,,,
47253591,1069,1069,1069,1069,,,,,
47256090,1070,1070,1070,1070,,,,,
47258589,1071,1071,1071,1071,,,,,
47261088,1072,1072,1072,1072,,,,,
47263587,1072,1072,1072,1072,,,,,
47266086,1073,1073,1073,1073,,,,,
47268585,1074,1074,1074,1074,,,,,
47271084,1075,1075,1075,1075,,,,,
47273583,1075,1075,1075,1075,,,,,
47276082,1076,1076,1076,1076,,,,,
47278581,1077,1077,1077,1077,,,,,
47281080,1078,1078,1078,1078,,,,,
47283579,1078,1078,1078,1078,,,,,
47286078,1079,1079,1079,1079,,,,,
47288577,1080,1080,1080,1080,,,,,
47291076,1081,1081,1081,1081,,,,,
47293575,1081,1081,1081,1081,,,,,
47296074,1082,1082,1082,1082,,,,,
47298573,1083,1083,1083,1083,,,,,
47301072,1084,1084,1084,1084,,,,,
47303571,1084,1084,1084,1084,,,,,
47306070,1085,1085,1085,1085,,,,,
47308569,1086,1086,1086,1086,,,,,
47311068,1087,1087,1087,1087,,,,,
47313567,1087,1087,1087,1087,,,,,
47316066,1088,1088,1088,1088,,,,,
47318565,1089,1089,1089,1089,,,,,
47321064,1090,1090,1090,1090,,,,,
47323563,1090,1090,1090,1090,,,,,
47326062,1091,1091,1091,1091,,,,,
47328561,1092,1092,1092,1092,,,,,
47331060,1093,1093,1093,1093,,,,,
47333559,1093,1093,1093,1093,,,,,
47336058,1094,1094,1094,1094,,,,,
47338557,1095,1095,1095,1095,,,,,
47341056,1096,1096,1096,1096,,,,,
47343555,1096,1096,1096,1096,,,,,
47346054,1097,1097,1097,1097,,,,,
47348553,1098,1098,1098,1098,,,,,
47351052,1099,1099,1099,1099,,,,,
47353551,1099,1099,1099,1099,,,,,
47356050,1100,1100,1100,1100,,,,,
47358549,1101,1101,1101,1101,,,,,
47361048,1101,1101,1101,1101,,,,,
47363547,1102,1102,1102,1102,,,,,
47366046,1103,1103,1103,1103,,,,,
47368545,1104,1104,1104,1104,,,,,
47371044,1104,1104,1104,1104,,,,,
47373543,1105,1105,1105,1105,,,,,
47376042,1106,1106,1106,1106,,,,,
47378541,1107,1107,1107,1107,,,,,
47381040,1107,1107,1107,1107,,,,,
47383539,1108,1108,1108,1108,,,,,
47386038,1109,1109,1109,1109,,,,,
47388537,1110,1110,1110,1110,,,,,
47391036,1110,1110,1110,1110,,,,,
47393535,1111,1111,1111,1111,,,,,
47396034,1112,1112,1112,1112,,,,,
47398533,1113,1113,1113,1113,,,,,
47401032,1113,1113,1113,1113,,,,,
47403531,1114,1114,1114,1114,,,,,
47406030,1115,1115,1115,1115,,,,,
47408529,1116,1116,1116,1116,,,,,
47411028,1116,1116,1116,1116,,,,,
47413527,1117,1117,1117,1117,,,,,
47416026,1118,1118,1118,1118,,,,,
47418525,1119,1119,1119,1119,,,,,
47421024,1119,1119,1119,1119,,,,,
47423523,1120,1120,1120,1120,,,,,
47426022,1121,1121,1121,1121,,,,,
47428521,1122,1122,1122,1122,,,,,
47431020,1122,1122,1122,1122,,,,,
47433519,1123,1123,1123,1123,,,,,
47436018,1124,1124,1124,1124,,,,,
47438517,1125,1125,1125,1125,,,,,
47441016,1125,1125,1125,1125,,,,,
47443515,1126,1126,1126,1126,,,,,
47446014,1127,1127,1127,1127,,,,,
47448513,1128,1128,1128,1128,,,,,
47451012,1128,1128,1128,1128,,,,,
47453511,1129,1129,1129,1129,,,,,
47456010,1130,1130,1130,1130,,,,,
47458509,1131,1131,1131,1131,,,,,
47461008,1131,1131,1131,1131,,,,,
47463507,1132,1132,1132,1132,,,,,
47466006,1133,1133,1133,1133,,,,,
47468505,1134,1134,1134,1134,,,,,
47471004,1134,1134,1134,1134,,,,,
47473503,1135,1135,1135,1135,,,,,
47476002,1136,1136,1136,1136,,,,,
47478501,1137,1137,1137,1137,,,,,
47481000,1137,1137,1137,1137,,,,,
47483499,1138,1138,1138,1138,,,,,
47485998,1139,1139,1139,1139,,,,,
47488497,1140,1140,1140,1140,,,,,
47490996,1140,1140,1140,1140,,,,,
47493495,1141,1141,1141,1141,,,,,
47495994,1142,1142,1142,1142,,,,,
47498493,1143,1143,1143,1143,,,,,
47500992,1143,1143,1143,1143,,,,,
47503491,1144,1144,1144,1144,,,,,
47505990,1145,1145,1145,1145,,,,,
47508489,1146,1146,1146,1146,,,,,
47510988,1146,1146,1146,1146,,,,,
47513487,1147,1147,1147,1147,,,,,
47515986,1148,1148,1148,1148,,,,,
47518485,1149,1149,1149,1149,,,,,
47520984,1149,1149,1149,1149,,,,,
47523483,1150,1150,1150,1150,,,,,
47525982,1161,1154,1155,1161,,,,,
47528481,1169,1162,1163,1169,,,,,
47530980,1177,1170,1171,1177,,,,,
47533479,1185,1178,1179,1185,,,,,
47535978,1192,1185,1186,1192,,,,,
47538477,1200,1193,1194,1200,,,,,
47540976,1207,1200,1201,1207,,,,,
47543475,1214,1208,1208,1214,,,,,
47545974,1221,1215,1216,1221,,,,,
47548473,1228,1222,1223,1228,,,,,
47550972,1235,1229,1230,1235,,,,,
47553471,1242,1236,1237,1242,,,,,
47555970,1249,1243,1243,1249,,,,,
47558469,1255,1249,1250,1255,,,,,
47560968,1262,1256,1257,1262,,,,,
47563467,1268,1262,1263,1268,,,,,
47565966,1275,1269,1270,1275,,,,,
47568465,1281,1275,1276,1281,,,,,
47570964,1287,1281,1282,1287,,,,,
47573463,1293,1288,1288,1293,,,,,
47575962,1299,1294,1294,1299,,,,,
47578461,1305,1300,1300,1305,,,,,
47580960,1311,1306,1306,1311,,,,,
47583459,1317,1312,1312,1317,,,,,
47585958,1323,1318,1318,1323,,,,,
47588457,1329,1323,1324,1329,,,,,
47590956,1334,1329,1330,1334,,,,,
47593455,1340,1335,1336,1340,,,,,
47595954,1346,1340,1341,1346,,,,,
47598453,1351,1346,1347,1351,,,,,
47600952,1357,1352,1352,1357,,,,,
47603451,1362,1357,1358,1362,,,,,
47605950,1368,1362,1363,1368,,,,,
47608449,1373,1368,1369,1373,,,,,
47610948,1378,1373,1374,1378,,,,,
47613447,1383,1378,1379,1384,,,,,
47615946,1389,1384,1384,1389,,,,,
47618445,1394,1389,1390,1394,,,,,
47620944,1399,1394,1395,1399,,,,,
47623443,1404,1399,1400,1404,,,,,
47625942,1409,1404,1405,1409,,,,,
47628441,1414,1409,1410,1414,,,,,
47630940,1419,1414,1415,1419,,,,,
47633439,1424,1419,1420,1424,,,,,
47635938,1429,1424,1425,1429,,,,,
47638437,1434,1429,1430,1434,,,,,
47640936,1439,1434,1434,1439,,,,,
47643435,1444,1439,1439,1444,,,,,
47645934,1448,1444,1444,1449,,,,,
47648433,1453,1448,1449,1453,,,,,
47650932,1458,1453,1454,1458,,,,,
47653431,1462,1458,1458,1463,,,,,
47655930,1467,1462,1463,1467,,,,,
47658429,1472,1467,1468,1472,,,,,
47660928,1476,1472,1472,1477,,,,,
47663427,1481,1476,1477,1481,,,,,
47665926,1485,1481,1481,1486,,,,,
47668425,1490,1485,1486,1490,,,,,
47670924,1494,1490,1490,1495,,,,,
47673423,1499,1494,1495,1499,,,,,
47675922,1503,1499,1499,1504,,,,,
47678421,1508,1503,1503,1508,,,,,
47680920,1512,1508,1508,1512,,,,,
47683419,1516,1512,1512,1517,,,,,
47685918,1521,1516,1517,1521,,,,,
47688417,1525,1521,1521,1525,,,,,
47690916,1529,1525,1525,1530,,,,,
47693415,1533,1529,1529,1534,,,,,
47695914,1538,1533,1534,1538,,,,,
47698413,1542,1538,1538,1542,,,,,
47700912,1546,1542,1542,1546,,,,,
47703411,1550,1546,1546,1551,,,,,
47705910,1554,1550,1550,1555,,,,,
47708409,1558,1554,1555,1559,,,,,
47710908,1563,1558,1559,1563,,,,,
47713407,1567,1562,1563,1567,,,,,
47715906,1571,1566,1567,1571,,,,,
47718405,1575,1571,1571,1575,,,,,
47720904,1579,1575,1575,1579,,,,,
47723403,1583,1579,1579,1583,,,,,
47725902,1587,1583,1583,1587,,,,,
47728401,1591,1587,1587,1591,,,,,
47730900,1595,1590,1591,1595,,,,,
47733399,1599,1594,1595,1599,,,,,
47735898,1603,1598,1599,1603,,,,,
47738397,1606,1602,1603,1607,,,,,
47740896,1610,1606,1607,1610,,,,,
47743395,1614,1610,1610,1614,,,,,
47745894,1618,1614,1614,1618,,,,,
47748393,1622,1618,1618,1622,,,,,
47750892,1626,1621,1622,1626,,,,,
47753391,1629,1625,1626,1630,,,,,
47755890,1633,1629,1629,1633,,,,,
47758389,1637,1633,1633,1637,,,,,
47760888,1641,1636,1637,1641,,,,,
47763387,1644,1640,1641,1645,,,,,
47765886,1648,1644,1644,1648,,,,,
47768385,1652,1648,1648,1652,,,,,
47770884,1655,1651,1652,1656,,,,,
47773383,1659,1655,1655,1659,,,,,
47775882,1663,1659,1659,1663,,,,,
47778381,1666,1662,1663,1667,,,,,
47780880,1670,1666,1666,1670,,,,,
47783379,1674,1670,1670,1674,,,,,
47785878,1677,1673,1674,1677,,,,,
47788377,1681,1677,1677,1681,,,,,
47790876,1684,1680,1681,1684,,,,,
47793375,1688,1684,1684,1688,,,,,
47795874,1691,1687,1688,1692,,,,,
47798373,1695,1691,1691,1695,,,,,
47800872,1698,1694,1695,1699,,,,,
47803371,1702,1698,1698,1702,,,,,
47805870,1705,1701,1702,1705,,,,,
47808369,1709,1705,1705,1709,,,,,
47810868,1712,1708,1709,1712,,,,,
47813367,1716,1712,1712,1716,,,,,
47815866,1719,1715,1716,1719,,,,,
47818365,1723,1719,1719,1723,,,,,
47820864,1726,1722,1723,1726,,,,,
47823363,1729,1725,1726,1729,,,,,
47825862,1733,1729,1729,1733,,,,,
47828361,1736,1732,1733,1736,,,,,
47830860,1740,1736,1736,1740,,,,,
47833359,1743,1739,1740,1743,,,,,
47835858,1746,1742,1743,1746,,,,,
47838357,1750,1746,1746,1749,,,,,
47840856,1753,1749,1750,1753,,,,,
47843355,1756,1752,1753,1756,,,,,
47845854,1760,1756,1756,1759,,,,,
47848353,1763,1759,1760,1763,,,,,
47850852,1766,1762,1763,1766,,,,,
47853351,1769,1765,1766,1769,,,,,
47855850,1773,1769,1769,1772,,,,,
47858349,1776,1772,1773,1776,,,,,
47860848,1779,1775,1776,1779,,,,,
47863347,1782,1778,1779,1782,,,,,
47865846,1786,1782,1782,1785,,,,,
47868345,1789,1785,1786,1788,,,,,
47870844,1792,1788,1789,1792,,,,,
47873343,1795,1791,1792,1795,,,,,
47875842,1798,1794,1795,1798,,,,,
47878341,1801,1797,1798,1801,,,,,
47880840,1805,1801,1801,1804,,,,,
47883339,1808,1804,1805,1807,,,,,
47885838,1811,1807,1808,1811,,,,,
47888337,1814,1810,1811,1814,,,,,
47890836,1817,1813,1814,1817,,,,,
47893335,1820,1816,1817,1820,,,,,
47895834,1823,1819,1820,1823,,,,,
47898333,1826,1822,1823,1826,,,,,
47900832,1830,1826,1826,1829,,,,,
47903331,1833,1829,1829,1832,,,,,
47905830,1836,1832,1832,1835,,,,,
47908329,1839,1835,1836,1838,,,,,
47910828,1842,1838,1839,1842,,,,,
47913327,1845,1841,1842,1845,,,,,
47915826,1848,1844,1845,1848,,,,,
47918325,1851,1847,1848,1851,,,,,
47920824,1854,1850,1851,1854,,,,,
47923323,1857,1853,1854,1857,,,,,
47925822,1860,1856,1856,1860,,,,,
47928321,1863,1859,1859,1863,,,,,
47930820,1866,1862,1862,1866,,,,,
47933319,1869,1865,1865,1869,,,,,
47935818,1872,1868,1868,1872,,,,,
47938317,1875,1871,1871,1875,,,,,
47940816,1878,1874,1874,1878,,,,,
47943315,1881,1877,1877,1881,,,,,
47945814,1884,1879,1880,1884,,,,,
47948313,1887,1882,1883,1887,,,,,
47950812,1890,1885,1886,1890,,,,,
47953311,1893,1888,1889,1892,,,,,
47955810,1895,1891,1892,1895,,,,,
47958309,1898,1894,1895,1898,,,,,
47960808,1901,1897,1897,1901,,,,,
47963307,1904,1900,1900,1904,,,,,
47965806,1907,1903,1903,1907,,,,,
47968305,1910,1906,1906,1910,,,,,
47970804,1913,1908,1909,1913,,,,,
47973303,1916,1911,1912,1915,,,,,
47975802,1918,1914,1915,1918,,,,,
47978301,1921,1917,1918,1921,,,,,
47980800,1924,1920,1920,1924,,,,,
47983299,1927,1923,1923,1927,,,,,
47985798,1930,1926,1926,1930,,,,,
47988297,1932,1928,1929,1932,,,,,
47990796,1932,1927,1928,1932,,,,,
47993295,1931,1927,1927,1931,,,,,
47995794,1930,1926,1927,1930,,,,,
47998293,1930,1926,1926,1930,,,,,
48000792,1929,1925,1926,1929,,,,,
48003291,1929,1925,1925,1929,,,,,
48005790,1928,1924,1925,1928,,,,,
48008289,1928,1924,1924,1928,,,,,
48010788,1928,1924,1924,1928,,,,,
48013287,1927,1923,1924,1927,,,,,
48015786,1927,1923,1923,1927,,,,,
48018285,1927,1923,1923,1927,,,,,
48020784,1926,1923,1923,1926,,,,,
48023283,1926,1922,1923,1926,,,,,
48025782,1925,1922,1922,1925,,,,,
48028281,1925,1921,1922,1925,,,,,
48030780,1924,1921,1921,1924,,,,,
48033279,1923,1920,1920,1923,,,,,
48035778,1922,1919,1920,1923,,,,,
48038277,1921,1918,1919,1921,,,,,
48040776,1920,1917,1917,1920,,,,,
48043275,1919,1916,1916,1919,,,,,
48045774,1917,1914,1915,1917,,,,,
48048273,1915,1913,1913,1916,,,,,
48050772,1914,1911,1911,1914,,,,,
48053271,1912,1909,1909,1912,,,,,
48055770,1910,1907,1908,1910,,,,,
48058269,1908,1905,1905,1908,,,,,
48060768,1905,1903,1903,1906,,,,,
48063267,1903,1901,1901,1903,,,,,
48065766,1901,1898,1899,1901,,,,,
48068265,1898,1896,1896,1898,,,,,
48070764,1896,1893,1894,1896,,,,,
48073263,1893,1891,1891,1893,,,,,
48075762,1890,1888,1888,1890,,,,,
48078261,1887,1885,1886,1888,,,,,
48080760,1885,1882,1883,1885,,,,,
48083259,1882,1879,1880,1882,,,,,
48085758,1879,1877,1877,1879,,,,,
48088257,1876,1874,1874,1876,,,,,
48090756,1873,1870,1871,1873,,,,,
48093255,1870,1867,1868,1870,,,,,
48095754,1866,1864,1865,1866,,,,,
48098253,1863,1861,1861,1863,,,,,
48100752,1860,1858,1858,1860,,,,,
48103251,1857,1855,1855,1857,,,,,
48105750,1853,1851,1852,1853,,,,,
48108249,1850,1848,1848,1850,,,,,
48110748,1847,1845,1845,1847,,,,,
48113247,1843,1841,1842,1843,,,,,
48115746,1840,1838,1839,1840,,,,,
48118245,1836,1835,1835,1836,,,,,
48120744,1833,1831,1832,1833,,,,,
48123243,1829,1828,1828,1829,,,,,
48125742,1826,1825,1825,1826,,,,,
48128241,1822,1821,1822,1823,,,,,
48130740,1819,1818,1818,1819,,,,,
48133239,1815,1814,1815,1816,,,,,
48135738,1812,1811,1811,1812,,,,,
48138237,1809,1808,1808,1809,,,,,
48140736,1805,1804,1805,1805,,,,,
48143235,1802,1801,1801,1802,,,,,
48145734,1798,1798,1798,1799,,,,,
48148233,1795,1794,1795,1795,,,,,
48150732,1792,1791,1791,1792,,,,,
48153231,1788,1788,1788,1789,,,,,
48155730,1785,1785,1785,1785,,,,,
48158229,1782,1781,1781,1782,,,,,
48160728,1778,1778,1778,1779,,,,,
48163227,1775,1775,1775,1776,,,,,
48165726,1772,1772,1772,1772,,,,,
48168225,1768,1769,1769,1769,,,,,
48170724,1765,1766,1766,1766,,,,,
48173223,1762,1763,1762,1763,,,,,
48175722,1759,1760,1759,1760,,,,,
48178221,1756,1757,1756,1757,,,,,
48180720,1753,1754,1753,1754,,,,,
48183219,1750,1751,1751,1751,,,,,
48185718,1747,1748,1748,1748,,,,,
48188217,1745,1745,1744,1745,,,,,
48190716,1742,1742,1741,1743,,,,,
48193215,1740,1739,1738,1740,,,,,
48195714,1737,1736,1736,1738,,,,,
48198213,1734,1733,1733,1735,,,,,
48200712,1731,1730,1730,1732,,,,,
48203211,1728,1727,1727,1729,,,,,
48205710,1725,1725,1724,1726,,,,,
48208209,1723,1722,1722,1723,,,,,
48210708,1720,1719,1719,1721,,,,,
48213207,1717,1717,1716,1718,,,,,
48215706,1714,1714,1713,1715,,,,,
48218205,1712,1711,1711,1713,,,,,
48220704,1709,1709,1708,1710,,,,,
48223203,1706,1706,1705,1708,,,,,
48225702,1704,1704,1703,1705,,,,,
48228201,1701,1701,1700,1703,,,,,
48230700,1699,1699,1698,1701,,,,,
48233199,1696,1697,1695,1698,,,,,
48235698,1694,1694,1693,1696,,,,,
48238197,1692,1692,1690,1694,,,,,
48240696,1690,1690,1688,1692,,,,,
48243195,1688,1688,1686,1690,,,,,
48245694,1686,1686,1684,1688,,,,,
48248193,1684,1684,1682,1686,,,,,
48250692,1682,1682,1680,1685,,,,,
48253191,1680,1680,1678,1683,,,,,
48255690,1678,1678,1676,1681,,,,,
48258189,1676,1677,1674,1679,,,,,
48260688,1674,1675,1672,1678,,,,,
