TimeUS,M1,M2,M3,M4,TimeUS,C1,C2,C3,C4
137048492,1000,1000,1000,1000,137128460,1000,1000,1000,1000
137050991,1000,1000,1000,1000,137228420,1000,1000,1000,1000
137053490,1000,1000,1000,1000,137328380,1000,1000,1000,1000
137055989,1000,1000,1000,1000,137428340,1000,1000,1000,1000
137058488,1000,1000,1000,1000,137528300,1000,1000,1000,1000
137060987,1000,1000,1000,1000,137628260,1000,1000,1000,1000
137063486,1000,1000,1000,1000,137728220,1000,1000,1000,1000
137065985,1000,1000,1000,1000,137828180,1000,1000,1000,1000
137068484,1000,1000,1000,1000,137928973,1000,1000,1000,1000
137070983,1000,1000,1000,1000,138028933,1000,1000,1000,1000
137073482,1000,1000,1000,1000,138128893,1000,1000,1000,1000
137075981,1000,1000,1000,1000,138228853,1000,1000,1000,1000
137078480,1000,1000,1000,1000,138328813,1000,1000,1000,1000
137080979,1000,1000,1000,1000,138428773,1000,1000,1000,1000
137083478,1000,1000,1000,1000,138528733,1000,1000,1000,1000
137085977,1000,1000,1000,1000,138628693,1000,1000,1000,1000
137088476,1000,1000,1000,1000,138728653,1000,1000,1000,1000
137090975,1000,1000,1000,1000,138828613,1000,1000,1000,1000
137093474,1000,1000,1000,1000,138928573,1000,1000,1000,1000
137095973,1000,1000,1000,1000,139028533,1000,1000,1000,1000
137098472,1000,1000,1000,1000,139128493,1024,1024,1024,1024
137100971,1000,1000,1000,1000,139228453,1054,1054,1054,1054
137103470,1000,1000,1000,1000,139328413,1084,1084,1084,1084
137105969,1000,1000,1000,1000,139428373,1100,1100,1100,1100
137108468,1000,1000,1000,1000,139528333,1100,1100,1100,1100
137110967,1000,1000,1000,1000,139628293,1100,1100,1100,1100
137113466,1000,1000,1000,1000,139728253,1100,1100,1100,1100
137115965,1000,1000,1000,1000,139828213,1100,1100,1100,1100
137118464,1000,1000,1000,1000,139928173,1100,1100,1100,1100
137120963,1000,1000,1000,1000,140028966,1100,1100,1100,1100
137123462,1000,1000,1000,1000,140128926,1100,1100,1100,1100
137125961,1000,1000,1000,1000,140228886,1100,1100,1100,1100
137128460,1000,1000,1000,1000,140328846,1100,1100,1100,1100
137130959,1000,1000,1000,1000,140428806,1100,1100,1100,1100
137133458,1000,1000,1000,1000,140528766,1100,1100,1100,1100
137135957,1000,1000,1000,1000,140628726,1100,1100,1100,1100
137138456,1000,1000,1000,1000,140728686,1100,1100,1100,1100
137140955,1000,1000,1000,1000,140828646,1100,1100,1100,1100
137143454,1000,1000,1000,1000,140928606,1100,1100,1100,1100
137145953,1000,1000,1000,1000,141028566,1100,1100,1100,1100
137148452,1000,1000,1000,1000,141128526,1100,1100,1100,1100
137150951,1000,1000,1000,1000,141228486,1100,1100,1100,1100
137153450,1000,1000,1000,1000,141328446,1100,1100,1100,1100
137155949,1000,1000,1000,1000,141428406,1100,1100,1100,1100
137158448,1000,1000,1000,1000,141528366,1100,1100,1100,1100
137160947,1000,1000,1000,1000,141628326,1100,1100,1100,1100
137163446,1000,1000,1000,1000,141728286,1100,1100,1100,1100
137165945,1000,1000,1000,1000,141828246,1100,1100,1100,1100
137168444,1000,1000,1000,1000,141928206,1100,1100,1100,1100
137170943,1000,1000,1000,1000,142028166,1100,1100,1100,1100
137173442,1000,1000,1000,1000,142128959,1100,1100,1100,1100
137175941,1000,1000,1000,1000,142228919,1100,1100,1100,1100
137178440,1000,1000,1000,1000,142328879,1100,1100,1100,1100
137180939,1000,1000,1000,1000,142428839,1100,1100,1100,1100
137183438,1000,1000,1000,1000,142528799,1100,1100,1100,1100
137185937,1000,1000,1000,1000,142628759,1100,1100,1100,1100
137188436,1000,1000,1000,1000,142728719,1100,1100,1100,1100
137190935,1000,1000,1000,1000,142828679,1100,1100,1100,1100
137193434,1000,1000,1000,1000,142928639,1100,1100,1100,1100
137195933,1000,1000,1000,1000,143028599,1100,1100,1100,1100
137198432,1000,1000,1000,1000,143128559,1100,1100,1100,1100
137200931,1000,1000,1000,1000,143228519,1100,1100,1100,1100
137203430,1000,1000,1000,1000,143328479,1100,1100,1100,1100
137205929,1000,1000,1000,1000,143428439,1100,1100,1100,1100
137208428,1000,1000,1000,1000,143528399,1100,1100,1100,1100
137210927,1000,1000,1000,1000,143628359,1100,1100,1100,1100
137213426,1000,1000,1000,1000,143728319,1100,1100,1100,1100
137215925,1000,1000,1000,1000,143828279,1100,1100,1100,1100
137218424,1000,1000,1000,1000,143928239,1100,1100,1100,1100
137220923,1000,1000,1000,1000,144028199,1100,1100,1100,1100
137223422,1000,1000,1000,1000,144128159,1100,1100,1100,1100
137225921,1000,1000,1000,1000,144228952,1100,1100,1100,1100
137228420,1000,1000,1000,1000,144328912,1100,1100,1100,1100
137230919,1000,1000,1000,1000,144428872,1100,1100,1100,1100
137233418,1000,1000,1000,1000,144528832,1100,1100,1100,1100
137235917,1000,1000,1000,1000,144628792,1100,1100,1100,1100
137238416,1000,1000,1000,1000,144728752,1100,1100,1100,1100
137240915,1000,1000,1000,1000,144828712,1100,1100,1100,1100
137243414,1000,1000,1000,1000,144928672,1100,1100,1100,1100
137245913,1000,1000,1000,1000,145028632,1100,1100,1100,1100
137248412,1000,1000,1000,1000,145128592,1100,1100,1100,1100
137250911,1000,1000,1000,1000,145228552,1100,1100,1100,1100
137253410,1000,1000,1000,1000,145328512,1100,1100,1100,1100
137255909,1000,1000,1000,1000,145428472,1100,1100,1100,1100
137258408,1000,1000,1000,1000,145528432,1100,1100,1100,1100
137260907,1000,1000,1000,1000,145628392,1100,1100,1100,1100
137263406,1000,1000,1000,1000,145728352,1100,1100,1100,1100
137265905,1000,1000,1000,1000,145828312,1100,1100,1100,1100
137268404,1000,1000,1000,1000,145928272,1100,1100,1100,1100
137270903,1000,1000,1000,1000,146028232,1100,1100,1100,1100
137273402,1000,1000,1000,1000,146128192,1100,1100,1100,1100
137275901,1000,1000,1000,1000,146228985,1100,1100,1100,1100
137278400,1000,1000,1000,1000,146328945,1100,1100,1100,1100
137280899,1000,1000,1000,1000,146428905,1100,1100,1100,1100
137283398,1000,1000,1000,1000,146528865,1100,1100,1100,1100
137285897,1000,1000,1000,1000,146628825,1100,1100,1100,1100
137288396,1000,1000,1000,1000,146728785,1100,1100,1100,1100
137290895,1000,1000,1000,1000,146828745,1100,1100,1100,1100
137293394,1000,1000,1000,1000,146928705,1100,1100,1100,1100
137295893,1000,1000,1000,1000,147028665,1100,1100,1100,1100
137298392,1000,1000,1000,1000,147128625,1000,1000,1000,1000
137300891,1000,1000,1000,1000,147228585,1000,1000,1000,1000
137303390,1000,1000,1000,1000,147328545,1000,1000,1000,1000
137305889,1000,1000,1000,1000,147428505,1000,1000,1000,1000
137308388,1000,1000,1000,1000,147528465,1000,1000,1000,1000
137310887,1000,1000,1000,1000,147628425,1000,1000,1000,1000
137313386,1000,1000,1000,1000,147728385,1000,1000,1000,1000
137315885,1000,1000,1000,1000,147828345,1000,1000,1000,1000
137318384,1000,1000,1000,1000,147928305,1000,1000,1000,1000
137320883,1000,1000,1000,1000,148028265,1000,1000,1000,1000
137323382,1000,1000,1000,1000,148128225,1000,1000,1000,1000
137325881,1000,1000,1000,1000,148228185,1000,1000,1000,1000
137328380,1000,1000,1000,1000,148328978,1000,1000,1000,1000
137330879,1000,1000,1000,1000,148428938,1000,1000,1000,1000
137333378,1000,1000,1000,1000,148528898,1000,1000,1000,1000
137335877,1000,1000,1000,1000,148628858,1000,1000,1000,1000
137338376,1000,1000,1000,1000,148728818,1000,1000,1000,1000
137340875,1000,1000,1000,1000,148828778,1000,1000,1000,1000
137343374,1000,1000,1000,1000,148928738,1000,1000,1000,1000
137345873,1000,1000,1000,1000,149028698,1000,1000,1000,1000
137348372,1000,1000,1000,1000,149128658,1000,1000,1000,1000
137350871,1000,1000,1000,1000,149228618,1000,1000,1000,1000
137353370,1000,1000,1000,1000,149328578,1000,1000,1000,1000
137355869,1000,1000,1000,1000,149428538,1000,1000,1000,1000
137358368,1000,1000,1000,1000,149528498,1000,1000,1000,1000
137360867,1000,1000,1000,1000,149628458,1000,1000,1000,1000
137363366,1000,1000,1000,1000,149728418,1000,1000,1000,1000
137365865,1000,1000,1000,1000,149828378,1000,1000,1000,1000
137368364,1000,1000,1000,1000,149928338,1000,1000,1000,1000
137370863,1000,1000,1000,1000,150028298,1000,1000,1000,1000
137373362,1000,1000,1000,1000,150128258,1000,1000,1000,1000
137375861,1000,1000,1000,1000,150228218,1000,1000,1000,1000
137378360,1000,1000,1000,1000,150328178,1000,1000,1000,1000
137380859,1000,1000,1000,1000,150428971,1000,1000,1000,1000
137383358,1000,1000,1000,1000,150528931,1000,1000,1000,1000
137385857,1000,1000,1000,1000,150628891,1000,1000,1000,1000
137388356,1000,1000,1000,1000,150728851,1000,1000,1000,1000
137390855,1000,1000,1000,1000,150828811,1000,1000,1000,1000
137393354,1000,1000,1000,1000,150928771,1000,1000,1000,1000
137395853,1000,1000,1000,1000,151028731,1000,1000,1000,1000
137398352,1000,1000,1000,1000,151128691,1000,1000,1000,1000
137400851,1000,1000,1000,1000,151228651,1000,1000,1000,1000
137403350,1000,1000,1000,1000,151328611,1000,1000,1000,1000
137405849,1000,1000,1000,1000,151428571,1000,1000,1000,1000
137408348,1000,1000,1000,1000,151528531,1000,1000,1000,1000
137410847,1000,1000,1000,1000,151628491,1000,1000,1000,1000
137413346,1000,1000,1000,1000,151728451,1000,1000,1000,1000
137415845,1000,1000,1000,1000,151828411,1000,1000,1000,1000
137418344,1000,1000,1000,1000,151928371,1000,1000,1000,1000
137420843,1000,1000,1000,1000,152028331,1000,1000,1000,1000
137423342,1000,1000,1000,1000,152128291,1000,1000,1000,1000
137425841,1000,1000,1000,1000,152228251,1000,1000,1000,1000
137428340,1000,1000,1000,1000,152328211,1000,1000,1000,1000
137430839,1000,1000,1000,1000,152428171,1000,1000,1000,1000
137433338,1000,1000,1000,1000,152528964,1000,1000,1000,1000
137435837,1000,1000,1000,1000,152628924,1000,1000,1000,1000
137438336,1000,1000,1000,1000,152728884,1000,1000,1000,1000
137440835,1000,1000,1000,1000,152828844,1000,1000,1000,1000
137443334,1000,1000,1000,1000,152928804,1000,1000,1000,1000
137445833,1000,1000,1000,1000,153028764,1000,1000,1000,1000
137448332,1000,1000,1000,1000,153128724,1000,1000,1000,1000
137450831,1000,1000,1000,1000,153228684,1000,1000,1000,1000
137453330,1000,1000,1000,1000,153328644,1000,1000,1000,1000
137455829,1000,1000,1000,1000,153428604,1000,1000,1000,1000
137458328,1000,1000,1000,1000,153528564,1000,1000,1000,1000
137460827,1000,1000,1000,1000,153628524,1000,1000,1000,1000
137463326,1000,1000,1000,1000,153728484,1000,1000,1000,1000
137465825,1000,1000,1000,1000,153828444,1000,1000,1000,1000
137468324,1000,1000,1000,1000,153928404,1000,1000,1000,1000
137470823,1000,1000,1000,1000,154028364,1000,1000,1000,1000
137473322,1000,1000,1000,1000,154128324,1000,1000,1000,1000
137475821,1000,1000,1000,1000,154228284,1000,1000,1000,1000
137478320,1000,1000,1000,1000,154328244,1000,1000,1000,1000
137480819,1000,1000,1000,1000,154428204,1000,1000,1000,1000
137483318,1000,1000,1000,1000,154528164,1000,1000,1000,1000
137485817,1000,1000,1000,1000,154628957,1000,1000,1000,1000
137488316,1000,1000,1000,1000,154728917,1000,1000,1000,1000
137490815,1000,1000,1000,1000,154828877,1000,1000,1000,1000
137493314,1000,1000,1000,1000,154928837,1000,1000,1000,1000
137495813,1000,1000,1000,1000,155028797,1000,1000,1000,1000
137498312,1000,1000,1000,1000,155128757,1000,1000,1000,1000
137500811,1000,1000,1000,1000,155228717,1000,1000,1000,1000
137503310,1000,1000,1000,1000,155328677,1000,1000,1000,1000
137505809,1000,1000,1000,1000,155428637,1000,1000,1000,1000
137508308,1000,1000,1000,1000,155528597,1000,1000,1000,1000
137510807,1000,1000,1000,1000,155628557,1000,1000,1000,1000
137513306,1000,1000,1000,1000,155728517,1000,1000,1000,1000
137515805,1000,1000,1000,1000,155828477,1000,1000,1000,1000
137518304,1000,1000,1000,1000,155928437,1000,1000,1000,1000
137520803,1000,1000,1000,1000,156028397,1000,1000,1000,1000
137523302,1000,1000,1000,1000,156128357,1000,1000,1000,1000
137525801,1000,1000,1000,1000,156228317,1000,1000,1000,1000
137528300,1000,1000,1000,1000,156328277,1000,1000,1000,1000
137530799,1000,1000,1000,1000,156428237,1000,1000,1000,1000
137533298,1000,1000,1000,1000,156528197,1000,1000,1000,1000
137535797,1000,1000,1000,1000,156628157,1000,1000,1000,1000
137538296,1000,1000,1000,1000,156728950,1000,1000,1000,1000
137540795,1000,1000,1000,1000,156828910,1000,1000,1000,1000
137543294,1000,1000,1000,1000,156928870,1000,1000,1000,1000
137545793,1000,1000,1000,1000,157028830,1000,1000,1000,1000
137548292,1000,1000,1000,1000,157128790,1000,1000,1000,1000
137550791,1000,1000,1000,1000,157228750,1000,1000,1000,1000
137553290,1000,1000,1000,1000,157328710,1000,1000,1000,1000
137555789,1000,1000,1000,1000,157428670,1000,1000,1000,1000
137558288,1000,1000,1000,1000,157528630,1000,1000,1000,1000
137560787,1000,1000,1000,1000,157628590,1000,1000,1000,1000
137563286,1000,1000,1000,1000,157728550,1000,1000,1000,1000
137565785,1000,1000,1000,1000,157828510,1000,1000,1000,1000
137568284,1000,1000,1000,1000,157928470,1000,1000,1000,1000
137570783,1000,1000,1000,1000,158028430,1000,1000,1000,1000
137573282,1000,1000,1000,1000,158128390,1000,1000,1000,1000
137575781,1000,1000,1000,1000,158228350,1000,1000,1000,1000
137578280,1000,1000,1000,1000,158328310,1000,1000,1000,1000
137580779,1000,1000,1000,1000,158428270,1000,1000,1000,1000
137583278,1000,1000,1000,1000,158528230,1000,1000,1000,1000
137585777,1000,1000,1000,1000,158628190,1000,1000,1000,1000
137588276,1000,1000,1000,1000,158728983,1000,1000,1000,1000
137590775,1000,1000,1000,1000,158828943,1000,1000,1000,1000
137593274,1000,1000,1000,1000,158928903,1000,1000,1000,1000
137595773,1000,1000,1000,1000,159028863,1000,1000,1000,1000
137598272,1000,1000,1000,1000,159128823,1000,1000,1000,1000
137600771,1000,1000,1000,1000,159228783,1000,1000,1000,1000
137603270,1000,1000,1000,1000,159328743,1000,1000,1000,1000
137605769,1000,1000,1000,1000,159428703,1000,1000,1000,1000
137608268,1000,1000,1000,1000,159528663,1000,1000,1000,1000
137610767,1000,1000,1000,1000,159628623,1000,1000,1000,1000
137613266,1000,1000,1000,1000,159728583,1006,1006,1006,1006
137615765,1000,1000,1000,1000,159828543,1036,1036,1036,1036
137618264,1000,1000,1000,1000,159928503,1066,1066,1066,1066
137620763,1000,1000,1000,1000,160028463,1096,1096,1096,1096
137623262,1000,1000,1000,1000,160128423,1126,1126,1126,1126
137625761,1000,1000,1000,1000,160228383,1222,1199,1200,1223
137628260,1000,1000,1000,1000,160328343,1450,1432,1433,1451
137630759,1000,1000,1000,1000,160428303,1619,1604,1605,1620
137633258,1000,1000,1000,1000,160528263,1761,1747,1747,1762
137635757,1000,1000,1000,1000,160628223,1886,1871,1872,1886
137638256,1000,1000,1000,1000,160728183,1894,1883,1884,1894
137640755,1000,1000,1000,1000,160828976,1784,1782,1782,1785
137643254,1000,1000,1000,1000,160928936,1670,1673,1674,1671
137645753,1000,1000,1000,1000,161028896,1626,1633,1633,1627
137648252,1000,1000,1000,1000,161128856,1629,1635,1635,1628
137650751,1000,1000,1000,1000,161228816,1638,1643,1643,1638
137653250,1000,1000,1000,1000,161328776,1635,1632,1629,1639
137655749,1000,1000,1000,1000,161428736,1622,1624,1615,1630
137658248,1000,1000,1000,1000,161528696,1614,1616,1611,1619
137660747,1000,1000,1000,1000,161628656,1611,1612,1611,1612
137663246,1000,1000,1000,1000,161728616,1613,1611,1614,1610
137665745,1000,1000,1000,1000,161828576,1617,1616,1620,1613
137668244,1000,1000,1000,1000,161928536,1619,1618,1622,1615
137670743,1000,1000,1000,1000,162028496,1588,1589,1602,1575
137673242,1000,1000,1000,1000,162128456,1573,1575,1586,1563
137675741,1000,1000,1000,1000,162228416,1562,1563,1566,1561
137678240,1000,1000,1000,1000,162328376,1554,1553,1549,1559
137680739,1000,1000,1000,1000,162428336,1546,1545,1535,1557
137683238,1000,1000,1000,1000,162528296,1541,1540,1529,1551
137685737,1000,1000,1000,1000,162628256,1535,1534,1526,1540
137688236,1000,1000,1000,1000,162728216,1530,1528,1525,1531
137690735,1000,1000,1000,1000,162828176,1527,1527,1527,1525
137693234,1000,1000,1000,1000,162928969,1529,1529,1531,1526
137695733,1000,1000,1000,1000,163028929,1531,1531,1534,1527
137698232,1000,1000,1000,1000,163128889,1534,1534,1537,1532
137700731,1000,1000,1000,1000,163228849,1537,1538,1540,1536
137703230,1000,1000,1000,1000,163328809,1541,1540,1543,1540
137705729,1000,1000,1000,1000,163428769,1544,1544,1545,1544
137708228,1000,1000,1000,1000,163528729,1547,1546,1547,1548
137710727,1000,1000,1000,1000,163628689,1550,1551,1551,1552
137713226,1000,1000,1000,1000,163728649,1553,1553,1553,1554
137715725,1000,1000,1000,1000,163828609,1553,1554,1553,1555
137718224,1000,1000,1000,1000,163928569,1557,1560,1555,1557
137720723,1000,1000,1000,1000,164028529,1572,1572,1545,1546
137723222,1000,1000,1000,1000,164128489,1571,1569,1551,1551
137725721,1000,1000,1000,1000,164228449,1566,1564,1560,1560
137728220,1000,1000,1000,1000,164328409,1561,1560,1567,1567
137730719,1000,1000,1000,1000,164428369,1558,1558,1573,1572
137733218,1000,1000,1000,1000,164528329,1557,1558,1577,1577
137735717,1000,1000,1000,1000,164628289,1557,1559,1578,1578
137738216,1000,1000,1000,1000,164728249,1559,1561,1578,1579
137740715,1000,1000,1000,1000,164828209,1562,1563,1577,1577
137743214,1000,1000,1000,1000,164928169,1566,1566,1575,1575
137745713,1000,1000,1000,1000,165028962,1569,1570,1574,1573
137748212,1000,1000,1000,1000,165128922,1573,1573,1572,1572
137750711,1000,1000,1000,1000,165228882,1577,1576,1571,1571
137753210,1000,1000,1000,1000,165328842,1579,1578,1571,1569
137755709,1000,1000,1000,1000,165428802,1580,1579,1570,1568
137758208,1000,1000,1000,1000,165528762,1580,1580,1570,1569
137760707,1000,1000,1000,1000,165628722,1581,1581,1571,1571
137763206,1000,1000,1000,1000,165728682,1579,1580,1572,1571
137765705,1000,1000,1000,1000,165828642,1579,1579,1573,1573
137768204,1000,1000,1000,1000,165928602,1578,1577,1574,1575
137770703,1000,1000,1000,1000,166028562,1577,1576,1575,1576
137773202,1000,1000,1000,1000,166128522,1576,1575,1576,1577
137775701,1000,1000,1000,1000,166228482,1574,1574,1577,1577
137778200,1000,1000,1000,1000,166328442,1575,1575,1579,1579
137780699,1000,1000,1000,1000,166368426,1574,1575,1579,1579
137783198,1000,1000,1000,1000,166468386,1574,1575,1579,1579
137785697,1000,1000,1000,1000,166568346,1574,1575,1579,1579
137788196,1000,1000,1000,1000,166668306,1575,1576,1579,1579
137790695,1000,1000,1000,1000,166768266,1577,1578,1580,1580
137793194,1000,1000,1000,1000,166868226,1577,1577,1579,1579
137795693,1000,1000,1000,1000,166968186,1578,1578,1579,1578
137798192,1000,1000,1000,1000,167068979,1579,1578,1577,1578
137800691,1000,1000,1000,1000,167168939,1579,1578,1577,1577
137803190,1000,1000,1000,1000,167268899,1579,1578,1577,1577
137805689,1000,1000,1000,1000,167368859,1580,1579,1578,1578
137808188,1000,1000,1000,1000,167468819,1580,1581,1579,1579
137810687,1000,1000,1000,1000,167568779,1580,1580,1579,1578
137813186,1000,1000,1000,1000,167668739,1579,1579,1578,1578
137815685,1000,1000,1000,1000,167768699,1581,1580,1580,1580
137818184,1000,1000,1000,1000,167868659,1579,1579,1579,1579
137820683,1000,1000,1000,1000,167968619,1580,1580,1580,1580
137823182,1000,1000,1000,1000,168068579,1578,1579,1579,1580
137825681,1000,1000,1000,1000,168168539,1578,1578,1579,1580
137828180,1000,1000,1000,1000,168268499,1579,1579,1580,1580
137830679,1000,1000,1000,1000,168368459,1578,1579,1580,1579
137833178,1000,1000,1000,1000,168468419,1579,1579,1580,1580
137835677,1000,1000,1000,1000,168568379,1579,1580,1581,1580
137838176,1000,1000,1000,1000,168668339,1580,1579,1580,1580
137840675,1000,1000,1000,1000,168768299,1580,1580,1580,1580
137843174,1000,1000,1000,1000,168868259,1579,1579,1579,1580
137845673,1000,1000,1000,1000,168968219,1580,1580,1580,1580
137848172,1000,1000,1000,1000,169068179,1580,1580,1579,1580
137850671,1000,1000,1000,1000,169168972,1580,1580,1580,1579
137853170,1000,1000,1000,1000,169268932,1581,1581,1581,1580
137855669,1000,1000,1000,1000,169368892,1580,1581,1581,1581
137858168,1000,1000,1000,1000,169468852,1581,1581,1580,1581
137860667,1000,1000,1000,1000,169568812,1581,1581,1581,1581
137863166,1000,1000,1000,1000,169668772,1581,1580,1580,1581
137865665,1000,1000,1000,1000,169768732,1581,1581,1581,1581
137868164,1000,1000,1000,1000,169868692,1581,1581,1581,1581
137870663,1000,1000,1000,1000,169968652,1580,1581,1581,1581
137873162,1000,1000,1000,1000,170068612,1581,1582,1586,1578
137875661,1000,1000,1000,1000,170168572,1581,1584,1589,1574
137878160,1000,1000,1000,1000,170268532,1580,1583,1582,1573
137880659,1000,1000,1000,1000,170368492,1579,1581,1573,1573
137883158,1000,1000,1000,1000,170468452,1579,1581,1565,1571
137885657,1000,1000,1000,1000,170568412,1578,1580,1558,1566
137888156,1000,1000,1000,1000,170668372,1579,1578,1554,1560
137890655,1000,1000,1000,1000,170768332,1580,1579,1554,1556
137893154,1000,1000,1000,1000,170868292,1581,1579,1554,1553
137896486,1000,1000,1000,1000,170968252,1580,1579,1555,1552
137898985,1000,1000,1000,1000,171068212,1579,1579,1554,1552
137901484,1000,1000,1000,1000,171168172,1578,1579,1554,1552
137903983,1000,1000,1000,1000,171268965,1576,1579,1553,1553
137906482,1000,1000,1000,1000,171368925,1575,1577,1552,1551
137908981,1000,1000,1000,1000,171468885,1577,1579,1551,1552
137911480,1000,1000,1000,1000,171568845,1577,1579,1549,1550
137913979,1000,1000,1000,1000,171668805,1580,1581,1548,1548
137916478,1000,1000,1000,1000,171768765,1582,1583,1546,1545
137918977,1000,1000,1000,1000,171868725,1586,1586,1543,1543
137921476,1000,1000,1000,1000,171968685,1588,1589,1540,1540
137923975,1000,1000,1000,1000,172068645,1590,1591,1537,1537
137926474,1000,1000,1000,1000,172168605,1593,1594,1536,1536
137928973,1000,1000,1000,1000,172268565,1595,1595,1535,1536
137931472,1000,1000,1000,1000,172368525,1595,1595,1534,1536
137933971,1000,1000,1000,1000,172468485,1594,1595,1536,1539
137936470,1000,1000,1000,1000,172568445,1592,1591,1539,1542
137938969,1000,1000,1000,1000,172668405,1589,1587,1547,1549
137941468,1000,1000,1000,1000,172768365,1581,1578,1555,1558
137943967,1000,1000,1000,1000,172868325,1574,1569,1568,1570
137946466,1000,1000,1000,1000,172968285,1561,1556,1579,1581
137948965,1000,1000,1000,1000,173068245,1549,1546,1592,1593
137951464,1000,1000,1000,1000,173168205,1539,1538,1604,1604
137953963,1000,1000,1000,1000,173268165,1531,1532,1612,1610
137956462,1000,1000,1000,1000,173368958,1528,1530,1617,1615
137958961,1000,1000,1000,1000,173468918,1529,1531,1617,1616
137961460,1000,1000,1000,1000,173568878,1532,1535,1614,1613
137963959,1000,1000,1000,1000,173668838,1539,1541,1607,1608
137966458,1000,1000,1000,1000,173768798,1546,1548,1600,1600
137968957,1000,1000,1000,1000,173868758,1556,1558,1593,1593
137971456,1000,1000,1000,1000,173968718,1565,1565,1585,1584
137973955,1000,1000,1000,1000,174068678,1574,1573,1578,1577
137976454,1000,1000,1000,1000,174168638,1581,1579,1573,1572
137978953,1000,1000,1000,1000,174268598,1585,1584,1568,1568
137981452,1000,1000,1000,1000,174368558,1588,1587,1567,1566
137983951,1000,1000,1000,1000,174468518,1588,1587,1566,1566
137986450,1000,1000,1000,1000,174568478,1587,1586,1566,1567
137988949,1000,1000,1000,1000,174668438,1585,1584,1568,1568
137991448,1000,1000,1000,1000,174768398,1582,1582,1571,1572
137993947,1000,1000,1000,1000,174868358,1580,1580,1575,1575
137996446,1000,1000,1000,1000,174968318,1576,1576,1577,1577
137998945,1000,1000,1000,1000,175068278,1574,1574,1580,1580
138001444,1000,1000,1000,1000,175168238,1573,1573,1583,1582
138003943,1000,1000,1000,1000,175268198,1572,1573,1584,1583
138006442,1000,1000,1000,1000,175368158,1571,1572,1583,1583
138008941,1000,1000,1000,1000,175468951,1572,1572,1583,1583
138011440,1000,1000,1000,1000,175568911,1574,1573,1583,1583
138013939,1000,1000,1000,1000,175668871,1575,1574,1581,1582
138016438,1000,1000,1000,1000,175768831,1576,1576,1581,1580
138018937,1000,1000,1000,1000,175868791,1578,1579,1580,1580
138021436,1000,1000,1000,1000,175968751,1579,1578,1578,1578
138023935,1000,1000,1000,1000,176068711,1580,1580,1577,1577
138026434,1000,1000,1000,1000,176168671,1441,1549,1436,1546
138028933,1000,1000,1000,1000,176268631,1542,1559,1537,1557
138031432,1000,1000,1000,1000,176368591,1616,1578,1613,1575
138033931,1000,1000,1000,1000,176468551,1682,1619,1679,1618
138036430,1000,1000,1000,1000,176568511,1720,1658,1715,1655
138038929,1000,1000,1000,1000,176668471,1717,1673,1709,1662
138041428,1000,1000,1000,1000,176768431,1685,1665,1671,1641
138043927,1000,1000,1000,1000,176868391,1638,1647,1621,1616
138046426,1000,1000,1000,1000,176968351,1593,1625,1584,1612
138048925,1000,1000,1000,1000,177068311,1563,1600,1574,1620
138051424,1000,1000,1000,1000,177168271,1546,1574,1580,1623
138053923,1000,1000,1000,1000,177268231,1542,1556,1589,1617
138056422,1000,1000,1000,1000,177368191,1546,1548,1595,1605
138058921,1000,1000,1000,1000,177468984,1557,1552,1597,1591
138061420,1000,1000,1000,1000,177568944,1568,1562,1593,1579
138063919,1000,1000,1000,1000,177668904,1579,1574,1586,1571
138066418,1000,1000,1000,1000,177768864,1586,1585,1577,1566
138068917,1000,1000,1000,1000,177868824,1590,1592,1568,1563
138071416,1000,1000,1000,1000,177968784,1591,1593,1562,1559
138073915,1000,1000,1000,1000,178068744,1591,1593,1561,1549
138076414,1000,1000,1000,1000,178168704,1590,1592,1554,1548
138078913,1000,1000,1000,1000,178268664,1586,1588,1549,1551
138081412,1000,1000,1000,1000,178368624,1581,1584,1545,1552
138083911,1000,1000,1000,1000,178468584,1577,1578,1544,1554
138086410,1000,1000,1000,1000,178568544,1574,1573,1547,1554
138088909,1000,1000,1000,1000,178668504,1570,1569,1549,1553
138091408,1000,1000,1000,1000,178768464,1568,1568,1553,1553
138093907,1000,1000,1000,1000,178868424,1566,1566,1556,1553
138096406,1000,1000,1000,1000,178968384,1565,1567,1557,1554
138098905,1000,1000,1000,1000,179068344,1565,1567,1558,1555
138101404,1000,1000,1000,1000,179168304,1565,1567,1556,1555
138103903,1000,1000,1000,1000,179268264,1566,1568,1555,1554
138106402,1000,1000,1000,1000,179368224,1569,1570,1553,1553
138108901,1000,1000,1000,1000,179468184,1572,1573,1551,1551
138111400,1000,1000,1000,1000,179568977,1575,1575,1547,1548
138113899,1000,1000,1000,1000,179668937,1578,1578,1544,1544
138116398,1000,1000,1000,1000,179768897,1581,1582,1540,1540
138118897,1000,1000,1000,1000,179868857,1586,1586,1538,1538
138121396,1000,1000,1000,1000,179968817,1589,1589,1535,1535
138123895,1000,1000,1000,1000,180068777,1591,1592,1533,1533
138126394,1000,1000,1000,1000,180168737,1593,1593,1532,1532
138128893,1000,1000,1000,1000,180268697,1595,1595,1534,1535
138131392,1000,1000,1000,1000,180368657,1594,1593,1535,1537
138133891,1000,1000,1000,1000,180468617,1592,1589,1540,1542
138136390,1000,1000,1000,1000,180568577,1587,1584,1546,1547
138138889,1000,1000,1000,1000,180668537,1580,1578,1553,1555
138141388,1000,1000,1000,1000,180768497,1572,1570,1561,1564
138143887,1000,1000,1000,1000,180868457,1563,1562,1569,1571
138146386,1000,1000,1000,1000,180968417,1554,1554,1577,1578
138148885,1000,1000,1000,1000,181068377,1547,1548,1585,1586
138151384,1000,1000,1000,1000,181168337,1542,1543,1592,1592
138153883,1000,1000,1000,1000,181268297,1538,1539,1597,1596
138156382,1000,1000,1000,1000,181368257,1537,1538,1601,1599
138158881,1000,1000,1000,1000,181468217,1537,1537,1601,1599
138161380,1000,1000,1000,1000,181568177,1540,1540,1601,1599
138163879,1000,1000,1000,1000,181668970,1543,1543,1597,1596
138166378,1000,1000,1000,1000,181768930,1548,1548,1594,1594
138168877,1000,1000,1000,1000,181868890,1554,1554,1589,1590
138171376,1000,1000,1000,1000,181968850,1559,1558,1584,1585
138173875,1000,1000,1000,1000,182068810,1564,1564,1579,1580
138176374,1000,1000,1000,1000,182168770,1568,1567,1574,1575
138178873,1000,1000,1000,1000,182268730,1572,1572,1571,1572
138181372,1000,1000,1000,1000,182368690,1576,1575,1570,1570
138183871,1000,1000,1000,1000,182468650,1580,1579,1571,1570
138186370,1000,1000,1000,1000,182568610,1581,1579,1570,1569
138188869,1000,1000,1000,1000,182668570,1581,1581,1571,1570
138191368,1000,1000,1000,1000,182768530,1580,1580,1571,1571
138193867,1000,1000,1000,1000,182868490,1579,1579,1572,1572
138196366,1000,1000,1000,1000,182968450,1578,1578,1575,1575
138198865,1000,1000,1000,1000,183068410,1577,1577,1576,1576
138201364,1000,1000,1000,1000,183168370,1576,1577,1578,1578
138203863,1000,1000,1000,1000,183268330,1574,1575,1579,1578
138206362,1000,1000,1000,1000,183368290,1574,1575,1580,1580
138208861,1000,1000,1000,1000,183468250,1575,1575,1580,1581
138211360,1000,1000,1000,1000,183568210,1575,1575,1581,1581
138213859,1000,1000,1000,1000,183668170,1576,1576,1581,1581
138216358,1000,1000,1000,1000,183768963,1576,1576,1581,1581
138218857,1000,1000,1000,1000,183868923,1577,1577,1581,1580
138221356,1000,1000,1000,1000,183968883,1578,1579,1580,1580
138223855,1000,1000,1000,1000,184068843,1578,1578,1579,1579
138226354,1000,1000,1000,1000,184168803,1578,1578,1577,1578
138228853,1000,1000,1000,1000,184268763,1579,1578,1577,1577
138231352,1000,1000,1000,1000,184368723,1579,1579,1577,1577
138233851,1000,1000,1000,1000,184468683,1580,1580,1577,1577
138236350,1000,1000,1000,1000,184568643,1580,1580,1578,1577
138238849,1000,1000,1000,1000,184668603,1580,1580,1578,1578
138241348,1000,1000,1000,1000,184768563,1581,1580,1579,1578
138243847,1000,1000,1000,1000,184868523,1581,1581,1579,1579
138246346,1000,1000,1000,1000,184968483,1581,1581,1580,1580
138248845,1000,1000,1000,1000,185068443,1581,1581,1581,1580
138251344,1000,1000,1000,1000,185168403,1580,1580,1581,1580
138253843,1000,1000,1000,1000,185268363,1580,1580,1580,1580
138256342,1000,1000,1000,1000,185368323,1581,1580,1581,1581
138258841,1000,1000,1000,1000,185468283,1580,1581,1582,1582
138261340,1000,1000,1000,1000,185568243,1580,1580,1582,1581
138263839,1000,1000,1000,1000,185668203,1581,1581,1582,1582
138266338,1000,1000,1000,1000,185768163,1581,1581,1582,1582
138268837,1000,1000,1000,1000,185868956,1580,1581,1581,1581
138271336,1000,1000,1000,1000,185968916,1581,1581,1581,1581
138273835,1000,1000,1000,1000,186068876,1581,1581,1581,1581
138276334,1000,1000,1000,1000,186168836,1580,1580,1580,1581
138278833,1000,1000,1000,1000,186268796,1581,1581,1581,1581
138281332,1000,1000,1000,1000,186368756,1582,1582,1582,1582
138283831,1000,1000,1000,1000,186468716,1583,1582,1582,1582
138286330,1000,1000,1000,1000,186568676,1582,1583,1582,1582
138288829,1000,1000,1000,1000,186668636,1583,1583,1583,1583
138291328,1000,1000,1000,1000,186768596,1583,1583,1583,1582
138293827,1000,1000,1000,1000,186868556,1583,1584,1587,1577
138296326,1000,1000,1000,1000,186968516,1582,1585,1587,1573
138298825,1000,1000,1000,1000,187068476,1581,1584,1581,1574
138301324,1000,1000,1000,1000,187168436,1579,1582,1572,1572
138303823,1000,1000,1000,1000,187268396,1577,1579,1564,1569
138306322,1000,1000,1000,1000,187368356,1578,1578,1558,1565
138308821,1000,1000,1000,1000,187468316,1579,1579,1555,1561
138311320,1000,1000,1000,1000,187568276,1579,1578,1553,1557
138313819,1000,1000,1000,1000,187668236,1579,1578,1553,1554
138316318,1000,1000,1000,1000,187768196,1580,1579,1554,1553
138318817,1000,1000,1000,1000,187868156,1581,1581,1556,1554
138321316,1000,1000,1000,1000,187968949,1579,1580,1556,1553
138323815,1000,1000,1000,1000,188068909,1578,1579,1555,1553
138326314,1000,1000,1000,1000,188168869,1577,1579,1554,1553
138328813,1000,1000,1000,1000,188268829,1578,1579,1553,1553
138331312,1000,1000,1000,1000,188368789,1578,1579,1552,1552
138333811,1000,1000,1000,1000,188468749,1579,1580,1550,1551
138336310,1000,1000,1000,1000,188568709,1580,1582,1548,1549
138338809,1000,1000,1000,1000,188668669,1582,1584,1547,1547
138341308,1000,1000,1000,1000,188768629,1585,1586,1545,1544
138343807,1000,1000,1000,1000,188868589,1588,1587,1543,1542
138346306,1000,1000,1000,1000,188968549,1589,1589,1541,1541
138348805,1000,1000,1000,1000,189068509,1592,1593,1540,1541
138351304,1000,1000,1000,1000,189168469,1593,1594,1538,1540
138353803,1000,1000,1000,1000,189268429,1594,1594,1539,1542
138356302,1000,1000,1000,1000,189368389,1594,1593,1543,1545
138358801,1000,1000,1000,1000,189468349,1592,1588,1547,1549
138361300,1000,1000,1000,1000,189568309,1587,1583,1555,1557
138363799,1000,1000,1000,1000,189668269,1579,1575,1563,1567
138366298,1000,1000,1000,1000,189768229,1569,1565,1574,1576
138368797,1000,1000,1000,1000,189868189,1559,1557,1585,1587
138371296,1000,1000,1000,1000,189968982,1549,1548,1595,1595
138373795,1000,1000,1000,1000,190068942,1542,1543,1605,1603
138376294,1000,1000,1000,1000,190168902,1537,1540,1612,1609
138378793,1000,1000,1000,1000,190268862,1536,1540,1615,1612
138381292,1000,1000,1000,1000,190368822,1537,1541,1614,1612
138383791,1000,1000,1000,1000,190468782,1542,1545,1612,1611
138386290,1000,1000,1000,1000,190568742,1547,1548,1606,1605
138388789,1000,1000,1000,1000,190668702,1553,1553,1600,1599
138391288,1000,1000,1000,1000,190768662,1560,1560,1593,1592
138393787,1000,1000,1000,1000,190868622,1566,1565,1585,1585
138396286,1000,1000,1000,1000,190968582,1573,1571,1578,1578
138398785,1000,1000,1000,1000,191068542,1578,1576,1572,1573
138401284,1000,1000,1000,1000,191168502,1582,1580,1568,1569
138403783,1000,1000,1000,1000,191268462,1584,1582,1565,1567
138406282,1000,1000,1000,1000,191368422,1585,1583,1564,1565
138408781,1000,1000,1000,1000,191468382,1585,1585,1565,1567
138411280,1000,1000,1000,1000,191568342,1585,1584,1568,1568
138413779,1000,1000,1000,1000,191668302,1582,1582,1570,1569
138416278,1000,1000,1000,1000,191768262,1581,1581,1574,1573
138418777,1000,1000,1000,1000,191868222,1579,1579,1577,1576
138421276,1000,1000,1000,1000,191968182,1577,1577,1580,1579
138423775,1000,1000,1000,1000,192068975,1575,1576,1582,1581
138426274,1000,1000,1000,1000,192168935,1573,1575,1583,1583
138428773,1000,1000,1000,1000,192268895,1572,1573,1584,1583
138431272,1000,1000,1000,1000,192368855,1572,1573,1584,1584
138433771,1000,1000,1000,1000,192468815,1573,1573,1583,1583
138436270,1000,1000,1000,1000,192568775,1573,1575,1583,1583
138438769,1000,1000,1000,1000,192668735,1575,1575,1581,1582
138441268,1000,1000,1000,1000,192768695,1575,1576,1580,1580
138443767,1000,1000,1000,1000,192868655,1577,1577,1579,1579
138446266,1000,1000,1000,1000,192968615,1579,1578,1578,1579
138448765,1000,1000,1000,1000,193068575,1580,1580,1577,1578
138451264,1000,1000,1000,1000,193168535,1580,1580,1576,1576
138453763,1000,1000,1000,1000,193268495,1582,1582,1578,1578
138456262,1000,1000,1000,1000,193368455,1582,1582,1578,1577
138458761,1000,1000,1000,1000,193468415,1582,1582,1578,1578
138461260,1000,1000,1000,1000,193568375,1581,1581,1578,1578
138463759,1000,1000,1000,1000,193668335,1582,1582,1579,1579
138466258,1000,1000,1000,1000,193768295,1580,1579,1578,1578
138468757,1000,1000,1000,1000,193868255,1579,1579,1579,1579
138471256,1000,1000,1000,1000,193968215,1579,1579,1580,1580
138473755,1000,1000,1000,1000,194068175,1579,1580,1581,1581
138476254,1000,1000,1000,1000,194168968,1579,1579,1581,1580
138478753,1000,1000,1000,1000,194268928,1579,1579,1580,1581
138481252,1000,1000,1000,1000,194368888,1579,1579,1581,1581
138483751,1000,1000,1000,1000,194468848,1578,1579,1580,1580
138486250,1000,1000,1000,1000,194568808,1578,1579,1580,1580
138488749,1000,1000,1000,1000,194668768,1579,1579,1580,1580
138491248,1000,1000,1000,1000,194768728,1581,1582,1587,1574
138493747,1000,1000,1000,1000,194868688,1581,1581,1586,1572
138496246,1000,1000,1000,1000,194968648,1578,1578,1579,1574
138498745,1000,1000,1000,1000,195068608,1575,1574,1573,1575
138501244,1000,1000,1000,1000,195168568,1572,1572,1568,1575
138503743,1000,1000,1000,1000,195268528,1569,1569,1565,1572
138506242,1000,1000,1000,1000,195368488,1567,1567,1564,1569
138508741,1000,1000,1000,1000,195468448,1566,1566,1564,1566
138511240,1000,1000,1000,1000,195568408,1566,1566,1565,1565
138513739,1000,1000,1000,1000,195668368,1566,1566,1566,1564
138516238,1000,1000,1000,1000,195768328,1565,1565,1566,1564
138518737,1000,1000,1000,1000,195868288,1564,1564,1566,1564
138521236,1000,1000,1000,1000,195968248,1564,1564,1566,1564
138523735,1000,1000,1000,1000,196068208,1563,1563,1564,1564
138526234,1000,1000,1000,1000,196168168,1563,1562,1563,1563
138528733,1000,1000,1000,1000,196268961,1562,1562,1563,1563
138531232,1000,1000,1000,1000,196368921,1562,1562,1562,1563
138533731,1000,1000,1000,1000,196468881,1562,1562,1562,1562
138536230,1000,1000,1000,1000,196568841,1562,1561,1562,1561
138538729,1000,1000,1000,1000,196668801,1562,1562,1562,1561
138541228,1000,1000,1000,1000,196768761,1560,1560,1561,1560
138543727,1000,1000,1000,1000,196868721,1561,1560,1561,1560
138546226,1000,1000,1000,1000,196968681,1560,1560,1560,1559
138548725,1000,1000,1000,1000,197068641,1559,1558,1559,1558
138551224,1000,1000,1000,1000,197168601,1559,1559,1560,1558
138553723,1000,1000,1000,1000,197268561,1558,1558,1559,1557
138556222,1000,1000,1000,1000,197368521,1559,1559,1561,1558
138558721,1000,1000,1000,1000,197468481,1560,1559,1561,1558
138561220,1000,1000,1000,1000,197568441,1560,1560,1560,1561
138563719,1000,1000,1000,1000,197668401,1560,1560,1558,1563
138566218,1000,1000,1000,1000,197768361,1561,1561,1558,1564
138568717,1000,1000,1000,1000,197868321,1561,1561,1558,1564
138571216,1000,1000,1000,1000,197968281,1561,1562,1559,1563
138573715,1000,1000,1000,1000,198068241,1561,1562,1561,1561
138576214,1000,1000,1000,1000,198168201,1561,1560,1560,1560
138578713,1000,1000,1000,1000,198268161,1557,1556,1556,1556
138581212,1000,1000,1000,1000,198368954,1553,1552,1552,1552
138583711,1000,1000,1000,1000,198468914,1548,1547,1547,1547
138586210,1000,1000,1000,1000,198568874,1542,1541,1542,1541
138588709,1000,1000,1000,1000,198668834,1534,1534,1534,1534
138591208,1000,1000,1000,1000,198768794,1527,1528,1527,1528
138593707,1000,1000,1000,1000,198868754,1521,1523,1522,1523
138596206,1000,1000,1000,1000,198968714,1520,1521,1520,1521
138598705,1000,1000,1000,1000,199068674,1519,1520,1519,1520
138601204,1000,1000,1000,1000,199168634,1520,1521,1520,1521
138603703,1000,1000,1000,1000,199268594,1523,1524,1523,1524
138606202,1000,1000,1000,1000,199368554,1527,1527,1527,1528
138608701,1000,1000,1000,1000,199468514,1532,1532,1532,1532
138611200,1000,1000,1000,1000,199568474,1536,1536,1537,1536
138613699,1000,1000,1000,1000,199668434,1539,1539,1540,1538
138616198,1000,1000,1000,1000,199768394,1542,1540,1542,1540
138618697,1000,1000,1000,1000,199868354,1543,1542,1543,1542
138621196,1000,1000,1000,1000,199968314,1544,1544,1544,1543
138623695,1000,1000,1000,1000,200068274,1545,1545,1545,1545
138626194,1000,1000,1000,1000,200168234,1546,1547,1546,1546
138628693,1000,1000,1000,1000,200268194,1546,1546,1546,1546
138631192,1000,1000,1000,1000,200368154,1546,1546,1546,1546
138633691,1000,1000,1000,1000,200468947,1546,1546,1546,1546
138636190,1000,1000,1000,1000,200568907,1546,1546,1546,1546
138638689,1000,1000,1000,1000,200668867,1546,1546,1547,1546
138641188,1000,1000,1000,1000,200768827,1546,1547,1547,1546
138643687,1000,1000,1000,1000,200868787,1547,1546,1546,1546
138646186,1000,1000,1000,1000,200968747,1546,1546,1546,1546
138648685,1000,1000,1000,1000,201068707,1544,1545,1545,1545
138651184,1000,1000,1000,1000,201168667,1545,1545,1545,1545
138653683,1000,1000,1000,1000,201268627,1544,1544,1544,1544
138656182,1000,1000,1000,1000,201368587,1544,1544,1544,1544
138658681,1000,1000,1000,1000,201468547,1545,1544,1544,1544
138661180,1000,1000,1000,1000,201568507,1544,1544,1544,1544
138663679,1000,1000,1000,1000,201668467,1544,1544,1544,1544
138666178,1000,1000,1000,1000,201768427,1543,1543,1544,1543
138668677,1000,1000,1000,1000,201868387,1544,1544,1544,1544
138671176,1000,1000,1000,1000,201968347,1543,1543,1543,1543
138673675,1000,1000,1000,1000,202068307,1543,1543,1543,1543
138676174,1000,1000,1000,1000,202168267,1544,1544,1544,1544
138678673,1000,1000,1000,1000,202268227,1543,1544,1543,1544
138681172,1000,1000,1000,1000,202368187,1544,1544,1544,1544
138683671,1000,1000,1000,1000,202468980,1544,1543,1543,1544
138686170,1000,1000,1000,1000,202568940,1544,1544,1544,1544
138688669,1000,1000,1000,1000,202668900,1544,1543,1543,1543
138691168,1000,1000,1000,1000,202768860,1544,1545,1544,1544
138693667,1000,1000,1000,1000,202868820,1543,1543,1543,1543
138696166,1000,1000,1000,1000,202968780,1544,1544,1544,1544
138698665,1000,1000,1000,1000,203068740,1544,1544,1544,1544
138701164,1000,1000,1000,1000,203168700,1543,1544,1544,1543
138703663,1000,1000,1000,1000,203268660,1544,1544,1544,1544
138706162,1000,1000,1000,1000,203368620,1543,1543,1544,1543
138708661,1000,1000,1000,1000,203468580,1544,1544,1544,1544
138711160,1000,1000,1000,1000,203568540,1544,1544,1544,1544
138713659,1000,1000,1000,1000,203668500,1545,1545,1545,1545
138716158,1000,1000,1000,1000,203768460,1544,1545,1545,1544
138718657,1000,1000,1000,1000,203868420,1544,1544,1544,1544
138721156,1000,1000,1000,1000,203968380,1545,1545,1544,1545
138723655,1000,1000,1000,1000,204068340,1544,1543,1544,1543
138726154,1000,1000,1000,1000,204168300,1543,1544,1544,1543
138728653,1000,1000,1000,1000,204268260,1543,1543,1543,1543
138731152,1000,1000,1000,1000,204368220,1544,1544,1544,1544
138733651,1000,1000,1000,1000,204468180,1544,1544,1544,1544
138736150,1000,1000,1000,1000,204568973,1544,1545,1545,1545
138738649,1000,1000,1000,1000,204668933,1545,1545,1545,1545
138741148,1000,1000,1000,1000,204768893,1544,1544,1544,1544
138743647,1000,1000,1000,1000,204868853,1544,1544,1544,1544
138746146,1000,1000,1000,1000,204968813,1545,1545,1545,1544
138748645,1000,1000,1000,1000,205068773,1545,1544,1545,1545
138751144,1000,1000,1000,1000,205168733,1545,1544,1545,1544
138753643,1000,1000,1000,1000,205268693,1544,1545,1545,1544
138756142,1000,1000,1000,1000,205368653,1544,1544,1544,1544
138758641,1000,1000,1000,1000,205468613,1544,1544,1544,1543
138761140,1000,1000,1000,1000,205568573,1544,1545,1544,1545
138763639,1000,1000,1000,1000,205668533,1544,1544,1544,1544
138766138,1000,1000,1000,1000,205768493,1544,1543,1544,1544
138768637,1000,1000,1000,1000,205868453,1544,1544,1544,1544
138771136,1000,1000,1000,1000,205968413,1543,1544,1544,1544
138773635,1000,1000,1000,1000,206068373,1544,1543,1544,1543
138776134,1000,1000,1000,1000,206168333,1545,1545,1545,1545
138778633,1000,1000,1000,1000,206268293,1545,1544,1544,1545
138781132,1000,1000,1000,1000,206368253,1544,1544,1544,1544
138783631,1000,1000,1000,1000,206468213,1543,1543,1543,1543
138786130,1000,1000,1000,1000,206568173,1544,1545,1544,1545
138788629,1000,1000,1000,1000,206668966,1545,1545,1544,1545
138791128,1000,1000,1000,1000,206768926,1544,1543,1544,1544
138793627,1000,1000,1000,1000,206868886,1544,1543,1544,1544
138796126,1000,1000,1000,1000,206968846,1544,1544,1544,1544
138798625,1000,1000,1000,1000,207068806,1544,1543,1543,1543
138801124,1000,1000,1000,1000,207168766,1544,1544,1544,1544
138803623,1000,1000,1000,1000,207268726,1543,1544,1544,1543
138806122,1000,1000,1000,1000,207368686,1544,1544,1544,1544
138808621,1000,1000,1000,1000,207468646,1545,1545,1545,1545
138811120,1000,1000,1000,1000,207568606,1544,1544,1543,1544
138813619,1000,1000,1000,1000,207668566,1544,1544,1544,1544
138816118,1000,1000,1000,1000,207768526,1544,1544,1544,1544
138818617,1000,1000,1000,1000,207868486,1544,1544,1544,1544
138821116,1000,1000,1000,1000,207968446,1544,1545,1544,1544
138823615,1000,1000,1000,1000,208068406,1545,1545,1545,1545
138826114,1000,1000,1000,1000,208168366,1545,1545,1545,1544
138828613,1000,1000,1000,1000,208268326,1545,1544,1545,1544
138831112,1000,1000,1000,1000,208368286,1544,1544,1544,1544
138833611,1000,1000,1000,1000,208468246,1544,1544,1544,1544
138836110,1000,1000,1000,1000,208568206,1544,1544,1544,1544
138838609,1000,1000,1000,1000,208668166,1419,1380,1419,1381
138841108,1000,1000,1000,1000,208768959,1335,1258,1335,1260
138843607,1000,1000,1000,1000,208868919,1308,1216,1308,1217
138846106,1000,1000,1000,1000,208968879,1296,1197,1296,1198
138848605,1000,1000,1000,1000,209068839,1272,1155,1272,1156
138851104,1000,1000,1000,1000,209168799,1213,1150,1213,1151
138853603,1000,1000,1000,1000,209268759,1113,1150,1113,1150
138856102,1000,1000,1000,1000,209368719,1113,1150,1113,1150
138858601,1000,1000,1000,1000,209468679,1113,1150,1113,1150
138861100,1000,1000,1000,1000,209568639,1113,1150,1097,1172
138863599,1000,1000,1000,1000,209668599,1113,1150,1096,1173
138866098,1000,1000,1000,1000,209768559,1113,1150,1101,1167
138868597,1000,1000,1000,1000,209868519,1113,1150,1102,1166
138871096,1000,1000,1000,1000,209968479,1113,1150,1102,1167
138873595,1000,1000,1000,1000,210068439,1113,1150,1101,1168
138876094,1000,1000,1000,1000,210168399,1113,1150,1100,1169
138878593,1000,1000,1000,1000,210268359,1112,1150,1099,1170
138881092,1000,1000,1000,1000,210368319,1113,1150,1113,1152
138883591,1000,1000,1000,1000,210468279,1113,1150,1108,1159
138886090,1000,1000,1000,1000,210568239,1112,1150,1107,1160
138888589,1000,1000,1000,1000,210668199,1112,1150,1107,1161
138891088,1000,1000,1000,1000,210768159,1112,1150,1106,1161
138893587,1000,1000,1000,1000,210868952,1000,1000,1000,1000
138896086,1000,1000,1000,1000,210968912,1000,1000,1000,1000
138898585,1000,1000,1000,1000,211068872,1000,1000,1000,1000
138901084,1000,1000,1000,1000,211168832,1000,1000,1000,1000
138903583,1000,1000,1000,1000,211268792,1000,1000,1000,1000
138906082,1000,1000,1000,1000,211368752,1000,1000,1000,1000
138908581,1000,1000,1000,1000,211468712,1000,1000,1000,1000
138911080,1000,1000,1000,1000,211568672,1000,1000,1000,1000
138913579,1000,1000,1000,1000,211668632,1000,1000,1000,1000
138916078,1000,1000,1000,1000,211768592,1000,1000,1000,1000
138918577,1000,1000,1000,1000,211868552,1000,1000,1000,1000
138921076,1000,1000,1000,1000,211968512,1000,1000,1000,1000
138923575,1000,1000,1000,1000,212068472,1000,1000,1000,1000
138926074,1000,1000,1000,1000,212168432,1000,1000,1000,1000
138928573,1000,1000,1000,1000,212268392,1000,1000,1000,1000
138931072,1000,1000,1000,1000,212368352,1000,1000,1000,1000
138933571,1000,1000,1000,1000,212468312,1000,1000,1000,1000
138936070,1000,1000,1000,1000,212568272,1000,1000,1000,1000
138938569,1000,1000,1000,1000,212668232,1000,1000,1000,1000
138941068,1000,1000,1000,1000,212768192,1000,1000,1000,1000
138943567,1000,1000,1000,1000,212868985,1000,1000,1000,1000
138946066,1000,1000,1000,1000,212968945,1000,1000,1000,1000
138948565,1000,1000,1000,1000,213068905,1000,1000,1000,1000
138951064,1000,1000,1000,1000,213168865,1000,1000,1000,1000
138953563,1000,1000,1000,1000,213268825,1000,1000,1000,1000
138956062,1000,1000,1000,1000,213368785,1000,1000,1000,1000
138958561,1000,1000,1000,1000,213468745,1000,1000,1000,1000
138961060,1000,1000,1000,1000,213568705,1000,1000,1000,1000
138963559,1000,1000,1000,1000,213668665,1000,1000,1000,1000
138966058,1000,1000,1000,1000,213768625,1000,1000,1000,1000
138968557,1000,1000,1000,1000,213868585,1000,1000,1000,1000
138971056,1000,1000,1000,1000,213968545,1000,1000,1000,1000
138973555,1000,1000,1000,1000,214068505,1000,1000,1000,1000
138976054,1000,1000,1000,1000,214168465,1000,1000,1000,1000
138978553,1000,1000,1000,1000,214268425,1000,1000,1000,1000
138981052,1000,1000,1000,1000,214368385,1000,1000,1000,1000
138983551,1000,1000,1000,1000,214468345,1000,1000,1000,1000
138986050,1000,1000,1000,1000,214568305,1000,1000,1000,1000
138988549,1000,1000,1000,1000,214668265,1000,1000,1000,1000
138991048,1000,1000,1000,1000,214768225,1000,1000,1000,1000
138993547,1000,1000,1000,1000,214868185,1000,1000,1000,1000
138996046,1000,1000,1000,1000,214968978,1000,1000,1000,1000
138998545,1000,1000,1000,1000,215068938,1000,1000,1000,1000
139001044,1000,1000,1000,1000,215168898,1000,1000,1000,1000
139003543,1000,1000,1000,1000,215268858,1000,1000,1000,1000
139006042,1000,1000,1000,1000,215368818,1000,1000,1000,1000
139008541,1000,1000,1000,1000,215468778,1000,1000,1000,1000
139011040,1000,1000,1000,1000,215568738,1000,1000,1000,1000
139013539,1000,1000,1000,1000,215668698,1000,1000,1000,1000
139016038,1000,1000,1000,1000,215768658,1000,1000,1000,1000
139018537,1000,1000,1000,1000,215868618,1000,1000,1000,1000
139021036,1000,1000,1000,1000,215968578,1000,1000,1000,1000
139023535,1000,1000,1000,1000,216068538,1000,1000,1000,1000
139026034,1000,1000,1000,1000,216168498,1000,1000,1000,1000
139028533,1000,1000,1000,1000,216268458,1000,1000,1000,1000
139031032,1000,1000,1000,1000,216368418,1000,1000,1000,1000
139033531,1000,1000,1000,1000,216468378,1000,1000,1000,1000
139036030,1000,1000,1000,1000,216568338,1000,1000,1000,1000
139038529,1000,1000,1000,1000,216668298,1000,1000,1000,1000
139041028,1000,1000,1000,1000,216768258,1000,1000,1000,1000
139043527,1000,1000,1000,1000,216868218,1000,1000,1000,1000
139046026,1000,1000,1000,1000,216968178,1000,1000,1000,1000
139048525,1000,1000,1000,1000,217068971,1000,1000,1000,1000
139051024,1000,1000,1000,1000,217168931,1000,1000,1000,1000
139053523,1001,1001,1001,1001,217268891,1000,1000,1000,1000
139056022,1002,1002,1002,1002,217368851,1000,1000,1000,1000
139058521,1003,1003,1003,1003,217468811,1000,1000,1000,1000
139061020,1003,1003,1003,1003,217568771,1000,1000,1000,1000
139063519,1004,1004,1004,1004,217668731,1000,1000,1000,1000
139066018,1005,1005,1005,1005,217768691,1000,1000,1000,1000
139068517,1006,1006,1006,1006,217868651,1000,1000,1000,1000
139071016,1006,1006,1006,1006,217968611,1000,1000,1000,1000
139073515,1007,1007,1007,1007,218068571,1000,1000,1000,1000
139076014,1008,1008,1008,1008,218168531,1000,1000,1000,1000
139078513,1009,1009,1009,1009,218268491,1000,1000,1000,1000
139081012,1009,1009,1009,1009,218368451,1000,1000,1000,1000
139083511,1010,1010,1010,1010,218468411,1000,1000,1000,1000
139086010,1011,1011,1011,1011,218568371,1000,1000,1000,1000
139088509,1012,1012,1012,1012,218668331,1000,1000,1000,1000
139091008,1012,1012,1012,1012,218768291,1000,1000,1000,1000
139093507,1013,1013,1013,1013,218868251,1000,1000,1000,1000
139096006,1014,1014,1014,1014,218968211,1000,1000,1000,1000
139098505,1015,1015,1015,1015,219068171,1000,1000,1000,1000
139101004,1015,1015,1015,1015,219168964,1000,1000,1000,1000
139103503,1016,1016,1016,1016,219268924,1000,1000,1000,1000
139106002,1017,1017,1017,1017,219368884,1000,1000,1000,1000
139108501,1018,1018,1018,1018,219468844,1000,1000,1000,1000
139111000,1018,1018,1018,1018,219568804,1000,1000,1000,1000
139113499,1019,1019,1019,1019,219668764,1000,1000,1000,1000
139115998,1020,1020,1020,1020,219768724,1000,1000,1000,1000
139118497,1021,1021,1021,1021,219868684,1000,1000,1000,1000
139120996,1021,1021,1021,1021,219968644,1000,1000,1000,1000
139123495,1022,1022,1022,1022,220068604,1000,1000,1000,1000
139125994,1023,1023,1023,1023,220168564,1000,1000,1000,1000
139128493,1024,1024,1024,1024,220268524,1000,1000,1000,1000
139130992,1024,1024,1024,1024,220368484,1000,1000,1000,1000
139133491,1025,1025,1025,1025,220468444,1000,1000,1000,1000
139135990,1026,1026,1026,1026,220568404,1000,1000,1000,1000
139138489,1027,1027,1027,1027,220668364,1000,1000,1000,1000
139140988,1027,1027,1027,1027,220768324,1000,1000,1000,1000
139143487,1028,1028,1028,1028,220868284,1000,1000,1000,1000
139145986,1029,1029,1029,1029,220968244,1000,1000,1000,1000
139148485,1030,1030,1030,1030,221068204,1000,1000,1000,1000
139150984,1030,1030,1030,1030,221168164,1000,1000,1000,1000
139153483,1031,1031,1031,1031,221268957,1000,1000,1000,1000
139155982,1032,1032,1032,1032,221368917,1000,1000,1000,1000
139158481,1033,1033,1033,1033,221468877,1000,1000,1000,1000
139160980,1033,1033,1033,1033,221568837,1000,1000,1000,1000
139163479,1034,1034,1034,1034,221668797,1000,1000,1000,1000
139165978,1035,1035,1035,1035,221768757,1000,1000,1000,1000
139168477,1036,1036,1036,1036,221868717,1000,1000,1000,1000
139170976,1036,1036,1036,1036,221968677,1000,1000,1000,1000
139173475,1037,1037,1037,1037,222068637,1000,1000,1000,1000
139175974,1038,1038,1038,1038,222168597,1000,1000,1000,1000
139178473,1039,1039,1039,1039,222268557,1000,1000,1000,1000
139180972,1039,1039,1039,1039,222368517,1000,1000,1000,1000
139183471,1040,1040,1040,1040,222468477,1000,1000,1000,1000
139185970,1041,1041,1041,1041,222568437,1000,1000,1000,1000
139188469,1042,1042,1042,1042,222668397,1000,1000,1000,1000
139190968,1042,1042,1042,1042,222768357,1000,1000,1000,1000
139193467,1043,1043,1043,1043,222868317,1000,1000,1000,1000
139195966,1044,1044,1044,1044,222968277,1000,1000,1000,1000
139198465,1045,1045,1045,1045,223068237,1000,1000,1000,1000
139200964,1045,1045,1045,1045,223168197,1000,1000,1000,1000
139203463,1046,1046,1046,1046,223268157,1000,1000,1000,1000
139205962,1047,1047,1047,1047,223368950,1000,1000,1000,1000
139208461,1048,1048,1048,1048,223468910,1000,1000,1000,1000
139210960,1048,1048,1048,1048,223568870,1000,1000,1000,1000
139213459,1049,1049,1049,1049,223668830,1000,1000,1000,1000
139215958,1050,1050,1050,1050,223768790,1000,1000,1000,1000
139218457,1051,1051,1051,1051,223868750,1000,1000,1000,1000
139220956,1051,1051,1051,1051,223968710,1000,1000,1000,1000
139223455,1052,1052,1052,1052,224068670,1000,1000,1000,1000
139225954,1053,1053,1053,1053,224168630,1000,1000,1000,1000
139228453,1054,1054,1054,1054,224268590,1000,1000,1000,1000
139230952,1054,1054,1054,1054,224368550,1000,1000,1000,1000
139233451,1055,1055,1055,1055,224468510,1000,1000,1000,1000
139235950,1056,1056,1056,1056,224568470,1000,1000,1000,1000
139238449,1057,1057,1057,1057,224668430,1000,1000,1000,1000
139240948,1057,1057,1057,1057,224768390,1000,1000,1000,1000
139243447,1058,1058,1058,1058,224868350,1000,1000,1000,1000
139245946,1059,1059,1059,1059,224968310,1000,1000,1000,1000
139248445,1060,1060,1060,1060,225068270,1000,1000,1000,1000
139250944,1060,1060,1060,1060,225168230,1000,1000,1000,1000
139253443,1061,1061,1061,1061,225268190,1000,1000,1000,1000
139255942,1062,1062,1062,1062,225368983,1000,1000,1000,1000
139258441,1063,1063,1063,1063,225468943,1000,1000,1000,1000
139260940,1063,1063,1063,1063,225568903,1000,1000,1000,1000
139263439,1064,1064,1064,1064,225668863,1000,1000,1000,1000
139265938,1065,1065,1065,1065,225768823,1000,1000,1000,1000
139268437,1066,1066,1066,1066,,,,,
139270936,1066,1066,1066,1066,,,,,
139273435,1067,1067,1067,1067,,,,,
139275934,1068,1068,1068,1068,,,,,
139278433,1069,1069,1069,1069,,,,,
139280932,1069,1069,1069,1069,,,,,
139283431,1070,1070,1070,1070,,,,,
139285930,1071,1071,1071,1071,,,,,
139288429,1072,1072,1072,1072,,,,,
139290928,1072,1072,1072,1072,,,,,
139293427,1073,1073,1073,1073,,,,,
139295926,1074,1074,1074,1074,,,,,
139298425,1075,1075,1075,1075,,,,,
139300924,1075,1075,1075,1075,,,,,
139303423,1076,1076,1076,1076,,,,,
139305922,1077,1077,1077,1077,,,,,
139308421,1078,1078,1078,1078,,,,,
139310920,1078,1078,1078,1078,,,,,
139313419,1079,1079,1079,1079,,,,,
139315918,1080,1080,1080,1080,,,,,
139318417,1081,1081,1081,1081,,,,,
139320916,1081,1081,1081,1081,,,,,
139323415,1082,1082,1082,1082,,,,,
139325914,1083,1083,1083,1083,,,,,
139328413,1084,1084,1084,1084,,,,,
139330912,1084,1084,1084,1084,,,,,
139333411,1085,1085,1085,1085,,,,,
139335910,1086,1086,1086,1086,,,,,
139338409,1087,1087,1087,1087,,,,,
139340908,1087,1087,1087,1087,,,,,
139343407,1088,1088,1088,1088,,,,,
139345906,1089,1089,1089,1089,,,,,
139348405,1090,1090,1090,1090,,,,,
139350904,1090,1090,1090,1090,,,,,
139353403,1091,1091,1091,1091,,,,,
139355902,1092,1092,1092,1092,,,,,
139358401,1093,1093,1093,1093,,,,,
139360900,1093,1093,1093,1093,,,,,
139363399,1094,1094,1094,1094,,,,,
139365898,1095,1095,1095,1095,,,,,
139368397,1096,1096,1096,1096,,,,,
139370896,1096,1096,1096,1096,,,,,
139373395,1097,1097,1097,1097,,,,,
139375894,1098,1098,1098,1098,,,,,
139378393,1099,1099,1099,1099,,,,,
139380892,1099,1099,1099,1099,,,,,
139383391,1100,1100,1100,1100,,,,,
139385890,1100,1100,1100,1100,,,,,
139388389,1100,1100,1100,1100,,,,,
139390888,1100,1100,1100,1100,,,,,
139393387,1100,1100,1100,1100,,,,,
139395886,1100,1100,1100,1100,,,,,
139398385,1100,1100,1100,1100,,,,,
139400884,1100,1100,1100,1100,,,,,
139403383,1100,1100,1100,1100,,,,,
139405882,1100,1100,1100,1100,,,,,
139408381,1100,1100,1100,1100,,,,,
139410880,1100,1100,1100,1100,,,,,
139413379,1100,1100,1100,1100,,,,,
139415878,1100,1100,1100,1100,,,,,
139418377,1100,1100,1100,1100,,,,,
139420876,1100,1100,1100,1100,,,,,
139423375,1100,1100,1100,1100,,,,,
139425874,1100,1100,1100,1100,,,,,
139428373,1100,1100,1100,1100,,,,,
139430872,1100,1100,1100,1100,,,,,
139433371,1100,1100,1100,1100,,,,,
139435870,1100,1100,1100,1100,,,,,
139438369,1100,1100,1100,1100,,,,,
139440868,1100,1100,1100,1100,,,,,
139443367,1100,1100,1100,1100,,,,,
139445866,1100,1100,1100,1100,,,,,
139448365,1100,1100,1100,1100,,,,,
139450864,1100,1100,1100,1100,,,,,
139453363,1100,1100,1100,1100,,,,,
139455862,1100,1100,1100,1100,,,,,
139458361,1100,1100,1100,1100,,,,,
139460860,1100,1100,1100,1100,,,,,
139463359,1100,1100,1100,1100,,,,,
139465858,1100,1100,1100,1100,,,,,
139468357,1100,1100,1100,1100,,,,,
139470856,1100,1100,1100,1100,,,,,
139473355,1100,1100,1100,1100,,,,,
139475854,1100,1100,1100,1100,,,,,
139478353,1100,1100,1100,1100,,,,,
139480852,1100,1100,1100,1100,,,,,
139483351,1100,1100,1100,1100,,,,,
139485850,1100,1100,1100,1100,,,,,
139488349,1100,1100,1100,1100,,,,,
139490848,1100,1100,1100,1100,,,,,
139493347,1100,1100,1100,1100,,,,,
139495846,1100,1100,1100,1100,,,,,
139498345,1100,1100,1100,1100,,,,,
139500844,1100,1100,1100,1100,,,,,
139503343,1100,1100,1100,1100,,,,,
139505842,1100,1100,1100,1100,,,,,
139508341,1100,1100,1100,1100,,,,,
139510840,1100,1100,1100,1100,,,,,
139513339,1100,1100,1100,1100,,,,,
139515838,1100,1100,1100,1100,,,,,
139518337,1100,1100,1100,1100,,,,,
139520836,1100,1100,1100,1100,,,,,
139523335,1100,1100,1100,1100,,,,,
139525834,1100,1100,1100,1100,,,,,
139528333,1100,1100,1100,1100,,,,,
139530832,1100,1100,1100,1100,,,,,
139533331,1100,1100,1100,1100,,,,,
139535830,1100,1100,1100,1100,,,,,
139538329,1100,1100,1100,1100,,,,,
139540828,1100,1100,1100,1100,,,,,
139543327,1100,1100,1100,1100,,,,,
139545826,1100,1100,1100,1100,,,,,
139548325,1100,1100,1100,1100,,,,,
139550824,1100,1100,1100,1100,,,,,
139553323,1100,1100,1100,1100,,,,,
139555822,1100,1100,1100,1100,,,,,
139558321,1100,1100,1100,1100,,,,,
139560820,1100,1100,1100,1100,,,,,
139563319,1100,1100,1100,1100,,,,,
139565818,1100,1100,1100,1100,,,,,
139568317,1100,1100,1100,1100,,,,,
139570816,1100,1100,1100,1100,,,,,
139573315,1100,1100,1100,1100,,,,,
139575814,1100,1100,1100,1100,,,,,
139578313,1100,1100,1100,1100,,,,,
139580812,1100,1100,1100,1100,,,,,
139583311,1100,1100,1100,1100,,,,,
139585810,1100,1100,1100,1100,,,,,
139588309,1100,1100,1100,1100,,,,,
139590808,1100,1100,1100,1100,,,,,
139593307,1100,1100,1100,1100,,,,,
139595806,1100,1100,1100,1100,,,,,
139598305,1100,1100,1100,1100,,,,,
139600804,1100,1100,1100,1100,,,,,
139603303,1100,1100,1100,1100,,,,,
139605802,1100,1100,1100,1100,,,,,
139608301,1100,1100,1100,1100,,,,,
139610800,1100,1100,1100,1100,,,,,
139613299,1100,1100,1100,1100,,,,,
139615798,1100,1100,1100,1100,,,,,
139618297,1100,1100,1100,1100,,,,,
139620796,1100,1100,1100,1100,,,,,
139623295,1100,1100,1100,1100,,,,,
139625794,1100,1100,1100,1100,,,,,
139628293,1100,1100,1100,1100,,,,,
139630792,1100,1100,1100,1100,,,,,
139633291,1100,1100,1100,1100,,,,,
139635790,1100,1100,1100,1100,,,,,
139638289,1100,1100,1100,1100,,,,,
139640788,1100,1100,1100,1100,,,,,
139643287,1100,1100,1100,1100,,,,,
139645786,1100,1100,1100,1100,,,,,
139648285,1100,1100,1100,1100,,,,,
139650784,1100,1100,1100,1100,,,,,
139653283,1100,1100,1100,1100,,,,,
139655782,1100,1100,1100,1100,,,,,
139658281,1100,1100,1100,1100,,,,,
139660780,1100,1100,1100,1100,,,,,
139663279,1100,1100,1100,1100,,,,,
139665778,1100,1100,1100,1100,,,,,
139668277,1100,1100,1100,1100,,,,,
139670776,1100,1100,1100,1100,,,,,
139673275,1100,1100,1100,1100,,,,,
139675774,1100,1100,1100,1100,,,,,
139678273,1100,1100,1100,1100,,,,,
139680772,1100,1100,1100,1100,,,,,
139683271,1100,1100,1100,1100,,,,,
139685770,1100,1100,1100,1100,,,,,
139688269,1100,1100,1100,1100,,,,,
139690768,1100,1100,1100,1100,,,,,
139693267,1100,1100,1100,1100,,,,,
139695766,1100,1100,1100,1100,,,,,
139698265,1100,1100,1100,1100,,,,,
139700764,1100,1100,1100,1100,,,,,
139703263,1100,1100,1100,1100,,,,,
139705762,1100,1100,1100,1100,,,,,
139708261,1100,1100,1100,1100,,,,,
139710760,1100,1100,1100,1100,,,,,
139713259,1100,1100,1100,1100,,,,,
139715758,1100,1100,1100,1100,,,,,
139718257,1100,1100,1100,1100,,,,,
139720756,1100,1100,1100,1100,,,,,
139723255,1100,1100,1100,1100,,,,,
139725754,1100,1100,1100,1100,,,,,
139728253,1100,1100,1100,1100,,,,,
139730752,1100,1100,1100,1100,,,,,
139733251,1100,1100,1100,1100,,,,,
139735750,1100,1100,1100,1100,,,,,
139738249,1100,1100,1100,1100,,,,,
139740748,1100,1100,1100,1100,,,,,
