TimeUS,M1,M2,M3,M4,TimeUS,C1,C2,C3,C4
76438579,1000,1000,1000,1000,76528543,1000,1000,1000,1000
76441078,1000,1000,1000,1000,76628503,1000,1000,1000,1000
76443577,1000,1000,1000,1000,76728463,1000,1000,1000,1000
76446076,1000,1000,1000,1000,76828423,1000,1000,1000,1000
76448575,1000,1000,1000,1000,76928383,1000,1000,1000,1000
76451074,1000,1000,1000,1000,77028343,1000,1000,1000,1000
76453573,1000,1000,1000,1000,77128303,1000,1000,1000,1000
76456072,1000,1000,1000,1000,77228263,1000,1000,1000,1000
76458571,1000,1000,1000,1000,77328223,1000,1000,1000,1000
76461070,1000,1000,1000,1000,77428183,1000,1000,1000,1000
76463569,1000,1000,1000,1000,77528976,1000,1000,1000,1000
76466068,1000,1000,1000,1000,77628936,1000,1000,1000,1000
76468567,1000,1000,1000,1000,77728896,1000,1000,1000,1000
76471066,1000,1000,1000,1000,77828856,1000,1000,1000,1000
76473565,1000,1000,1000,1000,77928816,1000,1000,1000,1000
76476064,1000,1000,1000,1000,78028776,1000,1000,1000,1000
76478563,1000,1000,1000,1000,78128736,1000,1000,1000,1000
76481062,1000,1000,1000,1000,78228696,1000,1000,1000,1000
76483561,1000,1000,1000,1000,78328656,1000,1000,1000,1000
76486060,1000,1000,1000,1000,78428616,1000,1000,1000,1000
76488559,1000,1000,1000,1000,78528576,1027,1027,1027,1027
76491058,1000,1000,1000,1000,78628536,1057,1057,1057,1057
76493557,1000,1000,1000,1000,78728496,1087,1087,1087,1087
76496056,1000,1000,1000,1000,78828456,1116,1116,1116,1116
76498555,1000,1000,1000,1000,78928416,1146,1146,1146,1146
76501054,1000,1000,1000,1000,79028376,1380,1371,1372,1380
76503553,1000,1000,1000,1000,79128336,1564,1557,1557,1564
76506052,1000,1000,1000,1000,79228296,1714,1707,1708,1714
76508551,1000,1000,1000,1000,79328256,1843,1837,1837,1844
76511050,1000,1000,1000,1000,79428216,1902,1896,1896,1903
76513549,1000,1000,1000,1000,79528176,1829,1827,1827,1830
76516048,1000,1000,1000,1000,79628969,1700,1702,1702,1701
76518547,1000,1000,1000,1000,79728929,1633,1635,1636,1633
76521046,1000,1000,1000,1000,79828889,1624,1627,1628,1624
76523545,1000,1000,1000,1000,79928849,1633,1627,1625,1636
76526044,1000,1000,1000,1000,80028809,1628,1629,1622,1634
76528543,1000,1000,1000,1000,80128769,1622,1624,1618,1627
76531042,1000,1000,1000,1000,80228729,1616,1618,1616,1618
76533541,1000,1000,1000,1000,80328689,1613,1613,1615,1611
76536040,1000,1000,1000,1000,80428649,1612,1611,1615,1607
76538539,1000,1000,1000,1000,80528609,1614,1613,1618,1610
76541038,1000,1000,1000,1000,80628569,1616,1616,1619,1613
76543537,1000,1000,1000,1000,80728529,1604,1603,1607,1600
76546036,1000,1000,1000,1000,80828489,1580,1580,1589,1572
76548535,1000,1000,1000,1000,80928449,1567,1568,1571,1563
76551034,1000,1000,1000,1000,81028409,1556,1557,1555,1558
76553533,1000,1000,1000,1000,81128369,1549,1549,1541,1556
76556032,1000,1000,1000,1000,81228329,1541,1541,1531,1551
76558531,1000,1000,1000,1000,81328289,1535,1534,1527,1542
76561030,1000,1000,1000,1000,81428249,1529,1530,1526,1532
76563529,1000,1000,1000,1000,81528209,1527,1527,1527,1527
76566028,1000,1000,1000,1000,81628169,1528,1528,1529,1526
76568527,1000,1000,1000,1000,81728962,1530,1529,1532,1526
76571026,1000,1000,1000,1000,81828922,1533,1533,1536,1530
76573525,1000,1000,1000,1000,81928882,1537,1537,1539,1535
76576024,1000,1000,1000,1000,82028842,1540,1540,1542,1539
76578523,1000,1000,1000,1000,82128802,1544,1543,1545,1543
76581022,1000,1000,1000,1000,82228762,1547,1547,1547,1548
76583521,1000,1000,1000,1000,82328722,1549,1549,1549,1550
76586020,1000,1000,1000,1000,82428682,1551,1551,1550,1553
76588519,1000,1000,1000,1000,82528642,1554,1555,1553,1556
76591018,1000,1000,1000,1000,82628602,1558,1558,1556,1558
76593517,1000,1000,1000,1000,82728562,1559,1558,1559,1560
76596016,1000,1000,1000,1000,82828522,1559,1559,1562,1562
76598515,1000,1000,1000,1000,82928482,1560,1559,1564,1564
76601014,1000,1000,1000,1000,83028442,1561,1562,1567,1566
76603513,1000,1000,1000,1000,83128402,1563,1563,1568,1567
76606012,1000,1000,1000,1000,83228362,1565,1566,1569,1569
76608511,1000,1000,1000,1000,83328322,1567,1567,1569,1569
76611010,1000,1000,1000,1000,83428282,1568,1569,1569,1569
76613509,1000,1000,1000,1000,83528242,1571,1570,1569,1570
76616008,1000,1000,1000,1000,83628202,1572,1573,1570,1570
76618507,1000,1000,1000,1000,83728162,1573,1573,1570,1570
76621006,1000,1000,1000,1000,83828955,1573,1574,1570,1570
76623505,1000,1000,1000,1000,83928915,1574,1574,1571,1570
76626004,1000,1000,1000,1000,84028875,1576,1576,1574,1573
76628503,1000,1000,1000,1000,84128835,1577,1577,1575,1573
76631002,1000,1000,1000,1000,84228795,1576,1576,1575,1574
76633501,1000,1000,1000,1000,84328755,1576,1576,1575,1575
76636000,1000,1000,1000,1000,84428715,1576,1576,1575,1575
76638499,1000,1000,1000,1000,84528675,1575,1575,1576,1576
76640998,1000,1000,1000,1000,84628635,1575,1575,1576,1576
76643497,1000,1000,1000,1000,84728595,1575,1575,1576,1577
76645996,1000,1000,1000,1000,84828555,1575,1576,1577,1577
76648495,1000,1000,1000,1000,84928515,1576,1576,1577,1576
76650994,1000,1000,1000,1000,85028475,1576,1576,1577,1577
76653493,1000,1000,1000,1000,85128435,1577,1576,1578,1577
76655992,1000,1000,1000,1000,85228395,1576,1577,1577,1577
76658491,1000,1000,1000,1000,85328355,1578,1577,1577,1578
76660990,1000,1000,1000,1000,85428315,1579,1579,1579,1579
76663489,1000,1000,1000,1000,85528275,1578,1578,1578,1578
76665988,1000,1000,1000,1000,85628235,1579,1578,1578,1578
76668487,1000,1000,1000,1000,85728195,1579,1579,1578,1578
76670986,1000,1000,1000,1000,85828155,1578,1578,1577,1577
76673485,1000,1000,1000,1000,85928948,1579,1579,1579,1579
76675984,1000,1000,1000,1000,86028908,1579,1579,1579,1579
76678483,1000,1000,1000,1000,86128868,1579,1579,1578,1579
76680982,1000,1000,1000,1000,86228828,1579,1579,1579,1579
76683481,1000,1000,1000,1000,86328788,1579,1578,1579,1579
76685980,1000,1000,1000,1000,86428748,1579,1579,1579,1579
76688479,1000,1000,1000,1000,86528708,1579,1579,1579,1580
76690978,1000,1000,1000,1000,86628668,1578,1579,1579,1579
76693477,1000,1000,1000,1000,86728628,1579,1579,1579,1579
76695976,1000,1000,1000,1000,86828588,1579,1579,1579,1579
76698475,1000,1000,1000,1000,86928548,1579,1579,1579,1580
76700974,1000,1000,1000,1000,87028508,1579,1579,1580,1580
76703473,1000,1000,1000,1000,87128468,1579,1579,1579,1579
76705972,1000,1000,1000,1000,87228428,1579,1580,1580,1580
76708471,1000,1000,1000,1000,87328388,1580,1580,1580,1580
76710970,1000,1000,1000,1000,87428348,1581,1580,1581,1580
76713469,1000,1000,1000,1000,87528308,1580,1580,1580,1580
76715968,1000,1000,1000,1000,87628268,1580,1580,1580,1579
76718467,1000,1000,1000,1000,87728228,1580,1580,1580,1580
76720966,1000,1000,1000,1000,87828188,1580,1580,1579,1580
76723465,1000,1000,1000,1000,87928981,1581,1581,1581,1581
76725964,1000,1000,1000,1000,88028941,1580,1580,1580,1580
76728463,1000,1000,1000,1000,88128901,1581,1581,1581,1580
76730962,1000,1000,1000,1000,88228861,1580,1580,1580,1580
76733461,1000,1000,1000,1000,88328821,1580,1580,1580,1581
76735960,1000,1000,1000,1000,88428781,1580,1580,1580,1581
76738459,1000,1000,1000,1000,88528741,1580,1581,1581,1581
76740958,1000,1000,1000,1000,88628701,1580,1581,1581,1581
76743457,1000,1000,1000,1000,88728661,1580,1581,1582,1579
76745956,1000,1000,1000,1000,88828621,1580,1582,1588,1573
76748455,1000,1000,1000,1000,88928581,1579,1582,1583,1572
76750954,1000,1000,1000,1000,89028541,1578,1580,1574,1572
76753453,1000,1000,1000,1000,89128501,1577,1579,1565,1571
76755952,1000,1000,1000,1000,89228461,1577,1578,1559,1566
76758451,1000,1000,1000,1000,89328421,1578,1578,1555,1561
76760950,1000,1000,1000,1000,89428381,1579,1578,1555,1557
76763449,1000,1000,1000,1000,89528341,1580,1578,1555,1555
76765948,1000,1000,1000,1000,89628301,1579,1578,1556,1553
76768447,1000,1000,1000,1000,89728261,1578,1578,1556,1554
76770946,1000,1000,1000,1000,89828221,1577,1578,1556,1553
76773445,1000,1000,1000,1000,89928181,1576,1577,1554,1554
76775944,1000,1000,1000,1000,90028974,1575,1577,1554,1553
76778443,1000,1000,1000,1000,90128934,1575,1577,1552,1553
76780942,1000,1000,1000,1000,90228894,1576,1577,1551,1551
76783441,1000,1000,1000,1000,90328854,1578,1579,1549,1550
76785940,1000,1000,1000,1000,90428814,1579,1580,1547,1547
76788439,1000,1000,1000,1000,90528774,1583,1584,1545,1545
76790938,1000,1000,1000,1000,90628734,1586,1587,1543,1542
76793437,1000,1000,1000,1000,90728694,1588,1589,1539,1539
76795936,1000,1000,1000,1000,90828654,1591,1592,1537,1537
76798435,1000,1000,1000,1000,90928614,1594,1593,1535,1536
76800934,1000,1000,1000,1000,91028574,1595,1595,1535,1535
76803433,1000,1000,1000,1000,91128534,1596,1596,1536,1538
76805932,1000,1000,1000,1000,91228494,1594,1594,1537,1540
76808431,1000,1000,1000,1000,91328454,1591,1590,1540,1544
76810930,1000,1000,1000,1000,91428414,1586,1584,1547,1550
76813429,1000,1000,1000,1000,91528374,1580,1576,1557,1559
76815928,1000,1000,1000,1000,91628334,1570,1566,1568,1570
76818427,1000,1000,1000,1000,91728294,1559,1555,1581,1582
76820926,1000,1000,1000,1000,91828254,1547,1545,1592,1593
76823425,1000,1000,1000,1000,91928214,1539,1538,1604,1604
76825924,1000,1000,1000,1000,92028174,1532,1532,1611,1611
76828423,1000,1000,1000,1000,92128967,1528,1530,1615,1614
76830922,1000,1000,1000,1000,92228927,1529,1531,1615,1614
76833421,1000,1000,1000,1000,92328887,1534,1536,1613,1612
76835920,1000,1000,1000,1000,92428847,1541,1543,1608,1607
76838419,1000,1000,1000,1000,92528807,1549,1550,1600,1600
76840918,1000,1000,1000,1000,92628767,1558,1559,1593,1592
76843417,1000,1000,1000,1000,92728727,1568,1568,1586,1585
76845916,1000,1000,1000,1000,92828687,1575,1575,1579,1578
76848415,1000,1000,1000,1000,92928647,1582,1580,1573,1573
76850914,1000,1000,1000,1000,93028607,1585,1583,1568,1568
76853413,1000,1000,1000,1000,93128567,1588,1586,1566,1567
76855912,1000,1000,1000,1000,93228527,1587,1586,1565,1566
76858411,1000,1000,1000,1000,93328487,1587,1586,1567,1567
76860910,1000,1000,1000,1000,93428447,1444,1550,1428,1538
76863409,1000,1000,1000,1000,93528407,1557,1557,1548,1550
76865908,1000,1000,1000,1000,93628367,1664,1608,1662,1605
76868407,1000,1000,1000,1000,93728327,1677,1597,1679,1602
76870906,1000,1000,1000,1000,93828287,1678,1615,1679,1620
76873405,1000,1000,1000,1000,93928247,1679,1635,1676,1633
76875904,1000,1000,1000,1000,94028207,1679,1651,1673,1640
76878403,1000,1000,1000,1000,94128167,1679,1669,1671,1645
76880902,1000,1000,1000,1000,94228960,1679,1695,1668,1657
76883401,1000,1000,1000,1000,94328920,1679,1725,1674,1690
76885900,1000,1000,1000,1000,94428880,1666,1710,1679,1719
76888399,1000,1000,1000,1000,94528840,1619,1645,1664,1715
76890898,1000,1000,1000,1000,94628800,1583,1587,1658,1707
76893397,1000,1000,1000,1000,94728760,1561,1553,1653,1689
76895896,1000,1000,1000,1000,94828720,1551,1541,1641,1656
76898395,1000,1000,1000,1000,94928680,1553,1549,1623,1619
76900894,1000,1000,1000,1000,95028640,1564,1569,1603,1586
76903393,1000,1000,1000,1000,95128600,1578,1590,1579,1560
76905892,1000,1000,1000,1000,95228560,1592,1605,1558,1540
76908391,1000,1000,1000,1000,95328520,1601,1612,1539,1528
76910890,1000,1000,1000,1000,95428480,1605,1609,1524,1520
76913389,1000,1000,1000,1000,95528440,1604,1603,1516,1519
76915888,1000,1000,1000,1000,95628400,1601,1594,1516,1522
76918387,1000,1000,1000,1000,95728360,1594,1587,1520,1527
76920886,1000,1000,1000,1000,95828320,1587,1581,1529,1534
76923385,1000,1000,1000,1000,95928280,1580,1576,1540,1542
76925884,1000,1000,1000,1000,96028240,1573,1572,1551,1552
76928383,1000,1000,1000,1000,96128200,1566,1567,1562,1561
76930882,1000,1000,1000,1000,96228160,1562,1564,1571,1570
76933381,1000,1000,1000,1000,96328953,1558,1560,1579,1577
76935880,1000,1000,1000,1000,96428913,1556,1559,1585,1583
76938379,1000,1000,1000,1000,96528873,1556,1558,1588,1587
76940878,1000,1000,1000,1000,96628833,1558,1559,1590,1589
76943377,1000,1000,1000,1000,96728793,1560,1560,1591,1588
76945876,1000,1000,1000,1000,96828753,1564,1564,1595,1579
76948375,1000,1000,1000,1000,96928713,1566,1568,1589,1577
76950874,1000,1000,1000,1000,97028673,1569,1570,1578,1576
76953373,1000,1000,1000,1000,97128633,1570,1570,1568,1572
76955872,1000,1000,1000,1000,97228593,1572,1571,1559,1567
76958371,1000,1000,1000,1000,97328553,1574,1572,1553,1561
76960870,1000,1000,1000,1000,97428513,1576,1575,1550,1555
76963369,1000,1000,1000,1000,97528473,1578,1577,1549,1550
76965868,1000,1000,1000,1000,97628433,1580,1580,1549,1548
76968367,1000,1000,1000,1000,97728393,1581,1581,1549,1548
76970866,1000,1000,1000,1000,97828353,1581,1582,1550,1547
76973365,1000,1000,1000,1000,97928313,1581,1582,1550,1549
76975864,1000,1000,1000,1000,98028273,1580,1581,1550,1549
76978363,1000,1000,1000,1000,98128233,1580,1580,1551,1551
76980862,1000,1000,1000,1000,98228193,1579,1580,1552,1552
76983361,1000,1000,1000,1000,98328986,1578,1579,1552,1552
76985860,1000,1000,1000,1000,98428946,1576,1577,1550,1551
76988359,1000,1000,1000,1000,98528906,1576,1579,1551,1551
76990858,1000,1000,1000,1000,98628866,1577,1579,1550,1550
76993357,1000,1000,1000,1000,98728826,1579,1579,1549,1549
76995856,1000,1000,1000,1000,98828786,1580,1581,1548,1548
76998355,1000,1000,1000,1000,98928746,1582,1582,1548,1549
77000854,1000,1000,1000,1000,99028706,1583,1582,1548,1549
77003353,1000,1000,1000,1000,99128666,1583,1582,1549,1549
77005852,1000,1000,1000,1000,99228626,1581,1580,1550,1551
77008351,1000,1000,1000,1000,99328586,1581,1580,1552,1554
77010850,1000,1000,1000,1000,99428546,1578,1578,1554,1557
77013349,1000,1000,1000,1000,99528506,1576,1575,1558,1561
77015848,1000,1000,1000,1000,99628466,1572,1571,1562,1564
77018347,1000,1000,1000,1000,99728426,1569,1567,1569,1570
77020846,1000,1000,1000,1000,99828386,1564,1562,1574,1575
77023345,1000,1000,1000,1000,99928346,1560,1558,1580,1581
77025844,1000,1000,1000,1000,100028306,1555,1554,1586,1585
77028343,1000,1000,1000,1000,100128266,1553,1552,1591,1591
77030842,1000,1000,1000,1000,100228226,1550,1551,1595,1593
77033341,1000,1000,1000,1000,100328186,1549,1550,1597,1595
77035840,1000,1000,1000,1000,100428979,1549,1551,1597,1596
77038339,1000,1000,1000,1000,100528939,1551,1553,1596,1595
77040838,1000,1000,1000,1000,100628899,1555,1556,1594,1594
77043337,1000,1000,1000,1000,100728859,1558,1558,1590,1590
77045836,1000,1000,1000,1000,100828819,1563,1563,1588,1587
77048335,1000,1000,1000,1000,100928779,1567,1566,1585,1584
77050834,1000,1000,1000,1000,101028739,1571,1570,1582,1581
77053333,1000,1000,1000,1000,101128699,1575,1573,1578,1578
77055832,1000,1000,1000,1000,101228659,1577,1576,1575,1576
77058331,1000,1000,1000,1000,101328619,1579,1577,1573,1574
77060830,1000,1000,1000,1000,101428579,1580,1579,1572,1573
77063329,1000,1000,1000,1000,101528539,1580,1580,1572,1572
77065828,1000,1000,1000,1000,101628499,1581,1581,1573,1573
77068327,1000,1000,1000,1000,101728459,1580,1580,1573,1574
77070826,1000,1000,1000,1000,101828419,1580,1579,1575,1574
77073325,1000,1000,1000,1000,101928379,1579,1579,1577,1576
77075824,1000,1000,1000,1000,102028339,1579,1578,1578,1578
77078323,1000,1000,1000,1000,102128299,1578,1578,1579,1579
77080822,1000,1000,1000,1000,102228259,1577,1577,1580,1580
77083321,1000,1000,1000,1000,102328219,1577,1578,1582,1581
77085820,1000,1000,1000,1000,102428179,1577,1578,1583,1582
77088319,1000,1000,1000,1000,102528972,1577,1577,1583,1583
77090818,1000,1000,1000,1000,102628932,1577,1578,1582,1583
77093317,1000,1000,1000,1000,102728892,1578,1579,1583,1583
77095816,1000,1000,1000,1000,102828852,1579,1579,1582,1582
77098315,1000,1000,1000,1000,102928812,1578,1577,1580,1580
77100814,1000,1000,1000,1000,103028772,1579,1578,1579,1580
77103313,1000,1000,1000,1000,103128732,1579,1578,1579,1579
77105812,1000,1000,1000,1000,103228692,1579,1579,1578,1578
77108311,1000,1000,1000,1000,103328652,1580,1580,1579,1579
77110810,1000,1000,1000,1000,103428612,1579,1580,1578,1578
77113309,1000,1000,1000,1000,103528572,1580,1581,1578,1579
77115808,1000,1000,1000,1000,103628532,1579,1579,1577,1577
77118307,1000,1000,1000,1000,103728492,1580,1580,1578,1578
77120806,1000,1000,1000,1000,103828452,1580,1580,1578,1578
77123305,1000,1000,1000,1000,103928412,1581,1580,1580,1579
77125804,1000,1000,1000,1000,104028372,1580,1580,1580,1579
77128303,1000,1000,1000,1000,104128332,1581,1581,1581,1581
77130802,1000,1000,1000,1000,104228292,1581,1581,1581,1581
77133301,1000,1000,1000,1000,104328252,1581,1581,1582,1581
77135800,1000,1000,1000,1000,104428212,1580,1580,1581,1580
77138299,1000,1000,1000,1000,104528172,1580,1581,1581,1582
77140798,1000,1000,1000,1000,104628965,1580,1581,1582,1581
77143297,1000,1000,1000,1000,104728925,1580,1580,1581,1581
77145796,1000,1000,1000,1000,104828885,1581,1581,1582,1582
77148295,1000,1000,1000,1000,104928845,1581,1581,1582,1582
77150794,1000,1000,1000,1000,105028805,1581,1581,1581,1581
77153293,1000,1000,1000,1000,105128765,1581,1580,1581,1581
77155792,1000,1000,1000,1000,105228725,1581,1581,1581,1582
77158291,1000,1000,1000,1000,105328685,1582,1581,1581,1581
77160790,1000,1000,1000,1000,105428645,1581,1582,1585,1575
77163289,1000,1000,1000,1000,105528605,1581,1584,1586,1572
77165788,1000,1000,1000,1000,105628565,1580,1583,1580,1573
77168287,1000,1000,1000,1000,105728525,1578,1580,1572,1572
77170786,1000,1000,1000,1000,105828485,1576,1578,1564,1569
77173285,1000,1000,1000,1000,105928445,1576,1577,1559,1565
77175784,1000,1000,1000,1000,106028405,1577,1576,1555,1560
77178283,1000,1000,1000,1000,106128365,1578,1577,1554,1558
77180782,1000,1000,1000,1000,106228325,1579,1577,1554,1555
77183281,1000,1000,1000,1000,106328285,1579,1578,1554,1553
77185780,1000,1000,1000,1000,106428245,1579,1578,1555,1553
77188279,1000,1000,1000,1000,106528205,1578,1579,1555,1553
77190778,1000,1000,1000,1000,106628165,1577,1578,1555,1553
77193277,1000,1000,1000,1000,106728958,1576,1578,1554,1554
77195776,1000,1000,1000,1000,106828918,1576,1578,1554,1553
77198275,1000,1000,1000,1000,106928878,1577,1579,1553,1553
77200774,1000,1000,1000,1000,107028838,1578,1579,1551,1551
77203273,1000,1000,1000,1000,107128798,1580,1581,1550,1551
77205772,1000,1000,1000,1000,107228758,1582,1582,1547,1548
77208271,1000,1000,1000,1000,107328718,1584,1584,1546,1545
77210770,1000,1000,1000,1000,107428678,1587,1587,1544,1543
77213269,1000,1000,1000,1000,107528638,1589,1589,1542,1542
77215768,1000,1000,1000,1000,107628598,1590,1590,1539,1540
77218267,1000,1000,1000,1000,107728558,1592,1593,1539,1540
77220766,1000,1000,1000,1000,107828518,1593,1594,1539,1541
77223265,1000,1000,1000,1000,107928478,1594,1594,1540,1543
77225764,1000,1000,1000,1000,108028438,1592,1590,1543,1546
77228263,1000,1000,1000,1000,108128398,1588,1584,1548,1551
77230762,1000,1000,1000,1000,108228358,1583,1578,1556,1560
77233261,1000,1000,1000,1000,108328318,1573,1569,1565,1568
77235760,1000,1000,1000,1000,108428278,1564,1560,1576,1579
77238259,1000,1000,1000,1000,108528238,1554,1552,1588,1588
77240758,1000,1000,1000,1000,108628198,1545,1546,1598,1597
77243257,1000,1000,1000,1000,108728158,1539,1542,1606,1605
77245756,1000,1000,1000,1000,108828951,1535,1539,1612,1609
77248255,1000,1000,1000,1000,108928911,1536,1539,1614,1611
77250754,1000,1000,1000,1000,109028871,1538,1541,1613,1611
77253253,1000,1000,1000,1000,109128831,1544,1546,1610,1608
77255752,1000,1000,1000,1000,109228791,1549,1550,1605,1603
77258251,1000,1000,1000,1000,109328751,1556,1556,1599,1598
77260750,1000,1000,1000,1000,109428711,1562,1561,1591,1591
77263249,1000,1000,1000,1000,109528671,1568,1567,1584,1584
77265748,1000,1000,1000,1000,109628631,1573,1572,1576,1578
77268247,1000,1000,1000,1000,109728591,1578,1576,1571,1573
77270746,1000,1000,1000,1000,109828551,1581,1580,1567,1568
77273245,1000,1000,1000,1000,109928511,1585,1583,1566,1567
77275744,1000,1000,1000,1000,110028471,1586,1584,1565,1566
77278243,1000,1000,1000,1000,110128431,1586,1585,1567,1567
77280742,1000,1000,1000,1000,110228391,1585,1584,1568,1568
77283241,1000,1000,1000,1000,110328351,1583,1582,1570,1570
77285740,1000,1000,1000,1000,110428311,1580,1580,1573,1572
77288239,1000,1000,1000,1000,110528271,1578,1578,1576,1576
77290738,1000,1000,1000,1000,110628231,1576,1577,1579,1579
77293237,1000,1000,1000,1000,110728191,1575,1576,1581,1581
77295736,1000,1000,1000,1000,110828984,1574,1576,1584,1583
77298235,1000,1000,1000,1000,110928944,1573,1574,1584,1584
77300734,1000,1000,1000,1000,111028904,1574,1575,1585,1585
77303233,1000,1000,1000,1000,111128864,1574,1574,1585,1584
77305732,1000,1000,1000,1000,111228824,1575,1576,1584,1584
77308231,1000,1000,1000,1000,111328784,1575,1576,1583,1582
77310730,1000,1000,1000,1000,111428744,1577,1577,1581,1582
77313229,1000,1000,1000,1000,111528704,1578,1579,1581,1581
77315728,1000,1000,1000,1000,111628664,1579,1579,1579,1579
77318227,1000,1000,1000,1000,111728624,1580,1580,1578,1578
77320726,1000,1000,1000,1000,111828584,1581,1580,1577,1577
77323225,1000,1000,1000,1000,111928544,1581,1581,1577,1578
77325724,1000,1000,1000,1000,112028504,1581,1581,1576,1576
77328223,1000,1000,1000,1000,112128464,1581,1581,1577,1577
77330722,1000,1000,1000,1000,112228424,1582,1581,1577,1578
77333221,1000,1000,1000,1000,112328384,1582,1582,1579,1579
77335720,1000,1000,1000,1000,112428344,1582,1582,1579,1579
77338219,1000,1000,1000,1000,112528304,1581,1580,1579,1578
77340718,1000,1000,1000,1000,112628264,1581,1581,1581,1580
77343217,1000,1000,1000,1000,112728224,1580,1581,1581,1581
77345716,1000,1000,1000,1000,112828184,1580,1580,1581,1581
77348215,1000,1000,1000,1000,112928977,1579,1579,1580,1581
77350714,1000,1000,1000,1000,113028937,1580,1580,1581,1582
77353213,1000,1000,1000,1000,113128897,1579,1579,1581,1581
77355712,1000,1000,1000,1000,113228857,1579,1580,1581,1581
77358211,1000,1000,1000,1000,113328817,1580,1580,1582,1579
77360710,1000,1000,1000,1000,113428777,1581,1582,1588,1573
77363209,1000,1000,1000,1000,113528737,1580,1580,1584,1574
77365708,1000,1000,1000,1000,113628697,1577,1576,1578,1575
77368207,1000,1000,1000,1000,113728657,1574,1573,1571,1575
77370706,1000,1000,1000,1000,113828617,1570,1569,1566,1573
77373205,1000,1000,1000,1000,113928577,1568,1568,1564,1571
77375704,1000,1000,1000,1000,114028537,1567,1568,1564,1569
77378203,1000,1000,1000,1000,114128497,1566,1567,1564,1566
77380702,1000,1000,1000,1000,114228457,1565,1566,1565,1564
77383201,1000,1000,1000,1000,114328417,1565,1566,1566,1563
77385700,1000,1000,1000,1000,114428377,1565,1565,1566,1563
77388199,1000,1000,1000,1000,114528337,1565,1565,1566,1564
77390698,1000,1000,1000,1000,114628297,1564,1564,1565,1563
77393197,1000,1000,1000,1000,114728257,1563,1562,1564,1563
77395696,1000,1000,1000,1000,114828217,1563,1562,1564,1564
77398195,1000,1000,1000,1000,114928177,1562,1561,1562,1562
77400694,1000,1000,1000,1000,115028970,1561,1561,1561,1562
77403193,1000,1000,1000,1000,115128930,1561,1561,1561,1561
77405692,1000,1000,1000,1000,115228890,1560,1560,1560,1560
77408191,1000,1000,1000,1000,115328850,1559,1559,1560,1560
77410690,1000,1000,1000,1000,115428810,1559,1559,1560,1559
77413189,1000,1000,1000,1000,115528770,1559,1559,1560,1559
77415688,1000,1000,1000,1000,115628730,1558,1558,1559,1558
77418187,1000,1000,1000,1000,115728690,1559,1558,1559,1558
77420686,1000,1000,1000,1000,115828650,1558,1558,1559,1558
77423185,1000,1000,1000,1000,115928610,1557,1557,1558,1556
77425684,1000,1000,1000,1000,116028570,1557,1557,1559,1555
77428183,1000,1000,1000,1000,116128530,1556,1555,1557,1554
77430682,1000,1000,1000,1000,116228490,1553,1552,1552,1554
77433181,1000,1000,1000,1000,116328450,1549,1547,1546,1551
77435680,1000,1000,1000,1000,116428410,1545,1544,1541,1548
77438179,1000,1000,1000,1000,116528370,1539,1539,1536,1541
77440678,1000,1000,1000,1000,116628330,1532,1532,1530,1533
77443177,1000,1000,1000,1000,116728290,1525,1525,1523,1525
77445676,1000,1000,1000,1000,116828250,1522,1523,1522,1522
77448175,1000,1000,1000,1000,116928210,1520,1522,1520,1521
77450674,1000,1000,1000,1000,117028170,1521,1522,1521,1521
77453173,1000,1000,1000,1000,117128963,1523,1524,1523,1524
77455672,1000,1000,1000,1000,117228923,1525,1526,1525,1526
77458171,1000,1000,1000,1000,117328883,1530,1531,1530,1531
77460670,1000,1000,1000,1000,117428843,1535,1536,1535,1536
77463169,1000,1000,1000,1000,117528803,1539,1538,1539,1539
77465668,1000,1000,1000,1000,117628763,1542,1540,1542,1541
77468167,1000,1000,1000,1000,117728723,1543,1541,1543,1542
77470666,1000,1000,1000,1000,117828683,1544,1543,1545,1543
77473165,1000,1000,1000,1000,117928643,1545,1545,1546,1545
77475664,1000,1000,1000,1000,118028603,1546,1546,1546,1546
77478163,1000,1000,1000,1000,118128563,1546,1547,1547,1547
77480662,1000,1000,1000,1000,118228523,1546,1547,1547,1547
77483161,1000,1000,1000,1000,118328483,1546,1546,1546,1546
77485660,1000,1000,1000,1000,118428443,1547,1547,1547,1547
77488159,1000,1000,1000,1000,118528403,1547,1546,1546,1546
77490658,1000,1000,1000,1000,118628363,1547,1547,1547,1547
77493157,1000,1000,1000,1000,118728323,1546,1547,1546,1546
77495656,1000,1000,1000,1000,118828283,1545,1545,1545,1545
77498155,1000,1000,1000,1000,118928243,1545,1545,1545,1545
77500654,1000,1000,1000,1000,119028203,1545,1545,1545,1545
77503986,1000,1000,1000,1000,119128163,1545,1545,1545,1545
77506485,1000,1000,1000,1000,119228956,1545,1545,1545,1545
77508984,1000,1000,1000,1000,119328916,1545,1545,1545,1545
77511483,1000,1000,1000,1000,119428876,1545,1545,1545,1545
77513982,1000,1000,1000,1000,119528836,1545,1545,1545,1544
77516481,1000,1000,1000,1000,119628796,1544,1544,1545,1544
77518980,1000,1000,1000,1000,119728756,1545,1545,1545,1545
77521479,1000,1000,1000,1000,119828716,1545,1545,1545,1545
77523978,1000,1000,1000,1000,119928676,1544,1544,1544,1545
77526477,1000,1000,1000,1000,120028636,1544,1545,1544,1544
77528976,1000,1000,1000,1000,120128596,1544,1544,1544,1544
77531475,1000,1000,1000,1000,120228556,1544,1544,1544,1544
77533974,1000,1000,1000,1000,120328516,1544,1544,1544,1544
77536473,1000,1000,1000,1000,120428476,1544,1545,1544,1544
77538972,1000,1000,1000,1000,120528436,1543,1543,1544,1543
77541471,1000,1000,1000,1000,120628396,1543,1544,1544,1543
77543970,1000,1000,1000,1000,120728356,1543,1543,1543,1543
77546469,1000,1000,1000,1000,120828316,1543,1542,1542,1542
77548968,1000,1000,1000,1000,120928276,1543,1543,1543,1543
77551467,1000,1000,1000,1000,121028236,1543,1543,1543,1543
77553966,1000,1000,1000,1000,121128196,1544,1544,1544,1545
77556465,1000,1000,1000,1000,121228156,1544,1544,1544,1543
77558964,1000,1000,1000,1000,121328949,1544,1544,1544,1544
77561463,1000,1000,1000,1000,121428909,1544,1544,1544,1544
77563962,1000,1000,1000,1000,121528869,1544,1543,1543,1544
77566461,1000,1000,1000,1000,121628829,1544,1544,1544,1544
77568960,1000,1000,1000,1000,121728789,1545,1544,1544,1545
77571459,1000,1000,1000,1000,121828749,1545,1545,1545,1545
77573958,1000,1000,1000,1000,121928709,1545,1545,1545,1545
77576457,1000,1000,1000,1000,122028669,1544,1545,1545,1544
77578956,1000,1000,1000,1000,122128629,1545,1545,1545,1545
77581455,1000,1000,1000,1000,122228589,1544,1544,1544,1544
77583954,1000,1000,1000,1000,122328549,1544,1544,1544,1544
77586453,1000,1000,1000,1000,122428509,1544,1544,1543,1544
77588952,1000,1000,1000,1000,122528469,1544,1544,1544,1543
77591451,1000,1000,1000,1000,122628429,1544,1544,1544,1544
77593950,1000,1000,1000,1000,122728389,1544,1544,1544,1545
77596449,1000,1000,1000,1000,122828349,1544,1544,1544,1544
77598948,1000,1000,1000,1000,122928309,1544,1544,1544,1544
77601447,1000,1000,1000,1000,123028269,1544,1544,1544,1544
77603946,1000,1000,1000,1000,123128229,1544,1543,1544,1543
77606445,1000,1000,1000,1000,123228189,1543,1544,1544,1543
77608944,1000,1000,1000,1000,123328982,1543,1543,1543,1543
77611443,1000,1000,1000,1000,123428942,1543,1543,1543,1543
77613942,1000,1000,1000,1000,123528902,1543,1543,1543,1544
77616441,1000,1000,1000,1000,123628862,1544,1544,1544,1544
77618940,1000,1000,1000,1000,123728822,1544,1543,1544,1544
77621439,1000,1000,1000,1000,123828782,1543,1544,1544,1544
77623938,1000,1000,1000,1000,123928742,1544,1544,1544,1544
77626437,1000,1000,1000,1000,124028702,1544,1544,1544,1544
77628936,1000,1000,1000,1000,124128662,1544,1544,1544,1545
77631435,1000,1000,1000,1000,124228622,1545,1545,1545,1545
77633934,1000,1000,1000,1000,124328582,1545,1544,1545,1544
77636433,1000,1000,1000,1000,124428542,1544,1544,1544,1543
77638932,1000,1000,1000,1000,124528502,1544,1544,1544,1544
77641431,1000,1000,1000,1000,124628462,1544,1545,1544,1545
77643930,1000,1000,1000,1000,124728422,1545,1544,1545,1545
77646429,1000,1000,1000,1000,124828382,1544,1544,1544,1544
77648928,1000,1000,1000,1000,124928342,1544,1544,1544,1544
77651427,1000,1000,1000,1000,125028302,1543,1544,1544,1544
77653926,1000,1000,1000,1000,125128262,1544,1544,1544,1544
77656425,1000,1000,1000,1000,125228222,1544,1545,1545,1544
77658924,1000,1000,1000,1000,125328182,1545,1545,1545,1545
77661423,1000,1000,1000,1000,125428975,1545,1545,1544,1545
77663922,1000,1000,1000,1000,125528935,1545,1544,1544,1545
77666421,1000,1000,1000,1000,125628895,1545,1545,1545,1545
77668920,1000,1000,1000,1000,125728855,1545,1545,1544,1544
77671419,1000,1000,1000,1000,125828815,1544,1544,1545,1544
77673918,1000,1000,1000,1000,125928775,1544,1544,1544,1544
77676417,1000,1000,1000,1000,126028735,1544,1544,1544,1544
77678916,1000,1000,1000,1000,126128695,1545,1545,1544,1545
77681415,1000,1000,1000,1000,126228655,1544,1544,1544,1544
77683914,1000,1000,1000,1000,126328615,1545,1544,1545,1545
77686413,1000,1000,1000,1000,126428575,1544,1544,1544,1544
77688912,1000,1000,1000,1000,126528535,1458,1425,1458,1425
77691411,1000,1000,1000,1000,126628495,1365,1281,1365,1282
77693910,1000,1000,1000,1000,126728455,1333,1225,1332,1226
77696409,1000,1000,1000,1000,126828415,1321,1204,1321,1204
77698908,1000,1000,1000,1000,126928375,1302,1167,1302,1168
77701407,1000,1000,1000,1000,127028335,1282,1151,1283,1150
77703906,1000,1000,1000,1000,127128295,1161,1150,1162,1150
77706405,1000,1000,1000,1000,127228255,1056,1150,1056,1150
77708904,1000,1000,1000,1000,127328215,1056,1150,1056,1150
77711403,1000,1000,1000,1000,127428175,1055,1150,1056,1150
77713902,1000,1000,1000,1000,127528968,1056,1150,1051,1157
77716401,1000,1000,1000,1000,127628928,1056,1150,1047,1162
77718900,1000,1000,1000,1000,127728888,1056,1150,1050,1158
77721399,1000,1000,1000,1000,127828848,1056,1150,1051,1157
77723898,1000,1000,1000,1000,127928808,1056,1150,1051,1157
77726397,1000,1000,1000,1000,128028768,1056,1150,1051,1158
77728896,1000,1000,1000,1000,128128728,1056,1150,1050,1158
77731395,1000,1000,1000,1000,128228688,1056,1150,1050,1159
77733894,1000,1000,1000,1000,128328648,1055,1150,1056,1150
77736393,1000,1000,1000,1000,128428608,1056,1150,1054,1153
77738892,1000,1000,1000,1000,128528568,1056,1150,1053,1154
77741391,1000,1000,1000,1000,128628528,1056,1150,1053,1154
77743890,1000,1000,1000,1000,128728488,1056,1150,1053,1154
77746389,1000,1000,1000,1000,128828448,1000,1000,1000,1000
77748888,1000,1000,1000,1000,128928408,1000,1000,1000,1000
77751387,1000,1000,1000,1000,129028368,1000,1000,1000,1000
77753886,1000,1000,1000,1000,129128328,1000,1000,1000,1000
77756385,1000,1000,1000,1000,129228288,1000,1000,1000,1000
77758884,1000,1000,1000,1000,129328248,1000,1000,1000,1000
77761383,1000,1000,1000,1000,129428208,1000,1000,1000,1000
77763882,1000,1000,1000,1000,129528168,1000,1000,1000,1000
77766381,1000,1000,1000,1000,129628961,1000,1000,1000,1000
77768880,1000,1000,1000,1000,129728921,1000,1000,1000,1000
77771379,1000,1000,1000,1000,129828881,1000,1000,1000,1000
77773878,1000,1000,1000,1000,129928841,1000,1000,1000,1000
77776377,1000,1000,1000,1000,130028801,1000,1000,1000,1000
77778876,1000,1000,1000,1000,130128761,1000,1000,1000,1000
77781375,1000,1000,1000,1000,130228721,1000,1000,1000,1000
77783874,1000,1000,1000,1000,130328681,1000,1000,1000,1000
77786373,1000,1000,1000,1000,130428641,1000,1000,1000,1000
77788872,1000,1000,1000,1000,130528601,1000,1000,1000,1000
77791371,1000,1000,1000,1000,130628561,1000,1000,1000,1000
77793870,1000,1000,1000,1000,130728521,1000,1000,1000,1000
77796369,1000,1000,1000,1000,130828481,1000,1000,1000,1000
77798868,1000,1000,1000,1000,130928441,1000,1000,1000,1000
77801367,1000,1000,1000,1000,131028401,1000,1000,1000,1000
77803866,1000,1000,1000,1000,131128361,1000,1000,1000,1000
77806365,1000,1000,1000,1000,131228321,1000,1000,1000,1000
77808864,1000,1000,1000,1000,131328281,1000,1000,1000,1000
77811363,1000,1000,1000,1000,131428241,1000,1000,1000,1000
77813862,1000,1000,1000,1000,131528201,1000,1000,1000,1000
77816361,1000,1000,1000,1000,131628161,1000,1000,1000,1000
77818860,1000,1000,1000,1000,131728954,1000,1000,1000,1000
77821359,1000,1000,1000,1000,131828914,1000,1000,1000,1000
77823858,1000,1000,1000,1000,131928874,1000,1000,1000,1000
77826357,1000,1000,1000,1000,132028834,1000,1000,1000,1000
77828856,1000,1000,1000,1000,132128794,1000,1000,1000,1000
77831355,1000,1000,1000,1000,132228754,1000,1000,1000,1000
77833854,1000,1000,1000,1000,132328714,1000,1000,1000,1000
77836353,1000,1000,1000,1000,132428674,1000,1000,1000,1000
77838852,1000,1000,1000,1000,132528634,1000,1000,1000,1000
77841351,1000,1000,1000,1000,132628594,1000,1000,1000,1000
77843850,1000,1000,1000,1000,132728554,1000,1000,1000,1000
77846349,1000,1000,1000,1000,132828514,1000,1000,1000,1000
77848848,1000,1000,1000,1000,132928474,1000,1000,1000,1000
77851347,1000,1000,1000,1000,133028434,1000,1000,1000,1000
77853846,1000,1000,1000,1000,133128394,1000,1000,1000,1000
77856345,1000,1000,1000,1000,133228354,1000,1000,1000,1000
77858844,1000,1000,1000,1000,133328314,1000,1000,1000,1000
77861343,1000,1000,1000,1000,133428274,1000,1000,1000,1000
77863842,1000,1000,1000,1000,133528234,1000,1000,1000,1000
77866341,1000,1000,1000,1000,133628194,1000,1000,1000,1000
77868840,1000,1000,1000,1000,133728154,1000,1000,1000,1000
77871339,1000,1000,1000,1000,133828947,1000,1000,1000,1000
77873838,1000,1000,1000,1000,133928907,1000,1000,1000,1000
77876337,1000,1000,1000,1000,134028867,1000,1000,1000,1000
77878836,1000,1000,1000,1000,134128827,1000,1000,1000,1000
77881335,1000,1000,1000,1000,134228787,1000,1000,1000,1000
77883834,1000,1000,1000,1000,134328747,1000,1000,1000,1000
77886333,1000,1000,1000,1000,134428707,1000,1000,1000,1000
77888832,1000,1000,1000,1000,134528667,1000,1000,1000,1000
77891331,1000,1000,1000,1000,134628627,1000,1000,1000,1000
77893830,1000,1000,1000,1000,134728587,1000,1000,1000,1000
77896329,1000,1000,1000,1000,134828547,1000,1000,1000,1000
77898828,1000,1000,1000,1000,134928507,1000,1000,1000,1000
77901327,1000,1000,1000,1000,135028467,1000,1000,1000,1000
77903826,1000,1000,1000,1000,135128427,1000,1000,1000,1000
77906325,1000,1000,1000,1000,135228387,1000,1000,1000,1000
77908824,1000,1000,1000,1000,135328347,1000,1000,1000,1000
77911323,1000,1000,1000,1000,135428307,1000,1000,1000,1000
77913822,1000,1000,1000,1000,135528267,1000,1000,1000,1000
77916321,1000,1000,1000,1000,135628227,1000,1000,1000,1000
77918820,1000,1000,1000,1000,135728187,1000,1000,1000,1000
77921319,1000,1000,1000,1000,135828980,1000,1000,1000,1000
77923818,1000,1000,1000,1000,135928940,1000,1000,1000,1000
77926317,1000,1000,1000,1000,136028900,1000,1000,1000,1000
77928816,1000,1000,1000,1000,136128860,1000,1000,1000,1000
77931315,1000,1000,1000,1000,136228820,1000,1000,1000,1000
77933814,1000,1000,1000,1000,136328780,1000,1000,1000,1000
77936313,1000,1000,1000,1000,136428740,1000,1000,1000,1000
77938812,1000,1000,1000,1000,136528700,1000,1000,1000,1000
77941311,1000,1000,1000,1000,136628660,1000,1000,1000,1000
77943810,1000,1000,1000,1000,136728620,1000,1000,1000,1000
77946309,1000,1000,1000,1000,136828580,1000,1000,1000,1000
77948808,1000,1000,1000,1000,136928540,1000,1000,1000,1000
77951307,1000,1000,1000,1000,137028500,1000,1000,1000,1000
77953806,1000,1000,1000,1000,137128460,1000,1000,1000,1000
77956305,1000,1000,1000,1000,137228420,1000,1000,1000,1000
77958804,1000,1000,1000,1000,137328380,1000,1000,1000,1000
77961303,1000,1000,1000,1000,137428340,1000,1000,1000,1000
77963802,1000,1000,1000,1000,137528300,1000,1000,1000,1000
77966301,1000,1000,1000,1000,137628260,1000,1000,1000,1000
77968800,1000,1000,1000,1000,137728220,1000,1000,1000,1000
77971299,1000,1000,1000,1000,137828180,1000,1000,1000,1000
77973798,1000,1000,1000,1000,137928973,1000,1000,1000,1000
77976297,1000,1000,1000,1000,138028933,1000,1000,1000,1000
77978796,1000,1000,1000,1000,138128893,1000,1000,1000,1000
77981295,1000,1000,1000,1000,138228853,1000,1000,1000,1000
77983794,1000,1000,1000,1000,138328813,1000,1000,1000,1000
77986293,1000,1000,1000,1000,138428773,1000,1000,1000,1000
77988792,1000,1000,1000,1000,138528733,1000,1000,1000,1000
77991291,1000,1000,1000,1000,138628693,1000,1000,1000,1000
77993790,1000,1000,1000,1000,138728653,1000,1000,1000,1000
77996289,1000,1000,1000,1000,138828613,1000,1000,1000,1000
77998788,1000,1000,1000,1000,138928573,1000,1000,1000,1000
78001287,1000,1000,1000,1000,139028533,1000,1000,1000,1000
78003786,1000,1000,1000,1000,139128493,1000,1000,1000,1000
78006285,1000,1000,1000,1000,139228453,1000,1000,1000,1000
78008784,1000,1000,1000,1000,139328413,1000,1000,1000,1000
78011283,1000,1000,1000,1000,139428373,1000,1000,1000,1000
78013782,1000,1000,1000,1000,139528333,1000,1000,1000,1000
78016281,1000,1000,1000,1000,139628293,1000,1000,1000,1000
78018780,1000,1000,1000,1000,139728253,1000,1000,1000,1000
78021279,1000,1000,1000,1000,139828213,1000,1000,1000,1000
78023778,1000,1000,1000,1000,139928173,1000,1000,1000,1000
78026277,1000,1000,1000,1000,140028966,1000,1000,1000,1000
78028776,1000,1000,1000,1000,140128926,1000,1000,1000,1000
78031275,1000,1000,1000,1000,140228886,1000,1000,1000,1000
78033774,1000,1000,1000,1000,140328846,1000,1000,1000,1000
78036273,1000,1000,1000,1000,140428806,1000,1000,1000,1000
78038772,1000,1000,1000,1000,140528766,1000,1000,1000,1000
78041271,1000,1000,1000,1000,140628726,1000,1000,1000,1000
78043770,1000,1000,1000,1000,140728686,1000,1000,1000,1000
78046269,1000,1000,1000,1000,140828646,1000,1000,1000,1000
78048768,1000,1000,1000,1000,140928606,1000,1000,1000,1000
78051267,1000,1000,1000,1000,141028566,1000,1000,1000,1000
78053766,1000,1000,1000,1000,141128526,1000,1000,1000,1000
78056265,1000,1000,1000,1000,141228486,1000,1000,1000,1000
78058764,1000,1000,1000,1000,141328446,1000,1000,1000,1000
78061263,1000,1000,1000,1000,141428406,1000,1000,1000,1000
78063762,1000,1000,1000,1000,141528366,1000,1000,1000,1000
78066261,1000,1000,1000,1000,141628326,1000,1000,1000,1000
78068760,1000,1000,1000,1000,141728286,1000,1000,1000,1000
78071259,1000,1000,1000,1000,141828246,1000,1000,1000,1000
78073758,1000,1000,1000,1000,141928206,1000,1000,1000,1000
78076257,1000,1000,1000,1000,142028166,1000,1000,1000,1000
78078756,1000,1000,1000,1000,142128959,1000,1000,1000,1000
78081255,1000,1000,1000,1000,142228919,1000,1000,1000,1000
78083754,1000,1000,1000,1000,142328879,1000,1000,1000,1000
78086253,1000,1000,1000,1000,142428839,1000,1000,1000,1000
78088752,1000,1000,1000,1000,142528799,1000,1000,1000,1000
78091251,1000,1000,1000,1000,142628759,1000,1000,1000,1000
78093750,1000,1000,1000,1000,142728719,1000,1000,1000,1000
78096249,1000,1000,1000,1000,142828679,1000,1000,1000,1000
78098748,1000,1000,1000,1000,142928639,1000,1000,1000,1000
78101247,1000,1000,1000,1000,143028599,1000,1000,1000,1000
78103746,1000,1000,1000,1000,143128559,1000,1000,1000,1000
78106245,1000,1000,1000,1000,143228519,1000,1000,1000,1000
78108744,1000,1000,1000,1000,143328479,1000,1000,1000,1000
78111243,1000,1000,1000,1000,143428439,1000,1000,1000,1000
78113742,1000,1000,1000,1000,143528399,1000,1000,1000,1000
78116241,1000,1000,1000,1000,143628359,1000,1000,1000,1000
78118740,1000,1000,1000,1000,143728319,1000,1000,1000,1000
78121239,1000,1000,1000,1000,,,,,
78123738,1000,1000,1000,1000,,,,,
78126237,1000,1000,1000,1000,,,,,
78128736,1000,1000,1000,1000,,,,,
78131235,1000,1000,1000,1000,,,,,
78133734,1000,1000,1000,1000,,,,,
78136233,1000,1000,1000,1000,,,,,
78138732,1000,1000,1000,1000,,,,,
78141231,1000,1000,1000,1000,,,,,
78143730,1000,1000,1000,1000,,,,,
78146229,1000,1000,1000,1000,,,,,
78148728,1000,1000,1000,1000,,,,,
78151227,1000,1000,1000,1000,,,,,
78153726,1000,1000,1000,1000,,,,,
78156225,1000,1000,1000,1000,,,,,
78158724,1000,1000,1000,1000,,,,,
78161223,1000,1000,1000,1000,,,,,
78163722,1000,1000,1000,1000,,,,,
78166221,1000,1000,1000,1000,,,,,
78168720,1000,1000,1000,1000,,,,,
78171219,1000,1000,1000,1000,,,,,
78173718,1000,1000,1000,1000,,,,,
78176217,1000,1000,1000,1000,,,,,
78178716,1000,1000,1000,1000,,,,,
78181215,1000,1000,1000,1000,,,,,
78183714,1000,1000,1000,1000,,,,,
78186213,1000,1000,1000,1000,,,,,
78188712,1000,1000,1000,1000,,,,,
78191211,1000,1000,1000,1000,,,,,
78193710,1000,1000,1000,1000,,,,,
78196209,1000,1000,1000,1000,,,,,
78198708,1000,1000,1000,1000,,,,,
78201207,1000,1000,1000,1000,,,,,
78203706,1000,1000,1000,1000,,,,,
78206205,1000,1000,1000,1000,,,,,
78208704,1000,1000,1000,1000,,,,,
78211203,1000,1000,1000,1000,,,,,
78213702,1000,1000,1000,1000,,,,,
78216201,1000,1000,1000,1000,,,,,
78218700,1000,1000,1000,1000,,,,,
78221199,1000,1000,1000,1000,,,,,
78223698,1000,1000,1000,1000,,,,,
78226197,1000,1000,1000,1000,,,,,
78228696,1000,1000,1000,1000,,,,,
78231195,1000,1000,1000,1000,,,,,
78233694,1000,1000,1000,1000,,,,,
78236193,1000,1000,1000,1000,,,,,
78238692,1000,1000,1000,1000,,,,,
78241191,1000,1000,1000,1000,,,,,
78243690,1000,1000,1000,1000,,,,,
78246189,1000,1000,1000,1000,,,,,
78248688,1000,1000,1000,1000,,,,,
78251187,1000,1000,1000,1000,,,,,
78253686,1000,1000,1000,1000,,,,,
78256185,1000,1000,1000,1000,,,,,
78258684,1000,1000,1000,1000,,,,,
78261183,1000,1000,1000,1000,,,,,
78263682,1000,1000,1000,1000,,,,,
78266181,1000,1000,1000,1000,,,,,
78268680,1000,1000,1000,1000,,,,,
78271179,1000,1000,1000,1000,,,,,
78273678,1000,1000,1000,1000,,,,,
78276177,1000,1000,1000,1000,,,,,
78278676,1000,1000,1000,1000,,,,,
78281175,1000,1000,1000,1000,,,,,
78283674,1000,1000,1000,1000,,,,,
78286173,1000,1000,1000,1000,,,,,
78288672,1000,1000,1000,1000,,,,,
78291171,1000,1000,1000,1000,,,,,
78293670,1000,1000,1000,1000,,,,,
78296169,1000,1000,1000,1000,,,,,
78298668,1000,1000,1000,1000,,,,,
78301167,1000,1000,1000,1000,,,,,
78303666,1000,1000,1000,1000,,,,,
78306165,1000,1000,1000,1000,,,,,
78308664,1000,1000,1000,1000,,,,,
78311163,1000,1000,1000,1000,,,,,
78313662,1000,1000,1000,1000,,,,,
78316161,1000,1000,1000,1000,,,,,
78318660,1000,1000,1000,1000,,,,,
78321159,1000,1000,1000,1000,,,,,
78323658,1000,1000,1000,1000,,,,,
78326157,1000,1000,1000,1000,,,,,
78328656,1000,1000,1000,1000,,,,,
78331155,1000,1000,1000,1000,,,,,
78333654,1000,1000,1000,1000,,,,,
78336153,1000,1000,1000,1000,,,,,
78338652,1000,1000,1000,1000,,,,,
78341151,1000,1000,1000,1000,,,,,
78343650,1000,1000,1000,1000,,,,,
78346149,1000,1000,1000,1000,,,,,
78348648,1000,1000,1000,1000,,,,,
78351147,1000,1000,1000,1000,,,,,
78353646,1000,1000,1000,1000,,,,,
78356145,1000,1000,1000,1000,,,,,
78358644,1000,1000,1000,1000,,,,,
78361143,1000,1000,1000,1000,,,,,
78363642,1000,1000,1000,1000,,,,,
78366141,1000,1000,1000,1000,,,,,
78368640,1000,1000,1000,1000,,,,,
78371139,1000,1000,1000,1000,,,,,
78373638,1000,1000,1000,1000,,,,,
78376137,1000,1000,1000,1000,,,,,
78378636,1000,1000,1000,1000,,,,,
78381135,1000,1000,1000,1000,,,,,
78383634,1000,1000,1000,1000,,,,,
78386133,1000,1000,1000,1000,,,,,
78388632,1000,1000,1000,1000,,,,,
78391131,1000,1000,1000,1000,,,,,
78393630,1000,1000,1000,1000,,,,,
78396129,1000,1000,1000,1000,,,,,
78398628,1000,1000,1000,1000,,,,,
78401127,1000,1000,1000,1000,,,,,
78403626,1000,1000,1000,1000,,,,,
78406125,1000,1000,1000,1000,,,,,
78408624,1000,1000,1000,1000,,,,,
78411123,1000,1000,1000,1000,,,,,
78413622,1000,1000,1000,1000,,,,,
78416121,1000,1000,1000,1000,,,,,
78418620,1000,1000,1000,1000,,,,,
78421119,1000,1000,1000,1000,,,,,
78423618,1000,1000,1000,1000,,,,,
78426117,1000,1000,1000,1000,,,,,
78428616,1000,1000,1000,1000,,,,,
78431115,1000,1000,1000,1000,,,,,
78433614,1000,1000,1000,1000,,,,,
78436113,1000,1000,1000,1000,,,,,
78438612,1000,1000,1000,1000,,,,,
78441111,1000,1000,1000,1000,,,,,
78443610,1000,1000,1000,1000,,,,,
78446109,1001,1001,1001,1001,,,,,
78448608,1002,1002,1002,1002,,,,,
78451107,1003,1003,1003,1003,,,,,
78453606,1003,1003,1003,1003,,,,,
78456105,1004,1004,1004,1004,,,,,
78458604,1005,1005,1005,1005,,,,,
78461103,1006,1006,1006,1006,,,,,
78463602,1006,1006,1006,1006,,,,,
78466101,1007,1007,1007,1007,,,,,
78468600,1008,1008,1008,1008,,,,,
78471099,1009,1009,1009,1009,,,,,
78473598,1009,1009,1009,1009,,,,,
78476097,1010,1010,1010,1010,,,,,
78478596,1011,1011,1011,1011,,,,,
78481095,1012,1012,1012,1012,,,,,
78483594,1012,1012,1012,1012,,,,,
78486093,1013,1013,1013,1013,,,,,
78488592,1014,1014,1014,1014,,,,,
78491091,1015,1015,1015,1015,,,,,
78493590,1015,1015,1015,1015,,,,,
78496089,1016,1016,1016,1016,,,,,
78498588,1017,1017,1017,1017,,,,,
78501087,1018,1018,1018,1018,,,,,
78503586,1018,1018,1018,1018,,,,,
78506085,1019,1019,1019,1019,,,,,
78508584,1020,1020,1020,1020,,,,,
78511083,1021,1021,1021,1021,,,,,
78513582,1021,1021,1021,1021,,,,,
78516081,1022,1022,1022,1022,,,,,
78518580,1023,1023,1023,1023,,,,,
78521079,1024,1024,1024,1024,,,,,
78523578,1024,1024,1024,1024,,,,,
78526077,1025,1025,1025,1025,,,,,
78528576,1026,1026,1026,1026,,,,,
78531075,1027,1027,1027,1027,,,,,
78533574,1027,1027,1027,1027,,,,,
78536073,1028,1028,1028,1028,,,,,
78538572,1029,1029,1029,1029,,,,,
78541071,1030,1030,1030,1030,,,,,
78543570,1030,1030,1030,1030,,,,,
78546069,1031,1031,1031,1031,,,,,
78548568,1032,1032,1032,1032,,,,,
78551067,1033,1033,1033,1033,,,,,
78553566,1033,1033,1033,1033,,,,,
78556065,1034,1034,1034,1034,,,,,
78558564,1035,1035,1035,1035,,,,,
78561063,1036,1036,1036,1036,,,,,
78563562,1036,1036,1036,1036,,,,,
78566061,1037,1037,1037,1037,,,,,
78568560,1038,1038,1038,1038,,,,,
78571059,1039,1039,1039,1039,,,,,
78573558,1039,1039,1039,1039,,,,,
78576057,1040,1040,1040,1040,,,,,
78578556,1041,1041,1041,1041,,,,,
78581055,1042,1042,1042,1042,,,,,
78583554,1042,1042,1042,1042,,,,,
78586053,1043,1043,1043,1043,,,,,
78588552,1044,1044,1044,1044,,,,,
78591051,1045,1045,1045,1045,,,,,
78593550,1045,1045,1045,1045,,,,,
78596049,1046,1046,1046,1046,,,,,
78598548,1047,1047,1047,1047,,,,,
78601047,1048,1048,1048,1048,,,,,
78603546,1048,1048,1048,1048,,,,,
78606045,1049,1049,1049,1049,,,,,
78608544,1050,1050,1050,1050,,,,,
78611043,1051,1051,1051,1051,,,,,
78613542,1051,1051,1051,1051,,,,,
78616041,1052,1052,1052,1052,,,,,
78618540,1053,1053,1053,1053,,,,,
78621039,1054,1054,1054,1054,,,,,
78623538,1054,1054,1054,1054,,,,,
78626037,1055,1055,1055,1055,,,,,
78628536,1056,1056,1056,1056,,,,,
78631035,1057,1057,1057,1057,,,,,
78633534,1057,1057,1057,1057,,,,,
78636033,1058,1058,1058,1058,,,,,
78638532,1059,1059,1059,1059,,,,,
78641031,1060,1060,1060,1060,,,,,
78643530,1060,1060,1060,1060,,,,,
78646029,1061,1061,1061,1061,,,,,
78648528,1062,1062,1062,1062,,,,,
78651027,1063,1063,1063,1063,,,,,
78653526,1063,1063,1063,1063,,,,,
78656025,1064,1064,1064,1064,,,,,
78658524,1065,1065,1065,1065,,,,,
78661023,1066,1066,1066,1066,,,,,
78663522,1066,1066,1066,1066,,,,,
78666021,1067,1067,1067,1067,,,,,
78668520,1068,1068,1068,1068,,,,,
78671019,1069,1069,1069,1069,,,,,
78673518,1069,1069,1069,1069,,,,,
78676017,1070,1070,1070,1070,,,,,
78678516,1071,1071,1071,1071,,,,,
78681015,1072,1072,1072,1072,,,,,
78683514,1072,1072,1072,1072,,,,,
78686013,1073,1073,1073,1073,,,,,
78688512,1074,1074,1074,1074,,,,,
78691011,1075,1075,1075,1075,,,,,
78693510,1075,1075,1075,1075,,,,,
78696009,1076,1076,1076,1076,,,,,
78698508,1077,1077,1077,1077,,,,,
78701007,1078,1078,1078,1078,,,,,
78703506,1078,1078,1078,1078,,,,,
78706005,1079,1079,1079,1079,,,,,
78708504,1080,1080,1080,1080,,,,,
78711003,1081,1081,1081,1081,,,,,
78713502,1081,1081,1081,1081,,,,,
78716001,1082,1082,1082,1082,,,,,
78718500,1083,1083,1083,1083,,,,,
78720999,1084,1084,1084,1084,,,,,
78723498,1084,1084,1084,1084,,,,,
78725997,1085,1085,1085,1085,,,,,
78728496,1086,1086,1086,1086,,,,,
78730995,1087,1087,1087,1087,,,,,
78733494,1087,1087,1087,1087,,,,,
78735993,1088,1088,1088,1088,,,,,
78738492,1089,1089,1089,1089,,,,,
78740991,1090,1090,1090,1090,,,,,
78743490,1090,1090,1090,1090,,,,,
78745989,1091,1091,1091,1091,,,,,
78748488,1092,1092,1092,1092,,,,,
78750987,1093,1093,1093,1093,,,,,
78753486,1093,1093,1093,1093,,,,,
78755985,1094,1094,1094,1094,,,,,
78758484,1095,1095,1095,1095,,,,,
78760983,1096,1096,1096,1096,,,,,
78763482,1096,1096,1096,1096,,,,,
78765981,1097,1097,1097,1097,,,,,
78768480,1098,1098,1098,1098,,,,,
78770979,1099,1099,1099,1099,,,,,
78773478,1099,1099,1099,1099,,,,,
78775977,1100,1100,1100,1100,,,,,
78778476,1101,1101,1101,1101,,,,,
78780975,1101,1101,1101,1101,,,,,
78783474,1102,1102,1102,1102,,,,,
78785973,1103,1103,1103,1103,,,,,
78788472,1104,1104,1104,1104,,,,,
78790971,1104,1104,1104,1104,,,,,
78793470,1105,1105,1105,1105,,,,,
78795969,1106,1106,1106,1106,,,,,
78798468,1107,1107,1107,1107,,,,,
78800967,1107,1107,1107,1107,,,,,
78803466,1108,1108,1108,1108,,,,,
78805965,1109,1109,1109,1109,,,,,
78808464,1110,1110,1110,1110,,,,,
78810963,1110,1110,1110,1110,,,,,
78813462,1111,1111,1111,1111,,,,,
78815961,1112,1112,1112,1112,,,,,
78818460,1113,1113,1113,1113,,,,,
78820959,1113,1113,1113,1113,,,,,
78823458,1114,1114,1114,1114,,,,,
78825957,1115,1115,1115,1115,,,,,
78828456,1116,1116,1116,1116,,,,,
78830955,1116,1116,1116,1116,,,,,
78833454,1117,1117,1117,1117,,,,,
78835953,1118,1118,1118,1118,,,,,
78838452,1119,1119,1119,1119,,,,,
78840951,1119,1119,1119,1119,,,,,
78843450,1120,1120,1120,1120,,,,,
78845949,1121,1121,1121,1121,,,,,
78848448,1122,1122,1122,1122,,,,,
78850947,1122,1122,1122,1122,,,,,
78853446,1123,1123,1123,1123,,,,,
78855945,1124,1124,1124,1124,,,,,
78858444,1125,1125,1125,1125,,,,,
78860943,1125,1125,1125,1125,,,,,
78863442,1126,1126,1126,1126,,,,,
78865941,1127,1127,1127,1127,,,,,
78868440,1128,1128,1128,1128,,,,,
78870939,1128,1128,1128,1128,,,,,
78873438,1129,1129,1129,1129,,,,,
78875937,1130,1130,1130,1130,,,,,
78878436,1131,1131,1131,1131,,,,,
78880935,1131,1131,1131,1131,,,,,
78883434,1132,1132,1132,1132,,,,,
78885933,1133,1133,1133,1133,,,,,
78888432,1134,1134,1134,1134,,,,,
78890931,1134,1134,1134,1134,,,,,
78893430,1135,1135,1135,1135,,,,,
78895929,1136,1136,1136,1136,,,,,
78898428,1137,1137,1137,1137,,,,,
78900927,1137,1137,1137,1137,,,,,
78903426,1138,1138,1138,1138,,,,,
78905925,1139,1139,1139,1139,,,,,
78908424,1140,1140,1140,1140,,,,,
78910923,1140,1140,1140,1140,,,,,
78913422,1141,1141,1141,1141,,,,,
78915921,1142,1142,1142,1142,,,,,
78918420,1143,1143,1143,1143,,,,,
78920919,1143,1143,1143,1143,,,,,
78923418,1144,1144,1144,1144,,,,,
78925917,1145,1145,1145,1145,,,,,
78928416,1146,1146,1146,1146,,,,,
78930915,1146,1146,1146,1146,,,,,
78933414,1147,1147,1147,1147,,,,,
78935913,1148,1148,1148,1148,,,,,
78938412,1149,1149,1149,1149,,,,,
78940911,1149,1149,1149,1149,,,,,
78943410,1150,1150,1150,1150,,,,,
78945909,1164,1151,1152,1164,,,,,
78948408,1172,1159,1160,1172,,,,,
78950907,1179,1167,1168,1180,,,,,
78953406,1187,1175,1176,1188,,,,,
78955905,1195,1183,1184,1195,,,,,
78958404,1202,1190,1191,1202,,,,,
78960903,1209,1198,1199,1210,,,,,
78963402,1216,1205,1206,1217,,,,,
78965901,1224,1212,1213,1224,,,,,
78968400,1230,1219,1220,1231,,,,,
78970899,1237,1226,1227,1238,,,,,
78973398,1244,1233,1234,1244,,,,,
78975897,1251,1240,1241,1251,,,,,
78978396,1257,1247,1248,1258,,,,,
78980895,1264,1253,1254,1264,,,,,
78983394,1270,1260,1261,1271,,,,,
78985893,1277,1266,1267,1277,,,,,
78988392,1283,1273,1274,1283,,,,,
78990891,1289,1279,1280,1289,,,,,
78993390,1295,1285,1286,1296,,,,,
78995889,1301,1292,1292,1302,,,,,
78998388,1307,1298,1298,1308,,,,,
79000887,1313,1304,1304,1314,,,,,
79003386,1319,1310,1310,1319,,,,,
79005885,1325,1315,1316,1325,,,,,
79008384,1331,1321,1322,1331,,,,,
79010883,1336,1327,1328,1337,,,,,
79013382,1342,1333,1333,1342,,,,,
79015881,1348,1338,1339,1348,,,,,
79018380,1353,1344,1345,1353,,,,,
79020879,1359,1350,1350,1359,,,,,
79023378,1364,1355,1356,1364,,,,,
79025877,1369,1360,1361,1370,,,,,
79028376,1375,1366,1367,1375,,,,,
79030875,1380,1371,1372,1380,,,,,
79033374,1385,1377,1377,1386,,,,,
79035873,1390,1382,1383,1391,,,,,
79038372,1396,1387,1388,1396,,,,,
79040871,1401,1392,1393,1401,,,,,
79043370,1406,1397,1398,1406,,,,,
79045869,1411,1402,1403,1411,,,,,
79048368,1416,1408,1408,1416,,,,,
79050867,1421,1413,1413,1421,,,,,
79053366,1426,1418,1418,1426,,,,,
79055865,1431,1422,1423,1431,,,,,
79058364,1435,1427,1428,1436,,,,,
79060863,1440,1432,1433,1441,,,,,
79063362,1445,1437,1438,1446,,,,,
79065861,1450,1442,1442,1450,,,,,
79068360,1455,1447,1447,1455,,,,,
79070859,1459,1451,1452,1460,,,,,
79073358,1464,1456,1457,1464,,,,,
79075857,1469,1461,1461,1469,,,,,
79078356,1473,1465,1466,1474,,,,,
79080855,1478,1470,1471,1478,,,,,
79083354,1482,1475,1475,1483,,,,,
79085853,1487,1479,1480,1487,,,,,
79088352,1491,1484,1484,1492,,,,,
79090851,1496,1488,1489,1496,,,,,
79093350,1500,1493,1493,1501,,,,,
79095849,1505,1497,1498,1505,,,,,
79098348,1509,1502,1502,1510,,,,,
79100847,1513,1506,1506,1514,,,,,
79103346,1518,1510,1511,1518,,,,,
79105845,1522,1515,1515,1523,,,,,
79108344,1526,1519,1519,1527,,,,,
79110843,1531,1523,1524,1531,,,,,
79113342,1535,1528,1528,1535,,,,,
79115841,1539,1532,1532,1540,,,,,
79118340,1543,1536,1536,1544,,,,,
79120839,1547,1540,1541,1548,,,,,
79123338,1552,1544,1545,1552,,,,,
79125837,1556,1549,1549,1556,,,,,
79128336,1560,1553,1553,1560,,,,,
79130835,1564,1557,1557,1564,,,,,
79133334,1568,1561,1561,1569,,,,,
79135833,1572,1565,1565,1573,,,,,
79138332,1576,1569,1569,1577,,,,,
79140831,1580,1573,1573,1581,,,,,
79143330,1584,1577,1577,1585,,,,,
79145829,1588,1581,1581,1589,,,,,
79148328,1592,1585,1585,1592,,,,,
79150827,1596,1589,1589,1596,,,,,
79153326,1600,1593,1593,1600,,,,,
79155825,1604,1597,1597,1604,,,,,
79158324,1608,1601,1601,1608,,,,,
79160823,1611,1605,1605,1612,,,,,
79163322,1615,1609,1609,1616,,,,,
79165821,1619,1613,1613,1620,,,,,
79168320,1623,1616,1617,1623,,,,,
79170819,1627,1620,1620,1627,,,,,
79173318,1630,1624,1624,1631,,,,,
79175817,1634,1628,1628,1635,,,,,
79178316,1638,1632,1632,1638,,,,,
79180815,1642,1635,1636,1642,,,,,
79183314,1645,1639,1639,1646,,,,,
79185813,1649,1643,1643,1650,,,,,
79188312,1653,1646,1647,1653,,,,,
79190811,1656,1650,1650,1657,,,,,
79193310,1660,1654,1654,1661,,,,,
79195809,1664,1657,1658,1664,,,,,
79198308,1667,1661,1661,1668,,,,,
79200807,1671,1665,1665,1671,,,,,
79203306,1675,1668,1669,1675,,,,,
79205805,1678,1672,1672,1679,,,,,
79208304,1682,1676,1676,1682,,,,,
79210803,1685,1679,1679,1686,,,,,
79213302,1689,1683,1683,1689,,,,,
79215801,1692,1686,1687,1693,,,,,
79218300,1696,1690,1690,1696,,,,,
79220799,1700,1693,1694,1700,,,,,
79223298,1703,1697,1697,1703,,,,,
79225797,1707,1700,1701,1707,,,,,
79228296,1710,1704,1704,1710,,,,,
79230795,1714,1707,1708,1714,,,,,
79233294,1717,1710,1711,1717,,,,,
79235793,1720,1714,1714,1721,,,,,
79238292,1724,1717,1718,1724,,,,,
79240791,1727,1721,1721,1727,,,,,
79243290,1731,1724,1725,1731,,,,,
79245789,1734,1728,1728,1734,,,,,
79248288,1737,1731,1731,1738,,,,,
79250787,1741,1734,1735,1741,,,,,
79253286,1744,1738,1738,1744,,,,,
79255785,1747,1741,1741,1748,,,,,
79258284,1751,1744,1745,1751,,,,,
79260783,1754,1748,1748,1754,,,,,
79263282,1757,1751,1751,1758,,,,,
79265781,1761,1754,1755,1761,,,,,
79268280,1764,1758,1758,1764,,,,,
79270779,1767,1761,1761,1768,,,,,
79273278,1771,1764,1764,1771,,,,,
79275777,1774,1767,1768,1774,,,,,
79278276,1777,1771,1771,1777,,,,,
79280775,1780,1774,1774,1781,,,,,
79283274,1783,1777,1777,1784,,,,,
79285773,1787,1780,1781,1787,,,,,
79288272,1790,1783,1784,1790,,,,,
79290771,1793,1787,1787,1794,,,,,
79293270,1796,1790,1790,1797,,,,,
79295769,1799,1793,1793,1800,,,,,
79298268,1803,1796,1796,1803,,,,,
79300767,1806,1799,1800,1806,,,,,
79303266,1809,1802,1803,1809,,,,,
79305765,1812,1806,1806,1813,,,,,
79308264,1815,1809,1809,1816,,,,,
79310763,1818,1812,1812,1819,,,,,
79313262,1821,1815,1815,1822,,,,,
79315761,1825,1818,1818,1825,,,,,
79318260,1828,1821,1821,1828,,,,,
79320759,1831,1824,1824,1831,,,,,
79323258,1834,1827,1827,1834,,,,,
79325757,1837,1830,1830,1838,,,,,
79328256,1840,1833,1833,1841,,,,,
79330755,1843,1837,1837,1844,,,,,
79333254,1846,1840,1840,1847,,,,,
79335753,1849,1843,1843,1850,,,,,
79338252,1852,1846,1846,1853,,,,,
79340751,1855,1849,1849,1856,,,,,
79343250,1858,1852,1852,1859,,,,,
79345749,1861,1855,1855,1862,,,,,
79348248,1864,1858,1858,1865,,,,,
79350747,1867,1861,1861,1868,,,,,
79353246,1870,1864,1864,1871,,,,,
79355745,1873,1867,1867,1874,,,,,
79358244,1876,1870,1869,1877,,,,,
79360743,1879,1872,1872,1880,,,,,
79363242,1882,1875,1875,1883,,,,,
79365741,1885,1878,1878,1886,,,,,
79368240,1888,1881,1881,1888,,,,,
79370739,1891,1884,1884,1891,,,,,
79373238,1894,1887,1887,1894,,,,,
79375737,1896,1890,1890,1897,,,,,
79378236,1899,1893,1893,1900,,,,,
79380735,1902,1896,1896,1903,,,,,
79383234,1905,1899,1899,1906,,,,,
79385733,1908,1901,1902,1909,,,,,
79388232,1911,1904,1904,1912,,,,,
79390731,1911,1904,1904,1911,,,,,
79393230,1910,1903,1903,1910,,,,,
79395729,1909,1902,1902,1909,,,,,
79398228,1908,1901,1901,1908,,,,,
79400727,1907,1900,1900,1908,,,,,
79403226,1906,1900,1900,1907,,,,,
79405725,1906,1899,1899,1906,,,,,
79408224,1905,1898,1898,1906,,,,,
79410723,1904,1898,1898,1905,,,,,
79413222,1904,1897,1897,1904,,,,,
79415721,1903,1897,1897,1904,,,,,
79418220,1903,1896,1896,1904,,,,,
79420719,1903,1896,1896,1903,,,,,
79423218,1903,1896,1896,1903,,,,,
79425717,1902,1896,1896,1903,,,,,
79428216,1902,1896,1896,1903,,,,,
79430715,1902,1896,1896,1903,,,,,
79433214,1902,1896,1896,1903,,,,,
79435713,1902,1896,1896,1903,,,,,
79438212,1902,1896,1896,1903,,,,,
79440711,1902,1896,1896,1903,,,,,
79443210,1902,1896,1896,1903,,,,,
79445709,1902,1896,1896,1902,,,,,
79448208,1902,1896,1896,1902,,,,,
79450707,1901,1896,1896,1902,,,,,
79453206,1901,1896,1896,1901,,,,,
79455705,1900,1895,1896,1901,,,,,
79458204,1900,1895,1895,1900,,,,,
79460703,1899,1894,1894,1899,,,,,
79463202,1898,1893,1893,1898,,,,,
79465701,1896,1892,1892,1897,,,,,
79468200,1895,1891,1891,1896,,,,,
79470699,1894,1890,1890,1894,,,,,
79473198,1892,1888,1888,1893,,,,,
79475697,1890,1886,1887,1891,,,,,
79478196,1888,1885,1885,1889,,,,,
79480695,1886,1883,1883,1887,,,,,
79483194,1884,1881,1881,1885,,,,,
79485693,1882,1878,1879,1883,,,,,
79488192,1880,1876,1876,1880,,,,,
79490691,1877,1874,1874,1878,,,,,
79493190,1875,1871,1871,1875,,,,,
79495689,1872,1869,1869,1873,,,,,
79498188,1869,1866,1866,1870,,,,,
79500687,1866,1863,1863,1867,,,,,
79503186,1863,1860,1861,1864,,,,,
79505685,1861,1858,1858,1861,,,,,
79508184,1858,1855,1855,1858,,,,,
79510683,1855,1852,1852,1855,,,,,
79513182,1852,1849,1849,1852,,,,,
79515681,1848,1846,1846,1849,,,,,
79518180,1845,1843,1843,1846,,,,,
79520679,1842,1840,1840,1843,,,,,
79523178,1839,1837,1837,1840,,,,,
79525677,1835,1834,1833,1836,,,,,
79528176,1832,1830,1830,1833,,,,,
79530675,1829,1827,1827,1830,,,,,
79533174,1825,1824,1824,1826,,,,,
79535673,1822,1820,1820,1823,,,,,
79538172,1819,1817,1817,1819,,,,,
79540671,1815,1814,1814,1816,,,,,
79543170,1812,1810,1810,1813,,,,,
79545669,1808,1807,1807,1809,,,,,
79548168,1805,1804,1803,1806,,,,,
79550667,1801,1800,1800,1802,,,,,
79553166,1798,1797,1797,1799,,,,,
79555665,1794,1794,1793,1795,,,,,
79558164,1791,1790,1790,1792,,,,,
79560663,1788,1787,1787,1788,,,,,
79563162,1784,1783,1783,1785,,,,,
79565661,1781,1780,1780,1781,,,,,
79568160,1777,1777,1777,1778,,,,,
79570659,1774,1773,1773,1775,,,,,
79573158,1770,1770,1770,1771,,,,,
79575657,1767,1767,1767,1768,,,,,
79578156,1764,1763,1763,1764,,,,,
79580655,1760,1760,1760,1761,,,,,
79583154,1757,1757,1757,1758,,,,,
79586486,1754,1754,1754,1754,,,,,
79588985,1750,1751,1751,1751,,,,,
79591484,1747,1747,1747,1748,,,,,
79593983,1744,1744,1744,1745,,,,,
79596482,1741,1741,1741,1742,,,,,
79598981,1738,1738,1738,1739,,,,,
79601480,1735,1735,1735,1736,,,,,
79603979,1732,1732,1732,1732,,,,,
79606478,1729,1729,1729,1729,,,,,
79608977,1726,1726,1726,1727,,,,,
79611476,1723,1724,1723,1724,,,,,
79613975,1720,1721,1721,1721,,,,,
79616474,1717,1718,1718,1718,,,,,
79618973,1714,1715,1715,1715,,,,,
79621472,1711,1712,1712,1712,,,,,
79623971,1709,1710,1710,1709,,,,,
