timestamp,TimeUS,C1,C2,C3,C4,C5,C6,C7,C8,C9,C10,C11,C12,C13,C14
1682779413.10003996,43528415,1000,1000,1000,1000,0,0,0,0,0,0,0,0,0,0
1682779413.20000005,43628375,1000,1000,1000,1000,0,0,0,0,0,0,0,0,0,0
1682779413.29995990,43728335,1000,1000,1000,1000,0,0,0,0,0,0,0,0,0,0
1682779413.39991999,43828295,1000,1000,1000,1000,0,0,0,0,0,0,0,0,0,0
1682779413.49988008,43928255,1000,1000,1000,1000,0,0,0,0,0,0,0,0,0,0
1682779413.59983993,44028215,1000,1000,1000,1000,0,0,0,0,0,0,0,0,0,0
1682779413.69980001,44128175,1000,1000,1000,1000,0,0,0,0,0,0,0,0,0,0
1682779413.80059290,44228968,1000,1000,1000,1000,0,0,0,0,0,0,0,0,0,0
1682779413.90055299,44328928,1000,1000,1000,1000,0,0,0,0,0,0,0,0,0,0
1682779414.00051308,44428888,1000,1000,1000,1000,0,0,0,0,0,0,0,0,0,0
1682779414.10047293,44528848,1000,1000,1000,1000,0,0,0,0,0,0,0,0,0,0
1682779414.20043302,44628808,1000,1000,1000,1000,0,0,0,0,0,0,0,0,0,0
1682779414.30039310,44728768,1000,1000,1000,1000,0,0,0,0,0,0,0,0,0,0
1682779414.40035295,44828728,1000,1000,1000,1000,0,0,0,0,0,0,0,0,0,0
1682779414.50031304,44928688,1000,1000,1000,1000,0,0,0,0,0,0,0,0,0,0
1682779414.60027289,45028648,1000,1000,1000,1000,0,0,0,0,0,0,0,0,0,0
1682779414.70023298,45128608,1000,1000,1000,1000,0,0,0,0,0,0,0,0,0,0
1682779414.80019307,45228568,1000,1000,1000,1000,0,0,0,0,0,0,0,0,0,0
1682779414.90015292,45328528,1000,1000,1000,1000,0,0,0,0,0,0,0,0,0,0
1682779415.00011301,45428488,1000,1000,1000,1000,0,0,0,0,0,0,0,0,0,0
1682779415.10007310,45528448,1012,1012,1012,1012,0,0,0,0,0,0,0,0,0,0
1682779415.20003295,45628408,1042,1042,1042,1042,0,0,0,0,0,0,0,0,0,0
1682779415.29999304,45728368,1072,1072,1072,1072,0,0,0,0,0,0,0,0,0,0
1682779415.39995289,45828328,1102,1102,1102,1102,0,0,0,0,0,0,0,0,0,0
1682779415.49991298,45928288,1132,1132,1132,1132,0,0,0,0,0,0,0,0,0,0
1682779415.59987307,46028248,1268,1262,1263,1268,0,0,0,0,0,0,0,0,0,0
1682779415.69983292,46128208,1481,1477,1477,1481,0,0,0,0,0,0,0,0,0,0
1682779415.79979300,46228168,1644,1641,1641,1645,0,0,0,0,0,0,0,0,0,0
1682779415.90058589,46328961,1782,1778,1778,1783,0,0,0,0,0,0,0,0,0,0
1682779416.00054598,46428921,1896,1892,1892,1896,0,0,0,0,0,0,0,0,0,0
1682779416.10050607,46528881,1876,1874,1874,1877,0,0,0,0,0,0,0,0,0,0
1682779416.20046592,46628841,1753,1753,1753,1753,0,0,0,0,0,0,0,0,0,0
1682779416.30042601,46728801,1654,1654,1654,1654,0,0,0,0,0,0,0,0,0,0
1682779416.40038610,46828761,1623,1624,1625,1623,0,0,0,0,0,0,0,0,0,0
1682779416.50034595,46928721,1628,1629,1629,1628,0,0,0,0,0,0,0,0,0,0
1682779416.60030603,47028681,1637,1638,1638,1638,0,0,0,0,0,0,0,0,0,0
1682779416.70026588,47128641,1636,1637,1636,1636,0,0,0,0,0,0,0,0,0,0
1682779416.80022597,47228601,1630,1628,1628,1630,0,0,0,0,0,0,0,0,0,0
1682779416.90018606,47328561,1609,1609,1601,1617,0,0,0,0,0,0,0,0,0,0
1682779417.00014591,47428521,1601,1601,1593,1608,0,0,0,0,0,0,0,0,0,0
1682779417.10010600,47528481,1600,1599,1596,1603,0,0,0,0,0,0,0,0,0,0
1682779417.20006609,47628441,1602,1602,1603,1601,0,0,0,0,0,0,0,0,0,0
1682779417.30002594,47728401,1608,1608,1611,1605,0,0,0,0,0,0,0,0,0,0
1682779417.39998603,47828361,1616,1615,1620,1611,0,0,0,0,0,0,0,0,0,0
1682779417.49994588,47928321,1585,1585,1601,1569,0,0,0,0,0,0,0,0,0,0
1682779417.59990597,48028281,1572,1572,1586,1559,0,0,0,0,0,0,0,0,0,0
1682779417.69986606,48128241,1561,1561,1566,1557,0,0,0,0,0,0,0,0,0,0
1682779417.79982591,48228201,1551,1552,1545,1559,0,0,0,0,0,0,0,0,0,0
1682779417.89978600,48328161,1543,1543,1531,1556,0,0,0,0,0,0,0,0,0,0
1682779418.00057888,48428954,1537,1536,1525,1548,0,0,0,0,0,0,0,0,0,0
1682779418.10053897,48528914,1531,1531,1524,1538,0,0,0,0,0,0,0,0,0,0
1682779418.20049906,48628874,1526,1526,1524,1528,0,0,0,0,0,0,0,0,0,0
1682779418.30045891,48728834,1527,1527,1528,1526,0,0,0,0,0,0,0,0,0,0
1682779418.40041900,48828794,1529,1530,1532,1527,0,0,0,0,0,0,0,0,0,0
1682779418.50037909,48928754,1533,1533,1536,1529,0,0,0,0,0,0,0,0,0,0
1682779418.60033894,49028714,1536,1537,1540,1533,0,0,0,0,0,0,0,0,0,0
1682779418.70029902,49128674,1541,1541,1544,1538,0,0,0,0,0,0,0,0,0,0
1682779418.80025911,49228634,1544,1544,1545,1542,0,0,0,0,0,0,0,0,0,0
1682779418.90021896,49328594,1547,1547,1547,1547,0,0,0,0,0,0,0,0,0,0
1682779419.00017905,49428554,1550,1550,1549,1551,0,0,0,0,0,0,0,0,0,0
1682779419.10013890,49528514,1552,1552,1550,1554,0,0,0,0,0,0,0,0,0,0
1682779419.20009899,49628474,1550,1550,1557,1561,0,0,0,0,0,0,0,0,0,0
1682779419.30005908,49728434,1551,1551,1561,1564,0,0,0,0,0,0,0,0,0,0
1682779419.40001893,49828394,1554,1555,1563,1563,0,0,0,0,0,0,0,0,0,0
1682779419.49997902,49928354,1559,1559,1564,1564,0,0,0,0,0,0,0,0,0,0
1682779419.59993911,50028314,1562,1563,1564,1563,0,0,0,0,0,0,0,0,0,0
1682779419.69989896,50128274,1566,1566,1564,1563,0,0,0,0,0,0,0,0,0,0
1682779419.79985905,50228234,1568,1568,1564,1563,0,0,0,0,0,0,0,0,0,0
1682779419.89981890,50328194,1570,1570,1564,1564,0,0,0,0,0,0,0,0,0,0
1682779419.99977899,50428154,1572,1571,1565,1565,0,0,0,0,0,0,0,0,0,0
1682779420.10057211,50528947,1573,1573,1566,1567,0,0,0,0,0,0,0,0,0,0
1682779420.20053196,50628907,1573,1573,1567,1568,0,0,0,0,0,0,0,0,0,0
1682779420.30049205,50728867,1573,1572,1568,1569,0,0,0,0,0,0,0,0,0,0
1682779420.40045190,50828827,1573,1573,1571,1570,0,0,0,0,0,0,0,0,0,0
1682779420.50041199,50928787,1573,1574,1573,1572,0,0,0,0,0,0,0,0,0,0
1682779420.60037208,51028747,1574,1574,1575,1574,0,0,0,0,0,0,0,0,0,0
1682779420.70033193,51128707,1574,1575,1576,1575,0,0,0,0,0,0,0,0,0,0
1682779420.80029202,51228667,1575,1575,1578,1577,0,0,0,0,0,0,0,0,0,0
1682779420.90025210,51328627,1575,1576,1578,1578,0,0,0,0,0,0,0,0,0,0
1682779421.00021195,51428587,1575,1576,1578,1578,0,0,0,0,0,0,0,0,0,0
1682779421.10017204,51528547,1575,1575,1577,1577,0,0,0,0,0,0,0,0,0,0
1682779421.20013189,51628507,1575,1575,1577,1577,0,0,0,0,0,0,0,0,0,0
1682779421.30009198,51728467,1576,1575,1577,1576,0,0,0,0,0,0,0,0,0,0
1682779421.40005207,51828427,1577,1577,1577,1577,0,0,0,0,0,0,0,0,0,0
1682779421.50001192,51928387,1577,1577,1577,1577,0,0,0,0,0,0,0,0,0,0
1682779421.59997201,52028347,1577,1577,1576,1576,0,0,0,0,0,0,0,0,0,0
1682779421.69993210,52128307,1577,1577,1576,1577,0,0,0,0,0,0,0,0,0,0
1682779421.79989195,52228267,1578,1578,1577,1577,0,0,0,0,0,0,0,0,0,0
1682779421.89985204,52328227,1577,1577,1576,1576,0,0,0,0,0,0,0,0,0,0
1682779421.99981189,52428187,1578,1578,1577,1577,0,0,0,0,0,0,0,0,0,0
1682779422.10060501,52528980,1578,1578,1577,1578,0,0,0,0,0,0,0,0,0,0
1682779422.20056510,52628940,1577,1577,1577,1576,0,0,0,0,0,0,0,0,0,0
1682779422.30052495,52728900,1578,1578,1578,1578,0,0,0,0,0,0,0,0,0,0
1682779422.40048504,52828860,1578,1578,1578,1579,0,0,0,0,0,0,0,0,0,0
1682779422.50044489,52928820,1580,1579,1579,1580,0,0,0,0,0,0,0,0,0,0
1682779422.60040498,53028780,1579,1579,1580,1580,0,0,0,0,0,0,0,0,0,0
1682779422.70036507,53128740,1579,1579,1579,1579,0,0,0,0,0,0,0,0,0,0
1682779422.80032492,53228700,1579,1580,1580,1580,0,0,0,0,0,0,0,0,0,0
1682779422.90028501,53328660,1578,1578,1579,1579,0,0,0,0,0,0,0,0,0,0
1682779423.00024509,53428620,1578,1579,1579,1579,0,0,0,0,0,0,0,0,0,0
1682779423.10020494,53528580,1578,1578,1578,1579,0,0,0,0,0,0,0,0,0,0
1682779423.20016503,53628540,1579,1579,1579,1579,0,0,0,0,0,0,0,0,0,0
1682779423.30012488,53728500,1579,1579,1579,1579,0,0,0,0,0,0,0,0,0,0
1682779423.40008497,53828460,1579,1580,1580,1579,0,0,0,0,0,0,0,0,0,0
1682779423.50004506,53928420,1580,1580,1580,1580,0,0,0,0,0,0,0,0,0,0
1682779423.60000491,54028380,1581,1580,1580,1580,0,0,0,0,0,0,0,0,0,0
1682779423.69996500,54128340,1581,1580,1581,1580,0,0,0,0,0,0,0,0,0,0
1682779423.79992509,54228300,1581,1580,1581,1580,0,0,0,0,0,0,0,0,0,0
1682779423.89988494,54328260,1580,1580,1580,1580,0,0,0,0,0,0,0,0,0,0
1682779423.99984503,54428220,1580,1581,1580,1580,0,0,0,0,0,0,0,0,0,0
1682779424.09980488,54528180,1580,1580,1580,1580,0,0,0,0,0,0,0,0,0,0
1682779424.20059800,54628973,1580,1580,1581,1580,0,0,0,0,0,0,0,0,0,0
1682779424.30055809,54728933,1580,1580,1580,1580,0,0,0,0,0,0,0,0,0,0
1682779424.40051794,54828893,1580,1580,1580,1580,0,0,0,0,0,0,0,0,0,0
1682779424.50047803,54928853,1580,1581,1581,1581,0,0,0,0,0,0,0,0,0,0
1682779424.60043788,55028813,1580,1580,1581,1580,0,0,0,0,0,0,0,0,0,0
1682779424.70039797,55128773,1581,1581,1581,1581,0,0,0,0,0,0,0,0,0,0
1682779424.80035806,55228733,1581,1580,1580,1581,0,0,0,0,0,0,0,0,0,0
1682779424.90031791,55328693,1581,1581,1581,1581,0,0,0,0,0,0,0,0,0,0
1682779425.00027800,55428653,1581,1581,1581,1581,0,0,0,0,0,0,0,0,0,0
1682779425.10023808,55528613,1581,1582,1582,1582,0,0,0,0,0,0,0,0,0,0
1682779425.20019794,55628573,1582,1582,1582,1582,0,0,0,0,0,0,0,0,0,0
1682779425.30015802,55728533,1582,1582,1582,1581,0,0,0,0,0,0,0,0,0,0
1682779425.40011811,55828493,1582,1582,1585,1578,0,0,0,0,0,0,0,0,0,0
1682779425.50007796,55928453,1581,1582,1588,1573,0,0,0,0,0,0,0,0,0,0
1682779425.60003805,56028413,1579,1582,1582,1574,0,0,0,0,0,0,0,0,0,0
1682779425.69999790,56128373,1578,1581,1573,1573,0,0,0,0,0,0,0,0,0,0
1682779425.79995799,56228333,1578,1580,1565,1571,0,0,0,0,0,0,0,0,0,0
1682779425.89991808,56328293,1577,1579,1559,1566,0,0,0,0,0,0,0,0,0,0
1682779425.99987793,56428253,1578,1577,1555,1560,0,0,0,0,0,0,0,0,0,0
1682779426.09983802,56528213,1579,1577,1555,1557,0,0,0,0,0,0,0,0,0,0
1682779426.19979811,56628173,1578,1577,1555,1555,0,0,0,0,0,0,0,0,0,0
1682779426.30059099,56728966,1579,1578,1557,1555,0,0,0,0,0,0,0,0,0,0
1682779426.40055108,56828926,1576,1576,1555,1553,0,0,0,0,0,0,0,0,0,0
1682779426.50051093,56928886,1575,1576,1555,1553,0,0,0,0,0,0,0,0,0,0
1682779426.60047102,57028846,1574,1575,1554,1553,0,0,0,0,0,0,0,0,0,0
1682779426.70043111,57128806,1574,1576,1553,1554,0,0,0,0,0,0,0,0,0,0
1682779426.80039096,57228766,1574,1576,1552,1553,0,0,0,0,0,0,0,0,0,0
1682779426.90035105,57328726,1575,1577,1551,1551,0,0,0,0,0,0,0,0,0,0
1682779427.00031090,57428686,1577,1578,1550,1550,0,0,0,0,0,0,0,0,0,0
1682779427.10027099,57528646,1579,1580,1547,1547,0,0,0,0,0,0,0,0,0,0
1682779427.20023108,57628606,1582,1583,1545,1544,0,0,0,0,0,0,0,0,0,0
1682779427.30019093,57728566,1585,1586,1543,1542,0,0,0,0,0,0,0,0,0,0
1682779427.40015101,57828526,1588,1588,1539,1539,0,0,0,0,0,0,0,0,0,0
1682779427.50011110,57928486,1591,1592,1537,1537,0,0,0,0,0,0,0,0,0,0
1682779427.60007095,58028446,1593,1593,1535,1535,0,0,0,0,0,0,0,0,0,0
1682779427.70003104,58128406,1479,1563,1425,1502,0,0,0,0,0,0,0,0,0,0
1682779427.79999089,58228366,1564,1570,1514,1510,0,0,0,0,0,0,0,0,0,0
1682779427.89995098,58328326,1631,1589,1592,1538,0,0,0,0,0,0,0,0,0,0
1682779427.99991107,58428286,1681,1620,1662,1591,0,0,0,0,0,0,0,0,0,0
1682779428.09987092,58528246,1693,1645,1698,1638,0,0,0,0,0,0,0,0,0,0
1682779428.19983101,58628206,1674,1642,1694,1652,0,0,0,0,0,0,0,0,0,0
1682779428.29979110,58728166,1634,1619,1662,1643,0,0,0,0,0,0,0,0,0,0
1682779428.40058398,58828959,1588,1593,1624,1639,0,0,0,0,0,0,0,0,0,0
1682779428.50054407,58928919,1552,1572,1598,1641,0,0,0,0,0,0,0,0,0,0
1682779428.60050392,59028879,1535,1556,1587,1639,0,0,0,0,0,0,0,0,0,0
1682779428.70046401,59128839,1532,1543,1585,1630,0,0,0,0,0,0,0,0,0,0
1682779428.80042410,59228799,1536,1539,1588,1614,0,0,0,0,0,0,0,0,0,0
1682779428.90038395,59328759,1544,1540,1589,1594,0,0,0,0,0,0,0,0,0,0
1682779429.00034404,59428719,1552,1547,1588,1577,0,0,0,0,0,0,0,0,0,0
1682779429.10030389,59528679,1559,1556,1583,1567,0,0,0,0,0,0,0,0,0,0
1682779429.20026398,59628639,1564,1564,1576,1562,0,0,0,0,0,0,0,0,0,0
1682779429.30022407,59728599,1566,1568,1569,1562,0,0,0,0,0,0,0,0,0,0
1682779429.40018392,59828559,1567,1570,1565,1563,0,0,0,0,0,0,0,0,0,0
1682779429.50014400,59928519,1566,1568,1561,1564,0,0,0,0,0,0,0,0,0,0
1682779429.60010409,60028479,1564,1567,1560,1565,0,0,0,0,0,0,0,0,0,0
1682779429.70006394,60128439,1564,1565,1561,1566,0,0,0,0,0,0,0,0,0,0
1682779429.80002403,60228399,1563,1563,1562,1566,0,0,0,0,0,0,0,0,0,0
1682779429.89998388,60328359,1564,1564,1566,1567,0,0,0,0,0,0,0,0,0,0
1682779429.99994397,60428319,1564,1563,1568,1566,0,0,0,0,0,0,0,0,0,0
1682779430.09990406,60528279,1566,1566,1571,1569,0,0,0,0,0,0,0,0,0,0
1682779430.19986391,60628239,1567,1567,1573,1570,0,0,0,0,0,0,0,0,0,0
1682779430.29982400,60728199,1567,1567,1573,1571,0,0,0,0,0,0,0,0,0,0
1682779430.39978409,60828159,1567,1568,1573,1572,0,0,0,0,0,0,0,0,0,0
1682779430.50057697,60928952,1568,1569,1573,1573,0,0,0,0,0,0,0,0,0,0
1682779430.60053706,61028912,1570,1570,1573,1574,0,0,0,0,0,0,0,0,0,0
1682779430.70049691,61128872,1570,1570,1573,1573,0,0,0,0,0,0,0,0,0,0
1682779430.80045700,61228832,1571,1572,1573,1573,0,0,0,0,0,0,0,0,0,0
1682779430.90041709,61328792,1573,1573,1574,1573,0,0,0,0,0,0,0,0,0,0
1682779431.00037694,61428752,1574,1575,1574,1574,0,0,0,0,0,0,0,0,0,0
1682779431.10033703,61528712,1575,1575,1574,1574,0,0,0,0,0,0,0,0,0,0
1682779431.20029688,61628672,1576,1576,1575,1574,0,0,0,0,0,0,0,0,0,0
1682779431.30025697,61728632,1578,1577,1576,1576,0,0,0,0,0,0,0,0,0,0
1682779431.40021706,61828592,1578,1577,1576,1575,0,0,0,0,0,0,0,0,0,0
1682779431.50017691,61928552,1578,1577,1575,1576,0,0,0,0,0,0,0,0,0,0
1682779431.60013700,62028512,1578,1578,1576,1577,0,0,0,0,0,0,0,0,0,0
1682779431.70009708,62128472,1578,1578,1577,1577,0,0,0,0,0,0,0,0,0,0
1682779431.80005693,62228432,1578,1578,1578,1577,0,0,0,0,0,0,0,0,0,0
1682779431.90001702,62328392,1578,1579,1579,1579,0,0,0,0,0,0,0,0,0,0
1682779431.99997711,62428352,1579,1580,1580,1580,0,0,0,0,0,0,0,0,0,0
1682779432.09993696,62528312,1579,1579,1580,1579,0,0,0,0,0,0,0,0,0,0
1682779432.19989705,62628272,1580,1580,1581,1580,0,0,0,0,0,0,0,0,0,0
1682779432.29985690,62728232,1580,1579,1581,1581,0,0,0,0,0,0,0,0,0,0
1682779432.39981699,62828192,1579,1579,1580,1581,0,0,0,0,0,0,0,0,0,0
1682779432.50061011,62928985,1579,1580,1581,1581,0,0,0,0,0,0,0,0,0,0
1682779432.60056996,63028945,1580,1581,1581,1581,0,0,0,0,0,0,0,0,0,0
1682779432.70053005,63128905,1580,1581,1582,1581,0,0,0,0,0,0,0,0,0,0
1682779432.80048990,63228865,1581,1580,1581,1581,0,0,0,0,0,0,0,0,0,0
1682779432.90044999,63328825,1581,1581,1581,1581,0,0,0,0,0,0,0,0,0,0
1682779433.00041008,63428785,1581,1580,1581,1581,0,0,0,0,0,0,0,0,0,0
1682779433.10036993,63528745,1581,1580,1581,1581,0,0,0,0,0,0,0,0,0,0
1682779433.20033002,63628705,1580,1580,1580,1580,0,0,0,0,0,0,0,0,0,0
1682779433.30029011,63728665,1581,1580,1580,1580,0,0,0,0,0,0,0,0,0,0
1682779433.40024996,63828625,1581,1581,1581,1580,0,0,0,0,0,0,0,0,0,0
1682779433.50021005,63928585,1580,1582,1586,1572,0,0,0,0,0,0,0,0,0,0
1682779433.60016990,64028545,1580,1583,1583,1571,0,0,0,0,0,0,0,0,0,0
1682779433.70012999,64128505,1579,1582,1576,1571,0,0,0,0,0,0,0,0,0,0
1682779433.80009007,64228465,1578,1581,1568,1571,0,0,0,0,0,0,0,0,0,0
1682779433.90004992,64328425,1577,1579,1561,1567,0,0,0,0,0,0,0,0,0,0
1682779434.00001001,64428385,1578,1579,1557,1563,0,0,0,0,0,0,0,0,0,0
1682779434.09997010,64528345,1579,1577,1553,1559,0,0,0,0,0,0,0,0,0,0
1682779434.19992995,64628305,1579,1578,1553,1555,0,0,0,0,0,0,0,0,0,0
1682779434.29989004,64728265,1580,1579,1554,1554,0,0,0,0,0,0,0,0,0,0
1682779434.39984989,64828225,1579,1578,1554,1552,0,0,0,0,0,0,0,0,0,0
1682779434.49980998,64928185,1577,1578,1554,1551,0,0,0,0,0,0,0,0,0,0
1682779434.60060310,65028978,1576,1577,1554,1551,0,0,0,0,0,0,0,0,0,0
1682779434.70056295,65128938,1576,1577,1554,1553,0,0,0,0,0,0,0,0,0,0
1682779434.80052304,65228898,1576,1578,1555,1554,0,0,0,0,0,0,0,0,0,0
1682779434.90048289,65328858,1576,1577,1554,1554,0,0,0,0,0,0,0,0,0,0
1682779435.00044298,65428818,1576,1578,1553,1554,0,0,0,0,0,0,0,0,0,0
1682779435.10040307,65528778,1577,1579,1553,1553,0,0,0,0,0,0,0,0,0,0
1682779435.20036292,65628738,1578,1579,1550,1550,0,0,0,0,0,0,0,0,0,0
1682779435.30032301,65728698,1580,1581,1549,1549,0,0,0,0,0,0,0,0,0,0
1682779435.40028310,65828658,1582,1583,1548,1548,0,0,0,0,0,0,0,0,0,0
1682779435.50024295,65928618,1584,1585,1547,1548,0,0,0,0,0,0,0,0,0,0
1682779435.60020304,66028578,1586,1587,1546,1546,0,0,0,0,0,0,0,0,0,0
1682779435.70016289,66128538,1588,1589,1543,1545,0,0,0,0,0,0,0,0,0,0
1682779435.80012298,66228498,1589,1590,1543,1544,0,0,0,0,0,0,0,0,0,0
1682779435.90008307,66328458,1591,1590,1544,1546,0,0,0,0,0,0,0,0,0,0
1682779436.00004292,66428418,1590,1588,1547,1549,0,0,0,0,0,0,0,0,0,0
1682779436.10000300,66528378,1588,1584,1552,1554,0,0,0,0,0,0,0,0,0,0
1682779436.19996309,66628338,1582,1578,1557,1560,0,0,0,0,0,0,0,0,0,0
1682779436.29992294,66728298,1575,1572,1565,1568,0,0,0,0,0,0,0,0,0,0
1682779436.39988303,66828258,1567,1565,1574,1576,0,0,0,0,0,0,0,0,0,0
1682779436.49984288,66928218,1560,1559,1584,1585,0,0,0,0,0,0,0,0,0,0
1682779436.59980297,67028178,1553,1553,1592,1592,0,0,0,0,0,0,0,0,0,0
1682779436.70059609,67128971,1548,1549,1600,1598,0,0,0,0,0,0,0,0,0,0
1682779436.80055594,67228931,1545,1547,1605,1603,0,0,0,0,0,0,0,0,0,0
1682779436.90051603,67328891,1544,1546,1607,1605,0,0,0,0,0,0,0,0,0,0
1682779437.00047588,67428851,1546,1548,1607,1605,0,0,0,0,0,0,0,0,0,0
1682779437.10043597,67528811,1549,1550,1605,1603,0,0,0,0,0,0,0,0,0,0
1682779437.20039606,67628771,1552,1553,1601,1599,0,0,0,0,0,0,0,0,0,0
1682779437.30035591,67728731,1558,1558,1596,1595,0,0,0,0,0,0,0,0,0,0
1682779437.40031600,67828691,1562,1562,1590,1589,0,0,0,0,0,0,0,0,0,0
1682779437.50027609,67928651,1568,1567,1584,1585,0,0,0,0,0,0,0,0,0,0
1682779437.60023594,68028611,1572,1571,1578,1579,0,0,0,0,0,0,0,0,0,0
1682779437.70019603,68128571,1576,1575,1574,1575,0,0,0,0,0,0,0,0,0,0
1682779437.80015588,68228531,1580,1579,1571,1572,0,0,0,0,0,0,0,0,0,0
1682779437.90011597,68328491,1582,1581,1569,1570,0,0,0,0,0,0,0,0,0,0
1682779438.00007606,68428451,1584,1582,1569,1570,0,0,0,0,0,0,0,0,0,0
1682779438.10003591,68528411,1584,1583,1570,1570,0,0,0,0,0,0,0,0,0,0
1682779438.19999599,68628371,1583,1583,1571,1571,0,0,0,0,0,0,0,0,0,0
1682779438.29995608,68728331,1582,1582,1573,1573,0,0,0,0,0,0,0,0,0,0
1682779438.39991593,68828291,1581,1580,1576,1575,0,0,0,0,0,0,0,0,0,0
1682779438.49987602,68928251,1579,1580,1578,1578,0,0,0,0,0,0,0,0,0,0
1682779438.59983611,69028211,1576,1577,1579,1579,0,0,0,0,0,0,0,0,0,0
1682779438.69979596,69128171,1576,1577,1582,1582,0,0,0,0,0,0,0,0,0,0
1682779438.80058908,69228964,1576,1576,1583,1583,0,0,0,0,0,0,0,0,0,0
1682779438.90054893,69328924,1574,1575,1583,1583,0,0,0,0,0,0,0,0,0,0
1682779439.00050902,69428884,1574,1575,1583,1583,0,0,0,0,0,0,0,0,0,0
1682779439.10046911,69528844,1575,1576,1584,1583,0,0,0,0,0,0,0,0,0,0
1682779439.20042896,69628804,1576,1577,1583,1583,0,0,0,0,0,0,0,0,0,0
1682779439.30038905,69728764,1577,1578,1583,1583,0,0,0,0,0,0,0,0,0,0
1682779439.40034890,69828724,1578,1578,1581,1581,0,0,0,0,0,0,0,0,0,0
1682779439.50030899,69928684,1579,1579,1581,1581,0,0,0,0,0,0,0,0,0,0
1682779439.60026908,70028644,1579,1578,1579,1579,0,0,0,0,0,0,0,0,0,0
1682779439.70022893,70128604,1580,1580,1578,1579,0,0,0,0,0,0,0,0,0,0
1682779439.80018902,70228564,1580,1580,1577,1578,0,0,0,0,0,0,0,0,0,0
1682779439.90014911,70328524,1580,1580,1577,1577,0,0,0,0,0,0,0,0,0,0
1682779440.00010896,70428484,1581,1580,1577,1577,0,0,0,0,0,0,0,0,0,0
1682779440.10006905,70528444,1581,1581,1578,1578,0,0,0,0,0,0,0,0,0,0
1682779440.20002890,70628404,1582,1581,1579,1579,0,0,0,0,0,0,0,0,0,0
1682779440.29998899,70728364,1581,1581,1579,1579,0,0,0,0,0,0,0,0,0,0
1682779440.39994907,70828324,1581,1582,1580,1580,0,0,0,0,0,0,0,0,0,0
1682779440.49990892,70928284,1581,1581,1580,1580,0,0,0,0,0,0,0,0,0,0
1682779440.59986901,71028244,1581,1582,1582,1581,0,0,0,0,0,0,0,0,0,0
1682779440.69982910,71128204,1581,1581,1582,1581,0,0,0,0,0,0,0,0,0,0
1682779440.79978895,71228164,1580,1579,1581,1580,0,0,0,0,0,0,0,0,0,0
1682779440.90058208,71328957,1579,1579,1581,1581,0,0,0,0,0,0,0,0,0,0
1682779441.00054193,71428917,1579,1579,1580,1580,0,0,0,0,0,0,0,0,0,0
1682779441.10050201,71528877,1580,1580,1581,1581,0,0,0,0,0,0,0,0,0,0
1682779441.20046210,71628837,1579,1580,1580,1581,0,0,0,0,0,0,0,0,0,0
1682779441.30042195,71728797,1580,1580,1581,1581,0,0,0,0,0,0,0,0,0,0
1682779441.40038204,71828757,1580,1580,1580,1580,0,0,0,0,0,0,0,0,0,0
1682779441.50034189,71928717,1581,1580,1581,1581,0,0,0,0,0,0,0,0,0,0
1682779441.60030198,72028677,1581,1581,1581,1580,0,0,0,0,0,0,0,0,0,0
1682779441.70026207,72128637,1581,1582,1587,1573,0,0,0,0,0,0,0,0,0,0
1682779441.80022192,72228597,1580,1582,1584,1571,0,0,0,0,0,0,0,0,0,0
1682779441.90018201,72328557,1579,1582,1576,1572,0,0,0,0,0,0,0,0,0,0
1682779442.00014210,72428517,1577,1579,1568,1571,0,0,0,0,0,0,0,0,0,0
1682779442.10010195,72528477,1576,1578,1561,1567,0,0,0,0,0,0,0,0,0,0
1682779442.20006204,72628437,1576,1578,1556,1564,0,0,0,0,0,0,0,0,0,0
1682779442.30002189,72728397,1578,1577,1554,1559,0,0,0,0,0,0,0,0,0,0
1682779442.39998198,72828357,1579,1578,1554,1556,0,0,0,0,0,0,0,0,0,0
1682779442.49994206,72928317,1579,1577,1554,1553,0,0,0,0,0,0,0,0,0,0
1682779442.59990191,73028277,1578,1577,1554,1552,0,0,0,0,0,0,0,0,0,0
1682779442.69986200,73128237,1577,1577,1554,1552,0,0,0,0,0,0,0,0,0,0
1682779442.79982209,73228197,1577,1578,1555,1553,0,0,0,0,0,0,0,0,0,0
1682779442.89978194,73328157,1576,1578,1554,1554,0,0,0,0,0,0,0,0,0,0
1682779443.00057507,73428950,1576,1578,1554,1554,0,0,0,0,0,0,0,0,0,0
1682779443.10053492,73528910,1576,1577,1553,1552,0,0,0,0,0,0,0,0,0,0
1682779443.20049500,73628870,1577,1579,1552,1552,0,0,0,0,0,0,0,0,0,0
1682779443.30045509,73728830,1578,1579,1550,1550,0,0,0,0,0,0,0,0,0,0
1682779443.40041494,73828790,1580,1582,1549,1549,0,0,0,0,0,0,0,0,0,0
1682779443.50037503,73928750,1582,1583,1546,1546,0,0,0,0,0,0,0,0,0,0
1682779443.60033488,74028710,1584,1585,1544,1543,0,0,0,0,0,0,0,0,0,0
1682779443.70029497,74128670,1587,1588,1542,1541,0,0,0,0,0,0,0,0,0,0
1682779443.80025506,74228630,1590,1590,1540,1540,0,0,0,0,0,0,0,0,0,0
1682779443.90021491,74328590,1592,1592,1538,1539,0,0,0,0,0,0,0,0,0,0
1682779444.00017500,74428550,1593,1593,1538,1539,0,0,0,0,0,0,0,0,0,0
1682779444.10013509,74528510,1595,1594,1539,1542,0,0,0,0,0,0,0,0,0,0
1682779444.20009494,74628470,1593,1592,1540,1543,0,0,0,0,0,0,0,0,0,0
1682779444.30005503,74728430,1591,1588,1545,1548,0,0,0,0,0,0,0,0,0,0
1682779444.40001488,74828390,1585,1582,1551,1554,0,0,0,0,0,0,0,0,0,0
1682779444.49997497,74928350,1578,1574,1560,1563,0,0,0,0,0,0,0,0,0,0
1682779444.59993505,75028310,1569,1565,1571,1573,0,0,0,0,0,0,0,0,0,0
1682779444.69989491,75128270,1559,1556,1582,1584,0,0,0,0,0,0,0,0,0,0
1682779444.79985499,75228230,1549,1548,1593,1593,0,0,0,0,0,0,0,0,0,0
1682779444.89981508,75328190,1541,1541,1602,1601,0,0,0,0,0,0,0,0,0,0
1682779445.00060797,75428983,1536,1538,1609,1607,0,0,0,0,0,0,0,0,0,0
1682779445.10056806,75528943,1534,1537,1613,1610,0,0,0,0,0,0,0,0,0,0
1682779445.20052791,75628903,1536,1538,1614,1611,0,0,0,0,0,0,0,0,0,0
1682779445.30048800,75728863,1540,1542,1612,1610,0,0,0,0,0,0,0,0,0,0
1682779445.40044808,75828823,1544,1546,1606,1605,0,0,0,0,0,0,0,0,0,0
1682779445.50040793,75928783,1551,1552,1601,1600,0,0,0,0,0,0,0,0,0,0
1682779445.60036802,76028743,1560,1559,1595,1595,0,0,0,0,0,0,0,0,0,0
1682779445.70032811,76128703,1566,1565,1587,1587,0,0,0,0,0,0,0,0,0,0
1682779445.80028796,76228663,1572,1571,1580,1581,0,0,0,0,0,0,0,0,0,0
1682779445.90024805,76328623,1578,1576,1574,1575,0,0,0,0,0,0,0,0,0,0
1682779446.00020790,76428583,1582,1580,1569,1570,0,0,0,0,0,0,0,0,0,0
1682779446.10016799,76528543,1585,1582,1566,1568,0,0,0,0,0,0,0,0,0,0
1682779446.20012808,76628503,1586,1584,1565,1566,0,0,0,0,0,0,0,0,0,0
1682779446.30008793,76728463,1586,1585,1566,1567,0,0,0,0,0,0,0,0,0,0
1682779446.40004802,76828423,1585,1584,1568,1567,0,0,0,0,0,0,0,0,0,0
1682779446.50000811,76928383,1584,1584,1570,1570,0,0,0,0,0,0,0,0,0,0
1682779446.59996796,77028343,1582,1581,1573,1572,0,0,0,0,0,0,0,0,0,0
1682779446.69992805,77128303,1579,1579,1576,1575,0,0,0,0,0,0,0,0,0,0
1682779446.79988790,77228263,1577,1578,1578,1578,0,0,0,0,0,0,0,0,0,0
1682779446.89984798,77328223,1574,1575,1580,1579,0,0,0,0,0,0,0,0,0,0
1682779446.99980807,77428183,1573,1574,1582,1582,0,0,0,0,0,0,0,0,0,0
1682779447.10060096,77528976,1573,1574,1584,1584,0,0,0,0,0,0,0,0,0,0
1682779447.20056105,77628936,1573,1575,1585,1584,0,0,0,0,0,0,0,0,0,0
1682779447.30052090,77728896,1575,1576,1586,1585,0,0,0,0,0,0,0,0,0,0
1682779447.40048099,77828856,1576,1576,1585,1585,0,0,0,0,0,0,0,0,0,0
1682779447.50044107,77928816,1576,1576,1583,1583,0,0,0,0,0,0,0,0,0,0
1682779447.60040092,78028776,1577,1578,1582,1583,0,0,0,0,0,0,0,0,0,0
1682779447.70036101,78128736,1578,1578,1581,1581,0,0,0,0,0,0,0,0,0,0
1682779447.80032110,78228696,1579,1580,1580,1580,0,0,0,0,0,0,0,0,0,0
1682779447.90028095,78328656,1581,1581,1579,1579,0,0,0,0,0,0,0,0,0,0
1682779448.00024104,78428616,1582,1581,1578,1579,0,0,0,0,0,0,0,0,0,0
1682779448.10020089,78528576,1582,1581,1577,1577,0,0,0,0,0,0,0,0,0,0
1682779448.20016098,78628536,1582,1582,1577,1577,0,0,0,0,0,0,0,0,0,0
1682779448.30012107,78728496,1582,1582,1578,1578,0,0,0,0,0,0,0,0,0,0
1682779448.40008092,78828456,1582,1582,1578,1578,0,0,0,0,0,0,0,0,0,0
1682779448.50004101,78928416,1581,1582,1578,1578,0,0,0,0,0,0,0,0,0,0
1682779448.60000110,79028376,1581,1581,1579,1579,0,0,0,0,0,0,0,0,0,0
1682779448.69996095,79128336,1580,1580,1579,1579,0,0,0,0,0,0,0,0,0,0
1682779448.79992104,79228296,1580,1580,1579,1579,0,0,0,0,0,0,0,0,0,0
1682779448.89988089,79328256,1580,1580,1580,1581,0,0,0,0,0,0,0,0,0,0
1682779448.99984097,79428216,1581,1581,1582,1582,0,0,0,0,0,0,0,0,0,0
1682779449.09980106,79528176,1580,1581,1582,1582,0,0,0,0,0,0,0,0,0,0
1682779449.20059395,79628969,1580,1580,1582,1581,0,0,0,0,0,0,0,0,0,0
1682779449.30055404,79728929,1580,1580,1582,1582,0,0,0,0,0,0,0,0,0,0
1682779449.40051389,79828889,1580,1580,1582,1582,0,0,0,0,0,0,0,0,0,0
1682779449.50047398,79928849,1581,1580,1582,1582,0,0,0,0,0,0,0,0,0,0
1682779449.60043406,80028809,1580,1581,1582,1579,0,0,0,0,0,0,0,0,0,0
1682779449.70039392,80128769,1581,1582,1587,1573,0,0,0,0,0,0,0,0,0,0
1682779449.80035400,80228729,1580,1581,1584,1573,0,0,0,0,0,0,0,0,0,0
1682779449.90031409,80328689,1577,1577,1577,1575,0,0,0,0,0,0,0,0,0,0
1682779450.00027394,80428649,1573,1572,1570,1574,0,0,0,0,0,0,0,0,0,0
1682779450.10023403,80528609,1571,1569,1565,1573,0,0,0,0,0,0,0,0,0,0
1682779450.20019388,80628569,1568,1567,1563,1570,0,0,0,0,0,0,0,0,0,0
1682779450.30015397,80728529,1566,1567,1564,1568,0,0,0,0,0,0,0,0,0,0
1682779450.40011406,80828489,1565,1566,1564,1565,0,0,0,0,0,0,0,0,0,0
1682779450.50007391,80928449,1566,1566,1566,1565,0,0,0,0,0,0,0,0,0,0
1682779450.60003400,81028409,1565,1566,1566,1564,0,0,0,0,0,0,0,0,0,0
1682779450.69999409,81128369,1565,1565,1567,1564,0,0,0,0,0,0,0,0,0,0
1682779450.79995394,81228329,1565,1565,1566,1564,0,0,0,0,0,0,0,0,0,0
1682779450.89991403,81328289,1564,1563,1565,1564,0,0,0,0,0,0,0,0,0,0
1682779450.99987388,81428249,1564,1563,1564,1564,0,0,0,0,0,0,0,0,0,0
1682779451.09983397,81528209,1562,1562,1563,1563,0,0,0,0,0,0,0,0,0,0
1682779451.19979405,81628169,1562,1562,1562,1563,0,0,0,0,0,0,0,0,0,0
1682779451.30058694,81728962,1562,1562,1562,1563,0,0,0,0,0,0,0,0,0,0
1682779451.40054703,81828922,1560,1561,1561,1561,0,0,0,0,0,0,0,0,0,0
1682779451.50050688,81928882,1560,1560,1560,1560,0,0,0,0,0,0,0,0,0,0
1682779451.60046697,82028842,1558,1559,1559,1558,0,0,0,0,0,0,0,0,0,0
1682779451.70042706,82128802,1558,1558,1559,1558,0,0,0,0,0,0,0,0,0,0
1682779451.80038691,82228762,1558,1558,1558,1557,0,0,0,0,0,0,0,0,0,0
1682779451.90034699,82328722,1557,1557,1557,1556,0,0,0,0,0,0,0,0,0,0
1682779452.00030708,82428682,1558,1557,1558,1557,0,0,0,0,0,0,0,0,0,0
1682779452.10026693,82528642,1558,1558,1558,1557,0,0,0,0,0,0,0,0,0,0
1682779452.20022702,82628602,1557,1557,1558,1556,0,0,0,0,0,0,0,0,0,0
1682779452.30018711,82728562,1557,1557,1558,1556,0,0,0,0,0,0,0,0,0,0
1682779452.40014696,82828522,1558,1558,1560,1557,0,0,0,0,0,0,0,0,0,0
1682779452.50010705,82928482,1559,1559,1559,1559,0,0,0,0,0,0,0,0,0,0
1682779452.60006690,83028442,1560,1559,1558,1562,0,0,0,0,0,0,0,0,0,0
1682779452.70002699,83128402,1560,1560,1557,1563,0,0,0,0,0,0,0,0,0,0
1682779452.79998708,83228362,1561,1560,1558,1564,0,0,0,0,0,0,0,0,0,0
1682779452.89994693,83328322,1561,1561,1559,1563,0,0,0,0,0,0,0,0,0,0
1682779452.99990702,83428282,1561,1561,1560,1562,0,0,0,0,0,0,0,0,0,0
1682779453.09986711,83528242,1561,1561,1561,1559,0,0,0,0,0,0,0,0,0,0
1682779453.19982696,83628202,1560,1560,1562,1557,0,0,0,0,0,0,0,0,0,0
1682779453.29978704,83728162,1560,1560,1561,1558,0,0,0,0,0,0,0,0,0,0
1682779453.40057993,83828955,1559,1559,1557,1562,0,0,0,0,0,0,0,0,0,0
1682779453.50054002,83928915,1556,1555,1553,1559,0,0,0,0,0,0,0,0,0,0
1682779453.60050011,84028875,1552,1551,1550,1553,0,0,0,0,0,0,0,0,0,0
1682779453.70045996,84128835,1547,1547,1546,1547,0,0,0,0,0,0,0,0,0,0
1682779453.80042005,84228795,1540,1540,1541,1539,0,0,0,0,0,0,0,0,0,0
1682779453.90037990,84328755,1533,1533,1534,1532,0,0,0,0,0,0,0,0,0,0
1682779454.00033998,84428715,1525,1525,1526,1524,0,0,0,0,0,0,0,0,0,0
1682779454.10030007,84528675,1520,1521,1521,1521,0,0,0,0,0,0,0,0,0,0
1682779454.20025992,84628635,1518,1520,1519,1520,0,0,0,0,0,0,0,0,0,0
1682779454.30022001,84728595,1519,1520,1519,1521,0,0,0,0,0,0,0,0,0,0
1682779454.40018010,84828555,1521,1522,1520,1523,0,0,0,0,0,0,0,0,0,0
1682779454.50013995,84928515,1525,1525,1524,1526,0,0,0,0,0,0,0,0,0,0
1682779454.60010004,85028475,1528,1528,1528,1529,0,0,0,0,0,0,0,0,0,0
1682779454.70005989,85128435,1534,1534,1534,1534,0,0,0,0,0,0,0,0,0,0
1682779454.80001998,85228395,1537,1536,1537,1536,0,0,0,0,0,0,0,0,0,0
1682779454.89998007,85328355,1540,1539,1541,1539,0,0,0,0,0,0,0,0,0,0
1682779454.99993992,85428315,1542,1542,1543,1541,0,0,0,0,0,0,0,0,0,0
1682779455.09990001,85528275,1544,1543,1544,1543,0,0,0,0,0,0,0,0,0,0
1682779455.19986010,85628235,1545,1545,1546,1545,0,0,0,0,0,0,0,0,0,0
1682779455.29981995,85728195,1546,1545,1546,1546,0,0,0,0,0,0,0,0,0,0
1682779455.39978004,85828155,1546,1546,1546,1546,0,0,0,0,0,0,0,0,0,0
1682779455.50057292,85928948,1547,1547,1547,1547,0,0,0,0,0,0,0,0,0,0
1682779455.60053301,86028908,1547,1548,1547,1548,0,0,0,0,0,0,0,0,0,0
1682779455.70049310,86128868,1547,1547,1548,1547,0,0,0,0,0,0,0,0,0,0
1682779455.80045295,86228828,1546,1546,1546,1546,0,0,0,0,0,0,0,0,0,0
1682779455.90041304,86328788,1546,1546,1546,1546,0,0,0,0,0,0,0,0,0,0
1682779456.00037289,86428748,1545,1546,1545,1546,0,0,0,0,0,0,0,0,0,0
1682779456.10033298,86528708,1545,1546,1545,1545,0,0,0,0,0,0,0,0,0,0
1682779456.20029306,86628668,1545,1545,1545,1545,0,0,0,0,0,0,0,0,0,0
1682779456.30025291,86728628,1545,1545,1545,1545,0,0,0,0,0,0,0,0,0,0
1682779456.40021300,86828588,1545,1545,1545,1545,0,0,0,0,0,0,0,0,0,0
1682779456.50017309,86928548,1544,1543,1544,1543,0,0,0,0,0,0,0,0,0,0
1682779456.60013294,87028508,1544,1544,1544,1544,0,0,0,0,0,0,0,0,0,0
1682779456.70009303,87128468,1543,1544,1543,1543,0,0,0,0,0,0,0,0,0,0
1682779456.80005288,87228428,1543,1543,1543,1543,0,0,0,0,0,0,0,0,0,0
1682779456.90001297,87328388,1542,1543,1543,1543,0,0,0,0,0,0,0,0,0,0
1682779456.99997306,87428348,1543,1544,1543,1543,0,0,0,0,0,0,0,0,0,0
1682779457.09993291,87528308,1543,1543,1544,1543,0,0,0,0,0,0,0,0,0,0
1682779457.19989300,87628268,1544,1543,1543,1544,0,0,0,0,0,0,0,0,0,0
1682779457.29985309,87728228,1544,1544,1544,1545,0,0,0,0,0,0,0,0,0,0
1682779457.39981294,87828188,1544,1543,1543,1543,0,0,0,0,0,0,0,0,0,0
1682779457.50060606,87928981,1544,1543,1544,1543,0,0,0,0,0,0,0,0,0,0
1682779457.60056591,88028941,1544,1544,1544,1543,0,0,0,0,0,0,0,0,0,0
1682779457.70052600,88128901,1544,1544,1544,1544,0,0,0,0,0,0,0,0,0,0
1682779457.80048609,88228861,1544,1544,1544,1544,0,0,0,0,0,0,0,0,0,0
1682779457.90044594,88328821,1544,1544,1544,1545,0,0,0,0,0,0,0,0,0,0
1682779458.00040603,88428781,1544,1544,1544,1544,0,0,0,0,0,0,0,0,0,0
1682779458.10036588,88528741,1544,1544,1544,1544,0,0,0,0,0,0,0,0,0,0
1682779458.20032597,88628701,1545,1546,1545,1545,0,0,0,0,0,0,0,0,0,0
1682779458.30028605,88728661,1544,1545,1544,1545,0,0,0,0,0,0,0,0,0,0
1682779458.40024590,88828621,1544,1544,1544,1544,0,0,0,0,0,0,0,0,0,0
1682779458.50020599,88928581,1544,1544,1544,1544,0,0,0,0,0,0,0,0,0,0
1682779458.60016608,89028541,1545,1544,1545,1544,0,0,0,0,0,0,0,0,0,0
1682779458.70012593,89128501,1544,1543,1544,1544,0,0,0,0,0,0,0,0,0,0
1682779458.80008602,89228461,1544,1544,1544,1544,0,0,0,0,0,0,0,0,0,0
1682779458.90004611,89328421,1544,1544,1543,1544,0,0,0,0,0,0,0,0,0,0
1682779459.00000596,89428381,1544,1545,1545,1544,0,0,0,0,0,0,0,0,0,0
1682779459.09996605,89528341,1544,1545,1544,1544,0,0,0,0,0,0,0,0,0,0
1682779459.19992590,89628301,1545,1545,1545,1545,0,0,0,0,0,0,0,0,0,0
1682779459.29988599,89728261,1544,1544,1544,1544,0,0,0,0,0,0,0,0,0,0
1682779459.39984608,89828221,1545,1544,1545,1545,0,0,0,0,0,0,0,0,0,0
1682779459.49980593,89928181,1545,1544,1545,1544,0,0,0,0,0,0,0,0,0,0
1682779459.60059905,90028974,1545,1545,1545,1545,0,0,0,0,0,0,0,0,0,0
1682779459.70055890,90128934,1544,1544,1544,1544,0,0,0,0,0,0,0,0,0,0
1682779459.80051899,90228894,1545,1545,1545,1545,0,0,0,0,0,0,0,0,0,0
1682779459.90047908,90328854,1544,1544,1544,1544,0,0,0,0,0,0,0,0,0,0
1682779460.00043893,90428814,1545,1545,1545,1545,0,0,0,0,0,0,0,0,0,0
1682779460.10039902,90528774,1544,1544,1544,1544,0,0,0,0,0,0,0,0,0,0
1682779460.20035911,90628734,1544,1544,1544,1544,0,0,0,0,0,0,0,0,0,0
1682779460.30031896,90728694,1544,1544,1544,1544,0,0,0,0,0,0,0,0,0,0
1682779460.40027905,90828654,1544,1544,1544,1544,0,0,0,0,0,0,0,0,0,0
1682779460.50023890,90928614,1544,1544,1544,1545,0,0,0,0,0,0,0,0,0,0
1682779460.60019898,91028574,1544,1544,1544,1544,0,0,0,0,0,0,0,0,0,0
1682779460.70015907,91128534,1544,1544,1544,1544,0,0,0,0,0,0,0,0,0,0
1682779460.80011892,91228494,1544,1544,1544,1544,0,0,0,0,0,0,0,0,0,0
1682779460.90007901,91328454,1544,1544,1544,1544,0,0,0,0,0,0,0,0,0,0
1682779461.00003910,91428414,1545,1544,1544,1544,0,0,0,0,0,0,0,0,0,0
1682779461.09999895,91528374,1544,1544,1544,1544,0,0,0,0,0,0,0,0,0,0
1682779461.19995904,91628334,1544,1544,1544,1543,0,0,0,0,0,0,0,0,0,0
1682779461.29991889,91728294,1544,1543,1544,1544,0,0,0,0,0,0,0,0,0,0
1682779461.39987898,91828254,1544,1544,1544,1544,0,0,0,0,0,0,0,0,0,0
1682779461.49983907,91928214,1545,1544,1544,1545,0,0,0,0,0,0,0,0,0,0
1682779461.59979892,92028174,1544,1543,1543,1543,0,0,0,0,0,0,0,0,0,0
1682779461.70059204,92128967,1544,1544,1544,1544,0,0,0,0,0,0,0,0,0,0
1682779461.80055189,92228927,1544,1545,1545,1544,0,0,0,0,0,0,0,0,0,0
1682779461.90051198,92328887,1544,1544,1544,1544,0,0,0,0,0,0,0,0,0,0
1682779462.00047207,92428847,1545,1545,1545,1545,0,0,0,0,0,0,0,0,0,0
1682779462.10043192,92528807,1545,1545,1545,1545,0,0,0,0,0,0,0,0,0,0
1682779462.20039201,92628767,1545,1545,1545,1545,0,0,0,0,0,0,0,0,0,0
1682779462.30035210,92728727,1545,1545,1545,1545,0,0,0,0,0,0,0,0,0,0
1682779462.40031195,92828687,1545,1545,1545,1545,0,0,0,0,0,0,0,0,0,0
1682779462.50027204,92928647,1545,1545,1545,1546,0,0,0,0,0,0,0,0,0,0
1682779462.60023189,93028607,1545,1545,1545,1545,0,0,0,0,0,0,0,0,0,0
1682779462.70019197,93128567,1546,1545,1545,1546,0,0,0,0,0,0,0,0,0,0
1682779462.80015206,93228527,1544,1544,1545,1544,0,0,0,0,0,0,0,0,0,0
1682779462.90011191,93328487,1545,1545,1545,1545,0,0,0,0,0,0,0,0,0,0
1682779463.00007200,93428447,1545,1545,1545,1545,0,0,0,0,0,0,0,0,0,0
1682779463.10003209,93528407,1545,1545,1545,1545,0,0,0,0,0,0,0,0,0,0
1682779463.19999194,93628367,1545,1545,1545,1545,0,0,0,0,0,0,0,0,0,0
1682779463.29995203,93728327,1545,1545,1545,1545,0,0,0,0,0,0,0,0,0,0
1682779463.39991188,93828287,1544,1545,1545,1545,0,0,0,0,0,0,0,0,0,0
1682779463.49987197,93928247,1545,1545,1545,1545,0,0,0,0,0,0,0,0,0,0
1682779463.59983206,94028207,1544,1544,1544,1544,0,0,0,0,0,0,0,0,0,0
1682779463.69979191,94128167,1545,1545,1545,1545,0,0,0,0,0,0,0,0,0,0
1682779463.80058503,94228960,1528,1521,1527,1523,0,0,0,0,0,0,0,0,0,0
1682779463.90054488,94328920,1390,1336,1390,1336,0,0,0,0,0,0,0,0,0,0
1682779464.00050497,94428880,1329,1243,1329,1243,0,0,0,0,0,0,0,0,0,0
1682779464.10046506,94528840,1312,1215,1312,1216,0,0,0,0,0,0,0,0,0,0
1682779464.20042491,94628800,1300,1194,1300,1195,0,0,0,0,0,0,0,0,0,0
1682779464.30038500,94728760,1275,1150,1275,1151,0,0,0,0,0,0,0,0,0,0
1682779464.40034509,94828720,1200,1150,1200,1150,0,0,0,0,0,0,0,0,0,0
1682779464.50030494,94928680,1105,1150,1105,1150,0,0,0,0,0,0,0,0,0,0
1682779464.60026503,95028640,1105,1150,1105,1150,0,0,0,0,0,0,0,0,0,0
1682779464.70022488,95128600,1105,1150,1105,1150,0,0,0,0,0,0,0,0,0,0
1682779464.80018497,95228560,1105,1150,1098,1160,0,0,0,0,0,0,0,0,0,0
1682779464.90014505,95328520,1105,1150,1098,1160,0,0,0,0,0,0,0,0,0,0
1682779465.00010490,95428480,1105,1150,1100,1157,0,0,0,0,0,0,0,0,0,0
1682779465.10006499,95528440,1105,1150,1101,1156,0,0,0,0,0,0,0,0,0,0
1682779465.20002508,95628400,1105,1150,1101,1156,0,0,0,0,0,0,0,0,0,0
1682779465.29998493,95728360,1105,1150,1100,1157,0,0,0,0,0,0,0,0,0,0
1682779465.39994502,95828320,1105,1150,1100,1157,0,0,0,0,0,0,0,0,0,0
1682779465.49990511,95928280,1105,1150,1100,1158,0,0,0,0,0,0,0,0,0,0
1682779465.59986496,96028240,1105,1150,1105,1151,0,0,0,0,0,0,0,0,0,0
1682779465.69982505,96128200,1105,1150,1103,1153,0,0,0,0,0,0,0,0,0,0
1682779465.79978490,96228160,1105,1150,1103,1153,0,0,0,0,0,0,0,0,0,0
1682779465.90057802,96328953,1105,1150,1103,1153,0,0,0,0,0,0,0,0,0,0
1682779466.00053811,96428913,1105,1150,1103,1154,0,0,0,0,0,0,0,0,0,0
1682779466.10049796,96528873,1000,1000,1000,1000,0,0,0,0,0,0,0,0,0,0
1682779466.20045805,96628833,1000,1000,1000,1000,0,0,0,0,0,0,0,0,0,0
1682779466.30041790,96728793,1000,1000,1000,1000,0,0,0,0,0,0,0,0,0,0
1682779466.40037799,96828753,1000,1000,1000,1000,0,0,0,0,0,0,0,0,0,0
1682779466.50033808,96928713,1000,1000,1000,1000,0,0,0,0,0,0,0,0,0,0
1682779466.60029793,97028673,1000,1000,1000,1000,0,0,0,0,0,0,0,0,0,0
1682779466.70025802,97128633,1000,1000,1000,1000,0,0,0,0,0,0,0,0,0,0
1682779466.80021811,97228593,1000,1000,1000,1000,0,0,0,0,0,0,0,0,0,0
1682779466.90017796,97328553,1000,1000,1000,1000,0,0,0,0,0,0,0,0,0,0
1682779467.00013804,97428513,1000,1000,1000,1000,0,0,0,0,0,0,0,0,0,0
1682779467.10009789,97528473,1000,1000,1000,1000,0,0,0,0,0,0,0,0,0,0
1682779467.20005798,97628433,1000,1000,1000,1000,0,0,0,0,0,0,0,0,0,0
1682779467.30001807,97728393,1000,1000,1000,1000,0,0,0,0,0,0,0,0,0,0
1682779467.39997792,97828353,1000,1000,1000,1000,0,0,0,0,0,0,0,0,0,0
1682779467.49993801,97928313,1000,1000,1000,1000,0,0,0,0,0,0,0,0,0,0
1682779467.59989810,98028273,1000,1000,1000,1000,0,0,0,0,0,0,0,0,0,0
1682779467.69985795,98128233,1000,1000,1000,1000,0,0,0,0,0,0,0,0,0,0
1682779467.79981804,98228193,1000,1000,1000,1000,0,0,0,0,0,0,0,0,0,0
1682779467.90061092,98328986,1000,1000,1000,1000,0,0,0,0,0,0,0,0,0,0
1682779468.00057101,98428946,1000,1000,1000,1000,0,0,0,0,0,0,0,0,0,0
1682779468.10053110,98528906,1000,1000,1000,1000,0,0,0,0,0,0,0,0,0,0
1682779468.20049095,98628866,1000,1000,1000,1000,0,0,0,0,0,0,0,0,0,0
1682779468.30045104,98728826,1000,1000,1000,1000,0,0,0,0,0,0,0,0,0,0
1682779468.40041089,98828786,1000,1000,1000,1000,0,0,0,0,0,0,0,0,0,0
1682779468.50037098,98928746,1000,1000,1000,1000,0,0,0,0,0,0,0,0,0,0
1682779468.60033107,99028706,1000,1000,1000,1000,0,0,0,0,0,0,0,0,0,0
1682779468.70029092,99128666,1000,1000,1000,1000,0,0,0,0,0,0,0,0,0,0
1682779468.80025101,99228626,1000,1000,1000,1000,0,0,0,0,0,0,0,0,0,0
1682779468.90021110,99328586,1000,1000,1000,1000,0,0,0,0,0,0,0,0,0,0
1682779469.00017095,99428546,1000,1000,1000,1000,0,0,0,0,0,0,0,0,0,0
1682779469.10013103,99528506,1000,1000,1000,1000,0,0,0,0,0,0,0,0,0,0
1682779469.20009089,99628466,1000,1000,1000,1000,0,0,0,0,0,0,0,0,0,0
1682779469.30005097,99728426,1000,1000,1000,1000,0,0,0,0,0,0,0,0,0,0
1682779469.40001106,99828386,1000,1000,1000,1000,0,0,0,0,0,0,0,0,0,0
1682779469.49997091,99928346,1000,1000,1000,1000,0,0,0,0,0,0,0,0,0,0
1682779469.59993100,100028306,1000,1000,1000,1000,0,0,0,0,0,0,0,0,0,0
1682779469.69989109,100128266,1000,1000,1000,1000,0,0,0,0,0,0,0,0,0,0
1682779469.79985094,100228226,1000,1000,1000,1000,0,0,0,0,0,0,0,0,0,0
1682779469.89981103,100328186,1000,1000,1000,1000,0,0,0,0,0,0,0,0,0,0
1682779470.00060391,100428979,1000,1000,1000,1000,0,0,0,0,0,0,0,0,0,0
1682779470.10056400,100528939,1000,1000,1000,1000,0,0,0,0,0,0,0,0,0,0
1682779470.20052409,100628899,1000,1000,1000,1000,0,0,0,0,0,0,0,0,0,0
1682779470.30048394,100728859,1000,1000,1000,1000,0,0,0,0,0,0,0,0,0,0
1682779470.40044403,100828819,1000,1000,1000,1000,0,0,0,0,0,0,0,0,0,0
1682779470.50040388,100928779,1000,1000,1000,1000,0,0,0,0,0,0,0,0,0,0
1682779470.60036397,101028739,1000,1000,1000,1000,0,0,0,0,0,0,0,0,0,0
1682779470.70032406,101128699,1000,1000,1000,1000,0,0,0,0,0,0,0,0,0,0
1682779470.80028391,101228659,1000,1000,1000,1000,0,0,0,0,0,0,0,0,0,0
1682779470.90024400,101328619,1000,1000,1000,1000,0,0,0,0,0,0,0,0,0,0
1682779471.00020409,101428579,1000,1000,1000,1000,0,0,0,0,0,0,0,0,0,0
1682779471.10016394,101528539,1000,1000,1000,1000,0,0,0,0,0,0,0,0,0,0
1682779471.20012403,101628499,1000,1000,1000,1000,0,0,0,0,0,0,0,0,0,0
1682779471.30008388,101728459,1000,1000,1000,1000,0,0,0,0,0,0,0,0,0,0
1682779471.40004396,101828419,1000,1000,1000,1000,0,0,0,0,0,0,0,0,0,0
1682779471.50000405,101928379,1000,1000,1000,1000,0,0,0,0,0,0,0,0,0,0
1682779471.59996390,102028339,1000,1000,1000,1000,0,0,0,0,0,0,0,0,0,0
1682779471.69992399,102128299,1000,1000,1000,1000,0,0,0,0,0,0,0,0,0,0
1682779471.79988408,102228259,1000,1000,1000,1000,0,0,0,0,0,0,0,0,0,0
1682779471.89984393,102328219,1000,1000,1000,1000,0,0,0,0,0,0,0,0,0,0
1682779471.99980402,102428179,1000,1000,1000,1000,0,0,0,0,0,0,0,0,0,0
1682779472.10059690,102528972,1000,1000,1000,1000,0,0,0,0,0,0,0,0,0,0
1682779472.20055699,102628932,1000,1000,1000,1000,0,0,0,0,0,0,0,0,0,0
1682779472.30051708,102728892,1000,1000,1000,1000,0,0,0,0,0,0,0,0,0,0
1682779472.40047693,102828852,1000,1000,1000,1000,0,0,0,0,0,0,0,0,0,0
1682779472.50043702,102928812,1000,1000,1000,1000,0,0,0,0,0,0,0,0,0,0
1682779472.60039711,103028772,1000,1000,1000,1000,0,0,0,0,0,0,0,0,0,0
1682779472.70035696,103128732,1000,1000,1000,1000,0,0,0,0,0,0,0,0,0,0
1682779472.80031705,103228692,1000,1000,1000,1000,0,0,0,0,0,0,0,0,0,0
1682779472.90027690,103328652,1000,1000,1000,1000,0,0,0,0,0,0,0,0,0,0
1682779473.00023699,103428612,1000,1000,1000,1000,0,0,0,0,0,0,0,0,0,0
1682779473.10019708,103528572,1000,1000,1000,1000,0,0,0,0,0,0,0,0,0,0
1682779473.20015693,103628532,1000,1000,1000,1000,0,0,0,0,0,0,0,0,0,0
1682779473.30011702,103728492,1000,1000,1000,1000,0,0,0,0,0,0,0,0,0,0
1682779473.40007710,103828452,1000,1000,1000,1000,0,0,0,0,0,0,0,0,0,0
1682779473.50003695,103928412,1000,1000,1000,1000,0,0,0,0,0,0,0,0,0,0
1682779473.59999704,104028372,1000,1000,1000,1000,0,0,0,0,0,0,0,0,0,0
1682779473.69995689,104128332,1000,1000,1000,1000,0,0,0,0,0,0,0,0,0,0
1682779473.79991698,104228292,1000,1000,1000,1000,0,0,0,0,0,0,0,0,0,0
1682779473.89987707,104328252,1000,1000,1000,1000,0,0,0,0,0,0,0,0,0,0
1682779473.99983692,104428212,1000,1000,1000,1000,0,0,0,0,0,0,0,0,0,0
1682779474.09979701,104528172,1000,1000,1000,1000,0,0,0,0,0,0,0,0,0,0
1682779474.20058990,104628965,1000,1000,1000,1000,0,0,0,0,0,0,0,0,0,0
1682779474.30054998,104728925,1000,1000,1000,1000,0,0,0,0,0,0,0,0,0,0
1682779474.40051007,104828885,1000,1000,1000,1000,0,0,0,0,0,0,0,0,0,0
1682779474.50046992,104928845,1000,1000,1000,1000,0,0,0,0,0,0,0,0,0,0
1682779474.60043001,105028805,1000,1000,1000,1000,0,0,0,0,0,0,0,0,0,0
1682779474.70039010,105128765,1000,1000,1000,1000,0,0,0,0,0,0,0,0,0,0
1682779474.80034995,105228725,1000,1000,1000,1000,0,0,0,0,0,0,0,0,0,0
1682779474.90031004,105328685,1000,1000,1000,1000,0,0,0,0,0,0,0,0,0,0
1682779475.00026989,105428645,1000,1000,1000,1000,0,0,0,0,0,0,0,0,0,0
1682779475.10022998,105528605,1000,1000,1000,1000,0,0,0,0,0,0,0,0,0,0
1682779475.20019007,105628565,1000,1000,1000,1000,0,0,0,0,0,0,0,0,0,0
1682779475.30014992,105728525,1000,1000,1000,1000,0,0,0,0,0,0,0,0,0,0
1682779475.40011001,105828485,1000,1000,1000,1000,0,0,0,0,0,0,0,0,0,0
1682779475.50007010,105928445,1000,1000,1000,1000,0,0,0,0,0,0,0,0,0,0
1682779475.60002995,106028405,1000,1000,1000,1000,0,0,0,0,0,0,0,0,0,0
1682779475.69999003,106128365,1000,1000,1000,1000,0,0,0,0,0,0,0,0,0,0
1682779475.79994988,106228325,1000,1000,1000,1000,0,0,0,0,0,0,0,0,0,0
1682779475.89990997,106328285,1000,1000,1000,1000,0,0,0,0,0,0,0,0,0,0
1682779475.99987006,106428245,1000,1000,1000,1000,0,0,0,0,0,0,0,0,0,0
1682779476.09982991,106528205,1000,1000,1000,1000,0,0,0,0,0,0,0,0,0,0
1682779476.19979000,106628165,1000,1000,1000,1000,0,0,0,0,0,0,0,0,0,0
1682779476.30058289,106728958,1000,1000,1000,1000,0,0,0,0,0,0,0,0,0,0
1682779476.40054297,106828918,1000,1000,1000,1000,0,0,0,0,0,0,0,0,0,0
1682779476.50050306,106928878,1000,1000,1000,1000,0,0,0,0,0,0,0,0,0,0
1682779476.60046291,107028838,1000,1000,1000,1000,0,0,0,0,0,0,0,0,0,0
1682779476.70042300,107128798,1000,1000,1000,1000,0,0,0,0,0,0,0,0,0,0
1682779476.80038309,107228758,1000,1000,1000,1000,0,0,0,0,0,0,0,0,0,0
1682779476.90034294,107328718,1000,1000,1000,1000,0,0,0,0,0,0,0,0,0,0
1682779477.00030303,107428678,1000,1000,1000,1000,0,0,0,0,0,0,0,0,0,0
1682779477.10026288,107528638,1000,1000,1000,1000,0,0,0,0,0,0,0,0,0,0
1682779477.20022297,107628598,1000,1000,1000,1000,0,0,0,0,0,0,0,0,0,0
1682779477.30018306,107728558,1000,1000,1000,1000,0,0,0,0,0,0,0,0,0,0
1682779477.40014291,107828518,1000,1000,1000,1000,0,0,0,0,0,0,0,0,0,0
1682779477.50010300,107928478,1000,1000,1000,1000,0,0,0,0,0,0,0,0,0,0
1682779477.60006309,108028438,1000,1000,1000,1000,0,0,0,0,0,0,0,0,0,0
1682779477.70002294,108128398,1000,1000,1000,1000,0,0,0,0,0,0,0,0,0,0
1682779477.79998302,108228358,1000,1000,1000,1000,0,0,0,0,0,0,0,0,0,0
1682779477.89994311,108328318,1000,1000,1000,1000,0,0,0,0,0,0,0,0,0,0
1682779477.99990296,108428278,1000,1000,1000,1000,0,0,0,0,0,0,0,0,0,0
1682779478.09986305,108528238,1000,1000,1000,1000,0,0,0,0,0,0,0,0,0,0
1682779478.19982290,108628198,1000,1000,1000,1000,0,0,0,0,0,0,0,0,0,0
1682779478.29978299,108728158,1000,1000,1000,1000,0,0,0,0,0,0,0,0,0,0
1682779478.40057588,108828951,1000,1000,1000,1000,0,0,0,0,0,0,0,0,0,0
1682779478.50053596,108928911,1000,1000,1000,1000,0,0,0,0,0,0,0,0,0,0
1682779478.60049605,109028871,1000,1000,1000,1000,0,0,0,0,0,0,0,0,0,0
1682779478.70045590,109128831,1000,1000,1000,1000,0,0,0,0,0,0,0,0,0,0
1682779478.80041599,109228791,1000,1000,1000,1000,0,0,0,0,0,0,0,0,0,0
1682779478.90037608,109328751,1000,1000,1000,1000,0,0,0,0,0,0,0,0,0,0
1682779479.00033593,109428711,1000,1000,1000,1000,0,0,0,0,0,0,0,0,0,0
1682779479.10029602,109528671,1000,1000,1000,1000,0,0,0,0,0,0,0,0,0,0
1682779479.20025611,109628631,1000,1000,1000,1000,0,0,0,0,0,0,0,0,0,0
1682779479.30021596,109728591,1000,1000,1000,1000,0,0,0,0,0,0,0,0,0,0
1682779479.40017605,109828551,1000,1000,1000,1000,0,0,0,0,0,0,0,0,0,0
1682779479.50013590,109928511,1000,1000,1000,1000,0,0,0,0,0,0,0,0,0,0
1682779479.60009599,110028471,1000,1000,1000,1000,0,0,0,0,0,0,0,0,0,0
1682779479.70005608,110128431,1000,1000,1000,1000,0,0,0,0,0,0,0,0,0,0
1682779479.80001593,110228391,1000,1000,1000,1000,0,0,0,0,0,0,0,0,0,0
1682779479.89997602,110328351,1000,1000,1000,1000,0,0,0,0,0,0,0,0,0,0
1682779479.99993610,110428311,1000,1000,1000,1000,0,0,0,0,0,0,0,0,0,0
1682779480.09989595,110528271,1000,1000,1000,1000,0,0,0,0,0,0,0,0,0,0
1682779480.19985604,110628231,1000,1000,1000,1000,0,0,0,0,0,0,0,0,0,0
1682779480.29981589,110728191,1000,1000,1000,1000,0,0,0,0,0,0,0,0,0,0
1682779480.40060902,110828984,1000,1000,1000,1000,0,0,0,0,0,0,0,0,0,0
1682779480.50056911,110928944,1000,1000,1000,1000,0,0,0,0,0,0,0,0,0,0
1682779480.60052896,111028904,1000,1000,1000,1000,0,0,0,0,0,0,0,0,0,0
1682779480.70048904,111128864,1000,1000,1000,1000,0,0,0,0,0,0,0,0,0,0
1682779480.80044889,111228824,1000,1000,1000,1000,0,0,0,0,0,0,0,0,0,0
1682779480.90040898,111328784,1000,1000,1000,1000,0,0,0,0,0,0,0,0,0,0
1682779481.00036907,111428744,1000,1000,1000,1000,0,0,0,0,0,0,0,0,0,0
