TimeUS,M1,M2,M3,M4,TimeUS,C1,C2,C3,C4
52816365,1000,1000,1000,1000,52828860,1000,1000,1000,1000
52818864,1000,1000,1000,1000,52928820,1000,1000,1000,1000
52821363,1000,1000,1000,1000,53028780,1000,1000,1000,1000
52823862,1000,1000,1000,1000,53128740,1000,1000,1000,1000
52826361,1000,1000,1000,1000,53228700,1000,1000,1000,1000
52828860,1000,1000,1000,1000,53328660,1000,1000,1000,1000
52831359,1000,1000,1000,1000,53428620,1000,1000,1000,1000
52833858,1000,1000,1000,1000,53528580,1000,1000,1000,1000
52836357,1000,1000,1000,1000,53628540,1000,1000,1000,1000
52838856,1000,1000,1000,1000,53728500,1000,1000,1000,1000
52841355,1000,1000,1000,1000,53828460,1000,1000,1000,1000
52843854,1000,1000,1000,1000,53928420,1000,1000,1000,1000
52846353,1000,1000,1000,1000,54028380,1000,1000,1000,1000
52848852,1000,1000,1000,1000,54128340,1000,1000,1000,1000
52851351,1000,1000,1000,1000,54228300,1000,1000,1000,1000
52853850,1000,1000,1000,1000,54328260,1000,1000,1000,1000
52856349,1000,1000,1000,1000,54428220,1000,1000,1000,1000
52858848,1000,1000,1000,1000,54528180,1000,1000,1000,1000
52861347,1000,1000,1000,1000,54628973,1000,1000,1000,1000
52863846,1000,1000,1000,1000,54728933,1000,1000,1000,1000
52866345,1000,1000,1000,1000,54828893,1003,1003,1003,1003
52868844,1000,1000,1000,1000,54928853,1033,1033,1033,1033
52871343,1000,1000,1000,1000,55028813,1063,1063,1063,1063
52873842,1000,1000,1000,1000,55128773,1093,1093,1093,1093
52876341,1000,1000,1000,1000,55228733,1123,1123,1123,1123
52878840,1000,1000,1000,1000,55328693,1185,1177,1177,1186
52881339,1000,1000,1000,1000,55428653,1424,1419,1419,1425
52883838,1000,1000,1000,1000,55528613,1599,1594,1594,1600
52886337,1000,1000,1000,1000,55628573,1743,1739,1739,1744
52888836,1000,1000,1000,1000,55728533,1869,1864,1865,1869
52891335,1000,1000,1000,1000,55828493,1894,1890,1891,1895
52893834,1000,1000,1000,1000,55928453,1799,1798,1798,1799
52896333,1000,1000,1000,1000,56028413,1683,1685,1685,1684
52898832,1000,1000,1000,1000,56128373,1635,1638,1638,1636
52901331,1000,1000,1000,1000,56228333,1634,1636,1636,1634
52903830,1000,1000,1000,1000,56328293,1647,1638,1637,1648
52906329,1000,1000,1000,1000,56428253,1636,1636,1629,1643
52908828,1000,1000,1000,1000,56528213,1626,1628,1621,1633
52911327,1000,1000,1000,1000,56628173,1619,1620,1618,1622
52913826,1000,1000,1000,1000,56728966,1616,1616,1618,1615
52916325,1000,1000,1000,1000,56828926,1618,1617,1621,1613
52918824,1000,1000,1000,1000,56928886,1619,1618,1623,1614
52921323,1000,1000,1000,1000,57028846,1599,1598,1609,1589
52923822,1000,1000,1000,1000,57128806,1580,1580,1593,1567
52926321,1000,1000,1000,1000,57228766,1569,1569,1574,1564
52928820,1000,1000,1000,1000,57328726,1558,1559,1556,1561
52931319,1000,1000,1000,1000,57428686,1549,1550,1542,1557
52933818,1000,1000,1000,1000,57528646,1543,1543,1531,1554
52936317,1000,1000,1000,1000,57628606,1537,1536,1527,1545
52938816,1000,1000,1000,1000,57728566,1531,1530,1526,1535
52941315,1000,1000,1000,1000,57828526,1527,1527,1526,1527
52943814,1000,1000,1000,1000,57928486,1526,1526,1528,1525
52946313,1000,1000,1000,1000,58028446,1527,1527,1530,1525
52948812,1000,1000,1000,1000,58128406,1531,1531,1534,1529
52951311,1000,1000,1000,1000,58228366,1535,1535,1537,1532
52953810,1000,1000,1000,1000,58328326,1539,1539,1541,1537
52956309,1000,1000,1000,1000,58428286,1541,1541,1543,1540
52958808,1000,1000,1000,1000,58528246,1545,1545,1546,1545
52961307,1000,1000,1000,1000,58628206,1548,1548,1548,1548
52963806,1000,1000,1000,1000,58728166,1552,1551,1551,1552
52966305,1000,1000,1000,1000,58828959,1554,1554,1553,1555
52968804,1000,1000,1000,1000,58928919,1556,1556,1555,1559
52971303,1000,1000,1000,1000,59028879,1557,1556,1559,1561
52973802,1000,1000,1000,1000,59128839,1558,1558,1562,1562
52976301,1000,1000,1000,1000,59228799,1559,1559,1564,1564
52978800,1000,1000,1000,1000,59328759,1561,1561,1565,1565
52981299,1000,1000,1000,1000,59428719,1564,1564,1567,1566
52983798,1000,1000,1000,1000,59528679,1565,1565,1566,1566
52986297,1000,1000,1000,1000,59628639,1567,1567,1567,1567
52988796,1000,1000,1000,1000,59728599,1570,1570,1568,1568
52991295,1000,1000,1000,1000,59828559,1571,1570,1568,1568
52993794,1000,1000,1000,1000,59928519,1572,1571,1569,1569
52996293,1000,1000,1000,1000,60028479,1572,1572,1569,1570
52998792,1000,1000,1000,1000,60128439,1574,1574,1571,1571
53001291,1000,1000,1000,1000,60228399,1574,1574,1571,1571
53003790,1000,1000,1000,1000,60328359,1575,1575,1574,1572
53006289,1000,1000,1000,1000,60428319,1575,1576,1575,1573
53008788,1000,1000,1000,1000,60528279,1576,1575,1575,1574
53011287,1000,1000,1000,1000,60628239,1576,1576,1576,1576
53013786,1000,1000,1000,1000,60728199,1575,1575,1575,1575
53016285,1000,1000,1000,1000,60828159,1576,1576,1576,1576
53018784,1000,1000,1000,1000,60928952,1575,1575,1575,1576
53021283,1000,1000,1000,1000,61028912,1575,1575,1576,1576
53023782,1000,1000,1000,1000,61128872,1576,1576,1576,1577
53026281,1000,1000,1000,1000,61228832,1577,1577,1577,1577
53028780,1000,1000,1000,1000,61328792,1578,1577,1578,1577
53031279,1000,1000,1000,1000,61428752,1577,1578,1578,1578
53033778,1000,1000,1000,1000,61528712,1577,1576,1577,1576
53036277,1000,1000,1000,1000,61628672,1578,1578,1578,1578
53038776,1000,1000,1000,1000,61728632,1578,1578,1578,1578
53041275,1000,1000,1000,1000,61828592,1578,1578,1578,1578
53043774,1000,1000,1000,1000,61928552,1578,1578,1577,1577
53046273,1000,1000,1000,1000,62028512,1578,1579,1578,1578
53048772,1000,1000,1000,1000,62128472,1578,1578,1578,1578
53051271,1000,1000,1000,1000,62228432,1578,1578,1578,1578
53053770,1000,1000,1000,1000,62328392,1578,1578,1578,1578
53056269,1000,1000,1000,1000,62428352,1578,1578,1578,1578
53058768,1000,1000,1000,1000,62528312,1578,1578,1578,1579
53061267,1000,1000,1000,1000,62628272,1578,1578,1578,1578
53063766,1000,1000,1000,1000,62728232,1579,1579,1580,1579
53066265,1000,1000,1000,1000,62828192,1578,1579,1579,1579
53068764,1000,1000,1000,1000,62928985,1578,1579,1579,1579
53071263,1000,1000,1000,1000,63028945,1580,1580,1580,1580
53073762,1000,1000,1000,1000,63128905,1579,1579,1579,1580
53076261,1000,1000,1000,1000,63228865,1580,1579,1580,1579
53078760,1000,1000,1000,1000,63328825,1579,1579,1579,1579
53081259,1000,1000,1000,1000,63428785,1579,1579,1579,1579
53083758,1000,1000,1000,1000,63528745,1579,1579,1580,1579
53086257,1000,1000,1000,1000,63628705,1579,1579,1579,1579
53088756,1000,1000,1000,1000,63728665,1579,1580,1580,1580
53091255,1000,1000,1000,1000,63828625,1579,1580,1579,1580
53093754,1000,1000,1000,1000,63928585,1580,1579,1580,1580
53096253,1000,1000,1000,1000,64028545,1580,1579,1579,1580
53098752,1000,1000,1000,1000,64128505,1580,1580,1580,1580
53101251,1000,1000,1000,1000,64228465,1581,1580,1580,1581
53103750,1000,1000,1000,1000,64328425,1581,1580,1580,1580
53106249,1000,1000,1000,1000,64428385,1580,1581,1581,1580
53108748,1000,1000,1000,1000,64528345,1580,1581,1580,1581
53111247,1000,1000,1000,1000,64628305,1581,1581,1581,1581
53113746,1000,1000,1000,1000,64728265,1581,1580,1581,1580
53116245,1000,1000,1000,1000,64828225,1581,1581,1581,1581
53118744,1000,1000,1000,1000,64928185,1580,1581,1581,1581
53121243,1000,1000,1000,1000,65028978,1580,1581,1580,1580
53123742,1000,1000,1000,1000,65128938,1581,1582,1585,1578
53126241,1000,1000,1000,1000,65228898,1581,1581,1587,1572
53128740,1000,1000,1000,1000,65328858,1579,1581,1581,1573
53131239,1000,1000,1000,1000,65428818,1578,1581,1573,1572
53133738,1000,1000,1000,1000,65528778,1577,1580,1564,1571
53136237,1000,1000,1000,1000,65628738,1577,1578,1558,1566
53138736,1000,1000,1000,1000,65728698,1578,1577,1555,1561
53141235,1000,1000,1000,1000,65828658,1580,1578,1556,1558
53143734,1000,1000,1000,1000,65928618,1580,1578,1556,1556
53146233,1000,1000,1000,1000,66028578,1578,1577,1556,1554
53148732,1000,1000,1000,1000,66128538,1578,1578,1556,1554
53151231,1000,1000,1000,1000,66228498,1577,1578,1556,1554
53153730,1000,1000,1000,1000,66328458,1576,1577,1555,1555
53156229,1000,1000,1000,1000,66428418,1575,1576,1554,1554
53158728,1000,1000,1000,1000,66528378,1574,1575,1552,1552
53161227,1000,1000,1000,1000,66628338,1575,1577,1551,1551
53163726,1000,1000,1000,1000,66728298,1577,1578,1549,1549
53166225,1000,1000,1000,1000,66828258,1578,1580,1546,1546
53168724,1000,1000,1000,1000,66928218,1581,1583,1544,1544
53171223,1000,1000,1000,1000,67028178,1585,1586,1541,1541
53173722,1000,1000,1000,1000,67128971,1589,1589,1539,1539
53176221,1000,1000,1000,1000,67228931,1590,1591,1535,1536
53178720,1000,1000,1000,1000,67328891,1593,1593,1534,1534
53181219,1000,1000,1000,1000,67428851,1594,1594,1534,1534
53183718,1000,1000,1000,1000,67528811,1595,1594,1535,1536
53186217,1000,1000,1000,1000,67628771,1594,1593,1537,1539
53188716,1000,1000,1000,1000,67728731,1591,1590,1541,1544
53191215,1000,1000,1000,1000,67828691,1586,1584,1546,1550
53193714,1000,1000,1000,1000,67928651,1580,1576,1555,1558
53196213,1000,1000,1000,1000,68028611,1571,1567,1566,1569
53198712,1000,1000,1000,1000,68128571,1561,1556,1579,1580
53201211,1000,1000,1000,1000,68228531,1550,1547,1592,1592
53203710,1000,1000,1000,1000,68328491,1540,1539,1603,1602
53206209,1000,1000,1000,1000,68428451,1533,1533,1610,1610
53208708,1000,1000,1000,1000,68528411,1529,1530,1614,1613
53211207,1000,1000,1000,1000,68628371,1529,1532,1615,1615
53213706,1000,1000,1000,1000,68728331,1533,1535,1612,1612
53216205,1000,1000,1000,1000,68828291,1538,1541,1607,1606
53218704,1000,1000,1000,1000,68928251,1547,1548,1600,1601
53221203,1000,1000,1000,1000,69028211,1557,1557,1593,1593
53223702,1000,1000,1000,1000,69128171,1566,1566,1586,1586
53226201,1000,1000,1000,1000,69228964,1574,1573,1579,1578
53228700,1000,1000,1000,1000,69328924,1580,1579,1574,1573
53231199,1000,1000,1000,1000,69428884,1584,1583,1569,1569
53233698,1000,1000,1000,1000,69528844,1587,1585,1566,1567
53236197,1000,1000,1000,1000,69628804,1588,1586,1566,1566
53238696,1000,1000,1000,1000,69728764,1586,1585,1567,1567
53241195,1000,1000,1000,1000,69828724,1584,1584,1569,1569
53243694,1000,1000,1000,1000,69928684,1582,1582,1572,1572
53246193,1000,1000,1000,1000,70028644,1580,1580,1575,1575
53248692,1000,1000,1000,1000,70128604,1577,1578,1578,1578
53251191,1000,1000,1000,1000,70228564,1575,1575,1580,1580
53253690,1000,1000,1000,1000,70328524,1574,1574,1582,1583
53256189,1000,1000,1000,1000,70428484,1573,1572,1583,1583
53258688,1000,1000,1000,1000,70528444,1573,1573,1584,1584
53261187,1000,1000,1000,1000,70628404,1572,1573,1584,1583
53263686,1000,1000,1000,1000,70728364,1693,1598,1704,1605
53266185,1000,1000,1000,1000,70828324,1596,1599,1608,1603
53268684,1000,1000,1000,1000,70928284,1551,1602,1557,1605
53271183,1000,1000,1000,1000,71028244,1541,1596,1538,1595
53273682,1000,1000,1000,1000,71128204,1551,1584,1535,1575
53276181,1000,1000,1000,1000,71228164,1564,1572,1538,1552
53278680,1000,1000,1000,1000,71328957,1575,1564,1546,1540
53281179,1000,1000,1000,1000,71428917,1580,1561,1556,1539
53283678,1000,1000,1000,1000,71528877,1580,1563,1566,1549
53286177,1000,1000,1000,1000,71628837,1577,1565,1574,1561
53288676,1000,1000,1000,1000,71728797,1572,1568,1579,1572
53291175,1000,1000,1000,1000,71828757,1570,1571,1583,1581
53293674,1000,1000,1000,1000,71928717,1570,1573,1586,1587
53296173,1000,1000,1000,1000,72028677,1571,1575,1588,1590
53298672,1000,1000,1000,1000,72128637,1574,1577,1590,1591
53301171,1000,1000,1000,1000,72228597,1578,1579,1591,1592
53303670,1000,1000,1000,1000,72328557,1583,1582,1592,1591
53306169,1000,1000,1000,1000,72428517,1585,1584,1591,1590
53308668,1000,1000,1000,1000,72528477,1587,1585,1590,1589
53311167,1000,1000,1000,1000,72628437,1589,1588,1589,1588
53313666,1000,1000,1000,1000,72728397,1591,1590,1589,1588
53316165,1000,1000,1000,1000,72828357,1590,1590,1588,1588
53318664,1000,1000,1000,1000,72928317,1590,1590,1588,1587
53321163,1000,1000,1000,1000,73028277,1590,1590,1588,1588
53323662,1000,1000,1000,1000,73128237,1589,1589,1588,1587
53326161,1000,1000,1000,1000,73228197,1587,1593,1595,1581
53328660,1000,1000,1000,1000,73328157,1587,1592,1589,1579
53331159,1000,1000,1000,1000,73428950,1588,1591,1579,1577
53333658,1000,1000,1000,1000,73528910,1589,1589,1568,1573
53336157,1000,1000,1000,1000,73628870,1589,1588,1561,1568
53338656,1000,1000,1000,1000,73728830,1590,1588,1558,1563
53341155,1000,1000,1000,1000,73828790,1589,1588,1557,1558
53343654,1000,1000,1000,1000,73928750,1589,1588,1557,1556
53346153,1000,1000,1000,1000,74028710,1586,1586,1557,1555
53348652,1000,1000,1000,1000,74128670,1584,1585,1557,1555
53351151,1000,1000,1000,1000,74228630,1582,1583,1558,1556
53353650,1000,1000,1000,1000,74328590,1580,1581,1557,1556
53356149,1000,1000,1000,1000,74428550,1578,1580,1556,1556
53358648,1000,1000,1000,1000,74528510,1579,1582,1554,1554
53361147,1000,1000,1000,1000,74628470,1581,1584,1551,1552
53363646,1000,1000,1000,1000,74728430,1585,1588,1547,1548
53366145,1000,1000,1000,1000,74828390,1589,1591,1543,1543
53368644,1000,1000,1000,1000,74928350,1594,1595,1540,1540
53371143,1000,1000,1000,1000,75028310,1599,1599,1540,1539
53373642,1000,1000,1000,1000,75128270,1601,1601,1539,1540
53376141,1000,1000,1000,1000,75228230,1600,1599,1541,1542
53378640,1000,1000,1000,1000,75328190,1599,1597,1545,1547
53381139,1000,1000,1000,1000,75428983,1594,1591,1552,1555
53383638,1000,1000,1000,1000,75528943,1587,1583,1562,1565
53386137,1000,1000,1000,1000,75628903,1577,1574,1572,1575
53388636,1000,1000,1000,1000,75728863,1567,1564,1583,1585
53391135,1000,1000,1000,1000,75828823,1557,1555,1593,1594
53393634,1000,1000,1000,1000,75928783,1549,1546,1601,1602
53396133,1000,1000,1000,1000,76028743,1543,1542,1608,1607
53398632,1000,1000,1000,1000,76128703,1541,1540,1612,1611
53401131,1000,1000,1000,1000,76228663,1542,1542,1613,1612
53403630,1000,1000,1000,1000,76328623,1545,1546,1609,1609
53406129,1000,1000,1000,1000,76428583,1549,1551,1603,1604
53408628,1000,1000,1000,1000,76528543,1557,1558,1597,1598
53411127,1000,1000,1000,1000,76628503,1564,1566,1591,1591
53413626,1000,1000,1000,1000,76728463,1572,1572,1584,1584
53416125,1000,1000,1000,1000,76828423,1578,1578,1579,1579
53418624,1000,1000,1000,1000,76928383,1584,1583,1576,1575
53421123,1000,1000,1000,1000,77028343,1586,1585,1573,1572
53423622,1000,1000,1000,1000,77128303,1588,1587,1573,1572
53426121,1000,1000,1000,1000,77228263,1586,1586,1572,1572
53428620,1000,1000,1000,1000,77328223,1585,1585,1574,1574
53431119,1000,1000,1000,1000,77428183,1583,1583,1577,1577
53433618,1000,1000,1000,1000,77528976,1580,1580,1577,1578
53436117,1000,1000,1000,1000,77628936,1577,1577,1579,1579
53438616,1000,1000,1000,1000,77728896,1575,1574,1581,1581
53441115,1000,1000,1000,1000,77828856,1574,1574,1583,1583
53443614,1000,1000,1000,1000,77928816,1573,1573,1584,1584
53446113,1000,1000,1000,1000,78028776,1572,1573,1584,1583
53448612,1000,1000,1000,1000,78128736,1573,1573,1582,1583
53451111,1000,1000,1000,1000,78228696,1574,1575,1582,1583
53453610,1000,1000,1000,1000,78328656,1575,1576,1581,1581
53456109,1000,1000,1000,1000,78428616,1577,1577,1581,1581
53458608,1000,1000,1000,1000,78528576,1579,1578,1580,1580
53461107,1000,1000,1000,1000,78628536,1580,1580,1579,1579
53463606,1000,1000,1000,1000,78728496,1581,1581,1579,1579
53466105,1000,1000,1000,1000,78828456,1581,1581,1578,1578
53468604,1000,1000,1000,1000,78928416,1581,1581,1578,1578
53471103,1000,1000,1000,1000,79028376,1582,1582,1580,1579
53473602,1000,1000,1000,1000,79128336,1581,1581,1579,1579
53476101,1000,1000,1000,1000,79228296,1580,1579,1578,1578
53478600,1000,1000,1000,1000,79328256,1581,1580,1580,1580
53481099,1000,1000,1000,1000,79428216,1580,1579,1580,1580
53483598,1000,1000,1000,1000,79528176,1579,1579,1580,1580
53486097,1000,1000,1000,1000,79628969,1579,1579,1580,1580
53488596,1000,1000,1000,1000,79728929,1579,1579,1581,1581
53491095,1000,1000,1000,1000,79828889,1579,1579,1580,1580
53493594,1000,1000,1000,1000,79928849,1580,1580,1581,1581
53496093,1000,1000,1000,1000,80028809,1579,1579,1580,1580
53498592,1000,1000,1000,1000,80128769,1580,1579,1580,1580
53501091,1000,1000,1000,1000,80228729,1582,1581,1582,1582
53503590,1000,1000,1000,1000,80328689,1581,1581,1581,1581
53506089,1000,1000,1000,1000,80428649,1580,1581,1580,1580
53508588,1000,1000,1000,1000,80528609,1581,1581,1581,1581
53511087,1000,1000,1000,1000,80628569,1580,1580,1580,1580
53513586,1000,1000,1000,1000,80728529,1581,1582,1585,1577
53516085,1000,1000,1000,1000,80828489,1580,1583,1587,1572
53518584,1000,1000,1000,1000,80928449,1581,1584,1580,1573
53521083,1000,1000,1000,1000,81028409,1581,1583,1570,1572
53523582,1000,1000,1000,1000,81128369,1580,1582,1562,1569
53526081,1000,1000,1000,1000,81228329,1580,1581,1557,1563
53528580,1000,1000,1000,1000,81328289,1581,1580,1554,1558
53531079,1000,1000,1000,1000,81428249,1581,1580,1555,1555
53533578,1000,1000,1000,1000,81528209,1581,1580,1556,1554
53536077,1000,1000,1000,1000,81628169,1580,1580,1557,1554
53538576,1000,1000,1000,1000,81728962,1577,1578,1556,1554
53541075,1000,1000,1000,1000,81828922,1576,1577,1556,1555
53543574,1000,1000,1000,1000,81928882,1575,1576,1554,1555
53546073,1000,1000,1000,1000,82028842,1574,1575,1553,1554
53548572,1000,1000,1000,1000,82128802,1576,1576,1553,1553
53551071,1000,1000,1000,1000,82228762,1576,1577,1550,1551
53553570,1000,1000,1000,1000,82328722,1578,1580,1549,1549
53556069,1000,1000,1000,1000,82428682,1580,1581,1546,1546
53558568,1000,1000,1000,1000,82528642,1584,1584,1544,1544
53561067,1000,1000,1000,1000,82628602,1586,1587,1542,1542
53563566,1000,1000,1000,1000,82728562,1588,1589,1540,1539
53566065,1000,1000,1000,1000,82828522,1590,1591,1538,1538
53568564,1000,1000,1000,1000,82928482,1592,1593,1537,1538
53571063,1000,1000,1000,1000,83028442,1593,1594,1537,1538
53573562,1000,1000,1000,1000,83128402,1593,1593,1538,1540
53576061,1000,1000,1000,1000,83228362,1592,1591,1543,1545
53578560,1000,1000,1000,1000,83328322,1588,1586,1550,1552
53581059,1000,1000,1000,1000,83428282,1581,1578,1558,1560
53583558,1000,1000,1000,1000,83528242,1572,1569,1570,1571
53586057,1000,1000,1000,1000,83628202,1561,1558,1581,1582
53588556,1000,1000,1000,1000,83728162,1550,1547,1592,1592
53591055,1000,1000,1000,1000,83828955,1541,1538,1601,1602
53593554,1000,1000,1000,1000,83928915,1535,1533,1608,1608
53596053,1000,1000,1000,1000,84028875,1532,1533,1611,1612
53598552,1000,1000,1000,1000,84128835,1534,1535,1611,1612
53601051,1000,1000,1000,1000,84228795,1539,1540,1609,1609
53603550,1000,1000,1000,1000,84328755,1545,1546,1602,1603
53606049,1000,1000,1000,1000,84428715,1554,1555,1597,1597
53608548,1000,1000,1000,1000,84528675,1561,1563,1590,1588
53611047,1000,1000,1000,1000,84628635,1570,1571,1584,1582
53613546,1000,1000,1000,1000,84728595,1577,1577,1577,1576
53616045,1000,1000,1000,1000,84828555,1582,1582,1572,1572
53618544,1000,1000,1000,1000,84928515,1585,1586,1571,1570
53621043,1000,1000,1000,1000,85028475,1587,1586,1569,1569
53623542,1000,1000,1000,1000,85128435,1586,1585,1569,1569
53626041,1000,1000,1000,1000,85228395,1586,1585,1572,1572
53628540,1000,1000,1000,1000,85328355,1583,1582,1573,1574
53631039,1000,1000,1000,1000,85428315,1581,1580,1577,1576
53633538,1000,1000,1000,1000,85528275,1577,1577,1578,1578
53636037,1000,1000,1000,1000,85628235,1576,1575,1581,1581
53638536,1000,1000,1000,1000,85728195,1574,1574,1582,1583
53641035,1000,1000,1000,1000,85828155,1572,1572,1582,1583
53643534,1000,1000,1000,1000,85928948,1573,1573,1583,1584
53646033,1000,1000,1000,1000,86028908,1572,1573,1582,1582
53648532,1000,1000,1000,1000,86128868,1574,1574,1582,1582
53651031,1000,1000,1000,1000,86228828,1575,1575,1581,1580
53653530,1000,1000,1000,1000,86328788,1577,1577,1580,1580
53656029,1000,1000,1000,1000,86428748,1578,1578,1579,1579
53658528,1000,1000,1000,1000,86528708,1580,1580,1579,1579
53661027,1000,1000,1000,1000,86628668,1581,1580,1578,1578
53663526,1000,1000,1000,1000,86728628,1581,1581,1578,1578
53666025,1000,1000,1000,1000,86828588,1582,1582,1578,1578
53668524,1000,1000,1000,1000,86928548,1581,1581,1578,1578
53671023,1000,1000,1000,1000,87028508,1582,1581,1579,1579
53673522,1000,1000,1000,1000,87128468,1581,1581,1579,1579
53676021,1000,1000,1000,1000,87228428,1579,1579,1579,1579
53678520,1000,1000,1000,1000,87328388,1580,1580,1580,1580
53681019,1000,1000,1000,1000,87428348,1581,1580,1581,1581
53683518,1000,1000,1000,1000,87528308,1578,1579,1580,1580
53686017,1000,1000,1000,1000,87628268,1579,1580,1581,1582
53688516,1000,1000,1000,1000,87728228,1580,1580,1582,1582
53691015,1000,1000,1000,1000,87828188,1579,1580,1581,1581
53693514,1000,1000,1000,1000,87928981,1580,1579,1580,1580
53696013,1000,1000,1000,1000,88028941,1580,1580,1581,1581
53698512,1000,1000,1000,1000,88128901,1581,1581,1581,1581
53701011,1000,1000,1000,1000,88228861,1580,1580,1580,1580
53703510,1000,1000,1000,1000,88328821,1581,1581,1580,1580
53706009,1000,1000,1000,1000,88428781,1580,1580,1580,1580
53708508,1000,1000,1000,1000,88528741,1581,1581,1580,1580
53711007,1000,1000,1000,1000,88628701,1581,1582,1588,1574
53713506,1000,1000,1000,1000,88728661,1581,1582,1587,1574
53716005,1000,1000,1000,1000,88828621,1578,1578,1578,1575
53718504,1000,1000,1000,1000,88928581,1577,1576,1572,1577
53721003,1000,1000,1000,1000,89028541,1573,1573,1568,1575
53723502,1000,1000,1000,1000,89128501,1569,1569,1565,1571
53726001,1000,1000,1000,1000,89228461,1568,1567,1566,1569
53728500,1000,1000,1000,1000,89328421,1566,1566,1567,1566
53730999,1000,1000,1000,1000,89428381,1566,1566,1568,1566
53733498,1000,1000,1000,1000,89528341,1565,1565,1567,1565
53735997,1000,1000,1000,1000,89628301,1565,1565,1567,1565
53738496,1000,1000,1000,1000,89728261,1563,1564,1565,1565
53740995,1000,1000,1000,1000,89828221,1563,1563,1564,1564
53743494,1000,1000,1000,1000,89928181,1563,1563,1563,1564
53745993,1000,1000,1000,1000,90028974,1563,1562,1563,1563
53748492,1000,1000,1000,1000,90128934,1561,1561,1561,1562
53750991,1000,1000,1000,1000,90228894,1561,1561,1561,1561
53753490,1000,1000,1000,1000,90328854,1562,1562,1562,1561
53755989,1000,1000,1000,1000,90428814,1560,1561,1560,1560
53758488,1000,1000,1000,1000,90528774,1559,1559,1559,1559
53760987,1000,1000,1000,1000,90628734,1557,1557,1557,1556
53763486,1000,1000,1000,1000,90728694,1557,1557,1557,1556
53765985,1000,1000,1000,1000,90828654,1557,1557,1557,1556
53768484,1000,1000,1000,1000,90928614,1556,1556,1556,1556
53770983,1000,1000,1000,1000,91028574,1557,1556,1558,1556
53773482,1000,1000,1000,1000,91128534,1557,1557,1558,1556
53775981,1000,1000,1000,1000,91228494,1557,1558,1559,1556
53778480,1000,1000,1000,1000,91328454,1557,1557,1559,1556
53780979,1000,1000,1000,1000,91428414,1556,1556,1556,1555
53783478,1000,1000,1000,1000,91528374,1557,1556,1553,1559
53785977,1000,1000,1000,1000,91628334,1555,1555,1551,1558
53788476,1000,1000,1000,1000,91728294,1551,1552,1548,1554
53790975,1000,1000,1000,1000,91828254,1547,1547,1546,1549
53793474,1000,1000,1000,1000,91928214,1541,1541,1541,1542
53795973,1000,1000,1000,1000,92028174,1535,1535,1535,1535
53798472,1000,1000,1000,1000,92128967,1527,1527,1527,1527
53800971,1000,1000,1000,1000,92228927,1523,1522,1524,1522
53803470,1000,1000,1000,1000,92328887,1523,1521,1522,1521
53805969,1000,1000,1000,1000,92428847,1523,1521,1522,1522
53808468,1000,1000,1000,1000,92528807,1526,1525,1525,1526
53810967,1000,1000,1000,1000,92628767,1528,1528,1527,1528
53813466,1000,1000,1000,1000,92728727,1533,1533,1532,1533
53815965,1000,1000,1000,1000,92828687,1537,1538,1537,1538
53818464,1000,1000,1000,1000,92928647,1540,1541,1540,1541
53820963,1000,1000,1000,1000,93028607,1542,1543,1542,1543
53823462,1000,1000,1000,1000,93128567,1544,1545,1544,1545
53825961,1000,1000,1000,1000,93228527,1545,1545,1545,1545
53828460,1000,1000,1000,1000,93328487,1545,1545,1545,1545
53830959,1000,1000,1000,1000,93428447,1545,1545,1545,1545
53833458,1000,1000,1000,1000,93528407,1546,1546,1546,1546
53835957,1000,1000,1000,1000,93628367,1546,1546,1546,1546
53838456,1000,1000,1000,1000,93728327,1546,1546,1546,1546
53840955,1000,1000,1000,1000,93828287,1546,1546,1546,1546
53843454,1000,1000,1000,1000,93928247,1545,1545,1545,1545
53845953,1000,1000,1000,1000,94028207,1545,1546,1546,1546
53848452,1000,1000,1000,1000,94128167,1546,1546,1546,1546
53850951,1000,1000,1000,1000,94228960,1545,1544,1545,1545
53853450,1000,1000,1000,1000,94328920,1544,1544,1544,1544
53855949,1000,1000,1000,1000,94428880,1544,1544,1545,1544
53858448,1000,1000,1000,1000,94528840,1544,1543,1544,1543
53860947,1000,1000,1000,1000,94628800,1544,1544,1545,1544
53863446,1000,1000,1000,1000,94728760,1544,1544,1545,1544
53865945,1000,1000,1000,1000,94828720,1544,1545,1544,1544
53868444,1000,1000,1000,1000,94928680,1544,1544,1544,1544
53870943,1000,1000,1000,1000,95028640,1545,1545,1545,1545
53873442,1000,1000,1000,1000,95128600,1544,1544,1544,1544
53875941,1000,1000,1000,1000,95228560,1545,1544,1544,1544
53878440,1000,1000,1000,1000,95328520,1545,1544,1544,1544
53880939,1000,1000,1000,1000,95428480,1543,1544,1543,1544
53883438,1000,1000,1000,1000,95528440,1545,1544,1545,1545
53885937,1000,1000,1000,1000,95628400,1544,1544,1544,1544
53888436,1000,1000,1000,1000,95728360,1544,1544,1545,1544
53890935,1000,1000,1000,1000,95828320,1543,1543,1544,1543
53893434,1000,1000,1000,1000,95928280,1544,1544,1544,1544
53895933,1000,1000,1000,1000,96028240,1543,1544,1544,1544
53898432,1000,1000,1000,1000,96128200,1545,1544,1544,1545
53900931,1000,1000,1000,1000,96228160,1544,1545,1544,1545
53903430,1000,1000,1000,1000,96328953,1544,1544,1544,1544
53905929,1000,1000,1000,1000,96428913,1544,1544,1543,1543
53908428,1000,1000,1000,1000,96528873,1544,1544,1543,1543
53910927,1000,1000,1000,1000,96628833,1544,1544,1545,1544
53913426,1000,1000,1000,1000,96728793,1544,1544,1544,1544
53915925,1000,1000,1000,1000,96828753,1544,1545,1545,1544
53918424,1000,1000,1000,1000,96928713,1545,1544,1544,1544
53920923,1000,1000,1000,1000,97028673,1544,1545,1544,1544
53923422,1000,1000,1000,1000,97128633,1544,1545,1545,1544
53925921,1000,1000,1000,1000,97228593,1544,1545,1545,1544
53928420,1000,1000,1000,1000,97328553,1545,1545,1545,1546
53930919,1000,1000,1000,1000,97428513,1544,1544,1544,1544
53933418,1000,1000,1000,1000,97528473,1544,1545,1544,1545
53935917,1000,1000,1000,1000,97628433,1545,1545,1545,1545
53938416,1000,1000,1000,1000,97728393,1544,1543,1544,1544
53940915,1000,1000,1000,1000,97828353,1544,1545,1545,1544
53943414,1000,1000,1000,1000,97928313,1545,1544,1544,1545
53945913,1000,1000,1000,1000,98028273,1543,1544,1544,1543
53948412,1000,1000,1000,1000,98128233,1544,1544,1544,1544
53950911,1000,1000,1000,1000,98228193,1543,1544,1544,1543
53953410,1000,1000,1000,1000,98328986,1544,1544,1544,1544
53955909,1000,1000,1000,1000,98428946,1544,1544,1544,1544
53958408,1000,1000,1000,1000,98528906,1544,1544,1544,1545
53960907,1000,1000,1000,1000,98628866,1544,1544,1544,1544
53963406,1000,1000,1000,1000,98728826,1544,1544,1544,1544
53965905,1000,1000,1000,1000,98828786,1543,1544,1544,1544
53968404,1000,1000,1000,1000,98928746,1545,1544,1545,1545
53970903,1000,1000,1000,1000,99028706,1544,1544,1544,1544
53973402,1000,1000,1000,1000,99128666,1545,1544,1544,1545
53975901,1000,1000,1000,1000,99228626,1545,1545,1545,1545
53978400,1000,1000,1000,1000,99328586,1546,1545,1545,1545
53980899,1000,1000,1000,1000,99428546,1544,1544,1544,1544
53983398,1000,1000,1000,1000,99528506,1544,1544,1544,1545
53985897,1000,1000,1000,1000,99628466,1544,1544,1544,1544
53988396,1000,1000,1000,1000,99728426,1545,1544,1545,1544
53990895,1000,1000,1000,1000,99828386,1544,1544,1544,1544
53993394,1000,1000,1000,1000,99928346,1543,1543,1543,1543
53995893,1000,1000,1000,1000,100028306,1545,1545,1545,1545
53998392,1000,1000,1000,1000,100128266,1545,1545,1544,1545
54000891,1000,1000,1000,1000,100228226,1544,1544,1544,1543
54003390,1000,1000,1000,1000,100328186,1544,1544,1544,1544
54005889,1000,1000,1000,1000,100428979,1543,1543,1544,1544
54008388,1000,1000,1000,1000,100528939,1544,1544,1544,1544
54010887,1000,1000,1000,1000,100628899,1544,1545,1544,1544
54013386,1000,1000,1000,1000,100728859,1544,1544,1544,1544
54015885,1000,1000,1000,1000,100828819,1544,1544,1544,1544
54018384,1000,1000,1000,1000,100928779,1545,1544,1545,1545
54020883,1000,1000,1000,1000,101028739,1544,1544,1543,1544
54023382,1000,1000,1000,1000,101128699,1544,1544,1544,1544
54025881,1000,1000,1000,1000,101228659,1544,1544,1544,1544
54028380,1000,1000,1000,1000,101328619,1545,1544,1545,1545
54030879,1000,1000,1000,1000,101428579,1544,1544,1544,1544
54033378,1000,1000,1000,1000,101528539,1545,1545,1545,1545
54035877,1000,1000,1000,1000,101628499,1543,1544,1543,1544
54038376,1000,1000,1000,1000,101728459,1544,1544,1544,1544
54040875,1000,1000,1000,1000,101828419,1544,1544,1544,1544
54043374,1000,1000,1000,1000,101928379,1522,1527,1521,1528
54045873,1000,1000,1000,1000,102028339,1326,1388,1326,1388
54048372,1000,1000,1000,1000,102128299,1327,1388,1326,1389
54050871,1000,1000,1000,1000,102228259,1326,1388,1326,1388
54053370,1000,1000,1000,1000,102328219,1327,1373,1326,1373
54055869,1000,1000,1000,1000,102428179,1326,1309,1326,1309
54058368,1000,1000,1000,1000,102528972,1326,1307,1326,1308
54060867,1000,1000,1000,1000,102628932,1342,1296,1326,1308
54063366,1000,1000,1000,1000,102728892,1340,1297,1326,1308
54065865,1000,1000,1000,1000,102828852,1336,1300,1326,1308
54068364,1000,1000,1000,1000,102928812,1335,1300,1326,1308
54070863,1000,1000,1000,1000,103028772,1336,1300,1326,1308
54073362,1000,1000,1000,1000,103128732,1337,1299,1326,1308
54075861,1000,1000,1000,1000,103228692,1337,1299,1326,1308
54078360,1000,1000,1000,1000,103328652,1338,1298,1326,1308
54080859,1000,1000,1000,1000,103428612,1329,1305,1326,1308
54083358,1000,1000,1000,1000,103528572,1331,1304,1326,1308
54085857,1000,1000,1000,1000,103628532,1331,1303,1326,1308
54088356,1000,1000,1000,1000,103728492,1332,1303,1326,1308
54090855,1000,1000,1000,1000,103828452,1332,1303,1326,1308
54093354,1000,1000,1000,1000,103928412,1000,1000,1000,1000
54095853,1000,1000,1000,1000,104028372,1000,1000,1000,1000
54098352,1000,1000,1000,1000,104128332,1000,1000,1000,1000
54100851,1000,1000,1000,1000,104228292,1000,1000,1000,1000
54103350,1000,1000,1000,1000,104328252,1000,1000,1000,1000
54105849,1000,1000,1000,1000,104428212,1000,1000,1000,1000
54108348,1000,1000,1000,1000,104528172,1000,1000,1000,1000
54110847,1000,1000,1000,1000,104628965,1000,1000,1000,1000
54113346,1000,1000,1000,1000,104728925,1000,1000,1000,1000
54115845,1000,1000,1000,1000,104828885,1000,1000,1000,1000
54118344,1000,1000,1000,1000,104928845,1000,1000,1000,1000
54120843,1000,1000,1000,1000,105028805,1000,1000,1000,1000
54123342,1000,1000,1000,1000,105128765,1000,1000,1000,1000
54125841,1000,1000,1000,1000,105228725,1000,1000,1000,1000
54128340,1000,1000,1000,1000,105328685,1000,1000,1000,1000
54130839,1000,1000,1000,1000,105428645,1000,1000,1000,1000
54133338,1000,1000,1000,1000,105528605,1000,1000,1000,1000
54135837,1000,1000,1000,1000,105628565,1000,1000,1000,1000
54138336,1000,1000,1000,1000,105728525,1000,1000,1000,1000
54140835,1000,1000,1000,1000,105828485,1000,1000,1000,1000
54143334,1000,1000,1000,1000,105928445,1000,1000,1000,1000
54145833,1000,1000,1000,1000,106028405,1000,1000,1000,1000
54148332,1000,1000,1000,1000,106128365,1000,1000,1000,1000
54150831,1000,1000,1000,1000,106228325,1000,1000,1000,1000
54153330,1000,1000,1000,1000,106328285,1000,1000,1000,1000
54155829,1000,1000,1000,1000,106428245,1000,1000,1000,1000
54158328,1000,1000,1000,1000,106528205,1000,1000,1000,1000
54160827,1000,1000,1000,1000,106628165,1000,1000,1000,1000
54163326,1000,1000,1000,1000,106728958,1000,1000,1000,1000
54165825,1000,1000,1000,1000,106828918,1000,1000,1000,1000
54168324,1000,1000,1000,1000,106928878,1000,1000,1000,1000
54170823,1000,1000,1000,1000,107028838,1000,1000,1000,1000
54173322,1000,1000,1000,1000,107128798,1000,1000,1000,1000
54175821,1000,1000,1000,1000,107228758,1000,1000,1000,1000
54178320,1000,1000,1000,1000,107328718,1000,1000,1000,1000
54180819,1000,1000,1000,1000,107428678,1000,1000,1000,1000
54183318,1000,1000,1000,1000,107528638,1000,1000,1000,1000
54185817,1000,1000,1000,1000,107628598,1000,1000,1000,1000
54188316,1000,1000,1000,1000,107728558,1000,1000,1000,1000
54190815,1000,1000,1000,1000,107828518,1000,1000,1000,1000
54193314,1000,1000,1000,1000,107928478,1000,1000,1000,1000
54195813,1000,1000,1000,1000,108028438,1000,1000,1000,1000
54198312,1000,1000,1000,1000,108128398,1000,1000,1000,1000
54200811,1000,1000,1000,1000,108228358,1000,1000,1000,1000
54203310,1000,1000,1000,1000,108328318,1000,1000,1000,1000
54205809,1000,1000,1000,1000,108428278,1000,1000,1000,1000
54208308,1000,1000,1000,1000,108528238,1000,1000,1000,1000
54210807,1000,1000,1000,1000,108628198,1000,1000,1000,1000
54213306,1000,1000,1000,1000,108728158,1000,1000,1000,1000
54215805,1000,1000,1000,1000,108828951,1000,1000,1000,1000
54218304,1000,1000,1000,1000,108928911,1000,1000,1000,1000
54220803,1000,1000,1000,1000,109028871,1000,1000,1000,1000
54223302,1000,1000,1000,1000,109128831,1000,1000,1000,1000
54225801,1000,1000,1000,1000,109228791,1000,1000,1000,1000
54228300,1000,1000,1000,1000,109328751,1000,1000,1000,1000
54230799,1000,1000,1000,1000,109428711,1000,1000,1000,1000
54233298,1000,1000,1000,1000,109528671,1000,1000,1000,1000
54235797,1000,1000,1000,1000,109628631,1000,1000,1000,1000
54238296,1000,1000,1000,1000,109728591,1000,1000,1000,1000
54240795,1000,1000,1000,1000,109828551,1000,1000,1000,1000
54243294,1000,1000,1000,1000,109928511,1000,1000,1000,1000
54245793,1000,1000,1000,1000,110028471,1000,1000,1000,1000
54248292,1000,1000,1000,1000,110128431,1000,1000,1000,1000
54250791,1000,1000,1000,1000,110228391,1000,1000,1000,1000
54253290,1000,1000,1000,1000,110328351,1000,1000,1000,1000
54255789,1000,1000,1000,1000,110428311,1000,1000,1000,1000
54258288,1000,1000,1000,1000,110528271,1000,1000,1000,1000
54260787,1000,1000,1000,1000,110628231,1000,1000,1000,1000
54263286,1000,1000,1000,1000,110728191,1000,1000,1000,1000
54265785,1000,1000,1000,1000,110828984,1000,1000,1000,1000
54268284,1000,1000,1000,1000,110928944,1000,1000,1000,1000
54270783,1000,1000,1000,1000,111028904,1000,1000,1000,1000
54273282,1000,1000,1000,1000,111128864,1000,1000,1000,1000
54275781,1000,1000,1000,1000,111228824,1000,1000,1000,1000
54278280,1000,1000,1000,1000,111328784,1000,1000,1000,1000
54280779,1000,1000,1000,1000,111428744,1000,1000,1000,1000
54283278,1000,1000,1000,1000,111528704,1000,1000,1000,1000
54285777,1000,1000,1000,1000,111628664,1000,1000,1000,1000
54288276,1000,1000,1000,1000,111728624,1000,1000,1000,1000
54290775,1000,1000,1000,1000,111828584,1000,1000,1000,1000
54293274,1000,1000,1000,1000,111928544,1000,1000,1000,1000
54295773,1000,1000,1000,1000,112028504,1000,1000,1000,1000
54298272,1000,1000,1000,1000,112128464,1000,1000,1000,1000
54300771,1000,1000,1000,1000,112228424,1000,1000,1000,1000
54303270,1000,1000,1000,1000,112328384,1000,1000,1000,1000
54305769,1000,1000,1000,1000,112428344,1000,1000,1000,1000
54308268,1000,1000,1000,1000,112528304,1000,1000,1000,1000
54310767,1000,1000,1000,1000,112628264,1000,1000,1000,1000
54313266,1000,1000,1000,1000,112728224,1000,1000,1000,1000
54315765,1000,1000,1000,1000,112828184,1000,1000,1000,1000
54318264,1000,1000,1000,1000,112928977,1000,1000,1000,1000
54320763,1000,1000,1000,1000,113028937,1000,1000,1000,1000
54323262,1000,1000,1000,1000,113128897,1000,1000,1000,1000
54325761,1000,1000,1000,1000,113228857,1000,1000,1000,1000
54328260,1000,1000,1000,1000,113328817,1000,1000,1000,1000
54330759,1000,1000,1000,1000,113428777,1000,1000,1000,1000
54333258,1000,1000,1000,1000,113528737,1000,1000,1000,1000
54335757,1000,1000,1000,1000,113628697,1000,1000,1000,1000
54338256,1000,1000,1000,1000,113728657,1000,1000,1000,1000
54340755,1000,1000,1000,1000,113828617,1000,1000,1000,1000
54343254,1000,1000,1000,1000,113928577,1000,1000,1000,1000
54345753,1000,1000,1000,1000,114028537,1000,1000,1000,1000
54348252,1000,1000,1000,1000,114128497,1000,1000,1000,1000
54350751,1000,1000,1000,1000,114228457,1000,1000,1000,1000
54353250,1000,1000,1000,1000,114328417,1000,1000,1000,1000
54355749,1000,1000,1000,1000,114428377,1000,1000,1000,1000
54358248,1000,1000,1000,1000,114528337,1000,1000,1000,1000
54360747,1000,1000,1000,1000,114628297,1000,1000,1000,1000
54363246,1000,1000,1000,1000,114728257,1000,1000,1000,1000
54365745,1000,1000,1000,1000,114828217,1000,1000,1000,1000
54368244,1000,1000,1000,1000,114928177,1000,1000,1000,1000
54370743,1000,1000,1000,1000,115028970,1000,1000,1000,1000
54373242,1000,1000,1000,1000,115128930,1000,1000,1000,1000
54375741,1000,1000,1000,1000,115228890,1000,1000,1000,1000
54378240,1000,1000,1000,1000,115328850,1000,1000,1000,1000
54380739,1000,1000,1000,1000,115428810,1000,1000,1000,1000
54383238,1000,1000,1000,1000,115528770,1000,1000,1000,1000
54385737,1000,1000,1000,1000,115628730,1000,1000,1000,1000
54388236,1000,1000,1000,1000,115728690,1000,1000,1000,1000
54390735,1000,1000,1000,1000,115828650,1000,1000,1000,1000
54393234,1000,1000,1000,1000,115928610,1000,1000,1000,1000
54395733,1000,1000,1000,1000,116028570,1000,1000,1000,1000
54398232,1000,1000,1000,1000,116128530,1000,1000,1000,1000
54400731,1000,1000,1000,1000,116228490,1000,1000,1000,1000
54403230,1000,1000,1000,1000,116328450,1000,1000,1000,1000
54405729,1000,1000,1000,1000,116428410,1000,1000,1000,1000
54408228,1000,1000,1000,1000,116528370,1000,1000,1000,1000
54410727,1000,1000,1000,1000,116628330,1000,1000,1000,1000
54413226,1000,1000,1000,1000,116728290,1000,1000,1000,1000
54415725,1000,1000,1000,1000,116828250,1000,1000,1000,1000
54418224,1000,1000,1000,1000,116928210,1000,1000,1000,1000
54420723,1000,1000,1000,1000,117028170,1000,1000,1000,1000
54423222,1000,1000,1000,1000,117128963,1000,1000,1000,1000
54425721,1000,1000,1000,1000,117228923,1000,1000,1000,1000
54428220,1000,1000,1000,1000,117328883,1000,1000,1000,1000
54430719,1000,1000,1000,1000,117428843,1000,1000,1000,1000
54433218,1000,1000,1000,1000,117528803,1000,1000,1000,1000
54435717,1000,1000,1000,1000,117628763,1000,1000,1000,1000
54438216,1000,1000,1000,1000,117728723,1000,1000,1000,1000
54440715,1000,1000,1000,1000,117828683,1000,1000,1000,1000
54443214,1000,1000,1000,1000,117928643,1000,1000,1000,1000
54445713,1000,1000,1000,1000,118028603,1000,1000,1000,1000
54448212,1000,1000,1000,1000,118128563,1000,1000,1000,1000
54450711,1000,1000,1000,1000,118228523,1000,1000,1000,1000
54453210,1000,1000,1000,1000,118328483,1000,1000,1000,1000
54455709,1000,1000,1000,1000,118428443,1000,1000,1000,1000
54458208,1000,1000,1000,1000,118528403,1000,1000,1000,1000
54460707,1000,1000,1000,1000,118628363,1000,1000,1000,1000
54463206,1000,1000,1000,1000,118728323,1000,1000,1000,1000
54465705,1000,1000,1000,1000,118828283,1000,1000,1000,1000
54468204,1000,1000,1000,1000,,,,,
54470703,1000,1000,1000,1000,,,,,
54473202,1000,1000,1000,1000,,,,,
54475701,1000,1000,1000,1000,,,,,
54478200,1000,1000,1000,1000,,,,,
54480699,1000,1000,1000,1000,,,,,
54483198,1000,1000,1000,1000,,,,,
54485697,1000,1000,1000,1000,,,,,
54488196,1000,1000,1000,1000,,,,,
54490695,1000,1000,1000,1000,,,,,
54493194,1000,1000,1000,1000,,,,,
54495693,1000,1000,1000,1000,,,,,
54498192,1000,1000,1000,1000,,,,,
54500691,1000,1000,1000,1000,,,,,
54503190,1000,1000,1000,1000,,,,,
54505689,1000,1000,1000,1000,,,,,
54508188,1000,1000,1000,1000,,,,,
54510687,1000,1000,1000,1000,,,,,
54513186,1000,1000,1000,1000,,,,,
54515685,1000,1000,1000,1000,,,,,
54518184,1000,1000,1000,1000,,,,,
54520683,1000,1000,1000,1000,,,,,
54523182,1000,1000,1000,1000,,,,,
54525681,1000,1000,1000,1000,,,,,
54528180,1000,1000,1000,1000,,,,,
54530679,1000,1000,1000,1000,,,,,
54533178,1000,1000,1000,1000,,,,,
54535677,1000,1000,1000,1000,,,,,
54538176,1000,1000,1000,1000,,,,,
54540675,1000,1000,1000,1000,,,,,
54543174,1000,1000,1000,1000,,,,,
54545673,1000,1000,1000,1000,,,,,
54548172,1000,1000,1000,1000,,,,,
54550671,1000,1000,1000,1000,,,,,
54553170,1000,1000,1000,1000,,,,,
54555669,1000,1000,1000,1000,,,,,
54558168,1000,1000,1000,1000,,,,,
54560667,1000,1000,1000,1000,,,,,
54563166,1000,1000,1000,1000,,,,,
54565665,1000,1000,1000,1000,,,,,
54568164,1000,1000,1000,1000,,,,,
54570663,1000,1000,1000,1000,,,,,
54573162,1000,1000,1000,1000,,,,,
54575661,1000,1000,1000,1000,,,,,
54578160,1000,1000,1000,1000,,,,,
54580659,1000,1000,1000,1000,,,,,
54583158,1000,1000,1000,1000,,,,,
54585657,1000,1000,1000,1000,,,,,
54588156,1000,1000,1000,1000,,,,,
54590655,1000,1000,1000,1000,,,,,
54593154,1000,1000,1000,1000,,,,,
54596486,1000,1000,1000,1000,,,,,
54598985,1000,1000,1000,1000,,,,,
54601484,1000,1000,1000,1000,,,,,
54603983,1000,1000,1000,1000,,,,,
54606482,1000,1000,1000,1000,,,,,
54608981,1000,1000,1000,1000,,,,,
54611480,1000,1000,1000,1000,,,,,
54613979,1000,1000,1000,1000,,,,,
54616478,1000,1000,1000,1000,,,,,
54618977,1000,1000,1000,1000,,,,,
54621476,1000,1000,1000,1000,,,,,
54623975,1000,1000,1000,1000,,,,,
54626474,1000,1000,1000,1000,,,,,
54628973,1000,1000,1000,1000,,,,,
54631472,1000,1000,1000,1000,,,,,
54633971,1000,1000,1000,1000,,,,,
54636470,1000,1000,1000,1000,,,,,
54638969,1000,1000,1000,1000,,,,,
54641468,1000,1000,1000,1000,,,,,
54643967,1000,1000,1000,1000,,,,,
54646466,1000,1000,1000,1000,,,,,
54648965,1000,1000,1000,1000,,,,,
54651464,1000,1000,1000,1000,,,,,
54653963,1000,1000,1000,1000,,,,,
54656462,1000,1000,1000,1000,,,,,
54658961,1000,1000,1000,1000,,,,,
54661460,1000,1000,1000,1000,,,,,
54663959,1000,1000,1000,1000,,,,,
54666458,1000,1000,1000,1000,,,,,
54668957,1000,1000,1000,1000,,,,,
54671456,1000,1000,1000,1000,,,,,
54673955,1000,1000,1000,1000,,,,,
54676454,1000,1000,1000,1000,,,,,
54678953,1000,1000,1000,1000,,,,,
54681452,1000,1000,1000,1000,,,,,
54683951,1000,1000,1000,1000,,,,,
54686450,1000,1000,1000,1000,,,,,
54688949,1000,1000,1000,1000,,,,,
54691448,1000,1000,1000,1000,,,,,
54693947,1000,1000,1000,1000,,,,,
54696446,1000,1000,1000,1000,,,,,
54698945,1000,1000,1000,1000,,,,,
54701444,1000,1000,1000,1000,,,,,
54703943,1000,1000,1000,1000,,,,,
54706442,1000,1000,1000,1000,,,,,
54708941,1000,1000,1000,1000,,,,,
54711440,1000,1000,1000,1000,,,,,
54713939,1000,1000,1000,1000,,,,,
54716438,1000,1000,1000,1000,,,,,
54718937,1000,1000,1000,1000,,,,,
54721436,1000,1000,1000,1000,,,,,
54723935,1000,1000,1000,1000,,,,,
54726434,1000,1000,1000,1000,,,,,
54728933,1000,1000,1000,1000,,,,,
54731432,1000,1000,1000,1000,,,,,
54733931,1000,1000,1000,1000,,,,,
54736430,1000,1000,1000,1000,,,,,
54738929,1000,1000,1000,1000,,,,,
54741428,1000,1000,1000,1000,,,,,
54743927,1000,1000,1000,1000,,,,,
54746426,1000,1000,1000,1000,,,,,
54748925,1000,1000,1000,1000,,,,,
54751424,1000,1000,1000,1000,,,,,
54753923,1000,1000,1000,1000,,,,,
54756422,1000,1000,1000,1000,,,,,
54758921,1000,1000,1000,1000,,,,,
54761420,1000,1000,1000,1000,,,,,
54763919,1000,1000,1000,1000,,,,,
54766418,1000,1000,1000,1000,,,,,
54768917,1000,1000,1000,1000,,,,,
54771416,1000,1000,1000,1000,,,,,
54773915,1000,1000,1000,1000,,,,,
54776414,1000,1000,1000,1000,,,,,
54778913,1000,1000,1000,1000,,,,,
54781412,1000,1000,1000,1000,,,,,
54783911,1000,1000,1000,1000,,,,,
54786410,1000,1000,1000,1000,,,,,
54788909,1000,1000,1000,1000,,,,,
54791408,1000,1000,1000,1000,,,,,
54793907,1000,1000,1000,1000,,,,,
54796406,1000,1000,1000,1000,,,,,
54798905,1000,1000,1000,1000,,,,,
54801404,1000,1000,1000,1000,,,,,
54803903,1000,1000,1000,1000,,,,,
54806402,1000,1000,1000,1000,,,,,
54808901,1000,1000,1000,1000,,,,,
54811400,1000,1000,1000,1000,,,,,
54813899,1000,1000,1000,1000,,,,,
54816398,1000,1000,1000,1000,,,,,
54818897,1000,1000,1000,1000,,,,,
54821396,1000,1000,1000,1000,,,,,
54823895,1001,1001,1001,1001,,,,,
54826394,1002,1002,1002,1002,,,,,
54828893,1003,1003,1003,1003,,,,,
54831392,1003,1003,1003,1003,,,,,
54833891,1004,1004,1004,1004,,,,,
54836390,1005,1005,1005,1005,,,,,
54838889,1006,1006,1006,1006,,,,,
54841388,1006,1006,1006,1006,,,,,
54843887,1007,1007,1007,1007,,,,,
54846386,1008,1008,1008,1008,,,,,
54848885,1009,1009,1009,1009,,,,,
54851384,1009,1009,1009,1009,,,,,
54853883,1010,1010,1010,1010,,,,,
54856382,1011,1011,1011,1011,,,,,
54858881,1012,1012,1012,1012,,,,,
54861380,1012,1012,1012,1012,,,,,
54863879,1013,1013,1013,1013,,,,,
54866378,1014,1014,1014,1014,,,,,
54868877,1015,1015,1015,1015,,,,,
54871376,1015,1015,1015,1015,,,,,
54873875,1016,1016,1016,1016,,,,,
54876374,1017,1017,1017,1017,,,,,
54878873,1018,1018,1018,1018,,,,,
54881372,1018,1018,1018,1018,,,,,
54883871,1019,1019,1019,1019,,,,,
54886370,1020,1020,1020,1020,,,,,
54888869,1021,1021,1021,1021,,,,,
54891368,1021,1021,1021,1021,,,,,
54893867,1022,1022,1022,1022,,,,,
54896366,1023,1023,1023,1023,,,,,
54898865,1024,1024,1024,1024,,,,,
54901364,1024,1024,1024,1024,,,,,
54903863,1025,1025,1025,1025,,,,,
54906362,1026,1026,1026,1026,,,,,
54908861,1027,1027,1027,1027,,,,,
54911360,1027,1027,1027,1027,,,,,
54913859,1028,1028,1028,1028,,,,,
54916358,1029,1029,1029,1029,,,,,
54918857,1030,1030,1030,1030,,,,,
54921356,1030,1030,1030,1030,,,,,
54923855,1031,1031,1031,1031,,,,,
54926354,1032,1032,1032,1032,,,,,
54928853,1033,1033,1033,1033,,,,,
54931352,1033,1033,1033,1033,,,,,
54933851,1034,1034,1034,1034,,,,,
54936350,1035,1035,1035,1035,,,,,
54938849,1036,1036,1036,1036,,,,,
54941348,1036,1036,1036,1036,,,,,
54943847,1037,1037,1037,1037,,,,,
54946346,1038,1038,1038,1038,,,,,
54948845,1039,1039,1039,1039,,,,,
54951344,1039,1039,1039,1039,,,,,
54953843,1040,1040,1040,1040,,,,,
54956342,1041,1041,1041,1041,,,,,
54958841,1042,1042,1042,1042,,,,,
54961340,1042,1042,1042,1042,,,,,
54963839,1043,1043,1043,1043,,,,,
54966338,1044,1044,1044,1044,,,,,
54968837,1045,1045,1045,1045,,,,,
54971336,1045,1045,1045,1045,,,,,
54973835,1046,1046,1046,1046,,,,,
54976334,1047,1047,1047,1047,,,,,
54978833,1048,1048,1048,1048,,,,,
54981332,1048,1048,1048,1048,,,,,
54983831,1049,1049,1049,1049,,,,,
54986330,1050,1050,1050,1050,,,,,
54988829,1051,1051,1051,1051,,,,,
54991328,1051,1051,1051,1051,,,,,
54993827,1052,1052,1052,1052,,,,,
54996326,1053,1053,1053,1053,,,,,
54998825,1054,1054,1054,1054,,,,,
55001324,1054,1054,1054,1054,,,,,
55003823,1055,1055,1055,1055,,,,,
55006322,1056,1056,1056,1056,,,,,
55008821,1057,1057,1057,1057,,,,,
55011320,1057,1057,1057,1057,,,,,
55013819,1058,1058,1058,1058,,,,,
55016318,1059,1059,1059,1059,,,,,
55018817,1060,1060,1060,1060,,,,,
55021316,1060,1060,1060,1060,,,,,
55023815,1061,1061,1061,1061,,,,,
55026314,1062,1062,1062,1062,,,,,
55028813,1063,1063,1063,1063,,,,,
55031312,1063,1063,1063,1063,,,,,
55033811,1064,1064,1064,1064,,,,,
55036310,1065,1065,1065,1065,,,,,
55038809,1066,1066,1066,1066,,,,,
55041308,1066,1066,1066,1066,,,,,
55043807,1067,1067,1067,1067,,,,,
55046306,1068,1068,1068,1068,,,,,
55048805,1069,1069,1069,1069,,,,,
55051304,1069,1069,1069,1069,,,,,
55053803,1070,1070,1070,1070,,,,,
55056302,1071,1071,1071,1071,,,,,
55058801,1072,1072,1072,1072,,,,,
55061300,1072,1072,1072,1072,,,,,
55063799,1073,1073,1073,1073,,,,,
55066298,1074,1074,1074,1074,,,,,
55068797,1075,1075,1075,1075,,,,,
55071296,1075,1075,1075,1075,,,,,
55073795,1076,1076,1076,1076,,,,,
55076294,1077,1077,1077,1077,,,,,
55078793,1078,1078,1078,1078,,,,,
55081292,1078,1078,1078,1078,,,,,
55083791,1079,1079,1079,1079,,,,,
55086290,1080,1080,1080,1080,,,,,
55088789,1081,1081,1081,1081,,,,,
55091288,1081,1081,1081,1081,,,,,
55093787,1082,1082,1082,1082,,,,,
55096286,1083,1083,1083,1083,,,,,
55098785,1084,1084,1084,1084,,,,,
55101284,1084,1084,1084,1084,,,,,
55103783,1085,1085,1085,1085,,,,,
55106282,1086,1086,1086,1086,,,,,
55108781,1087,1087,1087,1087,,,,,
55111280,1087,1087,1087,1087,,,,,
55113779,1088,1088,1088,1088,,,,,
55116278,1089,1089,1089,1089,,,,,
55118777,1090,1090,1090,1090,,,,,
55121276,1090,1090,1090,1090,,,,,
55123775,1091,1091,1091,1091,,,,,
55126274,1092,1092,1092,1092,,,,,
55128773,1093,1093,1093,1093,,,,,
55131272,1093,1093,1093,1093,,,,,
55133771,1094,1094,1094,1094,,,,,
55136270,1095,1095,1095,1095,,,,,
55138769,1096,1096,1096,1096,,,,,
55141268,1096,1096,1096,1096,,,,,
55143767,1097,1097,1097,1097,,,,,
55146266,1098,1098,1098,1098,,,,,
55148765,1099,1099,1099,1099,,,,,
55151264,1099,1099,1099,1099,,,,,
55153763,1100,1100,1100,1100,,,,,
55156262,1101,1101,1101,1101,,,,,
55158761,1101,1101,1101,1101,,,,,
55161260,1102,1102,1102,1102,,,,,
55163759,1103,1103,1103,1103,,,,,
55166258,1104,1104,1104,1104,,,,,
55168757,1104,1104,1104,1104,,,,,
55171256,1105,1105,1105,1105,,,,,
55173755,1106,1106,1106,1106,,,,,
55176254,1107,1107,1107,1107,,,,,
55178753,1107,1107,1107,1107,,,,,
55181252,1108,1108,1108,1108,,,,,
55183751,1109,1109,1109,1109,,,,,
55186250,1110,1110,1110,1110,,,,,
55188749,1110,1110,1110,1110,,,,,
55191248,1111,1111,1111,1111,,,,,
55193747,1112,1112,1112,1112,,,,,
55196246,1113,1113,1113,1113,,,,,
55198745,1113,1113,1113,1113,,,,,
55201244,1114,1114,1114,1114,,,,,
55203743,1115,1115,1115,1115,,,,,
55206242,1116,1116,1116,1116,,,,,
55208741,1116,1116,1116,1116,,,,,
55211240,1117,1117,1117,1117,,,,,
55213739,1118,1118,1118,1118,,,,,
55216238,1119,1119,1119,1119,,,,,
55218737,1119,1119,1119,1119,,,,,
55221236,1120,1120,1120,1120,,,,,
55223735,1121,1121,1121,1121,,,,,
55226234,1122,1122,1122,1122,,,,,
55228733,1122,1122,1122,1122,,,,,
55231232,1123,1123,1123,1123,,,,,
55233731,1124,1124,1124,1124,,,,,
55236230,1125,1125,1125,1125,,,,,
55238729,1125,1125,1125,1125,,,,,
55241228,1126,1126,1126,1126,,,,,
55243727,1127,1127,1127,1127,,,,,
55246226,1128,1128,1128,1128,,,,,
55248725,1128,1128,1128,1128,,,,,
55251224,1129,1129,1129,1129,,,,,
55253723,1130,1130,1130,1130,,,,,
55256222,1131,1131,1131,1131,,,,,
55258721,1131,1131,1131,1131,,,,,
55261220,1132,1132,1132,1132,,,,,
55263719,1133,1133,1133,1133,,,,,
55266218,1134,1134,1134,1134,,,,,
55268717,1134,1134,1134,1134,,,,,
55271216,1135,1135,1135,1135,,,,,
55273715,1136,1136,1136,1136,,,,,
55276214,1137,1137,1137,1137,,,,,
55278713,1137,1137,1137,1137,,,,,
55281212,1138,1138,1138,1138,,,,,
55283711,1139,1139,1139,1139,,,,,
55286210,1140,1140,1140,1140,,,,,
55288709,1140,1140,1140,1140,,,,,
55291208,1141,1141,1141,1141,,,,,
55293707,1142,1142,1142,1142,,,,,
55296206,1143,1143,1143,1143,,,,,
55298705,1143,1143,1143,1143,,,,,
55301204,1144,1144,1144,1144,,,,,
55303703,1145,1145,1145,1145,,,,,
55306202,1146,1146,1146,1146,,,,,
55308701,1146,1146,1146,1146,,,,,
55311200,1147,1147,1147,1147,,,,,
55313699,1148,1148,1148,1148,,,,,
55316198,1149,1149,1149,1149,,,,,
55318697,1149,1149,1149,1149,,,,,
55321196,1150,1150,1150,1150,,,,,
55323695,1162,1153,1154,1162,,,,,
55326194,1170,1161,1162,1170,,,,,
55328693,1177,1169,1170,1178,,,,,
55331192,1185,1177,1177,1186,,,,,
55333691,1193,1185,1185,1193,,,,,
55336190,1200,1192,1193,1201,,,,,
55338689,1207,1200,1200,1208,,,,,
55341188,1215,1207,1207,1215,,,,,
55343687,1222,1214,1215,1222,,,,,
55346186,1229,1221,1222,1229,,,,,
55348685,1236,1228,1229,1236,,,,,
55351184,1242,1235,1236,1243,,,,,
55353683,1249,1242,1242,1250,,,,,
55356182,1256,1249,1249,1256,,,,,
55358681,1262,1255,1256,1263,,,,,
55361180,1269,1262,1262,1269,,,,,
55363679,1275,1268,1269,1276,,,,,
55366178,1281,1275,1275,1282,,,,,
55368677,1287,1281,1281,1288,,,,,
55371176,1294,1287,1287,1294,,,,,
55373675,1300,1293,1294,1300,,,,,
55376174,1306,1299,1300,1306,,,,,
55378673,1312,1305,1306,1312,,,,,
55381172,1318,1311,1312,1318,,,,,
55383671,1323,1317,1317,1324,,,,,
55386170,1329,1323,1323,1330,,,,,
55388669,1335,1329,1329,1335,,,,,
55391168,1340,1334,1335,1341,,,,,
55393667,1346,1340,1340,1347,,,,,
55396166,1352,1346,1346,1352,,,,,
55398665,1357,1351,1351,1358,,,,,
55401164,1363,1357,1357,1363,,,,,
55403663,1368,1362,1362,1368,,,,,
55406162,1373,1367,1368,1374,,,,,
55408661,1379,1373,1373,1379,,,,,
55411160,1384,1378,1378,1384,,,,,
55413659,1389,1383,1384,1390,,,,,
55416158,1394,1389,1389,1395,,,,,
55418657,1399,1394,1394,1400,,,,,
55421156,1404,1399,1399,1405,,,,,
55423655,1410,1404,1404,1410,,,,,
55426154,1415,1409,1409,1415,,,,,
55428653,1420,1414,1414,1420,,,,,
55431152,1424,1419,1419,1425,,,,,
55433651,1429,1424,1424,1430,,,,,
55436150,1434,1429,1429,1435,,,,,
55438649,1439,1434,1434,1440,,,,,
55441148,1444,1439,1439,1444,,,,,
55443647,1449,1443,1443,1449,,,,,
55446146,1453,1448,1448,1454,,,,,
55448645,1458,1453,1453,1459,,,,,
55451144,1463,1458,1458,1463,,,,,
55453643,1467,1462,1462,1468,,,,,
55456142,1472,1467,1467,1473,,,,,
55458641,1476,1471,1471,1477,,,,,
55461140,1481,1476,1476,1482,,,,,
55463639,1486,1481,1480,1486,,,,,
55466138,1490,1485,1485,1491,,,,,
55468637,1495,1490,1489,1495,,,,,
55471136,1499,1494,1494,1500,,,,,
55473635,1503,1499,1498,1504,,,,,
55476134,1508,1503,1503,1509,,,,,
55478633,1512,1507,1507,1513,,,,,
55481132,1517,1512,1511,1517,,,,,
55483631,1521,1516,1516,1522,,,,,
55486130,1525,1520,1520,1526,,,,,
55488629,1529,1525,1524,1530,,,,,
55491128,1534,1529,1529,1535,,,,,
55493627,1538,1533,1533,1539,,,,,
55496126,1542,1537,1537,1543,,,,,
55498625,1546,1541,1541,1547,,,,,
55501124,1551,1546,1546,1551,,,,,
55503623,1555,1550,1550,1555,,,,,
55506122,1559,1554,1554,1560,,,,,
55508621,1563,1558,1558,1564,,,,,
55511120,1567,1562,1562,1568,,,,,
55513619,1571,1566,1566,1572,,,,,
55516118,1575,1570,1570,1576,,,,,
55518617,1579,1574,1574,1580,,,,,
55521116,1583,1578,1578,1584,,,,,
55523615,1587,1582,1582,1588,,,,,
55526114,1591,1586,1586,1592,,,,,
55528613,1595,1590,1590,1596,,,,,
55531112,1599,1594,1594,1600,,,,,
55533611,1603,1598,1598,1603,,,,,
55536110,1607,1602,1602,1607,,,,,
55538609,1611,1606,1606,1611,,,,,
55541108,1614,1610,1610,1615,,,,,
55543607,1618,1613,1613,1619,,,,,
55546106,1622,1617,1617,1623,,,,,
55548605,1626,1621,1621,1627,,,,,
55551104,1630,1625,1625,1630,,,,,
55553603,1634,1629,1629,1634,,,,,
55556102,1637,1632,1632,1638,,,,,
55558601,1641,1636,1636,1642,,,,,
55561100,1645,1640,1640,1645,,,,,
55563599,1648,1643,1644,1649,,,,,
55566098,1652,1647,1647,1653,,,,,
55568597,1656,1651,1651,1656,,,,,
55571096,1660,1655,1655,1660,,,,,
55573595,1663,1658,1658,1664,,,,,
55576094,1667,1662,1662,1667,,,,,
55578593,1670,1665,1666,1671,,,,,
55581092,1674,1669,1669,1675,,,,,
55583591,1678,1673,1673,1678,,,,,
55586090,1681,1676,1676,1682,,,,,
55588589,1685,1680,1680,1685,,,,,
55591088,1688,1683,1684,1689,,,,,
55593587,1692,1687,1687,1692,,,,,
55596086,1695,1690,1691,1696,,,,,
55598585,1699,1694,1694,1699,,,,,
55601084,1702,1698,1698,1703,,,,,
55603583,1706,1701,1701,1706,,,,,
55606082,1709,1704,1705,1710,,,,,
55608581,1713,1708,1708,1713,,,,,
55611080,1716,1711,1712,1717,,,,,
55613579,1720,1715,1715,1720,,,,,
55616078,1723,1718,1718,1723,,,,,
55618577,1726,1722,1722,1727,,,,,
55621076,1730,1725,1725,1730,,,,,
55623575,1733,1728,1729,1734,,,,,
55626074,1737,1732,1732,1737,,,,,
55628573,1740,1735,1735,1740,,,,,
55631072,1743,1739,1739,1744,,,,,
55633571,1747,1742,1742,1747,,,,,
55636070,1750,1745,1745,1750,,,,,
55638569,1753,1749,1749,1754,,,,,
55641068,1757,1752,1752,1757,,,,,
55643567,1760,1755,1755,1760,,,,,
55646066,1763,1758,1759,1764,,,,,
55648565,1767,1762,1762,1767,,,,,
55651064,1770,1765,1765,1770,,,,,
55653563,1773,1768,1768,1773,,,,,
55656062,1776,1771,1772,1777,,,,,
55658561,1780,1775,1775,1780,,,,,
55661060,1783,1778,1778,1783,,,,,
55663559,1786,1781,1781,1786,,,,,
55666058,1789,1784,1785,1789,,,,,
55668557,1792,1787,1788,1793,,,,,
55671056,1796,1791,1791,1796,,,,,
55673555,1799,1794,1794,1799,,,,,
55676054,1802,1797,1797,1802,,,,,
55678553,1805,1800,1800,1805,,,,,
55681052,1808,1803,1804,1808,,,,,
55683551,1811,1806,1807,1812,,,,,
55686050,1814,1810,1810,1815,,,,,
55688549,1818,1813,1813,1818,,,,,
55691048,1821,1816,1816,1821,,,,,
55693547,1824,1819,1819,1824,,,,,
55696046,1827,1822,1822,1827,,,,,
55698545,1830,1825,1825,1830,,,,,
55701044,1833,1828,1828,1833,,,,,
55703543,1836,1831,1832,1836,,,,,
55706042,1839,1834,1835,1839,,,,,
55708541,1842,1837,1838,1842,,,,,
55711040,1845,1840,1841,1845,,,,,
55713539,1848,1843,1844,1848,,,,,
55716038,1851,1846,1847,1851,,,,,
55718537,1854,1849,1850,1855,,,,,
55721036,1857,1852,1853,1858,,,,,
55723535,1860,1855,1856,1860,,,,,
55726034,1863,1858,1859,1863,,,,,
55728533,1866,1861,1862,1866,,,,,
55731032,1869,1864,1865,1869,,,,,
55733531,1872,1867,1868,1872,,,,,
55736030,1875,1870,1871,1875,,,,,
55738529,1878,1873,1874,1878,,,,,
55741028,1881,1876,1877,1881,,,,,
55743527,1884,1879,1880,1884,,,,,
55746026,1887,1882,1883,1887,,,,,
55748525,1890,1885,1885,1890,,,,,
55751024,1893,1888,1888,1893,,,,,
55753523,1896,1891,1891,1896,,,,,
55756022,1899,1894,1894,1899,,,,,
55758521,1902,1896,1897,1902,,,,,
55761020,1904,1899,1900,1904,,,,,
55763519,1903,1898,1899,1903,,,,,
55766018,1903,1897,1898,1903,,,,,
55768517,1902,1897,1897,1902,,,,,
55771016,1901,1896,1896,1901,,,,,
55773515,1900,1895,1895,1900,,,,,
55776014,1899,1894,1895,1899,,,,,
55778513,1898,1893,1894,1899,,,,,
55781012,1898,1892,1893,1898,,,,,
55783511,1897,1892,1892,1897,,,,,
55786010,1896,1891,1892,1897,,,,,
55788509,1896,1891,1891,1896,,,,,
55791008,1895,1890,1891,1896,,,,,
55793507,1895,1890,1890,1895,,,,,
55796006,1895,1889,1890,1895,,,,,
55798505,1895,1889,1890,1895,,,,,
55801004,1894,1889,1889,1895,,,,,
55803503,1894,1889,1889,1894,,,,,
55806002,1894,1889,1889,1894,,,,,
55808501,1894,1889,1889,1895,,,,,
55811000,1894,1889,1889,1895,,,,,
55813499,1895,1889,1890,1895,,,,,
55815998,1895,1890,1890,1895,,,,,
55818497,1895,1890,1890,1895,,,,,
55820996,1895,1890,1890,1895,,,,,
55823495,1895,1890,1891,1895,,,,,
55825994,1895,1890,1891,1895,,,,,
55828493,1895,1890,1891,1895,,,,,
55830992,1894,1890,1891,1895,,,,,
55833491,1894,1890,1890,1894,,,,,
55835990,1894,1890,1890,1894,,,,,
55838489,1893,1889,1889,1893,,,,,
55840988,1892,1888,1889,1892,,,,,
55843487,1891,1888,1888,1891,,,,,
55845986,1890,1887,1887,1890,,,,,
55848485,1889,1885,1886,1889,,,,,
55850984,1888,1884,1885,1888,,,,,
55853483,1886,1883,1883,1886,,,,,
55855982,1885,1881,1882,1885,,,,,
55858481,1883,1880,1880,1883,,,,,
55860980,1881,1878,1878,1881,,,,,
55863479,1879,1876,1876,1879,,,,,
55865978,1877,1874,1874,1877,,,,,
55868477,1875,1872,1872,1875,,,,,
55870976,1873,1869,1870,1873,,,,,
55873475,1870,1867,1867,1870,,,,,
55875974,1868,1865,1865,1868,,,,,
55878473,1865,1862,1862,1865,,,,,
55880972,1863,1859,1860,1863,,,,,
55883471,1860,1857,1857,1860,,,,,
55885970,1857,1854,1854,1857,,,,,
55888469,1854,1851,1852,1854,,,,,
55890968,1851,1848,1849,1851,,,,,
55893467,1848,1845,1846,1848,,,,,
55895966,1845,1842,1843,1845,,,,,
55898465,1842,1839,1840,1842,,,,,
55900964,1839,1836,1837,1839,,,,,
55903463,1836,1833,1834,1836,,,,,
55905962,1832,1830,1830,1833,,,,,
55908461,1829,1827,1827,1829,,,,,
55910960,1826,1824,1824,1826,,,,,
55913459,1823,1821,1821,1823,,,,,
55915958,1819,1817,1818,1820,,,,,
55918457,1816,1814,1814,1816,,,,,
55920956,1812,1811,1811,1813,,,,,
55923455,1809,1808,1808,1809,,,,,
55925954,1806,1804,1804,1806,,,,,
55928453,1802,1801,1801,1803,,,,,
55930952,1799,1798,1798,1799,,,,,
55933451,1796,1794,1795,1796,,,,,
55935950,1792,1791,1791,1793,,,,,
55938449,1789,1788,1788,1789,,,,,
55940948,1786,1785,1785,1786,,,,,
55943447,1782,1781,1782,1783,,,,,
55945946,1779,1778,1778,1779,,,,,
55948445,1776,1775,1775,1776,,,,,
55950944,1773,1772,1772,1773,,,,,
55953443,1769,1769,1769,1770,,,,,
55955942,1766,1765,1766,1766,,,,,
55958441,1763,1762,1762,1763,,,,,
55960940,1759,1759,1759,1760,,,,,
55963439,1756,1756,1756,1756,,,,,
55965938,1753,1753,1753,1753,,,,,
55968437,1750,1749,1750,1750,,,,,
55970936,1747,1746,1747,1747,,,,,
55973435,1744,1743,1744,1744,,,,,
55975934,1740,1740,1741,1741,,,,,
55978433,1737,1737,1738,1738,,,,,
55980932,1734,1735,1735,1735,,,,,
55983431,1731,1732,1732,1732,,,,,
55985930,1729,1729,1729,1729,,,,,
55988429,1726,1726,1726,1726,,,,,
55990928,1723,1723,1724,1723,,,,,
55993427,1720,1721,1721,1721,,,,,
55995926,1717,1718,1718,1718,,,,,
55998425,1715,1715,1716,1715,,,,,
56000924,1712,1713,1713,1712,,,,,
56003423,1709,1710,1710,1710,,,,,
56005922,1707,1708,1708,1707,,,,,
56008421,1704,1705,1706,1705,,,,,
56010920,1702,1703,1703,1702,,,,,
56013419,1699,1701,1701,1700,,,,,
56015918,1697,1698,1698,1697,,,,,
56018417,1695,1696,1696,1695,,,,,
56020916,1692,1694,1694,1693,,,,,
56023415,1690,1691,1692,1690,,,,,
56025914,1688,1689,1689,1688,,,,,
56028413,1686,1687,1687,1686,,,,,
56030912,1683,1685,1685,1684,,,,,
56033411,1681,1683,1683,1682,,,,,
56035910,1679,1681,1681,1679,,,,,
56038409,1677,1679,1679,1677,,,,,
56040908,1675,1677,1677,1675,,,,,
