TimeUS,M1,M2,M3,M4,TimeUS,C1,C2,C3,C4
65076459,1000,1000,1000,1000,65128938,1000,1000,1000,1000
65078958,1000,1000,1000,1000,65228898,1000,1000,1000,1000
65081457,1000,1000,1000,1000,65328858,1000,1000,1000,1000
65083956,1000,1000,1000,1000,65428818,1000,1000,1000,1000
65086455,1000,1000,1000,1000,65528778,1000,1000,1000,1000
65088954,1000,1000,1000,1000,65628738,1000,1000,1000,1000
65091453,1000,1000,1000,1000,65728698,1000,1000,1000,1000
65093952,1000,1000,1000,1000,65828658,1000,1000,1000,1000
65096451,1000,1000,1000,1000,65928618,1000,1000,1000,1000
65098950,1000,1000,1000,1000,66028578,1000,1000,1000,1000
65101449,1000,1000,1000,1000,66128538,1000,1000,1000,1000
65103948,1000,1000,1000,1000,66228498,1000,1000,1000,1000
65106447,1000,1000,1000,1000,66328458,1000,1000,1000,1000
65108946,1000,1000,1000,1000,66428418,1000,1000,1000,1000
65111445,1000,1000,1000,1000,66528378,1000,1000,1000,1000
65113944,1000,1000,1000,1000,66628338,1000,1000,1000,1000
65116443,1000,1000,1000,1000,66728298,1000,1000,1000,1000
65118942,1000,1000,1000,1000,66828258,1000,1000,1000,1000
65121441,1000,1000,1000,1000,66928218,1000,1000,1000,1000
65123940,1000,1000,1000,1000,67028178,1000,1000,1000,1000
65126439,1000,1000,1000,1000,67128971,1015,1015,1015,1015
65128938,1000,1000,1000,1000,67228931,1045,1045,1045,1045
65131437,1000,1000,1000,1000,67328891,1075,1075,1075,1075
65133936,1000,1000,1000,1000,67428851,1100,1100,1100,1100
65136435,1000,1000,1000,1000,67528811,1100,1100,1100,1100
65138934,1000,1000,1000,1000,67628771,1100,1100,1100,1100
65141433,1000,1000,1000,1000,67728731,1100,1100,1100,1100
65143932,1000,1000,1000,1000,67828691,1100,1100,1100,1100
65146431,1000,1000,1000,1000,67928651,1100,1100,1100,1100
65148930,1000,1000,1000,1000,68028611,1100,1100,1100,1100
65151429,1000,1000,1000,1000,68128571,1100,1100,1100,1100
65153928,1000,1000,1000,1000,68228531,1100,1100,1100,1100
65156427,1000,1000,1000,1000,68328491,1100,1100,1100,1100
65158926,1000,1000,1000,1000,68428451,1100,1100,1100,1100
65161425,1000,1000,1000,1000,68528411,1100,1100,1100,1100
65163924,1000,1000,1000,1000,68628371,1100,1100,1100,1100
65166423,1000,1000,1000,1000,68728331,1100,1100,1100,1100
65168922,1000,1000,1000,1000,68828291,1100,1100,1100,1100
65171421,1000,1000,1000,1000,68928251,1100,1100,1100,1100
65173920,1000,1000,1000,1000,69028211,1100,1100,1100,1100
65176419,1000,1000,1000,1000,69128171,1100,1100,1100,1100
65178918,1000,1000,1000,1000,69228964,1100,1100,1100,1100
65181417,1000,1000,1000,1000,69328924,1100,1100,1100,1100
65183916,1000,1000,1000,1000,69428884,1100,1100,1100,1100
65186415,1000,1000,1000,1000,69528844,1100,1100,1100,1100
65188914,1000,1000,1000,1000,69628804,1100,1100,1100,1100
65191413,1000,1000,1000,1000,69728764,1100,1100,1100,1100
65193912,1000,1000,1000,1000,69828724,1100,1100,1100,1100
65196411,1000,1000,1000,1000,69928684,1100,1100,1100,1100
65198910,1000,1000,1000,1000,70028644,1100,1100,1100,1100
65201409,1000,1000,1000,1000,70128604,1100,1100,1100,1100
65203908,1000,1000,1000,1000,70228564,1100,1100,1100,1100
65206407,1000,1000,1000,1000,70328524,1100,1100,1100,1100
65208906,1000,1000,1000,1000,70428484,1100,1100,1100,1100
65211405,1000,1000,1000,1000,70528444,1100,1100,1100,1100
65213904,1000,1000,1000,1000,70628404,1100,1100,1100,1100
65216403,1000,1000,1000,1000,70728364,1100,1100,1100,1100
65218902,1000,1000,1000,1000,70828324,1100,1100,1100,1100
65221401,1000,1000,1000,1000,70928284,1100,1100,1100,1100
65223900,1000,1000,1000,1000,71028244,1100,1100,1100,1100
65226399,1000,1000,1000,1000,71128204,1100,1100,1100,1100
65228898,1000,1000,1000,1000,71228164,1100,1100,1100,1100
65231397,1000,1000,1000,1000,71328957,1100,1100,1100,1100
65233896,1000,1000,1000,1000,71428917,1100,1100,1100,1100
65236395,1000,1000,1000,1000,71528877,1100,1100,1100,1100
65238894,1000,1000,1000,1000,71628837,1100,1100,1100,1100
65241393,1000,1000,1000,1000,71728797,1116,1116,1116,1116
65243892,1000,1000,1000,1000,71828757,1146,1146,1146,1146
65246391,1000,1000,1000,1000,71928717,1194,1185,1185,1194
65248890,1000,1000,1000,1000,72028677,1224,1215,1215,1225
65251389,1000,1000,1000,1000,72128637,1265,1255,1255,1265
65253888,1000,1000,1000,1000,72228597,1313,1303,1303,1313
65256387,1000,1000,1000,1000,72328557,1361,1351,1351,1362
65258886,1000,1000,1000,1000,72428517,1411,1400,1401,1411
65261385,1000,1000,1000,1000,72528477,1463,1451,1452,1463
65263884,1000,1000,1000,1000,72628437,1515,1504,1505,1515
65266383,1000,1000,1000,1000,72728397,1569,1558,1558,1569
65268882,1000,1000,1000,1000,72828357,1610,1599,1599,1610
65271381,1000,1000,1000,1000,72928317,1641,1629,1629,1642
65273880,1000,1000,1000,1000,73028277,1675,1663,1663,1675
65276379,1000,1000,1000,1000,73128237,1711,1698,1698,1711
65278878,1000,1000,1000,1000,73228197,1747,1734,1734,1747
65281377,1000,1000,1000,1000,73328157,1783,1771,1772,1784
65283876,1000,1000,1000,1000,73428950,1689,1686,1687,1690
65286375,1000,1000,1000,1000,73528910,1573,1575,1575,1573
65288874,1000,1000,1000,1000,73628870,1555,1560,1560,1555
65291373,1000,1000,1000,1000,73728830,1591,1596,1596,1591
65293872,1000,1000,1000,1000,73828790,1626,1629,1629,1626
65296371,1000,1000,1000,1000,73928750,1644,1645,1645,1644
65298870,1000,1000,1000,1000,74028710,1645,1645,1645,1645
65301369,1000,1000,1000,1000,74128670,1642,1639,1639,1642
65303868,1000,1000,1000,1000,74228630,1637,1635,1634,1637
65306367,1000,1000,1000,1000,74328590,1635,1633,1633,1635
65308866,1000,1000,1000,1000,74428550,1634,1633,1633,1634
65311365,1000,1000,1000,1000,74528510,1634,1634,1634,1634
65313864,1000,1000,1000,1000,74628470,1634,1634,1635,1633
65316363,1000,1000,1000,1000,74728430,1634,1635,1635,1634
65318862,1000,1000,1000,1000,74828390,1633,1634,1634,1633
65321361,1000,1000,1000,1000,74928350,1632,1632,1632,1633
65323860,1000,1000,1000,1000,75028310,1632,1632,1631,1632
65326359,1000,1000,1000,1000,75128270,1622,1626,1626,1621
65328858,1000,1000,1000,1000,75228230,1595,1595,1595,1596
65331357,1000,1000,1000,1000,75328190,1583,1581,1581,1583
65333856,1000,1000,1000,1000,75428983,1571,1570,1570,1571
65336355,1000,1000,1000,1000,75528943,1562,1560,1560,1562
65338854,1000,1000,1000,1000,75628903,1551,1551,1550,1551
65341353,1000,1000,1000,1000,75728863,1542,1542,1541,1543
65343852,1000,1000,1000,1000,75828823,1532,1533,1532,1533
65346351,1000,1000,1000,1000,75928783,1523,1523,1523,1524
65348850,1000,1000,1000,1000,76028743,1516,1517,1516,1517
65351349,1000,1000,1000,1000,76128703,1513,1513,1513,1514
65353848,1000,1000,1000,1000,76228663,1511,1510,1510,1511
65356347,1000,1000,1000,1000,76328623,1510,1509,1509,1510
65358846,1000,1000,1000,1000,76428583,1508,1508,1508,1508
65361345,1000,1000,1000,1000,76528543,1508,1508,1507,1508
65363844,1000,1000,1000,1000,76628503,1509,1509,1509,1509
65366343,1000,1000,1000,1000,76728463,1508,1508,1508,1509
65368842,1000,1000,1000,1000,76828423,1509,1509,1509,1509
65371341,1000,1000,1000,1000,76928383,1515,1515,1515,1515
65373840,1000,1000,1000,1000,77028343,1539,1539,1546,1533
65376339,1000,1000,1000,1000,77128303,1549,1549,1553,1545
65378838,1000,1000,1000,1000,77228263,1556,1556,1556,1556
65381337,1000,1000,1000,1000,77328223,1560,1561,1557,1564
65383836,1000,1000,1000,1000,77428183,1563,1563,1559,1568
65386335,1000,1000,1000,1000,77528976,1565,1565,1561,1570
65388834,1000,1000,1000,1000,77628936,1567,1567,1565,1569
65391333,1000,1000,1000,1000,77728896,1569,1569,1570,1569
65393832,1000,1000,1000,1000,77828856,1570,1570,1573,1567
65396331,1000,1000,1000,1000,77928816,1571,1571,1574,1568
65398830,1000,1000,1000,1000,78028776,1571,1571,1573,1569
65401329,1000,1000,1000,1000,78128736,1570,1571,1571,1570
65403828,1000,1000,1000,1000,78228696,1571,1571,1570,1572
65406327,1000,1000,1000,1000,78328656,1567,1566,1573,1577
65408826,1000,1000,1000,1000,78428616,1562,1562,1573,1577
65411325,1000,1000,1000,1000,78528576,1563,1564,1572,1574
65413824,1000,1000,1000,1000,78628536,1566,1567,1571,1572
65416323,1000,1000,1000,1000,78728496,1568,1569,1569,1569
65418822,1000,1000,1000,1000,78828456,1569,1570,1567,1566
65421321,1000,1000,1000,1000,78928416,1572,1572,1567,1566
65423820,1000,1000,1000,1000,79028376,1573,1573,1567,1565
65426319,1000,1000,1000,1000,79128336,1573,1573,1565,1565
65428818,1000,1000,1000,1000,79228296,1574,1573,1566,1567
65431317,1000,1000,1000,1000,79328256,1574,1574,1568,1568
65433816,1000,1000,1000,1000,79428216,1573,1573,1569,1569
65436315,1000,1000,1000,1000,79528176,1573,1573,1571,1571
65438814,1000,1000,1000,1000,79628969,1573,1574,1574,1573
65441313,1000,1000,1000,1000,79728929,1573,1573,1575,1574
65443812,1000,1000,1000,1000,79828889,1574,1574,1577,1575
65446311,1000,1000,1000,1000,79928849,1575,1574,1578,1577
65448810,1000,1000,1000,1000,80028809,1575,1575,1578,1577
65451309,1000,1000,1000,1000,80128769,1575,1575,1578,1578
65453808,1000,1000,1000,1000,80228729,1576,1576,1578,1578
65456307,1000,1000,1000,1000,80328689,1576,1576,1578,1578
65458806,1000,1000,1000,1000,80428649,1576,1576,1577,1577
65461305,1000,1000,1000,1000,80528609,1576,1576,1576,1576
65463804,1000,1000,1000,1000,80628569,1577,1577,1577,1577
65466303,1000,1000,1000,1000,80728529,1578,1577,1577,1577
65468802,1000,1000,1000,1000,80828489,1579,1579,1577,1578
65471301,1000,1000,1000,1000,80928449,1579,1578,1577,1577
65473800,1000,1000,1000,1000,81028409,1579,1579,1578,1578
65476299,1000,1000,1000,1000,81128369,1580,1580,1579,1579
65478798,1000,1000,1000,1000,81228329,1579,1579,1578,1578
65481297,1000,1000,1000,1000,81328289,1579,1579,1579,1579
65483796,1000,1000,1000,1000,81428249,1579,1579,1579,1578
65486295,1000,1000,1000,1000,81528209,1580,1579,1579,1580
65488794,1000,1000,1000,1000,81628169,1579,1579,1580,1579
65491293,1000,1000,1000,1000,81728962,1578,1578,1579,1579
65493792,1000,1000,1000,1000,81828922,1578,1578,1579,1579
65496291,1000,1000,1000,1000,81928882,1578,1578,1579,1579
65498790,1000,1000,1000,1000,82028842,1578,1579,1579,1579
65501289,1000,1000,1000,1000,82128802,1578,1579,1579,1579
65503788,1000,1000,1000,1000,82228762,1579,1579,1580,1579
65506287,1000,1000,1000,1000,82328722,1579,1578,1579,1579
65508786,1000,1000,1000,1000,82428682,1580,1580,1580,1580
65511285,1000,1000,1000,1000,82528642,1580,1580,1580,1580
65513784,1000,1000,1000,1000,82628602,1580,1580,1579,1580
65516283,1000,1000,1000,1000,82728562,1580,1580,1580,1580
65518782,1000,1000,1000,1000,82828522,1580,1580,1580,1580
65521281,1000,1000,1000,1000,82928482,1580,1580,1580,1580
65523780,1000,1000,1000,1000,83028442,1580,1580,1580,1580
65526279,1000,1000,1000,1000,83128402,1580,1580,1580,1580
65528778,1000,1000,1000,1000,83228362,1580,1580,1580,1580
65531277,1000,1000,1000,1000,83328322,1580,1580,1580,1580
65533776,1000,1000,1000,1000,83428282,1579,1580,1579,1580
65536275,1000,1000,1000,1000,83528242,1580,1580,1581,1580
65538774,1000,1000,1000,1000,83628202,1580,1580,1580,1580
65541273,1000,1000,1000,1000,83728162,1580,1580,1580,1580
65543772,1000,1000,1000,1000,83828955,1580,1580,1581,1581
65546271,1000,1000,1000,1000,83928915,1581,1580,1581,1581
65548770,1000,1000,1000,1000,84028875,1580,1580,1580,1580
65551269,1000,1000,1000,1000,84128835,1581,1581,1581,1581
65553768,1000,1000,1000,1000,84228795,1581,1581,1581,1581
65556267,1000,1000,1000,1000,84328755,1581,1581,1581,1581
65558766,1000,1000,1000,1000,84428715,1581,1581,1581,1581
65561265,1000,1000,1000,1000,84528675,1580,1581,1581,1581
65563764,1000,1000,1000,1000,84628635,1581,1582,1588,1574
65566263,1000,1000,1000,1000,84728595,1581,1583,1585,1574
65568762,1000,1000,1000,1000,84828555,1579,1582,1577,1574
65571261,1000,1000,1000,1000,84928515,1578,1581,1569,1573
65573760,1000,1000,1000,1000,85028475,1577,1579,1561,1568
65576259,1000,1000,1000,1000,85128435,1579,1579,1558,1564
65578758,1000,1000,1000,1000,85228395,1580,1579,1556,1559
65581257,1000,1000,1000,1000,85328355,1580,1579,1556,1556
65583756,1000,1000,1000,1000,85428315,1580,1578,1556,1554
65586255,1000,1000,1000,1000,85528275,1578,1577,1555,1553
65588754,1000,1000,1000,1000,85628235,1577,1578,1556,1554
65591253,1000,1000,1000,1000,85728195,1576,1577,1555,1554
65593752,1000,1000,1000,1000,85828155,1576,1577,1555,1554
65596251,1000,1000,1000,1000,85928948,1575,1577,1553,1554
65598750,1000,1000,1000,1000,86028908,1576,1578,1552,1552
65601249,1000,1000,1000,1000,86128868,1577,1579,1550,1551
65603748,1000,1000,1000,1000,86228828,1580,1581,1549,1548
65606247,1000,1000,1000,1000,86328788,1582,1583,1546,1546
65608746,1000,1000,1000,1000,86428748,1584,1585,1542,1542
65611245,1000,1000,1000,1000,86528708,1587,1588,1539,1539
65613744,1000,1000,1000,1000,86628668,1590,1590,1537,1537
65616243,1000,1000,1000,1000,86728628,1593,1593,1536,1536
65618742,1000,1000,1000,1000,86828588,1595,1595,1535,1535
65621241,1000,1000,1000,1000,86928548,1595,1595,1535,1537
65623740,1000,1000,1000,1000,87028508,1593,1593,1535,1538
65626239,1000,1000,1000,1000,87128468,1592,1591,1539,1542
65628738,1000,1000,1000,1000,87228428,1588,1587,1545,1549
65631237,1000,1000,1000,1000,87328388,1582,1578,1553,1556
65633736,1000,1000,1000,1000,87428348,1573,1570,1564,1566
65636235,1000,1000,1000,1000,87528308,1562,1558,1576,1577
65638734,1000,1000,1000,1000,87628268,1551,1548,1588,1589
65641233,1000,1000,1000,1000,87728228,1540,1537,1599,1599
65643732,1000,1000,1000,1000,87828188,1533,1533,1609,1608
65646231,1000,1000,1000,1000,87928981,1528,1529,1614,1613
65648730,1000,1000,1000,1000,88028941,1528,1531,1616,1614
65651229,1000,1000,1000,1000,88128901,1532,1534,1613,1613
65653728,1000,1000,1000,1000,88228861,1537,1539,1608,1608
65656227,1000,1000,1000,1000,88328821,1546,1547,1602,1602
65658726,1000,1000,1000,1000,88428781,1555,1557,1595,1595
65661225,1000,1000,1000,1000,88528741,1564,1564,1587,1587
65663724,1000,1000,1000,1000,88628701,1572,1572,1580,1579
65666223,1000,1000,1000,1000,88728661,1579,1578,1575,1574
65668722,1000,1000,1000,1000,88828621,1584,1582,1570,1569
65671221,1000,1000,1000,1000,88928581,1587,1585,1567,1567
65673720,1000,1000,1000,1000,89028541,1588,1587,1566,1567
65676219,1000,1000,1000,1000,89128501,1588,1586,1567,1567
65678718,1000,1000,1000,1000,89228461,1585,1585,1568,1568
65681217,1000,1000,1000,1000,89328421,1583,1583,1571,1571
65683716,1000,1000,1000,1000,89428381,1580,1580,1574,1574
65686215,1000,1000,1000,1000,89528341,1577,1577,1577,1577
65688714,1000,1000,1000,1000,89628301,1575,1575,1579,1579
65691213,1000,1000,1000,1000,89728261,1573,1574,1581,1582
65693712,1000,1000,1000,1000,89828221,1572,1573,1584,1583
65696211,1000,1000,1000,1000,89928181,1571,1571,1583,1582
65698710,1000,1000,1000,1000,90028974,1572,1572,1583,1583
65701209,1000,1000,1000,1000,90128934,1573,1573,1582,1583
65703708,1000,1000,1000,1000,90228894,1574,1574,1581,1582
65706207,1000,1000,1000,1000,90328854,1708,1608,1712,1613
65708706,1000,1000,1000,1000,90428814,1613,1597,1619,1596
65711205,1000,1000,1000,1000,90528774,1564,1600,1566,1599
65713704,1000,1000,1000,1000,90628734,1547,1597,1543,1593
65716203,1000,1000,1000,1000,90728694,1551,1587,1538,1579
65718702,1000,1000,1000,1000,90828654,1562,1576,1542,1560
65721201,1000,1000,1000,1000,90928614,1572,1567,1547,1547
65723700,1000,1000,1000,1000,91028574,1578,1563,1556,1544
65726199,1000,1000,1000,1000,91128534,1581,1564,1566,1550
65728698,1000,1000,1000,1000,91228494,1578,1567,1574,1561
65731197,1000,1000,1000,1000,91328454,1576,1570,1580,1572
65733696,1000,1000,1000,1000,91428414,1571,1571,1581,1579
65736195,1000,1000,1000,1000,91528374,1571,1573,1584,1585
65738694,1000,1000,1000,1000,91628334,1571,1575,1586,1588
65741193,1000,1000,1000,1000,91728294,1573,1575,1587,1589
65743692,1000,1000,1000,1000,91828254,1576,1577,1588,1589
65746191,1000,1000,1000,1000,91928214,1581,1580,1590,1589
65748690,1000,1000,1000,1000,92028174,1584,1583,1591,1589
65751189,1000,1000,1000,1000,92128967,1586,1585,1590,1588
65753688,1000,1000,1000,1000,92228927,1589,1587,1589,1588
65756187,1000,1000,1000,1000,92328887,1590,1588,1589,1588
65758686,1000,1000,1000,1000,92428847,1590,1590,1588,1588
65761185,1000,1000,1000,1000,92528807,1590,1590,1587,1587
65763684,1000,1000,1000,1000,92628767,1588,1594,1594,1580
65766183,1000,1000,1000,1000,92728727,1587,1593,1589,1578
65768682,1000,1000,1000,1000,92828687,1588,1590,1578,1576
65771181,1000,1000,1000,1000,92928647,1588,1589,1567,1572
65773680,1000,1000,1000,1000,93028607,1589,1588,1561,1567
65776179,1000,1000,1000,1000,93128567,1590,1588,1558,1563
65778678,1000,1000,1000,1000,93228527,1588,1588,1556,1558
65781177,1000,1000,1000,1000,93328487,1588,1588,1557,1556
65783676,1000,1000,1000,1000,93428447,1587,1587,1558,1555
65786175,1000,1000,1000,1000,93528407,1585,1585,1558,1556
65788674,1000,1000,1000,1000,93628367,1582,1583,1557,1556
65791173,1000,1000,1000,1000,93728327,1581,1582,1558,1557
65793672,1000,1000,1000,1000,93828287,1578,1580,1556,1557
65796171,1000,1000,1000,1000,93928247,1578,1580,1555,1556
65798670,1000,1000,1000,1000,94028207,1579,1582,1552,1553
65801169,1000,1000,1000,1000,94128167,1582,1585,1550,1550
65803668,1000,1000,1000,1000,94228960,1586,1589,1546,1545
65806167,1000,1000,1000,1000,94328920,1592,1593,1543,1543
65808666,1000,1000,1000,1000,94428880,1596,1596,1540,1540
65811165,1000,1000,1000,1000,94528840,1600,1599,1539,1540
65813664,1000,1000,1000,1000,94628800,1600,1598,1539,1540
65816163,1000,1000,1000,1000,94728760,1599,1597,1543,1544
65818662,1000,1000,1000,1000,94828720,1595,1592,1549,1551
65821161,1000,1000,1000,1000,94928680,1588,1585,1557,1559
65823660,1000,1000,1000,1000,95028640,1580,1577,1567,1570
65826159,1000,1000,1000,1000,95128600,1570,1566,1577,1579
65828658,1000,1000,1000,1000,95228560,1561,1558,1588,1590
65831157,1000,1000,1000,1000,95328520,1552,1550,1598,1599
65833656,1000,1000,1000,1000,95428480,1545,1544,1605,1605
65836155,1000,1000,1000,1000,95528440,1543,1542,1611,1609
65838654,1000,1000,1000,1000,95628400,1541,1542,1613,1611
65841153,1000,1000,1000,1000,95728360,1543,1545,1611,1611
65843652,1000,1000,1000,1000,95828320,1549,1551,1608,1608
65846151,1000,1000,1000,1000,95928280,1554,1555,1600,1601
65848650,1000,1000,1000,1000,96028240,1562,1562,1594,1594
65851149,1000,1000,1000,1000,96128200,1570,1570,1588,1588
65853648,1000,1000,1000,1000,96228160,1575,1576,1582,1581
65856147,1000,1000,1000,1000,96328953,1580,1580,1576,1576
65858646,1000,1000,1000,1000,96428913,1585,1584,1574,1574
65861145,1000,1000,1000,1000,96528873,1587,1586,1572,1572
65863644,1000,1000,1000,1000,96628833,1586,1586,1572,1571
65866143,1000,1000,1000,1000,96728793,1586,1585,1573,1573
65868642,1000,1000,1000,1000,96828753,1584,1584,1575,1575
65871141,1000,1000,1000,1000,96928713,1582,1581,1577,1577
65873640,1000,1000,1000,1000,97028673,1578,1578,1578,1578
65876139,1000,1000,1000,1000,97128633,1576,1576,1580,1580
65878638,1000,1000,1000,1000,97228593,1575,1575,1583,1583
65881137,1000,1000,1000,1000,97328553,1574,1574,1584,1584
65883636,1000,1000,1000,1000,97428513,1574,1574,1584,1584
65886135,1000,1000,1000,1000,97528473,1574,1574,1584,1584
65888634,1000,1000,1000,1000,97628433,1575,1575,1584,1584
65891133,1000,1000,1000,1000,97728393,1576,1576,1583,1583
65893632,1000,1000,1000,1000,97828353,1577,1577,1582,1582
65896131,1000,1000,1000,1000,97928313,1579,1579,1582,1581
65898630,1000,1000,1000,1000,98028273,1579,1579,1580,1580
65901129,1000,1000,1000,1000,98128233,1580,1580,1579,1579
65903628,1000,1000,1000,1000,98228193,1579,1580,1578,1578
65906127,1000,1000,1000,1000,98328986,1581,1581,1578,1579
65908626,1000,1000,1000,1000,98428946,1580,1581,1578,1578
65911125,1000,1000,1000,1000,98528906,1581,1581,1579,1578
65913624,1000,1000,1000,1000,98628866,1580,1580,1578,1578
65916123,1000,1000,1000,1000,98728826,1581,1580,1580,1579
65918622,1000,1000,1000,1000,98828786,1581,1581,1580,1580
65921121,1000,1000,1000,1000,98928746,1580,1580,1581,1581
65923620,1000,1000,1000,1000,99028706,1580,1580,1581,1581
65926119,1000,1000,1000,1000,99128666,1580,1580,1581,1581
65928618,1000,1000,1000,1000,99228626,1580,1581,1582,1582
65931117,1000,1000,1000,1000,99328586,1579,1579,1581,1581
65933616,1000,1000,1000,1000,99428546,1580,1579,1581,1581
65936115,1000,1000,1000,1000,99528506,1580,1580,1581,1581
65938614,1000,1000,1000,1000,99628466,1579,1580,1580,1580
65941113,1000,1000,1000,1000,99728426,1581,1581,1581,1581
65943612,1000,1000,1000,1000,99828386,1580,1580,1580,1580
65946111,1000,1000,1000,1000,99928346,1580,1580,1580,1579
65948610,1000,1000,1000,1000,100028306,1581,1581,1580,1580
65951109,1000,1000,1000,1000,100128266,1581,1581,1581,1581
65953608,1000,1000,1000,1000,100228226,1581,1582,1586,1575
65956107,1000,1000,1000,1000,100328186,1580,1583,1586,1572
65958606,1000,1000,1000,1000,100428979,1580,1584,1578,1573
65961105,1000,1000,1000,1000,100528939,1579,1582,1567,1571
65963604,1000,1000,1000,1000,100628899,1579,1581,1560,1567
65966103,1000,1000,1000,1000,100728859,1580,1581,1557,1563
65968602,1000,1000,1000,1000,100828819,1582,1580,1555,1558
65971101,1000,1000,1000,1000,100928779,1582,1580,1554,1555
65973600,1000,1000,1000,1000,101028739,1581,1579,1556,1553
65976099,1000,1000,1000,1000,101128699,1579,1579,1556,1553
65978598,1000,1000,1000,1000,101228659,1577,1578,1556,1553
65981097,1000,1000,1000,1000,101328619,1576,1577,1555,1555
65983596,1000,1000,1000,1000,101428579,1575,1577,1555,1555
65986095,1000,1000,1000,1000,101528539,1575,1577,1554,1554
65988594,1000,1000,1000,1000,101628499,1575,1577,1552,1553
65991093,1000,1000,1000,1000,101728459,1577,1578,1551,1551
65993592,1000,1000,1000,1000,101828419,1580,1581,1549,1550
65996091,1000,1000,1000,1000,101928379,1583,1583,1547,1547
65998590,1000,1000,1000,1000,102028339,1585,1586,1545,1544
66001089,1000,1000,1000,1000,102128299,1587,1588,1542,1542
66003588,1000,1000,1000,1000,102228259,1589,1590,1540,1540
66006087,1000,1000,1000,1000,102328219,1592,1592,1540,1540
66008586,1000,1000,1000,1000,102428179,1592,1593,1538,1539
66011085,1000,1000,1000,1000,102528972,1594,1594,1539,1540
66013584,1000,1000,1000,1000,102628932,1593,1593,1540,1542
66016083,1000,1000,1000,1000,102728892,1590,1589,1543,1546
66018582,1000,1000,1000,1000,102828852,1586,1584,1550,1552
66021081,1000,1000,1000,1000,102928812,1580,1577,1560,1562
66023580,1000,1000,1000,1000,103028772,1571,1567,1570,1572
66026079,1000,1000,1000,1000,103128732,1561,1556,1583,1584
66028578,1000,1000,1000,1000,103228692,1549,1546,1593,1594
66031077,1000,1000,1000,1000,103328652,1541,1539,1603,1603
66033576,1000,1000,1000,1000,103428612,1535,1534,1608,1608
66036075,1000,1000,1000,1000,103528572,1533,1533,1612,1611
66038574,1000,1000,1000,1000,103628532,1534,1535,1611,1611
66041073,1000,1000,1000,1000,103728492,1539,1540,1608,1608
66043572,1000,1000,1000,1000,103828452,1546,1547,1602,1603
66046071,1000,1000,1000,1000,103928412,1554,1555,1596,1596
66048570,1000,1000,1000,1000,104028372,1562,1563,1590,1588
66051069,1000,1000,1000,1000,104128332,1570,1571,1583,1582
66053568,1000,1000,1000,1000,104228292,1577,1578,1578,1576
66056067,1000,1000,1000,1000,104328252,1583,1582,1574,1572
66058566,1000,1000,1000,1000,104428212,1586,1585,1571,1570
66061065,1000,1000,1000,1000,104528172,1587,1586,1569,1569
66063564,1000,1000,1000,1000,104628965,1587,1586,1570,1570
66066063,1000,1000,1000,1000,104728925,1586,1585,1572,1572
66068562,1000,1000,1000,1000,104828885,1583,1583,1574,1574
66071061,1000,1000,1000,1000,104928845,1581,1580,1577,1577
66073560,1000,1000,1000,1000,105028805,1577,1577,1578,1578
66076059,1000,1000,1000,1000,105128765,1576,1575,1580,1580
66078558,1000,1000,1000,1000,105228725,1573,1573,1581,1581
66081057,1000,1000,1000,1000,105328685,1573,1573,1583,1583
66083556,1000,1000,1000,1000,105428645,1572,1573,1582,1583
66086055,1000,1000,1000,1000,105528605,1573,1573,1582,1583
66088554,1000,1000,1000,1000,105628565,1575,1574,1582,1582
66091053,1000,1000,1000,1000,105728525,1576,1576,1582,1582
66093552,1000,1000,1000,1000,105828485,1577,1577,1581,1580
66096051,1000,1000,1000,1000,105928445,1577,1578,1579,1579
66098550,1000,1000,1000,1000,106028405,1580,1580,1580,1580
66101049,1000,1000,1000,1000,106128365,1580,1580,1578,1578
66103548,1000,1000,1000,1000,106228325,1582,1581,1579,1578
66106047,1000,1000,1000,1000,106328285,1583,1582,1579,1579
66108546,1000,1000,1000,1000,106428245,1582,1582,1578,1579
66111045,1000,1000,1000,1000,106528205,1580,1581,1578,1578
66113544,1000,1000,1000,1000,106628165,1580,1580,1578,1578
66116043,1000,1000,1000,1000,106728958,1579,1580,1578,1579
66118542,1000,1000,1000,1000,106828918,1581,1580,1580,1580
66121041,1000,1000,1000,1000,106928878,1579,1579,1580,1579
66123540,1000,1000,1000,1000,107028838,1579,1579,1581,1580
66126039,1000,1000,1000,1000,107128798,1580,1579,1581,1581
66128538,1000,1000,1000,1000,107228758,1578,1579,1580,1580
66131037,1000,1000,1000,1000,107328718,1578,1578,1579,1579
66133536,1000,1000,1000,1000,107428678,1578,1579,1580,1580
66136035,1000,1000,1000,1000,107528638,1580,1580,1581,1581
66138534,1000,1000,1000,1000,107628598,1580,1580,1580,1581
66141033,1000,1000,1000,1000,107728558,1581,1581,1581,1581
66143532,1000,1000,1000,1000,107828518,1582,1581,1581,1581
66146031,1000,1000,1000,1000,107928478,1582,1581,1581,1581
66148530,1000,1000,1000,1000,108028438,1581,1582,1581,1580
66151029,1000,1000,1000,1000,108128398,1582,1582,1587,1574
66153528,1000,1000,1000,1000,108228358,1581,1581,1586,1573
66156027,1000,1000,1000,1000,108328318,1578,1578,1578,1574
66158526,1000,1000,1000,1000,108428278,1575,1575,1571,1575
66161025,1000,1000,1000,1000,108528238,1572,1572,1567,1574
66163524,1000,1000,1000,1000,108628198,1570,1569,1566,1572
66166023,1000,1000,1000,1000,108728158,1568,1568,1566,1569
66168522,1000,1000,1000,1000,108828951,1568,1567,1568,1568
66171021,1000,1000,1000,1000,108928911,1567,1566,1568,1567
66173520,1000,1000,1000,1000,109028871,1565,1565,1568,1565
66176019,1000,1000,1000,1000,109128831,1565,1565,1567,1565
66178518,1000,1000,1000,1000,109228791,1564,1564,1566,1565
66181017,1000,1000,1000,1000,109328751,1563,1564,1564,1564
66183516,1000,1000,1000,1000,109428711,1563,1563,1564,1564
66186015,1000,1000,1000,1000,109528671,1563,1563,1563,1563
66188514,1000,1000,1000,1000,109628631,1562,1562,1562,1562
66191013,1000,1000,1000,1000,109728591,1562,1562,1562,1561
66193512,1000,1000,1000,1000,109828551,1561,1561,1561,1560
66196011,1000,1000,1000,1000,109928511,1561,1561,1561,1560
66198510,1000,1000,1000,1000,110028471,1558,1559,1559,1558
66201009,1000,1000,1000,1000,110128431,1558,1558,1558,1557
66203508,1000,1000,1000,1000,110228391,1557,1557,1557,1556
66206007,1000,1000,1000,1000,110328351,1558,1557,1558,1557
66208506,1000,1000,1000,1000,110428311,1559,1558,1559,1557
66211005,1000,1000,1000,1000,110528271,1558,1558,1558,1557
66213504,1000,1000,1000,1000,110628231,1558,1557,1559,1557
66216003,1000,1000,1000,1000,110728191,1558,1558,1559,1557
66218502,1000,1000,1000,1000,110828984,1557,1558,1560,1556
66221001,1000,1000,1000,1000,110928944,1558,1558,1558,1558
66223500,1000,1000,1000,1000,111028904,1560,1560,1556,1562
66225999,1000,1000,1000,1000,111128864,1560,1560,1556,1563
66228498,1000,1000,1000,1000,111228824,1562,1562,1559,1564
66230997,1000,1000,1000,1000,111328784,1562,1561,1559,1563
66233496,1000,1000,1000,1000,111428744,1562,1562,1562,1563
66235995,1000,1000,1000,1000,111528704,1563,1562,1564,1562
66238494,1000,1000,1000,1000,111628664,1561,1562,1564,1560
66240993,1000,1000,1000,1000,111728624,1561,1561,1560,1562
66243492,1000,1000,1000,1000,111828584,1558,1558,1555,1560
66245991,1000,1000,1000,1000,111928544,1553,1553,1551,1555
66248490,1000,1000,1000,1000,112028504,1548,1548,1548,1549
66250989,1000,1000,1000,1000,112128464,1540,1541,1541,1541
66253488,1000,1000,1000,1000,112228424,1534,1534,1535,1533
66255987,1000,1000,1000,1000,112328384,1527,1527,1528,1526
66258486,1000,1000,1000,1000,112428344,1521,1520,1522,1520
66260985,1000,1000,1000,1000,112528304,1519,1518,1518,1518
66263484,1000,1000,1000,1000,112628264,1519,1519,1520,1519
66265983,1000,1000,1000,1000,112728224,1522,1522,1522,1522
66268482,1000,1000,1000,1000,112828184,1525,1524,1525,1525
66270981,1000,1000,1000,1000,112928977,1528,1528,1528,1528
66273480,1000,1000,1000,1000,113028937,1533,1534,1533,1534
66275979,1000,1000,1000,1000,113128897,1538,1538,1538,1538
66278478,1000,1000,1000,1000,113228857,1540,1541,1540,1541
66280977,1000,1000,1000,1000,113328817,1543,1544,1543,1544
66283476,1000,1000,1000,1000,113428777,1544,1545,1544,1544
66285975,1000,1000,1000,1000,113528737,1545,1546,1545,1545
66288474,1000,1000,1000,1000,113628697,1546,1546,1546,1546
66290973,1000,1000,1000,1000,113728657,1547,1546,1547,1546
66293472,1000,1000,1000,1000,113828617,1547,1547,1547,1547
66295971,1000,1000,1000,1000,113928577,1546,1547,1546,1546
66298470,1000,1000,1000,1000,114028537,1546,1546,1546,1546
66300969,1000,1000,1000,1000,114128497,1546,1546,1546,1546
66303468,1000,1000,1000,1000,114228457,1546,1545,1545,1545
66305967,1000,1000,1000,1000,114328417,1546,1546,1546,1545
66308466,1000,1000,1000,1000,114428377,1544,1544,1544,1544
66310965,1000,1000,1000,1000,114528337,1545,1545,1545,1545
66313464,1000,1000,1000,1000,114628297,1544,1545,1544,1544
66315963,1000,1000,1000,1000,114728257,1545,1545,1545,1545
66318462,1000,1000,1000,1000,114828217,1546,1545,1546,1545
66320961,1000,1000,1000,1000,114928177,1545,1545,1545,1545
66323460,1000,1000,1000,1000,115028970,1545,1545,1545,1545
66325959,1000,1000,1000,1000,115128930,1545,1545,1545,1545
66328458,1000,1000,1000,1000,115228890,1544,1545,1545,1545
66330957,1000,1000,1000,1000,115328850,1545,1545,1545,1545
66333456,1000,1000,1000,1000,115428810,1545,1545,1545,1545
66335955,1000,1000,1000,1000,115528770,1544,1543,1543,1544
66338454,1000,1000,1000,1000,115628730,1545,1545,1544,1545
66340953,1000,1000,1000,1000,115728690,1545,1545,1544,1544
66343452,1000,1000,1000,1000,115828650,1545,1544,1544,1544
66345951,1000,1000,1000,1000,115928610,1544,1544,1544,1544
66348450,1000,1000,1000,1000,116028570,1545,1545,1545,1544
66350949,1000,1000,1000,1000,116128530,1544,1544,1544,1545
66353448,1000,1000,1000,1000,116228490,1543,1544,1543,1544
66355947,1000,1000,1000,1000,116328450,1543,1543,1543,1543
66358446,1000,1000,1000,1000,116428410,1544,1544,1544,1544
66360945,1000,1000,1000,1000,116528370,1543,1543,1543,1543
66363444,1000,1000,1000,1000,116628330,1544,1544,1544,1544
66365943,1000,1000,1000,1000,116728290,1545,1545,1545,1544
66368442,1000,1000,1000,1000,116828250,1544,1544,1544,1544
66370941,1000,1000,1000,1000,116928210,1544,1544,1544,1544
66373440,1000,1000,1000,1000,117028170,1544,1544,1544,1544
66375939,1000,1000,1000,1000,117128963,1544,1544,1544,1544
66378438,1000,1000,1000,1000,117228923,1544,1544,1544,1544
66380937,1000,1000,1000,1000,117328883,1543,1543,1543,1543
66383436,1000,1000,1000,1000,117428843,1544,1544,1544,1543
66385935,1000,1000,1000,1000,117528803,1545,1544,1544,1544
66388434,1000,1000,1000,1000,117628763,1545,1545,1545,1545
66390933,1000,1000,1000,1000,117728723,1545,1544,1544,1544
66393432,1000,1000,1000,1000,117828683,1544,1544,1544,1544
66395931,1000,1000,1000,1000,117928643,1545,1545,1545,1545
66398430,1000,1000,1000,1000,118028603,1544,1544,1544,1544
66400929,1000,1000,1000,1000,118128563,1546,1545,1545,1545
66403428,1000,1000,1000,1000,118228523,1544,1544,1544,1544
66405927,1000,1000,1000,1000,118328483,1545,1545,1545,1546
66408426,1000,1000,1000,1000,118428443,1544,1544,1544,1544
66410925,1000,1000,1000,1000,118528403,1544,1544,1544,1544
66413424,1000,1000,1000,1000,118628363,1544,1544,1544,1544
66415923,1000,1000,1000,1000,118728323,1544,1544,1544,1544
66418422,1000,1000,1000,1000,118828283,1544,1545,1545,1544
66420921,1000,1000,1000,1000,118928243,1545,1544,1544,1545
66423420,1000,1000,1000,1000,119028203,1544,1544,1544,1544
66425919,1000,1000,1000,1000,119128163,1545,1545,1545,1545
66428418,1000,1000,1000,1000,119228956,1545,1545,1545,1545
66430917,1000,1000,1000,1000,119328916,1544,1544,1544,1544
66433416,1000,1000,1000,1000,119428876,1544,1544,1544,1544
66435915,1000,1000,1000,1000,119528836,1544,1544,1544,1544
66438414,1000,1000,1000,1000,119628796,1544,1544,1544,1544
66440913,1000,1000,1000,1000,119728756,1544,1544,1544,1544
66443412,1000,1000,1000,1000,119828716,1544,1543,1544,1543
66445911,1000,1000,1000,1000,119928676,1544,1544,1544,1544
66448410,1000,1000,1000,1000,120028636,1543,1544,1544,1544
66450909,1000,1000,1000,1000,120128596,1544,1544,1544,1544
66453408,1000,1000,1000,1000,120228556,1544,1544,1545,1544
66455907,1000,1000,1000,1000,120328516,1545,1544,1545,1545
66458406,1000,1000,1000,1000,120428476,1545,1545,1545,1545
66460905,1000,1000,1000,1000,120528436,1544,1544,1543,1544
66463404,1000,1000,1000,1000,120628396,1543,1544,1543,1544
66465903,1000,1000,1000,1000,120728356,1544,1543,1544,1543
66468402,1000,1000,1000,1000,120828316,1544,1544,1544,1544
66470901,1000,1000,1000,1000,120928276,1545,1545,1545,1545
66473400,1000,1000,1000,1000,121028236,1544,1545,1544,1544
66475899,1000,1000,1000,1000,121128196,1544,1544,1544,1544
66478398,1000,1000,1000,1000,121228156,1543,1544,1543,1544
66480897,1000,1000,1000,1000,121328949,1543,1543,1543,1543
66483396,1000,1000,1000,1000,121428909,1544,1544,1545,1544
66485895,1000,1000,1000,1000,121528869,1544,1544,1544,1544
66488394,1000,1000,1000,1000,121628829,1544,1544,1544,1544
66490893,1000,1000,1000,1000,121728789,1544,1544,1543,1544
66493392,1000,1000,1000,1000,121828749,1544,1544,1544,1544
66495891,1000,1000,1000,1000,121928709,1545,1544,1545,1545
66498390,1000,1000,1000,1000,122028669,1544,1544,1544,1544
66500889,1000,1000,1000,1000,122128629,1545,1544,1544,1544
66503388,1000,1000,1000,1000,122228589,1348,1397,1349,1396
66505887,1000,1000,1000,1000,122328549,1300,1365,1300,1364
66508386,1000,1000,1000,1000,122428509,1300,1365,1301,1365
66510885,1000,1000,1000,1000,122528469,1300,1364,1300,1365
66513384,1000,1000,1000,1000,122628429,1300,1321,1300,1321
66515883,1000,1000,1000,1000,122728389,1300,1295,1300,1295
66518382,1000,1000,1000,1000,122828349,1301,1294,1300,1295
66520881,1000,1000,1000,1000,122928309,1321,1278,1300,1295
66523380,1000,1000,1000,1000,123028269,1313,1284,1300,1295
66525879,1000,1000,1000,1000,123128229,1311,1286,1300,1295
66528378,1000,1000,1000,1000,123228189,1312,1286,1300,1295
66530877,1000,1000,1000,1000,123328982,1313,1285,1300,1295
66533376,1000,1000,1000,1000,123428942,1313,1284,1300,1295
66535875,1000,1000,1000,1000,123528902,1314,1283,1300,1295
66538374,1000,1000,1000,1000,123628862,1302,1293,1300,1295
66540873,1000,1000,1000,1000,123728822,1305,1291,1300,1295
66543372,1000,1000,1000,1000,123828782,1306,1290,1300,1295
66545871,1000,1000,1000,1000,123928742,1306,1290,1300,1295
66548370,1000,1000,1000,1000,124028702,1307,1289,1300,1295
66550869,1000,1000,1000,1000,124128662,1300,1150,1300,1150
66553368,1000,1000,1000,1000,124228622,1000,1000,1000,1000
66555867,1000,1000,1000,1000,124328582,1000,1000,1000,1000
66558366,1000,1000,1000,1000,124428542,1000,1000,1000,1000
66560865,1000,1000,1000,1000,124528502,1000,1000,1000,1000
66563364,1000,1000,1000,1000,124628462,1000,1000,1000,1000
66565863,1000,1000,1000,1000,124728422,1000,1000,1000,1000
66568362,1000,1000,1000,1000,124828382,1000,1000,1000,1000
66570861,1000,1000,1000,1000,124928342,1000,1000,1000,1000
66573360,1000,1000,1000,1000,125028302,1000,1000,1000,1000
66575859,1000,1000,1000,1000,125128262,1000,1000,1000,1000
66578358,1000,1000,1000,1000,125228222,1000,1000,1000,1000
66580857,1000,1000,1000,1000,125328182,1000,1000,1000,1000
66583356,1000,1000,1000,1000,125428975,1000,1000,1000,1000
66585855,1000,1000,1000,1000,125528935,1000,1000,1000,1000
66588354,1000,1000,1000,1000,125628895,1000,1000,1000,1000
66590853,1000,1000,1000,1000,125728855,1000,1000,1000,1000
66593352,1000,1000,1000,1000,125828815,1000,1000,1000,1000
66595851,1000,1000,1000,1000,125928775,1000,1000,1000,1000
66598350,1000,1000,1000,1000,126028735,1000,1000,1000,1000
66600849,1000,1000,1000,1000,126128695,1000,1000,1000,1000
66603348,1000,1000,1000,1000,126228655,1000,1000,1000,1000
66605847,1000,1000,1000,1000,126328615,1000,1000,1000,1000
66608346,1000,1000,1000,1000,126428575,1000,1000,1000,1000
66610845,1000,1000,1000,1000,126528535,1000,1000,1000,1000
66613344,1000,1000,1000,1000,126628495,1000,1000,1000,1000
66615843,1000,1000,1000,1000,126728455,1000,1000,1000,1000
66618342,1000,1000,1000,1000,126828415,1000,1000,1000,1000
66620841,1000,1000,1000,1000,126928375,1000,1000,1000,1000
66623340,1000,1000,1000,1000,127028335,1000,1000,1000,1000
66625839,1000,1000,1000,1000,127128295,1000,1000,1000,1000
66628338,1000,1000,1000,1000,127228255,1000,1000,1000,1000
66630837,1000,1000,1000,1000,127328215,1000,1000,1000,1000
66633336,1000,1000,1000,1000,127428175,1000,1000,1000,1000
66635835,1000,1000,1000,1000,127528968,1000,1000,1000,1000
66638334,1000,1000,1000,1000,127628928,1000,1000,1000,1000
66640833,1000,1000,1000,1000,127728888,1000,1000,1000,1000
66643332,1000,1000,1000,1000,127828848,1000,1000,1000,1000
66645831,1000,1000,1000,1000,127928808,1000,1000,1000,1000
66648330,1000,1000,1000,1000,128028768,1000,1000,1000,1000
66650829,1000,1000,1000,1000,128128728,1000,1000,1000,1000
66653328,1000,1000,1000,1000,128228688,1000,1000,1000,1000
66655827,1000,1000,1000,1000,128328648,1000,1000,1000,1000
66658326,1000,1000,1000,1000,128428608,1000,1000,1000,1000
66660825,1000,1000,1000,1000,128528568,1000,1000,1000,1000
66663324,1000,1000,1000,1000,128628528,1000,1000,1000,1000
66665823,1000,1000,1000,1000,128728488,1000,1000,1000,1000
66668322,1000,1000,1000,1000,128828448,1000,1000,1000,1000
66670821,1000,1000,1000,1000,128928408,1000,1000,1000,1000
66673320,1000,1000,1000,1000,129028368,1000,1000,1000,1000
66675819,1000,1000,1000,1000,129128328,1000,1000,1000,1000
66678318,1000,1000,1000,1000,129228288,1000,1000,1000,1000
66680817,1000,1000,1000,1000,129328248,1000,1000,1000,1000
66683316,1000,1000,1000,1000,129428208,1000,1000,1000,1000
66685815,1000,1000,1000,1000,129528168,1000,1000,1000,1000
66688314,1000,1000,1000,1000,129628961,1000,1000,1000,1000
66690813,1000,1000,1000,1000,129728921,1000,1000,1000,1000
66693312,1000,1000,1000,1000,129828881,1000,1000,1000,1000
66695811,1000,1000,1000,1000,129928841,1000,1000,1000,1000
66698310,1000,1000,1000,1000,130028801,1000,1000,1000,1000
66700809,1000,1000,1000,1000,130128761,1000,1000,1000,1000
66703308,1000,1000,1000,1000,130228721,1000,1000,1000,1000
66705807,1000,1000,1000,1000,130328681,1000,1000,1000,1000
66708306,1000,1000,1000,1000,130428641,1000,1000,1000,1000
66710805,1000,1000,1000,1000,130528601,1000,1000,1000,1000
66713304,1000,1000,1000,1000,130628561,1000,1000,1000,1000
66715803,1000,1000,1000,1000,130728521,1000,1000,1000,1000
66718302,1000,1000,1000,1000,130828481,1000,1000,1000,1000
66720801,1000,1000,1000,1000,130928441,1000,1000,1000,1000
66723300,1000,1000,1000,1000,131028401,1000,1000,1000,1000
66725799,1000,1000,1000,1000,131128361,1000,1000,1000,1000
66728298,1000,1000,1000,1000,131228321,1000,1000,1000,1000
66730797,1000,1000,1000,1000,131328281,1000,1000,1000,1000
66733296,1000,1000,1000,1000,131428241,1000,1000,1000,1000
66735795,1000,1000,1000,1000,131528201,1000,1000,1000,1000
66738294,1000,1000,1000,1000,131628161,1000,1000,1000,1000
66740793,1000,1000,1000,1000,131728954,1000,1000,1000,1000
66743292,1000,1000,1000,1000,131828914,1000,1000,1000,1000
66745791,1000,1000,1000,1000,131928874,1000,1000,1000,1000
66748290,1000,1000,1000,1000,132028834,1000,1000,1000,1000
66750789,1000,1000,1000,1000,132128794,1000,1000,1000,1000
66753288,1000,1000,1000,1000,132228754,1000,1000,1000,1000
66755787,1000,1000,1000,1000,132328714,1000,1000,1000,1000
66758286,1000,1000,1000,1000,132428674,1000,1000,1000,1000
66760785,1000,1000,1000,1000,132528634,1000,1000,1000,1000
66763284,1000,1000,1000,1000,132628594,1000,1000,1000,1000
66765783,1000,1000,1000,1000,132728554,1000,1000,1000,1000
66768282,1000,1000,1000,1000,132828514,1000,1000,1000,1000
66770781,1000,1000,1000,1000,132928474,1000,1000,1000,1000
66773280,1000,1000,1000,1000,133028434,1000,1000,1000,1000
66775779,1000,1000,1000,1000,133128394,1000,1000,1000,1000
66778278,1000,1000,1000,1000,133228354,1000,1000,1000,1000
66780777,1000,1000,1000,1000,133328314,1000,1000,1000,1000
66783276,1000,1000,1000,1000,133428274,1000,1000,1000,1000
66785775,1000,1000,1000,1000,133528234,1000,1000,1000,1000
66788274,1000,1000,1000,1000,133628194,1000,1000,1000,1000
66790773,1000,1000,1000,1000,133728154,1000,1000,1000,1000
66793272,1000,1000,1000,1000,,,,,
66795771,1000,1000,1000,1000,,,,,
66798270,1000,1000,1000,1000,,,,,
66800769,1000,1000,1000,1000,,,,,
66803268,1000,1000,1000,1000,,,,,
66805767,1000,1000,1000,1000,,,,,
66808266,1000,1000,1000,1000,,,,,
66810765,1000,1000,1000,1000,,,,,
66813264,1000,1000,1000,1000,,,,,
66815763,1000,1000,1000,1000,,,,,
66818262,1000,1000,1000,1000,,,,,
66820761,1000,1000,1000,1000,,,,,
66823260,1000,1000,1000,1000,,,,,
66825759,1000,1000,1000,1000,,,,,
66828258,1000,1000,1000,1000,,,,,
66830757,1000,1000,1000,1000,,,,,
66833256,1000,1000,1000,1000,,,,,
66835755,1000,1000,1000,1000,,,,,
66838254,1000,1000,1000,1000,,,,,
66840753,1000,1000,1000,1000,,,,,
66843252,1000,1000,1000,1000,,,,,
66845751,1000,1000,1000,1000,,,,,
66848250,1000,1000,1000,1000,,,,,
66850749,1000,1000,1000,1000,,,,,
66853248,1000,1000,1000,1000,,,,,
66855747,1000,1000,1000,1000,,,,,
66858246,1000,1000,1000,1000,,,,,
66860745,1000,1000,1000,1000,,,,,
66863244,1000,1000,1000,1000,,,,,
66865743,1000,1000,1000,1000,,,,,
66868242,1000,1000,1000,1000,,,,,
66870741,1000,1000,1000,1000,,,,,
66873240,1000,1000,1000,1000,,,,,
66875739,1000,1000,1000,1000,,,,,
66878238,1000,1000,1000,1000,,,,,
66880737,1000,1000,1000,1000,,,,,
66883236,1000,1000,1000,1000,,,,,
66885735,1000,1000,1000,1000,,,,,
66888234,1000,1000,1000,1000,,,,,
66890733,1000,1000,1000,1000,,,,,
66893232,1000,1000,1000,1000,,,,,
66895731,1000,1000,1000,1000,,,,,
66898230,1000,1000,1000,1000,,,,,
66900729,1000,1000,1000,1000,,,,,
66903228,1000,1000,1000,1000,,,,,
66905727,1000,1000,1000,1000,,,,,
66908226,1000,1000,1000,1000,,,,,
66910725,1000,1000,1000,1000,,,,,
66913224,1000,1000,1000,1000,,,,,
66915723,1000,1000,1000,1000,,,,,
66918222,1000,1000,1000,1000,,,,,
66920721,1000,1000,1000,1000,,,,,
66923220,1000,1000,1000,1000,,,,,
66925719,1000,1000,1000,1000,,,,,
66928218,1000,1000,1000,1000,,,,,
66930717,1000,1000,1000,1000,,,,,
66933216,1000,1000,1000,1000,,,,,
66935715,1000,1000,1000,1000,,,,,
66938214,1000,1000,1000,1000,,,,,
66940713,1000,1000,1000,1000,,,,,
66943212,1000,1000,1000,1000,,,,,
66945711,1000,1000,1000,1000,,,,,
66948210,1000,1000,1000,1000,,,,,
66950709,1000,1000,1000,1000,,,,,
66953208,1000,1000,1000,1000,,,,,
66955707,1000,1000,1000,1000,,,,,
66958206,1000,1000,1000,1000,,,,,
66960705,1000,1000,1000,1000,,,,,
66963204,1000,1000,1000,1000,,,,,
66965703,1000,1000,1000,1000,,,,,
66968202,1000,1000,1000,1000,,,,,
66970701,1000,1000,1000,1000,,,,,
66973200,1000,1000,1000,1000,,,,,
66975699,1000,1000,1000,1000,,,,,
66978198,1000,1000,1000,1000,,,,,
66980697,1000,1000,1000,1000,,,,,
66983196,1000,1000,1000,1000,,,,,
66985695,1000,1000,1000,1000,,,,,
66988194,1000,1000,1000,1000,,,,,
66990693,1000,1000,1000,1000,,,,,
66993192,1000,1000,1000,1000,,,,,
66995691,1000,1000,1000,1000,,,,,
66998190,1000,1000,1000,1000,,,,,
67000689,1000,1000,1000,1000,,,,,
67003188,1000,1000,1000,1000,,,,,
67005687,1000,1000,1000,1000,,,,,
67008186,1000,1000,1000,1000,,,,,
67010685,1000,1000,1000,1000,,,,,
67013184,1000,1000,1000,1000,,,,,
67015683,1000,1000,1000,1000,,,,,
67018182,1000,1000,1000,1000,,,,,
67020681,1000,1000,1000,1000,,,,,
67023180,1000,1000,1000,1000,,,,,
67025679,1000,1000,1000,1000,,,,,
67028178,1000,1000,1000,1000,,,,,
67030677,1000,1000,1000,1000,,,,,
67033176,1000,1000,1000,1000,,,,,
67035675,1000,1000,1000,1000,,,,,
67038174,1000,1000,1000,1000,,,,,
67040673,1000,1000,1000,1000,,,,,
67043172,1000,1000,1000,1000,,,,,
67045671,1000,1000,1000,1000,,,,,
67048170,1000,1000,1000,1000,,,,,
67050669,1000,1000,1000,1000,,,,,
67053168,1000,1000,1000,1000,,,,,
67055667,1000,1000,1000,1000,,,,,
67058166,1000,1000,1000,1000,,,,,
67060665,1000,1000,1000,1000,,,,,
67063164,1000,1000,1000,1000,,,,,
67065663,1000,1000,1000,1000,,,,,
67068162,1000,1000,1000,1000,,,,,
67070661,1000,1000,1000,1000,,,,,
67073160,1000,1000,1000,1000,,,,,
67075659,1000,1000,1000,1000,,,,,
67078158,1000,1000,1000,1000,,,,,
67080657,1000,1000,1000,1000,,,,,
67083156,1001,1001,1001,1001,,,,,
67085655,1002,1002,1002,1002,,,,,
67088154,1003,1003,1003,1003,,,,,
67091486,1003,1003,1003,1003,,,,,
67093985,1004,1004,1004,1004,,,,,
67096484,1005,1005,1005,1005,,,,,
67098983,1006,1006,1006,1006,,,,,
67101482,1006,1006,1006,1006,,,,,
67103981,1007,1007,1007,1007,,,,,
67106480,1008,1008,1008,1008,,,,,
67108979,1009,1009,1009,1009,,,,,
67111478,1009,1009,1009,1009,,,,,
67113977,1010,1010,1010,1010,,,,,
67116476,1011,1011,1011,1011,,,,,
67118975,1012,1012,1012,1012,,,,,
67121474,1012,1012,1012,1012,,,,,
67123973,1013,1013,1013,1013,,,,,
67126472,1014,1014,1014,1014,,,,,
67128971,1015,1015,1015,1015,,,,,
67131470,1015,1015,1015,1015,,,,,
67133969,1016,1016,1016,1016,,,,,
67136468,1017,1017,1017,1017,,,,,
67138967,1018,1018,1018,1018,,,,,
67141466,1018,1018,1018,1018,,,,,
67143965,1019,1019,1019,1019,,,,,
67146464,1020,1020,1020,1020,,,,,
67148963,1021,1021,1021,1021,,,,,
67151462,1021,1021,1021,1021,,,,,
67153961,1022,1022,1022,1022,,,,,
67156460,1023,1023,1023,1023,,,,,
67158959,1024,1024,1024,1024,,,,,
67161458,1024,1024,1024,1024,,,,,
67163957,1025,1025,1025,1025,,,,,
67166456,1026,1026,1026,1026,,,,,
67168955,1027,1027,1027,1027,,,,,
67171454,1027,1027,1027,1027,,,,,
67173953,1028,1028,1028,1028,,,,,
67176452,1029,1029,1029,1029,,,,,
67178951,1030,1030,1030,1030,,,,,
67181450,1030,1030,1030,1030,,,,,
67183949,1031,1031,1031,1031,,,,,
67186448,1032,1032,1032,1032,,,,,
67188947,1033,1033,1033,1033,,,,,
67191446,1033,1033,1033,1033,,,,,
67193945,1034,1034,1034,1034,,,,,
67196444,1035,1035,1035,1035,,,,,
67198943,1036,1036,1036,1036,,,,,
67201442,1036,1036,1036,1036,,,,,
67203941,1037,1037,1037,1037,,,,,
67206440,1038,1038,1038,1038,,,,,
67208939,1039,1039,1039,1039,,,,,
67211438,1039,1039,1039,1039,,,,,
67213937,1040,1040,1040,1040,,,,,
67216436,1041,1041,1041,1041,,,,,
67218935,1042,1042,1042,1042,,,,,
67221434,1042,1042,1042,1042,,,,,
67223933,1043,1043,1043,1043,,,,,
67226432,1044,1044,1044,1044,,,,,
67228931,1045,1045,1045,1045,,,,,
67231430,1045,1045,1045,1045,,,,,
67233929,1046,1046,1046,1046,,,,,
67236428,1047,1047,1047,1047,,,,,
67238927,1048,1048,1048,1048,,,,,
67241426,1048,1048,1048,1048,,,,,
67243925,1049,1049,1049,1049,,,,,
67246424,1050,1050,1050,1050,,,,,
67248923,1051,1051,1051,1051,,,,,
67251422,1051,1051,1051,1051,,,,,
67253921,1052,1052,1052,1052,,,,,
67256420,1053,1053,1053,1053,,,,,
67258919,1054,1054,1054,1054,,,,,
67261418,1054,1054,1054,1054,,,,,
67263917,1055,1055,1055,1055,,,,,
67266416,1056,1056,1056,1056,,,,,
67268915,1057,1057,1057,1057,,,,,
67271414,1057,1057,1057,1057,,,,,
67273913,1058,1058,1058,1058,,,,,
67276412,1059,1059,1059,1059,,,,,
67278911,1060,1060,1060,1060,,,,,
67281410,1060,1060,1060,1060,,,,,
67283909,1061,1061,1061,1061,,,,,
67286408,1062,1062,1062,1062,,,,,
67288907,1063,1063,1063,1063,,,,,
67291406,1063,1063,1063,1063,,,,,
67293905,1064,1064,1064,1064,,,,,
67296404,1065,1065,1065,1065,,,,,
67298903,1066,1066,1066,1066,,,,,
67301402,1066,1066,1066,1066,,,,,
67303901,1067,1067,1067,1067,,,,,
67306400,1068,1068,1068,1068,,,,,
67308899,1069,1069,1069,1069,,,,,
67311398,1069,1069,1069,1069,,,,,
67313897,1070,1070,1070,1070,,,,,
67316396,1071,1071,1071,1071,,,,,
67318895,1072,1072,1072,1072,,,,,
67321394,1072,1072,1072,1072,,,,,
67323893,1073,1073,1073,1073,,,,,
67326392,1074,1074,1074,1074,,,,,
67328891,1075,1075,1075,1075,,,,,
67331390,1075,1075,1075,1075,,,,,
67333889,1076,1076,1076,1076,,,,,
67336388,1077,1077,1077,1077,,,,,
67338887,1078,1078,1078,1078,,,,,
67341386,1078,1078,1078,1078,,,,,
67343885,1079,1079,1079,1079,,,,,
67346384,1080,1080,1080,1080,,,,,
67348883,1081,1081,1081,1081,,,,,
67351382,1081,1081,1081,1081,,,,,
67353881,1082,1082,1082,1082,,,,,
67356380,1083,1083,1083,1083,,,,,
67358879,1084,1084,1084,1084,,,,,
67361378,1084,1084,1084,1084,,,,,
67363877,1085,1085,1085,1085,,,,,
67366376,1086,1086,1086,1086,,,,,
67368875,1087,1087,1087,1087,,,,,
67371374,1087,1087,1087,1087,,,,,
67373873,1088,1088,1088,1088,,,,,
67376372,1089,1089,1089,1089,,,,,
67378871,1090,1090,1090,1090,,,,,
67381370,1090,1090,1090,1090,,,,,
67383869,1091,1091,1091,1091,,,,,
67386368,1092,1092,1092,1092,,,,,
67388867,1093,1093,1093,1093,,,,,
67391366,1093,1093,1093,1093,,,,,
67393865,1094,1094,1094,1094,,,,,
67396364,1095,1095,1095,1095,,,,,
67398863,1096,1096,1096,1096,,,,,
67401362,1096,1096,1096,1096,,,,,
67403861,1097,1097,1097,1097,,,,,
67406360,1098,1098,1098,1098,,,,,
67408859,1099,1099,1099,1099,,,,,
67411358,1099,1099,1099,1099,,,,,
67413857,1100,1100,1100,1100,,,,,
67416356,1100,1100,1100,1100,,,,,
67418855,1100,1100,1100,1100,,,,,
67421354,1100,1100,1100,1100,,,,,
67423853,1100,1100,1100,1100,,,,,
67426352,1100,1100,1100,1100,,,,,
67428851,1100,1100,1100,1100,,,,,
67431350,1100,1100,1100,1100,,,,,
67433849,1100,1100,1100,1100,,,,,
67436348,1100,1100,1100,1100,,,,,
67438847,1100,1100,1100,1100,,,,,
67441346,1100,1100,1100,1100,,,,,
67443845,1100,1100,1100,1100,,,,,
67446344,1100,1100,1100,1100,,,,,
67448843,1100,1100,1100,1100,,,,,
67451342,1100,1100,1100,1100,,,,,
67453841,1100,1100,1100,1100,,,,,
67456340,1100,1100,1100,1100,,,,,
67458839,1100,1100,1100,1100,,,,,
67461338,1100,1100,1100,1100,,,,,
67463837,1100,1100,1100,1100,,,,,
67466336,1100,1100,1100,1100,,,,,
67468835,1100,1100,1100,1100,,,,,
67471334,1100,1100,1100,1100,,,,,
67473833,1100,1100,1100,1100,,,,,
67476332,1100,1100,1100,1100,,,,,
67478831,1100,1100,1100,1100,,,,,
67481330,1100,1100,1100,1100,,,,,
67483829,1100,1100,1100,1100,,,,,
67486328,1100,1100,1100,1100,,,,,
67488827,1100,1100,1100,1100,,,,,
67491326,1100,1100,1100,1100,,,,,
67493825,1100,1100,1100,1100,,,,,
67496324,1100,1100,1100,1100,,,,,
67498823,1100,1100,1100,1100,,,,,
67501322,1100,1100,1100,1100,,,,,
67503821,1100,1100,1100,1100,,,,,
67506320,1100,1100,1100,1100,,,,,
67508819,1100,1100,1100,1100,,,,,
67511318,1100,1100,1100,1100,,,,,
67513817,1100,1100,1100,1100,,,,,
67516316,1100,1100,1100,1100,,,,,
67518815,1100,1100,1100,1100,,,,,
67521314,1100,1100,1100,1100,,,,,
67523813,1100,1100,1100,1100,,,,,
67526312,1100,1100,1100,1100,,,,,
67528811,1100,1100,1100,1100,,,,,
67531310,1100,1100,1100,1100,,,,,
67533809,1100,1100,1100,1100,,,,,
67536308,1100,1100,1100,1100,,,,,
67538807,1100,1100,1100,1100,,,,,
67541306,1100,1100,1100,1100,,,,,
67543805,1100,1100,1100,1100,,,,,
67546304,1100,1100,1100,1100,,,,,
67548803,1100,1100,1100,1100,,,,,
67551302,1100,1100,1100,1100,,,,,
67553801,1100,1100,1100,1100,,,,,
67556300,1100,1100,1100,1100,,,,,
67558799,1100,1100,1100,1100,,,,,
67561298,1100,1100,1100,1100,,,,,
67563797,1100,1100,1100,1100,,,,,
67566296,1100,1100,1100,1100,,,,,
67568795,1100,1100,1100,1100,,,,,
67571294,1100,1100,1100,1100,,,,,
67573793,1100,1100,1100,1100,,,,,
67576292,1100,1100,1100,1100,,,,,
67578791,1100,1100,1100,1100,,,,,
67581290,1100,1100,1100,1100,,,,,
67583789,1100,1100,1100,1100,,,,,
67586288,1100,1100,1100,1100,,,,,
67588787,1100,1100,1100,1100,,,,,
67591286,1100,1100,1100,1100,,,,,
67593785,1100,1100,1100,1100,,,,,
67596284,1100,1100,1100,1100,,,,,
67598783,1100,1100,1100,1100,,,,,
67601282,1100,1100,1100,1100,,,,,
67603781,1100,1100,1100,1100,,,,,
67606280,1100,1100,1100,1100,,,,,
67608779,1100,1100,1100,1100,,,,,
67611278,1100,1100,1100,1100,,,,,
67613777,1100,1100,1100,1100,,,,,
67616276,1100,1100,1100,1100,,,,,
67618775,1100,1100,1100,1100,,,,,
67621274,1100,1100,1100,1100,,,,,
67623773,1100,1100,1100,1100,,,,,
67626272,1100,1100,1100,1100,,,,,
67628771,1100,1100,1100,1100,,,,,
67631270,1100,1100,1100,1100,,,,,
67633769,1100,1100,1100,1100,,,,,
67636268,1100,1100,1100,1100,,,,,
67638767,1100,1100,1100,1100,,,,,
67641266,1100,1100,1100,1100,,,,,
67643765,1100,1100,1100,1100,,,,,
67646264,1100,1100,1100,1100,,,,,
67648763,1100,1100,1100,1100,,,,,
67651262,1100,1100,1100,1100,,,,,
67653761,1100,1100,1100,1100,,,,,
67656260,1100,1100,1100,1100,,,,,
67658759,1100,1100,1100,1100,,,,,
67661258,1100,1100,1100,1100,,,,,
67663757,1100,1100,1100,1100,,,,,
67666256,1100,1100,1100,1100,,,,,
67668755,1100,1100,1100,1100,,,,,
67671254,1100,1100,1100,1100,,,,,
67673753,1100,1100,1100,1100,,,,,
67676252,1100,1100,1100,1100,,,,,
67678751,1100,1100,1100,1100,,,,,
67681250,1100,1100,1100,1100,,,,,
67683749,1100,1100,1100,1100,,,,,
67686248,1100,1100,1100,1100,,,,,
67688747,1100,1100,1100,1100,,,,,
67691246,1100,1100,1100,1100,,,,,
67693745,1100,1100,1100,1100,,,,,
67696244,1100,1100,1100,1100,,,,,
67698743,1100,1100,1100,1100,,,,,
67701242,1100,1100,1100,1100,,,,,
67703741,1100,1100,1100,1100,,,,,
67706240,1100,1100,1100,1100,,,,,
67708739,1100,1100,1100,1100,,,,,
67711238,1100,1100,1100,1100,,,,,
67713737,1100,1100,1100,1100,,,,,
67716236,1100,1100,1100,1100,,,,,
67718735,1100,1100,1100,1100,,,,,
67721234,1100,1100,1100,1100,,,,,
67723733,1100,1100,1100,1100,,,,,
67726232,1100,1100,1100,1100,,,,,
67728731,1100,1100,1100,1100,,,,,
67731230,1100,1100,1100,1100,,,,,
67733729,1100,1100,1100,1100,,,,,
67736228,1100,1100,1100,1100,,,,,
67738727,1100,1100,1100,1100,,,,,
67741226,1100,1100,1100,1100,,,,,
67743725,1100,1100,1100,1100,,,,,
67746224,1100,1100,1100,1100,,,,,
67748723,1100,1100,1100,1100,,,,,
67751222,1100,1100,1100,1100,,,,,
67753721,1100,1100,1100,1100,,,,,
67756220,1100,1100,1100,1100,,,,,
67758719,1100,1100,1100,1100,,,,,
67761218,1100,1100,1100,1100,,,,,
67763717,1100,1100,1100,1100,,,,,
67766216,1100,1100,1100,1100,,,,,
67768715,1100,1100,1100,1100,,,,,
67771214,1100,1100,1100,1100,,,,,
67773713,1100,1100,1100,1100,,,,,
67776212,1100,1100,1100,1100,,,,,
67778711,1100,1100,1100,1100,,,,,
67781210,1100,1100,1100,1100,,,,,
67783709,1100,1100,1100,1100,,,,,
67786208,1100,1100,1100,1100,,,,,
67788707,1100,1100,1100,1100,,,,,
67791206,1100,1100,1100,1100,,,,,
67793705,1100,1100,1100,1100,,,,,
67796204,1100,1100,1100,1100,,,,,
67798703,1100,1100,1100,1100,,,,,
67801202,1100,1100,1100,1100,,,,,
67803701,1100,1100,1100,1100,,,,,
67806200,1100,1100,1100,1100,,,,,
67808699,1100,1100,1100,1100,,,,,
67811198,1100,1100,1100,1100,,,,,
67813697,1100,1100,1100,1100,,,,,
67816196,1100,1100,1100,1100,,,,,
67818695,1100,1100,1100,1100,,,,,
67821194,1100,1100,1100,1100,,,,,
67823693,1100,1100,1100,1100,,,,,
67826192,1100,1100,1100,1100,,,,,
67828691,1100,1100,1100,1100,,,,,
67831190,1100,1100,1100,1100,,,,,
67833689,1100,1100,1100,1100,,,,,
67836188,1100,1100,1100,1100,,,,,
67838687,1100,1100,1100,1100,,,,,
67841186,1100,1100,1100,1100,,,,,
67843685,1100,1100,1100,1100,,,,,
67846184,1100,1100,1100,1100,,,,,
67848683,1100,1100,1100,1100,,,,,
67851182,1100,1100,1100,1100,,,,,
67853681,1100,1100,1100,1100,,,,,
67856180,1100,1100,1100,1100,,,,,
67858679,1100,1100,1100,1100,,,,,
67861178,1100,1100,1100,1100,,,,,
67863677,1100,1100,1100,1100,,,,,
67866176,1100,1100,1100,1100,,,,,
67868675,1100,1100,1100,1100,,,,,
67871174,1100,1100,1100,1100,,,,,
67873673,1100,1100,1100,1100,,,,,
67876172,1100,1100,1100,1100,,,,,
67878671,1100,1100,1100,1100,,,,,
67881170,1100,1100,1100,1100,,,,,
67883669,1100,1100,1100,1100,,,,,
67886168,1100,1100,1100,1100,,,,,
67888667,1100,1100,1100,1100,,,,,
67891166,1100,1100,1100,1100,,,,,
67893665,1100,1100,1100,1100,,,,,
67896164,1100,1100,1100,1100,,,,,
67898663,1100,1100,1100,1100,,,,,
67901162,1100,1100,1100,1100,,,,,
67903661,1100,1100,1100,1100,,,,,
67906160,1100,1100,1100,1100,,,,,
67908659,1100,1100,1100,1100,,,,,
67911158,1100,1100,1100,1100,,,,,
67913657,1100,1100,1100,1100,,,,,
67916156,1100,1100,1100,1100,,,,,
67918655,1100,1100,1100,1100,,,,,
67921154,1100,1100,1100,1100,,,,,
67923653,1100,1100,1100,1100,,,,,
67926152,1100,1100,1100,1100,,,,,
67928651,1100,1100,1100,1100,,,,,
67931150,1100,1100,1100,1100,,,,,
67933649,1100,1100,1100,1100,,,,,
67936148,1100,1100,1100,1100,,,,,
67938647,1100,1100,1100,1100,,,,,
67941146,1100,1100,1100,1100,,,,,
67943645,1100,1100,1100,1100,,,,,
67946144,1100,1100,1100,1100,,,,,
67948643,1100,1100,1100,1100,,,,,
67951142,1100,1100,1100,1100,,,,,
67953641,1100,1100,1100,1100,,,,,
67956140,1100,1100,1100,1100,,,,,
67958639,1100,1100,1100,1100,,,,,
67961138,1100,1100,1100,1100,,,,,
67963637,1100,1100,1100,1100,,,,,
67966136,1100,1100,1100,1100,,,,,
67968635,1100,1100,1100,1100,,,,,
67971134,1100,1100,1100,1100,,,,,
67973633,1100,1100,1100,1100,,,,,
67976132,1100,1100,1100,1100,,,,,
67978631,1100,1100,1100,1100,,,,,
67981130,1100,1100,1100,1100,,,,,
67983629,1100,1100,1100,1100,,,,,
67986128,1100,1100,1100,1100,,,,,
67988627,1100,1100,1100,1100,,,,,
67991126,1100,1100,1100,1100,,,,,
67993625,1100,1100,1100,1100,,,,,
67996124,1100,1100,1100,1100,,,,,
67998623,1100,1100,1100,1100,,,,,
68001122,1100,1100,1100,1100,,,,,
68003621,1100,1100,1100,1100,,,,,
68006120,1100,1100,1100,1100,,,,,
68008619,1100,1100,1100,1100,,,,,
68011118,1100,1100,1100,1100,,,,,
68013617,1100,1100,1100,1100,,,,,
68016116,1100,1100,1100,1100,,,,,
68018615,1100,1100,1100,1100,,,,,
68021114,1100,1100,1100,1100,,,,,
68023613,1100,1100,1100,1100,,,,,
68026112,1100,1100,1100,1100,,,,,
68028611,1100,1100,1100,1100,,,,,
68031110,1100,1100,1100,1100,,,,,
68033609,1100,1100,1100,1100,,,,,
68036108,1100,1100,1100,1100,,,,,
68038607,1100,1100,1100,1100,,,,,
68041106,1100,1100,1100,1100,,,,,
68043605,1100,1100,1100,1100,,,,,
68046104,1100,1100,1100,1100,,,,,
68048603,1100,1100,1100,1100,,,,,
68051102,1100,1100,1100,1100,,,,,
68053601,1100,1100,1100,1100,,,,,
68056100,1100,1100,1100,1100,,,,,
68058599,1100,1100,1100,1100,,,,,
68061098,1100,1100,1100,1100,,,,,
68063597,1100,1100,1100,1100,,,,,
68066096,1100,1100,1100,1100,,,,,
68068595,1100,1100,1100,1100,,,,,
68071094,1100,1100,1100,1100,,,,,
68073593,1100,1100,1100,1100,,,,,
68076092,1100,1100,1100,1100,,,,,
68078591,1100,1100,1100,1100,,,,,
68081090,1100,1100,1100,1100,,,,,
68083589,1100,1100,1100,1100,,,,,
68086088,1100,1100,1100,1100,,,,,
68088587,1100,1100,1100,1100,,,,,
68091086,1100,1100,1100,1100,,,,,
68093585,1100,1100,1100,1100,,,,,
68096084,1100,1100,1100,1100,,,,,
68098583,1100,1100,1100,1100,,,,,
68101082,1100,1100,1100,1100,,,,,
68103581,1100,1100,1100,1100,,,,,
68106080,1100,1100,1100,1100,,,,,
68108579,1100,1100,1100,1100,,,,,
68111078,1100,1100,1100,1100,,,,,
68113577,1100,1100,1100,1100,,,,,
68116076,1100,1100,1100,1100,,,,,
68118575,1100,1100,1100,1100,,,,,
68121074,1100,1100,1100,1100,,,,,
68123573,1100,1100,1100,1100,,,,,
68126072,1100,1100,1100,1100,,,,,
68128571,1100,1100,1100,1100,,,,,
68131070,1100,1100,1100,1100,,,,,
68133569,1100,1100,1100,1100,,,,,
68136068,1100,1100,1100,1100,,,,,
68138567,1100,1100,1100,1100,,,,,
68141066,1100,1100,1100,1100,,,,,
68143565,1100,1100,1100,1100,,,,,
68146064,1100,1100,1100,1100,,,,,
68148563,1100,1100,1100,1100,,,,,
68151062,1100,1100,1100,1100,,,,,
68153561,1100,1100,1100,1100,,,,,
68156060,1100,1100,1100,1100,,,,,
68158559,1100,1100,1100,1100,,,,,
68161058,1100,1100,1100,1100,,,,,
68163557,1100,1100,1100,1100,,,,,
68166056,1100,1100,1100,1100,,,,,
68168555,1100,1100,1100,1100,,,,,
68171054,1100,1100,1100,1100,,,,,
68173553,1100,1100,1100,1100,,,,,
68176052,1100,1100,1100,1100,,,,,
68178551,1100,1100,1100,1100,,,,,
68181050,1100,1100,1100,1100,,,,,
68183549,1100,1100,1100,1100,,,,,
68186048,1100,1100,1100,1100,,,,,
68188547,1100,1100,1100,1100,,,,,
68191046,1100,1100,1100,1100,,,,,
68193545,1100,1100,1100,1100,,,,,
68196044,1100,1100,1100,1100,,,,,
68198543,1100,1100,1100,1100,,,,,
68201042,1100,1100,1100,1100,,,,,
68203541,1100,1100,1100,1100,,,,,
68206040,1100,1100,1100,1100,,,,,
68208539,1100,1100,1100,1100,,,,,
68211038,1100,1100,1100,1100,,,,,
68213537,1100,1100,1100,1100,,,,,
68216036,1100,1100,1100,1100,,,,,
68218535,1100,1100,1100,1100,,,,,
68221034,1100,1100,1100,1100,,,,,
68223533,1100,1100,1100,1100,,,,,
68226032,1100,1100,1100,1100,,,,,
68228531,1100,1100,1100,1100,,,,,
68231030,1100,1100,1100,1100,,,,,
68233529,1100,1100,1100,1100,,,,,
68236028,1100,1100,1100,1100,,,,,
68238527,1100,1100,1100,1100,,,,,
68241026,1100,1100,1100,1100,,,,,
68243525,1100,1100,1100,1100,,,,,
