timestamp,TimeUS,C1,C2,C3,C4,C5,C6,C7,C8,C9,C10,C11,C12,C13,C14
1682167039.70004010,79728929,1000,1000,1000,1000,0,0,0,0,0,0,0,0,0,0
1682167039.79999995,79828889,1000,1000,1000,1000,0,0,0,0,0,0,0,0,0,0
1682167039.89996004,79928849,1000,1000,1000,1000,0,0,0,0,0,0,0,0,0,0
1682167039.99992013,80028809,1000,1000,1000,1000,0,0,0,0,0,0,0,0,0,0
1682167040.09987998,80128769,1000,1000,1000,1000,0,0,0,0,0,0,0,0,0,0
1682167040.19984007,80228729,1000,1000,1000,1000,0,0,0,0,0,0,0,0,0,0
1682167040.29980016,80328689,1000,1000,1000,1000,0,0,0,0,0,0,0,0,0,0
1682167040.39976001,80428649,1000,1000,1000,1000,0,0,0,0,0,0,0,0,0,0
1682167040.49972010,80528609,1000,1000,1000,1000,0,0,0,0,0,0,0,0,0,0
1682167040.59967995,80628569,1000,1000,1000,1000,0,0,0,0,0,0,0,0,0,0
1682167040.69964004,80728529,1000,1000,1000,1000,0,0,0,0,0,0,0,0,0,0
1682167040.79960012,80828489,1000,1000,1000,1000,0,0,0,0,0,0,0,0,0,0
1682167040.89955997,80928449,1000,1000,1000,1000,0,0,0,0,0,0,0,0,0,0
1682167040.99952006,81028409,1000,1000,1000,1000,0,0,0,0,0,0,0,0,0,0
1682167041.09948015,81128369,1000,1000,1000,1000,0,0,0,0,0,0,0,0,0,0
1682167041.19944000,81228329,1000,1000,1000,1000,0,0,0,0,0,0,0,0,0,0
1682167041.29940009,81328289,1000,1000,1000,1000,0,0,0,0,0,0,0,0,0,0
1682167041.39935994,81428249,1000,1000,1000,1000,0,0,0,0,0,0,0,0,0,0
1682167041.49932003,81528209,1000,1000,1000,1000,0,0,0,0,0,0,0,0,0,0
1682167041.59928012,81628169,1000,1000,1000,1000,0,0,0,0,0,0,0,0,0,0
1682167041.70007300,81728962,1027,1027,1027,1027,0,0,0,0,0,0,0,0,0,0
1682167041.80003309,81828922,1057,1057,1057,1057,0,0,0,0,0,0,0,0,0,0
1682167041.89999294,81928882,1087,1087,1087,1087,0,0,0,0,0,0,0,0,0,0
1682167041.99995303,82028842,1116,1116,1116,1116,0,0,0,0,0,0,0,0,0,0
1682167042.09991312,82128802,1146,1146,1146,1146,0,0,0,0,0,0,0,0,0,0
1682167042.19987297,82228762,1380,1371,1372,1381,0,0,0,0,0,0,0,0,0,0
1682167042.29983306,82328722,1564,1556,1557,1565,0,0,0,0,0,0,0,0,0,0
1682167042.39979315,82428682,1714,1707,1707,1714,0,0,0,0,0,0,0,0,0,0
1682167042.49975300,82528642,1844,1836,1837,1844,0,0,0,0,0,0,0,0,0,0
1682167042.59971309,82628602,1898,1891,1892,1898,0,0,0,0,0,0,0,0,0,0
1682167042.69967318,82728562,1831,1827,1828,1831,0,0,0,0,0,0,0,0,0,0
1682167042.79963303,82828522,1703,1703,1704,1703,0,0,0,0,0,0,0,0,0,0
1682167042.89959311,82928482,1633,1635,1631,1637,0,0,0,0,0,0,0,0,0,0
1682167042.99955297,83028442,1620,1624,1620,1625,0,0,0,0,0,0,0,0,0,0
1682167043.09951305,83128402,1629,1632,1630,1631,0,0,0,0,0,0,0,0,0,0
1682167043.19947314,83228362,1635,1636,1637,1634,0,0,0,0,0,0,0,0,0,0
1682167043.29943299,83328322,1632,1632,1634,1630,0,0,0,0,0,0,0,0,0,0
1682167043.39939308,83428282,1625,1625,1628,1623,0,0,0,0,0,0,0,0,0,0
1682167043.49935317,83528242,1620,1619,1621,1617,0,0,0,0,0,0,0,0,0,0
1682167043.59931302,83628202,1617,1616,1617,1616,0,0,0,0,0,0,0,0,0,0
1682167043.69927311,83728162,1618,1616,1616,1616,0,0,0,0,0,0,0,0,0,0
1682167043.80006599,83828955,1617,1617,1616,1617,0,0,0,0,0,0,0,0,0,0
1682167043.90002608,83928915,1591,1591,1595,1586,0,0,0,0,0,0,0,0,0,0
1682167043.99998617,84028875,1574,1575,1581,1568,0,0,0,0,0,0,0,0,0,0
1682167044.09994602,84128835,1563,1564,1565,1561,0,0,0,0,0,0,0,0,0,0
1682167044.19990611,84228795,1554,1555,1553,1556,0,0,0,0,0,0,0,0,0,0
1682167044.29986596,84328755,1546,1545,1539,1553,0,0,0,0,0,0,0,0,0,0
1682167044.39982605,84428715,1540,1539,1531,1548,0,0,0,0,0,0,0,0,0,0
1682167044.49978614,84528675,1534,1533,1527,1540,0,0,0,0,0,0,0,0,0,0
1682167044.59974599,84628635,1529,1528,1526,1531,0,0,0,0,0,0,0,0,0,0
1682167044.69970608,84728595,1526,1526,1525,1526,0,0,0,0,0,0,0,0,0,0
1682167044.79966617,84828555,1527,1527,1529,1525,0,0,0,0,0,0,0,0,0,0
1682167044.89962602,84928515,1529,1529,1532,1526,0,0,0,0,0,0,0,0,0,0
1682167044.99958611,85028475,1533,1533,1537,1530,0,0,0,0,0,0,0,0,0,0
1682167045.09954596,85128435,1536,1536,1538,1534,0,0,0,0,0,0,0,0,0,0
1682167045.19950604,85228395,1539,1540,1541,1538,0,0,0,0,0,0,0,0,0,0
1682167045.29946613,85328355,1544,1544,1545,1544,0,0,0,0,0,0,0,0,0,0
1682167045.39942598,85428315,1546,1546,1546,1546,0,0,0,0,0,0,0,0,0,0
1682167045.49938607,85528275,1549,1550,1549,1550,0,0,0,0,0,0,0,0,0,0
1682167045.59934616,85628235,1552,1551,1551,1552,0,0,0,0,0,0,0,0,0,0
1682167045.69930601,85728195,1555,1555,1554,1557,0,0,0,0,0,0,0,0,0,0
1682167045.79926610,85828155,1557,1558,1555,1557,0,0,0,0,0,0,0,0,0,0
1682167045.90005898,85928948,1559,1559,1558,1560,0,0,0,0,0,0,0,0,0,0
1682167046.00001907,86028908,1559,1559,1561,1562,0,0,0,0,0,0,0,0,0,0
1682167046.09997916,86128868,1560,1560,1565,1564,0,0,0,0,0,0,0,0,0,0
1682167046.19993901,86228828,1561,1562,1566,1565,0,0,0,0,0,0,0,0,0,0
1682167046.29989910,86328788,1564,1564,1568,1568,0,0,0,0,0,0,0,0,0,0
1682167046.39985895,86428748,1565,1565,1569,1568,0,0,0,0,0,0,0,0,0,0
1682167046.49981904,86528708,1566,1566,1569,1569,0,0,0,0,0,0,0,0,0,0
1682167046.59977913,86628668,1568,1568,1568,1569,0,0,0,0,0,0,0,0,0,0
1682167046.69973898,86728628,1570,1570,1569,1570,0,0,0,0,0,0,0,0,0,0
1682167046.79969907,86828588,1572,1572,1570,1571,0,0,0,0,0,0,0,0,0,0
1682167046.89965916,86928548,1572,1572,1569,1569,0,0,0,0,0,0,0,0,0,0
1682167046.99961901,87028508,1574,1574,1571,1571,0,0,0,0,0,0,0,0,0,0
1682167047.09957910,87128468,1575,1575,1572,1572,0,0,0,0,0,0,0,0,0,0
1682167047.19953895,87228428,1575,1575,1573,1571,0,0,0,0,0,0,0,0,0,0
1682167047.29949903,87328388,1575,1575,1573,1572,0,0,0,0,0,0,0,0,0,0
1682167047.39945912,87428348,1576,1576,1575,1573,0,0,0,0,0,0,0,0,0,0
1682167047.49941897,87528308,1577,1576,1575,1575,0,0,0,0,0,0,0,0,0,0
1682167047.59937906,87628268,1576,1576,1575,1575,0,0,0,0,0,0,0,0,0,0
1682167047.69933915,87728228,1574,1575,1575,1575,0,0,0,0,0,0,0,0,0,0
1682167047.79929900,87828188,1575,1576,1576,1576,0,0,0,0,0,0,0,0,0,0
1682167047.90009212,87928981,1576,1576,1576,1577,0,0,0,0,0,0,0,0,0,0
1682167048.00005198,88028941,1576,1576,1577,1577,0,0,0,0,0,0,0,0,0,0
1682167048.10001206,88128901,1575,1575,1576,1576,0,0,0,0,0,0,0,0,0,0
1682167048.19997215,88228861,1577,1576,1577,1577,0,0,0,0,0,0,0,0,0,0
1682167048.29993200,88328821,1577,1576,1577,1577,0,0,0,0,0,0,0,0,0,0
1682167048.39989209,88428781,1577,1577,1577,1578,0,0,0,0,0,0,0,0,0,0
1682167048.49985194,88528741,1576,1577,1577,1577,0,0,0,0,0,0,0,0,0,0
1682167048.59981203,88628701,1577,1577,1577,1577,0,0,0,0,0,0,0,0,0,0
1682167048.69977212,88728661,1579,1578,1579,1578,0,0,0,0,0,0,0,0,0,0
1682167048.79973197,88828621,1578,1578,1578,1577,0,0,0,0,0,0,0,0,0,0
1682167048.89969206,88928581,1579,1578,1578,1579,0,0,0,0,0,0,0,0,0,0
1682167048.99965215,89028541,1579,1579,1579,1579,0,0,0,0,0,0,0,0,0,0
1682167049.09961200,89128501,1577,1578,1577,1577,0,0,0,0,0,0,0,0,0,0
1682167049.19957209,89228461,1577,1578,1577,1578,0,0,0,0,0,0,0,0,0,0
1682167049.29953218,89328421,1578,1578,1578,1578,0,0,0,0,0,0,0,0,0,0
1682167049.39949203,89428381,1578,1579,1578,1578,0,0,0,0,0,0,0,0,0,0
1682167049.49945211,89528341,1579,1578,1578,1579,0,0,0,0,0,0,0,0,0,0
1682167049.59941196,89628301,1579,1579,1579,1579,0,0,0,0,0,0,0,0,0,0
1682167049.69937205,89728261,1579,1579,1579,1579,0,0,0,0,0,0,0,0,0,0
1682167049.79933214,89828221,1580,1580,1580,1580,0,0,0,0,0,0,0,0,0,0
1682167049.89929199,89928181,1580,1580,1580,1580,0,0,0,0,0,0,0,0,0,0
1682167050.00008512,90028974,1580,1580,1580,1580,0,0,0,0,0,0,0,0,0,0
1682167050.10004497,90128934,1580,1580,1580,1580,0,0,0,0,0,0,0,0,0,0
1682167050.20000505,90228894,1580,1580,1580,1580,0,0,0,0,0,0,0,0,0,0
1682167050.29996514,90328854,1581,1580,1580,1581,0,0,0,0,0,0,0,0,0,0
1682167050.39992499,90428814,1580,1581,1581,1581,0,0,0,0,0,0,0,0,0,0
1682167050.49988508,90528774,1580,1580,1580,1580,0,0,0,0,0,0,0,0,0,0
1682167050.59984517,90628734,1580,1581,1580,1581,0,0,0,0,0,0,0,0,0,0
1682167050.69980502,90728694,1580,1580,1580,1580,0,0,0,0,0,0,0,0,0,0
1682167050.79976511,90828654,1579,1579,1580,1579,0,0,0,0,0,0,0,0,0,0
1682167050.89972496,90928614,1580,1580,1580,1580,0,0,0,0,0,0,0,0,0,0
1682167050.99968505,91028574,1580,1580,1580,1580,0,0,0,0,0,0,0,0,0,0
1682167051.09964514,91128534,1581,1581,1581,1581,0,0,0,0,0,0,0,0,0,0
1682167051.19960499,91228494,1582,1582,1582,1582,0,0,0,0,0,0,0,0,0,0
1682167051.29956508,91328454,1581,1580,1581,1580,0,0,0,0,0,0,0,0,0,0
1682167051.39952517,91428414,1581,1581,1582,1581,0,0,0,0,0,0,0,0,0,0
1682167051.49948502,91528374,1581,1581,1581,1581,0,0,0,0,0,0,0,0,0,0
1682167051.59944510,91628334,1580,1581,1580,1581,0,0,0,0,0,0,0,0,0,0
1682167051.69940495,91728294,1581,1581,1580,1581,0,0,0,0,0,0,0,0,0,0
1682167051.79936504,91828254,1580,1581,1581,1581,0,0,0,0,0,0,0,0,0,0
1682167051.89932513,91928214,1579,1579,1579,1579,0,0,0,0,0,0,0,0,0,0
1682167051.99928498,92028174,1581,1582,1587,1575,0,0,0,0,0,0,0,0,0,0
1682167052.10007811,92128967,1580,1582,1585,1573,0,0,0,0,0,0,0,0,0,0
1682167052.20003796,92228927,1579,1581,1578,1573,0,0,0,0,0,0,0,0,0,0
1682167052.29999804,92328887,1578,1580,1569,1572,0,0,0,0,0,0,0,0,0,0
1682167052.39995813,92428847,1577,1579,1562,1568,0,0,0,0,0,0,0,0,0,0
1682167052.49991798,92528807,1578,1579,1558,1564,0,0,0,0,0,0,0,0,0,0
1682167052.59987807,92628767,1579,1578,1555,1559,0,0,0,0,0,0,0,0,0,0
1682167052.69983816,92728727,1580,1578,1555,1556,0,0,0,0,0,0,0,0,0,0
1682167052.79979801,92828687,1580,1579,1556,1554,0,0,0,0,0,0,0,0,0,0
1682167052.89975810,92928647,1579,1578,1556,1554,0,0,0,0,0,0,0,0,0,0
1682167052.99971795,93028607,1577,1577,1555,1553,0,0,0,0,0,0,0,0,0,0
1682167053.09967804,93128567,1575,1576,1554,1553,0,0,0,0,0,0,0,0,0,0
1682167053.19963813,93228527,1574,1576,1553,1553,0,0,0,0,0,0,0,0,0,0
1682167053.29959798,93328487,1575,1576,1552,1553,0,0,0,0,0,0,0,0,0,0
1682167053.39955807,93428447,1575,1576,1551,1551,0,0,0,0,0,0,0,0,0,0
1682167053.49951816,93528407,1576,1577,1549,1549,0,0,0,0,0,0,0,0,0,0
1682167053.59947801,93628367,1578,1579,1547,1547,0,0,0,0,0,0,0,0,0,0
1682167053.69943810,93728327,1581,1582,1545,1545,0,0,0,0,0,0,0,0,0,0
1682167053.79939795,93828287,1584,1584,1542,1542,0,0,0,0,0,0,0,0,0,0
1682167053.89935803,93928247,1587,1587,1540,1540,0,0,0,0,0,0,0,0,0,0
1682167053.99931812,94028207,1589,1590,1537,1537,0,0,0,0,0,0,0,0,0,0
1682167054.09927797,94128167,1592,1593,1536,1535,0,0,0,0,0,0,0,0,0,0
1682167054.20007110,94228960,1594,1594,1535,1535,0,0,0,0,0,0,0,0,0,0
1682167054.30003095,94328920,1594,1594,1534,1536,0,0,0,0,0,0,0,0,0,0
1682167054.39999104,94428880,1595,1594,1537,1539,0,0,0,0,0,0,0,0,0,0
1682167054.49995112,94528840,1593,1592,1540,1543,0,0,0,0,0,0,0,0,0,0
1682167054.59991097,94628800,1589,1587,1545,1549,0,0,0,0,0,0,0,0,0,0
1682167054.69987106,94728760,1582,1580,1552,1556,0,0,0,0,0,0,0,0,0,0
1682167054.79983115,94828720,1574,1571,1563,1566,0,0,0,0,0,0,0,0,0,0
1682167054.89979100,94928680,1563,1559,1575,1577,0,0,0,0,0,0,0,0,0,0
1682167054.99975109,95028640,1552,1549,1587,1588,0,0,0,0,0,0,0,0,0,0
1682167055.09971094,95128600,1541,1539,1598,1598,0,0,0,0,0,0,0,0,0,0
1682167055.19967103,95228560,1534,1533,1608,1607,0,0,0,0,0,0,0,0,0,0
1682167055.29963112,95328520,1529,1529,1613,1612,0,0,0,0,0,0,0,0,0,0
1682167055.39959097,95428480,1529,1530,1615,1615,0,0,0,0,0,0,0,0,0,0
1682167055.49955106,95528440,1532,1534,1614,1614,0,0,0,0,0,0,0,0,0,0
1682167055.59951115,95628400,1537,1539,1609,1609,0,0,0,0,0,0,0,0,0,0
1682167055.69947100,95728360,1545,1546,1602,1603,0,0,0,0,0,0,0,0,0,0
1682167055.79943109,95828320,1554,1554,1595,1595,0,0,0,0,0,0,0,0,0,0
1682167055.89939117,95928280,1563,1563,1588,1587,0,0,0,0,0,0,0,0,0,0
1682167055.99935102,96028240,1570,1569,1580,1578,0,0,0,0,0,0,0,0,0,0
1682167056.09931111,96128200,1481,1543,1475,1544,0,0,0,0,0,0,0,0,0,0
1682167056.19927096,96228160,1595,1570,1584,1562,0,0,0,0,0,0,0,0,0,0
1682167056.30006409,96328953,1671,1591,1656,1582,0,0,0,0,0,0,0,0,0,0
1682167056.40002418,96428913,1671,1590,1658,1587,0,0,0,0,0,0,0,0,0,0
1682167056.49998403,96528873,1671,1612,1660,1610,0,0,0,0,0,0,0,0,0,0
1682167056.59994411,96628833,1671,1629,1659,1623,0,0,0,0,0,0,0,0,0,0
1682167056.69990396,96728793,1671,1644,1657,1628,0,0,0,0,0,0,0,0,0,0
1682167056.79986405,96828753,1671,1665,1652,1629,0,0,0,0,0,0,0,0,0,0
1682167056.89982414,96928713,1671,1699,1644,1637,0,0,0,0,0,0,0,0,0,0
1682167056.99978399,97028673,1671,1727,1642,1657,0,0,0,0,0,0,0,0,0,0
1682167057.09974408,97128633,1671,1717,1654,1686,0,0,0,0,0,0,0,0,0,0
1682167057.19970417,97228593,1657,1685,1671,1713,0,0,0,0,0,0,0,0,0,0
1682167057.29966402,97328553,1624,1633,1671,1711,0,0,0,0,0,0,0,0,0,0
1682167057.39962411,97428513,1593,1582,1663,1693,0,0,0,0,0,0,0,0,0,0
1682167057.49958396,97528473,1575,1557,1654,1670,0,0,0,0,0,0,0,0,0,0
1682167057.59954405,97628433,1567,1553,1640,1642,0,0,0,0,0,0,0,0,0,0
1682167057.69950414,97728393,1566,1564,1622,1613,0,0,0,0,0,0,0,0,0,0
1682167057.79946399,97828353,1572,1580,1601,1586,0,0,0,0,0,0,0,0,0,0
1682167057.89942408,97928313,1581,1595,1579,1566,0,0,0,0,0,0,0,0,0,0
1682167057.99938416,98028273,1588,1602,1559,1550,0,0,0,0,0,0,0,0,0,0
1682167058.09934402,98128233,1592,1602,1542,1538,0,0,0,0,0,0,0,0,0,0
1682167058.19930410,98228193,1594,1598,1530,1532,0,0,0,0,0,0,0,0,0,0
1682167058.30009699,98328986,1594,1592,1525,1528,0,0,0,0,0,0,0,0,0,0
1682167058.40005708,98428946,1591,1584,1523,1527,0,0,0,0,0,0,0,0,0,0
1682167058.50001717,98528906,1587,1580,1527,1531,0,0,0,0,0,0,0,0,0,0
1682167058.59997702,98628866,1582,1575,1533,1536,0,0,0,0,0,0,0,0,0,0
1682167058.69993711,98728826,1576,1572,1542,1543,0,0,0,0,0,0,0,0,0,0
1682167058.79989696,98828786,1570,1569,1551,1551,0,0,0,0,0,0,0,0,0,0
1682167058.89985704,98928746,1564,1565,1560,1559,0,0,0,0,0,0,0,0,0,0
1682167058.99981713,99028706,1560,1562,1568,1567,0,0,0,0,0,0,0,0,0,0
1682167059.09977698,99128666,1559,1561,1576,1575,0,0,0,0,0,0,0,0,0,0
1682167059.19973707,99228626,1558,1560,1582,1581,0,0,0,0,0,0,0,0,0,0
1682167059.29969716,99328586,1558,1559,1585,1584,0,0,0,0,0,0,0,0,0,0
1682167059.39965701,99428546,1560,1560,1588,1587,0,0,0,0,0,0,0,0,0,0
1682167059.49961710,99528506,1562,1563,1589,1588,0,0,0,0,0,0,0,0,0,0
1682167059.59957695,99628466,1564,1564,1587,1586,0,0,0,0,0,0,0,0,0,0
1682167059.69953704,99728426,1568,1567,1586,1585,0,0,0,0,0,0,0,0,0,0
1682167059.79949713,99828386,1571,1571,1583,1583,0,0,0,0,0,0,0,0,0,0
1682167059.89945698,99928346,1574,1574,1581,1581,0,0,0,0,0,0,0,0,0,0
1682167059.99941707,100028306,1577,1578,1583,1571,0,0,0,0,0,0,0,0,0,0
1682167060.09937716,100128266,1580,1582,1581,1568,0,0,0,0,0,0,0,0,0,0
1682167060.19933701,100228226,1581,1584,1573,1567,0,0,0,0,0,0,0,0,0,0
1682167060.29929709,100328186,1581,1583,1563,1565,0,0,0,0,0,0,0,0,0,0
1682167060.40008998,100428979,1582,1581,1556,1563,0,0,0,0,0,0,0,0,0,0
1682167060.50005007,100528939,1581,1579,1551,1559,0,0,0,0,0,0,0,0,0,0
1682167060.60001016,100628899,1580,1579,1550,1556,0,0,0,0,0,0,0,0,0,0
1682167060.69997001,100728859,1580,1578,1550,1553,0,0,0,0,0,0,0,0,0,0
1682167060.79993010,100828819,1579,1579,1552,1552,0,0,0,0,0,0,0,0,0,0
1682167060.89988995,100928779,1578,1578,1553,1551,0,0,0,0,0,0,0,0,0,0
1682167060.99985003,101028739,1577,1578,1555,1552,0,0,0,0,0,0,0,0,0,0
1682167061.09981012,101128699,1575,1577,1556,1554,0,0,0,0,0,0,0,0,0,0
1682167061.19976997,101228659,1574,1576,1556,1555,0,0,0,0,0,0,0,0,0,0
1682167061.29973006,101328619,1573,1574,1556,1555,0,0,0,0,0,0,0,0,0,0
1682167061.39969015,101428579,1574,1575,1556,1556,0,0,0,0,0,0,0,0,0,0
1682167061.49965000,101528539,1574,1575,1555,1555,0,0,0,0,0,0,0,0,0,0
1682167061.59961009,101628499,1574,1575,1554,1554,0,0,0,0,0,0,0,0,0,0
1682167061.69956994,101728459,1576,1577,1553,1554,0,0,0,0,0,0,0,0,0,0
1682167061.79953003,101828419,1577,1578,1552,1552,0,0,0,0,0,0,0,0,0,0
1682167061.89949012,101928379,1580,1579,1551,1551,0,0,0,0,0,0,0,0,0,0
1682167061.99944997,102028339,1581,1581,1550,1551,0,0,0,0,0,0,0,0,0,0
1682167062.09941006,102128299,1583,1582,1549,1550,0,0,0,0,0,0,0,0,0,0
1682167062.19937015,102228259,1583,1583,1549,1549,0,0,0,0,0,0,0,0,0,0
1682167062.29933000,102328219,1584,1585,1549,1551,0,0,0,0,0,0,0,0,0,0
1682167062.39929008,102428179,1583,1584,1549,1551,0,0,0,0,0,0,0,0,0,0
1682167062.50008297,102528972,1583,1583,1551,1553,0,0,0,0,0,0,0,0,0,0
1682167062.60004306,102628932,1582,1581,1553,1555,0,0,0,0,0,0,0,0,0,0
1682167062.70000315,102728892,1580,1577,1557,1559,0,0,0,0,0,0,0,0,0,0
1682167062.79996300,102828852,1577,1574,1562,1565,0,0,0,0,0,0,0,0,0,0
1682167062.89992309,102928812,1572,1569,1568,1570,0,0,0,0,0,0,0,0,0,0
1682167062.99988317,103028772,1567,1565,1575,1577,0,0,0,0,0,0,0,0,0,0
1682167063.09984303,103128732,1562,1560,1581,1582,0,0,0,0,0,0,0,0,0,0
1682167063.19980311,103228692,1556,1556,1587,1587,0,0,0,0,0,0,0,0,0,0
1682167063.29976296,103328652,1553,1554,1592,1592,0,0,0,0,0,0,0,0,0,0
1682167063.39972305,103428612,1551,1553,1596,1595,0,0,0,0,0,0,0,0,0,0
1682167063.49968314,103528572,1550,1553,1598,1597,0,0,0,0,0,0,0,0,0,0
1682167063.59964299,103628532,1552,1553,1599,1597,0,0,0,0,0,0,0,0,0,0
1682167063.69960308,103728492,1554,1554,1598,1596,0,0,0,0,0,0,0,0,0,0
1682167063.79956317,103828452,1557,1557,1596,1594,0,0,0,0,0,0,0,0,0,0
1682167063.89952302,103928412,1561,1561,1593,1592,0,0,0,0,0,0,0,0,0,0
1682167063.99948311,104028372,1564,1564,1588,1588,0,0,0,0,0,0,0,0,0,0
1682167064.09944296,104128332,1568,1567,1584,1585,0,0,0,0,0,0,0,0,0,0
1682167064.19940305,104228292,1572,1571,1581,1581,0,0,0,0,0,0,0,0,0,0
1682167064.29936314,104328252,1575,1574,1577,1578,0,0,0,0,0,0,0,0,0,0
1682167064.39932299,104428212,1578,1577,1575,1576,0,0,0,0,0,0,0,0,0,0
1682167064.49928308,104528172,1580,1578,1573,1574,0,0,0,0,0,0,0,0,0,0
1682167064.60007596,104628965,1581,1580,1572,1573,0,0,0,0,0,0,0,0,0,0
1682167064.70003605,104728925,1581,1581,1572,1572,0,0,0,0,0,0,0,0,0,0
1682167064.79999614,104828885,1581,1581,1573,1573,0,0,0,0,0,0,0,0,0,0
1682167064.89995599,104928845,1581,1580,1573,1574,0,0,0,0,0,0,0,0,0,0
1682167064.99991608,105028805,1580,1580,1575,1576,0,0,0,0,0,0,0,0,0,0
1682167065.09987617,105128765,1579,1580,1577,1577,0,0,0,0,0,0,0,0,0,0
1682167065.19983602,105228725,1578,1578,1579,1578,0,0,0,0,0,0,0,0,0,0
1682167065.29979610,105328685,1577,1577,1580,1580,0,0,0,0,0,0,0,0,0,0
1682167065.39975595,105428645,1578,1578,1582,1582,0,0,0,0,0,0,0,0,0,0
1682167065.49971604,105528605,1577,1577,1583,1583,0,0,0,0,0,0,0,0,0,0
1682167065.59967613,105628565,1577,1578,1583,1583,0,0,0,0,0,0,0,0,0,0
1682167065.69963598,105728525,1576,1577,1583,1583,0,0,0,0,0,0,0,0,0,0
1682167065.79959607,105828485,1577,1578,1583,1583,0,0,0,0,0,0,0,0,0,0
1682167065.89955616,105928445,1578,1579,1583,1583,0,0,0,0,0,0,0,0,0,0
1682167065.99951601,106028405,1578,1578,1582,1581,0,0,0,0,0,0,0,0,0,0
1682167066.09947610,106128365,1580,1579,1582,1582,0,0,0,0,0,0,0,0,0,0
1682167066.19943595,106228325,1580,1580,1581,1581,0,0,0,0,0,0,0,0,0,0
1682167066.29939604,106328285,1580,1580,1580,1580,0,0,0,0,0,0,0,0,0,0
1682167066.39935613,106428245,1581,1580,1580,1580,0,0,0,0,0,0,0,0,0,0
1682167066.49931598,106528205,1581,1581,1579,1579,0,0,0,0,0,0,0,0,0,0
1682167066.59927607,106628165,1581,1581,1579,1579,0,0,0,0,0,0,0,0,0,0
1682167066.70006895,106728958,1581,1581,1578,1579,0,0,0,0,0,0,0,0,0,0
1682167066.80002904,106828918,1581,1581,1578,1579,0,0,0,0,0,0,0,0,0,0
1682167066.89998913,106928878,1580,1580,1579,1578,0,0,0,0,0,0,0,0,0,0
1682167066.99994898,107028838,1580,1580,1579,1579,0,0,0,0,0,0,0,0,0,0
1682167067.09990907,107128798,1580,1581,1580,1580,0,0,0,0,0,0,0,0,0,0
1682167067.19986916,107228758,1580,1581,1580,1580,0,0,0,0,0,0,0,0,0,0
1682167067.29982901,107328718,1580,1580,1581,1580,0,0,0,0,0,0,0,0,0,0
1682167067.39978909,107428678,1580,1580,1581,1580,0,0,0,0,0,0,0,0,0,0
1682167067.49974895,107528638,1580,1580,1581,1581,0,0,0,0,0,0,0,0,0,0
1682167067.59970903,107628598,1581,1582,1582,1582,0,0,0,0,0,0,0,0,0,0
1682167067.69966912,107728558,1581,1581,1582,1582,0,0,0,0,0,0,0,0,0,0
1682167067.79962897,107828518,1581,1581,1582,1583,0,0,0,0,0,0,0,0,0,0
1682167067.89958906,107928478,1582,1581,1583,1582,0,0,0,0,0,0,0,0,0,0
1682167067.99954915,108028438,1582,1582,1583,1583,0,0,0,0,0,0,0,0,0,0
1682167068.09950900,108128398,1582,1582,1583,1583,0,0,0,0,0,0,0,0,0,0
1682167068.19946909,108228358,1582,1581,1582,1581,0,0,0,0,0,0,0,0,0,0
1682167068.29942918,108328318,1583,1583,1583,1583,0,0,0,0,0,0,0,0,0,0
1682167068.39938903,108428278,1582,1583,1587,1575,0,0,0,0,0,0,0,0,0,0
1682167068.49934912,108528238,1581,1583,1585,1572,0,0,0,0,0,0,0,0,0,0
1682167068.59930897,108628198,1580,1583,1579,1573,0,0,0,0,0,0,0,0,0,0
1682167068.69926906,108728158,1578,1581,1571,1572,0,0,0,0,0,0,0,0,0,0
1682167068.80006194,108828951,1576,1578,1563,1569,0,0,0,0,0,0,0,0,0,0
1682167068.90002203,108928911,1576,1577,1558,1565,0,0,0,0,0,0,0,0,0,0
1682167068.99998212,109028871,1577,1577,1555,1561,0,0,0,0,0,0,0,0,0,0
1682167069.09994197,109128831,1579,1577,1554,1557,0,0,0,0,0,0,0,0,0,0
1682167069.19990206,109228791,1579,1577,1554,1554,0,0,0,0,0,0,0,0,0,0
1682167069.29986215,109328751,1579,1578,1554,1553,0,0,0,0,0,0,0,0,0,0
1682167069.39982200,109428711,1578,1578,1554,1552,0,0,0,0,0,0,0,0,0,0
1682167069.49978209,109528671,1577,1577,1554,1552,0,0,0,0,0,0,0,0,0,0
1682167069.59974217,109628631,1576,1577,1554,1552,0,0,0,0,0,0,0,0,0,0
1682167069.69970202,109728591,1575,1577,1553,1553,0,0,0,0,0,0,0,0,0,0
1682167069.79966211,109828551,1575,1577,1552,1552,0,0,0,0,0,0,0,0,0,0
1682167069.89962196,109928511,1575,1577,1551,1551,0,0,0,0,0,0,0,0,0,0
1682167069.99958205,110028471,1577,1578,1549,1550,0,0,0,0,0,0,0,0,0,0
1682167070.09954214,110128431,1579,1580,1548,1549,0,0,0,0,0,0,0,0,0,0
1682167070.19950199,110228391,1581,1583,1547,1547,0,0,0,0,0,0,0,0,0,0
1682167070.29946208,110328351,1584,1585,1545,1545,0,0,0,0,0,0,0,0,0,0
1682167070.39942217,110428311,1586,1586,1542,1542,0,0,0,0,0,0,0,0,0,0
1682167070.49938202,110528271,1589,1588,1541,1541,0,0,0,0,0,0,0,0,0,0
1682167070.59934211,110628231,1591,1591,1540,1541,0,0,0,0,0,0,0,0,0,0
1682167070.69930196,110728191,1593,1593,1539,1540,0,0,0,0,0,0,0,0,0,0
1682167070.80009508,110828984,1593,1594,1539,1541,0,0,0,0,0,0,0,0,0,0
1682167070.90005517,110928944,1592,1592,1540,1543,0,0,0,0,0,0,0,0,0,0
1682167071.00001502,111028904,1591,1589,1544,1547,0,0,0,0,0,0,0,0,0,0
1682167071.09997511,111128864,1587,1583,1549,1552,0,0,0,0,0,0,0,0,0,0
1682167071.19993496,111228824,1581,1577,1557,1561,0,0,0,0,0,0,0,0,0,0
1682167071.29989505,111328784,1572,1568,1567,1569,0,0,0,0,0,0,0,0,0,0
1682167071.39985514,111428744,1563,1559,1578,1580,0,0,0,0,0,0,0,0,0,0
1682167071.49981499,111528704,1554,1552,1590,1590,0,0,0,0,0,0,0,0,0,0
1682167071.59977508,111628664,1546,1546,1599,1598,0,0,0,0,0,0,0,0,0,0
1682167071.69973516,111728624,1540,1542,1607,1605,0,0,0,0,0,0,0,0,0,0
1682167071.79969501,111828584,1536,1540,1612,1610,0,0,0,0,0,0,0,0,0,0
1682167071.89965510,111928544,1536,1540,1614,1611,0,0,0,0,0,0,0,0,0,0
1682167071.99961495,112028504,1539,1542,1613,1611,0,0,0,0,0,0,0,0,0,0
1682167072.09957504,112128464,1543,1545,1609,1607,0,0,0,0,0,0,0,0,0,0
1682167072.19953513,112228424,1550,1551,1605,1603,0,0,0,0,0,0,0,0,0,0
1682167072.29949498,112328384,1556,1555,1598,1597,0,0,0,0,0,0,0,0,0,0
1682167072.39945507,112428344,1563,1562,1592,1591,0,0,0,0,0,0,0,0,0,0
1682167072.49941516,112528304,1569,1568,1584,1584,0,0,0,0,0,0,0,0,0,0
1682167072.59937501,112628264,1574,1572,1576,1578,0,0,0,0,0,0,0,0,0,0
1682167072.69933510,112728224,1578,1576,1571,1572,0,0,0,0,0,0,0,0,0,0
1682167072.79929495,112828184,1583,1580,1567,1569,0,0,0,0,0,0,0,0,0,0
1682167072.90008807,112928977,1585,1583,1565,1567,0,0,0,0,0,0,0,0,0,0
1682167073.00004816,113028937,1586,1584,1565,1565,0,0,0,0,0,0,0,0,0,0
1682167073.10000801,113128897,1585,1584,1565,1566,0,0,0,0,0,0,0,0,0,0
1682167073.19996810,113228857,1584,1584,1568,1568,0,0,0,0,0,0,0,0,0,0
1682167073.29992795,113328817,1583,1582,1570,1570,0,0,0,0,0,0,0,0,0,0
1682167073.39988804,113428777,1580,1580,1573,1572,0,0,0,0,0,0,0,0,0,0
1682167073.49984813,113528737,1578,1578,1576,1575,0,0,0,0,0,0,0,0,0,0
1682167073.59980798,113628697,1576,1577,1579,1578,0,0,0,0,0,0,0,0,0,0
1682167073.69976807,113728657,1575,1575,1581,1581,0,0,0,0,0,0,0,0,0,0
1682167073.79972816,113828617,1574,1575,1584,1583,0,0,0,0,0,0,0,0,0,0
1682167073.89968801,113928577,1573,1574,1584,1584,0,0,0,0,0,0,0,0,0,0
1682167073.99964809,114028537,1572,1574,1584,1584,0,0,0,0,0,0,0,0,0,0
1682167074.09960794,114128497,1573,1574,1584,1584,0,0,0,0,0,0,0,0,0,0
1682167074.19956803,114228457,1575,1575,1584,1584,0,0,0,0,0,0,0,0,0,0
1682167074.29952812,114328417,1576,1576,1583,1583,0,0,0,0,0,0,0,0,0,0
1682167074.39948797,114428377,1576,1576,1581,1581,0,0,0,0,0,0,0,0,0,0
1682167074.49944806,114528337,1578,1577,1579,1580,0,0,0,0,0,0,0,0,0,0
1682167074.59940815,114628297,1579,1578,1578,1579,0,0,0,0,0,0,0,0,0,0
1682167074.69936800,114728257,1580,1579,1578,1578,0,0,0,0,0,0,0,0,0,0
1682167074.79932809,114828217,1581,1581,1577,1577,0,0,0,0,0,0,0,0,0,0
1682167074.89928818,114928177,1581,1580,1576,1577,0,0,0,0,0,0,0,0,0,0
1682167075.00008106,115028970,1582,1582,1577,1578,0,0,0,0,0,0,0,0,0,0
1682167075.10004115,115128930,1582,1582,1578,1578,0,0,0,0,0,0,0,0,0,0
1682167075.20000100,115228890,1582,1582,1578,1578,0,0,0,0,0,0,0,0,0,0
1682167075.29996109,115328850,1582,1581,1578,1578,0,0,0,0,0,0,0,0,0,0
1682167075.39992094,115428810,1581,1581,1579,1579,0,0,0,0,0,0,0,0,0,0
1682167075.49988103,115528770,1582,1581,1580,1580,0,0,0,0,0,0,0,0,0,0
1682167075.59984112,115628730,1580,1580,1581,1580,0,0,0,0,0,0,0,0,0,0
1682167075.69980097,115728690,1580,1581,1581,1581,0,0,0,0,0,0,0,0,0,0
1682167075.79976106,115828650,1579,1580,1581,1581,0,0,0,0,0,0,0,0,0,0
1682167075.89972115,115928610,1580,1580,1582,1582,0,0,0,0,0,0,0,0,0,0
1682167075.99968100,116028570,1580,1580,1582,1582,0,0,0,0,0,0,0,0,0,0
1682167076.09964108,116128530,1579,1580,1582,1581,0,0,0,0,0,0,0,0,0,0
1682167076.19960117,116228490,1580,1581,1582,1582,0,0,0,0,0,0,0,0,0,0
1682167076.29956102,116328450,1580,1580,1583,1579,0,0,0,0,0,0,0,0,0,0
1682167076.39952111,116428410,1581,1581,1587,1573,0,0,0,0,0,0,0,0,0,0
1682167076.49948096,116528370,1580,1580,1584,1574,0,0,0,0,0,0,0,0,0,0
1682167076.59944105,116628330,1577,1577,1578,1575,0,0,0,0,0,0,0,0,0,0
1682167076.69940114,116728290,1573,1572,1570,1574,0,0,0,0,0,0,0,0,0,0
1682167076.79936099,116828250,1570,1569,1566,1573,0,0,0,0,0,0,0,0,0,0
1682167076.89932108,116928210,1567,1567,1563,1570,0,0,0,0,0,0,0,0,0,0
1682167076.99928117,117028170,1565,1566,1563,1567,0,0,0,0,0,0,0,0,0,0
1682167077.10007405,117128963,1565,1567,1564,1566,0,0,0,0,0,0,0,0,0,0
1682167077.20003414,117228923,1565,1566,1565,1564,0,0,0,0,0,0,0,0,0,0
1682167077.29999399,117328883,1565,1565,1565,1563,0,0,0,0,0,0,0,0,0,0
1682167077.39995408,117428843,1565,1566,1566,1563,0,0,0,0,0,0,0,0,0,0
1682167077.49991417,117528803,1565,1564,1566,1563,0,0,0,0,0,0,0,0,0,0
1682167077.59987402,117628763,1565,1564,1565,1563,0,0,0,0,0,0,0,0,0,0
1682167077.69983411,117728723,1564,1563,1564,1564,0,0,0,0,0,0,0,0,0,0
1682167077.79979396,117828683,1563,1563,1564,1564,0,0,0,0,0,0,0,0,0,0
1682167077.89975405,117928643,1562,1562,1562,1563,0,0,0,0,0,0,0,0,0,0
1682167077.99971414,118028603,1561,1561,1561,1561,0,0,0,0,0,0,0,0,0,0
1682167078.09967399,118128563,1560,1560,1561,1560,0,0,0,0,0,0,0,0,0,0
1682167078.19963408,118228523,1560,1560,1560,1560,0,0,0,0,0,0,0,0,0,0
1682167078.29959416,118328483,1559,1560,1560,1560,0,0,0,0,0,0,0,0,0,0
1682167078.39955401,118428443,1559,1559,1560,1559,0,0,0,0,0,0,0,0,0,0
1682167078.49951410,118528403,1559,1559,1559,1559,0,0,0,0,0,0,0,0,0,0
1682167078.59947395,118628363,1559,1559,1559,1558,0,0,0,0,0,0,0,0,0,0
1682167078.69943404,118728323,1558,1558,1559,1558,0,0,0,0,0,0,0,0,0,0
1682167078.79939413,118828283,1558,1558,1559,1557,0,0,0,0,0,0,0,0,0,0
1682167078.89935398,118928243,1559,1558,1560,1558,0,0,0,0,0,0,0,0,0,0
1682167078.99931407,119028203,1559,1559,1560,1558,0,0,0,0,0,0,0,0,0,0
1682167079.09927416,119128163,1560,1559,1560,1558,0,0,0,0,0,0,0,0,0,0
1682167079.20006704,119228956,1560,1560,1560,1560,0,0,0,0,0,0,0,0,0,0
1682167079.30002713,119328916,1560,1560,1558,1563,0,0,0,0,0,0,0,0,0,0
1682167079.39998698,119428876,1561,1562,1558,1565,0,0,0,0,0,0,0,0,0,0
1682167079.49994707,119528836,1562,1562,1558,1565,0,0,0,0,0,0,0,0,0,0
1682167079.59990716,119628796,1561,1561,1559,1563,0,0,0,0,0,0,0,0,0,0
1682167079.69986701,119728756,1561,1562,1560,1561,0,0,0,0,0,0,0,0,0,0
1682167079.79982710,119828716,1561,1561,1562,1558,0,0,0,0,0,0,0,0,0,0
1682167079.89978695,119928676,1560,1559,1559,1559,0,0,0,0,0,0,0,0,0,0
1682167079.99974704,120028636,1556,1556,1556,1556,0,0,0,0,0,0,0,0,0,0
1682167080.09970713,120128596,1552,1551,1551,1552,0,0,0,0,0,0,0,0,0,0
1682167080.19966698,120228556,1547,1547,1547,1547,0,0,0,0,0,0,0,0,0,0
1682167080.29962707,120328516,1541,1540,1540,1541,0,0,0,0,0,0,0,0,0,0
1682167080.39958715,120428476,1534,1534,1534,1534,0,0,0,0,0,0,0,0,0,0
1682167080.49954700,120528436,1526,1527,1526,1527,0,0,0,0,0,0,0,0,0,0
1682167080.59950709,120628396,1520,1521,1521,1521,0,0,0,0,0,0,0,0,0,0
1682167080.69946694,120728356,1518,1520,1518,1520,0,0,0,0,0,0,0,0,0,0
1682167080.79942703,120828316,1518,1519,1518,1520,0,0,0,0,0,0,0,0,0,0
1682167080.89938712,120928276,1520,1521,1520,1522,0,0,0,0,0,0,0,0,0,0
1682167080.99934697,121028236,1522,1523,1522,1524,0,0,0,0,0,0,0,0,0,0
1682167081.09930706,121128196,1527,1526,1526,1527,0,0,0,0,0,0,0,0,0,0
1682167081.19926715,121228156,1531,1531,1532,1531,0,0,0,0,0,0,0,0,0,0
1682167081.30006003,121328949,1536,1536,1536,1536,0,0,0,0,0,0,0,0,0,0
1682167081.40002012,121428909,1539,1538,1540,1538,0,0,0,0,0,0,0,0,0,0
1682167081.49997997,121528869,1542,1541,1542,1540,0,0,0,0,0,0,0,0,0,0
1682167081.59994006,121628829,1544,1543,1544,1543,0,0,0,0,0,0,0,0,0,0
1682167081.69990015,121728789,1545,1544,1545,1544,0,0,0,0,0,0,0,0,0,0
1682167081.79986000,121828749,1546,1545,1546,1545,0,0,0,0,0,0,0,0,0,0
1682167081.89982009,121928709,1547,1547,1547,1547,0,0,0,0,0,0,0,0,0,0
1682167081.99978018,122028669,1546,1547,1546,1547,0,0,0,0,0,0,0,0,0,0
1682167082.09974003,122128629,1547,1548,1547,1547,0,0,0,0,0,0,0,0,0,0
1682167082.19970012,122228589,1548,1549,1548,1548,0,0,0,0,0,0,0,0,0,0
1682167082.29965997,122328549,1547,1547,1547,1547,0,0,0,0,0,0,0,0,0,0
1682167082.39962006,122428509,1547,1548,1547,1547,0,0,0,0,0,0,0,0,0,0
1682167082.49958014,122528469,1546,1546,1546,1546,0,0,0,0,0,0,0,0,0,0
1682167082.59954000,122628429,1546,1546,1546,1546,0,0,0,0,0,0,0,0,0,0
1682167082.69950008,122728389,1546,1546,1546,1545,0,0,0,0,0,0,0,0,0,0
1682167082.79946017,122828349,1545,1546,1546,1546,0,0,0,0,0,0,0,0,0,0
1682167082.89942002,122928309,1545,1545,1545,1545,0,0,0,0,0,0,0,0,0,0
1682167082.99938011,123028269,1545,1545,1545,1545,0,0,0,0,0,0,0,0,0,0
1682167083.09933996,123128229,1545,1544,1545,1545,0,0,0,0,0,0,0,0,0,0
1682167083.19930005,123228189,1544,1544,1544,1544,0,0,0,0,0,0,0,0,0,0
1682167083.30009317,123328982,1544,1543,1543,1543,0,0,0,0,0,0,0,0,0,0
1682167083.40005302,123428942,1543,1544,1544,1543,0,0,0,0,0,0,0,0,0,0
1682167083.50001311,123528902,1544,1544,1543,1544,0,0,0,0,0,0,0,0,0,0
1682167083.59997296,123628862,1543,1544,1543,1543,0,0,0,0,0,0,0,0,0,0
1682167083.69993305,123728822,1544,1544,1544,1544,0,0,0,0,0,0,0,0,0,0
1682167083.79989314,123828782,1544,1544,1544,1543,0,0,0,0,0,0,0,0,0,0
1682167083.89985299,123928742,1544,1543,1544,1543,0,0,0,0,0,0,0,0,0,0
1682167083.99981308,124028702,1544,1544,1544,1544,0,0,0,0,0,0,0,0,0,0
1682167084.09977317,124128662,1543,1543,1543,1543,0,0,0,0,0,0,0,0,0,0
1682167084.19973302,124228622,1544,1543,1544,1544,0,0,0,0,0,0,0,0,0,0
1682167084.29969311,124328582,1544,1544,1544,1544,0,0,0,0,0,0,0,0,0,0
1682167084.39965296,124428542,1544,1544,1544,1543,0,0,0,0,0,0,0,0,0,0
1682167084.49961305,124528502,1544,1544,1544,1544,0,0,0,0,0,0,0,0,0,0
1682167084.59957314,124628462,1544,1544,1544,1545,0,0,0,0,0,0,0,0,0,0
1682167084.69953299,124728422,1544,1544,1544,1544,0,0,0,0,0,0,0,0,0,0
1682167084.79949307,124828382,1544,1544,1544,1544,0,0,0,0,0,0,0,0,0,0
1682167084.89945316,124928342,1545,1545,1545,1544,0,0,0,0,0,0,0,0,0,0
1682167084.99941301,125028302,1544,1545,1545,1544,0,0,0,0,0,0,0,0,0,0
1682167085.09937310,125128262,1544,1544,1544,1544,0,0,0,0,0,0,0,0,0,0
1682167085.19933295,125228222,1544,1544,1544,1544,0,0,0,0,0,0,0,0,0,0
1682167085.29929304,125328182,1544,1544,1544,1545,0,0,0,0,0,0,0,0,0,0
1682167085.40008616,125428975,1545,1545,1545,1545,0,0,0,0,0,0,0,0,0,0
1682167085.50004601,125528935,1545,1545,1545,1545,0,0,0,0,0,0,0,0,0,0
1682167085.60000610,125628895,1545,1544,1545,1544,0,0,0,0,0,0,0,0,0,0
1682167085.69996595,125728855,1545,1544,1544,1544,0,0,0,0,0,0,0,0,0,0
1682167085.79992604,125828815,1544,1544,1544,1544,0,0,0,0,0,0,0,0,0,0
1682167085.89988613,125928775,1544,1544,1544,1544,0,0,0,0,0,0,0,0,0,0
1682167085.99984598,126028735,1544,1544,1544,1544,0,0,0,0,0,0,0,0,0,0
1682167086.09980607,126128695,1544,1544,1543,1545,0,0,0,0,0,0,0,0,0,0
1682167086.19976616,126228655,1544,1545,1544,1545,0,0,0,0,0,0,0,0,0,0
1682167086.29972601,126328615,1544,1544,1543,1544,0,0,0,0,0,0,0,0,0,0
1682167086.39968610,126428575,1543,1544,1544,1544,0,0,0,0,0,0,0,0,0,0
1682167086.49964595,126528535,1544,1544,1544,1544,0,0,0,0,0,0,0,0,0,0
1682167086.59960604,126628495,1543,1543,1543,1543,0,0,0,0,0,0,0,0,0,0
1682167086.69956613,126728455,1544,1543,1543,1544,0,0,0,0,0,0,0,0,0,0
1682167086.79952598,126828415,1544,1544,1545,1544,0,0,0,0,0,0,0,0,0,0
1682167086.89948606,126928375,1544,1544,1544,1544,0,0,0,0,0,0,0,0,0,0
1682167086.99944615,127028335,1544,1544,1544,1544,0,0,0,0,0,0,0,0,0,0
1682167087.09940600,127128295,1545,1544,1544,1545,0,0,0,0,0,0,0,0,0,0
1682167087.19936609,127228255,1544,1545,1544,1545,0,0,0,0,0,0,0,0,0,0
1682167087.29932594,127328215,1545,1545,1545,1545,0,0,0,0,0,0,0,0,0,0
1682167087.39928603,127428175,1545,1545,1545,1545,0,0,0,0,0,0,0,0,0,0
1682167087.50007915,127528968,1545,1544,1544,1544,0,0,0,0,0,0,0,0,0,0
1682167087.60003901,127628928,1544,1544,1544,1544,0,0,0,0,0,0,0,0,0,0
1682167087.69999909,127728888,1545,1545,1545,1545,0,0,0,0,0,0,0,0,0,0
1682167087.79995894,127828848,1545,1545,1545,1545,0,0,0,0,0,0,0,0,0,0
1682167087.89991903,127928808,1545,1544,1545,1545,0,0,0,0,0,0,0,0,0,0
1682167087.99987912,128028768,1545,1546,1545,1545,0,0,0,0,0,0,0,0,0,0
1682167088.09983897,128128728,1544,1544,1544,1545,0,0,0,0,0,0,0,0,0,0
1682167088.19979906,128228688,1544,1544,1544,1544,0,0,0,0,0,0,0,0,0,0
1682167088.29975915,128328648,1544,1544,1544,1544,0,0,0,0,0,0,0,0,0,0
1682167088.39971900,128428608,1543,1543,1543,1543,0,0,0,0,0,0,0,0,0,0
1682167088.49967909,128528568,1544,1544,1544,1544,0,0,0,0,0,0,0,0,0,0
1682167088.59963918,128628528,1544,1545,1544,1544,0,0,0,0,0,0,0,0,0,0
1682167088.69959903,128728488,1544,1544,1544,1544,0,0,0,0,0,0,0,0,0,0
1682167088.79955912,128828448,1544,1544,1544,1544,0,0,0,0,0,0,0,0,0,0
1682167088.89951897,128928408,1544,1543,1544,1544,0,0,0,0,0,0,0,0,0,0
1682167088.99947906,129028368,1544,1544,1544,1544,0,0,0,0,0,0,0,0,0,0
1682167089.09943914,129128328,1545,1544,1544,1545,0,0,0,0,0,0,0,0,0,0
1682167089.19939899,129228288,1545,1545,1545,1545,0,0,0,0,0,0,0,0,0,0
1682167089.29935908,129328248,1544,1544,1544,1544,0,0,0,0,0,0,0,0,0,0
1682167089.39931917,129428208,1544,1544,1545,1544,0,0,0,0,0,0,0,0,0,0
1682167089.49927902,129528168,1544,1544,1544,1544,0,0,0,0,0,0,0,0,0,0
1682167089.60007215,129628961,1543,1544,1544,1544,0,0,0,0,0,0,0,0,0,0
1682167089.70003200,129728921,1544,1544,1544,1544,0,0,0,0,0,0,0,0,0,0
1682167089.79999208,129828881,1544,1544,1545,1544,0,0,0,0,0,0,0,0,0,0
1682167089.89995217,129928841,1544,1544,1544,1545,0,0,0,0,0,0,0,0,0,0
1682167089.99991202,130028801,1544,1544,1544,1545,0,0,0,0,0,0,0,0,0,0
1682167090.09987211,130128761,1544,1543,1544,1544,0,0,0,0,0,0,0,0,0,0
1682167090.19983196,130228721,1544,1544,1544,1544,0,0,0,0,0,0,0,0,0,0
1682167090.29979205,130328681,1545,1545,1545,1544,0,0,0,0,0,0,0,0,0,0
1682167090.39975214,130428641,1462,1430,1462,1430,0,0,0,0,0,0,0,0,0,0
1682167090.49971199,130528601,1368,1282,1368,1283,0,0,0,0,0,0,0,0,0,0
1682167090.59967208,130628561,1335,1225,1335,1225,0,0,0,0,0,0,0,0,0,0
1682167090.69963217,130728521,1324,1204,1324,1206,0,0,0,0,0,0,0,0,0,0
1682167090.79959202,130828481,1307,1173,1307,1173,0,0,0,0,0,0,0,0,0,0
1682167090.89955211,130928441,1270,1150,1269,1151,0,0,0,0,0,0,0,0,0,0
1682167090.99951196,131028401,1173,1150,1173,1150,0,0,0,0,0,0,0,0,0,0
1682167091.09947205,131128361,1060,1150,1059,1150,0,0,0,0,0,0,0,0,0,0
1682167091.19943213,131228321,1042,1150,1042,1150,0,0,0,0,0,0,0,0,0,0
1682167091.29939198,131328281,1042,1150,1042,1150,0,0,0,0,0,0,0,0,0,0
1682167091.39935207,131428241,1042,1150,1042,1150,0,0,0,0,0,0,0,0,0,0
1682167091.49931216,131528201,1042,1150,1033,1163,0,0,0,0,0,0,0,0,0,0
1682167091.59927201,131628161,1042,1150,1036,1158,0,0,0,0,0,0,0,0,0,0
1682167091.70006514,131728954,1042,1150,1037,1157,0,0,0,0,0,0,0,0,0,0
1682167091.80002499,131828914,1042,1150,1037,1157,0,0,0,0,0,0,0,0,0,0
1682167091.89998507,131928874,1042,1150,1036,1158,0,0,0,0,0,0,0,0,0,0
1682167091.99994516,132028834,1042,1150,1036,1158,0,0,0,0,0,0,0,0,0,0
1682167092.09990501,132128794,1042,1150,1035,1159,0,0,0,0,0,0,0,0,0,0
1682167092.19986510,132228754,1042,1150,1037,1156,0,0,0,0,0,0,0,0,0,0
1682167092.29982495,132328714,1042,1150,1039,1153,0,0,0,0,0,0,0,0,0,0
1682167092.39978504,132428674,1042,1150,1039,1154,0,0,0,0,0,0,0,0,0,0
1682167092.49974513,132528634,1042,1150,1039,1154,0,0,0,0,0,0,0,0,0,0
1682167092.59970498,132628594,1042,1150,1039,1154,0,0,0,0,0,0,0,0,0,0
1682167092.69966507,132728554,871,1150,871,1150,0,0,0,0,0,0,0,0,0,0
1682167092.79962516,132828514,1000,1000,1000,1000,0,0,0,0,0,0,0,0,0,0
1682167092.89958501,132928474,1000,1000,1000,1000,0,0,0,0,0,0,0,0,0,0
1682167092.99954510,133028434,1000,1000,1000,1000,0,0,0,0,0,0,0,0,0,0
1682167093.09950495,133128394,1000,1000,1000,1000,0,0,0,0,0,0,0,0,0,0
1682167093.19946504,133228354,1000,1000,1000,1000,0,0,0,0,0,0,0,0,0,0
1682167093.29942513,133328314,1000,1000,1000,1000,0,0,0,0,0,0,0,0,0,0
1682167093.39938498,133428274,1000,1000,1000,1000,0,0,0,0,0,0,0,0,0,0
1682167093.49934506,133528234,1000,1000,1000,1000,0,0,0,0,0,0,0,0,0,0
1682167093.59930515,133628194,1000,1000,1000,1000,0,0,0,0,0,0,0,0,0,0
1682167093.69926500,133728154,1000,1000,1000,1000,0,0,0,0,0,0,0,0,0,0
1682167093.80005813,133828947,1000,1000,1000,1000,0,0,0,0,0,0,0,0,0,0
1682167093.90001798,133928907,1000,1000,1000,1000,0,0,0,0,0,0,0,0,0,0
1682167093.99997807,134028867,1000,1000,1000,1000,0,0,0,0,0,0,0,0,0,0
1682167094.09993815,134128827,1000,1000,1000,1000,0,0,0,0,0,0,0,0,0,0
1682167094.19989800,134228787,1000,1000,1000,1000,0,0,0,0,0,0,0,0,0,0
1682167094.29985809,134328747,1000,1000,1000,1000,0,0,0,0,0,0,0,0,0,0
1682167094.39981794,134428707,1000,1000,1000,1000,0,0,0,0,0,0,0,0,0,0
1682167094.49977803,134528667,1000,1000,1000,1000,0,0,0,0,0,0,0,0,0,0
1682167094.59973812,134628627,1000,1000,1000,1000,0,0,0,0,0,0,0,0,0,0
1682167094.69969797,134728587,1000,1000,1000,1000,0,0,0,0,0,0,0,0,0,0
1682167094.79965806,134828547,1000,1000,1000,1000,0,0,0,0,0,0,0,0,0,0
1682167094.89961815,134928507,1000,1000,1000,1000,0,0,0,0,0,0,0,0,0,0
1682167094.99957800,135028467,1000,1000,1000,1000,0,0,0,0,0,0,0,0,0,0
1682167095.09953809,135128427,1000,1000,1000,1000,0,0,0,0,0,0,0,0,0,0
1682167095.19949818,135228387,1000,1000,1000,1000,0,0,0,0,0,0,0,0,0,0
1682167095.29945803,135328347,1000,1000,1000,1000,0,0,0,0,0,0,0,0,0,0
1682167095.39941812,135428307,1000,1000,1000,1000,0,0,0,0,0,0,0,0,0,0
1682167095.49937797,135528267,1000,1000,1000,1000,0,0,0,0,0,0,0,0,0,0
1682167095.59933805,135628227,1000,1000,1000,1000,0,0,0,0,0,0,0,0,0,0
1682167095.69929814,135728187,1000,1000,1000,1000,0,0,0,0,0,0,0,0,0,0
1682167095.80009103,135828980,1000,1000,1000,1000,0,0,0,0,0,0,0,0,0,0
1682167095.90005112,135928940,1000,1000,1000,1000,0,0,0,0,0,0,0,0,0,0
1682167096.00001097,136028900,1000,1000,1000,1000,0,0,0,0,0,0,0,0,0,0
1682167096.09997106,136128860,1000,1000,1000,1000,0,0,0,0,0,0,0,0,0,0
1682167096.19993114,136228820,1000,1000,1000,1000,0,0,0,0,0,0,0,0,0,0
1682167096.29989100,136328780,1000,1000,1000,1000,0,0,0,0,0,0,0,0,0,0
1682167096.39985108,136428740,1000,1000,1000,1000,0,0,0,0,0,0,0,0,0,0
1682167096.49981117,136528700,1000,1000,1000,1000,0,0,0,0,0,0,0,0,0,0
1682167096.59977102,136628660,1000,1000,1000,1000,0,0,0,0,0,0,0,0,0,0
1682167096.69973111,136728620,1000,1000,1000,1000,0,0,0,0,0,0,0,0,0,0
1682167096.79969096,136828580,1000,1000,1000,1000,0,0,0,0,0,0,0,0,0,0
1682167096.89965105,136928540,1000,1000,1000,1000,0,0,0,0,0,0,0,0,0,0
1682167096.99961114,137028500,1000,1000,1000,1000,0,0,0,0,0,0,0,0,0,0
1682167097.09957099,137128460,1000,1000,1000,1000,0,0,0,0,0,0,0,0,0,0
1682167097.19953108,137228420,1000,1000,1000,1000,0,0,0,0,0,0,0,0,0,0
1682167097.29949117,137328380,1000,1000,1000,1000,0,0,0,0,0,0,0,0,0,0
1682167097.39945102,137428340,1000,1000,1000,1000,0,0,0,0,0,0,0,0,0,0
1682167097.49941111,137528300,1000,1000,1000,1000,0,0,0,0,0,0,0,0,0,0
1682167097.59937096,137628260,1000,1000,1000,1000,0,0,0,0,0,0,0,0,0,0
1682167097.69933105,137728220,1000,1000,1000,1000,0,0,0,0,0,0,0,0,0,0
1682167097.79929113,137828180,1000,1000,1000,1000,0,0,0,0,0,0,0,0,0,0
1682167097.90008402,137928973,1000,1000,1000,1000,0,0,0,0,0,0,0,0,0,0
1682167098.00004411,138028933,1000,1000,1000,1000,0,0,0,0,0,0,0,0,0,0
1682167098.10000396,138128893,1000,1000,1000,1000,0,0,0,0,0,0,0,0,0,0
1682167098.19996405,138228853,1000,1000,1000,1000,0,0,0,0,0,0,0,0,0,0
1682167098.29992414,138328813,1000,1000,1000,1000,0,0,0,0,0,0,0,0,0,0
1682167098.39988399,138428773,1000,1000,1000,1000,0,0,0,0,0,0,0,0,0,0
1682167098.49984407,138528733,1000,1000,1000,1000,0,0,0,0,0,0,0,0,0,0
1682167098.59980416,138628693,1000,1000,1000,1000,0,0,0,0,0,0,0,0,0,0
1682167098.69976401,138728653,1000,1000,1000,1000,0,0,0,0,0,0,0,0,0,0
1682167098.79972410,138828613,1000,1000,1000,1000,0,0,0,0,0,0,0,0,0,0
1682167098.89968395,138928573,1000,1000,1000,1000,0,0,0,0,0,0,0,0,0,0
1682167098.99964404,139028533,1000,1000,1000,1000,0,0,0,0,0,0,0,0,0,0
1682167099.09960413,139128493,1000,1000,1000,1000,0,0,0,0,0,0,0,0,0,0
1682167099.19956398,139228453,1000,1000,1000,1000,0,0,0,0,0,0,0,0,0,0
1682167099.29952407,139328413,1000,1000,1000,1000,0,0,0,0,0,0,0,0,0,0
1682167099.39948416,139428373,1000,1000,1000,1000,0,0,0,0,0,0,0,0,0,0
1682167099.49944401,139528333,1000,1000,1000,1000,0,0,0,0,0,0,0,0,0,0
1682167099.59940410,139628293,1000,1000,1000,1000,0,0,0,0,0,0,0,0,0,0
1682167099.69936395,139728253,1000,1000,1000,1000,0,0,0,0,0,0,0,0,0,0
1682167099.79932404,139828213,1000,1000,1000,1000,0,0,0,0,0,0,0,0,0,0
1682167099.89928412,139928173,1000,1000,1000,1000,0,0,0,0,0,0,0,0,0,0
1682167100.00007701,140028966,1000,1000,1000,1000,0,0,0,0,0,0,0,0,0,0
1682167100.10003710,140128926,1000,1000,1000,1000,0,0,0,0,0,0,0,0,0,0
1682167100.19999695,140228886,1000,1000,1000,1000,0,0,0,0,0,0,0,0,0,0
1682167100.29995704,140328846,1000,1000,1000,1000,0,0,0,0,0,0,0,0,0,0
1682167100.39991713,140428806,1000,1000,1000,1000,0,0,0,0,0,0,0,0,0,0
1682167100.49987698,140528766,1000,1000,1000,1000,0,0,0,0,0,0,0,0,0,0
1682167100.59983706,140628726,1000,1000,1000,1000,0,0,0,0,0,0,0,0,0,0
1682167100.69979715,140728686,1000,1000,1000,1000,0,0,0,0,0,0,0,0,0,0
1682167100.79975700,140828646,1000,1000,1000,1000,0,0,0,0,0,0,0,0,0,0
1682167100.89971709,140928606,1000,1000,1000,1000,0,0,0,0,0,0,0,0,0,0
1682167100.99967694,141028566,1000,1000,1000,1000,0,0,0,0,0,0,0,0,0,0
1682167101.09963703,141128526,1000,1000,1000,1000,0,0,0,0,0,0,0,0,0,0
1682167101.19959712,141228486,1000,1000,1000,1000,0,0,0,0,0,0,0,0,0,0
1682167101.29955697,141328446,1000,1000,1000,1000,0,0,0,0,0,0,0,0,0,0
