timestamp,TimeUS,C1,C2,C3,C4,C5,C6,C7,C8,C9,C10,C11,C12,C13,C14
1683030819.79999995,62428352,1000,1000,1000,1000,0,0,0,0,0,0,0,0,0,0
1683030819.89995980,62528312,1000,1000,1000,1000,0,0,0,0,0,0,0,0,0,0
1683030819.99991989,62628272,1000,1000,1000,1000,0,0,0,0,0,0,0,0,0,0
1683030820.09987974,62728232,1000,1000,1000,1000,0,0,0,0,0,0,0,0,0,0
1683030820.19983983,62828192,1000,1000,1000,1000,0,0,0,0,0,0,0,0,0,0
1683030820.30063295,62928985,1000,1000,1000,1000,0,0,0,0,0,0,0,0,0,0
1683030820.40059280,63028945,1000,1000,1000,1000,0,0,0,0,0,0,0,0,0,0
1683030820.50055289,63128905,1000,1000,1000,1000,0,0,0,0,0,0,0,0,0,0
1683030820.60051274,63228865,1000,1000,1000,1000,0,0,0,0,0,0,0,0,0,0
1683030820.70047283,63328825,1000,1000,1000,1000,0,0,0,0,0,0,0,0,0,0
1683030820.80043292,63428785,1000,1000,1000,1000,0,0,0,0,0,0,0,0,0,0
1683030820.90039277,63528745,1000,1000,1000,1000,0,0,0,0,0,0,0,0,0,0
1683030821.00035286,63628705,1000,1000,1000,1000,0,0,0,0,0,0,0,0,0,0
1683030821.10031295,63728665,1000,1000,1000,1000,0,0,0,0,0,0,0,0,0,0
1683030821.20027280,63828625,1000,1000,1000,1000,0,0,0,0,0,0,0,0,0,0
1683030821.30023289,63928585,1000,1000,1000,1000,0,0,0,0,0,0,0,0,0,0
1683030821.40019274,64028545,1000,1000,1000,1000,0,0,0,0,0,0,0,0,0,0
1683030821.50015283,64128505,1000,1000,1000,1000,0,0,0,0,0,0,0,0,0,0
1683030821.60011292,64228465,1000,1000,1000,1000,0,0,0,0,0,0,0,0,0,0
1683030821.70007277,64328425,1000,1000,1000,1000,0,0,0,0,0,0,0,0,0,0
1683030821.80003285,64428385,1015,1015,1015,1015,0,0,0,0,0,0,0,0,0,0
1683030821.89999294,64528345,1045,1045,1045,1045,0,0,0,0,0,0,0,0,0,0
1683030821.99995279,64628305,1075,1075,1075,1075,0,0,0,0,0,0,0,0,0,0
1683030822.09991288,64728265,1104,1104,1104,1104,0,0,0,0,0,0,0,0,0,0
1683030822.19987273,64828225,1134,1134,1134,1134,0,0,0,0,0,0,0,0,0,0
1683030822.29983282,64928185,1288,1280,1281,1289,0,0,0,0,0,0,0,0,0,0
1683030822.40062594,65028978,1495,1489,1489,1495,0,0,0,0,0,0,0,0,0,0
1683030822.50058579,65128938,1657,1650,1651,1656,0,0,0,0,0,0,0,0,0,0
1683030822.60054588,65228898,1792,1788,1788,1793,0,0,0,0,0,0,0,0,0,0
1683030822.70050573,65328858,1886,1880,1880,1886,0,0,0,0,0,0,0,0,0,0
1683030822.80046582,65428818,1868,1865,1865,1868,0,0,0,0,0,0,0,0,0,0
1683030822.90042591,65528778,1742,1741,1741,1742,0,0,0,0,0,0,0,0,0,0
1683030823.00038576,65628738,1646,1648,1648,1646,0,0,0,0,0,0,0,0,0,0
1683030823.10034585,65728698,1619,1621,1622,1619,0,0,0,0,0,0,0,0,0,0
1683030823.20030594,65828658,1627,1630,1629,1627,0,0,0,0,0,0,0,0,0,0
1683030823.30026579,65928618,1637,1637,1637,1636,0,0,0,0,0,0,0,0,0,0
1683030823.40022588,66028578,1637,1637,1637,1636,0,0,0,0,0,0,0,0,0,0
1683030823.50018573,66128538,1630,1629,1629,1629,0,0,0,0,0,0,0,0,0,0
1683030823.60014582,66228498,1623,1621,1622,1622,0,0,0,0,0,0,0,0,0,0
1683030823.70010591,66328458,1602,1601,1594,1608,0,0,0,0,0,0,0,0,0,0
1683030823.80006576,66428418,1595,1594,1586,1604,0,0,0,0,0,0,0,0,0,0
1683030823.90002584,66528378,1594,1593,1587,1598,0,0,0,0,0,0,0,0,0,0
1683030823.99998593,66628338,1596,1596,1595,1596,0,0,0,0,0,0,0,0,0,0
1683030824.09994578,66728298,1600,1601,1603,1598,0,0,0,0,0,0,0,0,0,0
1683030824.19990587,66828258,1601,1603,1607,1597,0,0,0,0,0,0,0,0,0,0
1683030824.29986572,66928218,1577,1578,1596,1558,0,0,0,0,0,0,0,0,0,0
1683030824.39982581,67028178,1566,1566,1581,1552,0,0,0,0,0,0,0,0,0,0
1683030824.50061893,67128971,1555,1555,1557,1554,0,0,0,0,0,0,0,0,0,0
1683030824.60057878,67228931,1546,1545,1537,1556,0,0,0,0,0,0,0,0,0,0
1683030824.70053887,67328891,1539,1538,1526,1551,0,0,0,0,0,0,0,0,0,0
1683030824.80049872,67428851,1531,1531,1521,1541,0,0,0,0,0,0,0,0,0,0
1683030824.90045881,67528811,1528,1527,1522,1533,0,0,0,0,0,0,0,0,0,0
1683030825.00041890,67628771,1528,1527,1526,1529,0,0,0,0,0,0,0,0,0,0
1683030825.10037875,67728731,1530,1530,1531,1528,0,0,0,0,0,0,0,0,0,0
1683030825.20033884,67828691,1533,1533,1536,1530,0,0,0,0,0,0,0,0,0,0
1683030825.30029893,67928651,1536,1536,1540,1531,0,0,0,0,0,0,0,0,0,0
1683030825.40025878,68028611,1540,1540,1544,1536,0,0,0,0,0,0,0,0,0,0
1683030825.50021887,68128571,1544,1543,1545,1541,0,0,0,0,0,0,0,0,0,0
1683030825.60017872,68228531,1547,1547,1547,1547,0,0,0,0,0,0,0,0,0,0
1683030825.70013881,68328491,1549,1549,1549,1550,0,0,0,0,0,0,0,0,0,0
1683030825.80009890,68428451,1552,1552,1551,1554,0,0,0,0,0,0,0,0,0,0
1683030825.90005875,68528411,1551,1551,1557,1561,0,0,0,0,0,0,0,0,0,0
1683030826.00001884,68628371,1551,1552,1560,1563,0,0,0,0,0,0,0,0,0,0
1683030826.09997892,68728331,1554,1554,1562,1563,0,0,0,0,0,0,0,0,0,0
1683030826.19993877,68828291,1557,1558,1563,1562,0,0,0,0,0,0,0,0,0,0
1683030826.29989886,68928251,1561,1562,1564,1563,0,0,0,0,0,0,0,0,0,0
1683030826.39985895,69028211,1564,1565,1564,1563,0,0,0,0,0,0,0,0,0,0
1683030826.49981880,69128171,1568,1568,1565,1564,0,0,0,0,0,0,0,0,0,0
1683030826.60061193,69228964,1571,1571,1566,1566,0,0,0,0,0,0,0,0,0,0
1683030826.70057178,69328924,1571,1571,1565,1565,0,0,0,0,0,0,0,0,0,0
1683030826.80053186,69428884,1572,1572,1566,1566,0,0,0,0,0,0,0,0,0,0
1683030826.90049195,69528844,1573,1572,1567,1567,0,0,0,0,0,0,0,0,0,0
1683030827.00045180,69628804,1573,1573,1569,1569,0,0,0,0,0,0,0,0,0,0
1683030827.10041189,69728764,1574,1574,1571,1571,0,0,0,0,0,0,0,0,0,0
1683030827.20037174,69828724,1573,1573,1572,1571,0,0,0,0,0,0,0,0,0,0
1683030827.30033183,69928684,1575,1575,1575,1574,0,0,0,0,0,0,0,0,0,0
1683030827.40029192,70028644,1574,1574,1576,1574,0,0,0,0,0,0,0,0,0,0
1683030827.50025177,70128604,1574,1574,1576,1575,0,0,0,0,0,0,0,0,0,0
1683030827.60021186,70228564,1574,1574,1576,1576,0,0,0,0,0,0,0,0,0,0
1683030827.70017195,70328524,1574,1574,1576,1576,0,0,0,0,0,0,0,0,0,0
1683030827.80013180,70428484,1575,1575,1577,1576,0,0,0,0,0,0,0,0,0,0
1683030827.90009189,70528444,1575,1576,1577,1577,0,0,0,0,0,0,0,0,0,0
1683030828.00005174,70628404,1576,1577,1577,1578,0,0,0,0,0,0,0,0,0,0
1683030828.10001183,70728364,1577,1577,1577,1577,0,0,0,0,0,0,0,0,0,0
1683030828.19997191,70828324,1577,1576,1577,1576,0,0,0,0,0,0,0,0,0,0
1683030828.29993176,70928284,1577,1577,1577,1577,0,0,0,0,0,0,0,0,0,0
1683030828.39989185,71028244,1578,1578,1578,1577,0,0,0,0,0,0,0,0,0,0
1683030828.49985194,71128204,1578,1578,1577,1577,0,0,0,0,0,0,0,0,0,0
1683030828.59981179,71228164,1578,1578,1577,1577,0,0,0,0,0,0,0,0,0,0
1683030828.70060492,71328957,1577,1577,1577,1576,0,0,0,0,0,0,0,0,0,0
1683030828.80056477,71428917,1577,1577,1577,1577,0,0,0,0,0,0,0,0,0,0
1683030828.90052485,71528877,1577,1577,1576,1577,0,0,0,0,0,0,0,0,0,0
1683030829.00048494,71628837,1577,1577,1577,1577,0,0,0,0,0,0,0,0,0,0
1683030829.10044479,71728797,1578,1577,1577,1577,0,0,0,0,0,0,0,0,0,0
1683030829.20040488,71828757,1578,1578,1578,1578,0,0,0,0,0,0,0,0,0,0
1683030829.30036473,71928717,1579,1579,1579,1579,0,0,0,0,0,0,0,0,0,0
1683030829.40032482,72028677,1578,1578,1578,1578,0,0,0,0,0,0,0,0,0,0
1683030829.50028491,72128637,1579,1579,1579,1580,0,0,0,0,0,0,0,0,0,0
1683030829.60024476,72228597,1579,1579,1580,1580,0,0,0,0,0,0,0,0,0,0
1683030829.70020485,72328557,1579,1579,1580,1580,0,0,0,0,0,0,0,0,0,0
1683030829.80016494,72428517,1578,1579,1579,1579,0,0,0,0,0,0,0,0,0,0
1683030829.90012479,72528477,1579,1579,1579,1579,0,0,0,0,0,0,0,0,0,0
1683030830.00008488,72628437,1579,1580,1580,1580,0,0,0,0,0,0,0,0,0,0
1683030830.10004473,72728397,1579,1580,1580,1580,0,0,0,0,0,0,0,0,0,0
1683030830.20000482,72828357,1580,1580,1580,1580,0,0,0,0,0,0,0,0,0,0
1683030830.29996490,72928317,1580,1580,1580,1580,0,0,0,0,0,0,0,0,0,0
1683030830.39992476,73028277,1580,1580,1580,1580,0,0,0,0,0,0,0,0,0,0
1683030830.49988484,73128237,1580,1580,1580,1580,0,0,0,0,0,0,0,0,0,0
1683030830.59984493,73228197,1581,1581,1581,1580,0,0,0,0,0,0,0,0,0,0
1683030830.69980478,73328157,1580,1580,1580,1580,0,0,0,0,0,0,0,0,0,0
1683030830.80059791,73428950,1581,1580,1580,1580,0,0,0,0,0,0,0,0,0,0
1683030830.90055776,73528910,1581,1581,1580,1581,0,0,0,0,0,0,0,0,0,0
1683030831.00051785,73628870,1580,1580,1580,1580,0,0,0,0,0,0,0,0,0,0
1683030831.10047793,73728830,1580,1580,1579,1580,0,0,0,0,0,0,0,0,0,0
1683030831.20043778,73828790,1581,1581,1581,1581,0,0,0,0,0,0,0,0,0,0
1683030831.30039787,73928750,1581,1581,1581,1581,0,0,0,0,0,0,0,0,0,0
1683030831.40035772,74028710,1581,1581,1581,1581,0,0,0,0,0,0,0,0,0,0
1683030831.50031781,74128670,1582,1582,1582,1582,0,0,0,0,0,0,0,0,0,0
1683030831.60027790,74228630,1581,1581,1582,1582,0,0,0,0,0,0,0,0,0,0
1683030831.70023775,74328590,1581,1581,1581,1581,0,0,0,0,0,0,0,0,0,0
1683030831.80019784,74428550,1581,1582,1582,1582,0,0,0,0,0,0,0,0,0,0
1683030831.90015793,74528510,1581,1581,1581,1581,0,0,0,0,0,0,0,0,0,0
1683030832.00011778,74628470,1581,1582,1581,1581,0,0,0,0,0,0,0,0,0,0
1683030832.10007787,74728430,1582,1582,1584,1580,0,0,0,0,0,0,0,0,0,0
1683030832.20003772,74828390,1581,1582,1588,1574,0,0,0,0,0,0,0,0,0,0
1683030832.29999781,74928350,1581,1582,1583,1574,0,0,0,0,0,0,0,0,0,0
1683030832.39995790,75028310,1579,1581,1574,1574,0,0,0,0,0,0,0,0,0,0
1683030832.49991775,75128270,1577,1579,1566,1571,0,0,0,0,0,0,0,0,0,0
1683030832.59987783,75228230,1578,1580,1561,1567,0,0,0,0,0,0,0,0,0,0
1683030832.69983792,75328190,1578,1578,1556,1562,0,0,0,0,0,0,0,0,0,0
1683030832.80063081,75428983,1579,1578,1555,1558,0,0,0,0,0,0,0,0,0,0
1683030832.90059090,75528943,1580,1578,1556,1556,0,0,0,0,0,0,0,0,0,0
1683030833.00055075,75628903,1579,1578,1556,1554,0,0,0,0,0,0,0,0,0,0
1683030833.10051084,75728863,1578,1578,1556,1554,0,0,0,0,0,0,0,0,0,0
1683030833.20047092,75828823,1576,1577,1556,1553,0,0,0,0,0,0,0,0,0,0
1683030833.30043077,75928783,1574,1576,1554,1553,0,0,0,0,0,0,0,0,0,0
1683030833.40039086,76028743,1574,1576,1553,1553,0,0,0,0,0,0,0,0,0,0
1683030833.50035095,76128703,1574,1575,1552,1552,0,0,0,0,0,0,0,0,0,0
1683030833.60031080,76228663,1575,1576,1551,1551,0,0,0,0,0,0,0,0,0,0
1683030833.70027089,76328623,1577,1578,1550,1550,0,0,0,0,0,0,0,0,0,0
1683030833.80023074,76428583,1579,1580,1548,1547,0,0,0,0,0,0,0,0,0,0
1683030833.90019083,76528543,1582,1583,1545,1545,0,0,0,0,0,0,0,0,0,0
1683030834.00015092,76628503,1585,1585,1543,1542,0,0,0,0,0,0,0,0,0,0
1683030834.10011077,76728463,1589,1589,1540,1540,0,0,0,0,0,0,0,0,0,0
1683030834.20007086,76828423,1591,1591,1537,1537,0,0,0,0,0,0,0,0,0,0
1683030834.30003095,76928383,1593,1593,1535,1535,0,0,0,0,0,0,0,0,0,0
1683030834.39999080,77028343,1595,1595,1535,1535,0,0,0,0,0,0,0,0,0,0
1683030834.49995089,77128303,1595,1595,1535,1536,0,0,0,0,0,0,0,0,0,0
1683030834.59991074,77228263,1594,1594,1536,1538,0,0,0,0,0,0,0,0,0,0
1683030834.69987082,77328223,1592,1592,1540,1543,0,0,0,0,0,0,0,0,0,0
1683030834.79983091,77428183,1588,1587,1546,1549,0,0,0,0,0,0,0,0,0,0
1683030834.90062380,77528976,1582,1579,1555,1558,0,0,0,0,0,0,0,0,0,0
1683030835.00058389,77628936,1573,1570,1566,1568,0,0,0,0,0,0,0,0,0,0
1683030835.10054374,77728896,1562,1558,1577,1579,0,0,0,0,0,0,0,0,0,0
1683030835.20050383,77828856,1550,1547,1589,1590,0,0,0,0,0,0,0,0,0,0
1683030835.30046391,77928816,1540,1537,1600,1600,0,0,0,0,0,0,0,0,0,0
1683030835.40042377,78028776,1532,1532,1609,1608,0,0,0,0,0,0,0,0,0,0
1683030835.50038385,78128736,1528,1529,1614,1613,0,0,0,0,0,0,0,0,0,0
1683030835.60034394,78228696,1529,1531,1616,1615,0,0,0,0,0,0,0,0,0,0
1683030835.70030379,78328656,1531,1534,1613,1612,0,0,0,0,0,0,0,0,0,0
1683030835.80026388,78428616,1538,1541,1609,1608,0,0,0,0,0,0,0,0,0,0
1683030835.90022373,78528576,1546,1547,1601,1602,0,0,0,0,0,0,0,0,0,0
1683030836.00018382,78628536,1554,1555,1593,1593,0,0,0,0,0,0,0,0,0,0
1683030836.10014391,78728496,1564,1564,1586,1586,0,0,0,0,0,0,0,0,0,0
1683030836.20010376,78828456,1572,1571,1578,1579,0,0,0,0,0,0,0,0,0,0
1683030836.30006385,78928416,1578,1577,1573,1572,0,0,0,0,0,0,0,0,0,0
1683030836.40002394,79028376,1584,1583,1569,1568,0,0,0,0,0,0,0,0,0,0
1683030836.49998379,79128336,1587,1585,1567,1566,0,0,0,0,0,0,0,0,0,0
1683030836.59994388,79228296,1588,1587,1567,1566,0,0,0,0,0,0,0,0,0,0
1683030836.69990373,79328256,1587,1586,1566,1567,0,0,0,0,0,0,0,0,0,0
1683030836.79986382,79428216,1586,1585,1568,1569,0,0,0,0,0,0,0,0,0,0
1683030836.89982390,79528176,1583,1582,1571,1571,0,0,0,0,0,0,0,0,0,0
1683030837.00061679,79628969,1581,1580,1575,1575,0,0,0,0,0,0,0,0,0,0
1683030837.10057688,79728929,1576,1576,1576,1576,0,0,0,0,0,0,0,0,0,0
1683030837.20053673,79828889,1574,1575,1580,1579,0,0,0,0,0,0,0,0,0,0
1683030837.30049682,79928849,1480,1528,1488,1537,0,0,0,0,0,0,0,0,0,0
1683030837.40045691,80028809,1552,1554,1561,1566,0,0,0,0,0,0,0,0,0,0
1683030837.50041676,80128769,1606,1569,1619,1580,0,0,0,0,0,0,0,0,0,0
1683030837.60037684,80228729,1649,1597,1661,1607,0,0,0,0,0,0,0,0,0,0
1683030837.70033693,80328689,1669,1620,1678,1627,0,0,0,0,0,0,0,0,0,0
1683030837.80029678,80428649,1660,1630,1665,1630,0,0,0,0,0,0,0,0,0,0
1683030837.90025687,80528609,1632,1628,1632,1623,0,0,0,0,0,0,0,0,0,0
1683030838.00021672,80628569,1600,1618,1600,1615,0,0,0,0,0,0,0,0,0,0
1683030838.10017681,80728529,1576,1604,1582,1612,0,0,0,0,0,0,0,0,0,0
1683030838.20013690,80828489,1563,1587,1577,1609,0,0,0,0,0,0,0,0,0,0
1683030838.30009675,80928449,1559,1575,1581,1604,0,0,0,0,0,0,0,0,0,0
1683030838.40005684,81028409,1563,1569,1586,1595,0,0,0,0,0,0,0,0,0,0
1683030838.50001693,81128369,1569,1567,1587,1585,0,0,0,0,0,0,0,0,0,0
1683030838.59997678,81228329,1576,1571,1586,1577,0,0,0,0,0,0,0,0,0,0
1683030838.69993687,81328289,1582,1577,1582,1573,0,0,0,0,0,0,0,0,0,0
1683030838.79989672,81428249,1586,1582,1577,1569,0,0,0,0,0,0,0,0,0,0
1683030838.89985681,81528209,1587,1587,1571,1568,0,0,0,0,0,0,0,0,0,0
1683030838.99981689,81628169,1585,1587,1566,1566,0,0,0,0,0,0,0,0,0,0
1683030839.10060978,81728962,1584,1586,1563,1566,0,0,0,0,0,0,0,0,0,0
1683030839.20056987,81828922,1582,1584,1562,1565,0,0,0,0,0,0,0,0,0,0
1683030839.30052972,81928882,1580,1582,1562,1566,0,0,0,0,0,0,0,0,0,0
1683030839.40048981,82028842,1579,1580,1564,1566,0,0,0,0,0,0,0,0,0,0
1683030839.50044990,82128802,1578,1578,1567,1568,0,0,0,0,0,0,0,0,0,0
1683030839.60040975,82228762,1576,1576,1569,1569,0,0,0,0,0,0,0,0,0,0
1683030839.70036983,82328722,1575,1574,1571,1571,0,0,0,0,0,0,0,0,0,0
1683030839.80032992,82428682,1575,1574,1574,1573,0,0,0,0,0,0,0,0,0,0
1683030839.90028977,82528642,1574,1574,1576,1575,0,0,0,0,0,0,0,0,0,0
1683030840.00024986,82628602,1574,1573,1577,1577,0,0,0,0,0,0,0,0,0,0
1683030840.10020995,82728562,1573,1574,1578,1578,0,0,0,0,0,0,0,0,0,0
1683030840.20016980,82828522,1574,1575,1585,1570,0,0,0,0,0,0,0,0,0,0
1683030840.30012989,82928482,1573,1576,1582,1570,0,0,0,0,0,0,0,0,0,0
1683030840.40008974,83028442,1572,1576,1574,1571,0,0,0,0,0,0,0,0,0,0
1683030840.50004983,83128402,1571,1575,1566,1570,0,0,0,0,0,0,0,0,0,0
1683030840.60000992,83228362,1572,1574,1559,1567,0,0,0,0,0,0,0,0,0,0
1683030840.69996977,83328322,1574,1573,1556,1562,0,0,0,0,0,0,0,0,0,0
1683030840.79992986,83428282,1574,1572,1553,1557,0,0,0,0,0,0,0,0,0,0
1683030840.89988995,83528242,1576,1574,1553,1555,0,0,0,0,0,0,0,0,0,0
1683030840.99984980,83628202,1577,1576,1553,1553,0,0,0,0,0,0,0,0,0,0
1683030841.09980989,83728162,1577,1577,1553,1551,0,0,0,0,0,0,0,0,0,0
1683030841.20060277,83828955,1577,1578,1553,1551,0,0,0,0,0,0,0,0,0,0
1683030841.30056286,83928915,1577,1578,1553,1551,0,0,0,0,0,0,0,0,0,0
1683030841.40052295,84028875,1577,1579,1553,1551,0,0,0,0,0,0,0,0,0,0
1683030841.50048280,84128835,1576,1578,1551,1550,0,0,0,0,0,0,0,0,0,0
1683030841.60044289,84228795,1577,1578,1550,1550,0,0,0,0,0,0,0,0,0,0
1683030841.70040274,84328755,1577,1579,1548,1549,0,0,0,0,0,0,0,0,0,0
1683030841.80036283,84428715,1578,1579,1546,1547,0,0,0,0,0,0,0,0,0,0
1683030841.90032291,84528675,1580,1581,1545,1545,0,0,0,0,0,0,0,0,0,0
1683030842.00028276,84628635,1582,1583,1544,1544,0,0,0,0,0,0,0,0,0,0
1683030842.10024285,84728595,1584,1584,1542,1542,0,0,0,0,0,0,0,0,0,0
1683030842.20020294,84828555,1585,1585,1541,1541,0,0,0,0,0,0,0,0,0,0
1683030842.30016279,84928515,1586,1586,1541,1541,0,0,0,0,0,0,0,0,0,0
1683030842.40012288,85028475,1587,1587,1541,1542,0,0,0,0,0,0,0,0,0,0
1683030842.50008273,85128435,1587,1586,1544,1545,0,0,0,0,0,0,0,0,0,0
1683030842.60004282,85228395,1586,1585,1546,1548,0,0,0,0,0,0,0,0,0,0
1683030842.70000291,85328355,1583,1582,1549,1551,0,0,0,0,0,0,0,0,0,0
1683030842.79996276,85428315,1579,1579,1553,1556,0,0,0,0,0,0,0,0,0,0
1683030842.89992285,85528275,1575,1573,1559,1561,0,0,0,0,0,0,0,0,0,0
1683030842.99988294,85628235,1569,1567,1567,1568,0,0,0,0,0,0,0,0,0,0
1683030843.09984279,85728195,1563,1560,1574,1576,0,0,0,0,0,0,0,0,0,0
1683030843.19980288,85828155,1557,1555,1583,1583,0,0,0,0,0,0,0,0,0,0
1683030843.30059576,85928948,1551,1549,1590,1590,0,0,0,0,0,0,0,0,0,0
1683030843.40055585,86028908,1546,1545,1596,1596,0,0,0,0,0,0,0,0,0,0
1683030843.50051594,86128868,1542,1544,1601,1600,0,0,0,0,0,0,0,0,0,0
1683030843.60047579,86228828,1542,1543,1603,1602,0,0,0,0,0,0,0,0,0,0
1683030843.70043588,86328788,1543,1545,1603,1602,0,0,0,0,0,0,0,0,0,0
1683030843.80039573,86428748,1546,1547,1600,1599,0,0,0,0,0,0,0,0,0,0
1683030843.90035582,86528708,1551,1551,1597,1597,0,0,0,0,0,0,0,0,0,0
1683030844.00031590,86628668,1556,1557,1593,1593,0,0,0,0,0,0,0,0,0,0
1683030844.10027575,86728628,1562,1562,1588,1588,0,0,0,0,0,0,0,0,0,0
1683030844.20023584,86828588,1567,1567,1583,1583,0,0,0,0,0,0,0,0,0,0
1683030844.30019593,86928548,1572,1571,1579,1578,0,0,0,0,0,0,0,0,0,0
1683030844.40015578,87028508,1577,1576,1576,1576,0,0,0,0,0,0,0,0,0,0
1683030844.50011587,87128468,1579,1578,1572,1572,0,0,0,0,0,0,0,0,0,0
1683030844.60007572,87228428,1582,1581,1571,1572,0,0,0,0,0,0,0,0,0,0
1683030844.70003581,87328388,1582,1581,1570,1570,0,0,0,0,0,0,0,0,0,0
1683030844.79999590,87428348,1582,1581,1570,1570,0,0,0,0,0,0,0,0,0,0
1683030844.89995575,87528308,1582,1581,1571,1572,0,0,0,0,0,0,0,0,0,0
1683030844.99991584,87628268,1580,1580,1573,1573,0,0,0,0,0,0,0,0,0,0
1683030845.09987593,87728228,1579,1579,1575,1574,0,0,0,0,0,0,0,0,0,0
1683030845.19983578,87828188,1578,1579,1578,1577,0,0,0,0,0,0,0,0,0,0
1683030845.30062890,87928981,1577,1578,1579,1579,0,0,0,0,0,0,0,0,0,0
1683030845.40058875,88028941,1575,1576,1580,1579,0,0,0,0,0,0,0,0,0,0
1683030845.50054884,88128901,1575,1575,1581,1581,0,0,0,0,0,0,0,0,0,0
1683030845.60050893,88228861,1574,1575,1581,1582,0,0,0,0,0,0,0,0,0,0
1683030845.70046878,88328821,1574,1575,1582,1582,0,0,0,0,0,0,0,0,0,0
1683030845.80042887,88428781,1576,1576,1582,1583,0,0,0,0,0,0,0,0,0,0
1683030845.90038872,88528741,1576,1576,1581,1582,0,0,0,0,0,0,0,0,0,0
1683030846.00034881,88628701,1577,1577,1581,1581,0,0,0,0,0,0,0,0,0,0
1683030846.10030890,88728661,1578,1578,1581,1580,0,0,0,0,0,0,0,0,0,0
1683030846.20026875,88828621,1579,1579,1580,1580,0,0,0,0,0,0,0,0,0,0
1683030846.30022883,88928581,1580,1579,1579,1579,0,0,0,0,0,0,0,0,0,0
1683030846.40018892,89028541,1581,1581,1579,1579,0,0,0,0,0,0,0,0,0,0
1683030846.50014877,89128501,1581,1581,1579,1579,0,0,0,0,0,0,0,0,0,0
1683030846.60010886,89228461,1581,1581,1578,1578,0,0,0,0,0,0,0,0,0,0
1683030846.70006895,89328421,1581,1581,1578,1579,0,0,0,0,0,0,0,0,0,0
1683030846.80002880,89428381,1581,1581,1578,1579,0,0,0,0,0,0,0,0,0,0
1683030846.89998889,89528341,1582,1581,1579,1579,0,0,0,0,0,0,0,0,0,0
1683030846.99994874,89628301,1582,1581,1580,1579,0,0,0,0,0,0,0,0,0,0
1683030847.09990883,89728261,1582,1582,1581,1581,0,0,0,0,0,0,0,0,0,0
1683030847.19986892,89828221,1581,1581,1581,1580,0,0,0,0,0,0,0,0,0,0
1683030847.29982877,89928181,1580,1580,1581,1581,0,0,0,0,0,0,0,0,0,0
1683030847.40062189,90028974,1580,1581,1581,1581,0,0,0,0,0,0,0,0,0,0
1683030847.50058174,90128934,1581,1581,1582,1582,0,0,0,0,0,0,0,0,0,0
1683030847.60054183,90228894,1580,1580,1582,1582,0,0,0,0,0,0,0,0,0,0
1683030847.70050192,90328854,1580,1580,1581,1581,0,0,0,0,0,0,0,0,0,0
1683030847.80046177,90428814,1580,1580,1581,1581,0,0,0,0,0,0,0,0,0,0
1683030847.90042186,90528774,1580,1580,1581,1581,0,0,0,0,0,0,0,0,0,0
1683030848.00038195,90628734,1581,1580,1581,1581,0,0,0,0,0,0,0,0,0,0
1683030848.10034180,90728694,1580,1580,1580,1580,0,0,0,0,0,0,0,0,0,0
1683030848.20030189,90828654,1581,1581,1581,1581,0,0,0,0,0,0,0,0,0,0
1683030848.30026174,90928614,1581,1581,1581,1581,0,0,0,0,0,0,0,0,0,0
1683030848.40022182,91028574,1580,1581,1580,1580,0,0,0,0,0,0,0,0,0,0
1683030848.50018191,91128534,1581,1581,1581,1581,0,0,0,0,0,0,0,0,0,0
1683030848.60014176,91228494,1581,1581,1580,1580,0,0,0,0,0,0,0,0,0,0
1683030848.70010185,91328454,1581,1582,1586,1574,0,0,0,0,0,0,0,0,0,0
1683030848.80006194,91428414,1581,1583,1585,1573,0,0,0,0,0,0,0,0,0,0
1683030848.90002179,91528374,1579,1581,1578,1572,0,0,0,0,0,0,0,0,0,0
1683030848.99998188,91628334,1577,1580,1569,1571,0,0,0,0,0,0,0,0,0,0
1683030849.09994173,91728294,1577,1579,1563,1569,0,0,0,0,0,0,0,0,0,0
1683030849.19990182,91828254,1576,1578,1557,1564,0,0,0,0,0,0,0,0,0,0
1683030849.29986191,91928214,1578,1577,1554,1560,0,0,0,0,0,0,0,0,0,0
1683030849.39982176,92028174,1578,1577,1554,1556,0,0,0,0,0,0,0,0,0,0
1683030849.50061488,92128967,1579,1578,1554,1554,0,0,0,0,0,0,0,0,0,0
1683030849.60057473,92228927,1579,1578,1555,1553,0,0,0,0,0,0,0,0,0,0
1683030849.70053482,92328887,1578,1578,1555,1553,0,0,0,0,0,0,0,0,0,0
1683030849.80049491,92428847,1578,1578,1556,1554,0,0,0,0,0,0,0,0,0,0
1683030849.90045476,92528807,1576,1578,1555,1553,0,0,0,0,0,0,0,0,0,0
1683030850.00041485,92628767,1575,1577,1553,1552,0,0,0,0,0,0,0,0,0,0
1683030850.10037494,92728727,1575,1577,1552,1552,0,0,0,0,0,0,0,0,0,0
1683030850.20033479,92828687,1576,1578,1551,1551,0,0,0,0,0,0,0,0,0,0
1683030850.30029488,92928647,1578,1579,1550,1550,0,0,0,0,0,0,0,0,0,0
1683030850.40025473,93028607,1579,1580,1547,1547,0,0,0,0,0,0,0,0,0,0
1683030850.50021482,93128567,1581,1582,1545,1545,0,0,0,0,0,0,0,0,0,0
1683030850.60017490,93228527,1584,1585,1543,1543,0,0,0,0,0,0,0,0,0,0
1683030850.70013475,93328487,1586,1587,1540,1540,0,0,0,0,0,0,0,0,0,0
1683030850.80009484,93428447,1589,1590,1539,1539,0,0,0,0,0,0,0,0,0,0
1683030850.90005493,93528407,1591,1591,1539,1539,0,0,0,0,0,0,0,0,0,0
1683030851.00001478,93628367,1593,1593,1538,1539,0,0,0,0,0,0,0,0,0,0
1683030851.09997487,93728327,1594,1593,1539,1541,0,0,0,0,0,0,0,0,0,0
1683030851.19993472,93828287,1592,1592,1541,1543,0,0,0,0,0,0,0,0,0,0
1683030851.29989481,93928247,1590,1588,1546,1549,0,0,0,0,0,0,0,0,0,0
1683030851.39985490,94028207,1585,1582,1552,1555,0,0,0,0,0,0,0,0,0,0
1683030851.49981475,94128167,1578,1574,1560,1563,0,0,0,0,0,0,0,0,0,0
1683030851.60060787,94228960,1569,1566,1571,1573,0,0,0,0,0,0,0,0,0,0
1683030851.70056772,94328920,1560,1556,1583,1584,0,0,0,0,0,0,0,0,0,0
1683030851.80052781,94428880,1549,1547,1592,1592,0,0,0,0,0,0,0,0,0,0
1683030851.90048790,94528840,1541,1541,1601,1600,0,0,0,0,0,0,0,0,0,0
1683030852.00044775,94628800,1537,1538,1609,1607,0,0,0,0,0,0,0,0,0,0
1683030852.10040784,94728760,1534,1537,1612,1610,0,0,0,0,0,0,0,0,0,0
1683030852.20036793,94828720,1535,1538,1612,1611,0,0,0,0,0,0,0,0,0,0
1683030852.30032778,94928680,1539,1541,1610,1609,0,0,0,0,0,0,0,0,0,0
1683030852.40028787,95028640,1544,1546,1605,1605,0,0,0,0,0,0,0,0,0,0
1683030852.50024772,95128600,1551,1552,1600,1598,0,0,0,0,0,0,0,0,0,0
1683030852.60020781,95228560,1559,1559,1593,1593,0,0,0,0,0,0,0,0,0,0
1683030852.70016789,95328520,1565,1565,1586,1586,0,0,0,0,0,0,0,0,0,0
1683030852.80012774,95428480,1572,1572,1579,1580,0,0,0,0,0,0,0,0,0,0
1683030852.90008783,95528440,1578,1576,1574,1575,0,0,0,0,0,0,0,0,0,0
1683030853.00004792,95628400,1582,1580,1569,1570,0,0,0,0,0,0,0,0,0,0
1683030853.10000777,95728360,1585,1583,1567,1568,0,0,0,0,0,0,0,0,0,0
1683030853.19996786,95828320,1586,1584,1566,1566,0,0,0,0,0,0,0,0,0,0
1683030853.29992795,95928280,1586,1584,1566,1566,0,0,0,0,0,0,0,0,0,0
1683030853.39988780,96028240,1585,1583,1568,1568,0,0,0,0,0,0,0,0,0,0
1683030853.49984789,96128200,1583,1583,1571,1571,0,0,0,0,0,0,0,0,0,0
1683030853.59980774,96228160,1581,1582,1574,1574,0,0,0,0,0,0,0,0,0,0
1683030853.70060086,96328953,1578,1578,1576,1576,0,0,0,0,0,0,0,0,0,0
1683030853.80056095,96428913,1576,1577,1579,1578,0,0,0,0,0,0,0,0,0,0
1683030853.90052080,96528873,1574,1575,1581,1581,0,0,0,0,0,0,0,0,0,0
1683030854.00048089,96628833,1573,1574,1583,1582,0,0,0,0,0,0,0,0,0,0
1683030854.10044074,96728793,1572,1573,1583,1583,0,0,0,0,0,0,0,0,0,0
1683030854.20040083,96828753,1573,1573,1583,1583,0,0,0,0,0,0,0,0,0,0
1683030854.30036092,96928713,1573,1574,1583,1583,0,0,0,0,0,0,0,0,0,0
1683030854.40032077,97028673,1574,1574,1583,1582,0,0,0,0,0,0,0,0,0,0
1683030854.50028086,97128633,1575,1576,1582,1581,0,0,0,0,0,0,0,0,0,0
1683030854.60024095,97228593,1577,1577,1581,1581,0,0,0,0,0,0,0,0,0,0
1683030854.70020080,97328553,1578,1578,1579,1580,0,0,0,0,0,0,0,0,0,0
1683030854.80016088,97428513,1580,1579,1579,1579,0,0,0,0,0,0,0,0,0,0
1683030854.90012074,97528473,1580,1580,1577,1578,0,0,0,0,0,0,0,0,0,0
1683030855.00008082,97628433,1580,1579,1576,1576,0,0,0,0,0,0,0,0,0,0
1683030855.10004091,97728393,1581,1581,1576,1577,0,0,0,0,0,0,0,0,0,0
1683030855.20000076,97828353,1582,1581,1577,1577,0,0,0,0,0,0,0,0,0,0
1683030855.29996085,97928313,1582,1582,1578,1578,0,0,0,0,0,0,0,0,0,0
1683030855.39992094,98028273,1582,1582,1579,1579,0,0,0,0,0,0,0,0,0,0
1683030855.49988079,98128233,1582,1582,1580,1579,0,0,0,0,0,0,0,0,0,0
1683030855.59984088,98228193,1581,1581,1580,1580,0,0,0,0,0,0,0,0,0,0
1683030855.70063376,98328986,1581,1581,1581,1581,0,0,0,0,0,0,0,0,0,0
1683030855.80059385,98428946,1581,1581,1581,1581,0,0,0,0,0,0,0,0,0,0
1683030855.90055394,98528906,1580,1581,1581,1581,0,0,0,0,0,0,0,0,0,0
1683030856.00051379,98628866,1580,1581,1582,1582,0,0,0,0,0,0,0,0,0,0
1683030856.10047388,98728826,1580,1580,1581,1581,0,0,0,0,0,0,0,0,0,0
1683030856.20043373,98828786,1579,1580,1581,1581,0,0,0,0,0,0,0,0,0,0
1683030856.30039382,98928746,1579,1580,1581,1581,0,0,0,0,0,0,0,0,0,0
1683030856.40035391,99028706,1580,1579,1581,1581,0,0,0,0,0,0,0,0,0,0
1683030856.50031376,99128666,1580,1580,1581,1582,0,0,0,0,0,0,0,0,0,0
1683030856.60027385,99228626,1580,1580,1581,1579,0,0,0,0,0,0,0,0,0,0
1683030856.70023394,99328586,1580,1581,1586,1572,0,0,0,0,0,0,0,0,0,0
1683030856.80019379,99428546,1580,1580,1584,1573,0,0,0,0,0,0,0,0,0,0
1683030856.90015388,99528506,1578,1578,1577,1575,0,0,0,0,0,0,0,0,0,0
1683030857.00011373,99628466,1574,1573,1570,1575,0,0,0,0,0,0,0,0,0,0
1683030857.10007381,99728426,1571,1570,1566,1573,0,0,0,0,0,0,0,0,0,0
1683030857.20003390,99828386,1569,1569,1565,1572,0,0,0,0,0,0,0,0,0,0
1683030857.29999375,99928346,1567,1568,1565,1569,0,0,0,0,0,0,0,0,0,0
1683030857.39995384,100028306,1566,1566,1565,1565,0,0,0,0,0,0,0,0,0,0
1683030857.49991393,100128266,1566,1566,1566,1565,0,0,0,0,0,0,0,0,0,0
1683030857.59987378,100228226,1566,1565,1566,1564,0,0,0,0,0,0,0,0,0,0
1683030857.69983387,100328186,1565,1565,1566,1563,0,0,0,0,0,0,0,0,0,0
1683030857.80062675,100428979,1564,1564,1565,1563,0,0,0,0,0,0,0,0,0,0
1683030857.90058684,100528939,1563,1564,1564,1563,0,0,0,0,0,0,0,0,0,0
1683030858.00054693,100628899,1562,1563,1564,1563,0,0,0,0,0,0,0,0,0,0
1683030858.10050678,100728859,1562,1562,1563,1563,0,0,0,0,0,0,0,0,0,0
1683030858.20046687,100828819,1561,1561,1562,1562,0,0,0,0,0,0,0,0,0,0
1683030858.30042672,100928779,1561,1561,1561,1562,0,0,0,0,0,0,0,0,0,0
1683030858.40038681,101028739,1561,1561,1561,1562,0,0,0,0,0,0,0,0,0,0
1683030858.50034690,101128699,1561,1561,1561,1561,0,0,0,0,0,0,0,0,0,0
1683030858.60030675,101228659,1560,1560,1561,1559,0,0,0,0,0,0,0,0,0,0
1683030858.70026684,101328619,1559,1558,1559,1558,0,0,0,0,0,0,0,0,0,0
1683030858.80022693,101428579,1558,1558,1559,1557,0,0,0,0,0,0,0,0,0,0
1683030858.90018678,101528539,1558,1558,1558,1557,0,0,0,0,0,0,0,0,0,0
1683030859.00014687,101628499,1557,1557,1558,1557,0,0,0,0,0,0,0,0,0,0
1683030859.10010672,101728459,1558,1558,1558,1557,0,0,0,0,0,0,0,0,0,0
1683030859.20006680,101828419,1558,1558,1559,1557,0,0,0,0,0,0,0,0,0,0
1683030859.30002689,101928379,1558,1558,1559,1557,0,0,0,0,0,0,0,0,0,0
1683030859.39998674,102028339,1559,1558,1560,1557,0,0,0,0,0,0,0,0,0,0
1683030859.49994683,102128299,1559,1559,1558,1559,0,0,0,0,0,0,0,0,0,0
1683030859.59990692,102228259,1559,1559,1557,1562,0,0,0,0,0,0,0,0,0,0
1683030859.69986677,102328219,1558,1558,1556,1561,0,0,0,0,0,0,0,0,0,0
1683030859.79982686,102428179,1559,1559,1557,1562,0,0,0,0,0,0,0,0,0,0
1683030859.90061975,102528972,1558,1558,1555,1560,0,0,0,0,0,0,0,0,0,0
1683030860.00057983,102628932,1555,1555,1553,1555,0,0,0,0,0,0,0,0,0,0
1683030860.10053992,102728892,1551,1550,1550,1550,0,0,0,0,0,0,0,0,0,0
1683030860.20049977,102828852,1544,1544,1544,1543,0,0,0,0,0,0,0,0,0,0
1683030860.30045986,102928812,1539,1538,1539,1538,0,0,0,0,0,0,0,0,0,0
1683030860.40041995,103028772,1531,1531,1531,1530,0,0,0,0,0,0,0,0,0,0
1683030860.50037980,103128732,1524,1525,1524,1525,0,0,0,0,0,0,0,0,0,0
1683030860.60033989,103228692,1521,1521,1520,1522,0,0,0,0,0,0,0,0,0,0
1683030860.70029974,103328652,1521,1521,1520,1522,0,0,0,0,0,0,0,0,0,0
1683030860.80025983,103428612,1521,1522,1521,1523,0,0,0,0,0,0,0,0,0,0
1683030860.90021992,103528572,1523,1524,1523,1525,0,0,0,0,0,0,0,0,0,0
1683030861.00017977,103628532,1527,1528,1527,1528,0,0,0,0,0,0,0,0,0,0
1683030861.10013986,103728492,1532,1531,1532,1532,0,0,0,0,0,0,0,0,0,0
1683030861.20009995,103828452,1536,1536,1536,1536,0,0,0,0,0,0,0,0,0,0
1683030861.30005980,103928412,1540,1539,1540,1539,0,0,0,0,0,0,0,0,0,0
1683030861.40001988,104028372,1542,1542,1542,1542,0,0,0,0,0,0,0,0,0,0
1683030861.49997973,104128332,1544,1544,1544,1543,0,0,0,0,0,0,0,0,0,0
1683030861.59993982,104228292,1545,1545,1545,1544,0,0,0,0,0,0,0,0,0,0
1683030861.69989991,104328252,1545,1544,1545,1544,0,0,0,0,0,0,0,0,0,0
1683030861.79985976,104428212,1546,1546,1546,1546,0,0,0,0,0,0,0,0,0,0
1683030861.89981985,104528172,1546,1546,1546,1546,0,0,0,0,0,0,0,0,0,0
1683030862.00061274,104628965,1546,1546,1546,1546,0,0,0,0,0,0,0,0,0,0
1683030862.10057282,104728925,1546,1547,1546,1546,0,0,0,0,0,0,0,0,0,0
1683030862.20053291,104828885,1547,1547,1547,1547,0,0,0,0,0,0,0,0,0,0
1683030862.30049276,104928845,1546,1546,1546,1547,0,0,0,0,0,0,0,0,0,0
1683030862.40045285,105028805,1545,1545,1545,1545,0,0,0,0,0,0,0,0,0,0
1683030862.50041294,105128765,1546,1546,1546,1546,0,0,0,0,0,0,0,0,0,0
1683030862.60037279,105228725,1546,1546,1546,1546,0,0,0,0,0,0,0,0,0,0
1683030862.70033288,105328685,1545,1545,1546,1545,0,0,0,0,0,0,0,0,0,0
1683030862.80029273,105428645,1545,1546,1546,1545,0,0,0,0,0,0,0,0,0,0
1683030862.90025282,105528605,1545,1545,1545,1545,0,0,0,0,0,0,0,0,0,0
1683030863.00021291,105628565,1545,1545,1545,1545,0,0,0,0,0,0,0,0,0,0
1683030863.10017276,105728525,1545,1544,1545,1544,0,0,0,0,0,0,0,0,0,0
1683030863.20013285,105828485,1544,1545,1544,1545,0,0,0,0,0,0,0,0,0,0
1683030863.30009294,105928445,1544,1545,1544,1545,0,0,0,0,0,0,0,0,0,0
1683030863.40005279,106028405,1544,1544,1544,1544,0,0,0,0,0,0,0,0,0,0
1683030863.50001287,106128365,1544,1544,1545,1544,0,0,0,0,0,0,0,0,0,0
1683030863.59997272,106228325,1544,1544,1544,1544,0,0,0,0,0,0,0,0,0,0
1683030863.69993281,106328285,1544,1543,1544,1544,0,0,0,0,0,0,0,0,0,0
1683030863.79989290,106428245,1544,1544,1544,1544,0,0,0,0,0,0,0,0,0,0
1683030863.89985275,106528205,1544,1544,1544,1544,0,0,0,0,0,0,0,0,0,0
1683030863.99981284,106628165,1544,1544,1544,1544,0,0,0,0,0,0,0,0,0,0
1683030864.10060573,106728958,1544,1543,1544,1543,0,0,0,0,0,0,0,0,0,0
1683030864.20056581,106828918,1544,1544,1544,1544,0,0,0,0,0,0,0,0,0,0
1683030864.30052590,106928878,1544,1543,1544,1544,0,0,0,0,0,0,0,0,0,0
1683030864.40048575,107028838,1543,1544,1544,1543,0,0,0,0,0,0,0,0,0,0
1683030864.50044584,107128798,1544,1544,1544,1544,0,0,0,0,0,0,0,0,0,0
1683030864.60040593,107228758,1544,1544,1543,1544,0,0,0,0,0,0,0,0,0,0
1683030864.70036578,107328718,1544,1543,1543,1544,0,0,0,0,0,0,0,0,0,0
1683030864.80032587,107428678,1545,1545,1545,1545,0,0,0,0,0,0,0,0,0,0
1683030864.90028572,107528638,1544,1543,1544,1544,0,0,0,0,0,0,0,0,0,0
1683030865.00024581,107628598,1545,1545,1545,1545,0,0,0,0,0,0,0,0,0,0
1683030865.10020590,107728558,1545,1544,1544,1544,0,0,0,0,0,0,0,0,0,0
1683030865.20016575,107828518,1545,1545,1545,1544,0,0,0,0,0,0,0,0,0,0
1683030865.30012584,107928478,1544,1544,1544,1544,0,0,0,0,0,0,0,0,0,0
1683030865.40008593,108028438,1543,1544,1544,1543,0,0,0,0,0,0,0,0,0,0
1683030865.50004578,108128398,1544,1544,1544,1544,0,0,0,0,0,0,0,0,0,0
1683030865.60000587,108228358,1544,1544,1544,1544,0,0,0,0,0,0,0,0,0,0
1683030865.69996595,108328318,1544,1543,1544,1544,0,0,0,0,0,0,0,0,0,0
1683030865.79992580,108428278,1544,1544,1544,1544,0,0,0,0,0,0,0,0,0,0
1683030865.89988589,108528238,1544,1544,1544,1544,0,0,0,0,0,0,0,0,0,0
1683030865.99984574,108628198,1544,1544,1544,1544,0,0,0,0,0,0,0,0,0,0
1683030866.09980583,108728158,1544,1544,1544,1544,0,0,0,0,0,0,0,0,0,0
1683030866.20059872,108828951,1544,1544,1544,1544,0,0,0,0,0,0,0,0,0,0
1683030866.30055881,108928911,1544,1544,1544,1544,0,0,0,0,0,0,0,0,0,0
1683030866.40051889,109028871,1544,1545,1545,1544,0,0,0,0,0,0,0,0,0,0
1683030866.50047874,109128831,1545,1545,1544,1545,0,0,0,0,0,0,0,0,0,0
1683030866.60043883,109228791,1545,1545,1545,1545,0,0,0,0,0,0,0,0,0,0
1683030866.70039892,109328751,1545,1544,1544,1544,0,0,0,0,0,0,0,0,0,0
1683030866.80035877,109428711,1544,1544,1544,1544,0,0,0,0,0,0,0,0,0,0
1683030866.90031886,109528671,1544,1545,1545,1545,0,0,0,0,0,0,0,0,0,0
1683030867.00027895,109628631,1544,1545,1545,1545,0,0,0,0,0,0,0,0,0,0
1683030867.10023880,109728591,1545,1544,1544,1545,0,0,0,0,0,0,0,0,0,0
1683030867.20019889,109828551,1544,1544,1544,1544,0,0,0,0,0,0,0,0,0,0
1683030867.30015874,109928511,1545,1544,1544,1544,0,0,0,0,0,0,0,0,0,0
1683030867.40011883,110028471,1544,1544,1544,1545,0,0,0,0,0,0,0,0,0,0
1683030867.50007892,110128431,1544,1544,1545,1544,0,0,0,0,0,0,0,0,0,0
1683030867.60003877,110228391,1544,1545,1545,1544,0,0,0,0,0,0,0,0,0,0
1683030867.69999886,110328351,1544,1544,1544,1545,0,0,0,0,0,0,0,0,0,0
1683030867.79995894,110428311,1544,1545,1545,1544,0,0,0,0,0,0,0,0,0,0
1683030867.89991879,110528271,1545,1545,1545,1545,0,0,0,0,0,0,0,0,0,0
1683030867.99987888,110628231,1545,1545,1545,1544,0,0,0,0,0,0,0,0,0,0
1683030868.09983873,110728191,1544,1544,1544,1544,0,0,0,0,0,0,0,0,0,0
1683030868.20063186,110828984,1544,1544,1544,1544,0,0,0,0,0,0,0,0,0,0
1683030868.30059195,110928944,1544,1544,1544,1544,0,0,0,0,0,0,0,0,0,0
1683030868.40055180,111028904,1545,1545,1545,1545,0,0,0,0,0,0,0,0,0,0
1683030868.50051188,111128864,1544,1545,1544,1545,0,0,0,0,0,0,0,0,0,0
1683030868.60047174,111228824,1544,1544,1544,1544,0,0,0,0,0,0,0,0,0,0
1683030868.70043182,111328784,1544,1544,1544,1544,0,0,0,0,0,0,0,0,0,0
1683030868.80039191,111428744,1543,1544,1544,1543,0,0,0,0,0,0,0,0,0,0
1683030868.90035176,111528704,1544,1544,1544,1545,0,0,0,0,0,0,0,0,0,0
1683030869.00031185,111628664,1545,1545,1545,1545,0,0,0,0,0,0,0,0,0,0
1683030869.10027194,111728624,1545,1544,1544,1545,0,0,0,0,0,0,0,0,0,0
1683030869.20023179,111828584,1544,1544,1545,1544,0,0,0,0,0,0,0,0,0,0
1683030869.30019188,111928544,1544,1544,1544,1544,0,0,0,0,0,0,0,0,0,0
1683030869.40015173,112028504,1544,1545,1545,1544,0,0,0,0,0,0,0,0,0,0
1683030869.50011182,112128464,1545,1545,1545,1545,0,0,0,0,0,0,0,0,0,0
1683030869.60007191,112228424,1544,1544,1544,1544,0,0,0,0,0,0,0,0,0,0
1683030869.70003176,112328384,1545,1545,1545,1545,0,0,0,0,0,0,0,0,0,0
1683030869.79999185,112428344,1544,1544,1544,1544,0,0,0,0,0,0,0,0,0,0
1683030869.89995193,112528304,1546,1545,1545,1546,0,0,0,0,0,0,0,0,0,0
1683030869.99991179,112628264,1544,1544,1544,1544,0,0,0,0,0,0,0,0,0,0
1683030870.09987187,112728224,1545,1545,1545,1545,0,0,0,0,0,0,0,0,0,0
1683030870.19983172,112828184,1544,1545,1545,1544,0,0,0,0,0,0,0,0,0,0
1683030870.30062485,112928977,1432,1405,1432,1404,0,0,0,0,0,0,0,0,0,0
1683030870.40058494,113028937,1333,1273,1334,1271,0,0,0,0,0,0,0,0,0,0
1683030870.50054479,113128897,1300,1225,1301,1224,0,0,0,0,0,0,0,0,0,0
1683030870.60050488,113228857,1287,1206,1288,1204,0,0,0,0,0,0,0,0,0,0
1683030870.70046473,113328817,1262,1167,1263,1165,0,0,0,0,0,0,0,0,0,0
1683030870.80042481,113428777,1218,1152,1220,1150,0,0,0,0,0,0,0,0,0,0
1683030870.90038490,113528737,1157,1151,1157,1150,0,0,0,0,0,0,0,0,0,0
1683030871.00034475,113628697,1156,1151,1157,1150,0,0,0,0,0,0,0,0,0,0
1683030871.10030484,113728657,1156,1151,1157,1150,0,0,0,0,0,0,0,0,0,0
1683030871.20026493,113828617,1157,1150,1142,1170,0,0,0,0,0,0,0,0,0,0
1683030871.30022478,113928577,1157,1150,1148,1163,0,0,0,0,0,0,0,0,0,0
1683030871.40018487,114028537,1157,1150,1150,1160,0,0,0,0,0,0,0,0,0,0
1683030871.50014472,114128497,1157,1150,1150,1159,0,0,0,0,0,0,0,0,0,0
1683030871.60010481,114228457,1157,1150,1150,1160,0,0,0,0,0,0,0,0,0,0
1683030871.70006490,114328417,1157,1150,1149,1161,0,0,0,0,0,0,0,0,0,0
1683030871.80002475,114428377,1157,1150,1149,1161,0,0,0,0,0,0,0,0,0,0
1683030871.89998484,114528337,1157,1150,1148,1162,0,0,0,0,0,0,0,0,0,0
1683030871.99994493,114628297,1157,1150,1155,1154,0,0,0,0,0,0,0,0,0,0
1683030872.09990478,114728257,1157,1150,1154,1155,0,0,0,0,0,0,0,0,0,0
1683030872.19986486,114828217,1157,1150,1153,1155,0,0,0,0,0,0,0,0,0,0
1683030872.29982495,114928177,1157,1150,1153,1156,0,0,0,0,0,0,0,0,0,0
1683030872.40061784,115028970,1157,1150,1153,1156,0,0,0,0,0,0,0,0,0,0
1683030872.50057793,115128930,1000,1000,1000,1000,0,0,0,0,0,0,0,0,0,0
1683030872.60053778,115228890,1000,1000,1000,1000,0,0,0,0,0,0,0,0,0,0
1683030872.70049787,115328850,1000,1000,1000,1000,0,0,0,0,0,0,0,0,0,0
1683030872.80045772,115428810,1000,1000,1000,1000,0,0,0,0,0,0,0,0,0,0
1683030872.90041780,115528770,1000,1000,1000,1000,0,0,0,0,0,0,0,0,0,0
1683030873.00037789,115628730,1000,1000,1000,1000,0,0,0,0,0,0,0,0,0,0
1683030873.10033774,115728690,1000,1000,1000,1000,0,0,0,0,0,0,0,0,0,0
1683030873.20029783,115828650,1000,1000,1000,1000,0,0,0,0,0,0,0,0,0,0
1683030873.30025792,115928610,1000,1000,1000,1000,0,0,0,0,0,0,0,0,0,0
1683030873.40021777,116028570,1000,1000,1000,1000,0,0,0,0,0,0,0,0,0,0
1683030873.50017786,116128530,1000,1000,1000,1000,0,0,0,0,0,0,0,0,0,0
1683030873.60013795,116228490,1000,1000,1000,1000,0,0,0,0,0,0,0,0,0,0
1683030873.70009780,116328450,1000,1000,1000,1000,0,0,0,0,0,0,0,0,0,0
1683030873.80005789,116428410,1000,1000,1000,1000,0,0,0,0,0,0,0,0,0,0
1683030873.90001774,116528370,1000,1000,1000,1000,0,0,0,0,0,0,0,0,0,0
1683030873.99997783,116628330,1000,1000,1000,1000,0,0,0,0,0,0,0,0,0,0
1683030874.09993792,116728290,1000,1000,1000,1000,0,0,0,0,0,0,0,0,0,0
1683030874.19989777,116828250,1000,1000,1000,1000,0,0,0,0,0,0,0,0,0,0
1683030874.29985785,116928210,1000,1000,1000,1000,0,0,0,0,0,0,0,0,0,0
1683030874.39981794,117028170,1000,1000,1000,1000,0,0,0,0,0,0,0,0,0,0
1683030874.50061083,117128963,1000,1000,1000,1000,0,0,0,0,0,0,0,0,0,0
1683030874.60057092,117228923,1000,1000,1000,1000,0,0,0,0,0,0,0,0,0,0
1683030874.70053077,117328883,1000,1000,1000,1000,0,0,0,0,0,0,0,0,0,0
1683030874.80049086,117428843,1000,1000,1000,1000,0,0,0,0,0,0,0,0,0,0
1683030874.90045094,117528803,1000,1000,1000,1000,0,0,0,0,0,0,0,0,0,0
1683030875.00041080,117628763,1000,1000,1000,1000,0,0,0,0,0,0,0,0,0,0
1683030875.10037088,117728723,1000,1000,1000,1000,0,0,0,0,0,0,0,0,0,0
1683030875.20033073,117828683,1000,1000,1000,1000,0,0,0,0,0,0,0,0,0,0
1683030875.30029082,117928643,1000,1000,1000,1000,0,0,0,0,0,0,0,0,0,0
1683030875.40025091,118028603,1000,1000,1000,1000,0,0,0,0,0,0,0,0,0,0
1683030875.50021076,118128563,1000,1000,1000,1000,0,0,0,0,0,0,0,0,0,0
1683030875.60017085,118228523,1000,1000,1000,1000,0,0,0,0,0,0,0,0,0,0
1683030875.70013094,118328483,1000,1000,1000,1000,0,0,0,0,0,0,0,0,0,0
1683030875.80009079,118428443,1000,1000,1000,1000,0,0,0,0,0,0,0,0,0,0
1683030875.90005088,118528403,1000,1000,1000,1000,0,0,0,0,0,0,0,0,0,0
1683030876.00001073,118628363,1000,1000,1000,1000,0,0,0,0,0,0,0,0,0,0
1683030876.09997082,118728323,1000,1000,1000,1000,0,0,0,0,0,0,0,0,0,0
1683030876.19993091,118828283,1000,1000,1000,1000,0,0,0,0,0,0,0,0,0,0
1683030876.29989076,118928243,1000,1000,1000,1000,0,0,0,0,0,0,0,0,0,0
1683030876.39985085,119028203,1000,1000,1000,1000,0,0,0,0,0,0,0,0,0,0
1683030876.49981093,119128163,1000,1000,1000,1000,0,0,0,0,0,0,0,0,0,0
1683030876.60060382,119228956,1000,1000,1000,1000,0,0,0,0,0,0,0,0,0,0
1683030876.70056391,119328916,1000,1000,1000,1000,0,0,0,0,0,0,0,0,0,0
1683030876.80052376,119428876,1000,1000,1000,1000,0,0,0,0,0,0,0,0,0,0
1683030876.90048385,119528836,1000,1000,1000,1000,0,0,0,0,0,0,0,0,0,0
1683030877.00044394,119628796,1000,1000,1000,1000,0,0,0,0,0,0,0,0,0,0
1683030877.10040379,119728756,1000,1000,1000,1000,0,0,0,0,0,0,0,0,0,0
1683030877.20036387,119828716,1000,1000,1000,1000,0,0,0,0,0,0,0,0,0,0
1683030877.30032372,119928676,1000,1000,1000,1000,0,0,0,0,0,0,0,0,0,0
1683030877.40028381,120028636,1000,1000,1000,1000,0,0,0,0,0,0,0,0,0,0
1683030877.50024390,120128596,1000,1000,1000,1000,0,0,0,0,0,0,0,0,0,0
1683030877.60020375,120228556,1000,1000,1000,1000,0,0,0,0,0,0,0,0,0,0
1683030877.70016384,120328516,1000,1000,1000,1000,0,0,0,0,0,0,0,0,0,0
1683030877.80012393,120428476,1000,1000,1000,1000,0,0,0,0,0,0,0,0,0,0
1683030877.90008378,120528436,1000,1000,1000,1000,0,0,0,0,0,0,0,0,0,0
1683030878.00004387,120628396,1000,1000,1000,1000,0,0,0,0,0,0,0,0,0,0
1683030878.10000372,120728356,1000,1000,1000,1000,0,0,0,0,0,0,0,0,0,0
1683030878.19996381,120828316,1000,1000,1000,1000,0,0,0,0,0,0,0,0,0,0
1683030878.29992390,120928276,1000,1000,1000,1000,0,0,0,0,0,0,0,0,0,0
1683030878.39988375,121028236,1000,1000,1000,1000,0,0,0,0,0,0,0,0,0,0
1683030878.49984384,121128196,1000,1000,1000,1000,0,0,0,0,0,0,0,0,0,0
1683030878.59980392,121228156,1000,1000,1000,1000,0,0,0,0,0,0,0,0,0,0
1683030878.70059681,121328949,1000,1000,1000,1000,0,0,0,0,0,0,0,0,0,0
1683030878.80055690,121428909,1000,1000,1000,1000,0,0,0,0,0,0,0,0,0,0
1683030878.90051675,121528869,1000,1000,1000,1000,0,0,0,0,0,0,0,0,0,0
1683030879.00047684,121628829,1000,1000,1000,1000,0,0,0,0,0,0,0,0,0,0
1683030879.10043693,121728789,1000,1000,1000,1000,0,0,0,0,0,0,0,0,0,0
1683030879.20039678,121828749,1000,1000,1000,1000,0,0,0,0,0,0,0,0,0,0
1683030879.30035686,121928709,1000,1000,1000,1000,0,0,0,0,0,0,0,0,0,0
1683030879.40031695,122028669,1000,1000,1000,1000,0,0,0,0,0,0,0,0,0,0
1683030879.50027680,122128629,1000,1000,1000,1000,0,0,0,0,0,0,0,0,0,0
1683030879.60023689,122228589,1000,1000,1000,1000,0,0,0,0,0,0,0,0,0,0
1683030879.70019674,122328549,1000,1000,1000,1000,0,0,0,0,0,0,0,0,0,0
1683030879.80015683,122428509,1000,1000,1000,1000,0,0,0,0,0,0,0,0,0,0
1683030879.90011692,122528469,1000,1000,1000,1000,0,0,0,0,0,0,0,0,0,0
1683030880.00007677,122628429,1000,1000,1000,1000,0,0,0,0,0,0,0,0,0,0
1683030880.10003686,122728389,1000,1000,1000,1000,0,0,0,0,0,0,0,0,0,0
1683030880.19999695,122828349,1000,1000,1000,1000,0,0,0,0,0,0,0,0,0,0
1683030880.29995680,122928309,1000,1000,1000,1000,0,0,0,0,0,0,0,0,0,0
1683030880.39991689,123028269,1000,1000,1000,1000,0,0,0,0,0,0,0,0,0,0
1683030880.49987674,123128229,1000,1000,1000,1000,0,0,0,0,0,0,0,0,0,0
1683030880.59983683,123228189,1000,1000,1000,1000,0,0,0,0,0,0,0,0,0,0
1683030880.70062995,123328982,1000,1000,1000,1000,0,0,0,0,0,0,0,0,0,0
1683030880.80058980,123428942,1000,1000,1000,1000,0,0,0,0,0,0,0,0,0,0
1683030880.90054989,123528902,1000,1000,1000,1000,0,0,0,0,0,0,0,0,0,0
1683030881.00050974,123628862,1000,1000,1000,1000,0,0,0,0,0,0,0,0,0,0
1683030881.10046983,123728822,1000,1000,1000,1000,0,0,0,0,0,0,0,0,0,0
1683030881.20042992,123828782,1000,1000,1000,1000,0,0,0,0,0,0,0,0,0,0
1683030881.30038977,123928742,1000,1000,1000,1000,0,0,0,0,0,0,0,0,0,0
1683030881.40034986,124028702,1000,1000,1000,1000,0,0,0,0,0,0,0,0,0,0
1683030881.50030994,124128662,1000,1000,1000,1000,0,0,0,0,0,0,0,0,0,0
1683030881.60026979,124228622,1000,1000,1000,1000,0,0,0,0,0,0,0,0,0,0
1683030881.70022988,124328582,1000,1000,1000,1000,0,0,0,0,0,0,0,0,0,0
1683030881.80018973,124428542,1000,1000,1000,1000,0,0,0,0,0,0,0,0,0,0
1683030881.90014982,124528502,1000,1000,1000,1000,0,0,0,0,0,0,0,0,0,0
1683030882.00010991,124628462,1000,1000,1000,1000,0,0,0,0,0,0,0,0,0,0
1683030882.10006976,124728422,1000,1000,1000,1000,0,0,0,0,0,0,0,0,0,0
1683030882.20002985,124828382,1000,1000,1000,1000,0,0,0,0,0,0,0,0,0,0
1683030882.29998994,124928342,1000,1000,1000,1000,0,0,0,0,0,0,0,0,0,0
1683030882.39994979,125028302,1000,1000,1000,1000,0,0,0,0,0,0,0,0,0,0
1683030882.49990988,125128262,1000,1000,1000,1000,0,0,0,0,0,0,0,0,0,0
1683030882.59986973,125228222,1000,1000,1000,1000,0,0,0,0,0,0,0,0,0,0
1683030882.69982982,125328182,1000,1000,1000,1000,0,0,0,0,0,0,0,0,0,0
1683030882.80062294,125428975,1000,1000,1000,1000,0,0,0,0,0,0,0,0,0,0
1683030882.90058279,125528935,1000,1000,1000,1000,0,0,0,0,0,0,0,0,0,0
1683030883.00054288,125628895,1000,1000,1000,1000,0,0,0,0,0,0,0,0,0,0
1683030883.10050273,125728855,1000,1000,1000,1000,0,0,0,0,0,0,0,0,0,0
1683030883.20046282,125828815,1000,1000,1000,1000,0,0,0,0,0,0,0,0,0,0
1683030883.30042291,125928775,1000,1000,1000,1000,0,0,0,0,0,0,0,0,0,0
1683030883.40038276,126028735,1000,1000,1000,1000,0,0,0,0,0,0,0,0,0,0
1683030883.50034285,126128695,1000,1000,1000,1000,0,0,0,0,0,0,0,0,0,0
1683030883.60030293,126228655,1000,1000,1000,1000,0,0,0,0,0,0,0,0,0,0
1683030883.70026278,126328615,1000,1000,1000,1000,0,0,0,0,0,0,0,0,0,0
1683030883.80022287,126428575,1000,1000,1000,1000,0,0,0,0,0,0,0,0,0,0
1683030883.90018272,126528535,1000,1000,1000,1000,0,0,0,0,0,0,0,0,0,0
1683030884.00014281,126628495,1000,1000,1000,1000,0,0,0,0,0,0,0,0,0,0
1683030884.10010290,126728455,1000,1000,1000,1000,0,0,0,0,0,0,0,0,0,0
1683030884.20006275,126828415,1000,1000,1000,1000,0,0,0,0,0,0,0,0,0,0
1683030884.30002284,126928375,1000,1000,1000,1000,0,0,0,0,0,0,0,0,0,0
1683030884.39998293,127028335,1000,1000,1000,1000,0,0,0,0,0,0,0,0,0,0
1683030884.49994278,127128295,1000,1000,1000,1000,0,0,0,0,0,0,0,0,0,0
1683030884.59990287,127228255,1000,1000,1000,1000,0,0,0,0,0,0,0,0,0,0
1683030884.69986272,127328215,1000,1000,1000,1000,0,0,0,0,0,0,0,0,0,0
1683030884.79982281,127428175,1000,1000,1000,1000,0,0,0,0,0,0,0,0,0,0
1683030884.90061593,127528968,1000,1000,1000,1000,0,0,0,0,0,0,0,0,0,0
1683030885.00057578,127628928,1000,1000,1000,1000,0,0,0,0,0,0,0,0,0,0
1683030885.10053587,127728888,1000,1000,1000,1000,0,0,0,0,0,0,0,0,0,0
1683030885.20049572,127828848,1000,1000,1000,1000,0,0,0,0,0,0,0,0,0,0
1683030885.30045581,127928808,1000,1000,1000,1000,0,0,0,0,0,0,0,0,0,0
1683030885.40041590,128028768,1000,1000,1000,1000,0,0,0,0,0,0,0,0,0,0
1683030885.50037575,128128728,1000,1000,1000,1000,0,0,0,0,0,0,0,0,0,0
1683030885.60033584,128228688,1000,1000,1000,1000,0,0,0,0,0,0,0,0,0,0
1683030885.70029593,128328648,1000,1000,1000,1000,0,0,0,0,0,0,0,0,0,0
1683030885.80025578,128428608,1000,1000,1000,1000,0,0,0,0,0,0,0,0,0,0
1683030885.90021586,128528568,1000,1000,1000,1000,0,0,0,0,0,0,0,0,0,0
1683030886.00017595,128628528,1000,1000,1000,1000,0,0,0,0,0,0,0,0,0,0
1683030886.10013580,128728488,1000,1000,1000,1000,0,0,0,0,0,0,0,0,0,0
1683030886.20009589,128828448,1000,1000,1000,1000,0,0,0,0,0,0,0,0,0,0
1683030886.30005574,128928408,1000,1000,1000,1000,0,0,0,0,0,0,0,0,0,0
1683030886.40001583,129028368,1000,1000,1000,1000,0,0,0,0,0,0,0,0,0,0
1683030886.49997592,129128328,1000,1000,1000,1000,0,0,0,0,0,0,0,0,0,0
1683030886.59993577,129228288,1000,1000,1000,1000,0,0,0,0,0,0,0,0,0,0
1683030886.69989586,129328248,1000,1000,1000,1000,0,0,0,0,0,0,0,0,0,0
1683030886.79985595,129428208,1000,1000,1000,1000,0,0,0,0,0,0,0,0,0,0
1683030886.89981580,129528168,1000,1000,1000,1000,0,0,0,0,0,0,0,0,0,0
1683030887.00060892,129628961,1000,1000,1000,1000,0,0,0,0,0,0,0,0,0,0
1683030887.10056877,129728921,1000,1000,1000,1000,0,0,0,0,0,0,0,0,0,0
1683030887.20052886,129828881,1000,1000,1000,1000,0,0,0,0,0,0,0,0,0,0
1683030887.30048895,129928841,1000,1000,1000,1000,0,0,0,0,0,0,0,0,0,0
1683030887.40044880,130028801,1000,1000,1000,1000,0,0,0,0,0,0,0,0,0,0
