TimeUS,M1,M2,M3,M4,TimeUS,C1,C2,C3,C4
71908725,1000,1000,1000,1000,71928717,1000,1000,1000,1000
71911224,1000,1000,1000,1000,72028677,1000,1000,1000,1000
71913723,1000,1000,1000,1000,72128637,1000,1000,1000,1000
71916222,1000,1000,1000,1000,72228597,1000,1000,1000,1000
71918721,1000,1000,1000,1000,72328557,1000,1000,1000,1000
71921220,1000,1000,1000,1000,72428517,1000,1000,1000,1000
71923719,1000,1000,1000,1000,72528477,1000,1000,1000,1000
71926218,1000,1000,1000,1000,72628437,1000,1000,1000,1000
71928717,1000,1000,1000,1000,72728397,1000,1000,1000,1000
71931216,1000,1000,1000,1000,72828357,1000,1000,1000,1000
71933715,1000,1000,1000,1000,72928317,1000,1000,1000,1000
71936214,1000,1000,1000,1000,73028277,1000,1000,1000,1000
71938713,1000,1000,1000,1000,73128237,1000,1000,1000,1000
71941212,1000,1000,1000,1000,73228197,1000,1000,1000,1000
71943711,1000,1000,1000,1000,73328157,1000,1000,1000,1000
71946210,1000,1000,1000,1000,73428950,1000,1000,1000,1000
71948709,1000,1000,1000,1000,73528910,1000,1000,1000,1000
71951208,1000,1000,1000,1000,73628870,1000,1000,1000,1000
71953707,1000,1000,1000,1000,73728830,1000,1000,1000,1000
71956206,1000,1000,1000,1000,73828790,1000,1000,1000,1000
71958705,1000,1000,1000,1000,73928750,1006,1006,1006,1006
71961204,1000,1000,1000,1000,74028710,1036,1036,1036,1036
71963703,1000,1000,1000,1000,74128670,1066,1066,1066,1066
71966202,1000,1000,1000,1000,74228630,1096,1096,1096,1096
71968701,1000,1000,1000,1000,74328590,1125,1125,1125,1125
71971200,1000,1000,1000,1000,74428550,1209,1198,1199,1209
71973699,1000,1000,1000,1000,74528510,1440,1432,1433,1441
71976198,1000,1000,1000,1000,74628470,1611,1605,1605,1612
71978697,1000,1000,1000,1000,74728430,1754,1748,1748,1755
71981196,1000,1000,1000,1000,74828390,1879,1872,1873,1879
71983695,1000,1000,1000,1000,74928350,1906,1901,1902,1906
71986194,1000,1000,1000,1000,75028310,1797,1795,1795,1797
71988693,1000,1000,1000,1000,75128270,1684,1686,1686,1684
71991192,1000,1000,1000,1000,75228230,1638,1641,1641,1638
71993691,1000,1000,1000,1000,75328190,1637,1640,1640,1637
71996190,1000,1000,1000,1000,75428983,1646,1647,1648,1645
71998689,1000,1000,1000,1000,75528943,1645,1645,1645,1645
72001188,1000,1000,1000,1000,75628903,1637,1636,1636,1637
72003687,1000,1000,1000,1000,75728863,1629,1628,1627,1629
72006186,1000,1000,1000,1000,75828823,1621,1621,1620,1621
72008685,1000,1000,1000,1000,75928783,1619,1618,1618,1619
72011184,1000,1000,1000,1000,76028743,1617,1618,1617,1617
72013683,1000,1000,1000,1000,76128703,1619,1619,1619,1619
72016182,1000,1000,1000,1000,76228663,1619,1619,1619,1619
72018681,1000,1000,1000,1000,76328623,1612,1615,1615,1613
72021180,1000,1000,1000,1000,76428583,1587,1587,1587,1587
72023679,1000,1000,1000,1000,76528543,1575,1575,1575,1575
72026178,1000,1000,1000,1000,76628503,1566,1565,1565,1566
72028677,1000,1000,1000,1000,76728463,1558,1557,1557,1558
72031176,1000,1000,1000,1000,76828423,1549,1549,1549,1550
72033675,1000,1000,1000,1000,76928383,1541,1540,1540,1542
72036174,1000,1000,1000,1000,77028343,1533,1533,1532,1534
72038673,1000,1000,1000,1000,77128303,1523,1523,1523,1524
72041172,1000,1000,1000,1000,77228263,1513,1513,1513,1514
72043671,1000,1000,1000,1000,77328223,1508,1508,1508,1508
72046170,1000,1000,1000,1000,77428183,1504,1504,1504,1505
72048669,1000,1000,1000,1000,77528976,1502,1502,1502,1503
72051168,1000,1000,1000,1000,77628936,1500,1500,1499,1500
72053667,1000,1000,1000,1000,77728896,1498,1498,1498,1498
72056166,1000,1000,1000,1000,77828856,1497,1497,1497,1497
72058665,1000,1000,1000,1000,77928816,1496,1496,1495,1496
72061164,1000,1000,1000,1000,78028776,1495,1495,1495,1495
72063663,1000,1000,1000,1000,78128736,1495,1495,1495,1496
72066162,1000,1000,1000,1000,78228696,1522,1522,1526,1518
72068661,1000,1000,1000,1000,78328656,1542,1542,1549,1535
72071160,1000,1000,1000,1000,78428616,1553,1553,1556,1550
72073659,1000,1000,1000,1000,78528576,1559,1559,1557,1562
72076158,1000,1000,1000,1000,78628536,1565,1565,1560,1570
72078657,1000,1000,1000,1000,78728496,1568,1567,1562,1573
72081156,1000,1000,1000,1000,78828456,1569,1569,1565,1573
72083655,1000,1000,1000,1000,78928416,1571,1570,1569,1572
72086154,1000,1000,1000,1000,79028376,1573,1574,1575,1572
72088653,1000,1000,1000,1000,79128336,1574,1575,1578,1571
72091152,1000,1000,1000,1000,79228296,1575,1575,1578,1572
72093651,1000,1000,1000,1000,79328256,1574,1574,1576,1573
72096150,1000,1000,1000,1000,79428216,1573,1573,1573,1573
72098649,1000,1000,1000,1000,79528176,1572,1571,1570,1573
72101148,1000,1000,1000,1000,79628969,1567,1566,1572,1577
72103647,1000,1000,1000,1000,79728929,1565,1565,1571,1576
72106146,1000,1000,1000,1000,79828889,1566,1567,1571,1573
72108645,1000,1000,1000,1000,79928849,1566,1567,1570,1571
72111144,1000,1000,1000,1000,80028809,1568,1569,1569,1568
72113643,1000,1000,1000,1000,80128769,1569,1570,1569,1567
72116142,1000,1000,1000,1000,80228729,1571,1571,1568,1567
72118641,1000,1000,1000,1000,80328689,1571,1571,1566,1567
72121140,1000,1000,1000,1000,80428649,1572,1572,1567,1567
72123639,1000,1000,1000,1000,80528609,1573,1573,1569,1569
72126138,1000,1000,1000,1000,80628569,1573,1573,1569,1570
72128637,1000,1000,1000,1000,80728529,1573,1573,1570,1570
72131136,1000,1000,1000,1000,80828489,1574,1574,1572,1572
72133635,1000,1000,1000,1000,80928449,1575,1575,1574,1574
72136134,1000,1000,1000,1000,81028409,1575,1574,1575,1573
72138633,1000,1000,1000,1000,81128369,1575,1575,1577,1575
72141132,1000,1000,1000,1000,81228329,1576,1576,1578,1577
72143631,1000,1000,1000,1000,81328289,1576,1576,1578,1577
72146130,1000,1000,1000,1000,81428249,1575,1575,1577,1577
72148629,1000,1000,1000,1000,81528209,1574,1575,1576,1576
72151128,1000,1000,1000,1000,81628169,1576,1577,1578,1578
72153627,1000,1000,1000,1000,81728962,1576,1576,1577,1577
72156126,1000,1000,1000,1000,81828922,1576,1576,1576,1577
72158625,1000,1000,1000,1000,81928882,1577,1576,1577,1577
72161124,1000,1000,1000,1000,82028842,1578,1577,1577,1577
72163623,1000,1000,1000,1000,82128802,1578,1578,1577,1577
72166122,1000,1000,1000,1000,82228762,1579,1579,1579,1578
72168621,1000,1000,1000,1000,82328722,1579,1579,1578,1578
72171120,1000,1000,1000,1000,82428682,1579,1578,1578,1578
72173619,1000,1000,1000,1000,82528642,1578,1578,1577,1578
72176118,1000,1000,1000,1000,82628602,1579,1579,1578,1578
72178617,1000,1000,1000,1000,82728562,1577,1577,1577,1577
72181116,1000,1000,1000,1000,82828522,1577,1578,1577,1577
72183615,1000,1000,1000,1000,82928482,1578,1578,1578,1579
72186114,1000,1000,1000,1000,83028442,1578,1578,1578,1578
72188613,1000,1000,1000,1000,83128402,1579,1578,1579,1579
72191112,1000,1000,1000,1000,83228362,1578,1578,1579,1578
72193611,1000,1000,1000,1000,83328322,1580,1579,1580,1580
72196110,1000,1000,1000,1000,83428282,1578,1578,1578,1579
72198609,1000,1000,1000,1000,83528242,1579,1579,1579,1580
72201108,1000,1000,1000,1000,83628202,1578,1578,1578,1578
72203607,1000,1000,1000,1000,83728162,1579,1579,1579,1579
72206106,1000,1000,1000,1000,83828955,1579,1580,1580,1579
72208605,1000,1000,1000,1000,83928915,1580,1580,1580,1580
72211104,1000,1000,1000,1000,84028875,1580,1580,1580,1579
72213603,1000,1000,1000,1000,84128835,1580,1580,1580,1580
72216102,1000,1000,1000,1000,84228795,1581,1580,1580,1581
72218601,1000,1000,1000,1000,84328755,1581,1581,1580,1581
72221100,1000,1000,1000,1000,84428715,1579,1579,1579,1579
72223599,1000,1000,1000,1000,84528675,1581,1580,1580,1580
72226098,1000,1000,1000,1000,84628635,1581,1580,1581,1580
72228597,1000,1000,1000,1000,84728595,1580,1580,1581,1581
72231096,1000,1000,1000,1000,84828555,1581,1581,1581,1581
72233595,1000,1000,1000,1000,84928515,1580,1580,1580,1580
72236094,1000,1000,1000,1000,85028475,1582,1582,1582,1582
72238593,1000,1000,1000,1000,85128435,1580,1580,1581,1581
72241092,1000,1000,1000,1000,85228395,1581,1581,1581,1581
72243591,1000,1000,1000,1000,85328355,1581,1581,1581,1581
72246090,1000,1000,1000,1000,85428315,1581,1581,1581,1581
72248589,1000,1000,1000,1000,85528275,1581,1581,1581,1581
72251088,1000,1000,1000,1000,85628235,1581,1581,1581,1581
72253587,1000,1000,1000,1000,85728195,1582,1582,1582,1582
72256086,1000,1000,1000,1000,85828155,1580,1581,1586,1576
72258585,1000,1000,1000,1000,85928948,1580,1582,1587,1572
72261084,1000,1000,1000,1000,86028908,1579,1582,1580,1574
72263583,1000,1000,1000,1000,86128868,1577,1580,1570,1572
72266082,1000,1000,1000,1000,86228828,1576,1579,1563,1569
72268581,1000,1000,1000,1000,86328788,1577,1578,1557,1564
72271080,1000,1000,1000,1000,86428748,1579,1578,1556,1560
72273579,1000,1000,1000,1000,86528708,1580,1578,1555,1556
72276078,1000,1000,1000,1000,86628668,1579,1578,1555,1553
72278577,1000,1000,1000,1000,86728628,1578,1578,1555,1553
72281076,1000,1000,1000,1000,86828588,1577,1578,1555,1553
72283575,1000,1000,1000,1000,86928548,1576,1577,1555,1553
72286074,1000,1000,1000,1000,87028508,1575,1577,1554,1554
72288573,1000,1000,1000,1000,87128468,1574,1576,1552,1552
72291072,1000,1000,1000,1000,87228428,1575,1576,1552,1552
72293571,1000,1000,1000,1000,87328388,1575,1576,1549,1549
72296070,1000,1000,1000,1000,87428348,1577,1579,1548,1548
72298569,1000,1000,1000,1000,87528308,1580,1581,1546,1546
72301068,1000,1000,1000,1000,87628268,1582,1584,1543,1543
72303567,1000,1000,1000,1000,87728228,1586,1587,1541,1541
72306066,1000,1000,1000,1000,87828188,1589,1589,1538,1538
72308565,1000,1000,1000,1000,87928981,1592,1592,1536,1536
72311064,1000,1000,1000,1000,88028941,1595,1595,1535,1536
72313563,1000,1000,1000,1000,88128901,1595,1594,1534,1536
72316062,1000,1000,1000,1000,88228861,1594,1595,1536,1538
72318561,1000,1000,1000,1000,88328821,1593,1593,1539,1541
72321060,1000,1000,1000,1000,88428781,1590,1589,1543,1547
72323559,1000,1000,1000,1000,88528741,1585,1582,1551,1554
72326058,1000,1000,1000,1000,88628701,1577,1574,1561,1564
72328557,1000,1000,1000,1000,88728661,1568,1563,1572,1575
72331056,1000,1000,1000,1000,88828621,1557,1553,1585,1586
72333555,1000,1000,1000,1000,88928581,1544,1541,1595,1595
72336054,1000,1000,1000,1000,89028541,1536,1535,1606,1605
72338553,1000,1000,1000,1000,89128501,1530,1530,1611,1610
72341052,1000,1000,1000,1000,89228461,1528,1529,1614,1613
72343551,1000,1000,1000,1000,89328421,1530,1533,1614,1613
72346050,1000,1000,1000,1000,89428381,1535,1537,1609,1609
72348549,1000,1000,1000,1000,89528341,1543,1545,1604,1605
72351048,1000,1000,1000,1000,89628301,1552,1553,1598,1598
72353547,1000,1000,1000,1000,89728261,1561,1561,1590,1589
72356046,1000,1000,1000,1000,89828221,1568,1568,1582,1581
72358545,1000,1000,1000,1000,89928181,1576,1575,1577,1575
72361044,1000,1000,1000,1000,90028974,1581,1581,1571,1571
72363543,1000,1000,1000,1000,90128934,1585,1584,1567,1567
72366042,1000,1000,1000,1000,90228894,1588,1587,1566,1567
72368541,1000,1000,1000,1000,90328854,1587,1585,1565,1566
72371040,1000,1000,1000,1000,90428814,1586,1584,1567,1567
72373539,1000,1000,1000,1000,90528774,1584,1584,1570,1570
72376038,1000,1000,1000,1000,90628734,1581,1581,1573,1573
72378537,1000,1000,1000,1000,90728694,1578,1579,1576,1576
72381036,1000,1000,1000,1000,90828654,1576,1576,1579,1579
72383535,1000,1000,1000,1000,90928614,1486,1533,1492,1540
72386034,1000,1000,1000,1000,91028574,1553,1556,1561,1566
72388533,1000,1000,1000,1000,91128534,1605,1569,1616,1580
72391032,1000,1000,1000,1000,91228494,1644,1594,1655,1605
72393531,1000,1000,1000,1000,91328454,1661,1615,1671,1623
72396030,1000,1000,1000,1000,91428414,1653,1625,1659,1627
72398529,1000,1000,1000,1000,91528374,1626,1623,1629,1621
72401028,1000,1000,1000,1000,91628334,1597,1614,1599,1614
72403527,1000,1000,1000,1000,91728294,1575,1601,1582,1610
72406026,1000,1000,1000,1000,91828254,1563,1587,1578,1607
72408525,1000,1000,1000,1000,91928214,1562,1577,1581,1603
72411024,1000,1000,1000,1000,92028174,1565,1570,1584,1594
72413523,1000,1000,1000,1000,92128967,1570,1569,1586,1584
72416022,1000,1000,1000,1000,92228927,1577,1572,1585,1576
72418521,1000,1000,1000,1000,92328887,1584,1579,1583,1574
72421020,1000,1000,1000,1000,92428847,1586,1583,1577,1569
72423519,1000,1000,1000,1000,92528807,1586,1586,1571,1568
72426018,1000,1000,1000,1000,92628767,1585,1587,1566,1567
72428517,1000,1000,1000,1000,92728727,1583,1586,1563,1567
72431016,1000,1000,1000,1000,92828687,1582,1584,1563,1567
72433515,1000,1000,1000,1000,92928647,1580,1581,1563,1566
72436014,1000,1000,1000,1000,93028607,1578,1578,1565,1567
72438513,1000,1000,1000,1000,93128567,1577,1577,1567,1568
72441012,1000,1000,1000,1000,93228527,1576,1576,1570,1570
72443511,1000,1000,1000,1000,93328487,1576,1575,1573,1572
72446010,1000,1000,1000,1000,93428447,1574,1574,1574,1573
72448509,1000,1000,1000,1000,93528407,1575,1575,1576,1577
72451008,1000,1000,1000,1000,93628367,1574,1574,1577,1577
72453507,1000,1000,1000,1000,93728327,1573,1573,1577,1578
72456006,1000,1000,1000,1000,93828287,1574,1575,1584,1574
72458505,1000,1000,1000,1000,93928247,1574,1576,1585,1570
72461004,1000,1000,1000,1000,94028207,1574,1577,1578,1571
72463503,1000,1000,1000,1000,94128167,1573,1575,1569,1570
72466002,1000,1000,1000,1000,94228960,1574,1576,1562,1568
72468501,1000,1000,1000,1000,94328920,1574,1574,1556,1564
72471000,1000,1000,1000,1000,94428880,1575,1574,1554,1559
72473499,1000,1000,1000,1000,94528840,1576,1574,1552,1555
72475998,1000,1000,1000,1000,94628800,1577,1576,1553,1552
72478497,1000,1000,1000,1000,94728760,1577,1576,1552,1550
72480996,1000,1000,1000,1000,94828720,1576,1577,1552,1550
72483495,1000,1000,1000,1000,94928680,1577,1577,1552,1551
72485994,1000,1000,1000,1000,95028640,1576,1578,1552,1551
72488493,1000,1000,1000,1000,95128600,1576,1578,1551,1551
72490992,1000,1000,1000,1000,95228560,1576,1577,1550,1550
72493491,1000,1000,1000,1000,95328520,1577,1578,1549,1549
72495990,1000,1000,1000,1000,95428480,1578,1580,1548,1549
72498489,1000,1000,1000,1000,95528440,1580,1581,1547,1547
72500988,1000,1000,1000,1000,95628400,1582,1583,1546,1546
72503487,1000,1000,1000,1000,95728360,1584,1584,1544,1544
72505986,1000,1000,1000,1000,95828320,1586,1587,1544,1544
72508485,1000,1000,1000,1000,95928280,1587,1587,1542,1543
72510984,1000,1000,1000,1000,96028240,1588,1588,1542,1543
72513483,1000,1000,1000,1000,96128200,1588,1587,1543,1544
72515982,1000,1000,1000,1000,96228160,1587,1586,1545,1547
72518481,1000,1000,1000,1000,96328953,1584,1584,1547,1550
72520980,1000,1000,1000,1000,96428913,1581,1581,1551,1554
72523479,1000,1000,1000,1000,96528873,1577,1576,1556,1559
72525978,1000,1000,1000,1000,96628833,1572,1570,1563,1565
72528477,1000,1000,1000,1000,96728793,1565,1563,1571,1573
72530976,1000,1000,1000,1000,96828753,1558,1557,1579,1580
72533475,1000,1000,1000,1000,96928713,1552,1550,1587,1586
72535974,1000,1000,1000,1000,97028673,1546,1545,1593,1592
72538473,1000,1000,1000,1000,97128633,1543,1544,1599,1598
72540972,1000,1000,1000,1000,97228593,1542,1543,1602,1601
72543471,1000,1000,1000,1000,97328553,1542,1543,1603,1602
72545970,1000,1000,1000,1000,97428513,1545,1547,1603,1602
72548469,1000,1000,1000,1000,97528473,1549,1550,1599,1599
72550968,1000,1000,1000,1000,97628433,1554,1555,1595,1596
72553467,1000,1000,1000,1000,97728393,1559,1559,1590,1590
72555966,1000,1000,1000,1000,97828353,1565,1565,1586,1585
72558465,1000,1000,1000,1000,97928313,1570,1569,1581,1580
72560964,1000,1000,1000,1000,98028273,1575,1574,1577,1576
72563463,1000,1000,1000,1000,98128233,1577,1576,1572,1573
72565962,1000,1000,1000,1000,98228193,1580,1579,1570,1571
72568461,1000,1000,1000,1000,98328986,1583,1581,1570,1570
72570960,1000,1000,1000,1000,98428946,1583,1582,1570,1570
72573459,1000,1000,1000,1000,98528906,1582,1582,1570,1571
72575958,1000,1000,1000,1000,98628866,1581,1580,1571,1571
72578457,1000,1000,1000,1000,98728826,1580,1580,1573,1574
72580956,1000,1000,1000,1000,98828786,1579,1579,1576,1576
72583455,1000,1000,1000,1000,98928746,1576,1577,1578,1577
72585954,1000,1000,1000,1000,99028706,1576,1577,1580,1580
72588453,1000,1000,1000,1000,99128666,1575,1575,1581,1581
72590952,1000,1000,1000,1000,99228626,1575,1575,1582,1582
72593451,1000,1000,1000,1000,99328586,1575,1575,1583,1582
72595950,1000,1000,1000,1000,99428546,1575,1576,1583,1583
72598449,1000,1000,1000,1000,99528506,1576,1577,1583,1583
72600948,1000,1000,1000,1000,99628466,1577,1577,1582,1582
72603447,1000,1000,1000,1000,99728426,1578,1578,1581,1581
72605946,1000,1000,1000,1000,99828386,1579,1579,1580,1580
72608445,1000,1000,1000,1000,99928346,1580,1580,1580,1580
72610944,1000,1000,1000,1000,100028306,1580,1580,1579,1579
72613443,1000,1000,1000,1000,100128266,1581,1581,1579,1579
72615942,1000,1000,1000,1000,100228226,1582,1581,1579,1579
72618441,1000,1000,1000,1000,100328186,1582,1581,1578,1578
72620940,1000,1000,1000,1000,100428979,1582,1582,1579,1579
72623439,1000,1000,1000,1000,100528939,1581,1582,1579,1580
72625938,1000,1000,1000,1000,100628899,1581,1581,1579,1580
72628437,1000,1000,1000,1000,100728859,1581,1580,1579,1579
72630936,1000,1000,1000,1000,100828819,1581,1581,1580,1580
72633435,1000,1000,1000,1000,100928779,1580,1580,1580,1580
72635934,1000,1000,1000,1000,101028739,1579,1580,1580,1580
72638433,1000,1000,1000,1000,101128699,1580,1581,1581,1582
72640932,1000,1000,1000,1000,101228659,1580,1580,1581,1581
72643431,1000,1000,1000,1000,101328619,1580,1580,1582,1581
72645930,1000,1000,1000,1000,101428579,1580,1580,1581,1582
72648429,1000,1000,1000,1000,101528539,1580,1580,1581,1581
72650928,1000,1000,1000,1000,101628499,1581,1581,1582,1581
72653427,1000,1000,1000,1000,101728459,1580,1580,1580,1581
72655926,1000,1000,1000,1000,101828419,1581,1581,1581,1581
72658425,1000,1000,1000,1000,101928379,1582,1582,1581,1582
72660924,1000,1000,1000,1000,102028339,1582,1582,1582,1582
72663423,1000,1000,1000,1000,102128299,1582,1583,1582,1582
72665922,1000,1000,1000,1000,102228259,1582,1582,1581,1581
72668421,1000,1000,1000,1000,102328219,1582,1583,1585,1578
72670920,1000,1000,1000,1000,102428179,1582,1584,1588,1574
72673419,1000,1000,1000,1000,102528972,1580,1583,1582,1573
72675918,1000,1000,1000,1000,102628932,1579,1582,1574,1573
72678417,1000,1000,1000,1000,102728892,1578,1580,1566,1571
72680916,1000,1000,1000,1000,102828852,1577,1579,1559,1567
72683415,1000,1000,1000,1000,102928812,1577,1577,1555,1561
72685914,1000,1000,1000,1000,103028772,1578,1577,1554,1557
72688413,1000,1000,1000,1000,103128732,1579,1577,1554,1555
72690912,1000,1000,1000,1000,103228692,1579,1578,1554,1553
72693411,1000,1000,1000,1000,103328652,1579,1578,1555,1553
72695910,1000,1000,1000,1000,103428612,1578,1578,1556,1553
72698409,1000,1000,1000,1000,103528572,1577,1578,1556,1554
72700908,1000,1000,1000,1000,103628532,1576,1578,1555,1554
72703407,1000,1000,1000,1000,103728492,1576,1577,1553,1553
72705906,1000,1000,1000,1000,103828452,1577,1578,1553,1553
72708405,1000,1000,1000,1000,103928412,1578,1579,1550,1551
72710904,1000,1000,1000,1000,104028372,1579,1581,1549,1549
72713403,1000,1000,1000,1000,104128332,1581,1582,1547,1547
72715902,1000,1000,1000,1000,104228292,1583,1584,1544,1544
72718401,1000,1000,1000,1000,104328252,1586,1586,1542,1542
72720900,1000,1000,1000,1000,104428212,1588,1588,1540,1539
72723399,1000,1000,1000,1000,104528172,1590,1590,1538,1539
72725898,1000,1000,1000,1000,104628965,1592,1592,1537,1538
72728397,1000,1000,1000,1000,104728925,1594,1594,1538,1540
72730896,1000,1000,1000,1000,104828885,1593,1593,1539,1542
72733395,1000,1000,1000,1000,104928845,1592,1590,1542,1545
72735894,1000,1000,1000,1000,105028805,1588,1585,1548,1551
72738393,1000,1000,1000,1000,105128765,1582,1578,1556,1559
72740892,1000,1000,1000,1000,105228725,1574,1570,1567,1569
72743391,1000,1000,1000,1000,105328685,1564,1560,1578,1580
72745890,1000,1000,1000,1000,105428645,1553,1551,1589,1590
72748389,1000,1000,1000,1000,105528605,1544,1544,1599,1599
72750888,1000,1000,1000,1000,105628565,1538,1540,1607,1606
72753387,1000,1000,1000,1000,105728525,1534,1537,1612,1610
72755886,1000,1000,1000,1000,105828485,1534,1537,1614,1611
72758385,1000,1000,1000,1000,105928445,1537,1539,1613,1611
72760884,1000,1000,1000,1000,106028405,1542,1544,1609,1607
72763383,1000,1000,1000,1000,106128365,1548,1549,1603,1602
72765882,1000,1000,1000,1000,106228325,1555,1556,1596,1596
72768381,1000,1000,1000,1000,106328285,1563,1563,1589,1589
72770880,1000,1000,1000,1000,106428245,1570,1569,1582,1582
72773379,1000,1000,1000,1000,106528205,1576,1574,1576,1576
72775878,1000,1000,1000,1000,106628165,1581,1579,1571,1572
72778377,1000,1000,1000,1000,106728958,1585,1583,1568,1569
72780876,1000,1000,1000,1000,106828918,1586,1584,1565,1566
72783375,1000,1000,1000,1000,106928878,1586,1585,1565,1567
72785874,1000,1000,1000,1000,107028838,1585,1584,1567,1567
72788373,1000,1000,1000,1000,107128798,1583,1582,1569,1569
72790872,1000,1000,1000,1000,107228758,1581,1581,1572,1572
72793371,1000,1000,1000,1000,107328718,1578,1579,1574,1574
72795870,1000,1000,1000,1000,107428678,1576,1577,1578,1577
72798369,1000,1000,1000,1000,107528638,1575,1576,1581,1580
72800868,1000,1000,1000,1000,107628598,1574,1575,1583,1582
72803367,1000,1000,1000,1000,107728558,1573,1574,1584,1583
72805866,1000,1000,1000,1000,107828518,1574,1575,1585,1586
72808365,1000,1000,1000,1000,107928478,1573,1573,1584,1584
72810864,1000,1000,1000,1000,108028438,1574,1574,1583,1583
72813363,1000,1000,1000,1000,108128398,1576,1576,1583,1583
72815862,1000,1000,1000,1000,108228358,1576,1577,1582,1582
72818361,1000,1000,1000,1000,108328318,1578,1578,1581,1581
72820860,1000,1000,1000,1000,108428278,1579,1579,1580,1580
72823359,1000,1000,1000,1000,108528238,1580,1580,1578,1578
72825858,1000,1000,1000,1000,108628198,1581,1581,1578,1578
72828357,1000,1000,1000,1000,108728158,1582,1582,1578,1578
72830856,1000,1000,1000,1000,108828951,1583,1582,1578,1578
72833355,1000,1000,1000,1000,108928911,1583,1582,1578,1578
72835854,1000,1000,1000,1000,109028871,1582,1581,1578,1578
72838353,1000,1000,1000,1000,109128831,1581,1580,1578,1578
72840852,1000,1000,1000,1000,109228791,1580,1580,1578,1578
72843351,1000,1000,1000,1000,109328751,1580,1580,1579,1580
72845850,1000,1000,1000,1000,109428711,1580,1581,1580,1580
72848349,1000,1000,1000,1000,109528671,1579,1579,1580,1580
72850848,1000,1000,1000,1000,109628631,1579,1579,1581,1580
72853347,1000,1000,1000,1000,109728591,1579,1579,1581,1581
72855846,1000,1000,1000,1000,109828551,1579,1579,1581,1581
72858345,1000,1000,1000,1000,109928511,1579,1579,1581,1581
72860844,1000,1000,1000,1000,110028471,1579,1579,1581,1580
72863343,1000,1000,1000,1000,110128431,1579,1579,1580,1580
72865842,1000,1000,1000,1000,110228391,1580,1580,1580,1581
72868341,1000,1000,1000,1000,110328351,1581,1582,1586,1574
72870840,1000,1000,1000,1000,110428311,1579,1579,1584,1571
72873339,1000,1000,1000,1000,110528271,1578,1578,1579,1574
72875838,1000,1000,1000,1000,110628231,1575,1574,1572,1574
72878337,1000,1000,1000,1000,110728191,1571,1570,1566,1573
72880836,1000,1000,1000,1000,110828984,1568,1568,1564,1571
72883335,1000,1000,1000,1000,110928944,1567,1567,1564,1569
72885834,1000,1000,1000,1000,111028904,1566,1566,1564,1566
72888333,1000,1000,1000,1000,111128864,1566,1566,1566,1565
72890832,1000,1000,1000,1000,111228824,1565,1565,1566,1564
72893331,1000,1000,1000,1000,111328784,1565,1565,1567,1564
72895830,1000,1000,1000,1000,111428744,1565,1565,1566,1564
72898329,1000,1000,1000,1000,111528704,1564,1563,1565,1563
72900828,1000,1000,1000,1000,111628664,1562,1562,1563,1563
72903327,1000,1000,1000,1000,111728624,1562,1562,1562,1563
72905826,1000,1000,1000,1000,111828584,1561,1561,1562,1562
72908325,1000,1000,1000,1000,111928544,1560,1560,1560,1561
72910824,1000,1000,1000,1000,112028504,1560,1560,1561,1560
72913323,1000,1000,1000,1000,112128464,1560,1560,1560,1559
72915822,1000,1000,1000,1000,112228424,1560,1560,1560,1559
72918321,1000,1000,1000,1000,112328384,1559,1559,1560,1559
72920820,1000,1000,1000,1000,112428344,1559,1559,1560,1558
72923319,1000,1000,1000,1000,112528304,1559,1558,1559,1558
72925818,1000,1000,1000,1000,112628264,1559,1560,1560,1559
72928317,1000,1000,1000,1000,112728224,1559,1559,1560,1559
72930816,1000,1000,1000,1000,112828184,1558,1558,1559,1557
72933315,1000,1000,1000,1000,112928977,1559,1559,1560,1558
72935814,1000,1000,1000,1000,113028937,1559,1558,1560,1556
72938313,1000,1000,1000,1000,113128897,1559,1559,1559,1559
72940812,1000,1000,1000,1000,113228857,1560,1560,1558,1563
72943311,1000,1000,1000,1000,113328817,1560,1561,1557,1564
72945810,1000,1000,1000,1000,113428777,1561,1561,1558,1564
72948309,1000,1000,1000,1000,113528737,1562,1562,1559,1564
72950808,1000,1000,1000,1000,113628697,1562,1562,1561,1562
72953307,1000,1000,1000,1000,113728657,1562,1561,1562,1561
72955806,1000,1000,1000,1000,113828617,1560,1559,1560,1559
72958305,1000,1000,1000,1000,113928577,1556,1556,1556,1556
72960804,1000,1000,1000,1000,114028537,1550,1550,1550,1550
72963303,1000,1000,1000,1000,114128497,1545,1544,1545,1545
72965802,1000,1000,1000,1000,114228457,1538,1538,1538,1538
72968301,1000,1000,1000,1000,114328417,1531,1531,1531,1531
72970800,1000,1000,1000,1000,114428377,1523,1523,1523,1524
72973299,1000,1000,1000,1000,114528337,1520,1520,1520,1520
72975798,1000,1000,1000,1000,114628297,1518,1520,1518,1520
72978297,1000,1000,1000,1000,114728257,1519,1519,1518,1520
72980796,1000,1000,1000,1000,114828217,1521,1522,1521,1522
72983295,1000,1000,1000,1000,114928177,1525,1525,1524,1525
72985794,1000,1000,1000,1000,115028970,1530,1529,1530,1530
72988293,1000,1000,1000,1000,115128930,1535,1534,1535,1534
72990792,1000,1000,1000,1000,115228890,1538,1537,1538,1537
72993291,1000,1000,1000,1000,115328850,1541,1541,1541,1541
72995790,1000,1000,1000,1000,115428810,1543,1542,1543,1542
72998289,1000,1000,1000,1000,115528770,1545,1544,1545,1544
73000788,1000,1000,1000,1000,115628730,1546,1545,1546,1545
73003287,1000,1000,1000,1000,115728690,1546,1546,1546,1546
73005786,1000,1000,1000,1000,115828650,1546,1546,1546,1546
73008285,1000,1000,1000,1000,115928610,1546,1547,1546,1546
73010784,1000,1000,1000,1000,116028570,1546,1546,1546,1546
73013283,1000,1000,1000,1000,116128530,1547,1547,1547,1547
73015782,1000,1000,1000,1000,116228490,1546,1546,1546,1546
73018281,1000,1000,1000,1000,116328450,1545,1546,1546,1546
73020780,1000,1000,1000,1000,116428410,1544,1545,1545,1544
73023279,1000,1000,1000,1000,116528370,1544,1544,1544,1544
73025778,1000,1000,1000,1000,116628330,1545,1545,1545,1546
73028277,1000,1000,1000,1000,116728290,1545,1545,1545,1545
73030776,1000,1000,1000,1000,116828250,1546,1545,1546,1546
73033275,1000,1000,1000,1000,116928210,1544,1544,1544,1544
73035774,1000,1000,1000,1000,117028170,1544,1545,1544,1544
73038273,1000,1000,1000,1000,117128963,1545,1545,1545,1544
73040772,1000,1000,1000,1000,117228923,1544,1544,1544,1544
73043271,1000,1000,1000,1000,117328883,1545,1544,1544,1545
73045770,1000,1000,1000,1000,117428843,1544,1544,1544,1544
73048269,1000,1000,1000,1000,117528803,1544,1544,1544,1543
73050768,1000,1000,1000,1000,117628763,1544,1544,1544,1545
73053267,1000,1000,1000,1000,117728723,1544,1544,1544,1544
73055766,1000,1000,1000,1000,117828683,1544,1543,1544,1543
73058265,1000,1000,1000,1000,117928643,1544,1544,1544,1545
73060764,1000,1000,1000,1000,118028603,1545,1545,1544,1545
73063263,1000,1000,1000,1000,118128563,1544,1544,1543,1544
73065762,1000,1000,1000,1000,118228523,1543,1544,1543,1543
73068261,1000,1000,1000,1000,118328483,1543,1543,1543,1543
73070760,1000,1000,1000,1000,118428443,1544,1544,1544,1544
73073259,1000,1000,1000,1000,118528403,1544,1544,1544,1544
73075758,1000,1000,1000,1000,118628363,1545,1545,1545,1545
73078257,1000,1000,1000,1000,118728323,1544,1544,1544,1544
73080756,1000,1000,1000,1000,118828283,1545,1544,1545,1544
73083255,1000,1000,1000,1000,118928243,1544,1543,1543,1543
73085754,1000,1000,1000,1000,119028203,1544,1544,1544,1545
73088253,1000,1000,1000,1000,119128163,1545,1545,1545,1545
73090752,1000,1000,1000,1000,119228956,1544,1544,1544,1544
73093251,1000,1000,1000,1000,119328916,1544,1544,1544,1544
73095750,1000,1000,1000,1000,119428876,1543,1544,1544,1543
73098249,1000,1000,1000,1000,119528836,1545,1544,1544,1545
73100748,1000,1000,1000,1000,119628796,1544,1544,1544,1544
73103247,1000,1000,1000,1000,119728756,1544,1543,1543,1544
73105746,1000,1000,1000,1000,119828716,1544,1544,1544,1544
73108245,1000,1000,1000,1000,119928676,1544,1544,1544,1544
73110744,1000,1000,1000,1000,120028636,1544,1544,1544,1544
73113243,1000,1000,1000,1000,120128596,1544,1545,1544,1545
73115742,1000,1000,1000,1000,120228556,1544,1544,1545,1544
73118241,1000,1000,1000,1000,120328516,1544,1544,1544,1544
73120740,1000,1000,1000,1000,120428476,1544,1544,1544,1544
73123239,1000,1000,1000,1000,120528436,1544,1544,1544,1544
73125738,1000,1000,1000,1000,120628396,1544,1545,1545,1545
73128237,1000,1000,1000,1000,120728356,1544,1544,1544,1544
73130736,1000,1000,1000,1000,120828316,1545,1545,1545,1545
73133235,1000,1000,1000,1000,120928276,1545,1545,1545,1545
73135734,1000,1000,1000,1000,121028236,1545,1545,1545,1544
73138233,1000,1000,1000,1000,121128196,1544,1544,1544,1545
73140732,1000,1000,1000,1000,121228156,1544,1545,1544,1544
73143231,1000,1000,1000,1000,121328949,1545,1544,1545,1545
73145730,1000,1000,1000,1000,121428909,1544,1545,1545,1544
73148229,1000,1000,1000,1000,121528869,1545,1545,1545,1545
73150728,1000,1000,1000,1000,121628829,1545,1545,1545,1545
73153227,1000,1000,1000,1000,121728789,1544,1544,1544,1544
73155726,1000,1000,1000,1000,121828749,1544,1544,1544,1544
73158225,1000,1000,1000,1000,121928709,1544,1543,1543,1544
73160724,1000,1000,1000,1000,122028669,1544,1544,1544,1544
73163223,1000,1000,1000,1000,122128629,1544,1545,1544,1544
73165722,1000,1000,1000,1000,122228589,1544,1544,1544,1544
73168221,1000,1000,1000,1000,122328549,1544,1544,1544,1544
73170720,1000,1000,1000,1000,122428509,1544,1544,1544,1544
73173219,1000,1000,1000,1000,122528469,1544,1544,1544,1544
73175718,1000,1000,1000,1000,122628429,1544,1545,1545,1544
73178217,1000,1000,1000,1000,122728389,1544,1544,1544,1544
73180716,1000,1000,1000,1000,122828349,1544,1544,1544,1544
73183215,1000,1000,1000,1000,122928309,1544,1543,1544,1544
73185714,1000,1000,1000,1000,123028269,1544,1544,1544,1544
73188213,1000,1000,1000,1000,123128229,1544,1544,1544,1544
73190712,1000,1000,1000,1000,123228189,1544,1545,1544,1544
73193211,1000,1000,1000,1000,123328982,1544,1544,1544,1545
73195710,1000,1000,1000,1000,123428942,1545,1545,1545,1545
73198209,1000,1000,1000,1000,123528902,1544,1544,1544,1544
73200708,1000,1000,1000,1000,123628862,1544,1544,1544,1544
73203207,1000,1000,1000,1000,123728822,1545,1544,1545,1545
73205706,1000,1000,1000,1000,123828782,1544,1544,1544,1544
73208205,1000,1000,1000,1000,123928742,1544,1544,1544,1544
73210704,1000,1000,1000,1000,124028702,1544,1544,1544,1544
73213203,1000,1000,1000,1000,124128662,1544,1545,1544,1545
73215702,1000,1000,1000,1000,124228622,1478,1465,1479,1464
73218201,1000,1000,1000,1000,124328582,1351,1302,1352,1301
73220700,1000,1000,1000,1000,124428542,1301,1232,1303,1229
73223199,1000,1000,1000,1000,124528502,1286,1210,1288,1207
73225698,1000,1000,1000,1000,124628462,1268,1183,1271,1179
73228197,1000,1000,1000,1000,124728422,1249,1153,1252,1150
73230696,1000,1000,1000,1000,124828382,1158,1152,1161,1150
73233195,1000,1000,1000,1000,124928342,1159,1152,1161,1150
73235694,1000,1000,1000,1000,125028302,1158,1153,1161,1150
73238193,1000,1000,1000,1000,125128262,1160,1150,1146,1170
73240692,1000,1000,1000,1000,125228222,1160,1150,1148,1167
73243191,1000,1000,1000,1000,125328182,1160,1150,1152,1161
73245690,1000,1000,1000,1000,125428975,1160,1150,1153,1160
73248189,1000,1000,1000,1000,125528935,1160,1150,1153,1161
73250688,1000,1000,1000,1000,125628895,1160,1150,1152,1161
73253187,1000,1000,1000,1000,125728855,1160,1150,1152,1162
73255686,1000,1000,1000,1000,125828815,1160,1150,1151,1163
73258185,1000,1000,1000,1000,125928775,1160,1150,1159,1153
73260684,1000,1000,1000,1000,126028735,1160,1150,1157,1155
73263183,1000,1000,1000,1000,126128695,1160,1150,1157,1156
73265682,1000,1000,1000,1000,126228655,1160,1150,1156,1156
73268181,1000,1000,1000,1000,126328615,1160,1150,1156,1156
73270680,1000,1000,1000,1000,126428575,1000,1000,1000,1000
73273179,1000,1000,1000,1000,126528535,1000,1000,1000,1000
73275678,1000,1000,1000,1000,126628495,1000,1000,1000,1000
73278177,1000,1000,1000,1000,126728455,1000,1000,1000,1000
73280676,1000,1000,1000,1000,126828415,1000,1000,1000,1000
73283175,1000,1000,1000,1000,126928375,1000,1000,1000,1000
73285674,1000,1000,1000,1000,127028335,1000,1000,1000,1000
73288173,1000,1000,1000,1000,127128295,1000,1000,1000,1000
73290672,1000,1000,1000,1000,127228255,1000,1000,1000,1000
73293171,1000,1000,1000,1000,127328215,1000,1000,1000,1000
73295670,1000,1000,1000,1000,127428175,1000,1000,1000,1000
73298169,1000,1000,1000,1000,127528968,1000,1000,1000,1000
73300668,1000,1000,1000,1000,127628928,1000,1000,1000,1000
73303167,1000,1000,1000,1000,127728888,1000,1000,1000,1000
73305666,1000,1000,1000,1000,127828848,1000,1000,1000,1000
73308165,1000,1000,1000,1000,127928808,1000,1000,1000,1000
73310664,1000,1000,1000,1000,128028768,1000,1000,1000,1000
73313163,1000,1000,1000,1000,128128728,1000,1000,1000,1000
73315662,1000,1000,1000,1000,128228688,1000,1000,1000,1000
73318161,1000,1000,1000,1000,128328648,1000,1000,1000,1000
73320660,1000,1000,1000,1000,128428608,1000,1000,1000,1000
73323159,1000,1000,1000,1000,128528568,1000,1000,1000,1000
73325658,1000,1000,1000,1000,128628528,1000,1000,1000,1000
73328157,1000,1000,1000,1000,128728488,1000,1000,1000,1000
73330656,1000,1000,1000,1000,128828448,1000,1000,1000,1000
73333155,1000,1000,1000,1000,128928408,1000,1000,1000,1000
73335654,1000,1000,1000,1000,129028368,1000,1000,1000,1000
73338986,1000,1000,1000,1000,129128328,1000,1000,1000,1000
73341485,1000,1000,1000,1000,129228288,1000,1000,1000,1000
73343984,1000,1000,1000,1000,129328248,1000,1000,1000,1000
73346483,1000,1000,1000,1000,129428208,1000,1000,1000,1000
73348982,1000,1000,1000,1000,129528168,1000,1000,1000,1000
73351481,1000,1000,1000,1000,129628961,1000,1000,1000,1000
73353980,1000,1000,1000,1000,129728921,1000,1000,1000,1000
73356479,1000,1000,1000,1000,129828881,1000,1000,1000,1000
73358978,1000,1000,1000,1000,129928841,1000,1000,1000,1000
73361477,1000,1000,1000,1000,130028801,1000,1000,1000,1000
73363976,1000,1000,1000,1000,130128761,1000,1000,1000,1000
73366475,1000,1000,1000,1000,130228721,1000,1000,1000,1000
73368974,1000,1000,1000,1000,130328681,1000,1000,1000,1000
73371473,1000,1000,1000,1000,130428641,1000,1000,1000,1000
73373972,1000,1000,1000,1000,130528601,1000,1000,1000,1000
73376471,1000,1000,1000,1000,130628561,1000,1000,1000,1000
73378970,1000,1000,1000,1000,130728521,1000,1000,1000,1000
73381469,1000,1000,1000,1000,130828481,1000,1000,1000,1000
73383968,1000,1000,1000,1000,130928441,1000,1000,1000,1000
73386467,1000,1000,1000,1000,131028401,1000,1000,1000,1000
73388966,1000,1000,1000,1000,131128361,1000,1000,1000,1000
73391465,1000,1000,1000,1000,131228321,1000,1000,1000,1000
73393964,1000,1000,1000,1000,131328281,1000,1000,1000,1000
73396463,1000,1000,1000,1000,131428241,1000,1000,1000,1000
73398962,1000,1000,1000,1000,131528201,1000,1000,1000,1000
73401461,1000,1000,1000,1000,131628161,1000,1000,1000,1000
73403960,1000,1000,1000,1000,131728954,1000,1000,1000,1000
73406459,1000,1000,1000,1000,131828914,1000,1000,1000,1000
73408958,1000,1000,1000,1000,131928874,1000,1000,1000,1000
73411457,1000,1000,1000,1000,132028834,1000,1000,1000,1000
73413956,1000,1000,1000,1000,132128794,1000,1000,1000,1000
73416455,1000,1000,1000,1000,132228754,1000,1000,1000,1000
73418954,1000,1000,1000,1000,132328714,1000,1000,1000,1000
73421453,1000,1000,1000,1000,132428674,1000,1000,1000,1000
73423952,1000,1000,1000,1000,132528634,1000,1000,1000,1000
73426451,1000,1000,1000,1000,132628594,1000,1000,1000,1000
73428950,1000,1000,1000,1000,132728554,1000,1000,1000,1000
73431449,1000,1000,1000,1000,132828514,1000,1000,1000,1000
73433948,1000,1000,1000,1000,132928474,1000,1000,1000,1000
73436447,1000,1000,1000,1000,133028434,1000,1000,1000,1000
73438946,1000,1000,1000,1000,133128394,1000,1000,1000,1000
73441445,1000,1000,1000,1000,133228354,1000,1000,1000,1000
73443944,1000,1000,1000,1000,133328314,1000,1000,1000,1000
73446443,1000,1000,1000,1000,133428274,1000,1000,1000,1000
73448942,1000,1000,1000,1000,133528234,1000,1000,1000,1000
73451441,1000,1000,1000,1000,133628194,1000,1000,1000,1000
73453940,1000,1000,1000,1000,133728154,1000,1000,1000,1000
73456439,1000,1000,1000,1000,133828947,1000,1000,1000,1000
73458938,1000,1000,1000,1000,133928907,1000,1000,1000,1000
73461437,1000,1000,1000,1000,134028867,1000,1000,1000,1000
73463936,1000,1000,1000,1000,134128827,1000,1000,1000,1000
73466435,1000,1000,1000,1000,134228787,1000,1000,1000,1000
73468934,1000,1000,1000,1000,134328747,1000,1000,1000,1000
73471433,1000,1000,1000,1000,134428707,1000,1000,1000,1000
73473932,1000,1000,1000,1000,134528667,1000,1000,1000,1000
73476431,1000,1000,1000,1000,134628627,1000,1000,1000,1000
73478930,1000,1000,1000,1000,134728587,1000,1000,1000,1000
73481429,1000,1000,1000,1000,134828547,1000,1000,1000,1000
73483928,1000,1000,1000,1000,134928507,1000,1000,1000,1000
73486427,1000,1000,1000,1000,135028467,1000,1000,1000,1000
73488926,1000,1000,1000,1000,135128427,1000,1000,1000,1000
73491425,1000,1000,1000,1000,135228387,1000,1000,1000,1000
73493924,1000,1000,1000,1000,135328347,1000,1000,1000,1000
73496423,1000,1000,1000,1000,135428307,1000,1000,1000,1000
73498922,1000,1000,1000,1000,135528267,1000,1000,1000,1000
73501421,1000,1000,1000,1000,135628227,1000,1000,1000,1000
73503920,1000,1000,1000,1000,135728187,1000,1000,1000,1000
73506419,1000,1000,1000,1000,135828980,1000,1000,1000,1000
73508918,1000,1000,1000,1000,135928940,1000,1000,1000,1000
73511417,1000,1000,1000,1000,136028900,1000,1000,1000,1000
73513916,1000,1000,1000,1000,136128860,1000,1000,1000,1000
73516415,1000,1000,1000,1000,136228820,1000,1000,1000,1000
73518914,1000,1000,1000,1000,136328780,1000,1000,1000,1000
73521413,1000,1000,1000,1000,136428740,1000,1000,1000,1000
73523912,1000,1000,1000,1000,,,,,
73526411,1000,1000,1000,1000,,,,,
73528910,1000,1000,1000,1000,,,,,
73531409,1000,1000,1000,1000,,,,,
73533908,1000,1000,1000,1000,,,,,
73536407,1000,1000,1000,1000,,,,,
73538906,1000,1000,1000,1000,,,,,
73541405,1000,1000,1000,1000,,,,,
73543904,1000,1000,1000,1000,,,,,
73546403,1000,1000,1000,1000,,,,,
73548902,1000,1000,1000,1000,,,,,
73551401,1000,1000,1000,1000,,,,,
73553900,1000,1000,1000,1000,,,,,
73556399,1000,1000,1000,1000,,,,,
73558898,1000,1000,1000,1000,,,,,
73561397,1000,1000,1000,1000,,,,,
73563896,1000,1000,1000,1000,,,,,
73566395,1000,1000,1000,1000,,,,,
73568894,1000,1000,1000,1000,,,,,
73571393,1000,1000,1000,1000,,,,,
73573892,1000,1000,1000,1000,,,,,
73576391,1000,1000,1000,1000,,,,,
73578890,1000,1000,1000,1000,,,,,
73581389,1000,1000,1000,1000,,,,,
73583888,1000,1000,1000,1000,,,,,
73586387,1000,1000,1000,1000,,,,,
73588886,1000,1000,1000,1000,,,,,
73591385,1000,1000,1000,1000,,,,,
73593884,1000,1000,1000,1000,,,,,
73596383,1000,1000,1000,1000,,,,,
73598882,1000,1000,1000,1000,,,,,
73601381,1000,1000,1000,1000,,,,,
73603880,1000,1000,1000,1000,,,,,
73606379,1000,1000,1000,1000,,,,,
73608878,1000,1000,1000,1000,,,,,
73611377,1000,1000,1000,1000,,,,,
73613876,1000,1000,1000,1000,,,,,
73616375,1000,1000,1000,1000,,,,,
73618874,1000,1000,1000,1000,,,,,
73621373,1000,1000,1000,1000,,,,,
73623872,1000,1000,1000,1000,,,,,
73626371,1000,1000,1000,1000,,,,,
73628870,1000,1000,1000,1000,,,,,
73631369,1000,1000,1000,1000,,,,,
73633868,1000,1000,1000,1000,,,,,
73636367,1000,1000,1000,1000,,,,,
73638866,1000,1000,1000,1000,,,,,
73641365,1000,1000,1000,1000,,,,,
73643864,1000,1000,1000,1000,,,,,
73646363,1000,1000,1000,1000,,,,,
73648862,1000,1000,1000,1000,,,,,
73651361,1000,1000,1000,1000,,,,,
73653860,1000,1000,1000,1000,,,,,
73656359,1000,1000,1000,1000,,,,,
73658858,1000,1000,1000,1000,,,,,
73661357,1000,1000,1000,1000,,,,,
73663856,1000,1000,1000,1000,,,,,
73666355,1000,1000,1000,1000,,,,,
73668854,1000,1000,1000,1000,,,,,
73671353,1000,1000,1000,1000,,,,,
73673852,1000,1000,1000,1000,,,,,
73676351,1000,1000,1000,1000,,,,,
73678850,1000,1000,1000,1000,,,,,
73681349,1000,1000,1000,1000,,,,,
73683848,1000,1000,1000,1000,,,,,
73686347,1000,1000,1000,1000,,,,,
73688846,1000,1000,1000,1000,,,,,
73691345,1000,1000,1000,1000,,,,,
73693844,1000,1000,1000,1000,,,,,
73696343,1000,1000,1000,1000,,,,,
73698842,1000,1000,1000,1000,,,,,
73701341,1000,1000,1000,1000,,,,,
73703840,1000,1000,1000,1000,,,,,
73706339,1000,1000,1000,1000,,,,,
73708838,1000,1000,1000,1000,,,,,
73711337,1000,1000,1000,1000,,,,,
73713836,1000,1000,1000,1000,,,,,
73716335,1000,1000,1000,1000,,,,,
73718834,1000,1000,1000,1000,,,,,
73721333,1000,1000,1000,1000,,,,,
73723832,1000,1000,1000,1000,,,,,
73726331,1000,1000,1000,1000,,,,,
73728830,1000,1000,1000,1000,,,,,
73731329,1000,1000,1000,1000,,,,,
73733828,1000,1000,1000,1000,,,,,
73736327,1000,1000,1000,1000,,,,,
73738826,1000,1000,1000,1000,,,,,
73741325,1000,1000,1000,1000,,,,,
73743824,1000,1000,1000,1000,,,,,
73746323,1000,1000,1000,1000,,,,,
73748822,1000,1000,1000,1000,,,,,
73751321,1000,1000,1000,1000,,,,,
73753820,1000,1000,1000,1000,,,,,
73756319,1000,1000,1000,1000,,,,,
73758818,1000,1000,1000,1000,,,,,
73761317,1000,1000,1000,1000,,,,,
73763816,1000,1000,1000,1000,,,,,
73766315,1000,1000,1000,1000,,,,,
73768814,1000,1000,1000,1000,,,,,
73771313,1000,1000,1000,1000,,,,,
73773812,1000,1000,1000,1000,,,,,
73776311,1000,1000,1000,1000,,,,,
73778810,1000,1000,1000,1000,,,,,
73781309,1000,1000,1000,1000,,,,,
73783808,1000,1000,1000,1000,,,,,
73786307,1000,1000,1000,1000,,,,,
73788806,1000,1000,1000,1000,,,,,
73791305,1000,1000,1000,1000,,,,,
73793804,1000,1000,1000,1000,,,,,
73796303,1000,1000,1000,1000,,,,,
73798802,1000,1000,1000,1000,,,,,
73801301,1000,1000,1000,1000,,,,,
73803800,1000,1000,1000,1000,,,,,
73806299,1000,1000,1000,1000,,,,,
73808798,1000,1000,1000,1000,,,,,
73811297,1000,1000,1000,1000,,,,,
73813796,1000,1000,1000,1000,,,,,
73816295,1000,1000,1000,1000,,,,,
73818794,1000,1000,1000,1000,,,,,
73821293,1000,1000,1000,1000,,,,,
73823792,1000,1000,1000,1000,,,,,
73826291,1000,1000,1000,1000,,,,,
73828790,1000,1000,1000,1000,,,,,
73831289,1000,1000,1000,1000,,,,,
73833788,1000,1000,1000,1000,,,,,
73836287,1000,1000,1000,1000,,,,,
73838786,1000,1000,1000,1000,,,,,
73841285,1000,1000,1000,1000,,,,,
73843784,1000,1000,1000,1000,,,,,
73846283,1000,1000,1000,1000,,,,,
73848782,1000,1000,1000,1000,,,,,
73851281,1000,1000,1000,1000,,,,,
73853780,1000,1000,1000,1000,,,,,
73856279,1000,1000,1000,1000,,,,,
73858778,1000,1000,1000,1000,,,,,
73861277,1000,1000,1000,1000,,,,,
73863776,1000,1000,1000,1000,,,,,
73866275,1000,1000,1000,1000,,,,,
73868774,1000,1000,1000,1000,,,,,
73871273,1000,1000,1000,1000,,,,,
73873772,1000,1000,1000,1000,,,,,
73876271,1000,1000,1000,1000,,,,,
73878770,1000,1000,1000,1000,,,,,
73881269,1000,1000,1000,1000,,,,,
73883768,1000,1000,1000,1000,,,,,
73886267,1000,1000,1000,1000,,,,,
73888766,1000,1000,1000,1000,,,,,
73891265,1000,1000,1000,1000,,,,,
73893764,1000,1000,1000,1000,,,,,
73896263,1000,1000,1000,1000,,,,,
73898762,1000,1000,1000,1000,,,,,
73901261,1000,1000,1000,1000,,,,,
73903760,1000,1000,1000,1000,,,,,
73906259,1000,1000,1000,1000,,,,,
73908758,1000,1000,1000,1000,,,,,
73911257,1000,1000,1000,1000,,,,,
73913756,1000,1000,1000,1000,,,,,
73916255,1001,1001,1001,1001,,,,,
73918754,1002,1002,1002,1002,,,,,
73921253,1003,1003,1003,1003,,,,,
73923752,1003,1003,1003,1003,,,,,
73926251,1004,1004,1004,1004,,,,,
73928750,1005,1005,1005,1005,,,,,
73931249,1006,1006,1006,1006,,,,,
73933748,1006,1006,1006,1006,,,,,
73936247,1007,1007,1007,1007,,,,,
73938746,1008,1008,1008,1008,,,,,
73941245,1009,1009,1009,1009,,,,,
73943744,1009,1009,1009,1009,,,,,
73946243,1010,1010,1010,1010,,,,,
73948742,1011,1011,1011,1011,,,,,
73951241,1012,1012,1012,1012,,,,,
73953740,1012,1012,1012,1012,,,,,
73956239,1013,1013,1013,1013,,,,,
73958738,1014,1014,1014,1014,,,,,
73961237,1015,1015,1015,1015,,,,,
73963736,1015,1015,1015,1015,,,,,
73966235,1016,1016,1016,1016,,,,,
73968734,1017,1017,1017,1017,,,,,
73971233,1018,1018,1018,1018,,,,,
73973732,1018,1018,1018,1018,,,,,
73976231,1019,1019,1019,1019,,,,,
73978730,1020,1020,1020,1020,,,,,
73981229,1021,1021,1021,1021,,,,,
73983728,1021,1021,1021,1021,,,,,
73986227,1022,1022,1022,1022,,,,,
73988726,1023,1023,1023,1023,,,,,
73991225,1024,1024,1024,1024,,,,,
73993724,1024,1024,1024,1024,,,,,
73996223,1025,1025,1025,1025,,,,,
73998722,1026,1026,1026,1026,,,,,
74001221,1027,1027,1027,1027,,,,,
74003720,1027,1027,1027,1027,,,,,
74006219,1028,1028,1028,1028,,,,,
74008718,1029,1029,1029,1029,,,,,
74011217,1030,1030,1030,1030,,,,,
74013716,1030,1030,1030,1030,,,,,
74016215,1031,1031,1031,1031,,,,,
74018714,1032,1032,1032,1032,,,,,
74021213,1033,1033,1033,1033,,,,,
74023712,1033,1033,1033,1033,,,,,
74026211,1034,1034,1034,1034,,,,,
74028710,1035,1035,1035,1035,,,,,
74031209,1036,1036,1036,1036,,,,,
74033708,1036,1036,1036,1036,,,,,
74036207,1037,1037,1037,1037,,,,,
74038706,1038,1038,1038,1038,,,,,
74041205,1039,1039,1039,1039,,,,,
74043704,1039,1039,1039,1039,,,,,
74046203,1040,1040,1040,1040,,,,,
74048702,1041,1041,1041,1041,,,,,
74051201,1042,1042,1042,1042,,,,,
74053700,1042,1042,1042,1042,,,,,
74056199,1043,1043,1043,1043,,,,,
74058698,1044,1044,1044,1044,,,,,
74061197,1045,1045,1045,1045,,,,,
74063696,1045,1045,1045,1045,,,,,
74066195,1046,1046,1046,1046,,,,,
74068694,1047,1047,1047,1047,,,,,
74071193,1048,1048,1048,1048,,,,,
74073692,1048,1048,1048,1048,,,,,
74076191,1049,1049,1049,1049,,,,,
74078690,1050,1050,1050,1050,,,,,
74081189,1051,1051,1051,1051,,,,,
74083688,1051,1051,1051,1051,,,,,
74086187,1052,1052,1052,1052,,,,,
74088686,1053,1053,1053,1053,,,,,
74091185,1054,1054,1054,1054,,,,,
74093684,1054,1054,1054,1054,,,,,
74096183,1055,1055,1055,1055,,,,,
74098682,1056,1056,1056,1056,,,,,
74101181,1057,1057,1057,1057,,,,,
74103680,1057,1057,1057,1057,,,,,
74106179,1058,1058,1058,1058,,,,,
74108678,1059,1059,1059,1059,,,,,
74111177,1060,1060,1060,1060,,,,,
74113676,1060,1060,1060,1060,,,,,
74116175,1061,1061,1061,1061,,,,,
74118674,1062,1062,1062,1062,,,,,
74121173,1063,1063,1063,1063,,,,,
74123672,1063,1063,1063,1063,,,,,
74126171,1064,1064,1064,1064,,,,,
74128670,1065,1065,1065,1065,,,,,
74131169,1066,1066,1066,1066,,,,,
74133668,1066,1066,1066,1066,,,,,
74136167,1067,1067,1067,1067,,,,,
74138666,1068,1068,1068,1068,,,,,
74141165,1069,1069,1069,1069,,,,,
74143664,1069,1069,1069,1069,,,,,
74146163,1070,1070,1070,1070,,,,,
74148662,1071,1071,1071,1071,,,,,
74151161,1072,1072,1072,1072,,,,,
74153660,1072,1072,1072,1072,,,,,
74156159,1073,1073,1073,1073,,,,,
74158658,1074,1074,1074,1074,,,,,
74161157,1075,1075,1075,1075,,,,,
74163656,1075,1075,1075,1075,,,,,
74166155,1076,1076,1076,1076,,,,,
74168654,1077,1077,1077,1077,,,,,
74171153,1078,1078,1078,1078,,,,,
74173652,1078,1078,1078,1078,,,,,
74176151,1079,1079,1079,1079,,,,,
74178650,1080,1080,1080,1080,,,,,
74181149,1081,1081,1081,1081,,,,,
74183648,1081,1081,1081,1081,,,,,
74186147,1082,1082,1082,1082,,,,,
74188646,1083,1083,1083,1083,,,,,
74191145,1084,1084,1084,1084,,,,,
74193644,1084,1084,1084,1084,,,,,
74196143,1085,1085,1085,1085,,,,,
74198642,1086,1086,1086,1086,,,,,
74201141,1087,1087,1087,1087,,,,,
74203640,1087,1087,1087,1087,,,,,
74206139,1088,1088,1088,1088,,,,,
74208638,1089,1089,1089,1089,,,,,
74211137,1090,1090,1090,1090,,,,,
74213636,1090,1090,1090,1090,,,,,
74216135,1091,1091,1091,1091,,,,,
74218634,1092,1092,1092,1092,,,,,
74221133,1093,1093,1093,1093,,,,,
74223632,1093,1093,1093,1093,,,,,
74226131,1094,1094,1094,1094,,,,,
74228630,1095,1095,1095,1095,,,,,
74231129,1096,1096,1096,1096,,,,,
74233628,1096,1096,1096,1096,,,,,
74236127,1097,1097,1097,1097,,,,,
74238626,1098,1098,1098,1098,,,,,
74241125,1099,1099,1099,1099,,,,,
74243624,1099,1099,1099,1099,,,,,
74246123,1100,1100,1100,1100,,,,,
74248622,1101,1101,1101,1101,,,,,
74251121,1101,1101,1101,1101,,,,,
74253620,1102,1102,1102,1102,,,,,
74256119,1103,1103,1103,1103,,,,,
74258618,1104,1104,1104,1104,,,,,
74261117,1104,1104,1104,1104,,,,,
74263616,1105,1105,1105,1105,,,,,
74266115,1106,1106,1106,1106,,,,,
74268614,1107,1107,1107,1107,,,,,
74271113,1107,1107,1107,1107,,,,,
74273612,1108,1108,1108,1108,,,,,
74276111,1109,1109,1109,1109,,,,,
74278610,1110,1110,1110,1110,,,,,
74281109,1110,1110,1110,1110,,,,,
74283608,1111,1111,1111,1111,,,,,
74286107,1112,1112,1112,1112,,,,,
74288606,1113,1113,1113,1113,,,,,
74291105,1113,1113,1113,1113,,,,,
74293604,1114,1114,1114,1114,,,,,
74296103,1115,1115,1115,1115,,,,,
74298602,1116,1116,1116,1116,,,,,
74301101,1116,1116,1116,1116,,,,,
74303600,1117,1117,1117,1117,,,,,
74306099,1118,1118,1118,1118,,,,,
74308598,1119,1119,1119,1119,,,,,
74311097,1119,1119,1119,1119,,,,,
74313596,1120,1120,1120,1120,,,,,
74316095,1121,1121,1121,1121,,,,,
74318594,1122,1122,1122,1122,,,,,
74321093,1122,1122,1122,1122,,,,,
74323592,1123,1123,1123,1123,,,,,
74326091,1124,1124,1124,1124,,,,,
74328590,1125,1125,1125,1125,,,,,
74331089,1125,1125,1125,1125,,,,,
74333588,1126,1126,1126,1126,,,,,
74336087,1127,1127,1127,1127,,,,,
74338586,1128,1128,1128,1128,,,,,
74341085,1128,1128,1128,1128,,,,,
74343584,1129,1129,1129,1129,,,,,
74346083,1130,1130,1130,1130,,,,,
74348582,1131,1131,1131,1131,,,,,
74351081,1131,1131,1131,1131,,,,,
74353580,1132,1132,1132,1132,,,,,
74356079,1133,1133,1133,1133,,,,,
74358578,1134,1134,1134,1134,,,,,
74361077,1134,1134,1134,1134,,,,,
74363576,1135,1135,1135,1135,,,,,
74366075,1136,1136,1136,1136,,,,,
74368574,1137,1137,1137,1137,,,,,
74371073,1137,1137,1137,1137,,,,,
74373572,1138,1138,1138,1138,,,,,
74376071,1139,1139,1139,1139,,,,,
74378570,1140,1140,1140,1140,,,,,
74381069,1140,1140,1140,1140,,,,,
74383568,1141,1141,1141,1141,,,,,
74386067,1142,1142,1142,1142,,,,,
74388566,1143,1143,1143,1143,,,,,
74391065,1143,1143,1143,1143,,,,,
74393564,1144,1144,1144,1144,,,,,
74396063,1145,1145,1145,1145,,,,,
74398562,1146,1146,1146,1146,,,,,
74401061,1146,1146,1146,1146,,,,,
74403560,1147,1147,1147,1147,,,,,
74406059,1148,1148,1148,1148,,,,,
74408558,1149,1149,1149,1149,,,,,
74411057,1149,1149,1149,1149,,,,,
74413556,1150,1150,1150,1150,,,,,
74416055,1163,1151,1152,1164,,,,,
74418554,1171,1160,1160,1172,,,,,
74421053,1179,1168,1168,1180,,,,,
74423552,1186,1175,1176,1187,,,,,
74426051,1194,1183,1184,1195,,,,,
74428550,1201,1191,1192,1202,,,,,
74431049,1209,1198,1199,1209,,,,,
74433548,1216,1206,1206,1217,,,,,
74436047,1223,1213,1213,1224,,,,,
74438546,1230,1220,1221,1231,,,,,
74441045,1237,1227,1228,1238,,,,,
74443544,1244,1234,1234,1244,,,,,
74446043,1250,1241,1241,1251,,,,,
74448542,1257,1247,1248,1258,,,,,
74451041,1263,1254,1254,1264,,,,,
74453540,1270,1260,1261,1271,,,,,
74456039,1276,1267,1267,1277,,,,,
74458538,1282,1273,1274,1283,,,,,
74461037,1289,1279,1280,1289,,,,,
74463536,1295,1286,1286,1296,,,,,
74466035,1301,1292,1292,1302,,,,,
74468534,1307,1298,1298,1308,,,,,
74471033,1313,1304,1304,1314,,,,,
74473532,1319,1310,1310,1319,,,,,
74476031,1325,1316,1316,1325,,,,,
74478530,1330,1321,1322,1331,,,,,
74481029,1336,1327,1328,1337,,,,,
74483528,1342,1333,1333,1342,,,,,
74486027,1347,1339,1339,1348,,,,,
74488526,1353,1344,1345,1353,,,,,
74491025,1358,1350,1350,1359,,,,,
74493524,1364,1355,1356,1364,,,,,
74496023,1369,1361,1361,1370,,,,,
74498522,1375,1366,1367,1375,,,,,
74501021,1380,1371,1372,1380,,,,,
74503520,1385,1377,1377,1386,,,,,
74506019,1390,1382,1382,1391,,,,,
74508518,1395,1387,1388,1396,,,,,
74511017,1401,1392,1393,1401,,,,,
74513516,1406,1397,1398,1406,,,,,
74516015,1411,1403,1403,1411,,,,,
74518514,1416,1408,1408,1416,,,,,
74521013,1421,1413,1413,1421,,,,,
74523512,1426,1418,1418,1426,,,,,
74526011,1431,1423,1423,1431,,,,,
74528510,1435,1427,1428,1436,,,,,
74531009,1440,1432,1433,1441,,,,,
74533508,1445,1437,1437,1446,,,,,
74536007,1450,1442,1442,1451,,,,,
74538506,1455,1447,1447,1455,,,,,
74541005,1459,1451,1452,1460,,,,,
74543504,1464,1456,1456,1465,,,,,
74546003,1469,1461,1461,1469,,,,,
74548502,1473,1465,1466,1474,,,,,
74551001,1478,1470,1470,1478,,,,,
74553500,1482,1475,1475,1483,,,,,
74555999,1487,1479,1480,1487,,,,,
74558498,1491,1484,1484,1492,,,,,
74560997,1496,1488,1489,1496,,,,,
74563496,1500,1493,1493,1501,,,,,
74565995,1505,1497,1498,1505,,,,,
74568494,1509,1502,1502,1509,,,,,
74570993,1513,1506,1506,1514,,,,,
74573492,1518,1510,1511,1518,,,,,
74575991,1522,1515,1515,1522,,,,,
74578490,1526,1519,1520,1527,,,,,
74580989,1531,1523,1524,1531,,,,,
74583488,1535,1528,1528,1535,,,,,
74585987,1539,1532,1532,1539,,,,,
74588486,1543,1536,1537,1544,,,,,
74590985,1547,1540,1541,1548,,,,,
74593484,1552,1544,1545,1552,,,,,
74595983,1556,1549,1549,1556,,,,,
74598482,1560,1553,1553,1560,,,,,
74600981,1564,1557,1557,1564,,,,,
74603480,1568,1561,1561,1568,,,,,
74605979,1572,1565,1566,1572,,,,,
74608478,1576,1569,1570,1576,,,,,
74610977,1580,1573,1574,1580,,,,,
74613476,1584,1577,1578,1584,,,,,
74615975,1588,1581,1582,1588,,,,,
74618474,1592,1585,1586,1592,,,,,
74620973,1596,1589,1590,1596,,,,,
74623472,1600,1593,1593,1600,,,,,
74625971,1604,1597,1597,1604,,,,,
74628470,1608,1601,1601,1608,,,,,
74630969,1611,1605,1605,1612,,,,,
74633468,1615,1609,1609,1616,,,,,
74635967,1619,1612,1613,1620,,,,,
74638466,1623,1616,1617,1623,,,,,
74640965,1627,1620,1620,1627,,,,,
74643464,1631,1624,1624,1631,,,,,
74645963,1634,1628,1628,1635,,,,,
74648462,1638,1631,1632,1639,,,,,
74650961,1642,1635,1636,1642,,,,,
74653460,1645,1639,1639,1646,,,,,
74655959,1649,1643,1643,1650,,,,,
74658458,1653,1646,1647,1653,,,,,
74660957,1657,1650,1650,1657,,,,,
74663456,1660,1654,1654,1661,,,,,
74665955,1664,1657,1658,1664,,,,,
74668454,1667,1661,1661,1668,,,,,
74670953,1671,1665,1665,1672,,,,,
74673452,1675,1668,1668,1675,,,,,
74675951,1678,1672,1672,1679,,,,,
74678450,1682,1676,1676,1682,,,,,
74680949,1685,1679,1679,1686,,,,,
74683448,1689,1683,1683,1690,,,,,
74685947,1692,1686,1686,1693,,,,,
74688446,1696,1690,1690,1697,,,,,
74690945,1699,1693,1693,1700,,,,,
74693444,1703,1697,1697,1704,,,,,
74695943,1706,1700,1700,1707,,,,,
74698442,1710,1704,1704,1711,,,,,
74700941,1713,1707,1707,1714,,,,,
74703440,1717,1711,1711,1718,,,,,
74705939,1720,1714,1714,1721,,,,,
74708438,1724,1717,1718,1724,,,,,
74710937,1727,1721,1721,1728,,,,,
74713436,1731,1724,1724,1731,,,,,
74715935,1734,1728,1728,1735,,,,,
74718434,1737,1731,1731,1738,,,,,
74720933,1741,1734,1734,1741,,,,,
74723432,1744,1738,1738,1745,,,,,
74725931,1747,1741,1741,1748,,,,,
74728430,1751,1744,1745,1751,,,,,
74730929,1754,1748,1748,1755,,,,,
74733428,1757,1751,1751,1758,,,,,
74735927,1761,1754,1754,1761,,,,,
74738426,1764,1757,1758,1765,,,,,
74740925,1767,1761,1761,1768,,,,,
74743424,1771,1764,1764,1771,,,,,
74745923,1774,1767,1768,1774,,,,,
74748422,1777,1770,1771,1778,,,,,
74750921,1780,1774,1774,1781,,,,,
74753420,1784,1777,1777,1784,,,,,
74755919,1787,1780,1780,1787,,,,,
74758418,1790,1783,1784,1790,,,,,
74760917,1793,1786,1787,1794,,,,,
74763416,1797,1790,1790,1797,,,,,
74765915,1800,1793,1793,1800,,,,,
74768414,1803,1796,1796,1803,,,,,
74770913,1806,1799,1799,1806,,,,,
74773412,1809,1802,1803,1810,,,,,
74775911,1812,1805,1806,1813,,,,,
74778410,1815,1809,1809,1816,,,,,
74780909,1819,1812,1812,1819,,,,,
74783408,1822,1815,1815,1822,,,,,
74785907,1825,1818,1818,1825,,,,,
74788406,1828,1821,1821,1828,,,,,
74790905,1831,1824,1824,1831,,,,,
74793404,1834,1827,1827,1834,,,,,
74795903,1837,1830,1831,1837,,,,,
74798402,1840,1833,1834,1840,,,,,
74800901,1843,1836,1837,1844,,,,,
74803400,1846,1839,1840,1847,,,,,
74805899,1849,1842,1843,1850,,,,,
74808398,1852,1845,1846,1853,,,,,
74810897,1855,1848,1849,1856,,,,,
74813396,1858,1851,1852,1859,,,,,
74815895,1861,1854,1855,1862,,,,,
74818394,1864,1857,1858,1864,,,,,
74820893,1867,1860,1861,1867,,,,,
74823392,1870,1863,1864,1870,,,,,
74825891,1873,1866,1867,1873,,,,,
74828390,1876,1869,1870,1876,,,,,
74830889,1879,1872,1873,1879,,,,,
74833388,1882,1875,1876,1882,,,,,
74835887,1885,1878,1879,1885,,,,,
74838386,1888,1881,1882,1888,,,,,
74840885,1891,1884,1885,1891,,,,,
74843384,1894,1887,1887,1894,,,,,
74845883,1897,1890,1890,1897,,,,,
74848382,1900,1893,1893,1900,,,,,
74850881,1902,1896,1896,1903,,,,,
74853380,1905,1898,1899,1905,,,,,
74855879,1908,1901,1902,1908,,,,,
74858378,1911,1904,1905,1911,,,,,
74860877,1914,1907,1908,1914,,,,,
74863376,1917,1910,1911,1917,,,,,
74865875,1920,1913,1913,1920,,,,,
74868374,1919,1912,1913,1920,,,,,
74870873,1919,1912,1912,1919,,,,,
74873372,1918,1911,1911,1918,,,,,
74875871,1917,1910,1911,1917,,,,,
74878370,1916,1909,1910,1916,,,,,
74880869,1916,1908,1909,1916,,,,,
74883368,1915,1908,1908,1915,,,,,
74885867,1914,1907,1908,1915,,,,,
74888366,1914,1907,1907,1914,,,,,
74890865,1913,1906,1907,1913,,,,,
74893364,1913,1905,1906,1913,,,,,
74895863,1912,1905,1906,1913,,,,,
74898362,1912,1905,1905,1912,,,,,
74900861,1912,1904,1905,1912,,,,,
74903360,1912,1904,1905,1912,,,,,
74905859,1911,1904,1905,1912,,,,,
74908358,1911,1904,1905,1911,,,,,
74910857,1911,1904,1905,1911,,,,,
74913356,1911,1904,1905,1911,,,,,
74915855,1910,1904,1905,1911,,,,,
74918354,1910,1904,1904,1910,,,,,
74920853,1909,1904,1904,1910,,,,,
74923352,1909,1903,1904,1909,,,,,
74925851,1908,1903,1903,1908,,,,,
74928350,1907,1902,1902,1907,,,,,
74930849,1906,1901,1902,1906,,,,,
74933348,1905,1900,1901,1905,,,,,
74935847,1904,1899,1899,1904,,,,,
74938346,1902,1898,1898,1903,,,,,
74940845,1901,1896,1897,1901,,,,,
74943344,1899,1895,1895,1899,,,,,
74945843,1897,1893,1893,1898,,,,,
74948342,1896,1891,1892,1896,,,,,
74950841,1893,1889,1890,1894,,,,,
74953340,1891,1887,1888,1892,,,,,
74955839,1889,1885,1886,1889,,,,,
74958338,1887,1883,1883,1887,,,,,
74960837,1884,1881,1881,1885,,,,,
74963336,1882,1878,1879,1882,,,,,
74965835,1879,1876,1876,1880,,,,,
74968334,1877,1873,1873,1877,,,,,
74970833,1874,1871,1871,1874,,,,,
74973332,1871,1868,1868,1872,,,,,
74975831,1868,1865,1865,1869,,,,,
74978330,1865,1862,1862,1866,,,,,
74980829,1862,1859,1860,1863,,,,,
74983328,1859,1856,1857,1860,,,,,
74985827,1856,1853,1854,1857,,,,,
74988326,1853,1850,1851,1854,,,,,
74990825,1850,1847,1847,1850,,,,,
74993324,1847,1844,1844,1847,,,,,
74995823,1843,1841,1841,1844,,,,,
74998322,1840,1838,1838,1841,,,,,
75000821,1837,1835,1835,1837,,,,,
75003320,1834,1831,1831,1834,,,,,
75005819,1830,1828,1828,1831,,,,,
75008318,1827,1825,1825,1827,,,,,
75010817,1824,1822,1822,1824,,,,,
75013316,1820,1818,1818,1821,,,,,
75015815,1817,1815,1815,1817,,,,,
75018314,1813,1812,1812,1814,,,,,
75020813,1810,1808,1809,1811,,,,,
75023312,1807,1805,1805,1807,,,,,
75025811,1803,1802,1802,1804,,,,,
75028310,1800,1799,1799,1800,,,,,
75030809,1797,1795,1795,1797,,,,,
75033308,1793,1792,1792,1794,,,,,
75035807,1790,1789,1789,1790,,,,,
75038306,1786,1785,1785,1787,,,,,
75040805,1783,1782,1782,1783,,,,,
75043304,1779,1779,1779,1780,,,,,
75045803,1776,1775,1775,1777,,,,,
75048302,1773,1772,1772,1773,,,,,
75050801,1769,1769,1769,1770,,,,,
75053300,1766,1766,1766,1767,,,,,
75055799,1763,1762,1763,1763,,,,,
75058298,1760,1759,1759,1760,,,,,
75060797,1756,1756,1756,1757,,,,,
75063296,1753,1753,1753,1754,,,,,
75065795,1750,1750,1750,1751,,,,,
75068294,1747,1747,1747,1748,,,,,
75070793,1744,1744,1744,1745,,,,,
75073292,1741,1741,1741,1742,,,,,
75075791,1738,1739,1739,1739,,,,,
75078290,1735,1736,1736,1736,,,,,
75080789,1732,1733,1733,1733,,,,,
75083288,1729,1730,1730,1730,,,,,
75085787,1727,1727,1727,1727,,,,,
75088286,1724,1725,1725,1724,,,,,
75090785,1721,1722,1722,1722,,,,,
75093284,1718,1719,1719,1719,,,,,
75095783,1716,1717,1717,1716,,,,,
75098282,1713,1714,1714,1714,,,,,
75100781,1711,1712,1712,1711,,,,,
75103280,1708,1709,1709,1709,,,,,
75105779,1706,1707,1707,1706,,,,,
75108278,1703,1705,1705,1704,,,,,
75110777,1701,1702,1702,1701,,,,,
75113276,1699,1700,1700,1699,,,,,
75115775,1696,1698,1698,1697,,,,,
75118274,1694,1696,1696,1695,,,,,
75120773,1692,1694,1694,1693,,,,,
75123272,1690,1692,1692,1690,,,,,
75125771,1688,1690,1690,1688,,,,,
75128270,1686,1688,1688,1686,,,,,
75130769,1684,1686,1686,1684,,,,,
75133268,1682,1684,1684,1682,,,,,
75135767,1680,1682,1682,1681,,,,,
75138266,1678,1680,1680,1679,,,,,
75140765,1676,1678,1678,1677,,,,,
75143264,1675,1676,1677,1675,,,,,
75145763,1673,1675,1675,1673,,,,,
