timestamp,TimeUS,C1,C2,C3,C4,C5,C6,C7,C8,C9,C10,C11,C12,C13,C14
1682927341.70003986,46328961,1000,1000,1000,1000,0,0,0,0,0,0,0,0,0,0
1682927341.79999995,46428921,1000,1000,1000,1000,0,0,0,0,0,0,0,0,0,0
1682927341.89996004,46528881,1000,1000,1000,1000,0,0,0,0,0,0,0,0,0,0
1682927341.99991989,46628841,1000,1000,1000,1000,0,0,0,0,0,0,0,0,0,0
1682927342.09987998,46728801,1000,1000,1000,1000,0,0,0,0,0,0,0,0,0,0
1682927342.19984007,46828761,1000,1000,1000,1000,0,0,0,0,0,0,0,0,0,0
1682927342.29979992,46928721,1000,1000,1000,1000,0,0,0,0,0,0,0,0,0,0
1682927342.39976001,47028681,1000,1000,1000,1000,0,0,0,0,0,0,0,0,0,0
1682927342.49971986,47128641,1000,1000,1000,1000,0,0,0,0,0,0,0,0,0,0
1682927342.59967995,47228601,1000,1000,1000,1000,0,0,0,0,0,0,0,0,0,0
1682927342.69964004,47328561,1000,1000,1000,1000,0,0,0,0,0,0,0,0,0,0
1682927342.79959989,47428521,1000,1000,1000,1000,0,0,0,0,0,0,0,0,0,0
1682927342.89955997,47528481,1000,1000,1000,1000,0,0,0,0,0,0,0,0,0,0
1682927342.99952006,47628441,1000,1000,1000,1000,0,0,0,0,0,0,0,0,0,0
1682927343.09947991,47728401,1000,1000,1000,1000,0,0,0,0,0,0,0,0,0,0
1682927343.19944000,47828361,1000,1000,1000,1000,0,0,0,0,0,0,0,0,0,0
1682927343.29939985,47928321,1000,1000,1000,1000,0,0,0,0,0,0,0,0,0,0
1682927343.39935994,48028281,1000,1000,1000,1000,0,0,0,0,0,0,0,0,0,0
1682927343.49932003,48128241,1000,1000,1000,1000,0,0,0,0,0,0,0,0,0,0
1682927343.59927988,48228201,1000,1000,1000,1000,0,0,0,0,0,0,0,0,0,0
1682927343.69923997,48328161,1023,1023,1023,1023,0,0,0,0,0,0,0,0,0,0
1682927343.80003285,48428954,1053,1053,1053,1053,0,0,0,0,0,0,0,0,0,0
1682927343.89999294,48528914,1083,1083,1083,1083,0,0,0,0,0,0,0,0,0,0
1682927343.99995303,48628874,1113,1113,1113,1113,0,0,0,0,0,0,0,0,0,0
1682927344.09991288,48728834,1143,1143,1143,1143,0,0,0,0,0,0,0,0,0,0
1682927344.19987297,48828794,1351,1346,1347,1351,0,0,0,0,0,0,0,0,0,0
1682927344.29983306,48928754,1542,1538,1538,1542,0,0,0,0,0,0,0,0,0,0
1682927344.39979291,49028714,1695,1691,1691,1695,0,0,0,0,0,0,0,0,0,0
1682927344.49975300,49128674,1826,1823,1823,1826,0,0,0,0,0,0,0,0,0,0
1682927344.59971309,49228634,1835,1831,1831,1835,0,0,0,0,0,0,0,0,0,0
1682927344.69967294,49328594,1829,1827,1827,1829,0,0,0,0,0,0,0,0,0,0
1682927344.79963303,49428554,1699,1698,1699,1699,0,0,0,0,0,0,0,0,0,0
1682927344.89959288,49528514,1618,1619,1619,1618,0,0,0,0,0,0,0,0,0,0
1682927344.99955297,49628474,1607,1609,1609,1607,0,0,0,0,0,0,0,0,0,0
1682927345.09951305,49728434,1626,1627,1627,1626,0,0,0,0,0,0,0,0,0,0
1682927345.19947290,49828394,1638,1639,1639,1637,0,0,0,0,0,0,0,0,0,0
1682927345.29943299,49928354,1639,1639,1639,1638,0,0,0,0,0,0,0,0,0,0
1682927345.39939308,50028314,1632,1632,1632,1632,0,0,0,0,0,0,0,0,0,0
1682927345.49935293,50128274,1626,1625,1625,1626,0,0,0,0,0,0,0,0,0,0
1682927345.59931302,50228234,1623,1622,1622,1623,0,0,0,0,0,0,0,0,0,0
1682927345.69927287,50328194,1617,1621,1620,1617,0,0,0,0,0,0,0,0,0,0
1682927345.79923296,50428154,1589,1589,1588,1589,0,0,0,0,0,0,0,0,0,0
1682927345.90002608,50528947,1584,1583,1576,1591,0,0,0,0,0,0,0,0,0,0
1682927345.99998593,50628907,1580,1579,1572,1586,0,0,0,0,0,0,0,0,0,0
1682927346.09994602,50728867,1577,1577,1574,1580,0,0,0,0,0,0,0,0,0,0
1682927346.19990587,50828827,1577,1577,1578,1576,0,0,0,0,0,0,0,0,0,0
1682927346.29986596,50928787,1579,1579,1582,1576,0,0,0,0,0,0,0,0,0,0
1682927346.39982605,51028747,1582,1582,1586,1578,0,0,0,0,0,0,0,0,0,0
1682927346.49978590,51128707,1565,1565,1578,1551,0,0,0,0,0,0,0,0,0,0
1682927346.59974599,51228667,1556,1556,1567,1545,0,0,0,0,0,0,0,0,0,0
1682927346.69970608,51328627,1547,1547,1548,1546,0,0,0,0,0,0,0,0,0,0
1682927346.79966593,51428587,1538,1538,1532,1544,0,0,0,0,0,0,0,0,0,0
1682927346.89962602,51528547,1534,1534,1525,1543,0,0,0,0,0,0,0,0,0,0
1682927346.99958587,51628507,1532,1533,1525,1540,0,0,0,0,0,0,0,0,0,0
1682927347.09954596,51728467,1532,1532,1528,1536,0,0,0,0,0,0,0,0,0,0
1682927347.19950604,51828427,1534,1534,1534,1535,0,0,0,0,0,0,0,0,0,0
1682927347.29946589,51928387,1539,1538,1541,1536,0,0,0,0,0,0,0,0,0,0
1682927347.39942598,52028347,1541,1541,1545,1537,0,0,0,0,0,0,0,0,0,0
1682927347.49938607,52128307,1544,1544,1548,1541,0,0,0,0,0,0,0,0,0,0
1682927347.59934592,52228267,1548,1548,1550,1546,0,0,0,0,0,0,0,0,0,0
1682927347.69930601,52328227,1551,1548,1551,1553,0,0,0,0,0,0,0,0,0,0
1682927347.79926586,52428187,1546,1545,1559,1562,0,0,0,0,0,0,0,0,0,0
1682927347.90005898,52528980,1548,1549,1560,1563,0,0,0,0,0,0,0,0,0,0
1682927348.00001907,52628940,1554,1555,1561,1563,0,0,0,0,0,0,0,0,0,0
1682927348.09997892,52728900,1559,1559,1561,1562,0,0,0,0,0,0,0,0,0,0
1682927348.19993901,52828860,1563,1564,1561,1561,0,0,0,0,0,0,0,0,0,0
1682927348.29989886,52928820,1566,1566,1560,1560,0,0,0,0,0,0,0,0,0,0
1682927348.39985895,53028780,1569,1569,1562,1561,0,0,0,0,0,0,0,0,0,0
1682927348.49981904,53128740,1572,1572,1564,1563,0,0,0,0,0,0,0,0,0,0
1682927348.59977889,53228700,1573,1572,1564,1564,0,0,0,0,0,0,0,0,0,0
1682927348.69973898,53328660,1573,1573,1565,1566,0,0,0,0,0,0,0,0,0,0
1682927348.79969907,53428620,1573,1572,1567,1567,0,0,0,0,0,0,0,0,0,0
1682927348.89965892,53528580,1572,1572,1568,1569,0,0,0,0,0,0,0,0,0,0
1682927348.99961901,53628540,1572,1572,1571,1571,0,0,0,0,0,0,0,0,0,0
1682927349.09957886,53728500,1572,1572,1573,1573,0,0,0,0,0,0,0,0,0,0
1682927349.19953895,53828460,1574,1573,1575,1574,0,0,0,0,0,0,0,0,0,0
1682927349.29949903,53928420,1573,1573,1577,1575,0,0,0,0,0,0,0,0,0,0
1682927349.39945889,54028380,1573,1574,1578,1576,0,0,0,0,0,0,0,0,0,0
1682927349.49941897,54128340,1573,1574,1577,1576,0,0,0,0,0,0,0,0,0,0
1682927349.59937906,54228300,1574,1575,1577,1577,0,0,0,0,0,0,0,0,0,0
1682927349.69933891,54328260,1574,1574,1576,1577,0,0,0,0,0,0,0,0,0,0
1682927349.79929900,54428220,1575,1575,1577,1577,0,0,0,0,0,0,0,0,0,0
1682927349.89925885,54528180,1576,1576,1576,1576,0,0,0,0,0,0,0,0,0,0
1682927350.00005198,54628973,1576,1576,1576,1576,0,0,0,0,0,0,0,0,0,0
1682927350.10001206,54728933,1577,1577,1576,1576,0,0,0,0,0,0,0,0,0,0
1682927350.19997191,54828893,1578,1578,1577,1577,0,0,0,0,0,0,0,0,0,0
1682927350.29993200,54928853,1578,1578,1577,1577,0,0,0,0,0,0,0,0,0,0
1682927350.39989185,55028813,1579,1578,1577,1577,0,0,0,0,0,0,0,0,0,0
1682927350.49985194,55128773,1578,1578,1577,1577,0,0,0,0,0,0,0,0,0,0
1682927350.59981203,55228733,1578,1578,1577,1577,0,0,0,0,0,0,0,0,0,0
1682927350.69977188,55328693,1578,1579,1578,1578,0,0,0,0,0,0,0,0,0,0
1682927350.79973197,55428653,1579,1579,1579,1579,0,0,0,0,0,0,0,0,0,0
1682927350.89969206,55528613,1579,1579,1579,1579,0,0,0,0,0,0,0,0,0,0
1682927350.99965191,55628573,1579,1580,1580,1580,0,0,0,0,0,0,0,0,0,0
1682927351.09961200,55728533,1579,1579,1579,1579,0,0,0,0,0,0,0,0,0,0
1682927351.19957209,55828493,1578,1578,1579,1579,0,0,0,0,0,0,0,0,0,0
1682927351.29953194,55928453,1579,1579,1580,1580,0,0,0,0,0,0,0,0,0,0
1682927351.39949203,56028413,1580,1580,1581,1581,0,0,0,0,0,0,0,0,0,0
1682927351.49945188,56128373,1580,1579,1580,1580,0,0,0,0,0,0,0,0,0,0
1682927351.59941196,56228333,1579,1579,1579,1579,0,0,0,0,0,0,0,0,0,0
1682927351.69937205,56328293,1579,1579,1579,1580,0,0,0,0,0,0,0,0,0,0
1682927351.79933190,56428253,1579,1579,1580,1579,0,0,0,0,0,0,0,0,0,0
1682927351.89929199,56528213,1580,1580,1580,1580,0,0,0,0,0,0,0,0,0,0
1682927351.99925208,56628173,1579,1579,1579,1579,0,0,0,0,0,0,0,0,0,0
1682927352.10004497,56728966,1579,1579,1579,1579,0,0,0,0,0,0,0,0,0,0
1682927352.20000505,56828926,1579,1579,1579,1579,0,0,0,0,0,0,0,0,0,0
1682927352.29996490,56928886,1580,1580,1580,1580,0,0,0,0,0,0,0,0,0,0
1682927352.39992499,57028846,1580,1580,1580,1580,0,0,0,0,0,0,0,0,0,0
1682927352.49988508,57128806,1580,1580,1580,1580,0,0,0,0,0,0,0,0,0,0
1682927352.59984493,57228766,1580,1581,1580,1580,0,0,0,0,0,0,0,0,0,0
1682927352.69980502,57328726,1579,1580,1579,1579,0,0,0,0,0,0,0,0,0,0
1682927352.79976487,57428686,1581,1580,1580,1580,0,0,0,0,0,0,0,0,0,0
1682927352.89972496,57528646,1581,1580,1581,1580,0,0,0,0,0,0,0,0,0,0
1682927352.99968505,57628606,1580,1580,1580,1580,0,0,0,0,0,0,0,0,0,0
1682927353.09964490,57728566,1580,1580,1580,1581,0,0,0,0,0,0,0,0,0,0
1682927353.19960499,57828526,1580,1580,1580,1580,0,0,0,0,0,0,0,0,0,0
1682927353.29956508,57928486,1581,1580,1581,1581,0,0,0,0,0,0,0,0,0,0
1682927353.39952493,58028446,1580,1580,1580,1580,0,0,0,0,0,0,0,0,0,0
1682927353.49948502,58128406,1580,1580,1580,1581,0,0,0,0,0,0,0,0,0,0
1682927353.59944487,58228366,1580,1581,1581,1580,0,0,0,0,0,0,0,0,0,0
1682927353.69940495,58328326,1582,1582,1583,1582,0,0,0,0,0,0,0,0,0,0
1682927353.79936504,58428286,1581,1582,1582,1581,0,0,0,0,0,0,0,0,0,0
1682927353.89932489,58528246,1582,1582,1582,1582,0,0,0,0,0,0,0,0,0,0
1682927353.99928498,58628206,1582,1582,1582,1582,0,0,0,0,0,0,0,0,0,0
1682927354.09924507,58728166,1580,1582,1587,1574,0,0,0,0,0,0,0,0,0,0
1682927354.20003796,58828959,1579,1582,1584,1572,0,0,0,0,0,0,0,0,0,0
1682927354.29999804,58928919,1577,1581,1575,1573,0,0,0,0,0,0,0,0,0,0
1682927354.39995790,59028879,1577,1579,1567,1571,0,0,0,0,0,0,0,0,0,0
1682927354.49991798,59128839,1576,1578,1560,1567,0,0,0,0,0,0,0,0,0,0
1682927354.59987807,59228799,1577,1578,1557,1562,0,0,0,0,0,0,0,0,0,0
1682927354.69983792,59328759,1579,1577,1555,1558,0,0,0,0,0,0,0,0,0,0
1682927354.79979801,59428719,1580,1578,1556,1556,0,0,0,0,0,0,0,0,0,0
1682927354.89975786,59528679,1579,1577,1556,1554,0,0,0,0,0,0,0,0,0,0
1682927354.99971795,59628639,1578,1577,1556,1554,0,0,0,0,0,0,0,0,0,0
1682927355.09967804,59728599,1576,1577,1555,1554,0,0,0,0,0,0,0,0,0,0
1682927355.19963789,59828559,1575,1576,1555,1554,0,0,0,0,0,0,0,0,0,0
1682927355.29959798,59928519,1575,1576,1554,1554,0,0,0,0,0,0,0,0,0,0
1682927355.39955807,60028479,1575,1577,1554,1554,0,0,0,0,0,0,0,0,0,0
1682927355.49951792,60128439,1575,1576,1552,1552,0,0,0,0,0,0,0,0,0,0
1682927355.59947801,60228399,1575,1577,1550,1550,0,0,0,0,0,0,0,0,0,0
1682927355.69943786,60328359,1578,1579,1548,1548,0,0,0,0,0,0,0,0,0,0
1682927355.79939795,60428319,1580,1582,1546,1545,0,0,0,0,0,0,0,0,0,0
1682927355.89935803,60528279,1584,1585,1544,1544,0,0,0,0,0,0,0,0,0,0
1682927355.99931788,60628239,1586,1587,1540,1540,0,0,0,0,0,0,0,0,0,0
1682927356.09927797,60728199,1589,1589,1537,1537,0,0,0,0,0,0,0,0,0,0
1682927356.19923806,60828159,1592,1592,1535,1535,0,0,0,0,0,0,0,0,0,0
1682927356.30003095,60928952,1593,1593,1533,1534,0,0,0,0,0,0,0,0,0,0
1682927356.39999104,61028912,1594,1594,1534,1535,0,0,0,0,0,0,0,0,0,0
1682927356.49995089,61128872,1595,1594,1536,1538,0,0,0,0,0,0,0,0,0,0
1682927356.59991097,61228832,1592,1592,1538,1541,0,0,0,0,0,0,0,0,0,0
1682927356.69987106,61328792,1589,1588,1544,1547,0,0,0,0,0,0,0,0,0,0
1682927356.79983091,61428752,1584,1581,1552,1555,0,0,0,0,0,0,0,0,0,0
1682927356.89979100,61528712,1575,1572,1561,1564,0,0,0,0,0,0,0,0,0,0
1682927356.99975085,61628672,1565,1561,1572,1574,0,0,0,0,0,0,0,0,0,0
1682927357.09971094,61728632,1554,1551,1585,1586,0,0,0,0,0,0,0,0,0,0
1682927357.19967103,61828592,1544,1541,1596,1596,0,0,0,0,0,0,0,0,0,0
1682927357.29963088,61928552,1535,1534,1606,1605,0,0,0,0,0,0,0,0,0,0
1682927357.39959097,62028512,1531,1531,1613,1611,0,0,0,0,0,0,0,0,0,0
1682927357.49955106,62128472,1528,1531,1615,1614,0,0,0,0,0,0,0,0,0,0
1682927357.59951091,62228432,1531,1533,1614,1613,0,0,0,0,0,0,0,0,0,0
1682927357.69947100,62328392,1536,1538,1610,1610,0,0,0,0,0,0,0,0,0,0
1682927357.79943109,62428352,1544,1545,1604,1604,0,0,0,0,0,0,0,0,0,0
1682927357.89939094,62528312,1551,1552,1596,1596,0,0,0,0,0,0,0,0,0,0
1682927357.99935102,62628272,1560,1561,1589,1588,0,0,0,0,0,0,0,0,0,0
1682927358.09931087,62728232,1569,1569,1582,1581,0,0,0,0,0,0,0,0,0,0
1682927358.19927096,62828192,1577,1576,1576,1575,0,0,0,0,0,0,0,0,0,0
1682927358.30006409,62928985,1583,1582,1572,1571,0,0,0,0,0,0,0,0,0,0
1682927358.40002394,63028945,1586,1585,1568,1568,0,0,0,0,0,0,0,0,0,0
1682927358.49998403,63128905,1589,1587,1567,1567,0,0,0,0,0,0,0,0,0,0
1682927358.59994388,63228865,1588,1586,1567,1567,0,0,0,0,0,0,0,0,0,0
1682927358.69990396,63328825,1587,1586,1569,1569,0,0,0,0,0,0,0,0,0,0
1682927358.79986405,63428785,1584,1583,1570,1570,0,0,0,0,0,0,0,0,0,0
1682927358.89982390,63528745,1580,1580,1572,1573,0,0,0,0,0,0,0,0,0,0
1682927358.99978399,63628705,1578,1578,1576,1576,0,0,0,0,0,0,0,0,0,0
1682927359.09974408,63728665,1575,1575,1578,1578,0,0,0,0,0,0,0,0,0,0
1682927359.19970393,63828625,1668,1585,1674,1593,0,0,0,0,0,0,0,0,0,0
1682927359.29966402,63928585,1604,1579,1616,1588,0,0,0,0,0,0,0,0,0,0
1682927359.39962387,64028545,1577,1583,1589,1593,0,0,0,0,0,0,0,0,0,0
1682927359.49958396,64128505,1561,1582,1572,1593,0,0,0,0,0,0,0,0,0,0
1682927359.59954405,64228465,1556,1578,1565,1588,0,0,0,0,0,0,0,0,0,0
1682927359.69950390,64328425,1558,1573,1563,1579,0,0,0,0,0,0,0,0,0,0
1682927359.79946399,64428385,1565,1569,1565,1571,0,0,0,0,0,0,0,0,0,0
1682927359.89942408,64528345,1573,1569,1569,1566,0,0,0,0,0,0,0,0,0,0
1682927359.99938393,64628305,1578,1571,1573,1565,0,0,0,0,0,0,0,0,0,0
1682927360.09934402,64728265,1581,1573,1575,1567,0,0,0,0,0,0,0,0,0,0
1682927360.19930387,64828225,1582,1576,1576,1570,0,0,0,0,0,0,0,0,0,0
1682927360.29926395,64928185,1581,1578,1577,1573,0,0,0,0,0,0,0,0,0,0
1682927360.40005708,65028978,1580,1580,1577,1577,0,0,0,0,0,0,0,0,0,0
1682927360.50001693,65128938,1579,1580,1578,1579,0,0,0,0,0,0,0,0,0,0
1682927360.59997702,65228898,1578,1579,1578,1580,0,0,0,0,0,0,0,0,0,0
1682927360.69993687,65328858,1579,1580,1581,1582,0,0,0,0,0,0,0,0,0,0
1682927360.79989696,65428818,1579,1580,1582,1582,0,0,0,0,0,0,0,0,0,0
1682927360.89985704,65528778,1580,1580,1584,1584,0,0,0,0,0,0,0,0,0,0
1682927360.99981689,65628738,1580,1580,1584,1584,0,0,0,0,0,0,0,0,0,0
1682927361.09977698,65728698,1581,1580,1585,1584,0,0,0,0,0,0,0,0,0,0
1682927361.19973707,65828658,1583,1582,1586,1585,0,0,0,0,0,0,0,0,0,0
1682927361.29969692,65928618,1582,1582,1585,1584,0,0,0,0,0,0,0,0,0,0
1682927361.39965701,66028578,1581,1582,1584,1584,0,0,0,0,0,0,0,0,0,0
1682927361.49961686,66128538,1582,1582,1583,1583,0,0,0,0,0,0,0,0,0,0
1682927361.59957695,66228498,1583,1583,1584,1584,0,0,0,0,0,0,0,0,0,0
1682927361.69953704,66328458,1583,1583,1583,1583,0,0,0,0,0,0,0,0,0,0
1682927361.79949689,66428418,1584,1583,1583,1583,0,0,0,0,0,0,0,0,0,0
1682927361.89945698,66528378,1584,1584,1583,1583,0,0,0,0,0,0,0,0,0,0
1682927361.99941707,66628338,1584,1583,1583,1582,0,0,0,0,0,0,0,0,0,0
1682927362.09937692,66728298,1582,1585,1587,1576,0,0,0,0,0,0,0,0,0,0
1682927362.19933701,66828258,1581,1586,1586,1572,0,0,0,0,0,0,0,0,0,0
1682927362.29929686,66928218,1582,1586,1578,1573,0,0,0,0,0,0,0,0,0,0
1682927362.39925694,67028178,1582,1584,1568,1570,0,0,0,0,0,0,0,0,0,0
1682927362.50005007,67128971,1583,1584,1562,1567,0,0,0,0,0,0,0,0,0,0
1682927362.60000992,67228931,1583,1582,1555,1562,0,0,0,0,0,0,0,0,0,0
1682927362.69997001,67328891,1583,1582,1553,1558,0,0,0,0,0,0,0,0,0,0
1682927362.79992986,67428851,1583,1582,1553,1553,0,0,0,0,0,0,0,0,0,0
1682927362.89988995,67528811,1583,1582,1554,1553,0,0,0,0,0,0,0,0,0,0
1682927362.99985003,67628771,1582,1581,1555,1553,0,0,0,0,0,0,0,0,0,0
1682927363.09980989,67728731,1580,1580,1555,1553,0,0,0,0,0,0,0,0,0,0
1682927363.19976997,67828691,1578,1580,1555,1554,0,0,0,0,0,0,0,0,0,0
1682927363.29973006,67928651,1577,1579,1555,1554,0,0,0,0,0,0,0,0,0,0
1682927363.39968991,68028611,1577,1579,1554,1555,0,0,0,0,0,0,0,0,0,0
1682927363.49965000,68128571,1577,1578,1553,1553,0,0,0,0,0,0,0,0,0,0
1682927363.59960985,68228531,1579,1580,1552,1552,0,0,0,0,0,0,0,0,0,0
1682927363.69956994,68328491,1580,1581,1549,1549,0,0,0,0,0,0,0,0,0,0
1682927363.79953003,68428451,1582,1582,1546,1547,0,0,0,0,0,0,0,0,0,0
1682927363.89948988,68528411,1584,1586,1544,1545,0,0,0,0,0,0,0,0,0,0
1682927363.99944997,68628371,1588,1590,1542,1542,0,0,0,0,0,0,0,0,0,0
1682927364.09941006,68728331,1591,1593,1539,1539,0,0,0,0,0,0,0,0,0,0
1682927364.19936991,68828291,1594,1595,1536,1537,0,0,0,0,0,0,0,0,0,0
1682927364.29933000,68928251,1597,1596,1537,1539,0,0,0,0,0,0,0,0,0,0
1682927364.39929008,69028211,1596,1595,1540,1542,0,0,0,0,0,0,0,0,0,0
1682927364.49924994,69128171,1593,1590,1544,1547,0,0,0,0,0,0,0,0,0,0
1682927364.60004306,69228964,1588,1584,1553,1555,0,0,0,0,0,0,0,0,0,0
1682927364.70000291,69328924,1579,1575,1563,1565,0,0,0,0,0,0,0,0,0,0
1682927364.79996300,69428884,1569,1565,1575,1577,0,0,0,0,0,0,0,0,0,0
1682927364.89992309,69528844,1558,1555,1586,1588,0,0,0,0,0,0,0,0,0,0
1682927364.99988294,69628804,1548,1546,1597,1598,0,0,0,0,0,0,0,0,0,0
1682927365.09984303,69728764,1541,1540,1606,1605,0,0,0,0,0,0,0,0,0,0
1682927365.19980288,69828724,1536,1536,1611,1610,0,0,0,0,0,0,0,0,0,0
1682927365.29976296,69928684,1536,1537,1613,1612,0,0,0,0,0,0,0,0,0,0
1682927365.39972305,70028644,1538,1540,1612,1612,0,0,0,0,0,0,0,0,0,0
1682927365.49968290,70128604,1543,1545,1609,1608,0,0,0,0,0,0,0,0,0,0
1682927365.59964299,70228564,1549,1551,1602,1602,0,0,0,0,0,0,0,0,0,0
1682927365.69960308,70328524,1558,1558,1596,1596,0,0,0,0,0,0,0,0,0,0
1682927365.79956293,70428484,1566,1566,1589,1589,0,0,0,0,0,0,0,0,0,0
1682927365.89952302,70528444,1573,1573,1582,1582,0,0,0,0,0,0,0,0,0,0
1682927365.99948287,70628404,1579,1579,1577,1577,0,0,0,0,0,0,0,0,0,0
1682927366.09944296,70728364,1584,1583,1573,1572,0,0,0,0,0,0,0,0,0,0
1682927366.19940305,70828324,1587,1585,1570,1570,0,0,0,0,0,0,0,0,0,0
1682927366.29936290,70928284,1587,1586,1569,1569,0,0,0,0,0,0,0,0,0,0
1682927366.39932299,71028244,1587,1586,1570,1570,0,0,0,0,0,0,0,0,0,0
1682927366.49928308,71128204,1585,1585,1571,1572,0,0,0,0,0,0,0,0,0,0
1682927366.59924293,71228164,1582,1582,1573,1573,0,0,0,0,0,0,0,0,0,0
1682927366.70003605,71328957,1580,1580,1576,1576,0,0,0,0,0,0,0,0,0,0
1682927366.79999590,71428917,1577,1577,1578,1578,0,0,0,0,0,0,0,0,0,0
1682927366.89995599,71528877,1575,1575,1580,1580,0,0,0,0,0,0,0,0,0,0
1682927366.99991608,71628837,1574,1575,1583,1583,0,0,0,0,0,0,0,0,0,0
1682927367.09987593,71728797,1573,1573,1583,1583,0,0,0,0,0,0,0,0,0,0
1682927367.19983602,71828757,1572,1572,1583,1583,0,0,0,0,0,0,0,0,0,0
1682927367.29979587,71928717,1573,1573,1583,1583,0,0,0,0,0,0,0,0,0,0
1682927367.39975595,72028677,1575,1575,1583,1583,0,0,0,0,0,0,0,0,0,0
1682927367.49971604,72128637,1576,1576,1582,1582,0,0,0,0,0,0,0,0,0,0
1682927367.59967589,72228597,1577,1577,1581,1581,0,0,0,0,0,0,0,0,0,0
1682927367.69963598,72328557,1579,1579,1580,1581,0,0,0,0,0,0,0,0,0,0
1682927367.79959607,72428517,1579,1579,1579,1579,0,0,0,0,0,0,0,0,0,0
1682927367.89955592,72528477,1581,1581,1579,1579,0,0,0,0,0,0,0,0,0,0
1682927367.99951601,72628437,1582,1581,1579,1578,0,0,0,0,0,0,0,0,0,0
1682927368.09947586,72728397,1583,1582,1579,1579,0,0,0,0,0,0,0,0,0,0
1682927368.19943595,72828357,1582,1582,1579,1579,0,0,0,0,0,0,0,0,0,0
1682927368.29939604,72928317,1582,1582,1579,1579,0,0,0,0,0,0,0,0,0,0
1682927368.39935589,73028277,1581,1581,1579,1579,0,0,0,0,0,0,0,0,0,0
1682927368.49931598,73128237,1581,1580,1579,1579,0,0,0,0,0,0,0,0,0,0
1682927368.59927607,73228197,1581,1581,1580,1580,0,0,0,0,0,0,0,0,0,0
1682927368.69923592,73328157,1581,1580,1580,1581,0,0,0,0,0,0,0,0,0,0
1682927368.80002904,73428950,1579,1580,1580,1580,0,0,0,0,0,0,0,0,0,0
1682927368.89998889,73528910,1579,1580,1581,1581,0,0,0,0,0,0,0,0,0,0
1682927368.99994898,73628870,1579,1579,1581,1581,0,0,0,0,0,0,0,0,0,0
1682927369.09990907,73728830,1579,1580,1581,1581,0,0,0,0,0,0,0,0,0,0
1682927369.19986892,73828790,1579,1579,1580,1580,0,0,0,0,0,0,0,0,0,0
1682927369.29982901,73928750,1581,1580,1581,1582,0,0,0,0,0,0,0,0,0,0
1682927369.39978886,74028710,1581,1581,1582,1582,0,0,0,0,0,0,0,0,0,0
1682927369.49974895,74128670,1580,1581,1581,1581,0,0,0,0,0,0,0,0,0,0
1682927369.59970903,74228630,1581,1581,1581,1581,0,0,0,0,0,0,0,0,0,0
1682927369.69966888,74328590,1581,1580,1581,1580,0,0,0,0,0,0,0,0,0,0
1682927369.79962897,74428550,1582,1582,1581,1581,0,0,0,0,0,0,0,0,0,0
1682927369.89958906,74528510,1580,1581,1580,1580,0,0,0,0,0,0,0,0,0,0
1682927369.99954891,74628470,1581,1582,1581,1580,0,0,0,0,0,0,0,0,0,0
1682927370.09950900,74728430,1581,1583,1587,1573,0,0,0,0,0,0,0,0,0,0
1682927370.19946885,74828390,1581,1583,1584,1573,0,0,0,0,0,0,0,0,0,0
1682927370.29942894,74928350,1579,1582,1574,1572,0,0,0,0,0,0,0,0,0,0
1682927370.39938903,75028310,1579,1580,1566,1570,0,0,0,0,0,0,0,0,0,0
1682927370.49934888,75128270,1578,1580,1559,1566,0,0,0,0,0,0,0,0,0,0
1682927370.59930897,75228230,1579,1579,1556,1562,0,0,0,0,0,0,0,0,0,0
1682927370.69926906,75328190,1581,1580,1555,1558,0,0,0,0,0,0,0,0,0,0
1682927370.80006194,75428983,1580,1579,1556,1555,0,0,0,0,0,0,0,0,0,0
1682927370.90002203,75528943,1580,1579,1557,1554,0,0,0,0,0,0,0,0,0,0
1682927370.99998188,75628903,1579,1578,1556,1554,0,0,0,0,0,0,0,0,0,0
1682927371.09994197,75728863,1577,1578,1556,1554,0,0,0,0,0,0,0,0,0,0
1682927371.19990206,75828823,1575,1577,1555,1554,0,0,0,0,0,0,0,0,0,0
1682927371.29986191,75928783,1574,1576,1553,1554,0,0,0,0,0,0,0,0,0,0
1682927371.39982200,76028743,1574,1576,1552,1553,0,0,0,0,0,0,0,0,0,0
1682927371.49978209,76128703,1574,1576,1551,1551,0,0,0,0,0,0,0,0,0,0
1682927371.59974194,76228663,1576,1578,1550,1550,0,0,0,0,0,0,0,0,0,0
1682927371.69970202,76328623,1579,1579,1548,1548,0,0,0,0,0,0,0,0,0,0
1682927371.79966187,76428583,1581,1582,1546,1546,0,0,0,0,0,0,0,0,0,0
1682927371.89962196,76528543,1583,1584,1543,1543,0,0,0,0,0,0,0,0,0,0
1682927371.99958205,76628503,1586,1586,1541,1540,0,0,0,0,0,0,0,0,0,0
1682927372.09954190,76728463,1589,1589,1539,1539,0,0,0,0,0,0,0,0,0,0
1682927372.19950199,76828423,1590,1591,1537,1538,0,0,0,0,0,0,0,0,0,0
1682927372.29946208,76928383,1592,1593,1537,1538,0,0,0,0,0,0,0,0,0,0
1682927372.39942193,77028343,1592,1593,1537,1538,0,0,0,0,0,0,0,0,0,0
1682927372.49938202,77128303,1592,1592,1538,1540,0,0,0,0,0,0,0,0,0,0
1682927372.59934187,77228263,1590,1589,1542,1544,0,0,0,0,0,0,0,0,0,0
1682927372.69930196,77328223,1587,1584,1549,1551,0,0,0,0,0,0,0,0,0,0
1682927372.79926205,77428183,1580,1576,1556,1560,0,0,0,0,0,0,0,0,0,0
1682927372.90005493,77528976,1573,1568,1569,1571,0,0,0,0,0,0,0,0,0,0
1682927373.00001502,77628936,1561,1557,1580,1581,0,0,0,0,0,0,0,0,0,0
1682927373.09997487,77728896,1551,1548,1592,1592,0,0,0,0,0,0,0,0,0,0
1682927373.19993496,77828856,1541,1540,1601,1601,0,0,0,0,0,0,0,0,0,0
1682927373.29989505,77928816,1535,1534,1608,1608,0,0,0,0,0,0,0,0,0,0
1682927373.39985490,78028776,1532,1533,1612,1611,0,0,0,0,0,0,0,0,0,0
1682927373.49981499,78128736,1533,1534,1612,1612,0,0,0,0,0,0,0,0,0,0
1682927373.59977508,78228696,1538,1539,1610,1610,0,0,0,0,0,0,0,0,0,0
1682927373.69973493,78328656,1543,1544,1604,1604,0,0,0,0,0,0,0,0,0,0
1682927373.79969501,78428616,1551,1552,1598,1598,0,0,0,0,0,0,0,0,0,0
1682927373.89965487,78528576,1560,1561,1592,1591,0,0,0,0,0,0,0,0,0,0
1682927373.99961495,78628536,1569,1569,1586,1585,0,0,0,0,0,0,0,0,0,0
1682927374.09957504,78728496,1575,1575,1579,1578,0,0,0,0,0,0,0,0,0,0
1682927374.19953489,78828456,1581,1580,1574,1573,0,0,0,0,0,0,0,0,0,0
1682927374.29949498,78928416,1585,1584,1570,1571,0,0,0,0,0,0,0,0,0,0
1682927374.39945507,79028376,1587,1585,1568,1568,0,0,0,0,0,0,0,0,0,0
1682927374.49941492,79128336,1587,1586,1568,1568,0,0,0,0,0,0,0,0,0,0
1682927374.59937501,79228296,1586,1585,1569,1569,0,0,0,0,0,0,0,0,0,0
1682927374.69933486,79328256,1583,1583,1571,1571,0,0,0,0,0,0,0,0,0,0
1682927374.79929495,79428216,1581,1580,1573,1573,0,0,0,0,0,0,0,0,0,0
1682927374.89925504,79528176,1578,1579,1576,1576,0,0,0,0,0,0,0,0,0,0
1682927375.00004792,79628969,1576,1576,1578,1578,0,0,0,0,0,0,0,0,0,0
1682927375.10000801,79728929,1573,1573,1580,1580,0,0,0,0,0,0,0,0,0,0
1682927375.19996786,79828889,1572,1573,1581,1582,0,0,0,0,0,0,0,0,0,0
1682927375.29992795,79928849,1572,1572,1583,1582,0,0,0,0,0,0,0,0,0,0
1682927375.39988804,80028809,1571,1572,1582,1582,0,0,0,0,0,0,0,0,0,0
1682927375.49984789,80128769,1573,1574,1583,1583,0,0,0,0,0,0,0,0,0,0
1682927375.59980798,80228729,1574,1575,1582,1582,0,0,0,0,0,0,0,0,0,0
1682927375.69976807,80328689,1577,1576,1582,1581,0,0,0,0,0,0,0,0,0,0
1682927375.79972792,80428649,1577,1577,1580,1580,0,0,0,0,0,0,0,0,0,0
1682927375.89968801,80528609,1578,1578,1579,1579,0,0,0,0,0,0,0,0,0,0
1682927375.99964786,80628569,1580,1580,1579,1579,0,0,0,0,0,0,0,0,0,0
1682927376.09960794,80728529,1581,1581,1578,1578,0,0,0,0,0,0,0,0,0,0
1682927376.19956803,80828489,1581,1581,1577,1578,0,0,0,0,0,0,0,0,0,0
1682927376.29952788,80928449,1581,1581,1577,1577,0,0,0,0,0,0,0,0,0,0
1682927376.39948797,81028409,1582,1582,1578,1578,0,0,0,0,0,0,0,0,0,0
1682927376.49944806,81128369,1581,1581,1579,1579,0,0,0,0,0,0,0,0,0,0
1682927376.59940791,81228329,1579,1580,1578,1577,0,0,0,0,0,0,0,0,0,0
1682927376.69936800,81328289,1580,1580,1579,1579,0,0,0,0,0,0,0,0,0,0
1682927376.79932785,81428249,1579,1579,1579,1580,0,0,0,0,0,0,0,0,0,0
1682927376.89928794,81528209,1579,1579,1580,1580,0,0,0,0,0,0,0,0,0,0
1682927376.99924803,81628169,1579,1580,1581,1581,0,0,0,0,0,0,0,0,0,0
1682927377.10004091,81728962,1580,1580,1581,1581,0,0,0,0,0,0,0,0,0,0
1682927377.20000100,81828922,1580,1580,1581,1581,0,0,0,0,0,0,0,0,0,0
1682927377.29996085,81928882,1580,1580,1581,1581,0,0,0,0,0,0,0,0,0,0
1682927377.39992094,82028842,1580,1580,1581,1581,0,0,0,0,0,0,0,0,0,0
1682927377.49988103,82128802,1581,1581,1582,1582,0,0,0,0,0,0,0,0,0,0
1682927377.59984088,82228762,1580,1580,1580,1580,0,0,0,0,0,0,0,0,0,0
1682927377.69980097,82328722,1580,1579,1579,1580,0,0,0,0,0,0,0,0,0,0
1682927377.79976106,82428682,1581,1580,1580,1580,0,0,0,0,0,0,0,0,0,0
1682927377.89972091,82528642,1581,1581,1581,1581,0,0,0,0,0,0,0,0,0,0
1682927377.99968100,82628602,1581,1582,1586,1575,0,0,0,0,0,0,0,0,0,0
1682927378.09964108,82728562,1581,1581,1587,1572,0,0,0,0,0,0,0,0,0,0
1682927378.19960093,82828522,1580,1580,1581,1575,0,0,0,0,0,0,0,0,0,0
1682927378.29956102,82928482,1576,1576,1573,1575,0,0,0,0,0,0,0,0,0,0
1682927378.39952087,83028442,1573,1573,1568,1575,0,0,0,0,0,0,0,0,0,0
1682927378.49948096,83128402,1570,1570,1565,1573,0,0,0,0,0,0,0,0,0,0
1682927378.59944105,83228362,1569,1569,1566,1570,0,0,0,0,0,0,0,0,0,0
1682927378.69940090,83328322,1568,1568,1567,1568,0,0,0,0,0,0,0,0,0,0
1682927378.79936099,83428282,1566,1566,1567,1566,0,0,0,0,0,0,0,0,0,0
1682927378.89932108,83528242,1566,1565,1567,1565,0,0,0,0,0,0,0,0,0,0
1682927378.99928093,83628202,1564,1564,1566,1564,0,0,0,0,0,0,0,0,0,0
1682927379.09924102,83728162,1563,1564,1565,1563,0,0,0,0,0,0,0,0,0,0
1682927379.20003390,83828955,1563,1563,1564,1563,0,0,0,0,0,0,0,0,0,0
1682927379.29999399,83928915,1563,1562,1563,1563,0,0,0,0,0,0,0,0,0,0
1682927379.39995408,84028875,1562,1562,1563,1563,0,0,0,0,0,0,0,0,0,0
1682927379.49991393,84128835,1563,1563,1562,1563,0,0,0,0,0,0,0,0,0,0
1682927379.59987402,84228795,1562,1562,1562,1563,0,0,0,0,0,0,0,0,0,0
1682927379.69983387,84328755,1562,1561,1562,1562,0,0,0,0,0,0,0,0,0,0
1682927379.79979396,84428715,1560,1561,1561,1560,0,0,0,0,0,0,0,0,0,0
1682927379.89975405,84528675,1561,1561,1561,1560,0,0,0,0,0,0,0,0,0,0
1682927379.99971390,84628635,1559,1559,1559,1558,0,0,0,0,0,0,0,0,0,0
1682927380.09967399,84728595,1558,1558,1558,1557,0,0,0,0,0,0,0,0,0,0
1682927380.19963408,84828555,1558,1558,1558,1557,0,0,0,0,0,0,0,0,0,0
1682927380.29959393,84928515,1558,1558,1558,1557,0,0,0,0,0,0,0,0,0,0
1682927380.39955401,85028475,1558,1558,1559,1557,0,0,0,0,0,0,0,0,0,0
1682927380.49951386,85128435,1558,1558,1559,1557,0,0,0,0,0,0,0,0,0,0
1682927380.59947395,85228395,1558,1558,1558,1557,0,0,0,0,0,0,0,0,0,0
1682927380.69943404,85328355,1559,1559,1560,1558,0,0,0,0,0,0,0,0,0,0
1682927380.79939389,85428315,1559,1559,1559,1559,0,0,0,0,0,0,0,0,0,0
1682927380.89935398,85528275,1560,1559,1558,1561,0,0,0,0,0,0,0,0,0,0
1682927380.99931407,85628235,1560,1560,1557,1563,0,0,0,0,0,0,0,0,0,0
1682927381.09927392,85728195,1560,1561,1558,1564,0,0,0,0,0,0,0,0,0,0
1682927381.19923401,85828155,1561,1562,1560,1563,0,0,0,0,0,0,0,0,0,0
1682927381.30002689,85928948,1562,1562,1561,1563,0,0,0,0,0,0,0,0,0,0
1682927381.39998698,86028908,1562,1562,1563,1561,0,0,0,0,0,0,0,0,0,0
1682927381.49994707,86128868,1562,1561,1563,1560,0,0,0,0,0,0,0,0,0,0
1682927381.59990692,86228828,1560,1560,1562,1558,0,0,0,0,0,0,0,0,0,0
1682927381.69986701,86328788,1560,1560,1558,1562,0,0,0,0,0,0,0,0,0,0
1682927381.79982686,86428748,1557,1557,1554,1560,0,0,0,0,0,0,0,0,0,0
1682927381.89978695,86528708,1553,1553,1551,1555,0,0,0,0,0,0,0,0,0,0
1682927381.99974704,86628668,1548,1548,1548,1548,0,0,0,0,0,0,0,0,0,0
1682927382.09970689,86728628,1541,1541,1542,1540,0,0,0,0,0,0,0,0,0,0
1682927382.19966698,86828588,1533,1533,1535,1532,0,0,0,0,0,0,0,0,0,0
1682927382.29962707,86928548,1525,1525,1526,1524,0,0,0,0,0,0,0,0,0,0
1682927382.39958692,87028508,1520,1520,1520,1519,0,0,0,0,0,0,0,0,0,0
1682927382.49954700,87128468,1518,1519,1519,1518,0,0,0,0,0,0,0,0,0,0
1682927382.59950686,87228428,1519,1519,1519,1519,0,0,0,0,0,0,0,0,0,0
1682927382.69946694,87328388,1521,1520,1520,1521,0,0,0,0,0,0,0,0,0,0
1682927382.79942703,87428348,1524,1523,1523,1524,0,0,0,0,0,0,0,0,0,0
1682927382.89938688,87528308,1529,1528,1528,1529,0,0,0,0,0,0,0,0,0,0
1682927382.99934697,87628268,1534,1534,1534,1534,0,0,0,0,0,0,0,0,0,0
1682927383.09930706,87728228,1538,1538,1538,1538,0,0,0,0,0,0,0,0,0,0
1682927383.19926691,87828188,1540,1541,1541,1541,0,0,0,0,0,0,0,0,0,0
1682927383.30006003,87928981,1543,1543,1543,1543,0,0,0,0,0,0,0,0,0,0
1682927383.40001988,88028941,1544,1544,1544,1544,0,0,0,0,0,0,0,0,0,0
1682927383.49997997,88128901,1545,1546,1546,1545,0,0,0,0,0,0,0,0,0,0
1682927383.59994006,88228861,1545,1546,1546,1546,0,0,0,0,0,0,0,0,0,0
1682927383.69989991,88328821,1547,1546,1547,1546,0,0,0,0,0,0,0,0,0,0
1682927383.79986000,88428781,1546,1545,1546,1546,0,0,0,0,0,0,0,0,0,0
1682927383.89981985,88528741,1546,1546,1546,1546,0,0,0,0,0,0,0,0,0,0
1682927383.99977994,88628701,1546,1546,1546,1546,0,0,0,0,0,0,0,0,0,0
1682927384.09974003,88728661,1545,1545,1545,1545,0,0,0,0,0,0,0,0,0,0
1682927384.19969988,88828621,1545,1545,1545,1545,0,0,0,0,0,0,0,0,0,0
1682927384.29965997,88928581,1546,1546,1546,1545,0,0,0,0,0,0,0,0,0,0
1682927384.39962006,89028541,1545,1545,1545,1545,0,0,0,0,0,0,0,0,0,0
1682927384.49957991,89128501,1545,1545,1544,1545,0,0,0,0,0,0,0,0,0,0
1682927384.59954000,89228461,1544,1545,1545,1545,0,0,0,0,0,0,0,0,0,0
1682927384.69950008,89328421,1545,1544,1545,1544,0,0,0,0,0,0,0,0,0,0
1682927384.79945993,89428381,1544,1544,1544,1544,0,0,0,0,0,0,0,0,0,0
1682927384.89942002,89528341,1544,1543,1544,1544,0,0,0,0,0,0,0,0,0,0
1682927384.99937987,89628301,1544,1544,1543,1544,0,0,0,0,0,0,0,0,0,0
1682927385.09933996,89728261,1544,1543,1543,1543,0,0,0,0,0,0,0,0,0,0
1682927385.19930005,89828221,1544,1544,1544,1544,0,0,0,0,0,0,0,0,0,0
1682927385.29925990,89928181,1544,1544,1544,1544,0,0,0,0,0,0,0,0,0,0
1682927385.40005302,90028974,1543,1544,1543,1543,0,0,0,0,0,0,0,0,0,0
1682927385.50001287,90128934,1542,1543,1543,1543,0,0,0,0,0,0,0,0,0,0
1682927385.59997296,90228894,1543,1543,1543,1543,0,0,0,0,0,0,0,0,0,0
1682927385.69993305,90328854,1544,1544,1544,1544,0,0,0,0,0,0,0,0,0,0
1682927385.79989290,90428814,1544,1544,1544,1544,0,0,0,0,0,0,0,0,0,0
1682927385.89985299,90528774,1544,1544,1544,1544,0,0,0,0,0,0,0,0,0,0
1682927385.99981308,90628734,1544,1544,1544,1544,0,0,0,0,0,0,0,0,0,0
1682927386.09977293,90728694,1545,1545,1545,1545,0,0,0,0,0,0,0,0,0,0
1682927386.19973302,90828654,1544,1544,1544,1544,0,0,0,0,0,0,0,0,0,0
1682927386.29969287,90928614,1544,1545,1545,1544,0,0,0,0,0,0,0,0,0,0
1682927386.39965296,91028574,1544,1545,1545,1544,0,0,0,0,0,0,0,0,0,0
1682927386.49961305,91128534,1544,1544,1544,1544,0,0,0,0,0,0,0,0,0,0
1682927386.59957290,91228494,1544,1544,1544,1544,0,0,0,0,0,0,0,0,0,0
1682927386.69953299,91328454,1544,1544,1544,1544,0,0,0,0,0,0,0,0,0,0
1682927386.79949307,91428414,1543,1543,1543,1543,0,0,0,0,0,0,0,0,0,0
1682927386.89945292,91528374,1543,1543,1543,1543,0,0,0,0,0,0,0,0,0,0
1682927386.99941301,91628334,1544,1544,1544,1543,0,0,0,0,0,0,0,0,0,0
1682927387.09937286,91728294,1544,1543,1544,1544,0,0,0,0,0,0,0,0,0,0
1682927387.19933295,91828254,1544,1543,1544,1543,0,0,0,0,0,0,0,0,0,0
1682927387.29929304,91928214,1545,1545,1545,1544,0,0,0,0,0,0,0,0,0,0
1682927387.39925289,92028174,1544,1545,1545,1545,0,0,0,0,0,0,0,0,0,0
1682927387.50004601,92128967,1544,1544,1543,1544,0,0,0,0,0,0,0,0,0,0
1682927387.60000587,92228927,1544,1544,1544,1544,0,0,0,0,0,0,0,0,0,0
1682927387.69996595,92328887,1543,1543,1543,1544,0,0,0,0,0,0,0,0,0,0
1682927387.79992604,92428847,1544,1544,1544,1544,0,0,0,0,0,0,0,0,0,0
1682927387.89988589,92528807,1543,1544,1544,1543,0,0,0,0,0,0,0,0,0,0
1682927387.99984598,92628767,1545,1545,1545,1545,0,0,0,0,0,0,0,0,0,0
1682927388.09980607,92728727,1544,1544,1544,1544,0,0,0,0,0,0,0,0,0,0
1682927388.19976592,92828687,1544,1544,1544,1544,0,0,0,0,0,0,0,0,0,0
1682927388.29972601,92928647,1545,1544,1544,1544,0,0,0,0,0,0,0,0,0,0
1682927388.39968586,93028607,1545,1545,1545,1545,0,0,0,0,0,0,0,0,0,0
1682927388.49964595,93128567,1545,1545,1545,1545,0,0,0,0,0,0,0,0,0,0
1682927388.59960604,93228527,1544,1545,1544,1545,0,0,0,0,0,0,0,0,0,0
1682927388.69956589,93328487,1544,1545,1544,1545,0,0,0,0,0,0,0,0,0,0
1682927388.79952598,93428447,1545,1545,1545,1544,0,0,0,0,0,0,0,0,0,0
1682927388.89948606,93528407,1544,1544,1544,1544,0,0,0,0,0,0,0,0,0,0
1682927388.99944592,93628367,1545,1545,1545,1545,0,0,0,0,0,0,0,0,0,0
1682927389.09940600,93728327,1544,1544,1544,1544,0,0,0,0,0,0,0,0,0,0
1682927389.19936585,93828287,1544,1544,1544,1544,0,0,0,0,0,0,0,0,0,0
1682927389.29932594,93928247,1544,1544,1544,1544,0,0,0,0,0,0,0,0,0,0
1682927389.39928603,94028207,1544,1544,1544,1544,0,0,0,0,0,0,0,0,0,0
1682927389.49924588,94128167,1544,1544,1544,1544,0,0,0,0,0,0,0,0,0,0
1682927389.60003901,94228960,1544,1544,1544,1543,0,0,0,0,0,0,0,0,0,0
1682927389.69999886,94328920,1544,1544,1544,1544,0,0,0,0,0,0,0,0,0,0
1682927389.79995894,94428880,1544,1545,1544,1545,0,0,0,0,0,0,0,0,0,0
1682927389.89991903,94528840,1545,1545,1545,1545,0,0,0,0,0,0,0,0,0,0
1682927389.99987888,94628800,1545,1545,1545,1545,0,0,0,0,0,0,0,0,0,0
1682927390.09983897,94728760,1546,1545,1546,1545,0,0,0,0,0,0,0,0,0,0
1682927390.19979906,94828720,1544,1544,1544,1544,0,0,0,0,0,0,0,0,0,0
1682927390.29975891,94928680,1544,1543,1544,1544,0,0,0,0,0,0,0,0,0,0
1682927390.39971900,95028640,1543,1544,1544,1543,0,0,0,0,0,0,0,0,0,0
1682927390.49967885,95128600,1544,1544,1544,1544,0,0,0,0,0,0,0,0,0,0
1682927390.59963894,95228560,1544,1544,1544,1544,0,0,0,0,0,0,0,0,0,0
1682927390.69959903,95328520,1544,1543,1543,1544,0,0,0,0,0,0,0,0,0,0
1682927390.79955888,95428480,1543,1543,1543,1543,0,0,0,0,0,0,0,0,0,0
1682927390.89951897,95528440,1544,1544,1544,1544,0,0,0,0,0,0,0,0,0,0
1682927390.99947906,95628400,1543,1544,1543,1544,0,0,0,0,0,0,0,0,0,0
1682927391.09943891,95728360,1544,1544,1544,1544,0,0,0,0,0,0,0,0,0,0
1682927391.19939899,95828320,1544,1544,1544,1544,0,0,0,0,0,0,0,0,0,0
1682927391.29935908,95928280,1544,1544,1544,1544,0,0,0,0,0,0,0,0,0,0
1682927391.39931893,96028240,1545,1545,1545,1545,0,0,0,0,0,0,0,0,0,0
1682927391.49927902,96128200,1545,1545,1544,1545,0,0,0,0,0,0,0,0,0,0
1682927391.59923887,96228160,1546,1546,1546,1546,0,0,0,0,0,0,0,0,0,0
1682927391.70003200,96328953,1544,1544,1544,1545,0,0,0,0,0,0,0,0,0,0
1682927391.79999208,96428913,1544,1544,1544,1544,0,0,0,0,0,0,0,0,0,0
1682927391.89995193,96528873,1544,1544,1544,1544,0,0,0,0,0,0,0,0,0,0
1682927391.99991202,96628833,1545,1545,1545,1545,0,0,0,0,0,0,0,0,0,0
1682927392.09987187,96728793,1532,1532,1533,1530,0,0,0,0,0,0,0,0,0,0
1682927392.19983196,96828753,1321,1344,1322,1344,0,0,0,0,0,0,0,0,0,0
1682927392.29979205,96928713,1210,1250,1210,1251,0,0,0,0,0,0,0,0,0,0
1682927392.39975190,97028673,1210,1251,1210,1250,0,0,0,0,0,0,0,0,0,0
1682927392.49971199,97128633,1210,1250,1210,1250,0,0,0,0,0,0,0,0,0,0
1682927392.59967208,97228593,1210,1251,1211,1250,0,0,0,0,0,0,0,0,0,0
1682927392.69963193,97328553,1210,1250,1210,1250,0,0,0,0,0,0,0,0,0,0
1682927392.79959202,97428513,1237,1249,1210,1272,0,0,0,0,0,0,0,0,0,0
1682927392.89955187,97528473,1234,1249,1210,1269,0,0,0,0,0,0,0,0,0,0
1682927392.99951196,97628433,1228,1249,1210,1264,0,0,0,0,0,0,0,0,0,0
1682927393.09947205,97728393,1227,1249,1210,1264,0,0,0,0,0,0,0,0,0,0
1682927393.19943190,97828353,1228,1249,1210,1265,0,0,0,0,0,0,0,0,0,0
1682927393.29939198,97928313,1230,1249,1210,1266,0,0,0,0,0,0,0,0,0,0
1682927393.39935207,98028273,1232,1248,1210,1267,0,0,0,0,0,0,0,0,0,0
1682927393.49931192,98128233,1234,1248,1210,1269,0,0,0,0,0,0,0,0,0,0
1682927393.59927201,98228193,1220,1250,1210,1258,0,0,0,0,0,0,0,0,0,0
1682927393.70006490,98328986,1223,1249,1210,1261,0,0,0,0,0,0,0,0,0,0
1682927393.80002499,98428946,1224,1249,1210,1261,0,0,0,0,0,0,0,0,0,0
1682927393.89998507,98528906,1224,1249,1210,1262,0,0,0,0,0,0,0,0,0,0
1682927393.99994493,98628866,1225,1249,1210,1262,0,0,0,0,0,0,0,0,0,0
1682927394.09990501,98728826,1000,1000,1000,1000,0,0,0,0,0,0,0,0,0,0
1682927394.19986486,98828786,1000,1000,1000,1000,0,0,0,0,0,0,0,0,0,0
1682927394.29982495,98928746,1000,1000,1000,1000,0,0,0,0,0,0,0,0,0,0
1682927394.39978504,99028706,1000,1000,1000,1000,0,0,0,0,0,0,0,0,0,0
1682927394.49974489,99128666,1000,1000,1000,1000,0,0,0,0,0,0,0,0,0,0
1682927394.59970498,99228626,1000,1000,1000,1000,0,0,0,0,0,0,0,0,0,0
1682927394.69966507,99328586,1000,1000,1000,1000,0,0,0,0,0,0,0,0,0,0
1682927394.79962492,99428546,1000,1000,1000,1000,0,0,0,0,0,0,0,0,0,0
1682927394.89958501,99528506,1000,1000,1000,1000,0,0,0,0,0,0,0,0,0,0
1682927394.99954486,99628466,1000,1000,1000,1000,0,0,0,0,0,0,0,0,0,0
1682927395.09950495,99728426,1000,1000,1000,1000,0,0,0,0,0,0,0,0,0,0
1682927395.19946504,99828386,1000,1000,1000,1000,0,0,0,0,0,0,0,0,0,0
1682927395.29942489,99928346,1000,1000,1000,1000,0,0,0,0,0,0,0,0,0,0
1682927395.39938498,100028306,1000,1000,1000,1000,0,0,0,0,0,0,0,0,0,0
1682927395.49934506,100128266,1000,1000,1000,1000,0,0,0,0,0,0,0,0,0,0
1682927395.59930491,100228226,1000,1000,1000,1000,0,0,0,0,0,0,0,0,0,0
1682927395.69926500,100328186,1000,1000,1000,1000,0,0,0,0,0,0,0,0,0,0
1682927395.80005789,100428979,1000,1000,1000,1000,0,0,0,0,0,0,0,0,0,0
1682927395.90001798,100528939,1000,1000,1000,1000,0,0,0,0,0,0,0,0,0,0
1682927395.99997807,100628899,1000,1000,1000,1000,0,0,0,0,0,0,0,0,0,0
1682927396.09993792,100728859,1000,1000,1000,1000,0,0,0,0,0,0,0,0,0,0
1682927396.19989800,100828819,1000,1000,1000,1000,0,0,0,0,0,0,0,0,0,0
1682927396.29985785,100928779,1000,1000,1000,1000,0,0,0,0,0,0,0,0,0,0
1682927396.39981794,101028739,1000,1000,1000,1000,0,0,0,0,0,0,0,0,0,0
1682927396.49977803,101128699,1000,1000,1000,1000,0,0,0,0,0,0,0,0,0,0
1682927396.59973788,101228659,1000,1000,1000,1000,0,0,0,0,0,0,0,0,0,0
1682927396.69969797,101328619,1000,1000,1000,1000,0,0,0,0,0,0,0,0,0,0
1682927396.79965806,101428579,1000,1000,1000,1000,0,0,0,0,0,0,0,0,0,0
1682927396.89961791,101528539,1000,1000,1000,1000,0,0,0,0,0,0,0,0,0,0
1682927396.99957800,101628499,1000,1000,1000,1000,0,0,0,0,0,0,0,0,0,0
1682927397.09953785,101728459,1000,1000,1000,1000,0,0,0,0,0,0,0,0,0,0
1682927397.19949794,101828419,1000,1000,1000,1000,0,0,0,0,0,0,0,0,0,0
1682927397.29945803,101928379,1000,1000,1000,1000,0,0,0,0,0,0,0,0,0,0
1682927397.39941788,102028339,1000,1000,1000,1000,0,0,0,0,0,0,0,0,0,0
1682927397.49937797,102128299,1000,1000,1000,1000,0,0,0,0,0,0,0,0,0,0
1682927397.59933805,102228259,1000,1000,1000,1000,0,0,0,0,0,0,0,0,0,0
1682927397.69929790,102328219,1000,1000,1000,1000,0,0,0,0,0,0,0,0,0,0
1682927397.79925799,102428179,1000,1000,1000,1000,0,0,0,0,0,0,0,0,0,0
1682927397.90005088,102528972,1000,1000,1000,1000,0,0,0,0,0,0,0,0,0,0
1682927398.00001097,102628932,1000,1000,1000,1000,0,0,0,0,0,0,0,0,0,0
1682927398.09997106,102728892,1000,1000,1000,1000,0,0,0,0,0,0,0,0,0,0
1682927398.19993091,102828852,1000,1000,1000,1000,0,0,0,0,0,0,0,0,0,0
1682927398.29989100,102928812,1000,1000,1000,1000,0,0,0,0,0,0,0,0,0,0
1682927398.39985108,103028772,1000,1000,1000,1000,0,0,0,0,0,0,0,0,0,0
1682927398.49981093,103128732,1000,1000,1000,1000,0,0,0,0,0,0,0,0,0,0
1682927398.59977102,103228692,1000,1000,1000,1000,0,0,0,0,0,0,0,0,0,0
1682927398.69973087,103328652,1000,1000,1000,1000,0,0,0,0,0,0,0,0,0,0
1682927398.79969096,103428612,1000,1000,1000,1000,0,0,0,0,0,0,0,0,0,0
1682927398.89965105,103528572,1000,1000,1000,1000,0,0,0,0,0,0,0,0,0,0
1682927398.99961090,103628532,1000,1000,1000,1000,0,0,0,0,0,0,0,0,0,0
1682927399.09957099,103728492,1000,1000,1000,1000,0,0,0,0,0,0,0,0,0,0
1682927399.19953108,103828452,1000,1000,1000,1000,0,0,0,0,0,0,0,0,0,0
1682927399.29949093,103928412,1000,1000,1000,1000,0,0,0,0,0,0,0,0,0,0
1682927399.39945102,104028372,1000,1000,1000,1000,0,0,0,0,0,0,0,0,0,0
1682927399.49941087,104128332,1000,1000,1000,1000,0,0,0,0,0,0,0,0,0,0
1682927399.59937096,104228292,1000,1000,1000,1000,0,0,0,0,0,0,0,0,0,0
1682927399.69933105,104328252,1000,1000,1000,1000,0,0,0,0,0,0,0,0,0,0
1682927399.79929090,104428212,1000,1000,1000,1000,0,0,0,0,0,0,0,0,0,0
1682927399.89925098,104528172,1000,1000,1000,1000,0,0,0,0,0,0,0,0,0,0
1682927400.00004387,104628965,1000,1000,1000,1000,0,0,0,0,0,0,0,0,0,0
1682927400.10000396,104728925,1000,1000,1000,1000,0,0,0,0,0,0,0,0,0,0
1682927400.19996405,104828885,1000,1000,1000,1000,0,0,0,0,0,0,0,0,0,0
1682927400.29992390,104928845,1000,1000,1000,1000,0,0,0,0,0,0,0,0,0,0
1682927400.39988399,105028805,1000,1000,1000,1000,0,0,0,0,0,0,0,0,0,0
1682927400.49984407,105128765,1000,1000,1000,1000,0,0,0,0,0,0,0,0,0,0
1682927400.59980392,105228725,1000,1000,1000,1000,0,0,0,0,0,0,0,0,0,0
1682927400.69976401,105328685,1000,1000,1000,1000,0,0,0,0,0,0,0,0,0,0
1682927400.79972386,105428645,1000,1000,1000,1000,0,0,0,0,0,0,0,0,0,0
1682927400.89968395,105528605,1000,1000,1000,1000,0,0,0,0,0,0,0,0,0,0
1682927400.99964404,105628565,1000,1000,1000,1000,0,0,0,0,0,0,0,0,0,0
1682927401.09960389,105728525,1000,1000,1000,1000,0,0,0,0,0,0,0,0,0,0
1682927401.19956398,105828485,1000,1000,1000,1000,0,0,0,0,0,0,0,0,0,0
1682927401.29952407,105928445,1000,1000,1000,1000,0,0,0,0,0,0,0,0,0,0
1682927401.39948392,106028405,1000,1000,1000,1000,0,0,0,0,0,0,0,0,0,0
1682927401.49944401,106128365,1000,1000,1000,1000,0,0,0,0,0,0,0,0,0,0
1682927401.59940386,106228325,1000,1000,1000,1000,0,0,0,0,0,0,0,0,0,0
1682927401.69936395,106328285,1000,1000,1000,1000,0,0,0,0,0,0,0,0,0,0
1682927401.79932404,106428245,1000,1000,1000,1000,0,0,0,0,0,0,0,0,0,0
1682927401.89928389,106528205,1000,1000,1000,1000,0,0,0,0,0,0,0,0,0,0
1682927401.99924397,106628165,1000,1000,1000,1000,0,0,0,0,0,0,0,0,0,0
1682927402.10003686,106728958,1000,1000,1000,1000,0,0,0,0,0,0,0,0,0,0
1682927402.19999695,106828918,1000,1000,1000,1000,0,0,0,0,0,0,0,0,0,0
1682927402.29995704,106928878,1000,1000,1000,1000,0,0,0,0,0,0,0,0,0,0
1682927402.39991689,107028838,1000,1000,1000,1000,0,0,0,0,0,0,0,0,0,0
1682927402.49987698,107128798,1000,1000,1000,1000,0,0,0,0,0,0,0,0,0,0
1682927402.59983706,107228758,1000,1000,1000,1000,0,0,0,0,0,0,0,0,0,0
1682927402.69979692,107328718,1000,1000,1000,1000,0,0,0,0,0,0,0,0,0,0
1682927402.79975700,107428678,1000,1000,1000,1000,0,0,0,0,0,0,0,0,0,0
1682927402.89971685,107528638,1000,1000,1000,1000,0,0,0,0,0,0,0,0,0,0
1682927402.99967694,107628598,1000,1000,1000,1000,0,0,0,0,0,0,0,0,0,0
1682927403.09963703,107728558,1000,1000,1000,1000,0,0,0,0,0,0,0,0,0,0
1682927403.19959688,107828518,1000,1000,1000,1000,0,0,0,0,0,0,0,0,0,0
1682927403.29955697,107928478,1000,1000,1000,1000,0,0,0,0,0,0,0,0,0,0
1682927403.39951706,108028438,1000,1000,1000,1000,0,0,0,0,0,0,0,0,0,0
1682927403.49947691,108128398,1000,1000,1000,1000,0,0,0,0,0,0,0,0,0,0
1682927403.59943700,108228358,1000,1000,1000,1000,0,0,0,0,0,0,0,0,0,0
1682927403.69939709,108328318,1000,1000,1000,1000,0,0,0,0,0,0,0,0,0,0
1682927403.79935694,108428278,1000,1000,1000,1000,0,0,0,0,0,0,0,0,0,0
1682927403.89931703,108528238,1000,1000,1000,1000,0,0,0,0,0,0,0,0,0,0
1682927403.99927688,108628198,1000,1000,1000,1000,0,0,0,0,0,0,0,0,0,0
1682927404.09923697,108728158,1000,1000,1000,1000,0,0,0,0,0,0,0,0,0,0
1682927404.20002985,108828951,1000,1000,1000,1000,0,0,0,0,0,0,0,0,0,0
1682927404.29998994,108928911,1000,1000,1000,1000,0,0,0,0,0,0,0,0,0,0
1682927404.39995003,109028871,1000,1000,1000,1000,0,0,0,0,0,0,0,0,0,0
1682927404.49990988,109128831,1000,1000,1000,1000,0,0,0,0,0,0,0,0,0,0
1682927404.59986997,109228791,1000,1000,1000,1000,0,0,0,0,0,0,0,0,0,0
1682927404.69983006,109328751,1000,1000,1000,1000,0,0,0,0,0,0,0,0,0,0
1682927404.79978991,109428711,1000,1000,1000,1000,0,0,0,0,0,0,0,0,0,0
1682927404.89974999,109528671,1000,1000,1000,1000,0,0,0,0,0,0,0,0,0,0
1682927404.99971008,109628631,1000,1000,1000,1000,0,0,0,0,0,0,0,0,0,0
1682927405.09966993,109728591,1000,1000,1000,1000,0,0,0,0,0,0,0,0,0,0
1682927405.19963002,109828551,1000,1000,1000,1000,0,0,0,0,0,0,0,0,0,0
1682927405.29958987,109928511,1000,1000,1000,1000,0,0,0,0,0,0,0,0,0,0
1682927405.39954996,110028471,1000,1000,1000,1000,0,0,0,0,0,0,0,0,0,0
1682927405.49951005,110128431,1000,1000,1000,1000,0,0,0,0,0,0,0,0,0,0
1682927405.59946990,110228391,1000,1000,1000,1000,0,0,0,0,0,0,0,0,0,0
1682927405.69942999,110328351,1000,1000,1000,1000,0,0,0,0,0,0,0,0,0,0
1682927405.79939008,110428311,1000,1000,1000,1000,0,0,0,0,0,0,0,0,0,0
1682927405.89934993,110528271,1000,1000,1000,1000,0,0,0,0,0,0,0,0,0,0
1682927405.99931002,110628231,1000,1000,1000,1000,0,0,0,0,0,0,0,0,0,0
1682927406.09926987,110728191,1000,1000,1000,1000,0,0,0,0,0,0,0,0,0,0
1682927406.20006299,110828984,1000,1000,1000,1000,0,0,0,0,0,0,0,0,0,0
1682927406.30002308,110928944,1000,1000,1000,1000,0,0,0,0,0,0,0,0,0,0
1682927406.39998293,111028904,1000,1000,1000,1000,0,0,0,0,0,0,0,0,0,0
1682927406.49994302,111128864,1000,1000,1000,1000,0,0,0,0,0,0,0,0,0,0
1682927406.59990287,111228824,1000,1000,1000,1000,0,0,0,0,0,0,0,0,0,0
1682927406.69986296,111328784,1000,1000,1000,1000,0,0,0,0,0,0,0,0,0,0
1682927406.79982305,111428744,1000,1000,1000,1000,0,0,0,0,0,0,0,0,0,0
1682927406.89978290,111528704,1000,1000,1000,1000,0,0,0,0,0,0,0,0,0,0
1682927406.99974298,111628664,1000,1000,1000,1000,0,0,0,0,0,0,0,0,0,0
1682927407.09970307,111728624,1000,1000,1000,1000,0,0,0,0,0,0,0,0,0,0
1682927407.19966292,111828584,1000,1000,1000,1000,0,0,0,0,0,0,0,0,0,0
1682927407.29962301,111928544,1000,1000,1000,1000,0,0,0,0,0,0,0,0,0,0
1682927407.39958286,112028504,1000,1000,1000,1000,0,0,0,0,0,0,0,0,0,0
1682927407.49954295,112128464,1000,1000,1000,1000,0,0,0,0,0,0,0,0,0,0
1682927407.59950304,112228424,1000,1000,1000,1000,0,0,0,0,0,0,0,0,0,0
1682927407.69946289,112328384,1000,1000,1000,1000,0,0,0,0,0,0,0,0,0,0
