TimeUS,M1,M2,M3,M4,TimeUS,C1,C2,C3,C4
50616412,1000,1000,1000,1000,50628907,1000,1000,1000,1000
50618911,1000,1000,1000,1000,50728867,1000,1000,1000,1000
50621410,1000,1000,1000,1000,50828827,1000,1000,1000,1000
50623909,1000,1000,1000,1000,50928787,1000,1000,1000,1000
50626408,1000,1000,1000,1000,51028747,1000,1000,1000,1000
50628907,1000,1000,1000,1000,51128707,1000,1000,1000,1000
50631406,1000,1000,1000,1000,51228667,1000,1000,1000,1000
50633905,1000,1000,1000,1000,51328627,1000,1000,1000,1000
50636404,1000,1000,1000,1000,51428587,1000,1000,1000,1000
50638903,1000,1000,1000,1000,51528547,1000,1000,1000,1000
50641402,1000,1000,1000,1000,51628507,1000,1000,1000,1000
50643901,1000,1000,1000,1000,51728467,1000,1000,1000,1000
50646400,1000,1000,1000,1000,51828427,1000,1000,1000,1000
50648899,1000,1000,1000,1000,51928387,1000,1000,1000,1000
50651398,1000,1000,1000,1000,52028347,1000,1000,1000,1000
50653897,1000,1000,1000,1000,52128307,1000,1000,1000,1000
50656396,1000,1000,1000,1000,52228267,1000,1000,1000,1000
50658895,1000,1000,1000,1000,52328227,1000,1000,1000,1000
50661394,1000,1000,1000,1000,52428187,1000,1000,1000,1000
50663893,1000,1000,1000,1000,52528980,1000,1000,1000,1000
50666392,1000,1000,1000,1000,52628940,1003,1003,1003,1003
50668891,1000,1000,1000,1000,52728900,1033,1033,1033,1033
50671390,1000,1000,1000,1000,52828860,1063,1063,1063,1063
50673889,1000,1000,1000,1000,52928820,1093,1093,1093,1093
50676388,1000,1000,1000,1000,53028780,1123,1123,1123,1123
50678887,1000,1000,1000,1000,53128740,1185,1177,1178,1186
50681386,1000,1000,1000,1000,53228700,1424,1419,1419,1425
50683885,1000,1000,1000,1000,53328660,1599,1594,1594,1599
50686384,1000,1000,1000,1000,53428620,1743,1739,1739,1743
50688883,1000,1000,1000,1000,53528580,1869,1865,1865,1869
50691382,1000,1000,1000,1000,53628540,1893,1890,1890,1893
50693881,1000,1000,1000,1000,53728500,1795,1794,1794,1795
50696380,1000,1000,1000,1000,53828460,1679,1680,1680,1679
50698879,1000,1000,1000,1000,53928420,1631,1626,1626,1632
50701378,1000,1000,1000,1000,54028380,1622,1624,1619,1628
50703877,1000,1000,1000,1000,54128340,1632,1633,1629,1637
50706376,1000,1000,1000,1000,54228300,1635,1637,1635,1637
50708875,1000,1000,1000,1000,54328260,1632,1633,1634,1631
50711374,1000,1000,1000,1000,54428220,1625,1625,1629,1621
50713873,1000,1000,1000,1000,54528180,1621,1620,1624,1617
50716372,1000,1000,1000,1000,54628973,1618,1617,1620,1614
50718871,1000,1000,1000,1000,54728933,1618,1617,1619,1616
50721370,1000,1000,1000,1000,54828893,1618,1618,1618,1618
50723869,1000,1000,1000,1000,54928853,1587,1588,1593,1582
50726368,1000,1000,1000,1000,55028813,1573,1573,1578,1569
50728867,1000,1000,1000,1000,55128773,1563,1563,1564,1563
50731366,1000,1000,1000,1000,55228733,1552,1553,1550,1555
50733865,1000,1000,1000,1000,55328693,1547,1546,1540,1553
50736364,1000,1000,1000,1000,55428653,1540,1539,1531,1547
50738863,1000,1000,1000,1000,55528613,1534,1533,1527,1539
50741362,1000,1000,1000,1000,55628573,1528,1528,1526,1530
50743861,1000,1000,1000,1000,55728533,1527,1526,1526,1526
50746360,1000,1000,1000,1000,55828493,1527,1527,1529,1525
50748859,1000,1000,1000,1000,55928453,1529,1529,1532,1527
50751358,1000,1000,1000,1000,56028413,1533,1533,1536,1531
50753857,1000,1000,1000,1000,56128373,1537,1537,1539,1535
50756356,1000,1000,1000,1000,56228333,1540,1540,1542,1539
50758855,1000,1000,1000,1000,56328293,1544,1544,1545,1544
50761354,1000,1000,1000,1000,56428253,1546,1547,1546,1547
50763853,1000,1000,1000,1000,56528213,1549,1549,1549,1550
50766352,1000,1000,1000,1000,56628173,1552,1552,1551,1553
50768851,1000,1000,1000,1000,56728966,1555,1553,1554,1557
50771350,1000,1000,1000,1000,56828926,1553,1552,1559,1562
50773849,1000,1000,1000,1000,56928886,1555,1555,1562,1563
50776348,1000,1000,1000,1000,57028846,1558,1558,1564,1564
50778847,1000,1000,1000,1000,57128806,1560,1561,1565,1564
50781346,1000,1000,1000,1000,57228766,1563,1563,1566,1564
50783845,1000,1000,1000,1000,57328726,1566,1566,1566,1565
50786344,1000,1000,1000,1000,57428686,1568,1568,1565,1565
50788843,1000,1000,1000,1000,57528646,1569,1569,1565,1566
50791342,1000,1000,1000,1000,57628606,1571,1571,1566,1566
50793841,1000,1000,1000,1000,57728566,1572,1572,1567,1568
50796340,1000,1000,1000,1000,57828526,1572,1572,1568,1568
50798839,1000,1000,1000,1000,57928486,1572,1572,1568,1569
50801338,1000,1000,1000,1000,58028446,1573,1574,1571,1571
50803837,1000,1000,1000,1000,58128406,1574,1574,1573,1572
50806336,1000,1000,1000,1000,58228366,1574,1574,1574,1572
50808835,1000,1000,1000,1000,58328326,1575,1575,1576,1575
50811334,1000,1000,1000,1000,58428286,1575,1575,1577,1575
50813833,1000,1000,1000,1000,58528246,1575,1575,1577,1576
50816332,1000,1000,1000,1000,58628206,1575,1575,1576,1576
50818831,1000,1000,1000,1000,58728166,1576,1575,1576,1577
50821330,1000,1000,1000,1000,58828959,1576,1576,1577,1577
50823829,1000,1000,1000,1000,58928919,1576,1576,1577,1577
50826328,1000,1000,1000,1000,59028879,1577,1577,1578,1578
50828827,1000,1000,1000,1000,59128839,1577,1577,1578,1577
50831326,1000,1000,1000,1000,59228799,1578,1578,1578,1578
50833825,1000,1000,1000,1000,59328759,1577,1577,1577,1577
50836324,1000,1000,1000,1000,59428719,1578,1578,1578,1577
50838823,1000,1000,1000,1000,59528679,1578,1578,1578,1578
50841322,1000,1000,1000,1000,59628639,1577,1577,1576,1576
50843821,1000,1000,1000,1000,59728599,1579,1578,1577,1578
50846320,1000,1000,1000,1000,59828559,1579,1579,1578,1578
50848819,1000,1000,1000,1000,59928519,1579,1579,1579,1578
50851318,1000,1000,1000,1000,60028479,1578,1578,1578,1578
50853817,1000,1000,1000,1000,60128439,1578,1578,1578,1578
50856316,1000,1000,1000,1000,60228399,1579,1579,1579,1579
50858815,1000,1000,1000,1000,60328359,1578,1577,1578,1578
50861314,1000,1000,1000,1000,60428319,1578,1578,1578,1578
50863813,1000,1000,1000,1000,60528279,1577,1578,1578,1578
50866312,1000,1000,1000,1000,60628239,1577,1578,1578,1578
50868811,1000,1000,1000,1000,60728199,1578,1578,1579,1578
50871310,1000,1000,1000,1000,60828159,1578,1578,1579,1578
50873809,1000,1000,1000,1000,60928952,1579,1579,1580,1580
50876308,1000,1000,1000,1000,61028912,1580,1580,1580,1580
50878807,1000,1000,1000,1000,61128872,1580,1579,1580,1580
50881306,1000,1000,1000,1000,61228832,1580,1580,1580,1580
50883805,1000,1000,1000,1000,61328792,1580,1580,1580,1580
50886304,1000,1000,1000,1000,61428752,1580,1580,1580,1580
50888803,1000,1000,1000,1000,61528712,1581,1581,1581,1581
50891302,1000,1000,1000,1000,61628672,1580,1579,1579,1579
50893801,1000,1000,1000,1000,61728632,1581,1581,1581,1581
50896300,1000,1000,1000,1000,61828592,1580,1580,1580,1580
50898799,1000,1000,1000,1000,61928552,1580,1580,1580,1580
50901298,1000,1000,1000,1000,62028512,1579,1579,1579,1579
50903797,1000,1000,1000,1000,62128472,1580,1579,1579,1580
50906296,1000,1000,1000,1000,62228432,1580,1580,1580,1580
50908795,1000,1000,1000,1000,62328392,1580,1579,1580,1580
50911294,1000,1000,1000,1000,62428352,1580,1580,1580,1580
50913793,1000,1000,1000,1000,62528312,1580,1580,1580,1580
50916292,1000,1000,1000,1000,62628272,1581,1581,1581,1581
50918791,1000,1000,1000,1000,62728232,1582,1581,1582,1581
50921290,1000,1000,1000,1000,62828192,1581,1581,1581,1581
50923789,1000,1000,1000,1000,62928985,1581,1581,1583,1580
50926288,1000,1000,1000,1000,63028945,1581,1582,1588,1573
50928787,1000,1000,1000,1000,63128905,1581,1583,1584,1575
50931286,1000,1000,1000,1000,63228865,1579,1582,1575,1574
50933785,1000,1000,1000,1000,63328825,1577,1579,1565,1571
50936284,1000,1000,1000,1000,63428785,1577,1580,1560,1567
50938783,1000,1000,1000,1000,63528745,1578,1579,1556,1563
50941282,1000,1000,1000,1000,63628705,1580,1579,1556,1559
50943781,1000,1000,1000,1000,63728665,1580,1578,1555,1556
50946280,1000,1000,1000,1000,63828625,1579,1578,1556,1554
50948779,1000,1000,1000,1000,63928585,1578,1578,1556,1553
50951278,1000,1000,1000,1000,64028545,1577,1578,1557,1554
50953777,1000,1000,1000,1000,64128505,1576,1578,1556,1555
50956276,1000,1000,1000,1000,64228465,1575,1576,1554,1554
50958775,1000,1000,1000,1000,64328425,1575,1576,1552,1553
50961274,1000,1000,1000,1000,64428385,1575,1577,1551,1552
50963773,1000,1000,1000,1000,64528345,1577,1578,1549,1550
50966272,1000,1000,1000,1000,64628305,1579,1581,1548,1548
50968771,1000,1000,1000,1000,64728265,1581,1582,1545,1544
50971270,1000,1000,1000,1000,64828225,1584,1585,1542,1542
50973769,1000,1000,1000,1000,64928185,1588,1588,1540,1539
50976268,1000,1000,1000,1000,65028978,1590,1591,1537,1536
50978767,1000,1000,1000,1000,65128938,1594,1593,1535,1536
50981266,1000,1000,1000,1000,65228898,1595,1595,1535,1535
50983765,1000,1000,1000,1000,65328858,1595,1594,1534,1537
50986264,1000,1000,1000,1000,65428818,1593,1593,1536,1538
50988763,1000,1000,1000,1000,65528778,1591,1590,1539,1543
50991262,1000,1000,1000,1000,65628738,1588,1586,1546,1549
50993761,1000,1000,1000,1000,65728698,1580,1578,1554,1557
50996260,1000,1000,1000,1000,65828658,1571,1568,1564,1566
50998759,1000,1000,1000,1000,65928618,1561,1557,1577,1578
51001258,1000,1000,1000,1000,66028578,1551,1547,1589,1590
51003757,1000,1000,1000,1000,66128538,1541,1538,1600,1600
51006256,1000,1000,1000,1000,66228498,1533,1533,1609,1608
51008755,1000,1000,1000,1000,66328458,1529,1530,1614,1613
51011254,1000,1000,1000,1000,66428418,1529,1531,1616,1614
51013753,1000,1000,1000,1000,66528378,1531,1534,1612,1611
51016252,1000,1000,1000,1000,66628338,1539,1541,1608,1608
51018751,1000,1000,1000,1000,66728298,1546,1548,1601,1602
51021250,1000,1000,1000,1000,66828258,1556,1557,1595,1595
51023749,1000,1000,1000,1000,66928218,1564,1564,1587,1586
51026248,1000,1000,1000,1000,67028178,1573,1572,1581,1580
51028747,1000,1000,1000,1000,67128971,1579,1578,1574,1573
51031246,1000,1000,1000,1000,67228931,1584,1583,1570,1569
51033745,1000,1000,1000,1000,67328891,1587,1586,1567,1567
51036244,1000,1000,1000,1000,67428851,1588,1587,1566,1566
51038743,1000,1000,1000,1000,67528811,1587,1586,1566,1567
51041242,1000,1000,1000,1000,67628771,1585,1584,1568,1568
51043741,1000,1000,1000,1000,67728731,1410,1562,1398,1551
51046240,1000,1000,1000,1000,67828691,1548,1562,1541,1558
51048739,1000,1000,1000,1000,67928651,1599,1570,1601,1570
51051238,1000,1000,1000,1000,68028611,1640,1592,1647,1596
51053737,1000,1000,1000,1000,68128571,1662,1612,1670,1619
51056236,1000,1000,1000,1000,68228531,1656,1623,1664,1628
51058735,1000,1000,1000,1000,68328491,1629,1621,1635,1622
51061234,1000,1000,1000,1000,68428451,1599,1614,1607,1618
51063733,1000,1000,1000,1000,68528411,1574,1600,1588,1615
51066232,1000,1000,1000,1000,68628371,1561,1586,1582,1613
51068731,1000,1000,1000,1000,68728331,1557,1573,1583,1607
51071230,1000,1000,1000,1000,68828291,1559,1566,1586,1598
51073729,1000,1000,1000,1000,68928251,1566,1566,1588,1588
51076228,1000,1000,1000,1000,69028211,1574,1570,1587,1580
51078727,1000,1000,1000,1000,69128171,1581,1576,1583,1573
51081226,1000,1000,1000,1000,69228964,1585,1581,1576,1568
51083725,1000,1000,1000,1000,69328924,1586,1586,1570,1566
51086224,1000,1000,1000,1000,69428884,1586,1587,1565,1565
51088723,1000,1000,1000,1000,69528844,1586,1587,1562,1564
51091222,1000,1000,1000,1000,69628804,1584,1586,1561,1564
51093721,1000,1000,1000,1000,69728764,1583,1584,1562,1565
51096220,1000,1000,1000,1000,69828724,1580,1580,1563,1565
51098719,1000,1000,1000,1000,69928684,1579,1579,1566,1567
51101218,1000,1000,1000,1000,70028644,1578,1577,1569,1569
51103717,1000,1000,1000,1000,70128604,1577,1577,1573,1571
51106216,1000,1000,1000,1000,70228564,1575,1574,1574,1574
51108715,1000,1000,1000,1000,70328524,1574,1574,1576,1576
51111214,1000,1000,1000,1000,70428484,1572,1573,1577,1577
51113713,1000,1000,1000,1000,70528444,1572,1573,1579,1579
51116212,1000,1000,1000,1000,70628404,1572,1573,1579,1578
51118711,1000,1000,1000,1000,70728364,1573,1574,1579,1579
51121210,1000,1000,1000,1000,70828324,1574,1574,1579,1579
51123709,1000,1000,1000,1000,70928284,1575,1576,1579,1579
51126208,1000,1000,1000,1000,71028244,1576,1577,1585,1570
51128707,1000,1000,1000,1000,71128204,1576,1578,1581,1569
51131206,1000,1000,1000,1000,71228164,1576,1578,1573,1569
51133705,1000,1000,1000,1000,71328957,1575,1577,1564,1568
51136204,1000,1000,1000,1000,71428917,1575,1577,1557,1564
51138703,1000,1000,1000,1000,71528877,1576,1576,1553,1560
51141202,1000,1000,1000,1000,71628837,1578,1576,1552,1557
51143701,1000,1000,1000,1000,71728797,1578,1577,1552,1554
51146200,1000,1000,1000,1000,71828757,1578,1578,1553,1552
51148699,1000,1000,1000,1000,71928717,1578,1578,1554,1551
51151198,1000,1000,1000,1000,72028677,1577,1578,1554,1551
51153697,1000,1000,1000,1000,72128637,1576,1577,1554,1552
51156196,1000,1000,1000,1000,72228597,1576,1577,1553,1552
51158695,1000,1000,1000,1000,72328557,1575,1577,1552,1552
51161194,1000,1000,1000,1000,72428517,1575,1577,1550,1551
51163693,1000,1000,1000,1000,72528477,1576,1577,1549,1549
51166192,1000,1000,1000,1000,72628437,1578,1579,1548,1549
51168691,1000,1000,1000,1000,72728397,1578,1580,1546,1546
51171190,1000,1000,1000,1000,72828357,1581,1582,1546,1545
51173689,1000,1000,1000,1000,72928317,1583,1584,1544,1544
51176188,1000,1000,1000,1000,73028277,1585,1585,1544,1544
51178687,1000,1000,1000,1000,73128237,1586,1586,1543,1543
51181186,1000,1000,1000,1000,73228197,1587,1587,1543,1544
51183685,1000,1000,1000,1000,73328157,1588,1587,1545,1546
51186184,1000,1000,1000,1000,73428950,1586,1586,1546,1549
51188683,1000,1000,1000,1000,73528910,1584,1583,1549,1552
51191182,1000,1000,1000,1000,73628870,1580,1580,1554,1557
51193681,1000,1000,1000,1000,73728830,1575,1574,1559,1562
51196180,1000,1000,1000,1000,73828790,1571,1568,1568,1570
51198679,1000,1000,1000,1000,73928750,1564,1561,1576,1577
51201178,1000,1000,1000,1000,74028710,1557,1555,1584,1584
51203677,1000,1000,1000,1000,74128670,1550,1549,1591,1590
51206176,1000,1000,1000,1000,74228630,1545,1545,1596,1596
51208675,1000,1000,1000,1000,74328590,1543,1544,1601,1600
51211174,1000,1000,1000,1000,74428550,1541,1543,1602,1601
51213673,1000,1000,1000,1000,74528510,1543,1545,1603,1602
51216172,1000,1000,1000,1000,74628470,1547,1549,1600,1600
51218671,1000,1000,1000,1000,74728430,1551,1552,1596,1596
51221170,1000,1000,1000,1000,74828390,1557,1557,1593,1592
51223669,1000,1000,1000,1000,74928350,1563,1563,1588,1587
51226168,1000,1000,1000,1000,75028310,1569,1568,1584,1583
51228667,1000,1000,1000,1000,75128270,1574,1573,1580,1579
51231166,1000,1000,1000,1000,75228230,1577,1576,1575,1575
51233665,1000,1000,1000,1000,75328190,1580,1579,1572,1572
51236164,1000,1000,1000,1000,75428983,1583,1581,1571,1572
51238663,1000,1000,1000,1000,75528943,1583,1582,1570,1571
51241162,1000,1000,1000,1000,75628903,1583,1582,1570,1571
51243661,1000,1000,1000,1000,75728863,1582,1582,1572,1573
51246160,1000,1000,1000,1000,75828823,1580,1580,1573,1573
51248659,1000,1000,1000,1000,75928783,1579,1579,1575,1575
51251158,1000,1000,1000,1000,76028743,1577,1577,1577,1576
51253657,1000,1000,1000,1000,76128703,1576,1577,1579,1579
51256156,1000,1000,1000,1000,76228663,1575,1576,1580,1580
51258655,1000,1000,1000,1000,76328623,1576,1577,1583,1583
51261154,1000,1000,1000,1000,76428583,1575,1577,1583,1583
51263653,1000,1000,1000,1000,76528543,1575,1576,1583,1583
51266152,1000,1000,1000,1000,76628503,1576,1576,1583,1582
51268651,1000,1000,1000,1000,76728463,1576,1576,1581,1581
51271150,1000,1000,1000,1000,76828423,1577,1577,1581,1581
51273649,1000,1000,1000,1000,76928383,1578,1577,1580,1580
51276148,1000,1000,1000,1000,77028343,1579,1579,1580,1580
51278647,1000,1000,1000,1000,77128303,1580,1580,1579,1580
51281146,1000,1000,1000,1000,77228263,1580,1580,1578,1579
51283645,1000,1000,1000,1000,77328223,1580,1580,1578,1578
51286144,1000,1000,1000,1000,77428183,1581,1581,1578,1578
51288643,1000,1000,1000,1000,77528976,1581,1581,1578,1578
51291142,1000,1000,1000,1000,77628936,1581,1581,1578,1578
51293641,1000,1000,1000,1000,77728896,1580,1580,1578,1578
51296140,1000,1000,1000,1000,77828856,1580,1580,1578,1578
51298639,1000,1000,1000,1000,77928816,1580,1580,1579,1579
51301138,1000,1000,1000,1000,78028776,1580,1581,1580,1580
51303637,1000,1000,1000,1000,78128736,1580,1580,1581,1580
51306136,1000,1000,1000,1000,78228696,1580,1580,1581,1581
51308635,1000,1000,1000,1000,78328656,1581,1581,1582,1582
51311134,1000,1000,1000,1000,78428616,1581,1580,1582,1582
51313633,1000,1000,1000,1000,78528576,1580,1580,1581,1582
51316132,1000,1000,1000,1000,78628536,1580,1580,1581,1581
51318631,1000,1000,1000,1000,78728496,1581,1581,1582,1582
51321130,1000,1000,1000,1000,78828456,1580,1580,1581,1580
51323629,1000,1000,1000,1000,78928416,1581,1581,1582,1582
51326128,1000,1000,1000,1000,79028376,1582,1581,1582,1582
51328627,1000,1000,1000,1000,79128336,1581,1581,1581,1581
51331126,1000,1000,1000,1000,79228296,1581,1581,1580,1580
51333625,1000,1000,1000,1000,79328256,1582,1582,1581,1581
51336124,1000,1000,1000,1000,79428216,1581,1582,1585,1576
51338623,1000,1000,1000,1000,79528176,1581,1584,1587,1573
51341122,1000,1000,1000,1000,79628969,1579,1581,1579,1572
51343621,1000,1000,1000,1000,79728929,1578,1581,1571,1572
51346120,1000,1000,1000,1000,79828889,1576,1578,1563,1569
51348619,1000,1000,1000,1000,79928849,1577,1578,1558,1565
51351118,1000,1000,1000,1000,80028809,1578,1578,1556,1561
51353617,1000,1000,1000,1000,80128769,1578,1577,1554,1557
51356116,1000,1000,1000,1000,80228729,1579,1578,1554,1554
51358615,1000,1000,1000,1000,80328689,1579,1577,1555,1553
51361114,1000,1000,1000,1000,80428649,1578,1578,1556,1553
51363613,1000,1000,1000,1000,80528609,1578,1579,1556,1554
51366112,1000,1000,1000,1000,80628569,1576,1577,1555,1553
51368611,1000,1000,1000,1000,80728529,1576,1578,1554,1554
51371110,1000,1000,1000,1000,80828489,1575,1578,1553,1553
51373609,1000,1000,1000,1000,80928449,1576,1578,1551,1552
51376108,1000,1000,1000,1000,81028409,1576,1578,1549,1549
51378607,1000,1000,1000,1000,81128369,1579,1580,1548,1548
51381106,1000,1000,1000,1000,81228329,1580,1581,1545,1545
51383605,1000,1000,1000,1000,81328289,1584,1584,1544,1543
51386104,1000,1000,1000,1000,81428249,1586,1586,1541,1541
51388603,1000,1000,1000,1000,81528209,1588,1588,1539,1539
51391102,1000,1000,1000,1000,81628169,1591,1591,1539,1539
51393601,1000,1000,1000,1000,81728962,1592,1592,1537,1538
51396100,1000,1000,1000,1000,81828922,1593,1593,1538,1540
51398599,1000,1000,1000,1000,81928882,1592,1592,1539,1541
51401098,1000,1000,1000,1000,82028842,1592,1590,1544,1547
51403597,1000,1000,1000,1000,82128802,1588,1585,1550,1553
51406096,1000,1000,1000,1000,82228762,1582,1578,1558,1561
51408595,1000,1000,1000,1000,82328722,1573,1568,1568,1570
51411094,1000,1000,1000,1000,82428682,1563,1559,1579,1581
51413593,1000,1000,1000,1000,82528642,1553,1550,1590,1591
51416092,1000,1000,1000,1000,82628602,1544,1543,1600,1600
51418591,1000,1000,1000,1000,82728562,1537,1539,1608,1606
51421090,1000,1000,1000,1000,82828522,1535,1538,1613,1612
51423589,1000,1000,1000,1000,82928482,1534,1537,1614,1612
51426088,1000,1000,1000,1000,83028442,1538,1541,1613,1612
51428587,1000,1000,1000,1000,83128402,1543,1545,1608,1607
51431086,1000,1000,1000,1000,83228362,1549,1550,1602,1602
51433585,1000,1000,1000,1000,83328322,1557,1557,1596,1595
51436084,1000,1000,1000,1000,83428282,1564,1563,1588,1588
51438583,1000,1000,1000,1000,83528242,1570,1569,1580,1581
51441082,1000,1000,1000,1000,83628202,1577,1575,1575,1576
51443581,1000,1000,1000,1000,83728162,1581,1579,1570,1571
51446080,1000,1000,1000,1000,83828955,1585,1583,1567,1568
51448579,1000,1000,1000,1000,83928915,1586,1584,1565,1566
51451078,1000,1000,1000,1000,84028875,1585,1585,1565,1566
51453577,1000,1000,1000,1000,84128835,1585,1584,1568,1568
51456076,1000,1000,1000,1000,84228795,1583,1582,1569,1569
51458575,1000,1000,1000,1000,84328755,1582,1582,1573,1573
51461074,1000,1000,1000,1000,84428715,1579,1578,1575,1575
51463573,1000,1000,1000,1000,84528675,1576,1577,1578,1577
51466072,1000,1000,1000,1000,84628635,1574,1575,1580,1580
51468571,1000,1000,1000,1000,84728595,1573,1574,1582,1582
51471070,1000,1000,1000,1000,84828555,1572,1573,1583,1583
51473569,1000,1000,1000,1000,84928515,1572,1573,1583,1582
51476068,1000,1000,1000,1000,85028475,1573,1574,1583,1583
51478567,1000,1000,1000,1000,85128435,1575,1575,1584,1584
51481066,1000,1000,1000,1000,85228395,1575,1575,1582,1582
51483565,1000,1000,1000,1000,85328355,1577,1577,1581,1581
51486064,1000,1000,1000,1000,85428315,1578,1578,1580,1580
51488563,1000,1000,1000,1000,85528275,1578,1578,1578,1578
51491062,1000,1000,1000,1000,85628235,1579,1579,1577,1577
51493561,1000,1000,1000,1000,85728195,1581,1580,1577,1577
51496060,1000,1000,1000,1000,85828155,1581,1581,1577,1577
51498559,1000,1000,1000,1000,85928948,1581,1581,1577,1577
51501058,1000,1000,1000,1000,86028908,1582,1582,1578,1577
51503557,1000,1000,1000,1000,86128868,1581,1581,1578,1578
51506056,1000,1000,1000,1000,86228828,1580,1580,1577,1578
51508555,1000,1000,1000,1000,86328788,1580,1580,1579,1579
51511054,1000,1000,1000,1000,86428748,1581,1580,1580,1580
51513553,1000,1000,1000,1000,86528708,1580,1580,1580,1580
51516052,1000,1000,1000,1000,86628668,1580,1580,1580,1581
51518551,1000,1000,1000,1000,86728628,1580,1580,1582,1581
51521050,1000,1000,1000,1000,86828588,1579,1579,1581,1581
51523549,1000,1000,1000,1000,86928548,1579,1580,1581,1581
51526048,1000,1000,1000,1000,87028508,1580,1580,1582,1582
51528547,1000,1000,1000,1000,87128468,1580,1580,1581,1581
51531046,1000,1000,1000,1000,87228428,1582,1581,1583,1583
51533545,1000,1000,1000,1000,87328388,1581,1581,1582,1582
51536044,1000,1000,1000,1000,87428348,1582,1582,1587,1574
51538543,1000,1000,1000,1000,87528308,1582,1582,1587,1573
51541042,1000,1000,1000,1000,87628268,1579,1578,1580,1574
51543541,1000,1000,1000,1000,87728228,1575,1574,1572,1574
51546040,1000,1000,1000,1000,87828188,1572,1571,1567,1574
51548539,1000,1000,1000,1000,87928981,1569,1568,1564,1571
51551038,1000,1000,1000,1000,88028941,1567,1568,1564,1569
51553537,1000,1000,1000,1000,88128901,1566,1567,1565,1567
51556036,1000,1000,1000,1000,88228861,1565,1566,1565,1565
51558535,1000,1000,1000,1000,88328821,1565,1565,1565,1563
51561034,1000,1000,1000,1000,88428781,1564,1564,1566,1563
51563533,1000,1000,1000,1000,88528741,1564,1564,1565,1563
51566032,1000,1000,1000,1000,88628701,1564,1564,1565,1564
51568531,1000,1000,1000,1000,88728661,1563,1563,1564,1564
51571030,1000,1000,1000,1000,88828621,1562,1563,1563,1564
51573529,1000,1000,1000,1000,88928581,1562,1562,1562,1563
51576028,1000,1000,1000,1000,89028541,1561,1562,1562,1562
51578527,1000,1000,1000,1000,89128501,1561,1561,1562,1561
51581026,1000,1000,1000,1000,89228461,1561,1561,1562,1560
51583525,1000,1000,1000,1000,89328421,1560,1560,1560,1559
51586024,1000,1000,1000,1000,89428381,1560,1559,1560,1559
51588523,1000,1000,1000,1000,89528341,1558,1558,1558,1557
51591022,1000,1000,1000,1000,89628301,1558,1558,1558,1558
51593521,1000,1000,1000,1000,89728261,1558,1558,1558,1557
51596020,1000,1000,1000,1000,89828221,1557,1557,1558,1556
51598519,1000,1000,1000,1000,89928181,1557,1557,1558,1557
51601018,1000,1000,1000,1000,90028974,1558,1558,1559,1556
51603517,1000,1000,1000,1000,90128934,1558,1558,1559,1556
51606016,1000,1000,1000,1000,90228894,1559,1558,1559,1558
51608515,1000,1000,1000,1000,90328854,1560,1560,1558,1562
51611014,1000,1000,1000,1000,90428814,1560,1560,1557,1564
51613513,1000,1000,1000,1000,90528774,1560,1561,1558,1564
51616012,1000,1000,1000,1000,90628734,1561,1561,1559,1563
51618511,1000,1000,1000,1000,90728694,1559,1559,1559,1559
51621010,1000,1000,1000,1000,90828654,1560,1560,1561,1559
51623509,1000,1000,1000,1000,90928614,1559,1558,1558,1560
51626008,1000,1000,1000,1000,91028574,1555,1555,1554,1556
51628507,1000,1000,1000,1000,91128534,1550,1550,1549,1550
51631006,1000,1000,1000,1000,91228494,1543,1544,1544,1543
51633505,1000,1000,1000,1000,91328454,1537,1537,1537,1537
51636004,1000,1000,1000,1000,91428414,1530,1530,1530,1530
51638503,1000,1000,1000,1000,91528374,1522,1523,1523,1523
51641002,1000,1000,1000,1000,91628334,1519,1520,1520,1520
51643501,1000,1000,1000,1000,91728294,1519,1519,1518,1520
51646000,1000,1000,1000,1000,91828254,1520,1521,1520,1522
51648499,1000,1000,1000,1000,91928214,1522,1523,1522,1523
51650998,1000,1000,1000,1000,92028174,1526,1527,1526,1527
51653497,1000,1000,1000,1000,92128967,1530,1530,1530,1530
51655996,1000,1000,1000,1000,92228927,1535,1535,1535,1535
51658495,1000,1000,1000,1000,92328887,1539,1538,1539,1538
51660994,1000,1000,1000,1000,92428847,1541,1541,1542,1541
51663493,1000,1000,1000,1000,92528807,1543,1543,1544,1542
51665992,1000,1000,1000,1000,92628767,1544,1544,1545,1543
51668491,1000,1000,1000,1000,92728727,1545,1545,1545,1545
51670990,1000,1000,1000,1000,92828687,1546,1546,1546,1545
51673489,1000,1000,1000,1000,92928647,1547,1547,1547,1547
51675988,1000,1000,1000,1000,93028607,1546,1547,1546,1546
51678487,1000,1000,1000,1000,93128567,1547,1547,1547,1547
51680986,1000,1000,1000,1000,93228527,1547,1547,1547,1547
51683485,1000,1000,1000,1000,93328487,1547,1547,1547,1547
51685984,1000,1000,1000,1000,93428447,1546,1546,1546,1546
51688483,1000,1000,1000,1000,93528407,1546,1545,1546,1545
51690982,1000,1000,1000,1000,93628367,1546,1546,1546,1545
51693481,1000,1000,1000,1000,93728327,1545,1545,1545,1545
51695980,1000,1000,1000,1000,93828287,1546,1546,1546,1546
51698479,1000,1000,1000,1000,93928247,1546,1546,1546,1546
51700978,1000,1000,1000,1000,94028207,1546,1546,1546,1546
51703477,1000,1000,1000,1000,94128167,1544,1545,1545,1545
51705976,1000,1000,1000,1000,94228960,1544,1545,1544,1545
51708475,1000,1000,1000,1000,94328920,1544,1543,1544,1544
51710974,1000,1000,1000,1000,94428880,1544,1543,1544,1543
51713473,1000,1000,1000,1000,94528840,1544,1543,1543,1544
51715972,1000,1000,1000,1000,94628800,1543,1544,1544,1544
51718471,1000,1000,1000,1000,94728760,1543,1544,1544,1543
51720970,1000,1000,1000,1000,94828720,1544,1544,1544,1544
51723469,1000,1000,1000,1000,94928680,1544,1544,1544,1544
51725968,1000,1000,1000,1000,95028640,1545,1545,1545,1545
51728467,1000,1000,1000,1000,95128600,1545,1544,1544,1545
51730966,1000,1000,1000,1000,95228560,1545,1545,1545,1545
51733465,1000,1000,1000,1000,95328520,1544,1544,1544,1544
51735964,1000,1000,1000,1000,95428480,1545,1544,1544,1545
51738463,1000,1000,1000,1000,95528440,1544,1544,1544,1544
51740962,1000,1000,1000,1000,95628400,1544,1545,1545,1544
51743461,1000,1000,1000,1000,95728360,1544,1544,1544,1544
51745960,1000,1000,1000,1000,95828320,1544,1545,1545,1544
51748459,1000,1000,1000,1000,95928280,1544,1544,1544,1544
51750958,1000,1000,1000,1000,96028240,1544,1544,1544,1544
51753457,1000,1000,1000,1000,96128200,1544,1544,1544,1544
51755956,1000,1000,1000,1000,96228160,1544,1544,1544,1544
51758455,1000,1000,1000,1000,96328953,1544,1543,1543,1544
51760954,1000,1000,1000,1000,96428913,1544,1543,1543,1544
51763453,1000,1000,1000,1000,96528873,1544,1544,1544,1544
51765952,1000,1000,1000,1000,96628833,1544,1544,1544,1544
51768451,1000,1000,1000,1000,96728793,1544,1544,1544,1544
51770950,1000,1000,1000,1000,96828753,1545,1545,1545,1545
51773449,1000,1000,1000,1000,96928713,1544,1544,1544,1544
51775948,1000,1000,1000,1000,97028673,1544,1544,1544,1544
51778447,1000,1000,1000,1000,97128633,1544,1543,1544,1544
51780946,1000,1000,1000,1000,97228593,1544,1544,1544,1544
51783445,1000,1000,1000,1000,97328553,1544,1544,1544,1544
51785944,1000,1000,1000,1000,97428513,1543,1544,1543,1543
51788443,1000,1000,1000,1000,97528473,1543,1543,1543,1543
51790942,1000,1000,1000,1000,97628433,1544,1544,1544,1544
51793441,1000,1000,1000,1000,97728393,1544,1543,1543,1544
51795940,1000,1000,1000,1000,97828353,1544,1544,1544,1544
51798439,1000,1000,1000,1000,97928313,1545,1544,1544,1545
51800938,1000,1000,1000,1000,98028273,1545,1545,1545,1544
51803437,1000,1000,1000,1000,98128233,1544,1544,1544,1544
51805936,1000,1000,1000,1000,98228193,1544,1544,1544,1544
51808435,1000,1000,1000,1000,98328986,1544,1544,1544,1544
51810934,1000,1000,1000,1000,98428946,1543,1544,1543,1543
51813433,1000,1000,1000,1000,98528906,1543,1543,1543,1544
51815932,1000,1000,1000,1000,98628866,1543,1543,1543,1543
51818431,1000,1000,1000,1000,98728826,1544,1544,1544,1544
51820930,1000,1000,1000,1000,98828786,1543,1544,1544,1544
51823429,1000,1000,1000,1000,98928746,1544,1543,1544,1544
51825928,1000,1000,1000,1000,99028706,1544,1544,1544,1544
51828427,1000,1000,1000,1000,99128666,1544,1544,1544,1544
51830926,1000,1000,1000,1000,99228626,1544,1544,1544,1544
51833425,1000,1000,1000,1000,99328586,1545,1545,1545,1545
51835924,1000,1000,1000,1000,99428546,1545,1545,1545,1545
51838423,1000,1000,1000,1000,99528506,1545,1544,1544,1545
51840922,1000,1000,1000,1000,99628466,1545,1545,1545,1545
51843421,1000,1000,1000,1000,99728426,1544,1544,1544,1544
51845920,1000,1000,1000,1000,99828386,1545,1545,1545,1545
51848419,1000,1000,1000,1000,99928346,1544,1544,1544,1545
51850918,1000,1000,1000,1000,100028306,1545,1544,1545,1545
51853417,1000,1000,1000,1000,100128266,1544,1544,1544,1544
51855916,1000,1000,1000,1000,100228226,1545,1544,1545,1544
51858415,1000,1000,1000,1000,100328186,1544,1544,1544,1544
51860914,1000,1000,1000,1000,100428979,1544,1544,1544,1544
51863413,1000,1000,1000,1000,100528939,1544,1544,1544,1544
51865912,1000,1000,1000,1000,100628899,1543,1543,1543,1543
51868411,1000,1000,1000,1000,100728859,1544,1544,1544,1544
51870910,1000,1000,1000,1000,100828819,1545,1545,1545,1545
51873409,1000,1000,1000,1000,100928779,1544,1545,1545,1545
51875908,1000,1000,1000,1000,101028739,1544,1544,1545,1544
51878407,1000,1000,1000,1000,101128699,1545,1545,1545,1545
51880906,1000,1000,1000,1000,101228659,1544,1544,1544,1544
51883405,1000,1000,1000,1000,101328619,1477,1461,1477,1462
51885904,1000,1000,1000,1000,101428579,1352,1296,1351,1298
51888403,1000,1000,1000,1000,101528539,1303,1225,1301,1228
51890902,1000,1000,1000,1000,101628499,1286,1202,1285,1203
51893401,1000,1000,1000,1000,101728459,1265,1169,1264,1171
51895900,1000,1000,1000,1000,101828419,1253,1150,1252,1152
51898399,1000,1000,1000,1000,101928379,1164,1150,1163,1151
51900898,1000,1000,1000,1000,102028339,1164,1150,1163,1151
51903397,1000,1000,1000,1000,102128299,1164,1150,1163,1151
51905896,1000,1000,1000,1000,102228259,1164,1150,1150,1168
51908395,1000,1000,1000,1000,102328219,1164,1150,1154,1164
51910894,1000,1000,1000,1000,102428179,1164,1150,1156,1161
51913393,1000,1000,1000,1000,102528972,1164,1150,1156,1160
51915892,1000,1000,1000,1000,102628932,1164,1150,1156,1161
51918391,1000,1000,1000,1000,102728892,1164,1150,1155,1162
51920890,1000,1000,1000,1000,102828852,1164,1150,1155,1162
51923389,1000,1000,1000,1000,102928812,1164,1150,1154,1163
51925888,1000,1000,1000,1000,103028772,1164,1150,1161,1154
51928387,1000,1000,1000,1000,103128732,1164,1150,1160,1155
51930886,1000,1000,1000,1000,103228692,1164,1150,1160,1156
51933385,1000,1000,1000,1000,103328652,1164,1150,1159,1156
51935884,1000,1000,1000,1000,103428612,1164,1150,1159,1156
51938383,1000,1000,1000,1000,103528572,1000,1000,1000,1000
51940882,1000,1000,1000,1000,103628532,1000,1000,1000,1000
51943381,1000,1000,1000,1000,103728492,1000,1000,1000,1000
51945880,1000,1000,1000,1000,103828452,1000,1000,1000,1000
51948379,1000,1000,1000,1000,103928412,1000,1000,1000,1000
51950878,1000,1000,1000,1000,104028372,1000,1000,1000,1000
51953377,1000,1000,1000,1000,104128332,1000,1000,1000,1000
51955876,1000,1000,1000,1000,104228292,1000,1000,1000,1000
51958375,1000,1000,1000,1000,104328252,1000,1000,1000,1000
51960874,1000,1000,1000,1000,104428212,1000,1000,1000,1000
51963373,1000,1000,1000,1000,104528172,1000,1000,1000,1000
51965872,1000,1000,1000,1000,104628965,1000,1000,1000,1000
51968371,1000,1000,1000,1000,104728925,1000,1000,1000,1000
51970870,1000,1000,1000,1000,104828885,1000,1000,1000,1000
51973369,1000,1000,1000,1000,104928845,1000,1000,1000,1000
51975868,1000,1000,1000,1000,105028805,1000,1000,1000,1000
51978367,1000,1000,1000,1000,105128765,1000,1000,1000,1000
51980866,1000,1000,1000,1000,105228725,1000,1000,1000,1000
51983365,1000,1000,1000,1000,105328685,1000,1000,1000,1000
51985864,1000,1000,1000,1000,105428645,1000,1000,1000,1000
51988363,1000,1000,1000,1000,105528605,1000,1000,1000,1000
51990862,1000,1000,1000,1000,105628565,1000,1000,1000,1000
51993361,1000,1000,1000,1000,105728525,1000,1000,1000,1000
51995860,1000,1000,1000,1000,105828485,1000,1000,1000,1000
51998359,1000,1000,1000,1000,105928445,1000,1000,1000,1000
52000858,1000,1000,1000,1000,106028405,1000,1000,1000,1000
52003357,1000,1000,1000,1000,106128365,1000,1000,1000,1000
52005856,1000,1000,1000,1000,106228325,1000,1000,1000,1000
52008355,1000,1000,1000,1000,106328285,1000,1000,1000,1000
52010854,1000,1000,1000,1000,106428245,1000,1000,1000,1000
52013353,1000,1000,1000,1000,106528205,1000,1000,1000,1000
52015852,1000,1000,1000,1000,106628165,1000,1000,1000,1000
52018351,1000,1000,1000,1000,106728958,1000,1000,1000,1000
52020850,1000,1000,1000,1000,106828918,1000,1000,1000,1000
52023349,1000,1000,1000,1000,106928878,1000,1000,1000,1000
52025848,1000,1000,1000,1000,107028838,1000,1000,1000,1000
52028347,1000,1000,1000,1000,107128798,1000,1000,1000,1000
52030846,1000,1000,1000,1000,107228758,1000,1000,1000,1000
52033345,1000,1000,1000,1000,107328718,1000,1000,1000,1000
52035844,1000,1000,1000,1000,107428678,1000,1000,1000,1000
52038343,1000,1000,1000,1000,107528638,1000,1000,1000,1000
52040842,1000,1000,1000,1000,107628598,1000,1000,1000,1000
52043341,1000,1000,1000,1000,107728558,1000,1000,1000,1000
52045840,1000,1000,1000,1000,107828518,1000,1000,1000,1000
52048339,1000,1000,1000,1000,107928478,1000,1000,1000,1000
52050838,1000,1000,1000,1000,108028438,1000,1000,1000,1000
52053337,1000,1000,1000,1000,108128398,1000,1000,1000,1000
52055836,1000,1000,1000,1000,108228358,1000,1000,1000,1000
52058335,1000,1000,1000,1000,108328318,1000,1000,1000,1000
52060834,1000,1000,1000,1000,108428278,1000,1000,1000,1000
52063333,1000,1000,1000,1000,108528238,1000,1000,1000,1000
52065832,1000,1000,1000,1000,108628198,1000,1000,1000,1000
52068331,1000,1000,1000,1000,108728158,1000,1000,1000,1000
52070830,1000,1000,1000,1000,108828951,1000,1000,1000,1000
52073329,1000,1000,1000,1000,108928911,1000,1000,1000,1000
52075828,1000,1000,1000,1000,109028871,1000,1000,1000,1000
52078327,1000,1000,1000,1000,109128831,1000,1000,1000,1000
52080826,1000,1000,1000,1000,109228791,1000,1000,1000,1000
52083325,1000,1000,1000,1000,109328751,1000,1000,1000,1000
52085824,1000,1000,1000,1000,109428711,1000,1000,1000,1000
52088323,1000,1000,1000,1000,109528671,1000,1000,1000,1000
52090822,1000,1000,1000,1000,109628631,1000,1000,1000,1000
52093321,1000,1000,1000,1000,109728591,1000,1000,1000,1000
52095820,1000,1000,1000,1000,109828551,1000,1000,1000,1000
52098319,1000,1000,1000,1000,109928511,1000,1000,1000,1000
52100818,1000,1000,1000,1000,110028471,1000,1000,1000,1000
52103317,1000,1000,1000,1000,110128431,1000,1000,1000,1000
52105816,1000,1000,1000,1000,110228391,1000,1000,1000,1000
52108315,1000,1000,1000,1000,110328351,1000,1000,1000,1000
52110814,1000,1000,1000,1000,110428311,1000,1000,1000,1000
52113313,1000,1000,1000,1000,110528271,1000,1000,1000,1000
52115812,1000,1000,1000,1000,110628231,1000,1000,1000,1000
52118311,1000,1000,1000,1000,110728191,1000,1000,1000,1000
52120810,1000,1000,1000,1000,110828984,1000,1000,1000,1000
52123309,1000,1000,1000,1000,110928944,1000,1000,1000,1000
52125808,1000,1000,1000,1000,111028904,1000,1000,1000,1000
52128307,1000,1000,1000,1000,111128864,1000,1000,1000,1000
52130806,1000,1000,1000,1000,111228824,1000,1000,1000,1000
52133305,1000,1000,1000,1000,111328784,1000,1000,1000,1000
52135804,1000,1000,1000,1000,111428744,1000,1000,1000,1000
52138303,1000,1000,1000,1000,111528704,1000,1000,1000,1000
52140802,1000,1000,1000,1000,111628664,1000,1000,1000,1000
52143301,1000,1000,1000,1000,111728624,1000,1000,1000,1000
52145800,1000,1000,1000,1000,111828584,1000,1000,1000,1000
52148299,1000,1000,1000,1000,111928544,1000,1000,1000,1000
52150798,1000,1000,1000,1000,112028504,1000,1000,1000,1000
52153297,1000,1000,1000,1000,112128464,1000,1000,1000,1000
52155796,1000,1000,1000,1000,112228424,1000,1000,1000,1000
52158295,1000,1000,1000,1000,112328384,1000,1000,1000,1000
52160794,1000,1000,1000,1000,112428344,1000,1000,1000,1000
52163293,1000,1000,1000,1000,112528304,1000,1000,1000,1000
52165792,1000,1000,1000,1000,112628264,1000,1000,1000,1000
52168291,1000,1000,1000,1000,112728224,1000,1000,1000,1000
52170790,1000,1000,1000,1000,112828184,1000,1000,1000,1000
52173289,1000,1000,1000,1000,112928977,1000,1000,1000,1000
52175788,1000,1000,1000,1000,113028937,1000,1000,1000,1000
52178287,1000,1000,1000,1000,113128897,1000,1000,1000,1000
52180786,1000,1000,1000,1000,113228857,1000,1000,1000,1000
52183285,1000,1000,1000,1000,113328817,1000,1000,1000,1000
52185784,1000,1000,1000,1000,113428777,1000,1000,1000,1000
52188283,1000,1000,1000,1000,113528737,1000,1000,1000,1000
52190782,1000,1000,1000,1000,113628697,1000,1000,1000,1000
52193281,1000,1000,1000,1000,113728657,1000,1000,1000,1000
52195780,1000,1000,1000,1000,113828617,1000,1000,1000,1000
52198279,1000,1000,1000,1000,113928577,1000,1000,1000,1000
52200778,1000,1000,1000,1000,114028537,1000,1000,1000,1000
52203277,1000,1000,1000,1000,114128497,1000,1000,1000,1000
52205776,1000,1000,1000,1000,114228457,1000,1000,1000,1000
52208275,1000,1000,1000,1000,114328417,1000,1000,1000,1000
52210774,1000,1000,1000,1000,114428377,1000,1000,1000,1000
52213273,1000,1000,1000,1000,,,,,
52215772,1000,1000,1000,1000,,,,,
52218271,1000,1000,1000,1000,,,,,
52220770,1000,1000,1000,1000,,,,,
52223269,1000,1000,1000,1000,,,,,
52225768,1000,1000,1000,1000,,,,,
52228267,1000,1000,1000,1000,,,,,
52230766,1000,1000,1000,1000,,,,,
52233265,1000,1000,1000,1000,,,,,
52235764,1000,1000,1000,1000,,,,,
52238263,1000,1000,1000,1000,,,,,
52240762,1000,1000,1000,1000,,,,,
52243261,1000,1000,1000,1000,,,,,
52245760,1000,1000,1000,1000,,,,,
52248259,1000,1000,1000,1000,,,,,
52250758,1000,1000,1000,1000,,,,,
52253257,1000,1000,1000,1000,,,,,
52255756,1000,1000,1000,1000,,,,,
52258255,1000,1000,1000,1000,,,,,
52260754,1000,1000,1000,1000,,,,,
52263253,1000,1000,1000,1000,,,,,
52265752,1000,1000,1000,1000,,,,,
52268251,1000,1000,1000,1000,,,,,
52270750,1000,1000,1000,1000,,,,,
52273249,1000,1000,1000,1000,,,,,
52275748,1000,1000,1000,1000,,,,,
52278247,1000,1000,1000,1000,,,,,
52280746,1000,1000,1000,1000,,,,,
52283245,1000,1000,1000,1000,,,,,
52285744,1000,1000,1000,1000,,,,,
52288243,1000,1000,1000,1000,,,,,
52290742,1000,1000,1000,1000,,,,,
52293241,1000,1000,1000,1000,,,,,
52295740,1000,1000,1000,1000,,,,,
52298239,1000,1000,1000,1000,,,,,
52300738,1000,1000,1000,1000,,,,,
52303237,1000,1000,1000,1000,,,,,
52305736,1000,1000,1000,1000,,,,,
52308235,1000,1000,1000,1000,,,,,
52310734,1000,1000,1000,1000,,,,,
52313233,1000,1000,1000,1000,,,,,
52315732,1000,1000,1000,1000,,,,,
52318231,1000,1000,1000,1000,,,,,
52320730,1000,1000,1000,1000,,,,,
52323229,1000,1000,1000,1000,,,,,
52325728,1000,1000,1000,1000,,,,,
52328227,1000,1000,1000,1000,,,,,
52330726,1000,1000,1000,1000,,,,,
52333225,1000,1000,1000,1000,,,,,
52335724,1000,1000,1000,1000,,,,,
52338223,1000,1000,1000,1000,,,,,
52340722,1000,1000,1000,1000,,,,,
52343221,1000,1000,1000,1000,,,,,
52345720,1000,1000,1000,1000,,,,,
52348219,1000,1000,1000,1000,,,,,
52350718,1000,1000,1000,1000,,,,,
52353217,1000,1000,1000,1000,,,,,
52355716,1000,1000,1000,1000,,,,,
52358215,1000,1000,1000,1000,,,,,
52360714,1000,1000,1000,1000,,,,,
52363213,1000,1000,1000,1000,,,,,
52365712,1000,1000,1000,1000,,,,,
52368211,1000,1000,1000,1000,,,,,
52370710,1000,1000,1000,1000,,,,,
52373209,1000,1000,1000,1000,,,,,
52375708,1000,1000,1000,1000,,,,,
52378207,1000,1000,1000,1000,,,,,
52380706,1000,1000,1000,1000,,,,,
52383205,1000,1000,1000,1000,,,,,
52385704,1000,1000,1000,1000,,,,,
52388203,1000,1000,1000,1000,,,,,
52390702,1000,1000,1000,1000,,,,,
52393201,1000,1000,1000,1000,,,,,
52395700,1000,1000,1000,1000,,,,,
52398199,1000,1000,1000,1000,,,,,
52400698,1000,1000,1000,1000,,,,,
52403197,1000,1000,1000,1000,,,,,
52405696,1000,1000,1000,1000,,,,,
52408195,1000,1000,1000,1000,,,,,
52410694,1000,1000,1000,1000,,,,,
52413193,1000,1000,1000,1000,,,,,
52415692,1000,1000,1000,1000,,,,,
52418191,1000,1000,1000,1000,,,,,
52420690,1000,1000,1000,1000,,,,,
52423189,1000,1000,1000,1000,,,,,
52425688,1000,1000,1000,1000,,,,,
52428187,1000,1000,1000,1000,,,,,
52430686,1000,1000,1000,1000,,,,,
52433185,1000,1000,1000,1000,,,,,
52435684,1000,1000,1000,1000,,,,,
52438183,1000,1000,1000,1000,,,,,
52440682,1000,1000,1000,1000,,,,,
52443181,1000,1000,1000,1000,,,,,
52445680,1000,1000,1000,1000,,,,,
52448179,1000,1000,1000,1000,,,,,
52450678,1000,1000,1000,1000,,,,,
52453177,1000,1000,1000,1000,,,,,
52455676,1000,1000,1000,1000,,,,,
52458175,1000,1000,1000,1000,,,,,
52460674,1000,1000,1000,1000,,,,,
52463173,1000,1000,1000,1000,,,,,
52465672,1000,1000,1000,1000,,,,,
52468171,1000,1000,1000,1000,,,,,
52470670,1000,1000,1000,1000,,,,,
52473169,1000,1000,1000,1000,,,,,
52475668,1000,1000,1000,1000,,,,,
52478167,1000,1000,1000,1000,,,,,
52480666,1000,1000,1000,1000,,,,,
52483165,1000,1000,1000,1000,,,,,
52485664,1000,1000,1000,1000,,,,,
52488163,1000,1000,1000,1000,,,,,
52490662,1000,1000,1000,1000,,,,,
52493161,1000,1000,1000,1000,,,,,
52495660,1000,1000,1000,1000,,,,,
52498159,1000,1000,1000,1000,,,,,
52500658,1000,1000,1000,1000,,,,,
52503157,1000,1000,1000,1000,,,,,
52505656,1000,1000,1000,1000,,,,,
52508155,1000,1000,1000,1000,,,,,
52510654,1000,1000,1000,1000,,,,,
52513986,1000,1000,1000,1000,,,,,
52516485,1000,1000,1000,1000,,,,,
52518984,1000,1000,1000,1000,,,,,
52521483,1000,1000,1000,1000,,,,,
52523982,1000,1000,1000,1000,,,,,
52526481,1000,1000,1000,1000,,,,,
52528980,1000,1000,1000,1000,,,,,
52531479,1000,1000,1000,1000,,,,,
52533978,1000,1000,1000,1000,,,,,
52536477,1000,1000,1000,1000,,,,,
52538976,1000,1000,1000,1000,,,,,
52541475,1000,1000,1000,1000,,,,,
52543974,1000,1000,1000,1000,,,,,
52546473,1000,1000,1000,1000,,,,,
52548972,1000,1000,1000,1000,,,,,
52551471,1000,1000,1000,1000,,,,,
52553970,1000,1000,1000,1000,,,,,
52556469,1000,1000,1000,1000,,,,,
52558968,1000,1000,1000,1000,,,,,
52561467,1000,1000,1000,1000,,,,,
52563966,1000,1000,1000,1000,,,,,
52566465,1000,1000,1000,1000,,,,,
52568964,1000,1000,1000,1000,,,,,
52571463,1000,1000,1000,1000,,,,,
52573962,1000,1000,1000,1000,,,,,
52576461,1000,1000,1000,1000,,,,,
52578960,1000,1000,1000,1000,,,,,
52581459,1000,1000,1000,1000,,,,,
52583958,1000,1000,1000,1000,,,,,
52586457,1000,1000,1000,1000,,,,,
52588956,1000,1000,1000,1000,,,,,
52591455,1000,1000,1000,1000,,,,,
52593954,1000,1000,1000,1000,,,,,
52596453,1000,1000,1000,1000,,,,,
52598952,1000,1000,1000,1000,,,,,
52601451,1000,1000,1000,1000,,,,,
52603950,1000,1000,1000,1000,,,,,
52606449,1000,1000,1000,1000,,,,,
52608948,1000,1000,1000,1000,,,,,
52611447,1000,1000,1000,1000,,,,,
52613946,1000,1000,1000,1000,,,,,
52616445,1000,1000,1000,1000,,,,,
52618944,1000,1000,1000,1000,,,,,
52621443,1000,1000,1000,1000,,,,,
52623942,1001,1001,1001,1001,,,,,
52626441,1002,1002,1002,1002,,,,,
52628940,1003,1003,1003,1003,,,,,
52631439,1003,1003,1003,1003,,,,,
52633938,1004,1004,1004,1004,,,,,
52636437,1005,1005,1005,1005,,,,,
52638936,1006,1006,1006,1006,,,,,
52641435,1006,1006,1006,1006,,,,,
52643934,1007,1007,1007,1007,,,,,
52646433,1008,1008,1008,1008,,,,,
52648932,1009,1009,1009,1009,,,,,
52651431,1009,1009,1009,1009,,,,,
52653930,1010,1010,1010,1010,,,,,
52656429,1011,1011,1011,1011,,,,,
52658928,1012,1012,1012,1012,,,,,
52661427,1012,1012,1012,1012,,,,,
52663926,1013,1013,1013,1013,,,,,
52666425,1014,1014,1014,1014,,,,,
52668924,1015,1015,1015,1015,,,,,
52671423,1015,1015,1015,1015,,,,,
52673922,1016,1016,1016,1016,,,,,
52676421,1017,1017,1017,1017,,,,,
52678920,1018,1018,1018,1018,,,,,
52681419,1018,1018,1018,1018,,,,,
52683918,1019,1019,1019,1019,,,,,
52686417,1020,1020,1020,1020,,,,,
52688916,1021,1021,1021,1021,,,,,
52691415,1021,1021,1021,1021,,,,,
52693914,1022,1022,1022,1022,,,,,
52696413,1023,1023,1023,1023,,,,,
52698912,1024,1024,1024,1024,,,,,
52701411,1024,1024,1024,1024,,,,,
52703910,1025,1025,1025,1025,,,,,
52706409,1026,1026,1026,1026,,,,,
52708908,1027,1027,1027,1027,,,,,
52711407,1027,1027,1027,1027,,,,,
52713906,1028,1028,1028,1028,,,,,
52716405,1029,1029,1029,1029,,,,,
52718904,1030,1030,1030,1030,,,,,
52721403,1030,1030,1030,1030,,,,,
52723902,1031,1031,1031,1031,,,,,
52726401,1032,1032,1032,1032,,,,,
52728900,1033,1033,1033,1033,,,,,
52731399,1033,1033,1033,1033,,,,,
52733898,1034,1034,1034,1034,,,,,
52736397,1035,1035,1035,1035,,,,,
52738896,1036,1036,1036,1036,,,,,
52741395,1036,1036,1036,1036,,,,,
52743894,1037,1037,1037,1037,,,,,
52746393,1038,1038,1038,1038,,,,,
52748892,1039,1039,1039,1039,,,,,
52751391,1039,1039,1039,1039,,,,,
52753890,1040,1040,1040,1040,,,,,
52756389,1041,1041,1041,1041,,,,,
52758888,1042,1042,1042,1042,,,,,
52761387,1042,1042,1042,1042,,,,,
52763886,1043,1043,1043,1043,,,,,
52766385,1044,1044,1044,1044,,,,,
52768884,1045,1045,1045,1045,,,,,
52771383,1045,1045,1045,1045,,,,,
52773882,1046,1046,1046,1046,,,,,
52776381,1047,1047,1047,1047,,,,,
52778880,1048,1048,1048,1048,,,,,
52781379,1048,1048,1048,1048,,,,,
52783878,1049,1049,1049,1049,,,,,
52786377,1050,1050,1050,1050,,,,,
52788876,1051,1051,1051,1051,,,,,
52791375,1051,1051,1051,1051,,,,,
52793874,1052,1052,1052,1052,,,,,
52796373,1053,1053,1053,1053,,,,,
52798872,1054,1054,1054,1054,,,,,
52801371,1054,1054,1054,1054,,,,,
52803870,1055,1055,1055,1055,,,,,
52806369,1056,1056,1056,1056,,,,,
52808868,1057,1057,1057,1057,,,,,
52811367,1057,1057,1057,1057,,,,,
52813866,1058,1058,1058,1058,,,,,
52816365,1059,1059,1059,1059,,,,,
52818864,1060,1060,1060,1060,,,,,
52821363,1060,1060,1060,1060,,,,,
52823862,1061,1061,1061,1061,,,,,
52826361,1062,1062,1062,1062,,,,,
52828860,1063,1063,1063,1063,,,,,
52831359,1063,1063,1063,1063,,,,,
52833858,1064,1064,1064,1064,,,,,
52836357,1065,1065,1065,1065,,,,,
52838856,1066,1066,1066,1066,,,,,
52841355,1066,1066,1066,1066,,,,,
52843854,1067,1067,1067,1067,,,,,
52846353,1068,1068,1068,1068,,,,,
52848852,1069,1069,1069,1069,,,,,
52851351,1069,1069,1069,1069,,,,,
52853850,1070,1070,1070,1070,,,,,
52856349,1071,1071,1071,1071,,,,,
52858848,1072,1072,1072,1072,,,,,
52861347,1072,1072,1072,1072,,,,,
52863846,1073,1073,1073,1073,,,,,
52866345,1074,1074,1074,1074,,,,,
52868844,1075,1075,1075,1075,,,,,
52871343,1075,1075,1075,1075,,,,,
52873842,1076,1076,1076,1076,,,,,
52876341,1077,1077,1077,1077,,,,,
52878840,1078,1078,1078,1078,,,,,
52881339,1078,1078,1078,1078,,,,,
52883838,1079,1079,1079,1079,,,,,
52886337,1080,1080,1080,1080,,,,,
52888836,1081,1081,1081,1081,,,,,
52891335,1081,1081,1081,1081,,,,,
52893834,1082,1082,1082,1082,,,,,
52896333,1083,1083,1083,1083,,,,,
52898832,1084,1084,1084,1084,,,,,
52901331,1084,1084,1084,1084,,,,,
52903830,1085,1085,1085,1085,,,,,
52906329,1086,1086,1086,1086,,,,,
52908828,1087,1087,1087,1087,,,,,
52911327,1087,1087,1087,1087,,,,,
52913826,1088,1088,1088,1088,,,,,
52916325,1089,1089,1089,1089,,,,,
52918824,1090,1090,1090,1090,,,,,
52921323,1090,1090,1090,1090,,,,,
52923822,1091,1091,1091,1091,,,,,
52926321,1092,1092,1092,1092,,,,,
52928820,1093,1093,1093,1093,,,,,
52931319,1093,1093,1093,1093,,,,,
52933818,1094,1094,1094,1094,,,,,
52936317,1095,1095,1095,1095,,,,,
52938816,1096,1096,1096,1096,,,,,
52941315,1096,1096,1096,1096,,,,,
52943814,1097,1097,1097,1097,,,,,
52946313,1098,1098,1098,1098,,,,,
52948812,1099,1099,1099,1099,,,,,
52951311,1099,1099,1099,1099,,,,,
52953810,1100,1100,1100,1100,,,,,
52956309,1101,1101,1101,1101,,,,,
52958808,1101,1101,1101,1101,,,,,
52961307,1102,1102,1102,1102,,,,,
52963806,1103,1103,1103,1103,,,,,
52966305,1104,1104,1104,1104,,,,,
52968804,1104,1104,1104,1104,,,,,
52971303,1105,1105,1105,1105,,,,,
52973802,1106,1106,1106,1106,,,,,
52976301,1107,1107,1107,1107,,,,,
52978800,1107,1107,1107,1107,,,,,
52981299,1108,1108,1108,1108,,,,,
52983798,1109,1109,1109,1109,,,,,
52986297,1110,1110,1110,1110,,,,,
52988796,1110,1110,1110,1110,,,,,
52991295,1111,1111,1111,1111,,,,,
52993794,1112,1112,1112,1112,,,,,
52996293,1113,1113,1113,1113,,,,,
52998792,1113,1113,1113,1113,,,,,
53001291,1114,1114,1114,1114,,,,,
53003790,1115,1115,1115,1115,,,,,
53006289,1116,1116,1116,1116,,,,,
53008788,1116,1116,1116,1116,,,,,
53011287,1117,1117,1117,1117,,,,,
53013786,1118,1118,1118,1118,,,,,
53016285,1119,1119,1119,1119,,,,,
53018784,1119,1119,1119,1119,,,,,
53021283,1120,1120,1120,1120,,,,,
53023782,1121,1121,1121,1121,,,,,
53026281,1122,1122,1122,1122,,,,,
53028780,1122,1122,1122,1122,,,,,
53031279,1123,1123,1123,1123,,,,,
53033778,1124,1124,1124,1124,,,,,
53036277,1125,1125,1125,1125,,,,,
53038776,1125,1125,1125,1125,,,,,
53041275,1126,1126,1126,1126,,,,,
53043774,1127,1127,1127,1127,,,,,
53046273,1128,1128,1128,1128,,,,,
53048772,1128,1128,1128,1128,,,,,
53051271,1129,1129,1129,1129,,,,,
53053770,1130,1130,1130,1130,,,,,
53056269,1131,1131,1131,1131,,,,,
53058768,1131,1131,1131,1131,,,,,
53061267,1132,1132,1132,1132,,,,,
53063766,1133,1133,1133,1133,,,,,
53066265,1134,1134,1134,1134,,,,,
53068764,1134,1134,1134,1134,,,,,
53071263,1135,1135,1135,1135,,,,,
53073762,1136,1136,1136,1136,,,,,
53076261,1137,1137,1137,1137,,,,,
53078760,1137,1137,1137,1137,,,,,
53081259,1138,1138,1138,1138,,,,,
53083758,1139,1139,1139,1139,,,,,
53086257,1140,1140,1140,1140,,,,,
53088756,1140,1140,1140,1140,,,,,
53091255,1141,1141,1141,1141,,,,,
53093754,1142,1142,1142,1142,,,,,
53096253,1143,1143,1143,1143,,,,,
53098752,1143,1143,1143,1143,,,,,
53101251,1144,1144,1144,1144,,,,,
53103750,1145,1145,1145,1145,,,,,
53106249,1146,1146,1146,1146,,,,,
53108748,1146,1146,1146,1146,,,,,
53111247,1147,1147,1147,1147,,,,,
53113746,1148,1148,1148,1148,,,,,
53116245,1149,1149,1149,1149,,,,,
53118744,1149,1149,1149,1149,,,,,
53121243,1150,1150,1150,1150,,,,,
53123742,1161,1153,1154,1162,,,,,
53126241,1169,1162,1162,1170,,,,,
53128740,1177,1169,1170,1178,,,,,
53131239,1185,1177,1178,1186,,,,,
53133738,1193,1185,1185,1193,,,,,
53136237,1200,1192,1193,1201,,,,,
53138736,1207,1200,1200,1208,,,,,
53141235,1215,1207,1208,1215,,,,,
53143734,1222,1214,1215,1222,,,,,
53146233,1229,1221,1222,1229,,,,,
53148732,1236,1228,1229,1236,,,,,
53151231,1242,1235,1236,1243,,,,,
53153730,1249,1242,1243,1249,,,,,
53156229,1256,1249,1249,1256,,,,,
53158728,1262,1255,1256,1263,,,,,
53161227,1269,1262,1262,1269,,,,,
53163726,1275,1268,1269,1275,,,,,
53166225,1281,1275,1275,1282,,,,,
53168724,1287,1281,1281,1288,,,,,
53171223,1294,1287,1288,1294,,,,,
53173722,1300,1293,1294,1300,,,,,
53176221,1306,1299,1300,1306,,,,,
53178720,1312,1305,1306,1312,,,,,
53181219,1317,1311,1312,1318,,,,,
53183718,1323,1317,1318,1324,,,,,
53186217,1329,1323,1323,1329,,,,,
53188716,1335,1329,1329,1335,,,,,
53191215,1340,1334,1335,1341,,,,,
53193714,1346,1340,1341,1346,,,,,
53196213,1352,1346,1346,1352,,,,,
53198712,1357,1351,1352,1357,,,,,
53201211,1363,1357,1357,1363,,,,,
53203710,1368,1362,1363,1368,,,,,
53206209,1373,1367,1368,1373,,,,,
53208708,1379,1373,1373,1379,,,,,
53211207,1384,1378,1379,1384,,,,,
53213706,1389,1383,1384,1389,,,,,
53216205,1394,1389,1389,1394,,,,,
53218704,1399,1394,1394,1400,,,,,
53221203,1404,1399,1399,1405,,,,,
53223702,1410,1404,1404,1410,,,,,
53226201,1415,1409,1409,1415,,,,,
53228700,1419,1414,1414,1420,,,,,
53231199,1424,1419,1419,1425,,,,,
53233698,1429,1424,1424,1430,,,,,
53236197,1434,1429,1429,1434,,,,,
53238696,1439,1434,1434,1439,,,,,
53241195,1444,1438,1439,1444,,,,,
53243694,1449,1443,1444,1449,,,,,
53246193,1453,1448,1449,1454,,,,,
53248692,1458,1453,1453,1458,,,,,
53251191,1463,1457,1458,1463,,,,,
53253690,1467,1462,1463,1468,,,,,
53256189,1472,1467,1467,1472,,,,,
53258688,1477,1471,1472,1477,,,,,
53261187,1481,1476,1476,1481,,,,,
53263686,1486,1481,1481,1486,,,,,
53266185,1490,1485,1485,1490,,,,,
53268684,1495,1490,1490,1495,,,,,
53271183,1499,1494,1494,1499,,,,,
53273682,1504,1498,1499,1504,,,,,
53276181,1508,1503,1503,1508,,,,,
53278680,1512,1507,1508,1512,,,,,
53281179,1517,1512,1512,1517,,,,,
53283678,1521,1516,1516,1521,,,,,
53286177,1525,1520,1521,1525,,,,,
53288676,1530,1525,1525,1530,,,,,
53291175,1534,1529,1529,1534,,,,,
53293674,1538,1533,1533,1538,,,,,
53296173,1542,1537,1538,1542,,,,,
53298672,1546,1541,1542,1547,,,,,
53301171,1551,1546,1546,1551,,,,,
53303670,1555,1550,1550,1555,,,,,
53306169,1559,1554,1554,1559,,,,,
53308668,1563,1558,1558,1563,,,,,
53311167,1567,1562,1562,1567,,,,,
53313666,1571,1566,1566,1571,,,,,
53316165,1575,1570,1570,1575,,,,,
53318664,1579,1574,1575,1579,,,,,
53321163,1583,1578,1579,1583,,,,,
53323662,1587,1582,1582,1587,,,,,
53326161,1591,1586,1586,1591,,,,,
53328660,1595,1590,1590,1595,,,,,
53331159,1599,1594,1594,1599,,,,,
53333658,1603,1598,1598,1603,,,,,
53336157,1607,1602,1602,1607,,,,,
53338656,1611,1606,1606,1611,,,,,
53341155,1614,1610,1610,1615,,,,,
53343654,1618,1613,1614,1619,,,,,
53346153,1622,1617,1618,1622,,,,,
53348652,1626,1621,1621,1626,,,,,
53351151,1630,1625,1625,1630,,,,,
53353650,1633,1629,1629,1634,,,,,
53356149,1637,1632,1633,1638,,,,,
53358648,1641,1636,1636,1641,,,,,
53361147,1645,1640,1640,1645,,,,,
53363646,1648,1644,1644,1649,,,,,
53366145,1652,1647,1648,1652,,,,,
53368644,1656,1651,1651,1656,,,,,
53371143,1659,1655,1655,1660,,,,,
53373642,1663,1658,1659,1663,,,,,
53376141,1667,1662,1662,1667,,,,,
53378640,1670,1666,1666,1671,,,,,
53381139,1674,1669,1670,1674,,,,,
53383638,1677,1673,1673,1678,,,,,
53386137,1681,1677,1677,1681,,,,,
53388636,1684,1680,1680,1685,,,,,
53391135,1688,1684,1684,1688,,,,,
53393634,1692,1687,1687,1692,,,,,
53396133,1695,1691,1691,1695,,,,,
53398632,1699,1694,1695,1699,,,,,
53401131,1702,1698,1698,1702,,,,,
53403630,1706,1701,1702,1706,,,,,
53406129,1709,1705,1705,1709,,,,,
53408628,1712,1708,1708,1713,,,,,
53411127,1716,1712,1712,1716,,,,,
53413626,1719,1715,1715,1720,,,,,
53416125,1723,1719,1719,1723,,,,,
53418624,1726,1722,1722,1726,,,,,
53421123,1730,1725,1726,1730,,,,,
53423622,1733,1729,1729,1733,,,,,
53426121,1736,1732,1732,1737,,,,,
53428620,1740,1735,1736,1740,,,,,
53431119,1743,1739,1739,1743,,,,,
53433618,1746,1742,1742,1747,,,,,
53436117,1750,1745,1746,1750,,,,,
53438616,1753,1749,1749,1753,,,,,
53441115,1756,1752,1752,1757,,,,,
53443614,1760,1755,1756,1760,,,,,
53446113,1763,1759,1759,1763,,,,,
53448612,1766,1762,1762,1767,,,,,
53451111,1770,1765,1765,1770,,,,,
53453610,1773,1768,1769,1773,,,,,
53456109,1776,1772,1772,1776,,,,,
53458608,1779,1775,1775,1780,,,,,
53461107,1783,1778,1778,1783,,,,,
53463606,1786,1781,1782,1786,,,,,
53466105,1789,1785,1785,1789,,,,,
53468604,1792,1788,1788,1792,,,,,
53471103,1795,1791,1791,1796,,,,,
53473602,1798,1794,1794,1799,,,,,
53476101,1802,1797,1797,1802,,,,,
53478600,1805,1800,1801,1805,,,,,
53481099,1808,1804,1804,1808,,,,,
53483598,1811,1807,1807,1812,,,,,
53486097,1814,1810,1810,1815,,,,,
53488596,1817,1813,1813,1818,,,,,
53491095,1820,1816,1816,1821,,,,,
53493594,1823,1819,1819,1824,,,,,
53496093,1827,1822,1822,1827,,,,,
53498592,1830,1825,1825,1830,,,,,
53501091,1833,1829,1828,1833,,,,,
53503590,1836,1832,1832,1836,,,,,
53506089,1839,1835,1835,1839,,,,,
53508588,1842,1838,1838,1842,,,,,
53511087,1845,1841,1841,1845,,,,,
53513586,1848,1844,1844,1849,,,,,
53516085,1851,1847,1847,1852,,,,,
53518584,1854,1850,1850,1855,,,,,
53521083,1857,1853,1853,1858,,,,,
53523582,1860,1856,1856,1861,,,,,
53526081,1863,1859,1859,1864,,,,,
53528580,1866,1862,1862,1867,,,,,
53531079,1869,1865,1865,1869,,,,,
53533578,1872,1868,1868,1872,,,,,
53536077,1875,1871,1871,1875,,,,,
53538576,1878,1874,1874,1878,,,,,
53541075,1881,1877,1877,1881,,,,,
53543574,1884,1880,1879,1884,,,,,
53546073,1887,1882,1882,1887,,,,,
53548572,1890,1885,1885,1890,,,,,
53551071,1892,1888,1888,1893,,,,,
53553570,1895,1891,1891,1896,,,,,
53556069,1898,1894,1894,1899,,,,,
53558568,1901,1897,1897,1902,,,,,
53561067,1901,1897,1897,1902,,,,,
53563566,1900,1896,1896,1901,,,,,
53566065,1899,1895,1895,1900,,,,,
53568564,1898,1894,1894,1899,,,,,
53571063,1897,1893,1893,1898,,,,,
53573562,1897,1892,1892,1897,,,,,
53576061,1896,1892,1892,1896,,,,,
53578560,1895,1891,1891,1896,,,,,
53581059,1894,1890,1890,1895,,,,,
53583558,1894,1889,1889,1894,,,,,
53586057,1893,1889,1889,1894,,,,,
53588556,1893,1888,1888,1893,,,,,
53591055,1892,1888,1888,1893,,,,,
53593554,1892,1888,1888,1892,,,,,
53596053,1892,1887,1887,1892,,,,,
53598552,1891,1887,1887,1892,,,,,
53601051,1891,1887,1887,1892,,,,,
53603550,1891,1887,1887,1892,,,,,
53606049,1892,1887,1887,1892,,,,,
53608548,1892,1887,1887,1892,,,,,
53611047,1892,1887,1888,1892,,,,,
53613546,1892,1888,1888,1892,,,,,
53616045,1892,1888,1888,1893,,,,,
53618544,1893,1889,1889,1893,,,,,
53621043,1893,1889,1889,1893,,,,,
53623542,1893,1889,1889,1893,,,,,
53626041,1893,1890,1890,1894,,,,,
53628540,1893,1890,1890,1894,,,,,
53631039,1893,1890,1890,1893,,,,,
53633538,1893,1890,1890,1893,,,,,
53636037,1892,1889,1889,1893,,,,,
53638536,1892,1889,1889,1892,,,,,
53641035,1891,1888,1888,1891,,,,,
53643534,1890,1887,1887,1890,,,,,
53646033,1889,1886,1886,1889,,,,,
53648532,1888,1885,1885,1888,,,,,
53651031,1886,1884,1884,1887,,,,,
53653530,1885,1882,1882,1885,,,,,
53656029,1883,1881,1881,1883,,,,,
53658528,1881,1879,1879,1882,,,,,
53661027,1879,1877,1877,1880,,,,,
53663526,1877,1875,1875,1877,,,,,
53666025,1875,1872,1872,1875,,,,,
53668524,1872,1870,1870,1873,,,,,
53671023,1870,1868,1868,1870,,,,,
53673522,1867,1865,1865,1868,,,,,
53676021,1865,1863,1863,1865,,,,,
53678520,1862,1860,1860,1863,,,,,
53681019,1859,1857,1857,1860,,,,,
53683518,1856,1855,1855,1857,,,,,
53686017,1854,1852,1852,1854,,,,,
53688516,1851,1849,1849,1851,,,,,
53691015,1848,1846,1846,1848,,,,,
53693514,1845,1843,1843,1845,,,,,
53696013,1841,1840,1840,1842,,,,,
53698512,1838,1837,1837,1839,,,,,
53701011,1835,1834,1834,1836,,,,,
53703510,1832,1830,1830,1832,,,,,
53706009,1829,1827,1827,1829,,,,,
53708508,1825,1824,1824,1826,,,,,
53711007,1822,1820,1821,1822,,,,,
53713506,1819,1817,1817,1819,,,,,
53716005,1815,1814,1814,1815,,,,,
53718504,1812,1810,1811,1812,,,,,
53721003,1808,1807,1807,1809,,,,,
53723502,1805,1804,1804,1805,,,,,
53726001,1802,1800,1801,1802,,,,,
53728500,1798,1797,1797,1798,,,,,
53730999,1795,1794,1794,1795,,,,,
53733498,1791,1790,1791,1792,,,,,
53735997,1788,1787,1787,1788,,,,,
53738496,1785,1784,1784,1785,,,,,
53740995,1781,1781,1781,1782,,,,,
53743494,1778,1777,1778,1778,,,,,
53745993,1775,1774,1774,1775,,,,,
53748492,1771,1771,1771,1772,,,,,
53750991,1768,1768,1768,1768,,,,,
53753490,1765,1764,1765,1765,,,,,
53755989,1761,1761,1761,1762,,,,,
53758488,1758,1758,1758,1758,,,,,
53760987,1755,1755,1755,1755,,,,,
53763486,1752,1752,1752,1752,,,,,
53765985,1749,1748,1749,1749,,,,,
53768484,1745,1745,1746,1746,,,,,
53770983,1742,1742,1743,1742,,,,,
53773482,1739,1739,1740,1739,,,,,
53775981,1736,1736,1737,1736,,,,,
53778480,1733,1733,1734,1733,,,,,
53780979,1730,1731,1731,1730,,,,,
53783478,1727,1728,1728,1727,,,,,
53785977,1724,1725,1725,1725,,,,,
53788476,1721,1722,1722,1722,,,,,
53790975,1719,1719,1719,1719,,,,,
53793474,1716,1717,1716,1716,,,,,
53795973,1713,1714,1714,1713,,,,,
53798472,1710,1711,1711,1711,,,,,
53800971,1708,1708,1708,1708,,,,,
53803470,1705,1706,1706,1705,,,,,
53805969,1702,1703,1703,1703,,,,,
53808468,1700,1701,1701,1700,,,,,
53810967,1697,1698,1698,1698,,,,,
53813466,1695,1696,1696,1695,,,,,
53815965,1692,1694,1693,1693,,,,,
53818464,1690,1691,1691,1691,,,,,
53820963,1688,1689,1689,1688,,,,,
53823462,1685,1687,1686,1686,,,,,
53825961,1683,1684,1684,1684,,,,,
53828460,1681,1682,1682,1681,,,,,
53830959,1679,1680,1680,1679,,,,,
53833458,1677,1678,1678,1677,,,,,
53835957,1675,1676,1676,1675,,,,,
53838456,1673,1674,1674,1673,,,,,
53840955,1671,1672,1672,1671,,,,,
53843454,1669,1670,1670,1669,,,,,
53845953,1667,1668,1668,1667,,,,,
53848452,1665,1666,1666,1665,,,,,
53850951,1663,1665,1664,1664,,,,,
53853450,1661,1663,1663,1662,,,,,
53855949,1660,1661,1661,1660,,,,,
53858448,1658,1659,1659,1658,,,,,
53860947,1656,1658,1658,1657,,,,,
53863446,1655,1656,1656,1655,,,,,
53865945,1653,1655,1655,1654,,,,,
53868444,1652,1653,1653,1652,,,,,
53870943,1650,1652,1652,1651,,,,,
53873442,1649,1651,1650,1649,,,,,
53875941,1648,1649,1649,1648,,,,,
53878440,1647,1648,1648,1647,,,,,
53880939,1645,1647,1647,1646,,,,,
53883438,1644,1646,1646,1645,,,,,
