TimeUS,M1,M2,M3,M4,TimeUS,C1,C2,C3,C4
67408859,1000,1000,1000,1000,67428851,1000,1000,1000,1000
67411358,1000,1000,1000,1000,67528811,1000,1000,1000,1000
67413857,1000,1000,1000,1000,67628771,1000,1000,1000,1000
67416356,1000,1000,1000,1000,67728731,1000,1000,1000,1000
67418855,1000,1000,1000,1000,67828691,1000,1000,1000,1000
67421354,1000,1000,1000,1000,67928651,1000,1000,1000,1000
67423853,1000,1000,1000,1000,68028611,1000,1000,1000,1000
67426352,1000,1000,1000,1000,68128571,1000,1000,1000,1000
67428851,1000,1000,1000,1000,68228531,1000,1000,1000,1000
67431350,1000,1000,1000,1000,68328491,1000,1000,1000,1000
67433849,1000,1000,1000,1000,68428451,1000,1000,1000,1000
67436348,1000,1000,1000,1000,68528411,1000,1000,1000,1000
67438847,1000,1000,1000,1000,68628371,1000,1000,1000,1000
67441346,1000,1000,1000,1000,68728331,1000,1000,1000,1000
67443845,1000,1000,1000,1000,68828291,1000,1000,1000,1000
67446344,1000,1000,1000,1000,68928251,1000,1000,1000,1000
67448843,1000,1000,1000,1000,69028211,1000,1000,1000,1000
67451342,1000,1000,1000,1000,69128171,1000,1000,1000,1000
67453841,1000,1000,1000,1000,69228964,1000,1000,1000,1000
67456340,1000,1000,1000,1000,69328924,1000,1000,1000,1000
67458839,1000,1000,1000,1000,69428884,1006,1006,1006,1006
67461338,1000,1000,1000,1000,69528844,1036,1036,1036,1036
67463837,1000,1000,1000,1000,69628804,1066,1066,1066,1066
67466336,1000,1000,1000,1000,69728764,1096,1096,1096,1096
67468835,1000,1000,1000,1000,69828724,1125,1125,1125,1125
67471334,1000,1000,1000,1000,69928684,1209,1198,1199,1209
67473833,1000,1000,1000,1000,70028644,1440,1433,1433,1440
67476332,1000,1000,1000,1000,70128604,1611,1605,1605,1612
67478831,1000,1000,1000,1000,70228564,1754,1748,1748,1754
67481330,1000,1000,1000,1000,70328524,1879,1873,1873,1879
67483829,1000,1000,1000,1000,70428484,1883,1878,1878,1883
67486328,1000,1000,1000,1000,70528444,1780,1779,1779,1781
67488827,1000,1000,1000,1000,70628404,1666,1667,1668,1666
67491326,1000,1000,1000,1000,70728364,1622,1624,1625,1622
67493825,1000,1000,1000,1000,70828324,1624,1627,1627,1624
67496324,1000,1000,1000,1000,70928284,1635,1637,1636,1635
67498823,1000,1000,1000,1000,71028244,1638,1639,1638,1638
67501322,1000,1000,1000,1000,71128204,1625,1624,1621,1628
67503821,1000,1000,1000,1000,71228164,1612,1611,1603,1619
67506320,1000,1000,1000,1000,71328957,1605,1604,1599,1609
67508819,1000,1000,1000,1000,71428917,1604,1604,1602,1605
67511318,1000,1000,1000,1000,71528877,1607,1607,1609,1605
67513817,1000,1000,1000,1000,71628837,1614,1614,1617,1610
67516316,1000,1000,1000,1000,71728797,1618,1617,1622,1613
67518815,1000,1000,1000,1000,71828757,1588,1588,1603,1574
67521314,1000,1000,1000,1000,71928717,1574,1575,1587,1563
67523813,1000,1000,1000,1000,72028677,1562,1563,1566,1560
67526312,1000,1000,1000,1000,72128637,1552,1552,1546,1559
67528811,1000,1000,1000,1000,72228597,1544,1544,1532,1556
67531310,1000,1000,1000,1000,72328557,1538,1538,1527,1549
67533809,1000,1000,1000,1000,72428517,1532,1531,1524,1538
67536308,1000,1000,1000,1000,72528477,1528,1527,1525,1529
67538807,1000,1000,1000,1000,72628437,1528,1527,1528,1526
67541306,1000,1000,1000,1000,72728397,1529,1529,1531,1526
67543805,1000,1000,1000,1000,72828357,1532,1533,1536,1529
67546304,1000,1000,1000,1000,72928317,1535,1536,1539,1532
67548803,1000,1000,1000,1000,73028277,1540,1539,1542,1537
67551302,1000,1000,1000,1000,73128237,1543,1543,1544,1542
67553801,1000,1000,1000,1000,73228197,1545,1546,1546,1546
67556300,1000,1000,1000,1000,73328157,1548,1548,1548,1549
67558799,1000,1000,1000,1000,73428950,1551,1551,1550,1553
67561298,1000,1000,1000,1000,73528910,1554,1553,1552,1556
67563797,1000,1000,1000,1000,73628870,1554,1554,1556,1559
67566296,1000,1000,1000,1000,73728830,1556,1556,1560,1562
67568795,1000,1000,1000,1000,73828790,1558,1558,1563,1563
67571294,1000,1000,1000,1000,73928750,1561,1561,1566,1564
67573793,1000,1000,1000,1000,74028710,1563,1563,1566,1565
67576292,1000,1000,1000,1000,74128670,1565,1565,1566,1566
67578791,1000,1000,1000,1000,74228630,1567,1567,1566,1567
67581290,1000,1000,1000,1000,74328590,1569,1569,1567,1568
67583789,1000,1000,1000,1000,74428550,1570,1570,1568,1568
67586288,1000,1000,1000,1000,74528510,1570,1570,1567,1567
67588787,1000,1000,1000,1000,74628470,1572,1572,1568,1568
67591286,1000,1000,1000,1000,74728430,1572,1572,1569,1569
67593785,1000,1000,1000,1000,74828390,1573,1574,1571,1571
67596284,1000,1000,1000,1000,74928350,1574,1574,1572,1571
67598783,1000,1000,1000,1000,75028310,1575,1575,1574,1573
67601282,1000,1000,1000,1000,75128270,1576,1576,1576,1574
67603781,1000,1000,1000,1000,75228230,1575,1575,1576,1574
67606280,1000,1000,1000,1000,75328190,1575,1575,1575,1575
67608779,1000,1000,1000,1000,75428983,1574,1575,1575,1575
67611278,1000,1000,1000,1000,75528943,1575,1575,1576,1576
67613777,1000,1000,1000,1000,75628903,1575,1576,1576,1577
67616276,1000,1000,1000,1000,75728863,1575,1575,1576,1576
67618775,1000,1000,1000,1000,75828823,1576,1575,1576,1576
67621274,1000,1000,1000,1000,75928783,1577,1576,1577,1577
67623773,1000,1000,1000,1000,76028743,1576,1577,1577,1576
67626272,1000,1000,1000,1000,76128703,1577,1577,1577,1576
67628771,1000,1000,1000,1000,76228663,1578,1578,1578,1578
67631270,1000,1000,1000,1000,76328623,1578,1577,1577,1577
67633769,1000,1000,1000,1000,76428583,1579,1579,1579,1578
67636268,1000,1000,1000,1000,76528543,1578,1577,1578,1578
67638767,1000,1000,1000,1000,76628503,1579,1579,1579,1579
67641266,1000,1000,1000,1000,76728463,1578,1578,1578,1578
67643765,1000,1000,1000,1000,76828423,1579,1579,1579,1579
67646264,1000,1000,1000,1000,76928383,1579,1579,1578,1579
67648763,1000,1000,1000,1000,77028343,1579,1579,1579,1579
67651262,1000,1000,1000,1000,77128303,1579,1579,1579,1579
67653761,1000,1000,1000,1000,77228263,1579,1579,1580,1579
67656260,1000,1000,1000,1000,77328223,1579,1579,1579,1579
67658759,1000,1000,1000,1000,77428183,1579,1579,1579,1579
67661258,1000,1000,1000,1000,77528976,1580,1579,1579,1580
67663757,1000,1000,1000,1000,77628936,1579,1579,1580,1579
67666256,1000,1000,1000,1000,77728896,1579,1579,1580,1579
67668755,1000,1000,1000,1000,77828856,1580,1580,1580,1580
67671254,1000,1000,1000,1000,77928816,1580,1580,1580,1580
67673753,1000,1000,1000,1000,78028776,1580,1580,1580,1580
67676252,1000,1000,1000,1000,78128736,1579,1579,1580,1579
67678751,1000,1000,1000,1000,78228696,1580,1581,1580,1580
67681250,1000,1000,1000,1000,78328656,1579,1580,1580,1580
67683749,1000,1000,1000,1000,78428616,1580,1579,1579,1579
67686248,1000,1000,1000,1000,78528576,1579,1579,1579,1579
67688747,1000,1000,1000,1000,78628536,1580,1580,1580,1580
67691246,1000,1000,1000,1000,78728496,1580,1580,1580,1580
67693745,1000,1000,1000,1000,78828456,1580,1580,1580,1580
67696244,1000,1000,1000,1000,78928416,1581,1581,1581,1581
67698743,1000,1000,1000,1000,79028376,1580,1580,1580,1580
67701242,1000,1000,1000,1000,79128336,1580,1580,1580,1580
67703741,1000,1000,1000,1000,79228296,1581,1581,1581,1581
67706240,1000,1000,1000,1000,79328256,1580,1581,1581,1580
67708739,1000,1000,1000,1000,79428216,1581,1581,1581,1581
67711238,1000,1000,1000,1000,79528176,1581,1581,1582,1582
67713737,1000,1000,1000,1000,79628969,1581,1581,1581,1581
67716236,1000,1000,1000,1000,79728929,1580,1580,1580,1580
67718735,1000,1000,1000,1000,79828889,1580,1581,1587,1572
67721234,1000,1000,1000,1000,79928849,1580,1582,1585,1573
67723733,1000,1000,1000,1000,80028809,1578,1581,1576,1573
67726232,1000,1000,1000,1000,80128769,1577,1580,1567,1571
67728731,1000,1000,1000,1000,80228729,1576,1579,1560,1568
67731230,1000,1000,1000,1000,80328689,1578,1579,1557,1563
67733729,1000,1000,1000,1000,80428649,1580,1579,1556,1559
67736228,1000,1000,1000,1000,80528609,1581,1578,1556,1556
67738727,1000,1000,1000,1000,80628569,1579,1578,1556,1554
67741226,1000,1000,1000,1000,80728529,1579,1578,1556,1554
67743725,1000,1000,1000,1000,80828489,1578,1578,1557,1554
67746224,1000,1000,1000,1000,80928449,1575,1577,1555,1553
67748723,1000,1000,1000,1000,81028409,1574,1576,1554,1553
67751222,1000,1000,1000,1000,81128369,1574,1576,1552,1553
67753721,1000,1000,1000,1000,81228329,1576,1577,1552,1552
67756220,1000,1000,1000,1000,81328289,1577,1578,1550,1550
67758719,1000,1000,1000,1000,81428249,1578,1579,1547,1547
67761218,1000,1000,1000,1000,81528209,1581,1582,1545,1545
67763717,1000,1000,1000,1000,81628169,1584,1585,1542,1542
67766216,1000,1000,1000,1000,81728962,1588,1588,1540,1540
67768715,1000,1000,1000,1000,81828922,1591,1592,1538,1538
67771214,1000,1000,1000,1000,81928882,1593,1593,1535,1536
67773713,1000,1000,1000,1000,82028842,1595,1595,1535,1536
67776212,1000,1000,1000,1000,82128802,1595,1595,1535,1537
67778711,1000,1000,1000,1000,82228762,1594,1593,1536,1538
67781210,1000,1000,1000,1000,82328722,1592,1591,1539,1542
67783709,1000,1000,1000,1000,82428682,1588,1587,1545,1548
67786208,1000,1000,1000,1000,82528642,1583,1580,1553,1557
67788707,1000,1000,1000,1000,82628602,1574,1570,1563,1566
67791206,1000,1000,1000,1000,82728562,1564,1559,1576,1578
67793705,1000,1000,1000,1000,82828522,1554,1550,1589,1590
67796204,1000,1000,1000,1000,82928482,1542,1540,1600,1600
67798703,1000,1000,1000,1000,83028442,1533,1533,1608,1608
67801202,1000,1000,1000,1000,83128402,1530,1531,1615,1614
67803701,1000,1000,1000,1000,83228362,1528,1531,1616,1615
67806200,1000,1000,1000,1000,83328322,1532,1534,1614,1614
67808699,1000,1000,1000,1000,83428282,1537,1539,1608,1609
67811198,1000,1000,1000,1000,83528242,1545,1546,1602,1602
67813697,1000,1000,1000,1000,83628202,1554,1555,1595,1595
67816196,1000,1000,1000,1000,83728162,1563,1563,1587,1586
67818695,1000,1000,1000,1000,83828955,1571,1572,1581,1580
67821194,1000,1000,1000,1000,83928915,1579,1578,1575,1574
67823693,1000,1000,1000,1000,84028875,1583,1582,1569,1569
67826192,1000,1000,1000,1000,84128835,1586,1585,1566,1566
67828691,1000,1000,1000,1000,84228795,1588,1587,1566,1567
67831190,1000,1000,1000,1000,84328755,1588,1587,1567,1567
67833689,1000,1000,1000,1000,84428715,1586,1586,1569,1569
67836188,1000,1000,1000,1000,84528675,1583,1583,1571,1571
67838687,1000,1000,1000,1000,84628635,1580,1580,1573,1574
67841186,1000,1000,1000,1000,84728595,1578,1578,1577,1577
67843685,1000,1000,1000,1000,84828555,1575,1574,1579,1578
67846184,1000,1000,1000,1000,84928515,1573,1574,1582,1581
67848683,1000,1000,1000,1000,85028475,1571,1573,1582,1583
67851182,1000,1000,1000,1000,85128435,1571,1572,1583,1583
67853681,1000,1000,1000,1000,85228395,1572,1573,1583,1583
67856180,1000,1000,1000,1000,85328355,1572,1572,1582,1582
67858679,1000,1000,1000,1000,85428315,1574,1574,1582,1582
67861178,1000,1000,1000,1000,85528275,1575,1575,1581,1580
67863677,1000,1000,1000,1000,85628235,1577,1576,1579,1579
67866176,1000,1000,1000,1000,85728195,1578,1578,1578,1578
67868675,1000,1000,1000,1000,85828155,1579,1579,1577,1577
67871174,1000,1000,1000,1000,85928948,1580,1581,1577,1577
67873673,1000,1000,1000,1000,86028908,1580,1581,1576,1576
67876172,1000,1000,1000,1000,86128868,1582,1582,1578,1577
67878671,1000,1000,1000,1000,86228828,1582,1581,1577,1577
67881170,1000,1000,1000,1000,86328788,1583,1582,1579,1579
67883669,1000,1000,1000,1000,86428748,1581,1582,1579,1579
67886168,1000,1000,1000,1000,86528708,1581,1581,1579,1579
67888667,1000,1000,1000,1000,86628668,1580,1580,1580,1579
67891166,1000,1000,1000,1000,86728628,1792,1543,1792,1544
67893665,1000,1000,1000,1000,86828588,1641,1596,1645,1595
67896164,1000,1000,1000,1000,86928548,1578,1601,1583,1602
67898663,1000,1000,1000,1000,87028508,1549,1600,1551,1601
67901162,1000,1000,1000,1000,87128468,1547,1590,1543,1589
67903661,1000,1000,1000,1000,87228428,1556,1578,1545,1572
67906160,1000,1000,1000,1000,87328388,1566,1568,1550,1555
67908659,1000,1000,1000,1000,87428348,1575,1563,1559,1548
67911158,1000,1000,1000,1000,87528308,1579,1564,1567,1552
67913657,1000,1000,1000,1000,87628268,1580,1566,1574,1560
67916156,1000,1000,1000,1000,87728228,1577,1569,1578,1569
67918655,1000,1000,1000,1000,87828188,1574,1574,1589,1572
67921154,1000,1000,1000,1000,87928981,1569,1575,1590,1577
67923653,1000,1000,1000,1000,88028941,1569,1576,1582,1581
67926152,1000,1000,1000,1000,88128901,1572,1577,1572,1578
67928651,1000,1000,1000,1000,88228861,1578,1579,1564,1572
67931150,1000,1000,1000,1000,88328821,1584,1583,1561,1566
67933649,1000,1000,1000,1000,88428781,1588,1585,1558,1560
67936148,1000,1000,1000,1000,88528741,1591,1587,1560,1558
67938647,1000,1000,1000,1000,88628701,1591,1588,1561,1557
67941146,1000,1000,1000,1000,88728661,1589,1588,1561,1558
67943645,1000,1000,1000,1000,88828621,1587,1587,1562,1560
67946144,1000,1000,1000,1000,88928581,1585,1586,1561,1561
67948643,1000,1000,1000,1000,89028541,1582,1584,1560,1560
67951142,1000,1000,1000,1000,89128501,1582,1583,1560,1560
67953641,1000,1000,1000,1000,89228461,1581,1583,1559,1559
67956140,1000,1000,1000,1000,89328421,1582,1584,1558,1558
67958639,1000,1000,1000,1000,89428381,1584,1585,1557,1557
67961138,1000,1000,1000,1000,89528341,1585,1587,1554,1554
67963637,1000,1000,1000,1000,89628301,1589,1591,1551,1551
67966136,1000,1000,1000,1000,89728261,1592,1593,1547,1547
67968635,1000,1000,1000,1000,89828221,1595,1597,1545,1545
67971134,1000,1000,1000,1000,89928181,1596,1597,1541,1542
67973633,1000,1000,1000,1000,90028974,1598,1597,1543,1543
67976132,1000,1000,1000,1000,90128934,1597,1595,1545,1547
67978631,1000,1000,1000,1000,90228894,1594,1592,1551,1553
67981130,1000,1000,1000,1000,90328854,1588,1585,1558,1560
67983629,1000,1000,1000,1000,90428814,1580,1577,1567,1569
67986128,1000,1000,1000,1000,90528774,1571,1568,1577,1578
67988627,1000,1000,1000,1000,90628734,1563,1560,1587,1589
67991126,1000,1000,1000,1000,90728694,1554,1551,1595,1596
67993625,1000,1000,1000,1000,90828654,1548,1547,1603,1604
67996124,1000,1000,1000,1000,90928614,1543,1543,1607,1607
67998623,1000,1000,1000,1000,91028574,1544,1544,1610,1610
68001122,1000,1000,1000,1000,91128534,1544,1545,1608,1608
68003621,1000,1000,1000,1000,91228494,1549,1550,1606,1605
68006120,1000,1000,1000,1000,91328454,1554,1555,1601,1600
68008619,1000,1000,1000,1000,91428414,1562,1563,1596,1595
68011118,1000,1000,1000,1000,91528374,1567,1568,1588,1588
68013617,1000,1000,1000,1000,91628334,1574,1574,1583,1583
68016116,1000,1000,1000,1000,91728294,1578,1578,1578,1577
68018615,1000,1000,1000,1000,91828254,1582,1581,1574,1574
68021114,1000,1000,1000,1000,91928214,1585,1584,1573,1572
68023613,1000,1000,1000,1000,92028174,1585,1584,1572,1572
68026112,1000,1000,1000,1000,92128967,1585,1584,1573,1573
68028611,1000,1000,1000,1000,92228927,1583,1582,1574,1573
68031110,1000,1000,1000,1000,92328887,1582,1582,1577,1577
68033609,1000,1000,1000,1000,92428847,1579,1579,1578,1579
68036108,1000,1000,1000,1000,92528807,1577,1577,1580,1581
68038607,1000,1000,1000,1000,92628767,1576,1576,1583,1583
68041106,1000,1000,1000,1000,92728727,1573,1573,1581,1582
68043605,1000,1000,1000,1000,92828687,1574,1574,1583,1583
68046104,1000,1000,1000,1000,92928647,1574,1574,1583,1583
68048603,1000,1000,1000,1000,93028607,1574,1574,1583,1583
68051102,1000,1000,1000,1000,93128567,1575,1575,1581,1582
68053601,1000,1000,1000,1000,93228527,1576,1576,1581,1581
68056100,1000,1000,1000,1000,93328487,1577,1577,1580,1580
68058599,1000,1000,1000,1000,93428447,1579,1579,1581,1580
68061098,1000,1000,1000,1000,93528407,1579,1579,1579,1579
68063597,1000,1000,1000,1000,93628367,1578,1579,1577,1577
68066096,1000,1000,1000,1000,93728327,1580,1580,1578,1578
68068595,1000,1000,1000,1000,93828287,1582,1581,1579,1579
68071094,1000,1000,1000,1000,93928247,1581,1580,1578,1578
68073593,1000,1000,1000,1000,94028207,1581,1581,1579,1579
68076092,1000,1000,1000,1000,94128167,1581,1580,1579,1579
68078591,1000,1000,1000,1000,94228960,1581,1581,1581,1581
68081090,1000,1000,1000,1000,94328920,1579,1581,1581,1580
68083589,1000,1000,1000,1000,94428880,1580,1580,1581,1581
68086088,1000,1000,1000,1000,94528840,1578,1578,1579,1579
68088587,1000,1000,1000,1000,94628800,1578,1579,1580,1580
68091086,1000,1000,1000,1000,94728760,1578,1578,1579,1580
68093585,1000,1000,1000,1000,94828720,1579,1579,1580,1580
68096084,1000,1000,1000,1000,94928680,1579,1579,1580,1580
68098583,1000,1000,1000,1000,95028640,1580,1580,1581,1580
68101082,1000,1000,1000,1000,95128600,1580,1580,1580,1580
68103581,1000,1000,1000,1000,95228560,1580,1580,1580,1580
68106080,1000,1000,1000,1000,95328520,1580,1579,1579,1580
68108579,1000,1000,1000,1000,95428480,1579,1580,1579,1580
68111078,1000,1000,1000,1000,95528440,1580,1580,1580,1580
68113577,1000,1000,1000,1000,95628400,1580,1580,1580,1579
68116076,1000,1000,1000,1000,95728360,1580,1581,1584,1576
68118575,1000,1000,1000,1000,95828320,1580,1583,1586,1571
68121074,1000,1000,1000,1000,95928280,1579,1583,1578,1571
68123573,1000,1000,1000,1000,96028240,1580,1582,1569,1570
68126072,1000,1000,1000,1000,96128200,1579,1581,1561,1567
68128571,1000,1000,1000,1000,96228160,1580,1580,1555,1562
68131070,1000,1000,1000,1000,96328953,1581,1580,1553,1558
68133569,1000,1000,1000,1000,96428913,1581,1579,1553,1554
68136068,1000,1000,1000,1000,96528873,1581,1580,1555,1553
68138567,1000,1000,1000,1000,96628833,1579,1579,1556,1553
68141066,1000,1000,1000,1000,96728793,1578,1578,1556,1554
68143565,1000,1000,1000,1000,96828753,1577,1578,1556,1555
68146064,1000,1000,1000,1000,96928713,1576,1577,1556,1555
68148563,1000,1000,1000,1000,97028673,1576,1578,1555,1555
68151062,1000,1000,1000,1000,97128633,1576,1577,1553,1554
68153561,1000,1000,1000,1000,97228593,1577,1579,1551,1551
68156060,1000,1000,1000,1000,97328553,1579,1580,1549,1549
68158559,1000,1000,1000,1000,97428513,1581,1582,1547,1546
68161058,1000,1000,1000,1000,97528473,1583,1584,1544,1544
68163557,1000,1000,1000,1000,97628433,1587,1588,1543,1542
68166056,1000,1000,1000,1000,97728393,1590,1590,1541,1540
68168555,1000,1000,1000,1000,97828353,1590,1591,1538,1538
68171054,1000,1000,1000,1000,97928313,1592,1593,1538,1539
68173553,1000,1000,1000,1000,98028273,1593,1594,1537,1539
68176052,1000,1000,1000,1000,98128233,1593,1593,1539,1541
68178551,1000,1000,1000,1000,98228193,1591,1590,1543,1545
68181050,1000,1000,1000,1000,98328986,1586,1583,1549,1551
68183549,1000,1000,1000,1000,98428946,1579,1576,1559,1561
68186048,1000,1000,1000,1000,98528906,1569,1565,1569,1571
68188547,1000,1000,1000,1000,98628866,1560,1556,1582,1583
68191046,1000,1000,1000,1000,98728826,1548,1545,1592,1593
68193545,1000,1000,1000,1000,98828786,1540,1538,1602,1603
68196044,1000,1000,1000,1000,98928746,1534,1533,1609,1609
68198543,1000,1000,1000,1000,99028706,1533,1533,1612,1612
68201042,1000,1000,1000,1000,99128666,1535,1536,1612,1612
68203541,1000,1000,1000,1000,99228626,1539,1540,1607,1609
68206040,1000,1000,1000,1000,99328586,1546,1547,1602,1603
68208539,1000,1000,1000,1000,99428546,1554,1556,1596,1596
68211038,1000,1000,1000,1000,99528506,1563,1564,1589,1588
68213537,1000,1000,1000,1000,99628466,1571,1571,1583,1582
68216036,1000,1000,1000,1000,99728426,1577,1577,1577,1575
68218535,1000,1000,1000,1000,99828386,1582,1582,1573,1571
68221034,1000,1000,1000,1000,99928346,1586,1586,1571,1570
68223533,1000,1000,1000,1000,100028306,1586,1586,1569,1568
68226032,1000,1000,1000,1000,100128266,1586,1585,1569,1569
68228531,1000,1000,1000,1000,100228226,1584,1584,1570,1570
68231030,1000,1000,1000,1000,100328186,1582,1581,1572,1572
68233529,1000,1000,1000,1000,100428979,1580,1579,1575,1575
68236028,1000,1000,1000,1000,100528939,1577,1577,1578,1578
68238527,1000,1000,1000,1000,100628899,1574,1575,1579,1579
68241026,1000,1000,1000,1000,100728859,1573,1573,1581,1581
68243525,1000,1000,1000,1000,100828819,1573,1573,1582,1583
68246024,1000,1000,1000,1000,100928779,1573,1573,1584,1584
68248523,1000,1000,1000,1000,101028739,1574,1575,1584,1584
68251022,1000,1000,1000,1000,101128699,1574,1575,1583,1583
68253521,1000,1000,1000,1000,101228659,1575,1576,1581,1582
68256020,1000,1000,1000,1000,101328619,1577,1577,1580,1580
68258519,1000,1000,1000,1000,101428579,1579,1578,1579,1579
68261018,1000,1000,1000,1000,101528539,1579,1579,1578,1578
68263517,1000,1000,1000,1000,101628499,1582,1582,1580,1579
68266016,1000,1000,1000,1000,101728459,1580,1580,1577,1577
68268515,1000,1000,1000,1000,101828419,1581,1581,1577,1578
68271014,1000,1000,1000,1000,101928379,1581,1581,1577,1578
68273513,1000,1000,1000,1000,102028339,1581,1581,1578,1578
68276012,1000,1000,1000,1000,102128299,1580,1580,1578,1578
68278511,1000,1000,1000,1000,102228259,1580,1579,1579,1578
68281010,1000,1000,1000,1000,102328219,1580,1580,1580,1580
68283509,1000,1000,1000,1000,102428179,1579,1579,1580,1580
68286008,1000,1000,1000,1000,102528972,1580,1580,1581,1581
68288507,1000,1000,1000,1000,102628932,1579,1579,1581,1581
68291006,1000,1000,1000,1000,102728892,1579,1579,1580,1581
68293505,1000,1000,1000,1000,102828852,1578,1579,1580,1580
68296004,1000,1000,1000,1000,102928812,1580,1580,1581,1582
68298503,1000,1000,1000,1000,103028772,1579,1580,1580,1580
68301002,1000,1000,1000,1000,103128732,1580,1580,1581,1581
68303501,1000,1000,1000,1000,103228692,1582,1581,1582,1581
68306000,1000,1000,1000,1000,103328652,1581,1581,1581,1581
68308499,1000,1000,1000,1000,103428612,1582,1582,1581,1582
68310998,1000,1000,1000,1000,103528572,1582,1582,1582,1582
68313497,1000,1000,1000,1000,103628532,1582,1583,1589,1575
68315996,1000,1000,1000,1000,103728492,1582,1583,1588,1574
68318495,1000,1000,1000,1000,103828452,1578,1579,1578,1575
68320994,1000,1000,1000,1000,103928412,1575,1575,1570,1575
68323493,1000,1000,1000,1000,104028372,1572,1573,1567,1574
68325992,1000,1000,1000,1000,104128332,1571,1570,1566,1573
68328491,1000,1000,1000,1000,104228292,1569,1568,1567,1570
68330990,1000,1000,1000,1000,104328252,1568,1567,1568,1568
68333489,1000,1000,1000,1000,104428212,1566,1566,1568,1566
68335988,1000,1000,1000,1000,104528172,1566,1566,1568,1566
68338487,1000,1000,1000,1000,104628965,1565,1565,1568,1565
68340986,1000,1000,1000,1000,104728925,1564,1565,1566,1565
68343485,1000,1000,1000,1000,104828885,1563,1563,1564,1564
68345984,1000,1000,1000,1000,104928845,1563,1563,1563,1563
68348483,1000,1000,1000,1000,105028805,1562,1562,1562,1562
68350982,1000,1000,1000,1000,105128765,1563,1562,1563,1562
68353481,1000,1000,1000,1000,105228725,1561,1561,1561,1561
68355980,1000,1000,1000,1000,105328685,1562,1562,1562,1561
68358479,1000,1000,1000,1000,105428645,1561,1561,1561,1561
68360978,1000,1000,1000,1000,105528605,1559,1559,1559,1558
68363477,1000,1000,1000,1000,105628565,1557,1557,1557,1556
68365976,1000,1000,1000,1000,105728525,1556,1557,1556,1556
68368475,1000,1000,1000,1000,105828485,1556,1556,1557,1555
68370974,1000,1000,1000,1000,105928445,1556,1556,1556,1555
68373473,1000,1000,1000,1000,106028405,1556,1556,1557,1555
68375972,1000,1000,1000,1000,106128365,1558,1558,1559,1557
68378471,1000,1000,1000,1000,106228325,1557,1557,1559,1556
68380970,1000,1000,1000,1000,106328285,1559,1558,1560,1557
68383469,1000,1000,1000,1000,106428245,1559,1558,1558,1559
68385968,1000,1000,1000,1000,106528205,1559,1560,1557,1562
68388467,1000,1000,1000,1000,106628165,1560,1560,1557,1563
68390966,1000,1000,1000,1000,106728958,1562,1562,1559,1565
68393465,1000,1000,1000,1000,106828918,1564,1564,1562,1566
68395964,1000,1000,1000,1000,106928878,1564,1563,1563,1565
68398463,1000,1000,1000,1000,107028838,1563,1564,1565,1563
68400962,1000,1000,1000,1000,107128798,1562,1562,1564,1560
68403461,1000,1000,1000,1000,107228758,1562,1563,1565,1561
68405960,1000,1000,1000,1000,107328718,1562,1562,1559,1565
68408459,1000,1000,1000,1000,107428678,1557,1558,1553,1561
68410958,1000,1000,1000,1000,107528638,1554,1554,1551,1556
68413457,1000,1000,1000,1000,107628598,1546,1547,1546,1547
68415956,1000,1000,1000,1000,107728558,1539,1540,1540,1539
68418455,1000,1000,1000,1000,107828518,1531,1531,1533,1530
68420954,1000,1000,1000,1000,107928478,1525,1524,1526,1524
68423453,1000,1000,1000,1000,108028438,1520,1519,1521,1519
68425952,1000,1000,1000,1000,108128398,1519,1518,1519,1518
68428451,1000,1000,1000,1000,108228358,1520,1519,1519,1519
68430950,1000,1000,1000,1000,108328318,1522,1521,1522,1522
68433449,1000,1000,1000,1000,108428278,1525,1525,1525,1525
68435948,1000,1000,1000,1000,108528238,1529,1529,1529,1529
68438447,1000,1000,1000,1000,108628198,1533,1533,1533,1533
68440946,1000,1000,1000,1000,108728158,1538,1538,1538,1538
68443445,1000,1000,1000,1000,108828951,1540,1540,1539,1540
68445944,1000,1000,1000,1000,108928911,1542,1542,1542,1543
68448443,1000,1000,1000,1000,109028871,1543,1544,1544,1543
68450942,1000,1000,1000,1000,109128831,1544,1544,1545,1544
68453441,1000,1000,1000,1000,109228791,1545,1545,1545,1545
68455940,1000,1000,1000,1000,109328751,1546,1546,1546,1545
68458439,1000,1000,1000,1000,109428711,1546,1546,1546,1545
68460938,1000,1000,1000,1000,109528671,1547,1546,1547,1546
68463437,1000,1000,1000,1000,109628631,1546,1546,1546,1546
68465936,1000,1000,1000,1000,109728591,1545,1545,1545,1545
68468435,1000,1000,1000,1000,109828551,1546,1546,1547,1546
68470934,1000,1000,1000,1000,109928511,1545,1545,1546,1545
68473433,1000,1000,1000,1000,110028471,1545,1545,1545,1545
68475932,1000,1000,1000,1000,110128431,1545,1544,1545,1544
68478431,1000,1000,1000,1000,110228391,1545,1545,1545,1544
68480930,1000,1000,1000,1000,110328351,1544,1544,1544,1544
68483429,1000,1000,1000,1000,110428311,1543,1544,1544,1544
68485928,1000,1000,1000,1000,110528271,1544,1543,1543,1544
68488427,1000,1000,1000,1000,110628231,1545,1544,1544,1544
68490926,1000,1000,1000,1000,110728191,1545,1545,1545,1544
68493425,1000,1000,1000,1000,110828984,1544,1544,1545,1544
68495924,1000,1000,1000,1000,110928944,1544,1544,1545,1544
68498423,1000,1000,1000,1000,111028904,1544,1544,1544,1544
68500922,1000,1000,1000,1000,111128864,1544,1543,1543,1544
68503421,1000,1000,1000,1000,111228824,1545,1545,1545,1545
68505920,1000,1000,1000,1000,111328784,1545,1544,1544,1544
68508419,1000,1000,1000,1000,111428744,1544,1544,1544,1544
68510918,1000,1000,1000,1000,111528704,1545,1544,1544,1545
68513417,1000,1000,1000,1000,111628664,1544,1545,1544,1545
68515916,1000,1000,1000,1000,111728624,1544,1544,1544,1544
68518415,1000,1000,1000,1000,111828584,1544,1545,1545,1544
68520914,1000,1000,1000,1000,111928544,1545,1544,1545,1545
68523413,1000,1000,1000,1000,112028504,1544,1544,1544,1543
68525912,1000,1000,1000,1000,112128464,1544,1544,1544,1544
68528411,1000,1000,1000,1000,112228424,1544,1544,1544,1544
68530910,1000,1000,1000,1000,112328384,1543,1543,1543,1543
68533409,1000,1000,1000,1000,112428344,1542,1543,1543,1543
68535908,1000,1000,1000,1000,112528304,1543,1543,1543,1543
68538407,1000,1000,1000,1000,112628264,1544,1544,1544,1544
68540906,1000,1000,1000,1000,112728224,1544,1544,1544,1544
68543405,1000,1000,1000,1000,112828184,1544,1544,1544,1544
68545904,1000,1000,1000,1000,112928977,1544,1544,1544,1544
68548403,1000,1000,1000,1000,113028937,1544,1544,1544,1544
68550902,1000,1000,1000,1000,113128897,1545,1544,1545,1544
68553401,1000,1000,1000,1000,113228857,1544,1545,1544,1545
68555900,1000,1000,1000,1000,113328817,1545,1545,1545,1545
68558399,1000,1000,1000,1000,113428777,1544,1545,1545,1545
68560898,1000,1000,1000,1000,113528737,1545,1545,1544,1546
68563397,1000,1000,1000,1000,113628697,1545,1545,1545,1545
68565896,1000,1000,1000,1000,113728657,1544,1544,1544,1544
68568395,1000,1000,1000,1000,113828617,1544,1545,1545,1545
68570894,1000,1000,1000,1000,113928577,1544,1544,1543,1544
68573393,1000,1000,1000,1000,114028537,1544,1544,1544,1544
68575892,1000,1000,1000,1000,114128497,1544,1544,1544,1544
68578391,1000,1000,1000,1000,114228457,1544,1544,1544,1543
68580890,1000,1000,1000,1000,114328417,1545,1544,1544,1544
68583389,1000,1000,1000,1000,114428377,1545,1545,1545,1544
68585888,1000,1000,1000,1000,114528337,1545,1545,1545,1545
68588387,1000,1000,1000,1000,114628297,1545,1545,1544,1545
68590886,1000,1000,1000,1000,114728257,1545,1545,1545,1546
68593385,1000,1000,1000,1000,114828217,1544,1545,1545,1545
68595884,1000,1000,1000,1000,114928177,1543,1544,1543,1544
68598383,1000,1000,1000,1000,115028970,1544,1544,1545,1543
68600882,1000,1000,1000,1000,115128930,1544,1544,1544,1544
68603381,1000,1000,1000,1000,115228890,1545,1545,1545,1545
68605880,1000,1000,1000,1000,115328850,1545,1544,1544,1545
68608379,1000,1000,1000,1000,115428810,1544,1544,1544,1544
68610878,1000,1000,1000,1000,115528770,1544,1544,1544,1545
68613377,1000,1000,1000,1000,115628730,1543,1545,1544,1544
68615876,1000,1000,1000,1000,115728690,1545,1545,1545,1545
68618375,1000,1000,1000,1000,115828650,1544,1544,1544,1544
68620874,1000,1000,1000,1000,115928610,1546,1545,1545,1545
68623373,1000,1000,1000,1000,116028570,1544,1544,1545,1544
68625872,1000,1000,1000,1000,116128530,1544,1544,1544,1544
68628371,1000,1000,1000,1000,116228490,1544,1545,1545,1545
68630870,1000,1000,1000,1000,116328450,1545,1544,1544,1545
68633369,1000,1000,1000,1000,116428410,1544,1545,1544,1544
68635868,1000,1000,1000,1000,116528370,1545,1545,1545,1545
68638367,1000,1000,1000,1000,116628330,1544,1544,1544,1544
68640866,1000,1000,1000,1000,116728290,1544,1544,1544,1544
68643365,1000,1000,1000,1000,116828250,1544,1544,1544,1544
68645864,1000,1000,1000,1000,116928210,1545,1544,1544,1544
68648363,1000,1000,1000,1000,117028170,1545,1544,1544,1545
68650862,1000,1000,1000,1000,117128963,1545,1545,1545,1545
68653361,1000,1000,1000,1000,117228923,1544,1545,1545,1545
68655860,1000,1000,1000,1000,117328883,1546,1545,1546,1545
68658359,1000,1000,1000,1000,117428843,1545,1546,1546,1546
68660858,1000,1000,1000,1000,117528803,1545,1545,1544,1545
68663357,1000,1000,1000,1000,117628763,1545,1545,1545,1545
68665856,1000,1000,1000,1000,117728723,1524,1530,1524,1530
68668355,1000,1000,1000,1000,117828683,1303,1366,1303,1366
68670854,1000,1000,1000,1000,117928643,1304,1365,1303,1366
68673353,1000,1000,1000,1000,118028603,1303,1366,1303,1366
68675852,1000,1000,1000,1000,118128563,1303,1366,1303,1367
68678351,1000,1000,1000,1000,118228523,1303,1310,1303,1310
68680850,1000,1000,1000,1000,118328483,1303,1308,1303,1309
68683349,1000,1000,1000,1000,118428443,1324,1292,1303,1309
68685848,1000,1000,1000,1000,118528403,1322,1294,1303,1309
68688347,1000,1000,1000,1000,118628363,1316,1298,1303,1309
68690846,1000,1000,1000,1000,118728323,1315,1299,1303,1309
68693345,1000,1000,1000,1000,118828283,1316,1298,1303,1309
68695844,1000,1000,1000,1000,118928243,1317,1297,1303,1309
68698343,1000,1000,1000,1000,119028203,1318,1297,1303,1309
68700842,1000,1000,1000,1000,119128163,1319,1296,1303,1309
68703341,1000,1000,1000,1000,119228956,1306,1306,1303,1309
68705840,1000,1000,1000,1000,119328916,1309,1304,1303,1309
68708339,1000,1000,1000,1000,119428876,1310,1303,1303,1309
68710838,1000,1000,1000,1000,119528836,1310,1303,1303,1309
68713337,1000,1000,1000,1000,119628796,1310,1302,1303,1309
68715836,1000,1000,1000,1000,119728756,1000,1000,1000,1000
68718335,1000,1000,1000,1000,119828716,1000,1000,1000,1000
68720834,1000,1000,1000,1000,119928676,1000,1000,1000,1000
68723333,1000,1000,1000,1000,120028636,1000,1000,1000,1000
68725832,1000,1000,1000,1000,120128596,1000,1000,1000,1000
68728331,1000,1000,1000,1000,120228556,1000,1000,1000,1000
68730830,1000,1000,1000,1000,120328516,1000,1000,1000,1000
68733329,1000,1000,1000,1000,120428476,1000,1000,1000,1000
68735828,1000,1000,1000,1000,120528436,1000,1000,1000,1000
68738327,1000,1000,1000,1000,120628396,1000,1000,1000,1000
68740826,1000,1000,1000,1000,120728356,1000,1000,1000,1000
68743325,1000,1000,1000,1000,120828316,1000,1000,1000,1000
68745824,1000,1000,1000,1000,120928276,1000,1000,1000,1000
68748323,1000,1000,1000,1000,121028236,1000,1000,1000,1000
68750822,1000,1000,1000,1000,121128196,1000,1000,1000,1000
68753321,1000,1000,1000,1000,121228156,1000,1000,1000,1000
68755820,1000,1000,1000,1000,121328949,1000,1000,1000,1000
68758319,1000,1000,1000,1000,121428909,1000,1000,1000,1000
68760818,1000,1000,1000,1000,121528869,1000,1000,1000,1000
68763317,1000,1000,1000,1000,121628829,1000,1000,1000,1000
68765816,1000,1000,1000,1000,121728789,1000,1000,1000,1000
68768315,1000,1000,1000,1000,121828749,1000,1000,1000,1000
68770814,1000,1000,1000,1000,121928709,1000,1000,1000,1000
68773313,1000,1000,1000,1000,122028669,1000,1000,1000,1000
68775812,1000,1000,1000,1000,122128629,1000,1000,1000,1000
68778311,1000,1000,1000,1000,122228589,1000,1000,1000,1000
68780810,1000,1000,1000,1000,122328549,1000,1000,1000,1000
68783309,1000,1000,1000,1000,122428509,1000,1000,1000,1000
68785808,1000,1000,1000,1000,122528469,1000,1000,1000,1000
68788307,1000,1000,1000,1000,122628429,1000,1000,1000,1000
68790806,1000,1000,1000,1000,122728389,1000,1000,1000,1000
68793305,1000,1000,1000,1000,122828349,1000,1000,1000,1000
68795804,1000,1000,1000,1000,122928309,1000,1000,1000,1000
68798303,1000,1000,1000,1000,123028269,1000,1000,1000,1000
68800802,1000,1000,1000,1000,123128229,1000,1000,1000,1000
68803301,1000,1000,1000,1000,123228189,1000,1000,1000,1000
68805800,1000,1000,1000,1000,123328982,1000,1000,1000,1000
68808299,1000,1000,1000,1000,123428942,1000,1000,1000,1000
68810798,1000,1000,1000,1000,123528902,1000,1000,1000,1000
68813297,1000,1000,1000,1000,123628862,1000,1000,1000,1000
68815796,1000,1000,1000,1000,123728822,1000,1000,1000,1000
68818295,1000,1000,1000,1000,123828782,1000,1000,1000,1000
68820794,1000,1000,1000,1000,123928742,1000,1000,1000,1000
68823293,1000,1000,1000,1000,124028702,1000,1000,1000,1000
68825792,1000,1000,1000,1000,124128662,1000,1000,1000,1000
68828291,1000,1000,1000,1000,124228622,1000,1000,1000,1000
68830790,1000,1000,1000,1000,124328582,1000,1000,1000,1000
68833289,1000,1000,1000,1000,124428542,1000,1000,1000,1000
68835788,1000,1000,1000,1000,124528502,1000,1000,1000,1000
68838287,1000,1000,1000,1000,124628462,1000,1000,1000,1000
68840786,1000,1000,1000,1000,124728422,1000,1000,1000,1000
68843285,1000,1000,1000,1000,124828382,1000,1000,1000,1000
68845784,1000,1000,1000,1000,124928342,1000,1000,1000,1000
68848283,1000,1000,1000,1000,125028302,1000,1000,1000,1000
68850782,1000,1000,1000,1000,125128262,1000,1000,1000,1000
68853281,1000,1000,1000,1000,125228222,1000,1000,1000,1000
68855780,1000,1000,1000,1000,125328182,1000,1000,1000,1000
68858279,1000,1000,1000,1000,125428975,1000,1000,1000,1000
68860778,1000,1000,1000,1000,125528935,1000,1000,1000,1000
68863277,1000,1000,1000,1000,125628895,1000,1000,1000,1000
68865776,1000,1000,1000,1000,125728855,1000,1000,1000,1000
68868275,1000,1000,1000,1000,125828815,1000,1000,1000,1000
68870774,1000,1000,1000,1000,125928775,1000,1000,1000,1000
68873273,1000,1000,1000,1000,126028735,1000,1000,1000,1000
68875772,1000,1000,1000,1000,126128695,1000,1000,1000,1000
68878271,1000,1000,1000,1000,126228655,1000,1000,1000,1000
68880770,1000,1000,1000,1000,126328615,1000,1000,1000,1000
68883269,1000,1000,1000,1000,126428575,1000,1000,1000,1000
68885768,1000,1000,1000,1000,126528535,1000,1000,1000,1000
68888267,1000,1000,1000,1000,126628495,1000,1000,1000,1000
68890766,1000,1000,1000,1000,126728455,1000,1000,1000,1000
68893265,1000,1000,1000,1000,126828415,1000,1000,1000,1000
68895764,1000,1000,1000,1000,126928375,1000,1000,1000,1000
68898263,1000,1000,1000,1000,127028335,1000,1000,1000,1000
68900762,1000,1000,1000,1000,127128295,1000,1000,1000,1000
68903261,1000,1000,1000,1000,127228255,1000,1000,1000,1000
68905760,1000,1000,1000,1000,127328215,1000,1000,1000,1000
68908259,1000,1000,1000,1000,127428175,1000,1000,1000,1000
68910758,1000,1000,1000,1000,127528968,1000,1000,1000,1000
68913257,1000,1000,1000,1000,127628928,1000,1000,1000,1000
68915756,1000,1000,1000,1000,127728888,1000,1000,1000,1000
68918255,1000,1000,1000,1000,127828848,1000,1000,1000,1000
68920754,1000,1000,1000,1000,127928808,1000,1000,1000,1000
68923253,1000,1000,1000,1000,128028768,1000,1000,1000,1000
68925752,1000,1000,1000,1000,128128728,1000,1000,1000,1000
68928251,1000,1000,1000,1000,128228688,1000,1000,1000,1000
68930750,1000,1000,1000,1000,128328648,1000,1000,1000,1000
68933249,1000,1000,1000,1000,128428608,1000,1000,1000,1000
68935748,1000,1000,1000,1000,128528568,1000,1000,1000,1000
68938247,1000,1000,1000,1000,128628528,1000,1000,1000,1000
68940746,1000,1000,1000,1000,128728488,1000,1000,1000,1000
68943245,1000,1000,1000,1000,128828448,1000,1000,1000,1000
68945744,1000,1000,1000,1000,128928408,1000,1000,1000,1000
68948243,1000,1000,1000,1000,129028368,1000,1000,1000,1000
68950742,1000,1000,1000,1000,129128328,1000,1000,1000,1000
68953241,1000,1000,1000,1000,129228288,1000,1000,1000,1000
68955740,1000,1000,1000,1000,129328248,1000,1000,1000,1000
68958239,1000,1000,1000,1000,129428208,1000,1000,1000,1000
68960738,1000,1000,1000,1000,129528168,1000,1000,1000,1000
68963237,1000,1000,1000,1000,129628961,1000,1000,1000,1000
68965736,1000,1000,1000,1000,129728921,1000,1000,1000,1000
68968235,1000,1000,1000,1000,129828881,1000,1000,1000,1000
68970734,1000,1000,1000,1000,129928841,1000,1000,1000,1000
68973233,1000,1000,1000,1000,130028801,1000,1000,1000,1000
68975732,1000,1000,1000,1000,130128761,1000,1000,1000,1000
68978231,1000,1000,1000,1000,130228721,1000,1000,1000,1000
68980730,1000,1000,1000,1000,130328681,1000,1000,1000,1000
68983229,1000,1000,1000,1000,130428641,1000,1000,1000,1000
68985728,1000,1000,1000,1000,130528601,1000,1000,1000,1000
68988227,1000,1000,1000,1000,130628561,1000,1000,1000,1000
68990726,1000,1000,1000,1000,130728521,1000,1000,1000,1000
68993225,1000,1000,1000,1000,130828481,1000,1000,1000,1000
68995724,1000,1000,1000,1000,130928441,1000,1000,1000,1000
68998223,1000,1000,1000,1000,131028401,1000,1000,1000,1000
69000722,1000,1000,1000,1000,131128361,1000,1000,1000,1000
69003221,1000,1000,1000,1000,131228321,1000,1000,1000,1000
69005720,1000,1000,1000,1000,131328281,1000,1000,1000,1000
69008219,1000,1000,1000,1000,131428241,1000,1000,1000,1000
69010718,1000,1000,1000,1000,131528201,1000,1000,1000,1000
69013217,1000,1000,1000,1000,131628161,1000,1000,1000,1000
69015716,1000,1000,1000,1000,131728954,1000,1000,1000,1000
69018215,1000,1000,1000,1000,131828914,1000,1000,1000,1000
69020714,1000,1000,1000,1000,131928874,1000,1000,1000,1000
69023213,1000,1000,1000,1000,132028834,1000,1000,1000,1000
69025712,1000,1000,1000,1000,132128794,1000,1000,1000,1000
69028211,1000,1000,1000,1000,132228754,1000,1000,1000,1000
69030710,1000,1000,1000,1000,132328714,1000,1000,1000,1000
69033209,1000,1000,1000,1000,132428674,1000,1000,1000,1000
69035708,1000,1000,1000,1000,132528634,1000,1000,1000,1000
69038207,1000,1000,1000,1000,132628594,1000,1000,1000,1000
69040706,1000,1000,1000,1000,132728554,1000,1000,1000,1000
69043205,1000,1000,1000,1000,132828514,1000,1000,1000,1000
69045704,1000,1000,1000,1000,132928474,1000,1000,1000,1000
69048203,1000,1000,1000,1000,133028434,1000,1000,1000,1000
69050702,1000,1000,1000,1000,133128394,1000,1000,1000,1000
69053201,1000,1000,1000,1000,133228354,1000,1000,1000,1000
69055700,1000,1000,1000,1000,133328314,1000,1000,1000,1000
69058199,1000,1000,1000,1000,133428274,1000,1000,1000,1000
69060698,1000,1000,1000,1000,133528234,1000,1000,1000,1000
69063197,1000,1000,1000,1000,133628194,1000,1000,1000,1000
69065696,1000,1000,1000,1000,133728154,1000,1000,1000,1000
69068195,1000,1000,1000,1000,133828947,1000,1000,1000,1000
69070694,1000,1000,1000,1000,133928907,1000,1000,1000,1000
69073193,1000,1000,1000,1000,134028867,1000,1000,1000,1000
69075692,1000,1000,1000,1000,134128827,1000,1000,1000,1000
69078191,1000,1000,1000,1000,134228787,1000,1000,1000,1000
69080690,1000,1000,1000,1000,134328747,1000,1000,1000,1000
69083189,1000,1000,1000,1000,134428707,1000,1000,1000,1000
69085688,1000,1000,1000,1000,134528667,1000,1000,1000,1000
69088187,1000,1000,1000,1000,134628627,1000,1000,1000,1000
69090686,1000,1000,1000,1000,,,,,
69093185,1000,1000,1000,1000,,,,,
69095684,1000,1000,1000,1000,,,,,
69098183,1000,1000,1000,1000,,,,,
69100682,1000,1000,1000,1000,,,,,
69103181,1000,1000,1000,1000,,,,,
69105680,1000,1000,1000,1000,,,,,
69108179,1000,1000,1000,1000,,,,,
69110678,1000,1000,1000,1000,,,,,
69113177,1000,1000,1000,1000,,,,,
69115676,1000,1000,1000,1000,,,,,
69118175,1000,1000,1000,1000,,,,,
69120674,1000,1000,1000,1000,,,,,
69123173,1000,1000,1000,1000,,,,,
69125672,1000,1000,1000,1000,,,,,
69128171,1000,1000,1000,1000,,,,,
69130670,1000,1000,1000,1000,,,,,
69133169,1000,1000,1000,1000,,,,,
69135668,1000,1000,1000,1000,,,,,
69138167,1000,1000,1000,1000,,,,,
69140666,1000,1000,1000,1000,,,,,
69143165,1000,1000,1000,1000,,,,,
69145664,1000,1000,1000,1000,,,,,
69148163,1000,1000,1000,1000,,,,,
69150662,1000,1000,1000,1000,,,,,
69153161,1000,1000,1000,1000,,,,,
69155660,1000,1000,1000,1000,,,,,
69158159,1000,1000,1000,1000,,,,,
69160658,1000,1000,1000,1000,,,,,
69163157,1000,1000,1000,1000,,,,,
69165656,1000,1000,1000,1000,,,,,
69168155,1000,1000,1000,1000,,,,,
69170654,1000,1000,1000,1000,,,,,
69173986,1000,1000,1000,1000,,,,,
69176485,1000,1000,1000,1000,,,,,
69178984,1000,1000,1000,1000,,,,,
69181483,1000,1000,1000,1000,,,,,
69183982,1000,1000,1000,1000,,,,,
69186481,1000,1000,1000,1000,,,,,
69188980,1000,1000,1000,1000,,,,,
69191479,1000,1000,1000,1000,,,,,
69193978,1000,1000,1000,1000,,,,,
69196477,1000,1000,1000,1000,,,,,
69198976,1000,1000,1000,1000,,,,,
69201475,1000,1000,1000,1000,,,,,
69203974,1000,1000,1000,1000,,,,,
69206473,1000,1000,1000,1000,,,,,
69208972,1000,1000,1000,1000,,,,,
69211471,1000,1000,1000,1000,,,,,
69213970,1000,1000,1000,1000,,,,,
69216469,1000,1000,1000,1000,,,,,
69218968,1000,1000,1000,1000,,,,,
69221467,1000,1000,1000,1000,,,,,
69223966,1000,1000,1000,1000,,,,,
69226465,1000,1000,1000,1000,,,,,
69228964,1000,1000,1000,1000,,,,,
69231463,1000,1000,1000,1000,,,,,
69233962,1000,1000,1000,1000,,,,,
69236461,1000,1000,1000,1000,,,,,
69238960,1000,1000,1000,1000,,,,,
69241459,1000,1000,1000,1000,,,,,
69243958,1000,1000,1000,1000,,,,,
69246457,1000,1000,1000,1000,,,,,
69248956,1000,1000,1000,1000,,,,,
69251455,1000,1000,1000,1000,,,,,
69253954,1000,1000,1000,1000,,,,,
69256453,1000,1000,1000,1000,,,,,
69258952,1000,1000,1000,1000,,,,,
69261451,1000,1000,1000,1000,,,,,
69263950,1000,1000,1000,1000,,,,,
69266449,1000,1000,1000,1000,,,,,
69268948,1000,1000,1000,1000,,,,,
69271447,1000,1000,1000,1000,,,,,
69273946,1000,1000,1000,1000,,,,,
69276445,1000,1000,1000,1000,,,,,
69278944,1000,1000,1000,1000,,,,,
69281443,1000,1000,1000,1000,,,,,
69283942,1000,1000,1000,1000,,,,,
69286441,1000,1000,1000,1000,,,,,
69288940,1000,1000,1000,1000,,,,,
69291439,1000,1000,1000,1000,,,,,
69293938,1000,1000,1000,1000,,,,,
69296437,1000,1000,1000,1000,,,,,
69298936,1000,1000,1000,1000,,,,,
69301435,1000,1000,1000,1000,,,,,
69303934,1000,1000,1000,1000,,,,,
69306433,1000,1000,1000,1000,,,,,
69308932,1000,1000,1000,1000,,,,,
69311431,1000,1000,1000,1000,,,,,
69313930,1000,1000,1000,1000,,,,,
69316429,1000,1000,1000,1000,,,,,
69318928,1000,1000,1000,1000,,,,,
69321427,1000,1000,1000,1000,,,,,
69323926,1000,1000,1000,1000,,,,,
69326425,1000,1000,1000,1000,,,,,
69328924,1000,1000,1000,1000,,,,,
69331423,1000,1000,1000,1000,,,,,
69333922,1000,1000,1000,1000,,,,,
69336421,1000,1000,1000,1000,,,,,
69338920,1000,1000,1000,1000,,,,,
69341419,1000,1000,1000,1000,,,,,
69343918,1000,1000,1000,1000,,,,,
69346417,1000,1000,1000,1000,,,,,
69348916,1000,1000,1000,1000,,,,,
69351415,1000,1000,1000,1000,,,,,
69353914,1000,1000,1000,1000,,,,,
69356413,1000,1000,1000,1000,,,,,
69358912,1000,1000,1000,1000,,,,,
69361411,1000,1000,1000,1000,,,,,
69363910,1000,1000,1000,1000,,,,,
69366409,1000,1000,1000,1000,,,,,
69368908,1000,1000,1000,1000,,,,,
69371407,1000,1000,1000,1000,,,,,
69373906,1000,1000,1000,1000,,,,,
69376405,1000,1000,1000,1000,,,,,
69378904,1000,1000,1000,1000,,,,,
69381403,1000,1000,1000,1000,,,,,
69383902,1000,1000,1000,1000,,,,,
69386401,1000,1000,1000,1000,,,,,
69388900,1000,1000,1000,1000,,,,,
69391399,1000,1000,1000,1000,,,,,
69393898,1000,1000,1000,1000,,,,,
69396397,1000,1000,1000,1000,,,,,
69398896,1000,1000,1000,1000,,,,,
69401395,1000,1000,1000,1000,,,,,
69403894,1000,1000,1000,1000,,,,,
69406393,1000,1000,1000,1000,,,,,
69408892,1000,1000,1000,1000,,,,,
69411391,1000,1000,1000,1000,,,,,
69413890,1000,1000,1000,1000,,,,,
69416389,1001,1001,1001,1001,,,,,
69418888,1002,1002,1002,1002,,,,,
69421387,1003,1003,1003,1003,,,,,
69423886,1003,1003,1003,1003,,,,,
69426385,1004,1004,1004,1004,,,,,
69428884,1005,1005,1005,1005,,,,,
69431383,1006,1006,1006,1006,,,,,
69433882,1006,1006,1006,1006,,,,,
69436381,1007,1007,1007,1007,,,,,
69438880,1008,1008,1008,1008,,,,,
69441379,1009,1009,1009,1009,,,,,
69443878,1009,1009,1009,1009,,,,,
69446377,1010,1010,1010,1010,,,,,
69448876,1011,1011,1011,1011,,,,,
69451375,1012,1012,1012,1012,,,,,
69453874,1012,1012,1012,1012,,,,,
69456373,1013,1013,1013,1013,,,,,
69458872,1014,1014,1014,1014,,,,,
69461371,1015,1015,1015,1015,,,,,
69463870,1015,1015,1015,1015,,,,,
69466369,1016,1016,1016,1016,,,,,
69468868,1017,1017,1017,1017,,,,,
69471367,1018,1018,1018,1018,,,,,
69473866,1018,1018,1018,1018,,,,,
69476365,1019,1019,1019,1019,,,,,
69478864,1020,1020,1020,1020,,,,,
69481363,1021,1021,1021,1021,,,,,
69483862,1021,1021,1021,1021,,,,,
69486361,1022,1022,1022,1022,,,,,
69488860,1023,1023,1023,1023,,,,,
69491359,1024,1024,1024,1024,,,,,
69493858,1024,1024,1024,1024,,,,,
69496357,1025,1025,1025,1025,,,,,
69498856,1026,1026,1026,1026,,,,,
69501355,1027,1027,1027,1027,,,,,
69503854,1027,1027,1027,1027,,,,,
69506353,1028,1028,1028,1028,,,,,
69508852,1029,1029,1029,1029,,,,,
69511351,1030,1030,1030,1030,,,,,
69513850,1030,1030,1030,1030,,,,,
69516349,1031,1031,1031,1031,,,,,
69518848,1032,1032,1032,1032,,,,,
69521347,1033,1033,1033,1033,,,,,
69523846,1033,1033,1033,1033,,,,,
69526345,1034,1034,1034,1034,,,,,
69528844,1035,1035,1035,1035,,,,,
69531343,1036,1036,1036,1036,,,,,
69533842,1036,1036,1036,1036,,,,,
69536341,1037,1037,1037,1037,,,,,
69538840,1038,1038,1038,1038,,,,,
69541339,1039,1039,1039,1039,,,,,
69543838,1039,1039,1039,1039,,,,,
69546337,1040,1040,1040,1040,,,,,
69548836,1041,1041,1041,1041,,,,,
69551335,1042,1042,1042,1042,,,,,
69553834,1042,1042,1042,1042,,,,,
69556333,1043,1043,1043,1043,,,,,
69558832,1044,1044,1044,1044,,,,,
69561331,1045,1045,1045,1045,,,,,
69563830,1045,1045,1045,1045,,,,,
69566329,1046,1046,1046,1046,,,,,
69568828,1047,1047,1047,1047,,,,,
69571327,1048,1048,1048,1048,,,,,
69573826,1048,1048,1048,1048,,,,,
69576325,1049,1049,1049,1049,,,,,
69578824,1050,1050,1050,1050,,,,,
69581323,1051,1051,1051,1051,,,,,
69583822,1051,1051,1051,1051,,,,,
69586321,1052,1052,1052,1052,,,,,
69588820,1053,1053,1053,1053,,,,,
69591319,1054,1054,1054,1054,,,,,
69593818,1054,1054,1054,1054,,,,,
69596317,1055,1055,1055,1055,,,,,
69598816,1056,1056,1056,1056,,,,,
69601315,1057,1057,1057,1057,,,,,
69603814,1057,1057,1057,1057,,,,,
69606313,1058,1058,1058,1058,,,,,
69608812,1059,1059,1059,1059,,,,,
69611311,1060,1060,1060,1060,,,,,
69613810,1060,1060,1060,1060,,,,,
69616309,1061,1061,1061,1061,,,,,
69618808,1062,1062,1062,1062,,,,,
69621307,1063,1063,1063,1063,,,,,
69623806,1063,1063,1063,1063,,,,,
69626305,1064,1064,1064,1064,,,,,
69628804,1065,1065,1065,1065,,,,,
69631303,1066,1066,1066,1066,,,,,
69633802,1066,1066,1066,1066,,,,,
69636301,1067,1067,1067,1067,,,,,
69638800,1068,1068,1068,1068,,,,,
69641299,1069,1069,1069,1069,,,,,
69643798,1069,1069,1069,1069,,,,,
69646297,1070,1070,1070,1070,,,,,
69648796,1071,1071,1071,1071,,,,,
69651295,1072,1072,1072,1072,,,,,
69653794,1072,1072,1072,1072,,,,,
69656293,1073,1073,1073,1073,,,,,
69658792,1074,1074,1074,1074,,,,,
69661291,1075,1075,1075,1075,,,,,
69663790,1075,1075,1075,1075,,,,,
69666289,1076,1076,1076,1076,,,,,
69668788,1077,1077,1077,1077,,,,,
69671287,1078,1078,1078,1078,,,,,
69673786,1078,1078,1078,1078,,,,,
69676285,1079,1079,1079,1079,,,,,
69678784,1080,1080,1080,1080,,,,,
69681283,1081,1081,1081,1081,,,,,
69683782,1081,1081,1081,1081,,,,,
69686281,1082,1082,1082,1082,,,,,
69688780,1083,1083,1083,1083,,,,,
69691279,1084,1084,1084,1084,,,,,
69693778,1084,1084,1084,1084,,,,,
69696277,1085,1085,1085,1085,,,,,
69698776,1086,1086,1086,1086,,,,,
69701275,1087,1087,1087,1087,,,,,
69703774,1087,1087,1087,1087,,,,,
69706273,1088,1088,1088,1088,,,,,
69708772,1089,1089,1089,1089,,,,,
69711271,1090,1090,1090,1090,,,,,
69713770,1090,1090,1090,1090,,,,,
69716269,1091,1091,1091,1091,,,,,
69718768,1092,1092,1092,1092,,,,,
69721267,1093,1093,1093,1093,,,,,
69723766,1093,1093,1093,1093,,,,,
69726265,1094,1094,1094,1094,,,,,
69728764,1095,1095,1095,1095,,,,,
69731263,1096,1096,1096,1096,,,,,
69733762,1096,1096,1096,1096,,,,,
69736261,1097,1097,1097,1097,,,,,
69738760,1098,1098,1098,1098,,,,,
69741259,1099,1099,1099,1099,,,,,
69743758,1099,1099,1099,1099,,,,,
69746257,1100,1100,1100,1100,,,,,
69748756,1101,1101,1101,1101,,,,,
69751255,1101,1101,1101,1101,,,,,
69753754,1102,1102,1102,1102,,,,,
69756253,1103,1103,1103,1103,,,,,
69758752,1104,1104,1104,1104,,,,,
69761251,1104,1104,1104,1104,,,,,
69763750,1105,1105,1105,1105,,,,,
69766249,1106,1106,1106,1106,,,,,
69768748,1107,1107,1107,1107,,,,,
69771247,1107,1107,1107,1107,,,,,
69773746,1108,1108,1108,1108,,,,,
69776245,1109,1109,1109,1109,,,,,
69778744,1110,1110,1110,1110,,,,,
69781243,1110,1110,1110,1110,,,,,
69783742,1111,1111,1111,1111,,,,,
69786241,1112,1112,1112,1112,,,,,
69788740,1113,1113,1113,1113,,,,,
69791239,1113,1113,1113,1113,,,,,
69793738,1114,1114,1114,1114,,,,,
69796237,1115,1115,1115,1115,,,,,
69798736,1116,1116,1116,1116,,,,,
69801235,1116,1116,1116,1116,,,,,
69803734,1117,1117,1117,1117,,,,,
69806233,1118,1118,1118,1118,,,,,
69808732,1119,1119,1119,1119,,,,,
69811231,1119,1119,1119,1119,,,,,
69813730,1120,1120,1120,1120,,,,,
69816229,1121,1121,1121,1121,,,,,
69818728,1122,1122,1122,1122,,,,,
69821227,1122,1122,1122,1122,,,,,
69823726,1123,1123,1123,1123,,,,,
69826225,1124,1124,1124,1124,,,,,
69828724,1125,1125,1125,1125,,,,,
69831223,1125,1125,1125,1125,,,,,
69833722,1126,1126,1126,1126,,,,,
69836221,1127,1127,1127,1127,,,,,
69838720,1128,1128,1128,1128,,,,,
69841219,1128,1128,1128,1128,,,,,
69843718,1129,1129,1129,1129,,,,,
69846217,1130,1130,1130,1130,,,,,
69848716,1131,1131,1131,1131,,,,,
69851215,1131,1131,1131,1131,,,,,
69853714,1132,1132,1132,1132,,,,,
69856213,1133,1133,1133,1133,,,,,
69858712,1134,1134,1134,1134,,,,,
69861211,1134,1134,1134,1134,,,,,
69863710,1135,1135,1135,1135,,,,,
69866209,1136,1136,1136,1136,,,,,
69868708,1137,1137,1137,1137,,,,,
69871207,1137,1137,1137,1137,,,,,
69873706,1138,1138,1138,1138,,,,,
69876205,1139,1139,1139,1139,,,,,
69878704,1140,1140,1140,1140,,,,,
69881203,1140,1140,1140,1140,,,,,
69883702,1141,1141,1141,1141,,,,,
69886201,1142,1142,1142,1142,,,,,
69888700,1143,1143,1143,1143,,,,,
69891199,1143,1143,1143,1143,,,,,
69893698,1144,1144,1144,1144,,,,,
69896197,1145,1145,1145,1145,,,,,
69898696,1146,1146,1146,1146,,,,,
69901195,1146,1146,1146,1146,,,,,
69903694,1147,1147,1147,1147,,,,,
69906193,1148,1148,1148,1148,,,,,
69908692,1149,1149,1149,1149,,,,,
69911191,1149,1149,1149,1149,,,,,
69913690,1150,1150,1150,1150,,,,,
69916189,1163,1152,1153,1163,,,,,
69918688,1171,1160,1161,1171,,,,,
69921187,1179,1168,1169,1179,,,,,
69923686,1186,1176,1177,1187,,,,,
69926185,1194,1183,1184,1194,,,,,
69928684,1201,1191,1192,1202,,,,,
69931183,1209,1198,1199,1209,,,,,
69933682,1216,1206,1207,1216,,,,,
69936181,1223,1213,1214,1223,,,,,
69938680,1230,1220,1221,1230,,,,,
69941179,1237,1227,1228,1237,,,,,
69943678,1243,1234,1235,1244,,,,,
69946177,1250,1241,1241,1251,,,,,
69948676,1257,1248,1248,1257,,,,,
69951175,1263,1254,1255,1264,,,,,
69953674,1270,1261,1261,1270,,,,,
69956173,1276,1267,1268,1277,,,,,
69958672,1282,1273,1274,1283,,,,,
69961171,1288,1280,1280,1289,,,,,
69963670,1295,1286,1287,1295,,,,,
69966169,1301,1292,1293,1301,,,,,
69968668,1307,1298,1299,1307,,,,,
69971167,1313,1304,1305,1313,,,,,
69973666,1318,1310,1311,1319,,,,,
69976165,1324,1316,1317,1325,,,,,
69978664,1330,1322,1322,1330,,,,,
69981163,1336,1328,1328,1336,,,,,
69983662,1341,1333,1334,1342,,,,,
69986161,1347,1339,1340,1347,,,,,
69988660,1352,1345,1345,1353,,,,,
69991159,1358,1350,1351,1358,,,,,
69993658,1363,1356,1356,1364,,,,,
69996157,1369,1361,1362,1369,,,,,
69998656,1374,1367,1367,1375,,,,,
70001155,1379,1372,1372,1380,,,,,
70003654,1385,1377,1378,1385,,,,,
70006153,1390,1382,1383,1390,,,,,
70008652,1395,1388,1388,1395,,,,,
70011151,1400,1393,1393,1401,,,,,
70013650,1405,1398,1398,1406,,,,,
70016149,1410,1403,1404,1411,,,,,
70018648,1415,1408,1409,1416,,,,,
70021147,1420,1413,1414,1421,,,,,
70023646,1425,1418,1419,1426,,,,,
70026145,1430,1423,1423,1431,,,,,
70028644,1435,1428,1428,1435,,,,,
70031143,1440,1433,1433,1440,,,,,
70033642,1445,1438,1438,1445,,,,,
70036141,1449,1442,1443,1450,,,,,
70038640,1454,1447,1448,1455,,,,,
70041139,1459,1452,1452,1459,,,,,
70043638,1464,1457,1457,1464,,,,,
70046137,1468,1461,1462,1469,,,,,
70048636,1473,1466,1466,1473,,,,,
70051135,1477,1471,1471,1478,,,,,
70053634,1482,1475,1476,1482,,,,,
70056133,1486,1480,1480,1487,,,,,
70058632,1491,1484,1485,1491,,,,,
70061131,1495,1489,1489,1496,,,,,
70063630,1500,1493,1494,1500,,,,,
70066129,1504,1498,1498,1505,,,,,
70068628,1509,1502,1502,1509,,,,,
70071127,1513,1506,1507,1513,,,,,
70073626,1517,1511,1511,1518,,,,,
70076125,1522,1515,1516,1522,,,,,
70078624,1526,1519,1520,1526,,,,,
70081123,1530,1524,1524,1531,,,,,
70083622,1535,1528,1528,1535,,,,,
70086121,1539,1532,1533,1539,,,,,
70088620,1543,1536,1537,1543,,,,,
70091119,1547,1540,1541,1548,,,,,
70093618,1551,1545,1545,1552,,,,,
70096117,1556,1549,1549,1556,,,,,
70098616,1560,1553,1553,1560,,,,,
70101115,1564,1557,1558,1564,,,,,
70103614,1568,1561,1562,1568,,,,,
70106113,1572,1565,1566,1572,,,,,
70108612,1576,1569,1570,1576,,,,,
70111111,1580,1573,1574,1580,,,,,
70113610,1584,1577,1578,1584,,,,,
70116109,1588,1581,1582,1588,,,,,
70118608,1592,1585,1586,1592,,,,,
70121107,1596,1589,1590,1596,,,,,
70123606,1600,1593,1594,1600,,,,,
70126105,1604,1597,1598,1604,,,,,
70128604,1608,1601,1601,1608,,,,,
70131103,1611,1605,1605,1612,,,,,
70133602,1615,1609,1609,1616,,,,,
70136101,1619,1612,1613,1619,,,,,
70138600,1623,1616,1617,1623,,,,,
70141099,1627,1620,1621,1627,,,,,
70143598,1630,1624,1625,1631,,,,,
70146097,1634,1628,1628,1634,,,,,
70148596,1638,1632,1632,1638,,,,,
70151095,1642,1635,1636,1642,,,,,
70153594,1645,1639,1640,1646,,,,,
70156093,1649,1643,1643,1649,,,,,
70158592,1653,1647,1647,1653,,,,,
70161091,1656,1650,1651,1657,,,,,
70163590,1660,1654,1654,1660,,,,,
70166089,1664,1658,1658,1664,,,,,
70168588,1667,1661,1662,1668,,,,,
70171087,1671,1665,1665,1671,,,,,
70173586,1674,1669,1669,1675,,,,,
70176085,1678,1672,1672,1679,,,,,
70178584,1682,1676,1676,1682,,,,,
70181083,1685,1679,1680,1686,,,,,
70183582,1689,1683,1683,1689,,,,,
70186081,1692,1687,1687,1693,,,,,
70188580,1696,1690,1690,1696,,,,,
70191079,1699,1694,1694,1700,,,,,
70193578,1703,1697,1697,1703,,,,,
70196077,1706,1701,1701,1707,,,,,
70198576,1710,1704,1704,1710,,,,,
70201075,1713,1708,1707,1714,,,,,
70203574,1717,1711,1711,1717,,,,,
70206073,1720,1714,1714,1721,,,,,
70208572,1723,1718,1718,1724,,,,,
70211071,1727,1721,1721,1728,,,,,
70213570,1730,1725,1725,1731,,,,,
70216069,1734,1728,1728,1734,,,,,
70218568,1737,1731,1731,1738,,,,,
70221067,1740,1735,1735,1741,,,,,
70223566,1744,1738,1738,1744,,,,,
70226065,1747,1742,1741,1748,,,,,
70228564,1750,1745,1745,1751,,,,,
70231063,1754,1748,1748,1754,,,,,
70233562,1757,1752,1751,1758,,,,,
70236061,1760,1755,1755,1761,,,,,
70238560,1763,1758,1758,1764,,,,,
70241059,1767,1761,1761,1767,,,,,
70243558,1770,1765,1765,1771,,,,,
70246057,1773,1768,1768,1774,,,,,
70248556,1777,1771,1771,1777,,,,,
70251055,1780,1774,1774,1780,,,,,
70253554,1783,1778,1778,1784,,,,,
70256053,1786,1781,1781,1787,,,,,
70258552,1789,1784,1784,1790,,,,,
70261051,1793,1787,1787,1793,,,,,
70263550,1796,1790,1790,1797,,,,,
70266049,1799,1794,1794,1800,,,,,
70268548,1802,1797,1797,1803,,,,,
70271047,1805,1800,1800,1806,,,,,
70273546,1808,1803,1803,1809,,,,,
70276045,1812,1806,1806,1812,,,,,
70278544,1815,1809,1809,1816,,,,,
70281043,1818,1812,1812,1819,,,,,
70283542,1821,1815,1815,1822,,,,,
70286041,1824,1819,1818,1825,,,,,
70288540,1827,1822,1821,1828,,,,,
70291039,1830,1825,1825,1831,,,,,
70293538,1833,1828,1828,1834,,,,,
70296037,1837,1831,1831,1837,,,,,
70298536,1840,1834,1834,1840,,,,,
70301035,1843,1837,1837,1843,,,,,
70303534,1846,1840,1840,1846,,,,,
70306033,1849,1843,1843,1849,,,,,
70308532,1852,1846,1846,1853,,,,,
70311031,1855,1849,1849,1856,,,,,
70313530,1858,1852,1852,1859,,,,,
70316029,1861,1855,1855,1862,,,,,
70318528,1864,1858,1858,1865,,,,,
70321027,1867,1861,1861,1868,,,,,
70323526,1870,1864,1864,1871,,,,,
70326025,1873,1867,1867,1873,,,,,
70328524,1876,1870,1870,1876,,,,,
70331023,1879,1873,1873,1879,,,,,
70333522,1882,1876,1876,1882,,,,,
70336021,1885,1878,1879,1885,,,,,
70338520,1888,1881,1882,1888,,,,,
70341019,1891,1884,1884,1891,,,,,
70343518,1891,1885,1885,1891,,,,,
70346017,1890,1883,1884,1890,,,,,
70348516,1889,1882,1883,1889,,,,,
70351015,1888,1881,1882,1888,,,,,
70353514,1887,1880,1881,1887,,,,,
70356013,1886,1879,1880,1886,,,,,
70358512,1885,1879,1879,1885,,,,,
70361011,1884,1878,1878,1885,,,,,
70363510,1884,1877,1877,1884,,,,,
70366009,1883,1876,1877,1883,,,,,
70368508,1882,1875,1876,1882,,,,,
70371007,1882,1875,1875,1882,,,,,
70373506,1881,1874,1875,1881,,,,,
70376005,1881,1874,1874,1881,,,,,
70378504,1880,1874,1874,1880,,,,,
70381003,1880,1873,1874,1880,,,,,
70383502,1880,1873,1873,1880,,,,,
70386001,1880,1873,1873,1880,,,,,
70388500,1880,1873,1873,1880,,,,,
70390999,1880,1873,1873,1880,,,,,
70393498,1880,1873,1874,1880,,,,,
70395997,1880,1874,1874,1881,,,,,
70398496,1880,1874,1874,1881,,,,,
70400995,1881,1874,1874,1881,,,,,
70403494,1881,1875,1875,1882,,,,,
70405993,1881,1875,1875,1882,,,,,
70408492,1882,1876,1876,1882,,,,,
70410991,1882,1876,1876,1883,,,,,
70413490,1882,1877,1877,1883,,,,,
70415989,1883,1877,1877,1883,,,,,
70418488,1883,1878,1878,1883,,,,,
70420987,1883,1878,1878,1884,,,,,
70423486,1883,1878,1878,1884,,,,,
70425985,1883,1878,1879,1884,,,,,
70428484,1883,1878,1879,1883,,,,,
70430983,1883,1878,1878,1883,,,,,
70433482,1882,1878,1878,1883,,,,,
70435981,1881,1878,1878,1882,,,,,
70438480,1881,1877,1877,1881,,,,,
70440979,1880,1876,1876,1880,,,,,
70443478,1879,1875,1875,1879,,,,,
70445977,1877,1874,1874,1878,,,,,
70448476,1876,1872,1872,1876,,,,,
70450975,1874,1871,1871,1875,,,,,
70453474,1872,1869,1869,1873,,,,,
70455973,1871,1867,1868,1871,,,,,
70458472,1869,1865,1866,1869,,,,,
70460971,1866,1863,1864,1867,,,,,
70463470,1864,1861,1861,1864,,,,,
70465969,1862,1859,1859,1862,,,,,
70468468,1859,1856,1857,1860,,,,,
70470967,1857,1854,1854,1857,,,,,
70473466,1854,1851,1852,1854,,,,,
70475965,1851,1849,1849,1852,,,,,
70478464,1849,1846,1846,1849,,,,,
70480963,1846,1843,1844,1846,,,,,
70483462,1843,1840,1841,1843,,,,,
70485961,1840,1837,1838,1840,,,,,
70488460,1837,1834,1835,1837,,,,,
70490959,1834,1831,1832,1834,,,,,
70493458,1830,1828,1829,1831,,,,,
70495957,1827,1825,1825,1828,,,,,
70498456,1824,1822,1822,1824,,,,,
70500955,1821,1819,1819,1821,,,,,
70503454,1817,1815,1816,1818,,,,,
70505953,1814,1812,1812,1814,,,,,
70508452,1811,1809,1809,1811,,,,,
70510951,1807,1806,1806,1808,,,,,
70513450,1804,1802,1803,1804,,,,,
70515949,1801,1799,1799,1801,,,,,
70518448,1797,1796,1796,1798,,,,,
70520947,1794,1792,1793,1794,,,,,
70523446,1791,1789,1789,1791,,,,,
70525945,1787,1786,1786,1788,,,,,
70528444,1784,1782,1783,1784,,,,,
70530943,1780,1779,1779,1781,,,,,
70533442,1777,1776,1776,1777,,,,,
70535941,1774,1772,1773,1774,,,,,
70538440,1770,1769,1769,1770,,,,,
70540939,1767,1766,1766,1767,,,,,
70543438,1763,1762,1763,1764,,,,,
70545937,1760,1759,1759,1760,,,,,
70548436,1757,1756,1756,1757,,,,,
70550935,1753,1753,1753,1754,,,,,
70553434,1750,1749,1750,1750,,,,,
70555933,1747,1746,1747,1747,,,,,
70558432,1743,1743,1743,1744,,,,,
70560931,1740,1740,1740,1741,,,,,
70563430,1737,1737,1737,1737,,,,,
70565929,1734,1734,1734,1734,,,,,
70568428,1731,1731,1731,1731,,,,,
70570927,1728,1728,1728,1728,,,,,
70573426,1725,1725,1725,1725,,,,,
70575925,1722,1722,1722,1722,,,,,
70578424,1719,1719,1719,1719,,,,,
70580923,1716,1716,1716,1716,,,,,
70583422,1713,1713,1713,1713,,,,,
70585921,1710,1710,1711,1710,,,,,
70588420,1707,1708,1708,1708,,,,,
70590919,1704,1705,1705,1705,,,,,
70593418,1702,1702,1702,1702,,,,,
70595917,1699,1700,1700,1699,,,,,
70598416,1696,1697,1697,1697,,,,,
70600915,1694,1694,1695,1694,,,,,
