timestamp,TimeUS,C1,C2,C3,C4,C5,C6,C7,C8,C9,C10,C11,C12,C13,C14
1683033227.70003986,46928721,1000,1000,1000,1000,0,0,0,0,0,0,0,0,0,0
1683033227.79999995,47028681,1000,1000,1000,1000,0,0,0,0,0,0,0,0,0,0
1683033227.89995980,47128641,1000,1000,1000,1000,0,0,0,0,0,0,0,0,0,0
1683033227.99991989,47228601,1000,1000,1000,1000,0,0,0,0,0,0,0,0,0,0
1683033228.09987998,47328561,1000,1000,1000,1000,0,0,0,0,0,0,0,0,0,0
1683033228.19983983,47428521,1000,1000,1000,1000,0,0,0,0,0,0,0,0,0,0
1683033228.29979992,47528481,1000,1000,1000,1000,0,0,0,0,0,0,0,0,0,0
1683033228.39976001,47628441,1000,1000,1000,1000,0,0,0,0,0,0,0,0,0,0
1683033228.49971986,47728401,1000,1000,1000,1000,0,0,0,0,0,0,0,0,0,0
1683033228.59967995,47828361,1000,1000,1000,1000,0,0,0,0,0,0,0,0,0,0
1683033228.69963980,47928321,1000,1000,1000,1000,0,0,0,0,0,0,0,0,0,0
1683033228.79959989,48028281,1000,1000,1000,1000,0,0,0,0,0,0,0,0,0,0
1683033228.89955997,48128241,1000,1000,1000,1000,0,0,0,0,0,0,0,0,0,0
1683033228.99951982,48228201,1000,1000,1000,1000,0,0,0,0,0,0,0,0,0,0
1683033229.09947991,48328161,1000,1000,1000,1000,0,0,0,0,0,0,0,0,0,0
1683033229.20027280,48428954,1000,1000,1000,1000,0,0,0,0,0,0,0,0,0,0
1683033229.30023289,48528914,1000,1000,1000,1000,0,0,0,0,0,0,0,0,0,0
1683033229.40019298,48628874,1000,1000,1000,1000,0,0,0,0,0,0,0,0,0,0
1683033229.50015283,48728834,1000,1000,1000,1000,0,0,0,0,0,0,0,0,0,0
1683033229.60011292,48828794,1000,1000,1000,1000,0,0,0,0,0,0,0,0,0,0
1683033229.70007300,48928754,1023,1023,1023,1023,0,0,0,0,0,0,0,0,0,0
1683033229.80003285,49028714,1053,1053,1053,1053,0,0,0,0,0,0,0,0,0,0
1683033229.89999294,49128674,1083,1083,1083,1083,0,0,0,0,0,0,0,0,0,0
1683033229.99995303,49228634,1113,1113,1113,1113,0,0,0,0,0,0,0,0,0,0
1683033230.09991288,49328594,1143,1143,1143,1143,0,0,0,0,0,0,0,0,0,0
1683033230.19987297,49428554,1351,1346,1346,1352,0,0,0,0,0,0,0,0,0,0
1683033230.29983282,49528514,1542,1538,1538,1542,0,0,0,0,0,0,0,0,0,0
1683033230.39979291,49628474,1695,1691,1691,1695,0,0,0,0,0,0,0,0,0,0
1683033230.49975300,49728434,1827,1822,1823,1827,0,0,0,0,0,0,0,0,0,0
1683033230.59971285,49828394,1905,1902,1902,1906,0,0,0,0,0,0,0,0,0,0
1683033230.69967294,49928354,1852,1849,1850,1852,0,0,0,0,0,0,0,0,0,0
1683033230.79963303,50028314,1724,1724,1724,1724,0,0,0,0,0,0,0,0,0,0
1683033230.89959288,50128274,1650,1651,1651,1650,0,0,0,0,0,0,0,0,0,0
1683033230.99955297,50228234,1634,1637,1637,1634,0,0,0,0,0,0,0,0,0,0
1683033231.09951282,50328194,1642,1644,1644,1642,0,0,0,0,0,0,0,0,0,0
1683033231.19947290,50428154,1646,1647,1647,1646,0,0,0,0,0,0,0,0,0,0
1683033231.30026603,50528947,1630,1629,1623,1636,0,0,0,0,0,0,0,0,0,0
1683033231.40022588,50628907,1617,1618,1609,1626,0,0,0,0,0,0,0,0,0,0
1683033231.50018597,50728867,1609,1609,1604,1614,0,0,0,0,0,0,0,0,0,0
1683033231.60014582,50828827,1606,1607,1606,1607,0,0,0,0,0,0,0,0,0,0
1683033231.70010591,50928787,1610,1610,1613,1607,0,0,0,0,0,0,0,0,0,0
1683033231.80006599,51028747,1614,1614,1619,1610,0,0,0,0,0,0,0,0,0,0
1683033231.90002584,51128707,1587,1587,1604,1570,0,0,0,0,0,0,0,0,0,0
1683033231.99998593,51228667,1574,1575,1590,1559,0,0,0,0,0,0,0,0,0,0
1683033232.09994602,51328627,1563,1563,1568,1558,0,0,0,0,0,0,0,0,0,0
1683033232.19990587,51428587,1552,1552,1547,1557,0,0,0,0,0,0,0,0,0,0
1683033232.29986596,51528547,1545,1544,1533,1556,0,0,0,0,0,0,0,0,0,0
1683033232.39982581,51628507,1538,1537,1525,1550,0,0,0,0,0,0,0,0,0,0
1683033232.49978590,51728467,1533,1533,1524,1542,0,0,0,0,0,0,0,0,0,0
1683033232.59974599,51828427,1528,1528,1524,1532,0,0,0,0,0,0,0,0,0,0
1683033232.69970584,51928387,1525,1525,1525,1525,0,0,0,0,0,0,0,0,0,0
1683033232.79966593,52028347,1526,1526,1528,1524,0,0,0,0,0,0,0,0,0,0
1683033232.89962602,52128307,1530,1530,1532,1527,0,0,0,0,0,0,0,0,0,0
1683033232.99958587,52228267,1533,1533,1536,1530,0,0,0,0,0,0,0,0,0,0
1683033233.09954596,52328227,1537,1537,1540,1534,0,0,0,0,0,0,0,0,0,0
1683033233.19950581,52428187,1541,1541,1543,1539,0,0,0,0,0,0,0,0,0,0
1683033233.30029893,52528980,1544,1544,1545,1543,0,0,0,0,0,0,0,0,0,0
1683033233.40025902,52628940,1547,1547,1547,1547,0,0,0,0,0,0,0,0,0,0
1683033233.50021887,52728900,1551,1550,1549,1551,0,0,0,0,0,0,0,0,0,0
1683033233.60017896,52828860,1553,1553,1551,1554,0,0,0,0,0,0,0,0,0,0
1683033233.70013881,52928820,1554,1553,1554,1557,0,0,0,0,0,0,0,0,0,0
1683033233.80009890,53028780,1554,1554,1559,1562,0,0,0,0,0,0,0,0,0,0
1683033233.90005898,53128740,1555,1556,1562,1563,0,0,0,0,0,0,0,0,0,0
1683033234.00001884,53228700,1558,1559,1564,1564,0,0,0,0,0,0,0,0,0,0
1683033234.09997892,53328660,1561,1562,1565,1564,0,0,0,0,0,0,0,0,0,0
1683033234.19993901,53428620,1564,1565,1566,1565,0,0,0,0,0,0,0,0,0,0
1683033234.29989886,53528580,1566,1566,1566,1565,0,0,0,0,0,0,0,0,0,0
1683033234.39985895,53628540,1569,1569,1567,1567,0,0,0,0,0,0,0,0,0,0
1683033234.49981880,53728500,1570,1569,1566,1566,0,0,0,0,0,0,0,0,0,0
1683033234.59977889,53828460,1572,1572,1568,1568,0,0,0,0,0,0,0,0,0,0
1683033234.69973898,53928420,1572,1572,1568,1569,0,0,0,0,0,0,0,0,0,0
1683033234.79969883,54028380,1573,1573,1569,1570,0,0,0,0,0,0,0,0,0,0
1683033234.89965892,54128340,1573,1573,1570,1570,0,0,0,0,0,0,0,0,0,0
1683033234.99961901,54228300,1574,1573,1571,1571,0,0,0,0,0,0,0,0,0,0
1683033235.09957886,54328260,1574,1574,1573,1572,0,0,0,0,0,0,0,0,0,0
1683033235.19953895,54428220,1574,1574,1574,1573,0,0,0,0,0,0,0,0,0,0
1683033235.29949880,54528180,1574,1575,1576,1574,0,0,0,0,0,0,0,0,0,0
1683033235.40029192,54628973,1575,1575,1576,1575,0,0,0,0,0,0,0,0,0,0
1683033235.50025201,54728933,1575,1576,1577,1576,0,0,0,0,0,0,0,0,0,0
1683033235.60021186,54828893,1575,1575,1576,1576,0,0,0,0,0,0,0,0,0,0
1683033235.70017195,54928853,1576,1575,1576,1577,0,0,0,0,0,0,0,0,0,0
1683033235.80013180,55028813,1576,1576,1577,1577,0,0,0,0,0,0,0,0,0,0
1683033235.90009189,55128773,1575,1575,1576,1576,0,0,0,0,0,0,0,0,0,0
1683033236.00005198,55228733,1576,1576,1576,1576,0,0,0,0,0,0,0,0,0,0
1683033236.10001183,55328693,1577,1577,1577,1577,0,0,0,0,0,0,0,0,0,0
1683033236.19997191,55428653,1576,1577,1577,1576,0,0,0,0,0,0,0,0,0,0
1683033236.29993200,55528613,1577,1578,1577,1577,0,0,0,0,0,0,0,0,0,0
1683033236.39989185,55628573,1577,1577,1576,1576,0,0,0,0,0,0,0,0,0,0
1683033236.49985194,55728533,1577,1577,1576,1577,0,0,0,0,0,0,0,0,0,0
1683033236.59981203,55828493,1577,1577,1576,1577,0,0,0,0,0,0,0,0,0,0
1683033236.69977188,55928453,1578,1578,1577,1577,0,0,0,0,0,0,0,0,0,0
1683033236.79973197,56028413,1577,1577,1577,1576,0,0,0,0,0,0,0,0,0,0
1683033236.89969182,56128373,1578,1577,1577,1577,0,0,0,0,0,0,0,0,0,0
1683033236.99965191,56228333,1578,1578,1578,1578,0,0,0,0,0,0,0,0,0,0
1683033237.09961200,56328293,1579,1579,1579,1579,0,0,0,0,0,0,0,0,0,0
1683033237.19957185,56428253,1578,1578,1578,1578,0,0,0,0,0,0,0,0,0,0
1683033237.29953194,56528213,1579,1579,1579,1579,0,0,0,0,0,0,0,0,0,0
1683033237.39949203,56628173,1577,1578,1577,1577,0,0,0,0,0,0,0,0,0,0
1683033237.50028491,56728966,1579,1579,1579,1579,0,0,0,0,0,0,0,0,0,0
1683033237.60024500,56828926,1578,1578,1578,1578,0,0,0,0,0,0,0,0,0,0
1683033237.70020485,56928886,1579,1578,1579,1579,0,0,0,0,0,0,0,0,0,0
1683033237.80016494,57028846,1579,1579,1579,1579,0,0,0,0,0,0,0,0,0,0
1683033237.90012503,57128806,1579,1579,1579,1579,0,0,0,0,0,0,0,0,0,0
1683033238.00008488,57228766,1578,1579,1578,1579,0,0,0,0,0,0,0,0,0,0
1683033238.10004497,57328726,1578,1578,1578,1578,0,0,0,0,0,0,0,0,0,0
1683033238.20000482,57428686,1578,1578,1579,1578,0,0,0,0,0,0,0,0,0,0
1683033238.29996490,57528646,1580,1580,1580,1580,0,0,0,0,0,0,0,0,0,0
1683033238.39992499,57628606,1580,1581,1581,1581,0,0,0,0,0,0,0,0,0,0
1683033238.49988484,57728566,1580,1580,1580,1580,0,0,0,0,0,0,0,0,0,0
1683033238.59984493,57828526,1580,1580,1580,1580,0,0,0,0,0,0,0,0,0,0
1683033238.69980502,57928486,1580,1580,1580,1580,0,0,0,0,0,0,0,0,0,0
1683033238.79976487,58028446,1580,1580,1580,1580,0,0,0,0,0,0,0,0,0,0
1683033238.89972496,58128406,1580,1580,1580,1580,0,0,0,0,0,0,0,0,0,0
1683033238.99968481,58228366,1579,1580,1580,1580,0,0,0,0,0,0,0,0,0,0
1683033239.09964490,58328326,1580,1580,1580,1580,0,0,0,0,0,0,0,0,0,0
1683033239.19960499,58428286,1581,1580,1581,1580,0,0,0,0,0,0,0,0,0,0
1683033239.29956484,58528246,1581,1580,1581,1580,0,0,0,0,0,0,0,0,0,0
1683033239.39952493,58628206,1581,1581,1581,1581,0,0,0,0,0,0,0,0,0,0
1683033239.49948502,58728166,1581,1580,1581,1581,0,0,0,0,0,0,0,0,0,0
1683033239.60027790,58828959,1581,1581,1581,1581,0,0,0,0,0,0,0,0,0,0
1683033239.70023799,58928919,1579,1580,1580,1580,0,0,0,0,0,0,0,0,0,0
1683033239.80019784,59028879,1580,1580,1580,1580,0,0,0,0,0,0,0,0,0,0
1683033239.90015793,59128839,1581,1581,1582,1579,0,0,0,0,0,0,0,0,0,0
1683033240.00011802,59228799,1581,1582,1588,1573,0,0,0,0,0,0,0,0,0,0
1683033240.10007787,59328759,1579,1583,1583,1573,0,0,0,0,0,0,0,0,0,0
1683033240.20003796,59428719,1577,1580,1574,1573,0,0,0,0,0,0,0,0,0,0
1683033240.29999781,59528679,1576,1578,1565,1570,0,0,0,0,0,0,0,0,0,0
1683033240.39995790,59628639,1577,1579,1560,1567,0,0,0,0,0,0,0,0,0,0
1683033240.49991798,59728599,1577,1577,1555,1562,0,0,0,0,0,0,0,0,0,0
1683033240.59987783,59828559,1578,1577,1555,1558,0,0,0,0,0,0,0,0,0,0
1683033240.69983792,59928519,1579,1578,1556,1555,0,0,0,0,0,0,0,0,0,0
1683033240.79979801,60028479,1579,1578,1556,1554,0,0,0,0,0,0,0,0,0,0
1683033240.89975786,60128439,1578,1578,1556,1554,0,0,0,0,0,0,0,0,0,0
1683033240.99971795,60228399,1576,1577,1556,1554,0,0,0,0,0,0,0,0,0,0
1683033241.09967780,60328359,1574,1575,1554,1553,0,0,0,0,0,0,0,0,0,0
1683033241.19963789,60428319,1575,1576,1555,1555,0,0,0,0,0,0,0,0,0,0
1683033241.29959798,60528279,1574,1576,1553,1553,0,0,0,0,0,0,0,0,0,0
1683033241.39955783,60628239,1575,1576,1551,1551,0,0,0,0,0,0,0,0,0,0
1683033241.49951792,60728199,1576,1578,1549,1550,0,0,0,0,0,0,0,0,0,0
1683033241.59947801,60828159,1578,1580,1547,1548,0,0,0,0,0,0,0,0,0,0
1683033241.70027089,60928952,1581,1582,1545,1545,0,0,0,0,0,0,0,0,0,0
1683033241.80023098,61028912,1584,1585,1542,1542,0,0,0,0,0,0,0,0,0,0
1683033241.90019083,61128872,1587,1588,1540,1539,0,0,0,0,0,0,0,0,0,0
1683033242.00015092,61228832,1591,1591,1537,1537,0,0,0,0,0,0,0,0,0,0
1683033242.10011101,61328792,1594,1593,1535,1536,0,0,0,0,0,0,0,0,0,0
1683033242.20007086,61428752,1595,1596,1535,1536,0,0,0,0,0,0,0,0,0,0
1683033242.30003095,61528712,1596,1595,1535,1536,0,0,0,0,0,0,0,0,0,0
1683033242.39999080,61628672,1596,1595,1537,1540,0,0,0,0,0,0,0,0,0,0
1683033242.49995089,61728632,1593,1593,1541,1543,0,0,0,0,0,0,0,0,0,0
1683033242.59991097,61828592,1589,1588,1546,1549,0,0,0,0,0,0,0,0,0,0
1683033242.69987082,61928552,1582,1580,1553,1557,0,0,0,0,0,0,0,0,0,0
1683033242.79983091,62028512,1575,1572,1565,1567,0,0,0,0,0,0,0,0,0,0
1683033242.89979100,62128472,1564,1560,1576,1578,0,0,0,0,0,0,0,0,0,0
1683033242.99975085,62228432,1553,1550,1589,1589,0,0,0,0,0,0,0,0,0,0
1683033243.09971094,62328392,1542,1540,1599,1599,0,0,0,0,0,0,0,0,0,0
1683033243.19967103,62428352,1534,1533,1608,1607,0,0,0,0,0,0,0,0,0,0
1683033243.29963088,62528312,1529,1530,1614,1613,0,0,0,0,0,0,0,0,0,0
1683033243.39959097,62628272,1529,1531,1616,1615,0,0,0,0,0,0,0,0,0,0
1683033243.49955082,62728232,1532,1534,1614,1613,0,0,0,0,0,0,0,0,0,0
1683033243.59951091,62828192,1538,1541,1610,1610,0,0,0,0,0,0,0,0,0,0
1683033243.70030403,62928985,1545,1547,1603,1603,0,0,0,0,0,0,0,0,0,0
1683033243.80026388,63028945,1554,1555,1596,1596,0,0,0,0,0,0,0,0,0,0
1683033243.90022397,63128905,1564,1564,1589,1588,0,0,0,0,0,0,0,0,0,0
1683033244.00018382,63228865,1571,1571,1581,1580,0,0,0,0,0,0,0,0,0,0
1683033244.10014391,63328825,1578,1577,1575,1574,0,0,0,0,0,0,0,0,0,0
1683033244.20010400,63428785,1583,1582,1570,1570,0,0,0,0,0,0,0,0,0,0
1683033244.30006385,63528745,1587,1585,1567,1567,0,0,0,0,0,0,0,0,0,0
1683033244.40002394,63628705,1588,1587,1566,1566,0,0,0,0,0,0,0,0,0,0
1683033244.49998403,63728665,1588,1586,1567,1566,0,0,0,0,0,0,0,0,0,0
1683033244.59994388,63828625,1587,1586,1569,1570,0,0,0,0,0,0,0,0,0,0
1683033244.69990396,63928585,1583,1583,1571,1571,0,0,0,0,0,0,0,0,0,0
1683033244.79986382,64028545,1581,1581,1574,1574,0,0,0,0,0,0,0,0,0,0
1683033244.89982390,64128505,1578,1578,1577,1577,0,0,0,0,0,0,0,0,0,0
1683033244.99978399,64228465,1575,1575,1579,1579,0,0,0,0,0,0,0,0,0,0
1683033245.09974384,64328425,1573,1573,1581,1581,0,0,0,0,0,0,0,0,0,0
1683033245.19970393,64428385,1572,1573,1583,1583,0,0,0,0,0,0,0,0,0,0
1683033245.29966402,64528345,1572,1573,1584,1584,0,0,0,0,0,0,0,0,0,0
1683033245.39962387,64628305,1626,1580,1638,1591,0,0,0,0,0,0,0,0,0,0
1683033245.49958396,64728265,1595,1581,1607,1590,0,0,0,0,0,0,0,0,0,0
1683033245.59954381,64828225,1576,1583,1585,1590,0,0,0,0,0,0,0,0,0,0
1683033245.69950390,64928185,1566,1584,1571,1589,0,0,0,0,0,0,0,0,0,0
1683033245.80029702,65028978,1562,1580,1564,1583,0,0,0,0,0,0,0,0,0,0
1683033245.90025687,65128938,1566,1575,1563,1575,0,0,0,0,0,0,0,0,0,0
1683033246.00021696,65228898,1571,1574,1566,1569,0,0,0,0,0,0,0,0,0,0
1683033246.10017681,65328858,1576,1573,1569,1565,0,0,0,0,0,0,0,0,0,0
1683033246.20013690,65428818,1581,1574,1573,1566,0,0,0,0,0,0,0,0,0,0
1683033246.30009699,65528778,1583,1576,1575,1569,0,0,0,0,0,0,0,0,0,0
1683033246.40005684,65628738,1582,1578,1576,1572,0,0,0,0,0,0,0,0,0,0
1683033246.50001693,65728698,1582,1579,1577,1576,0,0,0,0,0,0,0,0,0,0
1683033246.59997702,65828658,1579,1580,1578,1578,0,0,0,0,0,0,0,0,0,0
1683033246.69993687,65928618,1578,1580,1579,1580,0,0,0,0,0,0,0,0,0,0
1683033246.79989696,66028578,1578,1579,1580,1582,0,0,0,0,0,0,0,0,0,0
1683033246.89985681,66128538,1577,1579,1581,1582,0,0,0,0,0,0,0,0,0,0
1683033246.99981689,66228498,1579,1579,1583,1583,0,0,0,0,0,0,0,0,0,0
1683033247.09977698,66328458,1579,1579,1584,1584,0,0,0,0,0,0,0,0,0,0
1683033247.19973683,66428418,1581,1580,1585,1584,0,0,0,0,0,0,0,0,0,0
1683033247.29969692,66528378,1581,1580,1585,1584,0,0,0,0,0,0,0,0,0,0
1683033247.39965701,66628338,1581,1581,1584,1584,0,0,0,0,0,0,0,0,0,0
1683033247.49961686,66728298,1582,1582,1584,1584,0,0,0,0,0,0,0,0,0,0
1683033247.59957695,66828258,1582,1582,1583,1583,0,0,0,0,0,0,0,0,0,0
1683033247.69953680,66928218,1582,1582,1582,1583,0,0,0,0,0,0,0,0,0,0
1683033247.79949689,67028178,1583,1584,1583,1583,0,0,0,0,0,0,0,0,0,0
1683033247.90029001,67128971,1583,1583,1582,1582,0,0,0,0,0,0,0,0,0,0
1683033248.00024986,67228931,1582,1585,1588,1575,0,0,0,0,0,0,0,0,0,0
1683033248.10020995,67328891,1583,1587,1586,1573,0,0,0,0,0,0,0,0,0,0
1683033248.20016980,67428851,1582,1586,1576,1572,0,0,0,0,0,0,0,0,0,0
1683033248.30012989,67528811,1581,1584,1567,1570,0,0,0,0,0,0,0,0,0,0
1683033248.40008998,67628771,1582,1583,1559,1566,0,0,0,0,0,0,0,0,0,0
1683033248.50004983,67728731,1582,1582,1554,1561,0,0,0,0,0,0,0,0,0,0
1683033248.60000992,67828691,1583,1582,1553,1557,0,0,0,0,0,0,0,0,0,0
1683033248.69997001,67928651,1584,1582,1554,1554,0,0,0,0,0,0,0,0,0,0
1683033248.79992986,68028611,1583,1581,1554,1552,0,0,0,0,0,0,0,0,0,0
1683033248.89988995,68128571,1581,1581,1555,1552,0,0,0,0,0,0,0,0,0,0
1683033248.99984980,68228531,1580,1580,1555,1553,0,0,0,0,0,0,0,0,0,0
1683033249.09980989,68328491,1578,1580,1555,1554,0,0,0,0,0,0,0,0,0,0
1683033249.19976997,68428451,1577,1579,1555,1555,0,0,0,0,0,0,0,0,0,0
1683033249.29972982,68528411,1576,1578,1553,1553,0,0,0,0,0,0,0,0,0,0
1683033249.39968991,68628371,1577,1578,1552,1552,0,0,0,0,0,0,0,0,0,0
1683033249.49965000,68728331,1578,1579,1551,1551,0,0,0,0,0,0,0,0,0,0
1683033249.59960985,68828291,1579,1580,1548,1548,0,0,0,0,0,0,0,0,0,0
1683033249.69956994,68928251,1582,1582,1546,1546,0,0,0,0,0,0,0,0,0,0
1683033249.79953003,69028211,1584,1586,1545,1545,0,0,0,0,0,0,0,0,0,0
1683033249.89948988,69128171,1586,1589,1541,1542,0,0,0,0,0,0,0,0,0,0
1683033250.00028300,69228964,1590,1592,1538,1539,0,0,0,0,0,0,0,0,0,0
1683033250.10024285,69328924,1593,1594,1537,1538,0,0,0,0,0,0,0,0,0,0
1683033250.20020294,69428884,1595,1595,1538,1539,0,0,0,0,0,0,0,0,0,0
1683033250.30016303,69528844,1596,1594,1541,1542,0,0,0,0,0,0,0,0,0,0
1683033250.40012288,69628804,1592,1589,1545,1547,0,0,0,0,0,0,0,0,0,0
1683033250.50008297,69728764,1587,1583,1553,1556,0,0,0,0,0,0,0,0,0,0
1683033250.60004282,69828724,1579,1575,1563,1565,0,0,0,0,0,0,0,0,0,0
1683033250.70000291,69928684,1570,1566,1575,1577,0,0,0,0,0,0,0,0,0,0
1683033250.79996300,70028644,1559,1556,1586,1588,0,0,0,0,0,0,0,0,0,0
1683033250.89992285,70128604,1549,1548,1596,1597,0,0,0,0,0,0,0,0,0,0
1683033250.99988294,70228564,1541,1541,1604,1604,0,0,0,0,0,0,0,0,0,0
1683033251.09984303,70328524,1537,1537,1609,1609,0,0,0,0,0,0,0,0,0,0
1683033251.19980288,70428484,1537,1538,1612,1612,0,0,0,0,0,0,0,0,0,0
1683033251.29976296,70528444,1539,1540,1611,1610,0,0,0,0,0,0,0,0,0,0
1683033251.39972281,70628404,1543,1545,1608,1607,0,0,0,0,0,0,0,0,0,0
1683033251.49968290,70728364,1550,1551,1603,1602,0,0,0,0,0,0,0,0,0,0
1683033251.59964299,70828324,1558,1559,1597,1596,0,0,0,0,0,0,0,0,0,0
1683033251.69960284,70928284,1566,1565,1590,1589,0,0,0,0,0,0,0,0,0,0
1683033251.79956293,71028244,1571,1572,1582,1582,0,0,0,0,0,0,0,0,0,0
1683033251.89952302,71128204,1578,1577,1576,1577,0,0,0,0,0,0,0,0,0,0
1683033251.99948287,71228164,1582,1581,1572,1572,0,0,0,0,0,0,0,0,0,0
1683033252.10027599,71328957,1585,1584,1570,1570,0,0,0,0,0,0,0,0,0,0
1683033252.20023584,71428917,1586,1585,1569,1569,0,0,0,0,0,0,0,0,0,0
1683033252.30019593,71528877,1587,1586,1570,1569,0,0,0,0,0,0,0,0,0,0
1683033252.40015602,71628837,1585,1584,1571,1570,0,0,0,0,0,0,0,0,0,0
1683033252.50011587,71728797,1582,1582,1573,1572,0,0,0,0,0,0,0,0,0,0
1683033252.60007596,71828757,1580,1580,1575,1575,0,0,0,0,0,0,0,0,0,0
1683033252.70003581,71928717,1578,1578,1577,1578,0,0,0,0,0,0,0,0,0,0
1683033252.79999590,72028677,1576,1576,1580,1580,0,0,0,0,0,0,0,0,0,0
1683033252.89995599,72128637,1575,1575,1583,1582,0,0,0,0,0,0,0,0,0,0
1683033252.99991584,72228597,1575,1576,1585,1584,0,0,0,0,0,0,0,0,0,0
1683033253.09987593,72328557,1574,1576,1585,1585,0,0,0,0,0,0,0,0,0,0
1683033253.19983602,72428517,1575,1575,1584,1585,0,0,0,0,0,0,0,0,0,0
1683033253.29979587,72528477,1574,1574,1583,1583,0,0,0,0,0,0,0,0,0,0
1683033253.39975595,72628437,1575,1575,1582,1582,0,0,0,0,0,0,0,0,0,0
1683033253.49971581,72728397,1577,1577,1582,1582,0,0,0,0,0,0,0,0,0,0
1683033253.59967589,72828357,1579,1579,1582,1581,0,0,0,0,0,0,0,0,0,0
1683033253.69963598,72928317,1579,1579,1579,1579,0,0,0,0,0,0,0,0,0,0
1683033253.79959583,73028277,1580,1581,1579,1579,0,0,0,0,0,0,0,0,0,0
1683033253.89955592,73128237,1581,1580,1578,1578,0,0,0,0,0,0,0,0,0,0
1683033253.99951601,73228197,1581,1580,1577,1577,0,0,0,0,0,0,0,0,0,0
1683033254.09947586,73328157,1581,1581,1577,1577,0,0,0,0,0,0,0,0,0,0
1683033254.20026898,73428950,1582,1581,1578,1578,0,0,0,0,0,0,0,0,0,0
1683033254.30022883,73528910,1581,1581,1578,1578,0,0,0,0,0,0,0,0,0,0
1683033254.40018892,73628870,1581,1582,1580,1579,0,0,0,0,0,0,0,0,0,0
1683033254.50014901,73728830,1581,1581,1580,1580,0,0,0,0,0,0,0,0,0,0
1683033254.60010886,73828790,1580,1580,1580,1580,0,0,0,0,0,0,0,0,0,0
1683033254.70006895,73928750,1580,1579,1580,1580,0,0,0,0,0,0,0,0,0,0
1683033254.80002880,74028710,1579,1579,1580,1580,0,0,0,0,0,0,0,0,0,0
1683033254.89998889,74128670,1579,1579,1580,1581,0,0,0,0,0,0,0,0,0,0
1683033254.99994898,74228630,1580,1580,1582,1582,0,0,0,0,0,0,0,0,0,0
1683033255.09990883,74328590,1580,1580,1582,1582,0,0,0,0,0,0,0,0,0,0
1683033255.19986892,74428550,1580,1580,1582,1582,0,0,0,0,0,0,0,0,0,0
1683033255.29982901,74528510,1579,1579,1580,1580,0,0,0,0,0,0,0,0,0,0
1683033255.39978886,74628470,1581,1581,1582,1582,0,0,0,0,0,0,0,0,0,0
1683033255.49974895,74728430,1580,1581,1581,1581,0,0,0,0,0,0,0,0,0,0
1683033255.59970880,74828390,1581,1581,1580,1580,0,0,0,0,0,0,0,0,0,0
1683033255.69966888,74928350,1581,1581,1581,1581,0,0,0,0,0,0,0,0,0,0
1683033255.79962897,75028310,1581,1581,1580,1580,0,0,0,0,0,0,0,0,0,0
1683033255.89958882,75128270,1582,1581,1580,1581,0,0,0,0,0,0,0,0,0,0
1683033255.99954891,75228230,1583,1584,1589,1575,0,0,0,0,0,0,0,0,0,0
1683033256.09950900,75328190,1580,1584,1585,1572,0,0,0,0,0,0,0,0,0,0
1683033256.20030189,75428983,1580,1583,1577,1573,0,0,0,0,0,0,0,0,0,0
1683033256.30026197,75528943,1579,1581,1568,1571,0,0,0,0,0,0,0,0,0,0
1683033256.40022182,75628903,1578,1580,1561,1568,0,0,0,0,0,0,0,0,0,0
1683033256.50018191,75728863,1579,1580,1557,1563,0,0,0,0,0,0,0,0,0,0
1683033256.60014200,75828823,1580,1579,1555,1559,0,0,0,0,0,0,0,0,0,0
1683033256.70010185,75928783,1581,1579,1555,1556,0,0,0,0,0,0,0,0,0,0
1683033256.80006194,76028743,1581,1579,1556,1555,0,0,0,0,0,0,0,0,0,0
1683033256.90002203,76128703,1578,1578,1555,1553,0,0,0,0,0,0,0,0,0,0
1683033256.99998188,76228663,1577,1578,1556,1553,0,0,0,0,0,0,0,0,0,0
1683033257.09994197,76328623,1576,1577,1555,1554,0,0,0,0,0,0,0,0,0,0
1683033257.19990182,76428583,1575,1577,1555,1554,0,0,0,0,0,0,0,0,0,0
1683033257.29986191,76528543,1576,1578,1554,1555,0,0,0,0,0,0,0,0,0,0
1683033257.39982200,76628503,1575,1577,1552,1552,0,0,0,0,0,0,0,0,0,0
1683033257.49978185,76728463,1576,1578,1551,1550,0,0,0,0,0,0,0,0,0,0
1683033257.59974194,76828423,1578,1578,1548,1548,0,0,0,0,0,0,0,0,0,0
1683033257.69970202,76928383,1581,1582,1547,1547,0,0,0,0,0,0,0,0,0,0
1683033257.79966187,77028343,1583,1584,1543,1544,0,0,0,0,0,0,0,0,0,0
1683033257.89962196,77128303,1586,1586,1541,1541,0,0,0,0,0,0,0,0,0,0
1683033257.99958181,77228263,1588,1589,1540,1539,0,0,0,0,0,0,0,0,0,0
1683033258.09954190,77328223,1591,1591,1539,1538,0,0,0,0,0,0,0,0,0,0
1683033258.19950199,77428183,1592,1593,1538,1538,0,0,0,0,0,0,0,0,0,0
1683033258.30029488,77528976,1594,1594,1538,1540,0,0,0,0,0,0,0,0,0,0
1683033258.40025496,77628936,1593,1594,1539,1541,0,0,0,0,0,0,0,0,0,0
1683033258.50021482,77728896,1592,1591,1542,1545,0,0,0,0,0,0,0,0,0,0
1683033258.60017490,77828856,1587,1586,1547,1550,0,0,0,0,0,0,0,0,0,0
1683033258.70013499,77928816,1582,1579,1555,1558,0,0,0,0,0,0,0,0,0,0
1683033258.80009484,78028776,1574,1571,1566,1569,0,0,0,0,0,0,0,0,0,0
1683033258.90005493,78128736,1564,1560,1577,1578,0,0,0,0,0,0,0,0,0,0
1683033259.00001502,78228696,1553,1550,1588,1589,0,0,0,0,0,0,0,0,0,0
1683033259.09997487,78328656,1544,1542,1599,1599,0,0,0,0,0,0,0,0,0,0
1683033259.19993496,78428616,1536,1536,1606,1606,0,0,0,0,0,0,0,0,0,0
1683033259.29989481,78528576,1533,1533,1611,1610,0,0,0,0,0,0,0,0,0,0
1683033259.39985490,78628536,1533,1535,1613,1612,0,0,0,0,0,0,0,0,0,0
1683033259.49981499,78728496,1536,1537,1610,1610,0,0,0,0,0,0,0,0,0,0
1683033259.59977484,78828456,1542,1544,1606,1606,0,0,0,0,0,0,0,0,0,0
1683033259.69973493,78928416,1549,1550,1600,1600,0,0,0,0,0,0,0,0,0,0
1683033259.79969501,79028376,1558,1559,1594,1594,0,0,0,0,0,0,0,0,0,0
1683033259.89965487,79128336,1566,1566,1587,1586,0,0,0,0,0,0,0,0,0,0
1683033259.99961495,79228296,1573,1573,1580,1579,0,0,0,0,0,0,0,0,0,0
1683033260.09957480,79328256,1579,1578,1574,1574,0,0,0,0,0,0,0,0,0,0
1683033260.19953489,79428216,1584,1582,1571,1571,0,0,0,0,0,0,0,0,0,0
1683033260.29949498,79528176,1585,1584,1568,1568,0,0,0,0,0,0,0,0,0,0
1683033260.40028787,79628969,1586,1585,1567,1567,0,0,0,0,0,0,0,0,0,0
1683033260.50024796,79728929,1586,1585,1568,1568,0,0,0,0,0,0,0,0,0,0
1683033260.60020781,79828889,1583,1582,1569,1569,0,0,0,0,0,0,0,0,0,0
1683033260.70016789,79928849,1582,1581,1572,1572,0,0,0,0,0,0,0,0,0,0
1683033260.80012798,80028809,1578,1578,1574,1574,0,0,0,0,0,0,0,0,0,0
1683033260.90008783,80128769,1578,1577,1578,1578,0,0,0,0,0,0,0,0,0,0
1683033261.00004792,80228729,1575,1575,1580,1580,0,0,0,0,0,0,0,0,0,0
1683033261.10000801,80328689,1574,1575,1583,1582,0,0,0,0,0,0,0,0,0,0
1683033261.19996786,80428649,1574,1574,1584,1584,0,0,0,0,0,0,0,0,0,0
1683033261.29992795,80528609,1573,1573,1584,1584,0,0,0,0,0,0,0,0,0,0
1683033261.39988780,80628569,1572,1574,1583,1583,0,0,0,0,0,0,0,0,0,0
1683033261.49984789,80728529,1573,1574,1582,1582,0,0,0,0,0,0,0,0,0,0
1683033261.59980798,80828489,1575,1575,1581,1581,0,0,0,0,0,0,0,0,0,0
1683033261.69976783,80928449,1576,1577,1581,1581,0,0,0,0,0,0,0,0,0,0
1683033261.79972792,81028409,1578,1578,1580,1580,0,0,0,0,0,0,0,0,0,0
1683033261.89968801,81128369,1579,1579,1579,1579,0,0,0,0,0,0,0,0,0,0
1683033261.99964786,81228329,1579,1580,1577,1577,0,0,0,0,0,0,0,0,0,0
1683033262.09960794,81328289,1580,1580,1577,1577,0,0,0,0,0,0,0,0,0,0
1683033262.19956779,81428249,1581,1581,1578,1577,0,0,0,0,0,0,0,0,0,0
1683033262.29952788,81528209,1581,1581,1577,1577,0,0,0,0,0,0,0,0,0,0
1683033262.39948797,81628169,1581,1581,1577,1578,0,0,0,0,0,0,0,0,0,0
1683033262.50028086,81728962,1581,1580,1578,1578,0,0,0,0,0,0,0,0,0,0
1683033262.60024095,81828922,1581,1581,1579,1579,0,0,0,0,0,0,0,0,0,0
1683033262.70020080,81928882,1580,1580,1579,1579,0,0,0,0,0,0,0,0,0,0
1683033262.80016088,82028842,1580,1581,1581,1580,0,0,0,0,0,0,0,0,0,0
1683033262.90012097,82128802,1580,1580,1580,1581,0,0,0,0,0,0,0,0,0,0
1683033263.00008082,82228762,1580,1580,1581,1582,0,0,0,0,0,0,0,0,0,0
1683033263.10004091,82328722,1580,1580,1581,1581,0,0,0,0,0,0,0,0,0,0
1683033263.20000100,82428682,1580,1580,1582,1582,0,0,0,0,0,0,0,0,0,0
1683033263.29996085,82528642,1579,1580,1581,1581,0,0,0,0,0,0,0,0,0,0
1683033263.39992094,82628602,1580,1580,1581,1581,0,0,0,0,0,0,0,0,0,0
1683033263.49988103,82728562,1580,1580,1581,1581,0,0,0,0,0,0,0,0,0,0
1683033263.59984088,82828522,1581,1581,1581,1581,0,0,0,0,0,0,0,0,0,0
1683033263.69980097,82928482,1580,1580,1580,1580,0,0,0,0,0,0,0,0,0,0
1683033263.79976082,83028442,1581,1581,1580,1580,0,0,0,0,0,0,0,0,0,0
1683033263.89972091,83128402,1580,1581,1583,1576,0,0,0,0,0,0,0,0,0,0
1683033263.99968100,83228362,1580,1581,1586,1572,0,0,0,0,0,0,0,0,0,0
1683033264.09964085,83328322,1579,1579,1581,1573,0,0,0,0,0,0,0,0,0,0
1683033264.19960093,83428282,1576,1576,1574,1575,0,0,0,0,0,0,0,0,0,0
1683033264.29956102,83528242,1574,1574,1569,1575,0,0,0,0,0,0,0,0,0,0
1683033264.39952087,83628202,1571,1571,1566,1573,0,0,0,0,0,0,0,0,0,0
1683033264.49948096,83728162,1569,1569,1566,1571,0,0,0,0,0,0,0,0,0,0
1683033264.60027385,83828955,1567,1567,1566,1568,0,0,0,0,0,0,0,0,0,0
1683033264.70023394,83928915,1566,1566,1566,1566,0,0,0,0,0,0,0,0,0,0
1683033264.80019403,84028875,1564,1565,1567,1564,0,0,0,0,0,0,0,0,0,0
1683033264.90015388,84128835,1565,1565,1567,1565,0,0,0,0,0,0,0,0,0,0
1683033265.00011396,84228795,1564,1564,1566,1564,0,0,0,0,0,0,0,0,0,0
1683033265.10007381,84328755,1563,1563,1564,1563,0,0,0,0,0,0,0,0,0,0
1683033265.20003390,84428715,1562,1562,1563,1563,0,0,0,0,0,0,0,0,0,0
1683033265.29999399,84528675,1562,1562,1563,1563,0,0,0,0,0,0,0,0,0,0
1683033265.39995384,84628635,1562,1562,1562,1563,0,0,0,0,0,0,0,0,0,0
1683033265.49991393,84728595,1561,1561,1561,1561,0,0,0,0,0,0,0,0,0,0
1683033265.59987402,84828555,1562,1562,1562,1562,0,0,0,0,0,0,0,0,0,0
1683033265.69983387,84928515,1561,1561,1561,1561,0,0,0,0,0,0,0,0,0,0
1683033265.79979396,85028475,1560,1561,1561,1560,0,0,0,0,0,0,0,0,0,0
1683033265.89975381,85128435,1558,1558,1558,1557,0,0,0,0,0,0,0,0,0,0
1683033265.99971390,85228395,1559,1558,1559,1558,0,0,0,0,0,0,0,0,0,0
1683033266.09967399,85328355,1559,1558,1559,1558,0,0,0,0,0,0,0,0,0,0
1683033266.19963384,85428315,1557,1557,1557,1557,0,0,0,0,0,0,0,0,0,0
1683033266.29959393,85528275,1557,1557,1557,1557,0,0,0,0,0,0,0,0,0,0
1683033266.39955401,85628235,1558,1557,1558,1556,0,0,0,0,0,0,0,0,0,0
1683033266.49951386,85728195,1558,1558,1560,1557,0,0,0,0,0,0,0,0,0,0
1683033266.59947395,85828155,1558,1559,1560,1557,0,0,0,0,0,0,0,0,0,0
1683033266.70026684,85928948,1558,1558,1559,1558,0,0,0,0,0,0,0,0,0,0
1683033266.80022693,86028908,1558,1558,1557,1560,0,0,0,0,0,0,0,0,0,0
1683033266.90018702,86128868,1560,1559,1556,1563,0,0,0,0,0,0,0,0,0,0
1683033267.00014687,86228828,1561,1561,1557,1564,0,0,0,0,0,0,0,0,0,0
1683033267.10010695,86328788,1562,1562,1559,1564,0,0,0,0,0,0,0,0,0,0
1683033267.20006680,86428748,1563,1563,1562,1564,0,0,0,0,0,0,0,0,0,0
1683033267.30002689,86528708,1562,1562,1563,1562,0,0,0,0,0,0,0,0,0,0
1683033267.39998698,86628668,1561,1561,1563,1559,0,0,0,0,0,0,0,0,0,0
1683033267.49994683,86728628,1562,1561,1561,1562,0,0,0,0,0,0,0,0,0,0
1683033267.59990692,86828588,1558,1559,1557,1560,0,0,0,0,0,0,0,0,0,0
1683033267.69986701,86928548,1554,1554,1552,1555,0,0,0,0,0,0,0,0,0,0
1683033267.79982686,87028508,1548,1548,1547,1549,0,0,0,0,0,0,0,0,0,0
1683033267.89978695,87128468,1543,1543,1543,1543,0,0,0,0,0,0,0,0,0,0
1683033267.99974680,87228428,1535,1536,1536,1535,0,0,0,0,0,0,0,0,0,0
1683033268.09970689,87328388,1528,1528,1528,1527,0,0,0,0,0,0,0,0,0,0
1683033268.19966698,87428348,1521,1521,1522,1521,0,0,0,0,0,0,0,0,0,0
1683033268.29962683,87528308,1520,1519,1520,1520,0,0,0,0,0,0,0,0,0,0
1683033268.39958692,87628268,1520,1520,1520,1520,0,0,0,0,0,0,0,0,0,0
1683033268.49954700,87728228,1522,1522,1521,1522,0,0,0,0,0,0,0,0,0,0
1683033268.59950686,87828188,1525,1525,1524,1525,0,0,0,0,0,0,0,0,0,0
1683033268.70029998,87928981,1528,1528,1528,1528,0,0,0,0,0,0,0,0,0,0
1683033268.80025983,88028941,1532,1532,1532,1532,0,0,0,0,0,0,0,0,0,0
1683033268.90021992,88128901,1537,1537,1537,1537,0,0,0,0,0,0,0,0,0,0
1683033269.00018001,88228861,1540,1540,1540,1540,0,0,0,0,0,0,0,0,0,0
1683033269.10013986,88328821,1543,1543,1543,1543,0,0,0,0,0,0,0,0,0,0
1683033269.20009995,88428781,1543,1543,1543,1543,0,0,0,0,0,0,0,0,0,0
1683033269.30005980,88528741,1545,1545,1545,1544,0,0,0,0,0,0,0,0,0,0
1683033269.40001988,88628701,1546,1546,1546,1546,0,0,0,0,0,0,0,0,0,0
1683033269.49997997,88728661,1546,1545,1545,1545,0,0,0,0,0,0,0,0,0,0
1683033269.59993982,88828621,1547,1547,1547,1546,0,0,0,0,0,0,0,0,0,0
1683033269.69989991,88928581,1546,1546,1546,1546,0,0,0,0,0,0,0,0,0,0
1683033269.79986000,89028541,1546,1546,1546,1546,0,0,0,0,0,0,0,0,0,0
1683033269.89981985,89128501,1546,1546,1546,1546,0,0,0,0,0,0,0,0,0,0
1683033269.99977994,89228461,1546,1547,1547,1546,0,0,0,0,0,0,0,0,0,0
1683033270.09974003,89328421,1546,1546,1546,1546,0,0,0,0,0,0,0,0,0,0
1683033270.19969988,89428381,1545,1545,1545,1545,0,0,0,0,0,0,0,0,0,0
1683033270.29965997,89528341,1545,1545,1546,1545,0,0,0,0,0,0,0,0,0,0
1683033270.39961982,89628301,1545,1545,1545,1545,0,0,0,0,0,0,0,0,0,0
1683033270.49957991,89728261,1545,1544,1544,1544,0,0,0,0,0,0,0,0,0,0
1683033270.59954000,89828221,1544,1544,1544,1544,0,0,0,0,0,0,0,0,0,0
1683033270.69949985,89928181,1545,1545,1545,1545,0,0,0,0,0,0,0,0,0,0
1683033270.80029297,90028974,1543,1543,1543,1543,0,0,0,0,0,0,0,0,0,0
1683033270.90025282,90128934,1544,1544,1544,1544,0,0,0,0,0,0,0,0,0,0
1683033271.00021291,90228894,1544,1544,1543,1544,0,0,0,0,0,0,0,0,0,0
1683033271.10017300,90328854,1544,1544,1544,1544,0,0,0,0,0,0,0,0,0,0
1683033271.20013285,90428814,1544,1543,1544,1544,0,0,0,0,0,0,0,0,0,0
1683033271.30009294,90528774,1544,1544,1544,1544,0,0,0,0,0,0,0,0,0,0
1683033271.40005302,90628734,1545,1545,1545,1544,0,0,0,0,0,0,0,0,0,0
1683033271.50001287,90728694,1546,1546,1546,1545,0,0,0,0,0,0,0,0,0,0
1683033271.59997296,90828654,1544,1544,1544,1544,0,0,0,0,0,0,0,0,0,0
1683033271.69993281,90928614,1545,1545,1545,1545,0,0,0,0,0,0,0,0,0,0
1683033271.79989290,91028574,1544,1545,1544,1545,0,0,0,0,0,0,0,0,0,0
1683033271.89985299,91128534,1545,1544,1545,1545,0,0,0,0,0,0,0,0,0,0
1683033271.99981284,91228494,1544,1544,1544,1544,0,0,0,0,0,0,0,0,0,0
1683033272.09977293,91328454,1544,1543,1544,1543,0,0,0,0,0,0,0,0,0,0
1683033272.19973302,91428414,1543,1544,1544,1544,0,0,0,0,0,0,0,0,0,0
1683033272.29969287,91528374,1546,1545,1545,1545,0,0,0,0,0,0,0,0,0,0
1683033272.39965296,91628334,1544,1544,1543,1544,0,0,0,0,0,0,0,0,0,0
1683033272.49961281,91728294,1545,1543,1544,1544,0,0,0,0,0,0,0,0,0,0
1683033272.59957290,91828254,1544,1544,1544,1543,0,0,0,0,0,0,0,0,0,0
1683033272.69953299,91928214,1545,1545,1544,1545,0,0,0,0,0,0,0,0,0,0
1683033272.79949284,92028174,1544,1545,1545,1544,0,0,0,0,0,0,0,0,0,0
1683033272.90028596,92128967,1544,1543,1543,1544,0,0,0,0,0,0,0,0,0,0
1683033273.00024581,92228927,1544,1544,1544,1544,0,0,0,0,0,0,0,0,0,0
1683033273.10020590,92328887,1544,1544,1544,1544,0,0,0,0,0,0,0,0,0,0
1683033273.20016599,92428847,1545,1545,1545,1545,0,0,0,0,0,0,0,0,0,0
1683033273.30012584,92528807,1544,1544,1543,1544,0,0,0,0,0,0,0,0,0,0
1683033273.40008593,92628767,1543,1543,1544,1543,0,0,0,0,0,0,0,0,0,0
1683033273.50004601,92728727,1544,1543,1543,1543,0,0,0,0,0,0,0,0,0,0
1683033273.60000587,92828687,1543,1544,1544,1543,0,0,0,0,0,0,0,0,0,0
1683033273.69996595,92928647,1544,1543,1543,1544,0,0,0,0,0,0,0,0,0,0
1683033273.79992580,93028607,1544,1543,1544,1543,0,0,0,0,0,0,0,0,0,0
1683033273.89988589,93128567,1544,1543,1543,1544,0,0,0,0,0,0,0,0,0,0
1683033273.99984598,93228527,1543,1544,1544,1544,0,0,0,0,0,0,0,0,0,0
1683033274.09980583,93328487,1543,1543,1543,1544,0,0,0,0,0,0,0,0,0,0
1683033274.19976592,93428447,1544,1545,1544,1544,0,0,0,0,0,0,0,0,0,0
1683033274.29972601,93528407,1545,1545,1545,1545,0,0,0,0,0,0,0,0,0,0
1683033274.39968586,93628367,1544,1544,1544,1544,0,0,0,0,0,0,0,0,0,0
1683033274.49964595,93728327,1544,1544,1544,1544,0,0,0,0,0,0,0,0,0,0
1683033274.59960580,93828287,1544,1544,1544,1544,0,0,0,0,0,0,0,0,0,0
1683033274.69956589,93928247,1544,1543,1543,1543,0,0,0,0,0,0,0,0,0,0
1683033274.79952598,94028207,1544,1544,1544,1544,0,0,0,0,0,0,0,0,0,0
1683033274.89948583,94128167,1544,1544,1544,1544,0,0,0,0,0,0,0,0,0,0
1683033275.00027895,94228960,1545,1545,1545,1545,0,0,0,0,0,0,0,0,0,0
1683033275.10023880,94328920,1544,1544,1544,1544,0,0,0,0,0,0,0,0,0,0
1683033275.20019889,94428880,1545,1545,1545,1545,0,0,0,0,0,0,0,0,0,0
1683033275.30015898,94528840,1545,1544,1544,1544,0,0,0,0,0,0,0,0,0,0
1683033275.40011883,94628800,1544,1544,1544,1544,0,0,0,0,0,0,0,0,0,0
1683033275.50007892,94728760,1545,1545,1545,1545,0,0,0,0,0,0,0,0,0,0
1683033275.60003901,94828720,1545,1545,1545,1545,0,0,0,0,0,0,0,0,0,0
1683033275.69999886,94928680,1545,1545,1545,1545,0,0,0,0,0,0,0,0,0,0
1683033275.79995894,95028640,1545,1545,1545,1545,0,0,0,0,0,0,0,0,0,0
1683033275.89991879,95128600,1545,1545,1545,1545,0,0,0,0,0,0,0,0,0,0
1683033275.99987888,95228560,1544,1544,1544,1544,0,0,0,0,0,0,0,0,0,0
1683033276.09983897,95328520,1544,1544,1544,1544,0,0,0,0,0,0,0,0,0,0
1683033276.19979882,95428480,1544,1545,1545,1544,0,0,0,0,0,0,0,0,0,0
1683033276.29975891,95528440,1544,1544,1544,1544,0,0,0,0,0,0,0,0,0,0
1683033276.39971900,95628400,1543,1543,1543,1543,0,0,0,0,0,0,0,0,0,0
1683033276.49967885,95728360,1544,1544,1544,1544,0,0,0,0,0,0,0,0,0,0
1683033276.59963894,95828320,1544,1544,1544,1544,0,0,0,0,0,0,0,0,0,0
1683033276.69959903,95928280,1545,1544,1545,1545,0,0,0,0,0,0,0,0,0,0
1683033276.79955888,96028240,1543,1544,1544,1544,0,0,0,0,0,0,0,0,0,0
1683033276.89951897,96128200,1543,1543,1543,1543,0,0,0,0,0,0,0,0,0,0
1683033276.99947882,96228160,1544,1544,1544,1545,0,0,0,0,0,0,0,0,0,0
1683033277.10027194,96328953,1545,1545,1545,1545,0,0,0,0,0,0,0,0,0,0
1683033277.20023203,96428913,1544,1545,1544,1545,0,0,0,0,0,0,0,0,0,0
1683033277.30019188,96528873,1544,1544,1544,1544,0,0,0,0,0,0,0,0,0,0
1683033277.40015197,96628833,1543,1544,1544,1543,0,0,0,0,0,0,0,0,0,0
1683033277.50011182,96728793,1544,1543,1544,1543,0,0,0,0,0,0,0,0,0,0
1683033277.60007191,96828753,1543,1544,1543,1543,0,0,0,0,0,0,0,0,0,0
1683033277.70003200,96928713,1544,1544,1544,1544,0,0,0,0,0,0,0,0,0,0
1683033277.79999185,97028673,1543,1544,1543,1543,0,0,0,0,0,0,0,0,0,0
1683033277.89995193,97128633,1544,1544,1544,1544,0,0,0,0,0,0,0,0,0,0
1683033277.99991202,97228593,1398,1406,1396,1407,0,0,0,0,0,0,0,0,0,0
1683033278.09987187,97328553,1249,1268,1244,1272,0,0,0,0,0,0,0,0,0,0
1683033278.19983196,97428513,1195,1223,1192,1226,0,0,0,0,0,0,0,0,0,0
1683033278.29979181,97528473,1195,1224,1192,1227,0,0,0,0,0,0,0,0,0,0
1683033278.39975190,97628433,1194,1224,1192,1227,0,0,0,0,0,0,0,0,0,0
1683033278.49971199,97728393,1195,1224,1192,1227,0,0,0,0,0,0,0,0,0,0
1683033278.59967184,97828353,1196,1224,1192,1228,0,0,0,0,0,0,0,0,0,0
1683033278.69963193,97928313,1223,1224,1192,1251,0,0,0,0,0,0,0,0,0,0
1683033278.79959202,98028273,1214,1224,1192,1244,0,0,0,0,0,0,0,0,0,0
1683033278.89955187,98128233,1213,1224,1192,1243,0,0,0,0,0,0,0,0,0,0
1683033278.99951196,98228193,1214,1224,1192,1243,0,0,0,0,0,0,0,0,0,0
1683033279.10030484,98328986,1215,1224,1192,1245,0,0,0,0,0,0,0,0,0,0
1683033279.20026493,98428946,1217,1223,1192,1246,0,0,0,0,0,0,0,0,0,0
1683033279.30022502,98528906,1219,1223,1192,1247,0,0,0,0,0,0,0,0,0,0
1683033279.40018487,98628866,1201,1223,1192,1232,0,0,0,0,0,0,0,0,0,0
1683033279.50014496,98728826,1207,1223,1192,1237,0,0,0,0,0,0,0,0,0,0
1683033279.60010481,98828786,1208,1223,1192,1238,0,0,0,0,0,0,0,0,0,0
1683033279.70006490,98928746,1209,1223,1192,1238,0,0,0,0,0,0,0,0,0,0
1683033279.80002499,99028706,1209,1223,1192,1239,0,0,0,0,0,0,0,0,0,0
1683033279.89998484,99128666,1192,1150,1192,1150,0,0,0,0,0,0,0,0,0,0
1683033279.99994493,99228626,1000,1000,1000,1000,0,0,0,0,0,0,0,0,0,0
1683033280.09990501,99328586,1000,1000,1000,1000,0,0,0,0,0,0,0,0,0,0
1683033280.19986486,99428546,1000,1000,1000,1000,0,0,0,0,0,0,0,0,0,0
1683033280.29982495,99528506,1000,1000,1000,1000,0,0,0,0,0,0,0,0,0,0
1683033280.39978480,99628466,1000,1000,1000,1000,0,0,0,0,0,0,0,0,0,0
1683033280.49974489,99728426,1000,1000,1000,1000,0,0,0,0,0,0,0,0,0,0
1683033280.59970498,99828386,1000,1000,1000,1000,0,0,0,0,0,0,0,0,0,0
1683033280.69966483,99928346,1000,1000,1000,1000,0,0,0,0,0,0,0,0,0,0
1683033280.79962492,100028306,1000,1000,1000,1000,0,0,0,0,0,0,0,0,0,0
1683033280.89958501,100128266,1000,1000,1000,1000,0,0,0,0,0,0,0,0,0,0
1683033280.99954486,100228226,1000,1000,1000,1000,0,0,0,0,0,0,0,0,0,0
1683033281.09950495,100328186,1000,1000,1000,1000,0,0,0,0,0,0,0,0,0,0
1683033281.20029783,100428979,1000,1000,1000,1000,0,0,0,0,0,0,0,0,0,0
1683033281.30025792,100528939,1000,1000,1000,1000,0,0,0,0,0,0,0,0,0,0
1683033281.40021801,100628899,1000,1000,1000,1000,0,0,0,0,0,0,0,0,0,0
1683033281.50017786,100728859,1000,1000,1000,1000,0,0,0,0,0,0,0,0,0,0
1683033281.60013795,100828819,1000,1000,1000,1000,0,0,0,0,0,0,0,0,0,0
1683033281.70009780,100928779,1000,1000,1000,1000,0,0,0,0,0,0,0,0,0,0
1683033281.80005789,101028739,1000,1000,1000,1000,0,0,0,0,0,0,0,0,0,0
1683033281.90001798,101128699,1000,1000,1000,1000,0,0,0,0,0,0,0,0,0,0
1683033281.99997783,101228659,1000,1000,1000,1000,0,0,0,0,0,0,0,0,0,0
1683033282.09993792,101328619,1000,1000,1000,1000,0,0,0,0,0,0,0,0,0,0
1683033282.19989800,101428579,1000,1000,1000,1000,0,0,0,0,0,0,0,0,0,0
1683033282.29985785,101528539,1000,1000,1000,1000,0,0,0,0,0,0,0,0,0,0
1683033282.39981794,101628499,1000,1000,1000,1000,0,0,0,0,0,0,0,0,0,0
1683033282.49977779,101728459,1000,1000,1000,1000,0,0,0,0,0,0,0,0,0,0
1683033282.59973788,101828419,1000,1000,1000,1000,0,0,0,0,0,0,0,0,0,0
1683033282.69969797,101928379,1000,1000,1000,1000,0,0,0,0,0,0,0,0,0,0
1683033282.79965782,102028339,1000,1000,1000,1000,0,0,0,0,0,0,0,0,0,0
1683033282.89961791,102128299,1000,1000,1000,1000,0,0,0,0,0,0,0,0,0,0
1683033282.99957800,102228259,1000,1000,1000,1000,0,0,0,0,0,0,0,0,0,0
1683033283.09953785,102328219,1000,1000,1000,1000,0,0,0,0,0,0,0,0,0,0
1683033283.19949794,102428179,1000,1000,1000,1000,0,0,0,0,0,0,0,0,0,0
1683033283.30029082,102528972,1000,1000,1000,1000,0,0,0,0,0,0,0,0,0,0
1683033283.40025091,102628932,1000,1000,1000,1000,0,0,0,0,0,0,0,0,0,0
1683033283.50021100,102728892,1000,1000,1000,1000,0,0,0,0,0,0,0,0,0,0
1683033283.60017085,102828852,1000,1000,1000,1000,0,0,0,0,0,0,0,0,0,0
1683033283.70013094,102928812,1000,1000,1000,1000,0,0,0,0,0,0,0,0,0,0
1683033283.80009103,103028772,1000,1000,1000,1000,0,0,0,0,0,0,0,0,0,0
1683033283.90005088,103128732,1000,1000,1000,1000,0,0,0,0,0,0,0,0,0,0
1683033284.00001097,103228692,1000,1000,1000,1000,0,0,0,0,0,0,0,0,0,0
1683033284.09997082,103328652,1000,1000,1000,1000,0,0,0,0,0,0,0,0,0,0
1683033284.19993091,103428612,1000,1000,1000,1000,0,0,0,0,0,0,0,0,0,0
1683033284.29989100,103528572,1000,1000,1000,1000,0,0,0,0,0,0,0,0,0,0
1683033284.39985085,103628532,1000,1000,1000,1000,0,0,0,0,0,0,0,0,0,0
1683033284.49981093,103728492,1000,1000,1000,1000,0,0,0,0,0,0,0,0,0,0
1683033284.59977102,103828452,1000,1000,1000,1000,0,0,0,0,0,0,0,0,0,0
1683033284.69973087,103928412,1000,1000,1000,1000,0,0,0,0,0,0,0,0,0,0
1683033284.79969096,104028372,1000,1000,1000,1000,0,0,0,0,0,0,0,0,0,0
1683033284.89965081,104128332,1000,1000,1000,1000,0,0,0,0,0,0,0,0,0,0
1683033284.99961090,104228292,1000,1000,1000,1000,0,0,0,0,0,0,0,0,0,0
1683033285.09957099,104328252,1000,1000,1000,1000,0,0,0,0,0,0,0,0,0,0
1683033285.19953084,104428212,1000,1000,1000,1000,0,0,0,0,0,0,0,0,0,0
1683033285.29949093,104528172,1000,1000,1000,1000,0,0,0,0,0,0,0,0,0,0
1683033285.40028381,104628965,1000,1000,1000,1000,0,0,0,0,0,0,0,0,0,0
1683033285.50024390,104728925,1000,1000,1000,1000,0,0,0,0,0,0,0,0,0,0
1683033285.60020399,104828885,1000,1000,1000,1000,0,0,0,0,0,0,0,0,0,0
1683033285.70016384,104928845,1000,1000,1000,1000,0,0,0,0,0,0,0,0,0,0
1683033285.80012393,105028805,1000,1000,1000,1000,0,0,0,0,0,0,0,0,0,0
1683033285.90008402,105128765,1000,1000,1000,1000,0,0,0,0,0,0,0,0,0,0
1683033286.00004387,105228725,1000,1000,1000,1000,0,0,0,0,0,0,0,0,0,0
1683033286.10000396,105328685,1000,1000,1000,1000,0,0,0,0,0,0,0,0,0,0
1683033286.19996381,105428645,1000,1000,1000,1000,0,0,0,0,0,0,0,0,0,0
1683033286.29992390,105528605,1000,1000,1000,1000,0,0,0,0,0,0,0,0,0,0
1683033286.39988399,105628565,1000,1000,1000,1000,0,0,0,0,0,0,0,0,0,0
1683033286.49984384,105728525,1000,1000,1000,1000,0,0,0,0,0,0,0,0,0,0
1683033286.59980392,105828485,1000,1000,1000,1000,0,0,0,0,0,0,0,0,0,0
1683033286.69976401,105928445,1000,1000,1000,1000,0,0,0,0,0,0,0,0,0,0
1683033286.79972386,106028405,1000,1000,1000,1000,0,0,0,0,0,0,0,0,0,0
1683033286.89968395,106128365,1000,1000,1000,1000,0,0,0,0,0,0,0,0,0,0
1683033286.99964380,106228325,1000,1000,1000,1000,0,0,0,0,0,0,0,0,0,0
1683033287.09960389,106328285,1000,1000,1000,1000,0,0,0,0,0,0,0,0,0,0
1683033287.19956398,106428245,1000,1000,1000,1000,0,0,0,0,0,0,0,0,0,0
1683033287.29952383,106528205,1000,1000,1000,1000,0,0,0,0,0,0,0,0,0,0
1683033287.39948392,106628165,1000,1000,1000,1000,0,0,0,0,0,0,0,0,0,0
1683033287.50027680,106728958,1000,1000,1000,1000,0,0,0,0,0,0,0,0,0,0
1683033287.60023689,106828918,1000,1000,1000,1000,0,0,0,0,0,0,0,0,0,0
1683033287.70019698,106928878,1000,1000,1000,1000,0,0,0,0,0,0,0,0,0,0
1683033287.80015683,107028838,1000,1000,1000,1000,0,0,0,0,0,0,0,0,0,0
1683033287.90011692,107128798,1000,1000,1000,1000,0,0,0,0,0,0,0,0,0,0
1683033288.00007701,107228758,1000,1000,1000,1000,0,0,0,0,0,0,0,0,0,0
1683033288.10003686,107328718,1000,1000,1000,1000,0,0,0,0,0,0,0,0,0,0
1683033288.19999695,107428678,1000,1000,1000,1000,0,0,0,0,0,0,0,0,0,0
1683033288.29995680,107528638,1000,1000,1000,1000,0,0,0,0,0,0,0,0,0,0
1683033288.39991689,107628598,1000,1000,1000,1000,0,0,0,0,0,0,0,0,0,0
1683033288.49987698,107728558,1000,1000,1000,1000,0,0,0,0,0,0,0,0,0,0
1683033288.59983683,107828518,1000,1000,1000,1000,0,0,0,0,0,0,0,0,0,0
1683033288.69979692,107928478,1000,1000,1000,1000,0,0,0,0,0,0,0,0,0,0
1683033288.79975700,108028438,1000,1000,1000,1000,0,0,0,0,0,0,0,0,0,0
1683033288.89971685,108128398,1000,1000,1000,1000,0,0,0,0,0,0,0,0,0,0
1683033288.99967694,108228358,1000,1000,1000,1000,0,0,0,0,0,0,0,0,0,0
1683033289.09963703,108328318,1000,1000,1000,1000,0,0,0,0,0,0,0,0,0,0
1683033289.19959688,108428278,1000,1000,1000,1000,0,0,0,0,0,0,0,0,0,0
1683033289.29955697,108528238,1000,1000,1000,1000,0,0,0,0,0,0,0,0,0,0
1683033289.39951682,108628198,1000,1000,1000,1000,0,0,0,0,0,0,0,0,0,0
1683033289.49947691,108728158,1000,1000,1000,1000,0,0,0,0,0,0,0,0,0,0
1683033289.60026979,108828951,1000,1000,1000,1000,0,0,0,0,0,0,0,0,0,0
1683033289.70022988,108928911,1000,1000,1000,1000,0,0,0,0,0,0,0,0,0,0
1683033289.80018997,109028871,1000,1000,1000,1000,0,0,0,0,0,0,0,0,0,0
1683033289.90014982,109128831,1000,1000,1000,1000,0,0,0,0,0,0,0,0,0,0
1683033290.00010991,109228791,1000,1000,1000,1000,0,0,0,0,0,0,0,0,0,0
1683033290.10007000,109328751,1000,1000,1000,1000,0,0,0,0,0,0,0,0,0,0
1683033290.20002985,109428711,1000,1000,1000,1000,0,0,0,0,0,0,0,0,0,0
1683033290.29998994,109528671,1000,1000,1000,1000,0,0,0,0,0,0,0,0,0,0
1683033290.39995003,109628631,1000,1000,1000,1000,0,0,0,0,0,0,0,0,0,0
1683033290.49990988,109728591,1000,1000,1000,1000,0,0,0,0,0,0,0,0,0,0
1683033290.59986997,109828551,1000,1000,1000,1000,0,0,0,0,0,0,0,0,0,0
1683033290.69982982,109928511,1000,1000,1000,1000,0,0,0,0,0,0,0,0,0,0
1683033290.79978991,110028471,1000,1000,1000,1000,0,0,0,0,0,0,0,0,0,0
1683033290.89974999,110128431,1000,1000,1000,1000,0,0,0,0,0,0,0,0,0,0
1683033290.99970984,110228391,1000,1000,1000,1000,0,0,0,0,0,0,0,0,0,0
1683033291.09966993,110328351,1000,1000,1000,1000,0,0,0,0,0,0,0,0,0,0
1683033291.19963002,110428311,1000,1000,1000,1000,0,0,0,0,0,0,0,0,0,0
1683033291.29958987,110528271,1000,1000,1000,1000,0,0,0,0,0,0,0,0,0,0
1683033291.39954996,110628231,1000,1000,1000,1000,0,0,0,0,0,0,0,0,0,0
1683033291.49950981,110728191,1000,1000,1000,1000,0,0,0,0,0,0,0,0,0,0
1683033291.60030293,110828984,1000,1000,1000,1000,0,0,0,0,0,0,0,0,0,0
1683033291.70026302,110928944,1000,1000,1000,1000,0,0,0,0,0,0,0,0,0,0
1683033291.80022287,111028904,1000,1000,1000,1000,0,0,0,0,0,0,0,0,0,0
1683033291.90018296,111128864,1000,1000,1000,1000,0,0,0,0,0,0,0,0,0,0
1683033292.00014281,111228824,1000,1000,1000,1000,0,0,0,0,0,0,0,0,0,0
1683033292.10010290,111328784,1000,1000,1000,1000,0,0,0,0,0,0,0,0,0,0
1683033292.20006299,111428744,1000,1000,1000,1000,0,0,0,0,0,0,0,0,0,0
1683033292.30002284,111528704,1000,1000,1000,1000,0,0,0,0,0,0,0,0,0,0
1683033292.39998293,111628664,1000,1000,1000,1000,0,0,0,0,0,0,0,0,0,0
1683033292.49994302,111728624,1000,1000,1000,1000,0,0,0,0,0,0,0,0,0,0
1683033292.59990287,111828584,1000,1000,1000,1000,0,0,0,0,0,0,0,0,0,0
1683033292.69986296,111928544,1000,1000,1000,1000,0,0,0,0,0,0,0,0,0,0
1683033292.79982281,112028504,1000,1000,1000,1000,0,0,0,0,0,0,0,0,0,0
1683033292.89978290,112128464,1000,1000,1000,1000,0,0,0,0,0,0,0,0,0,0
1683033292.99974298,112228424,1000,1000,1000,1000,0,0,0,0,0,0,0,0,0,0
1683033293.09970284,112328384,1000,1000,1000,1000,0,0,0,0,0,0,0,0,0,0
1683033293.19966292,112428344,1000,1000,1000,1000,0,0,0,0,0,0,0,0,0,0
1683033293.29962301,112528304,1000,1000,1000,1000,0,0,0,0,0,0,0,0,0,0
1683033293.39958286,112628264,1000,1000,1000,1000,0,0,0,0,0,0,0,0,0,0
1683033293.49954295,112728224,1000,1000,1000,1000,0,0,0,0,0,0,0,0,0,0
1683033293.59950280,112828184,1000,1000,1000,1000,0,0,0,0,0,0,0,0,0,0
1683033293.70029593,112928977,1000,1000,1000,1000,0,0,0,0,0,0,0,0,0,0
1683033293.80025601,113028937,1000,1000,1000,1000,0,0,0,0,0,0,0,0,0,0
1683033293.90021586,113128897,1000,1000,1000,1000,0,0,0,0,0,0,0,0,0,0
1683033294.00017595,113228857,1000,1000,1000,1000,0,0,0,0,0,0,0,0,0,0
1683033294.10013580,113328817,1000,1000,1000,1000,0,0,0,0,0,0,0,0,0,0
1683033294.20009589,113428777,1000,1000,1000,1000,0,0,0,0,0,0,0,0,0,0
1683033294.30005598,113528737,1000,1000,1000,1000,0,0,0,0,0,0,0,0,0,0
1683033294.40001583,113628697,1000,1000,1000,1000,0,0,0,0,0,0,0,0,0,0
1683033294.49997592,113728657,1000,1000,1000,1000,0,0,0,0,0,0,0,0,0,0
1683033294.59993601,113828617,1000,1000,1000,1000,0,0,0,0,0,0,0,0,0,0
1683033294.69989586,113928577,1000,1000,1000,1000,0,0,0,0,0,0,0,0,0,0
1683033294.79985595,114028537,1000,1000,1000,1000,0,0,0,0,0,0,0,0,0,0
