timestamp,TimeUS,C1,C2,C3,C4,C5,C6,C7,C8,C9,C10,C11,C12,C13,C14
1682932916.59999990,62428352,1000,1000,1000,1000,0,0,0,0,0,0,0,0,0,0
1682932916.69995975,62528312,1000,1000,1000,1000,0,0,0,0,0,0,0,0,0,0
1682932916.79991984,62628272,1000,1000,1000,1000,0,0,0,0,0,0,0,0,0,0
1682932916.89987969,62728232,1000,1000,1000,1000,0,0,0,0,0,0,0,0,0,0
1682932916.99983978,62828192,1000,1000,1000,1000,0,0,0,0,0,0,0,0,0,0
1682932917.10063291,62928985,1000,1000,1000,1000,0,0,0,0,0,0,0,0,0,0
1682932917.20059276,63028945,1000,1000,1000,1000,0,0,0,0,0,0,0,0,0,0
1682932917.30055285,63128905,1000,1000,1000,1000,0,0,0,0,0,0,0,0,0,0
1682932917.40051270,63228865,1000,1000,1000,1000,0,0,0,0,0,0,0,0,0,0
1682932917.50047278,63328825,1000,1000,1000,1000,0,0,0,0,0,0,0,0,0,0
1682932917.60043287,63428785,1000,1000,1000,1000,0,0,0,0,0,0,0,0,0,0
1682932917.70039272,63528745,1000,1000,1000,1000,0,0,0,0,0,0,0,0,0,0
1682932917.80035281,63628705,1000,1000,1000,1000,0,0,0,0,0,0,0,0,0,0
1682932917.90031290,63728665,1000,1000,1000,1000,0,0,0,0,0,0,0,0,0,0
1682932918.00027275,63828625,1000,1000,1000,1000,0,0,0,0,0,0,0,0,0,0
1682932918.10023284,63928585,1000,1000,1000,1000,0,0,0,0,0,0,0,0,0,0
1682932918.20019269,64028545,1000,1000,1000,1000,0,0,0,0,0,0,0,0,0,0
1682932918.30015278,64128505,1000,1000,1000,1000,0,0,0,0,0,0,0,0,0,0
1682932918.40011287,64228465,1000,1000,1000,1000,0,0,0,0,0,0,0,0,0,0
1682932918.50007272,64328425,1000,1000,1000,1000,0,0,0,0,0,0,0,0,0,0
1682932918.60003281,64428385,1024,1024,1024,1024,0,0,0,0,0,0,0,0,0,0
1682932918.69999290,64528345,1054,1054,1054,1054,0,0,0,0,0,0,0,0,0,0
1682932918.79995275,64628305,1084,1084,1084,1084,0,0,0,0,0,0,0,0,0,0
1682932918.89991283,64728265,1114,1114,1114,1114,0,0,0,0,0,0,0,0,0,0
1682932918.99987268,64828225,1144,1144,1144,1144,0,0,0,0,0,0,0,0,0,0
1682932919.09983277,64928185,1363,1356,1356,1364,0,0,0,0,0,0,0,0,0,0
1682932919.20062590,65028978,1551,1545,1545,1551,0,0,0,0,0,0,0,0,0,0
1682932919.30058575,65128938,1702,1697,1697,1703,0,0,0,0,0,0,0,0,0,0
1682932919.40054584,65228898,1833,1828,1828,1834,0,0,0,0,0,0,0,0,0,0
1682932919.50050569,65328858,1860,1854,1854,1861,0,0,0,0,0,0,0,0,0,0
1682932919.60046577,65428818,1826,1824,1824,1827,0,0,0,0,0,0,0,0,0,0
1682932919.70042586,65528778,1698,1698,1698,1698,0,0,0,0,0,0,0,0,0,0
1682932919.80038571,65628738,1624,1627,1627,1625,0,0,0,0,0,0,0,0,0,0
1682932919.90034580,65728698,1616,1618,1618,1615,0,0,0,0,0,0,0,0,0,0
1682932920.00030589,65828658,1625,1626,1622,1630,0,0,0,0,0,0,0,0,0,0
1682932920.10026574,65928618,1631,1633,1627,1636,0,0,0,0,0,0,0,0,0,0
1682932920.20022583,66028578,1630,1632,1629,1632,0,0,0,0,0,0,0,0,0,0
1682932920.30018568,66128538,1626,1626,1627,1625,0,0,0,0,0,0,0,0,0,0
1682932920.40014577,66228498,1622,1621,1624,1619,0,0,0,0,0,0,0,0,0,0
1682932920.50010586,66328458,1620,1619,1622,1616,0,0,0,0,0,0,0,0,0,0
1682932920.60006571,66428418,1620,1619,1622,1617,0,0,0,0,0,0,0,0,0,0
1682932920.70002580,66528378,1622,1621,1623,1620,0,0,0,0,0,0,0,0,0,0
1682932920.79998589,66628338,1622,1623,1623,1622,0,0,0,0,0,0,0,0,0,0
1682932920.89994574,66728298,1591,1591,1597,1585,0,0,0,0,0,0,0,0,0,0
1682932920.99990582,66828258,1576,1577,1582,1571,0,0,0,0,0,0,0,0,0,0
1682932921.09986567,66928218,1565,1565,1566,1564,0,0,0,0,0,0,0,0,0,0
1682932921.19982576,67028178,1556,1556,1553,1559,0,0,0,0,0,0,0,0,0,0
1682932921.30061889,67128971,1548,1547,1540,1556,0,0,0,0,0,0,0,0,0,0
1682932921.40057874,67228931,1541,1541,1532,1549,0,0,0,0,0,0,0,0,0,0
1682932921.50053883,67328891,1535,1535,1529,1540,0,0,0,0,0,0,0,0,0,0
1682932921.60049868,67428851,1530,1530,1528,1531,0,0,0,0,0,0,0,0,0,0
1682932921.70045877,67528811,1528,1528,1528,1527,0,0,0,0,0,0,0,0,0,0
1682932921.80041885,67628771,1529,1529,1531,1527,0,0,0,0,0,0,0,0,0,0
1682932921.90037870,67728731,1530,1530,1533,1527,0,0,0,0,0,0,0,0,0,0
1682932922.00033879,67828691,1534,1534,1537,1531,0,0,0,0,0,0,0,0,0,0
1682932922.10029888,67928651,1537,1537,1539,1535,0,0,0,0,0,0,0,0,0,0
1682932922.20025873,68028611,1541,1541,1543,1540,0,0,0,0,0,0,0,0,0,0
1682932922.30021882,68128571,1544,1544,1544,1543,0,0,0,0,0,0,0,0,0,0
1682932922.40017867,68228531,1546,1546,1546,1547,0,0,0,0,0,0,0,0,0,0
1682932922.50013876,68328491,1549,1550,1549,1550,0,0,0,0,0,0,0,0,0,0
1682932922.60009885,68428451,1551,1552,1551,1553,0,0,0,0,0,0,0,0,0,0
1682932922.70005870,68528411,1554,1554,1553,1556,0,0,0,0,0,0,0,0,0,0
1682932922.80001879,68628371,1556,1556,1555,1557,0,0,0,0,0,0,0,0,0,0
1682932922.89997888,68728331,1558,1557,1559,1561,0,0,0,0,0,0,0,0,0,0
1682932922.99993873,68828291,1559,1559,1563,1563,0,0,0,0,0,0,0,0,0,0
1682932923.09989882,68928251,1561,1561,1566,1565,0,0,0,0,0,0,0,0,0,0
1682932923.19985890,69028211,1562,1563,1567,1566,0,0,0,0,0,0,0,0,0,0
1682932923.29981875,69128171,1564,1564,1568,1567,0,0,0,0,0,0,0,0,0,0
1682932923.40061188,69228964,1567,1567,1569,1569,0,0,0,0,0,0,0,0,0,0
1682932923.50057173,69328924,1568,1568,1568,1569,0,0,0,0,0,0,0,0,0,0
1682932923.60053182,69428884,1569,1570,1569,1569,0,0,0,0,0,0,0,0,0,0
1682932923.70049191,69528844,1571,1571,1569,1569,0,0,0,0,0,0,0,0,0,0
1682932923.80045176,69628804,1573,1572,1570,1570,0,0,0,0,0,0,0,0,0,0
1682932923.90041184,69728764,1573,1572,1569,1570,0,0,0,0,0,0,0,0,0,0
1682932924.00037169,69828724,1574,1574,1571,1571,0,0,0,0,0,0,0,0,0,0
1682932924.10033178,69928684,1574,1575,1572,1571,0,0,0,0,0,0,0,0,0,0
1682932924.20029187,70028644,1575,1575,1573,1572,0,0,0,0,0,0,0,0,0,0
1682932924.30025172,70128604,1576,1576,1575,1574,0,0,0,0,0,0,0,0,0,0
1682932924.40021181,70228564,1575,1575,1574,1573,0,0,0,0,0,0,0,0,0,0
1682932924.50017190,70328524,1576,1575,1575,1575,0,0,0,0,0,0,0,0,0,0
1682932924.60013175,70428484,1575,1575,1575,1575,0,0,0,0,0,0,0,0,0,0
1682932924.70009184,70528444,1576,1576,1576,1576,0,0,0,0,0,0,0,0,0,0
1682932924.80005169,70628404,1576,1576,1577,1577,0,0,0,0,0,0,0,0,0,0
1682932924.90001178,70728364,1576,1575,1576,1576,0,0,0,0,0,0,0,0,0,0
1682932924.99997187,70828324,1575,1576,1577,1577,0,0,0,0,0,0,0,0,0,0
1682932925.09993172,70928284,1576,1576,1577,1577,0,0,0,0,0,0,0,0,0,0
1682932925.19989181,71028244,1576,1577,1577,1577,0,0,0,0,0,0,0,0,0,0
1682932925.29985189,71128204,1576,1576,1577,1577,0,0,0,0,0,0,0,0,0,0
1682932925.39981174,71228164,1577,1577,1577,1577,0,0,0,0,0,0,0,0,0,0
1682932925.50060487,71328957,1579,1577,1578,1578,0,0,0,0,0,0,0,0,0,0
1682932925.60056472,71428917,1578,1578,1578,1578,0,0,0,0,0,0,0,0,0,0
1682932925.70052481,71528877,1578,1578,1578,1578,0,0,0,0,0,0,0,0,0,0
1682932925.80048490,71628837,1579,1579,1578,1578,0,0,0,0,0,0,0,0,0,0
1682932925.90044475,71728797,1577,1578,1577,1577,0,0,0,0,0,0,0,0,0,0
1682932926.00040483,71828757,1579,1579,1578,1579,0,0,0,0,0,0,0,0,0,0
1682932926.10036469,71928717,1579,1579,1579,1579,0,0,0,0,0,0,0,0,0,0
1682932926.20032477,72028677,1579,1579,1578,1579,0,0,0,0,0,0,0,0,0,0
1682932926.30028486,72128637,1580,1580,1580,1580,0,0,0,0,0,0,0,0,0,0
1682932926.40024471,72228597,1579,1579,1579,1579,0,0,0,0,0,0,0,0,0,0
1682932926.50020480,72328557,1578,1578,1578,1579,0,0,0,0,0,0,0,0,0,0
1682932926.60016489,72428517,1579,1580,1580,1580,0,0,0,0,0,0,0,0,0,0
1682932926.70012474,72528477,1580,1580,1580,1580,0,0,0,0,0,0,0,0,0,0
1682932926.80008483,72628437,1579,1580,1580,1579,0,0,0,0,0,0,0,0,0,0
1682932926.90004468,72728397,1579,1580,1580,1580,0,0,0,0,0,0,0,0,0,0
1682932927.00000477,72828357,1581,1580,1580,1581,0,0,0,0,0,0,0,0,0,0
1682932927.09996486,72928317,1580,1580,1580,1580,0,0,0,0,0,0,0,0,0,0
1682932927.19992471,73028277,1580,1579,1580,1579,0,0,0,0,0,0,0,0,0,0
1682932927.29988480,73128237,1580,1579,1579,1580,0,0,0,0,0,0,0,0,0,0
1682932927.39984488,73228197,1579,1580,1580,1580,0,0,0,0,0,0,0,0,0,0
1682932927.49980474,73328157,1581,1581,1581,1581,0,0,0,0,0,0,0,0,0,0
1682932927.60059786,73428950,1580,1579,1580,1580,0,0,0,0,0,0,0,0,0,0
1682932927.70055771,73528910,1580,1580,1580,1580,0,0,0,0,0,0,0,0,0,0
1682932927.80051780,73628870,1580,1580,1580,1580,0,0,0,0,0,0,0,0,0,0
1682932927.90047789,73728830,1581,1581,1581,1581,0,0,0,0,0,0,0,0,0,0
1682932928.00043774,73828790,1579,1579,1580,1580,0,0,0,0,0,0,0,0,0,0
1682932928.10039783,73928750,1580,1580,1580,1581,0,0,0,0,0,0,0,0,0,0
1682932928.20035768,74028710,1580,1580,1580,1580,0,0,0,0,0,0,0,0,0,0
1682932928.30031776,74128670,1581,1581,1581,1581,0,0,0,0,0,0,0,0,0,0
1682932928.40027785,74228630,1580,1581,1581,1581,0,0,0,0,0,0,0,0,0,0
1682932928.50023770,74328590,1581,1581,1581,1581,0,0,0,0,0,0,0,0,0,0
1682932928.60019779,74428550,1581,1581,1581,1581,0,0,0,0,0,0,0,0,0,0
1682932928.70015788,74528510,1582,1581,1582,1581,0,0,0,0,0,0,0,0,0,0
1682932928.80011773,74628470,1581,1580,1581,1581,0,0,0,0,0,0,0,0,0,0
1682932928.90007782,74728430,1581,1581,1582,1579,0,0,0,0,0,0,0,0,0,0
1682932929.00003767,74828390,1581,1583,1588,1574,0,0,0,0,0,0,0,0,0,0
1682932929.09999776,74928350,1580,1582,1583,1574,0,0,0,0,0,0,0,0,0,0
1682932929.19995785,75028310,1578,1582,1575,1573,0,0,0,0,0,0,0,0,0,0
1682932929.29991770,75128270,1576,1580,1565,1571,0,0,0,0,0,0,0,0,0,0
1682932929.39987779,75228230,1577,1579,1559,1566,0,0,0,0,0,0,0,0,0,0
1682932929.49983788,75328190,1578,1578,1556,1562,0,0,0,0,0,0,0,0,0,0
1682932929.60063076,75428983,1579,1577,1555,1557,0,0,0,0,0,0,0,0,0,0
1682932929.70059085,75528943,1580,1578,1555,1555,0,0,0,0,0,0,0,0,0,0
1682932929.80055070,75628903,1578,1577,1555,1553,0,0,0,0,0,0,0,0,0,0
1682932929.90051079,75728863,1578,1578,1556,1554,0,0,0,0,0,0,0,0,0,0
1682932930.00047088,75828823,1577,1578,1556,1554,0,0,0,0,0,0,0,0,0,0
1682932930.10043073,75928783,1576,1577,1556,1555,0,0,0,0,0,0,0,0,0,0
1682932930.20039082,76028743,1574,1576,1554,1553,0,0,0,0,0,0,0,0,0,0
1682932930.30035090,76128703,1574,1576,1552,1553,0,0,0,0,0,0,0,0,0,0
1682932930.40031075,76228663,1575,1577,1551,1551,0,0,0,0,0,0,0,0,0,0
1682932930.50027084,76328623,1576,1577,1548,1549,0,0,0,0,0,0,0,0,0,0
1682932930.60023069,76428583,1579,1580,1546,1547,0,0,0,0,0,0,0,0,0,0
1682932930.70019078,76528543,1580,1581,1542,1542,0,0,0,0,0,0,0,0,0,0
1682932930.80015087,76628503,1584,1584,1541,1540,0,0,0,0,0,0,0,0,0,0
1682932930.90011072,76728463,1588,1588,1538,1538,0,0,0,0,0,0,0,0,0,0
1682932931.00007081,76828423,1590,1590,1535,1535,0,0,0,0,0,0,0,0,0,0
1682932931.10003090,76928383,1593,1593,1534,1534,0,0,0,0,0,0,0,0,0,0
1682932931.19999075,77028343,1595,1595,1534,1535,0,0,0,0,0,0,0,0,0,0
1682932931.29995084,77128303,1594,1595,1534,1536,0,0,0,0,0,0,0,0,0,0
1682932931.39991069,77228263,1594,1594,1536,1538,0,0,0,0,0,0,0,0,0,0
1682932931.49987078,77328223,1592,1591,1540,1543,0,0,0,0,0,0,0,0,0,0
1682932931.59983087,77428183,1587,1585,1546,1549,0,0,0,0,0,0,0,0,0,0
1682932931.70062375,77528976,1581,1578,1555,1558,0,0,0,0,0,0,0,0,0,0
1682932931.80058384,77628936,1572,1569,1566,1569,0,0,0,0,0,0,0,0,0,0
1682932931.90054369,77728896,1562,1557,1578,1580,0,0,0,0,0,0,0,0,0,0
1682932932.00050378,77828856,1550,1547,1590,1592,0,0,0,0,0,0,0,0,0,0
1682932932.10046387,77928816,1539,1537,1601,1601,0,0,0,0,0,0,0,0,0,0
1682932932.20042372,78028776,1532,1532,1610,1609,0,0,0,0,0,0,0,0,0,0
1682932932.30038381,78128736,1529,1530,1615,1614,0,0,0,0,0,0,0,0,0,0
1682932932.40034389,78228696,1529,1530,1616,1615,0,0,0,0,0,0,0,0,0,0
1682932932.50030375,78328656,1532,1535,1613,1613,0,0,0,0,0,0,0,0,0,0
1682932932.60026383,78428616,1539,1541,1608,1609,0,0,0,0,0,0,0,0,0,0
1682932932.70022368,78528576,1547,1549,1602,1602,0,0,0,0,0,0,0,0,0,0
1682932932.80018377,78628536,1556,1557,1594,1594,0,0,0,0,0,0,0,0,0,0
1682932932.90014386,78728496,1565,1565,1587,1586,0,0,0,0,0,0,0,0,0,0
1682932933.00010371,78828456,1573,1572,1580,1578,0,0,0,0,0,0,0,0,0,0
1682932933.10006380,78928416,1579,1579,1574,1573,0,0,0,0,0,0,0,0,0,0
1682932933.20002389,79028376,1584,1583,1569,1569,0,0,0,0,0,0,0,0,0,0
1682932933.29998374,79128336,1587,1586,1567,1567,0,0,0,0,0,0,0,0,0,0
1682932933.39994383,79228296,1588,1586,1565,1565,0,0,0,0,0,0,0,0,0,0
1682932933.49990368,79328256,1587,1586,1566,1566,0,0,0,0,0,0,0,0,0,0
1682932933.59986377,79428216,1584,1583,1567,1567,0,0,0,0,0,0,0,0,0,0
1682932933.69982386,79528176,1398,1538,1387,1527,0,0,0,0,0,0,0,0,0,0
1682932933.80061674,79628969,1527,1552,1521,1548,0,0,0,0,0,0,0,0,0,0
1682932933.90057683,79728929,1618,1577,1620,1578,0,0,0,0,0,0,0,0,0,0
1682932934.00053668,79828889,1700,1629,1706,1636,0,0,0,0,0,0,0,0,0,0
1682932934.10049677,79928849,1701,1630,1706,1637,0,0,0,0,0,0,0,0,0,0
1682932934.20045686,80028809,1705,1657,1706,1656,0,0,0,0,0,0,0,0,0,0
1682932934.30041671,80128769,1706,1678,1701,1665,0,0,0,0,0,0,0,0,0,0
1682932934.40037680,80228729,1706,1701,1697,1675,0,0,0,0,0,0,0,0,0,0
1682932934.50033689,80328689,1682,1700,1674,1665,0,0,0,0,0,0,0,0,0,0
1682932934.60029674,80428649,1618,1651,1618,1637,0,0,0,0,0,0,0,0,0,0
1682932934.70025682,80528609,1574,1608,1600,1650,0,0,0,0,0,0,0,0,0,0
1682932934.80021667,80628569,1545,1569,1604,1663,0,0,0,0,0,0,0,0,0,0
1682932934.90017676,80728529,1530,1541,1612,1659,0,0,0,0,0,0,0,0,0,0
1682932935.00013685,80828489,1529,1530,1615,1639,0,0,0,0,0,0,0,0,0,0
1682932935.10009670,80928449,1538,1537,1609,1611,0,0,0,0,0,0,0,0,0,0
1682932935.20005679,81028409,1555,1554,1597,1582,0,0,0,0,0,0,0,0,0,0
1682932935.30001688,81128369,1575,1577,1583,1562,0,0,0,0,0,0,0,0,0,0
1682932935.39997673,81228329,1591,1595,1566,1546,0,0,0,0,0,0,0,0,0,0
1682932935.49993682,81328289,1603,1608,1551,1538,0,0,0,0,0,0,0,0,0,0
1682932935.59989667,81428249,1609,1611,1540,1534,0,0,0,0,0,0,0,0,0,0
1682932935.69985676,81528209,1608,1608,1532,1534,0,0,0,0,0,0,0,0,0,0
1682932935.79981685,81628169,1605,1602,1531,1536,0,0,0,0,0,0,0,0,0,0
1682932935.90060973,81728962,1599,1595,1533,1540,0,0,0,0,0,0,0,0,0,0
1682932936.00056982,81828922,1592,1588,1540,1546,0,0,0,0,0,0,0,0,0,0
1682932936.10052967,81928882,1585,1582,1549,1553,0,0,0,0,0,0,0,0,0,0
1682932936.20048976,82028842,1578,1578,1559,1559,0,0,0,0,0,0,0,0,0,0
1682932936.30044985,82128802,1572,1573,1567,1566,0,0,0,0,0,0,0,0,0,0
1682932936.40040970,82228762,1567,1569,1574,1573,0,0,0,0,0,0,0,0,0,0
1682932936.50036979,82328722,1565,1566,1581,1580,0,0,0,0,0,0,0,0,0,0
1682932936.60032988,82428682,1562,1564,1585,1583,0,0,0,0,0,0,0,0,0,0
1682932936.70028973,82528642,1562,1563,1588,1587,0,0,0,0,0,0,0,0,0,0
1682932936.80024981,82628602,1563,1564,1589,1589,0,0,0,0,0,0,0,0,0,0
1682932936.90020990,82728562,1564,1563,1588,1587,0,0,0,0,0,0,0,0,0,0
1682932937.00016975,82828522,1566,1566,1593,1577,0,0,0,0,0,0,0,0,0,0
1682932937.10012984,82928482,1568,1570,1588,1575,0,0,0,0,0,0,0,0,0,0
1682932937.20008969,83028442,1569,1572,1577,1573,0,0,0,0,0,0,0,0,0,0
1682932937.30004978,83128402,1571,1571,1567,1571,0,0,0,0,0,0,0,0,0,0
1682932937.40000987,83228362,1571,1571,1558,1566,0,0,0,0,0,0,0,0,0,0
1682932937.49996972,83328322,1573,1572,1553,1560,0,0,0,0,0,0,0,0,0,0
1682932937.59992981,83428282,1576,1575,1551,1556,0,0,0,0,0,0,0,0,0,0
1682932937.69988990,83528242,1577,1576,1549,1552,0,0,0,0,0,0,0,0,0,0
1682932937.79984975,83628202,1579,1578,1549,1548,0,0,0,0,0,0,0,0,0,0
1682932937.89980984,83728162,1579,1579,1550,1547,0,0,0,0,0,0,0,0,0,0
1682932938.00060272,83828955,1579,1580,1550,1547,0,0,0,0,0,0,0,0,0,0
1682932938.10056281,83928915,1580,1580,1551,1549,0,0,0,0,0,0,0,0,0,0
1682932938.20052290,84028875,1579,1580,1551,1550,0,0,0,0,0,0,0,0,0,0
1682932938.30048275,84128835,1578,1579,1551,1550,0,0,0,0,0,0,0,0,0,0
1682932938.40044284,84228795,1577,1578,1550,1550,0,0,0,0,0,0,0,0,0,0
1682932938.50040269,84328755,1577,1578,1550,1550,0,0,0,0,0,0,0,0,0,0
1682932938.60036278,84428715,1577,1578,1550,1550,0,0,0,0,0,0,0,0,0,0
1682932938.70032287,84528675,1578,1579,1549,1550,0,0,0,0,0,0,0,0,0,0
1682932938.80028272,84628635,1579,1580,1548,1549,0,0,0,0,0,0,0,0,0,0
1682932938.90024281,84728595,1580,1581,1547,1547,0,0,0,0,0,0,0,0,0,0
1682932939.00020289,84828555,1581,1582,1546,1546,0,0,0,0,0,0,0,0,0,0
1682932939.10016274,84928515,1583,1583,1547,1546,0,0,0,0,0,0,0,0,0,0
1682932939.20012283,85028475,1584,1584,1546,1547,0,0,0,0,0,0,0,0,0,0
1682932939.30008268,85128435,1583,1582,1546,1547,0,0,0,0,0,0,0,0,0,0
1682932939.40004277,85228395,1583,1582,1549,1550,0,0,0,0,0,0,0,0,0,0
1682932939.50000286,85328355,1582,1581,1551,1553,0,0,0,0,0,0,0,0,0,0
1682932939.59996271,85428315,1579,1579,1554,1556,0,0,0,0,0,0,0,0,0,0
1682932939.69992280,85528275,1576,1575,1558,1560,0,0,0,0,0,0,0,0,0,0
1682932939.79988289,85628235,1571,1570,1562,1564,0,0,0,0,0,0,0,0,0,0
1682932939.89984274,85728195,1568,1567,1569,1571,0,0,0,0,0,0,0,0,0,0
1682932939.99980283,85828155,1563,1561,1576,1577,0,0,0,0,0,0,0,0,0,0
1682932940.10059571,85928948,1558,1556,1582,1583,0,0,0,0,0,0,0,0,0,0
1682932940.20055580,86028908,1554,1553,1588,1588,0,0,0,0,0,0,0,0,0,0
1682932940.30051589,86128868,1551,1550,1594,1593,0,0,0,0,0,0,0,0,0,0
1682932940.40047574,86228828,1548,1549,1597,1596,0,0,0,0,0,0,0,0,0,0
1682932940.50043583,86328788,1548,1549,1599,1598,0,0,0,0,0,0,0,0,0,0
1682932940.60039568,86428748,1549,1550,1599,1598,0,0,0,0,0,0,0,0,0,0
1682932940.70035577,86528708,1551,1552,1597,1596,0,0,0,0,0,0,0,0,0,0
1682932940.80031586,86628668,1554,1555,1594,1594,0,0,0,0,0,0,0,0,0,0
1682932940.90027571,86728628,1558,1558,1590,1590,0,0,0,0,0,0,0,0,0,0
1682932941.00023580,86828588,1564,1563,1587,1588,0,0,0,0,0,0,0,0,0,0
1682932941.10019588,86928548,1568,1568,1584,1584,0,0,0,0,0,0,0,0,0,0
1682932941.20015574,87028508,1572,1572,1581,1580,0,0,0,0,0,0,0,0,0,0
1682932941.30011582,87128468,1575,1574,1577,1577,0,0,0,0,0,0,0,0,0,0
1682932941.40007567,87228428,1579,1577,1575,1575,0,0,0,0,0,0,0,0,0,0
1682932941.50003576,87328388,1581,1580,1573,1574,0,0,0,0,0,0,0,0,0,0
1682932941.59999585,87428348,1582,1581,1573,1573,0,0,0,0,0,0,0,0,0,0
1682932941.69995570,87528308,1582,1581,1572,1573,0,0,0,0,0,0,0,0,0,0
1682932941.79991579,87628268,1581,1581,1573,1573,0,0,0,0,0,0,0,0,0,0
1682932941.89987588,87728228,1581,1581,1574,1575,0,0,0,0,0,0,0,0,0,0
1682932941.99983573,87828188,1580,1580,1576,1576,0,0,0,0,0,0,0,0,0,0
1682932942.10062885,87928981,1579,1579,1577,1577,0,0,0,0,0,0,0,0,0,0
1682932942.20058870,88028941,1579,1579,1579,1579,0,0,0,0,0,0,0,0,0,0
1682932942.30054879,88128901,1579,1579,1581,1581,0,0,0,0,0,0,0,0,0,0
1682932942.40050888,88228861,1578,1578,1582,1581,0,0,0,0,0,0,0,0,0,0
1682932942.50046873,88328821,1577,1577,1582,1581,0,0,0,0,0,0,0,0,0,0
1682932942.60042882,88428781,1576,1577,1582,1582,0,0,0,0,0,0,0,0,0,0
1682932942.70038867,88528741,1576,1577,1582,1582,0,0,0,0,0,0,0,0,0,0
1682932942.80034876,88628701,1577,1577,1582,1583,0,0,0,0,0,0,0,0,0,0
1682932942.90030885,88728661,1576,1576,1581,1581,0,0,0,0,0,0,0,0,0,0
1682932943.00026870,88828621,1578,1578,1581,1581,0,0,0,0,0,0,0,0,0,0
1682932943.10022879,88928581,1578,1578,1580,1580,0,0,0,0,0,0,0,0,0,0
1682932943.20018888,89028541,1579,1579,1579,1580,0,0,0,0,0,0,0,0,0,0
1682932943.30014873,89128501,1579,1579,1578,1579,0,0,0,0,0,0,0,0,0,0
1682932943.40010881,89228461,1580,1580,1579,1579,0,0,0,0,0,0,0,0,0,0
1682932943.50006890,89328421,1580,1580,1579,1578,0,0,0,0,0,0,0,0,0,0
1682932943.60002875,89428381,1582,1581,1579,1579,0,0,0,0,0,0,0,0,0,0
1682932943.69998884,89528341,1581,1580,1579,1579,0,0,0,0,0,0,0,0,0,0
1682932943.79994869,89628301,1581,1581,1579,1578,0,0,0,0,0,0,0,0,0,0
1682932943.89990878,89728261,1581,1581,1579,1579,0,0,0,0,0,0,0,0,0,0
1682932943.99986887,89828221,1580,1581,1579,1579,0,0,0,0,0,0,0,0,0,0
1682932944.09982872,89928181,1580,1581,1580,1580,0,0,0,0,0,0,0,0,0,0
1682932944.20062184,90028974,1581,1582,1580,1581,0,0,0,0,0,0,0,0,0,0
1682932944.30058169,90128934,1581,1581,1581,1581,0,0,0,0,0,0,0,0,0,0
1682932944.40054178,90228894,1581,1581,1581,1582,0,0,0,0,0,0,0,0,0,0
1682932944.50050187,90328854,1580,1579,1581,1581,0,0,0,0,0,0,0,0,0,0
1682932944.60046172,90428814,1580,1580,1581,1581,0,0,0,0,0,0,0,0,0,0
1682932944.70042181,90528774,1581,1580,1581,1581,0,0,0,0,0,0,0,0,0,0
1682932944.80038190,90628734,1581,1581,1582,1582,0,0,0,0,0,0,0,0,0,0
1682932944.90034175,90728694,1580,1580,1581,1581,0,0,0,0,0,0,0,0,0,0
1682932945.00030184,90828654,1580,1581,1581,1581,0,0,0,0,0,0,0,0,0,0
1682932945.10026169,90928614,1581,1581,1581,1582,0,0,0,0,0,0,0,0,0,0
1682932945.20022178,91028574,1581,1581,1581,1582,0,0,0,0,0,0,0,0,0,0
1682932945.30018187,91128534,1581,1581,1581,1581,0,0,0,0,0,0,0,0,0,0
1682932945.40014172,91228494,1581,1582,1581,1581,0,0,0,0,0,0,0,0,0,0
1682932945.50010180,91328454,1583,1583,1582,1582,0,0,0,0,0,0,0,0,0,0
1682932945.60006189,91428414,1582,1583,1586,1576,0,0,0,0,0,0,0,0,0,0
1682932945.70002174,91528374,1582,1583,1587,1573,0,0,0,0,0,0,0,0,0,0
1682932945.79998183,91628334,1581,1583,1581,1574,0,0,0,0,0,0,0,0,0,0
1682932945.89994168,91728294,1578,1580,1573,1572,0,0,0,0,0,0,0,0,0,0
1682932945.99990177,91828254,1576,1579,1565,1570,0,0,0,0,0,0,0,0,0,0
1682932946.09986186,91928214,1576,1578,1559,1566,0,0,0,0,0,0,0,0,0,0
1682932946.19982171,92028174,1577,1577,1555,1562,0,0,0,0,0,0,0,0,0,0
1682932946.30061483,92128967,1579,1578,1555,1559,0,0,0,0,0,0,0,0,0,0
1682932946.40057468,92228927,1579,1577,1555,1555,0,0,0,0,0,0,0,0,0,0
1682932946.50053477,92328887,1579,1578,1555,1554,0,0,0,0,0,0,0,0,0,0
1682932946.60049486,92428847,1578,1578,1555,1552,0,0,0,0,0,0,0,0,0,0
1682932946.70045471,92528807,1578,1578,1555,1553,0,0,0,0,0,0,0,0,0,0
1682932946.80041480,92628767,1577,1578,1555,1553,0,0,0,0,0,0,0,0,0,0
1682932946.90037489,92728727,1576,1577,1553,1553,0,0,0,0,0,0,0,0,0,0
1682932947.00033474,92828687,1576,1577,1553,1553,0,0,0,0,0,0,0,0,0,0
1682932947.10029483,92928647,1576,1577,1551,1551,0,0,0,0,0,0,0,0,0,0
1682932947.20025468,93028607,1576,1578,1549,1550,0,0,0,0,0,0,0,0,0,0
1682932947.30021477,93128567,1578,1580,1548,1549,0,0,0,0,0,0,0,0,0,0
1682932947.40017486,93228527,1581,1582,1547,1547,0,0,0,0,0,0,0,0,0,0
1682932947.50013471,93328487,1583,1584,1544,1544,0,0,0,0,0,0,0,0,0,0
1682932947.60009480,93428447,1585,1586,1542,1542,0,0,0,0,0,0,0,0,0,0
1682932947.70005488,93528407,1589,1589,1541,1541,0,0,0,0,0,0,0,0,0,0
1682932947.80001473,93628367,1591,1591,1540,1540,0,0,0,0,0,0,0,0,0,0
1682932947.89997482,93728327,1592,1592,1538,1539,0,0,0,0,0,0,0,0,0,0
1682932947.99993467,93828287,1593,1593,1538,1540,0,0,0,0,0,0,0,0,0,0
1682932948.09989476,93928247,1593,1593,1540,1542,0,0,0,0,0,0,0,0,0,0
1682932948.19985485,94028207,1592,1591,1543,1546,0,0,0,0,0,0,0,0,0,0
1682932948.29981470,94128167,1589,1586,1548,1552,0,0,0,0,0,0,0,0,0,0
1682932948.40060782,94228960,1583,1578,1556,1559,0,0,0,0,0,0,0,0,0,0
1682932948.50056767,94328920,1574,1570,1565,1568,0,0,0,0,0,0,0,0,0,0
1682932948.60052776,94428880,1565,1561,1576,1578,0,0,0,0,0,0,0,0,0,0
1682932948.70048785,94528840,1556,1554,1588,1589,0,0,0,0,0,0,0,0,0,0
1682932948.80044770,94628800,1546,1546,1598,1597,0,0,0,0,0,0,0,0,0,0
1682932948.90040779,94728760,1540,1541,1606,1604,0,0,0,0,0,0,0,0,0,0
1682932949.00036788,94828720,1535,1539,1611,1609,0,0,0,0,0,0,0,0,0,0
1682932949.10032773,94928680,1535,1538,1613,1611,0,0,0,0,0,0,0,0,0,0
1682932949.20028782,95028640,1537,1541,1613,1611,0,0,0,0,0,0,0,0,0,0
1682932949.30024767,95128600,1543,1545,1610,1609,0,0,0,0,0,0,0,0,0,0
1682932949.40020776,95228560,1549,1550,1606,1604,0,0,0,0,0,0,0,0,0,0
1682932949.50016785,95328520,1555,1555,1599,1598,0,0,0,0,0,0,0,0,0,0
1682932949.60012770,95428480,1561,1560,1592,1591,0,0,0,0,0,0,0,0,0,0
1682932949.70008779,95528440,1568,1567,1584,1585,0,0,0,0,0,0,0,0,0,0
1682932949.80004787,95628400,1574,1571,1577,1578,0,0,0,0,0,0,0,0,0,0
1682932949.90000772,95728360,1578,1576,1571,1573,0,0,0,0,0,0,0,0,0,0
1682932949.99996781,95828320,1582,1581,1567,1569,0,0,0,0,0,0,0,0,0,0
1682932950.09992790,95928280,1584,1582,1565,1567,0,0,0,0,0,0,0,0,0,0
1682932950.19988775,96028240,1585,1583,1565,1565,0,0,0,0,0,0,0,0,0,0
1682932950.29984784,96128200,1585,1583,1565,1566,0,0,0,0,0,0,0,0,0,0
1682932950.39980769,96228160,1585,1584,1568,1568,0,0,0,0,0,0,0,0,0,0
1682932950.50060081,96328953,1583,1582,1570,1570,0,0,0,0,0,0,0,0,0,0
1682932950.60056090,96428913,1580,1579,1572,1572,0,0,0,0,0,0,0,0,0,0
1682932950.70052075,96528873,1578,1578,1576,1575,0,0,0,0,0,0,0,0,0,0
1682932950.80048084,96628833,1576,1577,1579,1578,0,0,0,0,0,0,0,0,0,0
1682932950.90044069,96728793,1574,1575,1581,1580,0,0,0,0,0,0,0,0,0,0
1682932951.00040078,96828753,1572,1573,1582,1581,0,0,0,0,0,0,0,0,0,0
1682932951.10036087,96928713,1572,1573,1583,1582,0,0,0,0,0,0,0,0,0,0
1682932951.20032072,97028673,1573,1574,1584,1584,0,0,0,0,0,0,0,0,0,0
1682932951.30028081,97128633,1573,1573,1583,1583,0,0,0,0,0,0,0,0,0,0
1682932951.40024090,97228593,1574,1575,1583,1583,0,0,0,0,0,0,0,0,0,0
1682932951.50020075,97328553,1575,1575,1582,1582,0,0,0,0,0,0,0,0,0,0
1682932951.60016084,97428513,1577,1577,1581,1582,0,0,0,0,0,0,0,0,0,0
1682932951.70012069,97528473,1578,1578,1580,1580,0,0,0,0,0,0,0,0,0,0
1682932951.80008078,97628433,1579,1578,1579,1579,0,0,0,0,0,0,0,0,0,0
1682932951.90004086,97728393,1580,1580,1578,1578,0,0,0,0,0,0,0,0,0,0
1682932952.00000072,97828353,1581,1581,1578,1578,0,0,0,0,0,0,0,0,0,0
1682932952.09996080,97928313,1582,1582,1578,1578,0,0,0,0,0,0,0,0,0,0
1682932952.19992089,98028273,1583,1582,1578,1578,0,0,0,0,0,0,0,0,0,0
1682932952.29988074,98128233,1582,1582,1578,1578,0,0,0,0,0,0,0,0,0,0
1682932952.39984083,98228193,1582,1582,1578,1579,0,0,0,0,0,0,0,0,0,0
1682932952.50063372,98328986,1582,1582,1579,1579,0,0,0,0,0,0,0,0,0,0
1682932952.60059381,98428946,1581,1582,1579,1579,0,0,0,0,0,0,0,0,0,0
1682932952.70055389,98528906,1581,1582,1581,1580,0,0,0,0,0,0,0,0,0,0
1682932952.80051374,98628866,1580,1581,1581,1580,0,0,0,0,0,0,0,0,0,0
1682932952.90047383,98728826,1581,1581,1581,1581,0,0,0,0,0,0,0,0,0,0
1682932953.00043368,98828786,1580,1580,1581,1581,0,0,0,0,0,0,0,0,0,0
1682932953.10039377,98928746,1580,1580,1581,1582,0,0,0,0,0,0,0,0,0,0
1682932953.20035386,99028706,1579,1579,1581,1581,0,0,0,0,0,0,0,0,0,0
1682932953.30031371,99128666,1579,1579,1581,1581,0,0,0,0,0,0,0,0,0,0
1682932953.40027380,99228626,1579,1579,1581,1581,0,0,0,0,0,0,0,0,0,0
1682932953.50023389,99328586,1580,1580,1581,1581,0,0,0,0,0,0,0,0,0,0
1682932953.60019374,99428546,1580,1581,1586,1574,0,0,0,0,0,0,0,0,0,0
1682932953.70015383,99528506,1582,1582,1587,1574,0,0,0,0,0,0,0,0,0,0
1682932953.80011368,99628466,1579,1579,1580,1575,0,0,0,0,0,0,0,0,0,0
1682932953.90007377,99728426,1576,1574,1573,1575,0,0,0,0,0,0,0,0,0,0
1682932954.00003386,99828386,1572,1571,1568,1574,0,0,0,0,0,0,0,0,0,0
1682932954.09999371,99928346,1569,1568,1564,1571,0,0,0,0,0,0,0,0,0,0
1682932954.19995379,100028306,1567,1568,1564,1570,0,0,0,0,0,0,0,0,0,0
1682932954.29991388,100128266,1566,1567,1564,1567,0,0,0,0,0,0,0,0,0,0
1682932954.39987373,100228226,1566,1567,1565,1565,0,0,0,0,0,0,0,0,0,0
1682932954.49983382,100328186,1566,1567,1566,1565,0,0,0,0,0,0,0,0,0,0
1682932954.60062671,100428979,1566,1567,1567,1565,0,0,0,0,0,0,0,0,0,0
1682932954.70058680,100528939,1566,1565,1566,1564,0,0,0,0,0,0,0,0,0,0
1682932954.80054688,100628899,1565,1564,1566,1564,0,0,0,0,0,0,0,0,0,0
1682932954.90050673,100728859,1564,1563,1564,1564,0,0,0,0,0,0,0,0,0,0
1682932955.00046682,100828819,1563,1564,1564,1564,0,0,0,0,0,0,0,0,0,0
1682932955.10042667,100928779,1563,1562,1563,1563,0,0,0,0,0,0,0,0,0,0
1682932955.20038676,101028739,1562,1562,1562,1562,0,0,0,0,0,0,0,0,0,0
1682932955.30034685,101128699,1561,1561,1562,1562,0,0,0,0,0,0,0,0,0,0
1682932955.40030670,101228659,1560,1561,1561,1561,0,0,0,0,0,0,0,0,0,0
1682932955.50026679,101328619,1560,1560,1561,1560,0,0,0,0,0,0,0,0,0,0
1682932955.60022688,101428579,1560,1560,1561,1560,0,0,0,0,0,0,0,0,0,0
1682932955.70018673,101528539,1560,1559,1560,1559,0,0,0,0,0,0,0,0,0,0
1682932955.80014682,101628499,1559,1559,1560,1559,0,0,0,0,0,0,0,0,0,0
1682932955.90010667,101728459,1559,1559,1560,1559,0,0,0,0,0,0,0,0,0,0
1682932956.00006676,101828419,1559,1559,1559,1558,0,0,0,0,0,0,0,0,0,0
1682932956.10002685,101928379,1559,1559,1559,1558,0,0,0,0,0,0,0,0,0,0
1682932956.19998670,102028339,1559,1559,1559,1557,0,0,0,0,0,0,0,0,0,0
1682932956.29994678,102128299,1559,1559,1560,1557,0,0,0,0,0,0,0,0,0,0
1682932956.39990687,102228259,1560,1560,1560,1559,0,0,0,0,0,0,0,0,0,0
1682932956.49986672,102328219,1560,1560,1559,1562,0,0,0,0,0,0,0,0,0,0
1682932956.59982681,102428179,1560,1560,1558,1563,0,0,0,0,0,0,0,0,0,0
1682932956.70061970,102528972,1560,1560,1557,1563,0,0,0,0,0,0,0,0,0,0
1682932956.80057979,102628932,1560,1561,1558,1563,0,0,0,0,0,0,0,0,0,0
1682932956.90053988,102728892,1561,1561,1559,1561,0,0,0,0,0,0,0,0,0,0
1682932957.00049973,102828852,1559,1559,1560,1557,0,0,0,0,0,0,0,0,0,0
1682932957.10045981,102928812,1559,1559,1559,1559,0,0,0,0,0,0,0,0,0,0
1682932957.20041990,103028772,1556,1556,1555,1556,0,0,0,0,0,0,0,0,0,0
1682932957.30037975,103128732,1552,1551,1551,1552,0,0,0,0,0,0,0,0,0,0
1682932957.40033984,103228692,1547,1547,1547,1547,0,0,0,0,0,0,0,0,0,0
1682932957.50029969,103328652,1541,1541,1541,1541,0,0,0,0,0,0,0,0,0,0
1682932957.60025978,103428612,1534,1534,1534,1534,0,0,0,0,0,0,0,0,0,0
1682932957.70021987,103528572,1527,1527,1527,1527,0,0,0,0,0,0,0,0,0,0
1682932957.80017972,103628532,1521,1522,1521,1522,0,0,0,0,0,0,0,0,0,0
1682932957.90013981,103728492,1519,1520,1519,1520,0,0,0,0,0,0,0,0,0,0
1682932958.00009990,103828452,1519,1520,1519,1521,0,0,0,0,0,0,0,0,0,0
1682932958.10005975,103928412,1520,1522,1520,1522,0,0,0,0,0,0,0,0,0,0
1682932958.20001984,104028372,1523,1524,1523,1524,0,0,0,0,0,0,0,0,0,0
1682932958.29997969,104128332,1527,1527,1527,1527,0,0,0,0,0,0,0,0,0,0
1682932958.39993978,104228292,1532,1532,1532,1532,0,0,0,0,0,0,0,0,0,0
1682932958.49989986,104328252,1536,1536,1537,1536,0,0,0,0,0,0,0,0,0,0
1682932958.59985971,104428212,1540,1538,1540,1538,0,0,0,0,0,0,0,0,0,0
1682932958.69981980,104528172,1543,1541,1542,1541,0,0,0,0,0,0,0,0,0,0
1682932958.80061269,104628965,1544,1542,1544,1542,0,0,0,0,0,0,0,0,0,0
1682932958.90057278,104728925,1545,1544,1545,1545,0,0,0,0,0,0,0,0,0,0
1682932959.00053287,104828885,1546,1546,1547,1546,0,0,0,0,0,0,0,0,0,0
1682932959.10049272,104928845,1547,1547,1547,1547,0,0,0,0,0,0,0,0,0,0
1682932959.20045280,105028805,1546,1546,1546,1546,0,0,0,0,0,0,0,0,0,0
1682932959.30041289,105128765,1546,1546,1546,1546,0,0,0,0,0,0,0,0,0,0
1682932959.40037274,105228725,1546,1546,1546,1545,0,0,0,0,0,0,0,0,0,0
1682932959.50033283,105328685,1546,1546,1546,1546,0,0,0,0,0,0,0,0,0,0
1682932959.60029268,105428645,1546,1547,1546,1546,0,0,0,0,0,0,0,0,0,0
1682932959.70025277,105528605,1546,1546,1546,1546,0,0,0,0,0,0,0,0,0,0
1682932959.80021286,105628565,1546,1546,1546,1546,0,0,0,0,0,0,0,0,0,0
1682932959.90017271,105728525,1546,1545,1546,1545,0,0,0,0,0,0,0,0,0,0
1682932960.00013280,105828485,1546,1546,1546,1546,0,0,0,0,0,0,0,0,0,0
1682932960.10009289,105928445,1546,1545,1546,1545,0,0,0,0,0,0,0,0,0,0
1682932960.20005274,106028405,1545,1545,1545,1545,0,0,0,0,0,0,0,0,0,0
1682932960.30001283,106128365,1545,1544,1545,1544,0,0,0,0,0,0,0,0,0,0
1682932960.39997268,106228325,1544,1545,1544,1544,0,0,0,0,0,0,0,0,0,0
1682932960.49993277,106328285,1544,1544,1544,1544,0,0,0,0,0,0,0,0,0,0
1682932960.59989285,106428245,1544,1544,1544,1544,0,0,0,0,0,0,0,0,0,0
1682932960.69985271,106528205,1544,1544,1544,1544,0,0,0,0,0,0,0,0,0,0
1682932960.79981279,106628165,1545,1544,1544,1544,0,0,0,0,0,0,0,0,0,0
1682932960.90060568,106728958,1545,1544,1544,1544,0,0,0,0,0,0,0,0,0,0
1682932961.00056577,106828918,1544,1545,1544,1545,0,0,0,0,0,0,0,0,0,0
1682932961.10052586,106928878,1544,1544,1544,1544,0,0,0,0,0,0,0,0,0,0
1682932961.20048571,107028838,1545,1545,1545,1545,0,0,0,0,0,0,0,0,0,0
1682932961.30044580,107128798,1544,1545,1544,1544,0,0,0,0,0,0,0,0,0,0
1682932961.40040588,107228758,1545,1545,1545,1545,0,0,0,0,0,0,0,0,0,0
1682932961.50036573,107328718,1545,1544,1544,1544,0,0,0,0,0,0,0,0,0,0
1682932961.60032582,107428678,1544,1544,1544,1544,0,0,0,0,0,0,0,0,0,0
1682932961.70028567,107528638,1545,1544,1544,1545,0,0,0,0,0,0,0,0,0,0
1682932961.80024576,107628598,1544,1544,1544,1544,0,0,0,0,0,0,0,0,0,0
1682932961.90020585,107728558,1544,1543,1544,1543,0,0,0,0,0,0,0,0,0,0
1682932962.00016570,107828518,1543,1544,1544,1543,0,0,0,0,0,0,0,0,0,0
1682932962.10012579,107928478,1544,1544,1543,1544,0,0,0,0,0,0,0,0,0,0
1682932962.20008588,108028438,1544,1544,1544,1544,0,0,0,0,0,0,0,0,0,0
1682932962.30004573,108128398,1544,1543,1543,1544,0,0,0,0,0,0,0,0,0,0
1682932962.40000582,108228358,1544,1543,1543,1544,0,0,0,0,0,0,0,0,0,0
1682932962.49996591,108328318,1544,1544,1544,1544,0,0,0,0,0,0,0,0,0,0
1682932962.59992576,108428278,1545,1545,1545,1545,0,0,0,0,0,0,0,0,0,0
1682932962.69988585,108528238,1544,1544,1544,1544,0,0,0,0,0,0,0,0,0,0
1682932962.79984570,108628198,1544,1544,1544,1544,0,0,0,0,0,0,0,0,0,0
1682932962.89980578,108728158,1544,1544,1544,1544,0,0,0,0,0,0,0,0,0,0
1682932963.00059867,108828951,1544,1544,1544,1544,0,0,0,0,0,0,0,0,0,0
1682932963.10055876,108928911,1545,1544,1544,1545,0,0,0,0,0,0,0,0,0,0
1682932963.20051885,109028871,1544,1544,1544,1544,0,0,0,0,0,0,0,0,0,0
1682932963.30047870,109128831,1545,1544,1544,1544,0,0,0,0,0,0,0,0,0,0
1682932963.40043879,109228791,1544,1545,1544,1545,0,0,0,0,0,0,0,0,0,0
1682932963.50039887,109328751,1544,1544,1544,1544,0,0,0,0,0,0,0,0,0,0
1682932963.60035872,109428711,1544,1544,1545,1544,0,0,0,0,0,0,0,0,0,0
1682932963.70031881,109528671,1545,1545,1544,1545,0,0,0,0,0,0,0,0,0,0
1682932963.80027890,109628631,1544,1545,1545,1544,0,0,0,0,0,0,0,0,0,0
1682932963.90023875,109728591,1544,1544,1544,1545,0,0,0,0,0,0,0,0,0,0
1682932964.00019884,109828551,1545,1545,1544,1545,0,0,0,0,0,0,0,0,0,0
1682932964.10015869,109928511,1545,1544,1545,1545,0,0,0,0,0,0,0,0,0,0
1682932964.20011878,110028471,1544,1544,1544,1544,0,0,0,0,0,0,0,0,0,0
1682932964.30007887,110128431,1544,1544,1544,1543,0,0,0,0,0,0,0,0,0,0
1682932964.40003872,110228391,1543,1544,1543,1543,0,0,0,0,0,0,0,0,0,0
1682932964.49999881,110328351,1544,1544,1544,1544,0,0,0,0,0,0,0,0,0,0
1682932964.59995890,110428311,1544,1545,1544,1544,0,0,0,0,0,0,0,0,0,0
1682932964.69991875,110528271,1544,1544,1544,1544,0,0,0,0,0,0,0,0,0,0
1682932964.79987884,110628231,1543,1544,1544,1544,0,0,0,0,0,0,0,0,0,0
1682932964.89983869,110728191,1544,1543,1544,1544,0,0,0,0,0,0,0,0,0,0
1682932965.00063181,110828984,1544,1544,1544,1544,0,0,0,0,0,0,0,0,0,0
1682932965.10059190,110928944,1545,1545,1545,1545,0,0,0,0,0,0,0,0,0,0
1682932965.20055175,111028904,1544,1545,1544,1544,0,0,0,0,0,0,0,0,0,0
1682932965.30051184,111128864,1545,1545,1545,1545,0,0,0,0,0,0,0,0,0,0
1682932965.40047169,111228824,1545,1545,1546,1545,0,0,0,0,0,0,0,0,0,0
1682932965.50043178,111328784,1545,1544,1545,1545,0,0,0,0,0,0,0,0,0,0
1682932965.60039186,111428744,1545,1545,1545,1545,0,0,0,0,0,0,0,0,0,0
1682932965.70035172,111528704,1545,1545,1545,1546,0,0,0,0,0,0,0,0,0,0
1682932965.80031180,111628664,1545,1546,1545,1545,0,0,0,0,0,0,0,0,0,0
1682932965.90027189,111728624,1546,1546,1545,1546,0,0,0,0,0,0,0,0,0,0
1682932966.00023174,111828584,1545,1546,1546,1545,0,0,0,0,0,0,0,0,0,0
1682932966.10019183,111928544,1546,1545,1545,1545,0,0,0,0,0,0,0,0,0,0
1682932966.20015168,112028504,1546,1545,1546,1545,0,0,0,0,0,0,0,0,0,0
1682932966.30011177,112128464,1545,1545,1545,1545,0,0,0,0,0,0,0,0,0,0
1682932966.40007186,112228424,1545,1545,1545,1545,0,0,0,0,0,0,0,0,0,0
1682932966.50003171,112328384,1544,1544,1544,1545,0,0,0,0,0,0,0,0,0,0
1682932966.59999180,112428344,1544,1544,1544,1543,0,0,0,0,0,0,0,0,0,0
1682932966.69995189,112528304,1544,1544,1544,1545,0,0,0,0,0,0,0,0,0,0
1682932966.79991174,112628264,1544,1544,1544,1544,0,0,0,0,0,0,0,0,0,0
1682932966.89987183,112728224,1545,1545,1544,1545,0,0,0,0,0,0,0,0,0,0
1682932966.99983168,112828184,1543,1543,1543,1543,0,0,0,0,0,0,0,0,0,0
1682932967.10062480,112928977,1544,1544,1544,1544,0,0,0,0,0,0,0,0,0,0
1682932967.20058489,113028937,1544,1544,1544,1544,0,0,0,0,0,0,0,0,0,0
1682932967.30054474,113128897,1544,1544,1544,1544,0,0,0,0,0,0,0,0,0,0
1682932967.40050483,113228857,1544,1544,1544,1544,0,0,0,0,0,0,0,0,0,0
1682932967.50046468,113328817,1544,1544,1544,1544,0,0,0,0,0,0,0,0,0,0
1682932967.60042477,113428777,1450,1415,1449,1415,0,0,0,0,0,0,0,0,0,0
1682932967.70038486,113528737,1357,1274,1357,1273,0,0,0,0,0,0,0,0,0,0
1682932967.80034471,113628697,1324,1220,1325,1219,0,0,0,0,0,0,0,0,0,0
1682932967.90030479,113728657,1313,1200,1313,1200,0,0,0,0,0,0,0,0,0,0
1682932968.00026488,113828617,1293,1165,1294,1165,0,0,0,0,0,0,0,0,0,0
1682932968.10022473,113928577,1242,1150,1241,1150,0,0,0,0,0,0,0,0,0,0
1682932968.20018482,114028537,1135,1150,1135,1150,0,0,0,0,0,0,0,0,0,0
1682932968.30014467,114128497,1064,1150,1064,1150,0,0,0,0,0,0,0,0,0,0
1682932968.40010476,114228457,1064,1150,1065,1150,0,0,0,0,0,0,0,0,0,0
1682932968.50006485,114328417,1064,1150,1064,1150,0,0,0,0,0,0,0,0,0,0
1682932968.60002470,114428377,1064,1150,1055,1162,0,0,0,0,0,0,0,0,0,0
1682932968.69998479,114528337,1064,1150,1058,1159,0,0,0,0,0,0,0,0,0,0
1682932968.79994488,114628297,1064,1150,1060,1156,0,0,0,0,0,0,0,0,0,0
1682932968.89990473,114728257,1064,1150,1060,1156,0,0,0,0,0,0,0,0,0,0
1682932968.99986482,114828217,1064,1150,1060,1156,0,0,0,0,0,0,0,0,0,0
1682932969.09982491,114928177,1064,1150,1059,1157,0,0,0,0,0,0,0,0,0,0
1682932969.20061779,115028970,1064,1150,1059,1157,0,0,0,0,0,0,0,0,0,0
1682932969.30057788,115128930,1064,1150,1059,1158,0,0,0,0,0,0,0,0,0,0
1682932969.40053773,115228890,1064,1150,1063,1152,0,0,0,0,0,0,0,0,0,0
1682932969.50049782,115328850,1064,1150,1062,1153,0,0,0,0,0,0,0,0,0,0
1682932969.60045767,115428810,1064,1150,1062,1153,0,0,0,0,0,0,0,0,0,0
1682932969.70041776,115528770,1064,1150,1062,1153,0,0,0,0,0,0,0,0,0,0
1682932969.80037785,115628730,1064,1150,1062,1154,0,0,0,0,0,0,0,0,0,0
1682932969.90033770,115728690,1000,1000,1000,1000,0,0,0,0,0,0,0,0,0,0
1682932970.00029778,115828650,1000,1000,1000,1000,0,0,0,0,0,0,0,0,0,0
1682932970.10025787,115928610,1000,1000,1000,1000,0,0,0,0,0,0,0,0,0,0
1682932970.20021772,116028570,1000,1000,1000,1000,0,0,0,0,0,0,0,0,0,0
1682932970.30017781,116128530,1000,1000,1000,1000,0,0,0,0,0,0,0,0,0,0
1682932970.40013790,116228490,1000,1000,1000,1000,0,0,0,0,0,0,0,0,0,0
1682932970.50009775,116328450,1000,1000,1000,1000,0,0,0,0,0,0,0,0,0,0
1682932970.60005784,116428410,1000,1000,1000,1000,0,0,0,0,0,0,0,0,0,0
1682932970.70001769,116528370,1000,1000,1000,1000,0,0,0,0,0,0,0,0,0,0
1682932970.79997778,116628330,1000,1000,1000,1000,0,0,0,0,0,0,0,0,0,0
1682932970.89993787,116728290,1000,1000,1000,1000,0,0,0,0,0,0,0,0,0,0
1682932970.99989772,116828250,1000,1000,1000,1000,0,0,0,0,0,0,0,0,0,0
1682932971.09985781,116928210,1000,1000,1000,1000,0,0,0,0,0,0,0,0,0,0
1682932971.19981790,117028170,1000,1000,1000,1000,0,0,0,0,0,0,0,0,0,0
1682932971.30061078,117128963,1000,1000,1000,1000,0,0,0,0,0,0,0,0,0,0
1682932971.40057087,117228923,1000,1000,1000,1000,0,0,0,0,0,0,0,0,0,0
1682932971.50053072,117328883,1000,1000,1000,1000,0,0,0,0,0,0,0,0,0,0
1682932971.60049081,117428843,1000,1000,1000,1000,0,0,0,0,0,0,0,0,0,0
1682932971.70045090,117528803,1000,1000,1000,1000,0,0,0,0,0,0,0,0,0,0
1682932971.80041075,117628763,1000,1000,1000,1000,0,0,0,0,0,0,0,0,0,0
1682932971.90037084,117728723,1000,1000,1000,1000,0,0,0,0,0,0,0,0,0,0
1682932972.00033069,117828683,1000,1000,1000,1000,0,0,0,0,0,0,0,0,0,0
1682932972.10029078,117928643,1000,1000,1000,1000,0,0,0,0,0,0,0,0,0,0
1682932972.20025086,118028603,1000,1000,1000,1000,0,0,0,0,0,0,0,0,0,0
1682932972.30021071,118128563,1000,1000,1000,1000,0,0,0,0,0,0,0,0,0,0
1682932972.40017080,118228523,1000,1000,1000,1000,0,0,0,0,0,0,0,0,0,0
1682932972.50013089,118328483,1000,1000,1000,1000,0,0,0,0,0,0,0,0,0,0
1682932972.60009074,118428443,1000,1000,1000,1000,0,0,0,0,0,0,0,0,0,0
1682932972.70005083,118528403,1000,1000,1000,1000,0,0,0,0,0,0,0,0,0,0
1682932972.80001068,118628363,1000,1000,1000,1000,0,0,0,0,0,0,0,0,0,0
1682932972.89997077,118728323,1000,1000,1000,1000,0,0,0,0,0,0,0,0,0,0
1682932972.99993086,118828283,1000,1000,1000,1000,0,0,0,0,0,0,0,0,0,0
1682932973.09989071,118928243,1000,1000,1000,1000,0,0,0,0,0,0,0,0,0,0
1682932973.19985080,119028203,1000,1000,1000,1000,0,0,0,0,0,0,0,0,0,0
1682932973.29981089,119128163,1000,1000,1000,1000,0,0,0,0,0,0,0,0,0,0
1682932973.40060377,119228956,1000,1000,1000,1000,0,0,0,0,0,0,0,0,0,0
1682932973.50056386,119328916,1000,1000,1000,1000,0,0,0,0,0,0,0,0,0,0
1682932973.60052371,119428876,1000,1000,1000,1000,0,0,0,0,0,0,0,0,0,0
1682932973.70048380,119528836,1000,1000,1000,1000,0,0,0,0,0,0,0,0,0,0
1682932973.80044389,119628796,1000,1000,1000,1000,0,0,0,0,0,0,0,0,0,0
1682932973.90040374,119728756,1000,1000,1000,1000,0,0,0,0,0,0,0,0,0,0
1682932974.00036383,119828716,1000,1000,1000,1000,0,0,0,0,0,0,0,0,0,0
1682932974.10032368,119928676,1000,1000,1000,1000,0,0,0,0,0,0,0,0,0,0
1682932974.20028377,120028636,1000,1000,1000,1000,0,0,0,0,0,0,0,0,0,0
1682932974.30024385,120128596,1000,1000,1000,1000,0,0,0,0,0,0,0,0,0,0
1682932974.40020370,120228556,1000,1000,1000,1000,0,0,0,0,0,0,0,0,0,0
1682932974.50016379,120328516,1000,1000,1000,1000,0,0,0,0,0,0,0,0,0,0
1682932974.60012388,120428476,1000,1000,1000,1000,0,0,0,0,0,0,0,0,0,0
1682932974.70008373,120528436,1000,1000,1000,1000,0,0,0,0,0,0,0,0,0,0
1682932974.80004382,120628396,1000,1000,1000,1000,0,0,0,0,0,0,0,0,0,0
1682932974.90000367,120728356,1000,1000,1000,1000,0,0,0,0,0,0,0,0,0,0
1682932974.99996376,120828316,1000,1000,1000,1000,0,0,0,0,0,0,0,0,0,0
1682932975.09992385,120928276,1000,1000,1000,1000,0,0,0,0,0,0,0,0,0,0
1682932975.19988370,121028236,1000,1000,1000,1000,0,0,0,0,0,0,0,0,0,0
1682932975.29984379,121128196,1000,1000,1000,1000,0,0,0,0,0,0,0,0,0,0
1682932975.39980388,121228156,1000,1000,1000,1000,0,0,0,0,0,0,0,0,0,0
1682932975.50059676,121328949,1000,1000,1000,1000,0,0,0,0,0,0,0,0,0,0
1682932975.60055685,121428909,1000,1000,1000,1000,0,0,0,0,0,0,0,0,0,0
1682932975.70051670,121528869,1000,1000,1000,1000,0,0,0,0,0,0,0,0,0,0
1682932975.80047679,121628829,1000,1000,1000,1000,0,0,0,0,0,0,0,0,0,0
1682932975.90043688,121728789,1000,1000,1000,1000,0,0,0,0,0,0,0,0,0,0
1682932976.00039673,121828749,1000,1000,1000,1000,0,0,0,0,0,0,0,0,0,0
1682932976.10035682,121928709,1000,1000,1000,1000,0,0,0,0,0,0,0,0,0,0
1682932976.20031691,122028669,1000,1000,1000,1000,0,0,0,0,0,0,0,0,0,0
1682932976.30027676,122128629,1000,1000,1000,1000,0,0,0,0,0,0,0,0,0,0
1682932976.40023685,122228589,1000,1000,1000,1000,0,0,0,0,0,0,0,0,0,0
1682932976.50019670,122328549,1000,1000,1000,1000,0,0,0,0,0,0,0,0,0,0
1682932976.60015678,122428509,1000,1000,1000,1000,0,0,0,0,0,0,0,0,0,0
1682932976.70011687,122528469,1000,1000,1000,1000,0,0,0,0,0,0,0,0,0,0
1682932976.80007672,122628429,1000,1000,1000,1000,0,0,0,0,0,0,0,0,0,0
1682932976.90003681,122728389,1000,1000,1000,1000,0,0,0,0,0,0,0,0,0,0
1682932976.99999690,122828349,1000,1000,1000,1000,0,0,0,0,0,0,0,0,0,0
1682932977.09995675,122928309,1000,1000,1000,1000,0,0,0,0,0,0,0,0,0,0
1682932977.19991684,123028269,1000,1000,1000,1000,0,0,0,0,0,0,0,0,0,0
1682932977.29987669,123128229,1000,1000,1000,1000,0,0,0,0,0,0,0,0,0,0
1682932977.39983678,123228189,1000,1000,1000,1000,0,0,0,0,0,0,0,0,0,0
1682932977.50062990,123328982,1000,1000,1000,1000,0,0,0,0,0,0,0,0,0,0
1682932977.60058975,123428942,1000,1000,1000,1000,0,0,0,0,0,0,0,0,0,0
1682932977.70054984,123528902,1000,1000,1000,1000,0,0,0,0,0,0,0,0,0,0
1682932977.80050969,123628862,1000,1000,1000,1000,0,0,0,0,0,0,0,0,0,0
1682932977.90046978,123728822,1000,1000,1000,1000,0,0,0,0,0,0,0,0,0,0
1682932978.00042987,123828782,1000,1000,1000,1000,0,0,0,0,0,0,0,0,0,0
1682932978.10038972,123928742,1000,1000,1000,1000,0,0,0,0,0,0,0,0,0,0
1682932978.20034981,124028702,1000,1000,1000,1000,0,0,0,0,0,0,0,0,0,0
1682932978.30030990,124128662,1000,1000,1000,1000,0,0,0,0,0,0,0,0,0,0
1682932978.40026975,124228622,1000,1000,1000,1000,0,0,0,0,0,0,0,0,0,0
1682932978.50022984,124328582,1000,1000,1000,1000,0,0,0,0,0,0,0,0,0,0
1682932978.60018969,124428542,1000,1000,1000,1000,0,0,0,0,0,0,0,0,0,0
1682932978.70014977,124528502,1000,1000,1000,1000,0,0,0,0,0,0,0,0,0,0
1682932978.80010986,124628462,1000,1000,1000,1000,0,0,0,0,0,0,0,0,0,0
1682932978.90006971,124728422,1000,1000,1000,1000,0,0,0,0,0,0,0,0,0,0
1682932979.00002980,124828382,1000,1000,1000,1000,0,0,0,0,0,0,0,0,0,0
1682932979.09998989,124928342,1000,1000,1000,1000,0,0,0,0,0,0,0,0,0,0
1682932979.19994974,125028302,1000,1000,1000,1000,0,0,0,0,0,0,0,0,0,0
1682932979.29990983,125128262,1000,1000,1000,1000,0,0,0,0,0,0,0,0,0,0
1682932979.39986968,125228222,1000,1000,1000,1000,0,0,0,0,0,0,0,0,0,0
1682932979.49982977,125328182,1000,1000,1000,1000,0,0,0,0,0,0,0,0,0,0
1682932979.60062289,125428975,1000,1000,1000,1000,0,0,0,0,0,0,0,0,0,0
1682932979.70058274,125528935,1000,1000,1000,1000,0,0,0,0,0,0,0,0,0,0
1682932979.80054283,125628895,1000,1000,1000,1000,0,0,0,0,0,0,0,0,0,0
1682932979.90050268,125728855,1000,1000,1000,1000,0,0,0,0,0,0,0,0,0,0
1682932980.00046277,125828815,1000,1000,1000,1000,0,0,0,0,0,0,0,0,0,0
1682932980.10042286,125928775,1000,1000,1000,1000,0,0,0,0,0,0,0,0,0,0
1682932980.20038271,126028735,1000,1000,1000,1000,0,0,0,0,0,0,0,0,0,0
1682932980.30034280,126128695,1000,1000,1000,1000,0,0,0,0,0,0,0,0,0,0
1682932980.40030289,126228655,1000,1000,1000,1000,0,0,0,0,0,0,0,0,0,0
1682932980.50026274,126328615,1000,1000,1000,1000,0,0,0,0,0,0,0,0,0,0
1682932980.60022283,126428575,1000,1000,1000,1000,0,0,0,0,0,0,0,0,0,0
1682932980.70018268,126528535,1000,1000,1000,1000,0,0,0,0,0,0,0,0,0,0
1682932980.80014277,126628495,1000,1000,1000,1000,0,0,0,0,0,0,0,0,0,0
1682932980.90010285,126728455,1000,1000,1000,1000,0,0,0,0,0,0,0,0,0,0
1682932981.00006270,126828415,1000,1000,1000,1000,0,0,0,0,0,0,0,0,0,0
1682932981.10002279,126928375,1000,1000,1000,1000,0,0,0,0,0,0,0,0,0,0
1682932981.19998288,127028335,1000,1000,1000,1000,0,0,0,0,0,0,0,0,0,0
1682932981.29994273,127128295,1000,1000,1000,1000,0,0,0,0,0,0,0,0,0,0
1682932981.39990282,127228255,1000,1000,1000,1000,0,0,0,0,0,0,0,0,0,0
1682932981.49986267,127328215,1000,1000,1000,1000,0,0,0,0,0,0,0,0,0,0
1682932981.59982276,127428175,1000,1000,1000,1000,0,0,0,0,0,0,0,0,0,0
1682932981.70061588,127528968,1000,1000,1000,1000,0,0,0,0,0,0,0,0,0,0
1682932981.80057573,127628928,1000,1000,1000,1000,0,0,0,0,0,0,0,0,0,0
1682932981.90053582,127728888,1000,1000,1000,1000,0,0,0,0,0,0,0,0,0,0
1682932982.00049567,127828848,1000,1000,1000,1000,0,0,0,0,0,0,0,0,0,0
1682932982.10045576,127928808,1000,1000,1000,1000,0,0,0,0,0,0,0,0,0,0
1682932982.20041585,128028768,1000,1000,1000,1000,0,0,0,0,0,0,0,0,0,0
1682932982.30037570,128128728,1000,1000,1000,1000,0,0,0,0,0,0,0,0,0,0
1682932982.40033579,128228688,1000,1000,1000,1000,0,0,0,0,0,0,0,0,0,0
1682932982.50029588,128328648,1000,1000,1000,1000,0,0,0,0,0,0,0,0,0,0
1682932982.60025573,128428608,1000,1000,1000,1000,0,0,0,0,0,0,0,0,0,0
1682932982.70021582,128528568,1000,1000,1000,1000,0,0,0,0,0,0,0,0,0,0
1682932982.80017591,128628528,1000,1000,1000,1000,0,0,0,0,0,0,0,0,0,0
1682932982.90013576,128728488,1000,1000,1000,1000,0,0,0,0,0,0,0,0,0,0
1682932983.00009584,128828448,1000,1000,1000,1000,0,0,0,0,0,0,0,0,0,0
1682932983.10005569,128928408,1000,1000,1000,1000,0,0,0,0,0,0,0,0,0,0
1682932983.20001578,129028368,1000,1000,1000,1000,0,0,0,0,0,0,0,0,0,0
1682932983.29997587,129128328,1000,1000,1000,1000,0,0,0,0,0,0,0,0,0,0
1682932983.39993572,129228288,1000,1000,1000,1000,0,0,0,0,0,0,0,0,0,0
1682932983.49989581,129328248,1000,1000,1000,1000,0,0,0,0,0,0,0,0,0,0
1682932983.59985590,129428208,1000,1000,1000,1000,0,0,0,0,0,0,0,0,0,0
1682932983.69981575,129528168,1000,1000,1000,1000,0,0,0,0,0,0,0,0,0,0
1682932983.80060887,129628961,1000,1000,1000,1000,0,0,0,0,0,0,0,0,0,0
1682932983.90056872,129728921,1000,1000,1000,1000,0,0,0,0,0,0,0,0,0,0
1682932984.00052881,129828881,1000,1000,1000,1000,0,0,0,0,0,0,0,0,0,0
1682932984.10048890,129928841,1000,1000,1000,1000,0,0,0,0,0,0,0,0,0,0
1682932984.20044875,130028801,1000,1000,1000,1000,0,0,0,0,0,0,0,0,0,0
1682932984.30040884,130128761,1000,1000,1000,1000,0,0,0,0,0,0,0,0,0,0
1682932984.40036869,130228721,1000,1000,1000,1000,0,0,0,0,0,0,0,0,0,0
1682932984.50032878,130328681,1000,1000,1000,1000,0,0,0,0,0,0,0,0,0,0
1682932984.60028887,130428641,1000,1000,1000,1000,0,0,0,0,0,0,0,0,0,0
1682932984.70024872,130528601,1000,1000,1000,1000,0,0,0,0,0,0,0,0,0,0
1682932984.80020881,130628561,1000,1000,1000,1000,0,0,0,0,0,0,0,0,0,0
