timestamp,TimeUS,C1,C2,C3,C4,C5,C6,C7,C8,C9,C10,C11,C12,C13,C14
1682928027.30004025,48928754,1000,1000,1000,1000,0,0,0,0,0,0,0,0,0,0
1682928027.40000010,49028714,1000,1000,1000,1000,0,0,0,0,0,0,0,0,0,0
1682928027.49996018,49128674,1000,1000,1000,1000,0,0,0,0,0,0,0,0,0,0
1682928027.59992027,49228634,1000,1000,1000,1000,0,0,0,0,0,0,0,0,0,0
1682928027.69988012,49328594,1000,1000,1000,1000,0,0,0,0,0,0,0,0,0,0
1682928027.79984021,49428554,1000,1000,1000,1000,0,0,0,0,0,0,0,0,0,0
1682928027.89980006,49528514,1000,1000,1000,1000,0,0,0,0,0,0,0,0,0,0
1682928027.99976015,49628474,1000,1000,1000,1000,0,0,0,0,0,0,0,0,0,0
1682928028.09972024,49728434,1000,1000,1000,1000,0,0,0,0,0,0,0,0,0,0
1682928028.19968009,49828394,1000,1000,1000,1000,0,0,0,0,0,0,0,0,0,0
1682928028.29964018,49928354,1000,1000,1000,1000,0,0,0,0,0,0,0,0,0,0
1682928028.39960027,50028314,1000,1000,1000,1000,0,0,0,0,0,0,0,0,0,0
1682928028.49956012,50128274,1000,1000,1000,1000,0,0,0,0,0,0,0,0,0,0
1682928028.59952021,50228234,1000,1000,1000,1000,0,0,0,0,0,0,0,0,0,0
1682928028.69948006,50328194,1000,1000,1000,1000,0,0,0,0,0,0,0,0,0,0
1682928028.79944015,50428154,1000,1000,1000,1000,0,0,0,0,0,0,0,0,0,0
1682928028.90023327,50528947,1000,1000,1000,1000,0,0,0,0,0,0,0,0,0,0
1682928029.00019312,50628907,1000,1000,1000,1000,0,0,0,0,0,0,0,0,0,0
1682928029.10015321,50728867,1000,1000,1000,1000,0,0,0,0,0,0,0,0,0,0
1682928029.20011306,50828827,1000,1000,1000,1000,0,0,0,0,0,0,0,0,0,0
1682928029.30007315,50928787,1023,1023,1023,1023,0,0,0,0,0,0,0,0,0,0
1682928029.40003324,51028747,1053,1053,1053,1053,0,0,0,0,0,0,0,0,0,0
1682928029.49999309,51128707,1083,1083,1083,1083,0,0,0,0,0,0,0,0,0,0
1682928029.59995317,51228667,1113,1113,1113,1113,0,0,0,0,0,0,0,0,0,0
1682928029.69991326,51328627,1143,1143,1143,1143,0,0,0,0,0,0,0,0,0,0
1682928029.79987311,51428587,1351,1346,1346,1352,0,0,0,0,0,0,0,0,0,0
1682928029.89983320,51528547,1542,1537,1537,1543,0,0,0,0,0,0,0,0,0,0
1682928029.99979305,51628507,1695,1691,1691,1696,0,0,0,0,0,0,0,0,0,0
1682928030.09975314,51728467,1826,1823,1823,1826,0,0,0,0,0,0,0,0,0,0
1682928030.19971323,51828427,1868,1865,1863,1870,0,0,0,0,0,0,0,0,0,0
1682928030.29967308,51928387,1828,1826,1825,1830,0,0,0,0,0,0,0,0,0,0
1682928030.39963317,52028347,1696,1696,1695,1698,0,0,0,0,0,0,0,0,0,0
1682928030.49959326,52128307,1619,1620,1620,1620,0,0,0,0,0,0,0,0,0,0
1682928030.59955311,52228267,1604,1606,1606,1605,0,0,0,0,0,0,0,0,0,0
1682928030.69951320,52328227,1614,1615,1616,1614,0,0,0,0,0,0,0,0,0,0
1682928030.79947305,52428187,1621,1622,1622,1621,0,0,0,0,0,0,0,0,0,0
1682928030.90026617,52528980,1622,1622,1622,1621,0,0,0,0,0,0,0,0,0,0
1682928031.00022626,52628940,1617,1616,1617,1616,0,0,0,0,0,0,0,0,0,0
1682928031.10018611,52728900,1614,1613,1613,1614,0,0,0,0,0,0,0,0,0,0
1682928031.20014620,52828860,1615,1615,1614,1616,0,0,0,0,0,0,0,0,0,0
1682928031.30010605,52928820,1617,1617,1617,1617,0,0,0,0,0,0,0,0,0,0
1682928031.40006614,53028780,1619,1619,1619,1618,0,0,0,0,0,0,0,0,0,0
1682928031.50002623,53128740,1623,1623,1624,1621,0,0,0,0,0,0,0,0,0,0
1682928031.59998608,53228700,1620,1620,1621,1618,0,0,0,0,0,0,0,0,0,0
1682928031.69994617,53328660,1589,1589,1595,1582,0,0,0,0,0,0,0,0,0,0
1682928031.79990625,53428620,1575,1575,1579,1570,0,0,0,0,0,0,0,0,0,0
1682928031.89986610,53528580,1562,1563,1563,1562,0,0,0,0,0,0,0,0,0,0
1682928031.99982619,53628540,1554,1554,1550,1559,0,0,0,0,0,0,0,0,0,0
1682928032.09978604,53728500,1548,1547,1539,1556,0,0,0,0,0,0,0,0,0,0
1682928032.19974613,53828460,1541,1540,1533,1547,0,0,0,0,0,0,0,0,0,0
1682928032.29970622,53928420,1535,1534,1530,1538,0,0,0,0,0,0,0,0,0,0
1682928032.39966607,54028380,1530,1529,1528,1530,0,0,0,0,0,0,0,0,0,0
1682928032.49962616,54128340,1529,1530,1530,1529,0,0,0,0,0,0,0,0,0,0
1682928032.59958625,54228300,1530,1531,1533,1528,0,0,0,0,0,0,0,0,0,0
1682928032.69954610,54328260,1533,1533,1536,1530,0,0,0,0,0,0,0,0,0,0
1682928032.79950619,54428220,1536,1536,1539,1533,0,0,0,0,0,0,0,0,0,0
1682928032.89946604,54528180,1540,1539,1541,1538,0,0,0,0,0,0,0,0,0,0
1682928033.00025916,54628973,1543,1543,1544,1542,0,0,0,0,0,0,0,0,0,0
1682928033.10021925,54728933,1546,1546,1546,1546,0,0,0,0,0,0,0,0,0,0
1682928033.20017910,54828893,1549,1550,1549,1550,0,0,0,0,0,0,0,0,0,0
1682928033.30013919,54928853,1551,1552,1551,1552,0,0,0,0,0,0,0,0,0,0
1682928033.40009904,55028813,1553,1553,1552,1555,0,0,0,0,0,0,0,0,0,0
1682928033.50005913,55128773,1552,1552,1558,1561,0,0,0,0,0,0,0,0,0,0
1682928033.60001922,55228733,1552,1552,1564,1566,0,0,0,0,0,0,0,0,0,0
1682928033.69997907,55328693,1554,1555,1565,1565,0,0,0,0,0,0,0,0,0,0
1682928033.79993916,55428653,1558,1559,1565,1565,0,0,0,0,0,0,0,0,0,0
1682928033.89989924,55528613,1562,1563,1564,1564,0,0,0,0,0,0,0,0,0,0
1682928033.99985909,55628573,1567,1567,1565,1564,0,0,0,0,0,0,0,0,0,0
1682928034.09981918,55728533,1569,1569,1564,1564,0,0,0,0,0,0,0,0,0,0
1682928034.19977927,55828493,1570,1570,1564,1564,0,0,0,0,0,0,0,0,0,0
1682928034.29973912,55928453,1571,1571,1563,1564,0,0,0,0,0,0,0,0,0,0
1682928034.39969921,56028413,1573,1573,1565,1566,0,0,0,0,0,0,0,0,0,0
1682928034.49965906,56128373,1573,1573,1567,1567,0,0,0,0,0,0,0,0,0,0
1682928034.59961915,56228333,1573,1573,1568,1568,0,0,0,0,0,0,0,0,0,0
1682928034.69957924,56328293,1573,1573,1569,1570,0,0,0,0,0,0,0,0,0,0
1682928034.79953909,56428253,1574,1574,1572,1572,0,0,0,0,0,0,0,0,0,0
1682928034.89949918,56528213,1574,1574,1574,1573,0,0,0,0,0,0,0,0,0,0
1682928034.99945927,56628173,1574,1575,1576,1574,0,0,0,0,0,0,0,0,0,0
1682928035.10025215,56728966,1575,1575,1578,1576,0,0,0,0,0,0,0,0,0,0
1682928035.20021224,56828926,1574,1574,1577,1576,0,0,0,0,0,0,0,0,0,0
1682928035.30017209,56928886,1574,1574,1577,1577,0,0,0,0,0,0,0,0,0,0
1682928035.40013218,57028846,1575,1575,1577,1578,0,0,0,0,0,0,0,0,0,0
1682928035.50009227,57128806,1576,1576,1577,1578,0,0,0,0,0,0,0,0,0,0
1682928035.60005212,57228766,1576,1576,1578,1578,0,0,0,0,0,0,0,0,0,0
1682928035.70001221,57328726,1576,1577,1577,1577,0,0,0,0,0,0,0,0,0,0
1682928035.79997206,57428686,1577,1578,1578,1578,0,0,0,0,0,0,0,0,0,0
1682928035.89993215,57528646,1578,1577,1577,1577,0,0,0,0,0,0,0,0,0,0
1682928035.99989223,57628606,1579,1578,1578,1577,0,0,0,0,0,0,0,0,0,0
1682928036.09985209,57728566,1579,1579,1578,1578,0,0,0,0,0,0,0,0,0,0
1682928036.19981217,57828526,1579,1579,1577,1578,0,0,0,0,0,0,0,0,0,0
1682928036.29977226,57928486,1579,1579,1578,1578,0,0,0,0,0,0,0,0,0,0
1682928036.39973211,58028446,1579,1579,1578,1578,0,0,0,0,0,0,0,0,0,0
1682928036.49969220,58128406,1578,1578,1578,1578,0,0,0,0,0,0,0,0,0,0
1682928036.59965205,58228366,1579,1579,1578,1578,0,0,0,0,0,0,0,0,0,0
1682928036.69961214,58328326,1580,1579,1580,1579,0,0,0,0,0,0,0,0,0,0
1682928036.79957223,58428286,1578,1578,1579,1578,0,0,0,0,0,0,0,0,0,0
1682928036.89953208,58528246,1578,1578,1578,1578,0,0,0,0,0,0,0,0,0,0
1682928036.99949217,58628206,1578,1578,1578,1579,0,0,0,0,0,0,0,0,0,0
1682928037.09945226,58728166,1577,1577,1578,1578,0,0,0,0,0,0,0,0,0,0
1682928037.20024514,58828959,1578,1579,1579,1579,0,0,0,0,0,0,0,0,0,0
1682928037.30020523,58928919,1579,1579,1579,1579,0,0,0,0,0,0,0,0,0,0
1682928037.40016508,59028879,1580,1580,1580,1580,0,0,0,0,0,0,0,0,0,0
1682928037.50012517,59128839,1579,1579,1579,1579,0,0,0,0,0,0,0,0,0,0
1682928037.60008526,59228799,1580,1579,1580,1580,0,0,0,0,0,0,0,0,0,0
1682928037.70004511,59328759,1580,1580,1580,1580,0,0,0,0,0,0,0,0,0,0
1682928037.80000520,59428719,1580,1581,1580,1580,0,0,0,0,0,0,0,0,0,0
1682928037.89996505,59528679,1579,1580,1579,1579,0,0,0,0,0,0,0,0,0,0
1682928037.99992514,59628639,1579,1579,1579,1579,0,0,0,0,0,0,0,0,0,0
1682928038.09988523,59728599,1580,1579,1579,1579,0,0,0,0,0,0,0,0,0,0
1682928038.19984508,59828559,1580,1580,1580,1580,0,0,0,0,0,0,0,0,0,0
1682928038.29980516,59928519,1580,1581,1580,1580,0,0,0,0,0,0,0,0,0,0
1682928038.39976525,60028479,1581,1581,1581,1581,0,0,0,0,0,0,0,0,0,0
1682928038.49972510,60128439,1581,1580,1581,1580,0,0,0,0,0,0,0,0,0,0
1682928038.59968519,60228399,1581,1580,1580,1580,0,0,0,0,0,0,0,0,0,0
1682928038.69964504,60328359,1582,1581,1581,1582,0,0,0,0,0,0,0,0,0,0
1682928038.79960513,60428319,1581,1581,1581,1581,0,0,0,0,0,0,0,0,0,0
1682928038.89956522,60528279,1580,1580,1580,1581,0,0,0,0,0,0,0,0,0,0
1682928038.99952507,60628239,1580,1580,1580,1580,0,0,0,0,0,0,0,0,0,0
1682928039.09948516,60728199,1580,1581,1581,1581,0,0,0,0,0,0,0,0,0,0
1682928039.19944525,60828159,1580,1580,1580,1580,0,0,0,0,0,0,0,0,0,0
1682928039.30023813,60928952,1580,1580,1580,1580,0,0,0,0,0,0,0,0,0,0
1682928039.40019822,61028912,1580,1581,1580,1581,0,0,0,0,0,0,0,0,0,0
1682928039.50015807,61128872,1581,1580,1580,1581,0,0,0,0,0,0,0,0,0,0
1682928039.60011816,61228832,1581,1581,1581,1581,0,0,0,0,0,0,0,0,0,0
1682928039.70007825,61328792,1581,1581,1585,1577,0,0,0,0,0,0,0,0,0,0
1682928039.80003810,61428752,1582,1583,1589,1573,0,0,0,0,0,0,0,0,0,0
1682928039.89999819,61528712,1580,1583,1582,1574,0,0,0,0,0,0,0,0,0,0
1682928039.99995804,61628672,1578,1581,1573,1573,0,0,0,0,0,0,0,0,0,0
1682928040.09991813,61728632,1577,1580,1564,1571,0,0,0,0,0,0,0,0,0,0
1682928040.19987822,61828592,1576,1578,1558,1566,0,0,0,0,0,0,0,0,0,0
1682928040.29983807,61928552,1578,1577,1555,1561,0,0,0,0,0,0,0,0,0,0
1682928040.39979815,62028512,1579,1577,1555,1557,0,0,0,0,0,0,0,0,0,0
1682928040.49975824,62128472,1578,1577,1555,1554,0,0,0,0,0,0,0,0,0,0
1682928040.59971809,62228432,1578,1576,1555,1552,0,0,0,0,0,0,0,0,0,0
1682928040.69967818,62328392,1577,1576,1555,1553,0,0,0,0,0,0,0,0,0,0
1682928040.79963827,62428352,1576,1577,1556,1554,0,0,0,0,0,0,0,0,0,0
1682928040.89959812,62528312,1574,1576,1554,1553,0,0,0,0,0,0,0,0,0,0
1682928040.99955821,62628272,1574,1576,1553,1553,0,0,0,0,0,0,0,0,0,0
1682928041.09951806,62728232,1574,1576,1552,1553,0,0,0,0,0,0,0,0,0,0
1682928041.19947815,62828192,1575,1576,1551,1551,0,0,0,0,0,0,0,0,0,0
1682928041.30027127,62928985,1577,1578,1549,1549,0,0,0,0,0,0,0,0,0,0
1682928041.40023112,63028945,1579,1580,1547,1547,0,0,0,0,0,0,0,0,0,0
1682928041.50019121,63128905,1582,1583,1544,1544,0,0,0,0,0,0,0,0,0,0
1682928041.60015106,63228865,1584,1585,1541,1541,0,0,0,0,0,0,0,0,0,0
1682928041.70011115,63328825,1588,1589,1539,1539,0,0,0,0,0,0,0,0,0,0
1682928041.80007124,63428785,1591,1591,1536,1536,0,0,0,0,0,0,0,0,0,0
1682928041.90003109,63528745,1594,1594,1536,1536,0,0,0,0,0,0,0,0,0,0
1682928041.99999118,63628705,1595,1595,1535,1536,0,0,0,0,0,0,0,0,0,0
1682928042.09995127,63728665,1595,1595,1536,1537,0,0,0,0,0,0,0,0,0,0
1682928042.19991112,63828625,1594,1594,1537,1540,0,0,0,0,0,0,0,0,0,0
1682928042.29987121,63928585,1591,1590,1540,1544,0,0,0,0,0,0,0,0,0,0
1682928042.39983106,64028545,1588,1586,1547,1551,0,0,0,0,0,0,0,0,0,0
1682928042.49979115,64128505,1581,1578,1556,1559,0,0,0,0,0,0,0,0,0,0
1682928042.59975123,64228465,1571,1568,1566,1568,0,0,0,0,0,0,0,0,0,0
1682928042.69971108,64328425,1562,1557,1578,1580,0,0,0,0,0,0,0,0,0,0
1682928042.79967117,64428385,1550,1547,1591,1591,0,0,0,0,0,0,0,0,0,0
1682928042.89963126,64528345,1540,1538,1601,1601,0,0,0,0,0,0,0,0,0,0
1682928042.99959111,64628305,1533,1533,1609,1609,0,0,0,0,0,0,0,0,0,0
1682928043.09955120,64728265,1530,1530,1615,1614,0,0,0,0,0,0,0,0,0,0
1682928043.19951105,64828225,1528,1530,1615,1613,0,0,0,0,0,0,0,0,0,0
1682928043.29947114,64928185,1532,1534,1612,1611,0,0,0,0,0,0,0,0,0,0
1682928043.40026426,65028978,1539,1541,1607,1607,0,0,0,0,0,0,0,0,0,0
1682928043.50022411,65128938,1547,1548,1600,1601,0,0,0,0,0,0,0,0,0,0
1682928043.60018420,65228898,1557,1558,1594,1594,0,0,0,0,0,0,0,0,0,0
1682928043.70014405,65328858,1565,1565,1586,1585,0,0,0,0,0,0,0,0,0,0
1682928043.80010414,65428818,1574,1573,1580,1579,0,0,0,0,0,0,0,0,0,0
1682928043.90006423,65528778,1580,1579,1574,1573,0,0,0,0,0,0,0,0,0,0
1682928044.00002408,65628738,1585,1583,1570,1570,0,0,0,0,0,0,0,0,0,0
1682928044.09998417,65728698,1587,1586,1567,1567,0,0,0,0,0,0,0,0,0,0
1682928044.19994426,65828658,1587,1586,1566,1566,0,0,0,0,0,0,0,0,0,0
1682928044.29990411,65928618,1587,1586,1567,1567,0,0,0,0,0,0,0,0,0,0
1682928044.39986420,66028578,1586,1585,1569,1570,0,0,0,0,0,0,0,0,0,0
1682928044.49982405,66128538,1584,1584,1573,1573,0,0,0,0,0,0,0,0,0,0
1682928044.59978414,66228498,1580,1580,1575,1575,0,0,0,0,0,0,0,0,0,0
1682928044.69974422,66328458,1311,1552,1311,1552,0,0,0,0,0,0,0,0,0,0
1682928044.79970407,66428418,1570,1564,1574,1570,0,0,0,0,0,0,0,0,0,0
1682928044.89966416,66528378,1597,1570,1606,1577,0,0,0,0,0,0,0,0,0,0
1682928044.99962425,66628338,1615,1582,1627,1592,0,0,0,0,0,0,0,0,0,0
1682928045.09958410,66728298,1620,1594,1632,1604,0,0,0,0,0,0,0,0,0,0
1682928045.19954419,66828258,1612,1599,1623,1609,0,0,0,0,0,0,0,0,0,0
1682928045.29950404,66928218,1597,1599,1607,1608,0,0,0,0,0,0,0,0,0,0
1682928045.39946413,67028178,1582,1594,1592,1605,0,0,0,0,0,0,0,0,0,0
1682928045.50025725,67128971,1573,1589,1584,1602,0,0,0,0,0,0,0,0,0,0
1682928045.60021710,67228931,1569,1583,1581,1596,0,0,0,0,0,0,0,0,0,0
1682928045.70017719,67328891,1570,1577,1579,1588,0,0,0,0,0,0,0,0,0,0
1682928045.80013704,67428851,1574,1575,1581,1583,0,0,0,0,0,0,0,0,0,0
1682928045.90009713,67528811,1578,1576,1580,1577,0,0,0,0,0,0,0,0,0,0
1682928046.00005722,67628771,1582,1579,1580,1575,0,0,0,0,0,0,0,0,0,0
1682928046.10001707,67728731,1584,1581,1577,1572,0,0,0,0,0,0,0,0,0,0
1682928046.19997716,67828691,1584,1582,1574,1571,0,0,0,0,0,0,0,0,0,0
1682928046.29993725,67928651,1583,1583,1571,1571,0,0,0,0,0,0,0,0,0,0
1682928046.39989710,68028611,1581,1582,1569,1571,0,0,0,0,0,0,0,0,0,0
1682928046.49985719,68128571,1580,1582,1569,1571,0,0,0,0,0,0,0,0,0,0
1682928046.59981704,68228531,1580,1581,1571,1572,0,0,0,0,0,0,0,0,0,0
1682928046.69977713,68328491,1578,1579,1571,1572,0,0,0,0,0,0,0,0,0,0
1682928046.79973722,68428451,1578,1578,1572,1573,0,0,0,0,0,0,0,0,0,0
1682928046.89969707,68528411,1577,1577,1574,1574,0,0,0,0,0,0,0,0,0,0
1682928046.99965715,68628371,1577,1577,1576,1575,0,0,0,0,0,0,0,0,0,0
1682928047.09961724,68728331,1576,1576,1577,1576,0,0,0,0,0,0,0,0,0,0
1682928047.19957709,68828291,1576,1576,1578,1578,0,0,0,0,0,0,0,0,0,0
1682928047.29953718,68928251,1576,1576,1578,1578,0,0,0,0,0,0,0,0,0,0
1682928047.39949727,69028211,1576,1576,1578,1578,0,0,0,0,0,0,0,0,0,0
1682928047.49945712,69128171,1576,1577,1579,1579,0,0,0,0,0,0,0,0,0,0
1682928047.60025024,69228964,1576,1577,1579,1579,0,0,0,0,0,0,0,0,0,0
1682928047.70021009,69328924,1578,1578,1579,1579,0,0,0,0,0,0,0,0,0,0
1682928047.80017018,69428884,1578,1579,1585,1571,0,0,0,0,0,0,0,0,0,0
1682928047.90013027,69528844,1578,1580,1583,1570,0,0,0,0,0,0,0,0,0,0
1682928048.00009012,69628804,1576,1579,1574,1570,0,0,0,0,0,0,0,0,0,0
1682928048.10005021,69728764,1576,1579,1565,1569,0,0,0,0,0,0,0,0,0,0
1682928048.20001006,69828724,1576,1579,1559,1566,0,0,0,0,0,0,0,0,0,0
1682928048.29997015,69928684,1577,1577,1554,1561,0,0,0,0,0,0,0,0,0,0
1682928048.39993024,70028644,1578,1577,1552,1557,0,0,0,0,0,0,0,0,0,0
1682928048.49989009,70128604,1580,1577,1552,1554,0,0,0,0,0,0,0,0,0,0
1682928048.59985018,70228564,1579,1577,1553,1551,0,0,0,0,0,0,0,0,0,0
1682928048.69981027,70328524,1580,1579,1554,1552,0,0,0,0,0,0,0,0,0,0
1682928048.79977012,70428484,1577,1578,1552,1550,0,0,0,0,0,0,0,0,0,0
1682928048.89973021,70528444,1577,1578,1553,1551,0,0,0,0,0,0,0,0,0,0
1682928048.99969006,70628404,1576,1578,1552,1551,0,0,0,0,0,0,0,0,0,0
1682928049.09965014,70728364,1576,1579,1553,1552,0,0,0,0,0,0,0,0,0,0
1682928049.19961023,70828324,1576,1578,1551,1551,0,0,0,0,0,0,0,0,0,0
1682928049.29957008,70928284,1577,1577,1549,1550,0,0,0,0,0,0,0,0,0,0
1682928049.39953017,71028244,1579,1579,1548,1548,0,0,0,0,0,0,0,0,0,0
1682928049.49949026,71128204,1580,1581,1547,1547,0,0,0,0,0,0,0,0,0,0
1682928049.59945011,71228164,1582,1583,1545,1545,0,0,0,0,0,0,0,0,0,0
1682928049.70024323,71328957,1586,1586,1544,1544,0,0,0,0,0,0,0,0,0,0
1682928049.80020308,71428917,1587,1587,1543,1543,0,0,0,0,0,0,0,0,0,0
1682928049.90016317,71528877,1588,1587,1542,1543,0,0,0,0,0,0,0,0,0,0
1682928050.00012326,71628837,1589,1589,1542,1544,0,0,0,0,0,0,0,0,0,0
1682928050.10008311,71728797,1588,1589,1543,1544,0,0,0,0,0,0,0,0,0,0
1682928050.20004320,71828757,1586,1586,1543,1546,0,0,0,0,0,0,0,0,0,0
1682928050.30000305,71928717,1585,1584,1548,1550,0,0,0,0,0,0,0,0,0,0
1682928050.39996314,72028677,1582,1580,1553,1556,0,0,0,0,0,0,0,0,0,0
1682928050.49992323,72128637,1577,1574,1561,1564,0,0,0,0,0,0,0,0,0,0
1682928050.59988308,72228597,1570,1567,1570,1572,0,0,0,0,0,0,0,0,0,0
1682928050.69984317,72328557,1561,1558,1579,1580,0,0,0,0,0,0,0,0,0,0
1682928050.79980326,72428517,1553,1550,1588,1588,0,0,0,0,0,0,0,0,0,0
1682928050.89976311,72528477,1546,1545,1596,1596,0,0,0,0,0,0,0,0,0,0
1682928050.99972320,72628437,1541,1541,1601,1601,0,0,0,0,0,0,0,0,0,0
1682928051.09968305,72728397,1538,1540,1605,1604,0,0,0,0,0,0,0,0,0,0
1682928051.19964314,72828357,1540,1542,1606,1606,0,0,0,0,0,0,0,0,0,0
1682928051.29960322,72928317,1543,1544,1605,1604,0,0,0,0,0,0,0,0,0,0
1682928051.39956307,73028277,1548,1549,1602,1602,0,0,0,0,0,0,0,0,0,0
1682928051.49952316,73128237,1555,1555,1598,1598,0,0,0,0,0,0,0,0,0,0
1682928051.59948325,73228197,1561,1561,1593,1592,0,0,0,0,0,0,0,0,0,0
1682928051.69944310,73328157,1567,1567,1587,1586,0,0,0,0,0,0,0,0,0,0
1682928051.80023623,73428950,1572,1572,1581,1581,0,0,0,0,0,0,0,0,0,0
1682928051.90019608,73528910,1577,1577,1577,1576,0,0,0,0,0,0,0,0,0,0
1682928052.00015616,73628870,1580,1580,1573,1573,0,0,0,0,0,0,0,0,0,0
1682928052.10011625,73728830,1583,1582,1570,1571,0,0,0,0,0,0,0,0,0,0
1682928052.20007610,73828790,1584,1583,1569,1570,0,0,0,0,0,0,0,0,0,0
1682928052.30003619,73928750,1584,1582,1569,1569,0,0,0,0,0,0,0,0,0,0
1682928052.39999604,74028710,1584,1583,1571,1571,0,0,0,0,0,0,0,0,0,0
1682928052.49995613,74128670,1582,1581,1572,1572,0,0,0,0,0,0,0,0,0,0
1682928052.59991622,74228630,1580,1580,1575,1575,0,0,0,0,0,0,0,0,0,0
1682928052.69987607,74328590,1578,1578,1577,1577,0,0,0,0,0,0,0,0,0,0
1682928052.79983616,74428550,1577,1577,1579,1579,0,0,0,0,0,0,0,0,0,0
1682928052.89979625,74528510,1577,1577,1582,1582,0,0,0,0,0,0,0,0,0,0
1682928052.99975610,74628470,1575,1575,1582,1582,0,0,0,0,0,0,0,0,0,0
1682928053.09971619,74728430,1574,1574,1583,1582,0,0,0,0,0,0,0,0,0,0
1682928053.19967604,74828390,1574,1575,1583,1583,0,0,0,0,0,0,0,0,0,0
1682928053.29963613,74928350,1574,1576,1583,1583,0,0,0,0,0,0,0,0,0,0
1682928053.39959621,75028310,1575,1576,1582,1582,0,0,0,0,0,0,0,0,0,0
1682928053.49955606,75128270,1576,1576,1581,1581,0,0,0,0,0,0,0,0,0,0
1682928053.59951615,75228230,1578,1577,1580,1580,0,0,0,0,0,0,0,0,0,0
1682928053.69947624,75328190,1579,1578,1580,1579,0,0,0,0,0,0,0,0,0,0
1682928053.80026913,75428983,1579,1578,1578,1578,0,0,0,0,0,0,0,0,0,0
1682928053.90022922,75528943,1579,1579,1578,1577,0,0,0,0,0,0,0,0,0,0
1682928054.00018907,75628903,1580,1580,1577,1577,0,0,0,0,0,0,0,0,0,0
1682928054.10014915,75728863,1581,1581,1577,1578,0,0,0,0,0,0,0,0,0,0
1682928054.20010924,75828823,1581,1581,1578,1578,0,0,0,0,0,0,0,0,0,0
1682928054.30006909,75928783,1581,1581,1578,1578,0,0,0,0,0,0,0,0,0,0
1682928054.40002918,76028743,1581,1581,1578,1578,0,0,0,0,0,0,0,0,0,0
1682928054.49998927,76128703,1581,1580,1579,1579,0,0,0,0,0,0,0,0,0,0
1682928054.59994912,76228663,1580,1580,1580,1579,0,0,0,0,0,0,0,0,0,0
1682928054.69990921,76328623,1580,1579,1579,1579,0,0,0,0,0,0,0,0,0,0
1682928054.79986906,76428583,1580,1580,1581,1581,0,0,0,0,0,0,0,0,0,0
1682928054.89982915,76528543,1580,1580,1581,1581,0,0,0,0,0,0,0,0,0,0
1682928054.99978924,76628503,1579,1580,1581,1581,0,0,0,0,0,0,0,0,0,0
1682928055.09974909,76728463,1580,1580,1581,1581,0,0,0,0,0,0,0,0,0,0
1682928055.19970918,76828423,1580,1580,1581,1581,0,0,0,0,0,0,0,0,0,0
1682928055.29966927,76928383,1581,1580,1581,1581,0,0,0,0,0,0,0,0,0,0
1682928055.39962912,77028343,1580,1580,1581,1581,0,0,0,0,0,0,0,0,0,0
1682928055.49958920,77128303,1580,1581,1581,1581,0,0,0,0,0,0,0,0,0,0
1682928055.59954906,77228263,1580,1582,1581,1581,0,0,0,0,0,0,0,0,0,0
1682928055.69950914,77328223,1581,1581,1581,1580,0,0,0,0,0,0,0,0,0,0
1682928055.79946923,77428183,1581,1580,1580,1580,0,0,0,0,0,0,0,0,0,0
1682928055.90026212,77528976,1581,1581,1581,1581,0,0,0,0,0,0,0,0,0,0
1682928056.00022221,77628936,1581,1581,1581,1581,0,0,0,0,0,0,0,0,0,0
1682928056.10018206,77728896,1581,1582,1584,1577,0,0,0,0,0,0,0,0,0,0
1682928056.20014215,77828856,1581,1583,1587,1572,0,0,0,0,0,0,0,0,0,0
1682928056.30010223,77928816,1579,1582,1580,1572,0,0,0,0,0,0,0,0,0,0
1682928056.40006208,78028776,1578,1581,1572,1572,0,0,0,0,0,0,0,0,0,0
1682928056.50002217,78128736,1577,1579,1564,1570,0,0,0,0,0,0,0,0,0,0
1682928056.59998226,78228696,1577,1578,1558,1565,0,0,0,0,0,0,0,0,0,0
1682928056.69994211,78328656,1578,1578,1556,1561,0,0,0,0,0,0,0,0,0,0
1682928056.79990220,78428616,1579,1578,1555,1557,0,0,0,0,0,0,0,0,0,0
1682928056.89986205,78528576,1579,1578,1554,1554,0,0,0,0,0,0,0,0,0,0
1682928056.99982214,78628536,1579,1578,1555,1554,0,0,0,0,0,0,0,0,0,0
1682928057.09978223,78728496,1579,1578,1556,1553,0,0,0,0,0,0,0,0,0,0
1682928057.19974208,78828456,1578,1578,1556,1554,0,0,0,0,0,0,0,0,0,0
1682928057.29970217,78928416,1576,1577,1554,1553,0,0,0,0,0,0,0,0,0,0
1682928057.39966226,79028376,1576,1577,1554,1554,0,0,0,0,0,0,0,0,0,0
1682928057.49962211,79128336,1575,1577,1553,1553,0,0,0,0,0,0,0,0,0,0
1682928057.59958220,79228296,1575,1577,1551,1551,0,0,0,0,0,0,0,0,0,0
1682928057.69954205,79328256,1577,1579,1550,1550,0,0,0,0,0,0,0,0,0,0
1682928057.79950213,79428216,1578,1579,1547,1547,0,0,0,0,0,0,0,0,0,0
1682928057.89946222,79528176,1581,1582,1546,1546,0,0,0,0,0,0,0,0,0,0
1682928058.00025511,79628969,1584,1585,1544,1543,0,0,0,0,0,0,0,0,0,0
1682928058.10021520,79728929,1586,1587,1541,1541,0,0,0,0,0,0,0,0,0,0
1682928058.20017505,79828889,1589,1589,1540,1539,0,0,0,0,0,0,0,0,0,0
1682928058.30013514,79928849,1592,1592,1539,1540,0,0,0,0,0,0,0,0,0,0
1682928058.40009522,80028809,1592,1593,1537,1539,0,0,0,0,0,0,0,0,0,0
1682928058.50005507,80128769,1593,1594,1537,1540,0,0,0,0,0,0,0,0,0,0
1682928058.60001516,80228729,1593,1593,1539,1542,0,0,0,0,0,0,0,0,0,0
1682928058.69997525,80328689,1591,1590,1543,1546,0,0,0,0,0,0,0,0,0,0
1682928058.79993510,80428649,1587,1585,1549,1552,0,0,0,0,0,0,0,0,0,0
1682928058.89989519,80528609,1580,1577,1557,1560,0,0,0,0,0,0,0,0,0,0
1682928058.99985504,80628569,1572,1568,1568,1571,0,0,0,0,0,0,0,0,0,0
1682928059.09981513,80728529,1563,1559,1580,1582,0,0,0,0,0,0,0,0,0,0
1682928059.19977522,80828489,1552,1550,1591,1592,0,0,0,0,0,0,0,0,0,0
1682928059.29973507,80928449,1543,1542,1601,1600,0,0,0,0,0,0,0,0,0,0
1682928059.39969516,81028409,1536,1537,1608,1606,0,0,0,0,0,0,0,0,0,0
1682928059.49965525,81128369,1534,1536,1613,1611,0,0,0,0,0,0,0,0,0,0
1682928059.59961510,81228329,1534,1537,1614,1612,0,0,0,0,0,0,0,0,0,0
1682928059.69957519,81328289,1538,1540,1612,1611,0,0,0,0,0,0,0,0,0,0
1682928059.79953504,81428249,1543,1545,1607,1606,0,0,0,0,0,0,0,0,0,0
1682928059.89949512,81528209,1549,1550,1601,1600,0,0,0,0,0,0,0,0,0,0
1682928059.99945521,81628169,1557,1557,1594,1593,0,0,0,0,0,0,0,0,0,0
1682928060.10024810,81728962,1565,1565,1587,1587,0,0,0,0,0,0,0,0,0,0
1682928060.20020819,81828922,1571,1570,1579,1579,0,0,0,0,0,0,0,0,0,0
1682928060.30016804,81928882,1577,1576,1573,1574,0,0,0,0,0,0,0,0,0,0
1682928060.40012813,82028842,1582,1581,1570,1571,0,0,0,0,0,0,0,0,0,0
1682928060.50008821,82128802,1585,1584,1568,1568,0,0,0,0,0,0,0,0,0,0
1682928060.60004807,82228762,1586,1584,1566,1566,0,0,0,0,0,0,0,0,0,0
1682928060.70000815,82328722,1585,1584,1566,1566,0,0,0,0,0,0,0,0,0,0
1682928060.79996824,82428682,1585,1583,1568,1568,0,0,0,0,0,0,0,0,0,0
1682928060.89992809,82528642,1583,1583,1571,1571,0,0,0,0,0,0,0,0,0,0
1682928060.99988818,82628602,1580,1581,1574,1573,0,0,0,0,0,0,0,0,0,0
1682928061.09984827,82728562,1578,1578,1577,1576,0,0,0,0,0,0,0,0,0,0
1682928061.19980812,82828522,1577,1577,1580,1580,0,0,0,0,0,0,0,0,0,0
1682928061.29976821,82928482,1575,1576,1582,1582,0,0,0,0,0,0,0,0,0,0
1682928061.39972806,83028442,1574,1575,1583,1583,0,0,0,0,0,0,0,0,0,0
1682928061.49968815,83128402,1573,1574,1584,1584,0,0,0,0,0,0,0,0,0,0
1682928061.59964824,83228362,1574,1575,1585,1585,0,0,0,0,0,0,0,0,0,0
1682928061.69960809,83328322,1574,1574,1584,1584,0,0,0,0,0,0,0,0,0,0
1682928061.79956818,83428282,1574,1575,1582,1582,0,0,0,0,0,0,0,0,0,0
1682928061.89952826,83528242,1576,1576,1581,1582,0,0,0,0,0,0,0,0,0,0
1682928061.99948812,83628202,1577,1577,1581,1581,0,0,0,0,0,0,0,0,0,0
1682928062.09944820,83728162,1579,1578,1580,1580,0,0,0,0,0,0,0,0,0,0
1682928062.20024109,83828955,1579,1579,1579,1578,0,0,0,0,0,0,0,0,0,0
1682928062.30020118,83928915,1581,1581,1579,1579,0,0,0,0,0,0,0,0,0,0
1682928062.40016127,84028875,1581,1581,1578,1577,0,0,0,0,0,0,0,0,0,0
1682928062.50012112,84128835,1582,1582,1578,1578,0,0,0,0,0,0,0,0,0,0
1682928062.60008121,84228795,1582,1582,1578,1578,0,0,0,0,0,0,0,0,0,0
1682928062.70004106,84328755,1582,1582,1578,1579,0,0,0,0,0,0,0,0,0,0
1682928062.80000114,84428715,1582,1581,1579,1579,0,0,0,0,0,0,0,0,0,0
1682928062.89996123,84528675,1581,1580,1579,1579,0,0,0,0,0,0,0,0,0,0
1682928062.99992108,84628635,1580,1580,1578,1579,0,0,0,0,0,0,0,0,0,0
1682928063.09988117,84728595,1579,1580,1579,1579,0,0,0,0,0,0,0,0,0,0
1682928063.19984126,84828555,1580,1581,1581,1581,0,0,0,0,0,0,0,0,0,0
1682928063.29980111,84928515,1579,1579,1581,1580,0,0,0,0,0,0,0,0,0,0
1682928063.39976120,85028475,1580,1580,1582,1581,0,0,0,0,0,0,0,0,0,0
1682928063.49972105,85128435,1579,1579,1581,1581,0,0,0,0,0,0,0,0,0,0
1682928063.59968114,85228395,1580,1580,1581,1581,0,0,0,0,0,0,0,0,0,0
1682928063.69964123,85328355,1579,1579,1580,1580,0,0,0,0,0,0,0,0,0,0
1682928063.79960108,85428315,1580,1580,1581,1581,0,0,0,0,0,0,0,0,0,0
1682928063.89956117,85528275,1580,1581,1581,1582,0,0,0,0,0,0,0,0,0,0
1682928063.99952126,85628235,1581,1581,1581,1581,0,0,0,0,0,0,0,0,0,0
1682928064.09948111,85728195,1581,1581,1586,1573,0,0,0,0,0,0,0,0,0,0
1682928064.19944119,85828155,1580,1581,1585,1572,0,0,0,0,0,0,0,0,0,0
1682928064.30023408,85928948,1579,1579,1580,1575,0,0,0,0,0,0,0,0,0,0
1682928064.40019417,86028908,1575,1574,1572,1575,0,0,0,0,0,0,0,0,0,0
1682928064.50015426,86128868,1572,1571,1567,1574,0,0,0,0,0,0,0,0,0,0
1682928064.60011411,86228828,1569,1569,1565,1572,0,0,0,0,0,0,0,0,0,0
1682928064.70007420,86328788,1568,1568,1565,1569,0,0,0,0,0,0,0,0,0,0
1682928064.80003405,86428748,1566,1566,1565,1566,0,0,0,0,0,0,0,0,0,0
1682928064.89999413,86528708,1566,1567,1566,1566,0,0,0,0,0,0,0,0,0,0
1682928064.99995422,86628668,1566,1566,1567,1565,0,0,0,0,0,0,0,0,0,0
1682928065.09991407,86728628,1565,1565,1566,1564,0,0,0,0,0,0,0,0,0,0
1682928065.19987416,86828588,1564,1565,1566,1564,0,0,0,0,0,0,0,0,0,0
1682928065.29983425,86928548,1564,1564,1565,1564,0,0,0,0,0,0,0,0,0,0
1682928065.39979410,87028508,1563,1563,1564,1564,0,0,0,0,0,0,0,0,0,0
1682928065.49975419,87128468,1563,1562,1563,1563,0,0,0,0,0,0,0,0,0,0
1682928065.59971404,87228428,1562,1562,1562,1562,0,0,0,0,0,0,0,0,0,0
1682928065.69967413,87328388,1561,1561,1561,1562,0,0,0,0,0,0,0,0,0,0
1682928065.79963422,87428348,1561,1562,1562,1561,0,0,0,0,0,0,0,0,0,0
1682928065.89959407,87528308,1561,1561,1561,1561,0,0,0,0,0,0,0,0,0,0
1682928065.99955416,87628268,1560,1560,1561,1560,0,0,0,0,0,0,0,0,0,0
1682928066.09951425,87728228,1560,1559,1560,1559,0,0,0,0,0,0,0,0,0,0
1682928066.19947410,87828188,1559,1559,1559,1558,0,0,0,0,0,0,0,0,0,0
1682928066.30026722,87928981,1558,1558,1559,1558,0,0,0,0,0,0,0,0,0,0
1682928066.40022707,88028941,1558,1559,1559,1558,0,0,0,0,0,0,0,0,0,0
1682928066.50018716,88128901,1558,1558,1558,1557,0,0,0,0,0,0,0,0,0,0
1682928066.60014725,88228861,1558,1558,1559,1557,0,0,0,0,0,0,0,0,0,0
1682928066.70010710,88328821,1558,1558,1559,1557,0,0,0,0,0,0,0,0,0,0
1682928066.80006719,88428781,1559,1558,1560,1557,0,0,0,0,0,0,0,0,0,0
1682928066.90002704,88528741,1560,1560,1560,1560,0,0,0,0,0,0,0,0,0,0
1682928066.99998713,88628701,1559,1559,1558,1561,0,0,0,0,0,0,0,0,0,0
1682928067.09994721,88728661,1561,1561,1557,1564,0,0,0,0,0,0,0,0,0,0
1682928067.19990706,88828621,1561,1561,1558,1564,0,0,0,0,0,0,0,0,0,0
1682928067.29986715,88928581,1559,1559,1557,1561,0,0,0,0,0,0,0,0,0,0
1682928067.39982724,89028541,1558,1559,1558,1558,0,0,0,0,0,0,0,0,0,0
1682928067.49978709,89128501,1559,1559,1558,1559,0,0,0,0,0,0,0,0,0,0
1682928067.59974718,89228461,1557,1557,1556,1558,0,0,0,0,0,0,0,0,0,0
1682928067.69970727,89328421,1554,1554,1553,1555,0,0,0,0,0,0,0,0,0,0
1682928067.79966712,89428381,1550,1550,1549,1550,0,0,0,0,0,0,0,0,0,0
1682928067.89962721,89528341,1544,1544,1543,1544,0,0,0,0,0,0,0,0,0,0
1682928067.99958706,89628301,1536,1537,1537,1536,0,0,0,0,0,0,0,0,0,0
1682928068.09954715,89728261,1530,1530,1530,1530,0,0,0,0,0,0,0,0,0,0
1682928068.19950724,89828221,1522,1522,1523,1522,0,0,0,0,0,0,0,0,0,0
1682928068.29946709,89928181,1520,1521,1520,1521,0,0,0,0,0,0,0,0,0,0
1682928068.40026021,90028974,1519,1520,1519,1520,0,0,0,0,0,0,0,0,0,0
1682928068.50022006,90128934,1520,1521,1520,1521,0,0,0,0,0,0,0,0,0,0
1682928068.60018015,90228894,1523,1524,1523,1524,0,0,0,0,0,0,0,0,0,0
1682928068.70014024,90328854,1527,1527,1526,1527,0,0,0,0,0,0,0,0,0,0
1682928068.80010009,90428814,1531,1531,1531,1531,0,0,0,0,0,0,0,0,0,0
1682928068.90006018,90528774,1536,1536,1536,1536,0,0,0,0,0,0,0,0,0,0
1682928069.00002027,90628734,1540,1539,1540,1539,0,0,0,0,0,0,0,0,0,0
1682928069.09998012,90728694,1541,1541,1542,1541,0,0,0,0,0,0,0,0,0,0
1682928069.19994020,90828654,1543,1542,1543,1542,0,0,0,0,0,0,0,0,0,0
1682928069.29990005,90928614,1545,1544,1545,1544,0,0,0,0,0,0,0,0,0,0
1682928069.39986014,91028574,1546,1546,1546,1546,0,0,0,0,0,0,0,0,0,0
1682928069.49982023,91128534,1547,1547,1547,1547,0,0,0,0,0,0,0,0,0,0
1682928069.59978008,91228494,1546,1546,1546,1546,0,0,0,0,0,0,0,0,0,0
1682928069.69974017,91328454,1547,1547,1547,1547,0,0,0,0,0,0,0,0,0,0
1682928069.79970026,91428414,1547,1547,1547,1547,0,0,0,0,0,0,0,0,0,0
1682928069.89966011,91528374,1545,1545,1545,1545,0,0,0,0,0,0,0,0,0,0
1682928069.99962020,91628334,1545,1546,1546,1546,0,0,0,0,0,0,0,0,0,0
1682928070.09958005,91728294,1546,1546,1546,1546,0,0,0,0,0,0,0,0,0,0
1682928070.19954014,91828254,1546,1546,1546,1546,0,0,0,0,0,0,0,0,0,0
1682928070.29950023,91928214,1545,1545,1545,1545,0,0,0,0,0,0,0,0,0,0
1682928070.39946008,92028174,1546,1546,1546,1545,0,0,0,0,0,0,0,0,0,0
1682928070.50025320,92128967,1545,1545,1545,1545,0,0,0,0,0,0,0,0,0,0
1682928070.60021305,92228927,1545,1545,1545,1545,0,0,0,0,0,0,0,0,0,0
1682928070.70017314,92328887,1545,1545,1545,1545,0,0,0,0,0,0,0,0,0,0
1682928070.80013323,92428847,1545,1545,1545,1545,0,0,0,0,0,0,0,0,0,0
1682928070.90009308,92528807,1545,1545,1545,1544,0,0,0,0,0,0,0,0,0,0
1682928071.00005317,92628767,1545,1545,1545,1544,0,0,0,0,0,0,0,0,0,0
1682928071.10001326,92728727,1545,1545,1545,1545,0,0,0,0,0,0,0,0,0,0
1682928071.19997311,92828687,1544,1544,1544,1544,0,0,0,0,0,0,0,0,0,0
1682928071.29993320,92928647,1544,1543,1544,1544,0,0,0,0,0,0,0,0,0,0
1682928071.39989305,93028607,1545,1545,1545,1545,0,0,0,0,0,0,0,0,0,0
1682928071.49985313,93128567,1544,1544,1544,1544,0,0,0,0,0,0,0,0,0,0
1682928071.59981322,93228527,1544,1544,1543,1544,0,0,0,0,0,0,0,0,0,0
1682928071.69977307,93328487,1544,1544,1544,1544,0,0,0,0,0,0,0,0,0,0
1682928071.79973316,93428447,1543,1544,1543,1544,0,0,0,0,0,0,0,0,0,0
1682928071.89969325,93528407,1543,1543,1543,1543,0,0,0,0,0,0,0,0,0,0
1682928071.99965310,93628367,1543,1543,1543,1543,0,0,0,0,0,0,0,0,0,0
1682928072.09961319,93728327,1544,1544,1544,1544,0,0,0,0,0,0,0,0,0,0
1682928072.19957304,93828287,1544,1544,1544,1544,0,0,0,0,0,0,0,0,0,0
1682928072.29953313,93928247,1544,1544,1544,1544,0,0,0,0,0,0,0,0,0,0
1682928072.39949322,94028207,1544,1544,1544,1544,0,0,0,0,0,0,0,0,0,0
1682928072.49945307,94128167,1544,1544,1544,1544,0,0,0,0,0,0,0,0,0,0
1682928072.60024619,94228960,1544,1545,1545,1545,0,0,0,0,0,0,0,0,0,0
1682928072.70020604,94328920,1545,1544,1544,1545,0,0,0,0,0,0,0,0,0,0
1682928072.80016613,94428880,1544,1544,1544,1544,0,0,0,0,0,0,0,0,0,0
1682928072.90012622,94528840,1544,1545,1544,1545,0,0,0,0,0,0,0,0,0,0
1682928073.00008607,94628800,1544,1544,1545,1544,0,0,0,0,0,0,0,0,0,0
1682928073.10004616,94728760,1544,1543,1544,1544,0,0,0,0,0,0,0,0,0,0
1682928073.20000625,94828720,1544,1543,1543,1543,0,0,0,0,0,0,0,0,0,0
1682928073.29996610,94928680,1543,1543,1543,1543,0,0,0,0,0,0,0,0,0,0
1682928073.39992619,95028640,1544,1545,1544,1544,0,0,0,0,0,0,0,0,0,0
1682928073.49988604,95128600,1544,1544,1544,1544,0,0,0,0,0,0,0,0,0,0
1682928073.59984612,95228560,1544,1544,1544,1544,0,0,0,0,0,0,0,0,0,0
1682928073.69980621,95328520,1545,1545,1545,1545,0,0,0,0,0,0,0,0,0,0
1682928073.79976606,95428480,1545,1545,1545,1545,0,0,0,0,0,0,0,0,0,0
1682928073.89972615,95528440,1545,1544,1544,1544,0,0,0,0,0,0,0,0,0,0
1682928073.99968624,95628400,1544,1544,1544,1544,0,0,0,0,0,0,0,0,0,0
1682928074.09964609,95728360,1544,1544,1544,1544,0,0,0,0,0,0,0,0,0,0
1682928074.19960618,95828320,1544,1544,1544,1544,0,0,0,0,0,0,0,0,0,0
1682928074.29956627,95928280,1544,1544,1544,1545,0,0,0,0,0,0,0,0,0,0
1682928074.39952612,96028240,1543,1544,1544,1544,0,0,0,0,0,0,0,0,0,0
1682928074.49948621,96128200,1544,1544,1544,1544,0,0,0,0,0,0,0,0,0,0
1682928074.59944606,96228160,1544,1544,1544,1544,0,0,0,0,0,0,0,0,0,0
1682928074.70023918,96328953,1545,1545,1545,1545,0,0,0,0,0,0,0,0,0,0
1682928074.80019927,96428913,1544,1544,1544,1544,0,0,0,0,0,0,0,0,0,0
1682928074.90015912,96528873,1545,1545,1545,1545,0,0,0,0,0,0,0,0,0,0
1682928075.00011921,96628833,1544,1543,1544,1543,0,0,0,0,0,0,0,0,0,0
1682928075.10007906,96728793,1545,1544,1545,1544,0,0,0,0,0,0,0,0,0,0
1682928075.20003915,96828753,1544,1544,1544,1544,0,0,0,0,0,0,0,0,0,0
1682928075.29999924,96928713,1544,1544,1544,1544,0,0,0,0,0,0,0,0,0,0
1682928075.39995909,97028673,1544,1544,1544,1544,0,0,0,0,0,0,0,0,0,0
1682928075.49991918,97128633,1544,1544,1544,1545,0,0,0,0,0,0,0,0,0,0
1682928075.59987926,97228593,1544,1544,1544,1544,0,0,0,0,0,0,0,0,0,0
1682928075.69983912,97328553,1544,1544,1544,1544,0,0,0,0,0,0,0,0,0,0
1682928075.79979920,97428513,1544,1545,1544,1544,0,0,0,0,0,0,0,0,0,0
1682928075.89975905,97528473,1544,1544,1544,1544,0,0,0,0,0,0,0,0,0,0
1682928075.99971914,97628433,1544,1544,1544,1544,0,0,0,0,0,0,0,0,0,0
1682928076.09967923,97728393,1544,1543,1544,1544,0,0,0,0,0,0,0,0,0,0
1682928076.19963908,97828353,1544,1544,1544,1544,0,0,0,0,0,0,0,0,0,0
1682928076.29959917,97928313,1544,1544,1544,1544,0,0,0,0,0,0,0,0,0,0
1682928076.39955926,98028273,1544,1544,1544,1544,0,0,0,0,0,0,0,0,0,0
1682928076.49951911,98128233,1545,1545,1545,1545,0,0,0,0,0,0,0,0,0,0
1682928076.59947920,98228193,1545,1545,1545,1544,0,0,0,0,0,0,0,0,0,0
1682928076.70027208,98328986,1545,1545,1544,1545,0,0,0,0,0,0,0,0,0,0
1682928076.80023217,98428946,1545,1545,1545,1545,0,0,0,0,0,0,0,0,0,0
1682928076.90019226,98528906,1545,1544,1544,1545,0,0,0,0,0,0,0,0,0,0
1682928077.00015211,98628866,1545,1544,1545,1544,0,0,0,0,0,0,0,0,0,0
1682928077.10011220,98728826,1545,1544,1545,1545,0,0,0,0,0,0,0,0,0,0
1682928077.20007205,98828786,1545,1545,1545,1545,0,0,0,0,0,0,0,0,0,0
1682928077.30003214,98928746,1545,1545,1544,1545,0,0,0,0,0,0,0,0,0,0
1682928077.39999223,99028706,1544,1544,1544,1544,0,0,0,0,0,0,0,0,0,0
1682928077.49995208,99128666,1544,1544,1544,1544,0,0,0,0,0,0,0,0,0,0
1682928077.59991217,99228626,1544,1545,1544,1544,0,0,0,0,0,0,0,0,0,0
1682928077.69987226,99328586,1544,1544,1544,1544,0,0,0,0,0,0,0,0,0,0
1682928077.79983211,99428546,1544,1544,1544,1544,0,0,0,0,0,0,0,0,0,0
1682928077.89979219,99528506,1545,1544,1545,1545,0,0,0,0,0,0,0,0,0,0
1682928077.99975204,99628466,1405,1384,1405,1385,0,0,0,0,0,0,0,0,0,0
1682928078.09971213,99728426,1304,1258,1302,1261,0,0,0,0,0,0,0,0,0,0
1682928078.19967222,99828386,1270,1214,1268,1217,0,0,0,0,0,0,0,0,0,0
1682928078.29963207,99928346,1254,1193,1252,1196,0,0,0,0,0,0,0,0,0,0
1682928078.39959216,100028306,1223,1152,1223,1154,0,0,0,0,0,0,0,0,0,0
1682928078.49955225,100128266,1219,1150,1218,1152,0,0,0,0,0,0,0,0,0,0
1682928078.59951210,100228226,1204,1150,1203,1152,0,0,0,0,0,0,0,0,0,0
1682928078.69947219,100328186,1204,1150,1203,1153,0,0,0,0,0,0,0,0,0,0
1682928078.80026507,100428979,1204,1150,1185,1176,0,0,0,0,0,0,0,0,0,0
1682928078.90022516,100528939,1204,1150,1190,1170,0,0,0,0,0,0,0,0,0,0
1682928079.00018525,100628899,1204,1150,1193,1166,0,0,0,0,0,0,0,0,0,0
1682928079.10014510,100728859,1204,1150,1193,1166,0,0,0,0,0,0,0,0,0,0
1682928079.20010519,100828819,1204,1150,1193,1166,0,0,0,0,0,0,0,0,0,0
1682928079.30006504,100928779,1204,1150,1192,1168,0,0,0,0,0,0,0,0,0,0
1682928079.40002513,101028739,1204,1150,1191,1168,0,0,0,0,0,0,0,0,0,0
1682928079.49998522,101128699,1204,1150,1191,1169,0,0,0,0,0,0,0,0,0,0
1682928079.59994507,101228659,1204,1150,1200,1157,0,0,0,0,0,0,0,0,0,0
1682928079.69990516,101328619,1204,1150,1199,1159,0,0,0,0,0,0,0,0,0,0
1682928079.79986525,101428579,1204,1150,1198,1160,0,0,0,0,0,0,0,0,0,0
1682928079.89982510,101528539,1204,1150,1198,1160,0,0,0,0,0,0,0,0,0,0
1682928079.99978518,101628499,1204,1150,1197,1160,0,0,0,0,0,0,0,0,0,0
1682928080.09974504,101728459,1000,1000,1000,1000,0,0,0,0,0,0,0,0,0,0
1682928080.19970512,101828419,1000,1000,1000,1000,0,0,0,0,0,0,0,0,0,0
1682928080.29966521,101928379,1000,1000,1000,1000,0,0,0,0,0,0,0,0,0,0
1682928080.39962506,102028339,1000,1000,1000,1000,0,0,0,0,0,0,0,0,0,0
1682928080.49958515,102128299,1000,1000,1000,1000,0,0,0,0,0,0,0,0,0,0
1682928080.59954524,102228259,1000,1000,1000,1000,0,0,0,0,0,0,0,0,0,0
1682928080.69950509,102328219,1000,1000,1000,1000,0,0,0,0,0,0,0,0,0,0
1682928080.79946518,102428179,1000,1000,1000,1000,0,0,0,0,0,0,0,0,0,0
1682928080.90025806,102528972,1000,1000,1000,1000,0,0,0,0,0,0,0,0,0,0
1682928081.00021815,102628932,1000,1000,1000,1000,0,0,0,0,0,0,0,0,0,0
1682928081.10017824,102728892,1000,1000,1000,1000,0,0,0,0,0,0,0,0,0,0
1682928081.20013809,102828852,1000,1000,1000,1000,0,0,0,0,0,0,0,0,0,0
1682928081.30009818,102928812,1000,1000,1000,1000,0,0,0,0,0,0,0,0,0,0
1682928081.40005827,103028772,1000,1000,1000,1000,0,0,0,0,0,0,0,0,0,0
1682928081.50001812,103128732,1000,1000,1000,1000,0,0,0,0,0,0,0,0,0,0
1682928081.59997821,103228692,1000,1000,1000,1000,0,0,0,0,0,0,0,0,0,0
1682928081.69993806,103328652,1000,1000,1000,1000,0,0,0,0,0,0,0,0,0,0
1682928081.79989815,103428612,1000,1000,1000,1000,0,0,0,0,0,0,0,0,0,0
1682928081.89985824,103528572,1000,1000,1000,1000,0,0,0,0,0,0,0,0,0,0
1682928081.99981809,103628532,1000,1000,1000,1000,0,0,0,0,0,0,0,0,0,0
1682928082.09977818,103728492,1000,1000,1000,1000,0,0,0,0,0,0,0,0,0,0
1682928082.19973826,103828452,1000,1000,1000,1000,0,0,0,0,0,0,0,0,0,0
1682928082.29969811,103928412,1000,1000,1000,1000,0,0,0,0,0,0,0,0,0,0
1682928082.39965820,104028372,1000,1000,1000,1000,0,0,0,0,0,0,0,0,0,0
1682928082.49961805,104128332,1000,1000,1000,1000,0,0,0,0,0,0,0,0,0,0
1682928082.59957814,104228292,1000,1000,1000,1000,0,0,0,0,0,0,0,0,0,0
1682928082.69953823,104328252,1000,1000,1000,1000,0,0,0,0,0,0,0,0,0,0
1682928082.79949808,104428212,1000,1000,1000,1000,0,0,0,0,0,0,0,0,0,0
1682928082.89945817,104528172,1000,1000,1000,1000,0,0,0,0,0,0,0,0,0,0
1682928083.00025105,104628965,1000,1000,1000,1000,0,0,0,0,0,0,0,0,0,0
1682928083.10021114,104728925,1000,1000,1000,1000,0,0,0,0,0,0,0,0,0,0
1682928083.20017123,104828885,1000,1000,1000,1000,0,0,0,0,0,0,0,0,0,0
1682928083.30013108,104928845,1000,1000,1000,1000,0,0,0,0,0,0,0,0,0,0
1682928083.40009117,105028805,1000,1000,1000,1000,0,0,0,0,0,0,0,0,0,0
1682928083.50005126,105128765,1000,1000,1000,1000,0,0,0,0,0,0,0,0,0,0
1682928083.60001111,105228725,1000,1000,1000,1000,0,0,0,0,0,0,0,0,0,0
1682928083.69997120,105328685,1000,1000,1000,1000,0,0,0,0,0,0,0,0,0,0
1682928083.79993105,105428645,1000,1000,1000,1000,0,0,0,0,0,0,0,0,0,0
1682928083.89989114,105528605,1000,1000,1000,1000,0,0,0,0,0,0,0,0,0,0
1682928083.99985123,105628565,1000,1000,1000,1000,0,0,0,0,0,0,0,0,0,0
1682928084.09981108,105728525,1000,1000,1000,1000,0,0,0,0,0,0,0,0,0,0
1682928084.19977117,105828485,1000,1000,1000,1000,0,0,0,0,0,0,0,0,0,0
1682928084.29973125,105928445,1000,1000,1000,1000,0,0,0,0,0,0,0,0,0,0
1682928084.39969110,106028405,1000,1000,1000,1000,0,0,0,0,0,0,0,0,0,0
1682928084.49965119,106128365,1000,1000,1000,1000,0,0,0,0,0,0,0,0,0,0
1682928084.59961104,106228325,1000,1000,1000,1000,0,0,0,0,0,0,0,0,0,0
1682928084.69957113,106328285,1000,1000,1000,1000,0,0,0,0,0,0,0,0,0,0
1682928084.79953122,106428245,1000,1000,1000,1000,0,0,0,0,0,0,0,0,0,0
1682928084.89949107,106528205,1000,1000,1000,1000,0,0,0,0,0,0,0,0,0,0
1682928084.99945116,106628165,1000,1000,1000,1000,0,0,0,0,0,0,0,0,0,0
1682928085.10024405,106728958,1000,1000,1000,1000,0,0,0,0,0,0,0,0,0,0
1682928085.20020413,106828918,1000,1000,1000,1000,0,0,0,0,0,0,0,0,0,0
1682928085.30016422,106928878,1000,1000,1000,1000,0,0,0,0,0,0,0,0,0,0
1682928085.40012407,107028838,1000,1000,1000,1000,0,0,0,0,0,0,0,0,0,0
1682928085.50008416,107128798,1000,1000,1000,1000,0,0,0,0,0,0,0,0,0,0
1682928085.60004425,107228758,1000,1000,1000,1000,0,0,0,0,0,0,0,0,0,0
1682928085.70000410,107328718,1000,1000,1000,1000,0,0,0,0,0,0,0,0,0,0
1682928085.79996419,107428678,1000,1000,1000,1000,0,0,0,0,0,0,0,0,0,0
1682928085.89992404,107528638,1000,1000,1000,1000,0,0,0,0,0,0,0,0,0,0
1682928085.99988413,107628598,1000,1000,1000,1000,0,0,0,0,0,0,0,0,0,0
1682928086.09984422,107728558,1000,1000,1000,1000,0,0,0,0,0,0,0,0,0,0
1682928086.19980407,107828518,1000,1000,1000,1000,0,0,0,0,0,0,0,0,0,0
1682928086.29976416,107928478,1000,1000,1000,1000,0,0,0,0,0,0,0,0,0,0
1682928086.39972425,108028438,1000,1000,1000,1000,0,0,0,0,0,0,0,0,0,0
1682928086.49968410,108128398,1000,1000,1000,1000,0,0,0,0,0,0,0,0,0,0
1682928086.59964418,108228358,1000,1000,1000,1000,0,0,0,0,0,0,0,0,0,0
1682928086.69960427,108328318,1000,1000,1000,1000,0,0,0,0,0,0,0,0,0,0
1682928086.79956412,108428278,1000,1000,1000,1000,0,0,0,0,0,0,0,0,0,0
1682928086.89952421,108528238,1000,1000,1000,1000,0,0,0,0,0,0,0,0,0,0
1682928086.99948406,108628198,1000,1000,1000,1000,0,0,0,0,0,0,0,0,0,0
1682928087.09944415,108728158,1000,1000,1000,1000,0,0,0,0,0,0,0,0,0,0
1682928087.20023704,108828951,1000,1000,1000,1000,0,0,0,0,0,0,0,0,0,0
1682928087.30019712,108928911,1000,1000,1000,1000,0,0,0,0,0,0,0,0,0,0
1682928087.40015721,109028871,1000,1000,1000,1000,0,0,0,0,0,0,0,0,0,0
1682928087.50011706,109128831,1000,1000,1000,1000,0,0,0,0,0,0,0,0,0,0
1682928087.60007715,109228791,1000,1000,1000,1000,0,0,0,0,0,0,0,0,0,0
1682928087.70003724,109328751,1000,1000,1000,1000,0,0,0,0,0,0,0,0,0,0
1682928087.79999709,109428711,1000,1000,1000,1000,0,0,0,0,0,0,0,0,0,0
1682928087.89995718,109528671,1000,1000,1000,1000,0,0,0,0,0,0,0,0,0,0
1682928087.99991727,109628631,1000,1000,1000,1000,0,0,0,0,0,0,0,0,0,0
1682928088.09987712,109728591,1000,1000,1000,1000,0,0,0,0,0,0,0,0,0,0
1682928088.19983721,109828551,1000,1000,1000,1000,0,0,0,0,0,0,0,0,0,0
1682928088.29979706,109928511,1000,1000,1000,1000,0,0,0,0,0,0,0,0,0,0
1682928088.39975715,110028471,1000,1000,1000,1000,0,0,0,0,0,0,0,0,0,0
1682928088.49971724,110128431,1000,1000,1000,1000,0,0,0,0,0,0,0,0,0,0
1682928088.59967709,110228391,1000,1000,1000,1000,0,0,0,0,0,0,0,0,0,0
1682928088.69963717,110328351,1000,1000,1000,1000,0,0,0,0,0,0,0,0,0,0
1682928088.79959726,110428311,1000,1000,1000,1000,0,0,0,0,0,0,0,0,0,0
1682928088.89955711,110528271,1000,1000,1000,1000,0,0,0,0,0,0,0,0,0,0
1682928088.99951720,110628231,1000,1000,1000,1000,0,0,0,0,0,0,0,0,0,0
1682928089.09947705,110728191,1000,1000,1000,1000,0,0,0,0,0,0,0,0,0,0
1682928089.20027018,110828984,1000,1000,1000,1000,0,0,0,0,0,0,0,0,0,0
1682928089.30023026,110928944,1000,1000,1000,1000,0,0,0,0,0,0,0,0,0,0
1682928089.40019011,111028904,1000,1000,1000,1000,0,0,0,0,0,0,0,0,0,0
1682928089.50015020,111128864,1000,1000,1000,1000,0,0,0,0,0,0,0,0,0,0
1682928089.60011005,111228824,1000,1000,1000,1000,0,0,0,0,0,0,0,0,0,0
1682928089.70007014,111328784,1000,1000,1000,1000,0,0,0,0,0,0,0,0,0,0
1682928089.80003023,111428744,1000,1000,1000,1000,0,0,0,0,0,0,0,0,0,0
1682928089.89999008,111528704,1000,1000,1000,1000,0,0,0,0,0,0,0,0,0,0
1682928089.99995017,111628664,1000,1000,1000,1000,0,0,0,0,0,0,0,0,0,0
1682928090.09991026,111728624,1000,1000,1000,1000,0,0,0,0,0,0,0,0,0,0
1682928090.19987011,111828584,1000,1000,1000,1000,0,0,0,0,0,0,0,0,0,0
1682928090.29983020,111928544,1000,1000,1000,1000,0,0,0,0,0,0,0,0,0,0
1682928090.39979005,112028504,1000,1000,1000,1000,0,0,0,0,0,0,0,0,0,0
1682928090.49975014,112128464,1000,1000,1000,1000,0,0,0,0,0,0,0,0,0,0
1682928090.59971023,112228424,1000,1000,1000,1000,0,0,0,0,0,0,0,0,0,0
1682928090.69967008,112328384,1000,1000,1000,1000,0,0,0,0,0,0,0,0,0,0
1682928090.79963017,112428344,1000,1000,1000,1000,0,0,0,0,0,0,0,0,0,0
1682928090.89959025,112528304,1000,1000,1000,1000,0,0,0,0,0,0,0,0,0,0
1682928090.99955010,112628264,1000,1000,1000,1000,0,0,0,0,0,0,0,0,0,0
1682928091.09951019,112728224,1000,1000,1000,1000,0,0,0,0,0,0,0,0,0,0
1682928091.19947004,112828184,1000,1000,1000,1000,0,0,0,0,0,0,0,0,0,0
1682928091.30026317,112928977,1000,1000,1000,1000,0,0,0,0,0,0,0,0,0,0
1682928091.40022326,113028937,1000,1000,1000,1000,0,0,0,0,0,0,0,0,0,0
1682928091.50018311,113128897,1000,1000,1000,1000,0,0,0,0,0,0,0,0,0,0
1682928091.60014319,113228857,1000,1000,1000,1000,0,0,0,0,0,0,0,0,0,0
1682928091.70010304,113328817,1000,1000,1000,1000,0,0,0,0,0,0,0,0,0,0
1682928091.80006313,113428777,1000,1000,1000,1000,0,0,0,0,0,0,0,0,0,0
1682928091.90002322,113528737,1000,1000,1000,1000,0,0,0,0,0,0,0,0,0,0
1682928091.99998307,113628697,1000,1000,1000,1000,0,0,0,0,0,0,0,0,0,0
1682928092.09994316,113728657,1000,1000,1000,1000,0,0,0,0,0,0,0,0,0,0
1682928092.19990325,113828617,1000,1000,1000,1000,0,0,0,0,0,0,0,0,0,0
1682928092.29986310,113928577,1000,1000,1000,1000,0,0,0,0,0,0,0,0,0,0
1682928092.39982319,114028537,1000,1000,1000,1000,0,0,0,0,0,0,0,0,0,0
1682928092.49978304,114128497,1000,1000,1000,1000,0,0,0,0,0,0,0,0,0,0
1682928092.59974313,114228457,1000,1000,1000,1000,0,0,0,0,0,0,0,0,0,0
1682928092.69970322,114328417,1000,1000,1000,1000,0,0,0,0,0,0,0,0,0,0
1682928092.79966307,114428377,1000,1000,1000,1000,0,0,0,0,0,0,0,0,0,0
1682928092.89962316,114528337,1000,1000,1000,1000,0,0,0,0,0,0,0,0,0,0
1682928092.99958324,114628297,1000,1000,1000,1000,0,0,0,0,0,0,0,0,0,0
1682928093.09954309,114728257,1000,1000,1000,1000,0,0,0,0,0,0,0,0,0,0
1682928093.19950318,114828217,1000,1000,1000,1000,0,0,0,0,0,0,0,0,0,0
1682928093.29946327,114928177,1000,1000,1000,1000,0,0,0,0,0,0,0,0,0,0
1682928093.40025616,115028970,1000,1000,1000,1000,0,0,0,0,0,0,0,0,0,0
1682928093.50021625,115128930,1000,1000,1000,1000,0,0,0,0,0,0,0,0,0,0
1682928093.60017610,115228890,1000,1000,1000,1000,0,0,0,0,0,0,0,0,0,0
1682928093.70013618,115328850,1000,1000,1000,1000,0,0,0,0,0,0,0,0,0,0
1682928093.80009604,115428810,1000,1000,1000,1000,0,0,0,0,0,0,0,0,0,0
1682928093.90005612,115528770,1000,1000,1000,1000,0,0,0,0,0,0,0,0,0,0
1682928094.00001621,115628730,1000,1000,1000,1000,0,0,0,0,0,0,0,0,0,0
1682928094.09997606,115728690,1000,1000,1000,1000,0,0,0,0,0,0,0,0,0,0
1682928094.19993615,115828650,1000,1000,1000,1000,0,0,0,0,0,0,0,0,0,0
1682928094.29989624,115928610,1000,1000,1000,1000,0,0,0,0,0,0,0,0,0,0
1682928094.39985609,116028570,1000,1000,1000,1000,0,0,0,0,0,0,0,0,0,0
1682928094.49981618,116128530,1000,1000,1000,1000,0,0,0,0,0,0,0,0,0,0
1682928094.59977627,116228490,1000,1000,1000,1000,0,0,0,0,0,0,0,0,0,0
1682928094.69973612,116328450,1000,1000,1000,1000,0,0,0,0,0,0,0,0,0,0
1682928094.79969621,116428410,1000,1000,1000,1000,0,0,0,0,0,0,0,0,0,0
1682928094.89965606,116528370,1000,1000,1000,1000,0,0,0,0,0,0,0,0,0,0
1682928094.99961615,116628330,1000,1000,1000,1000,0,0,0,0,0,0,0,0,0,0
