timestamp,TimeUS,C1,C2,C3,C4,C5,C6,C7,C8,C9,C10,C11,C12,C13,C14
1682926902.70003986,65128938,1000,1000,1000,1000,0,0,0,0,0,0,0,0,0,0
1682926902.79999995,65228898,1000,1000,1000,1000,0,0,0,0,0,0,0,0,0,0
1682926902.89995980,65328858,1000,1000,1000,1000,0,0,0,0,0,0,0,0,0,0
1682926902.99991989,65428818,1000,1000,1000,1000,0,0,0,0,0,0,0,0,0,0
1682926903.09987998,65528778,1000,1000,1000,1000,0,0,0,0,0,0,0,0,0,0
1682926903.19983983,65628738,1000,1000,1000,1000,0,0,0,0,0,0,0,0,0,0
1682926903.29979992,65728698,1000,1000,1000,1000,0,0,0,0,0,0,0,0,0,0
1682926903.39976001,65828658,1000,1000,1000,1000,0,0,0,0,0,0,0,0,0,0
1682926903.49971986,65928618,1000,1000,1000,1000,0,0,0,0,0,0,0,0,0,0
1682926903.59967995,66028578,1000,1000,1000,1000,0,0,0,0,0,0,0,0,0,0
1682926903.69963980,66128538,1000,1000,1000,1000,0,0,0,0,0,0,0,0,0,0
1682926903.79959989,66228498,1000,1000,1000,1000,0,0,0,0,0,0,0,0,0,0
1682926903.89955997,66328458,1000,1000,1000,1000,0,0,0,0,0,0,0,0,0,0
1682926903.99951982,66428418,1000,1000,1000,1000,0,0,0,0,0,0,0,0,0,0
1682926904.09947991,66528378,1000,1000,1000,1000,0,0,0,0,0,0,0,0,0,0
1682926904.19944000,66628338,1000,1000,1000,1000,0,0,0,0,0,0,0,0,0,0
1682926904.29939985,66728298,1000,1000,1000,1000,0,0,0,0,0,0,0,0,0,0
1682926904.39935994,66828258,1000,1000,1000,1000,0,0,0,0,0,0,0,0,0,0
1682926904.49931979,66928218,1000,1000,1000,1000,0,0,0,0,0,0,0,0,0,0
1682926904.59927988,67028178,1000,1000,1000,1000,0,0,0,0,0,0,0,0,0,0
1682926904.70007300,67128971,1015,1015,1015,1015,0,0,0,0,0,0,0,0,0,0
1682926904.80003285,67228931,1045,1045,1045,1045,0,0,0,0,0,0,0,0,0,0
1682926904.89999294,67328891,1075,1075,1075,1075,0,0,0,0,0,0,0,0,0,0
1682926904.99995279,67428851,1100,1100,1100,1100,0,0,0,0,0,0,0,0,0,0
1682926905.09991288,67528811,1100,1100,1100,1100,0,0,0,0,0,0,0,0,0,0
1682926905.19987297,67628771,1100,1100,1100,1100,0,0,0,0,0,0,0,0,0,0
1682926905.29983282,67728731,1100,1100,1100,1100,0,0,0,0,0,0,0,0,0,0
1682926905.39979291,67828691,1100,1100,1100,1100,0,0,0,0,0,0,0,0,0,0
1682926905.49975300,67928651,1100,1100,1100,1100,0,0,0,0,0,0,0,0,0,0
1682926905.59971285,68028611,1100,1100,1100,1100,0,0,0,0,0,0,0,0,0,0
1682926905.69967294,68128571,1100,1100,1100,1100,0,0,0,0,0,0,0,0,0,0
1682926905.79963279,68228531,1100,1100,1100,1100,0,0,0,0,0,0,0,0,0,0
1682926905.89959288,68328491,1100,1100,1100,1100,0,0,0,0,0,0,0,0,0,0
1682926905.99955297,68428451,1100,1100,1100,1100,0,0,0,0,0,0,0,0,0,0
1682926906.09951282,68528411,1100,1100,1100,1100,0,0,0,0,0,0,0,0,0,0
1682926906.19947290,68628371,1100,1100,1100,1100,0,0,0,0,0,0,0,0,0,0
1682926906.29943299,68728331,1100,1100,1100,1100,0,0,0,0,0,0,0,0,0,0
1682926906.39939284,68828291,1100,1100,1100,1100,0,0,0,0,0,0,0,0,0,0
1682926906.49935293,68928251,1100,1100,1100,1100,0,0,0,0,0,0,0,0,0,0
1682926906.59931302,69028211,1100,1100,1100,1100,0,0,0,0,0,0,0,0,0,0
1682926906.69927287,69128171,1100,1100,1100,1100,0,0,0,0,0,0,0,0,0,0
1682926906.80006599,69228964,1100,1100,1100,1100,0,0,0,0,0,0,0,0,0,0
1682926906.90002584,69328924,1100,1100,1100,1100,0,0,0,0,0,0,0,0,0,0
1682926906.99998593,69428884,1100,1100,1100,1100,0,0,0,0,0,0,0,0,0,0
1682926907.09994602,69528844,1100,1100,1100,1100,0,0,0,0,0,0,0,0,0,0
1682926907.19990587,69628804,1100,1100,1100,1100,0,0,0,0,0,0,0,0,0,0
1682926907.29986596,69728764,1100,1100,1100,1100,0,0,0,0,0,0,0,0,0,0
1682926907.39982581,69828724,1100,1100,1100,1100,0,0,0,0,0,0,0,0,0,0
1682926907.49978590,69928684,1100,1100,1100,1100,0,0,0,0,0,0,0,0,0,0
1682926907.59974599,70028644,1100,1100,1100,1100,0,0,0,0,0,0,0,0,0,0
1682926907.69970584,70128604,1100,1100,1100,1100,0,0,0,0,0,0,0,0,0,0
1682926907.79966593,70228564,1100,1100,1100,1100,0,0,0,0,0,0,0,0,0,0
1682926907.89962602,70328524,1100,1100,1100,1100,0,0,0,0,0,0,0,0,0,0
1682926907.99958587,70428484,1100,1100,1100,1100,0,0,0,0,0,0,0,0,0,0
1682926908.09954596,70528444,1100,1100,1100,1100,0,0,0,0,0,0,0,0,0,0
1682926908.19950581,70628404,1100,1100,1100,1100,0,0,0,0,0,0,0,0,0,0
1682926908.29946589,70728364,1100,1100,1100,1100,0,0,0,0,0,0,0,0,0,0
1682926908.39942598,70828324,1100,1100,1100,1100,0,0,0,0,0,0,0,0,0,0
1682926908.49938583,70928284,1100,1100,1100,1100,0,0,0,0,0,0,0,0,0,0
1682926908.59934592,71028244,1100,1100,1100,1100,0,0,0,0,0,0,0,0,0,0
1682926908.69930601,71128204,1100,1100,1100,1100,0,0,0,0,0,0,0,0,0,0
1682926908.79926586,71228164,1100,1100,1100,1100,0,0,0,0,0,0,0,0,0,0
1682926908.90005898,71328957,1100,1100,1100,1100,0,0,0,0,0,0,0,0,0,0
1682926909.00001884,71428917,1100,1100,1100,1100,0,0,0,0,0,0,0,0,0,0
1682926909.09997892,71528877,1100,1100,1100,1100,0,0,0,0,0,0,0,0,0,0
1682926909.19993901,71628837,1100,1100,1100,1100,0,0,0,0,0,0,0,0,0,0
1682926909.29989886,71728797,1116,1116,1116,1116,0,0,0,0,0,0,0,0,0,0
1682926909.39985895,71828757,1146,1146,1146,1146,0,0,0,0,0,0,0,0,0,0
1682926909.49981880,71928717,1194,1185,1185,1194,0,0,0,0,0,0,0,0,0,0
1682926909.59977889,72028677,1224,1215,1215,1225,0,0,0,0,0,0,0,0,0,0
1682926909.69973898,72128637,1265,1255,1255,1265,0,0,0,0,0,0,0,0,0,0
1682926909.79969883,72228597,1313,1303,1303,1313,0,0,0,0,0,0,0,0,0,0
1682926909.89965892,72328557,1361,1351,1351,1362,0,0,0,0,0,0,0,0,0,0
1682926909.99961901,72428517,1411,1400,1401,1411,0,0,0,0,0,0,0,0,0,0
1682926910.09957886,72528477,1463,1451,1452,1463,0,0,0,0,0,0,0,0,0,0
1682926910.19953895,72628437,1515,1504,1505,1515,0,0,0,0,0,0,0,0,0,0
1682926910.29949880,72728397,1569,1558,1558,1569,0,0,0,0,0,0,0,0,0,0
1682926910.39945889,72828357,1610,1599,1599,1610,0,0,0,0,0,0,0,0,0,0
1682926910.49941897,72928317,1641,1629,1629,1642,0,0,0,0,0,0,0,0,0,0
1682926910.59937882,73028277,1675,1663,1663,1675,0,0,0,0,0,0,0,0,0,0
1682926910.69933891,73128237,1711,1698,1698,1711,0,0,0,0,0,0,0,0,0,0
1682926910.79929900,73228197,1747,1734,1734,1747,0,0,0,0,0,0,0,0,0,0
1682926910.89925885,73328157,1783,1771,1772,1784,0,0,0,0,0,0,0,0,0,0
1682926911.00005198,73428950,1689,1686,1687,1690,0,0,0,0,0,0,0,0,0,0
1682926911.10001183,73528910,1573,1575,1575,1573,0,0,0,0,0,0,0,0,0,0
1682926911.19997191,73628870,1555,1560,1560,1555,0,0,0,0,0,0,0,0,0,0
1682926911.29993200,73728830,1591,1596,1596,1591,0,0,0,0,0,0,0,0,0,0
1682926911.39989185,73828790,1626,1629,1629,1626,0,0,0,0,0,0,0,0,0,0
1682926911.49985194,73928750,1644,1645,1645,1644,0,0,0,0,0,0,0,0,0,0
1682926911.59981179,74028710,1645,1645,1645,1645,0,0,0,0,0,0,0,0,0,0
1682926911.69977188,74128670,1642,1639,1639,1642,0,0,0,0,0,0,0,0,0,0
1682926911.79973197,74228630,1637,1635,1634,1637,0,0,0,0,0,0,0,0,0,0
1682926911.89969182,74328590,1635,1633,1633,1635,0,0,0,0,0,0,0,0,0,0
1682926911.99965191,74428550,1634,1633,1633,1634,0,0,0,0,0,0,0,0,0,0
1682926912.09961200,74528510,1634,1634,1634,1634,0,0,0,0,0,0,0,0,0,0
1682926912.19957185,74628470,1634,1634,1635,1633,0,0,0,0,0,0,0,0,0,0
1682926912.29953194,74728430,1634,1635,1635,1634,0,0,0,0,0,0,0,0,0,0
1682926912.39949179,74828390,1633,1634,1634,1633,0,0,0,0,0,0,0,0,0,0
1682926912.49945188,74928350,1632,1632,1632,1633,0,0,0,0,0,0,0,0,0,0
1682926912.59941196,75028310,1632,1632,1631,1632,0,0,0,0,0,0,0,0,0,0
1682926912.69937181,75128270,1622,1626,1626,1621,0,0,0,0,0,0,0,0,0,0
1682926912.79933190,75228230,1595,1595,1595,1596,0,0,0,0,0,0,0,0,0,0
1682926912.89929199,75328190,1583,1581,1581,1583,0,0,0,0,0,0,0,0,0,0
1682926913.00008488,75428983,1571,1570,1570,1571,0,0,0,0,0,0,0,0,0,0
1682926913.10004497,75528943,1562,1560,1560,1562,0,0,0,0,0,0,0,0,0,0
1682926913.20000482,75628903,1551,1551,1550,1551,0,0,0,0,0,0,0,0,0,0
1682926913.29996490,75728863,1542,1542,1541,1543,0,0,0,0,0,0,0,0,0,0
1682926913.39992499,75828823,1532,1533,1532,1533,0,0,0,0,0,0,0,0,0,0
1682926913.49988484,75928783,1523,1523,1523,1524,0,0,0,0,0,0,0,0,0,0
1682926913.59984493,76028743,1516,1517,1516,1517,0,0,0,0,0,0,0,0,0,0
1682926913.69980502,76128703,1513,1513,1513,1514,0,0,0,0,0,0,0,0,0,0
1682926913.79976487,76228663,1511,1510,1510,1511,0,0,0,0,0,0,0,0,0,0
1682926913.89972496,76328623,1510,1509,1509,1510,0,0,0,0,0,0,0,0,0,0
1682926913.99968481,76428583,1508,1508,1508,1508,0,0,0,0,0,0,0,0,0,0
1682926914.09964490,76528543,1508,1508,1507,1508,0,0,0,0,0,0,0,0,0,0
1682926914.19960499,76628503,1509,1509,1509,1509,0,0,0,0,0,0,0,0,0,0
1682926914.29956484,76728463,1508,1508,1508,1509,0,0,0,0,0,0,0,0,0,0
1682926914.39952493,76828423,1509,1509,1509,1509,0,0,0,0,0,0,0,0,0,0
1682926914.49948502,76928383,1515,1515,1515,1515,0,0,0,0,0,0,0,0,0,0
1682926914.59944487,77028343,1539,1539,1546,1533,0,0,0,0,0,0,0,0,0,0
1682926914.69940495,77128303,1549,1549,1553,1545,0,0,0,0,0,0,0,0,0,0
1682926914.79936481,77228263,1556,1556,1556,1556,0,0,0,0,0,0,0,0,0,0
1682926914.89932489,77328223,1560,1561,1557,1564,0,0,0,0,0,0,0,0,0,0
1682926914.99928498,77428183,1563,1563,1559,1568,0,0,0,0,0,0,0,0,0,0
1682926915.10007787,77528976,1565,1565,1561,1570,0,0,0,0,0,0,0,0,0,0
1682926915.20003796,77628936,1567,1567,1565,1569,0,0,0,0,0,0,0,0,0,0
1682926915.29999781,77728896,1569,1569,1570,1569,0,0,0,0,0,0,0,0,0,0
1682926915.39995790,77828856,1570,1570,1573,1567,0,0,0,0,0,0,0,0,0,0
1682926915.49991798,77928816,1571,1571,1574,1568,0,0,0,0,0,0,0,0,0,0
1682926915.59987783,78028776,1571,1571,1573,1569,0,0,0,0,0,0,0,0,0,0
1682926915.69983792,78128736,1570,1571,1571,1570,0,0,0,0,0,0,0,0,0,0
1682926915.79979801,78228696,1571,1571,1570,1572,0,0,0,0,0,0,0,0,0,0
1682926915.89975786,78328656,1567,1566,1573,1577,0,0,0,0,0,0,0,0,0,0
1682926915.99971795,78428616,1562,1562,1573,1577,0,0,0,0,0,0,0,0,0,0
1682926916.09967780,78528576,1563,1564,1572,1574,0,0,0,0,0,0,0,0,0,0
1682926916.19963789,78628536,1566,1567,1571,1572,0,0,0,0,0,0,0,0,0,0
1682926916.29959798,78728496,1568,1569,1569,1569,0,0,0,0,0,0,0,0,0,0
1682926916.39955783,78828456,1569,1570,1567,1566,0,0,0,0,0,0,0,0,0,0
1682926916.49951792,78928416,1572,1572,1567,1566,0,0,0,0,0,0,0,0,0,0
1682926916.59947801,79028376,1573,1573,1567,1565,0,0,0,0,0,0,0,0,0,0
1682926916.69943786,79128336,1573,1573,1565,1565,0,0,0,0,0,0,0,0,0,0
1682926916.79939795,79228296,1574,1573,1566,1567,0,0,0,0,0,0,0,0,0,0
1682926916.89935780,79328256,1574,1574,1568,1568,0,0,0,0,0,0,0,0,0,0
1682926916.99931788,79428216,1573,1573,1569,1569,0,0,0,0,0,0,0,0,0,0
1682926917.09927797,79528176,1573,1573,1571,1571,0,0,0,0,0,0,0,0,0,0
1682926917.20007086,79628969,1573,1574,1574,1573,0,0,0,0,0,0,0,0,0,0
1682926917.30003095,79728929,1573,1573,1575,1574,0,0,0,0,0,0,0,0,0,0
1682926917.39999080,79828889,1574,1574,1577,1575,0,0,0,0,0,0,0,0,0,0
1682926917.49995089,79928849,1575,1574,1578,1577,0,0,0,0,0,0,0,0,0,0
1682926917.59991097,80028809,1575,1575,1578,1577,0,0,0,0,0,0,0,0,0,0
1682926917.69987082,80128769,1575,1575,1578,1578,0,0,0,0,0,0,0,0,0,0
1682926917.79983091,80228729,1576,1576,1578,1578,0,0,0,0,0,0,0,0,0,0
1682926917.89979100,80328689,1576,1576,1578,1578,0,0,0,0,0,0,0,0,0,0
1682926917.99975085,80428649,1576,1576,1577,1577,0,0,0,0,0,0,0,0,0,0
1682926918.09971094,80528609,1576,1576,1576,1576,0,0,0,0,0,0,0,0,0,0
1682926918.19967079,80628569,1577,1577,1577,1577,0,0,0,0,0,0,0,0,0,0
1682926918.29963088,80728529,1578,1577,1577,1577,0,0,0,0,0,0,0,0,0,0
1682926918.39959097,80828489,1579,1579,1577,1578,0,0,0,0,0,0,0,0,0,0
1682926918.49955082,80928449,1579,1578,1577,1577,0,0,0,0,0,0,0,0,0,0
1682926918.59951091,81028409,1579,1579,1578,1578,0,0,0,0,0,0,0,0,0,0
1682926918.69947100,81128369,1580,1580,1579,1579,0,0,0,0,0,0,0,0,0,0
1682926918.79943085,81228329,1579,1579,1578,1578,0,0,0,0,0,0,0,0,0,0
1682926918.89939094,81328289,1579,1579,1579,1579,0,0,0,0,0,0,0,0,0,0
1682926918.99935079,81428249,1579,1579,1579,1578,0,0,0,0,0,0,0,0,0,0
1682926919.09931087,81528209,1580,1579,1579,1580,0,0,0,0,0,0,0,0,0,0
1682926919.19927096,81628169,1579,1579,1580,1579,0,0,0,0,0,0,0,0,0,0
1682926919.30006385,81728962,1578,1578,1579,1579,0,0,0,0,0,0,0,0,0,0
1682926919.40002394,81828922,1578,1578,1579,1579,0,0,0,0,0,0,0,0,0,0
1682926919.49998379,81928882,1578,1578,1579,1579,0,0,0,0,0,0,0,0,0,0
1682926919.59994388,82028842,1578,1579,1579,1579,0,0,0,0,0,0,0,0,0,0
1682926919.69990396,82128802,1578,1579,1579,1579,0,0,0,0,0,0,0,0,0,0
1682926919.79986382,82228762,1579,1579,1580,1579,0,0,0,0,0,0,0,0,0,0
1682926919.89982390,82328722,1579,1578,1579,1579,0,0,0,0,0,0,0,0,0,0
1682926919.99978399,82428682,1580,1580,1580,1580,0,0,0,0,0,0,0,0,0,0
1682926920.09974384,82528642,1580,1580,1580,1580,0,0,0,0,0,0,0,0,0,0
1682926920.19970393,82628602,1580,1580,1579,1580,0,0,0,0,0,0,0,0,0,0
1682926920.29966402,82728562,1580,1580,1580,1580,0,0,0,0,0,0,0,0,0,0
1682926920.39962387,82828522,1580,1580,1580,1580,0,0,0,0,0,0,0,0,0,0
1682926920.49958396,82928482,1580,1580,1580,1580,0,0,0,0,0,0,0,0,0,0
1682926920.59954381,83028442,1580,1580,1580,1580,0,0,0,0,0,0,0,0,0,0
1682926920.69950390,83128402,1580,1580,1580,1580,0,0,0,0,0,0,0,0,0,0
1682926920.79946399,83228362,1580,1580,1580,1580,0,0,0,0,0,0,0,0,0,0
1682926920.89942384,83328322,1580,1580,1580,1580,0,0,0,0,0,0,0,0,0,0
1682926920.99938393,83428282,1579,1580,1579,1580,0,0,0,0,0,0,0,0,0,0
1682926921.09934402,83528242,1580,1580,1581,1580,0,0,0,0,0,0,0,0,0,0
1682926921.19930387,83628202,1580,1580,1580,1580,0,0,0,0,0,0,0,0,0,0
1682926921.29926395,83728162,1580,1580,1580,1580,0,0,0,0,0,0,0,0,0,0
1682926921.40005684,83828955,1580,1580,1581,1581,0,0,0,0,0,0,0,0,0,0
1682926921.50001693,83928915,1581,1580,1581,1581,0,0,0,0,0,0,0,0,0,0
1682926921.59997702,84028875,1580,1580,1580,1580,0,0,0,0,0,0,0,0,0,0
1682926921.69993687,84128835,1581,1581,1581,1581,0,0,0,0,0,0,0,0,0,0
1682926921.79989696,84228795,1581,1581,1581,1581,0,0,0,0,0,0,0,0,0,0
1682926921.89985681,84328755,1581,1581,1581,1581,0,0,0,0,0,0,0,0,0,0
1682926921.99981689,84428715,1581,1581,1581,1581,0,0,0,0,0,0,0,0,0,0
1682926922.09977698,84528675,1580,1581,1581,1581,0,0,0,0,0,0,0,0,0,0
1682926922.19973683,84628635,1581,1582,1588,1574,0,0,0,0,0,0,0,0,0,0
1682926922.29969692,84728595,1581,1583,1585,1574,0,0,0,0,0,0,0,0,0,0
1682926922.39965701,84828555,1579,1582,1577,1574,0,0,0,0,0,0,0,0,0,0
1682926922.49961686,84928515,1578,1581,1569,1573,0,0,0,0,0,0,0,0,0,0
1682926922.59957695,85028475,1577,1579,1561,1568,0,0,0,0,0,0,0,0,0,0
1682926922.69953680,85128435,1579,1579,1558,1564,0,0,0,0,0,0,0,0,0,0
1682926922.79949689,85228395,1580,1579,1556,1559,0,0,0,0,0,0,0,0,0,0
1682926922.89945698,85328355,1580,1579,1556,1556,0,0,0,0,0,0,0,0,0,0
1682926922.99941683,85428315,1580,1578,1556,1554,0,0,0,0,0,0,0,0,0,0
1682926923.09937692,85528275,1578,1577,1555,1553,0,0,0,0,0,0,0,0,0,0
1682926923.19933701,85628235,1577,1578,1556,1554,0,0,0,0,0,0,0,0,0,0
1682926923.29929686,85728195,1576,1577,1555,1554,0,0,0,0,0,0,0,0,0,0
1682926923.39925694,85828155,1576,1577,1555,1554,0,0,0,0,0,0,0,0,0,0
1682926923.50004983,85928948,1575,1577,1553,1554,0,0,0,0,0,0,0,0,0,0
1682926923.60000992,86028908,1576,1578,1552,1552,0,0,0,0,0,0,0,0,0,0
1682926923.69997001,86128868,1577,1579,1550,1551,0,0,0,0,0,0,0,0,0,0
1682926923.79992986,86228828,1580,1581,1549,1548,0,0,0,0,0,0,0,0,0,0
1682926923.89988995,86328788,1582,1583,1546,1546,0,0,0,0,0,0,0,0,0,0
1682926923.99984980,86428748,1584,1585,1542,1542,0,0,0,0,0,0,0,0,0,0
1682926924.09980989,86528708,1587,1588,1539,1539,0,0,0,0,0,0,0,0,0,0
1682926924.19976997,86628668,1590,1590,1537,1537,0,0,0,0,0,0,0,0,0,0
1682926924.29972982,86728628,1593,1593,1536,1536,0,0,0,0,0,0,0,0,0,0
1682926924.39968991,86828588,1595,1595,1535,1535,0,0,0,0,0,0,0,0,0,0
1682926924.49965000,86928548,1595,1595,1535,1537,0,0,0,0,0,0,0,0,0,0
1682926924.59960985,87028508,1593,1593,1535,1538,0,0,0,0,0,0,0,0,0,0
1682926924.69956994,87128468,1592,1591,1539,1542,0,0,0,0,0,0,0,0,0,0
1682926924.79952979,87228428,1588,1587,1545,1549,0,0,0,0,0,0,0,0,0,0
1682926924.89948988,87328388,1582,1578,1553,1556,0,0,0,0,0,0,0,0,0,0
1682926924.99944997,87428348,1573,1570,1564,1566,0,0,0,0,0,0,0,0,0,0
1682926925.09940982,87528308,1562,1558,1576,1577,0,0,0,0,0,0,0,0,0,0
1682926925.19936991,87628268,1551,1548,1588,1589,0,0,0,0,0,0,0,0,0,0
1682926925.29933000,87728228,1540,1537,1599,1599,0,0,0,0,0,0,0,0,0,0
1682926925.39928985,87828188,1533,1533,1609,1608,0,0,0,0,0,0,0,0,0,0
1682926925.50008297,87928981,1528,1529,1614,1613,0,0,0,0,0,0,0,0,0,0
1682926925.60004282,88028941,1528,1531,1616,1614,0,0,0,0,0,0,0,0,0,0
1682926925.70000291,88128901,1532,1534,1613,1613,0,0,0,0,0,0,0,0,0,0
1682926925.79996300,88228861,1537,1539,1608,1608,0,0,0,0,0,0,0,0,0,0
1682926925.89992285,88328821,1546,1547,1602,1602,0,0,0,0,0,0,0,0,0,0
1682926925.99988294,88428781,1555,1557,1595,1595,0,0,0,0,0,0,0,0,0,0
1682926926.09984279,88528741,1564,1564,1587,1587,0,0,0,0,0,0,0,0,0,0
1682926926.19980288,88628701,1572,1572,1580,1579,0,0,0,0,0,0,0,0,0,0
1682926926.29976296,88728661,1579,1578,1575,1574,0,0,0,0,0,0,0,0,0,0
1682926926.39972281,88828621,1584,1582,1570,1569,0,0,0,0,0,0,0,0,0,0
1682926926.49968290,88928581,1587,1585,1567,1567,0,0,0,0,0,0,0,0,0,0
1682926926.59964299,89028541,1588,1587,1566,1567,0,0,0,0,0,0,0,0,0,0
1682926926.69960284,89128501,1588,1586,1567,1567,0,0,0,0,0,0,0,0,0,0
1682926926.79956293,89228461,1585,1585,1568,1568,0,0,0,0,0,0,0,0,0,0
1682926926.89952302,89328421,1583,1583,1571,1571,0,0,0,0,0,0,0,0,0,0
1682926926.99948287,89428381,1580,1580,1574,1574,0,0,0,0,0,0,0,0,0,0
1682926927.09944296,89528341,1577,1577,1577,1577,0,0,0,0,0,0,0,0,0,0
1682926927.19940281,89628301,1575,1575,1579,1579,0,0,0,0,0,0,0,0,0,0
1682926927.29936290,89728261,1573,1574,1581,1582,0,0,0,0,0,0,0,0,0,0
1682926927.39932299,89828221,1572,1573,1584,1583,0,0,0,0,0,0,0,0,0,0
1682926927.49928284,89928181,1571,1571,1583,1582,0,0,0,0,0,0,0,0,0,0
1682926927.60007596,90028974,1572,1572,1583,1583,0,0,0,0,0,0,0,0,0,0
1682926927.70003581,90128934,1573,1573,1582,1583,0,0,0,0,0,0,0,0,0,0
1682926927.79999590,90228894,1574,1574,1581,1582,0,0,0,0,0,0,0,0,0,0
1682926927.89995599,90328854,1708,1608,1712,1613,0,0,0,0,0,0,0,0,0,0
1682926927.99991584,90428814,1613,1597,1619,1596,0,0,0,0,0,0,0,0,0,0
1682926928.09987593,90528774,1564,1600,1566,1599,0,0,0,0,0,0,0,0,0,0
1682926928.19983602,90628734,1547,1597,1543,1593,0,0,0,0,0,0,0,0,0,0
1682926928.29979587,90728694,1551,1587,1538,1579,0,0,0,0,0,0,0,0,0,0
1682926928.39975595,90828654,1562,1576,1542,1560,0,0,0,0,0,0,0,0,0,0
1682926928.49971581,90928614,1572,1567,1547,1547,0,0,0,0,0,0,0,0,0,0
1682926928.59967589,91028574,1578,1563,1556,1544,0,0,0,0,0,0,0,0,0,0
1682926928.69963598,91128534,1581,1564,1566,1550,0,0,0,0,0,0,0,0,0,0
1682926928.79959583,91228494,1578,1567,1574,1561,0,0,0,0,0,0,0,0,0,0
1682926928.89955592,91328454,1576,1570,1580,1572,0,0,0,0,0,0,0,0,0,0
1682926928.99951601,91428414,1571,1571,1581,1579,0,0,0,0,0,0,0,0,0,0
1682926929.09947586,91528374,1571,1573,1584,1585,0,0,0,0,0,0,0,0,0,0
1682926929.19943595,91628334,1571,1575,1586,1588,0,0,0,0,0,0,0,0,0,0
1682926929.29939580,91728294,1573,1575,1587,1589,0,0,0,0,0,0,0,0,0,0
1682926929.39935589,91828254,1576,1577,1588,1589,0,0,0,0,0,0,0,0,0,0
1682926929.49931598,91928214,1581,1580,1590,1589,0,0,0,0,0,0,0,0,0,0
1682926929.59927583,92028174,1584,1583,1591,1589,0,0,0,0,0,0,0,0,0,0
1682926929.70006895,92128967,1586,1585,1590,1588,0,0,0,0,0,0,0,0,0,0
1682926929.80002880,92228927,1589,1587,1589,1588,0,0,0,0,0,0,0,0,0,0
1682926929.89998889,92328887,1590,1588,1589,1588,0,0,0,0,0,0,0,0,0,0
1682926929.99994898,92428847,1590,1590,1588,1588,0,0,0,0,0,0,0,0,0,0
1682926930.09990883,92528807,1590,1590,1587,1587,0,0,0,0,0,0,0,0,0,0
1682926930.19986892,92628767,1588,1594,1594,1580,0,0,0,0,0,0,0,0,0,0
1682926930.29982901,92728727,1587,1593,1589,1578,0,0,0,0,0,0,0,0,0,0
1682926930.39978886,92828687,1588,1590,1578,1576,0,0,0,0,0,0,0,0,0,0
1682926930.49974895,92928647,1588,1589,1567,1572,0,0,0,0,0,0,0,0,0,0
1682926930.59970880,93028607,1589,1588,1561,1567,0,0,0,0,0,0,0,0,0,0
1682926930.69966888,93128567,1590,1588,1558,1563,0,0,0,0,0,0,0,0,0,0
1682926930.79962897,93228527,1588,1588,1556,1558,0,0,0,0,0,0,0,0,0,0
1682926930.89958882,93328487,1588,1588,1557,1556,0,0,0,0,0,0,0,0,0,0
1682926930.99954891,93428447,1587,1587,1558,1555,0,0,0,0,0,0,0,0,0,0
1682926931.09950900,93528407,1585,1585,1558,1556,0,0,0,0,0,0,0,0,0,0
1682926931.19946885,93628367,1582,1583,1557,1556,0,0,0,0,0,0,0,0,0,0
1682926931.29942894,93728327,1581,1582,1558,1557,0,0,0,0,0,0,0,0,0,0
1682926931.39938879,93828287,1578,1580,1556,1557,0,0,0,0,0,0,0,0,0,0
1682926931.49934888,93928247,1578,1580,1555,1556,0,0,0,0,0,0,0,0,0,0
1682926931.59930897,94028207,1579,1582,1552,1553,0,0,0,0,0,0,0,0,0,0
1682926931.69926882,94128167,1582,1585,1550,1550,0,0,0,0,0,0,0,0,0,0
1682926931.80006194,94228960,1586,1589,1546,1545,0,0,0,0,0,0,0,0,0,0
1682926931.90002179,94328920,1592,1593,1543,1543,0,0,0,0,0,0,0,0,0,0
1682926931.99998188,94428880,1596,1596,1540,1540,0,0,0,0,0,0,0,0,0,0
1682926932.09994197,94528840,1600,1599,1539,1540,0,0,0,0,0,0,0,0,0,0
1682926932.19990182,94628800,1600,1598,1539,1540,0,0,0,0,0,0,0,0,0,0
1682926932.29986191,94728760,1599,1597,1543,1544,0,0,0,0,0,0,0,0,0,0
1682926932.39982200,94828720,1595,1592,1549,1551,0,0,0,0,0,0,0,0,0,0
1682926932.49978185,94928680,1588,1585,1557,1559,0,0,0,0,0,0,0,0,0,0
1682926932.59974194,95028640,1580,1577,1567,1570,0,0,0,0,0,0,0,0,0,0
1682926932.69970179,95128600,1570,1566,1577,1579,0,0,0,0,0,0,0,0,0,0
1682926932.79966187,95228560,1561,1558,1588,1590,0,0,0,0,0,0,0,0,0,0
1682926932.89962196,95328520,1552,1550,1598,1599,0,0,0,0,0,0,0,0,0,0
1682926932.99958181,95428480,1545,1544,1605,1605,0,0,0,0,0,0,0,0,0,0
1682926933.09954190,95528440,1543,1542,1611,1609,0,0,0,0,0,0,0,0,0,0
1682926933.19950199,95628400,1541,1542,1613,1611,0,0,0,0,0,0,0,0,0,0
1682926933.29946184,95728360,1543,1545,1611,1611,0,0,0,0,0,0,0,0,0,0
1682926933.39942193,95828320,1549,1551,1608,1608,0,0,0,0,0,0,0,0,0,0
1682926933.49938202,95928280,1554,1555,1600,1601,0,0,0,0,0,0,0,0,0,0
1682926933.59934187,96028240,1562,1562,1594,1594,0,0,0,0,0,0,0,0,0,0
1682926933.69930196,96128200,1570,1570,1588,1588,0,0,0,0,0,0,0,0,0,0
1682926933.79926181,96228160,1575,1576,1582,1581,0,0,0,0,0,0,0,0,0,0
1682926933.90005493,96328953,1580,1580,1576,1576,0,0,0,0,0,0,0,0,0,0
1682926934.00001502,96428913,1585,1584,1574,1574,0,0,0,0,0,0,0,0,0,0
1682926934.09997487,96528873,1587,1586,1572,1572,0,0,0,0,0,0,0,0,0,0
1682926934.19993496,96628833,1586,1586,1572,1571,0,0,0,0,0,0,0,0,0,0
1682926934.29989481,96728793,1586,1585,1573,1573,0,0,0,0,0,0,0,0,0,0
1682926934.39985490,96828753,1584,1584,1575,1575,0,0,0,0,0,0,0,0,0,0
1682926934.49981499,96928713,1582,1581,1577,1577,0,0,0,0,0,0,0,0,0,0
1682926934.59977484,97028673,1578,1578,1578,1578,0,0,0,0,0,0,0,0,0,0
1682926934.69973493,97128633,1576,1576,1580,1580,0,0,0,0,0,0,0,0,0,0
1682926934.79969501,97228593,1575,1575,1583,1583,0,0,0,0,0,0,0,0,0,0
1682926934.89965487,97328553,1574,1574,1584,1584,0,0,0,0,0,0,0,0,0,0
1682926934.99961495,97428513,1574,1574,1584,1584,0,0,0,0,0,0,0,0,0,0
1682926935.09957480,97528473,1574,1574,1584,1584,0,0,0,0,0,0,0,0,0,0
1682926935.19953489,97628433,1575,1575,1584,1584,0,0,0,0,0,0,0,0,0,0
1682926935.29949498,97728393,1576,1576,1583,1583,0,0,0,0,0,0,0,0,0,0
1682926935.39945483,97828353,1577,1577,1582,1582,0,0,0,0,0,0,0,0,0,0
1682926935.49941492,97928313,1579,1579,1582,1581,0,0,0,0,0,0,0,0,0,0
1682926935.59937501,98028273,1579,1579,1580,1580,0,0,0,0,0,0,0,0,0,0
1682926935.69933486,98128233,1580,1580,1579,1579,0,0,0,0,0,0,0,0,0,0
1682926935.79929495,98228193,1579,1580,1578,1578,0,0,0,0,0,0,0,0,0,0
1682926935.90008783,98328986,1581,1581,1578,1579,0,0,0,0,0,0,0,0,0,0
1682926936.00004792,98428946,1580,1581,1578,1578,0,0,0,0,0,0,0,0,0,0
1682926936.10000801,98528906,1581,1581,1579,1578,0,0,0,0,0,0,0,0,0,0
1682926936.19996786,98628866,1580,1580,1578,1578,0,0,0,0,0,0,0,0,0,0
1682926936.29992795,98728826,1581,1580,1580,1579,0,0,0,0,0,0,0,0,0,0
1682926936.39988780,98828786,1581,1581,1580,1580,0,0,0,0,0,0,0,0,0,0
1682926936.49984789,98928746,1580,1580,1581,1581,0,0,0,0,0,0,0,0,0,0
1682926936.59980798,99028706,1580,1580,1581,1581,0,0,0,0,0,0,0,0,0,0
1682926936.69976783,99128666,1580,1580,1581,1581,0,0,0,0,0,0,0,0,0,0
1682926936.79972792,99228626,1580,1581,1582,1582,0,0,0,0,0,0,0,0,0,0
1682926936.89968801,99328586,1579,1579,1581,1581,0,0,0,0,0,0,0,0,0,0
1682926936.99964786,99428546,1580,1579,1581,1581,0,0,0,0,0,0,0,0,0,0
1682926937.09960794,99528506,1580,1580,1581,1581,0,0,0,0,0,0,0,0,0,0
1682926937.19956779,99628466,1579,1580,1580,1580,0,0,0,0,0,0,0,0,0,0
1682926937.29952788,99728426,1581,1581,1581,1581,0,0,0,0,0,0,0,0,0,0
1682926937.39948797,99828386,1580,1580,1580,1580,0,0,0,0,0,0,0,0,0,0
1682926937.49944782,99928346,1580,1580,1580,1579,0,0,0,0,0,0,0,0,0,0
1682926937.59940791,100028306,1581,1581,1580,1580,0,0,0,0,0,0,0,0,0,0
1682926937.69936800,100128266,1581,1581,1581,1581,0,0,0,0,0,0,0,0,0,0
1682926937.79932785,100228226,1581,1582,1586,1575,0,0,0,0,0,0,0,0,0,0
1682926937.89928794,100328186,1580,1583,1586,1572,0,0,0,0,0,0,0,0,0,0
1682926938.00008082,100428979,1580,1584,1578,1573,0,0,0,0,0,0,0,0,0,0
1682926938.10004091,100528939,1579,1582,1567,1571,0,0,0,0,0,0,0,0,0,0
1682926938.20000100,100628899,1579,1581,1560,1567,0,0,0,0,0,0,0,0,0,0
1682926938.29996085,100728859,1580,1581,1557,1563,0,0,0,0,0,0,0,0,0,0
1682926938.39992094,100828819,1582,1580,1555,1558,0,0,0,0,0,0,0,0,0,0
1682926938.49988079,100928779,1582,1580,1554,1555,0,0,0,0,0,0,0,0,0,0
1682926938.59984088,101028739,1581,1579,1556,1553,0,0,0,0,0,0,0,0,0,0
1682926938.69980097,101128699,1579,1579,1556,1553,0,0,0,0,0,0,0,0,0,0
1682926938.79976082,101228659,1577,1578,1556,1553,0,0,0,0,0,0,0,0,0,0
1682926938.89972091,101328619,1576,1577,1555,1555,0,0,0,0,0,0,0,0,0,0
1682926938.99968100,101428579,1575,1577,1555,1555,0,0,0,0,0,0,0,0,0,0
1682926939.09964085,101528539,1575,1577,1554,1554,0,0,0,0,0,0,0,0,0,0
1682926939.19960093,101628499,1575,1577,1552,1553,0,0,0,0,0,0,0,0,0,0
1682926939.29956079,101728459,1577,1578,1551,1551,0,0,0,0,0,0,0,0,0,0
1682926939.39952087,101828419,1580,1581,1549,1550,0,0,0,0,0,0,0,0,0,0
1682926939.49948096,101928379,1583,1583,1547,1547,0,0,0,0,0,0,0,0,0,0
1682926939.59944081,102028339,1585,1586,1545,1544,0,0,0,0,0,0,0,0,0,0
1682926939.69940090,102128299,1587,1588,1542,1542,0,0,0,0,0,0,0,0,0,0
1682926939.79936099,102228259,1589,1590,1540,1540,0,0,0,0,0,0,0,0,0,0
1682926939.89932084,102328219,1592,1592,1540,1540,0,0,0,0,0,0,0,0,0,0
1682926939.99928093,102428179,1592,1593,1538,1539,0,0,0,0,0,0,0,0,0,0
1682926940.10007381,102528972,1594,1594,1539,1540,0,0,0,0,0,0,0,0,0,0
1682926940.20003390,102628932,1593,1593,1540,1542,0,0,0,0,0,0,0,0,0,0
1682926940.29999399,102728892,1590,1589,1543,1546,0,0,0,0,0,0,0,0,0,0
1682926940.39995384,102828852,1586,1584,1550,1552,0,0,0,0,0,0,0,0,0,0
1682926940.49991393,102928812,1580,1577,1560,1562,0,0,0,0,0,0,0,0,0,0
1682926940.59987402,103028772,1571,1567,1570,1572,0,0,0,0,0,0,0,0,0,0
1682926940.69983387,103128732,1561,1556,1583,1584,0,0,0,0,0,0,0,0,0,0
1682926940.79979396,103228692,1549,1546,1593,1594,0,0,0,0,0,0,0,0,0,0
1682926940.89975381,103328652,1541,1539,1603,1603,0,0,0,0,0,0,0,0,0,0
1682926940.99971390,103428612,1535,1534,1608,1608,0,0,0,0,0,0,0,0,0,0
1682926941.09967399,103528572,1533,1533,1612,1611,0,0,0,0,0,0,0,0,0,0
1682926941.19963384,103628532,1534,1535,1611,1611,0,0,0,0,0,0,0,0,0,0
1682926941.29959393,103728492,1539,1540,1608,1608,0,0,0,0,0,0,0,0,0,0
1682926941.39955401,103828452,1546,1547,1602,1603,0,0,0,0,0,0,0,0,0,0
1682926941.49951386,103928412,1554,1555,1596,1596,0,0,0,0,0,0,0,0,0,0
1682926941.59947395,104028372,1562,1563,1590,1588,0,0,0,0,0,0,0,0,0,0
1682926941.69943380,104128332,1570,1571,1583,1582,0,0,0,0,0,0,0,0,0,0
1682926941.79939389,104228292,1577,1578,1578,1576,0,0,0,0,0,0,0,0,0,0
1682926941.89935398,104328252,1583,1582,1574,1572,0,0,0,0,0,0,0,0,0,0
1682926941.99931383,104428212,1586,1585,1571,1570,0,0,0,0,0,0,0,0,0,0
1682926942.09927392,104528172,1587,1586,1569,1569,0,0,0,0,0,0,0,0,0,0
1682926942.20006680,104628965,1587,1586,1570,1570,0,0,0,0,0,0,0,0,0,0
1682926942.30002689,104728925,1586,1585,1572,1572,0,0,0,0,0,0,0,0,0,0
1682926942.39998698,104828885,1583,1583,1574,1574,0,0,0,0,0,0,0,0,0,0
1682926942.49994683,104928845,1581,1580,1577,1577,0,0,0,0,0,0,0,0,0,0
1682926942.59990692,105028805,1577,1577,1578,1578,0,0,0,0,0,0,0,0,0,0
1682926942.69986701,105128765,1576,1575,1580,1580,0,0,0,0,0,0,0,0,0,0
1682926942.79982686,105228725,1573,1573,1581,1581,0,0,0,0,0,0,0,0,0,0
1682926942.89978695,105328685,1573,1573,1583,1583,0,0,0,0,0,0,0,0,0,0
1682926942.99974680,105428645,1572,1573,1582,1583,0,0,0,0,0,0,0,0,0,0
1682926943.09970689,105528605,1573,1573,1582,1583,0,0,0,0,0,0,0,0,0,0
1682926943.19966698,105628565,1575,1574,1582,1582,0,0,0,0,0,0,0,0,0,0
1682926943.29962683,105728525,1576,1576,1582,1582,0,0,0,0,0,0,0,0,0,0
1682926943.39958692,105828485,1577,1577,1581,1580,0,0,0,0,0,0,0,0,0,0
1682926943.49954700,105928445,1577,1578,1579,1579,0,0,0,0,0,0,0,0,0,0
1682926943.59950686,106028405,1580,1580,1580,1580,0,0,0,0,0,0,0,0,0,0
1682926943.69946694,106128365,1580,1580,1578,1578,0,0,0,0,0,0,0,0,0,0
1682926943.79942679,106228325,1582,1581,1579,1578,0,0,0,0,0,0,0,0,0,0
1682926943.89938688,106328285,1583,1582,1579,1579,0,0,0,0,0,0,0,0,0,0
1682926943.99934697,106428245,1582,1582,1578,1579,0,0,0,0,0,0,0,0,0,0
1682926944.09930682,106528205,1580,1581,1578,1578,0,0,0,0,0,0,0,0,0,0
1682926944.19926691,106628165,1580,1580,1578,1578,0,0,0,0,0,0,0,0,0,0
1682926944.30005980,106728958,1579,1580,1578,1579,0,0,0,0,0,0,0,0,0,0
1682926944.40001988,106828918,1581,1580,1580,1580,0,0,0,0,0,0,0,0,0,0
1682926944.49997997,106928878,1579,1579,1580,1579,0,0,0,0,0,0,0,0,0,0
1682926944.59993982,107028838,1579,1579,1581,1580,0,0,0,0,0,0,0,0,0,0
1682926944.69989991,107128798,1580,1579,1581,1581,0,0,0,0,0,0,0,0,0,0
1682926944.79986000,107228758,1578,1579,1580,1580,0,0,0,0,0,0,0,0,0,0
1682926944.89981985,107328718,1578,1578,1579,1579,0,0,0,0,0,0,0,0,0,0
1682926944.99977994,107428678,1578,1579,1580,1580,0,0,0,0,0,0,0,0,0,0
1682926945.09973979,107528638,1580,1580,1581,1581,0,0,0,0,0,0,0,0,0,0
1682926945.19969988,107628598,1580,1580,1580,1581,0,0,0,0,0,0,0,0,0,0
1682926945.29965997,107728558,1581,1581,1581,1581,0,0,0,0,0,0,0,0,0,0
1682926945.39961982,107828518,1582,1581,1581,1581,0,0,0,0,0,0,0,0,0,0
1682926945.49957991,107928478,1582,1581,1581,1581,0,0,0,0,0,0,0,0,0,0
1682926945.59954000,108028438,1581,1582,1581,1580,0,0,0,0,0,0,0,0,0,0
1682926945.69949985,108128398,1582,1582,1587,1574,0,0,0,0,0,0,0,0,0,0
1682926945.79945993,108228358,1581,1581,1586,1573,0,0,0,0,0,0,0,0,0,0
1682926945.89942002,108328318,1578,1578,1578,1574,0,0,0,0,0,0,0,0,0,0
1682926945.99937987,108428278,1575,1575,1571,1575,0,0,0,0,0,0,0,0,0,0
1682926946.09933996,108528238,1572,1572,1567,1574,0,0,0,0,0,0,0,0,0,0
1682926946.19929981,108628198,1570,1569,1566,1572,0,0,0,0,0,0,0,0,0,0
1682926946.29925990,108728158,1568,1568,1566,1569,0,0,0,0,0,0,0,0,0,0
1682926946.40005279,108828951,1568,1567,1568,1568,0,0,0,0,0,0,0,0,0,0
1682926946.50001287,108928911,1567,1566,1568,1567,0,0,0,0,0,0,0,0,0,0
1682926946.59997296,109028871,1565,1565,1568,1565,0,0,0,0,0,0,0,0,0,0
1682926946.69993281,109128831,1565,1565,1567,1565,0,0,0,0,0,0,0,0,0,0
1682926946.79989290,109228791,1564,1564,1566,1565,0,0,0,0,0,0,0,0,0,0
1682926946.89985299,109328751,1563,1564,1564,1564,0,0,0,0,0,0,0,0,0,0
1682926946.99981284,109428711,1563,1563,1564,1564,0,0,0,0,0,0,0,0,0,0
1682926947.09977293,109528671,1563,1563,1563,1563,0,0,0,0,0,0,0,0,0,0
1682926947.19973302,109628631,1562,1562,1562,1562,0,0,0,0,0,0,0,0,0,0
1682926947.29969287,109728591,1562,1562,1562,1561,0,0,0,0,0,0,0,0,0,0
1682926947.39965296,109828551,1561,1561,1561,1560,0,0,0,0,0,0,0,0,0,0
1682926947.49961281,109928511,1561,1561,1561,1560,0,0,0,0,0,0,0,0,0,0
1682926947.59957290,110028471,1558,1559,1559,1558,0,0,0,0,0,0,0,0,0,0
1682926947.69953299,110128431,1558,1558,1558,1557,0,0,0,0,0,0,0,0,0,0
1682926947.79949284,110228391,1557,1557,1557,1556,0,0,0,0,0,0,0,0,0,0
1682926947.89945292,110328351,1558,1557,1558,1557,0,0,0,0,0,0,0,0,0,0
1682926947.99941301,110428311,1559,1558,1559,1557,0,0,0,0,0,0,0,0,0,0
1682926948.09937286,110528271,1558,1558,1558,1557,0,0,0,0,0,0,0,0,0,0
1682926948.19933295,110628231,1558,1557,1559,1557,0,0,0,0,0,0,0,0,0,0
1682926948.29929280,110728191,1558,1558,1559,1557,0,0,0,0,0,0,0,0,0,0
1682926948.40008593,110828984,1557,1558,1560,1556,0,0,0,0,0,0,0,0,0,0
1682926948.50004601,110928944,1558,1558,1558,1558,0,0,0,0,0,0,0,0,0,0
1682926948.60000587,111028904,1560,1560,1556,1562,0,0,0,0,0,0,0,0,0,0
1682926948.69996595,111128864,1560,1560,1556,1563,0,0,0,0,0,0,0,0,0,0
1682926948.79992580,111228824,1562,1562,1559,1564,0,0,0,0,0,0,0,0,0,0
1682926948.89988589,111328784,1562,1561,1559,1563,0,0,0,0,0,0,0,0,0,0
1682926948.99984598,111428744,1562,1562,1562,1563,0,0,0,0,0,0,0,0,0,0
1682926949.09980583,111528704,1563,1562,1564,1562,0,0,0,0,0,0,0,0,0,0
1682926949.19976592,111628664,1561,1562,1564,1560,0,0,0,0,0,0,0,0,0,0
1682926949.29972601,111728624,1561,1561,1560,1562,0,0,0,0,0,0,0,0,0,0
1682926949.39968586,111828584,1558,1558,1555,1560,0,0,0,0,0,0,0,0,0,0
1682926949.49964595,111928544,1553,1553,1551,1555,0,0,0,0,0,0,0,0,0,0
1682926949.59960580,112028504,1548,1548,1548,1549,0,0,0,0,0,0,0,0,0,0
1682926949.69956589,112128464,1540,1541,1541,1541,0,0,0,0,0,0,0,0,0,0
1682926949.79952598,112228424,1534,1534,1535,1533,0,0,0,0,0,0,0,0,0,0
1682926949.89948583,112328384,1527,1527,1528,1526,0,0,0,0,0,0,0,0,0,0
1682926949.99944592,112428344,1521,1520,1522,1520,0,0,0,0,0,0,0,0,0,0
1682926950.09940600,112528304,1519,1518,1518,1518,0,0,0,0,0,0,0,0,0,0
1682926950.19936585,112628264,1519,1519,1520,1519,0,0,0,0,0,0,0,0,0,0
1682926950.29932594,112728224,1522,1522,1522,1522,0,0,0,0,0,0,0,0,0,0
1682926950.39928579,112828184,1525,1524,1525,1525,0,0,0,0,0,0,0,0,0,0
1682926950.50007892,112928977,1528,1528,1528,1528,0,0,0,0,0,0,0,0,0,0
1682926950.60003901,113028937,1533,1534,1533,1534,0,0,0,0,0,0,0,0,0,0
1682926950.69999886,113128897,1538,1538,1538,1538,0,0,0,0,0,0,0,0,0,0
1682926950.79995894,113228857,1540,1541,1540,1541,0,0,0,0,0,0,0,0,0,0
1682926950.89991879,113328817,1543,1544,1543,1544,0,0,0,0,0,0,0,0,0,0
1682926950.99987888,113428777,1544,1545,1544,1544,0,0,0,0,0,0,0,0,0,0
1682926951.09983897,113528737,1545,1546,1545,1545,0,0,0,0,0,0,0,0,0,0
1682926951.19979882,113628697,1546,1546,1546,1546,0,0,0,0,0,0,0,0,0,0
1682926951.29975891,113728657,1547,1546,1547,1546,0,0,0,0,0,0,0,0,0,0
1682926951.39971900,113828617,1547,1547,1547,1547,0,0,0,0,0,0,0,0,0,0
1682926951.49967885,113928577,1546,1547,1546,1546,0,0,0,0,0,0,0,0,0,0
1682926951.59963894,114028537,1546,1546,1546,1546,0,0,0,0,0,0,0,0,0,0
1682926951.69959879,114128497,1546,1546,1546,1546,0,0,0,0,0,0,0,0,0,0
1682926951.79955888,114228457,1546,1545,1545,1545,0,0,0,0,0,0,0,0,0,0
1682926951.89951897,114328417,1546,1546,1546,1545,0,0,0,0,0,0,0,0,0,0
1682926951.99947882,114428377,1544,1544,1544,1544,0,0,0,0,0,0,0,0,0,0
1682926952.09943891,114528337,1545,1545,1545,1545,0,0,0,0,0,0,0,0,0,0
1682926952.19939899,114628297,1544,1545,1544,1544,0,0,0,0,0,0,0,0,0,0
1682926952.29935884,114728257,1545,1545,1545,1545,0,0,0,0,0,0,0,0,0,0
1682926952.39931893,114828217,1546,1545,1546,1545,0,0,0,0,0,0,0,0,0,0
1682926952.49927902,114928177,1545,1545,1545,1545,0,0,0,0,0,0,0,0,0,0
1682926952.60007191,115028970,1545,1545,1545,1545,0,0,0,0,0,0,0,0,0,0
1682926952.70003200,115128930,1545,1545,1545,1545,0,0,0,0,0,0,0,0,0,0
1682926952.79999185,115228890,1544,1545,1545,1545,0,0,0,0,0,0,0,0,0,0
1682926952.89995193,115328850,1545,1545,1545,1545,0,0,0,0,0,0,0,0,0,0
1682926952.99991179,115428810,1545,1545,1545,1545,0,0,0,0,0,0,0,0,0,0
1682926953.09987187,115528770,1544,1543,1543,1544,0,0,0,0,0,0,0,0,0,0
1682926953.19983196,115628730,1545,1545,1544,1545,0,0,0,0,0,0,0,0,0,0
1682926953.29979181,115728690,1545,1545,1544,1544,0,0,0,0,0,0,0,0,0,0
1682926953.39975190,115828650,1545,1544,1544,1544,0,0,0,0,0,0,0,0,0,0
1682926953.49971199,115928610,1544,1544,1544,1544,0,0,0,0,0,0,0,0,0,0
1682926953.59967184,116028570,1545,1545,1545,1544,0,0,0,0,0,0,0,0,0,0
1682926953.69963193,116128530,1544,1544,1544,1545,0,0,0,0,0,0,0,0,0,0
1682926953.79959202,116228490,1543,1544,1543,1544,0,0,0,0,0,0,0,0,0,0
1682926953.89955187,116328450,1543,1543,1543,1543,0,0,0,0,0,0,0,0,0,0
1682926953.99951196,116428410,1544,1544,1544,1544,0,0,0,0,0,0,0,0,0,0
1682926954.09947181,116528370,1543,1543,1543,1543,0,0,0,0,0,0,0,0,0,0
1682926954.19943190,116628330,1544,1544,1544,1544,0,0,0,0,0,0,0,0,0,0
1682926954.29939198,116728290,1545,1545,1545,1544,0,0,0,0,0,0,0,0,0,0
1682926954.39935184,116828250,1544,1544,1544,1544,0,0,0,0,0,0,0,0,0,0
1682926954.49931192,116928210,1544,1544,1544,1544,0,0,0,0,0,0,0,0,0,0
1682926954.59927201,117028170,1544,1544,1544,1544,0,0,0,0,0,0,0,0,0,0
1682926954.70006490,117128963,1544,1544,1544,1544,0,0,0,0,0,0,0,0,0,0
1682926954.80002499,117228923,1544,1544,1544,1544,0,0,0,0,0,0,0,0,0,0
1682926954.89998484,117328883,1543,1543,1543,1543,0,0,0,0,0,0,0,0,0,0
1682926954.99994493,117428843,1544,1544,1544,1543,0,0,0,0,0,0,0,0,0,0
1682926955.09990501,117528803,1545,1544,1544,1544,0,0,0,0,0,0,0,0,0,0
1682926955.19986486,117628763,1545,1545,1545,1545,0,0,0,0,0,0,0,0,0,0
1682926955.29982495,117728723,1545,1544,1544,1544,0,0,0,0,0,0,0,0,0,0
1682926955.39978480,117828683,1544,1544,1544,1544,0,0,0,0,0,0,0,0,0,0
1682926955.49974489,117928643,1545,1545,1545,1545,0,0,0,0,0,0,0,0,0,0
1682926955.59970498,118028603,1544,1544,1544,1544,0,0,0,0,0,0,0,0,0,0
1682926955.69966483,118128563,1546,1545,1545,1545,0,0,0,0,0,0,0,0,0,0
1682926955.79962492,118228523,1544,1544,1544,1544,0,0,0,0,0,0,0,0,0,0
1682926955.89958501,118328483,1545,1545,1545,1546,0,0,0,0,0,0,0,0,0,0
1682926955.99954486,118428443,1544,1544,1544,1544,0,0,0,0,0,0,0,0,0,0
1682926956.09950495,118528403,1544,1544,1544,1544,0,0,0,0,0,0,0,0,0,0
1682926956.19946480,118628363,1544,1544,1544,1544,0,0,0,0,0,0,0,0,0,0
1682926956.29942489,118728323,1544,1544,1544,1544,0,0,0,0,0,0,0,0,0,0
1682926956.39938498,118828283,1544,1545,1545,1544,0,0,0,0,0,0,0,0,0,0
1682926956.49934483,118928243,1545,1544,1544,1545,0,0,0,0,0,0,0,0,0,0
1682926956.59930491,119028203,1544,1544,1544,1544,0,0,0,0,0,0,0,0,0,0
1682926956.69926500,119128163,1545,1545,1545,1545,0,0,0,0,0,0,0,0,0,0
1682926956.80005789,119228956,1545,1545,1545,1545,0,0,0,0,0,0,0,0,0,0
1682926956.90001798,119328916,1544,1544,1544,1544,0,0,0,0,0,0,0,0,0,0
1682926956.99997783,119428876,1544,1544,1544,1544,0,0,0,0,0,0,0,0,0,0
1682926957.09993792,119528836,1544,1544,1544,1544,0,0,0,0,0,0,0,0,0,0
1682926957.19989800,119628796,1544,1544,1544,1544,0,0,0,0,0,0,0,0,0,0
1682926957.29985785,119728756,1544,1544,1544,1544,0,0,0,0,0,0,0,0,0,0
1682926957.39981794,119828716,1544,1543,1544,1543,0,0,0,0,0,0,0,0,0,0
1682926957.49977779,119928676,1544,1544,1544,1544,0,0,0,0,0,0,0,0,0,0
1682926957.59973788,120028636,1543,1544,1544,1544,0,0,0,0,0,0,0,0,0,0
1682926957.69969797,120128596,1544,1544,1544,1544,0,0,0,0,0,0,0,0,0,0
1682926957.79965782,120228556,1544,1544,1545,1544,0,0,0,0,0,0,0,0,0,0
1682926957.89961791,120328516,1545,1544,1545,1545,0,0,0,0,0,0,0,0,0,0
1682926957.99957800,120428476,1545,1545,1545,1545,0,0,0,0,0,0,0,0,0,0
1682926958.09953785,120528436,1544,1544,1543,1544,0,0,0,0,0,0,0,0,0,0
1682926958.19949794,120628396,1543,1544,1543,1544,0,0,0,0,0,0,0,0,0,0
1682926958.29945779,120728356,1544,1543,1544,1543,0,0,0,0,0,0,0,0,0,0
1682926958.39941788,120828316,1544,1544,1544,1544,0,0,0,0,0,0,0,0,0,0
1682926958.49937797,120928276,1545,1545,1545,1545,0,0,0,0,0,0,0,0,0,0
1682926958.59933782,121028236,1544,1545,1544,1544,0,0,0,0,0,0,0,0,0,0
1682926958.69929790,121128196,1544,1544,1544,1544,0,0,0,0,0,0,0,0,0,0
1682926958.79925799,121228156,1543,1544,1543,1544,0,0,0,0,0,0,0,0,0,0
1682926958.90005088,121328949,1543,1543,1543,1543,0,0,0,0,0,0,0,0,0,0
1682926959.00001097,121428909,1544,1544,1545,1544,0,0,0,0,0,0,0,0,0,0
1682926959.09997082,121528869,1544,1544,1544,1544,0,0,0,0,0,0,0,0,0,0
1682926959.19993091,121628829,1544,1544,1544,1544,0,0,0,0,0,0,0,0,0,0
1682926959.29989100,121728789,1544,1544,1543,1544,0,0,0,0,0,0,0,0,0,0
1682926959.39985085,121828749,1544,1544,1544,1544,0,0,0,0,0,0,0,0,0,0
1682926959.49981093,121928709,1545,1544,1545,1545,0,0,0,0,0,0,0,0,0,0
1682926959.59977102,122028669,1544,1544,1544,1544,0,0,0,0,0,0,0,0,0,0
1682926959.69973087,122128629,1545,1544,1544,1544,0,0,0,0,0,0,0,0,0,0
1682926959.79969096,122228589,1348,1397,1349,1396,0,0,0,0,0,0,0,0,0,0
1682926959.89965081,122328549,1300,1365,1300,1364,0,0,0,0,0,0,0,0,0,0
1682926959.99961090,122428509,1300,1365,1301,1365,0,0,0,0,0,0,0,0,0,0
1682926960.09957099,122528469,1300,1364,1300,1365,0,0,0,0,0,0,0,0,0,0
1682926960.19953084,122628429,1300,1321,1300,1321,0,0,0,0,0,0,0,0,0,0
1682926960.29949093,122728389,1300,1295,1300,1295,0,0,0,0,0,0,0,0,0,0
1682926960.39945102,122828349,1301,1294,1300,1295,0,0,0,0,0,0,0,0,0,0
1682926960.49941087,122928309,1321,1278,1300,1295,0,0,0,0,0,0,0,0,0,0
1682926960.59937096,123028269,1313,1284,1300,1295,0,0,0,0,0,0,0,0,0,0
1682926960.69933081,123128229,1311,1286,1300,1295,0,0,0,0,0,0,0,0,0,0
1682926960.79929090,123228189,1312,1286,1300,1295,0,0,0,0,0,0,0,0,0,0
1682926960.90008402,123328982,1313,1285,1300,1295,0,0,0,0,0,0,0,0,0,0
1682926961.00004387,123428942,1313,1284,1300,1295,0,0,0,0,0,0,0,0,0,0
1682926961.10000396,123528902,1314,1283,1300,1295,0,0,0,0,0,0,0,0,0,0
1682926961.19996381,123628862,1302,1293,1300,1295,0,0,0,0,0,0,0,0,0,0
1682926961.29992390,123728822,1305,1291,1300,1295,0,0,0,0,0,0,0,0,0,0
1682926961.39988399,123828782,1306,1290,1300,1295,0,0,0,0,0,0,0,0,0,0
1682926961.49984384,123928742,1306,1290,1300,1295,0,0,0,0,0,0,0,0,0,0
1682926961.59980392,124028702,1307,1289,1300,1295,0,0,0,0,0,0,0,0,0,0
1682926961.69976401,124128662,1300,1150,1300,1150,0,0,0,0,0,0,0,0,0,0
1682926961.79972386,124228622,1000,1000,1000,1000,0,0,0,0,0,0,0,0,0,0
1682926961.89968395,124328582,1000,1000,1000,1000,0,0,0,0,0,0,0,0,0,0
1682926961.99964380,124428542,1000,1000,1000,1000,0,0,0,0,0,0,0,0,0,0
1682926962.09960389,124528502,1000,1000,1000,1000,0,0,0,0,0,0,0,0,0,0
1682926962.19956398,124628462,1000,1000,1000,1000,0,0,0,0,0,0,0,0,0,0
1682926962.29952383,124728422,1000,1000,1000,1000,0,0,0,0,0,0,0,0,0,0
1682926962.39948392,124828382,1000,1000,1000,1000,0,0,0,0,0,0,0,0,0,0
1682926962.49944401,124928342,1000,1000,1000,1000,0,0,0,0,0,0,0,0,0,0
1682926962.59940386,125028302,1000,1000,1000,1000,0,0,0,0,0,0,0,0,0,0
1682926962.69936395,125128262,1000,1000,1000,1000,0,0,0,0,0,0,0,0,0,0
1682926962.79932380,125228222,1000,1000,1000,1000,0,0,0,0,0,0,0,0,0,0
1682926962.89928389,125328182,1000,1000,1000,1000,0,0,0,0,0,0,0,0,0,0
1682926963.00007701,125428975,1000,1000,1000,1000,0,0,0,0,0,0,0,0,0,0
1682926963.10003686,125528935,1000,1000,1000,1000,0,0,0,0,0,0,0,0,0,0
1682926963.19999695,125628895,1000,1000,1000,1000,0,0,0,0,0,0,0,0,0,0
1682926963.29995680,125728855,1000,1000,1000,1000,0,0,0,0,0,0,0,0,0,0
1682926963.39991689,125828815,1000,1000,1000,1000,0,0,0,0,0,0,0,0,0,0
1682926963.49987698,125928775,1000,1000,1000,1000,0,0,0,0,0,0,0,0,0,0
1682926963.59983683,126028735,1000,1000,1000,1000,0,0,0,0,0,0,0,0,0,0
1682926963.69979692,126128695,1000,1000,1000,1000,0,0,0,0,0,0,0,0,0,0
1682926963.79975700,126228655,1000,1000,1000,1000,0,0,0,0,0,0,0,0,0,0
1682926963.89971685,126328615,1000,1000,1000,1000,0,0,0,0,0,0,0,0,0,0
1682926963.99967694,126428575,1000,1000,1000,1000,0,0,0,0,0,0,0,0,0,0
1682926964.09963679,126528535,1000,1000,1000,1000,0,0,0,0,0,0,0,0,0,0
1682926964.19959688,126628495,1000,1000,1000,1000,0,0,0,0,0,0,0,0,0,0
1682926964.29955697,126728455,1000,1000,1000,1000,0,0,0,0,0,0,0,0,0,0
1682926964.39951682,126828415,1000,1000,1000,1000,0,0,0,0,0,0,0,0,0,0
1682926964.49947691,126928375,1000,1000,1000,1000,0,0,0,0,0,0,0,0,0,0
1682926964.59943700,127028335,1000,1000,1000,1000,0,0,0,0,0,0,0,0,0,0
1682926964.69939685,127128295,1000,1000,1000,1000,0,0,0,0,0,0,0,0,0,0
1682926964.79935694,127228255,1000,1000,1000,1000,0,0,0,0,0,0,0,0,0,0
1682926964.89931679,127328215,1000,1000,1000,1000,0,0,0,0,0,0,0,0,0,0
1682926964.99927688,127428175,1000,1000,1000,1000,0,0,0,0,0,0,0,0,0,0
1682926965.10007000,127528968,1000,1000,1000,1000,0,0,0,0,0,0,0,0,0,0
1682926965.20002985,127628928,1000,1000,1000,1000,0,0,0,0,0,0,0,0,0,0
1682926965.29998994,127728888,1000,1000,1000,1000,0,0,0,0,0,0,0,0,0,0
1682926965.39994979,127828848,1000,1000,1000,1000,0,0,0,0,0,0,0,0,0,0
1682926965.49990988,127928808,1000,1000,1000,1000,0,0,0,0,0,0,0,0,0,0
1682926965.59986997,128028768,1000,1000,1000,1000,0,0,0,0,0,0,0,0,0,0
1682926965.69982982,128128728,1000,1000,1000,1000,0,0,0,0,0,0,0,0,0,0
1682926965.79978991,128228688,1000,1000,1000,1000,0,0,0,0,0,0,0,0,0,0
1682926965.89974999,128328648,1000,1000,1000,1000,0,0,0,0,0,0,0,0,0,0
1682926965.99970984,128428608,1000,1000,1000,1000,0,0,0,0,0,0,0,0,0,0
1682926966.09966993,128528568,1000,1000,1000,1000,0,0,0,0,0,0,0,0,0,0
1682926966.19963002,128628528,1000,1000,1000,1000,0,0,0,0,0,0,0,0,0,0
1682926966.29958987,128728488,1000,1000,1000,1000,0,0,0,0,0,0,0,0,0,0
1682926966.39954996,128828448,1000,1000,1000,1000,0,0,0,0,0,0,0,0,0,0
1682926966.49950981,128928408,1000,1000,1000,1000,0,0,0,0,0,0,0,0,0,0
1682926966.59946990,129028368,1000,1000,1000,1000,0,0,0,0,0,0,0,0,0,0
1682926966.69942999,129128328,1000,1000,1000,1000,0,0,0,0,0,0,0,0,0,0
1682926966.79938984,129228288,1000,1000,1000,1000,0,0,0,0,0,0,0,0,0,0
1682926966.89934993,129328248,1000,1000,1000,1000,0,0,0,0,0,0,0,0,0,0
1682926966.99931002,129428208,1000,1000,1000,1000,0,0,0,0,0,0,0,0,0,0
1682926967.09926987,129528168,1000,1000,1000,1000,0,0,0,0,0,0,0,0,0,0
1682926967.20006299,129628961,1000,1000,1000,1000,0,0,0,0,0,0,0,0,0,0
1682926967.30002284,129728921,1000,1000,1000,1000,0,0,0,0,0,0,0,0,0,0
1682926967.39998293,129828881,1000,1000,1000,1000,0,0,0,0,0,0,0,0,0,0
1682926967.49994302,129928841,1000,1000,1000,1000,0,0,0,0,0,0,0,0,0,0
1682926967.59990287,130028801,1000,1000,1000,1000,0,0,0,0,0,0,0,0,0,0
1682926967.69986296,130128761,1000,1000,1000,1000,0,0,0,0,0,0,0,0,0,0
1682926967.79982281,130228721,1000,1000,1000,1000,0,0,0,0,0,0,0,0,0,0
1682926967.89978290,130328681,1000,1000,1000,1000,0,0,0,0,0,0,0,0,0,0
1682926967.99974298,130428641,1000,1000,1000,1000,0,0,0,0,0,0,0,0,0,0
1682926968.09970284,130528601,1000,1000,1000,1000,0,0,0,0,0,0,0,0,0,0
1682926968.19966292,130628561,1000,1000,1000,1000,0,0,0,0,0,0,0,0,0,0
1682926968.29962301,130728521,1000,1000,1000,1000,0,0,0,0,0,0,0,0,0,0
1682926968.39958286,130828481,1000,1000,1000,1000,0,0,0,0,0,0,0,0,0,0
1682926968.49954295,130928441,1000,1000,1000,1000,0,0,0,0,0,0,0,0,0,0
1682926968.59950280,131028401,1000,1000,1000,1000,0,0,0,0,0,0,0,0,0,0
1682926968.69946289,131128361,1000,1000,1000,1000,0,0,0,0,0,0,0,0,0,0
1682926968.79942298,131228321,1000,1000,1000,1000,0,0,0,0,0,0,0,0,0,0
1682926968.89938283,131328281,1000,1000,1000,1000,0,0,0,0,0,0,0,0,0,0
1682926968.99934292,131428241,1000,1000,1000,1000,0,0,0,0,0,0,0,0,0,0
1682926969.09930301,131528201,1000,1000,1000,1000,0,0,0,0,0,0,0,0,0,0
1682926969.19926286,131628161,1000,1000,1000,1000,0,0,0,0,0,0,0,0,0,0
1682926969.30005598,131728954,1000,1000,1000,1000,0,0,0,0,0,0,0,0,0,0
1682926969.40001583,131828914,1000,1000,1000,1000,0,0,0,0,0,0,0,0,0,0
1682926969.49997592,131928874,1000,1000,1000,1000,0,0,0,0,0,0,0,0,0,0
1682926969.59993601,132028834,1000,1000,1000,1000,0,0,0,0,0,0,0,0,0,0
1682926969.69989586,132128794,1000,1000,1000,1000,0,0,0,0,0,0,0,0,0,0
1682926969.79985595,132228754,1000,1000,1000,1000,0,0,0,0,0,0,0,0,0,0
1682926969.89981580,132328714,1000,1000,1000,1000,0,0,0,0,0,0,0,0,0,0
1682926969.99977589,132428674,1000,1000,1000,1000,0,0,0,0,0,0,0,0,0,0
1682926970.09973598,132528634,1000,1000,1000,1000,0,0,0,0,0,0,0,0,0,0
1682926970.19969583,132628594,1000,1000,1000,1000,0,0,0,0,0,0,0,0,0,0
1682926970.29965591,132728554,1000,1000,1000,1000,0,0,0,0,0,0,0,0,0,0
1682926970.39961600,132828514,1000,1000,1000,1000,0,0,0,0,0,0,0,0,0,0
1682926970.49957585,132928474,1000,1000,1000,1000,0,0,0,0,0,0,0,0,0,0
1682926970.59953594,133028434,1000,1000,1000,1000,0,0,0,0,0,0,0,0,0,0
1682926970.69949579,133128394,1000,1000,1000,1000,0,0,0,0,0,0,0,0,0,0
1682926970.79945588,133228354,1000,1000,1000,1000,0,0,0,0,0,0,0,0,0,0
1682926970.89941597,133328314,1000,1000,1000,1000,0,0,0,0,0,0,0,0,0,0
1682926970.99937582,133428274,1000,1000,1000,1000,0,0,0,0,0,0,0,0,0,0
1682926971.09933591,133528234,1000,1000,1000,1000,0,0,0,0,0,0,0,0,0,0
1682926971.19929600,133628194,1000,1000,1000,1000,0,0,0,0,0,0,0,0,0,0
1682926971.29925585,133728154,1000,1000,1000,1000,0,0,0,0,0,0,0,0,0,0
