TimeUS,M1,M2,M3,M4,TimeUS,C1,C2,C3,C4
81603179,1000,1000,1000,1000,81628169,1000,1000,1000,1000
81605678,1000,1000,1000,1000,81728962,1000,1000,1000,1000
81608177,1000,1000,1000,1000,81828922,1000,1000,1000,1000
81610676,1000,1000,1000,1000,81928882,1000,1000,1000,1000
81613175,1000,1000,1000,1000,82028842,1000,1000,1000,1000
81615674,1000,1000,1000,1000,82128802,1000,1000,1000,1000
81618173,1000,1000,1000,1000,82228762,1000,1000,1000,1000
81620672,1000,1000,1000,1000,82328722,1000,1000,1000,1000
81623171,1000,1000,1000,1000,82428682,1000,1000,1000,1000
81625670,1000,1000,1000,1000,82528642,1000,1000,1000,1000
81628169,1000,1000,1000,1000,82628602,1000,1000,1000,1000
81630668,1000,1000,1000,1000,82728562,1000,1000,1000,1000
81633167,1000,1000,1000,1000,82828522,1000,1000,1000,1000
81635666,1000,1000,1000,1000,82928482,1000,1000,1000,1000
81638165,1000,1000,1000,1000,83028442,1000,1000,1000,1000
81640664,1000,1000,1000,1000,83128402,1000,1000,1000,1000
81643163,1000,1000,1000,1000,83228362,1000,1000,1000,1000
81645662,1000,1000,1000,1000,83328322,1000,1000,1000,1000
81648161,1000,1000,1000,1000,83428282,1000,1000,1000,1000
81650660,1000,1000,1000,1000,83528242,1000,1000,1000,1000
81653159,1000,1000,1000,1000,83628202,1007,1007,1007,1007
81655658,1000,1000,1000,1000,83728162,1037,1037,1037,1037
81658157,1000,1000,1000,1000,83828955,1067,1067,1067,1067
81660656,1000,1000,1000,1000,83928915,1097,1097,1097,1097
81663155,1000,1000,1000,1000,84028875,1127,1127,1127,1127
81665654,1000,1000,1000,1000,84128835,1224,1212,1212,1225
81668986,1000,1000,1000,1000,84228795,1450,1442,1442,1451
81671485,1000,1000,1000,1000,84328755,1620,1612,1612,1620
81673984,1000,1000,1000,1000,84428715,1761,1754,1754,1761
81676483,1000,1000,1000,1000,84528675,1885,1878,1878,1886
81678982,1000,1000,1000,1000,84628635,1900,1895,1895,1900
81681481,1000,1000,1000,1000,84728595,1784,1782,1782,1784
81683980,1000,1000,1000,1000,84828555,1672,1674,1674,1673
81686479,1000,1000,1000,1000,84928515,1628,1632,1632,1628
81688978,1000,1000,1000,1000,85028475,1629,1632,1633,1629
81691477,1000,1000,1000,1000,85128435,1636,1638,1638,1636
81693976,1000,1000,1000,1000,85228395,1637,1638,1638,1637
81696475,1000,1000,1000,1000,85328355,1630,1630,1629,1630
81698974,1000,1000,1000,1000,85428315,1622,1621,1621,1623
81701473,1000,1000,1000,1000,85528275,1617,1616,1615,1617
81703972,1000,1000,1000,1000,85628235,1615,1613,1613,1615
81706471,1000,1000,1000,1000,85728195,1614,1614,1613,1614
81708970,1000,1000,1000,1000,85828155,1616,1616,1616,1615
81711469,1000,1000,1000,1000,85928948,1593,1594,1594,1593
81713968,1000,1000,1000,1000,86028908,1575,1575,1574,1576
81716467,1000,1000,1000,1000,86128868,1563,1563,1561,1566
81718966,1000,1000,1000,1000,86228828,1553,1552,1550,1555
81721465,1000,1000,1000,1000,86328788,1544,1544,1543,1545
81723964,1000,1000,1000,1000,86428748,1536,1536,1536,1536
81726463,1000,1000,1000,1000,86528708,1528,1527,1529,1527
81728962,1000,1000,1000,1000,86628668,1520,1520,1521,1519
81731461,1000,1000,1000,1000,86728628,1516,1516,1517,1516
81733960,1000,1000,1000,1000,86828588,1516,1516,1516,1516
81736459,1000,1000,1000,1000,86928548,1517,1517,1517,1518
81738958,1000,1000,1000,1000,87028508,1518,1518,1518,1519
81741457,1000,1000,1000,1000,87128468,1520,1520,1519,1521
81743956,1000,1000,1000,1000,87228428,1528,1529,1531,1525
81746455,1000,1000,1000,1000,87328388,1537,1536,1542,1531
81748954,1000,1000,1000,1000,87428348,1542,1542,1544,1540
81751453,1000,1000,1000,1000,87528308,1547,1546,1545,1548
81753952,1000,1000,1000,1000,87628268,1549,1549,1545,1553
81756451,1000,1000,1000,1000,87728228,1551,1551,1547,1555
81758950,1000,1000,1000,1000,87828188,1554,1554,1551,1557
81761449,1000,1000,1000,1000,87928981,1558,1557,1557,1559
81763948,1000,1000,1000,1000,88028941,1560,1560,1562,1558
81766447,1000,1000,1000,1000,88128901,1562,1562,1565,1559
81768946,1000,1000,1000,1000,88228861,1564,1565,1568,1561
81771445,1000,1000,1000,1000,88328821,1566,1566,1568,1565
81773944,1000,1000,1000,1000,88428781,1567,1567,1567,1567
81776443,1000,1000,1000,1000,88528741,1567,1566,1565,1568
81778942,1000,1000,1000,1000,88628701,1563,1563,1568,1572
81781441,1000,1000,1000,1000,88728661,1563,1563,1569,1573
81783940,1000,1000,1000,1000,88828621,1563,1563,1568,1570
81786439,1000,1000,1000,1000,88928581,1565,1565,1569,1570
81788938,1000,1000,1000,1000,89028541,1566,1567,1568,1568
81791437,1000,1000,1000,1000,89128501,1568,1568,1568,1566
81793936,1000,1000,1000,1000,89228461,1569,1569,1567,1566
81796435,1000,1000,1000,1000,89328421,1571,1571,1567,1566
81798934,1000,1000,1000,1000,89428381,1572,1572,1567,1567
81801433,1000,1000,1000,1000,89528341,1573,1572,1567,1568
81803932,1000,1000,1000,1000,89628301,1573,1573,1568,1569
81806431,1000,1000,1000,1000,89728261,1572,1572,1569,1569
81808930,1000,1000,1000,1000,89828221,1574,1573,1571,1571
81811429,1000,1000,1000,1000,89928181,1573,1573,1572,1572
81813928,1000,1000,1000,1000,90028974,1574,1574,1574,1573
81816427,1000,1000,1000,1000,90128934,1574,1574,1576,1574
81818926,1000,1000,1000,1000,90228894,1575,1575,1576,1575
81821425,1000,1000,1000,1000,90328854,1575,1575,1577,1577
81823924,1000,1000,1000,1000,90428814,1575,1575,1577,1577
81826423,1000,1000,1000,1000,90528774,1575,1574,1576,1576
81828922,1000,1000,1000,1000,90628734,1575,1576,1577,1577
81831421,1000,1000,1000,1000,90728694,1576,1576,1577,1577
81833920,1000,1000,1000,1000,90828654,1576,1577,1577,1577
81836419,1000,1000,1000,1000,90928614,1578,1578,1578,1578
81838918,1000,1000,1000,1000,91028574,1577,1577,1577,1577
81841417,1000,1000,1000,1000,91128534,1577,1577,1577,1576
81843916,1000,1000,1000,1000,91228494,1579,1579,1579,1578
81846415,1000,1000,1000,1000,91328454,1578,1578,1577,1577
81848914,1000,1000,1000,1000,91428414,1578,1578,1578,1577
81851413,1000,1000,1000,1000,91528374,1578,1578,1578,1578
81853912,1000,1000,1000,1000,91628334,1579,1579,1578,1579
81856411,1000,1000,1000,1000,91728294,1578,1579,1578,1579
81858910,1000,1000,1000,1000,91828254,1579,1579,1579,1578
81861409,1000,1000,1000,1000,91928214,1580,1579,1580,1579
81863908,1000,1000,1000,1000,92028174,1580,1579,1580,1579
81866407,1000,1000,1000,1000,92128967,1578,1578,1578,1578
81868906,1000,1000,1000,1000,92228927,1579,1578,1579,1579
81871405,1000,1000,1000,1000,92328887,1579,1578,1579,1579
81873904,1000,1000,1000,1000,92428847,1579,1579,1579,1579
81876403,1000,1000,1000,1000,92528807,1579,1579,1580,1579
81878902,1000,1000,1000,1000,92628767,1579,1579,1579,1579
81881401,1000,1000,1000,1000,92728727,1579,1579,1579,1579
81883900,1000,1000,1000,1000,92828687,1578,1579,1579,1579
81886399,1000,1000,1000,1000,92928647,1578,1579,1579,1579
81888898,1000,1000,1000,1000,93028607,1579,1580,1580,1579
81891397,1000,1000,1000,1000,93128567,1580,1580,1580,1580
81893896,1000,1000,1000,1000,93228527,1581,1580,1581,1580
81896395,1000,1000,1000,1000,93328487,1579,1579,1579,1579
81898894,1000,1000,1000,1000,93428447,1580,1580,1580,1579
81901393,1000,1000,1000,1000,93528407,1581,1580,1580,1581
81903892,1000,1000,1000,1000,93628367,1579,1579,1579,1579
81906391,1000,1000,1000,1000,93728327,1580,1580,1580,1580
81908890,1000,1000,1000,1000,93828287,1581,1582,1581,1581
81911389,1000,1000,1000,1000,93928247,1580,1581,1580,1581
81913888,1000,1000,1000,1000,94028207,1581,1581,1581,1581
81916387,1000,1000,1000,1000,94128167,1581,1581,1581,1580
81918886,1000,1000,1000,1000,94228960,1581,1581,1581,1581
81921385,1000,1000,1000,1000,94328920,1581,1581,1581,1581
81923884,1000,1000,1000,1000,94428880,1581,1581,1580,1581
81926383,1000,1000,1000,1000,94528840,1580,1580,1580,1580
81928882,1000,1000,1000,1000,94628800,1581,1581,1582,1581
81931381,1000,1000,1000,1000,94728760,1581,1582,1582,1582
81933880,1000,1000,1000,1000,94828720,1582,1583,1586,1578
81936379,1000,1000,1000,1000,94928680,1580,1583,1588,1573
81938878,1000,1000,1000,1000,95028640,1580,1583,1582,1574
81941377,1000,1000,1000,1000,95128600,1578,1580,1572,1573
81943876,1000,1000,1000,1000,95228560,1577,1579,1564,1570
81946375,1000,1000,1000,1000,95328520,1577,1578,1557,1565
81948874,1000,1000,1000,1000,95428480,1578,1579,1556,1561
81951373,1000,1000,1000,1000,95528440,1578,1577,1554,1556
81953872,1000,1000,1000,1000,95628400,1578,1577,1554,1553
81956371,1000,1000,1000,1000,95728360,1578,1577,1555,1553
81958870,1000,1000,1000,1000,95828320,1577,1577,1555,1552
81961369,1000,1000,1000,1000,95928280,1576,1577,1555,1553
81963868,1000,1000,1000,1000,96028240,1575,1577,1554,1553
81966367,1000,1000,1000,1000,96128200,1575,1577,1553,1553
81968866,1000,1000,1000,1000,96228160,1575,1576,1552,1552
81971365,1000,1000,1000,1000,96328953,1576,1577,1550,1551
81973864,1000,1000,1000,1000,96428913,1578,1579,1548,1548
81976363,1000,1000,1000,1000,96528873,1580,1581,1546,1546
81978862,1000,1000,1000,1000,96628833,1582,1583,1544,1543
81981361,1000,1000,1000,1000,96728793,1585,1586,1541,1541
81983860,1000,1000,1000,1000,96828753,1588,1589,1538,1538
81986359,1000,1000,1000,1000,96928713,1591,1591,1536,1536
81988858,1000,1000,1000,1000,97028673,1594,1594,1535,1535
81991357,1000,1000,1000,1000,97128633,1595,1594,1535,1535
81993856,1000,1000,1000,1000,97228593,1594,1595,1536,1538
81996355,1000,1000,1000,1000,97328553,1593,1593,1538,1541
81998854,1000,1000,1000,1000,97428513,1590,1589,1542,1545
82001353,1000,1000,1000,1000,97528473,1585,1582,1549,1553
82003852,1000,1000,1000,1000,97628433,1577,1575,1559,1562
82006351,1000,1000,1000,1000,97728393,1568,1564,1570,1572
82008850,1000,1000,1000,1000,97828353,1557,1553,1583,1584
82011349,1000,1000,1000,1000,97928313,1546,1543,1595,1595
82013848,1000,1000,1000,1000,98028273,1536,1536,1604,1604
82016347,1000,1000,1000,1000,98128233,1531,1531,1612,1611
82018846,1000,1000,1000,1000,98228193,1528,1530,1614,1613
82021345,1000,1000,1000,1000,98328986,1529,1531,1613,1613
82023844,1000,1000,1000,1000,98428946,1535,1537,1611,1611
82026343,1000,1000,1000,1000,98528906,1542,1544,1605,1605
82028842,1000,1000,1000,1000,98628866,1549,1551,1597,1597
82031341,1000,1000,1000,1000,98728826,1559,1560,1591,1590
82033840,1000,1000,1000,1000,98828786,1566,1567,1582,1581
82036339,1000,1000,1000,1000,98928746,1575,1575,1577,1576
82038838,1000,1000,1000,1000,99028706,1581,1580,1572,1571
82041337,1000,1000,1000,1000,99128666,1585,1583,1567,1567
82043836,1000,1000,1000,1000,99228626,1588,1586,1566,1566
82046335,1000,1000,1000,1000,99328586,1588,1587,1566,1566
82048834,1000,1000,1000,1000,99428546,1587,1586,1568,1568
82051333,1000,1000,1000,1000,99528506,1584,1584,1570,1570
82053832,1000,1000,1000,1000,99628466,1581,1581,1572,1572
82056331,1000,1000,1000,1000,99728426,1561,1576,1557,1574
82058830,1000,1000,1000,1000,99828386,1585,1568,1588,1570
82061329,1000,1000,1000,1000,99928346,1605,1576,1613,1582
82063828,1000,1000,1000,1000,100028306,1615,1587,1626,1596
82066327,1000,1000,1000,1000,100128266,1610,1592,1622,1603
82068826,1000,1000,1000,1000,100228226,1598,1595,1611,1606
82071325,1000,1000,1000,1000,100328186,1585,1593,1598,1606
82073824,1000,1000,1000,1000,100428979,1573,1588,1586,1602
82076323,1000,1000,1000,1000,100528939,1568,1582,1581,1597
82078822,1000,1000,1000,1000,100628899,1569,1578,1581,1592
82081321,1000,1000,1000,1000,100728859,1573,1576,1582,1586
82083820,1000,1000,1000,1000,100828819,1576,1576,1581,1580
82086319,1000,1000,1000,1000,100928779,1579,1576,1579,1575
82088818,1000,1000,1000,1000,101028739,1583,1580,1579,1574
82091317,1000,1000,1000,1000,101128699,1584,1582,1576,1572
82093816,1000,1000,1000,1000,101228659,1584,1583,1573,1572
82096315,1000,1000,1000,1000,101328619,1583,1584,1572,1573
82098814,1000,1000,1000,1000,101428579,1582,1584,1571,1573
82101313,1000,1000,1000,1000,101528539,1579,1581,1569,1571
82103812,1000,1000,1000,1000,101628499,1579,1580,1570,1572
82106311,1000,1000,1000,1000,101728459,1579,1579,1572,1573
82108810,1000,1000,1000,1000,101828419,1578,1577,1574,1574
82111309,1000,1000,1000,1000,101928379,1577,1576,1575,1574
82113808,1000,1000,1000,1000,102028339,1577,1576,1577,1576
82116307,1000,1000,1000,1000,102128299,1576,1577,1578,1577
82118806,1000,1000,1000,1000,102228259,1576,1576,1579,1578
82121305,1000,1000,1000,1000,102328219,1575,1576,1578,1578
82123804,1000,1000,1000,1000,102428179,1577,1577,1579,1580
82126303,1000,1000,1000,1000,102528972,1577,1576,1579,1579
82128802,1000,1000,1000,1000,102628932,1576,1577,1578,1579
82131301,1000,1000,1000,1000,102728892,1577,1577,1578,1578
82133800,1000,1000,1000,1000,102828852,1578,1579,1584,1573
82136299,1000,1000,1000,1000,102928812,1578,1580,1584,1569
82138798,1000,1000,1000,1000,103028772,1578,1581,1577,1570
82141297,1000,1000,1000,1000,103128732,1577,1580,1569,1569
82143796,1000,1000,1000,1000,103228692,1576,1579,1561,1567
82146295,1000,1000,1000,1000,103328652,1576,1578,1555,1563
82148794,1000,1000,1000,1000,103428612,1578,1578,1553,1558
82151293,1000,1000,1000,1000,103528572,1579,1577,1552,1554
82153792,1000,1000,1000,1000,103628532,1580,1578,1553,1552
82156291,1000,1000,1000,1000,103728492,1580,1579,1554,1552
82158790,1000,1000,1000,1000,103828452,1579,1579,1554,1551
82161289,1000,1000,1000,1000,103928412,1578,1579,1554,1552
82163788,1000,1000,1000,1000,104028372,1577,1579,1553,1552
82166287,1000,1000,1000,1000,104128332,1576,1577,1552,1552
82168786,1000,1000,1000,1000,104228292,1576,1577,1551,1551
82171285,1000,1000,1000,1000,104328252,1576,1578,1550,1550
82173784,1000,1000,1000,1000,104428212,1578,1580,1549,1550
82176283,1000,1000,1000,1000,104528172,1580,1581,1547,1548
82178782,1000,1000,1000,1000,104628965,1582,1583,1546,1546
82181281,1000,1000,1000,1000,104728925,1584,1584,1544,1544
82183780,1000,1000,1000,1000,104828885,1586,1587,1543,1543
82186279,1000,1000,1000,1000,104928845,1588,1588,1543,1543
82188778,1000,1000,1000,1000,105028805,1589,1590,1543,1543
82191277,1000,1000,1000,1000,105128765,1589,1589,1542,1544
82193776,1000,1000,1000,1000,105228725,1589,1589,1544,1546
82196275,1000,1000,1000,1000,105328685,1587,1586,1547,1549
82198774,1000,1000,1000,1000,105428645,1583,1582,1552,1554
82201273,1000,1000,1000,1000,105528605,1578,1575,1559,1562
82203772,1000,1000,1000,1000,105628565,1571,1568,1567,1569
82206271,1000,1000,1000,1000,105728525,1564,1560,1577,1579
82208770,1000,1000,1000,1000,105828485,1555,1553,1586,1587
82211269,1000,1000,1000,1000,105928445,1548,1546,1594,1595
82213768,1000,1000,1000,1000,106028405,1544,1544,1602,1601
82216267,1000,1000,1000,1000,106128365,1539,1541,1606,1604
82218766,1000,1000,1000,1000,106228325,1539,1541,1607,1605
82221265,1000,1000,1000,1000,106328285,1542,1543,1606,1605
82223764,1000,1000,1000,1000,106428245,1547,1549,1604,1603
82226263,1000,1000,1000,1000,106528205,1552,1553,1599,1598
82228762,1000,1000,1000,1000,106628165,1559,1559,1593,1593
82231261,1000,1000,1000,1000,106728958,1565,1565,1588,1587
82233760,1000,1000,1000,1000,106828918,1572,1572,1583,1583
82236259,1000,1000,1000,1000,106928878,1576,1575,1577,1577
82238758,1000,1000,1000,1000,107028838,1581,1580,1575,1575
82241257,1000,1000,1000,1000,107128798,1584,1582,1572,1572
82243756,1000,1000,1000,1000,107228758,1584,1583,1570,1570
82246255,1000,1000,1000,1000,107328718,1585,1583,1569,1570
82248754,1000,1000,1000,1000,107428678,1584,1583,1571,1571
82251253,1000,1000,1000,1000,107528638,1582,1582,1572,1573
82253752,1000,1000,1000,1000,107628598,1581,1580,1575,1574
82256251,1000,1000,1000,1000,107728558,1578,1579,1577,1576
82258750,1000,1000,1000,1000,107828518,1577,1577,1579,1578
82261249,1000,1000,1000,1000,107928478,1575,1575,1580,1580
82263748,1000,1000,1000,1000,108028438,1574,1575,1582,1582
82266247,1000,1000,1000,1000,108128398,1574,1575,1583,1582
82268746,1000,1000,1000,1000,108228358,1574,1575,1583,1583
82271245,1000,1000,1000,1000,108328318,1575,1575,1583,1583
82273744,1000,1000,1000,1000,108428278,1576,1576,1582,1582
82276243,1000,1000,1000,1000,108528238,1576,1577,1582,1581
82278742,1000,1000,1000,1000,108628198,1578,1578,1581,1581
82281241,1000,1000,1000,1000,108728158,1578,1577,1580,1579
82283740,1000,1000,1000,1000,108828951,1579,1578,1578,1578
82286239,1000,1000,1000,1000,108928911,1579,1580,1578,1578
82288738,1000,1000,1000,1000,109028871,1580,1580,1578,1578
82291237,1000,1000,1000,1000,109128831,1581,1581,1578,1578
82293736,1000,1000,1000,1000,109228791,1580,1580,1577,1577
82296235,1000,1000,1000,1000,109328751,1581,1580,1578,1577
82298734,1000,1000,1000,1000,109428711,1580,1580,1578,1578
82301233,1000,1000,1000,1000,109528671,1581,1580,1579,1579
82303732,1000,1000,1000,1000,109628631,1580,1580,1579,1579
82306231,1000,1000,1000,1000,109728591,1580,1580,1580,1579
82308730,1000,1000,1000,1000,109828551,1579,1580,1580,1580
82311229,1000,1000,1000,1000,109928511,1579,1580,1580,1580
82313728,1000,1000,1000,1000,110028471,1580,1579,1580,1581
82316227,1000,1000,1000,1000,110128431,1580,1580,1581,1581
82318726,1000,1000,1000,1000,110228391,1581,1581,1582,1582
82321225,1000,1000,1000,1000,110328351,1580,1581,1581,1581
82323724,1000,1000,1000,1000,110428311,1581,1581,1582,1582
82326223,1000,1000,1000,1000,110528271,1580,1580,1581,1581
82328722,1000,1000,1000,1000,110628231,1580,1580,1580,1580
82331221,1000,1000,1000,1000,110728191,1581,1581,1581,1581
82333720,1000,1000,1000,1000,110828984,1581,1581,1581,1581
82336219,1000,1000,1000,1000,110928944,1581,1582,1581,1581
82338718,1000,1000,1000,1000,111028904,1582,1582,1581,1582
82341217,1000,1000,1000,1000,111128864,1582,1583,1585,1578
82343716,1000,1000,1000,1000,111228824,1582,1584,1588,1573
82346215,1000,1000,1000,1000,111328784,1581,1583,1582,1573
82348714,1000,1000,1000,1000,111428744,1580,1582,1573,1573
82351213,1000,1000,1000,1000,111528704,1578,1580,1564,1570
82353712,1000,1000,1000,1000,111628664,1578,1579,1559,1566
82356211,1000,1000,1000,1000,111728624,1577,1578,1555,1561
82358710,1000,1000,1000,1000,111828584,1579,1578,1554,1557
82361209,1000,1000,1000,1000,111928544,1579,1578,1554,1554
82363708,1000,1000,1000,1000,112028504,1579,1578,1555,1553
82366207,1000,1000,1000,1000,112128464,1579,1578,1555,1553
82368706,1000,1000,1000,1000,112228424,1577,1578,1556,1553
82371205,1000,1000,1000,1000,112328384,1577,1577,1555,1553
82373704,1000,1000,1000,1000,112428344,1575,1577,1554,1553
82376203,1000,1000,1000,1000,112528304,1575,1576,1552,1552
82378702,1000,1000,1000,1000,112628264,1575,1577,1550,1551
82381201,1000,1000,1000,1000,112728224,1577,1579,1550,1550
82383700,1000,1000,1000,1000,112828184,1580,1581,1549,1549
82386199,1000,1000,1000,1000,112928977,1582,1583,1547,1546
82388698,1000,1000,1000,1000,113028937,1585,1586,1545,1544
82391197,1000,1000,1000,1000,113128897,1588,1588,1543,1543
82393696,1000,1000,1000,1000,113228857,1589,1590,1540,1540
82396195,1000,1000,1000,1000,113328817,1591,1591,1538,1538
82398694,1000,1000,1000,1000,113428777,1593,1593,1537,1539
82401193,1000,1000,1000,1000,113528737,1594,1594,1538,1540
82403692,1000,1000,1000,1000,113628697,1593,1593,1540,1543
82406191,1000,1000,1000,1000,113728657,1591,1589,1544,1547
82408690,1000,1000,1000,1000,113828617,1586,1584,1551,1554
82411189,1000,1000,1000,1000,113928577,1579,1576,1560,1563
82413688,1000,1000,1000,1000,114028537,1570,1565,1570,1572
82416187,1000,1000,1000,1000,114128497,1560,1556,1582,1583
82418686,1000,1000,1000,1000,114228457,1550,1548,1592,1593
82421185,1000,1000,1000,1000,114328417,1542,1541,1603,1602
82423684,1000,1000,1000,1000,114428377,1536,1537,1610,1608
82426183,1000,1000,1000,1000,114528337,1533,1535,1612,1610
82428682,1000,1000,1000,1000,114628297,1534,1537,1613,1611
82431181,1000,1000,1000,1000,114728257,1538,1540,1610,1609
82433680,1000,1000,1000,1000,114828217,1544,1546,1606,1605
82436179,1000,1000,1000,1000,114928177,1552,1552,1600,1599
82438678,1000,1000,1000,1000,115028970,1559,1559,1592,1592
82441177,1000,1000,1000,1000,115128930,1567,1567,1586,1586
82443676,1000,1000,1000,1000,115228890,1572,1572,1578,1579
82446175,1000,1000,1000,1000,115328850,1578,1577,1572,1573
82448674,1000,1000,1000,1000,115428810,1583,1581,1569,1570
82451173,1000,1000,1000,1000,115528770,1586,1583,1567,1568
82453672,1000,1000,1000,1000,115628730,1586,1584,1565,1566
82456171,1000,1000,1000,1000,115728690,1585,1584,1566,1567
82458670,1000,1000,1000,1000,115828650,1584,1584,1569,1569
82461169,1000,1000,1000,1000,115928610,1583,1582,1572,1572
82463668,1000,1000,1000,1000,116028570,1580,1580,1575,1574
82466167,1000,1000,1000,1000,116128530,1578,1578,1578,1577
82468666,1000,1000,1000,1000,116228490,1575,1576,1580,1580
82471165,1000,1000,1000,1000,116328450,1574,1575,1582,1582
82473664,1000,1000,1000,1000,116428410,1573,1574,1583,1583
82476163,1000,1000,1000,1000,116528370,1573,1574,1584,1584
82478662,1000,1000,1000,1000,116628330,1573,1574,1584,1584
82481161,1000,1000,1000,1000,116728290,1574,1575,1584,1584
82483660,1000,1000,1000,1000,116828250,1576,1576,1583,1583
82486159,1000,1000,1000,1000,116928210,1576,1577,1582,1581
82488658,1000,1000,1000,1000,117028170,1579,1579,1582,1581
82491157,1000,1000,1000,1000,117128963,1579,1579,1580,1580
82493656,1000,1000,1000,1000,117228923,1581,1580,1579,1579
82496155,1000,1000,1000,1000,117328883,1581,1581,1578,1578
82498654,1000,1000,1000,1000,117428843,1581,1581,1577,1577
82501153,1000,1000,1000,1000,117528803,1583,1582,1578,1578
82503652,1000,1000,1000,1000,117628763,1582,1582,1578,1578
82506151,1000,1000,1000,1000,117728723,1580,1580,1577,1577
82508650,1000,1000,1000,1000,117828683,1581,1581,1579,1579
82511149,1000,1000,1000,1000,117928643,1581,1580,1579,1579
82513648,1000,1000,1000,1000,118028603,1581,1580,1580,1580
82516147,1000,1000,1000,1000,118128563,1580,1581,1581,1581
82518646,1000,1000,1000,1000,118228523,1579,1580,1580,1580
82521145,1000,1000,1000,1000,118328483,1579,1579,1581,1581
82523644,1000,1000,1000,1000,118428443,1579,1579,1581,1581
82526143,1000,1000,1000,1000,118528403,1580,1580,1582,1582
82528642,1000,1000,1000,1000,118628363,1580,1580,1581,1581
82531141,1000,1000,1000,1000,118728323,1580,1580,1581,1581
82533640,1000,1000,1000,1000,118828283,1580,1580,1581,1581
82536139,1000,1000,1000,1000,118928243,1580,1580,1580,1581
82538638,1000,1000,1000,1000,119028203,1580,1581,1581,1580
82541137,1000,1000,1000,1000,119128163,1581,1582,1587,1573
82543636,1000,1000,1000,1000,119228956,1581,1581,1586,1573
82546135,1000,1000,1000,1000,119328916,1579,1579,1579,1576
82548634,1000,1000,1000,1000,119428876,1575,1574,1571,1575
82551133,1000,1000,1000,1000,119528836,1571,1571,1566,1573
82553632,1000,1000,1000,1000,119628796,1570,1569,1565,1572
82556131,1000,1000,1000,1000,119728756,1567,1567,1564,1569
82558630,1000,1000,1000,1000,119828716,1566,1566,1565,1566
82561129,1000,1000,1000,1000,119928676,1566,1566,1566,1565
82563628,1000,1000,1000,1000,120028636,1564,1565,1566,1563
82566127,1000,1000,1000,1000,120128596,1565,1565,1567,1564
82568626,1000,1000,1000,1000,120228556,1565,1564,1566,1564
82571125,1000,1000,1000,1000,120328516,1564,1564,1566,1565
82573624,1000,1000,1000,1000,120428476,1562,1562,1563,1563
82576123,1000,1000,1000,1000,120528436,1563,1562,1563,1564
82578622,1000,1000,1000,1000,120628396,1561,1562,1562,1562
82581121,1000,1000,1000,1000,120728356,1561,1561,1562,1562
82583620,1000,1000,1000,1000,120828316,1562,1561,1562,1562
82586119,1000,1000,1000,1000,120928276,1561,1560,1561,1560
82588618,1000,1000,1000,1000,121028236,1559,1559,1560,1558
82591117,1000,1000,1000,1000,121128196,1559,1558,1559,1558
82593616,1000,1000,1000,1000,121228156,1558,1558,1558,1557
82596115,1000,1000,1000,1000,121328949,1557,1557,1557,1557
82598614,1000,1000,1000,1000,121428909,1557,1557,1557,1556
82601113,1000,1000,1000,1000,121528869,1557,1557,1557,1556
82603612,1000,1000,1000,1000,121628829,1557,1557,1558,1556
82606111,1000,1000,1000,1000,121728789,1559,1558,1560,1557
82608610,1000,1000,1000,1000,121828749,1559,1558,1560,1557
82611109,1000,1000,1000,1000,121928709,1559,1559,1559,1560
82613608,1000,1000,1000,1000,122028669,1560,1560,1558,1563
82616107,1000,1000,1000,1000,122128629,1560,1560,1557,1564
82618606,1000,1000,1000,1000,122228589,1562,1562,1559,1565
82621105,1000,1000,1000,1000,122328549,1563,1563,1561,1565
82623604,1000,1000,1000,1000,122428509,1563,1563,1562,1563
82626103,1000,1000,1000,1000,122528469,1563,1563,1564,1561
82628602,1000,1000,1000,1000,122628429,1563,1562,1564,1560
82631101,1000,1000,1000,1000,122728389,1561,1560,1562,1559
82633600,1000,1000,1000,1000,122828349,1559,1559,1556,1561
82636099,1000,1000,1000,1000,122928309,1555,1555,1552,1558
82638598,1000,1000,1000,1000,123028269,1551,1550,1549,1553
82641097,1000,1000,1000,1000,123128229,1545,1545,1545,1546
82643596,1000,1000,1000,1000,123228189,1538,1538,1539,1537
82646095,1000,1000,1000,1000,123328982,1532,1532,1533,1531
82648594,1000,1000,1000,1000,123428942,1523,1523,1524,1522
82651093,1000,1000,1000,1000,123528902,1520,1521,1521,1520
82653592,1000,1000,1000,1000,123628862,1519,1519,1519,1520
82656091,1000,1000,1000,1000,123728822,1520,1521,1520,1521
82658590,1000,1000,1000,1000,123828782,1523,1523,1522,1524
82661089,1000,1000,1000,1000,123928742,1526,1526,1526,1527
82663588,1000,1000,1000,1000,124028702,1530,1530,1530,1530
82666087,1000,1000,1000,1000,124128662,1535,1535,1535,1535
82668586,1000,1000,1000,1000,124228622,1539,1539,1539,1538
82671085,1000,1000,1000,1000,124328582,1541,1541,1541,1540
82673584,1000,1000,1000,1000,124428542,1543,1542,1543,1542
82676083,1000,1000,1000,1000,124528502,1544,1544,1544,1544
82678582,1000,1000,1000,1000,124628462,1545,1544,1545,1544
82681081,1000,1000,1000,1000,124728422,1545,1544,1545,1545
82683580,1000,1000,1000,1000,124828382,1546,1546,1546,1545
82686079,1000,1000,1000,1000,124928342,1546,1546,1546,1546
82688578,1000,1000,1000,1000,125028302,1546,1547,1547,1546
82691077,1000,1000,1000,1000,125128262,1547,1546,1547,1547
82693576,1000,1000,1000,1000,125228222,1546,1546,1546,1546
82696075,1000,1000,1000,1000,125328182,1546,1546,1546,1546
82698574,1000,1000,1000,1000,125428975,1545,1545,1545,1545
82701073,1000,1000,1000,1000,125528935,1544,1544,1545,1544
82703572,1000,1000,1000,1000,125628895,1544,1545,1545,1545
82706071,1000,1000,1000,1000,125728855,1544,1544,1544,1544
82708570,1000,1000,1000,1000,125828815,1545,1545,1545,1545
82711069,1000,1000,1000,1000,125928775,1544,1543,1543,1544
82713568,1000,1000,1000,1000,126028735,1544,1544,1544,1544
82716067,1000,1000,1000,1000,126128695,1545,1545,1545,1545
82718566,1000,1000,1000,1000,126228655,1544,1544,1544,1544
82721065,1000,1000,1000,1000,126328615,1544,1544,1544,1544
82723564,1000,1000,1000,1000,126428575,1545,1545,1545,1545
82726063,1000,1000,1000,1000,126528535,1544,1544,1544,1544
82728562,1000,1000,1000,1000,126628495,1544,1544,1544,1543
82731061,1000,1000,1000,1000,126728455,1544,1543,1544,1544
82733560,1000,1000,1000,1000,126828415,1543,1543,1543,1543
82736059,1000,1000,1000,1000,126928375,1544,1544,1544,1544
82738558,1000,1000,1000,1000,127028335,1544,1544,1544,1544
82741057,1000,1000,1000,1000,127128295,1544,1545,1544,1545
82743556,1000,1000,1000,1000,127228255,1544,1544,1544,1544
82746055,1000,1000,1000,1000,127328215,1544,1543,1543,1544
82748554,1000,1000,1000,1000,127428175,1544,1544,1544,1543
82751053,1000,1000,1000,1000,127528968,1543,1543,1543,1543
82753552,1000,1000,1000,1000,127628928,1544,1544,1544,1544
82756051,1000,1000,1000,1000,127728888,1545,1544,1544,1545
82758550,1000,1000,1000,1000,127828848,1544,1545,1544,1544
82761049,1000,1000,1000,1000,127928808,1544,1544,1544,1544
82763548,1000,1000,1000,1000,128028768,1544,1544,1544,1544
82766047,1000,1000,1000,1000,128128728,1544,1543,1543,1544
82768546,1000,1000,1000,1000,128228688,1543,1544,1544,1543
82771045,1000,1000,1000,1000,128328648,1544,1543,1543,1543
82773544,1000,1000,1000,1000,128428608,1543,1544,1544,1543
82776043,1000,1000,1000,1000,128528568,1544,1543,1543,1544
82778542,1000,1000,1000,1000,128628528,1544,1544,1544,1543
82781041,1000,1000,1000,1000,128728488,1544,1543,1544,1544
82783540,1000,1000,1000,1000,128828448,1545,1544,1545,1545
82786039,1000,1000,1000,1000,128928408,1544,1544,1544,1544
82788538,1000,1000,1000,1000,129028368,1544,1544,1544,1544
82791037,1000,1000,1000,1000,129128328,1544,1545,1544,1545
82793536,1000,1000,1000,1000,129228288,1545,1545,1545,1545
82796035,1000,1000,1000,1000,129328248,1544,1544,1544,1544
82798534,1000,1000,1000,1000,129428208,1544,1544,1544,1544
82801033,1000,1000,1000,1000,129528168,1544,1544,1544,1544
82803532,1000,1000,1000,1000,129628961,1544,1544,1544,1544
82806031,1000,1000,1000,1000,129728921,1545,1545,1545,1545
82808530,1000,1000,1000,1000,129828881,1545,1545,1545,1545
82811029,1000,1000,1000,1000,129928841,1545,1544,1544,1545
82813528,1000,1000,1000,1000,130028801,1545,1545,1545,1544
82816027,1000,1000,1000,1000,130128761,1544,1544,1544,1544
82818526,1000,1000,1000,1000,130228721,1545,1546,1545,1545
82821025,1000,1000,1000,1000,130328681,1545,1545,1545,1545
82823524,1000,1000,1000,1000,130428641,1544,1544,1544,1544
82826023,1000,1000,1000,1000,130528601,1544,1544,1544,1545
82828522,1000,1000,1000,1000,130628561,1545,1546,1546,1545
82831021,1000,1000,1000,1000,130728521,1545,1545,1545,1545
82833520,1000,1000,1000,1000,130828481,1545,1546,1545,1546
82836019,1000,1000,1000,1000,130928441,1545,1544,1545,1545
82838518,1000,1000,1000,1000,131028401,1545,1545,1545,1545
82841017,1000,1000,1000,1000,131128361,1545,1545,1545,1545
82843516,1000,1000,1000,1000,131228321,1545,1545,1545,1544
82846015,1000,1000,1000,1000,131328281,1544,1544,1544,1544
82848514,1000,1000,1000,1000,131428241,1544,1544,1545,1544
82851013,1000,1000,1000,1000,131528201,1544,1543,1544,1544
82853512,1000,1000,1000,1000,131628161,1543,1544,1543,1544
82856011,1000,1000,1000,1000,131728954,1544,1544,1544,1544
82858510,1000,1000,1000,1000,131828914,1544,1544,1544,1544
82861009,1000,1000,1000,1000,131928874,1544,1544,1544,1544
82863508,1000,1000,1000,1000,132028834,1544,1544,1545,1544
82866007,1000,1000,1000,1000,132128794,1544,1544,1544,1544
82868506,1000,1000,1000,1000,132228754,1544,1544,1544,1544
82871005,1000,1000,1000,1000,132328714,1544,1544,1544,1544
82873504,1000,1000,1000,1000,132428674,1544,1544,1544,1544
82876003,1000,1000,1000,1000,132528634,1545,1544,1544,1545
82878502,1000,1000,1000,1000,132628594,1544,1545,1544,1545
82881001,1000,1000,1000,1000,132728554,1545,1544,1545,1545
82883500,1000,1000,1000,1000,132828514,1545,1545,1545,1545
82885999,1000,1000,1000,1000,132928474,1544,1544,1544,1544
82888498,1000,1000,1000,1000,133028434,1543,1543,1543,1543
82890997,1000,1000,1000,1000,133128394,1544,1543,1543,1544
82893496,1000,1000,1000,1000,133228354,1544,1543,1544,1543
82895995,1000,1000,1000,1000,133328314,1388,1365,1387,1366
82898494,1000,1000,1000,1000,133428274,1296,1255,1297,1255
82900993,1000,1000,1000,1000,133528234,1269,1219,1269,1220
82903492,1000,1000,1000,1000,133628194,1254,1201,1255,1201
82905991,1000,1000,1000,1000,133728154,1221,1156,1221,1157
82908490,1000,1000,1000,1000,133828947,1216,1150,1217,1150
82910989,1000,1000,1000,1000,133928907,1216,1150,1217,1150
82913488,1000,1000,1000,1000,134028867,1216,1150,1217,1150
82915987,1000,1000,1000,1000,134128827,1231,1150,1200,1191
82918486,1000,1000,1000,1000,134228787,1230,1150,1210,1179
82920985,1000,1000,1000,1000,134328747,1230,1150,1214,1174
82923484,1000,1000,1000,1000,134428707,1230,1150,1214,1174
82925983,1000,1000,1000,1000,134528667,1230,1150,1213,1175
82928482,1000,1000,1000,1000,134628627,1230,1150,1212,1177
82930981,1000,1000,1000,1000,134728587,1230,1150,1210,1179
82933480,1000,1000,1000,1000,134828547,1230,1150,1210,1180
82935979,1000,1000,1000,1000,134928507,1218,1150,1211,1161
82938478,1000,1000,1000,1000,135028467,1220,1150,1211,1163
82940977,1000,1000,1000,1000,135128427,1221,1150,1211,1165
82943476,1000,1000,1000,1000,135228387,1221,1150,1212,1166
82945975,1000,1000,1000,1000,135328347,1222,1150,1212,1167
82948474,1000,1000,1000,1000,135428307,1000,1000,1000,1000
82950973,1000,1000,1000,1000,135528267,1000,1000,1000,1000
82953472,1000,1000,1000,1000,135628227,1000,1000,1000,1000
82955971,1000,1000,1000,1000,135728187,1000,1000,1000,1000
82958470,1000,1000,1000,1000,135828980,1000,1000,1000,1000
82960969,1000,1000,1000,1000,135928940,1000,1000,1000,1000
82963468,1000,1000,1000,1000,136028900,1000,1000,1000,1000
82965967,1000,1000,1000,1000,136128860,1000,1000,1000,1000
82968466,1000,1000,1000,1000,136228820,1000,1000,1000,1000
82970965,1000,1000,1000,1000,136328780,1000,1000,1000,1000
82973464,1000,1000,1000,1000,136428740,1000,1000,1000,1000
82975963,1000,1000,1000,1000,136528700,1000,1000,1000,1000
82978462,1000,1000,1000,1000,136628660,1000,1000,1000,1000
82980961,1000,1000,1000,1000,136728620,1000,1000,1000,1000
82983460,1000,1000,1000,1000,136828580,1000,1000,1000,1000
82985959,1000,1000,1000,1000,136928540,1000,1000,1000,1000
82988458,1000,1000,1000,1000,137028500,1000,1000,1000,1000
82990957,1000,1000,1000,1000,137128460,1000,1000,1000,1000
82993456,1000,1000,1000,1000,137228420,1000,1000,1000,1000
82995955,1000,1000,1000,1000,137328380,1000,1000,1000,1000
82998454,1000,1000,1000,1000,137428340,1000,1000,1000,1000
83000953,1000,1000,1000,1000,137528300,1000,1000,1000,1000
83003452,1000,1000,1000,1000,137628260,1000,1000,1000,1000
83005951,1000,1000,1000,1000,137728220,1000,1000,1000,1000
83008450,1000,1000,1000,1000,137828180,1000,1000,1000,1000
83010949,1000,1000,1000,1000,137928973,1000,1000,1000,1000
83013448,1000,1000,1000,1000,138028933,1000,1000,1000,1000
83015947,1000,1000,1000,1000,138128893,1000,1000,1000,1000
83018446,1000,1000,1000,1000,138228853,1000,1000,1000,1000
83020945,1000,1000,1000,1000,138328813,1000,1000,1000,1000
83023444,1000,1000,1000,1000,138428773,1000,1000,1000,1000
83025943,1000,1000,1000,1000,138528733,1000,1000,1000,1000
83028442,1000,1000,1000,1000,138628693,1000,1000,1000,1000
83030941,1000,1000,1000,1000,138728653,1000,1000,1000,1000
83033440,1000,1000,1000,1000,138828613,1000,1000,1000,1000
83035939,1000,1000,1000,1000,138928573,1000,1000,1000,1000
83038438,1000,1000,1000,1000,139028533,1000,1000,1000,1000
83040937,1000,1000,1000,1000,139128493,1000,1000,1000,1000
83043436,1000,1000,1000,1000,139228453,1000,1000,1000,1000
83045935,1000,1000,1000,1000,139328413,1000,1000,1000,1000
83048434,1000,1000,1000,1000,139428373,1000,1000,1000,1000
83050933,1000,1000,1000,1000,139528333,1000,1000,1000,1000
83053432,1000,1000,1000,1000,139628293,1000,1000,1000,1000
83055931,1000,1000,1000,1000,139728253,1000,1000,1000,1000
83058430,1000,1000,1000,1000,139828213,1000,1000,1000,1000
83060929,1000,1000,1000,1000,139928173,1000,1000,1000,1000
83063428,1000,1000,1000,1000,140028966,1000,1000,1000,1000
83065927,1000,1000,1000,1000,140128926,1000,1000,1000,1000
83068426,1000,1000,1000,1000,140228886,1000,1000,1000,1000
83070925,1000,1000,1000,1000,140328846,1000,1000,1000,1000
83073424,1000,1000,1000,1000,140428806,1000,1000,1000,1000
83075923,1000,1000,1000,1000,140528766,1000,1000,1000,1000
83078422,1000,1000,1000,1000,140628726,1000,1000,1000,1000
83080921,1000,1000,1000,1000,140728686,1000,1000,1000,1000
83083420,1000,1000,1000,1000,140828646,1000,1000,1000,1000
83085919,1000,1000,1000,1000,140928606,1000,1000,1000,1000
83088418,1000,1000,1000,1000,141028566,1000,1000,1000,1000
83090917,1000,1000,1000,1000,141128526,1000,1000,1000,1000
83093416,1000,1000,1000,1000,141228486,1000,1000,1000,1000
83095915,1000,1000,1000,1000,141328446,1000,1000,1000,1000
83098414,1000,1000,1000,1000,141428406,1000,1000,1000,1000
83100913,1000,1000,1000,1000,141528366,1000,1000,1000,1000
83103412,1000,1000,1000,1000,141628326,1000,1000,1000,1000
83105911,1000,1000,1000,1000,141728286,1000,1000,1000,1000
83108410,1000,1000,1000,1000,141828246,1000,1000,1000,1000
83110909,1000,1000,1000,1000,141928206,1000,1000,1000,1000
83113408,1000,1000,1000,1000,142028166,1000,1000,1000,1000
83115907,1000,1000,1000,1000,142128959,1000,1000,1000,1000
83118406,1000,1000,1000,1000,142228919,1000,1000,1000,1000
83120905,1000,1000,1000,1000,142328879,1000,1000,1000,1000
83123404,1000,1000,1000,1000,142428839,1000,1000,1000,1000
83125903,1000,1000,1000,1000,142528799,1000,1000,1000,1000
83128402,1000,1000,1000,1000,142628759,1000,1000,1000,1000
83130901,1000,1000,1000,1000,142728719,1000,1000,1000,1000
83133400,1000,1000,1000,1000,142828679,1000,1000,1000,1000
83135899,1000,1000,1000,1000,142928639,1000,1000,1000,1000
83138398,1000,1000,1000,1000,143028599,1000,1000,1000,1000
83140897,1000,1000,1000,1000,143128559,1000,1000,1000,1000
83143396,1000,1000,1000,1000,143228519,1000,1000,1000,1000
83145895,1000,1000,1000,1000,143328479,1000,1000,1000,1000
83148394,1000,1000,1000,1000,143428439,1000,1000,1000,1000
83150893,1000,1000,1000,1000,143528399,1000,1000,1000,1000
83153392,1000,1000,1000,1000,143628359,1000,1000,1000,1000
83155891,1000,1000,1000,1000,143728319,1000,1000,1000,1000
83158390,1000,1000,1000,1000,143828279,1000,1000,1000,1000
83160889,1000,1000,1000,1000,143928239,1000,1000,1000,1000
83163388,1000,1000,1000,1000,144028199,1000,1000,1000,1000
83165887,1000,1000,1000,1000,144128159,1000,1000,1000,1000
83168386,1000,1000,1000,1000,144228952,1000,1000,1000,1000
83170885,1000,1000,1000,1000,144328912,1000,1000,1000,1000
83173384,1000,1000,1000,1000,144428872,1000,1000,1000,1000
83175883,1000,1000,1000,1000,144528832,1000,1000,1000,1000
83178382,1000,1000,1000,1000,144628792,1000,1000,1000,1000
83180881,1000,1000,1000,1000,144728752,1000,1000,1000,1000
83183380,1000,1000,1000,1000,144828712,1000,1000,1000,1000
83185879,1000,1000,1000,1000,144928672,1000,1000,1000,1000
83188378,1000,1000,1000,1000,145028632,1000,1000,1000,1000
83190877,1000,1000,1000,1000,145128592,1000,1000,1000,1000
83193376,1000,1000,1000,1000,145228552,1000,1000,1000,1000
83195875,1000,1000,1000,1000,145328512,1000,1000,1000,1000
83198374,1000,1000,1000,1000,145428472,1000,1000,1000,1000
83200873,1000,1000,1000,1000,145528432,1000,1000,1000,1000
83203372,1000,1000,1000,1000,145628392,1000,1000,1000,1000
83205871,1000,1000,1000,1000,145728352,1000,1000,1000,1000
83208370,1000,1000,1000,1000,145828312,1000,1000,1000,1000
83210869,1000,1000,1000,1000,145928272,1000,1000,1000,1000
83213368,1000,1000,1000,1000,146028232,1000,1000,1000,1000
83215867,1000,1000,1000,1000,146128192,1000,1000,1000,1000
83218366,1000,1000,1000,1000,146228985,1000,1000,1000,1000
83220865,1000,1000,1000,1000,146328945,1000,1000,1000,1000
83223364,1000,1000,1000,1000,146428905,1000,1000,1000,1000
83225863,1000,1000,1000,1000,146528865,1000,1000,1000,1000
83228362,1000,1000,1000,1000,146628825,1000,1000,1000,1000
83230861,1000,1000,1000,1000,146728785,1000,1000,1000,1000
83233360,1000,1000,1000,1000,146828745,1000,1000,1000,1000
83235859,1000,1000,1000,1000,146928705,1000,1000,1000,1000
83238358,1000,1000,1000,1000,147028665,1000,1000,1000,1000
83240857,1000,1000,1000,1000,147128625,1000,1000,1000,1000
83243356,1000,1000,1000,1000,147228585,1000,1000,1000,1000
83245855,1000,1000,1000,1000,147328545,1000,1000,1000,1000
83248354,1000,1000,1000,1000,147428505,1000,1000,1000,1000
83250853,1000,1000,1000,1000,147528465,1000,1000,1000,1000
83253352,1000,1000,1000,1000,147628425,1000,1000,1000,1000
83255851,1000,1000,1000,1000,147728385,1000,1000,1000,1000
83258350,1000,1000,1000,1000,147828345,1000,1000,1000,1000
83260849,1000,1000,1000,1000,147928305,1000,1000,1000,1000
83263348,1000,1000,1000,1000,148028265,1000,1000,1000,1000
83265847,1000,1000,1000,1000,148128225,1000,1000,1000,1000
83268346,1000,1000,1000,1000,148228185,1000,1000,1000,1000
83270845,1000,1000,1000,1000,148328978,1000,1000,1000,1000
83273344,1000,1000,1000,1000,148428938,1000,1000,1000,1000
83275843,1000,1000,1000,1000,148528898,1000,1000,1000,1000
83278342,1000,1000,1000,1000,148628858,1000,1000,1000,1000
83280841,1000,1000,1000,1000,148728818,1000,1000,1000,1000
83283340,1000,1000,1000,1000,148828778,1000,1000,1000,1000
83285839,1000,1000,1000,1000,148928738,1000,1000,1000,1000
83288338,1000,1000,1000,1000,149028698,1000,1000,1000,1000
83290837,1000,1000,1000,1000,149128658,1000,1000,1000,1000
83293336,1000,1000,1000,1000,149228618,1000,1000,1000,1000
83295835,1000,1000,1000,1000,149328578,1000,1000,1000,1000
83298334,1000,1000,1000,1000,149428538,1000,1000,1000,1000
83300833,1000,1000,1000,1000,149528498,1000,1000,1000,1000
83303332,1000,1000,1000,1000,149628458,1000,1000,1000,1000
83305831,1000,1000,1000,1000,149728418,1000,1000,1000,1000
83308330,1000,1000,1000,1000,149828378,1000,1000,1000,1000
83310829,1000,1000,1000,1000,149928338,1000,1000,1000,1000
83313328,1000,1000,1000,1000,150028298,1000,1000,1000,1000
83315827,1000,1000,1000,1000,150128258,1000,1000,1000,1000
83318326,1000,1000,1000,1000,150228218,1000,1000,1000,1000
83320825,1000,1000,1000,1000,150328178,1000,1000,1000,1000
83323324,1000,1000,1000,1000,,,,,
83325823,1000,1000,1000,1000,,,,,
83328322,1000,1000,1000,1000,,,,,
83330821,1000,1000,1000,1000,,,,,
83333320,1000,1000,1000,1000,,,,,
83335819,1000,1000,1000,1000,,,,,
83338318,1000,1000,1000,1000,,,,,
83340817,1000,1000,1000,1000,,,,,
83343316,1000,1000,1000,1000,,,,,
83345815,1000,1000,1000,1000,,,,,
83348314,1000,1000,1000,1000,,,,,
83350813,1000,1000,1000,1000,,,,,
83353312,1000,1000,1000,1000,,,,,
83355811,1000,1000,1000,1000,,,,,
83358310,1000,1000,1000,1000,,,,,
83360809,1000,1000,1000,1000,,,,,
83363308,1000,1000,1000,1000,,,,,
83365807,1000,1000,1000,1000,,,,,
83368306,1000,1000,1000,1000,,,,,
83370805,1000,1000,1000,1000,,,,,
83373304,1000,1000,1000,1000,,,,,
83375803,1000,1000,1000,1000,,,,,
83378302,1000,1000,1000,1000,,,,,
83380801,1000,1000,1000,1000,,,,,
83383300,1000,1000,1000,1000,,,,,
83385799,1000,1000,1000,1000,,,,,
83388298,1000,1000,1000,1000,,,,,
83390797,1000,1000,1000,1000,,,,,
83393296,1000,1000,1000,1000,,,,,
83395795,1000,1000,1000,1000,,,,,
83398294,1000,1000,1000,1000,,,,,
83400793,1000,1000,1000,1000,,,,,
83403292,1000,1000,1000,1000,,,,,
83405791,1000,1000,1000,1000,,,,,
83408290,1000,1000,1000,1000,,,,,
83410789,1000,1000,1000,1000,,,,,
83413288,1000,1000,1000,1000,,,,,
83415787,1000,1000,1000,1000,,,,,
83418286,1000,1000,1000,1000,,,,,
83420785,1000,1000,1000,1000,,,,,
83423284,1000,1000,1000,1000,,,,,
83425783,1000,1000,1000,1000,,,,,
83428282,1000,1000,1000,1000,,,,,
83430781,1000,1000,1000,1000,,,,,
83433280,1000,1000,1000,1000,,,,,
83435779,1000,1000,1000,1000,,,,,
83438278,1000,1000,1000,1000,,,,,
83440777,1000,1000,1000,1000,,,,,
83443276,1000,1000,1000,1000,,,,,
83445775,1000,1000,1000,1000,,,,,
83448274,1000,1000,1000,1000,,,,,
83450773,1000,1000,1000,1000,,,,,
83453272,1000,1000,1000,1000,,,,,
83455771,1000,1000,1000,1000,,,,,
83458270,1000,1000,1000,1000,,,,,
83460769,1000,1000,1000,1000,,,,,
83463268,1000,1000,1000,1000,,,,,
83465767,1000,1000,1000,1000,,,,,
83468266,1000,1000,1000,1000,,,,,
83470765,1000,1000,1000,1000,,,,,
83473264,1000,1000,1000,1000,,,,,
83475763,1000,1000,1000,1000,,,,,
83478262,1000,1000,1000,1000,,,,,
83480761,1000,1000,1000,1000,,,,,
83483260,1000,1000,1000,1000,,,,,
83485759,1000,1000,1000,1000,,,,,
83488258,1000,1000,1000,1000,,,,,
83490757,1000,1000,1000,1000,,,,,
83493256,1000,1000,1000,1000,,,,,
83495755,1000,1000,1000,1000,,,,,
83498254,1000,1000,1000,1000,,,,,
83500753,1000,1000,1000,1000,,,,,
83503252,1000,1000,1000,1000,,,,,
83505751,1000,1000,1000,1000,,,,,
83508250,1000,1000,1000,1000,,,,,
83510749,1000,1000,1000,1000,,,,,
83513248,1000,1000,1000,1000,,,,,
83515747,1000,1000,1000,1000,,,,,
83518246,1000,1000,1000,1000,,,,,
83520745,1000,1000,1000,1000,,,,,
83523244,1000,1000,1000,1000,,,,,
83525743,1000,1000,1000,1000,,,,,
83528242,1000,1000,1000,1000,,,,,
83530741,1000,1000,1000,1000,,,,,
83533240,1000,1000,1000,1000,,,,,
83535739,1000,1000,1000,1000,,,,,
83538238,1000,1000,1000,1000,,,,,
83540737,1000,1000,1000,1000,,,,,
83543236,1000,1000,1000,1000,,,,,
83545735,1000,1000,1000,1000,,,,,
83548234,1000,1000,1000,1000,,,,,
83550733,1000,1000,1000,1000,,,,,
83553232,1000,1000,1000,1000,,,,,
83555731,1000,1000,1000,1000,,,,,
83558230,1000,1000,1000,1000,,,,,
83560729,1000,1000,1000,1000,,,,,
83563228,1000,1000,1000,1000,,,,,
83565727,1000,1000,1000,1000,,,,,
83568226,1000,1000,1000,1000,,,,,
83570725,1000,1000,1000,1000,,,,,
83573224,1000,1000,1000,1000,,,,,
83575723,1000,1000,1000,1000,,,,,
83578222,1000,1000,1000,1000,,,,,
83580721,1000,1000,1000,1000,,,,,
83583220,1000,1000,1000,1000,,,,,
83585719,1000,1000,1000,1000,,,,,
83588218,1000,1000,1000,1000,,,,,
83590717,1000,1000,1000,1000,,,,,
83593216,1000,1000,1000,1000,,,,,
83595715,1000,1000,1000,1000,,,,,
83598214,1000,1000,1000,1000,,,,,
83600713,1000,1000,1000,1000,,,,,
83603212,1000,1000,1000,1000,,,,,
83605711,1000,1000,1000,1000,,,,,
83608210,1000,1000,1000,1000,,,,,
83610709,1001,1001,1001,1001,,,,,
83613208,1002,1002,1002,1002,,,,,
83615707,1003,1003,1003,1003,,,,,
83618206,1003,1003,1003,1003,,,,,
83620705,1004,1004,1004,1004,,,,,
83623204,1005,1005,1005,1005,,,,,
83625703,1006,1006,1006,1006,,,,,
83628202,1006,1006,1006,1006,,,,,
83630701,1007,1007,1007,1007,,,,,
83633200,1008,1008,1008,1008,,,,,
83635699,1009,1009,1009,1009,,,,,
83638198,1009,1009,1009,1009,,,,,
83640697,1010,1010,1010,1010,,,,,
83643196,1011,1011,1011,1011,,,,,
83645695,1012,1012,1012,1012,,,,,
83648194,1012,1012,1012,1012,,,,,
83650693,1013,1013,1013,1013,,,,,
83653192,1014,1014,1014,1014,,,,,
83655691,1015,1015,1015,1015,,,,,
83658190,1015,1015,1015,1015,,,,,
83660689,1016,1016,1016,1016,,,,,
83663188,1017,1017,1017,1017,,,,,
83665687,1018,1018,1018,1018,,,,,
83668186,1018,1018,1018,1018,,,,,
83670685,1019,1019,1019,1019,,,,,
83673184,1020,1020,1020,1020,,,,,
83675683,1021,1021,1021,1021,,,,,
83678182,1021,1021,1021,1021,,,,,
83680681,1022,1022,1022,1022,,,,,
83683180,1023,1023,1023,1023,,,,,
83685679,1024,1024,1024,1024,,,,,
83688178,1024,1024,1024,1024,,,,,
83690677,1025,1025,1025,1025,,,,,
83693176,1026,1026,1026,1026,,,,,
83695675,1027,1027,1027,1027,,,,,
83698174,1027,1027,1027,1027,,,,,
83700673,1028,1028,1028,1028,,,,,
83703172,1029,1029,1029,1029,,,,,
83705671,1030,1030,1030,1030,,,,,
83708170,1030,1030,1030,1030,,,,,
83710669,1031,1031,1031,1031,,,,,
83713168,1032,1032,1032,1032,,,,,
83715667,1033,1033,1033,1033,,,,,
83718166,1033,1033,1033,1033,,,,,
83720665,1034,1034,1034,1034,,,,,
83723164,1035,1035,1035,1035,,,,,
83725663,1036,1036,1036,1036,,,,,
83728162,1036,1036,1036,1036,,,,,
83730661,1037,1037,1037,1037,,,,,
83733160,1038,1038,1038,1038,,,,,
83735659,1039,1039,1039,1039,,,,,
83738158,1039,1039,1039,1039,,,,,
83740657,1040,1040,1040,1040,,,,,
83743156,1041,1041,1041,1041,,,,,
83745655,1042,1042,1042,1042,,,,,
83748154,1042,1042,1042,1042,,,,,
83751486,1043,1043,1043,1043,,,,,
83753985,1044,1044,1044,1044,,,,,
83756484,1045,1045,1045,1045,,,,,
83758983,1045,1045,1045,1045,,,,,
83761482,1046,1046,1046,1046,,,,,
83763981,1047,1047,1047,1047,,,,,
83766480,1048,1048,1048,1048,,,,,
83768979,1048,1048,1048,1048,,,,,
83771478,1049,1049,1049,1049,,,,,
83773977,1050,1050,1050,1050,,,,,
83776476,1051,1051,1051,1051,,,,,
83778975,1051,1051,1051,1051,,,,,
83781474,1052,1052,1052,1052,,,,,
83783973,1053,1053,1053,1053,,,,,
83786472,1054,1054,1054,1054,,,,,
83788971,1054,1054,1054,1054,,,,,
83791470,1055,1055,1055,1055,,,,,
83793969,1056,1056,1056,1056,,,,,
83796468,1057,1057,1057,1057,,,,,
83798967,1057,1057,1057,1057,,,,,
83801466,1058,1058,1058,1058,,,,,
83803965,1059,1059,1059,1059,,,,,
83806464,1060,1060,1060,1060,,,,,
83808963,1060,1060,1060,1060,,,,,
83811462,1061,1061,1061,1061,,,,,
83813961,1062,1062,1062,1062,,,,,
83816460,1063,1063,1063,1063,,,,,
83818959,1063,1063,1063,1063,,,,,
83821458,1064,1064,1064,1064,,,,,
83823957,1065,1065,1065,1065,,,,,
83826456,1066,1066,1066,1066,,,,,
83828955,1066,1066,1066,1066,,,,,
83831454,1067,1067,1067,1067,,,,,
83833953,1068,1068,1068,1068,,,,,
83836452,1069,1069,1069,1069,,,,,
83838951,1069,1069,1069,1069,,,,,
83841450,1070,1070,1070,1070,,,,,
83843949,1071,1071,1071,1071,,,,,
83846448,1072,1072,1072,1072,,,,,
83848947,1072,1072,1072,1072,,,,,
83851446,1073,1073,1073,1073,,,,,
83853945,1074,1074,1074,1074,,,,,
83856444,1075,1075,1075,1075,,,,,
83858943,1075,1075,1075,1075,,,,,
83861442,1076,1076,1076,1076,,,,,
83863941,1077,1077,1077,1077,,,,,
83866440,1078,1078,1078,1078,,,,,
83868939,1078,1078,1078,1078,,,,,
83871438,1079,1079,1079,1079,,,,,
83873937,1080,1080,1080,1080,,,,,
83876436,1081,1081,1081,1081,,,,,
83878935,1081,1081,1081,1081,,,,,
83881434,1082,1082,1082,1082,,,,,
83883933,1083,1083,1083,1083,,,,,
83886432,1084,1084,1084,1084,,,,,
83888931,1084,1084,1084,1084,,,,,
83891430,1085,1085,1085,1085,,,,,
83893929,1086,1086,1086,1086,,,,,
83896428,1087,1087,1087,1087,,,,,
83898927,1087,1087,1087,1087,,,,,
83901426,1088,1088,1088,1088,,,,,
83903925,1089,1089,1089,1089,,,,,
83906424,1090,1090,1090,1090,,,,,
83908923,1090,1090,1090,1090,,,,,
83911422,1091,1091,1091,1091,,,,,
83913921,1092,1092,1092,1092,,,,,
83916420,1093,1093,1093,1093,,,,,
83918919,1093,1093,1093,1093,,,,,
83921418,1094,1094,1094,1094,,,,,
83923917,1095,1095,1095,1095,,,,,
83926416,1096,1096,1096,1096,,,,,
83928915,1096,1096,1096,1096,,,,,
83931414,1097,1097,1097,1097,,,,,
83933913,1098,1098,1098,1098,,,,,
83936412,1099,1099,1099,1099,,,,,
83938911,1099,1099,1099,1099,,,,,
83941410,1100,1100,1100,1100,,,,,
83943909,1101,1101,1101,1101,,,,,
83946408,1101,1101,1101,1101,,,,,
83948907,1102,1102,1102,1102,,,,,
83951406,1103,1103,1103,1103,,,,,
83953905,1104,1104,1104,1104,,,,,
83956404,1104,1104,1104,1104,,,,,
83958903,1105,1105,1105,1105,,,,,
83961402,1106,1106,1106,1106,,,,,
83963901,1107,1107,1107,1107,,,,,
83966400,1107,1107,1107,1107,,,,,
83968899,1108,1108,1108,1108,,,,,
83971398,1109,1109,1109,1109,,,,,
83973897,1110,1110,1110,1110,,,,,
83976396,1110,1110,1110,1110,,,,,
83978895,1111,1111,1111,1111,,,,,
83981394,1112,1112,1112,1112,,,,,
83983893,1113,1113,1113,1113,,,,,
83986392,1113,1113,1113,1113,,,,,
83988891,1114,1114,1114,1114,,,,,
83991390,1115,1115,1115,1115,,,,,
83993889,1116,1116,1116,1116,,,,,
83996388,1116,1116,1116,1116,,,,,
83998887,1117,1117,1117,1117,,,,,
84001386,1118,1118,1118,1118,,,,,
84003885,1119,1119,1119,1119,,,,,
84006384,1119,1119,1119,1119,,,,,
84008883,1120,1120,1120,1120,,,,,
84011382,1121,1121,1121,1121,,,,,
84013881,1122,1122,1122,1122,,,,,
84016380,1122,1122,1122,1122,,,,,
84018879,1123,1123,1123,1123,,,,,
84021378,1124,1124,1124,1124,,,,,
84023877,1125,1125,1125,1125,,,,,
84026376,1125,1125,1125,1125,,,,,
84028875,1126,1126,1126,1126,,,,,
84031374,1127,1127,1127,1127,,,,,
84033873,1128,1128,1128,1128,,,,,
84036372,1128,1128,1128,1128,,,,,
84038871,1129,1129,1129,1129,,,,,
84041370,1130,1130,1130,1130,,,,,
84043869,1131,1131,1131,1131,,,,,
84046368,1131,1131,1131,1131,,,,,
84048867,1132,1132,1132,1132,,,,,
84051366,1133,1133,1133,1133,,,,,
84053865,1134,1134,1134,1134,,,,,
84056364,1134,1134,1134,1134,,,,,
84058863,1135,1135,1135,1135,,,,,
84061362,1136,1136,1136,1136,,,,,
84063861,1137,1137,1137,1137,,,,,
84066360,1137,1137,1137,1137,,,,,
84068859,1138,1138,1138,1138,,,,,
84071358,1139,1139,1139,1139,,,,,
84073857,1140,1140,1140,1140,,,,,
84076356,1140,1140,1140,1140,,,,,
84078855,1141,1141,1141,1141,,,,,
84081354,1142,1142,1142,1142,,,,,
84083853,1143,1143,1143,1143,,,,,
84086352,1143,1143,1143,1143,,,,,
84088851,1144,1144,1144,1144,,,,,
84091350,1145,1145,1145,1145,,,,,
84093849,1146,1146,1146,1146,,,,,
84096348,1146,1146,1146,1146,,,,,
84098847,1147,1147,1147,1147,,,,,
84101346,1148,1148,1148,1148,,,,,
84103845,1149,1149,1149,1149,,,,,
84106344,1149,1149,1149,1149,,,,,
84108843,1150,1150,1150,1150,,,,,
84111342,1164,1150,1151,1165,,,,,
84113841,1172,1159,1159,1173,,,,,
84116340,1180,1167,1167,1181,,,,,
84118839,1187,1174,1175,1189,,,,,
84121338,1195,1182,1183,1196,,,,,
84123837,1202,1190,1190,1203,,,,,
84126336,1210,1197,1198,1211,,,,,
84128835,1217,1205,1205,1218,,,,,
84131334,1224,1212,1212,1225,,,,,
84133833,1231,1219,1219,1232,,,,,
84136332,1238,1226,1226,1239,,,,,
84138831,1245,1233,1233,1245,,,,,
84141330,1251,1240,1240,1252,,,,,
84143829,1258,1246,1247,1259,,,,,
84146328,1264,1253,1253,1265,,,,,
84148827,1271,1259,1260,1272,,,,,
84151326,1277,1266,1266,1278,,,,,
84153825,1283,1272,1273,1284,,,,,
84156324,1289,1279,1279,1290,,,,,
84158823,1296,1285,1285,1296,,,,,
84161322,1302,1291,1291,1303,,,,,
84163821,1308,1297,1298,1308,,,,,
84166320,1314,1303,1304,1314,,,,,
84168819,1319,1309,1310,1320,,,,,
84171318,1325,1315,1315,1326,,,,,
84173817,1331,1321,1321,1332,,,,,
84176316,1337,1327,1327,1337,,,,,
84178815,1342,1332,1333,1343,,,,,
84181314,1348,1338,1338,1349,,,,,
84183813,1353,1344,1344,1354,,,,,
84186312,1359,1349,1350,1360,,,,,
84188811,1364,1355,1355,1365,,,,,
84191310,1370,1360,1360,1370,,,,,
84193809,1375,1366,1366,1376,,,,,
84196308,1380,1371,1371,1381,,,,,
84198807,1385,1376,1377,1386,,,,,
84201306,1391,1382,1382,1392,,,,,
84203805,1396,1387,1387,1397,,,,,
84206304,1401,1392,1392,1402,,,,,
84208803,1406,1397,1397,1407,,,,,
84211302,1411,1402,1402,1412,,,,,
84213801,1416,1407,1408,1417,,,,,
84216300,1421,1412,1413,1422,,,,,
84218799,1426,1417,1418,1427,,,,,
84221298,1431,1422,1422,1432,,,,,
84223797,1436,1427,1427,1437,,,,,
84226296,1441,1432,1432,1441,,,,,
84228795,1445,1437,1437,1446,,,,,
84231294,1450,1442,1442,1451,,,,,
84233793,1455,1446,1447,1456,,,,,
84236292,1459,1451,1451,1460,,,,,
84238791,1464,1456,1456,1465,,,,,
84241290,1469,1461,1461,1470,,,,,
84243789,1473,1465,1465,1474,,,,,
84246288,1478,1470,1470,1479,,,,,
84248787,1483,1474,1475,1483,,,,,
84251286,1487,1479,1479,1488,,,,,
84253785,1492,1483,1484,1492,,,,,
84256284,1496,1488,1488,1497,,,,,
84258783,1500,1492,1493,1501,,,,,
84261282,1505,1497,1497,1506,,,,,
84263781,1509,1501,1501,1510,,,,,
84266280,1514,1506,1506,1514,,,,,
84268779,1518,1510,1510,1519,,,,,
84271278,1522,1514,1515,1523,,,,,
84273777,1527,1519,1519,1527,,,,,
84276276,1531,1523,1523,1532,,,,,
84278775,1535,1527,1528,1536,,,,,
84281274,1539,1531,1532,1540,,,,,
84283773,1544,1536,1536,1544,,,,,
84286272,1548,1540,1540,1548,,,,,
84288771,1552,1544,1544,1553,,,,,
84291270,1556,1548,1549,1557,,,,,
84293769,1560,1552,1553,1561,,,,,
84296268,1564,1556,1557,1565,,,,,
84298767,1569,1560,1561,1569,,,,,
84301266,1573,1564,1565,1573,,,,,
84303765,1577,1568,1569,1577,,,,,
84306264,1581,1572,1573,1581,,,,,
84308763,1585,1576,1577,1585,,,,,
84311262,1589,1580,1581,1589,,,,,
84313761,1593,1584,1585,1593,,,,,
84316260,1597,1588,1589,1597,,,,,
84318759,1601,1592,1593,1601,,,,,
84321258,1605,1596,1597,1605,,,,,
84323757,1608,1600,1601,1609,,,,,
84326256,1612,1604,1605,1613,,,,,
84328755,1616,1608,1608,1616,,,,,
84331254,1620,1612,1612,1620,,,,,
84333753,1624,1615,1616,1624,,,,,
84336252,1628,1619,1620,1628,,,,,
84338751,1631,1623,1624,1632,,,,,
84341250,1635,1627,1627,1635,,,,,
84343749,1639,1631,1631,1639,,,,,
84346248,1643,1634,1635,1643,,,,,
84348747,1646,1638,1639,1647,,,,,
84351246,1650,1642,1642,1650,,,,,
84353745,1654,1646,1646,1654,,,,,
84356244,1657,1649,1650,1658,,,,,
84358743,1661,1653,1653,1661,,,,,
84361242,1665,1657,1657,1665,,,,,
84363741,1668,1660,1661,1669,,,,,
84366240,1672,1664,1664,1672,,,,,
84368739,1675,1667,1668,1676,,,,,
84371238,1679,1671,1672,1679,,,,,
84373737,1683,1675,1675,1683,,,,,
84376236,1686,1678,1679,1686,,,,,
84378735,1690,1682,1682,1690,,,,,
84381234,1693,1685,1686,1693,,,,,
84383733,1697,1689,1690,1697,,,,,
84386232,1700,1692,1693,1700,,,,,
84388731,1704,1696,1697,1704,,,,,
84391230,1707,1699,1700,1707,,,,,
84393729,1711,1703,1704,1711,,,,,
84396228,1714,1706,1707,1714,,,,,
84398727,1718,1710,1711,1718,,,,,
84401226,1721,1713,1714,1721,,,,,
84403725,1724,1717,1717,1725,,,,,
84406224,1728,1720,1721,1728,,,,,
84408723,1731,1724,1724,1731,,,,,
84411222,1735,1727,1728,1735,,,,,
84413721,1738,1730,1731,1738,,,,,
84416220,1741,1734,1734,1741,,,,,
84418719,1745,1737,1738,1745,,,,,
84421218,1748,1740,1741,1748,,,,,
84423717,1751,1744,1744,1751,,,,,
84426216,1755,1747,1748,1755,,,,,
84428715,1758,1750,1751,1758,,,,,
84431214,1761,1754,1754,1761,,,,,
84433713,1764,1757,1758,1765,,,,,
84436212,1768,1760,1761,1768,,,,,
84438711,1771,1764,1764,1771,,,,,
84441210,1774,1767,1767,1774,,,,,
84443709,1777,1770,1771,1778,,,,,
84446208,1781,1773,1774,1781,,,,,
84448707,1784,1777,1777,1784,,,,,
84451206,1787,1780,1780,1787,,,,,
84453705,1790,1783,1784,1791,,,,,
84456204,1793,1786,1787,1794,,,,,
84458703,1797,1790,1790,1797,,,,,
84461202,1800,1793,1793,1800,,,,,
84463701,1803,1796,1796,1803,,,,,
84466200,1806,1799,1799,1806,,,,,
84468699,1809,1802,1803,1810,,,,,
84471198,1812,1805,1806,1813,,,,,
84473697,1815,1809,1809,1816,,,,,
84476196,1819,1812,1812,1819,,,,,
84478695,1822,1815,1815,1822,,,,,
84481194,1825,1818,1818,1825,,,,,
84483693,1828,1821,1821,1828,,,,,
84486192,1831,1824,1824,1832,,,,,
84488691,1834,1827,1827,1835,,,,,
84491190,1837,1830,1830,1838,,,,,
84493689,1840,1833,1833,1841,,,,,
84496188,1843,1836,1836,1844,,,,,
84498687,1846,1839,1839,1847,,,,,
84501186,1849,1842,1842,1850,,,,,
84503685,1852,1845,1845,1853,,,,,
84506184,1855,1848,1848,1856,,,,,
84508683,1858,1851,1851,1859,,,,,
84511182,1861,1854,1854,1862,,,,,
84513681,1864,1857,1857,1865,,,,,
84516180,1867,1860,1860,1868,,,,,
84518679,1870,1863,1863,1871,,,,,
84521178,1873,1866,1866,1874,,,,,
84523677,1876,1869,1869,1877,,,,,
84526176,1879,1872,1872,1880,,,,,
84528675,1882,1875,1875,1883,,,,,
84531174,1885,1878,1878,1886,,,,,
84533673,1888,1881,1881,1889,,,,,
84536172,1891,1884,1884,1891,,,,,
84538671,1894,1887,1887,1894,,,,,
84541170,1897,1890,1890,1897,,,,,
84543669,1900,1893,1893,1900,,,,,
84546168,1902,1896,1896,1903,,,,,
84548667,1905,1898,1899,1906,,,,,
84551166,1908,1901,1901,1909,,,,,
84553665,1911,1904,1904,1912,,,,,
84556164,1914,1907,1907,1915,,,,,
84558663,1914,1907,1907,1915,,,,,
84561162,1913,1906,1906,1914,,,,,
84563661,1912,1905,1905,1913,,,,,
84566160,1912,1904,1905,1912,,,,,
84568659,1911,1904,1904,1911,,,,,
84571158,1910,1903,1903,1911,,,,,
84573657,1909,1902,1902,1910,,,,,
84576156,1909,1901,1902,1909,,,,,
84578655,1908,1901,1901,1909,,,,,
84581154,1908,1900,1901,1908,,,,,
84583653,1907,1900,1900,1908,,,,,
84586152,1907,1899,1900,1907,,,,,
84588651,1907,1899,1899,1907,,,,,
84591150,1906,1899,1899,1907,,,,,
84593649,1906,1898,1899,1906,,,,,
84596148,1906,1898,1899,1906,,,,,
84598647,1906,1898,1899,1906,,,,,
84601146,1906,1898,1899,1906,,,,,
84603645,1906,1898,1899,1906,,,,,
84606144,1906,1899,1899,1906,,,,,
84608643,1905,1899,1899,1906,,,,,
84611142,1905,1899,1899,1905,,,,,
84613641,1905,1899,1899,1905,,,,,
84616140,1905,1899,1899,1905,,,,,
84618639,1904,1898,1899,1904,,,,,
84621138,1903,1898,1898,1904,,,,,
84623637,1903,1897,1898,1903,,,,,
84626136,1902,1896,1897,1902,,,,,
84628635,1901,1896,1896,1901,,,,,
84631134,1900,1895,1895,1900,,,,,
84633633,1898,1893,1894,1899,,,,,
84636132,1897,1892,1892,1897,,,,,
84638631,1895,1890,1891,1895,,,,,
84641130,1893,1889,1889,1894,,,,,
84643629,1891,1887,1887,1892,,,,,
84646128,1889,1885,1885,1890,,,,,
84648627,1887,1883,1883,1888,,,,,
84651126,1885,1881,1881,1885,,,,,
84653625,1882,1878,1879,1883,,,,,
84656124,1880,1876,1876,1881,,,,,
84658623,1878,1874,1874,1878,,,,,
84661122,1875,1871,1871,1875,,,,,
84663621,1872,1868,1869,1873,,,,,
84666120,1869,1866,1866,1870,,,,,
84668619,1867,1863,1863,1867,,,,,
84671118,1864,1860,1860,1864,,,,,
84673617,1861,1857,1858,1861,,,,,
84676116,1858,1854,1855,1858,,,,,
84678615,1855,1852,1852,1855,,,,,
84681114,1852,1848,1849,1852,,,,,
84683613,1848,1845,1846,1849,,,,,
84686112,1845,1842,1842,1846,,,,,
84688611,1842,1839,1839,1843,,,,,
84691110,1839,1836,1836,1839,,,,,
84693609,1835,1833,1833,1836,,,,,
84696108,1832,1829,1829,1833,,,,,
84698607,1829,1826,1826,1829,,,,,
84701106,1825,1823,1823,1826,,,,,
84703605,1822,1819,1819,1822,,,,,
84706104,1818,1816,1816,1819,,,,,
84708603,1815,1812,1813,1815,,,,,
84711102,1811,1809,1809,1812,,,,,
84713601,1808,1806,1806,1808,,,,,
84716100,1804,1802,1802,1805,,,,,
84718599,1801,1799,1799,1801,,,,,
84721098,1797,1795,1796,1798,,,,,
84723597,1794,1792,1792,1795,,,,,
84726096,1791,1789,1789,1791,,,,,
84728595,1787,1785,1786,1788,,,,,
84731094,1784,1782,1782,1784,,,,,
84733593,1780,1779,1779,1781,,,,,
84736092,1777,1775,1776,1777,,,,,
84738591,1773,1772,1772,1774,,,,,
84741090,1770,1769,1769,1771,,,,,
84743589,1767,1766,1766,1767,,,,,
84746088,1763,1762,1763,1764,,,,,
84748587,1760,1759,1759,1761,,,,,
84751086,1757,1756,1756,1757,,,,,
84753585,1754,1753,1753,1754,,,,,
84756084,1750,1750,1750,1751,,,,,
84758583,1747,1747,1747,1748,,,,,
