timestamp,TimeUS,C1,C2,C3,C4,C5,C6,C7,C8,C9,C10,C11,C12,C13,C14
1682339259.90003991,46928721,1000,1000,1000,1000,0,0,0,0,0,0,0,0,0,0
1682339260.00000000,47028681,1000,1000,1000,1000,0,0,0,0,0,0,0,0,0,0
1682339260.09995985,47128641,1000,1000,1000,1000,0,0,0,0,0,0,0,0,0,0
1682339260.19991994,47228601,1000,1000,1000,1000,0,0,0,0,0,0,0,0,0,0
1682339260.29988003,47328561,1000,1000,1000,1000,0,0,0,0,0,0,0,0,0,0
1682339260.39983988,47428521,1000,1000,1000,1000,0,0,0,0,0,0,0,0,0,0
1682339260.49979997,47528481,1000,1000,1000,1000,0,0,0,0,0,0,0,0,0,0
1682339260.59976006,47628441,1000,1000,1000,1000,0,0,0,0,0,0,0,0,0,0
1682339260.69971991,47728401,1000,1000,1000,1000,0,0,0,0,0,0,0,0,0,0
1682339260.79967999,47828361,1000,1000,1000,1000,0,0,0,0,0,0,0,0,0,0
1682339260.89963984,47928321,1000,1000,1000,1000,0,0,0,0,0,0,0,0,0,0
1682339260.99959993,48028281,1000,1000,1000,1000,0,0,0,0,0,0,0,0,0,0
1682339261.09956002,48128241,1000,1000,1000,1000,0,0,0,0,0,0,0,0,0,0
1682339261.19951987,48228201,1000,1000,1000,1000,0,0,0,0,0,0,0,0,0,0
1682339261.29947996,48328161,1000,1000,1000,1000,0,0,0,0,0,0,0,0,0,0
1682339261.40027285,48428954,1000,1000,1000,1000,0,0,0,0,0,0,0,0,0,0
1682339261.50023293,48528914,1000,1000,1000,1000,0,0,0,0,0,0,0,0,0,0
1682339261.60019302,48628874,1000,1000,1000,1000,0,0,0,0,0,0,0,0,0,0
1682339261.70015287,48728834,1000,1000,1000,1000,0,0,0,0,0,0,0,0,0,0
1682339261.80011296,48828794,1000,1000,1000,1000,0,0,0,0,0,0,0,0,0,0
1682339261.90007305,48928754,1023,1023,1023,1023,0,0,0,0,0,0,0,0,0,0
1682339262.00003290,49028714,1053,1053,1053,1053,0,0,0,0,0,0,0,0,0,0
1682339262.09999299,49128674,1083,1083,1083,1083,0,0,0,0,0,0,0,0,0,0
1682339262.19995308,49228634,1113,1113,1113,1113,0,0,0,0,0,0,0,0,0,0
1682339262.29991293,49328594,1143,1143,1143,1143,0,0,0,0,0,0,0,0,0,0
1682339262.39987302,49428554,1351,1346,1346,1352,0,0,0,0,0,0,0,0,0,0
1682339262.49983287,49528514,1542,1538,1538,1542,0,0,0,0,0,0,0,0,0,0
1682339262.59979296,49628474,1695,1691,1691,1695,0,0,0,0,0,0,0,0,0,0
1682339262.69975305,49728434,1826,1823,1822,1827,0,0,0,0,0,0,0,0,0,0
1682339262.79971290,49828394,1939,1935,1935,1940,0,0,0,0,0,0,0,0,0,0
1682339262.89967299,49928354,1868,1867,1867,1868,0,0,0,0,0,0,0,0,0,0
1682339262.99963307,50028314,1736,1736,1736,1736,0,0,0,0,0,0,0,0,0,0
1682339263.09959292,50128274,1658,1659,1659,1658,0,0,0,0,0,0,0,0,0,0
1682339263.19955301,50228234,1637,1637,1633,1641,0,0,0,0,0,0,0,0,0,0
1682339263.29951286,50328194,1637,1639,1633,1644,0,0,0,0,0,0,0,0,0,0
1682339263.39947295,50428154,1639,1641,1638,1643,0,0,0,0,0,0,0,0,0,0
1682339263.50026608,50528947,1635,1636,1636,1634,0,0,0,0,0,0,0,0,0,0
1682339263.60022593,50628907,1626,1626,1630,1622,0,0,0,0,0,0,0,0,0,0
1682339263.70018601,50728867,1619,1618,1623,1614,0,0,0,0,0,0,0,0,0,0
1682339263.80014586,50828827,1617,1616,1620,1613,0,0,0,0,0,0,0,0,0,0
1682339263.90010595,50928787,1616,1615,1617,1614,0,0,0,0,0,0,0,0,0,0
1682339264.00006604,51028747,1585,1585,1593,1576,0,0,0,0,0,0,0,0,0,0
1682339264.10002589,51128707,1571,1571,1577,1565,0,0,0,0,0,0,0,0,0,0
1682339264.19998598,51228667,1559,1560,1559,1559,0,0,0,0,0,0,0,0,0,0
1682339264.29994607,51328627,1551,1551,1547,1555,0,0,0,0,0,0,0,0,0,0
1682339264.39990592,51428587,1542,1542,1535,1549,0,0,0,0,0,0,0,0,0,0
1682339264.49986601,51528547,1537,1536,1527,1545,0,0,0,0,0,0,0,0,0,0
1682339264.59982586,51628507,1531,1531,1524,1537,0,0,0,0,0,0,0,0,0,0
1682339264.69978595,51728467,1527,1526,1524,1529,0,0,0,0,0,0,0,0,0,0
1682339264.79974604,51828427,1523,1524,1524,1523,0,0,0,0,0,0,0,0,0,0
1682339264.89970589,51928387,1524,1524,1526,1522,0,0,0,0,0,0,0,0,0,0
1682339264.99966598,52028347,1527,1526,1529,1524,0,0,0,0,0,0,0,0,0,0
1682339265.09962606,52128307,1530,1530,1533,1528,0,0,0,0,0,0,0,0,0,0
1682339265.19958591,52228267,1535,1535,1537,1533,0,0,0,0,0,0,0,0,0,0
1682339265.29954600,52328227,1539,1538,1540,1537,0,0,0,0,0,0,0,0,0,0
1682339265.39950585,52428187,1542,1542,1543,1541,0,0,0,0,0,0,0,0,0,0
1682339265.50029898,52528980,1546,1546,1546,1546,0,0,0,0,0,0,0,0,0,0
1682339265.60025907,52628940,1549,1550,1549,1550,0,0,0,0,0,0,0,0,0,0
1682339265.70021892,52728900,1552,1552,1551,1553,0,0,0,0,0,0,0,0,0,0
1682339265.80017900,52828860,1555,1555,1554,1556,0,0,0,0,0,0,0,0,0,0
1682339265.90013885,52928820,1554,1554,1558,1561,0,0,0,0,0,0,0,0,0,0
1682339266.00009894,53028780,1555,1555,1561,1563,0,0,0,0,0,0,0,0,0,0
1682339266.10005903,53128740,1557,1558,1564,1564,0,0,0,0,0,0,0,0,0,0
1682339266.20001888,53228700,1560,1561,1565,1565,0,0,0,0,0,0,0,0,0,0
1682339266.29997897,53328660,1563,1564,1567,1566,0,0,0,0,0,0,0,0,0,0
1682339266.39993906,53428620,1566,1567,1567,1567,0,0,0,0,0,0,0,0,0,0
1682339266.49989891,53528580,1567,1567,1566,1565,0,0,0,0,0,0,0,0,0,0
1682339266.59985900,53628540,1569,1569,1566,1566,0,0,0,0,0,0,0,0,0,0
1682339266.69981885,53728500,1571,1571,1567,1567,0,0,0,0,0,0,0,0,0,0
1682339266.79977894,53828460,1572,1572,1568,1568,0,0,0,0,0,0,0,0,0,0
1682339266.89973903,53928420,1573,1573,1568,1569,0,0,0,0,0,0,0,0,0,0
1682339266.99969888,54028380,1573,1573,1569,1570,0,0,0,0,0,0,0,0,0,0
1682339267.09965897,54128340,1573,1573,1570,1571,0,0,0,0,0,0,0,0,0,0
1682339267.19961905,54228300,1574,1574,1572,1572,0,0,0,0,0,0,0,0,0,0
1682339267.29957891,54328260,1575,1576,1575,1574,0,0,0,0,0,0,0,0,0,0
1682339267.39953899,54428220,1575,1575,1576,1574,0,0,0,0,0,0,0,0,0,0
1682339267.49949884,54528180,1575,1574,1576,1575,0,0,0,0,0,0,0,0,0,0
1682339267.60029197,54628973,1575,1575,1576,1575,0,0,0,0,0,0,0,0,0,0
1682339267.70025206,54728933,1575,1575,1576,1576,0,0,0,0,0,0,0,0,0,0
1682339267.80021191,54828893,1574,1574,1575,1575,0,0,0,0,0,0,0,0,0,0
1682339267.90017200,54928853,1574,1575,1576,1576,0,0,0,0,0,0,0,0,0,0
1682339268.00013185,55028813,1575,1575,1576,1576,0,0,0,0,0,0,0,0,0,0
1682339268.10009193,55128773,1576,1576,1576,1576,0,0,0,0,0,0,0,0,0,0
1682339268.20005202,55228733,1575,1575,1576,1576,0,0,0,0,0,0,0,0,0,0
1682339268.30001187,55328693,1576,1576,1576,1576,0,0,0,0,0,0,0,0,0,0
1682339268.39997196,55428653,1577,1577,1577,1577,0,0,0,0,0,0,0,0,0,0
1682339268.49993205,55528613,1577,1577,1577,1577,0,0,0,0,0,0,0,0,0,0
1682339268.59989190,55628573,1577,1577,1577,1577,0,0,0,0,0,0,0,0,0,0
1682339268.69985199,55728533,1577,1578,1577,1577,0,0,0,0,0,0,0,0,0,0
1682339268.79981208,55828493,1578,1578,1578,1577,0,0,0,0,0,0,0,0,0,0
1682339268.89977193,55928453,1579,1579,1578,1579,0,0,0,0,0,0,0,0,0,0
1682339268.99973202,56028413,1579,1579,1578,1578,0,0,0,0,0,0,0,0,0,0
1682339269.09969187,56128373,1578,1577,1577,1577,0,0,0,0,0,0,0,0,0,0
1682339269.19965196,56228333,1578,1577,1577,1577,0,0,0,0,0,0,0,0,0,0
1682339269.29961205,56328293,1578,1578,1578,1578,0,0,0,0,0,0,0,0,0,0
1682339269.39957190,56428253,1578,1578,1579,1578,0,0,0,0,0,0,0,0,0,0
1682339269.49953198,56528213,1578,1578,1578,1578,0,0,0,0,0,0,0,0,0,0
1682339269.59949207,56628173,1577,1577,1577,1577,0,0,0,0,0,0,0,0,0,0
1682339269.70028496,56728966,1578,1578,1579,1579,0,0,0,0,0,0,0,0,0,0
1682339269.80024505,56828926,1579,1579,1580,1579,0,0,0,0,0,0,0,0,0,0
1682339269.90020490,56928886,1579,1579,1579,1579,0,0,0,0,0,0,0,0,0,0
1682339270.00016499,57028846,1579,1579,1579,1579,0,0,0,0,0,0,0,0,0,0
1682339270.10012507,57128806,1578,1579,1579,1579,0,0,0,0,0,0,0,0,0,0
1682339270.20008492,57228766,1579,1580,1580,1580,0,0,0,0,0,0,0,0,0,0
1682339270.30004501,57328726,1580,1580,1580,1580,0,0,0,0,0,0,0,0,0,0
1682339270.40000486,57428686,1580,1580,1580,1580,0,0,0,0,0,0,0,0,0,0
1682339270.49996495,57528646,1579,1579,1579,1579,0,0,0,0,0,0,0,0,0,0
1682339270.59992504,57628606,1579,1580,1580,1580,0,0,0,0,0,0,0,0,0,0
1682339270.69988489,57728566,1580,1580,1580,1580,0,0,0,0,0,0,0,0,0,0
1682339270.79984498,57828526,1580,1580,1579,1580,0,0,0,0,0,0,0,0,0,0
1682339270.89980507,57928486,1580,1580,1580,1580,0,0,0,0,0,0,0,0,0,0
1682339270.99976492,58028446,1580,1580,1580,1580,0,0,0,0,0,0,0,0,0,0
1682339271.09972501,58128406,1580,1580,1580,1580,0,0,0,0,0,0,0,0,0,0
1682339271.19968486,58228366,1581,1580,1580,1580,0,0,0,0,0,0,0,0,0,0
1682339271.29964495,58328326,1581,1581,1581,1581,0,0,0,0,0,0,0,0,0,0
1682339271.39960504,58428286,1580,1580,1580,1580,0,0,0,0,0,0,0,0,0,0
1682339271.49956489,58528246,1581,1580,1581,1581,0,0,0,0,0,0,0,0,0,0
1682339271.59952497,58628206,1581,1581,1581,1582,0,0,0,0,0,0,0,0,0,0
1682339271.69948506,58728166,1581,1580,1581,1581,0,0,0,0,0,0,0,0,0,0
1682339271.80027795,58828959,1580,1581,1581,1580,0,0,0,0,0,0,0,0,0,0
1682339271.90023804,58928919,1580,1580,1580,1580,0,0,0,0,0,0,0,0,0,0
1682339272.00019789,59028879,1581,1581,1581,1581,0,0,0,0,0,0,0,0,0,0
1682339272.10015798,59128839,1581,1581,1587,1574,0,0,0,0,0,0,0,0,0,0
1682339272.20011806,59228799,1581,1583,1587,1574,0,0,0,0,0,0,0,0,0,0
1682339272.30007792,59328759,1579,1582,1579,1574,0,0,0,0,0,0,0,0,0,0
1682339272.40003800,59428719,1579,1581,1570,1573,0,0,0,0,0,0,0,0,0,0
1682339272.49999785,59528679,1577,1579,1562,1569,0,0,0,0,0,0,0,0,0,0
1682339272.59995794,59628639,1579,1579,1558,1565,0,0,0,0,0,0,0,0,0,0
1682339272.69991803,59728599,1579,1577,1555,1560,0,0,0,0,0,0,0,0,0,0
1682339272.79987788,59828559,1579,1577,1555,1556,0,0,0,0,0,0,0,0,0,0
1682339272.89983797,59928519,1579,1578,1557,1555,0,0,0,0,0,0,0,0,0,0
1682339272.99979806,60028479,1577,1578,1556,1553,0,0,0,0,0,0,0,0,0,0
1682339273.09975791,60128439,1576,1577,1556,1553,0,0,0,0,0,0,0,0,0,0
1682339273.19971800,60228399,1575,1576,1555,1554,0,0,0,0,0,0,0,0,0,0
1682339273.29967785,60328359,1575,1576,1555,1554,0,0,0,0,0,0,0,0,0,0
1682339273.39963794,60428319,1575,1576,1553,1553,0,0,0,0,0,0,0,0,0,0
1682339273.49959803,60528279,1575,1577,1552,1553,0,0,0,0,0,0,0,0,0,0
1682339273.59955788,60628239,1577,1578,1551,1551,0,0,0,0,0,0,0,0,0,0
1682339273.69951797,60728199,1578,1580,1549,1549,0,0,0,0,0,0,0,0,0,0
1682339273.79947805,60828159,1581,1581,1546,1546,0,0,0,0,0,0,0,0,0,0
1682339273.90027094,60928952,1583,1584,1543,1543,0,0,0,0,0,0,0,0,0,0
1682339274.00023103,61028912,1586,1587,1540,1539,0,0,0,0,0,0,0,0,0,0
1682339274.10019088,61128872,1589,1589,1537,1537,0,0,0,0,0,0,0,0,0,0
1682339274.20015097,61228832,1592,1592,1535,1535,0,0,0,0,0,0,0,0,0,0
1682339274.30011106,61328792,1594,1593,1533,1533,0,0,0,0,0,0,0,0,0,0
1682339274.40007091,61428752,1595,1595,1534,1535,0,0,0,0,0,0,0,0,0,0
1682339274.50003099,61528712,1596,1595,1536,1538,0,0,0,0,0,0,0,0,0,0
1682339274.59999084,61628672,1594,1594,1539,1542,0,0,0,0,0,0,0,0,0,0
1682339274.69995093,61728632,1591,1589,1543,1546,0,0,0,0,0,0,0,0,0,0
1682339274.79991102,61828592,1585,1583,1550,1553,0,0,0,0,0,0,0,0,0,0
1682339274.89987087,61928552,1578,1575,1560,1563,0,0,0,0,0,0,0,0,0,0
1682339274.99983096,62028512,1566,1563,1570,1573,0,0,0,0,0,0,0,0,0,0
1682339275.09979105,62128472,1555,1552,1583,1584,0,0,0,0,0,0,0,0,0,0
1682339275.19975090,62228432,1544,1542,1595,1595,0,0,0,0,0,0,0,0,0,0
1682339275.29971099,62328392,1536,1535,1605,1605,0,0,0,0,0,0,0,0,0,0
1682339275.39967108,62428352,1530,1530,1612,1610,0,0,0,0,0,0,0,0,0,0
1682339275.49963093,62528312,1529,1529,1616,1614,0,0,0,0,0,0,0,0,0,0
1682339275.59959102,62628272,1531,1533,1616,1615,0,0,0,0,0,0,0,0,0,0
1682339275.69955087,62728232,1534,1536,1611,1610,0,0,0,0,0,0,0,0,0,0
1682339275.79951096,62828192,1541,1543,1605,1605,0,0,0,0,0,0,0,0,0,0
1682339275.90030408,62928985,1550,1552,1598,1598,0,0,0,0,0,0,0,0,0,0
1682339276.00026393,63028945,1559,1560,1590,1590,0,0,0,0,0,0,0,0,0,0
1682339276.10022402,63128905,1567,1567,1582,1582,0,0,0,0,0,0,0,0,0,0
1682339276.20018387,63228865,1575,1575,1576,1576,0,0,0,0,0,0,0,0,0,0
1682339276.30014396,63328825,1582,1581,1572,1571,0,0,0,0,0,0,0,0,0,0
1682339276.40010405,63428785,1586,1584,1568,1567,0,0,0,0,0,0,0,0,0,0
1682339276.50006390,63528745,1588,1587,1567,1567,0,0,0,0,0,0,0,0,0,0
1682339276.60002398,63628705,1588,1586,1566,1566,0,0,0,0,0,0,0,0,0,0
1682339276.69998407,63728665,1587,1586,1568,1568,0,0,0,0,0,0,0,0,0,0
1682339276.79994392,63828625,1584,1584,1569,1570,0,0,0,0,0,0,0,0,0,0
1682339276.89990401,63928585,1582,1581,1572,1573,0,0,0,0,0,0,0,0,0,0
1682339276.99986386,64028545,1579,1579,1576,1576,0,0,0,0,0,0,0,0,0,0
1682339277.09982395,64128505,1576,1576,1579,1578,0,0,0,0,0,0,0,0,0,0
1682339277.19978404,64228465,1575,1576,1582,1582,0,0,0,0,0,0,0,0,0,0
1682339277.29974389,64328425,1605,1575,1615,1585,0,0,0,0,0,0,0,0,0,0
1682339277.39970398,64428385,1592,1574,1604,1585,0,0,0,0,0,0,0,0,0,0
1682339277.49966407,64528345,1583,1578,1596,1589,0,0,0,0,0,0,0,0,0,0
1682339277.59962392,64628305,1574,1579,1586,1589,0,0,0,0,0,0,0,0,0,0
1682339277.69958401,64728265,1569,1578,1579,1587,0,0,0,0,0,0,0,0,0,0
1682339277.79954386,64828225,1569,1578,1576,1585,0,0,0,0,0,0,0,0,0,0
1682339277.89950395,64928185,1571,1577,1575,1581,0,0,0,0,0,0,0,0,0,0
1682339278.00029707,65028978,1574,1575,1574,1577,0,0,0,0,0,0,0,0,0,0
1682339278.10025692,65128938,1577,1576,1575,1574,0,0,0,0,0,0,0,0,0,0
1682339278.20021701,65228898,1581,1577,1576,1573,0,0,0,0,0,0,0,0,0,0
1682339278.30017686,65328858,1583,1579,1577,1574,0,0,0,0,0,0,0,0,0,0
1682339278.40013695,65428818,1582,1580,1576,1574,0,0,0,0,0,0,0,0,0,0
1682339278.50009704,65528778,1582,1581,1576,1575,0,0,0,0,0,0,0,0,0,0
1682339278.60005689,65628738,1581,1580,1575,1576,0,0,0,0,0,0,0,0,0,0
1682339278.70001698,65728698,1580,1581,1576,1577,0,0,0,0,0,0,0,0,0,0
1682339278.79997706,65828658,1580,1580,1577,1578,0,0,0,0,0,0,0,0,0,0
1682339278.89993691,65928618,1579,1579,1578,1579,0,0,0,0,0,0,0,0,0,0
1682339278.99989700,66028578,1578,1578,1579,1579,0,0,0,0,0,0,0,0,0,0
1682339279.09985685,66128538,1578,1578,1580,1580,0,0,0,0,0,0,0,0,0,0
1682339279.19981694,66228498,1578,1579,1581,1580,0,0,0,0,0,0,0,0,0,0
1682339279.29977703,66328458,1578,1579,1581,1581,0,0,0,0,0,0,0,0,0,0
1682339279.39973688,66428418,1579,1579,1581,1581,0,0,0,0,0,0,0,0,0,0
1682339279.49969697,66528378,1579,1579,1581,1581,0,0,0,0,0,0,0,0,0,0
1682339279.59965706,66628338,1580,1579,1581,1581,0,0,0,0,0,0,0,0,0,0
1682339279.69961691,66728298,1580,1580,1581,1581,0,0,0,0,0,0,0,0,0,0
1682339279.79957700,66828258,1581,1580,1581,1581,0,0,0,0,0,0,0,0,0,0
1682339279.89953685,66928218,1581,1581,1581,1581,0,0,0,0,0,0,0,0,0,0
1682339279.99949694,67028178,1581,1581,1580,1580,0,0,0,0,0,0,0,0,0,0
1682339280.10029006,67128971,1581,1582,1584,1576,0,0,0,0,0,0,0,0,0,0
1682339280.20024991,67228931,1581,1584,1586,1571,0,0,0,0,0,0,0,0,0,0
1682339280.30021000,67328891,1581,1584,1580,1571,0,0,0,0,0,0,0,0,0,0
1682339280.40016985,67428851,1581,1583,1571,1571,0,0,0,0,0,0,0,0,0,0
1682339280.50012994,67528811,1579,1581,1561,1568,0,0,0,0,0,0,0,0,0,0
1682339280.60009003,67628771,1579,1580,1556,1563,0,0,0,0,0,0,0,0,0,0
1682339280.70004988,67728731,1581,1580,1553,1559,0,0,0,0,0,0,0,0,0,0
1682339280.80000997,67828691,1582,1580,1553,1555,0,0,0,0,0,0,0,0,0,0
1682339280.89997005,67928651,1580,1578,1552,1551,0,0,0,0,0,0,0,0,0,0
1682339280.99992990,68028611,1581,1580,1555,1552,0,0,0,0,0,0,0,0,0,0
1682339281.09988999,68128571,1579,1579,1555,1552,0,0,0,0,0,0,0,0,0,0
1682339281.19984984,68228531,1577,1578,1554,1552,0,0,0,0,0,0,0,0,0,0
1682339281.29980993,68328491,1577,1579,1555,1554,0,0,0,0,0,0,0,0,0,0
1682339281.39977002,68428451,1576,1578,1553,1553,0,0,0,0,0,0,0,0,0,0
1682339281.49972987,68528411,1577,1578,1553,1553,0,0,0,0,0,0,0,0,0,0
1682339281.59968996,68628371,1577,1578,1550,1551,0,0,0,0,0,0,0,0,0,0
1682339281.69965005,68728331,1578,1579,1548,1549,0,0,0,0,0,0,0,0,0,0
1682339281.79960990,68828291,1579,1580,1546,1546,0,0,0,0,0,0,0,0,0,0
1682339281.89956999,68928251,1582,1582,1544,1544,0,0,0,0,0,0,0,0,0,0
1682339281.99953008,69028211,1584,1584,1543,1542,0,0,0,0,0,0,0,0,0,0
1682339282.09948993,69128171,1588,1588,1542,1542,0,0,0,0,0,0,0,0,0,0
1682339282.20028305,69228964,1589,1590,1540,1541,0,0,0,0,0,0,0,0,0,0
1682339282.30024290,69328924,1591,1592,1539,1540,0,0,0,0,0,0,0,0,0,0
1682339282.40020299,69428884,1593,1593,1540,1542,0,0,0,0,0,0,0,0,0,0
1682339282.50016308,69528844,1591,1591,1541,1543,0,0,0,0,0,0,0,0,0,0
1682339282.60012293,69628804,1589,1587,1546,1548,0,0,0,0,0,0,0,0,0,0
1682339282.70008302,69728764,1585,1581,1553,1556,0,0,0,0,0,0,0,0,0,0
1682339282.80004287,69828724,1578,1574,1564,1566,0,0,0,0,0,0,0,0,0,0
1682339282.90000296,69928684,1569,1564,1574,1575,0,0,0,0,0,0,0,0,0,0
1682339282.99996305,70028644,1559,1556,1585,1586,0,0,0,0,0,0,0,0,0,0
1682339283.09992290,70128604,1550,1548,1595,1595,0,0,0,0,0,0,0,0,0,0
1682339283.19988298,70228564,1544,1544,1605,1604,0,0,0,0,0,0,0,0,0,0
1682339283.29984307,70328524,1539,1539,1609,1608,0,0,0,0,0,0,0,0,0,0
1682339283.39980292,70428484,1536,1538,1610,1609,0,0,0,0,0,0,0,0,0,0
1682339283.49976301,70528444,1538,1540,1610,1610,0,0,0,0,0,0,0,0,0,0
1682339283.59972286,70628404,1543,1544,1607,1607,0,0,0,0,0,0,0,0,0,0
1682339283.69968295,70728364,1549,1551,1603,1602,0,0,0,0,0,0,0,0,0,0
1682339283.79964304,70828324,1556,1557,1596,1596,0,0,0,0,0,0,0,0,0,0
1682339283.89960289,70928284,1564,1565,1590,1590,0,0,0,0,0,0,0,0,0,0
1682339283.99956298,71028244,1571,1571,1584,1583,0,0,0,0,0,0,0,0,0,0
1682339284.09952307,71128204,1577,1576,1578,1578,0,0,0,0,0,0,0,0,0,0
1682339284.19948292,71228164,1582,1581,1574,1574,0,0,0,0,0,0,0,0,0,0
1682339284.30027604,71328957,1585,1584,1571,1571,0,0,0,0,0,0,0,0,0,0
1682339284.40023589,71428917,1587,1585,1570,1570,0,0,0,0,0,0,0,0,0,0
1682339284.50019598,71528877,1588,1586,1571,1570,0,0,0,0,0,0,0,0,0,0
1682339284.60015607,71628837,1586,1585,1571,1571,0,0,0,0,0,0,0,0,0,0
1682339284.70011592,71728797,1583,1582,1571,1572,0,0,0,0,0,0,0,0,0,0
1682339284.80007601,71828757,1580,1581,1574,1575,0,0,0,0,0,0,0,0,0,0
1682339284.90003586,71928717,1578,1578,1576,1576,0,0,0,0,0,0,0,0,0,0
1682339284.99999595,72028677,1576,1577,1580,1579,0,0,0,0,0,0,0,0,0,0
1682339285.09995604,72128637,1575,1576,1582,1582,0,0,0,0,0,0,0,0,0,0
1682339285.19991589,72228597,1574,1575,1583,1583,0,0,0,0,0,0,0,0,0,0
1682339285.29987597,72328557,1574,1575,1584,1584,0,0,0,0,0,0,0,0,0,0
1682339285.39983606,72428517,1573,1573,1583,1583,0,0,0,0,0,0,0,0,0,0
1682339285.49979591,72528477,1574,1575,1583,1583,0,0,0,0,0,0,0,0,0,0
1682339285.59975600,72628437,1576,1576,1583,1583,0,0,0,0,0,0,0,0,0,0
1682339285.69971585,72728397,1577,1577,1582,1582,0,0,0,0,0,0,0,0,0,0
1682339285.79967594,72828357,1578,1578,1581,1581,0,0,0,0,0,0,0,0,0,0
1682339285.89963603,72928317,1579,1579,1579,1580,0,0,0,0,0,0,0,0,0,0
1682339285.99959588,73028277,1579,1579,1578,1579,0,0,0,0,0,0,0,0,0,0
1682339286.09955597,73128237,1580,1579,1577,1577,0,0,0,0,0,0,0,0,0,0
1682339286.19951606,73228197,1581,1581,1578,1578,0,0,0,0,0,0,0,0,0,0
1682339286.29947591,73328157,1582,1581,1578,1578,0,0,0,0,0,0,0,0,0,0
1682339286.40026903,73428950,1581,1581,1578,1578,0,0,0,0,0,0,0,0,0,0
1682339286.50022888,73528910,1581,1581,1578,1578,0,0,0,0,0,0,0,0,0,0
1682339286.60018897,73628870,1582,1582,1579,1580,0,0,0,0,0,0,0,0,0,0
1682339286.70014906,73728830,1581,1581,1580,1580,0,0,0,0,0,0,0,0,0,0
1682339286.80010891,73828790,1581,1581,1580,1580,0,0,0,0,0,0,0,0,0,0
1682339286.90006900,73928750,1580,1580,1580,1580,0,0,0,0,0,0,0,0,0,0
1682339287.00002885,74028710,1581,1580,1581,1581,0,0,0,0,0,0,0,0,0,0
1682339287.09998894,74128670,1580,1580,1582,1581,0,0,0,0,0,0,0,0,0,0
1682339287.19994903,74228630,1580,1581,1582,1582,0,0,0,0,0,0,0,0,0,0
1682339287.29990888,74328590,1580,1580,1582,1582,0,0,0,0,0,0,0,0,0,0
1682339287.39986897,74428550,1580,1580,1581,1581,0,0,0,0,0,0,0,0,0,0
1682339287.49982905,74528510,1580,1581,1581,1581,0,0,0,0,0,0,0,0,0,0
1682339287.59978890,74628470,1581,1581,1582,1581,0,0,0,0,0,0,0,0,0,0
1682339287.69974899,74728430,1581,1580,1581,1581,0,0,0,0,0,0,0,0,0,0
1682339287.79970884,74828390,1581,1581,1581,1581,0,0,0,0,0,0,0,0,0,0
1682339287.89966893,74928350,1582,1582,1581,1581,0,0,0,0,0,0,0,0,0,0
1682339287.99962902,75028310,1581,1581,1580,1581,0,0,0,0,0,0,0,0,0,0
1682339288.09958887,75128270,1581,1581,1580,1580,0,0,0,0,0,0,0,0,0,0
1682339288.19954896,75228230,1581,1581,1581,1580,0,0,0,0,0,0,0,0,0,0
1682339288.29950905,75328190,1581,1583,1587,1573,0,0,0,0,0,0,0,0,0,0
1682339288.40030193,75428983,1581,1584,1584,1573,0,0,0,0,0,0,0,0,0,0
1682339288.50026202,75528943,1579,1582,1575,1572,0,0,0,0,0,0,0,0,0,0
1682339288.60022187,75628903,1578,1580,1567,1571,0,0,0,0,0,0,0,0,0,0
1682339288.70018196,75728863,1578,1580,1560,1567,0,0,0,0,0,0,0,0,0,0
1682339288.80014205,75828823,1579,1579,1557,1563,0,0,0,0,0,0,0,0,0,0
1682339288.90010190,75928783,1579,1578,1554,1558,0,0,0,0,0,0,0,0,0,0
1682339289.00006199,76028743,1580,1578,1555,1555,0,0,0,0,0,0,0,0,0,0
1682339289.10002208,76128703,1580,1578,1556,1554,0,0,0,0,0,0,0,0,0,0
1682339289.19998193,76228663,1578,1578,1555,1553,0,0,0,0,0,0,0,0,0,0
1682339289.29994202,76328623,1577,1578,1555,1553,0,0,0,0,0,0,0,0,0,0
1682339289.39990187,76428583,1575,1577,1554,1553,0,0,0,0,0,0,0,0,0,0
1682339289.49986196,76528543,1575,1577,1554,1554,0,0,0,0,0,0,0,0,0,0
1682339289.59982204,76628503,1575,1576,1553,1553,0,0,0,0,0,0,0,0,0,0
1682339289.69978189,76728463,1575,1576,1551,1552,0,0,0,0,0,0,0,0,0,0
1682339289.79974198,76828423,1575,1576,1549,1549,0,0,0,0,0,0,0,0,0,0
1682339289.89970207,76928383,1578,1578,1547,1548,0,0,0,0,0,0,0,0,0,0
1682339289.99966192,77028343,1582,1582,1547,1547,0,0,0,0,0,0,0,0,0,0
1682339290.09962201,77128303,1584,1584,1544,1544,0,0,0,0,0,0,0,0,0,0
1682339290.19958186,77228263,1586,1587,1542,1541,0,0,0,0,0,0,0,0,0,0
1682339290.29954195,77328223,1589,1590,1540,1540,0,0,0,0,0,0,0,0,0,0
1682339290.39950204,77428183,1591,1591,1538,1538,0,0,0,0,0,0,0,0,0,0
1682339290.50029492,77528976,1593,1593,1538,1539,0,0,0,0,0,0,0,0,0,0
1682339290.60025501,77628936,1594,1594,1538,1540,0,0,0,0,0,0,0,0,0,0
1682339290.70021486,77728896,1593,1593,1539,1541,0,0,0,0,0,0,0,0,0,0
1682339290.80017495,77828856,1591,1590,1542,1544,0,0,0,0,0,0,0,0,0,0
1682339290.90013504,77928816,1588,1585,1548,1551,0,0,0,0,0,0,0,0,0,0
1682339291.00009489,78028776,1581,1578,1556,1559,0,0,0,0,0,0,0,0,0,0
1682339291.10005498,78128736,1573,1569,1567,1569,0,0,0,0,0,0,0,0,0,0
1682339291.20001507,78228696,1563,1560,1579,1580,0,0,0,0,0,0,0,0,0,0
1682339291.29997492,78328656,1552,1549,1589,1590,0,0,0,0,0,0,0,0,0,0
1682339291.39993501,78428616,1544,1542,1600,1600,0,0,0,0,0,0,0,0,0,0
1682339291.49989486,78528576,1537,1537,1607,1607,0,0,0,0,0,0,0,0,0,0
1682339291.59985495,78628536,1532,1533,1611,1610,0,0,0,0,0,0,0,0,0,0
1682339291.69981503,78728496,1533,1534,1612,1611,0,0,0,0,0,0,0,0,0,0
1682339291.79977489,78828456,1535,1537,1609,1609,0,0,0,0,0,0,0,0,0,0
1682339291.89973497,78928416,1542,1543,1606,1605,0,0,0,0,0,0,0,0,0,0
1682339291.99969506,79028376,1549,1551,1600,1600,0,0,0,0,0,0,0,0,0,0
1682339292.09965491,79128336,1557,1558,1594,1593,0,0,0,0,0,0,0,0,0,0
1682339292.19961500,79228296,1566,1567,1588,1587,0,0,0,0,0,0,0,0,0,0
1682339292.29957485,79328256,1573,1573,1581,1579,0,0,0,0,0,0,0,0,0,0
1682339292.39953494,79428216,1579,1578,1575,1575,0,0,0,0,0,0,0,0,0,0
1682339292.49949503,79528176,1583,1582,1570,1571,0,0,0,0,0,0,0,0,0,0
1682339292.60028791,79628969,1585,1584,1567,1568,0,0,0,0,0,0,0,0,0,0
1682339292.70024800,79728929,1587,1586,1568,1568,0,0,0,0,0,0,0,0,0,0
1682339292.80020785,79828889,1586,1585,1568,1568,0,0,0,0,0,0,0,0,0,0
1682339292.90016794,79928849,1585,1584,1570,1570,0,0,0,0,0,0,0,0,0,0
1682339293.00012803,80028809,1582,1582,1572,1572,0,0,0,0,0,0,0,0,0,0
1682339293.10008788,80128769,1580,1580,1575,1575,0,0,0,0,0,0,0,0,0,0
1682339293.20004797,80228729,1578,1578,1578,1577,0,0,0,0,0,0,0,0,0,0
1682339293.30000806,80328689,1576,1576,1580,1580,0,0,0,0,0,0,0,0,0,0
1682339293.39996791,80428649,1574,1574,1582,1582,0,0,0,0,0,0,0,0,0,0
1682339293.49992800,80528609,1572,1573,1583,1583,0,0,0,0,0,0,0,0,0,0
1682339293.59988785,80628569,1573,1574,1584,1584,0,0,0,0,0,0,0,0,0,0
1682339293.69984794,80728529,1573,1574,1584,1584,0,0,0,0,0,0,0,0,0,0
1682339293.79980803,80828489,1573,1574,1582,1582,0,0,0,0,0,0,0,0,0,0
1682339293.89976788,80928449,1575,1575,1582,1582,0,0,0,0,0,0,0,0,0,0
1682339293.99972796,81028409,1578,1577,1582,1582,0,0,0,0,0,0,0,0,0,0
1682339294.09968805,81128369,1578,1578,1580,1580,0,0,0,0,0,0,0,0,0,0
1682339294.19964790,81228329,1579,1578,1579,1579,0,0,0,0,0,0,0,0,0,0
1682339294.29960799,81328289,1579,1579,1577,1577,0,0,0,0,0,0,0,0,0,0
1682339294.39956784,81428249,1581,1581,1578,1577,0,0,0,0,0,0,0,0,0,0
1682339294.49952793,81528209,1580,1581,1577,1577,0,0,0,0,0,0,0,0,0,0
1682339294.59948802,81628169,1581,1581,1577,1577,0,0,0,0,0,0,0,0,0,0
1682339294.70028090,81728962,1581,1580,1577,1577,0,0,0,0,0,0,0,0,0,0
1682339294.80024099,81828922,1582,1582,1579,1579,0,0,0,0,0,0,0,0,0,0
1682339294.90020084,81928882,1581,1581,1579,1579,0,0,0,0,0,0,0,0,0,0
1682339295.00016093,82028842,1580,1580,1579,1579,0,0,0,0,0,0,0,0,0,0
1682339295.10012102,82128802,1580,1580,1580,1579,0,0,0,0,0,0,0,0,0,0
1682339295.20008087,82228762,1580,1580,1580,1580,0,0,0,0,0,0,0,0,0,0
1682339295.30004096,82328722,1580,1579,1580,1581,0,0,0,0,0,0,0,0,0,0
1682339295.40000105,82428682,1580,1579,1581,1581,0,0,0,0,0,0,0,0,0,0
1682339295.49996090,82528642,1580,1580,1581,1581,0,0,0,0,0,0,0,0,0,0
1682339295.59992099,82628602,1579,1580,1581,1581,0,0,0,0,0,0,0,0,0,0
1682339295.69988108,82728562,1581,1581,1582,1582,0,0,0,0,0,0,0,0,0,0
1682339295.79984093,82828522,1580,1581,1582,1582,0,0,0,0,0,0,0,0,0,0
1682339295.89980102,82928482,1579,1579,1580,1580,0,0,0,0,0,0,0,0,0,0
1682339295.99976087,83028442,1581,1580,1581,1581,0,0,0,0,0,0,0,0,0,0
1682339296.09972095,83128402,1581,1581,1581,1580,0,0,0,0,0,0,0,0,0,0
1682339296.19968104,83228362,1581,1582,1586,1575,0,0,0,0,0,0,0,0,0,0
1682339296.29964089,83328322,1581,1582,1587,1573,0,0,0,0,0,0,0,0,0,0
1682339296.39960098,83428282,1580,1580,1581,1575,0,0,0,0,0,0,0,0,0,0
1682339296.49956107,83528242,1577,1576,1573,1576,0,0,0,0,0,0,0,0,0,0
1682339296.59952092,83628202,1573,1573,1568,1575,0,0,0,0,0,0,0,0,0,0
1682339296.69948101,83728162,1570,1570,1565,1572,0,0,0,0,0,0,0,0,0,0
1682339296.80027390,83828955,1568,1568,1565,1570,0,0,0,0,0,0,0,0,0,0
1682339296.90023398,83928915,1567,1567,1566,1567,0,0,0,0,0,0,0,0,0,0
1682339297.00019407,84028875,1566,1566,1566,1566,0,0,0,0,0,0,0,0,0,0
1682339297.10015392,84128835,1566,1565,1567,1565,0,0,0,0,0,0,0,0,0,0
1682339297.20011401,84228795,1565,1565,1567,1565,0,0,0,0,0,0,0,0,0,0
1682339297.30007386,84328755,1565,1564,1566,1564,0,0,0,0,0,0,0,0,0,0
1682339297.40003395,84428715,1564,1564,1565,1565,0,0,0,0,0,0,0,0,0,0
1682339297.49999404,84528675,1563,1563,1564,1564,0,0,0,0,0,0,0,0,0,0
1682339297.59995389,84628635,1562,1562,1563,1563,0,0,0,0,0,0,0,0,0,0
1682339297.69991398,84728595,1563,1563,1563,1564,0,0,0,0,0,0,0,0,0,0
1682339297.79987407,84828555,1562,1562,1562,1562,0,0,0,0,0,0,0,0,0,0
1682339297.89983392,84928515,1561,1562,1561,1561,0,0,0,0,0,0,0,0,0,0
1682339297.99979401,85028475,1562,1562,1562,1561,0,0,0,0,0,0,0,0,0,0
1682339298.09975386,85128435,1560,1560,1560,1559,0,0,0,0,0,0,0,0,0,0
1682339298.19971395,85228395,1559,1558,1559,1557,0,0,0,0,0,0,0,0,0,0
1682339298.29967403,85328355,1557,1557,1557,1556,0,0,0,0,0,0,0,0,0,0
1682339298.39963388,85428315,1557,1557,1557,1557,0,0,0,0,0,0,0,0,0,0
1682339298.49959397,85528275,1556,1556,1556,1555,0,0,0,0,0,0,0,0,0,0
1682339298.59955406,85628235,1557,1557,1558,1556,0,0,0,0,0,0,0,0,0,0
1682339298.69951391,85728195,1557,1556,1557,1556,0,0,0,0,0,0,0,0,0,0
1682339298.79947400,85828155,1557,1557,1558,1556,0,0,0,0,0,0,0,0,0,0
1682339298.90026689,85928948,1558,1558,1559,1556,0,0,0,0,0,0,0,0,0,0
1682339299.00022697,86028908,1558,1558,1559,1558,0,0,0,0,0,0,0,0,0,0
1682339299.10018706,86128868,1557,1557,1556,1559,0,0,0,0,0,0,0,0,0,0
1682339299.20014691,86228828,1559,1559,1556,1561,0,0,0,0,0,0,0,0,0,0
1682339299.30010700,86328788,1558,1558,1554,1561,0,0,0,0,0,0,0,0,0,0
1682339299.40006685,86428748,1555,1554,1551,1557,0,0,0,0,0,0,0,0,0,0
1682339299.50002694,86528708,1551,1551,1549,1552,0,0,0,0,0,0,0,0,0,0
1682339299.59998703,86628668,1546,1545,1545,1545,0,0,0,0,0,0,0,0,0,0
1682339299.69994688,86728628,1539,1539,1539,1538,0,0,0,0,0,0,0,0,0,0
1682339299.79990697,86828588,1531,1532,1532,1530,0,0,0,0,0,0,0,0,0,0
1682339299.89986706,86928548,1525,1525,1525,1525,0,0,0,0,0,0,0,0,0,0
1682339299.99982691,87028508,1522,1522,1522,1522,0,0,0,0,0,0,0,0,0,0
1682339300.09978700,87128468,1521,1521,1521,1522,0,0,0,0,0,0,0,0,0,0
1682339300.19974685,87228428,1523,1522,1522,1523,0,0,0,0,0,0,0,0,0,0
1682339300.29970694,87328388,1524,1524,1524,1525,0,0,0,0,0,0,0,0,0,0
1682339300.39966702,87428348,1528,1528,1528,1528,0,0,0,0,0,0,0,0,0,0
1682339300.49962687,87528308,1532,1532,1532,1533,0,0,0,0,0,0,0,0,0,0
1682339300.59958696,87628268,1537,1537,1537,1537,0,0,0,0,0,0,0,0,0,0
1682339300.69954705,87728228,1540,1540,1540,1540,0,0,0,0,0,0,0,0,0,0
1682339300.79950690,87828188,1542,1542,1542,1542,0,0,0,0,0,0,0,0,0,0
1682339300.90030003,87928981,1544,1544,1544,1544,0,0,0,0,0,0,0,0,0,0
1682339301.00025988,88028941,1544,1544,1545,1544,0,0,0,0,0,0,0,0,0,0
1682339301.10021996,88128901,1545,1545,1545,1545,0,0,0,0,0,0,0,0,0,0
1682339301.20018005,88228861,1545,1545,1545,1545,0,0,0,0,0,0,0,0,0,0
1682339301.30013990,88328821,1546,1546,1546,1546,0,0,0,0,0,0,0,0,0,0
1682339301.40009999,88428781,1546,1546,1546,1546,0,0,0,0,0,0,0,0,0,0
1682339301.50005984,88528741,1547,1547,1547,1547,0,0,0,0,0,0,0,0,0,0
1682339301.60001993,88628701,1546,1546,1546,1546,0,0,0,0,0,0,0,0,0,0
1682339301.69998002,88728661,1545,1545,1545,1545,0,0,0,0,0,0,0,0,0,0
1682339301.79993987,88828621,1545,1545,1545,1545,0,0,0,0,0,0,0,0,0,0
1682339301.89989996,88928581,1545,1545,1546,1545,0,0,0,0,0,0,0,0,0,0
1682339301.99986005,89028541,1545,1545,1545,1545,0,0,0,0,0,0,0,0,0,0
1682339302.09981990,89128501,1545,1544,1545,1544,0,0,0,0,0,0,0,0,0,0
1682339302.19977999,89228461,1544,1543,1544,1543,0,0,0,0,0,0,0,0,0,0
1682339302.29974008,89328421,1543,1544,1543,1544,0,0,0,0,0,0,0,0,0,0
1682339302.39969993,89428381,1544,1544,1544,1544,0,0,0,0,0,0,0,0,0,0
1682339302.49966002,89528341,1544,1544,1544,1544,0,0,0,0,0,0,0,0,0,0
1682339302.59961987,89628301,1544,1545,1544,1544,0,0,0,0,0,0,0,0,0,0
1682339302.69957995,89728261,1544,1544,1544,1544,0,0,0,0,0,0,0,0,0,0
1682339302.79954004,89828221,1544,1545,1544,1544,0,0,0,0,0,0,0,0,0,0
1682339302.89949989,89928181,1544,1543,1543,1543,0,0,0,0,0,0,0,0,0,0
1682339303.00029302,90028974,1544,1545,1544,1544,0,0,0,0,0,0,0,0,0,0
1682339303.10025287,90128934,1544,1544,1544,1544,0,0,0,0,0,0,0,0,0,0
1682339303.20021296,90228894,1545,1545,1545,1545,0,0,0,0,0,0,0,0,0,0
1682339303.30017304,90328854,1544,1544,1544,1545,0,0,0,0,0,0,0,0,0,0
1682339303.40013289,90428814,1545,1545,1545,1545,0,0,0,0,0,0,0,0,0,0
1682339303.50009298,90528774,1544,1544,1544,1544,0,0,0,0,0,0,0,0,0,0
1682339303.60005307,90628734,1545,1545,1545,1545,0,0,0,0,0,0,0,0,0,0
1682339303.70001292,90728694,1545,1545,1545,1546,0,0,0,0,0,0,0,0,0,0
1682339303.79997301,90828654,1545,1545,1545,1544,0,0,0,0,0,0,0,0,0,0
1682339303.89993286,90928614,1545,1545,1545,1545,0,0,0,0,0,0,0,0,0,0
1682339303.99989295,91028574,1544,1544,1544,1545,0,0,0,0,0,0,0,0,0,0
1682339304.09985304,91128534,1544,1544,1544,1544,0,0,0,0,0,0,0,0,0,0
1682339304.19981289,91228494,1544,1544,1544,1544,0,0,0,0,0,0,0,0,0,0
1682339304.29977298,91328454,1544,1544,1544,1544,0,0,0,0,0,0,0,0,0,0
1682339304.39973307,91428414,1544,1545,1544,1544,0,0,0,0,0,0,0,0,0,0
1682339304.49969292,91528374,1544,1544,1544,1545,0,0,0,0,0,0,0,0,0,0
1682339304.59965301,91628334,1544,1544,1544,1544,0,0,0,0,0,0,0,0,0,0
1682339304.69961286,91728294,1546,1545,1545,1546,0,0,0,0,0,0,0,0,0,0
1682339304.79957294,91828254,1545,1544,1545,1544,0,0,0,0,0,0,0,0,0,0
1682339304.89953303,91928214,1545,1544,1545,1544,0,0,0,0,0,0,0,0,0,0
1682339304.99949288,92028174,1544,1544,1544,1544,0,0,0,0,0,0,0,0,0,0
1682339305.10028601,92128967,1545,1545,1545,1545,0,0,0,0,0,0,0,0,0,0
1682339305.20024586,92228927,1544,1545,1545,1545,0,0,0,0,0,0,0,0,0,0
1682339305.30020595,92328887,1545,1545,1545,1545,0,0,0,0,0,0,0,0,0,0
1682339305.40016603,92428847,1544,1544,1544,1544,0,0,0,0,0,0,0,0,0,0
1682339305.50012589,92528807,1545,1544,1544,1544,0,0,0,0,0,0,0,0,0,0
1682339305.60008597,92628767,1545,1545,1545,1545,0,0,0,0,0,0,0,0,0,0
1682339305.70004606,92728727,1545,1544,1545,1544,0,0,0,0,0,0,0,0,0,0
1682339305.80000591,92828687,1544,1543,1544,1543,0,0,0,0,0,0,0,0,0,0
1682339305.89996600,92928647,1544,1544,1544,1544,0,0,0,0,0,0,0,0,0,0
1682339305.99992585,93028607,1544,1544,1544,1544,0,0,0,0,0,0,0,0,0,0
1682339306.09988594,93128567,1544,1543,1543,1543,0,0,0,0,0,0,0,0,0,0
1682339306.19984603,93228527,1543,1544,1543,1543,0,0,0,0,0,0,0,0,0,0
1682339306.29980588,93328487,1544,1543,1543,1544,0,0,0,0,0,0,0,0,0,0
1682339306.39976597,93428447,1544,1544,1544,1544,0,0,0,0,0,0,0,0,0,0
1682339306.49972606,93528407,1544,1544,1543,1544,0,0,0,0,0,0,0,0,0,0
1682339306.59968591,93628367,1544,1544,1544,1544,0,0,0,0,0,0,0,0,0,0
1682339306.69964600,93728327,1545,1545,1545,1545,0,0,0,0,0,0,0,0,0,0
1682339306.79960585,93828287,1544,1544,1545,1544,0,0,0,0,0,0,0,0,0,0
1682339306.89956594,93928247,1544,1544,1544,1544,0,0,0,0,0,0,0,0,0,0
1682339306.99952602,94028207,1544,1544,1544,1544,0,0,0,0,0,0,0,0,0,0
1682339307.09948587,94128167,1544,1544,1544,1544,0,0,0,0,0,0,0,0,0,0
1682339307.20027900,94228960,1544,1544,1544,1544,0,0,0,0,0,0,0,0,0,0
1682339307.30023885,94328920,1545,1544,1544,1545,0,0,0,0,0,0,0,0,0,0
1682339307.40019894,94428880,1543,1544,1543,1543,0,0,0,0,0,0,0,0,0,0
1682339307.50015903,94528840,1544,1544,1543,1544,0,0,0,0,0,0,0,0,0,0
1682339307.60011888,94628800,1544,1544,1544,1544,0,0,0,0,0,0,0,0,0,0
1682339307.70007896,94728760,1544,1544,1544,1544,0,0,0,0,0,0,0,0,0,0
1682339307.80003905,94828720,1544,1544,1544,1544,0,0,0,0,0,0,0,0,0,0
1682339307.89999890,94928680,1544,1543,1544,1544,0,0,0,0,0,0,0,0,0,0
1682339307.99995899,95028640,1544,1544,1544,1544,0,0,0,0,0,0,0,0,0,0
1682339308.09991884,95128600,1544,1544,1544,1544,0,0,0,0,0,0,0,0,0,0
1682339308.19987893,95228560,1544,1544,1544,1544,0,0,0,0,0,0,0,0,0,0
1682339308.29983902,95328520,1544,1544,1544,1544,0,0,0,0,0,0,0,0,0,0
1682339308.39979887,95428480,1543,1543,1543,1543,0,0,0,0,0,0,0,0,0,0
1682339308.49975896,95528440,1544,1543,1544,1544,0,0,0,0,0,0,0,0,0,0
1682339308.59971905,95628400,1544,1544,1544,1544,0,0,0,0,0,0,0,0,0,0
1682339308.69967890,95728360,1543,1543,1543,1543,0,0,0,0,0,0,0,0,0,0
1682339308.79963899,95828320,1543,1543,1543,1543,0,0,0,0,0,0,0,0,0,0
1682339308.89959908,95928280,1543,1543,1543,1543,0,0,0,0,0,0,0,0,0,0
1682339308.99955893,96028240,1544,1545,1545,1544,0,0,0,0,0,0,0,0,0,0
1682339309.09951901,96128200,1544,1544,1544,1544,0,0,0,0,0,0,0,0,0,0
1682339309.19947886,96228160,1544,1544,1544,1544,0,0,0,0,0,0,0,0,0,0
1682339309.30027199,96328953,1544,1544,1544,1544,0,0,0,0,0,0,0,0,0,0
1682339309.40023208,96428913,1544,1544,1544,1544,0,0,0,0,0,0,0,0,0,0
1682339309.50019193,96528873,1544,1544,1544,1544,0,0,0,0,0,0,0,0,0,0
1682339309.60015202,96628833,1544,1544,1544,1544,0,0,0,0,0,0,0,0,0,0
1682339309.70011187,96728793,1392,1390,1391,1391,0,0,0,0,0,0,0,0,0,0
1682339309.80007195,96828753,1265,1261,1263,1264,0,0,0,0,0,0,0,0,0,0
1682339309.90003204,96928713,1220,1216,1217,1219,0,0,0,0,0,0,0,0,0,0
1682339309.99999189,97028673,1201,1198,1199,1200,0,0,0,0,0,0,0,0,0,0
1682339310.09995198,97128633,1160,1156,1158,1159,0,0,0,0,0,0,0,0,0,0
1682339310.19991207,97228593,1153,1150,1152,1151,0,0,0,0,0,0,0,0,0,0
1682339310.29987192,97328553,1154,1150,1152,1152,0,0,0,0,0,0,0,0,0,0
1682339310.39983201,97428513,1183,1150,1150,1183,0,0,0,0,0,0,0,0,0,0
1682339310.49979186,97528473,1175,1150,1151,1174,0,0,0,0,0,0,0,0,0,0
1682339310.59975195,97628433,1172,1150,1151,1171,0,0,0,0,0,0,0,0,0,0
1682339310.69971204,97728393,1173,1150,1151,1172,0,0,0,0,0,0,0,0,0,0
1682339310.79967189,97828353,1175,1150,1152,1173,0,0,0,0,0,0,0,0,0,0
1682339310.89963198,97928313,1177,1150,1152,1175,0,0,0,0,0,0,0,0,0,0
1682339310.99959207,98028273,1178,1150,1152,1176,0,0,0,0,0,0,0,0,0,0
1682339311.09955192,98128233,1179,1150,1152,1178,0,0,0,0,0,0,0,0,0,0
1682339311.19951200,98228193,1166,1150,1151,1165,0,0,0,0,0,0,0,0,0,0
1682339311.30030489,98328986,1167,1150,1151,1166,0,0,0,0,0,0,0,0,0,0
1682339311.40026498,98428946,1168,1150,1151,1167,0,0,0,0,0,0,0,0,0,0
1682339311.50022507,98528906,1169,1150,1151,1168,0,0,0,0,0,0,0,0,0,0
1682339311.60018492,98628866,1169,1150,1152,1168,0,0,0,0,0,0,0,0,0,0
1682339311.70014501,98728826,1000,1000,1000,1000,0,0,0,0,0,0,0,0,0,0
1682339311.80010486,98828786,1000,1000,1000,1000,0,0,0,0,0,0,0,0,0,0
1682339311.90006495,98928746,1000,1000,1000,1000,0,0,0,0,0,0,0,0,0,0
1682339312.00002503,99028706,1000,1000,1000,1000,0,0,0,0,0,0,0,0,0,0
1682339312.09998488,99128666,1000,1000,1000,1000,0,0,0,0,0,0,0,0,0,0
1682339312.19994497,99228626,1000,1000,1000,1000,0,0,0,0,0,0,0,0,0,0
1682339312.29990506,99328586,1000,1000,1000,1000,0,0,0,0,0,0,0,0,0,0
1682339312.39986491,99428546,1000,1000,1000,1000,0,0,0,0,0,0,0,0,0,0
1682339312.49982500,99528506,1000,1000,1000,1000,0,0,0,0,0,0,0,0,0,0
1682339312.59978485,99628466,1000,1000,1000,1000,0,0,0,0,0,0,0,0,0,0
1682339312.69974494,99728426,1000,1000,1000,1000,0,0,0,0,0,0,0,0,0,0
1682339312.79970503,99828386,1000,1000,1000,1000,0,0,0,0,0,0,0,0,0,0
1682339312.89966488,99928346,1000,1000,1000,1000,0,0,0,0,0,0,0,0,0,0
1682339312.99962497,100028306,1000,1000,1000,1000,0,0,0,0,0,0,0,0,0,0
1682339313.09958506,100128266,1000,1000,1000,1000,0,0,0,0,0,0,0,0,0,0
1682339313.19954491,100228226,1000,1000,1000,1000,0,0,0,0,0,0,0,0,0,0
1682339313.29950500,100328186,1000,1000,1000,1000,0,0,0,0,0,0,0,0,0,0
1682339313.40029788,100428979,1000,1000,1000,1000,0,0,0,0,0,0,0,0,0,0
1682339313.50025797,100528939,1000,1000,1000,1000,0,0,0,0,0,0,0,0,0,0
1682339313.60021806,100628899,1000,1000,1000,1000,0,0,0,0,0,0,0,0,0,0
1682339313.70017791,100728859,1000,1000,1000,1000,0,0,0,0,0,0,0,0,0,0
1682339313.80013800,100828819,1000,1000,1000,1000,0,0,0,0,0,0,0,0,0,0
1682339313.90009785,100928779,1000,1000,1000,1000,0,0,0,0,0,0,0,0,0,0
1682339314.00005794,101028739,1000,1000,1000,1000,0,0,0,0,0,0,0,0,0,0
1682339314.10001802,101128699,1000,1000,1000,1000,0,0,0,0,0,0,0,0,0,0
1682339314.19997787,101228659,1000,1000,1000,1000,0,0,0,0,0,0,0,0,0,0
1682339314.29993796,101328619,1000,1000,1000,1000,0,0,0,0,0,0,0,0,0,0
1682339314.39989805,101428579,1000,1000,1000,1000,0,0,0,0,0,0,0,0,0,0
1682339314.49985790,101528539,1000,1000,1000,1000,0,0,0,0,0,0,0,0,0,0
1682339314.59981799,101628499,1000,1000,1000,1000,0,0,0,0,0,0,0,0,0,0
1682339314.69977784,101728459,1000,1000,1000,1000,0,0,0,0,0,0,0,0,0,0
1682339314.79973793,101828419,1000,1000,1000,1000,0,0,0,0,0,0,0,0,0,0
1682339314.89969802,101928379,1000,1000,1000,1000,0,0,0,0,0,0,0,0,0,0
1682339314.99965787,102028339,1000,1000,1000,1000,0,0,0,0,0,0,0,0,0,0
1682339315.09961796,102128299,1000,1000,1000,1000,0,0,0,0,0,0,0,0,0,0
1682339315.19957805,102228259,1000,1000,1000,1000,0,0,0,0,0,0,0,0,0,0
1682339315.29953790,102328219,1000,1000,1000,1000,0,0,0,0,0,0,0,0,0,0
1682339315.39949799,102428179,1000,1000,1000,1000,0,0,0,0,0,0,0,0,0,0
1682339315.50029087,102528972,1000,1000,1000,1000,0,0,0,0,0,0,0,0,0,0
1682339315.60025096,102628932,1000,1000,1000,1000,0,0,0,0,0,0,0,0,0,0
1682339315.70021105,102728892,1000,1000,1000,1000,0,0,0,0,0,0,0,0,0,0
1682339315.80017090,102828852,1000,1000,1000,1000,0,0,0,0,0,0,0,0,0,0
1682339315.90013099,102928812,1000,1000,1000,1000,0,0,0,0,0,0,0,0,0,0
1682339316.00009108,103028772,1000,1000,1000,1000,0,0,0,0,0,0,0,0,0,0
1682339316.10005093,103128732,1000,1000,1000,1000,0,0,0,0,0,0,0,0,0,0
1682339316.20001101,103228692,1000,1000,1000,1000,0,0,0,0,0,0,0,0,0,0
1682339316.29997087,103328652,1000,1000,1000,1000,0,0,0,0,0,0,0,0,0,0
1682339316.39993095,103428612,1000,1000,1000,1000,0,0,0,0,0,0,0,0,0,0
1682339316.49989104,103528572,1000,1000,1000,1000,0,0,0,0,0,0,0,0,0,0
1682339316.59985089,103628532,1000,1000,1000,1000,0,0,0,0,0,0,0,0,0,0
1682339316.69981098,103728492,1000,1000,1000,1000,0,0,0,0,0,0,0,0,0,0
1682339316.79977107,103828452,1000,1000,1000,1000,0,0,0,0,0,0,0,0,0,0
1682339316.89973092,103928412,1000,1000,1000,1000,0,0,0,0,0,0,0,0,0,0
1682339316.99969101,104028372,1000,1000,1000,1000,0,0,0,0,0,0,0,0,0,0
1682339317.09965086,104128332,1000,1000,1000,1000,0,0,0,0,0,0,0,0,0,0
1682339317.19961095,104228292,1000,1000,1000,1000,0,0,0,0,0,0,0,0,0,0
1682339317.29957104,104328252,1000,1000,1000,1000,0,0,0,0,0,0,0,0,0,0
1682339317.39953089,104428212,1000,1000,1000,1000,0,0,0,0,0,0,0,0,0,0
1682339317.49949098,104528172,1000,1000,1000,1000,0,0,0,0,0,0,0,0,0,0
1682339317.60028386,104628965,1000,1000,1000,1000,0,0,0,0,0,0,0,0,0,0
1682339317.70024395,104728925,1000,1000,1000,1000,0,0,0,0,0,0,0,0,0,0
1682339317.80020404,104828885,1000,1000,1000,1000,0,0,0,0,0,0,0,0,0,0
1682339317.90016389,104928845,1000,1000,1000,1000,0,0,0,0,0,0,0,0,0,0
1682339318.00012398,105028805,1000,1000,1000,1000,0,0,0,0,0,0,0,0,0,0
1682339318.10008407,105128765,1000,1000,1000,1000,0,0,0,0,0,0,0,0,0,0
1682339318.20004392,105228725,1000,1000,1000,1000,0,0,0,0,0,0,0,0,0,0
1682339318.30000401,105328685,1000,1000,1000,1000,0,0,0,0,0,0,0,0,0,0
1682339318.39996386,105428645,1000,1000,1000,1000,0,0,0,0,0,0,0,0,0,0
1682339318.49992394,105528605,1000,1000,1000,1000,0,0,0,0,0,0,0,0,0,0
1682339318.59988403,105628565,1000,1000,1000,1000,0,0,0,0,0,0,0,0,0,0
1682339318.69984388,105728525,1000,1000,1000,1000,0,0,0,0,0,0,0,0,0,0
1682339318.79980397,105828485,1000,1000,1000,1000,0,0,0,0,0,0,0,0,0,0
1682339318.89976406,105928445,1000,1000,1000,1000,0,0,0,0,0,0,0,0,0,0
1682339318.99972391,106028405,1000,1000,1000,1000,0,0,0,0,0,0,0,0,0,0
1682339319.09968400,106128365,1000,1000,1000,1000,0,0,0,0,0,0,0,0,0,0
1682339319.19964385,106228325,1000,1000,1000,1000,0,0,0,0,0,0,0,0,0,0
1682339319.29960394,106328285,1000,1000,1000,1000,0,0,0,0,0,0,0,0,0,0
1682339319.39956403,106428245,1000,1000,1000,1000,0,0,0,0,0,0,0,0,0,0
1682339319.49952388,106528205,1000,1000,1000,1000,0,0,0,0,0,0,0,0,0,0
1682339319.59948397,106628165,1000,1000,1000,1000,0,0,0,0,0,0,0,0,0,0
1682339319.70027685,106728958,1000,1000,1000,1000,0,0,0,0,0,0,0,0,0,0
1682339319.80023694,106828918,1000,1000,1000,1000,0,0,0,0,0,0,0,0,0,0
1682339319.90019703,106928878,1000,1000,1000,1000,0,0,0,0,0,0,0,0,0,0
1682339320.00015688,107028838,1000,1000,1000,1000,0,0,0,0,0,0,0,0,0,0
1682339320.10011697,107128798,1000,1000,1000,1000,0,0,0,0,0,0,0,0,0,0
1682339320.20007706,107228758,1000,1000,1000,1000,0,0,0,0,0,0,0,0,0,0
1682339320.30003691,107328718,1000,1000,1000,1000,0,0,0,0,0,0,0,0,0,0
1682339320.39999700,107428678,1000,1000,1000,1000,0,0,0,0,0,0,0,0,0,0
1682339320.49995685,107528638,1000,1000,1000,1000,0,0,0,0,0,0,0,0,0,0
1682339320.59991693,107628598,1000,1000,1000,1000,0,0,0,0,0,0,0,0,0,0
1682339320.69987702,107728558,1000,1000,1000,1000,0,0,0,0,0,0,0,0,0,0
1682339320.79983687,107828518,1000,1000,1000,1000,0,0,0,0,0,0,0,0,0,0
1682339320.89979696,107928478,1000,1000,1000,1000,0,0,0,0,0,0,0,0,0,0
1682339320.99975705,108028438,1000,1000,1000,1000,0,0,0,0,0,0,0,0,0,0
1682339321.09971690,108128398,1000,1000,1000,1000,0,0,0,0,0,0,0,0,0,0
1682339321.19967699,108228358,1000,1000,1000,1000,0,0,0,0,0,0,0,0,0,0
1682339321.29963708,108328318,1000,1000,1000,1000,0,0,0,0,0,0,0,0,0,0
1682339321.39959693,108428278,1000,1000,1000,1000,0,0,0,0,0,0,0,0,0,0
1682339321.49955702,108528238,1000,1000,1000,1000,0,0,0,0,0,0,0,0,0,0
1682339321.59951687,108628198,1000,1000,1000,1000,0,0,0,0,0,0,0,0,0,0
1682339321.69947696,108728158,1000,1000,1000,1000,0,0,0,0,0,0,0,0,0,0
1682339321.80026984,108828951,1000,1000,1000,1000,0,0,0,0,0,0,0,0,0,0
1682339321.90022993,108928911,1000,1000,1000,1000,0,0,0,0,0,0,0,0,0,0
1682339322.00019002,109028871,1000,1000,1000,1000,0,0,0,0,0,0,0,0,0,0
1682339322.10014987,109128831,1000,1000,1000,1000,0,0,0,0,0,0,0,0,0,0
1682339322.20010996,109228791,1000,1000,1000,1000,0,0,0,0,0,0,0,0,0,0
1682339322.30007005,109328751,1000,1000,1000,1000,0,0,0,0,0,0,0,0,0,0
1682339322.40002990,109428711,1000,1000,1000,1000,0,0,0,0,0,0,0,0,0,0
1682339322.49998999,109528671,1000,1000,1000,1000,0,0,0,0,0,0,0,0,0,0
1682339322.59995008,109628631,1000,1000,1000,1000,0,0,0,0,0,0,0,0,0,0
1682339322.69990993,109728591,1000,1000,1000,1000,0,0,0,0,0,0,0,0,0,0
1682339322.79987001,109828551,1000,1000,1000,1000,0,0,0,0,0,0,0,0,0,0
1682339322.89982986,109928511,1000,1000,1000,1000,0,0,0,0,0,0,0,0,0,0
1682339322.99978995,110028471,1000,1000,1000,1000,0,0,0,0,0,0,0,0,0,0
1682339323.09975004,110128431,1000,1000,1000,1000,0,0,0,0,0,0,0,0,0,0
1682339323.19970989,110228391,1000,1000,1000,1000,0,0,0,0,0,0,0,0,0,0
1682339323.29966998,110328351,1000,1000,1000,1000,0,0,0,0,0,0,0,0,0,0
1682339323.39963007,110428311,1000,1000,1000,1000,0,0,0,0,0,0,0,0,0,0
1682339323.49958992,110528271,1000,1000,1000,1000,0,0,0,0,0,0,0,0,0,0
1682339323.59955001,110628231,1000,1000,1000,1000,0,0,0,0,0,0,0,0,0,0
1682339323.69950986,110728191,1000,1000,1000,1000,0,0,0,0,0,0,0,0,0,0
1682339323.80030298,110828984,1000,1000,1000,1000,0,0,0,0,0,0,0,0,0,0
1682339323.90026307,110928944,1000,1000,1000,1000,0,0,0,0,0,0,0,0,0,0
1682339324.00022292,111028904,1000,1000,1000,1000,0,0,0,0,0,0,0,0,0,0
1682339324.10018301,111128864,1000,1000,1000,1000,0,0,0,0,0,0,0,0,0,0
1682339324.20014286,111228824,1000,1000,1000,1000,0,0,0,0,0,0,0,0,0,0
1682339324.30010295,111328784,1000,1000,1000,1000,0,0,0,0,0,0,0,0,0,0
1682339324.40006304,111428744,1000,1000,1000,1000,0,0,0,0,0,0,0,0,0,0
1682339324.50002289,111528704,1000,1000,1000,1000,0,0,0,0,0,0,0,0,0,0
1682339324.59998298,111628664,1000,1000,1000,1000,0,0,0,0,0,0,0,0,0,0
1682339324.69994307,111728624,1000,1000,1000,1000,0,0,0,0,0,0,0,0,0,0
1682339324.79990292,111828584,1000,1000,1000,1000,0,0,0,0,0,0,0,0,0,0
1682339324.89986300,111928544,1000,1000,1000,1000,0,0,0,0,0,0,0,0,0,0
1682339324.99982285,112028504,1000,1000,1000,1000,0,0,0,0,0,0,0,0,0,0
1682339325.09978294,112128464,1000,1000,1000,1000,0,0,0,0,0,0,0,0,0,0
1682339325.19974303,112228424,1000,1000,1000,1000,0,0,0,0,0,0,0,0,0,0
1682339325.29970288,112328384,1000,1000,1000,1000,0,0,0,0,0,0,0,0,0,0
1682339325.39966297,112428344,1000,1000,1000,1000,0,0,0,0,0,0,0,0,0,0
1682339325.49962306,112528304,1000,1000,1000,1000,0,0,0,0,0,0,0,0,0,0
1682339325.59958291,112628264,1000,1000,1000,1000,0,0,0,0,0,0,0,0,0,0
1682339325.69954300,112728224,1000,1000,1000,1000,0,0,0,0,0,0,0,0,0,0
1682339325.79950285,112828184,1000,1000,1000,1000,0,0,0,0,0,0,0,0,0,0
1682339325.90029597,112928977,1000,1000,1000,1000,0,0,0,0,0,0,0,0,0,0
1682339326.00025606,113028937,1000,1000,1000,1000,0,0,0,0,0,0,0,0,0,0
1682339326.10021591,113128897,1000,1000,1000,1000,0,0,0,0,0,0,0,0,0,0
1682339326.20017600,113228857,1000,1000,1000,1000,0,0,0,0,0,0,0,0,0,0
1682339326.30013585,113328817,1000,1000,1000,1000,0,0,0,0,0,0,0,0,0,0
1682339326.40009594,113428777,1000,1000,1000,1000,0,0,0,0,0,0,0,0,0,0
1682339326.50005603,113528737,1000,1000,1000,1000,0,0,0,0,0,0,0,0,0,0
1682339326.60001588,113628697,1000,1000,1000,1000,0,0,0,0,0,0,0,0,0,0
