TimeUS,M1,M2,M3,M4,TimeUS,C1,C2,C3,C4
33988899,1000,1000,1000,1000,34028883,1000,1000,1000,1000
33991398,1000,1000,1000,1000,34128843,1000,1000,1000,1000
33993897,1000,1000,1000,1000,34228803,1000,1000,1000,1000
33996396,1000,1000,1000,1000,34328763,1000,1000,1000,1000
33998895,1000,1000,1000,1000,34428723,1000,1000,1000,1000
34001394,1000,1000,1000,1000,34528683,1000,1000,1000,1000
34003893,1000,1000,1000,1000,34628643,1000,1000,1000,1000
34006392,1000,1000,1000,1000,34728603,1000,1000,1000,1000
34008891,1000,1000,1000,1000,34828563,1000,1000,1000,1000
34011390,1000,1000,1000,1000,34928523,1000,1000,1000,1000
34013889,1000,1000,1000,1000,35028483,1000,1000,1000,1000
34016388,1000,1000,1000,1000,35128443,1000,1000,1000,1000
34018887,1000,1000,1000,1000,35228403,1000,1000,1000,1000
34021386,1000,1000,1000,1000,35328363,1000,1000,1000,1000
34023885,1000,1000,1000,1000,35428323,1000,1000,1000,1000
34026384,1000,1000,1000,1000,35528283,1000,1000,1000,1000
34028883,1000,1000,1000,1000,35628243,1000,1000,1000,1000
34031382,1000,1000,1000,1000,35728203,1000,1000,1000,1000
34033881,1000,1000,1000,1000,35828163,1000,1000,1000,1000
34036380,1000,1000,1000,1000,35928956,1000,1000,1000,1000
34038879,1000,1000,1000,1000,36028916,1000,1000,1000,1000
34041378,1000,1000,1000,1000,36128876,1000,1000,1000,1000
34043877,1000,1000,1000,1000,36228836,1000,1000,1000,1000
34046376,1000,1000,1000,1000,36328796,1000,1000,1000,1000
34048875,1000,1000,1000,1000,36428756,1000,1000,1000,1000
34051374,1000,1000,1000,1000,36528716,1000,1000,1000,1000
34053873,1000,1000,1000,1000,36628676,1000,1000,1000,1000
34056372,1000,1000,1000,1000,36728636,1000,1000,1000,1000
34058871,1000,1000,1000,1000,36828596,1000,1000,1000,1000
34061370,1000,1000,1000,1000,36928556,1000,1000,1000,1000
34063869,1000,1000,1000,1000,37028516,1000,1000,1000,1000
34066368,1000,1000,1000,1000,37128476,1000,1000,1000,1000
34068867,1000,1000,1000,1000,37228436,1000,1000,1000,1000
34071366,1000,1000,1000,1000,37328396,1000,1000,1000,1000
34073865,1000,1000,1000,1000,37428356,1000,1000,1000,1000
34076364,1000,1000,1000,1000,37528316,1000,1000,1000,1000
34078863,1000,1000,1000,1000,37628276,1000,1000,1000,1000
34081362,1000,1000,1000,1000,37728236,1000,1000,1000,1000
34083861,1000,1000,1000,1000,37828196,1000,1000,1000,1000
34086360,1000,1000,1000,1000,37928156,1000,1000,1000,1000
34088859,1000,1000,1000,1000,38028949,1000,1000,1000,1000
34091358,1000,1000,1000,1000,38128909,1000,1000,1000,1000
34093857,1000,1000,1000,1000,38228869,1000,1000,1000,1000
34096356,1000,1000,1000,1000,38328829,1000,1000,1000,1000
34098855,1000,1000,1000,1000,38428789,1000,1000,1000,1000
34101354,1000,1000,1000,1000,38528749,1000,1000,1000,1000
34103853,1000,1000,1000,1000,38628709,1000,1000,1000,1000
34106352,1000,1000,1000,1000,38728669,1000,1000,1000,1000
34108851,1000,1000,1000,1000,38828629,1000,1000,1000,1000
34111350,1000,1000,1000,1000,38928589,1000,1000,1000,1000
34113849,1000,1000,1000,1000,39028549,1000,1000,1000,1000
34116348,1000,1000,1000,1000,39128509,1000,1000,1000,1000
34118847,1000,1000,1000,1000,39228469,1000,1000,1000,1000
34121346,1000,1000,1000,1000,39328429,1000,1000,1000,1000
34123845,1000,1000,1000,1000,39428389,1000,1000,1000,1000
34126344,1000,1000,1000,1000,39528349,1000,1000,1000,1000
34128843,1000,1000,1000,1000,39628309,1000,1000,1000,1000
34131342,1000,1000,1000,1000,39728269,1000,1000,1000,1000
34133841,1000,1000,1000,1000,39828229,1000,1000,1000,1000
34136340,1000,1000,1000,1000,39928189,1000,1000,1000,1000
34138839,1000,1000,1000,1000,40028982,1000,1000,1000,1000
34141338,1000,1000,1000,1000,40128942,1000,1000,1000,1000
34143837,1000,1000,1000,1000,40228902,1000,1000,1000,1000
34146336,1000,1000,1000,1000,40328862,1000,1000,1000,1000
34148835,1000,1000,1000,1000,40428822,1000,1000,1000,1000
34151334,1000,1000,1000,1000,40528782,1000,1000,1000,1000
34153833,1000,1000,1000,1000,40628742,1000,1000,1000,1000
34156332,1000,1000,1000,1000,40728702,1000,1000,1000,1000
34158831,1000,1000,1000,1000,40828662,1000,1000,1000,1000
34161330,1000,1000,1000,1000,40928622,1000,1000,1000,1000
34163829,1000,1000,1000,1000,41028582,1000,1000,1000,1000
34166328,1000,1000,1000,1000,41128542,1000,1000,1000,1000
34168827,1000,1000,1000,1000,41228502,1000,1000,1000,1000
34171326,1000,1000,1000,1000,41328462,1000,1000,1000,1000
34173825,1000,1000,1000,1000,41428422,1000,1000,1000,1000
34176324,1000,1000,1000,1000,41528382,1000,1000,1000,1000
34178823,1000,1000,1000,1000,41628342,1000,1000,1000,1000
34181322,1000,1000,1000,1000,41728302,1000,1000,1000,1000
34183821,1000,1000,1000,1000,41828262,1000,1000,1000,1000
34186320,1000,1000,1000,1000,41928222,1000,1000,1000,1000
34188819,1000,1000,1000,1000,42028182,1000,1000,1000,1000
34191318,1000,1000,1000,1000,42128975,1000,1000,1000,1000
34193817,1000,1000,1000,1000,42228935,1000,1000,1000,1000
34196316,1000,1000,1000,1000,42328895,1000,1000,1000,1000
34198815,1000,1000,1000,1000,42428855,1000,1000,1000,1000
34201314,1000,1000,1000,1000,42528815,1000,1000,1000,1000
34203813,1000,1000,1000,1000,42628775,1000,1000,1000,1000
34206312,1000,1000,1000,1000,42728735,1000,1000,1000,1000
34208811,1000,1000,1000,1000,42828695,1000,1000,1000,1000
34211310,1000,1000,1000,1000,42928655,1000,1000,1000,1000
34213809,1000,1000,1000,1000,43028615,1000,1000,1000,1000
34216308,1000,1000,1000,1000,43128575,1000,1000,1000,1000
34218807,1000,1000,1000,1000,43228535,1000,1000,1000,1000
34221306,1000,1000,1000,1000,43328495,1000,1000,1000,1000
34223805,1000,1000,1000,1000,43428455,1000,1000,1000,1000
34226304,1000,1000,1000,1000,43528415,1000,1000,1000,1000
34228803,1000,1000,1000,1000,43628375,1000,1000,1000,1000
34231302,1000,1000,1000,1000,43728335,1000,1000,1000,1000
34233801,1000,1000,1000,1000,43828295,1000,1000,1000,1000
34236300,1000,1000,1000,1000,43928255,1000,1000,1000,1000
34238799,1000,1000,1000,1000,44028215,1000,1000,1000,1000
34241298,1000,1000,1000,1000,44128175,1000,1000,1000,1000
34243797,1000,1000,1000,1000,44228968,1000,1000,1000,1000
34246296,1000,1000,1000,1000,44328928,1000,1000,1000,1000
34248795,1000,1000,1000,1000,44428888,1000,1000,1000,1000
34251294,1000,1000,1000,1000,44528848,1000,1000,1000,1000
34253793,1000,1000,1000,1000,44628808,1000,1000,1000,1000
34256292,1000,1000,1000,1000,44728768,1000,1000,1000,1000
34258791,1000,1000,1000,1000,44828728,1000,1000,1000,1000
34261290,1000,1000,1000,1000,44928688,1000,1000,1000,1000
34263789,1000,1000,1000,1000,45028648,1000,1000,1000,1000
34266288,1000,1000,1000,1000,45128608,1000,1000,1000,1000
34268787,1000,1000,1000,1000,45228568,1000,1000,1000,1000
34271286,1000,1000,1000,1000,45328528,1000,1000,1000,1000
34273785,1000,1000,1000,1000,45428488,1000,1000,1000,1000
34276284,1000,1000,1000,1000,45528448,1000,1000,1000,1000
34278783,1000,1000,1000,1000,45628408,1000,1000,1000,1000
34281282,1000,1000,1000,1000,45728368,1000,1000,1000,1000
34283781,1000,1000,1000,1000,45828328,1000,1000,1000,1000
34286280,1000,1000,1000,1000,45928288,1000,1000,1000,1000
34288779,1000,1000,1000,1000,46028248,1000,1000,1000,1000
34291278,1000,1000,1000,1000,46128208,1000,1000,1000,1000
34293777,1000,1000,1000,1000,46228168,1000,1000,1000,1000
34296276,1000,1000,1000,1000,46328961,1000,1000,1000,1000
34298775,1000,1000,1000,1000,46428921,1000,1000,1000,1000
34301274,1000,1000,1000,1000,46528881,1000,1000,1000,1000
34303773,1000,1000,1000,1000,46628841,1000,1000,1000,1000
34306272,1000,1000,1000,1000,46728801,1000,1000,1000,1000
34308771,1000,1000,1000,1000,46828761,1023,1023,1023,1023
34311270,1000,1000,1000,1000,46928721,1053,1053,1053,1053
34313769,1000,1000,1000,1000,47028681,1083,1083,1083,1083
34316268,1000,1000,1000,1000,47128641,1113,1113,1113,1113
34318767,1000,1000,1000,1000,47228601,1143,1143,1143,1143
34321266,1000,1000,1000,1000,47328561,1351,1346,1346,1351
34323765,1000,1000,1000,1000,47428521,1542,1538,1538,1542
34326264,1000,1000,1000,1000,47528481,1695,1691,1691,1695
34328763,1000,1000,1000,1000,47628441,1826,1823,1823,1826
34331262,1000,1000,1000,1000,47728401,1880,1876,1876,1880
34333761,1000,1000,1000,1000,47828361,1841,1839,1839,1841
34336260,1000,1000,1000,1000,47928321,1715,1715,1715,1715
34338759,1000,1000,1000,1000,48028281,1642,1644,1644,1643
34341258,1000,1000,1000,1000,48128241,1630,1632,1632,1631
34343757,1000,1000,1000,1000,48228201,1641,1643,1642,1641
34346256,1000,1000,1000,1000,48328161,1647,1647,1647,1647
34348755,1000,1000,1000,1000,48428954,1643,1643,1643,1643
34351254,1000,1000,1000,1000,48528914,1634,1633,1632,1635
34353753,1000,1000,1000,1000,48628874,1609,1607,1599,1616
34356252,1000,1000,1000,1000,48728834,1599,1598,1590,1607
34358751,1000,1000,1000,1000,48828794,1595,1595,1591,1599
34361250,1000,1000,1000,1000,48928754,1596,1596,1596,1595
34363749,1000,1000,1000,1000,49028714,1598,1599,1602,1595
34366248,1000,1000,1000,1000,49128674,1586,1586,1598,1574
34368747,1000,1000,1000,1000,49228634,1571,1572,1591,1552
34371246,1000,1000,1000,1000,49328594,1562,1562,1573,1551
34373745,1000,1000,1000,1000,49428554,1551,1551,1550,1554
34376244,1000,1000,1000,1000,49528514,1544,1543,1533,1555
34378743,1000,1000,1000,1000,49628474,1537,1536,1524,1549
34381242,1000,1000,1000,1000,49728434,1531,1530,1521,1541
34383741,1000,1000,1000,1000,49828394,1527,1527,1522,1532
34386240,1000,1000,1000,1000,49928354,1527,1527,1526,1528
34388739,1000,1000,1000,1000,50028314,1529,1529,1531,1527
34391238,1000,1000,1000,1000,50128274,1532,1532,1535,1529
34393737,1000,1000,1000,1000,50228234,1535,1535,1539,1532
34396236,1000,1000,1000,1000,50328194,1540,1540,1543,1536
34398735,1000,1000,1000,1000,50428154,1543,1543,1546,1541
34401234,1000,1000,1000,1000,50528947,1546,1547,1547,1546
34403733,1000,1000,1000,1000,50628907,1550,1550,1549,1551
34406232,1000,1000,1000,1000,50728867,1552,1552,1551,1554
34408731,1000,1000,1000,1000,50828827,1552,1551,1554,1558
34411230,1000,1000,1000,1000,50928787,1551,1550,1561,1564
34413729,1000,1000,1000,1000,51028747,1553,1554,1563,1564
34416228,1000,1000,1000,1000,51128707,1557,1557,1563,1563
34418727,1000,1000,1000,1000,51228667,1562,1562,1565,1564
34421226,1000,1000,1000,1000,51328627,1564,1564,1564,1563
34423725,1000,1000,1000,1000,51428587,1567,1568,1564,1563
34426224,1000,1000,1000,1000,51528547,1570,1570,1564,1564
34428723,1000,1000,1000,1000,51628507,1572,1571,1565,1565
34431222,1000,1000,1000,1000,51728467,1573,1572,1566,1566
34433721,1000,1000,1000,1000,51828427,1574,1573,1567,1568
34436220,1000,1000,1000,1000,51928387,1573,1573,1568,1569
34438719,1000,1000,1000,1000,52028347,1574,1574,1570,1571
34441218,1000,1000,1000,1000,52128307,1573,1574,1572,1572
34443717,1000,1000,1000,1000,52228267,1574,1574,1574,1573
34446216,1000,1000,1000,1000,52328227,1575,1575,1576,1575
34448715,1000,1000,1000,1000,52428187,1574,1575,1577,1575
34451214,1000,1000,1000,1000,52528980,1574,1574,1577,1576
34453713,1000,1000,1000,1000,52628940,1575,1575,1578,1577
34456212,1000,1000,1000,1000,52728900,1575,1574,1576,1577
34458711,1000,1000,1000,1000,52828860,1576,1576,1577,1578
34461210,1000,1000,1000,1000,52928820,1576,1576,1577,1577
34463709,1000,1000,1000,1000,53028780,1576,1577,1577,1577
34466208,1000,1000,1000,1000,53128740,1577,1577,1577,1577
34468707,1000,1000,1000,1000,53228700,1576,1576,1576,1576
34471206,1000,1000,1000,1000,53328660,1577,1577,1577,1576
34473705,1000,1000,1000,1000,53428620,1577,1577,1576,1576
34476204,1000,1000,1000,1000,53528580,1578,1578,1577,1577
34478703,1000,1000,1000,1000,53628540,1578,1578,1577,1577
34481202,1000,1000,1000,1000,53728500,1579,1578,1578,1578
34483701,1000,1000,1000,1000,53828460,1579,1579,1578,1578
34486200,1000,1000,1000,1000,53928420,1578,1578,1578,1578
34488699,1000,1000,1000,1000,54028380,1577,1577,1577,1578
34491198,1000,1000,1000,1000,54128340,1579,1578,1579,1579
34493697,1000,1000,1000,1000,54228300,1578,1579,1579,1579
34496196,1000,1000,1000,1000,54328260,1578,1578,1578,1578
34498695,1000,1000,1000,1000,54428220,1578,1578,1579,1579
34501194,1000,1000,1000,1000,54528180,1579,1578,1579,1579
34503693,1000,1000,1000,1000,54628973,1578,1578,1578,1578
34506192,1000,1000,1000,1000,54728933,1579,1578,1578,1579
34508691,1000,1000,1000,1000,54828893,1580,1580,1580,1579
34511190,1000,1000,1000,1000,54928853,1580,1581,1581,1580
34513689,1000,1000,1000,1000,55028813,1581,1581,1581,1581
34516188,1000,1000,1000,1000,55128773,1581,1580,1580,1580
34518687,1000,1000,1000,1000,55228733,1580,1580,1580,1580
34521186,1000,1000,1000,1000,55328693,1580,1579,1579,1580
34523685,1000,1000,1000,1000,55428653,1580,1580,1580,1580
34526184,1000,1000,1000,1000,55528613,1579,1579,1579,1579
34528683,1000,1000,1000,1000,55628573,1580,1580,1580,1580
34531182,1000,1000,1000,1000,55728533,1579,1579,1579,1579
34533681,1000,1000,1000,1000,55828493,1579,1579,1579,1579
34536180,1000,1000,1000,1000,55928453,1579,1579,1579,1579
34538679,1000,1000,1000,1000,56028413,1581,1581,1581,1581
34541178,1000,1000,1000,1000,56128373,1580,1580,1580,1580
34543677,1000,1000,1000,1000,56228333,1580,1580,1580,1580
34546176,1000,1000,1000,1000,56328293,1580,1580,1580,1580
34548675,1000,1000,1000,1000,56428253,1581,1581,1581,1581
34551174,1000,1000,1000,1000,56528213,1581,1581,1581,1581
34553673,1000,1000,1000,1000,56628173,1581,1581,1581,1581
34556172,1000,1000,1000,1000,56728966,1581,1582,1581,1581
34558671,1000,1000,1000,1000,56828926,1582,1582,1582,1581
34561170,1000,1000,1000,1000,56928886,1582,1581,1582,1581
34563669,1000,1000,1000,1000,57028846,1581,1581,1582,1581
34566168,1000,1000,1000,1000,57128806,1580,1582,1588,1573
34568667,1000,1000,1000,1000,57228766,1580,1583,1585,1574
34571166,1000,1000,1000,1000,57328726,1578,1581,1576,1574
34573665,1000,1000,1000,1000,57428686,1577,1580,1567,1572
34576164,1000,1000,1000,1000,57528646,1576,1578,1560,1568
34578663,1000,1000,1000,1000,57628606,1576,1577,1556,1562
34581162,1000,1000,1000,1000,57728566,1579,1578,1556,1559
34583661,1000,1000,1000,1000,57828526,1580,1577,1556,1556
34586160,1000,1000,1000,1000,57928486,1578,1577,1556,1554
34588659,1000,1000,1000,1000,58028446,1578,1578,1557,1554
34591158,1000,1000,1000,1000,58128406,1576,1577,1556,1554
34593657,1000,1000,1000,1000,58228366,1575,1576,1555,1554
34596156,1000,1000,1000,1000,58328326,1574,1576,1554,1554
34598655,1000,1000,1000,1000,58428286,1574,1576,1553,1553
34601154,1000,1000,1000,1000,58528246,1576,1577,1552,1553
34603653,1000,1000,1000,1000,58628206,1577,1578,1550,1551
34606152,1000,1000,1000,1000,58728166,1577,1578,1547,1547
34608651,1000,1000,1000,1000,58828959,1579,1580,1545,1544
34611150,1000,1000,1000,1000,58928919,1583,1584,1543,1542
34613649,1000,1000,1000,1000,59028879,1586,1587,1540,1540
34616148,1000,1000,1000,1000,59128839,1589,1589,1537,1537
34618647,1000,1000,1000,1000,59228799,1591,1591,1534,1535
34621146,1000,1000,1000,1000,59328759,1594,1594,1534,1535
34623645,1000,1000,1000,1000,59428719,1595,1595,1534,1535
34626144,1000,1000,1000,1000,59528679,1594,1594,1535,1537
34628643,1000,1000,1000,1000,59628639,1594,1593,1540,1542
34631142,1000,1000,1000,1000,59728599,1590,1588,1544,1547
34633641,1000,1000,1000,1000,59828559,1584,1582,1552,1555
34636140,1000,1000,1000,1000,59928519,1577,1573,1561,1564
34638639,1000,1000,1000,1000,60028479,1567,1563,1572,1575
34641138,1000,1000,1000,1000,60128439,1555,1551,1584,1586
34643637,1000,1000,1000,1000,60228399,1544,1541,1596,1596
34646136,1000,1000,1000,1000,60328359,1535,1534,1605,1605
34648635,1000,1000,1000,1000,60428319,1530,1531,1612,1611
34651134,1000,1000,1000,1000,60528279,1528,1530,1615,1613
34653633,1000,1000,1000,1000,60628239,1530,1532,1613,1613
34656132,1000,1000,1000,1000,60728199,1535,1537,1610,1609
34658631,1000,1000,1000,1000,60828159,1543,1544,1604,1604
34661130,1000,1000,1000,1000,60928952,1552,1553,1597,1598
34663629,1000,1000,1000,1000,61028912,1561,1561,1590,1590
34666128,1000,1000,1000,1000,61128872,1569,1569,1582,1581
34668627,1000,1000,1000,1000,61228832,1577,1576,1576,1575
34671126,1000,1000,1000,1000,61328792,1583,1581,1572,1571
34673625,1000,1000,1000,1000,61428752,1585,1584,1567,1567
34676124,1000,1000,1000,1000,61528712,1587,1586,1566,1566
34678623,1000,1000,1000,1000,61628672,1588,1588,1567,1567
34681122,1000,1000,1000,1000,61728632,1587,1586,1568,1569
34683621,1000,1000,1000,1000,61828592,1584,1584,1570,1570
34686120,1000,1000,1000,1000,61928552,1582,1581,1573,1573
34688619,1000,1000,1000,1000,62028512,1534,1562,1530,1561
34691118,1000,1000,1000,1000,62128472,1575,1564,1578,1567
34693617,1000,1000,1000,1000,62228432,1610,1575,1618,1581
34696116,1000,1000,1000,1000,62328392,1633,1592,1643,1601
34698615,1000,1000,1000,1000,62428352,1637,1605,1648,1614
34701114,1000,1000,1000,1000,62528312,1623,1608,1633,1616
34703613,1000,1000,1000,1000,62628272,1600,1605,1610,1613
34706112,1000,1000,1000,1000,62728232,1581,1599,1592,1610
34708611,1000,1000,1000,1000,62828192,1568,1589,1583,1606
34711110,1000,1000,1000,1000,62928985,1563,1580,1580,1601
34713609,1000,1000,1000,1000,63028945,1565,1574,1582,1594
34716108,1000,1000,1000,1000,63128905,1570,1571,1583,1585
34718607,1000,1000,1000,1000,63228865,1576,1573,1583,1579
34721106,1000,1000,1000,1000,63328825,1581,1576,1581,1574
34723605,1000,1000,1000,1000,63428785,1584,1580,1577,1571
34726104,1000,1000,1000,1000,63528745,1585,1584,1573,1570
34728603,1000,1000,1000,1000,63628705,1584,1585,1569,1569
34731102,1000,1000,1000,1000,63728665,1583,1584,1566,1568
34733601,1000,1000,1000,1000,63828625,1582,1584,1566,1569
34736100,1000,1000,1000,1000,63928585,1581,1582,1567,1569
34738599,1000,1000,1000,1000,64028545,1581,1581,1568,1570
34741098,1000,1000,1000,1000,64128505,1578,1578,1569,1570
34743597,1000,1000,1000,1000,64228465,1577,1577,1572,1572
34746096,1000,1000,1000,1000,64328425,1577,1576,1574,1573
34748595,1000,1000,1000,1000,64428385,1575,1575,1575,1575
34751094,1000,1000,1000,1000,64528345,1574,1575,1577,1576
34753593,1000,1000,1000,1000,64628305,1574,1574,1578,1577
34756092,1000,1000,1000,1000,64728265,1575,1575,1579,1578
34758591,1000,1000,1000,1000,64828225,1575,1575,1579,1579
34761090,1000,1000,1000,1000,64928185,1575,1576,1579,1579
34763589,1000,1000,1000,1000,65028978,1576,1576,1579,1578
34766088,1000,1000,1000,1000,65128938,1576,1576,1583,1573
34768587,1000,1000,1000,1000,65228898,1577,1578,1583,1569
34771086,1000,1000,1000,1000,65328858,1576,1578,1576,1569
34773585,1000,1000,1000,1000,65428818,1575,1578,1567,1568
34776084,1000,1000,1000,1000,65528778,1574,1577,1560,1566
34778583,1000,1000,1000,1000,65628738,1575,1576,1554,1562
34781082,1000,1000,1000,1000,65728698,1576,1576,1552,1557
34783581,1000,1000,1000,1000,65828658,1577,1576,1551,1554
34786080,1000,1000,1000,1000,65928618,1579,1577,1553,1553
34788579,1000,1000,1000,1000,66028578,1579,1578,1553,1551
34791078,1000,1000,1000,1000,66128538,1578,1578,1554,1551
34793577,1000,1000,1000,1000,66228498,1577,1578,1554,1551
34796076,1000,1000,1000,1000,66328458,1576,1577,1552,1552
34798575,1000,1000,1000,1000,66428418,1576,1578,1553,1553
34801074,1000,1000,1000,1000,66528378,1576,1578,1551,1552
34803573,1000,1000,1000,1000,66628338,1577,1579,1551,1551
34806072,1000,1000,1000,1000,66728298,1578,1579,1549,1549
34808571,1000,1000,1000,1000,66828258,1580,1581,1548,1547
34811070,1000,1000,1000,1000,66928218,1582,1583,1547,1547
34813569,1000,1000,1000,1000,67028178,1584,1584,1544,1544
34816068,1000,1000,1000,1000,67128971,1587,1586,1543,1543
34818567,1000,1000,1000,1000,67228931,1588,1587,1542,1543
34821066,1000,1000,1000,1000,67328891,1589,1589,1543,1544
34823565,1000,1000,1000,1000,67428851,1588,1589,1543,1544
34826064,1000,1000,1000,1000,67528811,1587,1586,1543,1545
34828563,1000,1000,1000,1000,67628771,1585,1585,1546,1549
34831062,1000,1000,1000,1000,67728731,1583,1581,1551,1554
34833561,1000,1000,1000,1000,67828691,1578,1576,1558,1560
34836060,1000,1000,1000,1000,67928651,1573,1570,1565,1568
34838559,1000,1000,1000,1000,68028611,1566,1563,1575,1576
34841058,1000,1000,1000,1000,68128571,1557,1554,1582,1583
34843557,1000,1000,1000,1000,68228531,1550,1549,1591,1591
34846056,1000,1000,1000,1000,68328491,1544,1544,1597,1597
34848555,1000,1000,1000,1000,68428451,1540,1542,1602,1601
34851054,1000,1000,1000,1000,68528411,1540,1541,1604,1604
34853553,1000,1000,1000,1000,68628371,1542,1544,1606,1604
34856052,1000,1000,1000,1000,68728331,1545,1547,1603,1602
34858551,1000,1000,1000,1000,68828291,1551,1551,1599,1599
34861050,1000,1000,1000,1000,68928251,1557,1557,1595,1594
34863549,1000,1000,1000,1000,69028211,1562,1562,1589,1589
34866048,1000,1000,1000,1000,69128171,1568,1568,1584,1584
34868547,1000,1000,1000,1000,69228964,1574,1574,1580,1580
34871046,1000,1000,1000,1000,69328924,1578,1577,1575,1575
34873545,1000,1000,1000,1000,69428884,1581,1579,1572,1572
34876044,1000,1000,1000,1000,69528844,1583,1581,1570,1570
34878543,1000,1000,1000,1000,69628804,1583,1583,1569,1571
34881042,1000,1000,1000,1000,69728764,1583,1583,1570,1571
34883541,1000,1000,1000,1000,69828724,1582,1582,1571,1571
34886040,1000,1000,1000,1000,69928684,1581,1580,1573,1573
34888539,1000,1000,1000,1000,70028644,1579,1580,1575,1575
34891038,1000,1000,1000,1000,70128604,1578,1579,1578,1577
34893537,1000,1000,1000,1000,70228564,1577,1577,1580,1580
34896036,1000,1000,1000,1000,70328524,1576,1577,1581,1582
34898535,1000,1000,1000,1000,70428484,1575,1575,1582,1582
34901034,1000,1000,1000,1000,70528444,1575,1575,1583,1583
34903533,1000,1000,1000,1000,70628404,1575,1576,1583,1583
34906032,1000,1000,1000,1000,70728364,1576,1576,1583,1583
34908531,1000,1000,1000,1000,70828324,1576,1576,1582,1582
34911030,1000,1000,1000,1000,70928284,1576,1577,1581,1580
34913529,1000,1000,1000,1000,71028244,1578,1578,1580,1581
34916028,1000,1000,1000,1000,71128204,1578,1578,1579,1579
34918527,1000,1000,1000,1000,71228164,1580,1580,1579,1579
34921026,1000,1000,1000,1000,71328957,1580,1581,1579,1579
34923525,1000,1000,1000,1000,71428917,1581,1580,1578,1578
34926024,1000,1000,1000,1000,71528877,1581,1580,1577,1578
34928523,1000,1000,1000,1000,71628837,1580,1580,1578,1577
34931022,1000,1000,1000,1000,71728797,1580,1580,1577,1578
34933521,1000,1000,1000,1000,71828757,1580,1580,1578,1578
34936020,1000,1000,1000,1000,71928717,1579,1580,1578,1578
34938519,1000,1000,1000,1000,72028677,1580,1580,1579,1579
34941018,1000,1000,1000,1000,72128637,1580,1580,1579,1579
34943517,1000,1000,1000,1000,72228597,1581,1581,1582,1581
34946016,1000,1000,1000,1000,72328557,1581,1581,1582,1582
34948515,1000,1000,1000,1000,72428517,1581,1581,1582,1582
34951014,1000,1000,1000,1000,72528477,1580,1581,1582,1582
34953513,1000,1000,1000,1000,72628437,1580,1580,1581,1581
34956012,1000,1000,1000,1000,72728397,1580,1580,1581,1581
34958511,1000,1000,1000,1000,72828357,1580,1580,1581,1581
34961010,1000,1000,1000,1000,72928317,1580,1581,1581,1581
34963509,1000,1000,1000,1000,73028277,1580,1580,1581,1580
34966008,1000,1000,1000,1000,73128237,1580,1579,1580,1580
34968507,1000,1000,1000,1000,73228197,1580,1579,1579,1579
34971006,1000,1000,1000,1000,73328157,1580,1580,1579,1580
34973505,1000,1000,1000,1000,73428950,1581,1580,1580,1580
34976004,1000,1000,1000,1000,73528910,1581,1582,1584,1577
34978503,1000,1000,1000,1000,73628870,1581,1583,1587,1572
34981002,1000,1000,1000,1000,73728830,1580,1582,1581,1572
34983501,1000,1000,1000,1000,73828790,1578,1581,1573,1573
34986000,1000,1000,1000,1000,73928750,1576,1578,1564,1570
34988499,1000,1000,1000,1000,74028710,1577,1579,1559,1567
34990998,1000,1000,1000,1000,74128670,1577,1577,1556,1562
34993497,1000,1000,1000,1000,74228630,1579,1577,1555,1558
34995996,1000,1000,1000,1000,74328590,1579,1577,1555,1555
34998495,1000,1000,1000,1000,74428550,1579,1578,1555,1554
35000994,1000,1000,1000,1000,74528510,1578,1578,1555,1553
35003493,1000,1000,1000,1000,74628470,1577,1578,1555,1553
35005992,1000,1000,1000,1000,74728430,1576,1577,1555,1553
35008491,1000,1000,1000,1000,74828390,1575,1577,1554,1553
35010990,1000,1000,1000,1000,74928350,1576,1577,1553,1554
35013489,1000,1000,1000,1000,75028310,1577,1579,1553,1553
35015988,1000,1000,1000,1000,75128270,1577,1578,1550,1550
35018487,1000,1000,1000,1000,75228230,1578,1580,1548,1548
35020986,1000,1000,1000,1000,75328190,1581,1582,1547,1546
35023485,1000,1000,1000,1000,75428983,1583,1584,1544,1544
35025984,1000,1000,1000,1000,75528943,1586,1586,1542,1542
35028483,1000,1000,1000,1000,75628903,1589,1589,1540,1540
35030982,1000,1000,1000,1000,75728863,1591,1590,1538,1538
35033481,1000,1000,1000,1000,75828823,1592,1593,1537,1539
35035980,1000,1000,1000,1000,75928783,1593,1594,1537,1539
35038479,1000,1000,1000,1000,76028743,1594,1594,1539,1541
35040978,1000,1000,1000,1000,76128703,1592,1590,1541,1544
35043477,1000,1000,1000,1000,76228663,1588,1585,1547,1550
35045976,1000,1000,1000,1000,76328623,1582,1578,1555,1558
35048475,1000,1000,1000,1000,76428583,1574,1570,1566,1568
35050974,1000,1000,1000,1000,76528543,1564,1560,1576,1578
35053473,1000,1000,1000,1000,76628503,1554,1552,1589,1590
35055972,1000,1000,1000,1000,76728463,1544,1543,1599,1598
35058471,1000,1000,1000,1000,76828423,1537,1538,1607,1606
35060970,1000,1000,1000,1000,76928383,1534,1535,1612,1610
35063469,1000,1000,1000,1000,77028343,1534,1537,1615,1613
35065968,1000,1000,1000,1000,77128303,1536,1538,1612,1611
35068467,1000,1000,1000,1000,77228263,1541,1544,1609,1608
35070966,1000,1000,1000,1000,77328223,1548,1549,1603,1603
35073465,1000,1000,1000,1000,77428183,1555,1555,1596,1596
35075964,1000,1000,1000,1000,77528976,1563,1563,1590,1589
35078463,1000,1000,1000,1000,77628936,1571,1570,1583,1583
35080962,1000,1000,1000,1000,77728896,1578,1577,1578,1578
35083461,1000,1000,1000,1000,77828856,1582,1581,1572,1572
35085960,1000,1000,1000,1000,77928816,1585,1583,1568,1569
35088459,1000,1000,1000,1000,78028776,1587,1585,1566,1568
35090958,1000,1000,1000,1000,78128736,1587,1585,1566,1567
35093457,1000,1000,1000,1000,78228696,1586,1585,1568,1568
35095956,1000,1000,1000,1000,78328656,1585,1584,1571,1571
35098455,1000,1000,1000,1000,78428616,1582,1581,1573,1572
35100954,1000,1000,1000,1000,78528576,1580,1580,1576,1576
35103453,1000,1000,1000,1000,78628536,1577,1578,1579,1578
35105952,1000,1000,1000,1000,78728496,1575,1575,1580,1580
35108451,1000,1000,1000,1000,78828456,1574,1574,1582,1582
35110950,1000,1000,1000,1000,78928416,1574,1574,1584,1584
35113449,1000,1000,1000,1000,79028376,1573,1574,1584,1584
35115948,1000,1000,1000,1000,79128336,1574,1575,1584,1584
35118447,1000,1000,1000,1000,79228296,1574,1575,1584,1583
35120946,1000,1000,1000,1000,79328256,1575,1576,1583,1582
35123445,1000,1000,1000,1000,79428216,1577,1577,1582,1582
35125944,1000,1000,1000,1000,79528176,1578,1577,1579,1580
35128443,1000,1000,1000,1000,79628969,1579,1579,1579,1579
35130942,1000,1000,1000,1000,79728929,1580,1580,1578,1578
35133441,1000,1000,1000,1000,79828889,1581,1581,1578,1578
35135940,1000,1000,1000,1000,79928849,1582,1582,1578,1578
35138439,1000,1000,1000,1000,80028809,1582,1581,1577,1577
35140938,1000,1000,1000,1000,80128769,1582,1581,1578,1578
35143437,1000,1000,1000,1000,80228729,1582,1582,1578,1579
35145936,1000,1000,1000,1000,80328689,1581,1581,1579,1578
35148435,1000,1000,1000,1000,80428649,1580,1581,1579,1579
35150934,1000,1000,1000,1000,80528609,1580,1580,1579,1579
35153433,1000,1000,1000,1000,80628569,1579,1580,1579,1580
35155932,1000,1000,1000,1000,80728529,1579,1579,1580,1580
35158431,1000,1000,1000,1000,80828489,1580,1579,1581,1580
35160930,1000,1000,1000,1000,80928449,1579,1579,1580,1580
35163429,1000,1000,1000,1000,81028409,1579,1579,1581,1581
35165928,1000,1000,1000,1000,81128369,1580,1581,1581,1582
35168427,1000,1000,1000,1000,81228329,1580,1581,1582,1581
35170926,1000,1000,1000,1000,81328289,1581,1581,1582,1582
35173425,1000,1000,1000,1000,81428249,1581,1581,1581,1581
35175924,1000,1000,1000,1000,81528209,1581,1581,1584,1577
35178423,1000,1000,1000,1000,81628169,1582,1582,1587,1573
35180922,1000,1000,1000,1000,81728962,1580,1580,1583,1574
35183421,1000,1000,1000,1000,81828922,1577,1577,1576,1576
35185920,1000,1000,1000,1000,81928882,1573,1573,1569,1575
35188419,1000,1000,1000,1000,82028842,1570,1570,1565,1573
35190918,1000,1000,1000,1000,82128802,1568,1568,1564,1571
35193417,1000,1000,1000,1000,82228762,1567,1567,1565,1568
35195916,1000,1000,1000,1000,82328722,1567,1567,1566,1566
35198415,1000,1000,1000,1000,82428682,1566,1567,1567,1565
35200914,1000,1000,1000,1000,82528642,1565,1566,1567,1564
35203413,1000,1000,1000,1000,82628602,1564,1564,1566,1563
35205912,1000,1000,1000,1000,82728562,1564,1564,1565,1564
35208411,1000,1000,1000,1000,82828522,1564,1563,1565,1564
35210910,1000,1000,1000,1000,82928482,1563,1563,1564,1564
35213409,1000,1000,1000,1000,83028442,1562,1562,1563,1563
35215908,1000,1000,1000,1000,83128402,1562,1562,1562,1563
35218407,1000,1000,1000,1000,83228362,1561,1561,1561,1562
35220906,1000,1000,1000,1000,83328322,1561,1561,1561,1561
35223405,1000,1000,1000,1000,83428282,1561,1561,1561,1560
35225904,1000,1000,1000,1000,83528242,1560,1560,1561,1560
35228403,1000,1000,1000,1000,83628202,1560,1559,1561,1558
35230902,1000,1000,1000,1000,83728162,1558,1558,1558,1558
35233401,1000,1000,1000,1000,83828955,1557,1557,1557,1557
35235900,1000,1000,1000,1000,83928915,1558,1557,1558,1557
35238399,1000,1000,1000,1000,84028875,1558,1558,1559,1557
35240898,1000,1000,1000,1000,84128835,1558,1558,1558,1557
35243397,1000,1000,1000,1000,84228795,1558,1558,1559,1556
35245896,1000,1000,1000,1000,84328755,1558,1558,1559,1557
35248395,1000,1000,1000,1000,84428715,1559,1559,1558,1560
35250894,1000,1000,1000,1000,84528675,1560,1559,1557,1562
35253393,1000,1000,1000,1000,84628635,1560,1560,1557,1563
35255892,1000,1000,1000,1000,84728595,1561,1561,1558,1563
35258391,1000,1000,1000,1000,84828555,1561,1561,1560,1562
35260890,1000,1000,1000,1000,84928515,1561,1561,1561,1561
35263389,1000,1000,1000,1000,85028475,1561,1561,1562,1558
35265888,1000,1000,1000,1000,85128435,1560,1560,1561,1558
35268387,1000,1000,1000,1000,85228395,1560,1559,1559,1560
35270886,1000,1000,1000,1000,85328355,1558,1558,1555,1562
35273385,1000,1000,1000,1000,85428315,1555,1554,1552,1557
35275884,1000,1000,1000,1000,85528275,1549,1549,1548,1550
35278383,1000,1000,1000,1000,85628235,1543,1543,1543,1543
35280882,1000,1000,1000,1000,85728195,1537,1536,1537,1536
35283381,1000,1000,1000,1000,85828155,1529,1529,1530,1528
35285880,1000,1000,1000,1000,85928948,1523,1523,1524,1522
35288379,1000,1000,1000,1000,86028908,1520,1521,1521,1520
35290878,1000,1000,1000,1000,86128868,1519,1520,1519,1520
35293377,1000,1000,1000,1000,86228828,1521,1522,1521,1522
35295876,1000,1000,1000,1000,86328788,1523,1523,1523,1524
35298375,1000,1000,1000,1000,86428748,1526,1526,1526,1526
35300874,1000,1000,1000,1000,86528708,1531,1531,1531,1532
35303373,1000,1000,1000,1000,86628668,1536,1536,1535,1536
35305872,1000,1000,1000,1000,86728628,1539,1538,1539,1538
35308371,1000,1000,1000,1000,86828588,1541,1541,1542,1540
35310870,1000,1000,1000,1000,86928548,1544,1543,1544,1543
35313369,1000,1000,1000,1000,87028508,1545,1545,1545,1544
35315868,1000,1000,1000,1000,87128468,1546,1546,1547,1546
35318367,1000,1000,1000,1000,87228428,1547,1547,1547,1547
35320866,1000,1000,1000,1000,87328388,1547,1547,1547,1547
35323365,1000,1000,1000,1000,87428348,1546,1547,1547,1546
35325864,1000,1000,1000,1000,87528308,1547,1547,1547,1547
35328363,1000,1000,1000,1000,87628268,1547,1547,1547,1547
35330862,1000,1000,1000,1000,87728228,1546,1547,1547,1546
35333361,1000,1000,1000,1000,87828188,1546,1546,1546,1546
35335860,1000,1000,1000,1000,87928981,1546,1546,1545,1546
35338359,1000,1000,1000,1000,88028941,1545,1545,1545,1544
35340858,1000,1000,1000,1000,88128901,1545,1545,1545,1545
35343357,1000,1000,1000,1000,88228861,1545,1545,1545,1544
35345856,1000,1000,1000,1000,88328821,1545,1544,1544,1544
35348355,1000,1000,1000,1000,88428781,1544,1545,1545,1544
35350854,1000,1000,1000,1000,88528741,1544,1544,1544,1544
35353353,1000,1000,1000,1000,88628701,1544,1544,1544,1544
35355852,1000,1000,1000,1000,88728661,1543,1543,1543,1544
35358351,1000,1000,1000,1000,88828621,1544,1544,1544,1544
35360850,1000,1000,1000,1000,88928581,1544,1543,1544,1543
35363349,1000,1000,1000,1000,89028541,1543,1544,1544,1543
35365848,1000,1000,1000,1000,89128501,1544,1545,1545,1544
35368347,1000,1000,1000,1000,89228461,1543,1544,1544,1543
35370846,1000,1000,1000,1000,89328421,1544,1544,1544,1544
35373345,1000,1000,1000,1000,89428381,1544,1545,1544,1545
35375844,1000,1000,1000,1000,89528341,1544,1543,1543,1544
35378343,1000,1000,1000,1000,89628301,1544,1544,1544,1544
35380842,1000,1000,1000,1000,89728261,1544,1543,1544,1544
35383341,1000,1000,1000,1000,89828221,1544,1544,1544,1544
35385840,1000,1000,1000,1000,89928181,1544,1544,1544,1544
35388339,1000,1000,1000,1000,90028974,1544,1544,1544,1544
35390838,1000,1000,1000,1000,90128934,1544,1544,1544,1544
35393337,1000,1000,1000,1000,90228894,1544,1544,1545,1544
35395836,1000,1000,1000,1000,90328854,1544,1545,1544,1545
35398335,1000,1000,1000,1000,90428814,1544,1545,1544,1545
35400834,1000,1000,1000,1000,90528774,1545,1545,1545,1545
35403333,1000,1000,1000,1000,90628734,1545,1544,1545,1544
35405832,1000,1000,1000,1000,90728694,1543,1543,1544,1543
35408331,1000,1000,1000,1000,90828654,1544,1543,1543,1544
35410830,1000,1000,1000,1000,90928614,1544,1544,1543,1544
35413329,1000,1000,1000,1000,91028574,1544,1544,1544,1544
35415828,1000,1000,1000,1000,91128534,1544,1544,1544,1544
35418327,1000,1000,1000,1000,91228494,1543,1544,1543,1544
35420826,1000,1000,1000,1000,91328454,1544,1544,1544,1544
35423325,1000,1000,1000,1000,91428414,1543,1543,1544,1543
35425824,1000,1000,1000,1000,91528374,1545,1544,1544,1544
35428323,1000,1000,1000,1000,91628334,1544,1544,1543,1544
35430822,1000,1000,1000,1000,91728294,1543,1543,1543,1543
35433321,1000,1000,1000,1000,91828254,1543,1543,1543,1543
35435820,1000,1000,1000,1000,91928214,1544,1543,1543,1544
35438319,1000,1000,1000,1000,92028174,1543,1544,1543,1543
35440818,1000,1000,1000,1000,92128967,1544,1544,1544,1544
35443317,1000,1000,1000,1000,92228927,1544,1544,1544,1544
35445816,1000,1000,1000,1000,92328887,1545,1545,1545,1545
35448315,1000,1000,1000,1000,92428847,1544,1544,1544,1544
35450814,1000,1000,1000,1000,92528807,1545,1544,1544,1545
35453313,1000,1000,1000,1000,92628767,1544,1544,1544,1544
35455812,1000,1000,1000,1000,92728727,1545,1545,1545,1545
35458311,1000,1000,1000,1000,92828687,1544,1544,1544,1544
35460810,1000,1000,1000,1000,92928647,1545,1544,1545,1545
35463309,1000,1000,1000,1000,93028607,1545,1544,1545,1544
35465808,1000,1000,1000,1000,93128567,1545,1545,1545,1545
35468307,1000,1000,1000,1000,93228527,1545,1545,1545,1545
35470806,1000,1000,1000,1000,93328487,1545,1544,1544,1544
35473305,1000,1000,1000,1000,93428447,1545,1545,1545,1545
35475804,1000,1000,1000,1000,93528407,1545,1546,1545,1546
35478303,1000,1000,1000,1000,93628367,1545,1545,1545,1546
35480802,1000,1000,1000,1000,93728327,1546,1545,1545,1546
35483301,1000,1000,1000,1000,93828287,1544,1544,1544,1544
35485800,1000,1000,1000,1000,93928247,1545,1545,1545,1545
35488299,1000,1000,1000,1000,94028207,1545,1545,1545,1545
35490798,1000,1000,1000,1000,94128167,1546,1545,1545,1545
35493297,1000,1000,1000,1000,94228960,1545,1545,1545,1545
35495796,1000,1000,1000,1000,94328920,1544,1545,1544,1545
35498295,1000,1000,1000,1000,94428880,1545,1545,1545,1545
35500794,1000,1000,1000,1000,94528840,1544,1544,1544,1544
35503293,1000,1000,1000,1000,94628800,1544,1544,1544,1544
35505792,1000,1000,1000,1000,94728760,1545,1544,1544,1545
35508291,1000,1000,1000,1000,94828720,1544,1545,1545,1545
35510790,1000,1000,1000,1000,94928680,1544,1544,1544,1544
35513289,1000,1000,1000,1000,95028640,1544,1545,1544,1544
35515788,1000,1000,1000,1000,95128600,1544,1544,1544,1544
35518287,1000,1000,1000,1000,95228560,1544,1544,1544,1544
35520786,1000,1000,1000,1000,95328520,1544,1543,1544,1544
35523285,1000,1000,1000,1000,95428480,1544,1544,1544,1544
35525784,1000,1000,1000,1000,95528440,1545,1545,1545,1545
35528283,1000,1000,1000,1000,95628400,1545,1545,1545,1545
35530782,1000,1000,1000,1000,95728360,1475,1465,1476,1464
35533281,1000,1000,1000,1000,95828320,1342,1301,1343,1300
35535780,1000,1000,1000,1000,95928280,1290,1230,1290,1230
35538279,1000,1000,1000,1000,96028240,1273,1208,1274,1206
35540778,1000,1000,1000,1000,96128200,1251,1176,1252,1174
35543277,1000,1000,1000,1000,96228160,1235,1153,1237,1150
35545776,1000,1000,1000,1000,96328953,1180,1152,1181,1150
35548275,1000,1000,1000,1000,96428913,1179,1152,1181,1150
35550774,1000,1000,1000,1000,96528873,1180,1152,1181,1150
35553273,1000,1000,1000,1000,96628833,1181,1150,1167,1169
35555772,1000,1000,1000,1000,96728793,1181,1150,1173,1161
35558271,1000,1000,1000,1000,96828753,1181,1150,1175,1159
35560770,1000,1000,1000,1000,96928713,1181,1150,1175,1159
35563269,1000,1000,1000,1000,97028673,1181,1150,1174,1159
35565768,1000,1000,1000,1000,97128633,1181,1150,1174,1160
35568267,1000,1000,1000,1000,97228593,1181,1150,1173,1161
35570766,1000,1000,1000,1000,97328553,1181,1150,1172,1162
35573265,1000,1000,1000,1000,97428513,1181,1150,1179,1154
35575764,1000,1000,1000,1000,97528473,1181,1150,1178,1154
35578263,1000,1000,1000,1000,97628433,1181,1150,1178,1155
35580762,1000,1000,1000,1000,97728393,1181,1150,1177,1155
35583261,1000,1000,1000,1000,97828353,1088,1150,1086,1152
35585760,1000,1000,1000,1000,97928313,1000,1000,1000,1000
35588259,1000,1000,1000,1000,98028273,1000,1000,1000,1000
35590758,1000,1000,1000,1000,98128233,1000,1000,1000,1000
35593257,1000,1000,1000,1000,98228193,1000,1000,1000,1000
35595756,1000,1000,1000,1000,98328986,1000,1000,1000,1000
35598255,1000,1000,1000,1000,98428946,1000,1000,1000,1000
35600754,1000,1000,1000,1000,98528906,1000,1000,1000,1000
35603253,1000,1000,1000,1000,98628866,1000,1000,1000,1000
35605752,1000,1000,1000,1000,98728826,1000,1000,1000,1000
35608251,1000,1000,1000,1000,98828786,1000,1000,1000,1000
35610750,1000,1000,1000,1000,98928746,1000,1000,1000,1000
35613249,1000,1000,1000,1000,99028706,1000,1000,1000,1000
35615748,1000,1000,1000,1000,99128666,1000,1000,1000,1000
35618247,1000,1000,1000,1000,99228626,1000,1000,1000,1000
35620746,1000,1000,1000,1000,99328586,1000,1000,1000,1000
35623245,1000,1000,1000,1000,99428546,1000,1000,1000,1000
35625744,1000,1000,1000,1000,99528506,1000,1000,1000,1000
35628243,1000,1000,1000,1000,99628466,1000,1000,1000,1000
35630742,1000,1000,1000,1000,99728426,1000,1000,1000,1000
35633241,1000,1000,1000,1000,99828386,1000,1000,1000,1000
35635740,1000,1000,1000,1000,99928346,1000,1000,1000,1000
35638239,1000,1000,1000,1000,100028306,1000,1000,1000,1000
35640738,1000,1000,1000,1000,100128266,1000,1000,1000,1000
35643237,1000,1000,1000,1000,100228226,1000,1000,1000,1000
35645736,1000,1000,1000,1000,100328186,1000,1000,1000,1000
35648235,1000,1000,1000,1000,100428979,1000,1000,1000,1000
35650734,1000,1000,1000,1000,100528939,1000,1000,1000,1000
35653233,1000,1000,1000,1000,100628899,1000,1000,1000,1000
35655732,1000,1000,1000,1000,100728859,1000,1000,1000,1000
35658231,1000,1000,1000,1000,100828819,1000,1000,1000,1000
35660730,1000,1000,1000,1000,100928779,1000,1000,1000,1000
35663229,1000,1000,1000,1000,101028739,1000,1000,1000,1000
35665728,1000,1000,1000,1000,101128699,1000,1000,1000,1000
35668227,1000,1000,1000,1000,101228659,1000,1000,1000,1000
35670726,1000,1000,1000,1000,101328619,1000,1000,1000,1000
35673225,1000,1000,1000,1000,101428579,1000,1000,1000,1000
35675724,1000,1000,1000,1000,101528539,1000,1000,1000,1000
35678223,1000,1000,1000,1000,101628499,1000,1000,1000,1000
35680722,1000,1000,1000,1000,101728459,1000,1000,1000,1000
35683221,1000,1000,1000,1000,101828419,1000,1000,1000,1000
35685720,1000,1000,1000,1000,101928379,1000,1000,1000,1000
35688219,1000,1000,1000,1000,102028339,1000,1000,1000,1000
35690718,1000,1000,1000,1000,102128299,1000,1000,1000,1000
35693217,1000,1000,1000,1000,102228259,1000,1000,1000,1000
35695716,1000,1000,1000,1000,102328219,1000,1000,1000,1000
35698215,1000,1000,1000,1000,102428179,1000,1000,1000,1000
35700714,1000,1000,1000,1000,102528972,1000,1000,1000,1000
35703213,1000,1000,1000,1000,102628932,1000,1000,1000,1000
35705712,1000,1000,1000,1000,102728892,1000,1000,1000,1000
35708211,1000,1000,1000,1000,102828852,1000,1000,1000,1000
35710710,1000,1000,1000,1000,102928812,1000,1000,1000,1000
35713209,1000,1000,1000,1000,103028772,1000,1000,1000,1000
35715708,1000,1000,1000,1000,103128732,1000,1000,1000,1000
35718207,1000,1000,1000,1000,103228692,1000,1000,1000,1000
35720706,1000,1000,1000,1000,103328652,1000,1000,1000,1000
35723205,1000,1000,1000,1000,103428612,1000,1000,1000,1000
35725704,1000,1000,1000,1000,103528572,1000,1000,1000,1000
35728203,1000,1000,1000,1000,103628532,1000,1000,1000,1000
35730702,1000,1000,1000,1000,103728492,1000,1000,1000,1000
35733201,1000,1000,1000,1000,103828452,1000,1000,1000,1000
35735700,1000,1000,1000,1000,103928412,1000,1000,1000,1000
35738199,1000,1000,1000,1000,104028372,1000,1000,1000,1000
35740698,1000,1000,1000,1000,104128332,1000,1000,1000,1000
35743197,1000,1000,1000,1000,104228292,1000,1000,1000,1000
35745696,1000,1000,1000,1000,104328252,1000,1000,1000,1000
35748195,1000,1000,1000,1000,104428212,1000,1000,1000,1000
35750694,1000,1000,1000,1000,104528172,1000,1000,1000,1000
35753193,1000,1000,1000,1000,104628965,1000,1000,1000,1000
35755692,1000,1000,1000,1000,104728925,1000,1000,1000,1000
35758191,1000,1000,1000,1000,104828885,1000,1000,1000,1000
35760690,1000,1000,1000,1000,104928845,1000,1000,1000,1000
35763189,1000,1000,1000,1000,105028805,1000,1000,1000,1000
35765688,1000,1000,1000,1000,105128765,1000,1000,1000,1000
35768187,1000,1000,1000,1000,105228725,1000,1000,1000,1000
35770686,1000,1000,1000,1000,105328685,1000,1000,1000,1000
35773185,1000,1000,1000,1000,105428645,1000,1000,1000,1000
35775684,1000,1000,1000,1000,105528605,1000,1000,1000,1000
35778183,1000,1000,1000,1000,105628565,1000,1000,1000,1000
35780682,1000,1000,1000,1000,105728525,1000,1000,1000,1000
35783181,1000,1000,1000,1000,105828485,1000,1000,1000,1000
35785680,1000,1000,1000,1000,105928445,1000,1000,1000,1000
35788179,1000,1000,1000,1000,106028405,1000,1000,1000,1000
35790678,1000,1000,1000,1000,106128365,1000,1000,1000,1000
35793177,1000,1000,1000,1000,106228325,1000,1000,1000,1000
35795676,1000,1000,1000,1000,106328285,1000,1000,1000,1000
35798175,1000,1000,1000,1000,106428245,1000,1000,1000,1000
35800674,1000,1000,1000,1000,106528205,1000,1000,1000,1000
35803173,1000,1000,1000,1000,106628165,1000,1000,1000,1000
35805672,1000,1000,1000,1000,106728958,1000,1000,1000,1000
35808171,1000,1000,1000,1000,106828918,1000,1000,1000,1000
35810670,1000,1000,1000,1000,106928878,1000,1000,1000,1000
35813169,1000,1000,1000,1000,107028838,1000,1000,1000,1000
35815668,1000,1000,1000,1000,107128798,1000,1000,1000,1000
35818167,1000,1000,1000,1000,107228758,1000,1000,1000,1000
35820666,1000,1000,1000,1000,107328718,1000,1000,1000,1000
35823165,1000,1000,1000,1000,107428678,1000,1000,1000,1000
35825664,1000,1000,1000,1000,107528638,1000,1000,1000,1000
35828163,1000,1000,1000,1000,107628598,1000,1000,1000,1000
35830662,1000,1000,1000,1000,107728558,1000,1000,1000,1000
35833161,1000,1000,1000,1000,107828518,1000,1000,1000,1000
35835660,1000,1000,1000,1000,107928478,1000,1000,1000,1000
35838159,1000,1000,1000,1000,108028438,1000,1000,1000,1000
35840658,1000,1000,1000,1000,108128398,1000,1000,1000,1000
35843157,1000,1000,1000,1000,108228358,1000,1000,1000,1000
35845656,1000,1000,1000,1000,108328318,1000,1000,1000,1000
35848155,1000,1000,1000,1000,108428278,1000,1000,1000,1000
35850654,1000,1000,1000,1000,108528238,1000,1000,1000,1000
35853986,1000,1000,1000,1000,108628198,1000,1000,1000,1000
35856485,1000,1000,1000,1000,108728158,1000,1000,1000,1000
35858984,1000,1000,1000,1000,108828951,1000,1000,1000,1000
35861483,1000,1000,1000,1000,108928911,1000,1000,1000,1000
35863982,1000,1000,1000,1000,109028871,1000,1000,1000,1000
35866481,1000,1000,1000,1000,109128831,1000,1000,1000,1000
35868980,1000,1000,1000,1000,109228791,1000,1000,1000,1000
35871479,1000,1000,1000,1000,109328751,1000,1000,1000,1000
35873978,1000,1000,1000,1000,109428711,1000,1000,1000,1000
35876477,1000,1000,1000,1000,109528671,1000,1000,1000,1000
35878976,1000,1000,1000,1000,109628631,1000,1000,1000,1000
35881475,1000,1000,1000,1000,109728591,1000,1000,1000,1000
35883974,1000,1000,1000,1000,109828551,1000,1000,1000,1000
35886473,1000,1000,1000,1000,109928511,1000,1000,1000,1000
35888972,1000,1000,1000,1000,110028471,1000,1000,1000,1000
35891471,1000,1000,1000,1000,110128431,1000,1000,1000,1000
35893970,1000,1000,1000,1000,110228391,1000,1000,1000,1000
35896469,1000,1000,1000,1000,110328351,1000,1000,1000,1000
35898968,1000,1000,1000,1000,110428311,1000,1000,1000,1000
35901467,1000,1000,1000,1000,110528271,1000,1000,1000,1000
35903966,1000,1000,1000,1000,110628231,1000,1000,1000,1000
35906465,1000,1000,1000,1000,110728191,1000,1000,1000,1000
35908964,1000,1000,1000,1000,110828984,1000,1000,1000,1000
35911463,1000,1000,1000,1000,110928944,1000,1000,1000,1000
35913962,1000,1000,1000,1000,111028904,1000,1000,1000,1000
35916461,1000,1000,1000,1000,111128864,1000,1000,1000,1000
35918960,1000,1000,1000,1000,111228824,1000,1000,1000,1000
35921459,1000,1000,1000,1000,111328784,1000,1000,1000,1000
35923958,1000,1000,1000,1000,111428744,1000,1000,1000,1000
35926457,1000,1000,1000,1000,111528704,1000,1000,1000,1000
35928956,1000,1000,1000,1000,111628664,1000,1000,1000,1000
35931455,1000,1000,1000,1000,111728624,1000,1000,1000,1000
35933954,1000,1000,1000,1000,111828584,1000,1000,1000,1000
35936453,1000,1000,1000,1000,111928544,1000,1000,1000,1000
35938952,1000,1000,1000,1000,112028504,1000,1000,1000,1000
35941451,1000,1000,1000,1000,112128464,1000,1000,1000,1000
35943950,1000,1000,1000,1000,112228424,1000,1000,1000,1000
35946449,1000,1000,1000,1000,112328384,1000,1000,1000,1000
35948948,1000,1000,1000,1000,112428344,1000,1000,1000,1000
35951447,1000,1000,1000,1000,112528304,1000,1000,1000,1000
35953946,1000,1000,1000,1000,112628264,1000,1000,1000,1000
35956445,1000,1000,1000,1000,112728224,1000,1000,1000,1000
35958944,1000,1000,1000,1000,112828184,1000,1000,1000,1000
35961443,1000,1000,1000,1000,,,,,
35963942,1000,1000,1000,1000,,,,,
35966441,1000,1000,1000,1000,,,,,
35968940,1000,1000,1000,1000,,,,,
35971439,1000,1000,1000,1000,,,,,
35973938,1000,1000,1000,1000,,,,,
35976437,1000,1000,1000,1000,,,,,
35978936,1000,1000,1000,1000,,,,,
35981435,1000,1000,1000,1000,,,,,
35983934,1000,1000,1000,1000,,,,,
35986433,1000,1000,1000,1000,,,,,
35988932,1000,1000,1000,1000,,,,,
35991431,1000,1000,1000,1000,,,,,
35993930,1000,1000,1000,1000,,,,,
35996429,1000,1000,1000,1000,,,,,
35998928,1000,1000,1000,1000,,,,,
36001427,1000,1000,1000,1000,,,,,
36003926,1000,1000,1000,1000,,,,,
36006425,1000,1000,1000,1000,,,,,
36008924,1000,1000,1000,1000,,,,,
36011423,1000,1000,1000,1000,,,,,
36013922,1000,1000,1000,1000,,,,,
36016421,1000,1000,1000,1000,,,,,
36018920,1000,1000,1000,1000,,,,,
36021419,1000,1000,1000,1000,,,,,
36023918,1000,1000,1000,1000,,,,,
36026417,1000,1000,1000,1000,,,,,
36028916,1000,1000,1000,1000,,,,,
36031415,1000,1000,1000,1000,,,,,
36033914,1000,1000,1000,1000,,,,,
36036413,1000,1000,1000,1000,,,,,
36038912,1000,1000,1000,1000,,,,,
36041411,1000,1000,1000,1000,,,,,
36043910,1000,1000,1000,1000,,,,,
36046409,1000,1000,1000,1000,,,,,
36048908,1000,1000,1000,1000,,,,,
36051407,1000,1000,1000,1000,,,,,
36053906,1000,1000,1000,1000,,,,,
36056405,1000,1000,1000,1000,,,,,
36058904,1000,1000,1000,1000,,,,,
36061403,1000,1000,1000,1000,,,,,
36063902,1000,1000,1000,1000,,,,,
36066401,1000,1000,1000,1000,,,,,
36068900,1000,1000,1000,1000,,,,,
36071399,1000,1000,1000,1000,,,,,
36073898,1000,1000,1000,1000,,,,,
36076397,1000,1000,1000,1000,,,,,
36078896,1000,1000,1000,1000,,,,,
36081395,1000,1000,1000,1000,,,,,
36083894,1000,1000,1000,1000,,,,,
36086393,1000,1000,1000,1000,,,,,
36088892,1000,1000,1000,1000,,,,,
36091391,1000,1000,1000,1000,,,,,
36093890,1000,1000,1000,1000,,,,,
36096389,1000,1000,1000,1000,,,,,
36098888,1000,1000,1000,1000,,,,,
36101387,1000,1000,1000,1000,,,,,
36103886,1000,1000,1000,1000,,,,,
36106385,1000,1000,1000,1000,,,,,
36108884,1000,1000,1000,1000,,,,,
36111383,1000,1000,1000,1000,,,,,
36113882,1000,1000,1000,1000,,,,,
36116381,1000,1000,1000,1000,,,,,
36118880,1000,1000,1000,1000,,,,,
36121379,1000,1000,1000,1000,,,,,
36123878,1000,1000,1000,1000,,,,,
36126377,1000,1000,1000,1000,,,,,
36128876,1000,1000,1000,1000,,,,,
36131375,1000,1000,1000,1000,,,,,
36133874,1000,1000,1000,1000,,,,,
36136373,1000,1000,1000,1000,,,,,
36138872,1000,1000,1000,1000,,,,,
36141371,1000,1000,1000,1000,,,,,
36143870,1000,1000,1000,1000,,,,,
36146369,1000,1000,1000,1000,,,,,
36148868,1000,1000,1000,1000,,,,,
36151367,1000,1000,1000,1000,,,,,
36153866,1000,1000,1000,1000,,,,,
36156365,1000,1000,1000,1000,,,,,
36158864,1000,1000,1000,1000,,,,,
36161363,1000,1000,1000,1000,,,,,
36163862,1000,1000,1000,1000,,,,,
36166361,1000,1000,1000,1000,,,,,
36168860,1000,1000,1000,1000,,,,,
36171359,1000,1000,1000,1000,,,,,
36173858,1000,1000,1000,1000,,,,,
36176357,1000,1000,1000,1000,,,,,
36178856,1000,1000,1000,1000,,,,,
36181355,1000,1000,1000,1000,,,,,
36183854,1000,1000,1000,1000,,,,,
36186353,1000,1000,1000,1000,,,,,
36188852,1000,1000,1000,1000,,,,,
36191351,1000,1000,1000,1000,,,,,
36193850,1000,1000,1000,1000,,,,,
36196349,1000,1000,1000,1000,,,,,
36198848,1000,1000,1000,1000,,,,,
36201347,1000,1000,1000,1000,,,,,
36203846,1000,1000,1000,1000,,,,,
36206345,1000,1000,1000,1000,,,,,
36208844,1000,1000,1000,1000,,,,,
36211343,1000,1000,1000,1000,,,,,
36213842,1000,1000,1000,1000,,,,,
36216341,1000,1000,1000,1000,,,,,
36218840,1000,1000,1000,1000,,,,,
36221339,1000,1000,1000,1000,,,,,
36223838,1000,1000,1000,1000,,,,,
36226337,1000,1000,1000,1000,,,,,
36228836,1000,1000,1000,1000,,,,,
36231335,1000,1000,1000,1000,,,,,
36233834,1000,1000,1000,1000,,,,,
36236333,1000,1000,1000,1000,,,,,
36238832,1000,1000,1000,1000,,,,,
36241331,1000,1000,1000,1000,,,,,
36243830,1000,1000,1000,1000,,,,,
36246329,1000,1000,1000,1000,,,,,
36248828,1000,1000,1000,1000,,,,,
36251327,1000,1000,1000,1000,,,,,
36253826,1000,1000,1000,1000,,,,,
36256325,1000,1000,1000,1000,,,,,
36258824,1000,1000,1000,1000,,,,,
36261323,1000,1000,1000,1000,,,,,
36263822,1000,1000,1000,1000,,,,,
36266321,1000,1000,1000,1000,,,,,
36268820,1000,1000,1000,1000,,,,,
36271319,1000,1000,1000,1000,,,,,
36273818,1000,1000,1000,1000,,,,,
36276317,1000,1000,1000,1000,,,,,
36278816,1000,1000,1000,1000,,,,,
36281315,1000,1000,1000,1000,,,,,
36283814,1000,1000,1000,1000,,,,,
36286313,1000,1000,1000,1000,,,,,
36288812,1000,1000,1000,1000,,,,,
36291311,1000,1000,1000,1000,,,,,
36293810,1000,1000,1000,1000,,,,,
36296309,1000,1000,1000,1000,,,,,
36298808,1000,1000,1000,1000,,,,,
36301307,1000,1000,1000,1000,,,,,
36303806,1000,1000,1000,1000,,,,,
36306305,1000,1000,1000,1000,,,,,
36308804,1000,1000,1000,1000,,,,,
36311303,1000,1000,1000,1000,,,,,
36313802,1000,1000,1000,1000,,,,,
36316301,1000,1000,1000,1000,,,,,
36318800,1000,1000,1000,1000,,,,,
36321299,1000,1000,1000,1000,,,,,
36323798,1000,1000,1000,1000,,,,,
36326297,1000,1000,1000,1000,,,,,
36328796,1000,1000,1000,1000,,,,,
36331295,1000,1000,1000,1000,,,,,
36333794,1000,1000,1000,1000,,,,,
36336293,1000,1000,1000,1000,,,,,
36338792,1000,1000,1000,1000,,,,,
36341291,1000,1000,1000,1000,,,,,
36343790,1000,1000,1000,1000,,,,,
36346289,1000,1000,1000,1000,,,,,
36348788,1000,1000,1000,1000,,,,,
36351287,1000,1000,1000,1000,,,,,
36353786,1000,1000,1000,1000,,,,,
36356285,1000,1000,1000,1000,,,,,
36358784,1000,1000,1000,1000,,,,,
36361283,1000,1000,1000,1000,,,,,
36363782,1000,1000,1000,1000,,,,,
36366281,1000,1000,1000,1000,,,,,
36368780,1000,1000,1000,1000,,,,,
36371279,1000,1000,1000,1000,,,,,
36373778,1000,1000,1000,1000,,,,,
36376277,1000,1000,1000,1000,,,,,
36378776,1000,1000,1000,1000,,,,,
36381275,1000,1000,1000,1000,,,,,
36383774,1000,1000,1000,1000,,,,,
36386273,1000,1000,1000,1000,,,,,
36388772,1000,1000,1000,1000,,,,,
36391271,1000,1000,1000,1000,,,,,
36393770,1000,1000,1000,1000,,,,,
36396269,1000,1000,1000,1000,,,,,
36398768,1000,1000,1000,1000,,,,,
36401267,1000,1000,1000,1000,,,,,
36403766,1000,1000,1000,1000,,,,,
36406265,1000,1000,1000,1000,,,,,
36408764,1000,1000,1000,1000,,,,,
36411263,1000,1000,1000,1000,,,,,
36413762,1000,1000,1000,1000,,,,,
36416261,1000,1000,1000,1000,,,,,
36418760,1000,1000,1000,1000,,,,,
36421259,1000,1000,1000,1000,,,,,
36423758,1000,1000,1000,1000,,,,,
36426257,1000,1000,1000,1000,,,,,
36428756,1000,1000,1000,1000,,,,,
36431255,1000,1000,1000,1000,,,,,
36433754,1000,1000,1000,1000,,,,,
36436253,1000,1000,1000,1000,,,,,
36438752,1000,1000,1000,1000,,,,,
36441251,1000,1000,1000,1000,,,,,
36443750,1000,1000,1000,1000,,,,,
36446249,1000,1000,1000,1000,,,,,
36448748,1000,1000,1000,1000,,,,,
36451247,1000,1000,1000,1000,,,,,
36453746,1000,1000,1000,1000,,,,,
36456245,1000,1000,1000,1000,,,,,
36458744,1000,1000,1000,1000,,,,,
36461243,1000,1000,1000,1000,,,,,
36463742,1000,1000,1000,1000,,,,,
36466241,1000,1000,1000,1000,,,,,
36468740,1000,1000,1000,1000,,,,,
36471239,1000,1000,1000,1000,,,,,
36473738,1000,1000,1000,1000,,,,,
36476237,1000,1000,1000,1000,,,,,
36478736,1000,1000,1000,1000,,,,,
36481235,1000,1000,1000,1000,,,,,
36483734,1000,1000,1000,1000,,,,,
36486233,1000,1000,1000,1000,,,,,
36488732,1000,1000,1000,1000,,,,,
36491231,1000,1000,1000,1000,,,,,
36493730,1000,1000,1000,1000,,,,,
36496229,1000,1000,1000,1000,,,,,
36498728,1000,1000,1000,1000,,,,,
36501227,1000,1000,1000,1000,,,,,
36503726,1000,1000,1000,1000,,,,,
36506225,1000,1000,1000,1000,,,,,
36508724,1000,1000,1000,1000,,,,,
36511223,1000,1000,1000,1000,,,,,
36513722,1000,1000,1000,1000,,,,,
36516221,1000,1000,1000,1000,,,,,
36518720,1000,1000,1000,1000,,,,,
36521219,1000,1000,1000,1000,,,,,
36523718,1000,1000,1000,1000,,,,,
36526217,1000,1000,1000,1000,,,,,
36528716,1000,1000,1000,1000,,,,,
36531215,1000,1000,1000,1000,,,,,
36533714,1000,1000,1000,1000,,,,,
36536213,1000,1000,1000,1000,,,,,
36538712,1000,1000,1000,1000,,,,,
36541211,1000,1000,1000,1000,,,,,
36543710,1000,1000,1000,1000,,,,,
36546209,1000,1000,1000,1000,,,,,
36548708,1000,1000,1000,1000,,,,,
36551207,1000,1000,1000,1000,,,,,
36553706,1000,1000,1000,1000,,,,,
36556205,1000,1000,1000,1000,,,,,
36558704,1000,1000,1000,1000,,,,,
36561203,1000,1000,1000,1000,,,,,
36563702,1000,1000,1000,1000,,,,,
36566201,1000,1000,1000,1000,,,,,
36568700,1000,1000,1000,1000,,,,,
36571199,1000,1000,1000,1000,,,,,
36573698,1000,1000,1000,1000,,,,,
36576197,1000,1000,1000,1000,,,,,
36578696,1000,1000,1000,1000,,,,,
36581195,1000,1000,1000,1000,,,,,
36583694,1000,1000,1000,1000,,,,,
36586193,1000,1000,1000,1000,,,,,
36588692,1000,1000,1000,1000,,,,,
36591191,1000,1000,1000,1000,,,,,
36593690,1000,1000,1000,1000,,,,,
36596189,1000,1000,1000,1000,,,,,
36598688,1000,1000,1000,1000,,,,,
36601187,1000,1000,1000,1000,,,,,
36603686,1000,1000,1000,1000,,,,,
36606185,1000,1000,1000,1000,,,,,
36608684,1000,1000,1000,1000,,,,,
36611183,1000,1000,1000,1000,,,,,
36613682,1000,1000,1000,1000,,,,,
36616181,1000,1000,1000,1000,,,,,
36618680,1000,1000,1000,1000,,,,,
36621179,1000,1000,1000,1000,,,,,
36623678,1000,1000,1000,1000,,,,,
36626177,1000,1000,1000,1000,,,,,
36628676,1000,1000,1000,1000,,,,,
36631175,1000,1000,1000,1000,,,,,
36633674,1000,1000,1000,1000,,,,,
36636173,1000,1000,1000,1000,,,,,
36638672,1000,1000,1000,1000,,,,,
36641171,1000,1000,1000,1000,,,,,
36643670,1000,1000,1000,1000,,,,,
36646169,1000,1000,1000,1000,,,,,
36648668,1000,1000,1000,1000,,,,,
36651167,1000,1000,1000,1000,,,,,
36653666,1000,1000,1000,1000,,,,,
36656165,1000,1000,1000,1000,,,,,
36658664,1000,1000,1000,1000,,,,,
36661163,1000,1000,1000,1000,,,,,
36663662,1000,1000,1000,1000,,,,,
36666161,1000,1000,1000,1000,,,,,
36668660,1000,1000,1000,1000,,,,,
36671159,1000,1000,1000,1000,,,,,
36673658,1000,1000,1000,1000,,,,,
36676157,1000,1000,1000,1000,,,,,
36678656,1000,1000,1000,1000,,,,,
36681155,1000,1000,1000,1000,,,,,
36683654,1000,1000,1000,1000,,,,,
36686153,1000,1000,1000,1000,,,,,
36688652,1000,1000,1000,1000,,,,,
36691151,1000,1000,1000,1000,,,,,
36693650,1000,1000,1000,1000,,,,,
36696149,1000,1000,1000,1000,,,,,
36698648,1000,1000,1000,1000,,,,,
36701147,1000,1000,1000,1000,,,,,
36703646,1000,1000,1000,1000,,,,,
36706145,1000,1000,1000,1000,,,,,
36708644,1000,1000,1000,1000,,,,,
36711143,1000,1000,1000,1000,,,,,
36713642,1000,1000,1000,1000,,,,,
36716141,1000,1000,1000,1000,,,,,
36718640,1000,1000,1000,1000,,,,,
36721139,1000,1000,1000,1000,,,,,
36723638,1000,1000,1000,1000,,,,,
36726137,1000,1000,1000,1000,,,,,
36728636,1000,1000,1000,1000,,,,,
36731135,1000,1000,1000,1000,,,,,
36733634,1000,1000,1000,1000,,,,,
36736133,1000,1000,1000,1000,,,,,
36738632,1000,1000,1000,1000,,,,,
36741131,1000,1000,1000,1000,,,,,
36743630,1000,1000,1000,1000,,,,,
36746129,1000,1000,1000,1000,,,,,
36748628,1000,1000,1000,1000,,,,,
36751127,1000,1000,1000,1000,,,,,
36753626,1000,1000,1000,1000,,,,,
36756125,1000,1000,1000,1000,,,,,
36758624,1000,1000,1000,1000,,,,,
36761123,1000,1000,1000,1000,,,,,
36763622,1000,1000,1000,1000,,,,,
36766121,1000,1000,1000,1000,,,,,
36768620,1000,1000,1000,1000,,,,,
36771119,1000,1000,1000,1000,,,,,
36773618,1000,1000,1000,1000,,,,,
36776117,1000,1000,1000,1000,,,,,
36778616,1000,1000,1000,1000,,,,,
36781115,1000,1000,1000,1000,,,,,
36783614,1000,1000,1000,1000,,,,,
36786113,1000,1000,1000,1000,,,,,
36788612,1000,1000,1000,1000,,,,,
36791111,1000,1000,1000,1000,,,,,
36793610,1000,1000,1000,1000,,,,,
36796109,1000,1000,1000,1000,,,,,
36798608,1000,1000,1000,1000,,,,,
36801107,1000,1000,1000,1000,,,,,
36803606,1000,1000,1000,1000,,,,,
36806105,1000,1000,1000,1000,,,,,
36808604,1000,1000,1000,1000,,,,,
36811103,1000,1000,1000,1000,,,,,
36813602,1000,1000,1000,1000,,,,,
36816101,1000,1000,1000,1000,,,,,
36818600,1000,1000,1000,1000,,,,,
36821099,1000,1000,1000,1000,,,,,
36823598,1000,1000,1000,1000,,,,,
36826097,1000,1000,1000,1000,,,,,
36828596,1000,1000,1000,1000,,,,,
36831095,1000,1000,1000,1000,,,,,
36833594,1000,1000,1000,1000,,,,,
36836093,1000,1000,1000,1000,,,,,
36838592,1000,1000,1000,1000,,,,,
36841091,1000,1000,1000,1000,,,,,
36843590,1000,1000,1000,1000,,,,,
36846089,1000,1000,1000,1000,,,,,
36848588,1000,1000,1000,1000,,,,,
36851087,1000,1000,1000,1000,,,,,
36853586,1000,1000,1000,1000,,,,,
36856085,1000,1000,1000,1000,,,,,
36858584,1000,1000,1000,1000,,,,,
36861083,1000,1000,1000,1000,,,,,
36863582,1000,1000,1000,1000,,,,,
36866081,1000,1000,1000,1000,,,,,
36868580,1000,1000,1000,1000,,,,,
36871079,1000,1000,1000,1000,,,,,
36873578,1000,1000,1000,1000,,,,,
36876077,1000,1000,1000,1000,,,,,
36878576,1000,1000,1000,1000,,,,,
36881075,1000,1000,1000,1000,,,,,
36883574,1000,1000,1000,1000,,,,,
36886073,1000,1000,1000,1000,,,,,
36888572,1000,1000,1000,1000,,,,,
36891071,1000,1000,1000,1000,,,,,
36893570,1000,1000,1000,1000,,,,,
36896069,1000,1000,1000,1000,,,,,
36898568,1000,1000,1000,1000,,,,,
36901067,1000,1000,1000,1000,,,,,
36903566,1000,1000,1000,1000,,,,,
36906065,1000,1000,1000,1000,,,,,
36908564,1000,1000,1000,1000,,,,,
36911063,1000,1000,1000,1000,,,,,
36913562,1000,1000,1000,1000,,,,,
36916061,1000,1000,1000,1000,,,,,
36918560,1000,1000,1000,1000,,,,,
36921059,1000,1000,1000,1000,,,,,
36923558,1000,1000,1000,1000,,,,,
36926057,1000,1000,1000,1000,,,,,
36928556,1000,1000,1000,1000,,,,,
36931055,1000,1000,1000,1000,,,,,
36933554,1000,1000,1000,1000,,,,,
36936053,1000,1000,1000,1000,,,,,
36938552,1000,1000,1000,1000,,,,,
36941051,1000,1000,1000,1000,,,,,
36943550,1000,1000,1000,1000,,,,,
36946049,1000,1000,1000,1000,,,,,
36948548,1000,1000,1000,1000,,,,,
36951047,1000,1000,1000,1000,,,,,
36953546,1000,1000,1000,1000,,,,,
36956045,1000,1000,1000,1000,,,,,
36958544,1000,1000,1000,1000,,,,,
36961043,1000,1000,1000,1000,,,,,
36963542,1000,1000,1000,1000,,,,,
36966041,1000,1000,1000,1000,,,,,
36968540,1000,1000,1000,1000,,,,,
36971039,1000,1000,1000,1000,,,,,
36973538,1000,1000,1000,1000,,,,,
36976037,1000,1000,1000,1000,,,,,
36978536,1000,1000,1000,1000,,,,,
36981035,1000,1000,1000,1000,,,,,
36983534,1000,1000,1000,1000,,,,,
36986033,1000,1000,1000,1000,,,,,
36988532,1000,1000,1000,1000,,,,,
36991031,1000,1000,1000,1000,,,,,
