TimeUS,M1,M2,M3,M4,TimeUS,C1,C2,C3,C4
62378372,1000,1000,1000,1000,62428352,1000,1000,1000,1000
62380871,1000,1000,1000,1000,62528312,1000,1000,1000,1000
62383370,1000,1000,1000,1000,62628272,1000,1000,1000,1000
62385869,1000,1000,1000,1000,62728232,1000,1000,1000,1000
62388368,1000,1000,1000,1000,62828192,1000,1000,1000,1000
62390867,1000,1000,1000,1000,62928985,1000,1000,1000,1000
62393366,1000,1000,1000,1000,63028945,1000,1000,1000,1000
62395865,1000,1000,1000,1000,63128905,1000,1000,1000,1000
62398364,1000,1000,1000,1000,63228865,1000,1000,1000,1000
62400863,1000,1000,1000,1000,63328825,1000,1000,1000,1000
62403362,1000,1000,1000,1000,63428785,1000,1000,1000,1000
62405861,1000,1000,1000,1000,63528745,1000,1000,1000,1000
62408360,1000,1000,1000,1000,63628705,1000,1000,1000,1000
62410859,1000,1000,1000,1000,63728665,1000,1000,1000,1000
62413358,1000,1000,1000,1000,63828625,1000,1000,1000,1000
62415857,1000,1000,1000,1000,63928585,1000,1000,1000,1000
62418356,1000,1000,1000,1000,64028545,1000,1000,1000,1000
62420855,1000,1000,1000,1000,64128505,1000,1000,1000,1000
62423354,1000,1000,1000,1000,64228465,1000,1000,1000,1000
62425853,1000,1000,1000,1000,64328425,1000,1000,1000,1000
62428352,1000,1000,1000,1000,64428385,1015,1015,1015,1015
62430851,1000,1000,1000,1000,64528345,1045,1045,1045,1045
62433350,1000,1000,1000,1000,64628305,1075,1075,1075,1075
62435849,1000,1000,1000,1000,64728265,1104,1104,1104,1104
62438348,1000,1000,1000,1000,64828225,1134,1134,1134,1134
62440847,1000,1000,1000,1000,64928185,1288,1280,1281,1289
62443346,1000,1000,1000,1000,65028978,1495,1489,1489,1495
62445845,1000,1000,1000,1000,65128938,1657,1650,1651,1656
62448344,1000,1000,1000,1000,65228898,1792,1788,1788,1793
62450843,1000,1000,1000,1000,65328858,1886,1880,1880,1886
62453342,1000,1000,1000,1000,65428818,1868,1865,1865,1868
62455841,1000,1000,1000,1000,65528778,1742,1741,1741,1742
62458340,1000,1000,1000,1000,65628738,1646,1648,1648,1646
62460839,1000,1000,1000,1000,65728698,1619,1621,1622,1619
62463338,1000,1000,1000,1000,65828658,1627,1630,1629,1627
62465837,1000,1000,1000,1000,65928618,1637,1637,1637,1636
62468336,1000,1000,1000,1000,66028578,1637,1637,1637,1636
62470835,1000,1000,1000,1000,66128538,1630,1629,1629,1629
62473334,1000,1000,1000,1000,66228498,1623,1621,1622,1622
62475833,1000,1000,1000,1000,66328458,1602,1601,1594,1608
62478332,1000,1000,1000,1000,66428418,1595,1594,1586,1604
62480831,1000,1000,1000,1000,66528378,1594,1593,1587,1598
62483330,1000,1000,1000,1000,66628338,1596,1596,1595,1596
62485829,1000,1000,1000,1000,66728298,1600,1601,1603,1598
62488328,1000,1000,1000,1000,66828258,1601,1603,1607,1597
62490827,1000,1000,1000,1000,66928218,1577,1578,1596,1558
62493326,1000,1000,1000,1000,67028178,1566,1566,1581,1552
62495825,1000,1000,1000,1000,67128971,1555,1555,1557,1554
62498324,1000,1000,1000,1000,67228931,1546,1545,1537,1556
62500823,1000,1000,1000,1000,67328891,1539,1538,1526,1551
62503322,1000,1000,1000,1000,67428851,1531,1531,1521,1541
62505821,1000,1000,1000,1000,67528811,1528,1527,1522,1533
62508320,1000,1000,1000,1000,67628771,1528,1527,1526,1529
62510819,1000,1000,1000,1000,67728731,1530,1530,1531,1528
62513318,1000,1000,1000,1000,67828691,1533,1533,1536,1530
62515817,1000,1000,1000,1000,67928651,1536,1536,1540,1531
62518316,1000,1000,1000,1000,68028611,1540,1540,1544,1536
62520815,1000,1000,1000,1000,68128571,1544,1543,1545,1541
62523314,1000,1000,1000,1000,68228531,1547,1547,1547,1547
62525813,1000,1000,1000,1000,68328491,1549,1549,1549,1550
62528312,1000,1000,1000,1000,68428451,1552,1552,1551,1554
62530811,1000,1000,1000,1000,68528411,1551,1551,1557,1561
62533310,1000,1000,1000,1000,68628371,1551,1552,1560,1563
62535809,1000,1000,1000,1000,68728331,1554,1554,1562,1563
62538308,1000,1000,1000,1000,68828291,1557,1558,1563,1562
62540807,1000,1000,1000,1000,68928251,1561,1562,1564,1563
62543306,1000,1000,1000,1000,69028211,1564,1565,1564,1563
62545805,1000,1000,1000,1000,69128171,1568,1568,1565,1564
62548304,1000,1000,1000,1000,69228964,1571,1571,1566,1566
62550803,1000,1000,1000,1000,69328924,1571,1571,1565,1565
62553302,1000,1000,1000,1000,69428884,1572,1572,1566,1566
62555801,1000,1000,1000,1000,69528844,1573,1572,1567,1567
62558300,1000,1000,1000,1000,69628804,1573,1573,1569,1569
62560799,1000,1000,1000,1000,69728764,1574,1574,1571,1571
62563298,1000,1000,1000,1000,69828724,1573,1573,1572,1571
62565797,1000,1000,1000,1000,69928684,1575,1575,1575,1574
62568296,1000,1000,1000,1000,70028644,1574,1574,1576,1574
62570795,1000,1000,1000,1000,70128604,1574,1574,1576,1575
62573294,1000,1000,1000,1000,70228564,1574,1574,1576,1576
62575793,1000,1000,1000,1000,70328524,1574,1574,1576,1576
62578292,1000,1000,1000,1000,70428484,1575,1575,1577,1576
62580791,1000,1000,1000,1000,70528444,1575,1576,1577,1577
62583290,1000,1000,1000,1000,70628404,1576,1577,1577,1578
62585789,1000,1000,1000,1000,70728364,1577,1577,1577,1577
62588288,1000,1000,1000,1000,70828324,1577,1576,1577,1576
62590787,1000,1000,1000,1000,70928284,1577,1577,1577,1577
62593286,1000,1000,1000,1000,71028244,1578,1578,1578,1577
62595785,1000,1000,1000,1000,71128204,1578,1578,1577,1577
62598284,1000,1000,1000,1000,71228164,1578,1578,1577,1577
62600783,1000,1000,1000,1000,71328957,1577,1577,1577,1576
62603282,1000,1000,1000,1000,71428917,1577,1577,1577,1577
62605781,1000,1000,1000,1000,71528877,1577,1577,1576,1577
62608280,1000,1000,1000,1000,71628837,1577,1577,1577,1577
62610779,1000,1000,1000,1000,71728797,1578,1577,1577,1577
62613278,1000,1000,1000,1000,71828757,1578,1578,1578,1578
62615777,1000,1000,1000,1000,71928717,1579,1579,1579,1579
62618276,1000,1000,1000,1000,72028677,1578,1578,1578,1578
62620775,1000,1000,1000,1000,72128637,1579,1579,1579,1580
62623274,1000,1000,1000,1000,72228597,1579,1579,1580,1580
62625773,1000,1000,1000,1000,72328557,1579,1579,1580,1580
62628272,1000,1000,1000,1000,72428517,1578,1579,1579,1579
62630771,1000,1000,1000,1000,72528477,1579,1579,1579,1579
62633270,1000,1000,1000,1000,72628437,1579,1580,1580,1580
62635769,1000,1000,1000,1000,72728397,1579,1580,1580,1580
62638268,1000,1000,1000,1000,72828357,1580,1580,1580,1580
62640767,1000,1000,1000,1000,72928317,1580,1580,1580,1580
62643266,1000,1000,1000,1000,73028277,1580,1580,1580,1580
62645765,1000,1000,1000,1000,73128237,1580,1580,1580,1580
62648264,1000,1000,1000,1000,73228197,1581,1581,1581,1580
62650763,1000,1000,1000,1000,73328157,1580,1580,1580,1580
62653262,1000,1000,1000,1000,73428950,1581,1580,1580,1580
62655761,1000,1000,1000,1000,73528910,1581,1581,1580,1581
62658260,1000,1000,1000,1000,73628870,1580,1580,1580,1580
62660759,1000,1000,1000,1000,73728830,1580,1580,1579,1580
62663258,1000,1000,1000,1000,73828790,1581,1581,1581,1581
62665757,1000,1000,1000,1000,73928750,1581,1581,1581,1581
62668256,1000,1000,1000,1000,74028710,1581,1581,1581,1581
62670755,1000,1000,1000,1000,74128670,1582,1582,1582,1582
62673254,1000,1000,1000,1000,74228630,1581,1581,1582,1582
62675753,1000,1000,1000,1000,74328590,1581,1581,1581,1581
62678252,1000,1000,1000,1000,74428550,1581,1582,1582,1582
62680751,1000,1000,1000,1000,74528510,1581,1581,1581,1581
62683250,1000,1000,1000,1000,74628470,1581,1582,1581,1581
62685749,1000,1000,1000,1000,74728430,1582,1582,1584,1580
62688248,1000,1000,1000,1000,74828390,1581,1582,1588,1574
62690747,1000,1000,1000,1000,74928350,1581,1582,1583,1574
62693246,1000,1000,1000,1000,75028310,1579,1581,1574,1574
62695745,1000,1000,1000,1000,75128270,1577,1579,1566,1571
62698244,1000,1000,1000,1000,75228230,1578,1580,1561,1567
62700743,1000,1000,1000,1000,75328190,1578,1578,1556,1562
62703242,1000,1000,1000,1000,75428983,1579,1578,1555,1558
62705741,1000,1000,1000,1000,75528943,1580,1578,1556,1556
62708240,1000,1000,1000,1000,75628903,1579,1578,1556,1554
62710739,1000,1000,1000,1000,75728863,1578,1578,1556,1554
62713238,1000,1000,1000,1000,75828823,1576,1577,1556,1553
62715737,1000,1000,1000,1000,75928783,1574,1576,1554,1553
62718236,1000,1000,1000,1000,76028743,1574,1576,1553,1553
62720735,1000,1000,1000,1000,76128703,1574,1575,1552,1552
62723234,1000,1000,1000,1000,76228663,1575,1576,1551,1551
62725733,1000,1000,1000,1000,76328623,1577,1578,1550,1550
62728232,1000,1000,1000,1000,76428583,1579,1580,1548,1547
62730731,1000,1000,1000,1000,76528543,1582,1583,1545,1545
62733230,1000,1000,1000,1000,76628503,1585,1585,1543,1542
62735729,1000,1000,1000,1000,76728463,1589,1589,1540,1540
62738228,1000,1000,1000,1000,76828423,1591,1591,1537,1537
62740727,1000,1000,1000,1000,76928383,1593,1593,1535,1535
62743226,1000,1000,1000,1000,77028343,1595,1595,1535,1535
62745725,1000,1000,1000,1000,77128303,1595,1595,1535,1536
62748224,1000,1000,1000,1000,77228263,1594,1594,1536,1538
62750723,1000,1000,1000,1000,77328223,1592,1592,1540,1543
62753222,1000,1000,1000,1000,77428183,1588,1587,1546,1549
62755721,1000,1000,1000,1000,77528976,1582,1579,1555,1558
62758220,1000,1000,1000,1000,77628936,1573,1570,1566,1568
62760719,1000,1000,1000,1000,77728896,1562,1558,1577,1579
62763218,1000,1000,1000,1000,77828856,1550,1547,1589,1590
62765717,1000,1000,1000,1000,77928816,1540,1537,1600,1600
62768216,1000,1000,1000,1000,78028776,1532,1532,1609,1608
62770715,1000,1000,1000,1000,78128736,1528,1529,1614,1613
62773214,1000,1000,1000,1000,78228696,1529,1531,1616,1615
62775713,1000,1000,1000,1000,78328656,1531,1534,1613,1612
62778212,1000,1000,1000,1000,78428616,1538,1541,1609,1608
62780711,1000,1000,1000,1000,78528576,1546,1547,1601,1602
62783210,1000,1000,1000,1000,78628536,1554,1555,1593,1593
62785709,1000,1000,1000,1000,78728496,1564,1564,1586,1586
62788208,1000,1000,1000,1000,78828456,1572,1571,1578,1579
62790707,1000,1000,1000,1000,78928416,1578,1577,1573,1572
62793206,1000,1000,1000,1000,79028376,1584,1583,1569,1568
62795705,1000,1000,1000,1000,79128336,1587,1585,1567,1566
62798204,1000,1000,1000,1000,79228296,1588,1587,1567,1566
62800703,1000,1000,1000,1000,79328256,1587,1586,1566,1567
62803202,1000,1000,1000,1000,79428216,1586,1585,1568,1569
62805701,1000,1000,1000,1000,79528176,1583,1582,1571,1571
62808200,1000,1000,1000,1000,79628969,1581,1580,1575,1575
62810699,1000,1000,1000,1000,79728929,1576,1576,1576,1576
62813198,1000,1000,1000,1000,79828889,1574,1575,1580,1579
62815697,1000,1000,1000,1000,79928849,1480,1528,1488,1537
62818196,1000,1000,1000,1000,80028809,1552,1554,1561,1566
62820695,1000,1000,1000,1000,80128769,1606,1569,1619,1580
62823194,1000,1000,1000,1000,80228729,1649,1597,1661,1607
62825693,1000,1000,1000,1000,80328689,1669,1620,1678,1627
62828192,1000,1000,1000,1000,80428649,1660,1630,1665,1630
62830691,1000,1000,1000,1000,80528609,1632,1628,1632,1623
62833190,1000,1000,1000,1000,80628569,1600,1618,1600,1615
62835689,1000,1000,1000,1000,80728529,1576,1604,1582,1612
62838188,1000,1000,1000,1000,80828489,1563,1587,1577,1609
62840687,1000,1000,1000,1000,80928449,1559,1575,1581,1604
62843186,1000,1000,1000,1000,81028409,1563,1569,1586,1595
62845685,1000,1000,1000,1000,81128369,1569,1567,1587,1585
62848184,1000,1000,1000,1000,81228329,1576,1571,1586,1577
62850683,1000,1000,1000,1000,81328289,1582,1577,1582,1573
62853182,1000,1000,1000,1000,81428249,1586,1582,1577,1569
62855681,1000,1000,1000,1000,81528209,1587,1587,1571,1568
62858180,1000,1000,1000,1000,81628169,1585,1587,1566,1566
62860679,1000,1000,1000,1000,81728962,1584,1586,1563,1566
62863178,1000,1000,1000,1000,81828922,1582,1584,1562,1565
62865677,1000,1000,1000,1000,81928882,1580,1582,1562,1566
62868176,1000,1000,1000,1000,82028842,1579,1580,1564,1566
62870675,1000,1000,1000,1000,82128802,1578,1578,1567,1568
62873174,1000,1000,1000,1000,82228762,1576,1576,1569,1569
62875673,1000,1000,1000,1000,82328722,1575,1574,1571,1571
62878172,1000,1000,1000,1000,82428682,1575,1574,1574,1573
62880671,1000,1000,1000,1000,82528642,1574,1574,1576,1575
62883170,1000,1000,1000,1000,82628602,1574,1573,1577,1577
62885669,1000,1000,1000,1000,82728562,1573,1574,1578,1578
62888168,1000,1000,1000,1000,82828522,1574,1575,1585,1570
62890667,1000,1000,1000,1000,82928482,1573,1576,1582,1570
62893166,1000,1000,1000,1000,83028442,1572,1576,1574,1571
62895665,1000,1000,1000,1000,83128402,1571,1575,1566,1570
62898164,1000,1000,1000,1000,83228362,1572,1574,1559,1567
62900663,1000,1000,1000,1000,83328322,1574,1573,1556,1562
62903162,1000,1000,1000,1000,83428282,1574,1572,1553,1557
62905661,1000,1000,1000,1000,83528242,1576,1574,1553,1555
62908160,1000,1000,1000,1000,83628202,1577,1576,1553,1553
62910659,1000,1000,1000,1000,83728162,1577,1577,1553,1551
62913158,1000,1000,1000,1000,83828955,1577,1578,1553,1551
62915657,1000,1000,1000,1000,83928915,1577,1578,1553,1551
62918156,1000,1000,1000,1000,84028875,1577,1579,1553,1551
62920655,1000,1000,1000,1000,84128835,1576,1578,1551,1550
62923154,1000,1000,1000,1000,84228795,1577,1578,1550,1550
62926486,1000,1000,1000,1000,84328755,1577,1579,1548,1549
62928985,1000,1000,1000,1000,84428715,1578,1579,1546,1547
62931484,1000,1000,1000,1000,84528675,1580,1581,1545,1545
62933983,1000,1000,1000,1000,84628635,1582,1583,1544,1544
62936482,1000,1000,1000,1000,84728595,1584,1584,1542,1542
62938981,1000,1000,1000,1000,84828555,1585,1585,1541,1541
62941480,1000,1000,1000,1000,84928515,1586,1586,1541,1541
62943979,1000,1000,1000,1000,85028475,1587,1587,1541,1542
62946478,1000,1000,1000,1000,85128435,1587,1586,1544,1545
62948977,1000,1000,1000,1000,85228395,1586,1585,1546,1548
62951476,1000,1000,1000,1000,85328355,1583,1582,1549,1551
62953975,1000,1000,1000,1000,85428315,1579,1579,1553,1556
62956474,1000,1000,1000,1000,85528275,1575,1573,1559,1561
62958973,1000,1000,1000,1000,85628235,1569,1567,1567,1568
62961472,1000,1000,1000,1000,85728195,1563,1560,1574,1576
62963971,1000,1000,1000,1000,85828155,1557,1555,1583,1583
62966470,1000,1000,1000,1000,85928948,1551,1549,1590,1590
62968969,1000,1000,1000,1000,86028908,1546,1545,1596,1596
62971468,1000,1000,1000,1000,86128868,1542,1544,1601,1600
62973967,1000,1000,1000,1000,86228828,1542,1543,1603,1602
62976466,1000,1000,1000,1000,86328788,1543,1545,1603,1602
62978965,1000,1000,1000,1000,86428748,1546,1547,1600,1599
62981464,1000,1000,1000,1000,86528708,1551,1551,1597,1597
62983963,1000,1000,1000,1000,86628668,1556,1557,1593,1593
62986462,1000,1000,1000,1000,86728628,1562,1562,1588,1588
62988961,1000,1000,1000,1000,86828588,1567,1567,1583,1583
62991460,1000,1000,1000,1000,86928548,1572,1571,1579,1578
62993959,1000,1000,1000,1000,87028508,1577,1576,1576,1576
62996458,1000,1000,1000,1000,87128468,1579,1578,1572,1572
62998957,1000,1000,1000,1000,87228428,1582,1581,1571,1572
63001456,1000,1000,1000,1000,87328388,1582,1581,1570,1570
63003955,1000,1000,1000,1000,87428348,1582,1581,1570,1570
63006454,1000,1000,1000,1000,87528308,1582,1581,1571,1572
63008953,1000,1000,1000,1000,87628268,1580,1580,1573,1573
63011452,1000,1000,1000,1000,87728228,1579,1579,1575,1574
63013951,1000,1000,1000,1000,87828188,1578,1579,1578,1577
63016450,1000,1000,1000,1000,87928981,1577,1578,1579,1579
63018949,1000,1000,1000,1000,88028941,1575,1576,1580,1579
63021448,1000,1000,1000,1000,88128901,1575,1575,1581,1581
63023947,1000,1000,1000,1000,88228861,1574,1575,1581,1582
63026446,1000,1000,1000,1000,88328821,1574,1575,1582,1582
63028945,1000,1000,1000,1000,88428781,1576,1576,1582,1583
63031444,1000,1000,1000,1000,88528741,1576,1576,1581,1582
63033943,1000,1000,1000,1000,88628701,1577,1577,1581,1581
63036442,1000,1000,1000,1000,88728661,1578,1578,1581,1580
63038941,1000,1000,1000,1000,88828621,1579,1579,1580,1580
63041440,1000,1000,1000,1000,88928581,1580,1579,1579,1579
63043939,1000,1000,1000,1000,89028541,1581,1581,1579,1579
63046438,1000,1000,1000,1000,89128501,1581,1581,1579,1579
63048937,1000,1000,1000,1000,89228461,1581,1581,1578,1578
63051436,1000,1000,1000,1000,89328421,1581,1581,1578,1579
63053935,1000,1000,1000,1000,89428381,1581,1581,1578,1579
63056434,1000,1000,1000,1000,89528341,1582,1581,1579,1579
63058933,1000,1000,1000,1000,89628301,1582,1581,1580,1579
63061432,1000,1000,1000,1000,89728261,1582,1582,1581,1581
63063931,1000,1000,1000,1000,89828221,1581,1581,1581,1580
63066430,1000,1000,1000,1000,89928181,1580,1580,1581,1581
63068929,1000,1000,1000,1000,90028974,1580,1581,1581,1581
63071428,1000,1000,1000,1000,90128934,1581,1581,1582,1582
63073927,1000,1000,1000,1000,90228894,1580,1580,1582,1582
63076426,1000,1000,1000,1000,90328854,1580,1580,1581,1581
63078925,1000,1000,1000,1000,90428814,1580,1580,1581,1581
63081424,1000,1000,1000,1000,90528774,1580,1580,1581,1581
63083923,1000,1000,1000,1000,90628734,1581,1580,1581,1581
63086422,1000,1000,1000,1000,90728694,1580,1580,1580,1580
63088921,1000,1000,1000,1000,90828654,1581,1581,1581,1581
63091420,1000,1000,1000,1000,90928614,1581,1581,1581,1581
63093919,1000,1000,1000,1000,91028574,1580,1581,1580,1580
63096418,1000,1000,1000,1000,91128534,1581,1581,1581,1581
63098917,1000,1000,1000,1000,91228494,1581,1581,1580,1580
63101416,1000,1000,1000,1000,91328454,1581,1582,1586,1574
63103915,1000,1000,1000,1000,91428414,1581,1583,1585,1573
63106414,1000,1000,1000,1000,91528374,1579,1581,1578,1572
63108913,1000,1000,1000,1000,91628334,1577,1580,1569,1571
63111412,1000,1000,1000,1000,91728294,1577,1579,1563,1569
63113911,1000,1000,1000,1000,91828254,1576,1578,1557,1564
63116410,1000,1000,1000,1000,91928214,1578,1577,1554,1560
63118909,1000,1000,1000,1000,92028174,1578,1577,1554,1556
63121408,1000,1000,1000,1000,92128967,1579,1578,1554,1554
63123907,1000,1000,1000,1000,92228927,1579,1578,1555,1553
63126406,1000,1000,1000,1000,92328887,1578,1578,1555,1553
63128905,1000,1000,1000,1000,92428847,1578,1578,1556,1554
63131404,1000,1000,1000,1000,92528807,1576,1578,1555,1553
63133903,1000,1000,1000,1000,92628767,1575,1577,1553,1552
63136402,1000,1000,1000,1000,92728727,1575,1577,1552,1552
63138901,1000,1000,1000,1000,92828687,1576,1578,1551,1551
63141400,1000,1000,1000,1000,92928647,1578,1579,1550,1550
63143899,1000,1000,1000,1000,93028607,1579,1580,1547,1547
63146398,1000,1000,1000,1000,93128567,1581,1582,1545,1545
63148897,1000,1000,1000,1000,93228527,1584,1585,1543,1543
63151396,1000,1000,1000,1000,93328487,1586,1587,1540,1540
63153895,1000,1000,1000,1000,93428447,1589,1590,1539,1539
63156394,1000,1000,1000,1000,93528407,1591,1591,1539,1539
63158893,1000,1000,1000,1000,93628367,1593,1593,1538,1539
63161392,1000,1000,1000,1000,93728327,1594,1593,1539,1541
63163891,1000,1000,1000,1000,93828287,1592,1592,1541,1543
63166390,1000,1000,1000,1000,93928247,1590,1588,1546,1549
63168889,1000,1000,1000,1000,94028207,1585,1582,1552,1555
63171388,1000,1000,1000,1000,94128167,1578,1574,1560,1563
63173887,1000,1000,1000,1000,94228960,1569,1566,1571,1573
63176386,1000,1000,1000,1000,94328920,1560,1556,1583,1584
63178885,1000,1000,1000,1000,94428880,1549,1547,1592,1592
63181384,1000,1000,1000,1000,94528840,1541,1541,1601,1600
63183883,1000,1000,1000,1000,94628800,1537,1538,1609,1607
63186382,1000,1000,1000,1000,94728760,1534,1537,1612,1610
63188881,1000,1000,1000,1000,94828720,1535,1538,1612,1611
63191380,1000,1000,1000,1000,94928680,1539,1541,1610,1609
63193879,1000,1000,1000,1000,95028640,1544,1546,1605,1605
63196378,1000,1000,1000,1000,95128600,1551,1552,1600,1598
63198877,1000,1000,1000,1000,95228560,1559,1559,1593,1593
63201376,1000,1000,1000,1000,95328520,1565,1565,1586,1586
63203875,1000,1000,1000,1000,95428480,1572,1572,1579,1580
63206374,1000,1000,1000,1000,95528440,1578,1576,1574,1575
63208873,1000,1000,1000,1000,95628400,1582,1580,1569,1570
63211372,1000,1000,1000,1000,95728360,1585,1583,1567,1568
63213871,1000,1000,1000,1000,95828320,1586,1584,1566,1566
63216370,1000,1000,1000,1000,95928280,1586,1584,1566,1566
63218869,1000,1000,1000,1000,96028240,1585,1583,1568,1568
63221368,1000,1000,1000,1000,96128200,1583,1583,1571,1571
63223867,1000,1000,1000,1000,96228160,1581,1582,1574,1574
63226366,1000,1000,1000,1000,96328953,1578,1578,1576,1576
63228865,1000,1000,1000,1000,96428913,1576,1577,1579,1578
63231364,1000,1000,1000,1000,96528873,1574,1575,1581,1581
63233863,1000,1000,1000,1000,96628833,1573,1574,1583,1582
63236362,1000,1000,1000,1000,96728793,1572,1573,1583,1583
63238861,1000,1000,1000,1000,96828753,1573,1573,1583,1583
63241360,1000,1000,1000,1000,96928713,1573,1574,1583,1583
63243859,1000,1000,1000,1000,97028673,1574,1574,1583,1582
63246358,1000,1000,1000,1000,97128633,1575,1576,1582,1581
63248857,1000,1000,1000,1000,97228593,1577,1577,1581,1581
63251356,1000,1000,1000,1000,97328553,1578,1578,1579,1580
63253855,1000,1000,1000,1000,97428513,1580,1579,1579,1579
63256354,1000,1000,1000,1000,97528473,1580,1580,1577,1578
63258853,1000,1000,1000,1000,97628433,1580,1579,1576,1576
63261352,1000,1000,1000,1000,97728393,1581,1581,1576,1577
63263851,1000,1000,1000,1000,97828353,1582,1581,1577,1577
63266350,1000,1000,1000,1000,97928313,1582,1582,1578,1578
63268849,1000,1000,1000,1000,98028273,1582,1582,1579,1579
63271348,1000,1000,1000,1000,98128233,1582,1582,1580,1579
63273847,1000,1000,1000,1000,98228193,1581,1581,1580,1580
63276346,1000,1000,1000,1000,98328986,1581,1581,1581,1581
63278845,1000,1000,1000,1000,98428946,1581,1581,1581,1581
63281344,1000,1000,1000,1000,98528906,1580,1581,1581,1581
63283843,1000,1000,1000,1000,98628866,1580,1581,1582,1582
63286342,1000,1000,1000,1000,98728826,1580,1580,1581,1581
63288841,1000,1000,1000,1000,98828786,1579,1580,1581,1581
63291340,1000,1000,1000,1000,98928746,1579,1580,1581,1581
63293839,1000,1000,1000,1000,99028706,1580,1579,1581,1581
63296338,1000,1000,1000,1000,99128666,1580,1580,1581,1582
63298837,1000,1000,1000,1000,99228626,1580,1580,1581,1579
63301336,1000,1000,1000,1000,99328586,1580,1581,1586,1572
63303835,1000,1000,1000,1000,99428546,1580,1580,1584,1573
63306334,1000,1000,1000,1000,99528506,1578,1578,1577,1575
63308833,1000,1000,1000,1000,99628466,1574,1573,1570,1575
63311332,1000,1000,1000,1000,99728426,1571,1570,1566,1573
63313831,1000,1000,1000,1000,99828386,1569,1569,1565,1572
63316330,1000,1000,1000,1000,99928346,1567,1568,1565,1569
63318829,1000,1000,1000,1000,100028306,1566,1566,1565,1565
63321328,1000,1000,1000,1000,100128266,1566,1566,1566,1565
63323827,1000,1000,1000,1000,100228226,1566,1565,1566,1564
63326326,1000,1000,1000,1000,100328186,1565,1565,1566,1563
63328825,1000,1000,1000,1000,100428979,1564,1564,1565,1563
63331324,1000,1000,1000,1000,100528939,1563,1564,1564,1563
63333823,1000,1000,1000,1000,100628899,1562,1563,1564,1563
63336322,1000,1000,1000,1000,100728859,1562,1562,1563,1563
63338821,1000,1000,1000,1000,100828819,1561,1561,1562,1562
63341320,1000,1000,1000,1000,100928779,1561,1561,1561,1562
63343819,1000,1000,1000,1000,101028739,1561,1561,1561,1562
63346318,1000,1000,1000,1000,101128699,1561,1561,1561,1561
63348817,1000,1000,1000,1000,101228659,1560,1560,1561,1559
63351316,1000,1000,1000,1000,101328619,1559,1558,1559,1558
63353815,1000,1000,1000,1000,101428579,1558,1558,1559,1557
63356314,1000,1000,1000,1000,101528539,1558,1558,1558,1557
63358813,1000,1000,1000,1000,101628499,1557,1557,1558,1557
63361312,1000,1000,1000,1000,101728459,1558,1558,1558,1557
63363811,1000,1000,1000,1000,101828419,1558,1558,1559,1557
63366310,1000,1000,1000,1000,101928379,1558,1558,1559,1557
63368809,1000,1000,1000,1000,102028339,1559,1558,1560,1557
63371308,1000,1000,1000,1000,102128299,1559,1559,1558,1559
63373807,1000,1000,1000,1000,102228259,1559,1559,1557,1562
63376306,1000,1000,1000,1000,102328219,1558,1558,1556,1561
63378805,1000,1000,1000,1000,102428179,1559,1559,1557,1562
63381304,1000,1000,1000,1000,102528972,1558,1558,1555,1560
63383803,1000,1000,1000,1000,102628932,1555,1555,1553,1555
63386302,1000,1000,1000,1000,102728892,1551,1550,1550,1550
63388801,1000,1000,1000,1000,102828852,1544,1544,1544,1543
63391300,1000,1000,1000,1000,102928812,1539,1538,1539,1538
63393799,1000,1000,1000,1000,103028772,1531,1531,1531,1530
63396298,1000,1000,1000,1000,103128732,1524,1525,1524,1525
63398797,1000,1000,1000,1000,103228692,1521,1521,1520,1522
63401296,1000,1000,1000,1000,103328652,1521,1521,1520,1522
63403795,1000,1000,1000,1000,103428612,1521,1522,1521,1523
63406294,1000,1000,1000,1000,103528572,1523,1524,1523,1525
63408793,1000,1000,1000,1000,103628532,1527,1528,1527,1528
63411292,1000,1000,1000,1000,103728492,1532,1531,1532,1532
63413791,1000,1000,1000,1000,103828452,1536,1536,1536,1536
63416290,1000,1000,1000,1000,103928412,1540,1539,1540,1539
63418789,1000,1000,1000,1000,104028372,1542,1542,1542,1542
63421288,1000,1000,1000,1000,104128332,1544,1544,1544,1543
63423787,1000,1000,1000,1000,104228292,1545,1545,1545,1544
63426286,1000,1000,1000,1000,104328252,1545,1544,1545,1544
63428785,1000,1000,1000,1000,104428212,1546,1546,1546,1546
63431284,1000,1000,1000,1000,104528172,1546,1546,1546,1546
63433783,1000,1000,1000,1000,104628965,1546,1546,1546,1546
63436282,1000,1000,1000,1000,104728925,1546,1547,1546,1546
63438781,1000,1000,1000,1000,104828885,1547,1547,1547,1547
63441280,1000,1000,1000,1000,104928845,1546,1546,1546,1547
63443779,1000,1000,1000,1000,105028805,1545,1545,1545,1545
63446278,1000,1000,1000,1000,105128765,1546,1546,1546,1546
63448777,1000,1000,1000,1000,105228725,1546,1546,1546,1546
63451276,1000,1000,1000,1000,105328685,1545,1545,1546,1545
63453775,1000,1000,1000,1000,105428645,1545,1546,1546,1545
63456274,1000,1000,1000,1000,105528605,1545,1545,1545,1545
63458773,1000,1000,1000,1000,105628565,1545,1545,1545,1545
63461272,1000,1000,1000,1000,105728525,1545,1544,1545,1544
63463771,1000,1000,1000,1000,105828485,1544,1545,1544,1545
63466270,1000,1000,1000,1000,105928445,1544,1545,1544,1545
63468769,1000,1000,1000,1000,106028405,1544,1544,1544,1544
63471268,1000,1000,1000,1000,106128365,1544,1544,1545,1544
63473767,1000,1000,1000,1000,106228325,1544,1544,1544,1544
63476266,1000,1000,1000,1000,106328285,1544,1543,1544,1544
63478765,1000,1000,1000,1000,106428245,1544,1544,1544,1544
63481264,1000,1000,1000,1000,106528205,1544,1544,1544,1544
63483763,1000,1000,1000,1000,106628165,1544,1544,1544,1544
63486262,1000,1000,1000,1000,106728958,1544,1543,1544,1543
63488761,1000,1000,1000,1000,106828918,1544,1544,1544,1544
63491260,1000,1000,1000,1000,106928878,1544,1543,1544,1544
63493759,1000,1000,1000,1000,107028838,1543,1544,1544,1543
63496258,1000,1000,1000,1000,107128798,1544,1544,1544,1544
63498757,1000,1000,1000,1000,107228758,1544,1544,1543,1544
63501256,1000,1000,1000,1000,107328718,1544,1543,1543,1544
63503755,1000,1000,1000,1000,107428678,1545,1545,1545,1545
63506254,1000,1000,1000,1000,107528638,1544,1543,1544,1544
63508753,1000,1000,1000,1000,107628598,1545,1545,1545,1545
63511252,1000,1000,1000,1000,107728558,1545,1544,1544,1544
63513751,1000,1000,1000,1000,107828518,1545,1545,1545,1544
63516250,1000,1000,1000,1000,107928478,1544,1544,1544,1544
63518749,1000,1000,1000,1000,108028438,1543,1544,1544,1543
63521248,1000,1000,1000,1000,108128398,1544,1544,1544,1544
63523747,1000,1000,1000,1000,108228358,1544,1544,1544,1544
63526246,1000,1000,1000,1000,108328318,1544,1543,1544,1544
63528745,1000,1000,1000,1000,108428278,1544,1544,1544,1544
63531244,1000,1000,1000,1000,108528238,1544,1544,1544,1544
63533743,1000,1000,1000,1000,108628198,1544,1544,1544,1544
63536242,1000,1000,1000,1000,108728158,1544,1544,1544,1544
63538741,1000,1000,1000,1000,108828951,1544,1544,1544,1544
63541240,1000,1000,1000,1000,108928911,1544,1544,1544,1544
63543739,1000,1000,1000,1000,109028871,1544,1545,1545,1544
63546238,1000,1000,1000,1000,109128831,1545,1545,1544,1545
63548737,1000,1000,1000,1000,109228791,1545,1545,1545,1545
63551236,1000,1000,1000,1000,109328751,1545,1544,1544,1544
63553735,1000,1000,1000,1000,109428711,1544,1544,1544,1544
63556234,1000,1000,1000,1000,109528671,1544,1545,1545,1545
63558733,1000,1000,1000,1000,109628631,1544,1545,1545,1545
63561232,1000,1000,1000,1000,109728591,1545,1544,1544,1545
63563731,1000,1000,1000,1000,109828551,1544,1544,1544,1544
63566230,1000,1000,1000,1000,109928511,1545,1544,1544,1544
63568729,1000,1000,1000,1000,110028471,1544,1544,1544,1545
63571228,1000,1000,1000,1000,110128431,1544,1544,1545,1544
63573727,1000,1000,1000,1000,110228391,1544,1545,1545,1544
63576226,1000,1000,1000,1000,110328351,1544,1544,1544,1545
63578725,1000,1000,1000,1000,110428311,1544,1545,1545,1544
63581224,1000,1000,1000,1000,110528271,1545,1545,1545,1545
63583723,1000,1000,1000,1000,110628231,1545,1545,1545,1544
63586222,1000,1000,1000,1000,110728191,1544,1544,1544,1544
63588721,1000,1000,1000,1000,110828984,1544,1544,1544,1544
63591220,1000,1000,1000,1000,110928944,1544,1544,1544,1544
63593719,1000,1000,1000,1000,111028904,1545,1545,1545,1545
63596218,1000,1000,1000,1000,111128864,1544,1545,1544,1545
63598717,1000,1000,1000,1000,111228824,1544,1544,1544,1544
63601216,1000,1000,1000,1000,111328784,1544,1544,1544,1544
63603715,1000,1000,1000,1000,111428744,1543,1544,1544,1543
63606214,1000,1000,1000,1000,111528704,1544,1544,1544,1545
63608713,1000,1000,1000,1000,111628664,1545,1545,1545,1545
63611212,1000,1000,1000,1000,111728624,1545,1544,1544,1545
63613711,1000,1000,1000,1000,111828584,1544,1544,1545,1544
63616210,1000,1000,1000,1000,111928544,1544,1544,1544,1544
63618709,1000,1000,1000,1000,112028504,1544,1545,1545,1544
63621208,1000,1000,1000,1000,112128464,1545,1545,1545,1545
63623707,1000,1000,1000,1000,112228424,1544,1544,1544,1544
63626206,1000,1000,1000,1000,112328384,1545,1545,1545,1545
63628705,1000,1000,1000,1000,112428344,1544,1544,1544,1544
63631204,1000,1000,1000,1000,112528304,1546,1545,1545,1546
63633703,1000,1000,1000,1000,112628264,1544,1544,1544,1544
63636202,1000,1000,1000,1000,112728224,1545,1545,1545,1545
63638701,1000,1000,1000,1000,112828184,1544,1545,1545,1544
63641200,1000,1000,1000,1000,112928977,1432,1405,1432,1404
63643699,1000,1000,1000,1000,113028937,1333,1273,1334,1271
63646198,1000,1000,1000,1000,113128897,1300,1225,1301,1224
63648697,1000,1000,1000,1000,113228857,1287,1206,1288,1204
63651196,1000,1000,1000,1000,113328817,1262,1167,1263,1165
63653695,1000,1000,1000,1000,113428777,1218,1152,1220,1150
63656194,1000,1000,1000,1000,113528737,1157,1151,1157,1150
63658693,1000,1000,1000,1000,113628697,1156,1151,1157,1150
63661192,1000,1000,1000,1000,113728657,1156,1151,1157,1150
63663691,1000,1000,1000,1000,113828617,1157,1150,1142,1170
63666190,1000,1000,1000,1000,113928577,1157,1150,1148,1163
63668689,1000,1000,1000,1000,114028537,1157,1150,1150,1160
63671188,1000,1000,1000,1000,114128497,1157,1150,1150,1159
63673687,1000,1000,1000,1000,114228457,1157,1150,1150,1160
63676186,1000,1000,1000,1000,114328417,1157,1150,1149,1161
63678685,1000,1000,1000,1000,114428377,1157,1150,1149,1161
63681184,1000,1000,1000,1000,114528337,1157,1150,1148,1162
63683683,1000,1000,1000,1000,114628297,1157,1150,1155,1154
63686182,1000,1000,1000,1000,114728257,1157,1150,1154,1155
63688681,1000,1000,1000,1000,114828217,1157,1150,1153,1155
63691180,1000,1000,1000,1000,114928177,1157,1150,1153,1156
63693679,1000,1000,1000,1000,115028970,1157,1150,1153,1156
63696178,1000,1000,1000,1000,115128930,1000,1000,1000,1000
63698677,1000,1000,1000,1000,115228890,1000,1000,1000,1000
63701176,1000,1000,1000,1000,115328850,1000,1000,1000,1000
63703675,1000,1000,1000,1000,115428810,1000,1000,1000,1000
63706174,1000,1000,1000,1000,115528770,1000,1000,1000,1000
63708673,1000,1000,1000,1000,115628730,1000,1000,1000,1000
63711172,1000,1000,1000,1000,115728690,1000,1000,1000,1000
63713671,1000,1000,1000,1000,115828650,1000,1000,1000,1000
63716170,1000,1000,1000,1000,115928610,1000,1000,1000,1000
63718669,1000,1000,1000,1000,116028570,1000,1000,1000,1000
63721168,1000,1000,1000,1000,116128530,1000,1000,1000,1000
63723667,1000,1000,1000,1000,116228490,1000,1000,1000,1000
63726166,1000,1000,1000,1000,116328450,1000,1000,1000,1000
63728665,1000,1000,1000,1000,116428410,1000,1000,1000,1000
63731164,1000,1000,1000,1000,116528370,1000,1000,1000,1000
63733663,1000,1000,1000,1000,116628330,1000,1000,1000,1000
63736162,1000,1000,1000,1000,116728290,1000,1000,1000,1000
63738661,1000,1000,1000,1000,116828250,1000,1000,1000,1000
63741160,1000,1000,1000,1000,116928210,1000,1000,1000,1000
63743659,1000,1000,1000,1000,117028170,1000,1000,1000,1000
63746158,1000,1000,1000,1000,117128963,1000,1000,1000,1000
63748657,1000,1000,1000,1000,117228923,1000,1000,1000,1000
63751156,1000,1000,1000,1000,117328883,1000,1000,1000,1000
63753655,1000,1000,1000,1000,117428843,1000,1000,1000,1000
63756154,1000,1000,1000,1000,117528803,1000,1000,1000,1000
63758653,1000,1000,1000,1000,117628763,1000,1000,1000,1000
63761152,1000,1000,1000,1000,117728723,1000,1000,1000,1000
63763651,1000,1000,1000,1000,117828683,1000,1000,1000,1000
63766150,1000,1000,1000,1000,117928643,1000,1000,1000,1000
63768649,1000,1000,1000,1000,118028603,1000,1000,1000,1000
63771148,1000,1000,1000,1000,118128563,1000,1000,1000,1000
63773647,1000,1000,1000,1000,118228523,1000,1000,1000,1000
63776146,1000,1000,1000,1000,118328483,1000,1000,1000,1000
63778645,1000,1000,1000,1000,118428443,1000,1000,1000,1000
63781144,1000,1000,1000,1000,118528403,1000,1000,1000,1000
63783643,1000,1000,1000,1000,118628363,1000,1000,1000,1000
63786142,1000,1000,1000,1000,118728323,1000,1000,1000,1000
63788641,1000,1000,1000,1000,118828283,1000,1000,1000,1000
63791140,1000,1000,1000,1000,118928243,1000,1000,1000,1000
63793639,1000,1000,1000,1000,119028203,1000,1000,1000,1000
63796138,1000,1000,1000,1000,119128163,1000,1000,1000,1000
63798637,1000,1000,1000,1000,119228956,1000,1000,1000,1000
63801136,1000,1000,1000,1000,119328916,1000,1000,1000,1000
63803635,1000,1000,1000,1000,119428876,1000,1000,1000,1000
63806134,1000,1000,1000,1000,119528836,1000,1000,1000,1000
63808633,1000,1000,1000,1000,119628796,1000,1000,1000,1000
63811132,1000,1000,1000,1000,119728756,1000,1000,1000,1000
63813631,1000,1000,1000,1000,119828716,1000,1000,1000,1000
63816130,1000,1000,1000,1000,119928676,1000,1000,1000,1000
63818629,1000,1000,1000,1000,120028636,1000,1000,1000,1000
63821128,1000,1000,1000,1000,120128596,1000,1000,1000,1000
63823627,1000,1000,1000,1000,120228556,1000,1000,1000,1000
63826126,1000,1000,1000,1000,120328516,1000,1000,1000,1000
63828625,1000,1000,1000,1000,120428476,1000,1000,1000,1000
63831124,1000,1000,1000,1000,120528436,1000,1000,1000,1000
63833623,1000,1000,1000,1000,120628396,1000,1000,1000,1000
63836122,1000,1000,1000,1000,120728356,1000,1000,1000,1000
63838621,1000,1000,1000,1000,120828316,1000,1000,1000,1000
63841120,1000,1000,1000,1000,120928276,1000,1000,1000,1000
63843619,1000,1000,1000,1000,121028236,1000,1000,1000,1000
63846118,1000,1000,1000,1000,121128196,1000,1000,1000,1000
63848617,1000,1000,1000,1000,121228156,1000,1000,1000,1000
63851116,1000,1000,1000,1000,121328949,1000,1000,1000,1000
63853615,1000,1000,1000,1000,121428909,1000,1000,1000,1000
63856114,1000,1000,1000,1000,121528869,1000,1000,1000,1000
63858613,1000,1000,1000,1000,121628829,1000,1000,1000,1000
63861112,1000,1000,1000,1000,121728789,1000,1000,1000,1000
63863611,1000,1000,1000,1000,121828749,1000,1000,1000,1000
63866110,1000,1000,1000,1000,121928709,1000,1000,1000,1000
63868609,1000,1000,1000,1000,122028669,1000,1000,1000,1000
63871108,1000,1000,1000,1000,122128629,1000,1000,1000,1000
63873607,1000,1000,1000,1000,122228589,1000,1000,1000,1000
63876106,1000,1000,1000,1000,122328549,1000,1000,1000,1000
63878605,1000,1000,1000,1000,122428509,1000,1000,1000,1000
63881104,1000,1000,1000,1000,122528469,1000,1000,1000,1000
63883603,1000,1000,1000,1000,122628429,1000,1000,1000,1000
63886102,1000,1000,1000,1000,122728389,1000,1000,1000,1000
63888601,1000,1000,1000,1000,122828349,1000,1000,1000,1000
63891100,1000,1000,1000,1000,122928309,1000,1000,1000,1000
63893599,1000,1000,1000,1000,123028269,1000,1000,1000,1000
63896098,1000,1000,1000,1000,123128229,1000,1000,1000,1000
63898597,1000,1000,1000,1000,123228189,1000,1000,1000,1000
63901096,1000,1000,1000,1000,123328982,1000,1000,1000,1000
63903595,1000,1000,1000,1000,123428942,1000,1000,1000,1000
63906094,1000,1000,1000,1000,123528902,1000,1000,1000,1000
63908593,1000,1000,1000,1000,123628862,1000,1000,1000,1000
63911092,1000,1000,1000,1000,123728822,1000,1000,1000,1000
63913591,1000,1000,1000,1000,123828782,1000,1000,1000,1000
63916090,1000,1000,1000,1000,123928742,1000,1000,1000,1000
63918589,1000,1000,1000,1000,124028702,1000,1000,1000,1000
63921088,1000,1000,1000,1000,124128662,1000,1000,1000,1000
63923587,1000,1000,1000,1000,124228622,1000,1000,1000,1000
63926086,1000,1000,1000,1000,124328582,1000,1000,1000,1000
63928585,1000,1000,1000,1000,124428542,1000,1000,1000,1000
63931084,1000,1000,1000,1000,124528502,1000,1000,1000,1000
63933583,1000,1000,1000,1000,124628462,1000,1000,1000,1000
63936082,1000,1000,1000,1000,124728422,1000,1000,1000,1000
63938581,1000,1000,1000,1000,124828382,1000,1000,1000,1000
63941080,1000,1000,1000,1000,124928342,1000,1000,1000,1000
63943579,1000,1000,1000,1000,125028302,1000,1000,1000,1000
63946078,1000,1000,1000,1000,125128262,1000,1000,1000,1000
63948577,1000,1000,1000,1000,125228222,1000,1000,1000,1000
63951076,1000,1000,1000,1000,125328182,1000,1000,1000,1000
63953575,1000,1000,1000,1000,125428975,1000,1000,1000,1000
63956074,1000,1000,1000,1000,125528935,1000,1000,1000,1000
63958573,1000,1000,1000,1000,125628895,1000,1000,1000,1000
63961072,1000,1000,1000,1000,125728855,1000,1000,1000,1000
63963571,1000,1000,1000,1000,125828815,1000,1000,1000,1000
63966070,1000,1000,1000,1000,125928775,1000,1000,1000,1000
63968569,1000,1000,1000,1000,126028735,1000,1000,1000,1000
63971068,1000,1000,1000,1000,126128695,1000,1000,1000,1000
63973567,1000,1000,1000,1000,126228655,1000,1000,1000,1000
63976066,1000,1000,1000,1000,126328615,1000,1000,1000,1000
63978565,1000,1000,1000,1000,126428575,1000,1000,1000,1000
63981064,1000,1000,1000,1000,126528535,1000,1000,1000,1000
63983563,1000,1000,1000,1000,126628495,1000,1000,1000,1000
63986062,1000,1000,1000,1000,126728455,1000,1000,1000,1000
63988561,1000,1000,1000,1000,126828415,1000,1000,1000,1000
63991060,1000,1000,1000,1000,126928375,1000,1000,1000,1000
63993559,1000,1000,1000,1000,127028335,1000,1000,1000,1000
63996058,1000,1000,1000,1000,127128295,1000,1000,1000,1000
63998557,1000,1000,1000,1000,127228255,1000,1000,1000,1000
64001056,1000,1000,1000,1000,127328215,1000,1000,1000,1000
64003555,1000,1000,1000,1000,127428175,1000,1000,1000,1000
64006054,1000,1000,1000,1000,127528968,1000,1000,1000,1000
64008553,1000,1000,1000,1000,127628928,1000,1000,1000,1000
64011052,1000,1000,1000,1000,127728888,1000,1000,1000,1000
64013551,1000,1000,1000,1000,127828848,1000,1000,1000,1000
64016050,1000,1000,1000,1000,127928808,1000,1000,1000,1000
64018549,1000,1000,1000,1000,128028768,1000,1000,1000,1000
64021048,1000,1000,1000,1000,128128728,1000,1000,1000,1000
64023547,1000,1000,1000,1000,128228688,1000,1000,1000,1000
64026046,1000,1000,1000,1000,128328648,1000,1000,1000,1000
64028545,1000,1000,1000,1000,128428608,1000,1000,1000,1000
64031044,1000,1000,1000,1000,128528568,1000,1000,1000,1000
64033543,1000,1000,1000,1000,128628528,1000,1000,1000,1000
64036042,1000,1000,1000,1000,128728488,1000,1000,1000,1000
64038541,1000,1000,1000,1000,128828448,1000,1000,1000,1000
64041040,1000,1000,1000,1000,128928408,1000,1000,1000,1000
64043539,1000,1000,1000,1000,129028368,1000,1000,1000,1000
64046038,1000,1000,1000,1000,129128328,1000,1000,1000,1000
64048537,1000,1000,1000,1000,129228288,1000,1000,1000,1000
64051036,1000,1000,1000,1000,129328248,1000,1000,1000,1000
64053535,1000,1000,1000,1000,129428208,1000,1000,1000,1000
64056034,1000,1000,1000,1000,129528168,1000,1000,1000,1000
64058533,1000,1000,1000,1000,129628961,1000,1000,1000,1000
64061032,1000,1000,1000,1000,129728921,1000,1000,1000,1000
64063531,1000,1000,1000,1000,129828881,1000,1000,1000,1000
64066030,1000,1000,1000,1000,129928841,1000,1000,1000,1000
64068529,1000,1000,1000,1000,130028801,1000,1000,1000,1000
64071028,1000,1000,1000,1000,,,,,
64073527,1000,1000,1000,1000,,,,,
64076026,1000,1000,1000,1000,,,,,
64078525,1000,1000,1000,1000,,,,,
64081024,1000,1000,1000,1000,,,,,
64083523,1000,1000,1000,1000,,,,,
64086022,1000,1000,1000,1000,,,,,
64088521,1000,1000,1000,1000,,,,,
64091020,1000,1000,1000,1000,,,,,
64093519,1000,1000,1000,1000,,,,,
64096018,1000,1000,1000,1000,,,,,
64098517,1000,1000,1000,1000,,,,,
64101016,1000,1000,1000,1000,,,,,
64103515,1000,1000,1000,1000,,,,,
64106014,1000,1000,1000,1000,,,,,
64108513,1000,1000,1000,1000,,,,,
64111012,1000,1000,1000,1000,,,,,
64113511,1000,1000,1000,1000,,,,,
64116010,1000,1000,1000,1000,,,,,
64118509,1000,1000,1000,1000,,,,,
64121008,1000,1000,1000,1000,,,,,
64123507,1000,1000,1000,1000,,,,,
64126006,1000,1000,1000,1000,,,,,
64128505,1000,1000,1000,1000,,,,,
64131004,1000,1000,1000,1000,,,,,
64133503,1000,1000,1000,1000,,,,,
64136002,1000,1000,1000,1000,,,,,
64138501,1000,1000,1000,1000,,,,,
64141000,1000,1000,1000,1000,,,,,
64143499,1000,1000,1000,1000,,,,,
64145998,1000,1000,1000,1000,,,,,
64148497,1000,1000,1000,1000,,,,,
64150996,1000,1000,1000,1000,,,,,
64153495,1000,1000,1000,1000,,,,,
64155994,1000,1000,1000,1000,,,,,
64158493,1000,1000,1000,1000,,,,,
64160992,1000,1000,1000,1000,,,,,
64163491,1000,1000,1000,1000,,,,,
64165990,1000,1000,1000,1000,,,,,
64168489,1000,1000,1000,1000,,,,,
64170988,1000,1000,1000,1000,,,,,
64173487,1000,1000,1000,1000,,,,,
64175986,1000,1000,1000,1000,,,,,
64178485,1000,1000,1000,1000,,,,,
64180984,1000,1000,1000,1000,,,,,
64183483,1000,1000,1000,1000,,,,,
64185982,1000,1000,1000,1000,,,,,
64188481,1000,1000,1000,1000,,,,,
64190980,1000,1000,1000,1000,,,,,
64193479,1000,1000,1000,1000,,,,,
64195978,1000,1000,1000,1000,,,,,
64198477,1000,1000,1000,1000,,,,,
64200976,1000,1000,1000,1000,,,,,
64203475,1000,1000,1000,1000,,,,,
64205974,1000,1000,1000,1000,,,,,
64208473,1000,1000,1000,1000,,,,,
64210972,1000,1000,1000,1000,,,,,
64213471,1000,1000,1000,1000,,,,,
64215970,1000,1000,1000,1000,,,,,
64218469,1000,1000,1000,1000,,,,,
64220968,1000,1000,1000,1000,,,,,
64223467,1000,1000,1000,1000,,,,,
64225966,1000,1000,1000,1000,,,,,
64228465,1000,1000,1000,1000,,,,,
64230964,1000,1000,1000,1000,,,,,
64233463,1000,1000,1000,1000,,,,,
64235962,1000,1000,1000,1000,,,,,
64238461,1000,1000,1000,1000,,,,,
64240960,1000,1000,1000,1000,,,,,
64243459,1000,1000,1000,1000,,,,,
64245958,1000,1000,1000,1000,,,,,
64248457,1000,1000,1000,1000,,,,,
64250956,1000,1000,1000,1000,,,,,
64253455,1000,1000,1000,1000,,,,,
64255954,1000,1000,1000,1000,,,,,
64258453,1000,1000,1000,1000,,,,,
64260952,1000,1000,1000,1000,,,,,
64263451,1000,1000,1000,1000,,,,,
64265950,1000,1000,1000,1000,,,,,
64268449,1000,1000,1000,1000,,,,,
64270948,1000,1000,1000,1000,,,,,
64273447,1000,1000,1000,1000,,,,,
64275946,1000,1000,1000,1000,,,,,
64278445,1000,1000,1000,1000,,,,,
64280944,1000,1000,1000,1000,,,,,
64283443,1000,1000,1000,1000,,,,,
64285942,1000,1000,1000,1000,,,,,
64288441,1000,1000,1000,1000,,,,,
64290940,1000,1000,1000,1000,,,,,
64293439,1000,1000,1000,1000,,,,,
64295938,1000,1000,1000,1000,,,,,
64298437,1000,1000,1000,1000,,,,,
64300936,1000,1000,1000,1000,,,,,
64303435,1000,1000,1000,1000,,,,,
64305934,1000,1000,1000,1000,,,,,
64308433,1000,1000,1000,1000,,,,,
64310932,1000,1000,1000,1000,,,,,
64313431,1000,1000,1000,1000,,,,,
64315930,1000,1000,1000,1000,,,,,
64318429,1000,1000,1000,1000,,,,,
64320928,1000,1000,1000,1000,,,,,
64323427,1000,1000,1000,1000,,,,,
64325926,1000,1000,1000,1000,,,,,
64328425,1000,1000,1000,1000,,,,,
64330924,1000,1000,1000,1000,,,,,
64333423,1000,1000,1000,1000,,,,,
64335922,1000,1000,1000,1000,,,,,
64338421,1000,1000,1000,1000,,,,,
64340920,1000,1000,1000,1000,,,,,
64343419,1000,1000,1000,1000,,,,,
64345918,1000,1000,1000,1000,,,,,
64348417,1000,1000,1000,1000,,,,,
64350916,1000,1000,1000,1000,,,,,
64353415,1000,1000,1000,1000,,,,,
64355914,1000,1000,1000,1000,,,,,
64358413,1000,1000,1000,1000,,,,,
64360912,1000,1000,1000,1000,,,,,
64363411,1000,1000,1000,1000,,,,,
64365910,1000,1000,1000,1000,,,,,
64368409,1000,1000,1000,1000,,,,,
64370908,1000,1000,1000,1000,,,,,
64373407,1000,1000,1000,1000,,,,,
64375906,1000,1000,1000,1000,,,,,
64378405,1000,1000,1000,1000,,,,,
64380904,1000,1000,1000,1000,,,,,
64383403,1000,1000,1000,1000,,,,,
64385902,1001,1001,1001,1001,,,,,
64388401,1002,1002,1002,1002,,,,,
64390900,1003,1003,1003,1003,,,,,
64393399,1003,1003,1003,1003,,,,,
64395898,1004,1004,1004,1004,,,,,
64398397,1005,1005,1005,1005,,,,,
64400896,1006,1006,1006,1006,,,,,
64403395,1006,1006,1006,1006,,,,,
64405894,1007,1007,1007,1007,,,,,
64408393,1008,1008,1008,1008,,,,,
64410892,1009,1009,1009,1009,,,,,
64413391,1009,1009,1009,1009,,,,,
64415890,1010,1010,1010,1010,,,,,
64418389,1011,1011,1011,1011,,,,,
64420888,1012,1012,1012,1012,,,,,
64423387,1012,1012,1012,1012,,,,,
64425886,1013,1013,1013,1013,,,,,
64428385,1014,1014,1014,1014,,,,,
64430884,1015,1015,1015,1015,,,,,
64433383,1015,1015,1015,1015,,,,,
64435882,1016,1016,1016,1016,,,,,
64438381,1017,1017,1017,1017,,,,,
64440880,1018,1018,1018,1018,,,,,
64443379,1018,1018,1018,1018,,,,,
64445878,1019,1019,1019,1019,,,,,
64448377,1020,1020,1020,1020,,,,,
64450876,1021,1021,1021,1021,,,,,
64453375,1021,1021,1021,1021,,,,,
64455874,1022,1022,1022,1022,,,,,
64458373,1023,1023,1023,1023,,,,,
64460872,1024,1024,1024,1024,,,,,
64463371,1024,1024,1024,1024,,,,,
64465870,1025,1025,1025,1025,,,,,
64468369,1026,1026,1026,1026,,,,,
64470868,1027,1027,1027,1027,,,,,
64473367,1027,1027,1027,1027,,,,,
64475866,1028,1028,1028,1028,,,,,
64478365,1029,1029,1029,1029,,,,,
64480864,1030,1030,1030,1030,,,,,
64483363,1030,1030,1030,1030,,,,,
64485862,1031,1031,1031,1031,,,,,
64488361,1032,1032,1032,1032,,,,,
64490860,1033,1033,1033,1033,,,,,
64493359,1033,1033,1033,1033,,,,,
64495858,1034,1034,1034,1034,,,,,
64498357,1035,1035,1035,1035,,,,,
64500856,1036,1036,1036,1036,,,,,
64503355,1036,1036,1036,1036,,,,,
64505854,1037,1037,1037,1037,,,,,
64508353,1038,1038,1038,1038,,,,,
64510852,1039,1039,1039,1039,,,,,
64513351,1039,1039,1039,1039,,,,,
64515850,1040,1040,1040,1040,,,,,
64518349,1041,1041,1041,1041,,,,,
64520848,1042,1042,1042,1042,,,,,
64523347,1042,1042,1042,1042,,,,,
64525846,1043,1043,1043,1043,,,,,
64528345,1044,1044,1044,1044,,,,,
64530844,1045,1045,1045,1045,,,,,
64533343,1045,1045,1045,1045,,,,,
64535842,1046,1046,1046,1046,,,,,
64538341,1047,1047,1047,1047,,,,,
64540840,1048,1048,1048,1048,,,,,
64543339,1048,1048,1048,1048,,,,,
64545838,1049,1049,1049,1049,,,,,
64548337,1050,1050,1050,1050,,,,,
64550836,1051,1051,1051,1051,,,,,
64553335,1051,1051,1051,1051,,,,,
64555834,1052,1052,1052,1052,,,,,
64558333,1053,1053,1053,1053,,,,,
64560832,1054,1054,1054,1054,,,,,
64563331,1054,1054,1054,1054,,,,,
64565830,1055,1055,1055,1055,,,,,
64568329,1056,1056,1056,1056,,,,,
64570828,1057,1057,1057,1057,,,,,
64573327,1057,1057,1057,1057,,,,,
64575826,1058,1058,1058,1058,,,,,
64578325,1059,1059,1059,1059,,,,,
64580824,1060,1060,1060,1060,,,,,
64583323,1060,1060,1060,1060,,,,,
64585822,1061,1061,1061,1061,,,,,
64588321,1062,1062,1062,1062,,,,,
64590820,1063,1063,1063,1063,,,,,
64593319,1063,1063,1063,1063,,,,,
64595818,1064,1064,1064,1064,,,,,
64598317,1065,1065,1065,1065,,,,,
64600816,1066,1066,1066,1066,,,,,
64603315,1066,1066,1066,1066,,,,,
64605814,1067,1067,1067,1067,,,,,
64608313,1068,1068,1068,1068,,,,,
64610812,1069,1069,1069,1069,,,,,
64613311,1069,1069,1069,1069,,,,,
64615810,1070,1070,1070,1070,,,,,
64618309,1071,1071,1071,1071,,,,,
64620808,1072,1072,1072,1072,,,,,
64623307,1072,1072,1072,1072,,,,,
64625806,1073,1073,1073,1073,,,,,
64628305,1074,1074,1074,1074,,,,,
64630804,1075,1075,1075,1075,,,,,
64633303,1075,1075,1075,1075,,,,,
64635802,1076,1076,1076,1076,,,,,
64638301,1077,1077,1077,1077,,,,,
64640800,1078,1078,1078,1078,,,,,
64643299,1078,1078,1078,1078,,,,,
64645798,1079,1079,1079,1079,,,,,
64648297,1080,1080,1080,1080,,,,,
64650796,1081,1081,1081,1081,,,,,
64653295,1081,1081,1081,1081,,,,,
64655794,1082,1082,1082,1082,,,,,
64658293,1083,1083,1083,1083,,,,,
64660792,1084,1084,1084,1084,,,,,
64663291,1084,1084,1084,1084,,,,,
64665790,1085,1085,1085,1085,,,,,
64668289,1086,1086,1086,1086,,,,,
64670788,1087,1087,1087,1087,,,,,
64673287,1087,1087,1087,1087,,,,,
64675786,1088,1088,1088,1088,,,,,
64678285,1089,1089,1089,1089,,,,,
64680784,1090,1090,1090,1090,,,,,
64683283,1090,1090,1090,1090,,,,,
64685782,1091,1091,1091,1091,,,,,
64688281,1092,1092,1092,1092,,,,,
64690780,1093,1093,1093,1093,,,,,
64693279,1093,1093,1093,1093,,,,,
64695778,1094,1094,1094,1094,,,,,
64698277,1095,1095,1095,1095,,,,,
64700776,1096,1096,1096,1096,,,,,
64703275,1096,1096,1096,1096,,,,,
64705774,1097,1097,1097,1097,,,,,
64708273,1098,1098,1098,1098,,,,,
64710772,1099,1099,1099,1099,,,,,
64713271,1099,1099,1099,1099,,,,,
64715770,1100,1100,1100,1100,,,,,
64718269,1101,1101,1101,1101,,,,,
64720768,1101,1101,1101,1101,,,,,
64723267,1102,1102,1102,1102,,,,,
64725766,1103,1103,1103,1103,,,,,
64728265,1104,1104,1104,1104,,,,,
64730764,1104,1104,1104,1104,,,,,
64733263,1105,1105,1105,1105,,,,,
64735762,1106,1106,1106,1106,,,,,
64738261,1107,1107,1107,1107,,,,,
64740760,1107,1107,1107,1107,,,,,
64743259,1108,1108,1108,1108,,,,,
64745758,1109,1109,1109,1109,,,,,
64748257,1110,1110,1110,1110,,,,,
64750756,1110,1110,1110,1110,,,,,
64753255,1111,1111,1111,1111,,,,,
64755754,1112,1112,1112,1112,,,,,
64758253,1113,1113,1113,1113,,,,,
64760752,1113,1113,1113,1113,,,,,
64763251,1114,1114,1114,1114,,,,,
64765750,1115,1115,1115,1115,,,,,
64768249,1116,1116,1116,1116,,,,,
64770748,1116,1116,1116,1116,,,,,
64773247,1117,1117,1117,1117,,,,,
64775746,1118,1118,1118,1118,,,,,
64778245,1119,1119,1119,1119,,,,,
64780744,1119,1119,1119,1119,,,,,
64783243,1120,1120,1120,1120,,,,,
64785742,1121,1121,1121,1121,,,,,
64788241,1122,1122,1122,1122,,,,,
64790740,1122,1122,1122,1122,,,,,
64793239,1123,1123,1123,1123,,,,,
64795738,1124,1124,1124,1124,,,,,
64798237,1125,1125,1125,1125,,,,,
64800736,1125,1125,1125,1125,,,,,
64803235,1126,1126,1126,1126,,,,,
64805734,1127,1127,1127,1127,,,,,
64808233,1128,1128,1128,1128,,,,,
64810732,1128,1128,1128,1128,,,,,
64813231,1129,1129,1129,1129,,,,,
64815730,1130,1130,1130,1130,,,,,
64818229,1131,1131,1131,1131,,,,,
64820728,1131,1131,1131,1131,,,,,
64823227,1132,1132,1132,1132,,,,,
64825726,1133,1133,1133,1133,,,,,
64828225,1134,1134,1134,1134,,,,,
64830724,1134,1134,1134,1134,,,,,
64833223,1135,1135,1135,1135,,,,,
64835722,1136,1136,1136,1136,,,,,
64838221,1137,1137,1137,1137,,,,,
64840720,1137,1137,1137,1137,,,,,
64843219,1138,1138,1138,1138,,,,,
64845718,1139,1139,1139,1139,,,,,
64848217,1140,1140,1140,1140,,,,,
64850716,1140,1140,1140,1140,,,,,
64853215,1141,1141,1141,1141,,,,,
64855714,1142,1142,1142,1142,,,,,
64858213,1143,1143,1143,1143,,,,,
64860712,1143,1143,1143,1143,,,,,
64863211,1144,1144,1144,1144,,,,,
64865710,1145,1145,1145,1145,,,,,
64868209,1146,1146,1146,1146,,,,,
64870708,1146,1146,1146,1146,,,,,
64873207,1147,1147,1147,1147,,,,,
64875706,1148,1148,1148,1148,,,,,
64878205,1149,1149,1149,1149,,,,,
64880704,1149,1149,1149,1149,,,,,
64883203,1150,1150,1150,1150,,,,,
64885702,1162,1152,1153,1163,,,,,
64888201,1170,1160,1161,1171,,,,,
64890700,1178,1168,1169,1179,,,,,
64893199,1186,1176,1177,1186,,,,,
64895698,1193,1184,1185,1194,,,,,
64898197,1201,1192,1192,1201,,,,,
64900696,1208,1199,1200,1209,,,,,
64903195,1215,1206,1207,1216,,,,,
64905694,1222,1213,1214,1223,,,,,
64908193,1229,1221,1221,1230,,,,,
64910692,1236,1228,1228,1237,,,,,
64913191,1243,1234,1235,1244,,,,,
64915690,1250,1241,1242,1250,,,,,
64918189,1256,1248,1249,1257,,,,,
64920688,1263,1254,1255,1263,,,,,
64923187,1269,1261,1262,1270,,,,,
64925686,1276,1267,1268,1276,,,,,
64928185,1282,1274,1274,1282,,,,,
64930684,1288,1280,1281,1289,,,,,
64933183,1294,1286,1287,1295,,,,,
64935682,1300,1292,1293,1301,,,,,
64938181,1306,1298,1299,1307,,,,,
64940680,1312,1304,1305,1313,,,,,
64943179,1318,1310,1311,1319,,,,,
64945678,1324,1316,1317,1324,,,,,
64948177,1330,1322,1323,1330,,,,,
64950676,1336,1328,1329,1336,,,,,
64953175,1341,1334,1334,1341,,,,,
64955674,1347,1339,1340,1347,,,,,
64958173,1352,1345,1346,1353,,,,,
64960672,1358,1350,1351,1358,,,,,
64963171,1363,1356,1357,1363,,,,,
64965670,1369,1361,1362,1369,,,,,
64968169,1374,1367,1367,1374,,,,,
64970668,1379,1372,1373,1379,,,,,
64973167,1385,1377,1378,1385,,,,,
64975666,1390,1383,1383,1390,,,,,
64978165,1395,1388,1389,1395,,,,,
64980664,1400,1393,1394,1400,,,,,
64983163,1405,1398,1399,1405,,,,,
64985662,1410,1403,1404,1410,,,,,
64988161,1415,1408,1409,1415,,,,,
64990660,1420,1413,1414,1420,,,,,
64993159,1425,1418,1419,1425,,,,,
64995658,1430,1423,1424,1430,,,,,
64998157,1435,1428,1429,1435,,,,,
65000656,1440,1433,1434,1440,,,,,
65003155,1445,1438,1438,1445,,,,,
65005654,1449,1443,1443,1449,,,,,
65008986,1454,1447,1448,1454,,,,,
65011485,1459,1452,1453,1459,,,,,
65013984,1463,1457,1457,1464,,,,,
65016483,1468,1461,1462,1468,,,,,
65018982,1473,1466,1467,1473,,,,,
65021481,1477,1471,1471,1477,,,,,
65023980,1482,1475,1476,1482,,,,,
65026479,1486,1480,1480,1486,,,,,
65028978,1491,1484,1485,1491,,,,,
65031477,1495,1489,1489,1495,,,,,
65033976,1500,1493,1494,1500,,,,,
65036475,1504,1498,1498,1504,,,,,
65038974,1509,1502,1503,1509,,,,,
65041473,1513,1507,1507,1513,,,,,
65043972,1517,1511,1511,1517,,,,,
65046471,1522,1515,1516,1522,,,,,
65048970,1526,1520,1520,1526,,,,,
65051469,1530,1524,1524,1530,,,,,
65053968,1534,1528,1529,1535,,,,,
65056467,1539,1532,1533,1539,,,,,
65058966,1543,1537,1537,1543,,,,,
65061465,1547,1541,1541,1547,,,,,
65063964,1551,1545,1545,1551,,,,,
65066463,1555,1549,1550,1556,,,,,
65068962,1559,1553,1554,1560,,,,,
65071461,1564,1557,1558,1564,,,,,
65073960,1568,1561,1562,1568,,,,,
65076459,1572,1565,1566,1572,,,,,
65078958,1576,1569,1570,1576,,,,,
65081457,1580,1573,1574,1580,,,,,
65083956,1584,1577,1578,1584,,,,,
65086455,1588,1581,1582,1588,,,,,
65088954,1592,1585,1586,1592,,,,,
65091453,1596,1589,1590,1596,,,,,
65093952,1600,1593,1594,1600,,,,,
65096451,1604,1597,1598,1604,,,,,
65098950,1608,1601,1602,1608,,,,,
65101449,1611,1605,1606,1611,,,,,
65103948,1615,1609,1609,1615,,,,,
65106447,1619,1613,1613,1619,,,,,
65108946,1623,1616,1617,1623,,,,,
65111445,1627,1620,1621,1627,,,,,
65113944,1631,1624,1625,1630,,,,,
65116443,1634,1628,1629,1634,,,,,
65118942,1638,1632,1632,1638,,,,,
65121441,1642,1635,1636,1642,,,,,
65123940,1645,1639,1640,1645,,,,,
65126439,1649,1643,1644,1649,,,,,
65128938,1653,1646,1647,1653,,,,,
65131437,1657,1650,1651,1656,,,,,
65133936,1660,1654,1655,1660,,,,,
65136435,1664,1657,1658,1664,,,,,
65138934,1667,1661,1662,1667,,,,,
65141433,1671,1665,1666,1671,,,,,
65143932,1675,1668,1669,1675,,,,,
65146431,1678,1672,1673,1678,,,,,
65148930,1682,1676,1676,1682,,,,,
65151429,1685,1679,1680,1685,,,,,
65153928,1689,1683,1684,1689,,,,,
65156427,1692,1686,1687,1692,,,,,
65158926,1696,1690,1691,1696,,,,,
65161425,1699,1693,1694,1699,,,,,
65163924,1703,1697,1698,1703,,,,,
65166423,1706,1700,1701,1706,,,,,
65168922,1710,1704,1705,1710,,,,,
65171421,1713,1708,1708,1713,,,,,
65173920,1717,1711,1711,1717,,,,,
65176419,1720,1714,1715,1720,,,,,
65178918,1723,1718,1718,1724,,,,,
65181417,1727,1721,1722,1727,,,,,
65183916,1730,1725,1725,1730,,,,,
65186415,1733,1728,1729,1734,,,,,
65188914,1737,1732,1732,1737,,,,,
65191413,1740,1735,1735,1740,,,,,
65193912,1744,1738,1739,1744,,,,,
65196411,1747,1742,1742,1747,,,,,
65198910,1750,1745,1745,1751,,,,,
65201409,1753,1748,1749,1754,,,,,
65203908,1757,1752,1752,1757,,,,,
65206407,1760,1755,1755,1760,,,,,
65208906,1763,1758,1758,1764,,,,,
65211405,1767,1762,1762,1767,,,,,
65213904,1770,1765,1765,1770,,,,,
65216403,1773,1768,1768,1774,,,,,
65218902,1776,1771,1771,1777,,,,,
65221401,1780,1775,1775,1780,,,,,
65223900,1783,1778,1778,1783,,,,,
65226399,1786,1781,1781,1786,,,,,
65228898,1789,1784,1784,1790,,,,,
65231397,1792,1788,1788,1793,,,,,
65233896,1796,1791,1791,1796,,,,,
65236395,1799,1794,1794,1799,,,,,
65238894,1802,1797,1797,1802,,,,,
65241393,1805,1800,1800,1806,,,,,
65243892,1808,1803,1803,1809,,,,,
65246391,1811,1806,1806,1812,,,,,
65248890,1814,1810,1810,1815,,,,,
65251389,1818,1813,1813,1818,,,,,
65253888,1821,1816,1816,1821,,,,,
65256387,1824,1819,1819,1824,,,,,
65258886,1827,1822,1822,1827,,,,,
65261385,1830,1825,1825,1831,,,,,
65263884,1833,1828,1828,1834,,,,,
65266383,1836,1831,1831,1837,,,,,
65268882,1839,1834,1834,1840,,,,,
65271381,1842,1837,1837,1843,,,,,
65273880,1845,1840,1840,1846,,,,,
65276379,1848,1843,1843,1849,,,,,
65278878,1851,1846,1846,1852,,,,,
65281377,1855,1849,1849,1855,,,,,
65283876,1858,1852,1852,1858,,,,,
65286375,1861,1855,1855,1861,,,,,
65288874,1864,1858,1858,1864,,,,,
65291373,1867,1861,1861,1867,,,,,
65293872,1870,1864,1864,1870,,,,,
65296371,1873,1867,1867,1873,,,,,
65298870,1875,1870,1870,1876,,,,,
65301369,1878,1873,1873,1879,,,,,
65303868,1881,1876,1876,1882,,,,,
65306367,1884,1879,1879,1885,,,,,
65308866,1887,1882,1882,1888,,,,,
65311365,1890,1885,1885,1891,,,,,
65313864,1892,1887,1887,1893,,,,,
65316363,1891,1886,1886,1891,,,,,
65318862,1890,1885,1885,1890,,,,,
65321361,1889,1884,1884,1889,,,,,
65323860,1888,1883,1883,1889,,,,,
65326359,1887,1882,1882,1888,,,,,
65328858,1886,1881,1881,1887,,,,,
65331357,1886,1880,1880,1886,,,,,
65333856,1885,1879,1879,1885,,,,,
65336355,1884,1878,1879,1884,,,,,
65338854,1883,1878,1878,1884,,,,,
65341353,1883,1877,1877,1883,,,,,
65343852,1882,1876,1877,1882,,,,,
65346351,1882,1876,1876,1882,,,,,
65348850,1881,1876,1876,1882,,,,,
65351349,1881,1875,1875,1881,,,,,
65353848,1881,1875,1875,1881,,,,,
65356347,1880,1875,1875,1881,,,,,
65358846,1880,1875,1875,1881,,,,,
65361345,1880,1875,1875,1881,,,,,
65363844,1880,1875,1875,1881,,,,,
65366343,1881,1875,1875,1881,,,,,
65368842,1881,1875,1875,1881,,,,,
65371341,1881,1875,1876,1881,,,,,
65373840,1882,1876,1876,1882,,,,,
65376339,1882,1876,1877,1882,,,,,
65378838,1882,1877,1877,1883,,,,,
65381337,1883,1877,1878,1883,,,,,
65383836,1883,1878,1878,1883,,,,,
65386335,1884,1878,1879,1884,,,,,
65388834,1884,1879,1879,1884,,,,,
65391333,1884,1879,1880,1884,,,,,
65393832,1884,1880,1880,1884,,,,,
65396331,1884,1880,1880,1884,,,,,
65398830,1884,1880,1880,1884,,,,,
65401329,1884,1880,1880,1884,,,,,
65403828,1884,1879,1880,1884,,,,,
65406327,1883,1879,1879,1883,,,,,
65408826,1882,1878,1879,1882,,,,,
65411325,1881,1877,1878,1881,,,,,
65413824,1880,1876,1877,1880,,,,,
65416323,1879,1875,1876,1879,,,,,
65418822,1877,1874,1874,1878,,,,,
65421321,1876,1872,1873,1876,,,,,
65423820,1874,1871,1871,1874,,,,,
65426319,1872,1869,1869,1872,,,,,
65428818,1870,1867,1867,1870,,,,,
65431317,1868,1865,1865,1868,,,,,
65433816,1866,1863,1863,1866,,,,,
65436315,1863,1860,1860,1864,,,,,
65438814,1861,1858,1858,1861,,,,,
65441313,1858,1855,1856,1859,,,,,
65443812,1855,1853,1853,1856,,,,,
65446311,1853,1850,1850,1853,,,,,
65448810,1850,1848,1848,1850,,,,,
65451309,1847,1845,1845,1848,,,,,
65453808,1844,1842,1842,1845,,,,,
65456307,1841,1839,1839,1842,,,,,
65458806,1838,1836,1836,1839,,,,,
65461305,1835,1833,1833,1836,,,,,
65463804,1832,1830,1830,1832,,,,,
65466303,1829,1827,1827,1829,,,,,
65468802,1825,1824,1824,1826,,,,,
65471301,1822,1820,1821,1823,,,,,
65473800,1819,1817,1817,1819,,,,,
65476299,1815,1814,1814,1816,,,,,
65478798,1812,1811,1811,1812,,,,,
65481297,1809,1807,1807,1809,,,,,
65483796,1805,1804,1804,1806,,,,,
65486295,1802,1801,1801,1802,,,,,
65488794,1798,1797,1797,1799,,,,,
65491293,1795,1794,1794,1795,,,,,
65493792,1791,1790,1791,1792,,,,,
65496291,1788,1787,1787,1789,,,,,
65498790,1785,1784,1784,1785,,,,,
65501289,1781,1780,1780,1782,,,,,
65503788,1778,1777,1777,1778,,,,,
65506287,1774,1774,1774,1775,,,,,
65508786,1771,1770,1770,1772,,,,,
65511285,1768,1767,1767,1768,,,,,
65513784,1764,1764,1764,1765,,,,,
65516283,1761,1760,1761,1762,,,,,
65518782,1758,1757,1757,1758,,,,,
65521281,1755,1754,1754,1755,,,,,
65523780,1751,1751,1751,1752,,,,,
65526279,1748,1748,1748,1749,,,,,
65528778,1745,1744,1745,1745,,,,,
65531277,1742,1741,1741,1742,,,,,
65533776,1739,1738,1738,1739,,,,,
65536275,1735,1735,1735,1736,,,,,
65538774,1732,1732,1732,1733,,,,,
65541273,1729,1729,1729,1730,,,,,
65543772,1726,1726,1726,1727,,,,,
65546271,1723,1723,1723,1724,,,,,
65548770,1720,1720,1720,1721,,,,,
65551269,1717,1717,1717,1718,,,,,
65553768,1714,1714,1715,1715,,,,,
65556267,1712,1711,1712,1712,,,,,
65558766,1709,1709,1709,1709,,,,,
65561265,1706,1706,1706,1706,,,,,
65563764,1703,1703,1704,1704,,,,,
65566263,1701,1701,1701,1701,,,,,
