TimeUS,M1,M2,M3,M4,TimeUS,C1,C2,C3,C4
59846052,1000,1000,1000,1000,59928519,1000,1000,1000,1000
59848551,1000,1000,1000,1000,60028479,1000,1000,1000,1000
59851050,1000,1000,1000,1000,60128439,1000,1000,1000,1000
59853549,1000,1000,1000,1000,60228399,1000,1000,1000,1000
59856048,1000,1000,1000,1000,60328359,1000,1000,1000,1000
59858547,1000,1000,1000,1000,60428319,1000,1000,1000,1000
59861046,1000,1000,1000,1000,60528279,1000,1000,1000,1000
59863545,1000,1000,1000,1000,60628239,1000,1000,1000,1000
59866044,1000,1000,1000,1000,60728199,1000,1000,1000,1000
59868543,1000,1000,1000,1000,60828159,1000,1000,1000,1000
59871042,1000,1000,1000,1000,60928952,1000,1000,1000,1000
59873541,1000,1000,1000,1000,61028912,1000,1000,1000,1000
59876040,1000,1000,1000,1000,61128872,1000,1000,1000,1000
59878539,1000,1000,1000,1000,61228832,1000,1000,1000,1000
59881038,1000,1000,1000,1000,61328792,1000,1000,1000,1000
59883537,1000,1000,1000,1000,61428752,1000,1000,1000,1000
59886036,1000,1000,1000,1000,61528712,1000,1000,1000,1000
59888535,1000,1000,1000,1000,61628672,1000,1000,1000,1000
59891034,1000,1000,1000,1000,61728632,1000,1000,1000,1000
59893533,1000,1000,1000,1000,61828592,1000,1000,1000,1000
59896032,1000,1000,1000,1000,61928552,1024,1024,1024,1024
59898531,1000,1000,1000,1000,62028512,1054,1054,1054,1054
59901030,1000,1000,1000,1000,62128472,1084,1084,1084,1084
59903529,1000,1000,1000,1000,62228432,1114,1114,1114,1114
59906028,1000,1000,1000,1000,62328392,1144,1144,1144,1144
59908527,1000,1000,1000,1000,62428352,1363,1356,1357,1363
59911026,1000,1000,1000,1000,62528312,1551,1545,1546,1551
59913525,1000,1000,1000,1000,62628272,1703,1697,1698,1703
59916024,1000,1000,1000,1000,62728232,1833,1828,1828,1834
59918523,1000,1000,1000,1000,62828192,1914,1908,1909,1914
59921022,1000,1000,1000,1000,62928985,1848,1846,1846,1848
59923521,1000,1000,1000,1000,63028945,1721,1719,1718,1722
59926020,1000,1000,1000,1000,63128905,1643,1645,1641,1648
59928519,1000,1000,1000,1000,63228865,1628,1630,1626,1632
59931018,1000,1000,1000,1000,63328825,1634,1636,1634,1636
59933517,1000,1000,1000,1000,63428785,1638,1639,1640,1637
59936016,1000,1000,1000,1000,63528745,1635,1635,1637,1633
59938515,1000,1000,1000,1000,63628705,1628,1627,1630,1625
59941014,1000,1000,1000,1000,63728665,1622,1621,1624,1619
59943513,1000,1000,1000,1000,63828625,1618,1617,1619,1616
59946012,1000,1000,1000,1000,63928585,1618,1617,1618,1617
59948511,1000,1000,1000,1000,64028545,1592,1591,1597,1586
59951010,1000,1000,1000,1000,64128505,1575,1576,1582,1569
59953509,1000,1000,1000,1000,64228465,1563,1564,1566,1562
59956008,1000,1000,1000,1000,64328425,1555,1555,1553,1557
59958507,1000,1000,1000,1000,64428385,1547,1547,1542,1552
59961006,1000,1000,1000,1000,64528345,1541,1540,1533,1549
59963505,1000,1000,1000,1000,64628305,1536,1535,1528,1542
59966004,1000,1000,1000,1000,64728265,1530,1530,1526,1534
59968503,1000,1000,1000,1000,64828225,1526,1526,1525,1527
59971002,1000,1000,1000,1000,64928185,1525,1525,1526,1524
59973501,1000,1000,1000,1000,65028978,1527,1527,1530,1525
59976000,1000,1000,1000,1000,65128938,1531,1531,1534,1529
59978499,1000,1000,1000,1000,65228898,1534,1534,1537,1532
59980998,1000,1000,1000,1000,65328858,1538,1538,1540,1537
59983497,1000,1000,1000,1000,65428818,1541,1542,1543,1541
59985996,1000,1000,1000,1000,65528778,1545,1545,1545,1545
59988495,1000,1000,1000,1000,65628738,1548,1548,1548,1548
59990994,1000,1000,1000,1000,65728698,1551,1551,1550,1552
59993493,1000,1000,1000,1000,65828658,1553,1553,1552,1554
59995992,1000,1000,1000,1000,65928618,1556,1555,1555,1558
59998491,1000,1000,1000,1000,66028578,1554,1554,1559,1561
60000990,1000,1000,1000,1000,66128538,1557,1557,1563,1565
60003489,1000,1000,1000,1000,66228498,1558,1559,1564,1564
60005988,1000,1000,1000,1000,66328458,1561,1561,1565,1565
60008487,1000,1000,1000,1000,66428418,1563,1564,1565,1565
60010986,1000,1000,1000,1000,66528378,1566,1566,1566,1565
60013485,1000,1000,1000,1000,66628338,1568,1568,1566,1566
60015984,1000,1000,1000,1000,66728298,1569,1569,1566,1566
60018483,1000,1000,1000,1000,66828258,1572,1572,1568,1568
60020982,1000,1000,1000,1000,66928218,1573,1573,1568,1569
60023481,1000,1000,1000,1000,67028178,1572,1572,1568,1568
60025980,1000,1000,1000,1000,67128971,1573,1574,1570,1570
60028479,1000,1000,1000,1000,67228931,1574,1574,1571,1571
60030978,1000,1000,1000,1000,67328891,1575,1575,1574,1573
60033477,1000,1000,1000,1000,67428851,1574,1575,1575,1573
60035976,1000,1000,1000,1000,67528811,1574,1575,1575,1574
60038475,1000,1000,1000,1000,67628771,1575,1576,1577,1575
60040974,1000,1000,1000,1000,67728731,1576,1575,1576,1577
60043473,1000,1000,1000,1000,67828691,1576,1576,1577,1577
60045972,1000,1000,1000,1000,67928651,1575,1575,1576,1577
60048471,1000,1000,1000,1000,68028611,1575,1575,1577,1576
60050970,1000,1000,1000,1000,68128571,1576,1576,1577,1577
60053469,1000,1000,1000,1000,68228531,1576,1576,1577,1577
60055968,1000,1000,1000,1000,68328491,1577,1577,1577,1577
60058467,1000,1000,1000,1000,68428451,1578,1578,1578,1577
60060966,1000,1000,1000,1000,68528411,1578,1578,1578,1577
60063465,1000,1000,1000,1000,68628371,1578,1578,1578,1577
60065964,1000,1000,1000,1000,68728331,1578,1579,1578,1578
60068463,1000,1000,1000,1000,68828291,1579,1579,1578,1578
60070962,1000,1000,1000,1000,68928251,1578,1578,1577,1577
60073461,1000,1000,1000,1000,69028211,1578,1578,1578,1578
60075960,1000,1000,1000,1000,69128171,1578,1578,1578,1578
60078459,1000,1000,1000,1000,69228964,1579,1579,1579,1579
60080958,1000,1000,1000,1000,69328924,1580,1580,1580,1580
60083457,1000,1000,1000,1000,69428884,1579,1580,1580,1580
60085956,1000,1000,1000,1000,69528844,1580,1580,1580,1580
60088455,1000,1000,1000,1000,69628804,1580,1580,1581,1580
60090954,1000,1000,1000,1000,69728764,1580,1580,1580,1580
60093453,1000,1000,1000,1000,69828724,1579,1580,1580,1580
60095952,1000,1000,1000,1000,69928684,1579,1579,1579,1579
60098451,1000,1000,1000,1000,70028644,1580,1580,1581,1580
60100950,1000,1000,1000,1000,70128604,1580,1580,1580,1581
60103449,1000,1000,1000,1000,70228564,1579,1579,1580,1580
60105948,1000,1000,1000,1000,70328524,1580,1579,1579,1579
60108447,1000,1000,1000,1000,70428484,1580,1579,1580,1580
60110946,1000,1000,1000,1000,70528444,1580,1580,1580,1580
60113445,1000,1000,1000,1000,70628404,1580,1580,1580,1579
60115944,1000,1000,1000,1000,70728364,1580,1580,1580,1580
60118443,1000,1000,1000,1000,70828324,1581,1580,1580,1580
60120942,1000,1000,1000,1000,70928284,1581,1581,1581,1581
60123441,1000,1000,1000,1000,71028244,1580,1580,1580,1580
60125940,1000,1000,1000,1000,71128204,1581,1581,1581,1581
60128439,1000,1000,1000,1000,71228164,1581,1581,1581,1581
60130938,1000,1000,1000,1000,71328957,1581,1581,1581,1581
60133437,1000,1000,1000,1000,71428917,1581,1581,1581,1582
60135936,1000,1000,1000,1000,71528877,1581,1581,1581,1581
60138435,1000,1000,1000,1000,71628837,1581,1581,1581,1581
60140934,1000,1000,1000,1000,71728797,1581,1581,1582,1581
60143433,1000,1000,1000,1000,71828757,1582,1582,1582,1582
60145932,1000,1000,1000,1000,71928717,1582,1582,1582,1582
60148431,1000,1000,1000,1000,72028677,1582,1582,1582,1582
60150930,1000,1000,1000,1000,72128637,1582,1582,1584,1580
60153429,1000,1000,1000,1000,72228597,1581,1583,1589,1574
60155928,1000,1000,1000,1000,72328557,1580,1582,1583,1574
60158427,1000,1000,1000,1000,72428517,1579,1582,1575,1574
60160926,1000,1000,1000,1000,72528477,1577,1579,1565,1570
60163425,1000,1000,1000,1000,72628437,1577,1579,1560,1567
60165924,1000,1000,1000,1000,72728397,1577,1577,1555,1561
60168423,1000,1000,1000,1000,72828357,1578,1577,1554,1557
60170922,1000,1000,1000,1000,72928317,1579,1577,1555,1554
60173421,1000,1000,1000,1000,73028277,1579,1577,1556,1554
60175920,1000,1000,1000,1000,73128237,1577,1577,1555,1553
60178419,1000,1000,1000,1000,73228197,1576,1577,1555,1553
60180918,1000,1000,1000,1000,73328157,1575,1577,1555,1553
60183417,1000,1000,1000,1000,73428950,1574,1576,1554,1553
60185916,1000,1000,1000,1000,73528910,1574,1576,1553,1553
60188415,1000,1000,1000,1000,73628870,1575,1577,1551,1551
60190914,1000,1000,1000,1000,73728830,1577,1578,1550,1550
60193413,1000,1000,1000,1000,73828790,1578,1580,1546,1547
60195912,1000,1000,1000,1000,73928750,1582,1583,1545,1545
60198411,1000,1000,1000,1000,74028710,1585,1586,1543,1542
60200910,1000,1000,1000,1000,74128670,1589,1589,1540,1540
60203409,1000,1000,1000,1000,74228630,1592,1592,1538,1537
60205908,1000,1000,1000,1000,74328590,1595,1594,1536,1536
60208407,1000,1000,1000,1000,74428550,1595,1595,1534,1535
60210906,1000,1000,1000,1000,74528510,1597,1596,1536,1538
60213405,1000,1000,1000,1000,74628470,1595,1596,1538,1540
60215904,1000,1000,1000,1000,74728430,1592,1592,1540,1543
60218403,1000,1000,1000,1000,74828390,1587,1586,1546,1549
60220902,1000,1000,1000,1000,74928350,1581,1578,1555,1558
60223401,1000,1000,1000,1000,75028310,1573,1569,1566,1568
60225900,1000,1000,1000,1000,75128270,1562,1557,1578,1580
60228399,1000,1000,1000,1000,75228230,1550,1547,1590,1591
60230898,1000,1000,1000,1000,75328190,1540,1537,1601,1601
60233397,1000,1000,1000,1000,75428983,1532,1532,1609,1609
60235896,1000,1000,1000,1000,75528943,1527,1529,1614,1612
60238395,1000,1000,1000,1000,75628903,1528,1530,1615,1614
60240894,1000,1000,1000,1000,75728863,1532,1535,1614,1613
60243393,1000,1000,1000,1000,75828823,1539,1541,1608,1608
60245892,1000,1000,1000,1000,75928783,1547,1548,1601,1602
60248391,1000,1000,1000,1000,76028743,1555,1556,1593,1593
60250890,1000,1000,1000,1000,76128703,1564,1564,1586,1585
60253389,1000,1000,1000,1000,76228663,1572,1572,1579,1578
60255888,1000,1000,1000,1000,76328623,1579,1579,1574,1573
60258387,1000,1000,1000,1000,76428583,1584,1582,1569,1569
60260886,1000,1000,1000,1000,76528543,1587,1585,1566,1566
60263385,1000,1000,1000,1000,76628503,1588,1586,1565,1566
60265884,1000,1000,1000,1000,76728463,1588,1587,1567,1567
60268383,1000,1000,1000,1000,76828423,1585,1584,1568,1568
60270882,1000,1000,1000,1000,76928383,1582,1582,1571,1570
60273381,1000,1000,1000,1000,77028343,1579,1579,1573,1573
60275880,1000,1000,1000,1000,77128303,1577,1577,1577,1577
60278379,1000,1000,1000,1000,77228263,1574,1575,1580,1579
60280878,1000,1000,1000,1000,77328223,1573,1574,1582,1582
60283377,1000,1000,1000,1000,77428183,1571,1572,1582,1583
60285876,1000,1000,1000,1000,77528976,1571,1571,1582,1583
60288375,1000,1000,1000,1000,77628936,1571,1572,1583,1583
60290874,1000,1000,1000,1000,77728896,1573,1574,1583,1582
60293373,1000,1000,1000,1000,77828856,1575,1575,1583,1583
60295872,1000,1000,1000,1000,77928816,1576,1576,1581,1581
60298371,1000,1000,1000,1000,78028776,1579,1579,1581,1581
60300870,1000,1000,1000,1000,78128736,1580,1579,1579,1579
60303369,1000,1000,1000,1000,78228696,1581,1580,1578,1578
60305868,1000,1000,1000,1000,78328656,1580,1580,1576,1576
60308367,1000,1000,1000,1000,78428616,1582,1581,1577,1577
60310866,1000,1000,1000,1000,78528576,1581,1581,1577,1577
60313365,1000,1000,1000,1000,78628536,1563,1567,1557,1565
60315864,1000,1000,1000,1000,78728496,1599,1572,1597,1570
60318363,1000,1000,1000,1000,78828456,1630,1591,1629,1589
60320862,1000,1000,1000,1000,78928416,1643,1606,1642,1604
60323361,1000,1000,1000,1000,79028376,1637,1614,1636,1611
60325860,1000,1000,1000,1000,79128336,1618,1613,1616,1610
60328359,1000,1000,1000,1000,79228296,1596,1609,1597,1608
60330858,1000,1000,1000,1000,79328256,1578,1598,1583,1604
60333357,1000,1000,1000,1000,79428216,1568,1587,1580,1600
60335856,1000,1000,1000,1000,79528176,1567,1579,1581,1596
60338355,1000,1000,1000,1000,79628969,1568,1574,1583,1590
60340854,1000,1000,1000,1000,79728929,1574,1572,1586,1584
60343353,1000,1000,1000,1000,79828889,1578,1573,1585,1579
60345852,1000,1000,1000,1000,79928849,1582,1577,1583,1577
60348351,1000,1000,1000,1000,80028809,1582,1580,1579,1575
60350850,1000,1000,1000,1000,80128769,1582,1582,1575,1573
60353349,1000,1000,1000,1000,80228729,1583,1585,1578,1563
60355848,1000,1000,1000,1000,80328689,1583,1588,1572,1562
60358347,1000,1000,1000,1000,80428649,1581,1585,1562,1561
60360846,1000,1000,1000,1000,80528609,1578,1582,1553,1560
60363345,1000,1000,1000,1000,80628569,1576,1578,1549,1557
60365844,1000,1000,1000,1000,80728529,1576,1575,1548,1555
60368343,1000,1000,1000,1000,80828489,1576,1574,1549,1553
60370842,1000,1000,1000,1000,80928449,1574,1573,1551,1551
60373341,1000,1000,1000,1000,81028409,1573,1572,1552,1550
60375840,1000,1000,1000,1000,81128369,1573,1573,1554,1552
60378339,1000,1000,1000,1000,81228329,1571,1572,1554,1551
60380838,1000,1000,1000,1000,81328289,1571,1573,1553,1552
60383337,1000,1000,1000,1000,81428249,1571,1573,1553,1552
60385836,1000,1000,1000,1000,81528209,1571,1573,1550,1551
60388335,1000,1000,1000,1000,81628169,1574,1575,1550,1551
60390834,1000,1000,1000,1000,81728962,1576,1576,1547,1548
60393333,1000,1000,1000,1000,81828922,1578,1579,1545,1545
60395832,1000,1000,1000,1000,81928882,1581,1582,1543,1543
60398331,1000,1000,1000,1000,82028842,1583,1584,1540,1539
60400830,1000,1000,1000,1000,82128802,1587,1587,1538,1538
60403329,1000,1000,1000,1000,82228762,1590,1590,1536,1536
60405828,1000,1000,1000,1000,82328722,1592,1591,1536,1536
60408327,1000,1000,1000,1000,82428682,1593,1592,1537,1538
60410826,1000,1000,1000,1000,82528642,1591,1589,1538,1540
60413325,1000,1000,1000,1000,82628602,1588,1587,1543,1545
60415824,1000,1000,1000,1000,82728562,1583,1582,1547,1550
60418323,1000,1000,1000,1000,82828522,1578,1578,1555,1558
60420822,1000,1000,1000,1000,82928482,1572,1570,1562,1565
60423321,1000,1000,1000,1000,83028442,1563,1562,1570,1572
60425820,1000,1000,1000,1000,83128402,1556,1554,1580,1581
60428319,1000,1000,1000,1000,83228362,1549,1547,1589,1589
60430818,1000,1000,1000,1000,83328322,1542,1541,1596,1596
60433317,1000,1000,1000,1000,83428282,1538,1538,1602,1601
60435816,1000,1000,1000,1000,83528242,1536,1536,1605,1603
60438315,1000,1000,1000,1000,83628202,1536,1538,1605,1604
60440814,1000,1000,1000,1000,83728162,1540,1541,1604,1603
60443313,1000,1000,1000,1000,83828955,1544,1546,1600,1600
60445812,1000,1000,1000,1000,83928915,1550,1552,1595,1595
60448311,1000,1000,1000,1000,84028875,1558,1558,1589,1590
60450810,1000,1000,1000,1000,84128835,1564,1563,1583,1584
60453309,1000,1000,1000,1000,84228795,1570,1570,1579,1579
60455808,1000,1000,1000,1000,84328755,1576,1575,1575,1575
60458307,1000,1000,1000,1000,84428715,1580,1579,1573,1572
60460806,1000,1000,1000,1000,84528675,1583,1582,1571,1570
60463305,1000,1000,1000,1000,84628635,1585,1583,1570,1570
60465804,1000,1000,1000,1000,84728595,1584,1583,1570,1570
60468303,1000,1000,1000,1000,84828555,1583,1582,1570,1571
60470802,1000,1000,1000,1000,84928515,1582,1582,1572,1572
60473301,1000,1000,1000,1000,85028475,1581,1581,1575,1575
60475800,1000,1000,1000,1000,85128435,1578,1579,1577,1576
60478299,1000,1000,1000,1000,85228395,1577,1577,1578,1578
60480798,1000,1000,1000,1000,85328355,1576,1576,1580,1580
60483297,1000,1000,1000,1000,85428315,1574,1575,1581,1582
60485796,1000,1000,1000,1000,85528275,1574,1575,1583,1583
60488295,1000,1000,1000,1000,85628235,1574,1575,1583,1582
60490794,1000,1000,1000,1000,85728195,1574,1574,1581,1581
60493293,1000,1000,1000,1000,85828155,1575,1575,1582,1582
60495792,1000,1000,1000,1000,85928948,1577,1577,1581,1581
60498291,1000,1000,1000,1000,86028908,1577,1577,1580,1580
60500790,1000,1000,1000,1000,86128868,1577,1577,1578,1578
60503289,1000,1000,1000,1000,86228828,1578,1578,1577,1578
60505788,1000,1000,1000,1000,86328788,1579,1580,1577,1578
60508287,1000,1000,1000,1000,86428748,1580,1580,1577,1577
60510786,1000,1000,1000,1000,86528708,1581,1581,1577,1578
60513285,1000,1000,1000,1000,86628668,1581,1580,1578,1577
60515784,1000,1000,1000,1000,86728628,1582,1581,1579,1578
60518283,1000,1000,1000,1000,86828588,1581,1580,1578,1578
60520782,1000,1000,1000,1000,86928548,1581,1581,1579,1579
60523281,1000,1000,1000,1000,87028508,1580,1580,1579,1579
60525780,1000,1000,1000,1000,87128468,1580,1581,1580,1580
60528279,1000,1000,1000,1000,87228428,1581,1581,1581,1581
60530778,1000,1000,1000,1000,87328388,1581,1581,1582,1581
60533277,1000,1000,1000,1000,87428348,1581,1580,1581,1581
60535776,1000,1000,1000,1000,87528308,1580,1580,1581,1581
60538275,1000,1000,1000,1000,87628268,1580,1581,1582,1582
60540774,1000,1000,1000,1000,87728228,1580,1580,1581,1581
60543273,1000,1000,1000,1000,87828188,1581,1581,1582,1582
60545772,1000,1000,1000,1000,87928981,1581,1581,1582,1582
60548271,1000,1000,1000,1000,88028941,1581,1581,1581,1581
60550770,1000,1000,1000,1000,88128901,1582,1581,1582,1581
60553269,1000,1000,1000,1000,88228861,1581,1580,1580,1580
60555768,1000,1000,1000,1000,88328821,1581,1581,1580,1580
60558267,1000,1000,1000,1000,88428781,1581,1581,1580,1580
60560766,1000,1000,1000,1000,88528741,1581,1581,1580,1581
60563265,1000,1000,1000,1000,88628701,1581,1581,1581,1580
60565764,1000,1000,1000,1000,88728661,1581,1582,1587,1574
60568263,1000,1000,1000,1000,88828621,1580,1582,1585,1572
60570762,1000,1000,1000,1000,88928581,1579,1582,1579,1574
60573261,1000,1000,1000,1000,89028541,1578,1580,1570,1572
60575760,1000,1000,1000,1000,89128501,1576,1578,1562,1569
60578259,1000,1000,1000,1000,89228461,1575,1576,1556,1563
60580758,1000,1000,1000,1000,89328421,1577,1576,1554,1559
60583257,1000,1000,1000,1000,89428381,1578,1577,1554,1555
60585756,1000,1000,1000,1000,89528341,1578,1577,1554,1553
60588255,1000,1000,1000,1000,89628301,1579,1578,1555,1553
60590754,1000,1000,1000,1000,89728261,1579,1578,1555,1553
60593253,1000,1000,1000,1000,89828221,1577,1578,1555,1553
60595752,1000,1000,1000,1000,89928181,1576,1577,1554,1553
60598251,1000,1000,1000,1000,90028974,1576,1578,1554,1554
60600750,1000,1000,1000,1000,90128934,1576,1578,1553,1553
60603249,1000,1000,1000,1000,90228894,1576,1578,1551,1551
60605748,1000,1000,1000,1000,90328854,1578,1578,1549,1549
60608247,1000,1000,1000,1000,90428814,1580,1581,1548,1547
60610746,1000,1000,1000,1000,90528774,1583,1583,1546,1546
60613245,1000,1000,1000,1000,90628734,1586,1587,1544,1544
60615744,1000,1000,1000,1000,90728694,1589,1589,1542,1542
60618243,1000,1000,1000,1000,90828654,1591,1591,1540,1540
60620742,1000,1000,1000,1000,90928614,1592,1592,1538,1539
60623241,1000,1000,1000,1000,91028574,1594,1593,1537,1539
60625740,1000,1000,1000,1000,91128534,1594,1594,1538,1541
60628239,1000,1000,1000,1000,91228494,1593,1592,1540,1542
60630738,1000,1000,1000,1000,91328454,1589,1587,1543,1546
60633237,1000,1000,1000,1000,91428414,1585,1582,1550,1553
60635736,1000,1000,1000,1000,91528374,1578,1574,1560,1563
60638235,1000,1000,1000,1000,91628334,1569,1566,1572,1574
60640734,1000,1000,1000,1000,91728294,1558,1555,1582,1583
60643233,1000,1000,1000,1000,91828254,1549,1548,1594,1594
60645732,1000,1000,1000,1000,91928214,1541,1540,1603,1602
60648231,1000,1000,1000,1000,92028174,1535,1536,1609,1608
60650730,1000,1000,1000,1000,92128967,1533,1535,1614,1611
60653229,1000,1000,1000,1000,92228927,1535,1538,1614,1612
60655728,1000,1000,1000,1000,92328887,1539,1542,1611,1610
60658227,1000,1000,1000,1000,92428847,1544,1546,1606,1606
60660726,1000,1000,1000,1000,92528807,1551,1552,1600,1599
60663225,1000,1000,1000,1000,92628767,1559,1559,1593,1592
60665724,1000,1000,1000,1000,92728727,1566,1566,1585,1585
60668223,1000,1000,1000,1000,92828687,1573,1572,1578,1578
60670722,1000,1000,1000,1000,92928647,1578,1576,1572,1572
60673221,1000,1000,1000,1000,93028607,1583,1581,1568,1569
60675720,1000,1000,1000,1000,93128567,1586,1584,1567,1568
60678219,1000,1000,1000,1000,93228527,1587,1585,1566,1566
60680718,1000,1000,1000,1000,93328487,1586,1585,1567,1567
60683217,1000,1000,1000,1000,93428447,1585,1584,1569,1569
60685716,1000,1000,1000,1000,93528407,1583,1582,1571,1571
60688215,1000,1000,1000,1000,93628367,1580,1580,1574,1574
60690714,1000,1000,1000,1000,93728327,1578,1578,1577,1577
60693213,1000,1000,1000,1000,93828287,1576,1577,1580,1580
60695712,1000,1000,1000,1000,93928247,1574,1575,1582,1581
60698211,1000,1000,1000,1000,94028207,1573,1574,1583,1583
60700710,1000,1000,1000,1000,94128167,1572,1573,1584,1583
60703209,1000,1000,1000,1000,94228960,1573,1574,1584,1584
60705708,1000,1000,1000,1000,94328920,1574,1574,1583,1583
60708207,1000,1000,1000,1000,94428880,1576,1576,1584,1584
60710706,1000,1000,1000,1000,94528840,1576,1577,1582,1582
60713205,1000,1000,1000,1000,94628800,1577,1577,1580,1580
60715704,1000,1000,1000,1000,94728760,1578,1578,1579,1579
60718203,1000,1000,1000,1000,94828720,1579,1579,1578,1578
60720702,1000,1000,1000,1000,94928680,1581,1581,1578,1578
60723201,1000,1000,1000,1000,95028640,1582,1581,1578,1578
60725700,1000,1000,1000,1000,95128600,1581,1581,1577,1577
60728199,1000,1000,1000,1000,95228560,1580,1581,1577,1577
60730698,1000,1000,1000,1000,95328520,1581,1581,1578,1578
60733197,1000,1000,1000,1000,95428480,1581,1580,1578,1578
60735696,1000,1000,1000,1000,95528440,1580,1580,1578,1579
60738195,1000,1000,1000,1000,95628400,1580,1580,1579,1579
60740694,1000,1000,1000,1000,95728360,1580,1580,1580,1580
60743193,1000,1000,1000,1000,95828320,1579,1579,1580,1580
60745692,1000,1000,1000,1000,95928280,1579,1579,1581,1581
60748191,1000,1000,1000,1000,96028240,1580,1580,1582,1581
60750690,1000,1000,1000,1000,96128200,1579,1579,1581,1581
60753189,1000,1000,1000,1000,96228160,1580,1580,1581,1582
60755688,1000,1000,1000,1000,96328953,1580,1579,1581,1581
60758187,1000,1000,1000,1000,96428913,1580,1580,1581,1581
60760686,1000,1000,1000,1000,96528873,1580,1580,1581,1581
60763185,1000,1000,1000,1000,96628833,1580,1581,1581,1580
60765684,1000,1000,1000,1000,96728793,1581,1581,1586,1572
60768183,1000,1000,1000,1000,96828753,1579,1580,1584,1572
60770682,1000,1000,1000,1000,96928713,1578,1577,1577,1574
60773181,1000,1000,1000,1000,97028673,1574,1574,1571,1574
60775680,1000,1000,1000,1000,97128633,1571,1571,1566,1573
60778179,1000,1000,1000,1000,97228593,1568,1568,1564,1571
60780678,1000,1000,1000,1000,97328553,1567,1567,1564,1569
60783177,1000,1000,1000,1000,97428513,1566,1566,1565,1566
60785676,1000,1000,1000,1000,97528473,1566,1566,1566,1565
60788175,1000,1000,1000,1000,97628433,1565,1566,1567,1564
60790674,1000,1000,1000,1000,97728393,1565,1565,1567,1564
60793173,1000,1000,1000,1000,97828353,1564,1564,1566,1564
60795672,1000,1000,1000,1000,97928313,1563,1564,1565,1564
60798171,1000,1000,1000,1000,98028273,1563,1563,1564,1564
60800670,1000,1000,1000,1000,98128233,1562,1561,1562,1562
60803169,1000,1000,1000,1000,98228193,1561,1561,1561,1562
60805668,1000,1000,1000,1000,98328986,1560,1560,1560,1561
60808167,1000,1000,1000,1000,98428946,1562,1561,1561,1562
60810666,1000,1000,1000,1000,98528906,1561,1560,1561,1560
60813165,1000,1000,1000,1000,98628866,1560,1560,1560,1559
60815664,1000,1000,1000,1000,98728826,1559,1558,1559,1558
60818163,1000,1000,1000,1000,98828786,1558,1558,1558,1557
60820662,1000,1000,1000,1000,98928746,1557,1558,1558,1557
60823161,1000,1000,1000,1000,99028706,1558,1558,1558,1557
60825660,1000,1000,1000,1000,99128666,1558,1558,1559,1558
60828159,1000,1000,1000,1000,99228626,1558,1558,1559,1556
60830658,1000,1000,1000,1000,99328586,1559,1558,1559,1557
60833157,1000,1000,1000,1000,99428546,1558,1558,1560,1557
60835656,1000,1000,1000,1000,99528506,1559,1560,1559,1560
60838155,1000,1000,1000,1000,99628466,1559,1560,1557,1561
60840654,1000,1000,1000,1000,99728426,1560,1560,1557,1563
60843986,1000,1000,1000,1000,99828386,1561,1561,1558,1564
60846485,1000,1000,1000,1000,99928346,1560,1561,1559,1562
60848984,1000,1000,1000,1000,100028306,1560,1560,1560,1559
60851483,1000,1000,1000,1000,100128266,1561,1560,1559,1561
60853982,1000,1000,1000,1000,100228226,1558,1557,1556,1557
60856481,1000,1000,1000,1000,100328186,1553,1553,1553,1553
60858980,1000,1000,1000,1000,100428979,1547,1547,1547,1547
60861479,1000,1000,1000,1000,100528939,1541,1542,1541,1541
60863978,1000,1000,1000,1000,100628899,1534,1535,1535,1534
60866477,1000,1000,1000,1000,100728859,1526,1527,1526,1527
60868976,1000,1000,1000,1000,100828819,1521,1521,1521,1521
60871475,1000,1000,1000,1000,100928779,1519,1520,1519,1520
60873974,1000,1000,1000,1000,101028739,1520,1520,1520,1521
60876473,1000,1000,1000,1000,101128699,1521,1521,1521,1522
60878972,1000,1000,1000,1000,101228659,1523,1524,1523,1524
60881471,1000,1000,1000,1000,101328619,1527,1528,1527,1528
60883970,1000,1000,1000,1000,101428579,1533,1532,1533,1533
60886469,1000,1000,1000,1000,101528539,1538,1537,1538,1537
60888968,1000,1000,1000,1000,101628499,1541,1540,1540,1540
60891467,1000,1000,1000,1000,101728459,1543,1542,1543,1542
60893966,1000,1000,1000,1000,101828419,1544,1543,1544,1543
60896465,1000,1000,1000,1000,101928379,1545,1544,1545,1544
60898964,1000,1000,1000,1000,102028339,1545,1545,1546,1545
60901463,1000,1000,1000,1000,102128299,1546,1546,1546,1546
60903962,1000,1000,1000,1000,102228259,1546,1547,1547,1547
60906461,1000,1000,1000,1000,102328219,1547,1547,1547,1546
60908960,1000,1000,1000,1000,102428179,1547,1547,1547,1547
60911459,1000,1000,1000,1000,102528972,1546,1546,1546,1546
60913958,1000,1000,1000,1000,102628932,1546,1546,1546,1546
60916457,1000,1000,1000,1000,102728892,1545,1545,1545,1545
60918956,1000,1000,1000,1000,102828852,1545,1545,1545,1545
60921455,1000,1000,1000,1000,102928812,1545,1545,1545,1545
60923954,1000,1000,1000,1000,103028772,1545,1545,1546,1545
60926453,1000,1000,1000,1000,103128732,1546,1546,1546,1546
60928952,1000,1000,1000,1000,103228692,1545,1545,1545,1545
60931451,1000,1000,1000,1000,103328652,1545,1545,1545,1545
60933950,1000,1000,1000,1000,103428612,1545,1545,1545,1545
60936449,1000,1000,1000,1000,103528572,1544,1544,1545,1544
60938948,1000,1000,1000,1000,103628532,1544,1544,1544,1544
60941447,1000,1000,1000,1000,103728492,1544,1544,1544,1544
60943946,1000,1000,1000,1000,103828452,1544,1544,1544,1544
60946445,1000,1000,1000,1000,103928412,1545,1544,1545,1544
60948944,1000,1000,1000,1000,104028372,1545,1545,1545,1545
60951443,1000,1000,1000,1000,104128332,1545,1544,1544,1544
60953942,1000,1000,1000,1000,104228292,1544,1544,1544,1544
60956441,1000,1000,1000,1000,104328252,1544,1544,1544,1544
60958940,1000,1000,1000,1000,104428212,1544,1545,1544,1544
60961439,1000,1000,1000,1000,104528172,1544,1544,1544,1544
60963938,1000,1000,1000,1000,104628965,1544,1544,1544,1544
60966437,1000,1000,1000,1000,104728925,1545,1544,1544,1544
60968936,1000,1000,1000,1000,104828885,1544,1544,1544,1544
60971435,1000,1000,1000,1000,104928845,1544,1544,1544,1544
60973934,1000,1000,1000,1000,105028805,1544,1544,1544,1544
60976433,1000,1000,1000,1000,105128765,1544,1543,1543,1543
60978932,1000,1000,1000,1000,105228725,1544,1545,1544,1544
60981431,1000,1000,1000,1000,105328685,1544,1544,1544,1544
60983930,1000,1000,1000,1000,105428645,1544,1544,1544,1543
60986429,1000,1000,1000,1000,105528605,1544,1544,1544,1544
60988928,1000,1000,1000,1000,105628565,1543,1543,1543,1543
60991427,1000,1000,1000,1000,105728525,1544,1544,1543,1544
60993926,1000,1000,1000,1000,105828485,1544,1544,1544,1544
60996425,1000,1000,1000,1000,105928445,1544,1544,1544,1544
60998924,1000,1000,1000,1000,106028405,1544,1544,1544,1544
61001423,1000,1000,1000,1000,106128365,1545,1545,1545,1545
61003922,1000,1000,1000,1000,106228325,1545,1544,1545,1545
61006421,1000,1000,1000,1000,106328285,1545,1544,1544,1545
61008920,1000,1000,1000,1000,106428245,1545,1545,1545,1545
61011419,1000,1000,1000,1000,106528205,1545,1544,1544,1545
61013918,1000,1000,1000,1000,106628165,1544,1545,1545,1544
61016417,1000,1000,1000,1000,106728958,1544,1544,1544,1544
61018916,1000,1000,1000,1000,106828918,1544,1544,1544,1544
61021415,1000,1000,1000,1000,106928878,1545,1545,1545,1545
61023914,1000,1000,1000,1000,107028838,1544,1544,1544,1544
61026413,1000,1000,1000,1000,107128798,1544,1544,1544,1544
61028912,1000,1000,1000,1000,107228758,1544,1544,1544,1544
61031411,1000,1000,1000,1000,107328718,1545,1544,1544,1544
61033910,1000,1000,1000,1000,107428678,1545,1545,1545,1545
61036409,1000,1000,1000,1000,107528638,1545,1546,1545,1546
61038908,1000,1000,1000,1000,107628598,1544,1545,1545,1545
61041407,1000,1000,1000,1000,107728558,1545,1545,1545,1544
61043906,1000,1000,1000,1000,107828518,1545,1545,1545,1545
61046405,1000,1000,1000,1000,107928478,1545,1545,1545,1545
61048904,1000,1000,1000,1000,108028438,1544,1544,1544,1544
61051403,1000,1000,1000,1000,108128398,1544,1544,1544,1544
61053902,1000,1000,1000,1000,108228358,1545,1545,1545,1545
61056401,1000,1000,1000,1000,108328318,1545,1544,1544,1545
61058900,1000,1000,1000,1000,108428278,1544,1544,1544,1544
61061399,1000,1000,1000,1000,108528238,1544,1544,1544,1544
61063898,1000,1000,1000,1000,108628198,1544,1544,1544,1544
61066397,1000,1000,1000,1000,108728158,1544,1544,1544,1544
61068896,1000,1000,1000,1000,108828951,1544,1544,1544,1544
61071395,1000,1000,1000,1000,108928911,1544,1544,1544,1544
61073894,1000,1000,1000,1000,109028871,1543,1544,1543,1544
61076393,1000,1000,1000,1000,109128831,1544,1544,1544,1544
61078892,1000,1000,1000,1000,109228791,1544,1544,1544,1544
61081391,1000,1000,1000,1000,109328751,1544,1544,1544,1544
61083890,1000,1000,1000,1000,109428711,1545,1544,1545,1544
61086389,1000,1000,1000,1000,109528671,1544,1544,1544,1545
61088888,1000,1000,1000,1000,109628631,1544,1544,1544,1544
61091387,1000,1000,1000,1000,109728591,1544,1544,1544,1543
61093886,1000,1000,1000,1000,109828551,1544,1545,1544,1544
61096385,1000,1000,1000,1000,109928511,1544,1544,1544,1544
61098884,1000,1000,1000,1000,110028471,1544,1545,1544,1545
61101383,1000,1000,1000,1000,110128431,1545,1544,1544,1544
61103882,1000,1000,1000,1000,110228391,1545,1544,1545,1544
61106381,1000,1000,1000,1000,110328351,1545,1545,1545,1545
61108880,1000,1000,1000,1000,110428311,1544,1544,1544,1544
61111379,1000,1000,1000,1000,110528271,1505,1499,1505,1499
61113878,1000,1000,1000,1000,110628231,1357,1322,1358,1322
61116377,1000,1000,1000,1000,110728191,1295,1240,1295,1240
61118876,1000,1000,1000,1000,110828984,1275,1214,1277,1213
61121375,1000,1000,1000,1000,110928944,1256,1186,1257,1186
61123874,1000,1000,1000,1000,111028904,1231,1151,1233,1150
61126373,1000,1000,1000,1000,111128864,1200,1150,1200,1150
61128872,1000,1000,1000,1000,111228824,1199,1150,1200,1150
61131371,1000,1000,1000,1000,111328784,1200,1150,1201,1150
61133870,1000,1000,1000,1000,111428744,1200,1150,1181,1176
61136369,1000,1000,1000,1000,111528704,1200,1150,1187,1168
61138868,1000,1000,1000,1000,111628664,1200,1150,1190,1164
61141367,1000,1000,1000,1000,111728624,1200,1150,1190,1164
61143866,1000,1000,1000,1000,111828584,1200,1150,1190,1165
61146365,1000,1000,1000,1000,111928544,1200,1150,1189,1166
61148864,1000,1000,1000,1000,112028504,1200,1150,1188,1167
61151363,1000,1000,1000,1000,112128464,1200,1150,1187,1168
61153862,1000,1000,1000,1000,112228424,1200,1150,1196,1156
61156361,1000,1000,1000,1000,112328384,1200,1150,1195,1158
61158860,1000,1000,1000,1000,112428344,1200,1150,1194,1158
61161359,1000,1000,1000,1000,112528304,1200,1150,1194,1159
61163858,1000,1000,1000,1000,112628264,1173,1150,1168,1157
61166357,1000,1000,1000,1000,112728224,1000,1000,1000,1000
61168856,1000,1000,1000,1000,112828184,1000,1000,1000,1000
61171355,1000,1000,1000,1000,112928977,1000,1000,1000,1000
61173854,1000,1000,1000,1000,113028937,1000,1000,1000,1000
61176353,1000,1000,1000,1000,113128897,1000,1000,1000,1000
61178852,1000,1000,1000,1000,113228857,1000,1000,1000,1000
61181351,1000,1000,1000,1000,113328817,1000,1000,1000,1000
61183850,1000,1000,1000,1000,113428777,1000,1000,1000,1000
61186349,1000,1000,1000,1000,113528737,1000,1000,1000,1000
61188848,1000,1000,1000,1000,113628697,1000,1000,1000,1000
61191347,1000,1000,1000,1000,113728657,1000,1000,1000,1000
61193846,1000,1000,1000,1000,113828617,1000,1000,1000,1000
61196345,1000,1000,1000,1000,113928577,1000,1000,1000,1000
61198844,1000,1000,1000,1000,114028537,1000,1000,1000,1000
61201343,1000,1000,1000,1000,114128497,1000,1000,1000,1000
61203842,1000,1000,1000,1000,114228457,1000,1000,1000,1000
61206341,1000,1000,1000,1000,114328417,1000,1000,1000,1000
61208840,1000,1000,1000,1000,114428377,1000,1000,1000,1000
61211339,1000,1000,1000,1000,114528337,1000,1000,1000,1000
61213838,1000,1000,1000,1000,114628297,1000,1000,1000,1000
61216337,1000,1000,1000,1000,114728257,1000,1000,1000,1000
61218836,1000,1000,1000,1000,114828217,1000,1000,1000,1000
61221335,1000,1000,1000,1000,114928177,1000,1000,1000,1000
61223834,1000,1000,1000,1000,115028970,1000,1000,1000,1000
61226333,1000,1000,1000,1000,115128930,1000,1000,1000,1000
61228832,1000,1000,1000,1000,115228890,1000,1000,1000,1000
61231331,1000,1000,1000,1000,115328850,1000,1000,1000,1000
61233830,1000,1000,1000,1000,115428810,1000,1000,1000,1000
61236329,1000,1000,1000,1000,115528770,1000,1000,1000,1000
61238828,1000,1000,1000,1000,115628730,1000,1000,1000,1000
61241327,1000,1000,1000,1000,115728690,1000,1000,1000,1000
61243826,1000,1000,1000,1000,115828650,1000,1000,1000,1000
61246325,1000,1000,1000,1000,115928610,1000,1000,1000,1000
61248824,1000,1000,1000,1000,116028570,1000,1000,1000,1000
61251323,1000,1000,1000,1000,116128530,1000,1000,1000,1000
61253822,1000,1000,1000,1000,116228490,1000,1000,1000,1000
61256321,1000,1000,1000,1000,116328450,1000,1000,1000,1000
61258820,1000,1000,1000,1000,116428410,1000,1000,1000,1000
61261319,1000,1000,1000,1000,116528370,1000,1000,1000,1000
61263818,1000,1000,1000,1000,116628330,1000,1000,1000,1000
61266317,1000,1000,1000,1000,116728290,1000,1000,1000,1000
61268816,1000,1000,1000,1000,116828250,1000,1000,1000,1000
61271315,1000,1000,1000,1000,116928210,1000,1000,1000,1000
61273814,1000,1000,1000,1000,117028170,1000,1000,1000,1000
61276313,1000,1000,1000,1000,117128963,1000,1000,1000,1000
61278812,1000,1000,1000,1000,117228923,1000,1000,1000,1000
61281311,1000,1000,1000,1000,117328883,1000,1000,1000,1000
61283810,1000,1000,1000,1000,117428843,1000,1000,1000,1000
61286309,1000,1000,1000,1000,117528803,1000,1000,1000,1000
61288808,1000,1000,1000,1000,117628763,1000,1000,1000,1000
61291307,1000,1000,1000,1000,117728723,1000,1000,1000,1000
61293806,1000,1000,1000,1000,117828683,1000,1000,1000,1000
61296305,1000,1000,1000,1000,117928643,1000,1000,1000,1000
61298804,1000,1000,1000,1000,118028603,1000,1000,1000,1000
61301303,1000,1000,1000,1000,118128563,1000,1000,1000,1000
61303802,1000,1000,1000,1000,118228523,1000,1000,1000,1000
61306301,1000,1000,1000,1000,118328483,1000,1000,1000,1000
61308800,1000,1000,1000,1000,118428443,1000,1000,1000,1000
61311299,1000,1000,1000,1000,118528403,1000,1000,1000,1000
61313798,1000,1000,1000,1000,118628363,1000,1000,1000,1000
61316297,1000,1000,1000,1000,118728323,1000,1000,1000,1000
61318796,1000,1000,1000,1000,118828283,1000,1000,1000,1000
61321295,1000,1000,1000,1000,118928243,1000,1000,1000,1000
61323794,1000,1000,1000,1000,119028203,1000,1000,1000,1000
61326293,1000,1000,1000,1000,119128163,1000,1000,1000,1000
61328792,1000,1000,1000,1000,119228956,1000,1000,1000,1000
61331291,1000,1000,1000,1000,119328916,1000,1000,1000,1000
61333790,1000,1000,1000,1000,119428876,1000,1000,1000,1000
61336289,1000,1000,1000,1000,119528836,1000,1000,1000,1000
61338788,1000,1000,1000,1000,119628796,1000,1000,1000,1000
61341287,1000,1000,1000,1000,119728756,1000,1000,1000,1000
61343786,1000,1000,1000,1000,119828716,1000,1000,1000,1000
61346285,1000,1000,1000,1000,119928676,1000,1000,1000,1000
61348784,1000,1000,1000,1000,120028636,1000,1000,1000,1000
61351283,1000,1000,1000,1000,120128596,1000,1000,1000,1000
61353782,1000,1000,1000,1000,120228556,1000,1000,1000,1000
61356281,1000,1000,1000,1000,120328516,1000,1000,1000,1000
61358780,1000,1000,1000,1000,120428476,1000,1000,1000,1000
61361279,1000,1000,1000,1000,120528436,1000,1000,1000,1000
61363778,1000,1000,1000,1000,120628396,1000,1000,1000,1000
61366277,1000,1000,1000,1000,120728356,1000,1000,1000,1000
61368776,1000,1000,1000,1000,120828316,1000,1000,1000,1000
61371275,1000,1000,1000,1000,120928276,1000,1000,1000,1000
61373774,1000,1000,1000,1000,121028236,1000,1000,1000,1000
61376273,1000,1000,1000,1000,121128196,1000,1000,1000,1000
61378772,1000,1000,1000,1000,121228156,1000,1000,1000,1000
61381271,1000,1000,1000,1000,121328949,1000,1000,1000,1000
61383770,1000,1000,1000,1000,121428909,1000,1000,1000,1000
61386269,1000,1000,1000,1000,121528869,1000,1000,1000,1000
61388768,1000,1000,1000,1000,121628829,1000,1000,1000,1000
61391267,1000,1000,1000,1000,121728789,1000,1000,1000,1000
61393766,1000,1000,1000,1000,121828749,1000,1000,1000,1000
61396265,1000,1000,1000,1000,121928709,1000,1000,1000,1000
61398764,1000,1000,1000,1000,122028669,1000,1000,1000,1000
61401263,1000,1000,1000,1000,122128629,1000,1000,1000,1000
61403762,1000,1000,1000,1000,122228589,1000,1000,1000,1000
61406261,1000,1000,1000,1000,122328549,1000,1000,1000,1000
61408760,1000,1000,1000,1000,122428509,1000,1000,1000,1000
61411259,1000,1000,1000,1000,122528469,1000,1000,1000,1000
61413758,1000,1000,1000,1000,122628429,1000,1000,1000,1000
61416257,1000,1000,1000,1000,122728389,1000,1000,1000,1000
61418756,1000,1000,1000,1000,122828349,1000,1000,1000,1000
61421255,1000,1000,1000,1000,122928309,1000,1000,1000,1000
61423754,1000,1000,1000,1000,123028269,1000,1000,1000,1000
61426253,1000,1000,1000,1000,123128229,1000,1000,1000,1000
61428752,1000,1000,1000,1000,123228189,1000,1000,1000,1000
61431251,1000,1000,1000,1000,123328982,1000,1000,1000,1000
61433750,1000,1000,1000,1000,123428942,1000,1000,1000,1000
61436249,1000,1000,1000,1000,123528902,1000,1000,1000,1000
61438748,1000,1000,1000,1000,123628862,1000,1000,1000,1000
61441247,1000,1000,1000,1000,123728822,1000,1000,1000,1000
61443746,1000,1000,1000,1000,123828782,1000,1000,1000,1000
61446245,1000,1000,1000,1000,123928742,1000,1000,1000,1000
61448744,1000,1000,1000,1000,124028702,1000,1000,1000,1000
61451243,1000,1000,1000,1000,124128662,1000,1000,1000,1000
61453742,1000,1000,1000,1000,124228622,1000,1000,1000,1000
61456241,1000,1000,1000,1000,124328582,1000,1000,1000,1000
61458740,1000,1000,1000,1000,124428542,1000,1000,1000,1000
61461239,1000,1000,1000,1000,124528502,1000,1000,1000,1000
61463738,1000,1000,1000,1000,124628462,1000,1000,1000,1000
61466237,1000,1000,1000,1000,124728422,1000,1000,1000,1000
61468736,1000,1000,1000,1000,124828382,1000,1000,1000,1000
61471235,1000,1000,1000,1000,124928342,1000,1000,1000,1000
61473734,1000,1000,1000,1000,125028302,1000,1000,1000,1000
61476233,1000,1000,1000,1000,125128262,1000,1000,1000,1000
61478732,1000,1000,1000,1000,125228222,1000,1000,1000,1000
61481231,1000,1000,1000,1000,125328182,1000,1000,1000,1000
61483730,1000,1000,1000,1000,125428975,1000,1000,1000,1000
61486229,1000,1000,1000,1000,125528935,1000,1000,1000,1000
61488728,1000,1000,1000,1000,125628895,1000,1000,1000,1000
61491227,1000,1000,1000,1000,125728855,1000,1000,1000,1000
61493726,1000,1000,1000,1000,125828815,1000,1000,1000,1000
61496225,1000,1000,1000,1000,125928775,1000,1000,1000,1000
61498724,1000,1000,1000,1000,126028735,1000,1000,1000,1000
61501223,1000,1000,1000,1000,126128695,1000,1000,1000,1000
61503722,1000,1000,1000,1000,126228655,1000,1000,1000,1000
61506221,1000,1000,1000,1000,126328615,1000,1000,1000,1000
61508720,1000,1000,1000,1000,126428575,1000,1000,1000,1000
61511219,1000,1000,1000,1000,126528535,1000,1000,1000,1000
61513718,1000,1000,1000,1000,126628495,1000,1000,1000,1000
61516217,1000,1000,1000,1000,126728455,1000,1000,1000,1000
61518716,1000,1000,1000,1000,126828415,1000,1000,1000,1000
61521215,1000,1000,1000,1000,126928375,1000,1000,1000,1000
61523714,1000,1000,1000,1000,127028335,1000,1000,1000,1000
61526213,1000,1000,1000,1000,127128295,1000,1000,1000,1000
61528712,1000,1000,1000,1000,127228255,1000,1000,1000,1000
61531211,1000,1000,1000,1000,127328215,1000,1000,1000,1000
61533710,1000,1000,1000,1000,127428175,1000,1000,1000,1000
61536209,1000,1000,1000,1000,127528968,1000,1000,1000,1000
61538708,1000,1000,1000,1000,127628928,1000,1000,1000,1000
61541207,1000,1000,1000,1000,,,,,
61543706,1000,1000,1000,1000,,,,,
61546205,1000,1000,1000,1000,,,,,
61548704,1000,1000,1000,1000,,,,,
61551203,1000,1000,1000,1000,,,,,
61553702,1000,1000,1000,1000,,,,,
61556201,1000,1000,1000,1000,,,,,
61558700,1000,1000,1000,1000,,,,,
61561199,1000,1000,1000,1000,,,,,
61563698,1000,1000,1000,1000,,,,,
61566197,1000,1000,1000,1000,,,,,
61568696,1000,1000,1000,1000,,,,,
61571195,1000,1000,1000,1000,,,,,
61573694,1000,1000,1000,1000,,,,,
61576193,1000,1000,1000,1000,,,,,
61578692,1000,1000,1000,1000,,,,,
61581191,1000,1000,1000,1000,,,,,
61583690,1000,1000,1000,1000,,,,,
61586189,1000,1000,1000,1000,,,,,
61588688,1000,1000,1000,1000,,,,,
61591187,1000,1000,1000,1000,,,,,
61593686,1000,1000,1000,1000,,,,,
61596185,1000,1000,1000,1000,,,,,
61598684,1000,1000,1000,1000,,,,,
61601183,1000,1000,1000,1000,,,,,
61603682,1000,1000,1000,1000,,,,,
61606181,1000,1000,1000,1000,,,,,
61608680,1000,1000,1000,1000,,,,,
61611179,1000,1000,1000,1000,,,,,
61613678,1000,1000,1000,1000,,,,,
61616177,1000,1000,1000,1000,,,,,
61618676,1000,1000,1000,1000,,,,,
61621175,1000,1000,1000,1000,,,,,
61623674,1000,1000,1000,1000,,,,,
61626173,1000,1000,1000,1000,,,,,
61628672,1000,1000,1000,1000,,,,,
61631171,1000,1000,1000,1000,,,,,
61633670,1000,1000,1000,1000,,,,,
61636169,1000,1000,1000,1000,,,,,
61638668,1000,1000,1000,1000,,,,,
61641167,1000,1000,1000,1000,,,,,
61643666,1000,1000,1000,1000,,,,,
61646165,1000,1000,1000,1000,,,,,
61648664,1000,1000,1000,1000,,,,,
61651163,1000,1000,1000,1000,,,,,
61653662,1000,1000,1000,1000,,,,,
61656161,1000,1000,1000,1000,,,,,
61658660,1000,1000,1000,1000,,,,,
61661159,1000,1000,1000,1000,,,,,
61663658,1000,1000,1000,1000,,,,,
61666157,1000,1000,1000,1000,,,,,
61668656,1000,1000,1000,1000,,,,,
61671155,1000,1000,1000,1000,,,,,
61673654,1000,1000,1000,1000,,,,,
61676153,1000,1000,1000,1000,,,,,
61678652,1000,1000,1000,1000,,,,,
61681151,1000,1000,1000,1000,,,,,
61683650,1000,1000,1000,1000,,,,,
61686149,1000,1000,1000,1000,,,,,
61688648,1000,1000,1000,1000,,,,,
61691147,1000,1000,1000,1000,,,,,
61693646,1000,1000,1000,1000,,,,,
61696145,1000,1000,1000,1000,,,,,
61698644,1000,1000,1000,1000,,,,,
61701143,1000,1000,1000,1000,,,,,
61703642,1000,1000,1000,1000,,,,,
61706141,1000,1000,1000,1000,,,,,
61708640,1000,1000,1000,1000,,,,,
61711139,1000,1000,1000,1000,,,,,
61713638,1000,1000,1000,1000,,,,,
61716137,1000,1000,1000,1000,,,,,
61718636,1000,1000,1000,1000,,,,,
61721135,1000,1000,1000,1000,,,,,
61723634,1000,1000,1000,1000,,,,,
61726133,1000,1000,1000,1000,,,,,
61728632,1000,1000,1000,1000,,,,,
61731131,1000,1000,1000,1000,,,,,
61733630,1000,1000,1000,1000,,,,,
61736129,1000,1000,1000,1000,,,,,
61738628,1000,1000,1000,1000,,,,,
61741127,1000,1000,1000,1000,,,,,
61743626,1000,1000,1000,1000,,,,,
61746125,1000,1000,1000,1000,,,,,
61748624,1000,1000,1000,1000,,,,,
61751123,1000,1000,1000,1000,,,,,
61753622,1000,1000,1000,1000,,,,,
61756121,1000,1000,1000,1000,,,,,
61758620,1000,1000,1000,1000,,,,,
61761119,1000,1000,1000,1000,,,,,
61763618,1000,1000,1000,1000,,,,,
61766117,1000,1000,1000,1000,,,,,
61768616,1000,1000,1000,1000,,,,,
61771115,1000,1000,1000,1000,,,,,
61773614,1000,1000,1000,1000,,,,,
61776113,1000,1000,1000,1000,,,,,
61778612,1000,1000,1000,1000,,,,,
61781111,1000,1000,1000,1000,,,,,
61783610,1000,1000,1000,1000,,,,,
61786109,1000,1000,1000,1000,,,,,
61788608,1000,1000,1000,1000,,,,,
61791107,1000,1000,1000,1000,,,,,
61793606,1000,1000,1000,1000,,,,,
61796105,1000,1000,1000,1000,,,,,
61798604,1000,1000,1000,1000,,,,,
61801103,1000,1000,1000,1000,,,,,
61803602,1000,1000,1000,1000,,,,,
61806101,1000,1000,1000,1000,,,,,
61808600,1000,1000,1000,1000,,,,,
61811099,1000,1000,1000,1000,,,,,
61813598,1000,1000,1000,1000,,,,,
61816097,1000,1000,1000,1000,,,,,
61818596,1000,1000,1000,1000,,,,,
61821095,1000,1000,1000,1000,,,,,
61823594,1000,1000,1000,1000,,,,,
61826093,1000,1000,1000,1000,,,,,
61828592,1000,1000,1000,1000,,,,,
61831091,1000,1000,1000,1000,,,,,
61833590,1000,1000,1000,1000,,,,,
61836089,1000,1000,1000,1000,,,,,
61838588,1000,1000,1000,1000,,,,,
61841087,1000,1000,1000,1000,,,,,
61843586,1000,1000,1000,1000,,,,,
61846085,1000,1000,1000,1000,,,,,
61848584,1000,1000,1000,1000,,,,,
61851083,1000,1000,1000,1000,,,,,
61853582,1001,1001,1001,1001,,,,,
61856081,1002,1002,1002,1002,,,,,
61858580,1003,1003,1003,1003,,,,,
61861079,1003,1003,1003,1003,,,,,
61863578,1004,1004,1004,1004,,,,,
61866077,1005,1005,1005,1005,,,,,
61868576,1006,1006,1006,1006,,,,,
61871075,1006,1006,1006,1006,,,,,
61873574,1007,1007,1007,1007,,,,,
61876073,1008,1008,1008,1008,,,,,
61878572,1009,1009,1009,1009,,,,,
61881071,1009,1009,1009,1009,,,,,
61883570,1010,1010,1010,1010,,,,,
61886069,1011,1011,1011,1011,,,,,
61888568,1012,1012,1012,1012,,,,,
61891067,1012,1012,1012,1012,,,,,
61893566,1013,1013,1013,1013,,,,,
61896065,1014,1014,1014,1014,,,,,
61898564,1015,1015,1015,1015,,,,,
61901063,1015,1015,1015,1015,,,,,
61903562,1016,1016,1016,1016,,,,,
61906061,1017,1017,1017,1017,,,,,
61908560,1018,1018,1018,1018,,,,,
61911059,1018,1018,1018,1018,,,,,
61913558,1019,1019,1019,1019,,,,,
61916057,1020,1020,1020,1020,,,,,
61918556,1021,1021,1021,1021,,,,,
61921055,1021,1021,1021,1021,,,,,
61923554,1022,1022,1022,1022,,,,,
61926053,1023,1023,1023,1023,,,,,
61928552,1024,1024,1024,1024,,,,,
61931051,1024,1024,1024,1024,,,,,
61933550,1025,1025,1025,1025,,,,,
61936049,1026,1026,1026,1026,,,,,
61938548,1027,1027,1027,1027,,,,,
61941047,1027,1027,1027,1027,,,,,
61943546,1028,1028,1028,1028,,,,,
61946045,1029,1029,1029,1029,,,,,
61948544,1030,1030,1030,1030,,,,,
61951043,1030,1030,1030,1030,,,,,
61953542,1031,1031,1031,1031,,,,,
61956041,1032,1032,1032,1032,,,,,
61958540,1033,1033,1033,1033,,,,,
61961039,1033,1033,1033,1033,,,,,
61963538,1034,1034,1034,1034,,,,,
61966037,1035,1035,1035,1035,,,,,
61968536,1036,1036,1036,1036,,,,,
61971035,1036,1036,1036,1036,,,,,
61973534,1037,1037,1037,1037,,,,,
61976033,1038,1038,1038,1038,,,,,
61978532,1039,1039,1039,1039,,,,,
61981031,1039,1039,1039,1039,,,,,
61983530,1040,1040,1040,1040,,,,,
61986029,1041,1041,1041,1041,,,,,
61988528,1042,1042,1042,1042,,,,,
61991027,1042,1042,1042,1042,,,,,
61993526,1043,1043,1043,1043,,,,,
61996025,1044,1044,1044,1044,,,,,
61998524,1045,1045,1045,1045,,,,,
62001023,1045,1045,1045,1045,,,,,
62003522,1046,1046,1046,1046,,,,,
62006021,1047,1047,1047,1047,,,,,
62008520,1048,1048,1048,1048,,,,,
62011019,1048,1048,1048,1048,,,,,
62013518,1049,1049,1049,1049,,,,,
62016017,1050,1050,1050,1050,,,,,
62018516,1051,1051,1051,1051,,,,,
62021015,1051,1051,1051,1051,,,,,
62023514,1052,1052,1052,1052,,,,,
62026013,1053,1053,1053,1053,,,,,
62028512,1054,1054,1054,1054,,,,,
62031011,1054,1054,1054,1054,,,,,
62033510,1055,1055,1055,1055,,,,,
62036009,1056,1056,1056,1056,,,,,
62038508,1057,1057,1057,1057,,,,,
62041007,1057,1057,1057,1057,,,,,
62043506,1058,1058,1058,1058,,,,,
62046005,1059,1059,1059,1059,,,,,
62048504,1060,1060,1060,1060,,,,,
62051003,1060,1060,1060,1060,,,,,
62053502,1061,1061,1061,1061,,,,,
62056001,1062,1062,1062,1062,,,,,
62058500,1063,1063,1063,1063,,,,,
62060999,1063,1063,1063,1063,,,,,
62063498,1064,1064,1064,1064,,,,,
62065997,1065,1065,1065,1065,,,,,
62068496,1066,1066,1066,1066,,,,,
62070995,1066,1066,1066,1066,,,,,
62073494,1067,1067,1067,1067,,,,,
62075993,1068,1068,1068,1068,,,,,
62078492,1069,1069,1069,1069,,,,,
62080991,1069,1069,1069,1069,,,,,
62083490,1070,1070,1070,1070,,,,,
62085989,1071,1071,1071,1071,,,,,
62088488,1072,1072,1072,1072,,,,,
62090987,1072,1072,1072,1072,,,,,
62093486,1073,1073,1073,1073,,,,,
62095985,1074,1074,1074,1074,,,,,
62098484,1075,1075,1075,1075,,,,,
62100983,1075,1075,1075,1075,,,,,
62103482,1076,1076,1076,1076,,,,,
62105981,1077,1077,1077,1077,,,,,
62108480,1078,1078,1078,1078,,,,,
62110979,1078,1078,1078,1078,,,,,
62113478,1079,1079,1079,1079,,,,,
62115977,1080,1080,1080,1080,,,,,
62118476,1081,1081,1081,1081,,,,,
62120975,1081,1081,1081,1081,,,,,
62123474,1082,1082,1082,1082,,,,,
62125973,1083,1083,1083,1083,,,,,
62128472,1084,1084,1084,1084,,,,,
62130971,1084,1084,1084,1084,,,,,
62133470,1085,1085,1085,1085,,,,,
62135969,1086,1086,1086,1086,,,,,
62138468,1087,1087,1087,1087,,,,,
62140967,1087,1087,1087,1087,,,,,
62143466,1088,1088,1088,1088,,,,,
62145965,1089,1089,1089,1089,,,,,
62148464,1090,1090,1090,1090,,,,,
62150963,1090,1090,1090,1090,,,,,
62153462,1091,1091,1091,1091,,,,,
62155961,1092,1092,1092,1092,,,,,
62158460,1093,1093,1093,1093,,,,,
62160959,1093,1093,1093,1093,,,,,
62163458,1094,1094,1094,1094,,,,,
62165957,1095,1095,1095,1095,,,,,
62168456,1096,1096,1096,1096,,,,,
62170955,1096,1096,1096,1096,,,,,
62173454,1097,1097,1097,1097,,,,,
62175953,1098,1098,1098,1098,,,,,
62178452,1099,1099,1099,1099,,,,,
62180951,1099,1099,1099,1099,,,,,
62183450,1100,1100,1100,1100,,,,,
62185949,1101,1101,1101,1101,,,,,
62188448,1101,1101,1101,1101,,,,,
62190947,1102,1102,1102,1102,,,,,
62193446,1103,1103,1103,1103,,,,,
62195945,1104,1104,1104,1104,,,,,
62198444,1104,1104,1104,1104,,,,,
62200943,1105,1105,1105,1105,,,,,
62203442,1106,1106,1106,1106,,,,,
62205941,1107,1107,1107,1107,,,,,
62208440,1107,1107,1107,1107,,,,,
62210939,1108,1108,1108,1108,,,,,
62213438,1109,1109,1109,1109,,,,,
62215937,1110,1110,1110,1110,,,,,
62218436,1110,1110,1110,1110,,,,,
62220935,1111,1111,1111,1111,,,,,
62223434,1112,1112,1112,1112,,,,,
62225933,1113,1113,1113,1113,,,,,
62228432,1113,1113,1113,1113,,,,,
62230931,1114,1114,1114,1114,,,,,
62233430,1115,1115,1115,1115,,,,,
62235929,1116,1116,1116,1116,,,,,
62238428,1116,1116,1116,1116,,,,,
62240927,1117,1117,1117,1117,,,,,
62243426,1118,1118,1118,1118,,,,,
62245925,1119,1119,1119,1119,,,,,
62248424,1119,1119,1119,1119,,,,,
62250923,1120,1120,1120,1120,,,,,
62253422,1121,1121,1121,1121,,,,,
62255921,1122,1122,1122,1122,,,,,
62258420,1122,1122,1122,1122,,,,,
62260919,1123,1123,1123,1123,,,,,
62263418,1124,1124,1124,1124,,,,,
62265917,1125,1125,1125,1125,,,,,
62268416,1125,1125,1125,1125,,,,,
62270915,1126,1126,1126,1126,,,,,
62273414,1127,1127,1127,1127,,,,,
62275913,1128,1128,1128,1128,,,,,
62278412,1128,1128,1128,1128,,,,,
62280911,1129,1129,1129,1129,,,,,
62283410,1130,1130,1130,1130,,,,,
62285909,1131,1131,1131,1131,,,,,
62288408,1131,1131,1131,1131,,,,,
62290907,1132,1132,1132,1132,,,,,
62293406,1133,1133,1133,1133,,,,,
62295905,1134,1134,1134,1134,,,,,
62298404,1134,1134,1134,1134,,,,,
62300903,1135,1135,1135,1135,,,,,
62303402,1136,1136,1136,1136,,,,,
62305901,1137,1137,1137,1137,,,,,
62308400,1137,1137,1137,1137,,,,,
62310899,1138,1138,1138,1138,,,,,
62313398,1139,1139,1139,1139,,,,,
62315897,1140,1140,1140,1140,,,,,
62318396,1140,1140,1140,1140,,,,,
62320895,1141,1141,1141,1141,,,,,
62323394,1142,1142,1142,1142,,,,,
62325893,1143,1143,1143,1143,,,,,
62328392,1143,1143,1143,1143,,,,,
62330891,1144,1144,1144,1144,,,,,
62333390,1145,1145,1145,1145,,,,,
62335889,1146,1146,1146,1146,,,,,
62338388,1146,1146,1146,1146,,,,,
62340887,1147,1147,1147,1147,,,,,
62343386,1148,1148,1148,1148,,,,,
62345885,1149,1149,1149,1149,,,,,
62348384,1149,1149,1149,1149,,,,,
62350883,1150,1150,1150,1150,,,,,
62353382,1162,1152,1153,1163,,,,,
62355881,1170,1160,1161,1171,,,,,
62358380,1178,1168,1169,1179,,,,,
62360879,1186,1176,1177,1186,,,,,
62363378,1193,1184,1185,1194,,,,,
62365877,1201,1191,1192,1201,,,,,
62368376,1208,1199,1200,1209,,,,,
62370875,1215,1206,1207,1216,,,,,
62373374,1222,1213,1214,1223,,,,,
62375873,1229,1221,1221,1230,,,,,
62378372,1236,1227,1228,1237,,,,,
62380871,1243,1234,1235,1243,,,,,
62383370,1250,1241,1242,1250,,,,,
62385869,1256,1248,1249,1257,,,,,
62388368,1263,1254,1255,1263,,,,,
62390867,1269,1261,1262,1270,,,,,
62393366,1276,1267,1268,1276,,,,,
62395865,1282,1274,1275,1282,,,,,
62398364,1288,1280,1281,1288,,,,,
62400863,1294,1286,1287,1295,,,,,
62403362,1300,1292,1293,1301,,,,,
62405861,1306,1299,1299,1307,,,,,
62408360,1312,1305,1305,1313,,,,,
62410859,1318,1310,1311,1318,,,,,
62413358,1324,1316,1317,1324,,,,,
62415857,1330,1322,1323,1330,,,,,
62418356,1335,1328,1329,1336,,,,,
62420855,1341,1334,1334,1341,,,,,
62423354,1347,1339,1340,1347,,,,,
62425853,1352,1345,1346,1353,,,,,
62428352,1358,1350,1351,1358,,,,,
62430851,1363,1356,1357,1363,,,,,
62433350,1368,1361,1362,1369,,,,,
62435849,1374,1367,1367,1374,,,,,
62438348,1379,1372,1373,1380,,,,,
62440847,1384,1377,1378,1385,,,,,
62443346,1390,1383,1383,1390,,,,,
62445845,1395,1388,1388,1395,,,,,
62448344,1400,1393,1394,1400,,,,,
62450843,1405,1398,1399,1405,,,,,
62453342,1410,1403,1404,1410,,,,,
62455841,1415,1408,1409,1415,,,,,
62458340,1420,1413,1414,1420,,,,,
62460839,1425,1418,1419,1425,,,,,
62463338,1430,1423,1424,1430,,,,,
62465837,1435,1428,1429,1435,,,,,
62468336,1440,1433,1434,1440,,,,,
62470835,1444,1438,1438,1445,,,,,
62473334,1449,1443,1443,1449,,,,,
62475833,1454,1447,1448,1454,,,,,
62478332,1459,1452,1453,1459,,,,,
62480831,1463,1457,1457,1464,,,,,
62483330,1468,1462,1462,1468,,,,,
62485829,1473,1466,1467,1473,,,,,
62488328,1477,1471,1471,1477,,,,,
62490827,1482,1475,1476,1482,,,,,
62493326,1486,1480,1480,1487,,,,,
62495825,1491,1484,1485,1491,,,,,
62498324,1495,1489,1489,1496,,,,,
62500823,1500,1493,1494,1500,,,,,
62503322,1504,1498,1498,1504,,,,,
62505821,1508,1502,1503,1509,,,,,
62508320,1513,1507,1507,1513,,,,,
62510819,1517,1511,1511,1517,,,,,
62513318,1522,1515,1516,1522,,,,,
62515817,1526,1520,1520,1526,,,,,
62518316,1530,1524,1524,1530,,,,,
62520815,1534,1528,1529,1535,,,,,
62523314,1539,1532,1533,1539,,,,,
62525813,1543,1537,1537,1543,,,,,
62528312,1547,1541,1541,1547,,,,,
62530811,1551,1545,1546,1551,,,,,
62533310,1555,1549,1550,1555,,,,,
62535809,1559,1553,1554,1560,,,,,
62538308,1563,1557,1558,1564,,,,,
62540807,1568,1561,1562,1568,,,,,
62543306,1572,1566,1566,1572,,,,,
62545805,1576,1570,1570,1576,,,,,
62548304,1580,1574,1574,1580,,,,,
62550803,1584,1578,1578,1584,,,,,
62553302,1588,1582,1582,1588,,,,,
62555801,1592,1586,1586,1592,,,,,
62558300,1595,1590,1590,1596,,,,,
62560799,1599,1594,1594,1600,,,,,
62563298,1603,1597,1598,1603,,,,,
62565797,1607,1601,1602,1607,,,,,
62568296,1611,1605,1606,1611,,,,,
62570795,1615,1609,1610,1615,,,,,
62573294,1619,1613,1614,1619,,,,,
62575793,1623,1617,1617,1623,,,,,
62578292,1626,1621,1621,1626,,,,,
62580791,1630,1624,1625,1630,,,,,
62583290,1634,1628,1629,1634,,,,,
62585789,1638,1632,1633,1638,,,,,
62588288,1641,1636,1636,1642,,,,,
62590787,1645,1639,1640,1645,,,,,
62593286,1649,1643,1644,1649,,,,,
62595785,1653,1647,1647,1653,,,,,
62598284,1656,1650,1651,1656,,,,,
62600783,1660,1654,1655,1660,,,,,
62603282,1664,1658,1658,1664,,,,,
62605781,1667,1661,1662,1667,,,,,
62608280,1671,1665,1666,1671,,,,,
62610779,1674,1669,1669,1674,,,,,
62613278,1678,1672,1673,1678,,,,,
62615777,1682,1676,1676,1682,,,,,
62618276,1685,1679,1680,1685,,,,,
62620775,1689,1683,1684,1689,,,,,
62623274,1692,1686,1687,1692,,,,,
62625773,1696,1690,1691,1696,,,,,
62628272,1699,1693,1694,1699,,,,,
62630771,1703,1697,1698,1703,,,,,
62633270,1706,1700,1701,1706,,,,,
62635769,1710,1704,1705,1710,,,,,
62638268,1713,1707,1708,1713,,,,,
62640767,1717,1711,1712,1717,,,,,
62643266,1720,1714,1715,1720,,,,,
62645765,1724,1718,1718,1723,,,,,
62648264,1727,1721,1722,1727,,,,,
62650763,1730,1725,1725,1730,,,,,
62653262,1734,1728,1729,1734,,,,,
62655761,1737,1731,1732,1737,,,,,
62658260,1740,1735,1735,1740,,,,,
62660759,1744,1738,1739,1744,,,,,
62663258,1747,1741,1742,1747,,,,,
62665757,1751,1745,1745,1750,,,,,
62668256,1754,1748,1749,1754,,,,,
62670755,1757,1751,1752,1757,,,,,
62673254,1760,1755,1755,1760,,,,,
62675753,1764,1758,1759,1764,,,,,
62678252,1767,1761,1762,1767,,,,,
62680751,1770,1764,1765,1770,,,,,
62683250,1774,1768,1768,1773,,,,,
62685749,1777,1771,1772,1777,,,,,
62688248,1780,1774,1775,1780,,,,,
62690747,1783,1777,1778,1783,,,,,
62693246,1787,1781,1781,1786,,,,,
62695745,1790,1784,1784,1790,,,,,
62698244,1793,1787,1788,1793,,,,,
62700743,1796,1790,1791,1796,,,,,
62703242,1799,1793,1794,1799,,,,,
62705741,1802,1797,1797,1802,,,,,
62708240,1806,1800,1800,1806,,,,,
62710739,1809,1803,1803,1809,,,,,
62713238,1812,1806,1807,1812,,,,,
62715737,1815,1809,1810,1815,,,,,
62718236,1818,1812,1813,1818,,,,,
62720735,1821,1815,1816,1821,,,,,
62723234,1824,1819,1819,1824,,,,,
62725733,1827,1822,1822,1827,,,,,
62728232,1830,1825,1825,1831,,,,,
62730731,1833,1828,1828,1834,,,,,
62733230,1836,1831,1831,1837,,,,,
62735729,1839,1834,1834,1840,,,,,
62738228,1843,1837,1837,1843,,,,,
62740727,1846,1840,1840,1846,,,,,
62743226,1849,1843,1843,1849,,,,,
62745725,1852,1846,1846,1852,,,,,
62748224,1855,1849,1849,1855,,,,,
62750723,1858,1852,1852,1858,,,,,
62753222,1861,1855,1855,1861,,,,,
62755721,1864,1858,1858,1864,,,,,
62758220,1867,1861,1861,1867,,,,,
62760719,1869,1864,1864,1870,,,,,
62763218,1872,1867,1867,1873,,,,,
62765717,1875,1870,1870,1876,,,,,
62768216,1878,1873,1873,1879,,,,,
62770715,1881,1876,1876,1882,,,,,
62773214,1884,1879,1879,1885,,,,,
62775713,1887,1882,1882,1888,,,,,
62778212,1890,1885,1885,1891,,,,,
62780711,1893,1888,1888,1893,,,,,
62783210,1896,1891,1891,1896,,,,,
62785709,1899,1894,1894,1899,,,,,
62788208,1902,1896,1897,1902,,,,,
62790707,1905,1899,1899,1905,,,,,
62793206,1907,1902,1902,1908,,,,,
62795705,1910,1905,1905,1911,,,,,
62798204,1913,1908,1908,1914,,,,,
62800703,1916,1911,1911,1916,,,,,
62803202,1919,1914,1914,1919,,,,,
62805701,1920,1915,1915,1921,,,,,
62808200,1919,1914,1914,1920,,,,,
62810699,1919,1913,1914,1919,,,,,
62813198,1918,1913,1913,1918,,,,,
62815697,1917,1912,1912,1917,,,,,
62818196,1916,1911,1911,1917,,,,,
62820695,1916,1910,1911,1916,,,,,
62823194,1915,1910,1910,1915,,,,,
62825693,1915,1909,1910,1915,,,,,
62828192,1914,1909,1909,1914,,,,,
62830691,1914,1908,1909,1914,,,,,
62833190,1914,1908,1908,1914,,,,,
62835689,1913,1908,1908,1913,,,,,
62838188,1913,1907,1908,1913,,,,,
62840687,1913,1907,1908,1913,,,,,
62843186,1913,1907,1908,1913,,,,,
62845685,1913,1907,1908,1913,,,,,
62848184,1912,1907,1908,1912,,,,,
62850683,1912,1907,1908,1912,,,,,
62853182,1912,1907,1908,1912,,,,,
62855681,1911,1907,1907,1912,,,,,
62858180,1911,1907,1907,1911,,,,,
62860679,1910,1906,1907,1911,,,,,
62863178,1910,1906,1906,1910,,,,,
62865677,1909,1905,1905,1909,,,,,
62868176,1908,1904,1905,1908,,,,,
62870675,1907,1903,1904,1907,,,,,
62873174,1905,1902,1902,1906,,,,,
62875673,1904,1901,1901,1904,,,,,
62878172,1903,1899,1900,1903,,,,,
62880671,1901,1898,1898,1901,,,,,
62883170,1899,1896,1896,1899,,,,,
62885669,1897,1894,1895,1897,,,,,
62888168,1895,1892,1893,1895,,,,,
62890667,1893,1890,1890,1893,,,,,
62893166,1891,1888,1888,1891,,,,,
62895665,1888,1885,1886,1888,,,,,
62898164,1886,1883,1884,1886,,,,,
62900663,1883,1881,1881,1884,,,,,
62903162,1881,1878,1879,1881,,,,,
62905661,1878,1875,1876,1878,,,,,
62908160,1875,1873,1873,1875,,,,,
62910659,1873,1870,1871,1873,,,,,
62913158,1870,1867,1868,1870,,,,,
62915657,1867,1864,1865,1867,,,,,
62918156,1864,1861,1862,1864,,,,,
62920655,1861,1858,1859,1861,,,,,
62923154,1857,1855,1856,1857,,,,,
62926486,1854,1852,1853,1854,,,,,
62928985,1851,1849,1850,1851,,,,,
62931484,1848,1846,1846,1848,,,,,
62933983,1844,1842,1843,1844,,,,,
62936482,1841,1839,1840,1841,,,,,
62938981,1838,1836,1836,1837,,,,,
62941480,1834,1832,1833,1834,,,,,
62943979,1831,1829,1830,1831,,,,,
62946478,1827,1826,1826,1827,,,,,
62948977,1824,1822,1823,1824,,,,,
62951476,1820,1819,1820,1820,,,,,
62953975,1817,1815,1816,1817,,,,,
62956474,1813,1812,1813,1813,,,,,
62958973,1810,1809,1809,1810,,,,,
62961472,1807,1805,1806,1806,,,,,
62963971,1803,1802,1803,1803,,,,,
62966470,1800,1799,1799,1800,,,,,
62968969,1796,1795,1796,1796,,,,,
62971468,1793,1792,1793,1793,,,,,
62973967,1790,1789,1789,1789,,,,,
62976466,1786,1785,1786,1786,,,,,
62978965,1783,1782,1783,1783,,,,,
62981464,1780,1779,1780,1780,,,,,
62983963,1776,1776,1776,1776,,,,,
62986462,1773,1772,1773,1773,,,,,
62988961,1770,1769,1770,1770,,,,,
62991460,1767,1766,1767,1767,,,,,
62993959,1764,1763,1764,1764,,,,,
62996458,1760,1760,1761,1760,,,,,
62998957,1757,1757,1758,1757,,,,,
63001456,1754,1754,1755,1754,,,,,
63003955,1751,1751,1752,1751,,,,,
63006454,1748,1748,1749,1748,,,,,
63008953,1745,1745,1746,1745,,,,,
63011452,1742,1742,1743,1742,,,,,
63013951,1739,1740,1740,1740,,,,,
63016450,1737,1736,1736,1738,,,,,
63018949,1735,1733,1733,1735,,,,,
63021448,1732,1730,1730,1733,,,,,
63023947,1729,1727,1727,1730,,,,,
63026446,1727,1724,1724,1727,,,,,
63028945,1724,1721,1721,1725,,,,,
63031444,1721,1719,1718,1722,,,,,
63033943,1718,1716,1716,1719,,,,,
