timestamp,TimeUS,C1,C2,C3,C4,C5,C6,C7,C8,C9,C10,C11,C12,C13,C14
1682167905.70004010,58928919,1000,1000,1000,1000,0,0,0,0,0,0,0,0,0,0
1682167905.79999995,59028879,1000,1000,1000,1000,0,0,0,0,0,0,0,0,0,0
1682167905.89996004,59128839,1000,1000,1000,1000,0,0,0,0,0,0,0,0,0,0
1682167905.99992013,59228799,1000,1000,1000,1000,0,0,0,0,0,0,0,0,0,0
1682167906.09987998,59328759,1000,1000,1000,1000,0,0,0,0,0,0,0,0,0,0
1682167906.19984007,59428719,1000,1000,1000,1000,0,0,0,0,0,0,0,0,0,0
1682167906.29979992,59528679,1000,1000,1000,1000,0,0,0,0,0,0,0,0,0,0
1682167906.39976001,59628639,1000,1000,1000,1000,0,0,0,0,0,0,0,0,0,0
1682167906.49972010,59728599,1000,1000,1000,1000,0,0,0,0,0,0,0,0,0,0
1682167906.59967995,59828559,1000,1000,1000,1000,0,0,0,0,0,0,0,0,0,0
1682167906.69964004,59928519,1000,1000,1000,1000,0,0,0,0,0,0,0,0,0,0
1682167906.79960012,60028479,1000,1000,1000,1000,0,0,0,0,0,0,0,0,0,0
1682167906.89955997,60128439,1000,1000,1000,1000,0,0,0,0,0,0,0,0,0,0
1682167906.99952006,60228399,1000,1000,1000,1000,0,0,0,0,0,0,0,0,0,0
1682167907.09947991,60328359,1000,1000,1000,1000,0,0,0,0,0,0,0,0,0,0
1682167907.19944000,60428319,1000,1000,1000,1000,0,0,0,0,0,0,0,0,0,0
1682167907.29940009,60528279,1000,1000,1000,1000,0,0,0,0,0,0,0,0,0,0
1682167907.39935994,60628239,1000,1000,1000,1000,0,0,0,0,0,0,0,0,0,0
1682167907.49932003,60728199,1000,1000,1000,1000,0,0,0,0,0,0,0,0,0,0
1682167907.59928012,60828159,1000,1000,1000,1000,0,0,0,0,0,0,0,0,0,0
1682167907.70007300,60928952,1004,1004,1004,1004,0,0,0,0,0,0,0,0,0,0
1682167907.80003309,61028912,1034,1034,1034,1034,0,0,0,0,0,0,0,0,0,0
1682167907.89999294,61128872,1064,1064,1064,1064,0,0,0,0,0,0,0,0,0,0
1682167907.99995303,61228832,1094,1094,1094,1094,0,0,0,0,0,0,0,0,0,0
1682167908.09991312,61328792,1124,1124,1124,1124,0,0,0,0,0,0,0,0,0,0
1682167908.19987297,61428752,1193,1184,1185,1194,0,0,0,0,0,0,0,0,0,0
1682167908.29983306,61528712,1430,1423,1424,1430,0,0,0,0,0,0,0,0,0,0
1682167908.39979291,61628672,1603,1598,1598,1603,0,0,0,0,0,0,0,0,0,0
1682167908.49975300,61728632,1747,1742,1742,1747,0,0,0,0,0,0,0,0,0,0
1682167908.59971309,61828592,1872,1867,1867,1873,0,0,0,0,0,0,0,0,0,0
1682167908.69967294,61928552,1919,1916,1916,1920,0,0,0,0,0,0,0,0,0,0
1682167908.79963303,62028512,1807,1806,1806,1808,0,0,0,0,0,0,0,0,0,0
1682167908.89959311,62128472,1690,1691,1689,1692,0,0,0,0,0,0,0,0,0,0
1682167908.99955297,62228432,1636,1639,1634,1642,0,0,0,0,0,0,0,0,0,0
1682167909.09951305,62328392,1630,1633,1630,1634,0,0,0,0,0,0,0,0,0,0
1682167909.19947314,62428352,1636,1638,1638,1637,0,0,0,0,0,0,0,0,0,0
1682167909.29943299,62528312,1637,1637,1639,1635,0,0,0,0,0,0,0,0,0,0
1682167909.39939308,62628272,1632,1631,1634,1629,0,0,0,0,0,0,0,0,0,0
1682167909.49935293,62728232,1624,1624,1626,1621,0,0,0,0,0,0,0,0,0,0
1682167909.59931302,62828192,1619,1618,1620,1617,0,0,0,0,0,0,0,0,0,0
1682167909.70010614,62928985,1616,1615,1617,1615,0,0,0,0,0,0,0,0,0,0
1682167909.80006599,63028945,1611,1611,1612,1610,0,0,0,0,0,0,0,0,0,0
1682167909.90002608,63128905,1582,1582,1589,1574,0,0,0,0,0,0,0,0,0,0
1682167909.99998593,63228865,1568,1569,1573,1564,0,0,0,0,0,0,0,0,0,0
1682167910.09994602,63328825,1558,1559,1558,1559,0,0,0,0,0,0,0,0,0,0
1682167910.19990611,63428785,1549,1549,1546,1553,0,0,0,0,0,0,0,0,0,0
1682167910.29986596,63528745,1543,1543,1535,1550,0,0,0,0,0,0,0,0,0,0
1682167910.39982605,63628705,1537,1536,1528,1545,0,0,0,0,0,0,0,0,0,0
1682167910.49978614,63728665,1532,1531,1526,1537,0,0,0,0,0,0,0,0,0,0
1682167910.59974599,63828625,1527,1527,1525,1528,0,0,0,0,0,0,0,0,0,0
1682167910.69970608,63928585,1524,1524,1525,1524,0,0,0,0,0,0,0,0,0,0
1682167910.79966593,64028545,1526,1526,1528,1524,0,0,0,0,0,0,0,0,0,0
1682167910.89962602,64128505,1529,1529,1531,1526,0,0,0,0,0,0,0,0,0,0
1682167910.99958611,64228465,1532,1532,1535,1530,0,0,0,0,0,0,0,0,0,0
1682167911.09954596,64328425,1536,1536,1538,1534,0,0,0,0,0,0,0,0,0,0
1682167911.19950604,64428385,1539,1540,1541,1539,0,0,0,0,0,0,0,0,0,0
1682167911.29946613,64528345,1543,1543,1544,1543,0,0,0,0,0,0,0,0,0,0
1682167911.39942598,64628305,1546,1546,1546,1546,0,0,0,0,0,0,0,0,0,0
1682167911.49938607,64728265,1548,1548,1548,1549,0,0,0,0,0,0,0,0,0,0
1682167911.59934592,64828225,1551,1551,1551,1552,0,0,0,0,0,0,0,0,0,0
1682167911.69930601,64928185,1555,1555,1554,1557,0,0,0,0,0,0,0,0,0,0
1682167911.80009913,65028978,1553,1554,1559,1561,0,0,0,0,0,0,0,0,0,0
1682167911.90005898,65128938,1555,1555,1562,1563,0,0,0,0,0,0,0,0,0,0
1682167912.00001907,65228898,1558,1558,1564,1565,0,0,0,0,0,0,0,0,0,0
1682167912.09997892,65328858,1561,1561,1565,1566,0,0,0,0,0,0,0,0,0,0
1682167912.19993901,65428818,1563,1564,1566,1566,0,0,0,0,0,0,0,0,0,0
1682167912.29989910,65528778,1566,1566,1566,1566,0,0,0,0,0,0,0,0,0,0
1682167912.39985895,65628738,1568,1567,1566,1565,0,0,0,0,0,0,0,0,0,0
1682167912.49981904,65728698,1570,1570,1567,1566,0,0,0,0,0,0,0,0,0,0
1682167912.59977913,65828658,1573,1572,1568,1567,0,0,0,0,0,0,0,0,0,0
1682167912.69973898,65928618,1572,1572,1567,1567,0,0,0,0,0,0,0,0,0,0
1682167912.79969907,66028578,1573,1573,1569,1569,0,0,0,0,0,0,0,0,0,0
1682167912.89965892,66128538,1573,1573,1569,1569,0,0,0,0,0,0,0,0,0,0
1682167912.99961901,66228498,1573,1573,1570,1571,0,0,0,0,0,0,0,0,0,0
1682167913.09957910,66328458,1575,1575,1573,1573,0,0,0,0,0,0,0,0,0,0
1682167913.19953895,66428418,1574,1574,1574,1573,0,0,0,0,0,0,0,0,0,0
1682167913.29949903,66528378,1575,1575,1576,1574,0,0,0,0,0,0,0,0,0,0
1682167913.39945912,66628338,1575,1576,1577,1575,0,0,0,0,0,0,0,0,0,0
1682167913.49941897,66728298,1575,1575,1577,1576,0,0,0,0,0,0,0,0,0,0
1682167913.59937906,66828258,1575,1575,1577,1577,0,0,0,0,0,0,0,0,0,0
1682167913.69933891,66928218,1575,1575,1576,1577,0,0,0,0,0,0,0,0,0,0
1682167913.79929900,67028178,1575,1576,1577,1577,0,0,0,0,0,0,0,0,0,0
1682167913.90009212,67128971,1576,1576,1576,1577,0,0,0,0,0,0,0,0,0,0
1682167914.00005198,67228931,1575,1576,1576,1576,0,0,0,0,0,0,0,0,0,0
1682167914.10001206,67328891,1577,1576,1577,1577,0,0,0,0,0,0,0,0,0,0
1682167914.19997191,67428851,1577,1577,1577,1577,0,0,0,0,0,0,0,0,0,0
1682167914.29993200,67528811,1577,1577,1577,1576,0,0,0,0,0,0,0,0,0,0
1682167914.39989209,67628771,1577,1577,1577,1577,0,0,0,0,0,0,0,0,0,0
1682167914.49985194,67728731,1577,1577,1577,1577,0,0,0,0,0,0,0,0,0,0
1682167914.59981203,67828691,1577,1577,1576,1577,0,0,0,0,0,0,0,0,0,0
1682167914.69977212,67928651,1578,1578,1577,1577,0,0,0,0,0,0,0,0,0,0
1682167914.79973197,68028611,1577,1577,1576,1576,0,0,0,0,0,0,0,0,0,0
1682167914.89969206,68128571,1578,1578,1577,1578,0,0,0,0,0,0,0,0,0,0
1682167914.99965191,68228531,1578,1578,1579,1578,0,0,0,0,0,0,0,0,0,0
1682167915.09961200,68328491,1578,1578,1578,1578,0,0,0,0,0,0,0,0,0,0
1682167915.19957209,68428451,1578,1578,1579,1579,0,0,0,0,0,0,0,0,0,0
1682167915.29953194,68528411,1579,1578,1579,1579,0,0,0,0,0,0,0,0,0,0
1682167915.39949203,68628371,1579,1579,1580,1579,0,0,0,0,0,0,0,0,0,0
1682167915.49945211,68728331,1579,1580,1579,1580,0,0,0,0,0,0,0,0,0,0
1682167915.59941196,68828291,1580,1580,1580,1580,0,0,0,0,0,0,0,0,0,0
1682167915.69937205,68928251,1580,1580,1580,1580,0,0,0,0,0,0,0,0,0,0
1682167915.79933214,69028211,1580,1580,1580,1580,0,0,0,0,0,0,0,0,0,0
1682167915.89929199,69128171,1580,1579,1580,1580,0,0,0,0,0,0,0,0,0,0
1682167916.00008512,69228964,1579,1579,1580,1579,0,0,0,0,0,0,0,0,0,0
1682167916.10004497,69328924,1579,1579,1579,1580,0,0,0,0,0,0,0,0,0,0
1682167916.20000505,69428884,1580,1580,1580,1580,0,0,0,0,0,0,0,0,0,0
1682167916.29996514,69528844,1582,1581,1581,1581,0,0,0,0,0,0,0,0,0,0
1682167916.39992499,69628804,1580,1580,1580,1580,0,0,0,0,0,0,0,0,0,0
1682167916.49988508,69728764,1581,1581,1581,1581,0,0,0,0,0,0,0,0,0,0
1682167916.59984493,69828724,1580,1581,1581,1581,0,0,0,0,0,0,0,0,0,0
1682167916.69980502,69928684,1581,1581,1581,1581,0,0,0,0,0,0,0,0,0,0
1682167916.79976511,70028644,1581,1581,1581,1581,0,0,0,0,0,0,0,0,0,0
1682167916.89972496,70128604,1582,1581,1581,1581,0,0,0,0,0,0,0,0,0,0
1682167916.99968505,70228564,1581,1582,1582,1581,0,0,0,0,0,0,0,0,0,0
1682167917.09964514,70328524,1581,1581,1581,1582,0,0,0,0,0,0,0,0,0,0
1682167917.19960499,70428484,1580,1580,1580,1581,0,0,0,0,0,0,0,0,0,0
1682167917.29956508,70528444,1581,1580,1581,1580,0,0,0,0,0,0,0,0,0,0
1682167917.39952493,70628404,1581,1581,1581,1581,0,0,0,0,0,0,0,0,0,0
1682167917.49948502,70728364,1581,1581,1581,1581,0,0,0,0,0,0,0,0,0,0
1682167917.59944510,70828324,1580,1580,1580,1580,0,0,0,0,0,0,0,0,0,0
1682167917.69940495,70928284,1581,1580,1580,1581,0,0,0,0,0,0,0,0,0,0
1682167917.79936504,71028244,1581,1581,1581,1581,0,0,0,0,0,0,0,0,0,0
1682167917.89932513,71128204,1581,1582,1582,1581,0,0,0,0,0,0,0,0,0,0
1682167917.99928498,71228164,1581,1582,1588,1573,0,0,0,0,0,0,0,0,0,0
1682167918.10007811,71328957,1580,1583,1585,1573,0,0,0,0,0,0,0,0,0,0
1682167918.20003796,71428917,1579,1582,1576,1574,0,0,0,0,0,0,0,0,0,0
1682167918.29999804,71528877,1577,1580,1567,1572,0,0,0,0,0,0,0,0,0,0
1682167918.39995813,71628837,1576,1578,1560,1567,0,0,0,0,0,0,0,0,0,0
1682167918.49991798,71728797,1578,1578,1557,1563,0,0,0,0,0,0,0,0,0,0
1682167918.59987807,71828757,1578,1577,1554,1558,0,0,0,0,0,0,0,0,0,0
1682167918.69983792,71928717,1580,1578,1555,1556,0,0,0,0,0,0,0,0,0,0
1682167918.79979801,72028677,1579,1577,1555,1553,0,0,0,0,0,0,0,0,0,0
1682167918.89975810,72128637,1578,1577,1555,1553,0,0,0,0,0,0,0,0,0,0
1682167918.99971795,72228597,1576,1576,1555,1552,0,0,0,0,0,0,0,0,0,0
1682167919.09967804,72328557,1575,1577,1555,1553,0,0,0,0,0,0,0,0,0,0
1682167919.19963813,72428517,1574,1576,1553,1553,0,0,0,0,0,0,0,0,0,0
1682167919.29959798,72528477,1575,1576,1553,1553,0,0,0,0,0,0,0,0,0,0
1682167919.39955807,72628437,1574,1576,1550,1551,0,0,0,0,0,0,0,0,0,0
1682167919.49951792,72728397,1577,1578,1550,1550,0,0,0,0,0,0,0,0,0,0
1682167919.59947801,72828357,1578,1580,1548,1547,0,0,0,0,0,0,0,0,0,0
1682167919.69943810,72928317,1582,1582,1546,1545,0,0,0,0,0,0,0,0,0,0
1682167919.79939795,73028277,1584,1585,1542,1542,0,0,0,0,0,0,0,0,0,0
1682167919.89935803,73128237,1587,1587,1539,1539,0,0,0,0,0,0,0,0,0,0
1682167919.99931812,73228197,1589,1590,1536,1536,0,0,0,0,0,0,0,0,0,0
1682167920.09927797,73328157,1592,1592,1534,1535,0,0,0,0,0,0,0,0,0,0
1682167920.20007110,73428950,1594,1593,1534,1534,0,0,0,0,0,0,0,0,0,0
1682167920.30003095,73528910,1594,1594,1534,1535,0,0,0,0,0,0,0,0,0,0
1682167920.39999104,73628870,1593,1593,1535,1537,0,0,0,0,0,0,0,0,0,0
1682167920.49995112,73728830,1592,1591,1539,1542,0,0,0,0,0,0,0,0,0,0
1682167920.59991097,73828790,1588,1587,1545,1548,0,0,0,0,0,0,0,0,0,0
1682167920.69987106,73928750,1583,1579,1553,1557,0,0,0,0,0,0,0,0,0,0
1682167920.79983091,74028710,1573,1570,1563,1566,0,0,0,0,0,0,0,0,0,0
1682167920.89979100,74128670,1563,1560,1575,1578,0,0,0,0,0,0,0,0,0,0
1682167920.99975109,74228630,1553,1549,1588,1589,0,0,0,0,0,0,0,0,0,0
1682167921.09971094,74328590,1542,1539,1599,1599,0,0,0,0,0,0,0,0,0,0
1682167921.19967103,74428550,1534,1534,1609,1608,0,0,0,0,0,0,0,0,0,0
1682167921.29963112,74528510,1530,1531,1614,1613,0,0,0,0,0,0,0,0,0,0
1682167921.39959097,74628470,1528,1530,1616,1615,0,0,0,0,0,0,0,0,0,0
1682167921.49955106,74728430,1531,1533,1613,1612,0,0,0,0,0,0,0,0,0,0
1682167921.59951091,74828390,1537,1540,1609,1609,0,0,0,0,0,0,0,0,0,0
1682167921.69947100,74928350,1546,1548,1603,1604,0,0,0,0,0,0,0,0,0,0
1682167921.79943109,75028310,1554,1555,1595,1595,0,0,0,0,0,0,0,0,0,0
1682167921.89939094,75128270,1563,1563,1587,1587,0,0,0,0,0,0,0,0,0,0
1682167921.99935102,75228230,1571,1570,1580,1579,0,0,0,0,0,0,0,0,0,0
1682167922.09931111,75328190,1578,1577,1574,1573,0,0,0,0,0,0,0,0,0,0
1682167922.20010400,75428983,1584,1582,1570,1570,0,0,0,0,0,0,0,0,0,0
1682167922.30006409,75528943,1586,1585,1567,1567,0,0,0,0,0,0,0,0,0,0
1682167922.40002394,75628903,1588,1586,1565,1566,0,0,0,0,0,0,0,0,0,0
1682167922.49998403,75728863,1587,1587,1566,1567,0,0,0,0,0,0,0,0,0,0
1682167922.59994411,75828823,1585,1584,1567,1568,0,0,0,0,0,0,0,0,0,0
1682167922.69990396,75928783,1583,1583,1571,1571,0,0,0,0,0,0,0,0,0,0
1682167922.79986405,76028743,1580,1580,1573,1573,0,0,0,0,0,0,0,0,0,0
1682167922.89982414,76128703,1578,1577,1577,1576,0,0,0,0,0,0,0,0,0,0
1682167922.99978399,76228663,1576,1576,1580,1579,0,0,0,0,0,0,0,0,0,0
1682167923.09974408,76328623,1573,1573,1581,1581,0,0,0,0,0,0,0,0,0,0
1682167923.19970393,76428583,1573,1573,1583,1584,0,0,0,0,0,0,0,0,0,0
1682167923.29966402,76528543,1572,1573,1584,1584,0,0,0,0,0,0,0,0,0,0
1682167923.39962411,76628503,1573,1574,1584,1584,0,0,0,0,0,0,0,0,0,0
1682167923.49958396,76728463,1574,1574,1584,1584,0,0,0,0,0,0,0,0,0,0
1682167923.59954405,76828423,1576,1576,1584,1583,0,0,0,0,0,0,0,0,0,0
1682167923.69950414,76928383,1576,1576,1582,1581,0,0,0,0,0,0,0,0,0,0
1682167923.79946399,77028343,1578,1578,1580,1580,0,0,0,0,0,0,0,0,0,0
1682167923.89942408,77128303,1579,1579,1579,1579,0,0,0,0,0,0,0,0,0,0
1682167923.99938393,77228263,1580,1579,1577,1577,0,0,0,0,0,0,0,0,0,0
1682167924.09934402,77328223,1581,1581,1577,1577,0,0,0,0,0,0,0,0,0,0
1682167924.19930410,77428183,1581,1581,1577,1577,0,0,0,0,0,0,0,0,0,0
1682167924.30009699,77528976,1581,1580,1576,1576,0,0,0,0,0,0,0,0,0,0
1682167924.40005708,77628936,1582,1582,1578,1578,0,0,0,0,0,0,0,0,0,0
1682167924.50001693,77728896,1581,1581,1578,1578,0,0,0,0,0,0,0,0,0,0
1682167924.59997702,77828856,1582,1581,1579,1579,0,0,0,0,0,0,0,0,0,0
1682167924.69993711,77928816,1580,1580,1579,1579,0,0,0,0,0,0,0,0,0,0
1682167924.79989696,78028776,1580,1580,1579,1579,0,0,0,0,0,0,0,0,0,0
1682167924.89985704,78128736,1579,1580,1580,1580,0,0,0,0,0,0,0,0,0,0
1682167924.99981713,78228696,1579,1580,1581,1580,0,0,0,0,0,0,0,0,0,0
1682167925.09977698,78328656,1579,1579,1581,1580,0,0,0,0,0,0,0,0,0,0
1682167925.19973707,78428616,1677,1544,1678,1546,0,0,0,0,0,0,0,0,0,0
1682167925.29969692,78528576,1620,1585,1622,1586,0,0,0,0,0,0,0,0,0,0
1682167925.39965701,78628536,1593,1589,1595,1589,0,0,0,0,0,0,0,0,0,0
1682167925.49961710,78728496,1573,1588,1575,1589,0,0,0,0,0,0,0,0,0,0
1682167925.59957695,78828456,1564,1584,1564,1585,0,0,0,0,0,0,0,0,0,0
1682167925.69953704,78928416,1562,1578,1561,1577,0,0,0,0,0,0,0,0,0,0
1682167925.79949713,79028376,1567,1575,1565,1572,0,0,0,0,0,0,0,0,0,0
1682167925.89945698,79128336,1573,1572,1569,1568,0,0,0,0,0,0,0,0,0,0
1682167925.99941707,79228296,1578,1573,1581,1562,0,0,0,0,0,0,0,0,0,0
1682167926.09937692,79328256,1579,1575,1583,1563,0,0,0,0,0,0,0,0,0,0
1682167926.19933701,79428216,1579,1577,1577,1567,0,0,0,0,0,0,0,0,0,0
1682167926.29929709,79528176,1578,1577,1567,1567,0,0,0,0,0,0,0,0,0,0
1682167926.40008998,79628969,1576,1577,1558,1564,0,0,0,0,0,0,0,0,0,0
1682167926.50005007,79728929,1577,1579,1553,1561,0,0,0,0,0,0,0,0,0,0
1682167926.60000992,79828889,1579,1580,1551,1557,0,0,0,0,0,0,0,0,0,0
1682167926.69997001,79928849,1581,1580,1552,1554,0,0,0,0,0,0,0,0,0,0
1682167926.79993010,80028809,1581,1580,1554,1552,0,0,0,0,0,0,0,0,0,0
1682167926.89988995,80128769,1580,1580,1556,1552,0,0,0,0,0,0,0,0,0,0
1682167926.99985003,80228729,1580,1580,1558,1554,0,0,0,0,0,0,0,0,0,0
1682167927.09981012,80328689,1578,1579,1557,1555,0,0,0,0,0,0,0,0,0,0
1682167927.19976997,80428649,1577,1578,1556,1555,0,0,0,0,0,0,0,0,0,0
1682167927.29973006,80528609,1577,1578,1556,1556,0,0,0,0,0,0,0,0,0,0
1682167927.39968991,80628569,1578,1580,1556,1557,0,0,0,0,0,0,0,0,0,0
1682167927.49965000,80728529,1578,1579,1553,1553,0,0,0,0,0,0,0,0,0,0
1682167927.59961009,80828489,1579,1581,1550,1551,0,0,0,0,0,0,0,0,0,0
1682167927.69956994,80928449,1582,1583,1549,1549,0,0,0,0,0,0,0,0,0,0
1682167927.79953003,81028409,1584,1585,1547,1546,0,0,0,0,0,0,0,0,0,0
1682167927.89949012,81128369,1587,1588,1545,1545,0,0,0,0,0,0,0,0,0,0
1682167927.99944997,81228329,1589,1591,1543,1543,0,0,0,0,0,0,0,0,0,0
1682167928.09941006,81328289,1592,1593,1541,1542,0,0,0,0,0,0,0,0,0,0
1682167928.19936991,81428249,1594,1595,1540,1541,0,0,0,0,0,0,0,0,0,0
1682167928.29933000,81528209,1595,1595,1540,1541,0,0,0,0,0,0,0,0,0,0
1682167928.39929008,81628169,1595,1593,1543,1546,0,0,0,0,0,0,0,0,0,0
1682167928.50008297,81728962,1592,1588,1549,1551,0,0,0,0,0,0,0,0,0,0
1682167928.60004306,81828922,1585,1581,1556,1558,0,0,0,0,0,0,0,0,0,0
1682167928.70000291,81928882,1577,1573,1566,1568,0,0,0,0,0,0,0,0,0,0
1682167928.79996300,82028842,1567,1563,1576,1578,0,0,0,0,0,0,0,0,0,0
1682167928.89992309,82128802,1558,1555,1587,1589,0,0,0,0,0,0,0,0,0,0
1682167928.99988294,82228762,1548,1547,1596,1597,0,0,0,0,0,0,0,0,0,0
1682167929.09984303,82328722,1542,1542,1605,1604,0,0,0,0,0,0,0,0,0,0
1682167929.19980311,82428682,1539,1539,1610,1609,0,0,0,0,0,0,0,0,0,0
1682167929.29976296,82528642,1537,1538,1610,1610,0,0,0,0,0,0,0,0,0,0
1682167929.39972305,82628602,1540,1541,1609,1608,0,0,0,0,0,0,0,0,0,0
1682167929.49968314,82728562,1545,1546,1606,1605,0,0,0,0,0,0,0,0,0,0
1682167929.59964299,82828522,1551,1553,1601,1600,0,0,0,0,0,0,0,0,0,0
1682167929.69960308,82928482,1559,1560,1596,1595,0,0,0,0,0,0,0,0,0,0
1682167929.79956293,83028442,1567,1567,1589,1589,0,0,0,0,0,0,0,0,0,0
1682167929.89952302,83128402,1573,1573,1583,1582,0,0,0,0,0,0,0,0,0,0
1682167929.99948311,83228362,1579,1578,1577,1577,0,0,0,0,0,0,0,0,0,0
1682167930.09944296,83328322,1583,1582,1574,1573,0,0,0,0,0,0,0,0,0,0
1682167930.19940305,83428282,1586,1585,1571,1571,0,0,0,0,0,0,0,0,0,0
1682167930.29936314,83528242,1587,1585,1570,1570,0,0,0,0,0,0,0,0,0,0
1682167930.39932299,83628202,1586,1585,1571,1571,0,0,0,0,0,0,0,0,0,0
1682167930.49928308,83728162,1585,1583,1572,1572,0,0,0,0,0,0,0,0,0,0
1682167930.60007596,83828955,1583,1582,1574,1574,0,0,0,0,0,0,0,0,0,0
1682167930.70003605,83928915,1580,1580,1576,1576,0,0,0,0,0,0,0,0,0,0
1682167930.79999614,84028875,1578,1578,1579,1579,0,0,0,0,0,0,0,0,0,0
1682167930.89995599,84128835,1576,1576,1581,1581,0,0,0,0,0,0,0,0,0,0
1682167930.99991608,84228795,1574,1575,1582,1582,0,0,0,0,0,0,0,0,0,0
1682167931.09987593,84328755,1575,1575,1584,1584,0,0,0,0,0,0,0,0,0,0
1682167931.19983602,84428715,1574,1574,1584,1584,0,0,0,0,0,0,0,0,0,0
1682167931.29979610,84528675,1574,1575,1584,1584,0,0,0,0,0,0,0,0,0,0
1682167931.39975595,84628635,1574,1575,1582,1583,0,0,0,0,0,0,0,0,0,0
1682167931.49971604,84728595,1575,1574,1580,1581,0,0,0,0,0,0,0,0,0,0
1682167931.59967613,84828555,1576,1576,1580,1580,0,0,0,0,0,0,0,0,0,0
1682167931.69963598,84928515,1577,1578,1579,1579,0,0,0,0,0,0,0,0,0,0
1682167931.79959607,85028475,1578,1578,1578,1578,0,0,0,0,0,0,0,0,0,0
1682167931.89955592,85128435,1580,1579,1578,1578,0,0,0,0,0,0,0,0,0,0
1682167931.99951601,85228395,1581,1581,1578,1578,0,0,0,0,0,0,0,0,0,0
1682167932.09947610,85328355,1581,1581,1578,1578,0,0,0,0,0,0,0,0,0,0
1682167932.19943595,85428315,1580,1580,1577,1576,0,0,0,0,0,0,0,0,0,0
1682167932.29939604,85528275,1580,1580,1577,1577,0,0,0,0,0,0,0,0,0,0
1682167932.39935613,85628235,1580,1580,1577,1578,0,0,0,0,0,0,0,0,0,0
1682167932.49931598,85728195,1581,1581,1579,1580,0,0,0,0,0,0,0,0,0,0
1682167932.59927607,85828155,1580,1580,1579,1579,0,0,0,0,0,0,0,0,0,0
1682167932.70006895,85928948,1579,1580,1580,1580,0,0,0,0,0,0,0,0,0,0
1682167932.80002904,86028908,1580,1580,1581,1581,0,0,0,0,0,0,0,0,0,0
1682167932.89998913,86128868,1579,1579,1581,1580,0,0,0,0,0,0,0,0,0,0
1682167932.99994898,86228828,1580,1579,1581,1581,0,0,0,0,0,0,0,0,0,0
1682167933.09990907,86328788,1580,1580,1582,1582,0,0,0,0,0,0,0,0,0,0
1682167933.19986892,86428748,1580,1580,1581,1581,0,0,0,0,0,0,0,0,0,0
1682167933.29982901,86528708,1579,1580,1581,1581,0,0,0,0,0,0,0,0,0,0
1682167933.39978909,86628668,1580,1580,1581,1581,0,0,0,0,0,0,0,0,0,0
1682167933.49974895,86728628,1580,1580,1580,1581,0,0,0,0,0,0,0,0,0,0
1682167933.59970903,86828588,1581,1581,1581,1580,0,0,0,0,0,0,0,0,0,0
1682167933.69966912,86928548,1581,1581,1581,1580,0,0,0,0,0,0,0,0,0,0
1682167933.79962897,87028508,1581,1581,1580,1580,0,0,0,0,0,0,0,0,0,0
1682167933.89958906,87128468,1581,1581,1580,1580,0,0,0,0,0,0,0,0,0,0
1682167933.99954891,87228428,1582,1582,1581,1581,0,0,0,0,0,0,0,0,0,0
1682167934.09950900,87328388,1582,1582,1583,1580,0,0,0,0,0,0,0,0,0,0
1682167934.19946909,87428348,1581,1583,1588,1573,0,0,0,0,0,0,0,0,0,0
1682167934.29942894,87528308,1580,1584,1582,1573,0,0,0,0,0,0,0,0,0,0
1682167934.39938903,87628268,1579,1582,1572,1572,0,0,0,0,0,0,0,0,0,0
1682167934.49934912,87728228,1578,1580,1564,1570,0,0,0,0,0,0,0,0,0,0
1682167934.59930897,87828188,1579,1580,1559,1566,0,0,0,0,0,0,0,0,0,0
1682167934.70010209,87928981,1580,1579,1555,1561,0,0,0,0,0,0,0,0,0,0
1682167934.80006194,88028941,1581,1579,1555,1557,0,0,0,0,0,0,0,0,0,0
1682167934.90002203,88128901,1581,1579,1555,1554,0,0,0,0,0,0,0,0,0,0
1682167934.99998212,88228861,1581,1579,1556,1554,0,0,0,0,0,0,0,0,0,0
1682167935.09994197,88328821,1579,1578,1556,1553,0,0,0,0,0,0,0,0,0,0
1682167935.19990206,88428781,1576,1577,1554,1553,0,0,0,0,0,0,0,0,0,0
1682167935.29986191,88528741,1576,1577,1554,1554,0,0,0,0,0,0,0,0,0,0
1682167935.39982200,88628701,1575,1577,1553,1554,0,0,0,0,0,0,0,0,0,0
1682167935.49978209,88728661,1575,1576,1552,1553,0,0,0,0,0,0,0,0,0,0
1682167935.59974194,88828621,1576,1578,1552,1552,0,0,0,0,0,0,0,0,0,0
1682167935.69970202,88928581,1578,1578,1550,1549,0,0,0,0,0,0,0,0,0,0
1682167935.79966211,89028541,1580,1581,1548,1547,0,0,0,0,0,0,0,0,0,0
1682167935.89962196,89128501,1583,1583,1546,1546,0,0,0,0,0,0,0,0,0,0
1682167935.99958205,89228461,1585,1585,1542,1542,0,0,0,0,0,0,0,0,0,0
1682167936.09954214,89328421,1588,1587,1540,1540,0,0,0,0,0,0,0,0,0,0
1682167936.19950199,89428381,1590,1591,1540,1539,0,0,0,0,0,0,0,0,0,0
1682167936.29946208,89528341,1592,1593,1539,1539,0,0,0,0,0,0,0,0,0,0
1682167936.39942193,89628301,1593,1594,1538,1539,0,0,0,0,0,0,0,0,0,0
1682167936.49938202,89728261,1594,1594,1538,1540,0,0,0,0,0,0,0,0,0,0
1682167936.59934211,89828221,1592,1592,1540,1542,0,0,0,0,0,0,0,0,0,0
1682167936.69930196,89928181,1590,1588,1544,1547,0,0,0,0,0,0,0,0,0,0
1682167936.80009508,90028974,1585,1582,1553,1555,0,0,0,0,0,0,0,0,0,0
1682167936.90005493,90128934,1577,1573,1562,1564,0,0,0,0,0,0,0,0,0,0
1682167937.00001502,90228894,1568,1564,1573,1575,0,0,0,0,0,0,0,0,0,0
1682167937.09997511,90328854,1557,1553,1586,1587,0,0,0,0,0,0,0,0,0,0
1682167937.19993496,90428814,1546,1545,1596,1597,0,0,0,0,0,0,0,0,0,0
1682167937.29989505,90528774,1539,1538,1605,1605,0,0,0,0,0,0,0,0,0,0
1682167937.39985514,90628734,1533,1534,1610,1609,0,0,0,0,0,0,0,0,0,0
1682167937.49981499,90728694,1533,1533,1612,1612,0,0,0,0,0,0,0,0,0,0
1682167937.59977508,90828654,1534,1535,1611,1611,0,0,0,0,0,0,0,0,0,0
1682167937.69973493,90928614,1540,1542,1609,1608,0,0,0,0,0,0,0,0,0,0
1682167937.79969501,91028574,1547,1549,1603,1603,0,0,0,0,0,0,0,0,0,0
1682167937.89965510,91128534,1555,1557,1597,1596,0,0,0,0,0,0,0,0,0,0
1682167937.99961495,91228494,1564,1565,1590,1589,0,0,0,0,0,0,0,0,0,0
1682167938.09957504,91328454,1573,1573,1584,1583,0,0,0,0,0,0,0,0,0,0
1682167938.19953513,91428414,1579,1579,1578,1577,0,0,0,0,0,0,0,0,0,0
1682167938.29949498,91528374,1584,1583,1574,1574,0,0,0,0,0,0,0,0,0,0
1682167938.39945507,91628334,1588,1586,1571,1571,0,0,0,0,0,0,0,0,0,0
1682167938.49941492,91728294,1588,1587,1569,1569,0,0,0,0,0,0,0,0,0,0
1682167938.59937501,91828254,1587,1586,1569,1569,0,0,0,0,0,0,0,0,0,0
1682167938.69933510,91928214,1585,1584,1569,1570,0,0,0,0,0,0,0,0,0,0
1682167938.79929495,92028174,1583,1582,1572,1572,0,0,0,0,0,0,0,0,0,0
1682167938.90008807,92128967,1580,1580,1575,1574,0,0,0,0,0,0,0,0,0,0
1682167939.00004792,92228927,1579,1579,1578,1578,0,0,0,0,0,0,0,0,0,0
1682167939.10000801,92328887,1576,1576,1580,1580,0,0,0,0,0,0,0,0,0,0
1682167939.19996810,92428847,1575,1575,1582,1582,0,0,0,0,0,0,0,0,0,0
1682167939.29992795,92528807,1573,1574,1583,1583,0,0,0,0,0,0,0,0,0,0
1682167939.39988804,92628767,1572,1573,1583,1583,0,0,0,0,0,0,0,0,0,0
1682167939.49984813,92728727,1572,1573,1582,1583,0,0,0,0,0,0,0,0,0,0
1682167939.59980798,92828687,1574,1574,1582,1582,0,0,0,0,0,0,0,0,0,0
1682167939.69976807,92928647,1575,1575,1581,1582,0,0,0,0,0,0,0,0,0,0
1682167939.79972792,93028607,1576,1576,1581,1580,0,0,0,0,0,0,0,0,0,0
1682167939.89968801,93128567,1578,1577,1580,1579,0,0,0,0,0,0,0,0,0,0
1682167939.99964809,93228527,1579,1579,1579,1579,0,0,0,0,0,0,0,0,0,0
1682167940.09960794,93328487,1580,1580,1578,1578,0,0,0,0,0,0,0,0,0,0
1682167940.19956803,93428447,1580,1580,1577,1577,0,0,0,0,0,0,0,0,0,0
1682167940.29952812,93528407,1581,1581,1577,1577,0,0,0,0,0,0,0,0,0,0
1682167940.39948797,93628367,1581,1581,1577,1577,0,0,0,0,0,0,0,0,0,0
1682167940.49944806,93728327,1581,1581,1578,1578,0,0,0,0,0,0,0,0,0,0
1682167940.59940791,93828287,1580,1580,1578,1578,0,0,0,0,0,0,0,0,0,0
1682167940.69936800,93928247,1580,1581,1579,1579,0,0,0,0,0,0,0,0,0,0
1682167940.79932809,94028207,1580,1580,1579,1579,0,0,0,0,0,0,0,0,0,0
1682167940.89928794,94128167,1580,1580,1580,1580,0,0,0,0,0,0,0,0,0,0
1682167941.00008106,94228960,1580,1580,1580,1580,0,0,0,0,0,0,0,0,0,0
1682167941.10004091,94328920,1580,1580,1581,1582,0,0,0,0,0,0,0,0,0,0
1682167941.20000100,94428880,1579,1579,1581,1581,0,0,0,0,0,0,0,0,0,0
1682167941.29996109,94528840,1579,1579,1580,1581,0,0,0,0,0,0,0,0,0,0
1682167941.39992094,94628800,1579,1580,1581,1581,0,0,0,0,0,0,0,0,0,0
1682167941.49988103,94728760,1580,1580,1582,1580,0,0,0,0,0,0,0,0,0,0
1682167941.59984112,94828720,1581,1580,1582,1581,0,0,0,0,0,0,0,0,0,0
1682167941.69980097,94928680,1580,1580,1580,1581,0,0,0,0,0,0,0,0,0,0
1682167941.79976106,95028640,1580,1580,1580,1580,0,0,0,0,0,0,0,0,0,0
1682167941.89972091,95128600,1581,1581,1581,1581,0,0,0,0,0,0,0,0,0,0
1682167941.99968100,95228560,1580,1581,1580,1580,0,0,0,0,0,0,0,0,0,0
1682167942.09964108,95328520,1581,1581,1587,1573,0,0,0,0,0,0,0,0,0,0
1682167942.19960093,95428480,1580,1579,1584,1572,0,0,0,0,0,0,0,0,0,0
1682167942.29956102,95528440,1578,1577,1577,1575,0,0,0,0,0,0,0,0,0,0
1682167942.39952111,95628400,1574,1574,1570,1575,0,0,0,0,0,0,0,0,0,0
1682167942.49948096,95728360,1572,1572,1567,1575,0,0,0,0,0,0,0,0,0,0
1682167942.59944105,95828320,1570,1570,1566,1572,0,0,0,0,0,0,0,0,0,0
1682167942.69940114,95928280,1569,1569,1567,1569,0,0,0,0,0,0,0,0,0,0
1682167942.79936099,96028240,1568,1568,1568,1568,0,0,0,0,0,0,0,0,0,0
1682167942.89932108,96128200,1566,1566,1567,1566,0,0,0,0,0,0,0,0,0,0
1682167942.99928093,96228160,1566,1566,1568,1566,0,0,0,0,0,0,0,0,0,0
1682167943.10007405,96328953,1566,1565,1567,1565,0,0,0,0,0,0,0,0,0,0
1682167943.20003414,96428913,1563,1564,1565,1564,0,0,0,0,0,0,0,0,0,0
1682167943.29999399,96528873,1563,1563,1564,1563,0,0,0,0,0,0,0,0,0,0
1682167943.39995408,96628833,1562,1562,1562,1562,0,0,0,0,0,0,0,0,0,0
1682167943.49991393,96728793,1562,1562,1562,1562,0,0,0,0,0,0,0,0,0,0
1682167943.59987402,96828753,1561,1561,1561,1562,0,0,0,0,0,0,0,0,0,0
1682167943.69983411,96928713,1561,1561,1561,1561,0,0,0,0,0,0,0,0,0,0
1682167943.79979396,97028673,1561,1561,1561,1561,0,0,0,0,0,0,0,0,0,0
1682167943.89975405,97128633,1560,1559,1560,1559,0,0,0,0,0,0,0,0,0,0
1682167943.99971414,97228593,1559,1558,1559,1558,0,0,0,0,0,0,0,0,0,0
1682167944.09967399,97328553,1558,1558,1558,1557,0,0,0,0,0,0,0,0,0,0
1682167944.19963408,97428513,1558,1558,1559,1557,0,0,0,0,0,0,0,0,0,0
1682167944.29959393,97528473,1557,1557,1558,1557,0,0,0,0,0,0,0,0,0,0
1682167944.39955401,97628433,1556,1556,1556,1556,0,0,0,0,0,0,0,0,0,0
1682167944.49951410,97728393,1557,1557,1557,1556,0,0,0,0,0,0,0,0,0,0
1682167944.59947395,97828353,1557,1557,1558,1556,0,0,0,0,0,0,0,0,0,0
1682167944.69943404,97928313,1557,1557,1558,1556,0,0,0,0,0,0,0,0,0,0
1682167944.79939413,98028273,1558,1557,1560,1557,0,0,0,0,0,0,0,0,0,0
1682167944.89935398,98128233,1559,1559,1559,1560,0,0,0,0,0,0,0,0,0,0
1682167944.99931407,98228193,1559,1559,1557,1562,0,0,0,0,0,0,0,0,0,0
1682167945.10010695,98328986,1560,1560,1556,1563,0,0,0,0,0,0,0,0,0,0
1682167945.20006704,98428946,1561,1562,1559,1564,0,0,0,0,0,0,0,0,0,0
1682167945.30002713,98528906,1564,1563,1561,1566,0,0,0,0,0,0,0,0,0,0
1682167945.39998698,98628866,1563,1563,1563,1563,0,0,0,0,0,0,0,0,0,0
1682167945.49994707,98728826,1563,1564,1565,1562,0,0,0,0,0,0,0,0,0,0
1682167945.59990692,98828786,1561,1562,1564,1559,0,0,0,0,0,0,0,0,0,0
1682167945.69986701,98928746,1561,1561,1562,1560,0,0,0,0,0,0,0,0,0,0
1682167945.79982710,99028706,1560,1559,1556,1562,0,0,0,0,0,0,0,0,0,0
1682167945.89978695,99128666,1556,1556,1553,1559,0,0,0,0,0,0,0,0,0,0
1682167945.99974704,99228626,1552,1552,1550,1554,0,0,0,0,0,0,0,0,0,0
1682167946.09970713,99328586,1545,1546,1545,1546,0,0,0,0,0,0,0,0,0,0
1682167946.19966698,99428546,1538,1538,1539,1537,0,0,0,0,0,0,0,0,0,0
1682167946.29962707,99528506,1531,1531,1532,1530,0,0,0,0,0,0,0,0,0,0
1682167946.39958692,99628466,1522,1523,1524,1522,0,0,0,0,0,0,0,0,0,0
1682167946.49954700,99728426,1520,1519,1520,1519,0,0,0,0,0,0,0,0,0,0
1682167946.59950709,99828386,1520,1520,1520,1520,0,0,0,0,0,0,0,0,0,0
1682167946.69946694,99928346,1520,1520,1520,1521,0,0,0,0,0,0,0,0,0,0
1682167946.79942703,100028306,1523,1523,1523,1524,0,0,0,0,0,0,0,0,0,0
1682167946.89938712,100128266,1527,1527,1527,1528,0,0,0,0,0,0,0,0,0,0
1682167946.99934697,100228226,1531,1531,1531,1532,0,0,0,0,0,0,0,0,0,0
1682167947.09930706,100328186,1536,1536,1536,1536,0,0,0,0,0,0,0,0,0,0
1682167947.20009995,100428979,1539,1540,1540,1540,0,0,0,0,0,0,0,0,0,0
1682167947.30006003,100528939,1543,1543,1543,1543,0,0,0,0,0,0,0,0,0,0
1682167947.40002012,100628899,1543,1543,1543,1543,0,0,0,0,0,0,0,0,0,0
1682167947.49997997,100728859,1545,1545,1545,1544,0,0,0,0,0,0,0,0,0,0
1682167947.59994006,100828819,1545,1546,1546,1545,0,0,0,0,0,0,0,0,0,0
1682167947.69989991,100928779,1545,1545,1545,1545,0,0,0,0,0,0,0,0,0,0
1682167947.79986000,101028739,1546,1546,1546,1545,0,0,0,0,0,0,0,0,0,0
1682167947.89982009,101128699,1546,1546,1546,1546,0,0,0,0,0,0,0,0,0,0
1682167947.99977994,101228659,1546,1546,1546,1546,0,0,0,0,0,0,0,0,0,0
1682167948.09974003,101328619,1547,1546,1547,1546,0,0,0,0,0,0,0,0,0,0
1682167948.19970012,101428579,1545,1545,1545,1545,0,0,0,0,0,0,0,0,0,0
1682167948.29965997,101528539,1545,1545,1545,1546,0,0,0,0,0,0,0,0,0,0
1682167948.39962006,101628499,1545,1546,1546,1545,0,0,0,0,0,0,0,0,0,0
1682167948.49957991,101728459,1545,1545,1545,1545,0,0,0,0,0,0,0,0,0,0
1682167948.59954000,101828419,1545,1545,1545,1545,0,0,0,0,0,0,0,0,0,0
1682167948.69950008,101928379,1545,1544,1545,1545,0,0,0,0,0,0,0,0,0,0
1682167948.79945993,102028339,1545,1546,1546,1545,0,0,0,0,0,0,0,0,0,0
1682167948.89942002,102128299,1545,1545,1545,1545,0,0,0,0,0,0,0,0,0,0
1682167948.99938011,102228259,1545,1546,1545,1545,0,0,0,0,0,0,0,0,0,0
1682167949.09933996,102328219,1545,1545,1545,1545,0,0,0,0,0,0,0,0,0,0
1682167949.19930005,102428179,1545,1544,1544,1544,0,0,0,0,0,0,0,0,0,0
1682167949.30009294,102528972,1544,1544,1544,1544,0,0,0,0,0,0,0,0,0,0
1682167949.40005302,102628932,1544,1544,1544,1544,0,0,0,0,0,0,0,0,0,0
1682167949.50001311,102728892,1543,1543,1543,1544,0,0,0,0,0,0,0,0,0,0
1682167949.59997296,102828852,1543,1543,1543,1543,0,0,0,0,0,0,0,0,0,0
1682167949.69993305,102928812,1544,1544,1544,1544,0,0,0,0,0,0,0,0,0,0
1682167949.79989314,103028772,1543,1543,1543,1543,0,0,0,0,0,0,0,0,0,0
1682167949.89985299,103128732,1543,1543,1543,1543,0,0,0,0,0,0,0,0,0,0
1682167949.99981308,103228692,1544,1544,1544,1544,0,0,0,0,0,0,0,0,0,0
1682167950.09977293,103328652,1544,1544,1544,1544,0,0,0,0,0,0,0,0,0,0
1682167950.19973302,103428612,1544,1543,1543,1544,0,0,0,0,0,0,0,0,0,0
1682167950.29969311,103528572,1544,1544,1544,1544,0,0,0,0,0,0,0,0,0,0
1682167950.39965296,103628532,1543,1544,1543,1544,0,0,0,0,0,0,0,0,0,0
1682167950.49961305,103728492,1545,1544,1544,1545,0,0,0,0,0,0,0,0,0,0
1682167950.59957314,103828452,1545,1545,1545,1545,0,0,0,0,0,0,0,0,0,0
1682167950.69953299,103928412,1545,1544,1545,1545,0,0,0,0,0,0,0,0,0,0
1682167950.79949307,104028372,1545,1545,1545,1545,0,0,0,0,0,0,0,0,0,0
1682167950.89945292,104128332,1544,1544,1544,1544,0,0,0,0,0,0,0,0,0,0
1682167950.99941301,104228292,1544,1544,1544,1544,0,0,0,0,0,0,0,0,0,0
1682167951.09937310,104328252,1544,1544,1544,1544,0,0,0,0,0,0,0,0,0,0
1682167951.19933295,104428212,1544,1544,1544,1544,0,0,0,0,0,0,0,0,0,0
1682167951.29929304,104528172,1544,1544,1544,1544,0,0,0,0,0,0,0,0,0,0
1682167951.40008593,104628965,1544,1544,1544,1544,0,0,0,0,0,0,0,0,0,0
1682167951.50004601,104728925,1544,1544,1544,1544,0,0,0,0,0,0,0,0,0,0
1682167951.60000610,104828885,1543,1544,1544,1544,0,0,0,0,0,0,0,0,0,0
1682167951.69996595,104928845,1544,1544,1544,1545,0,0,0,0,0,0,0,0,0,0
1682167951.79992604,105028805,1544,1544,1544,1544,0,0,0,0,0,0,0,0,0,0
1682167951.89988613,105128765,1544,1544,1544,1544,0,0,0,0,0,0,0,0,0,0
1682167951.99984598,105228725,1544,1544,1544,1544,0,0,0,0,0,0,0,0,0,0
1682167952.09980607,105328685,1545,1544,1544,1544,0,0,0,0,0,0,0,0,0,0
1682167952.19976592,105428645,1543,1544,1544,1543,0,0,0,0,0,0,0,0,0,0
1682167952.29972601,105528605,1543,1543,1543,1543,0,0,0,0,0,0,0,0,0,0
1682167952.39968610,105628565,1544,1544,1544,1544,0,0,0,0,0,0,0,0,0,0
1682167952.49964595,105728525,1545,1544,1544,1545,0,0,0,0,0,0,0,0,0,0
1682167952.59960604,105828485,1543,1544,1544,1544,0,0,0,0,0,0,0,0,0,0
1682167952.69956613,105928445,1544,1544,1544,1544,0,0,0,0,0,0,0,0,0,0
1682167952.79952598,106028405,1544,1544,1544,1544,0,0,0,0,0,0,0,0,0,0
1682167952.89948606,106128365,1544,1543,1544,1544,0,0,0,0,0,0,0,0,0,0
1682167952.99944592,106228325,1544,1543,1544,1544,0,0,0,0,0,0,0,0,0,0
1682167953.09940600,106328285,1544,1544,1544,1544,0,0,0,0,0,0,0,0,0,0
1682167953.19936609,106428245,1544,1544,1544,1544,0,0,0,0,0,0,0,0,0,0
1682167953.29932594,106528205,1545,1544,1544,1545,0,0,0,0,0,0,0,0,0,0
1682167953.39928603,106628165,1544,1545,1545,1545,0,0,0,0,0,0,0,0,0,0
1682167953.50007892,106728958,1545,1545,1545,1545,0,0,0,0,0,0,0,0,0,0
1682167953.60003901,106828918,1544,1544,1544,1544,0,0,0,0,0,0,0,0,0,0
1682167953.69999909,106928878,1545,1544,1545,1545,0,0,0,0,0,0,0,0,0,0
1682167953.79995894,107028838,1544,1544,1544,1544,0,0,0,0,0,0,0,0,0,0
1682167953.89991903,107128798,1544,1544,1544,1544,0,0,0,0,0,0,0,0,0,0
1682167953.99987912,107228758,1544,1544,1544,1544,0,0,0,0,0,0,0,0,0,0
1682167954.09983897,107328718,1543,1543,1543,1543,0,0,0,0,0,0,0,0,0,0
1682167954.19979906,107428678,1544,1544,1544,1544,0,0,0,0,0,0,0,0,0,0
1682167954.29975891,107528638,1545,1544,1545,1544,0,0,0,0,0,0,0,0,0,0
1682167954.39971900,107628598,1544,1544,1544,1544,0,0,0,0,0,0,0,0,0,0
1682167954.49967909,107728558,1544,1543,1543,1544,0,0,0,0,0,0,0,0,0,0
1682167954.59963894,107828518,1544,1544,1544,1544,0,0,0,0,0,0,0,0,0,0
1682167954.69959903,107928478,1544,1544,1544,1544,0,0,0,0,0,0,0,0,0,0
1682167954.79955912,108028438,1543,1544,1544,1544,0,0,0,0,0,0,0,0,0,0
1682167954.89951897,108128398,1545,1544,1545,1545,0,0,0,0,0,0,0,0,0,0
1682167954.99947906,108228358,1544,1544,1544,1544,0,0,0,0,0,0,0,0,0,0
1682167955.09943914,108328318,1544,1544,1545,1544,0,0,0,0,0,0,0,0,0,0
1682167955.19939899,108428278,1545,1545,1545,1545,0,0,0,0,0,0,0,0,0,0
1682167955.29935908,108528238,1545,1545,1544,1545,0,0,0,0,0,0,0,0,0,0
1682167955.39931893,108628198,1544,1544,1544,1544,0,0,0,0,0,0,0,0,0,0
1682167955.49927902,108728158,1544,1544,1544,1544,0,0,0,0,0,0,0,0,0,0
1682167955.60007191,108828951,1544,1544,1544,1544,0,0,0,0,0,0,0,0,0,0
1682167955.70003200,108928911,1545,1544,1544,1545,0,0,0,0,0,0,0,0,0,0
1682167955.79999208,109028871,1545,1545,1545,1545,0,0,0,0,0,0,0,0,0,0
1682167955.89995193,109128831,1545,1544,1545,1545,0,0,0,0,0,0,0,0,0,0
1682167955.99991202,109228791,1545,1545,1545,1544,0,0,0,0,0,0,0,0,0,0
1682167956.09987211,109328751,1544,1544,1544,1544,0,0,0,0,0,0,0,0,0,0
1682167956.19983196,109428711,1423,1430,1423,1430,0,0,0,0,0,0,0,0,0,0
1682167956.29979205,109528671,1257,1281,1257,1281,0,0,0,0,0,0,0,0,0,0
1682167956.39975214,109628631,1199,1232,1199,1232,0,0,0,0,0,0,0,0,0,0
1682167956.49971199,109728591,1199,1231,1199,1232,0,0,0,0,0,0,0,0,0,0
1682167956.59967208,109828551,1199,1232,1199,1232,0,0,0,0,0,0,0,0,0,0
1682167956.69963193,109928511,1199,1231,1199,1232,0,0,0,0,0,0,0,0,0,0
1682167956.79959202,110028471,1199,1231,1199,1231,0,0,0,0,0,0,0,0,0,0
1682167956.89955211,110128431,1235,1234,1199,1265,0,0,0,0,0,0,0,0,0,0
1682167956.99951196,110228391,1222,1232,1199,1253,0,0,0,0,0,0,0,0,0,0
1682167957.09947205,110328351,1219,1231,1199,1250,0,0,0,0,0,0,0,0,0,0
1682167957.19943213,110428311,1220,1231,1199,1250,0,0,0,0,0,0,0,0,0,0
1682167957.29939198,110528271,1222,1231,1199,1252,0,0,0,0,0,0,0,0,0,0
1682167957.39935207,110628231,1224,1231,1199,1253,0,0,0,0,0,0,0,0,0,0
1682167957.49931192,110728191,1226,1230,1199,1255,0,0,0,0,0,0,0,0,0,0
1682167957.60010505,110828984,1228,1231,1199,1257,0,0,0,0,0,0,0,0,0,0
1682167957.70006514,110928944,1213,1232,1199,1245,0,0,0,0,0,0,0,0,0,0
1682167957.80002499,111028904,1214,1232,1199,1246,0,0,0,0,0,0,0,0,0,0
1682167957.89998507,111128864,1215,1232,1199,1247,0,0,0,0,0,0,0,0,0,0
1682167957.99994493,111228824,1216,1232,1199,1247,0,0,0,0,0,0,0,0,0,0
1682167958.09990501,111328784,1216,1231,1199,1248,0,0,0,0,0,0,0,0,0,0
1682167958.19986510,111428744,1000,1000,1000,1000,0,0,0,0,0,0,0,0,0,0
1682167958.29982495,111528704,1000,1000,1000,1000,0,0,0,0,0,0,0,0,0,0
1682167958.39978504,111628664,1000,1000,1000,1000,0,0,0,0,0,0,0,0,0,0
1682167958.49974513,111728624,1000,1000,1000,1000,0,0,0,0,0,0,0,0,0,0
1682167958.59970498,111828584,1000,1000,1000,1000,0,0,0,0,0,0,0,0,0,0
1682167958.69966507,111928544,1000,1000,1000,1000,0,0,0,0,0,0,0,0,0,0
1682167958.79962492,112028504,1000,1000,1000,1000,0,0,0,0,0,0,0,0,0,0
1682167958.89958501,112128464,1000,1000,1000,1000,0,0,0,0,0,0,0,0,0,0
1682167958.99954510,112228424,1000,1000,1000,1000,0,0,0,0,0,0,0,0,0,0
1682167959.09950495,112328384,1000,1000,1000,1000,0,0,0,0,0,0,0,0,0,0
1682167959.19946504,112428344,1000,1000,1000,1000,0,0,0,0,0,0,0,0,0,0
1682167959.29942513,112528304,1000,1000,1000,1000,0,0,0,0,0,0,0,0,0,0
1682167959.39938498,112628264,1000,1000,1000,1000,0,0,0,0,0,0,0,0,0,0
1682167959.49934506,112728224,1000,1000,1000,1000,0,0,0,0,0,0,0,0,0,0
1682167959.59930491,112828184,1000,1000,1000,1000,0,0,0,0,0,0,0,0,0,0
1682167959.70009804,112928977,1000,1000,1000,1000,0,0,0,0,0,0,0,0,0,0
1682167959.80005813,113028937,1000,1000,1000,1000,0,0,0,0,0,0,0,0,0,0
1682167959.90001798,113128897,1000,1000,1000,1000,0,0,0,0,0,0,0,0,0,0
1682167959.99997807,113228857,1000,1000,1000,1000,0,0,0,0,0,0,0,0,0,0
1682167960.09993792,113328817,1000,1000,1000,1000,0,0,0,0,0,0,0,0,0,0
1682167960.19989800,113428777,1000,1000,1000,1000,0,0,0,0,0,0,0,0,0,0
1682167960.29985809,113528737,1000,1000,1000,1000,0,0,0,0,0,0,0,0,0,0
1682167960.39981794,113628697,1000,1000,1000,1000,0,0,0,0,0,0,0,0,0,0
1682167960.49977803,113728657,1000,1000,1000,1000,0,0,0,0,0,0,0,0,0,0
1682167960.59973812,113828617,1000,1000,1000,1000,0,0,0,0,0,0,0,0,0,0
1682167960.69969797,113928577,1000,1000,1000,1000,0,0,0,0,0,0,0,0,0,0
1682167960.79965806,114028537,1000,1000,1000,1000,0,0,0,0,0,0,0,0,0,0
1682167960.89961791,114128497,1000,1000,1000,1000,0,0,0,0,0,0,0,0,0,0
1682167960.99957800,114228457,1000,1000,1000,1000,0,0,0,0,0,0,0,0,0,0
1682167961.09953809,114328417,1000,1000,1000,1000,0,0,0,0,0,0,0,0,0,0
1682167961.19949794,114428377,1000,1000,1000,1000,0,0,0,0,0,0,0,0,0,0
1682167961.29945803,114528337,1000,1000,1000,1000,0,0,0,0,0,0,0,0,0,0
1682167961.39941812,114628297,1000,1000,1000,1000,0,0,0,0,0,0,0,0,0,0
1682167961.49937797,114728257,1000,1000,1000,1000,0,0,0,0,0,0,0,0,0,0
1682167961.59933805,114828217,1000,1000,1000,1000,0,0,0,0,0,0,0,0,0,0
1682167961.69929814,114928177,1000,1000,1000,1000,0,0,0,0,0,0,0,0,0,0
1682167961.80009103,115028970,1000,1000,1000,1000,0,0,0,0,0,0,0,0,0,0
1682167961.90005112,115128930,1000,1000,1000,1000,0,0,0,0,0,0,0,0,0,0
1682167962.00001097,115228890,1000,1000,1000,1000,0,0,0,0,0,0,0,0,0,0
1682167962.09997106,115328850,1000,1000,1000,1000,0,0,0,0,0,0,0,0,0,0
1682167962.19993091,115428810,1000,1000,1000,1000,0,0,0,0,0,0,0,0,0,0
1682167962.29989100,115528770,1000,1000,1000,1000,0,0,0,0,0,0,0,0,0,0
1682167962.39985108,115628730,1000,1000,1000,1000,0,0,0,0,0,0,0,0,0,0
1682167962.49981093,115728690,1000,1000,1000,1000,0,0,0,0,0,0,0,0,0,0
1682167962.59977102,115828650,1000,1000,1000,1000,0,0,0,0,0,0,0,0,0,0
1682167962.69973111,115928610,1000,1000,1000,1000,0,0,0,0,0,0,0,0,0,0
1682167962.79969096,116028570,1000,1000,1000,1000,0,0,0,0,0,0,0,0,0,0
1682167962.89965105,116128530,1000,1000,1000,1000,0,0,0,0,0,0,0,0,0,0
1682167962.99961114,116228490,1000,1000,1000,1000,0,0,0,0,0,0,0,0,0,0
1682167963.09957099,116328450,1000,1000,1000,1000,0,0,0,0,0,0,0,0,0,0
1682167963.19953108,116428410,1000,1000,1000,1000,0,0,0,0,0,0,0,0,0,0
1682167963.29949093,116528370,1000,1000,1000,1000,0,0,0,0,0,0,0,0,0,0
1682167963.39945102,116628330,1000,1000,1000,1000,0,0,0,0,0,0,0,0,0,0
1682167963.49941111,116728290,1000,1000,1000,1000,0,0,0,0,0,0,0,0,0,0
1682167963.59937096,116828250,1000,1000,1000,1000,0,0,0,0,0,0,0,0,0,0
1682167963.69933105,116928210,1000,1000,1000,1000,0,0,0,0,0,0,0,0,0,0
1682167963.79929113,117028170,1000,1000,1000,1000,0,0,0,0,0,0,0,0,0,0
1682167963.90008402,117128963,1000,1000,1000,1000,0,0,0,0,0,0,0,0,0,0
1682167964.00004411,117228923,1000,1000,1000,1000,0,0,0,0,0,0,0,0,0,0
1682167964.10000396,117328883,1000,1000,1000,1000,0,0,0,0,0,0,0,0,0,0
1682167964.19996405,117428843,1000,1000,1000,1000,0,0,0,0,0,0,0,0,0,0
1682167964.29992414,117528803,1000,1000,1000,1000,0,0,0,0,0,0,0,0,0,0
1682167964.39988399,117628763,1000,1000,1000,1000,0,0,0,0,0,0,0,0,0,0
1682167964.49984407,117728723,1000,1000,1000,1000,0,0,0,0,0,0,0,0,0,0
1682167964.59980392,117828683,1000,1000,1000,1000,0,0,0,0,0,0,0,0,0,0
1682167964.69976401,117928643,1000,1000,1000,1000,0,0,0,0,0,0,0,0,0,0
1682167964.79972410,118028603,1000,1000,1000,1000,0,0,0,0,0,0,0,0,0,0
1682167964.89968395,118128563,1000,1000,1000,1000,0,0,0,0,0,0,0,0,0,0
1682167964.99964404,118228523,1000,1000,1000,1000,0,0,0,0,0,0,0,0,0,0
1682167965.09960413,118328483,1000,1000,1000,1000,0,0,0,0,0,0,0,0,0,0
1682167965.19956398,118428443,1000,1000,1000,1000,0,0,0,0,0,0,0,0,0,0
1682167965.29952407,118528403,1000,1000,1000,1000,0,0,0,0,0,0,0,0,0,0
1682167965.39948392,118628363,1000,1000,1000,1000,0,0,0,0,0,0,0,0,0,0
1682167965.49944401,118728323,1000,1000,1000,1000,0,0,0,0,0,0,0,0,0,0
1682167965.59940410,118828283,1000,1000,1000,1000,0,0,0,0,0,0,0,0,0,0
1682167965.69936395,118928243,1000,1000,1000,1000,0,0,0,0,0,0,0,0,0,0
1682167965.79932404,119028203,1000,1000,1000,1000,0,0,0,0,0,0,0,0,0,0
1682167965.89928412,119128163,1000,1000,1000,1000,0,0,0,0,0,0,0,0,0,0
1682167966.00007701,119228956,1000,1000,1000,1000,0,0,0,0,0,0,0,0,0,0
1682167966.10003710,119328916,1000,1000,1000,1000,0,0,0,0,0,0,0,0,0,0
1682167966.19999695,119428876,1000,1000,1000,1000,0,0,0,0,0,0,0,0,0,0
1682167966.29995704,119528836,1000,1000,1000,1000,0,0,0,0,0,0,0,0,0,0
1682167966.39991713,119628796,1000,1000,1000,1000,0,0,0,0,0,0,0,0,0,0
1682167966.49987698,119728756,1000,1000,1000,1000,0,0,0,0,0,0,0,0,0,0
1682167966.59983706,119828716,1000,1000,1000,1000,0,0,0,0,0,0,0,0,0,0
1682167966.69979692,119928676,1000,1000,1000,1000,0,0,0,0,0,0,0,0,0,0
1682167966.79975700,120028636,1000,1000,1000,1000,0,0,0,0,0,0,0,0,0,0
1682167966.89971709,120128596,1000,1000,1000,1000,0,0,0,0,0,0,0,0,0,0
1682167966.99967694,120228556,1000,1000,1000,1000,0,0,0,0,0,0,0,0,0,0
1682167967.09963703,120328516,1000,1000,1000,1000,0,0,0,0,0,0,0,0,0,0
1682167967.19959712,120428476,1000,1000,1000,1000,0,0,0,0,0,0,0,0,0,0
1682167967.29955697,120528436,1000,1000,1000,1000,0,0,0,0,0,0,0,0,0,0
1682167967.39951706,120628396,1000,1000,1000,1000,0,0,0,0,0,0,0,0,0,0
1682167967.49947691,120728356,1000,1000,1000,1000,0,0,0,0,0,0,0,0,0,0
1682167967.59943700,120828316,1000,1000,1000,1000,0,0,0,0,0,0,0,0,0,0
1682167967.69939709,120928276,1000,1000,1000,1000,0,0,0,0,0,0,0,0,0,0
1682167967.79935694,121028236,1000,1000,1000,1000,0,0,0,0,0,0,0,0,0,0
1682167967.89931703,121128196,1000,1000,1000,1000,0,0,0,0,0,0,0,0,0,0
1682167967.99927711,121228156,1000,1000,1000,1000,0,0,0,0,0,0,0,0,0,0
1682167968.10007000,121328949,1000,1000,1000,1000,0,0,0,0,0,0,0,0,0,0
1682167968.20003009,121428909,1000,1000,1000,1000,0,0,0,0,0,0,0,0,0,0
1682167968.29998994,121528869,1000,1000,1000,1000,0,0,0,0,0,0,0,0,0,0
1682167968.39995003,121628829,1000,1000,1000,1000,0,0,0,0,0,0,0,0,0,0
1682167968.49991012,121728789,1000,1000,1000,1000,0,0,0,0,0,0,0,0,0,0
1682167968.59986997,121828749,1000,1000,1000,1000,0,0,0,0,0,0,0,0,0,0
1682167968.69983006,121928709,1000,1000,1000,1000,0,0,0,0,0,0,0,0,0,0
1682167968.79979014,122028669,1000,1000,1000,1000,0,0,0,0,0,0,0,0,0,0
1682167968.89974999,122128629,1000,1000,1000,1000,0,0,0,0,0,0,0,0,0,0
1682167968.99971008,122228589,1000,1000,1000,1000,0,0,0,0,0,0,0,0,0,0
1682167969.09966993,122328549,1000,1000,1000,1000,0,0,0,0,0,0,0,0,0,0
1682167969.19963002,122428509,1000,1000,1000,1000,0,0,0,0,0,0,0,0,0,0
1682167969.29959011,122528469,1000,1000,1000,1000,0,0,0,0,0,0,0,0,0,0
