TimeUS,M1,M2,M3,M4,TimeUS,C1,C2,C3,C4
53181219,1000,1000,1000,1000,53228700,1000,1000,1000,1000
53183718,1000,1000,1000,1000,53328660,1000,1000,1000,1000
53186217,1000,1000,1000,1000,53428620,1000,1000,1000,1000
53188716,1000,1000,1000,1000,53528580,1000,1000,1000,1000
53191215,1000,1000,1000,1000,53628540,1000,1000,1000,1000
53193714,1000,1000,1000,1000,53728500,1000,1000,1000,1000
53196213,1000,1000,1000,1000,53828460,1000,1000,1000,1000
53198712,1000,1000,1000,1000,53928420,1000,1000,1000,1000
53201211,1000,1000,1000,1000,54028380,1000,1000,1000,1000
53203710,1000,1000,1000,1000,54128340,1000,1000,1000,1000
53206209,1000,1000,1000,1000,54228300,1000,1000,1000,1000
53208708,1000,1000,1000,1000,54328260,1000,1000,1000,1000
53211207,1000,1000,1000,1000,54428220,1000,1000,1000,1000
53213706,1000,1000,1000,1000,54528180,1000,1000,1000,1000
53216205,1000,1000,1000,1000,54628973,1000,1000,1000,1000
53218704,1000,1000,1000,1000,54728933,1000,1000,1000,1000
53221203,1000,1000,1000,1000,54828893,1000,1000,1000,1000
53223702,1000,1000,1000,1000,54928853,1000,1000,1000,1000
53226201,1000,1000,1000,1000,55028813,1000,1000,1000,1000
53228700,1000,1000,1000,1000,55128773,1000,1000,1000,1000
53231199,1000,1000,1000,1000,55228733,1014,1014,1014,1014
53233698,1000,1000,1000,1000,55328693,1044,1044,1044,1044
53236197,1000,1000,1000,1000,55428653,1074,1074,1074,1074
53238696,1000,1000,1000,1000,55528613,1104,1104,1104,1104
53241195,1000,1000,1000,1000,55628573,1134,1134,1134,1134
53243694,1000,1000,1000,1000,55728533,1281,1275,1275,1282
53246193,1000,1000,1000,1000,55828493,1490,1485,1486,1490
53248692,1000,1000,1000,1000,55928453,1652,1647,1648,1652
53251191,1000,1000,1000,1000,56028413,1789,1784,1785,1789
53253690,1000,1000,1000,1000,56128373,1863,1858,1859,1863
53256189,1000,1000,1000,1000,56228333,1860,1857,1858,1860
53258688,1000,1000,1000,1000,56328293,1737,1736,1736,1737
53261187,1000,1000,1000,1000,56428253,1636,1638,1638,1636
53263686,1000,1000,1000,1000,56528213,1608,1611,1611,1608
53266185,1000,1000,1000,1000,56628173,1619,1622,1621,1620
53268684,1000,1000,1000,1000,56728966,1631,1632,1631,1631
53271183,1000,1000,1000,1000,56828926,1632,1633,1632,1632
53273682,1000,1000,1000,1000,56928886,1628,1627,1627,1628
53276181,1000,1000,1000,1000,57028846,1621,1620,1620,1621
53278680,1000,1000,1000,1000,57128806,1603,1602,1597,1609
53281179,1000,1000,1000,1000,57228766,1597,1597,1589,1605
53283678,1000,1000,1000,1000,57328726,1598,1597,1592,1602
53286177,1000,1000,1000,1000,57428686,1601,1601,1600,1601
53288676,1000,1000,1000,1000,57528646,1606,1606,1609,1604
53291175,1000,1000,1000,1000,57628606,1612,1613,1616,1608
53293674,1000,1000,1000,1000,57728566,1595,1596,1606,1584
53296173,1000,1000,1000,1000,57828526,1576,1577,1593,1560
53298672,1000,1000,1000,1000,57928486,1566,1566,1574,1559
53301171,1000,1000,1000,1000,58028446,1555,1555,1551,1560
53303670,1000,1000,1000,1000,58128406,1546,1545,1535,1557
53306169,1000,1000,1000,1000,58228366,1539,1538,1527,1550
53308668,1000,1000,1000,1000,58328326,1533,1532,1524,1540
53311167,1000,1000,1000,1000,58428286,1529,1529,1526,1532
53313666,1000,1000,1000,1000,58528246,1529,1529,1529,1529
53316165,1000,1000,1000,1000,58628206,1531,1531,1533,1529
53318664,1000,1000,1000,1000,58728166,1535,1535,1538,1531
53321163,1000,1000,1000,1000,58828959,1537,1538,1542,1533
53323662,1000,1000,1000,1000,58928919,1541,1542,1545,1538
53326161,1000,1000,1000,1000,59028879,1545,1545,1546,1543
53328660,1000,1000,1000,1000,59128839,1547,1547,1547,1548
53331159,1000,1000,1000,1000,59228799,1550,1550,1549,1551
53333658,1000,1000,1000,1000,59328759,1553,1552,1550,1555
53336157,1000,1000,1000,1000,59428719,1549,1549,1558,1562
53338656,1000,1000,1000,1000,59528679,1551,1551,1562,1564
53341155,1000,1000,1000,1000,59628639,1554,1555,1563,1563
53343654,1000,1000,1000,1000,59728599,1559,1559,1564,1563
53346153,1000,1000,1000,1000,59828559,1564,1564,1565,1563
53348652,1000,1000,1000,1000,59928519,1567,1566,1564,1563
53351151,1000,1000,1000,1000,60028479,1569,1569,1564,1564
53353650,1000,1000,1000,1000,60128439,1572,1571,1565,1564
53356149,1000,1000,1000,1000,60228399,1572,1572,1564,1565
53358648,1000,1000,1000,1000,60328359,1572,1572,1565,1566
53361147,1000,1000,1000,1000,60428319,1572,1573,1567,1567
53363646,1000,1000,1000,1000,60528279,1574,1573,1569,1569
53366145,1000,1000,1000,1000,60628239,1574,1573,1571,1571
53368644,1000,1000,1000,1000,60728199,1574,1574,1573,1573
53371143,1000,1000,1000,1000,60828159,1574,1574,1575,1573
53373642,1000,1000,1000,1000,60928952,1574,1573,1576,1574
53376141,1000,1000,1000,1000,61028912,1574,1574,1577,1575
53378640,1000,1000,1000,1000,61128872,1573,1573,1576,1576
53381139,1000,1000,1000,1000,61228832,1575,1575,1577,1578
53383638,1000,1000,1000,1000,61328792,1575,1575,1577,1577
53386137,1000,1000,1000,1000,61428752,1575,1575,1577,1577
53388636,1000,1000,1000,1000,61528712,1575,1575,1576,1577
53391135,1000,1000,1000,1000,61628672,1576,1576,1577,1577
53393634,1000,1000,1000,1000,61728632,1577,1577,1577,1577
53396133,1000,1000,1000,1000,61828592,1578,1578,1577,1577
53398632,1000,1000,1000,1000,61928552,1579,1579,1578,1578
53401131,1000,1000,1000,1000,62028512,1579,1579,1577,1577
53403630,1000,1000,1000,1000,62128472,1578,1578,1577,1577
53406129,1000,1000,1000,1000,62228432,1579,1579,1578,1578
53408628,1000,1000,1000,1000,62328392,1579,1579,1578,1579
53411127,1000,1000,1000,1000,62428352,1579,1579,1579,1579
53413626,1000,1000,1000,1000,62528312,1579,1579,1579,1579
53416125,1000,1000,1000,1000,62628272,1580,1580,1580,1580
53418624,1000,1000,1000,1000,62728232,1579,1579,1580,1580
53421123,1000,1000,1000,1000,62828192,1578,1579,1579,1579
53423622,1000,1000,1000,1000,62928985,1578,1579,1579,1579
53426121,1000,1000,1000,1000,63028945,1578,1578,1579,1579
53428620,1000,1000,1000,1000,63128905,1579,1579,1579,1579
53431119,1000,1000,1000,1000,63228865,1578,1579,1579,1579
53433618,1000,1000,1000,1000,63328825,1578,1578,1578,1579
53436117,1000,1000,1000,1000,63428785,1579,1578,1578,1578
53438616,1000,1000,1000,1000,63528745,1579,1579,1579,1579
53441115,1000,1000,1000,1000,63628705,1579,1579,1579,1579
53443614,1000,1000,1000,1000,63728665,1579,1579,1579,1579
53446113,1000,1000,1000,1000,63828625,1579,1579,1579,1579
53448612,1000,1000,1000,1000,63928585,1579,1580,1579,1579
53451111,1000,1000,1000,1000,64028545,1580,1580,1580,1580
53453610,1000,1000,1000,1000,64128505,1580,1580,1580,1580
53456109,1000,1000,1000,1000,64228465,1580,1580,1581,1580
53458608,1000,1000,1000,1000,64328425,1580,1580,1580,1580
53461107,1000,1000,1000,1000,64428385,1579,1579,1579,1579
53463606,1000,1000,1000,1000,64528345,1580,1580,1580,1580
53466105,1000,1000,1000,1000,64628305,1580,1581,1580,1581
53468604,1000,1000,1000,1000,64728265,1580,1580,1580,1581
53471103,1000,1000,1000,1000,64828225,1581,1581,1581,1580
53473602,1000,1000,1000,1000,64928185,1582,1581,1581,1581
53476101,1000,1000,1000,1000,65028978,1581,1581,1581,1580
53478600,1000,1000,1000,1000,65128938,1581,1581,1581,1581
53481099,1000,1000,1000,1000,65228898,1580,1580,1580,1580
53483598,1000,1000,1000,1000,65328858,1580,1580,1580,1580
53486097,1000,1000,1000,1000,65428818,1580,1580,1580,1581
53488596,1000,1000,1000,1000,65528778,1581,1581,1581,1581
53491095,1000,1000,1000,1000,65628738,1580,1581,1586,1575
53493594,1000,1000,1000,1000,65728698,1580,1582,1587,1573
53496093,1000,1000,1000,1000,65828658,1579,1582,1580,1573
53498592,1000,1000,1000,1000,65928618,1578,1581,1572,1573
53501091,1000,1000,1000,1000,66028578,1577,1579,1563,1570
53503590,1000,1000,1000,1000,66128538,1577,1578,1558,1565
53506089,1000,1000,1000,1000,66228498,1578,1577,1555,1560
53508588,1000,1000,1000,1000,66328458,1579,1577,1555,1556
53511087,1000,1000,1000,1000,66428418,1579,1577,1555,1554
53513586,1000,1000,1000,1000,66528378,1578,1578,1556,1553
53516085,1000,1000,1000,1000,66628338,1577,1577,1556,1553
53518584,1000,1000,1000,1000,66728298,1576,1577,1556,1554
53521083,1000,1000,1000,1000,66828258,1576,1577,1555,1554
53523582,1000,1000,1000,1000,66928218,1575,1577,1554,1554
53526081,1000,1000,1000,1000,67028178,1574,1576,1551,1552
53528580,1000,1000,1000,1000,67128971,1576,1578,1551,1551
53531079,1000,1000,1000,1000,67228931,1578,1579,1549,1549
53533578,1000,1000,1000,1000,67328891,1580,1581,1547,1547
53536077,1000,1000,1000,1000,67428851,1583,1584,1544,1544
53538576,1000,1000,1000,1000,67528811,1585,1586,1541,1540
53541075,1000,1000,1000,1000,67628771,1589,1590,1539,1539
53543574,1000,1000,1000,1000,67728731,1592,1592,1537,1537
53546073,1000,1000,1000,1000,67828691,1595,1594,1536,1536
53548572,1000,1000,1000,1000,67928651,1595,1595,1535,1536
53551071,1000,1000,1000,1000,68028611,1594,1595,1536,1537
53553570,1000,1000,1000,1000,68128571,1594,1593,1538,1541
53556069,1000,1000,1000,1000,68228531,1591,1590,1542,1546
53558568,1000,1000,1000,1000,68328491,1586,1584,1549,1552
53561067,1000,1000,1000,1000,68428451,1578,1575,1558,1561
53563566,1000,1000,1000,1000,68528411,1569,1564,1569,1571
53566065,1000,1000,1000,1000,68628371,1559,1555,1583,1584
53568564,1000,1000,1000,1000,68728331,1547,1544,1594,1594
53571063,1000,1000,1000,1000,68828291,1537,1536,1604,1603
53573562,1000,1000,1000,1000,68928251,1530,1530,1611,1610
53576061,1000,1000,1000,1000,69028211,1527,1529,1614,1613
53578560,1000,1000,1000,1000,69128171,1529,1531,1614,1613
53581059,1000,1000,1000,1000,69228964,1533,1536,1611,1610
53583558,1000,1000,1000,1000,69328924,1541,1543,1606,1606
53586057,1000,1000,1000,1000,69428884,1550,1551,1599,1599
53588556,1000,1000,1000,1000,69528844,1559,1560,1592,1592
53591055,1000,1000,1000,1000,69628804,1567,1567,1583,1583
53593554,1000,1000,1000,1000,69728764,1576,1575,1578,1577
53596053,1000,1000,1000,1000,69828724,1581,1580,1572,1571
53598552,1000,1000,1000,1000,69928684,1586,1585,1569,1568
53601051,1000,1000,1000,1000,70028644,1589,1588,1567,1567
53603550,1000,1000,1000,1000,70128604,1588,1587,1566,1567
53606049,1000,1000,1000,1000,70228564,1587,1586,1568,1567
53608548,1000,1000,1000,1000,70328524,1586,1585,1570,1570
53611047,1000,1000,1000,1000,70428484,1583,1583,1573,1574
53613546,1000,1000,1000,1000,70528444,1580,1580,1576,1576
53616045,1000,1000,1000,1000,70628404,1576,1577,1578,1578
53618544,1000,1000,1000,1000,70728364,1574,1575,1581,1581
53621043,1000,1000,1000,1000,70828324,1572,1573,1582,1582
53623542,1000,1000,1000,1000,70928284,1573,1573,1584,1584
53626041,1000,1000,1000,1000,71028244,1572,1573,1585,1584
53628540,1000,1000,1000,1000,71128204,1572,1573,1583,1583
53631039,1000,1000,1000,1000,71228164,1573,1574,1582,1583
53633538,1000,1000,1000,1000,71328957,1575,1576,1581,1582
53636037,1000,1000,1000,1000,71428917,1577,1576,1580,1580
53638536,1000,1000,1000,1000,71528877,1578,1578,1578,1579
53641035,1000,1000,1000,1000,71628837,1579,1578,1577,1577
53643534,1000,1000,1000,1000,71728797,1581,1581,1578,1578
53646033,1000,1000,1000,1000,71828757,1513,1563,1508,1561
53648532,1000,1000,1000,1000,71928717,1575,1565,1571,1562
53651031,1000,1000,1000,1000,72028677,1628,1585,1624,1582
53653530,1000,1000,1000,1000,72128637,1665,1612,1662,1608
53656029,1000,1000,1000,1000,72228597,1678,1632,1673,1626
53658528,1000,1000,1000,1000,72328557,1661,1636,1655,1626
53661027,1000,1000,1000,1000,72428517,1627,1630,1620,1617
53663526,1000,1000,1000,1000,72528477,1596,1617,1592,1612
53666025,1000,1000,1000,1000,72628437,1573,1601,1580,1611
53668524,1000,1000,1000,1000,72728397,1561,1585,1580,1609
53671023,1000,1000,1000,1000,72828357,1559,1572,1584,1603
53673522,1000,1000,1000,1000,72928317,1562,1565,1588,1595
53676021,1000,1000,1000,1000,73028277,1568,1564,1590,1586
53678520,1000,1000,1000,1000,73128237,1575,1569,1588,1580
53681019,1000,1000,1000,1000,73228197,1580,1575,1584,1575
53683518,1000,1000,1000,1000,73328157,1583,1580,1578,1572
53686017,1000,1000,1000,1000,73428950,1584,1584,1572,1570
53688516,1000,1000,1000,1000,73528910,1584,1586,1567,1568
53691015,1000,1000,1000,1000,73628870,1583,1585,1567,1563
53693514,1000,1000,1000,1000,73728830,1583,1585,1568,1556
53696013,1000,1000,1000,1000,73828790,1581,1584,1562,1556
53698512,1000,1000,1000,1000,73928750,1578,1581,1556,1557
53701011,1000,1000,1000,1000,74028710,1576,1579,1553,1558
53703510,1000,1000,1000,1000,74128670,1574,1574,1550,1557
53706009,1000,1000,1000,1000,74228630,1573,1572,1551,1556
53708508,1000,1000,1000,1000,74328590,1571,1570,1552,1555
53711007,1000,1000,1000,1000,74428550,1569,1569,1553,1553
53713506,1000,1000,1000,1000,74528510,1568,1568,1554,1552
53716005,1000,1000,1000,1000,74628470,1569,1570,1556,1554
53718504,1000,1000,1000,1000,74728430,1569,1570,1555,1553
53721003,1000,1000,1000,1000,74828390,1569,1571,1554,1553
53723502,1000,1000,1000,1000,74928350,1569,1571,1551,1551
53726001,1000,1000,1000,1000,75028310,1571,1573,1550,1550
53728500,1000,1000,1000,1000,75128270,1574,1575,1548,1548
53730999,1000,1000,1000,1000,75228230,1576,1577,1545,1545
53733498,1000,1000,1000,1000,75328190,1579,1579,1542,1542
53735997,1000,1000,1000,1000,75428983,1581,1581,1539,1538
53738496,1000,1000,1000,1000,75528943,1585,1585,1537,1537
53740995,1000,1000,1000,1000,75628903,1588,1589,1535,1536
53743494,1000,1000,1000,1000,75728863,1592,1592,1535,1536
53745993,1000,1000,1000,1000,75828823,1594,1593,1535,1535
53748492,1000,1000,1000,1000,75928783,1593,1592,1535,1536
53750991,1000,1000,1000,1000,76028743,1592,1591,1538,1539
53753490,1000,1000,1000,1000,76128703,1589,1587,1542,1544
53755989,1000,1000,1000,1000,76228663,1585,1582,1548,1551
53758488,1000,1000,1000,1000,76328623,1578,1576,1555,1558
53760987,1000,1000,1000,1000,76428583,1569,1568,1562,1565
53763486,1000,1000,1000,1000,76528543,1562,1561,1571,1573
53765985,1000,1000,1000,1000,76628503,1554,1554,1580,1582
53768484,1000,1000,1000,1000,76728463,1547,1547,1588,1588
53770983,1000,1000,1000,1000,76828423,1542,1541,1595,1594
53773482,1000,1000,1000,1000,76928383,1538,1538,1600,1599
53775981,1000,1000,1000,1000,77028343,1536,1537,1603,1602
53778480,1000,1000,1000,1000,77128303,1537,1538,1604,1602
53780979,1000,1000,1000,1000,77228263,1540,1541,1603,1601
53783478,1000,1000,1000,1000,77328223,1544,1545,1599,1599
53785977,1000,1000,1000,1000,77428183,1550,1551,1595,1595
53788476,1000,1000,1000,1000,77528976,1556,1555,1589,1589
53790975,1000,1000,1000,1000,77628936,1562,1562,1584,1585
53793474,1000,1000,1000,1000,77728896,1568,1567,1578,1580
53795973,1000,1000,1000,1000,77828856,1573,1571,1574,1575
53798472,1000,1000,1000,1000,77928816,1577,1576,1572,1571
53800971,1000,1000,1000,1000,78028776,1580,1579,1570,1569
53803470,1000,1000,1000,1000,78128736,1581,1580,1569,1568
53805969,1000,1000,1000,1000,78228696,1582,1581,1569,1568
53808468,1000,1000,1000,1000,78328656,1582,1582,1570,1570
53810967,1000,1000,1000,1000,78428616,1581,1581,1572,1572
53813466,1000,1000,1000,1000,78528576,1580,1580,1574,1574
53815965,1000,1000,1000,1000,78628536,1578,1578,1575,1575
53818464,1000,1000,1000,1000,78728496,1577,1577,1577,1577
53820963,1000,1000,1000,1000,78828456,1575,1576,1579,1578
53823462,1000,1000,1000,1000,78928416,1574,1574,1579,1579
53825961,1000,1000,1000,1000,79028376,1574,1575,1581,1581
53828460,1000,1000,1000,1000,79128336,1575,1575,1582,1582
53830959,1000,1000,1000,1000,79228296,1574,1574,1581,1581
53833458,1000,1000,1000,1000,79328256,1574,1575,1581,1581
53835957,1000,1000,1000,1000,79428216,1576,1577,1581,1581
53838456,1000,1000,1000,1000,79528176,1577,1577,1581,1580
53840955,1000,1000,1000,1000,79628969,1578,1578,1580,1579
53843454,1000,1000,1000,1000,79728929,1579,1578,1579,1578
53845953,1000,1000,1000,1000,79828889,1580,1580,1579,1579
53848452,1000,1000,1000,1000,79928849,1580,1580,1577,1578
53850951,1000,1000,1000,1000,80028809,1580,1580,1577,1578
53853450,1000,1000,1000,1000,80128769,1580,1580,1577,1577
53855949,1000,1000,1000,1000,80228729,1581,1581,1578,1578
53858448,1000,1000,1000,1000,80328689,1581,1581,1579,1578
53860947,1000,1000,1000,1000,80428649,1581,1581,1579,1579
53863446,1000,1000,1000,1000,80528609,1581,1581,1579,1579
53865945,1000,1000,1000,1000,80628569,1580,1580,1579,1580
53868444,1000,1000,1000,1000,80728529,1580,1580,1580,1580
53870943,1000,1000,1000,1000,80828489,1579,1580,1580,1580
53873442,1000,1000,1000,1000,80928449,1580,1580,1580,1581
53875941,1000,1000,1000,1000,81028409,1580,1580,1581,1581
53878440,1000,1000,1000,1000,81128369,1580,1580,1581,1581
53880939,1000,1000,1000,1000,81228329,1580,1580,1581,1581
53883438,1000,1000,1000,1000,81328289,1580,1580,1582,1581
53885937,1000,1000,1000,1000,81428249,1581,1581,1581,1581
53888436,1000,1000,1000,1000,81528209,1581,1581,1581,1582
53890935,1000,1000,1000,1000,81628169,1580,1580,1580,1581
53893434,1000,1000,1000,1000,81728962,1581,1580,1580,1581
53895933,1000,1000,1000,1000,81828922,1581,1581,1581,1580
53898432,1000,1000,1000,1000,81928882,1581,1580,1580,1580
53900931,1000,1000,1000,1000,82028842,1581,1581,1581,1581
53903430,1000,1000,1000,1000,82128802,1581,1581,1580,1580
53905929,1000,1000,1000,1000,82228762,1581,1582,1581,1581
53908428,1000,1000,1000,1000,82328722,1581,1582,1583,1579
53910927,1000,1000,1000,1000,82428682,1580,1582,1587,1572
53913426,1000,1000,1000,1000,82528642,1579,1581,1582,1572
53915925,1000,1000,1000,1000,82628602,1578,1580,1575,1573
53918424,1000,1000,1000,1000,82728562,1576,1579,1567,1571
53920923,1000,1000,1000,1000,82828522,1576,1578,1560,1567
53923422,1000,1000,1000,1000,82928482,1576,1577,1556,1562
53925921,1000,1000,1000,1000,83028442,1577,1577,1554,1558
53928420,1000,1000,1000,1000,83128402,1579,1577,1555,1555
53930919,1000,1000,1000,1000,83228362,1578,1577,1554,1553
53933418,1000,1000,1000,1000,83328322,1579,1579,1556,1554
53935917,1000,1000,1000,1000,83428282,1578,1578,1555,1553
53938416,1000,1000,1000,1000,83528242,1577,1577,1554,1553
53940915,1000,1000,1000,1000,83628202,1576,1578,1554,1553
53943414,1000,1000,1000,1000,83728162,1575,1577,1553,1552
53945913,1000,1000,1000,1000,83828955,1576,1578,1552,1552
53948412,1000,1000,1000,1000,83928915,1576,1578,1550,1550
53950911,1000,1000,1000,1000,84028875,1578,1579,1549,1549
53953410,1000,1000,1000,1000,84128835,1580,1581,1547,1546
53955909,1000,1000,1000,1000,84228795,1582,1583,1544,1544
53958408,1000,1000,1000,1000,84328755,1585,1586,1542,1542
53960907,1000,1000,1000,1000,84428715,1588,1589,1540,1540
53963406,1000,1000,1000,1000,84528675,1590,1590,1538,1538
53965905,1000,1000,1000,1000,84628635,1592,1592,1537,1538
53968404,1000,1000,1000,1000,84728595,1593,1593,1537,1539
53970903,1000,1000,1000,1000,84828555,1593,1593,1538,1540
53973402,1000,1000,1000,1000,84928515,1593,1591,1541,1544
53975901,1000,1000,1000,1000,85028475,1589,1587,1546,1549
53978400,1000,1000,1000,1000,85128435,1583,1579,1553,1556
53980899,1000,1000,1000,1000,85228395,1575,1572,1562,1565
53983398,1000,1000,1000,1000,85328355,1566,1562,1574,1576
53985897,1000,1000,1000,1000,85428315,1556,1553,1585,1586
53988396,1000,1000,1000,1000,85528275,1546,1545,1595,1595
53990895,1000,1000,1000,1000,85628235,1539,1540,1605,1604
53993394,1000,1000,1000,1000,85728195,1535,1537,1611,1609
53995893,1000,1000,1000,1000,85828155,1534,1537,1614,1612
53998392,1000,1000,1000,1000,85928948,1536,1539,1613,1611
54000891,1000,1000,1000,1000,86028908,1541,1543,1611,1609
54003390,1000,1000,1000,1000,86128868,1546,1548,1605,1604
54005889,1000,1000,1000,1000,86228828,1554,1554,1599,1598
54008388,1000,1000,1000,1000,86328788,1561,1560,1592,1591
54010887,1000,1000,1000,1000,86428748,1567,1566,1584,1583
54013386,1000,1000,1000,1000,86528708,1573,1572,1576,1577
54015885,1000,1000,1000,1000,86628668,1580,1579,1573,1574
54018384,1000,1000,1000,1000,86728628,1584,1582,1569,1570
54020883,1000,1000,1000,1000,86828588,1585,1584,1566,1567
54023382,1000,1000,1000,1000,86928548,1587,1585,1566,1567
54025881,1000,1000,1000,1000,87028508,1586,1585,1567,1568
54028380,1000,1000,1000,1000,87128468,1585,1583,1569,1569
54030879,1000,1000,1000,1000,87228428,1582,1582,1571,1571
54033378,1000,1000,1000,1000,87328388,1580,1580,1574,1574
54035877,1000,1000,1000,1000,87428348,1577,1578,1577,1576
54038376,1000,1000,1000,1000,87528308,1575,1576,1579,1579
54040875,1000,1000,1000,1000,87628268,1575,1575,1582,1582
54043374,1000,1000,1000,1000,87728228,1574,1575,1584,1583
54045873,1000,1000,1000,1000,87828188,1573,1574,1584,1584
54048372,1000,1000,1000,1000,87928981,1573,1573,1584,1583
54050871,1000,1000,1000,1000,88028941,1574,1574,1583,1584
54053370,1000,1000,1000,1000,88128901,1574,1575,1582,1582
54055869,1000,1000,1000,1000,88228861,1576,1576,1582,1581
54058368,1000,1000,1000,1000,88328821,1577,1577,1581,1581
54060867,1000,1000,1000,1000,88428781,1578,1578,1578,1579
54063366,1000,1000,1000,1000,88528741,1580,1580,1579,1579
54065865,1000,1000,1000,1000,88628701,1581,1581,1579,1579
54068364,1000,1000,1000,1000,88728661,1582,1582,1579,1578
54070863,1000,1000,1000,1000,88828621,1582,1582,1578,1578
54073362,1000,1000,1000,1000,88928581,1582,1582,1577,1577
54075861,1000,1000,1000,1000,89028541,1582,1582,1578,1578
54078360,1000,1000,1000,1000,89128501,1582,1581,1578,1579
54080859,1000,1000,1000,1000,89228461,1582,1582,1579,1579
54083358,1000,1000,1000,1000,89328421,1581,1581,1580,1579
54085857,1000,1000,1000,1000,89428381,1581,1581,1581,1580
54088356,1000,1000,1000,1000,89528341,1580,1581,1581,1581
54090855,1000,1000,1000,1000,89628301,1580,1580,1581,1581
54093354,1000,1000,1000,1000,89728261,1580,1581,1582,1582
54095853,1000,1000,1000,1000,89828221,1580,1580,1581,1582
54098352,1000,1000,1000,1000,89928181,1579,1579,1580,1581
54100851,1000,1000,1000,1000,90028974,1580,1580,1582,1581
54103350,1000,1000,1000,1000,90128934,1581,1581,1582,1581
54105849,1000,1000,1000,1000,90228894,1580,1580,1581,1580
54108348,1000,1000,1000,1000,90328854,1581,1581,1582,1579
54110847,1000,1000,1000,1000,90428814,1580,1582,1587,1572
54113346,1000,1000,1000,1000,90528774,1580,1581,1583,1573
54115845,1000,1000,1000,1000,90628734,1578,1577,1577,1575
54118344,1000,1000,1000,1000,90728694,1574,1573,1570,1575
54120843,1000,1000,1000,1000,90828654,1571,1570,1566,1573
54123342,1000,1000,1000,1000,90928614,1569,1568,1564,1571
54125841,1000,1000,1000,1000,91028574,1566,1567,1564,1568
54128340,1000,1000,1000,1000,91128534,1566,1567,1565,1566
54130839,1000,1000,1000,1000,91228494,1565,1566,1566,1564
54133338,1000,1000,1000,1000,91328454,1565,1565,1566,1564
54135837,1000,1000,1000,1000,91428414,1565,1565,1566,1564
54138336,1000,1000,1000,1000,91528374,1565,1564,1566,1564
54140835,1000,1000,1000,1000,91628334,1563,1563,1564,1564
54143334,1000,1000,1000,1000,91728294,1562,1562,1563,1563
54145833,1000,1000,1000,1000,91828254,1562,1562,1563,1563
54148332,1000,1000,1000,1000,91928214,1561,1561,1561,1562
54150831,1000,1000,1000,1000,92028174,1561,1561,1561,1561
54153330,1000,1000,1000,1000,92128967,1560,1561,1561,1560
54155829,1000,1000,1000,1000,92228927,1560,1559,1560,1559
54158328,1000,1000,1000,1000,92328887,1559,1558,1559,1558
54160827,1000,1000,1000,1000,92428847,1559,1559,1559,1559
54163326,1000,1000,1000,1000,92528807,1558,1559,1559,1558
54165825,1000,1000,1000,1000,92628767,1558,1557,1558,1557
54168324,1000,1000,1000,1000,92728727,1559,1558,1559,1558
54170823,1000,1000,1000,1000,92828687,1558,1558,1558,1557
54173322,1000,1000,1000,1000,92928647,1558,1559,1559,1557
54175821,1000,1000,1000,1000,93028607,1558,1559,1560,1557
54178320,1000,1000,1000,1000,93128567,1559,1559,1560,1558
54180819,1000,1000,1000,1000,93228527,1559,1559,1559,1560
54183318,1000,1000,1000,1000,93328487,1561,1560,1558,1563
54185817,1000,1000,1000,1000,93428447,1560,1560,1557,1564
54188316,1000,1000,1000,1000,93528407,1561,1562,1558,1565
54190815,1000,1000,1000,1000,93628367,1562,1562,1560,1564
54193314,1000,1000,1000,1000,93728327,1562,1562,1561,1562
54195813,1000,1000,1000,1000,93828287,1562,1562,1563,1560
54198312,1000,1000,1000,1000,93928247,1561,1561,1563,1558
54200811,1000,1000,1000,1000,94028207,1561,1561,1561,1561
54203310,1000,1000,1000,1000,94128167,1559,1558,1556,1561
54205809,1000,1000,1000,1000,94228960,1555,1554,1552,1557
54208308,1000,1000,1000,1000,94328920,1550,1550,1549,1551
54210807,1000,1000,1000,1000,94428880,1544,1544,1544,1544
54213306,1000,1000,1000,1000,94528840,1537,1538,1538,1537
54215805,1000,1000,1000,1000,94628800,1530,1530,1531,1529
54218304,1000,1000,1000,1000,94728760,1522,1523,1523,1522
54220803,1000,1000,1000,1000,94828720,1519,1520,1519,1520
54223302,1000,1000,1000,1000,94928680,1519,1520,1519,1520
54225801,1000,1000,1000,1000,95028640,1520,1521,1520,1522
54228300,1000,1000,1000,1000,95128600,1523,1523,1522,1524
54230799,1000,1000,1000,1000,95228560,1526,1527,1526,1527
54233298,1000,1000,1000,1000,95328520,1530,1530,1530,1530
54235797,1000,1000,1000,1000,95428480,1535,1534,1535,1534
54238296,1000,1000,1000,1000,95528440,1539,1538,1539,1538
54240795,1000,1000,1000,1000,95628400,1542,1541,1542,1541
54243294,1000,1000,1000,1000,95728360,1543,1543,1543,1543
54245793,1000,1000,1000,1000,95828320,1545,1544,1545,1544
54248292,1000,1000,1000,1000,95928280,1545,1545,1545,1544
54250791,1000,1000,1000,1000,96028240,1546,1546,1546,1546
54253290,1000,1000,1000,1000,96128200,1546,1546,1546,1545
54255789,1000,1000,1000,1000,96228160,1545,1545,1545,1545
54258288,1000,1000,1000,1000,96328953,1546,1546,1546,1546
54260787,1000,1000,1000,1000,96428913,1546,1546,1546,1546
54263286,1000,1000,1000,1000,96528873,1546,1547,1546,1546
54265785,1000,1000,1000,1000,96628833,1545,1545,1545,1545
54268284,1000,1000,1000,1000,96728793,1546,1545,1545,1545
54270783,1000,1000,1000,1000,96828753,1545,1545,1545,1545
54273282,1000,1000,1000,1000,96928713,1545,1545,1545,1545
54275781,1000,1000,1000,1000,97028673,1545,1545,1545,1545
54278280,1000,1000,1000,1000,97128633,1544,1544,1544,1544
54280779,1000,1000,1000,1000,97228593,1544,1545,1544,1545
54283278,1000,1000,1000,1000,97328553,1544,1544,1544,1544
54285777,1000,1000,1000,1000,97428513,1544,1544,1544,1544
54288276,1000,1000,1000,1000,97528473,1544,1544,1544,1545
54290775,1000,1000,1000,1000,97628433,1544,1544,1544,1544
54293274,1000,1000,1000,1000,97728393,1544,1544,1544,1544
54295773,1000,1000,1000,1000,97828353,1544,1544,1544,1543
54298272,1000,1000,1000,1000,97928313,1544,1544,1544,1544
54300771,1000,1000,1000,1000,98028273,1544,1544,1544,1543
54303270,1000,1000,1000,1000,98128233,1545,1545,1544,1545
54305769,1000,1000,1000,1000,98228193,1544,1544,1544,1544
54308268,1000,1000,1000,1000,98328986,1545,1544,1545,1545
54310767,1000,1000,1000,1000,98428946,1544,1545,1544,1545
54313266,1000,1000,1000,1000,98528906,1544,1544,1544,1544
54315765,1000,1000,1000,1000,98628866,1545,1545,1545,1545
54318264,1000,1000,1000,1000,98728826,1545,1545,1545,1545
54320763,1000,1000,1000,1000,98828786,1544,1545,1545,1544
54323262,1000,1000,1000,1000,98928746,1545,1545,1545,1545
54325761,1000,1000,1000,1000,99028706,1545,1545,1545,1545
54328260,1000,1000,1000,1000,99128666,1545,1544,1544,1545
54330759,1000,1000,1000,1000,99228626,1544,1544,1544,1544
54333258,1000,1000,1000,1000,99328586,1545,1544,1544,1544
54335757,1000,1000,1000,1000,99428546,1544,1545,1544,1544
54338256,1000,1000,1000,1000,99528506,1545,1544,1544,1545
54340755,1000,1000,1000,1000,99628466,1544,1544,1545,1544
54343254,1000,1000,1000,1000,99728426,1543,1543,1543,1543
54345753,1000,1000,1000,1000,99828386,1543,1544,1543,1543
54348252,1000,1000,1000,1000,99928346,1544,1544,1544,1545
54350751,1000,1000,1000,1000,100028306,1544,1544,1544,1544
54353250,1000,1000,1000,1000,100128266,1545,1544,1544,1544
54355749,1000,1000,1000,1000,100228226,1544,1544,1544,1544
54358248,1000,1000,1000,1000,100328186,1544,1543,1544,1543
54360747,1000,1000,1000,1000,100428979,1544,1544,1544,1544
54363246,1000,1000,1000,1000,100528939,1544,1544,1544,1544
54365745,1000,1000,1000,1000,100628899,1544,1545,1544,1545
54368244,1000,1000,1000,1000,100728859,1544,1544,1544,1544
54370743,1000,1000,1000,1000,100828819,1544,1544,1544,1544
54373242,1000,1000,1000,1000,100928779,1544,1544,1544,1544
54375741,1000,1000,1000,1000,101028739,1544,1544,1544,1544
54378240,1000,1000,1000,1000,101128699,1544,1544,1544,1544
54380739,1000,1000,1000,1000,101228659,1544,1545,1545,1545
54383238,1000,1000,1000,1000,101328619,1545,1544,1545,1545
54385737,1000,1000,1000,1000,101428579,1544,1544,1544,1544
54388236,1000,1000,1000,1000,101528539,1545,1544,1544,1545
54390735,1000,1000,1000,1000,101628499,1545,1545,1545,1545
54393234,1000,1000,1000,1000,101728459,1546,1546,1545,1546
54395733,1000,1000,1000,1000,101828419,1545,1545,1545,1545
54398232,1000,1000,1000,1000,101928379,1544,1544,1544,1544
54400731,1000,1000,1000,1000,102028339,1544,1545,1545,1544
54403230,1000,1000,1000,1000,102128299,1544,1545,1544,1545
54405729,1000,1000,1000,1000,102228259,1544,1544,1544,1544
54408228,1000,1000,1000,1000,102328219,1544,1544,1544,1544
54410727,1000,1000,1000,1000,102428179,1544,1544,1544,1544
54413226,1000,1000,1000,1000,102528972,1543,1543,1543,1543
54415725,1000,1000,1000,1000,102628932,1544,1544,1544,1544
54418224,1000,1000,1000,1000,102728892,1543,1543,1543,1543
54420723,1000,1000,1000,1000,102828852,1543,1544,1544,1544
54423222,1000,1000,1000,1000,102928812,1543,1543,1543,1543
54425721,1000,1000,1000,1000,103028772,1543,1543,1543,1543
54428220,1000,1000,1000,1000,103128732,1543,1543,1543,1544
54430719,1000,1000,1000,1000,103228692,1544,1544,1544,1544
54433218,1000,1000,1000,1000,103328652,1544,1545,1544,1545
54435717,1000,1000,1000,1000,103428612,1544,1545,1545,1544
54438216,1000,1000,1000,1000,103528572,1544,1544,1544,1544
54440715,1000,1000,1000,1000,103628532,1545,1545,1545,1545
54443214,1000,1000,1000,1000,103728492,1544,1544,1544,1544
54445713,1000,1000,1000,1000,103828452,1545,1545,1545,1544
54448212,1000,1000,1000,1000,103928412,1545,1545,1545,1545
54450711,1000,1000,1000,1000,104028372,1545,1545,1545,1545
54453210,1000,1000,1000,1000,104128332,1545,1544,1544,1544
54455709,1000,1000,1000,1000,104228292,1544,1544,1544,1544
54458208,1000,1000,1000,1000,104328252,1544,1544,1544,1544
54460707,1000,1000,1000,1000,104428212,1544,1545,1544,1544
54463206,1000,1000,1000,1000,104528172,1450,1429,1450,1429
54465705,1000,1000,1000,1000,104628965,1340,1282,1341,1280
54468204,1000,1000,1000,1000,104728925,1300,1224,1301,1223
54470703,1000,1000,1000,1000,104828885,1285,1203,1286,1201
54473202,1000,1000,1000,1000,104928845,1262,1166,1262,1165
54475701,1000,1000,1000,1000,105028805,1219,1151,1220,1150
54478200,1000,1000,1000,1000,105128765,1157,1150,1158,1150
54480699,1000,1000,1000,1000,105228725,1157,1151,1158,1150
54483198,1000,1000,1000,1000,105328685,1157,1150,1158,1150
54485697,1000,1000,1000,1000,105428645,1158,1150,1144,1168
54488196,1000,1000,1000,1000,105528605,1158,1150,1149,1162
54490695,1000,1000,1000,1000,105628565,1158,1150,1151,1159
54493194,1000,1000,1000,1000,105728525,1158,1150,1151,1159
54495693,1000,1000,1000,1000,105828485,1158,1150,1151,1159
54498192,1000,1000,1000,1000,105928445,1158,1150,1150,1160
54500691,1000,1000,1000,1000,106028405,1158,1150,1150,1160
54503190,1000,1000,1000,1000,106128365,1158,1150,1149,1161
54505689,1000,1000,1000,1000,106228325,1158,1150,1155,1153
54508188,1000,1000,1000,1000,106328285,1158,1150,1154,1154
54510687,1000,1000,1000,1000,106428245,1158,1150,1154,1155
54513186,1000,1000,1000,1000,106528205,1158,1150,1154,1155
54515685,1000,1000,1000,1000,106628165,1157,1150,1154,1155
54518184,1000,1000,1000,1000,106728958,1000,1000,1000,1000
54520683,1000,1000,1000,1000,106828918,1000,1000,1000,1000
54523182,1000,1000,1000,1000,106928878,1000,1000,1000,1000
54525681,1000,1000,1000,1000,107028838,1000,1000,1000,1000
54528180,1000,1000,1000,1000,107128798,1000,1000,1000,1000
54530679,1000,1000,1000,1000,107228758,1000,1000,1000,1000
54533178,1000,1000,1000,1000,107328718,1000,1000,1000,1000
54535677,1000,1000,1000,1000,107428678,1000,1000,1000,1000
54538176,1000,1000,1000,1000,107528638,1000,1000,1000,1000
54540675,1000,1000,1000,1000,107628598,1000,1000,1000,1000
54543174,1000,1000,1000,1000,107728558,1000,1000,1000,1000
54545673,1000,1000,1000,1000,107828518,1000,1000,1000,1000
54548172,1000,1000,1000,1000,107928478,1000,1000,1000,1000
54550671,1000,1000,1000,1000,108028438,1000,1000,1000,1000
54553170,1000,1000,1000,1000,108128398,1000,1000,1000,1000
54555669,1000,1000,1000,1000,108228358,1000,1000,1000,1000
54558168,1000,1000,1000,1000,108328318,1000,1000,1000,1000
54560667,1000,1000,1000,1000,108428278,1000,1000,1000,1000
54563166,1000,1000,1000,1000,108528238,1000,1000,1000,1000
54565665,1000,1000,1000,1000,108628198,1000,1000,1000,1000
54568164,1000,1000,1000,1000,108728158,1000,1000,1000,1000
54570663,1000,1000,1000,1000,108828951,1000,1000,1000,1000
54573162,1000,1000,1000,1000,108928911,1000,1000,1000,1000
54575661,1000,1000,1000,1000,109028871,1000,1000,1000,1000
54578160,1000,1000,1000,1000,109128831,1000,1000,1000,1000
54580659,1000,1000,1000,1000,109228791,1000,1000,1000,1000
54583158,1000,1000,1000,1000,109328751,1000,1000,1000,1000
54585657,1000,1000,1000,1000,109428711,1000,1000,1000,1000
54588156,1000,1000,1000,1000,109528671,1000,1000,1000,1000
54590655,1000,1000,1000,1000,109628631,1000,1000,1000,1000
54593154,1000,1000,1000,1000,109728591,1000,1000,1000,1000
54596486,1000,1000,1000,1000,109828551,1000,1000,1000,1000
54598985,1000,1000,1000,1000,109928511,1000,1000,1000,1000
54601484,1000,1000,1000,1000,110028471,1000,1000,1000,1000
54603983,1000,1000,1000,1000,110128431,1000,1000,1000,1000
54606482,1000,1000,1000,1000,110228391,1000,1000,1000,1000
54608981,1000,1000,1000,1000,110328351,1000,1000,1000,1000
54611480,1000,1000,1000,1000,110428311,1000,1000,1000,1000
54613979,1000,1000,1000,1000,110528271,1000,1000,1000,1000
54616478,1000,1000,1000,1000,110628231,1000,1000,1000,1000
54618977,1000,1000,1000,1000,110728191,1000,1000,1000,1000
54621476,1000,1000,1000,1000,110828984,1000,1000,1000,1000
54623975,1000,1000,1000,1000,110928944,1000,1000,1000,1000
54626474,1000,1000,1000,1000,111028904,1000,1000,1000,1000
54628973,1000,1000,1000,1000,111128864,1000,1000,1000,1000
54631472,1000,1000,1000,1000,111228824,1000,1000,1000,1000
54633971,1000,1000,1000,1000,111328784,1000,1000,1000,1000
54636470,1000,1000,1000,1000,111428744,1000,1000,1000,1000
54638969,1000,1000,1000,1000,111528704,1000,1000,1000,1000
54641468,1000,1000,1000,1000,111628664,1000,1000,1000,1000
54643967,1000,1000,1000,1000,111728624,1000,1000,1000,1000
54646466,1000,1000,1000,1000,111828584,1000,1000,1000,1000
54648965,1000,1000,1000,1000,111928544,1000,1000,1000,1000
54651464,1000,1000,1000,1000,112028504,1000,1000,1000,1000
54653963,1000,1000,1000,1000,112128464,1000,1000,1000,1000
54656462,1000,1000,1000,1000,112228424,1000,1000,1000,1000
54658961,1000,1000,1000,1000,112328384,1000,1000,1000,1000
54661460,1000,1000,1000,1000,112428344,1000,1000,1000,1000
54663959,1000,1000,1000,1000,112528304,1000,1000,1000,1000
54666458,1000,1000,1000,1000,112628264,1000,1000,1000,1000
54668957,1000,1000,1000,1000,112728224,1000,1000,1000,1000
54671456,1000,1000,1000,1000,112828184,1000,1000,1000,1000
54673955,1000,1000,1000,1000,112928977,1000,1000,1000,1000
54676454,1000,1000,1000,1000,113028937,1000,1000,1000,1000
54678953,1000,1000,1000,1000,113128897,1000,1000,1000,1000
54681452,1000,1000,1000,1000,113228857,1000,1000,1000,1000
54683951,1000,1000,1000,1000,113328817,1000,1000,1000,1000
54686450,1000,1000,1000,1000,113428777,1000,1000,1000,1000
54688949,1000,1000,1000,1000,113528737,1000,1000,1000,1000
54691448,1000,1000,1000,1000,113628697,1000,1000,1000,1000
54693947,1000,1000,1000,1000,113728657,1000,1000,1000,1000
54696446,1000,1000,1000,1000,113828617,1000,1000,1000,1000
54698945,1000,1000,1000,1000,113928577,1000,1000,1000,1000
54701444,1000,1000,1000,1000,114028537,1000,1000,1000,1000
54703943,1000,1000,1000,1000,114128497,1000,1000,1000,1000
54706442,1000,1000,1000,1000,114228457,1000,1000,1000,1000
54708941,1000,1000,1000,1000,114328417,1000,1000,1000,1000
54711440,1000,1000,1000,1000,114428377,1000,1000,1000,1000
54713939,1000,1000,1000,1000,114528337,1000,1000,1000,1000
54716438,1000,1000,1000,1000,114628297,1000,1000,1000,1000
54718937,1000,1000,1000,1000,114728257,1000,1000,1000,1000
54721436,1000,1000,1000,1000,114828217,1000,1000,1000,1000
54723935,1000,1000,1000,1000,114928177,1000,1000,1000,1000
54726434,1000,1000,1000,1000,115028970,1000,1000,1000,1000
54728933,1000,1000,1000,1000,115128930,1000,1000,1000,1000
54731432,1000,1000,1000,1000,115228890,1000,1000,1000,1000
54733931,1000,1000,1000,1000,115328850,1000,1000,1000,1000
54736430,1000,1000,1000,1000,115428810,1000,1000,1000,1000
54738929,1000,1000,1000,1000,115528770,1000,1000,1000,1000
54741428,1000,1000,1000,1000,115628730,1000,1000,1000,1000
54743927,1000,1000,1000,1000,115728690,1000,1000,1000,1000
54746426,1000,1000,1000,1000,115828650,1000,1000,1000,1000
54748925,1000,1000,1000,1000,115928610,1000,1000,1000,1000
54751424,1000,1000,1000,1000,116028570,1000,1000,1000,1000
54753923,1000,1000,1000,1000,116128530,1000,1000,1000,1000
54756422,1000,1000,1000,1000,116228490,1000,1000,1000,1000
54758921,1000,1000,1000,1000,116328450,1000,1000,1000,1000
54761420,1000,1000,1000,1000,116428410,1000,1000,1000,1000
54763919,1000,1000,1000,1000,116528370,1000,1000,1000,1000
54766418,1000,1000,1000,1000,116628330,1000,1000,1000,1000
54768917,1000,1000,1000,1000,116728290,1000,1000,1000,1000
54771416,1000,1000,1000,1000,116828250,1000,1000,1000,1000
54773915,1000,1000,1000,1000,116928210,1000,1000,1000,1000
54776414,1000,1000,1000,1000,117028170,1000,1000,1000,1000
54778913,1000,1000,1000,1000,117128963,1000,1000,1000,1000
54781412,1000,1000,1000,1000,117228923,1000,1000,1000,1000
54783911,1000,1000,1000,1000,,,,,
54786410,1000,1000,1000,1000,,,,,
54788909,1000,1000,1000,1000,,,,,
54791408,1000,1000,1000,1000,,,,,
54793907,1000,1000,1000,1000,,,,,
54796406,1000,1000,1000,1000,,,,,
54798905,1000,1000,1000,1000,,,,,
54801404,1000,1000,1000,1000,,,,,
54803903,1000,1000,1000,1000,,,,,
54806402,1000,1000,1000,1000,,,,,
54808901,1000,1000,1000,1000,,,,,
54811400,1000,1000,1000,1000,,,,,
54813899,1000,1000,1000,1000,,,,,
54816398,1000,1000,1000,1000,,,,,
54818897,1000,1000,1000,1000,,,,,
54821396,1000,1000,1000,1000,,,,,
54823895,1000,1000,1000,1000,,,,,
54826394,1000,1000,1000,1000,,,,,
54828893,1000,1000,1000,1000,,,,,
54831392,1000,1000,1000,1000,,,,,
54833891,1000,1000,1000,1000,,,,,
54836390,1000,1000,1000,1000,,,,,
54838889,1000,1000,1000,1000,,,,,
54841388,1000,1000,1000,1000,,,,,
54843887,1000,1000,1000,1000,,,,,
54846386,1000,1000,1000,1000,,,,,
54848885,1000,1000,1000,1000,,,,,
54851384,1000,1000,1000,1000,,,,,
54853883,1000,1000,1000,1000,,,,,
54856382,1000,1000,1000,1000,,,,,
54858881,1000,1000,1000,1000,,,,,
54861380,1000,1000,1000,1000,,,,,
54863879,1000,1000,1000,1000,,,,,
54866378,1000,1000,1000,1000,,,,,
54868877,1000,1000,1000,1000,,,,,
54871376,1000,1000,1000,1000,,,,,
54873875,1000,1000,1000,1000,,,,,
54876374,1000,1000,1000,1000,,,,,
54878873,1000,1000,1000,1000,,,,,
54881372,1000,1000,1000,1000,,,,,
54883871,1000,1000,1000,1000,,,,,
54886370,1000,1000,1000,1000,,,,,
54888869,1000,1000,1000,1000,,,,,
54891368,1000,1000,1000,1000,,,,,
54893867,1000,1000,1000,1000,,,,,
54896366,1000,1000,1000,1000,,,,,
54898865,1000,1000,1000,1000,,,,,
54901364,1000,1000,1000,1000,,,,,
54903863,1000,1000,1000,1000,,,,,
54906362,1000,1000,1000,1000,,,,,
54908861,1000,1000,1000,1000,,,,,
54911360,1000,1000,1000,1000,,,,,
54913859,1000,1000,1000,1000,,,,,
54916358,1000,1000,1000,1000,,,,,
54918857,1000,1000,1000,1000,,,,,
54921356,1000,1000,1000,1000,,,,,
54923855,1000,1000,1000,1000,,,,,
54926354,1000,1000,1000,1000,,,,,
54928853,1000,1000,1000,1000,,,,,
54931352,1000,1000,1000,1000,,,,,
54933851,1000,1000,1000,1000,,,,,
54936350,1000,1000,1000,1000,,,,,
54938849,1000,1000,1000,1000,,,,,
54941348,1000,1000,1000,1000,,,,,
54943847,1000,1000,1000,1000,,,,,
54946346,1000,1000,1000,1000,,,,,
54948845,1000,1000,1000,1000,,,,,
54951344,1000,1000,1000,1000,,,,,
54953843,1000,1000,1000,1000,,,,,
54956342,1000,1000,1000,1000,,,,,
54958841,1000,1000,1000,1000,,,,,
54961340,1000,1000,1000,1000,,,,,
54963839,1000,1000,1000,1000,,,,,
54966338,1000,1000,1000,1000,,,,,
54968837,1000,1000,1000,1000,,,,,
54971336,1000,1000,1000,1000,,,,,
54973835,1000,1000,1000,1000,,,,,
54976334,1000,1000,1000,1000,,,,,
54978833,1000,1000,1000,1000,,,,,
54981332,1000,1000,1000,1000,,,,,
54983831,1000,1000,1000,1000,,,,,
54986330,1000,1000,1000,1000,,,,,
54988829,1000,1000,1000,1000,,,,,
54991328,1000,1000,1000,1000,,,,,
54993827,1000,1000,1000,1000,,,,,
54996326,1000,1000,1000,1000,,,,,
54998825,1000,1000,1000,1000,,,,,
55001324,1000,1000,1000,1000,,,,,
55003823,1000,1000,1000,1000,,,,,
55006322,1000,1000,1000,1000,,,,,
55008821,1000,1000,1000,1000,,,,,
55011320,1000,1000,1000,1000,,,,,
55013819,1000,1000,1000,1000,,,,,
55016318,1000,1000,1000,1000,,,,,
55018817,1000,1000,1000,1000,,,,,
55021316,1000,1000,1000,1000,,,,,
55023815,1000,1000,1000,1000,,,,,
55026314,1000,1000,1000,1000,,,,,
55028813,1000,1000,1000,1000,,,,,
55031312,1000,1000,1000,1000,,,,,
55033811,1000,1000,1000,1000,,,,,
55036310,1000,1000,1000,1000,,,,,
55038809,1000,1000,1000,1000,,,,,
55041308,1000,1000,1000,1000,,,,,
55043807,1000,1000,1000,1000,,,,,
55046306,1000,1000,1000,1000,,,,,
55048805,1000,1000,1000,1000,,,,,
55051304,1000,1000,1000,1000,,,,,
55053803,1000,1000,1000,1000,,,,,
55056302,1000,1000,1000,1000,,,,,
55058801,1000,1000,1000,1000,,,,,
55061300,1000,1000,1000,1000,,,,,
55063799,1000,1000,1000,1000,,,,,
55066298,1000,1000,1000,1000,,,,,
55068797,1000,1000,1000,1000,,,,,
55071296,1000,1000,1000,1000,,,,,
55073795,1000,1000,1000,1000,,,,,
55076294,1000,1000,1000,1000,,,,,
55078793,1000,1000,1000,1000,,,,,
55081292,1000,1000,1000,1000,,,,,
55083791,1000,1000,1000,1000,,,,,
55086290,1000,1000,1000,1000,,,,,
55088789,1000,1000,1000,1000,,,,,
55091288,1000,1000,1000,1000,,,,,
55093787,1000,1000,1000,1000,,,,,
55096286,1000,1000,1000,1000,,,,,
55098785,1000,1000,1000,1000,,,,,
55101284,1000,1000,1000,1000,,,,,
55103783,1000,1000,1000,1000,,,,,
55106282,1000,1000,1000,1000,,,,,
55108781,1000,1000,1000,1000,,,,,
55111280,1000,1000,1000,1000,,,,,
55113779,1000,1000,1000,1000,,,,,
55116278,1000,1000,1000,1000,,,,,
55118777,1000,1000,1000,1000,,,,,
55121276,1000,1000,1000,1000,,,,,
55123775,1000,1000,1000,1000,,,,,
55126274,1000,1000,1000,1000,,,,,
55128773,1000,1000,1000,1000,,,,,
55131272,1000,1000,1000,1000,,,,,
55133771,1000,1000,1000,1000,,,,,
55136270,1000,1000,1000,1000,,,,,
55138769,1000,1000,1000,1000,,,,,
55141268,1000,1000,1000,1000,,,,,
55143767,1000,1000,1000,1000,,,,,
55146266,1000,1000,1000,1000,,,,,
55148765,1000,1000,1000,1000,,,,,
55151264,1000,1000,1000,1000,,,,,
55153763,1000,1000,1000,1000,,,,,
55156262,1000,1000,1000,1000,,,,,
55158761,1000,1000,1000,1000,,,,,
55161260,1000,1000,1000,1000,,,,,
55163759,1000,1000,1000,1000,,,,,
55166258,1000,1000,1000,1000,,,,,
55168757,1000,1000,1000,1000,,,,,
55171256,1000,1000,1000,1000,,,,,
55173755,1000,1000,1000,1000,,,,,
55176254,1000,1000,1000,1000,,,,,
55178753,1000,1000,1000,1000,,,,,
55181252,1000,1000,1000,1000,,,,,
55183751,1000,1000,1000,1000,,,,,
55186250,1000,1000,1000,1000,,,,,
55188749,1001,1001,1001,1001,,,,,
55191248,1002,1002,1002,1002,,,,,
55193747,1003,1003,1003,1003,,,,,
55196246,1003,1003,1003,1003,,,,,
55198745,1004,1004,1004,1004,,,,,
55201244,1005,1005,1005,1005,,,,,
55203743,1006,1006,1006,1006,,,,,
55206242,1006,1006,1006,1006,,,,,
55208741,1007,1007,1007,1007,,,,,
55211240,1008,1008,1008,1008,,,,,
55213739,1009,1009,1009,1009,,,,,
55216238,1009,1009,1009,1009,,,,,
55218737,1010,1010,1010,1010,,,,,
55221236,1011,1011,1011,1011,,,,,
55223735,1012,1012,1012,1012,,,,,
55226234,1012,1012,1012,1012,,,,,
55228733,1013,1013,1013,1013,,,,,
55231232,1014,1014,1014,1014,,,,,
55233731,1015,1015,1015,1015,,,,,
55236230,1015,1015,1015,1015,,,,,
55238729,1016,1016,1016,1016,,,,,
55241228,1017,1017,1017,1017,,,,,
55243727,1018,1018,1018,1018,,,,,
55246226,1018,1018,1018,1018,,,,,
55248725,1019,1019,1019,1019,,,,,
55251224,1020,1020,1020,1020,,,,,
55253723,1021,1021,1021,1021,,,,,
55256222,1021,1021,1021,1021,,,,,
55258721,1022,1022,1022,1022,,,,,
55261220,1023,1023,1023,1023,,,,,
55263719,1024,1024,1024,1024,,,,,
55266218,1024,1024,1024,1024,,,,,
55268717,1025,1025,1025,1025,,,,,
55271216,1026,1026,1026,1026,,,,,
55273715,1027,1027,1027,1027,,,,,
55276214,1027,1027,1027,1027,,,,,
55278713,1028,1028,1028,1028,,,,,
55281212,1029,1029,1029,1029,,,,,
55283711,1030,1030,1030,1030,,,,,
55286210,1030,1030,1030,1030,,,,,
55288709,1031,1031,1031,1031,,,,,
55291208,1032,1032,1032,1032,,,,,
55293707,1033,1033,1033,1033,,,,,
55296206,1033,1033,1033,1033,,,,,
55298705,1034,1034,1034,1034,,,,,
55301204,1035,1035,1035,1035,,,,,
55303703,1036,1036,1036,1036,,,,,
55306202,1036,1036,1036,1036,,,,,
55308701,1037,1037,1037,1037,,,,,
55311200,1038,1038,1038,1038,,,,,
55313699,1039,1039,1039,1039,,,,,
55316198,1039,1039,1039,1039,,,,,
55318697,1040,1040,1040,1040,,,,,
55321196,1041,1041,1041,1041,,,,,
55323695,1042,1042,1042,1042,,,,,
55326194,1042,1042,1042,1042,,,,,
55328693,1043,1043,1043,1043,,,,,
55331192,1044,1044,1044,1044,,,,,
55333691,1045,1045,1045,1045,,,,,
55336190,1045,1045,1045,1045,,,,,
55338689,1046,1046,1046,1046,,,,,
55341188,1047,1047,1047,1047,,,,,
55343687,1048,1048,1048,1048,,,,,
55346186,1048,1048,1048,1048,,,,,
55348685,1049,1049,1049,1049,,,,,
55351184,1050,1050,1050,1050,,,,,
55353683,1051,1051,1051,1051,,,,,
55356182,1051,1051,1051,1051,,,,,
55358681,1052,1052,1052,1052,,,,,
55361180,1053,1053,1053,1053,,,,,
55363679,1054,1054,1054,1054,,,,,
55366178,1054,1054,1054,1054,,,,,
55368677,1055,1055,1055,1055,,,,,
55371176,1056,1056,1056,1056,,,,,
55373675,1057,1057,1057,1057,,,,,
55376174,1057,1057,1057,1057,,,,,
55378673,1058,1058,1058,1058,,,,,
55381172,1059,1059,1059,1059,,,,,
55383671,1060,1060,1060,1060,,,,,
55386170,1060,1060,1060,1060,,,,,
55388669,1061,1061,1061,1061,,,,,
55391168,1062,1062,1062,1062,,,,,
55393667,1063,1063,1063,1063,,,,,
55396166,1063,1063,1063,1063,,,,,
55398665,1064,1064,1064,1064,,,,,
55401164,1065,1065,1065,1065,,,,,
55403663,1066,1066,1066,1066,,,,,
55406162,1066,1066,1066,1066,,,,,
55408661,1067,1067,1067,1067,,,,,
55411160,1068,1068,1068,1068,,,,,
55413659,1069,1069,1069,1069,,,,,
55416158,1069,1069,1069,1069,,,,,
55418657,1070,1070,1070,1070,,,,,
55421156,1071,1071,1071,1071,,,,,
55423655,1072,1072,1072,1072,,,,,
55426154,1072,1072,1072,1072,,,,,
55428653,1073,1073,1073,1073,,,,,
55431152,1074,1074,1074,1074,,,,,
55433651,1075,1075,1075,1075,,,,,
55436150,1075,1075,1075,1075,,,,,
55438649,1076,1076,1076,1076,,,,,
55441148,1077,1077,1077,1077,,,,,
55443647,1078,1078,1078,1078,,,,,
55446146,1078,1078,1078,1078,,,,,
55448645,1079,1079,1079,1079,,,,,
55451144,1080,1080,1080,1080,,,,,
55453643,1081,1081,1081,1081,,,,,
55456142,1081,1081,1081,1081,,,,,
55458641,1082,1082,1082,1082,,,,,
55461140,1083,1083,1083,1083,,,,,
55463639,1084,1084,1084,1084,,,,,
55466138,1084,1084,1084,1084,,,,,
55468637,1085,1085,1085,1085,,,,,
55471136,1086,1086,1086,1086,,,,,
55473635,1087,1087,1087,1087,,,,,
55476134,1087,1087,1087,1087,,,,,
55478633,1088,1088,1088,1088,,,,,
55481132,1089,1089,1089,1089,,,,,
55483631,1090,1090,1090,1090,,,,,
55486130,1090,1090,1090,1090,,,,,
55488629,1091,1091,1091,1091,,,,,
55491128,1092,1092,1092,1092,,,,,
55493627,1093,1093,1093,1093,,,,,
55496126,1093,1093,1093,1093,,,,,
55498625,1094,1094,1094,1094,,,,,
55501124,1095,1095,1095,1095,,,,,
55503623,1096,1096,1096,1096,,,,,
55506122,1096,1096,1096,1096,,,,,
55508621,1097,1097,1097,1097,,,,,
55511120,1098,1098,1098,1098,,,,,
55513619,1099,1099,1099,1099,,,,,
55516118,1099,1099,1099,1099,,,,,
55518617,1100,1100,1100,1100,,,,,
55521116,1101,1101,1101,1101,,,,,
55523615,1101,1101,1101,1101,,,,,
55526114,1102,1102,1102,1102,,,,,
55528613,1103,1103,1103,1103,,,,,
55531112,1104,1104,1104,1104,,,,,
55533611,1104,1104,1104,1104,,,,,
55536110,1105,1105,1105,1105,,,,,
55538609,1106,1106,1106,1106,,,,,
55541108,1107,1107,1107,1107,,,,,
55543607,1107,1107,1107,1107,,,,,
55546106,1108,1108,1108,1108,,,,,
55548605,1109,1109,1109,1109,,,,,
55551104,1110,1110,1110,1110,,,,,
55553603,1110,1110,1110,1110,,,,,
55556102,1111,1111,1111,1111,,,,,
55558601,1112,1112,1112,1112,,,,,
55561100,1113,1113,1113,1113,,,,,
55563599,1113,1113,1113,1113,,,,,
55566098,1114,1114,1114,1114,,,,,
55568597,1115,1115,1115,1115,,,,,
55571096,1116,1116,1116,1116,,,,,
55573595,1116,1116,1116,1116,,,,,
55576094,1117,1117,1117,1117,,,,,
55578593,1118,1118,1118,1118,,,,,
55581092,1119,1119,1119,1119,,,,,
55583591,1119,1119,1119,1119,,,,,
55586090,1120,1120,1120,1120,,,,,
55588589,1121,1121,1121,1121,,,,,
55591088,1122,1122,1122,1122,,,,,
55593587,1122,1122,1122,1122,,,,,
55596086,1123,1123,1123,1123,,,,,
55598585,1124,1124,1124,1124,,,,,
55601084,1125,1125,1125,1125,,,,,
55603583,1125,1125,1125,1125,,,,,
55606082,1126,1126,1126,1126,,,,,
55608581,1127,1127,1127,1127,,,,,
55611080,1128,1128,1128,1128,,,,,
55613579,1128,1128,1128,1128,,,,,
55616078,1129,1129,1129,1129,,,,,
55618577,1130,1130,1130,1130,,,,,
55621076,1131,1131,1131,1131,,,,,
55623575,1131,1131,1131,1131,,,,,
55626074,1132,1132,1132,1132,,,,,
55628573,1133,1133,1133,1133,,,,,
55631072,1134,1134,1134,1134,,,,,
55633571,1134,1134,1134,1134,,,,,
55636070,1135,1135,1135,1135,,,,,
55638569,1136,1136,1136,1136,,,,,
55641068,1137,1137,1137,1137,,,,,
55643567,1137,1137,1137,1137,,,,,
55646066,1138,1138,1138,1138,,,,,
55648565,1139,1139,1139,1139,,,,,
55651064,1140,1140,1140,1140,,,,,
55653563,1140,1140,1140,1140,,,,,
55656062,1141,1141,1141,1141,,,,,
55658561,1142,1142,1142,1142,,,,,
55661060,1143,1143,1143,1143,,,,,
55663559,1143,1143,1143,1143,,,,,
55666058,1144,1144,1144,1144,,,,,
55668557,1145,1145,1145,1145,,,,,
55671056,1146,1146,1146,1146,,,,,
55673555,1146,1146,1146,1146,,,,,
55676054,1147,1147,1147,1147,,,,,
55678553,1148,1148,1148,1148,,,,,
55681052,1149,1149,1149,1149,,,,,
55683551,1149,1149,1149,1149,,,,,
55686050,1150,1150,1150,1150,,,,,
55688549,1162,1153,1154,1162,,,,,
55691048,1170,1161,1162,1170,,,,,
55693547,1177,1169,1170,1178,,,,,
55696046,1185,1177,1178,1185,,,,,
55698545,1193,1185,1186,1193,,,,,
55701044,1200,1192,1193,1200,,,,,
55703543,1207,1200,1201,1208,,,,,
55706042,1215,1207,1208,1215,,,,,
55708541,1222,1214,1215,1222,,,,,
55711040,1229,1221,1222,1229,,,,,
55713539,1236,1228,1229,1236,,,,,
55716038,1242,1235,1236,1243,,,,,
55718537,1249,1242,1243,1249,,,,,
55721036,1256,1249,1249,1256,,,,,
55723535,1262,1255,1256,1262,,,,,
55726034,1269,1262,1262,1269,,,,,
55728533,1275,1268,1269,1275,,,,,
55731032,1281,1275,1275,1282,,,,,
55733531,1288,1281,1281,1288,,,,,
55736030,1294,1287,1288,1294,,,,,
55738529,1300,1293,1294,1300,,,,,
55741028,1306,1299,1300,1306,,,,,
55743527,1312,1305,1306,1312,,,,,
55746026,1318,1311,1312,1318,,,,,
55748525,1323,1317,1318,1324,,,,,
55751024,1329,1323,1323,1329,,,,,
55753523,1335,1329,1329,1335,,,,,
55756022,1341,1334,1335,1341,,,,,
55758521,1346,1340,1341,1346,,,,,
55761020,1352,1346,1346,1352,,,,,
55763519,1357,1351,1352,1357,,,,,
55766018,1363,1357,1357,1363,,,,,
55768517,1368,1362,1363,1368,,,,,
55771016,1373,1367,1368,1373,,,,,
55773515,1379,1373,1373,1379,,,,,
55776014,1384,1378,1379,1384,,,,,
55778513,1389,1383,1384,1389,,,,,
55781012,1394,1389,1389,1394,,,,,
55783511,1399,1394,1394,1400,,,,,
55786010,1404,1399,1399,1405,,,,,
55788509,1410,1404,1404,1410,,,,,
55791008,1415,1409,1410,1415,,,,,
55793507,1420,1414,1415,1420,,,,,
55796006,1424,1419,1420,1425,,,,,
55798505,1429,1424,1424,1429,,,,,
55801004,1434,1429,1429,1434,,,,,
55803503,1439,1434,1434,1439,,,,,
55806002,1444,1439,1439,1444,,,,,
55808501,1449,1443,1444,1449,,,,,
55811000,1453,1448,1449,1453,,,,,
55813499,1458,1453,1453,1458,,,,,
55815998,1463,1458,1458,1463,,,,,
55818497,1467,1462,1463,1467,,,,,
55820996,1472,1467,1467,1472,,,,,
55823495,1477,1471,1472,1477,,,,,
55825994,1481,1476,1476,1481,,,,,
55828493,1486,1481,1481,1486,,,,,
55830992,1490,1485,1486,1490,,,,,
55833491,1495,1490,1490,1495,,,,,
55835990,1499,1494,1494,1499,,,,,
55838489,1504,1498,1499,1504,,,,,
55840988,1508,1503,1503,1508,,,,,
55843487,1512,1507,1508,1512,,,,,
55845986,1517,1512,1512,1517,,,,,
55848485,1521,1516,1516,1521,,,,,
55850984,1525,1520,1521,1525,,,,,
55853483,1530,1524,1525,1530,,,,,
55855982,1534,1529,1529,1534,,,,,
55858481,1538,1533,1533,1538,,,,,
55860980,1542,1537,1538,1542,,,,,
55863479,1547,1541,1542,1547,,,,,
55865978,1551,1546,1546,1551,,,,,
55868477,1555,1550,1550,1555,,,,,
55870976,1559,1554,1554,1559,,,,,
55873475,1563,1558,1558,1563,,,,,
55875974,1567,1562,1563,1567,,,,,
55878473,1571,1566,1567,1571,,,,,
55880972,1575,1570,1571,1575,,,,,
55883471,1579,1574,1575,1579,,,,,
55885970,1583,1578,1579,1583,,,,,
55888469,1587,1582,1583,1587,,,,,
55890968,1591,1586,1587,1591,,,,,
55893467,1595,1590,1590,1595,,,,,
55895966,1599,1594,1594,1599,,,,,
55898465,1603,1598,1598,1603,,,,,
55900964,1607,1602,1602,1607,,,,,
55903463,1611,1606,1606,1611,,,,,
55905962,1614,1610,1610,1615,,,,,
55908461,1618,1613,1614,1619,,,,,
55910960,1622,1617,1618,1622,,,,,
55913459,1626,1621,1621,1626,,,,,
55915958,1630,1625,1625,1630,,,,,
55918457,1633,1629,1629,1634,,,,,
55920956,1637,1632,1633,1637,,,,,
55923455,1641,1636,1636,1641,,,,,
55925954,1645,1640,1640,1645,,,,,
55928453,1648,1644,1644,1649,,,,,
55930952,1652,1647,1648,1652,,,,,
55933451,1656,1651,1651,1656,,,,,
55935950,1659,1655,1655,1660,,,,,
55938449,1663,1658,1659,1663,,,,,
55940948,1667,1662,1662,1667,,,,,
55943447,1670,1666,1666,1670,,,,,
55945946,1674,1669,1670,1674,,,,,
55948445,1678,1673,1673,1678,,,,,
55950944,1681,1676,1677,1681,,,,,
55953443,1685,1680,1680,1685,,,,,
55955942,1688,1683,1684,1688,,,,,
55958441,1692,1687,1687,1692,,,,,
55960940,1695,1690,1691,1695,,,,,
55963439,1699,1694,1694,1699,,,,,
55965938,1702,1697,1698,1702,,,,,
55968437,1706,1701,1701,1706,,,,,
55970936,1709,1704,1705,1709,,,,,
55973435,1713,1708,1708,1713,,,,,
55975934,1716,1711,1712,1716,,,,,
55978433,1720,1715,1715,1720,,,,,
55980932,1723,1718,1719,1723,,,,,
55983431,1727,1722,1722,1726,,,,,
55985930,1730,1725,1726,1730,,,,,
55988429,1733,1728,1729,1733,,,,,
55990928,1737,1732,1732,1737,,,,,
55993427,1740,1735,1736,1740,,,,,
55995926,1744,1738,1739,1743,,,,,
55998425,1747,1742,1742,1747,,,,,
56000924,1750,1745,1746,1750,,,,,
56003423,1754,1748,1749,1753,,,,,
56005922,1757,1752,1752,1757,,,,,
56008421,1760,1755,1756,1760,,,,,
56010920,1763,1758,1759,1763,,,,,
56013419,1767,1761,1762,1767,,,,,
56015918,1770,1765,1765,1770,,,,,
56018417,1773,1768,1769,1773,,,,,
56020916,1777,1771,1772,1776,,,,,
56023415,1780,1774,1775,1780,,,,,
56025914,1783,1778,1778,1783,,,,,
56028413,1786,1781,1782,1786,,,,,
56030912,1789,1784,1785,1789,,,,,
56033411,1793,1787,1788,1792,,,,,
56035910,1796,1791,1791,1796,,,,,
56038409,1799,1794,1794,1799,,,,,
56040908,1802,1797,1798,1802,,,,,
56043407,1805,1800,1801,1805,,,,,
56045906,1808,1803,1804,1808,,,,,
56048405,1812,1806,1807,1811,,,,,
56050904,1815,1809,1810,1814,,,,,
56053403,1818,1813,1813,1817,,,,,
56055902,1821,1816,1816,1821,,,,,
56058401,1824,1819,1820,1824,,,,,
56060900,1827,1822,1823,1827,,,,,
56063399,1830,1825,1826,1830,,,,,
56065898,1833,1828,1829,1833,,,,,
56068397,1836,1831,1832,1836,,,,,
56070896,1839,1834,1835,1839,,,,,
56073395,1842,1837,1838,1842,,,,,
56075894,1845,1840,1841,1845,,,,,
56078393,1848,1843,1844,1848,,,,,
56080892,1851,1846,1847,1851,,,,,
56083391,1854,1849,1850,1854,,,,,
56085890,1857,1852,1853,1857,,,,,
56088389,1860,1855,1856,1860,,,,,
56090888,1863,1858,1859,1863,,,,,
56093387,1866,1861,1862,1866,,,,,
56095886,1869,1864,1865,1869,,,,,
56098385,1872,1867,1868,1872,,,,,
56100884,1875,1870,1871,1875,,,,,
56103383,1874,1869,1870,1874,,,,,
56105882,1873,1868,1869,1872,,,,,
56108381,1872,1867,1868,1871,,,,,
56110880,1871,1866,1866,1870,,,,,
56113379,1869,1865,1865,1869,,,,,
56115878,1868,1863,1864,1868,,,,,
56118377,1867,1862,1863,1867,,,,,
56120876,1866,1861,1862,1866,,,,,
56123375,1865,1860,1861,1865,,,,,
56125874,1864,1860,1860,1864,,,,,
56128373,1864,1859,1860,1863,,,,,
56130872,1863,1858,1859,1863,,,,,
56133371,1862,1858,1858,1862,,,,,
56135870,1862,1857,1858,1862,,,,,
56138369,1862,1857,1857,1861,,,,,
56140868,1861,1856,1857,1861,,,,,
56143367,1861,1856,1857,1861,,,,,
56145866,1861,1856,1857,1860,,,,,
56148365,1861,1856,1857,1860,,,,,
56150864,1861,1856,1857,1860,,,,,
56153363,1861,1856,1857,1861,,,,,
56155862,1861,1856,1857,1861,,,,,
56158361,1861,1856,1857,1861,,,,,
56160860,1862,1857,1857,1861,,,,,
56163359,1862,1857,1858,1862,,,,,
56165858,1862,1857,1858,1862,,,,,
56168357,1863,1858,1859,1863,,,,,
56170856,1863,1858,1859,1863,,,,,
56173355,1864,1859,1860,1864,,,,,
56175854,1864,1859,1860,1864,,,,,
56178353,1865,1860,1861,1865,,,,,
56180852,1866,1861,1861,1865,,,,,
56183351,1866,1861,1862,1866,,,,,
56185850,1867,1862,1863,1867,,,,,
56188349,1868,1863,1863,1867,,,,,
56190848,1868,1864,1864,1868,,,,,
56193347,1869,1864,1865,1869,,,,,
56195846,1869,1865,1866,1869,,,,,
56198345,1869,1866,1866,1870,,,,,
56200844,1870,1866,1866,1870,,,,,
56203343,1870,1866,1867,1870,,,,,
56205842,1870,1867,1867,1870,,,,,
56208341,1870,1866,1867,1870,,,,,
56210840,1869,1866,1866,1870,,,,,
56213339,1869,1866,1866,1869,,,,,
56215838,1868,1865,1865,1868,,,,,
56218337,1867,1864,1864,1867,,,,,
56220836,1866,1863,1863,1866,,,,,
56223335,1865,1862,1862,1865,,,,,
56225834,1863,1861,1861,1864,,,,,
56228333,1862,1859,1859,1862,,,,,
56230832,1860,1857,1858,1860,,,,,
56233331,1858,1856,1856,1859,,,,,
56235830,1856,1854,1854,1857,,,,,
56238329,1854,1852,1852,1854,,,,,
56240828,1852,1849,1850,1852,,,,,
56243327,1850,1847,1847,1850,,,,,
56245826,1847,1845,1845,1847,,,,,
56248325,1845,1842,1842,1845,,,,,
56250824,1842,1840,1840,1842,,,,,
56253323,1840,1837,1837,1840,,,,,
56255822,1837,1834,1835,1837,,,,,
56258321,1834,1832,1832,1834,,,,,
56260820,1831,1829,1829,1831,,,,,
56263319,1828,1826,1826,1828,,,,,
56265818,1825,1823,1823,1825,,,,,
56268317,1822,1820,1820,1822,,,,,
56270816,1819,1817,1817,1819,,,,,
56273315,1816,1813,1814,1816,,,,,
56275814,1812,1810,1810,1812,,,,,
56278313,1809,1807,1807,1809,,,,,
56280812,1806,1803,1804,1806,,,,,
56283311,1802,1800,1800,1802,,,,,
56285810,1799,1797,1797,1799,,,,,
56288309,1795,1793,1794,1795,,,,,
56290808,1792,1790,1790,1792,,,,,
56293307,1788,1786,1787,1788,,,,,
56295806,1785,1783,1783,1785,,,,,
56298305,1781,1779,1780,1781,,,,,
56300804,1778,1776,1776,1778,,,,,
56303303,1774,1772,1773,1774,,,,,
56305802,1771,1769,1770,1771,,,,,
56308301,1767,1766,1766,1767,,,,,
56310800,1764,1762,1763,1764,,,,,
56313299,1760,1759,1759,1760,,,,,
56315798,1757,1755,1756,1757,,,,,
56318297,1754,1752,1753,1754,,,,,
56320796,1750,1749,1749,1750,,,,,
56323295,1747,1746,1746,1747,,,,,
56325794,1744,1742,1743,1744,,,,,
56328293,1740,1739,1740,1740,,,,,
56330792,1737,1736,1736,1737,,,,,
56333291,1734,1733,1733,1734,,,,,
56335790,1730,1729,1730,1731,,,,,
56338289,1727,1726,1727,1727,,,,,
56340788,1724,1723,1724,1724,,,,,
56343287,1721,1720,1720,1721,,,,,
56345786,1718,1717,1717,1718,,,,,
56348285,1715,1714,1714,1715,,,,,
56350784,1712,1711,1711,1712,,,,,
56353283,1708,1708,1708,1709,,,,,
56355782,1705,1705,1705,1706,,,,,
56358281,1702,1702,1703,1703,,,,,
56360780,1700,1700,1700,1700,,,,,
56363279,1697,1697,1697,1697,,,,,
56365778,1694,1694,1694,1694,,,,,
56368277,1691,1691,1691,1691,,,,,
56370776,1688,1689,1689,1689,,,,,
56373275,1686,1686,1686,1686,,,,,
56375774,1683,1683,1684,1683,,,,,
56378273,1680,1681,1681,1681,,,,,
56380772,1678,1678,1679,1678,,,,,
56383271,1675,1676,1676,1675,,,,,
56385770,1673,1673,1674,1673,,,,,
56388269,1670,1671,1671,1671,,,,,
56390768,1668,1669,1669,1668,,,,,
56393267,1666,1666,1667,1666,,,,,
56395766,1663,1664,1664,1664,,,,,
56398265,1661,1662,1662,1661,,,,,
56400764,1659,1660,1660,1659,,,,,
56403263,1657,1658,1658,1657,,,,,
56405762,1654,1655,1656,1655,,,,,
56408261,1652,1653,1654,1653,,,,,
56410760,1650,1651,1652,1651,,,,,
56413259,1648,1649,1650,1649,,,,,
56415758,1646,1648,1648,1647,,,,,
56418257,1644,1646,1646,1645,,,,,
56420756,1643,1644,1644,1643,,,,,
56423255,1641,1642,1642,1641,,,,,
56425754,1639,1641,1641,1640,,,,,
56428253,1638,1639,1639,1638,,,,,
56430752,1636,1638,1638,1636,,,,,
56433251,1635,1636,1636,1635,,,,,
56435750,1633,1635,1635,1633,,,,,
56438249,1632,1633,1633,1632,,,,,
56440748,1630,1632,1632,1631,,,,,
56443247,1629,1631,1631,1629,,,,,
