TimeUS,M1,M2,M3,M4,TimeUS,C1,C2,C3,C4
76373605,1000,1000,1000,1000,76428583,1000,1000,1000,1000
76376104,1000,1000,1000,1000,76528543,1000,1000,1000,1000
76378603,1000,1000,1000,1000,76628503,1000,1000,1000,1000
76381102,1000,1000,1000,1000,76728463,1000,1000,1000,1000
76383601,1000,1000,1000,1000,76828423,1000,1000,1000,1000
76386100,1000,1000,1000,1000,76928383,1000,1000,1000,1000
76388599,1000,1000,1000,1000,77028343,1000,1000,1000,1000
76391098,1000,1000,1000,1000,77128303,1000,1000,1000,1000
76393597,1000,1000,1000,1000,77228263,1000,1000,1000,1000
76396096,1000,1000,1000,1000,77328223,1000,1000,1000,1000
76398595,1000,1000,1000,1000,77428183,1000,1000,1000,1000
76401094,1000,1000,1000,1000,77528976,1000,1000,1000,1000
76403593,1000,1000,1000,1000,77628936,1000,1000,1000,1000
76406092,1000,1000,1000,1000,77728896,1000,1000,1000,1000
76408591,1000,1000,1000,1000,77828856,1000,1000,1000,1000
76411090,1000,1000,1000,1000,77928816,1000,1000,1000,1000
76413589,1000,1000,1000,1000,78028776,1000,1000,1000,1000
76416088,1000,1000,1000,1000,78128736,1000,1000,1000,1000
76418587,1000,1000,1000,1000,78228696,1000,1000,1000,1000
76421086,1000,1000,1000,1000,78328656,1000,1000,1000,1000
76423585,1000,1000,1000,1000,78428616,1016,1016,1016,1016
76426084,1000,1000,1000,1000,78528576,1046,1046,1046,1046
76428583,1000,1000,1000,1000,78628536,1076,1076,1076,1076
76431082,1000,1000,1000,1000,78728496,1106,1106,1106,1106
76433581,1000,1000,1000,1000,78828456,1136,1136,1136,1136
76436080,1000,1000,1000,1000,78928416,1301,1292,1292,1302
76438579,1000,1000,1000,1000,79028376,1505,1497,1498,1505
76441078,1000,1000,1000,1000,79128336,1664,1657,1658,1664
76443577,1000,1000,1000,1000,79228296,1800,1793,1793,1800
76446076,1000,1000,1000,1000,79328256,1896,1890,1890,1897
76448575,1000,1000,1000,1000,79428216,1867,1863,1863,1867
76451074,1000,1000,1000,1000,79528176,1736,1736,1736,1737
76453573,1000,1000,1000,1000,79628969,1644,1646,1646,1644
76456072,1000,1000,1000,1000,79728929,1619,1622,1622,1620
76458571,1000,1000,1000,1000,79828889,1627,1630,1630,1628
76461070,1000,1000,1000,1000,79928849,1627,1628,1623,1633
76463569,1000,1000,1000,1000,80028809,1624,1627,1620,1630
76466068,1000,1000,1000,1000,80128769,1618,1620,1617,1621
76468567,1000,1000,1000,1000,80228729,1615,1615,1616,1614
76471066,1000,1000,1000,1000,80328689,1613,1612,1616,1610
76473565,1000,1000,1000,1000,80428649,1614,1613,1617,1610
76476064,1000,1000,1000,1000,80528609,1616,1615,1618,1612
76478563,1000,1000,1000,1000,80628569,1618,1617,1619,1616
76481062,1000,1000,1000,1000,80728529,1599,1599,1603,1594
76483561,1000,1000,1000,1000,80828489,1578,1580,1586,1572
76486060,1000,1000,1000,1000,80928449,1566,1567,1569,1564
76488559,1000,1000,1000,1000,81028409,1556,1556,1554,1558
76491058,1000,1000,1000,1000,81128369,1548,1548,1539,1557
76493557,1000,1000,1000,1000,81228329,1540,1539,1530,1549
76496056,1000,1000,1000,1000,81328289,1535,1534,1528,1541
76498555,1000,1000,1000,1000,81428249,1529,1529,1526,1531
76501054,1000,1000,1000,1000,81528209,1527,1527,1527,1527
76503553,1000,1000,1000,1000,81628169,1527,1527,1529,1524
76506052,1000,1000,1000,1000,81728962,1529,1530,1532,1526
76508551,1000,1000,1000,1000,81828922,1533,1533,1536,1530
76511050,1000,1000,1000,1000,81928882,1538,1538,1540,1535
76513549,1000,1000,1000,1000,82028842,1541,1540,1543,1539
76516048,1000,1000,1000,1000,82128802,1544,1544,1545,1544
76518547,1000,1000,1000,1000,82228762,1547,1547,1547,1548
76521046,1000,1000,1000,1000,82328722,1549,1549,1549,1551
76523545,1000,1000,1000,1000,82428682,1551,1552,1550,1553
76526044,1000,1000,1000,1000,82528642,1555,1556,1553,1556
76528543,1000,1000,1000,1000,82628602,1559,1559,1554,1556
76531042,1000,1000,1000,1000,82728562,1560,1559,1558,1559
76533541,1000,1000,1000,1000,82828522,1559,1559,1562,1562
76536040,1000,1000,1000,1000,82928482,1559,1559,1564,1564
76538539,1000,1000,1000,1000,83028442,1560,1561,1567,1566
76541038,1000,1000,1000,1000,83128402,1563,1563,1569,1568
76543537,1000,1000,1000,1000,83228362,1564,1565,1570,1569
76546036,1000,1000,1000,1000,83328322,1567,1567,1571,1570
76548535,1000,1000,1000,1000,83428282,1569,1569,1570,1570
76551034,1000,1000,1000,1000,83528242,1571,1570,1570,1571
76553533,1000,1000,1000,1000,83628202,1572,1572,1570,1571
76556032,1000,1000,1000,1000,83728162,1573,1573,1570,1571
76558531,1000,1000,1000,1000,83828955,1574,1574,1571,1571
76561030,1000,1000,1000,1000,83928915,1575,1575,1571,1571
76563529,1000,1000,1000,1000,84028875,1576,1577,1574,1572
76566028,1000,1000,1000,1000,84128835,1577,1578,1575,1574
76568527,1000,1000,1000,1000,84228795,1578,1578,1576,1574
76571026,1000,1000,1000,1000,84328755,1577,1576,1575,1575
76573525,1000,1000,1000,1000,84428715,1576,1576,1575,1575
76576024,1000,1000,1000,1000,84528675,1576,1576,1576,1576
76578523,1000,1000,1000,1000,84628635,1576,1576,1577,1577
76581022,1000,1000,1000,1000,84728595,1576,1577,1577,1577
76583521,1000,1000,1000,1000,84828555,1576,1576,1577,1577
76586020,1000,1000,1000,1000,84928515,1575,1575,1577,1577
76588519,1000,1000,1000,1000,85028475,1576,1576,1577,1577
76591018,1000,1000,1000,1000,85128435,1576,1576,1577,1577
76593517,1000,1000,1000,1000,85228395,1576,1576,1577,1577
76596016,1000,1000,1000,1000,85328355,1577,1577,1578,1578
76598515,1000,1000,1000,1000,85428315,1576,1577,1577,1577
76601014,1000,1000,1000,1000,85528275,1578,1578,1578,1578
76603513,1000,1000,1000,1000,85628235,1578,1578,1578,1577
76606012,1000,1000,1000,1000,85728195,1578,1578,1578,1578
76608511,1000,1000,1000,1000,85828155,1578,1578,1578,1578
76611010,1000,1000,1000,1000,85928948,1579,1579,1578,1579
76613509,1000,1000,1000,1000,86028908,1579,1579,1579,1579
76616008,1000,1000,1000,1000,86128868,1580,1580,1580,1580
76618507,1000,1000,1000,1000,86228828,1580,1579,1580,1579
76621006,1000,1000,1000,1000,86328788,1578,1578,1578,1578
76623505,1000,1000,1000,1000,86428748,1579,1579,1579,1579
76626004,1000,1000,1000,1000,86528708,1579,1579,1579,1579
76628503,1000,1000,1000,1000,86628668,1579,1579,1579,1579
76631002,1000,1000,1000,1000,86728628,1580,1580,1580,1580
76633501,1000,1000,1000,1000,86828588,1579,1579,1579,1580
76636000,1000,1000,1000,1000,86928548,1579,1580,1580,1580
76638499,1000,1000,1000,1000,87028508,1579,1579,1580,1579
76640998,1000,1000,1000,1000,87128468,1580,1579,1580,1580
76643497,1000,1000,1000,1000,87228428,1580,1580,1580,1580
76645996,1000,1000,1000,1000,87328388,1580,1581,1580,1581
76648495,1000,1000,1000,1000,87428348,1581,1581,1581,1581
76650994,1000,1000,1000,1000,87528308,1580,1580,1580,1580
76653493,1000,1000,1000,1000,87628268,1581,1581,1580,1581
76655992,1000,1000,1000,1000,87728228,1580,1580,1580,1580
76658491,1000,1000,1000,1000,87828188,1580,1580,1580,1580
76660990,1000,1000,1000,1000,87928981,1579,1580,1579,1580
76663489,1000,1000,1000,1000,88028941,1580,1580,1580,1580
76665988,1000,1000,1000,1000,88128901,1580,1579,1580,1579
76668487,1000,1000,1000,1000,88228861,1581,1581,1581,1580
76670986,1000,1000,1000,1000,88328821,1580,1580,1581,1580
76673485,1000,1000,1000,1000,88428781,1580,1580,1580,1580
76675984,1000,1000,1000,1000,88528741,1580,1580,1580,1581
76678483,1000,1000,1000,1000,88628701,1581,1580,1580,1581
76680982,1000,1000,1000,1000,88728661,1581,1582,1585,1578
76683481,1000,1000,1000,1000,88828621,1581,1582,1588,1573
76685980,1000,1000,1000,1000,88928581,1580,1583,1582,1574
76688479,1000,1000,1000,1000,89028541,1578,1580,1572,1573
76690978,1000,1000,1000,1000,89128501,1578,1580,1565,1571
76693477,1000,1000,1000,1000,89228461,1577,1579,1559,1566
76695976,1000,1000,1000,1000,89328421,1578,1578,1556,1561
76698475,1000,1000,1000,1000,89428381,1580,1578,1556,1557
76700974,1000,1000,1000,1000,89528341,1580,1578,1556,1555
76703473,1000,1000,1000,1000,89628301,1580,1579,1557,1555
76705972,1000,1000,1000,1000,89728261,1579,1579,1557,1555
76708471,1000,1000,1000,1000,89828221,1576,1577,1555,1553
76710970,1000,1000,1000,1000,89928181,1576,1578,1555,1554
76713469,1000,1000,1000,1000,90028974,1575,1577,1554,1554
76715968,1000,1000,1000,1000,90128934,1576,1577,1553,1554
76718467,1000,1000,1000,1000,90228894,1576,1577,1550,1551
76720966,1000,1000,1000,1000,90328854,1578,1579,1549,1549
76723465,1000,1000,1000,1000,90428814,1580,1581,1547,1546
76725964,1000,1000,1000,1000,90528774,1582,1583,1544,1543
76728463,1000,1000,1000,1000,90628734,1585,1586,1541,1540
76730962,1000,1000,1000,1000,90728694,1589,1589,1538,1538
76733461,1000,1000,1000,1000,90828654,1591,1592,1536,1536
76735960,1000,1000,1000,1000,90928614,1593,1593,1534,1534
76738459,1000,1000,1000,1000,91028574,1595,1595,1534,1535
76740958,1000,1000,1000,1000,91128534,1596,1595,1536,1538
76743457,1000,1000,1000,1000,91228494,1594,1594,1538,1540
76745956,1000,1000,1000,1000,91328454,1590,1589,1542,1545
76748455,1000,1000,1000,1000,91428414,1585,1584,1549,1552
76750954,1000,1000,1000,1000,91528374,1577,1574,1558,1561
76753453,1000,1000,1000,1000,91628334,1568,1565,1570,1572
76755952,1000,1000,1000,1000,91728294,1558,1554,1582,1584
76758451,1000,1000,1000,1000,91828254,1547,1544,1595,1595
76760950,1000,1000,1000,1000,91928214,1537,1536,1604,1604
76763449,1000,1000,1000,1000,92028174,1532,1531,1612,1611
76765948,1000,1000,1000,1000,92128967,1530,1530,1616,1615
76768447,1000,1000,1000,1000,92228927,1531,1533,1616,1615
76770946,1000,1000,1000,1000,92328887,1534,1537,1612,1611
76773445,1000,1000,1000,1000,92428847,1541,1543,1605,1606
76775944,1000,1000,1000,1000,92528807,1549,1550,1598,1598
76778443,1000,1000,1000,1000,92628767,1558,1558,1590,1590
76780942,1000,1000,1000,1000,92728727,1566,1567,1583,1582
76783441,1000,1000,1000,1000,92828687,1574,1574,1576,1576
76785940,1000,1000,1000,1000,92928647,1581,1580,1572,1571
76788439,1000,1000,1000,1000,93028607,1585,1584,1568,1568
76790938,1000,1000,1000,1000,93128567,1587,1586,1566,1566
76793437,1000,1000,1000,1000,93228527,1587,1586,1565,1565
76795936,1000,1000,1000,1000,93328487,1587,1586,1567,1567
76798435,1000,1000,1000,1000,93428447,1584,1584,1569,1569
76800934,1000,1000,1000,1000,93528407,1582,1581,1572,1572
76803433,1000,1000,1000,1000,93628367,1578,1578,1575,1575
76805932,1000,1000,1000,1000,93728327,1576,1576,1578,1578
76808431,1000,1000,1000,1000,93828287,1442,1533,1445,1542
76810930,1000,1000,1000,1000,93928247,1582,1565,1592,1574
76813429,1000,1000,1000,1000,94028207,1589,1502,1600,1514
76815928,1000,1000,1000,1000,94128167,1593,1520,1600,1531
76818427,1000,1000,1000,1000,94228960,1600,1531,1597,1540
76820926,1000,1000,1000,1000,94328920,1600,1541,1593,1550
76823425,1000,1000,1000,1000,94428880,1600,1558,1594,1563
76825924,1000,1000,1000,1000,94528840,1599,1581,1600,1578
76828423,1000,1000,1000,1000,94628800,1592,1601,1600,1582
76830922,1000,1000,1000,1000,94728760,1600,1647,1599,1589
76833421,1000,1000,1000,1000,94828720,1600,1666,1594,1593
76835920,1000,1000,1000,1000,94928680,1591,1645,1600,1613
76838419,1000,1000,1000,1000,95028640,1558,1571,1600,1627
76840918,1000,1000,1000,1000,95128600,1517,1504,1600,1631
76843417,1000,1000,1000,1000,95228560,1489,1470,1600,1630
76845916,1000,1000,1000,1000,95328520,1475,1463,1600,1623
76848415,1000,1000,1000,1000,95428480,1474,1470,1600,1614
76850914,1000,1000,1000,1000,95528440,1481,1484,1600,1606
76853413,1000,1000,1000,1000,95628400,1494,1499,1600,1601
76855912,1000,1000,1000,1000,95728360,1510,1516,1600,1598
76858411,1000,1000,1000,1000,95828320,1530,1528,1600,1597
76860910,1000,1000,1000,1000,95928280,1547,1544,1600,1597
76863409,1000,1000,1000,1000,96028240,1564,1562,1600,1598
76865908,1000,1000,1000,1000,96128200,1583,1583,1600,1599
76868407,1000,1000,1000,1000,96228160,1600,1599,1597,1595
76870906,1000,1000,1000,1000,96328953,1600,1597,1580,1576
76873405,1000,1000,1000,1000,96428913,1600,1597,1567,1564
76875904,1000,1000,1000,1000,96528873,1600,1598,1558,1557
76878403,1000,1000,1000,1000,96628833,1600,1599,1554,1554
76880902,1000,1000,1000,1000,96728793,1600,1600,1553,1554
76883401,1000,1000,1000,1000,96828753,1600,1605,1545,1550
76885900,1000,1000,1000,1000,96928713,1600,1608,1518,1517
76888399,1000,1000,1000,1000,97028673,1600,1606,1496,1491
76890898,1000,1000,1000,1000,97128633,1600,1602,1487,1485
76893397,1000,1000,1000,1000,97228593,1600,1599,1491,1492
76895896,1000,1000,1000,1000,97328553,1600,1597,1504,1506
76898395,1000,1000,1000,1000,97428513,1600,1597,1521,1524
76900894,1000,1000,1000,1000,97528473,1600,1597,1541,1543
76903393,1000,1000,1000,1000,97628433,1600,1597,1562,1562
76905892,1000,1000,1000,1000,97728393,1600,1598,1584,1584
76908391,1000,1000,1000,1000,97828353,1593,1590,1600,1597
76910890,1000,1000,1000,1000,97928313,1574,1569,1600,1594
76913389,1000,1000,1000,1000,98028273,1560,1557,1600,1594
76915888,1000,1000,1000,1000,98128233,1551,1551,1600,1595
76918387,1000,1000,1000,1000,98228193,1543,1554,1600,1592
76920886,1000,1000,1000,1000,98328986,1545,1562,1600,1594
76923385,1000,1000,1000,1000,98428946,1552,1568,1600,1597
76925884,1000,1000,1000,1000,98528906,1563,1573,1600,1601
76928383,1000,1000,1000,1000,98628866,1575,1577,1600,1604
76930882,1000,1000,1000,1000,98728826,1586,1583,1600,1607
76933381,1000,1000,1000,1000,98828786,1595,1589,1600,1606
76935880,1000,1000,1000,1000,98928746,1600,1590,1596,1599
76938379,1000,1000,1000,1000,99028706,1600,1591,1591,1591
76940878,1000,1000,1000,1000,99128666,1600,1594,1586,1586
76943377,1000,1000,1000,1000,99228626,1600,1598,1583,1582
76945876,1000,1000,1000,1000,99328586,1600,1601,1581,1581
76948375,1000,1000,1000,1000,99428546,1600,1603,1581,1582
76950874,1000,1000,1000,1000,99528506,1600,1602,1581,1584
76953373,1000,1000,1000,1000,99628466,1600,1601,1584,1585
76955872,1000,1000,1000,1000,99728426,1600,1601,1587,1589
76958371,1000,1000,1000,1000,99828386,1600,1600,1591,1593
76960870,1000,1000,1000,1000,99928346,1600,1599,1595,1596
76963369,1000,1000,1000,1000,100028306,1600,1599,1599,1600
76965868,1000,1000,1000,1000,100128266,1597,1595,1600,1600
76968367,1000,1000,1000,1000,100228226,1594,1592,1600,1599
76970866,1000,1000,1000,1000,100328186,1593,1591,1600,1599
76973365,1000,1000,1000,1000,100428979,1591,1592,1600,1600
76975864,1000,1000,1000,1000,100528939,1592,1592,1600,1600
76978363,1000,1000,1000,1000,100628899,1592,1594,1600,1600
76980862,1000,1000,1000,1000,100728859,1594,1595,1600,1601
76983361,1000,1000,1000,1000,100828819,1595,1597,1600,1601
76985860,1000,1000,1000,1000,100928779,1597,1598,1600,1601
76988359,1000,1000,1000,1000,101028739,1599,1599,1600,1600
76990858,1000,1000,1000,1000,101128699,1600,1598,1598,1598
76993357,1000,1000,1000,1000,101228659,1600,1599,1597,1597
76995856,1000,1000,1000,1000,101328619,1600,1599,1597,1596
76998355,1000,1000,1000,1000,101428579,1600,1600,1596,1596
77000854,1000,1000,1000,1000,101528539,1600,1600,1596,1596
77003353,1000,1000,1000,1000,101628499,1600,1600,1597,1596
77005852,1000,1000,1000,1000,101728459,1600,1600,1597,1597
77008351,1000,1000,1000,1000,101828419,1600,1601,1598,1598
77010850,1000,1000,1000,1000,101928379,1599,1605,1600,1600
77013349,1000,1000,1000,1000,102028339,1596,1609,1600,1600
77015848,1000,1000,1000,1000,102128299,1596,1605,1600,1599
77018347,1000,1000,1000,1000,102228259,1589,1588,1590,1587
77020846,1000,1000,1000,1000,102328219,1577,1570,1578,1575
77023345,1000,1000,1000,1000,102428179,1565,1557,1567,1565
77025844,1000,1000,1000,1000,102528972,1556,1550,1558,1558
77028343,1000,1000,1000,1000,102628932,1547,1547,1551,1553
77030842,1000,1000,1000,1000,102728892,1544,1545,1546,1549
77033341,1000,1000,1000,1000,102828852,1541,1543,1542,1545
77035840,1000,1000,1000,1000,102928812,1541,1543,1541,1543
77038339,1000,1000,1000,1000,103028772,1541,1543,1541,1542
77040838,1000,1000,1000,1000,103128732,1544,1544,1541,1542
77043337,1000,1000,1000,1000,103228692,1546,1546,1543,1543
77045836,1000,1000,1000,1000,103328652,1549,1548,1545,1545
77048335,1000,1000,1000,1000,103428612,1556,1556,1544,1538
77050834,1000,1000,1000,1000,103528572,1583,1587,1520,1508
77053333,1000,1000,1000,1000,103628532,1600,1603,1463,1444
77055832,1000,1000,1000,1000,103728492,1600,1600,1423,1420
77058331,1000,1000,1000,1000,103828452,1600,1597,1418,1432
77060830,1000,1000,1000,1000,103928412,1600,1594,1431,1453
77063329,1000,1000,1000,1000,104028372,1600,1594,1454,1473
77065828,1000,1000,1000,1000,104128332,1600,1595,1481,1492
77068327,1000,1000,1000,1000,104228292,1600,1598,1510,1512
77070826,1000,1000,1000,1000,104328252,1600,1600,1537,1532
77073325,1000,1000,1000,1000,104428212,1600,1602,1564,1554
77075824,1000,1000,1000,1000,104528172,1600,1603,1588,1577
77078323,1000,1000,1000,1000,104628965,1586,1586,1600,1587
77080822,1000,1000,1000,1000,104728925,1567,1566,1600,1590
77083321,1000,1000,1000,1000,104828885,1541,1535,1600,1598
77085820,1000,1000,1000,1000,104928845,1484,1469,1600,1605
77088319,1000,1000,1000,1000,105028805,1436,1428,1600,1610
77090818,1000,1000,1000,1000,105128765,1414,1421,1600,1604
77093317,1000,1000,1000,1000,105228725,1412,1430,1600,1586
77095816,1000,1000,1000,1000,105328685,1434,1464,1600,1587
77098315,1000,1000,1000,1000,105428645,1471,1501,1600,1597
77100814,1000,1000,1000,1000,105528605,1512,1532,1600,1605
77103313,1000,1000,1000,1000,105628565,1553,1556,1600,1608
77105812,1000,1000,1000,1000,105728525,1590,1578,1600,1607
77108311,1000,1000,1000,1000,105828485,1600,1573,1574,1571
77110810,1000,1000,1000,1000,105928445,1600,1574,1538,1529
77113309,1000,1000,1000,1000,106028405,1600,1587,1507,1499
77115808,1000,1000,1000,1000,106128365,1600,1599,1483,1479
77118307,1000,1000,1000,1000,106228325,1600,1607,1468,1471
77120806,1000,1000,1000,1000,106328285,1600,1608,1464,1471
77123305,1000,1000,1000,1000,106428245,1600,1606,1468,1477
77125804,1000,1000,1000,1000,106528205,1600,1603,1478,1484
77128303,1000,1000,1000,1000,106628165,1600,1600,1490,1493
77130802,1000,1000,1000,1000,106728958,1600,1598,1506,1505
77133301,1000,1000,1000,1000,106828918,1600,1598,1523,1522
77135800,1000,1000,1000,1000,106928878,1600,1598,1542,1541
77138299,1000,1000,1000,1000,107028838,1600,1599,1563,1563
77140798,1000,1000,1000,1000,107128798,1600,1600,1587,1589
77143297,1000,1000,1000,1000,107228758,1588,1585,1600,1598
77145796,1000,1000,1000,1000,107328718,1566,1561,1600,1598
77148295,1000,1000,1000,1000,107428678,1546,1543,1600,1600
77150794,1000,1000,1000,1000,107528638,1530,1529,1600,1602
77153293,1000,1000,1000,1000,107628598,1519,1521,1600,1603
77155792,1000,1000,1000,1000,107728558,1515,1519,1600,1603
77158291,1000,1000,1000,1000,107828518,1517,1521,1600,1602
77160790,1000,1000,1000,1000,107928478,1523,1527,1600,1601
77163289,1000,1000,1000,1000,108028438,1532,1534,1600,1599
77165788,1000,1000,1000,1000,108128398,1543,1543,1600,1599
77168287,1000,1000,1000,1000,108228358,1555,1554,1600,1598
77170786,1000,1000,1000,1000,108328318,1567,1567,1600,1598
77173285,1000,1000,1000,1000,108428278,1572,1566,1600,1580
77175784,1000,1000,1000,1000,108528238,1579,1576,1600,1581
77178283,1000,1000,1000,1000,108628198,1593,1593,1600,1598
77180782,1000,1000,1000,1000,108728158,1600,1600,1592,1607
77183281,1000,1000,1000,1000,108828951,1600,1599,1581,1606
77185780,1000,1000,1000,1000,108928911,1600,1599,1577,1598
77188279,1000,1000,1000,1000,109028871,1600,1600,1581,1585
77190778,1000,1000,1000,1000,109128831,1600,1599,1583,1575
77193277,1000,1000,1000,1000,109228791,1600,1600,1584,1575
77195776,1000,1000,1000,1000,109328751,1600,1599,1586,1578
77198275,1000,1000,1000,1000,109428711,1600,1599,1589,1585
77200774,1000,1000,1000,1000,109528671,1600,1600,1593,1591
77203273,1000,1000,1000,1000,109628631,1600,1600,1598,1598
77205772,1000,1000,1000,1000,109728591,1597,1598,1600,1600
77208271,1000,1000,1000,1000,109828551,1593,1593,1600,1600
77210770,1000,1000,1000,1000,109928511,1590,1591,1600,1600
77213269,1000,1000,1000,1000,110028471,1589,1590,1600,1600
77215768,1000,1000,1000,1000,110128431,1588,1590,1600,1600
77218267,1000,1000,1000,1000,110228391,1589,1590,1600,1600
77220766,1000,1000,1000,1000,110328351,1590,1592,1600,1600
77223265,1000,1000,1000,1000,110428311,1593,1593,1600,1600
77225764,1000,1000,1000,1000,110528271,1595,1596,1600,1600
77228263,1000,1000,1000,1000,110628231,1598,1597,1600,1600
77230762,1000,1000,1000,1000,110728191,1600,1599,1599,1599
77233261,1000,1000,1000,1000,110828984,1600,1597,1593,1601
77235760,1000,1000,1000,1000,110928944,1600,1599,1596,1599
77238259,1000,1000,1000,1000,111028904,1590,1589,1587,1584
77240758,1000,1000,1000,1000,111128864,1583,1582,1579,1576
77243257,1000,1000,1000,1000,111228824,1577,1577,1572,1570
77245756,1000,1000,1000,1000,111328784,1571,1572,1566,1566
77248255,1000,1000,1000,1000,111428744,1567,1569,1562,1563
77250754,1000,1000,1000,1000,111528704,1565,1567,1561,1563
77253253,1000,1000,1000,1000,111628664,1563,1564,1560,1561
77255752,1000,1000,1000,1000,111728624,1563,1564,1561,1562
77258251,1000,1000,1000,1000,111828584,1564,1564,1563,1563
77260750,1000,1000,1000,1000,111928544,1565,1565,1565,1565
77263249,1000,1000,1000,1000,112028504,1567,1567,1568,1567
77265748,1000,1000,1000,1000,112128464,1569,1570,1571,1570
77268247,1000,1000,1000,1000,112228424,1572,1571,1573,1572
77270746,1000,1000,1000,1000,112328384,1574,1573,1575,1575
77273245,1000,1000,1000,1000,112428344,1575,1575,1577,1576
77275744,1000,1000,1000,1000,112528304,1577,1576,1578,1577
77278243,1000,1000,1000,1000,112628264,1579,1579,1580,1580
77280742,1000,1000,1000,1000,112728224,1579,1579,1580,1579
77283241,1000,1000,1000,1000,112828184,1580,1580,1581,1580
77285740,1000,1000,1000,1000,112928977,1581,1581,1582,1582
77288239,1000,1000,1000,1000,113028937,1582,1582,1582,1582
77290738,1000,1000,1000,1000,113128897,1583,1582,1582,1583
77293237,1000,1000,1000,1000,113228857,1583,1582,1582,1582
77295736,1000,1000,1000,1000,113328817,1584,1583,1583,1583
77298235,1000,1000,1000,1000,113428777,1583,1583,1583,1583
77300734,1000,1000,1000,1000,113528737,1583,1583,1583,1582
77303233,1000,1000,1000,1000,113628697,1584,1584,1588,1575
77305732,1000,1000,1000,1000,113728657,1584,1585,1586,1575
77308231,1000,1000,1000,1000,113828617,1582,1583,1580,1575
77310730,1000,1000,1000,1000,113928577,1579,1581,1572,1574
77313229,1000,1000,1000,1000,114028537,1576,1578,1566,1571
77315728,1000,1000,1000,1000,114128497,1575,1576,1562,1567
77318227,1000,1000,1000,1000,114228457,1575,1575,1560,1564
77320726,1000,1000,1000,1000,114328417,1575,1574,1559,1561
77323225,1000,1000,1000,1000,114428377,1575,1575,1558,1559
77325724,1000,1000,1000,1000,114528337,1576,1576,1558,1557
77328223,1000,1000,1000,1000,114628297,1576,1576,1557,1556
77330722,1000,1000,1000,1000,114728257,1575,1576,1557,1555
77333221,1000,1000,1000,1000,114828217,1575,1575,1556,1554
77335720,1000,1000,1000,1000,114928177,1575,1575,1555,1554
77338219,1000,1000,1000,1000,115028970,1574,1575,1553,1552
77340718,1000,1000,1000,1000,115128930,1575,1576,1552,1553
77343217,1000,1000,1000,1000,115228890,1575,1576,1550,1551
77345716,1000,1000,1000,1000,115328850,1577,1578,1550,1550
77348215,1000,1000,1000,1000,115428810,1578,1580,1548,1547
77350714,1000,1000,1000,1000,115528770,1581,1582,1547,1547
77353213,1000,1000,1000,1000,115628730,1583,1584,1545,1544
77355712,1000,1000,1000,1000,115728690,1585,1585,1543,1542
77358211,1000,1000,1000,1000,115828650,1588,1589,1542,1541
77360710,1000,1000,1000,1000,115928610,1590,1589,1541,1541
77363209,1000,1000,1000,1000,116028570,1591,1591,1540,1541
77365708,1000,1000,1000,1000,116128530,1592,1592,1540,1542
77368207,1000,1000,1000,1000,116228490,1592,1592,1541,1544
77370706,1000,1000,1000,1000,116328450,1591,1590,1544,1547
77373205,1000,1000,1000,1000,116428410,1588,1586,1549,1551
77375704,1000,1000,1000,1000,116528370,1583,1579,1555,1559
77378203,1000,1000,1000,1000,116628330,1576,1571,1563,1566
77380702,1000,1000,1000,1000,116728290,1567,1563,1573,1575
77383201,1000,1000,1000,1000,116828250,1559,1556,1583,1584
77385700,1000,1000,1000,1000,116928210,1550,1548,1592,1593
77388199,1000,1000,1000,1000,117028170,1542,1542,1600,1599
77390698,1000,1000,1000,1000,117128963,1531,1532,1600,1597
77393197,1000,1000,1000,1000,117228923,1526,1529,1600,1598
77395696,1000,1000,1000,1000,117328883,1527,1530,1600,1598
77398195,1000,1000,1000,1000,117428843,1532,1537,1600,1599
77400694,1000,1000,1000,1000,117528803,1541,1546,1600,1600
77403193,1000,1000,1000,1000,117628763,1552,1555,1600,1599
77405692,1000,1000,1000,1000,117728723,1564,1565,1600,1599
77408191,1000,1000,1000,1000,117828683,1577,1576,1600,1599
77410690,1000,1000,1000,1000,117928643,1589,1588,1600,1599
77413189,1000,1000,1000,1000,118028603,1595,1591,1595,1593
77415688,1000,1000,1000,1000,118128563,1594,1587,1584,1583
77418187,1000,1000,1000,1000,118228523,1591,1586,1576,1577
77420686,1000,1000,1000,1000,118328483,1588,1585,1569,1572
77423185,1000,1000,1000,1000,118428443,1583,1583,1564,1566
77425684,1000,1000,1000,1000,118528403,1580,1581,1562,1564
77428183,1000,1000,1000,1000,118628363,1577,1579,1562,1564
77430682,1000,1000,1000,1000,118728323,1576,1578,1564,1565
77433181,1000,1000,1000,1000,118828283,1574,1575,1567,1567
77435680,1000,1000,1000,1000,118928243,1573,1573,1569,1569
77438179,1000,1000,1000,1000,119028203,1573,1573,1573,1573
77440678,1000,1000,1000,1000,119128163,1571,1571,1575,1574
77443177,1000,1000,1000,1000,119228956,1571,1572,1578,1577
77445676,1000,1000,1000,1000,119328916,1571,1571,1580,1579
77448175,1000,1000,1000,1000,119428876,1572,1572,1581,1580
77450674,1000,1000,1000,1000,119528836,1572,1573,1582,1582
77453173,1000,1000,1000,1000,119628796,1573,1574,1582,1582
77455672,1000,1000,1000,1000,119728756,1575,1576,1582,1582
77458171,1000,1000,1000,1000,119828716,1576,1577,1582,1581
77460670,1000,1000,1000,1000,119928676,1578,1578,1581,1581
77463169,1000,1000,1000,1000,120028636,1580,1579,1581,1580
77465668,1000,1000,1000,1000,120128596,1581,1581,1580,1581
77468167,1000,1000,1000,1000,120228556,1582,1581,1579,1580
77470666,1000,1000,1000,1000,120328516,1582,1582,1579,1579
77473165,1000,1000,1000,1000,120428476,1583,1583,1579,1579
77475664,1000,1000,1000,1000,120528436,1583,1583,1579,1579
77478163,1000,1000,1000,1000,120628396,1584,1583,1580,1580
77480662,1000,1000,1000,1000,120728356,1584,1583,1580,1580
77483161,1000,1000,1000,1000,120828316,1583,1583,1580,1580
77485660,1000,1000,1000,1000,120928276,1583,1582,1580,1580
77488159,1000,1000,1000,1000,121028236,1582,1581,1580,1580
77490658,1000,1000,1000,1000,121128196,1581,1581,1580,1581
77493157,1000,1000,1000,1000,121228156,1580,1581,1581,1581
77495656,1000,1000,1000,1000,121328949,1581,1581,1582,1582
77498155,1000,1000,1000,1000,121428909,1580,1581,1581,1582
77500654,1000,1000,1000,1000,121528869,1580,1581,1582,1582
77503986,1000,1000,1000,1000,121628829,1580,1580,1582,1582
77506485,1000,1000,1000,1000,121728789,1581,1581,1586,1576
77508984,1000,1000,1000,1000,121828749,1581,1581,1587,1573
77511483,1000,1000,1000,1000,121928709,1581,1580,1583,1575
77513982,1000,1000,1000,1000,122028669,1577,1576,1576,1576
77516481,1000,1000,1000,1000,122128629,1572,1571,1570,1575
77518980,1000,1000,1000,1000,122228589,1568,1568,1567,1574
77521479,1000,1000,1000,1000,122328549,1566,1566,1565,1572
77523978,1000,1000,1000,1000,122428509,1564,1565,1566,1569
77526477,1000,1000,1000,1000,122528469,1563,1564,1565,1566
77528976,1000,1000,1000,1000,122628429,1564,1565,1566,1565
77531475,1000,1000,1000,1000,122728389,1564,1565,1566,1564
77533974,1000,1000,1000,1000,122828349,1564,1565,1565,1563
77536473,1000,1000,1000,1000,122928309,1565,1564,1565,1563
77538972,1000,1000,1000,1000,123028269,1564,1563,1563,1562
77541471,1000,1000,1000,1000,123128229,1564,1563,1563,1563
77543970,1000,1000,1000,1000,123228189,1563,1562,1562,1562
77546469,1000,1000,1000,1000,123328982,1563,1563,1562,1562
77548968,1000,1000,1000,1000,123428942,1563,1563,1562,1563
77551467,1000,1000,1000,1000,123528902,1561,1560,1560,1560
77553966,1000,1000,1000,1000,123628862,1560,1560,1560,1560
77556465,1000,1000,1000,1000,123728822,1559,1560,1560,1559
77558964,1000,1000,1000,1000,123828782,1559,1560,1560,1559
77561463,1000,1000,1000,1000,123928742,1559,1560,1560,1559
77563962,1000,1000,1000,1000,124028702,1559,1559,1560,1559
77566461,1000,1000,1000,1000,124128662,1559,1558,1560,1558
77568960,1000,1000,1000,1000,124228622,1559,1558,1559,1558
77571459,1000,1000,1000,1000,124328582,1559,1558,1560,1558
77573958,1000,1000,1000,1000,124428542,1559,1558,1560,1558
77576457,1000,1000,1000,1000,124528502,1559,1560,1560,1558
77578956,1000,1000,1000,1000,124628462,1559,1560,1559,1560
77581455,1000,1000,1000,1000,124728422,1560,1560,1558,1563
77583954,1000,1000,1000,1000,124828382,1560,1561,1559,1565
77586453,1000,1000,1000,1000,124928342,1561,1561,1559,1565
77588952,1000,1000,1000,1000,125028302,1560,1560,1559,1562
77591451,1000,1000,1000,1000,125128262,1560,1559,1560,1559
77593950,1000,1000,1000,1000,125228222,1560,1560,1559,1559
77596449,1000,1000,1000,1000,125328182,1558,1558,1556,1559
77598948,1000,1000,1000,1000,125428975,1554,1553,1552,1554
77601447,1000,1000,1000,1000,125528935,1549,1548,1548,1548
77603946,1000,1000,1000,1000,125628895,1544,1543,1543,1542
77606445,1000,1000,1000,1000,125728855,1538,1538,1538,1537
77608944,1000,1000,1000,1000,125828815,1531,1531,1531,1530
77611443,1000,1000,1000,1000,125928775,1524,1524,1523,1523
77613942,1000,1000,1000,1000,126028735,1520,1522,1520,1521
77616441,1000,1000,1000,1000,126128695,1519,1521,1518,1521
77618940,1000,1000,1000,1000,126228655,1519,1521,1519,1522
77621439,1000,1000,1000,1000,126328615,1521,1523,1521,1524
77623938,1000,1000,1000,1000,126428575,1524,1526,1525,1526
77626437,1000,1000,1000,1000,126528535,1529,1529,1529,1530
77628936,1000,1000,1000,1000,126628495,1534,1534,1535,1534
77631435,1000,1000,1000,1000,126728455,1538,1536,1538,1536
77633934,1000,1000,1000,1000,126828415,1541,1539,1541,1540
77636433,1000,1000,1000,1000,126928375,1542,1541,1543,1541
77638932,1000,1000,1000,1000,127028335,1544,1543,1544,1543
77641431,1000,1000,1000,1000,127128295,1545,1544,1545,1544
77643930,1000,1000,1000,1000,127228255,1546,1546,1546,1546
77646429,1000,1000,1000,1000,127328215,1547,1547,1547,1547
77648928,1000,1000,1000,1000,127428175,1547,1547,1547,1546
77651427,1000,1000,1000,1000,127528968,1547,1547,1546,1546
77653926,1000,1000,1000,1000,127628928,1546,1546,1546,1546
77656425,1000,1000,1000,1000,127728888,1546,1546,1546,1546
77658924,1000,1000,1000,1000,127828848,1546,1546,1546,1546
77661423,1000,1000,1000,1000,127928808,1545,1545,1545,1545
77663922,1000,1000,1000,1000,128028768,1545,1545,1545,1545
77666421,1000,1000,1000,1000,128128728,1546,1546,1546,1546
77668920,1000,1000,1000,1000,128228688,1545,1546,1546,1545
77671419,1000,1000,1000,1000,128328648,1544,1544,1545,1544
77673918,1000,1000,1000,1000,128428608,1545,1545,1545,1544
77676417,1000,1000,1000,1000,128528568,1544,1544,1544,1545
77678916,1000,1000,1000,1000,128628528,1544,1544,1544,1544
77681415,1000,1000,1000,1000,128728488,1543,1543,1543,1543
77683914,1000,1000,1000,1000,128828448,1543,1544,1544,1544
77686413,1000,1000,1000,1000,128928408,1543,1543,1543,1543
77688912,1000,1000,1000,1000,129028368,1544,1543,1544,1544
77691411,1000,1000,1000,1000,129128328,1544,1544,1544,1544
77693910,1000,1000,1000,1000,129228288,1543,1544,1543,1543
77696409,1000,1000,1000,1000,129328248,1543,1543,1543,1543
77698908,1000,1000,1000,1000,129428208,1544,1545,1544,1544
77701407,1000,1000,1000,1000,129528168,1545,1544,1544,1545
77703906,1000,1000,1000,1000,129628961,1544,1544,1544,1544
77706405,1000,1000,1000,1000,129728921,1545,1545,1545,1545
77708904,1000,1000,1000,1000,129828881,1544,1544,1545,1544
77711403,1000,1000,1000,1000,129928841,1545,1544,1544,1544
77713902,1000,1000,1000,1000,130028801,1545,1545,1545,1545
77716401,1000,1000,1000,1000,130128761,1544,1543,1544,1544
77718900,1000,1000,1000,1000,130228721,1544,1544,1544,1544
77721399,1000,1000,1000,1000,130328681,1544,1544,1543,1544
77723898,1000,1000,1000,1000,130428641,1544,1544,1543,1544
77726397,1000,1000,1000,1000,130528601,1543,1543,1543,1543
77728896,1000,1000,1000,1000,130628561,1543,1544,1544,1543
77731395,1000,1000,1000,1000,130728521,1544,1544,1544,1545
77733894,1000,1000,1000,1000,130828481,1544,1543,1543,1544
77736393,1000,1000,1000,1000,130928441,1544,1543,1544,1543
77738892,1000,1000,1000,1000,131028401,1543,1544,1544,1544
77741391,1000,1000,1000,1000,131128361,1544,1544,1544,1544
77743890,1000,1000,1000,1000,131228321,1544,1544,1544,1544
77746389,1000,1000,1000,1000,131328281,1544,1545,1544,1545
77748888,1000,1000,1000,1000,131428241,1544,1544,1544,1544
77751387,1000,1000,1000,1000,131528201,1545,1544,1545,1544
77753886,1000,1000,1000,1000,131628161,1544,1543,1544,1544
77756385,1000,1000,1000,1000,131728954,1545,1544,1544,1544
77758884,1000,1000,1000,1000,131828914,1544,1545,1544,1544
77761383,1000,1000,1000,1000,131928874,1544,1545,1545,1545
77763882,1000,1000,1000,1000,132028834,1544,1544,1544,1544
77766381,1000,1000,1000,1000,132128794,1545,1545,1544,1545
77768880,1000,1000,1000,1000,132228754,1544,1544,1544,1544
77771379,1000,1000,1000,1000,132328714,1544,1544,1544,1545
77773878,1000,1000,1000,1000,132428674,1544,1544,1544,1544
77776377,1000,1000,1000,1000,132528634,1545,1544,1545,1545
77778876,1000,1000,1000,1000,132628594,1544,1544,1544,1543
77781375,1000,1000,1000,1000,132728554,1544,1544,1544,1544
77783874,1000,1000,1000,1000,132828514,1544,1545,1544,1544
77786373,1000,1000,1000,1000,132928474,1545,1545,1544,1545
77788872,1000,1000,1000,1000,133028434,1544,1544,1544,1544
77791371,1000,1000,1000,1000,133128394,1544,1544,1544,1545
77793870,1000,1000,1000,1000,133228354,1544,1544,1544,1544
77796369,1000,1000,1000,1000,133328314,1545,1545,1545,1545
77798868,1000,1000,1000,1000,133428274,1544,1544,1544,1544
77801367,1000,1000,1000,1000,133528234,1544,1544,1544,1545
77803866,1000,1000,1000,1000,133628194,1544,1545,1544,1544
77806365,1000,1000,1000,1000,133728154,1545,1544,1545,1545
77808864,1000,1000,1000,1000,133828947,1544,1544,1544,1544
77811363,1000,1000,1000,1000,133928907,1544,1543,1544,1544
77813862,1000,1000,1000,1000,134028867,1543,1543,1544,1543
77816361,1000,1000,1000,1000,134128827,1544,1544,1544,1544
77818860,1000,1000,1000,1000,134228787,1544,1544,1544,1544
77821359,1000,1000,1000,1000,134328747,1545,1544,1544,1545
77823858,1000,1000,1000,1000,134428707,1544,1544,1544,1544
77826357,1000,1000,1000,1000,134528667,1545,1544,1544,1545
77828856,1000,1000,1000,1000,134628627,1544,1544,1544,1544
77831355,1000,1000,1000,1000,134728587,1545,1545,1545,1545
77833854,1000,1000,1000,1000,134828547,1544,1545,1544,1544
77836353,1000,1000,1000,1000,134928507,1544,1544,1544,1544
77838852,1000,1000,1000,1000,135028467,1545,1545,1545,1545
77841351,1000,1000,1000,1000,135128427,1545,1544,1545,1545
77843850,1000,1000,1000,1000,135228387,1544,1544,1544,1544
77846349,1000,1000,1000,1000,135328347,1544,1543,1544,1544
77848848,1000,1000,1000,1000,135428307,1544,1544,1544,1544
77851347,1000,1000,1000,1000,135528267,1545,1544,1545,1545
77853846,1000,1000,1000,1000,135628227,1544,1544,1544,1544
77856345,1000,1000,1000,1000,135728187,1455,1409,1454,1410
77858844,1000,1000,1000,1000,135828980,1374,1273,1374,1273
77861343,1000,1000,1000,1000,135928940,1348,1221,1348,1222
77863842,1000,1000,1000,1000,136028900,1338,1201,1339,1201
77866341,1000,1000,1000,1000,136128860,1320,1161,1320,1162
77868840,1000,1000,1000,1000,136228820,1275,1150,1276,1150
77871339,1000,1000,1000,1000,136328780,1184,1150,1184,1150
77873838,1000,1000,1000,1000,136428740,1085,1150,1085,1150
77876337,1000,1000,1000,1000,136528700,982,1150,982,1150
77878836,1000,1000,1000,1000,136628660,982,1150,983,1150
77881335,1000,1000,1000,1000,136728620,982,1150,983,1150
77883834,1000,1000,1000,1000,136828580,982,1150,978,1157
77886333,1000,1000,1000,1000,136928540,982,1150,976,1160
77888832,1000,1000,1000,1000,137028500,982,1150,978,1156
77891331,1000,1000,1000,1000,137128460,982,1150,979,1155
77893830,1000,1000,1000,1000,137228420,982,1150,979,1155
77896329,1000,1000,1000,1000,137328380,982,1150,979,1155
77898828,1000,1000,1000,1000,137428340,982,1150,979,1156
77901327,1000,1000,1000,1000,137528300,982,1150,978,1156
77903826,1000,1000,1000,1000,137628260,980,1152,983,1150
77906325,1000,1000,1000,1000,137728220,982,1150,982,1151
77908824,1000,1000,1000,1000,137828180,982,1150,982,1151
77911323,1000,1000,1000,1000,137928973,982,1150,981,1152
77913822,1000,1000,1000,1000,138028933,982,1150,981,1152
77916321,1000,1000,1000,1000,138128893,1000,1000,1000,1000
77918820,1000,1000,1000,1000,138228853,1000,1000,1000,1000
77921319,1000,1000,1000,1000,138328813,1000,1000,1000,1000
77923818,1000,1000,1000,1000,138428773,1000,1000,1000,1000
77926317,1000,1000,1000,1000,138528733,1000,1000,1000,1000
77928816,1000,1000,1000,1000,138628693,1000,1000,1000,1000
77931315,1000,1000,1000,1000,138728653,1000,1000,1000,1000
77933814,1000,1000,1000,1000,138828613,1000,1000,1000,1000
77936313,1000,1000,1000,1000,138928573,1000,1000,1000,1000
77938812,1000,1000,1000,1000,139028533,1000,1000,1000,1000
77941311,1000,1000,1000,1000,139128493,1000,1000,1000,1000
77943810,1000,1000,1000,1000,139228453,1000,1000,1000,1000
77946309,1000,1000,1000,1000,139328413,1000,1000,1000,1000
77948808,1000,1000,1000,1000,139428373,1000,1000,1000,1000
77951307,1000,1000,1000,1000,139528333,1000,1000,1000,1000
77953806,1000,1000,1000,1000,139628293,1000,1000,1000,1000
77956305,1000,1000,1000,1000,139728253,1000,1000,1000,1000
77958804,1000,1000,1000,1000,139828213,1000,1000,1000,1000
77961303,1000,1000,1000,1000,139928173,1000,1000,1000,1000
77963802,1000,1000,1000,1000,140028966,1000,1000,1000,1000
77966301,1000,1000,1000,1000,140128926,1000,1000,1000,1000
77968800,1000,1000,1000,1000,140228886,1000,1000,1000,1000
77971299,1000,1000,1000,1000,140328846,1000,1000,1000,1000
77973798,1000,1000,1000,1000,140428806,1000,1000,1000,1000
77976297,1000,1000,1000,1000,140528766,1000,1000,1000,1000
77978796,1000,1000,1000,1000,140628726,1000,1000,1000,1000
77981295,1000,1000,1000,1000,140728686,1000,1000,1000,1000
77983794,1000,1000,1000,1000,140828646,1000,1000,1000,1000
77986293,1000,1000,1000,1000,140928606,1000,1000,1000,1000
77988792,1000,1000,1000,1000,141028566,1000,1000,1000,1000
77991291,1000,1000,1000,1000,141128526,1000,1000,1000,1000
77993790,1000,1000,1000,1000,141228486,1000,1000,1000,1000
77996289,1000,1000,1000,1000,141328446,1000,1000,1000,1000
77998788,1000,1000,1000,1000,141428406,1000,1000,1000,1000
78001287,1000,1000,1000,1000,141528366,1000,1000,1000,1000
78003786,1000,1000,1000,1000,141628326,1000,1000,1000,1000
78006285,1000,1000,1000,1000,141728286,1000,1000,1000,1000
78008784,1000,1000,1000,1000,141828246,1000,1000,1000,1000
78011283,1000,1000,1000,1000,141928206,1000,1000,1000,1000
78013782,1000,1000,1000,1000,142028166,1000,1000,1000,1000
78016281,1000,1000,1000,1000,142128959,1000,1000,1000,1000
78018780,1000,1000,1000,1000,142228919,1000,1000,1000,1000
78021279,1000,1000,1000,1000,142328879,1000,1000,1000,1000
78023778,1000,1000,1000,1000,142428839,1000,1000,1000,1000
78026277,1000,1000,1000,1000,142528799,1000,1000,1000,1000
78028776,1000,1000,1000,1000,142628759,1000,1000,1000,1000
78031275,1000,1000,1000,1000,142728719,1000,1000,1000,1000
78033774,1000,1000,1000,1000,142828679,1000,1000,1000,1000
78036273,1000,1000,1000,1000,142928639,1000,1000,1000,1000
78038772,1000,1000,1000,1000,143028599,1000,1000,1000,1000
78041271,1000,1000,1000,1000,143128559,1000,1000,1000,1000
78043770,1000,1000,1000,1000,143228519,1000,1000,1000,1000
78046269,1000,1000,1000,1000,143328479,1000,1000,1000,1000
78048768,1000,1000,1000,1000,143428439,1000,1000,1000,1000
78051267,1000,1000,1000,1000,143528399,1000,1000,1000,1000
78053766,1000,1000,1000,1000,143628359,1000,1000,1000,1000
78056265,1000,1000,1000,1000,143728319,1000,1000,1000,1000
78058764,1000,1000,1000,1000,143828279,1000,1000,1000,1000
78061263,1000,1000,1000,1000,143928239,1000,1000,1000,1000
78063762,1000,1000,1000,1000,144028199,1000,1000,1000,1000
78066261,1000,1000,1000,1000,144128159,1000,1000,1000,1000
78068760,1000,1000,1000,1000,144228952,1000,1000,1000,1000
78071259,1000,1000,1000,1000,144328912,1000,1000,1000,1000
78073758,1000,1000,1000,1000,144428872,1000,1000,1000,1000
78076257,1000,1000,1000,1000,144528832,1000,1000,1000,1000
78078756,1000,1000,1000,1000,144628792,1000,1000,1000,1000
78081255,1000,1000,1000,1000,144728752,1000,1000,1000,1000
78083754,1000,1000,1000,1000,144828712,1000,1000,1000,1000
78086253,1000,1000,1000,1000,144928672,1000,1000,1000,1000
78088752,1000,1000,1000,1000,145028632,1000,1000,1000,1000
78091251,1000,1000,1000,1000,145128592,1000,1000,1000,1000
78093750,1000,1000,1000,1000,145228552,1000,1000,1000,1000
78096249,1000,1000,1000,1000,145328512,1000,1000,1000,1000
78098748,1000,1000,1000,1000,145428472,1000,1000,1000,1000
78101247,1000,1000,1000,1000,145528432,1000,1000,1000,1000
78103746,1000,1000,1000,1000,145628392,1000,1000,1000,1000
78106245,1000,1000,1000,1000,145728352,1000,1000,1000,1000
78108744,1000,1000,1000,1000,145828312,1000,1000,1000,1000
78111243,1000,1000,1000,1000,145928272,1000,1000,1000,1000
78113742,1000,1000,1000,1000,146028232,1000,1000,1000,1000
78116241,1000,1000,1000,1000,146128192,1000,1000,1000,1000
78118740,1000,1000,1000,1000,146228985,1000,1000,1000,1000
78121239,1000,1000,1000,1000,146328945,1000,1000,1000,1000
78123738,1000,1000,1000,1000,146428905,1000,1000,1000,1000
78126237,1000,1000,1000,1000,146528865,1000,1000,1000,1000
78128736,1000,1000,1000,1000,146628825,1000,1000,1000,1000
78131235,1000,1000,1000,1000,146728785,1000,1000,1000,1000
78133734,1000,1000,1000,1000,146828745,1000,1000,1000,1000
78136233,1000,1000,1000,1000,146928705,1000,1000,1000,1000
78138732,1000,1000,1000,1000,147028665,1000,1000,1000,1000
78141231,1000,1000,1000,1000,147128625,1000,1000,1000,1000
78143730,1000,1000,1000,1000,147228585,1000,1000,1000,1000
78146229,1000,1000,1000,1000,147328545,1000,1000,1000,1000
78148728,1000,1000,1000,1000,147428505,1000,1000,1000,1000
78151227,1000,1000,1000,1000,147528465,1000,1000,1000,1000
78153726,1000,1000,1000,1000,147628425,1000,1000,1000,1000
78156225,1000,1000,1000,1000,147728385,1000,1000,1000,1000
78158724,1000,1000,1000,1000,147828345,1000,1000,1000,1000
78161223,1000,1000,1000,1000,147928305,1000,1000,1000,1000
78163722,1000,1000,1000,1000,148028265,1000,1000,1000,1000
78166221,1000,1000,1000,1000,148128225,1000,1000,1000,1000
78168720,1000,1000,1000,1000,148228185,1000,1000,1000,1000
78171219,1000,1000,1000,1000,148328978,1000,1000,1000,1000
78173718,1000,1000,1000,1000,148428938,1000,1000,1000,1000
78176217,1000,1000,1000,1000,148528898,1000,1000,1000,1000
78178716,1000,1000,1000,1000,148628858,1000,1000,1000,1000
78181215,1000,1000,1000,1000,148728818,1000,1000,1000,1000
78183714,1000,1000,1000,1000,148828778,1000,1000,1000,1000
78186213,1000,1000,1000,1000,148928738,1000,1000,1000,1000
78188712,1000,1000,1000,1000,149028698,1000,1000,1000,1000
78191211,1000,1000,1000,1000,149128658,1000,1000,1000,1000
78193710,1000,1000,1000,1000,149228618,1000,1000,1000,1000
78196209,1000,1000,1000,1000,149328578,1000,1000,1000,1000
78198708,1000,1000,1000,1000,149428538,1000,1000,1000,1000
78201207,1000,1000,1000,1000,149528498,1000,1000,1000,1000
78203706,1000,1000,1000,1000,149628458,1000,1000,1000,1000
78206205,1000,1000,1000,1000,149728418,1000,1000,1000,1000
78208704,1000,1000,1000,1000,149828378,1000,1000,1000,1000
78211203,1000,1000,1000,1000,149928338,1000,1000,1000,1000
78213702,1000,1000,1000,1000,150028298,1000,1000,1000,1000
78216201,1000,1000,1000,1000,150128258,1000,1000,1000,1000
78218700,1000,1000,1000,1000,150228218,1000,1000,1000,1000
78221199,1000,1000,1000,1000,150328178,1000,1000,1000,1000
78223698,1000,1000,1000,1000,150428971,1000,1000,1000,1000
78226197,1000,1000,1000,1000,150528931,1000,1000,1000,1000
78228696,1000,1000,1000,1000,150628891,1000,1000,1000,1000
78231195,1000,1000,1000,1000,150728851,1000,1000,1000,1000
78233694,1000,1000,1000,1000,150828811,1000,1000,1000,1000
78236193,1000,1000,1000,1000,150928771,1000,1000,1000,1000
78238692,1000,1000,1000,1000,151028731,1000,1000,1000,1000
78241191,1000,1000,1000,1000,151128691,1000,1000,1000,1000
78243690,1000,1000,1000,1000,151228651,1000,1000,1000,1000
78246189,1000,1000,1000,1000,151328611,1000,1000,1000,1000
78248688,1000,1000,1000,1000,151428571,1000,1000,1000,1000
78251187,1000,1000,1000,1000,151528531,1000,1000,1000,1000
78253686,1000,1000,1000,1000,151628491,1000,1000,1000,1000
78256185,1000,1000,1000,1000,151728451,1000,1000,1000,1000
78258684,1000,1000,1000,1000,151828411,1000,1000,1000,1000
78261183,1000,1000,1000,1000,151928371,1000,1000,1000,1000
78263682,1000,1000,1000,1000,152028331,1000,1000,1000,1000
78266181,1000,1000,1000,1000,152128291,1000,1000,1000,1000
78268680,1000,1000,1000,1000,152228251,1000,1000,1000,1000
78271179,1000,1000,1000,1000,152328211,1000,1000,1000,1000
78273678,1000,1000,1000,1000,152428171,1000,1000,1000,1000
78276177,1000,1000,1000,1000,152528964,1000,1000,1000,1000
78278676,1000,1000,1000,1000,152628924,1000,1000,1000,1000
78281175,1000,1000,1000,1000,152728884,1000,1000,1000,1000
78283674,1000,1000,1000,1000,152828844,1000,1000,1000,1000
78286173,1000,1000,1000,1000,152928804,1000,1000,1000,1000
78288672,1000,1000,1000,1000,,,,,
78291171,1000,1000,1000,1000,,,,,
78293670,1000,1000,1000,1000,,,,,
78296169,1000,1000,1000,1000,,,,,
78298668,1000,1000,1000,1000,,,,,
78301167,1000,1000,1000,1000,,,,,
78303666,1000,1000,1000,1000,,,,,
78306165,1000,1000,1000,1000,,,,,
78308664,1000,1000,1000,1000,,,,,
78311163,1000,1000,1000,1000,,,,,
78313662,1000,1000,1000,1000,,,,,
78316161,1000,1000,1000,1000,,,,,
78318660,1000,1000,1000,1000,,,,,
78321159,1000,1000,1000,1000,,,,,
78323658,1000,1000,1000,1000,,,,,
78326157,1000,1000,1000,1000,,,,,
78328656,1000,1000,1000,1000,,,,,
78331155,1000,1000,1000,1000,,,,,
78333654,1000,1000,1000,1000,,,,,
78336153,1000,1000,1000,1000,,,,,
78338652,1000,1000,1000,1000,,,,,
78341151,1000,1000,1000,1000,,,,,
78343650,1000,1000,1000,1000,,,,,
78346149,1000,1000,1000,1000,,,,,
78348648,1000,1000,1000,1000,,,,,
78351147,1000,1000,1000,1000,,,,,
78353646,1000,1000,1000,1000,,,,,
78356145,1000,1000,1000,1000,,,,,
78358644,1000,1000,1000,1000,,,,,
78361143,1000,1000,1000,1000,,,,,
78363642,1000,1000,1000,1000,,,,,
78366141,1000,1000,1000,1000,,,,,
78368640,1000,1000,1000,1000,,,,,
78371139,1000,1000,1000,1000,,,,,
78373638,1000,1000,1000,1000,,,,,
78376137,1000,1000,1000,1000,,,,,
78378636,1000,1000,1000,1000,,,,,
78381135,1001,1001,1001,1001,,,,,
78383634,1002,1002,1002,1002,,,,,
78386133,1003,1003,1003,1003,,,,,
78388632,1003,1003,1003,1003,,,,,
78391131,1004,1004,1004,1004,,,,,
78393630,1005,1005,1005,1005,,,,,
78396129,1006,1006,1006,1006,,,,,
78398628,1006,1006,1006,1006,,,,,
78401127,1007,1007,1007,1007,,,,,
78403626,1008,1008,1008,1008,,,,,
78406125,1009,1009,1009,1009,,,,,
78408624,1009,1009,1009,1009,,,,,
78411123,1010,1010,1010,1010,,,,,
78413622,1011,1011,1011,1011,,,,,
78416121,1012,1012,1012,1012,,,,,
78418620,1012,1012,1012,1012,,,,,
78421119,1013,1013,1013,1013,,,,,
78423618,1014,1014,1014,1014,,,,,
78426117,1015,1015,1015,1015,,,,,
78428616,1015,1015,1015,1015,,,,,
78431115,1016,1016,1016,1016,,,,,
78433614,1017,1017,1017,1017,,,,,
78436113,1018,1018,1018,1018,,,,,
78438612,1018,1018,1018,1018,,,,,
78441111,1019,1019,1019,1019,,,,,
78443610,1020,1020,1020,1020,,,,,
78446109,1021,1021,1021,1021,,,,,
78448608,1021,1021,1021,1021,,,,,
78451107,1022,1022,1022,1022,,,,,
78453606,1023,1023,1023,1023,,,,,
78456105,1024,1024,1024,1024,,,,,
78458604,1024,1024,1024,1024,,,,,
78461103,1025,1025,1025,1025,,,,,
78463602,1026,1026,1026,1026,,,,,
78466101,1027,1027,1027,1027,,,,,
78468600,1027,1027,1027,1027,,,,,
78471099,1028,1028,1028,1028,,,,,
78473598,1029,1029,1029,1029,,,,,
78476097,1030,1030,1030,1030,,,,,
78478596,1030,1030,1030,1030,,,,,
78481095,1031,1031,1031,1031,,,,,
78483594,1032,1032,1032,1032,,,,,
78486093,1033,1033,1033,1033,,,,,
78488592,1033,1033,1033,1033,,,,,
78491091,1034,1034,1034,1034,,,,,
78493590,1035,1035,1035,1035,,,,,
78496089,1036,1036,1036,1036,,,,,
78498588,1036,1036,1036,1036,,,,,
78501087,1037,1037,1037,1037,,,,,
78503586,1038,1038,1038,1038,,,,,
78506085,1039,1039,1039,1039,,,,,
78508584,1039,1039,1039,1039,,,,,
78511083,1040,1040,1040,1040,,,,,
78513582,1041,1041,1041,1041,,,,,
78516081,1042,1042,1042,1042,,,,,
78518580,1042,1042,1042,1042,,,,,
78521079,1043,1043,1043,1043,,,,,
78523578,1044,1044,1044,1044,,,,,
78526077,1045,1045,1045,1045,,,,,
78528576,1045,1045,1045,1045,,,,,
78531075,1046,1046,1046,1046,,,,,
78533574,1047,1047,1047,1047,,,,,
78536073,1048,1048,1048,1048,,,,,
78538572,1048,1048,1048,1048,,,,,
78541071,1049,1049,1049,1049,,,,,
78543570,1050,1050,1050,1050,,,,,
78546069,1051,1051,1051,1051,,,,,
78548568,1051,1051,1051,1051,,,,,
78551067,1052,1052,1052,1052,,,,,
78553566,1053,1053,1053,1053,,,,,
78556065,1054,1054,1054,1054,,,,,
78558564,1054,1054,1054,1054,,,,,
78561063,1055,1055,1055,1055,,,,,
78563562,1056,1056,1056,1056,,,,,
78566061,1057,1057,1057,1057,,,,,
78568560,1057,1057,1057,1057,,,,,
78571059,1058,1058,1058,1058,,,,,
78573558,1059,1059,1059,1059,,,,,
78576057,1060,1060,1060,1060,,,,,
78578556,1060,1060,1060,1060,,,,,
78581055,1061,1061,1061,1061,,,,,
78583554,1062,1062,1062,1062,,,,,
78586053,1063,1063,1063,1063,,,,,
78588552,1063,1063,1063,1063,,,,,
78591051,1064,1064,1064,1064,,,,,
78593550,1065,1065,1065,1065,,,,,
78596049,1066,1066,1066,1066,,,,,
78598548,1066,1066,1066,1066,,,,,
78601047,1067,1067,1067,1067,,,,,
78603546,1068,1068,1068,1068,,,,,
78606045,1069,1069,1069,1069,,,,,
78608544,1069,1069,1069,1069,,,,,
78611043,1070,1070,1070,1070,,,,,
78613542,1071,1071,1071,1071,,,,,
78616041,1072,1072,1072,1072,,,,,
78618540,1072,1072,1072,1072,,,,,
78621039,1073,1073,1073,1073,,,,,
78623538,1074,1074,1074,1074,,,,,
78626037,1075,1075,1075,1075,,,,,
78628536,1075,1075,1075,1075,,,,,
78631035,1076,1076,1076,1076,,,,,
78633534,1077,1077,1077,1077,,,,,
78636033,1078,1078,1078,1078,,,,,
78638532,1078,1078,1078,1078,,,,,
78641031,1079,1079,1079,1079,,,,,
78643530,1080,1080,1080,1080,,,,,
78646029,1081,1081,1081,1081,,,,,
78648528,1081,1081,1081,1081,,,,,
78651027,1082,1082,1082,1082,,,,,
78653526,1083,1083,1083,1083,,,,,
78656025,1084,1084,1084,1084,,,,,
78658524,1084,1084,1084,1084,,,,,
78661023,1085,1085,1085,1085,,,,,
78663522,1086,1086,1086,1086,,,,,
78666021,1087,1087,1087,1087,,,,,
78668520,1087,1087,1087,1087,,,,,
78671019,1088,1088,1088,1088,,,,,
78673518,1089,1089,1089,1089,,,,,
78676017,1090,1090,1090,1090,,,,,
78678516,1090,1090,1090,1090,,,,,
78681015,1091,1091,1091,1091,,,,,
78683514,1092,1092,1092,1092,,,,,
78686013,1093,1093,1093,1093,,,,,
78688512,1093,1093,1093,1093,,,,,
78691011,1094,1094,1094,1094,,,,,
78693510,1095,1095,1095,1095,,,,,
78696009,1096,1096,1096,1096,,,,,
78698508,1096,1096,1096,1096,,,,,
78701007,1097,1097,1097,1097,,,,,
78703506,1098,1098,1098,1098,,,,,
78706005,1099,1099,1099,1099,,,,,
78708504,1099,1099,1099,1099,,,,,
78711003,1100,1100,1100,1100,,,,,
78713502,1101,1101,1101,1101,,,,,
78716001,1101,1101,1101,1101,,,,,
78718500,1102,1102,1102,1102,,,,,
78720999,1103,1103,1103,1103,,,,,
78723498,1104,1104,1104,1104,,,,,
78725997,1104,1104,1104,1104,,,,,
78728496,1105,1105,1105,1105,,,,,
78730995,1106,1106,1106,1106,,,,,
78733494,1107,1107,1107,1107,,,,,
78735993,1107,1107,1107,1107,,,,,
78738492,1108,1108,1108,1108,,,,,
78740991,1109,1109,1109,1109,,,,,
78743490,1110,1110,1110,1110,,,,,
78745989,1110,1110,1110,1110,,,,,
78748488,1111,1111,1111,1111,,,,,
78750987,1112,1112,1112,1112,,,,,
78753486,1113,1113,1113,1113,,,,,
78755985,1113,1113,1113,1113,,,,,
78758484,1114,1114,1114,1114,,,,,
78760983,1115,1115,1115,1115,,,,,
78763482,1116,1116,1116,1116,,,,,
78765981,1116,1116,1116,1116,,,,,
78768480,1117,1117,1117,1117,,,,,
78770979,1118,1118,1118,1118,,,,,
78773478,1119,1119,1119,1119,,,,,
78775977,1119,1119,1119,1119,,,,,
78778476,1120,1120,1120,1120,,,,,
78780975,1121,1121,1121,1121,,,,,
78783474,1122,1122,1122,1122,,,,,
78785973,1122,1122,1122,1122,,,,,
78788472,1123,1123,1123,1123,,,,,
78790971,1124,1124,1124,1124,,,,,
78793470,1125,1125,1125,1125,,,,,
78795969,1125,1125,1125,1125,,,,,
78798468,1126,1126,1126,1126,,,,,
78800967,1127,1127,1127,1127,,,,,
78803466,1128,1128,1128,1128,,,,,
78805965,1128,1128,1128,1128,,,,,
78808464,1129,1129,1129,1129,,,,,
78810963,1130,1130,1130,1130,,,,,
78813462,1131,1131,1131,1131,,,,,
78815961,1131,1131,1131,1131,,,,,
78818460,1132,1132,1132,1132,,,,,
78820959,1133,1133,1133,1133,,,,,
78823458,1134,1134,1134,1134,,,,,
78825957,1134,1134,1134,1134,,,,,
78828456,1135,1135,1135,1135,,,,,
78830955,1136,1136,1136,1136,,,,,
78833454,1137,1137,1137,1137,,,,,
78835953,1137,1137,1137,1137,,,,,
78838452,1138,1138,1138,1138,,,,,
78840951,1139,1139,1139,1139,,,,,
78843450,1140,1140,1140,1140,,,,,
78845949,1140,1140,1140,1140,,,,,
78848448,1141,1141,1141,1141,,,,,
78850947,1142,1142,1142,1142,,,,,
78853446,1143,1143,1143,1143,,,,,
78855945,1143,1143,1143,1143,,,,,
78858444,1144,1144,1144,1144,,,,,
78860943,1145,1145,1145,1145,,,,,
78863442,1146,1146,1146,1146,,,,,
78865941,1146,1146,1146,1146,,,,,
78868440,1147,1147,1147,1147,,,,,
78870939,1148,1148,1148,1148,,,,,
78873438,1149,1149,1149,1149,,,,,
78875937,1149,1149,1149,1149,,,,,
78878436,1150,1150,1150,1150,,,,,
78880935,1163,1151,1152,1164,,,,,
78883434,1171,1159,1160,1172,,,,,
78885933,1179,1167,1168,1180,,,,,
78888432,1187,1175,1176,1188,,,,,
78890931,1194,1183,1184,1195,,,,,
78893430,1202,1191,1191,1202,,,,,
78895929,1209,1198,1199,1210,,,,,
78898428,1216,1205,1206,1217,,,,,
78900927,1223,1213,1213,1224,,,,,
78903426,1230,1220,1220,1231,,,,,
78905925,1237,1227,1227,1238,,,,,
78908424,1244,1233,1234,1245,,,,,
78910923,1251,1240,1241,1251,,,,,
78913422,1257,1247,1248,1258,,,,,
78915921,1264,1254,1254,1264,,,,,
78918420,1270,1260,1261,1271,,,,,
78920919,1277,1267,1267,1277,,,,,
78923418,1283,1273,1273,1283,,,,,
78925917,1289,1279,1280,1290,,,,,
78928416,1295,1285,1286,1296,,,,,
78930915,1301,1292,1292,1302,,,,,
78933414,1307,1298,1298,1308,,,,,
78935913,1313,1304,1304,1314,,,,,
78938412,1319,1310,1310,1320,,,,,
78940911,1325,1315,1316,1325,,,,,
78943410,1331,1321,1322,1331,,,,,
78945909,1336,1327,1328,1337,,,,,
78948408,1342,1333,1333,1343,,,,,
78950907,1347,1338,1339,1348,,,,,
78953406,1353,1344,1344,1354,,,,,
78955905,1359,1350,1350,1359,,,,,
78958404,1364,1355,1356,1365,,,,,
78960903,1369,1360,1361,1370,,,,,
78963402,1375,1366,1366,1375,,,,,
78965901,1380,1371,1372,1381,,,,,
78968400,1385,1377,1377,1386,,,,,
78970899,1390,1382,1382,1391,,,,,
78973398,1396,1387,1388,1396,,,,,
78975897,1401,1392,1393,1401,,,,,
78978396,1406,1397,1398,1406,,,,,
78980895,1411,1402,1403,1411,,,,,
78983394,1416,1408,1408,1416,,,,,
78985893,1421,1413,1413,1421,,,,,
78988392,1426,1418,1418,1426,,,,,
78990891,1431,1422,1423,1431,,,,,
78993390,1436,1427,1428,1436,,,,,
78995889,1440,1432,1433,1441,,,,,
78998388,1445,1437,1438,1446,,,,,
79000887,1450,1442,1442,1450,,,,,
79003386,1455,1447,1447,1455,,,,,
79005885,1459,1451,1452,1460,,,,,
79008384,1464,1456,1457,1464,,,,,
79010883,1469,1461,1461,1469,,,,,
79013382,1473,1465,1466,1474,,,,,
79015881,1478,1470,1470,1478,,,,,
79018380,1482,1475,1475,1483,,,,,
79020879,1487,1479,1480,1487,,,,,
79023378,1491,1484,1484,1492,,,,,
79025877,1496,1488,1489,1496,,,,,
79028376,1500,1493,1493,1501,,,,,
79030875,1505,1497,1498,1505,,,,,
79033374,1509,1502,1502,1510,,,,,
79035873,1513,1506,1506,1514,,,,,
79038372,1518,1510,1511,1518,,,,,
79040871,1522,1515,1515,1523,,,,,
79043370,1526,1519,1519,1527,,,,,
79045869,1531,1523,1524,1531,,,,,
79048368,1535,1527,1528,1535,,,,,
79050867,1539,1532,1532,1540,,,,,
79053366,1543,1536,1536,1544,,,,,
79055865,1548,1540,1541,1548,,,,,
79058364,1552,1544,1545,1552,,,,,
79060863,1556,1548,1549,1556,,,,,
79063362,1560,1553,1553,1560,,,,,
79065861,1564,1557,1557,1564,,,,,
79068360,1568,1561,1561,1568,,,,,
79070859,1572,1565,1565,1572,,,,,
79073358,1576,1569,1569,1577,,,,,
79075857,1580,1573,1574,1581,,,,,
79078356,1584,1577,1578,1585,,,,,
79080855,1588,1581,1582,1589,,,,,
79083354,1592,1585,1585,1592,,,,,
79085853,1596,1589,1589,1596,,,,,
79088352,1600,1593,1593,1600,,,,,
79090851,1604,1597,1597,1604,,,,,
79093350,1608,1601,1601,1608,,,,,
79095849,1612,1604,1605,1612,,,,,
79098348,1616,1608,1609,1616,,,,,
79100847,1619,1612,1613,1620,,,,,
79103346,1623,1616,1617,1624,,,,,
79105845,1627,1620,1620,1627,,,,,
79108344,1631,1624,1624,1631,,,,,
79110843,1635,1627,1628,1635,,,,,
79113342,1638,1631,1632,1639,,,,,
79115841,1642,1635,1635,1642,,,,,
79118340,1646,1639,1639,1646,,,,,
79120839,1650,1642,1643,1650,,,,,
79123338,1653,1646,1647,1653,,,,,
79125837,1657,1650,1650,1657,,,,,
79128336,1661,1653,1654,1661,,,,,
79130835,1664,1657,1658,1664,,,,,
79133334,1668,1661,1661,1668,,,,,
79135833,1671,1664,1665,1672,,,,,
79138332,1675,1668,1668,1675,,,,,
79140831,1679,1672,1672,1679,,,,,
79143330,1682,1675,1676,1682,,,,,
79145829,1686,1679,1679,1686,,,,,
79148328,1689,1682,1683,1690,,,,,
79150827,1693,1686,1686,1693,,,,,
79153326,1696,1689,1690,1697,,,,,
79155825,1700,1693,1693,1700,,,,,
79158324,1703,1696,1697,1704,,,,,
79160823,1707,1700,1700,1707,,,,,
79163322,1710,1703,1704,1711,,,,,
79165821,1714,1707,1707,1714,,,,,
79168320,1717,1710,1711,1717,,,,,
79170819,1721,1714,1714,1721,,,,,
79173318,1724,1717,1718,1724,,,,,
79175817,1727,1721,1721,1728,,,,,
79178316,1731,1724,1724,1731,,,,,
79180815,1734,1727,1728,1735,,,,,
79183314,1738,1731,1731,1738,,,,,
79185813,1741,1734,1735,1741,,,,,
79188312,1744,1737,1738,1745,,,,,
79190811,1748,1741,1741,1748,,,,,
79193310,1751,1744,1745,1751,,,,,
79195809,1754,1747,1748,1755,,,,,
79198308,1758,1751,1751,1758,,,,,
79200807,1761,1754,1754,1761,,,,,
79203306,1764,1757,1758,1765,,,,,
79205805,1767,1761,1761,1768,,,,,
79208304,1771,1764,1764,1771,,,,,
79210803,1774,1767,1767,1774,,,,,
79213302,1777,1770,1771,1778,,,,,
79215801,1780,1774,1774,1781,,,,,
79218300,1784,1777,1777,1784,,,,,
79220799,1787,1780,1780,1787,,,,,
79223298,1790,1783,1784,1791,,,,,
79225797,1793,1787,1787,1794,,,,,
79228296,1796,1790,1790,1797,,,,,
79230795,1800,1793,1793,1800,,,,,
79233294,1803,1796,1796,1803,,,,,
79235793,1806,1799,1799,1806,,,,,
79238292,1809,1802,1803,1810,,,,,
79240791,1812,1806,1806,1813,,,,,
79243290,1815,1809,1809,1816,,,,,
79245789,1818,1812,1812,1819,,,,,
79248288,1822,1815,1815,1822,,,,,
79250787,1825,1818,1818,1825,,,,,
79253286,1828,1821,1821,1828,,,,,
79255785,1831,1824,1824,1831,,,,,
79258284,1834,1827,1828,1834,,,,,
79260783,1837,1830,1831,1837,,,,,
79263282,1840,1833,1834,1840,,,,,
79265781,1843,1836,1837,1843,,,,,
79268280,1846,1839,1840,1846,,,,,
79270779,1849,1843,1843,1850,,,,,
79273278,1852,1846,1846,1853,,,,,
79275777,1855,1849,1849,1856,,,,,
79278276,1858,1852,1852,1859,,,,,
79280775,1861,1855,1855,1862,,,,,
79283274,1864,1858,1858,1865,,,,,
79285773,1867,1861,1861,1868,,,,,
79288272,1870,1864,1864,1871,,,,,
79290771,1873,1867,1867,1874,,,,,
79293270,1876,1870,1870,1876,,,,,
79295769,1879,1872,1873,1879,,,,,
79298268,1882,1875,1876,1882,,,,,
79300767,1885,1878,1878,1885,,,,,
79303266,1888,1881,1881,1888,,,,,
79305765,1891,1884,1884,1891,,,,,
79308264,1894,1887,1887,1894,,,,,
79310763,1896,1890,1890,1897,,,,,
79313262,1899,1893,1893,1900,,,,,
79315761,1902,1896,1896,1903,,,,,
79318260,1901,1895,1895,1902,,,,,
79320759,1900,1894,1894,1901,,,,,
79323258,1899,1893,1893,1900,,,,,
79325757,1898,1892,1892,1899,,,,,
79328256,1897,1891,1891,1898,,,,,
79330755,1896,1890,1890,1897,,,,,
79333254,1896,1889,1889,1896,,,,,
79335753,1895,1889,1889,1896,,,,,
79338252,1894,1888,1888,1895,,,,,
79340751,1893,1887,1887,1894,,,,,
79343250,1893,1887,1887,1894,,,,,
79345749,1892,1886,1886,1893,,,,,
79348248,1892,1886,1886,1893,,,,,
79350747,1892,1885,1885,1892,,,,,
79353246,1891,1885,1885,1892,,,,,
79355745,1891,1885,1885,1892,,,,,
79358244,1891,1884,1885,1891,,,,,
79360743,1891,1884,1884,1891,,,,,
79363242,1891,1884,1884,1891,,,,,
79365741,1891,1884,1885,1891,,,,,
79368240,1891,1885,1885,1891,,,,,
79370739,1891,1885,1885,1892,,,,,
79373238,1891,1885,1885,1892,,,,,
79375737,1891,1886,1886,1892,,,,,
79378236,1891,1886,1886,1892,,,,,
79380735,1892,1886,1886,1892,,,,,
79383234,1892,1886,1887,1892,,,,,
79385733,1891,1887,1887,1892,,,,,
79388232,1891,1887,1887,1892,,,,,
79390731,1891,1886,1887,1892,,,,,
