timestamp,TimeUS,C1,C2,C3,C4,C5,C6,C7,C8,C9,C10,C11,C12,C13,C14
1682956156.40000010,64428385,1000,1000,1000,1000,0,0,0,0,0,0,0,0,0,0
1682956156.49996018,64528345,1000,1000,1000,1000,0,0,0,0,0,0,0,0,0,0
1682956156.59992003,64628305,1000,1000,1000,1000,0,0,0,0,0,0,0,0,0,0
1682956156.69988012,64728265,1000,1000,1000,1000,0,0,0,0,0,0,0,0,0,0
1682956156.79983997,64828225,1000,1000,1000,1000,0,0,0,0,0,0,0,0,0,0
1682956156.89980006,64928185,1000,1000,1000,1000,0,0,0,0,0,0,0,0,0,0
1682956157.00059319,65028978,1000,1000,1000,1000,0,0,0,0,0,0,0,0,0,0
1682956157.10055304,65128938,1000,1000,1000,1000,0,0,0,0,0,0,0,0,0,0
1682956157.20051312,65228898,1000,1000,1000,1000,0,0,0,0,0,0,0,0,0,0
1682956157.30047297,65328858,1000,1000,1000,1000,0,0,0,0,0,0,0,0,0,0
1682956157.40043306,65428818,1000,1000,1000,1000,0,0,0,0,0,0,0,0,0,0
1682956157.50039315,65528778,1000,1000,1000,1000,0,0,0,0,0,0,0,0,0,0
1682956157.60035300,65628738,1000,1000,1000,1000,0,0,0,0,0,0,0,0,0,0
1682956157.70031309,65728698,1000,1000,1000,1000,0,0,0,0,0,0,0,0,0,0
1682956157.80027318,65828658,1000,1000,1000,1000,0,0,0,0,0,0,0,0,0,0
1682956157.90023303,65928618,1000,1000,1000,1000,0,0,0,0,0,0,0,0,0,0
1682956158.00019312,66028578,1000,1000,1000,1000,0,0,0,0,0,0,0,0,0,0
1682956158.10015297,66128538,1000,1000,1000,1000,0,0,0,0,0,0,0,0,0,0
1682956158.20011306,66228498,1000,1000,1000,1000,0,0,0,0,0,0,0,0,0,0
1682956158.30007315,66328458,1000,1000,1000,1000,0,0,0,0,0,0,0,0,0,0
1682956158.40003300,66428418,1005,1005,1005,1005,0,0,0,0,0,0,0,0,0,0
1682956158.49999309,66528378,1035,1035,1035,1035,0,0,0,0,0,0,0,0,0,0
1682956158.59995317,66628338,1065,1065,1065,1065,0,0,0,0,0,0,0,0,0,0
1682956158.69991302,66728298,1095,1095,1095,1095,0,0,0,0,0,0,0,0,0,0
1682956158.79987311,66828258,1125,1125,1125,1125,0,0,0,0,0,0,0,0,0,0
1682956158.89983296,66928218,1201,1192,1192,1202,0,0,0,0,0,0,0,0,0,0
1682956158.99979305,67028178,1435,1428,1429,1435,0,0,0,0,0,0,0,0,0,0
1682956159.10058618,67128971,1607,1601,1602,1608,0,0,0,0,0,0,0,0,0,0
1682956159.20054603,67228931,1750,1745,1745,1751,0,0,0,0,0,0,0,0,0,0
1682956159.30050611,67328891,1875,1870,1870,1876,0,0,0,0,0,0,0,0,0,0
1682956159.40046597,67428851,1880,1876,1876,1880,0,0,0,0,0,0,0,0,0,0
1682956159.50042605,67528811,1784,1782,1783,1784,0,0,0,0,0,0,0,0,0,0
1682956159.60038614,67628771,1667,1668,1669,1667,0,0,0,0,0,0,0,0,0,0
1682956159.70034599,67728731,1621,1624,1624,1621,0,0,0,0,0,0,0,0,0,0
1682956159.80030608,67828691,1623,1626,1626,1623,0,0,0,0,0,0,0,0,0,0
1682956159.90026617,67928651,1635,1637,1636,1635,0,0,0,0,0,0,0,0,0,0
1682956160.00022602,68028611,1639,1640,1639,1639,0,0,0,0,0,0,0,0,0,0
1682956160.10018611,68128571,1634,1633,1633,1634,0,0,0,0,0,0,0,0,0,0
1682956160.20014596,68228531,1626,1625,1624,1626,0,0,0,0,0,0,0,0,0,0
1682956160.30010605,68328491,1621,1620,1620,1621,0,0,0,0,0,0,0,0,0,0
1682956160.40006614,68428451,1618,1617,1617,1617,0,0,0,0,0,0,0,0,0,0
1682956160.50002599,68528411,1597,1598,1598,1597,0,0,0,0,0,0,0,0,0,0
1682956160.59998608,68628371,1577,1577,1577,1577,0,0,0,0,0,0,0,0,0,0
1682956160.69994617,68728331,1566,1566,1566,1566,0,0,0,0,0,0,0,0,0,0
1682956160.79990602,68828291,1561,1561,1556,1565,0,0,0,0,0,0,0,0,0,0
1682956160.89986610,68928251,1557,1556,1550,1563,0,0,0,0,0,0,0,0,0,0
1682956160.99982619,69028211,1554,1555,1550,1559,0,0,0,0,0,0,0,0,0,0
1682956161.09978604,69128171,1555,1554,1553,1556,0,0,0,0,0,0,0,0,0,0
1682956161.20057917,69228964,1555,1556,1557,1554,0,0,0,0,0,0,0,0,0,0
1682956161.30053902,69328924,1557,1557,1561,1554,0,0,0,0,0,0,0,0,0,0
1682956161.40049911,69428884,1559,1560,1564,1556,0,0,0,0,0,0,0,0,0,0
1682956161.50045919,69528844,1548,1547,1558,1538,0,0,0,0,0,0,0,0,0,0
1682956161.60041904,69628804,1542,1542,1552,1534,0,0,0,0,0,0,0,0,0,0
1682956161.70037913,69728764,1539,1539,1541,1538,0,0,0,0,0,0,0,0,0,0
1682956161.80033898,69828724,1538,1538,1533,1543,0,0,0,0,0,0,0,0,0,0
1682956161.90029907,69928684,1538,1538,1530,1545,0,0,0,0,0,0,0,0,0,0
1682956162.00025916,70028644,1538,1538,1531,1545,0,0,0,0,0,0,0,0,0,0
1682956162.10021901,70128604,1540,1540,1536,1544,0,0,0,0,0,0,0,0,0,0
1682956162.20017910,70228564,1542,1542,1542,1543,0,0,0,0,0,0,0,0,0,0
1682956162.30013919,70328524,1547,1547,1549,1544,0,0,0,0,0,0,0,0,0,0
1682956162.40009904,70428484,1550,1550,1554,1546,0,0,0,0,0,0,0,0,0,0
1682956162.50005913,70528444,1553,1552,1556,1549,0,0,0,0,0,0,0,0,0,0
1682956162.60001898,70628404,1555,1555,1557,1553,0,0,0,0,0,0,0,0,0,0
1682956162.69997907,70728364,1557,1557,1556,1557,0,0,0,0,0,0,0,0,0,0
1682956162.79993916,70828324,1554,1554,1562,1565,0,0,0,0,0,0,0,0,0,0
1682956162.89989901,70928284,1553,1554,1563,1568,0,0,0,0,0,0,0,0,0,0
1682956162.99985909,71028244,1556,1557,1564,1567,0,0,0,0,0,0,0,0,0,0
1682956163.09981918,71128204,1559,1560,1564,1566,0,0,0,0,0,0,0,0,0,0
1682956163.19977903,71228164,1563,1564,1565,1565,0,0,0,0,0,0,0,0,0,0
1682956163.30057216,71328957,1567,1567,1565,1564,0,0,0,0,0,0,0,0,0,0
1682956163.40053201,71428917,1569,1569,1564,1564,0,0,0,0,0,0,0,0,0,0
1682956163.50049210,71528877,1572,1571,1566,1564,0,0,0,0,0,0,0,0,0,0
1682956163.60045218,71628837,1573,1573,1566,1565,0,0,0,0,0,0,0,0,0,0
1682956163.70041203,71728797,1573,1573,1566,1566,0,0,0,0,0,0,0,0,0,0
1682956163.80037212,71828757,1574,1574,1568,1568,0,0,0,0,0,0,0,0,0,0
1682956163.90033197,71928717,1573,1573,1569,1569,0,0,0,0,0,0,0,0,0,0
1682956164.00029206,72028677,1573,1573,1570,1571,0,0,0,0,0,0,0,0,0,0
1682956164.10025215,72128637,1572,1572,1571,1571,0,0,0,0,0,0,0,0,0,0
1682956164.20021200,72228597,1573,1572,1573,1573,0,0,0,0,0,0,0,0,0,0
1682956164.30017209,72328557,1572,1572,1574,1573,0,0,0,0,0,0,0,0,0,0
1682956164.40013218,72428517,1573,1574,1576,1574,0,0,0,0,0,0,0,0,0,0
1682956164.50009203,72528477,1574,1574,1577,1576,0,0,0,0,0,0,0,0,0,0
1682956164.60005212,72628437,1574,1575,1577,1576,0,0,0,0,0,0,0,0,0,0
1682956164.70001197,72728397,1574,1575,1577,1577,0,0,0,0,0,0,0,0,0,0
1682956164.79997206,72828357,1575,1575,1576,1576,0,0,0,0,0,0,0,0,0,0
1682956164.89993215,72928317,1575,1575,1576,1576,0,0,0,0,0,0,0,0,0,0
1682956164.99989200,73028277,1576,1576,1577,1577,0,0,0,0,0,0,0,0,0,0
1682956165.09985209,73128237,1576,1576,1576,1576,0,0,0,0,0,0,0,0,0,0
1682956165.19981217,73228197,1578,1577,1577,1577,0,0,0,0,0,0,0,0,0,0
1682956165.29977202,73328157,1579,1579,1578,1578,0,0,0,0,0,0,0,0,0,0
1682956165.40056515,73428950,1578,1578,1577,1577,0,0,0,0,0,0,0,0,0,0
1682956165.50052500,73528910,1578,1578,1577,1578,0,0,0,0,0,0,0,0,0,0
1682956165.60048509,73628870,1578,1579,1578,1577,0,0,0,0,0,0,0,0,0,0
1682956165.70044518,73728830,1579,1579,1578,1578,0,0,0,0,0,0,0,0,0,0
1682956165.80040503,73828790,1579,1579,1578,1579,0,0,0,0,0,0,0,0,0,0
1682956165.90036511,73928750,1579,1578,1578,1578,0,0,0,0,0,0,0,0,0,0
1682956166.00032496,74028710,1578,1577,1578,1577,0,0,0,0,0,0,0,0,0,0
1682956166.10028505,74128670,1578,1578,1578,1579,0,0,0,0,0,0,0,0,0,0
1682956166.20024514,74228630,1578,1579,1579,1579,0,0,0,0,0,0,0,0,0,0
1682956166.30020499,74328590,1579,1579,1579,1579,0,0,0,0,0,0,0,0,0,0
1682956166.40016508,74428550,1579,1579,1580,1579,0,0,0,0,0,0,0,0,0,0
1682956166.50012517,74528510,1578,1579,1579,1579,0,0,0,0,0,0,0,0,0,0
1682956166.60008502,74628470,1579,1579,1580,1580,0,0,0,0,0,0,0,0,0,0
1682956166.70004511,74728430,1579,1579,1579,1579,0,0,0,0,0,0,0,0,0,0
1682956166.80000496,74828390,1579,1579,1580,1579,0,0,0,0,0,0,0,0,0,0
1682956166.89996505,74928350,1580,1580,1580,1580,0,0,0,0,0,0,0,0,0,0
1682956166.99992514,75028310,1579,1579,1580,1579,0,0,0,0,0,0,0,0,0,0
1682956167.09988499,75128270,1580,1580,1580,1580,0,0,0,0,0,0,0,0,0,0
1682956167.19984508,75228230,1581,1581,1580,1581,0,0,0,0,0,0,0,0,0,0
1682956167.29980516,75328190,1580,1580,1579,1580,0,0,0,0,0,0,0,0,0,0
1682956167.40059805,75428983,1581,1581,1580,1581,0,0,0,0,0,0,0,0,0,0
1682956167.50055814,75528943,1580,1580,1580,1580,0,0,0,0,0,0,0,0,0,0
1682956167.60051799,75628903,1580,1580,1580,1580,0,0,0,0,0,0,0,0,0,0
1682956167.70047808,75728863,1580,1580,1580,1580,0,0,0,0,0,0,0,0,0,0
1682956167.80043817,75828823,1580,1581,1581,1581,0,0,0,0,0,0,0,0,0,0
1682956167.90039802,75928783,1580,1579,1580,1580,0,0,0,0,0,0,0,0,0,0
1682956168.00035810,76028743,1580,1580,1580,1580,0,0,0,0,0,0,0,0,0,0
1682956168.10031819,76128703,1580,1579,1580,1580,0,0,0,0,0,0,0,0,0,0
1682956168.20027804,76228663,1579,1579,1580,1579,0,0,0,0,0,0,0,0,0,0
1682956168.30023813,76328623,1580,1580,1580,1580,0,0,0,0,0,0,0,0,0,0
1682956168.40019798,76428583,1581,1580,1581,1581,0,0,0,0,0,0,0,0,0,0
1682956168.50015807,76528543,1580,1580,1580,1580,0,0,0,0,0,0,0,0,0,0
1682956168.60011816,76628503,1581,1581,1581,1581,0,0,0,0,0,0,0,0,0,0
1682956168.70007801,76728463,1580,1580,1580,1581,0,0,0,0,0,0,0,0,0,0
1682956168.80003810,76828423,1580,1580,1580,1580,0,0,0,0,0,0,0,0,0,0
1682956168.89999819,76928383,1582,1582,1582,1582,0,0,0,0,0,0,0,0,0,0
1682956168.99995804,77028343,1581,1581,1581,1580,0,0,0,0,0,0,0,0,0,0
1682956169.09991813,77128303,1581,1582,1588,1575,0,0,0,0,0,0,0,0,0,0
1682956169.19987798,77228263,1580,1582,1586,1573,0,0,0,0,0,0,0,0,0,0
1682956169.29983807,77328223,1579,1582,1579,1574,0,0,0,0,0,0,0,0,0,0
1682956169.39979815,77428183,1577,1580,1569,1572,0,0,0,0,0,0,0,0,0,0
1682956169.50059104,77528976,1577,1579,1562,1568,0,0,0,0,0,0,0,0,0,0
1682956169.60055113,77628936,1578,1578,1557,1564,0,0,0,0,0,0,0,0,0,0
1682956169.70051098,77728896,1579,1578,1555,1559,0,0,0,0,0,0,0,0,0,0
1682956169.80047107,77828856,1579,1578,1555,1556,0,0,0,0,0,0,0,0,0,0
1682956169.90043116,77928816,1580,1578,1556,1555,0,0,0,0,0,0,0,0,0,0
1682956170.00039101,78028776,1579,1578,1557,1554,0,0,0,0,0,0,0,0,0,0
1682956170.10035110,78128736,1578,1579,1557,1555,0,0,0,0,0,0,0,0,0,0
1682956170.20031118,78228696,1576,1577,1555,1553,0,0,0,0,0,0,0,0,0,0
1682956170.30027103,78328656,1575,1577,1555,1554,0,0,0,0,0,0,0,0,0,0
1682956170.40023112,78428616,1574,1576,1553,1553,0,0,0,0,0,0,0,0,0,0
1682956170.50019097,78528576,1575,1577,1551,1552,0,0,0,0,0,0,0,0,0,0
1682956170.60015106,78628536,1576,1577,1549,1549,0,0,0,0,0,0,0,0,0,0
1682956170.70011115,78728496,1578,1578,1547,1547,0,0,0,0,0,0,0,0,0,0
1682956170.80007100,78828456,1581,1582,1546,1546,0,0,0,0,0,0,0,0,0,0
1682956170.90003109,78928416,1583,1584,1543,1542,0,0,0,0,0,0,0,0,0,0
1682956170.99999118,79028376,1585,1587,1540,1539,0,0,0,0,0,0,0,0,0,0
1682956171.09995103,79128336,1589,1589,1537,1537,0,0,0,0,0,0,0,0,0,0
1682956171.19991112,79228296,1591,1592,1535,1535,0,0,0,0,0,0,0,0,0,0
1682956171.29987097,79328256,1593,1593,1533,1534,0,0,0,0,0,0,0,0,0,0
1682956171.39983106,79428216,1595,1594,1535,1536,0,0,0,0,0,0,0,0,0,0
1682956171.49979115,79528176,1594,1594,1536,1538,0,0,0,0,0,0,0,0,0,0
1682956171.60058403,79628969,1593,1592,1539,1542,0,0,0,0,0,0,0,0,0,0
1682956171.70054412,79728929,1589,1587,1544,1547,0,0,0,0,0,0,0,0,0,0
1682956171.80050397,79828889,1584,1582,1553,1556,0,0,0,0,0,0,0,0,0,0
1682956171.90046406,79928849,1576,1572,1562,1565,0,0,0,0,0,0,0,0,0,0
1682956172.00042415,80028809,1566,1562,1574,1576,0,0,0,0,0,0,0,0,0,0
1682956172.10038400,80128769,1555,1552,1587,1588,0,0,0,0,0,0,0,0,0,0
1682956172.20034409,80228729,1544,1542,1598,1597,0,0,0,0,0,0,0,0,0,0
1682956172.30030417,80328689,1535,1534,1606,1606,0,0,0,0,0,0,0,0,0,0
1682956172.40026402,80428649,1530,1530,1612,1611,0,0,0,0,0,0,0,0,0,0
1682956172.50022411,80528609,1529,1530,1614,1613,0,0,0,0,0,0,0,0,0,0
1682956172.60018396,80628569,1531,1533,1613,1612,0,0,0,0,0,0,0,0,0,0
1682956172.70014405,80728529,1536,1538,1609,1609,0,0,0,0,0,0,0,0,0,0
1682956172.80010414,80828489,1543,1545,1603,1603,0,0,0,0,0,0,0,0,0,0
1682956172.90006399,80928449,1552,1553,1596,1595,0,0,0,0,0,0,0,0,0,0
1682956173.00002408,81028409,1561,1562,1588,1588,0,0,0,0,0,0,0,0,0,0
1682956173.09998417,81128369,1570,1570,1582,1582,0,0,0,0,0,0,0,0,0,0
1682956173.19994402,81228329,1577,1576,1576,1575,0,0,0,0,0,0,0,0,0,0
1682956173.29990411,81328289,1582,1580,1571,1569,0,0,0,0,0,0,0,0,0,0
1682956173.39986396,81428249,1586,1584,1568,1567,0,0,0,0,0,0,0,0,0,0
1682956173.49982405,81528209,1587,1586,1566,1566,0,0,0,0,0,0,0,0,0,0
1682956173.59978414,81628169,1586,1585,1565,1565,0,0,0,0,0,0,0,0,0,0
1682956173.70057702,81728962,1585,1584,1566,1568,0,0,0,0,0,0,0,0,0,0
1682956173.80053711,81828922,1582,1582,1569,1570,0,0,0,0,0,0,0,0,0,0
1682956173.90049696,81928882,1580,1580,1573,1572,0,0,0,0,0,0,0,0,0,0
1682956174.00045705,82028842,1435,1544,1431,1545,0,0,0,0,0,0,0,0,0,0
1682956174.10041714,82128802,1550,1551,1554,1555,0,0,0,0,0,0,0,0,0,0
1682956174.20037699,82228762,1662,1604,1671,1610,0,0,0,0,0,0,0,0,0,0
1682956174.30033708,82328722,1663,1580,1671,1591,0,0,0,0,0,0,0,0,0,0
1682956174.40029716,82428682,1666,1603,1671,1612,0,0,0,0,0,0,0,0,0,0
1682956174.50025702,82528642,1671,1626,1670,1627,0,0,0,0,0,0,0,0,0,0
1682956174.60021710,82628602,1671,1641,1666,1633,0,0,0,0,0,0,0,0,0,0
1682956174.70017719,82728562,1671,1658,1664,1637,0,0,0,0,0,0,0,0,0,0
1682956174.80013704,82828522,1671,1685,1661,1648,0,0,0,0,0,0,0,0,0,0
1682956174.90009713,82928482,1671,1718,1663,1676,0,0,0,0,0,0,0,0,0,0
1682956175.00005698,83028442,1666,1702,1671,1701,0,0,0,0,0,0,0,0,0,0
1682956175.10001707,83128402,1636,1661,1669,1715,0,0,0,0,0,0,0,0,0,0
1682956175.19997716,83228362,1596,1605,1660,1707,0,0,0,0,0,0,0,0,0,0
1682956175.29993701,83328322,1575,1573,1660,1698,0,0,0,0,0,0,0,0,0,0
1682956175.39989710,83428282,1566,1558,1653,1673,0,0,0,0,0,0,0,0,0,0
1682956175.49985719,83528242,1566,1563,1639,1641,0,0,0,0,0,0,0,0,0,0
1682956175.59981704,83628202,1576,1579,1621,1608,0,0,0,0,0,0,0,0,0,0
1682956175.69977713,83728162,1591,1599,1600,1580,0,0,0,0,0,0,0,0,0,0
1682956175.80057001,83828955,1604,1615,1578,1559,0,0,0,0,0,0,0,0,0,0
1682956175.90053010,83928915,1612,1622,1557,1544,0,0,0,0,0,0,0,0,0,0
1682956176.00049019,84028875,1615,1620,1540,1535,0,0,0,0,0,0,0,0,0,0
1682956176.10045004,84128835,1613,1612,1529,1530,0,0,0,0,0,0,0,0,0,0
1682956176.20041013,84228795,1607,1602,1524,1530,0,0,0,0,0,0,0,0,0,0
1682956176.30036998,84328755,1599,1593,1525,1532,0,0,0,0,0,0,0,0,0,0
1682956176.40033007,84428715,1591,1584,1530,1536,0,0,0,0,0,0,0,0,0,0
1682956176.50029016,84528675,1581,1578,1538,1542,0,0,0,0,0,0,0,0,0,0
1682956176.60025001,84628635,1574,1573,1548,1550,0,0,0,0,0,0,0,0,0,0
1682956176.70021009,84728595,1567,1568,1558,1558,0,0,0,0,0,0,0,0,0,0
1682956176.80017018,84828555,1562,1564,1567,1566,0,0,0,0,0,0,0,0,0,0
1682956176.90013003,84928515,1558,1561,1575,1573,0,0,0,0,0,0,0,0,0,0
1682956177.00009012,85028475,1557,1558,1581,1580,0,0,0,0,0,0,0,0,0,0
1682956177.10004997,85128435,1557,1558,1592,1577,0,0,0,0,0,0,0,0,0,0
1682956177.20001006,85228395,1557,1558,1593,1577,0,0,0,0,0,0,0,0,0,0
1682956177.29997015,85328355,1556,1558,1587,1580,0,0,0,0,0,0,0,0,0,0
1682956177.39993000,85428315,1556,1558,1579,1581,0,0,0,0,0,0,0,0,0,0
1682956177.49989009,85528275,1557,1558,1571,1578,0,0,0,0,0,0,0,0,0,0
1682956177.59985018,85628235,1559,1559,1564,1572,0,0,0,0,0,0,0,0,0,0
1682956177.69981003,85728195,1562,1563,1559,1566,0,0,0,0,0,0,0,0,0,0
1682956177.79977012,85828155,1567,1567,1556,1559,0,0,0,0,0,0,0,0,0,0
1682956177.90056300,85928948,1571,1571,1553,1553,0,0,0,0,0,0,0,0,0,0
1682956178.00052309,86028908,1576,1575,1552,1550,0,0,0,0,0,0,0,0,0,0
1682956178.10048318,86128868,1579,1578,1550,1547,0,0,0,0,0,0,0,0,0,0
1682956178.20044303,86228828,1581,1581,1548,1545,0,0,0,0,0,0,0,0,0,0
1682956178.30040312,86328788,1582,1581,1546,1544,0,0,0,0,0,0,0,0,0,0
1682956178.40036297,86428748,1582,1582,1545,1545,0,0,0,0,0,0,0,0,0,0
1682956178.50032306,86528708,1582,1582,1545,1546,0,0,0,0,0,0,0,0,0,0
1682956178.60028315,86628668,1581,1582,1544,1545,0,0,0,0,0,0,0,0,0,0
1682956178.70024300,86728628,1581,1582,1545,1546,0,0,0,0,0,0,0,0,0,0
1682956178.80020308,86828588,1580,1582,1546,1546,0,0,0,0,0,0,0,0,0,0
1682956178.90016317,86928548,1581,1582,1546,1546,0,0,0,0,0,0,0,0,0,0
1682956179.00012302,87028508,1581,1582,1547,1546,0,0,0,0,0,0,0,0,0,0
1682956179.10008311,87128468,1581,1582,1547,1546,0,0,0,0,0,0,0,0,0,0
1682956179.20004296,87228428,1582,1582,1546,1546,0,0,0,0,0,0,0,0,0,0
1682956179.30000305,87328388,1583,1583,1547,1548,0,0,0,0,0,0,0,0,0,0
1682956179.39996314,87428348,1582,1582,1546,1547,0,0,0,0,0,0,0,0,0,0
1682956179.49992299,87528308,1582,1581,1548,1549,0,0,0,0,0,0,0,0,0,0
1682956179.59988308,87628268,1581,1580,1550,1552,0,0,0,0,0,0,0,0,0,0
1682956179.69984317,87728228,1579,1578,1553,1554,0,0,0,0,0,0,0,0,0,0
1682956179.79980302,87828188,1576,1575,1556,1558,0,0,0,0,0,0,0,0,0,0
1682956179.90059614,87928981,1572,1571,1560,1561,0,0,0,0,0,0,0,0,0,0
1682956180.00055599,88028941,1568,1568,1564,1566,0,0,0,0,0,0,0,0,0,0
1682956180.10051608,88128901,1565,1563,1569,1571,0,0,0,0,0,0,0,0,0,0
1682956180.20047617,88228861,1560,1559,1575,1576,0,0,0,0,0,0,0,0,0,0
1682956180.30043602,88328821,1557,1555,1581,1582,0,0,0,0,0,0,0,0,0,0
1682956180.40039611,88428781,1554,1553,1587,1587,0,0,0,0,0,0,0,0,0,0
1682956180.50035596,88528741,1551,1550,1591,1590,0,0,0,0,0,0,0,0,0,0
1682956180.60031605,88628701,1549,1549,1594,1593,0,0,0,0,0,0,0,0,0,0
1682956180.70027614,88728661,1549,1550,1596,1595,0,0,0,0,0,0,0,0,0,0
1682956180.80023599,88828621,1550,1551,1597,1596,0,0,0,0,0,0,0,0,0,0
1682956180.90019608,88928581,1552,1552,1595,1594,0,0,0,0,0,0,0,0,0,0
1682956181.00015616,89028541,1555,1555,1593,1593,0,0,0,0,0,0,0,0,0,0
1682956181.10011601,89128501,1558,1558,1590,1590,0,0,0,0,0,0,0,0,0,0
1682956181.20007610,89228461,1563,1562,1587,1587,0,0,0,0,0,0,0,0,0,0
1682956181.30003619,89328421,1567,1566,1584,1584,0,0,0,0,0,0,0,0,0,0
1682956181.39999604,89428381,1570,1570,1581,1580,0,0,0,0,0,0,0,0,0,0
1682956181.49995613,89528341,1572,1571,1577,1576,0,0,0,0,0,0,0,0,0,0
1682956181.59991598,89628301,1576,1576,1575,1575,0,0,0,0,0,0,0,0,0,0
1682956181.69987607,89728261,1577,1577,1573,1573,0,0,0,0,0,0,0,0,0,0
1682956181.79983616,89828221,1579,1578,1572,1573,0,0,0,0,0,0,0,0,0,0
1682956181.89979601,89928181,1580,1579,1572,1572,0,0,0,0,0,0,0,0,0,0
1682956182.00058913,90028974,1580,1579,1572,1572,0,0,0,0,0,0,0,0,0,0
1682956182.10054898,90128934,1581,1580,1574,1574,0,0,0,0,0,0,0,0,0,0
1682956182.20050907,90228894,1579,1579,1575,1574,0,0,0,0,0,0,0,0,0,0
1682956182.30046916,90328854,1579,1579,1576,1576,0,0,0,0,0,0,0,0,0,0
1682956182.40042901,90428814,1577,1578,1577,1577,0,0,0,0,0,0,0,0,0,0
1682956182.50038910,90528774,1576,1577,1578,1578,0,0,0,0,0,0,0,0,0,0
1682956182.60034919,90628734,1576,1577,1579,1579,0,0,0,0,0,0,0,0,0,0
1682956182.70030904,90728694,1576,1576,1580,1580,0,0,0,0,0,0,0,0,0,0
1682956182.80026913,90828654,1576,1576,1581,1581,0,0,0,0,0,0,0,0,0,0
1682956182.90022898,90928614,1576,1577,1581,1581,0,0,0,0,0,0,0,0,0,0
1682956183.00018907,91028574,1577,1577,1582,1581,0,0,0,0,0,0,0,0,0,0
1682956183.10014915,91128534,1578,1579,1582,1582,0,0,0,0,0,0,0,0,0,0
1682956183.20010900,91228494,1578,1578,1581,1581,0,0,0,0,0,0,0,0,0,0
1682956183.30006909,91328454,1579,1579,1581,1581,0,0,0,0,0,0,0,0,0,0
1682956183.40002918,91428414,1580,1580,1581,1581,0,0,0,0,0,0,0,0,0,0
1682956183.49998903,91528374,1580,1579,1580,1580,0,0,0,0,0,0,0,0,0,0
1682956183.59994912,91628334,1580,1580,1579,1579,0,0,0,0,0,0,0,0,0,0
1682956183.69990897,91728294,1581,1581,1579,1580,0,0,0,0,0,0,0,0,0,0
1682956183.79986906,91828254,1582,1581,1579,1580,0,0,0,0,0,0,0,0,0,0
1682956183.89982915,91928214,1582,1582,1580,1580,0,0,0,0,0,0,0,0,0,0
1682956183.99978900,92028174,1582,1581,1580,1580,0,0,0,0,0,0,0,0,0,0
1682956184.10058212,92128967,1582,1582,1580,1580,0,0,0,0,0,0,0,0,0,0
1682956184.20054197,92228927,1581,1581,1579,1579,0,0,0,0,0,0,0,0,0,0
1682956184.30050206,92328887,1581,1581,1580,1580,0,0,0,0,0,0,0,0,0,0
1682956184.40046215,92428847,1581,1582,1581,1581,0,0,0,0,0,0,0,0,0,0
1682956184.50042200,92528807,1581,1581,1581,1581,0,0,0,0,0,0,0,0,0,0
1682956184.60038209,92628767,1580,1581,1581,1581,0,0,0,0,0,0,0,0,0,0
1682956184.70034218,92728727,1580,1581,1581,1581,0,0,0,0,0,0,0,0,0,0
1682956184.80030203,92828687,1580,1581,1581,1581,0,0,0,0,0,0,0,0,0,0
1682956184.90026212,92928647,1581,1581,1581,1581,0,0,0,0,0,0,0,0,0,0
1682956185.00022197,93028607,1581,1580,1581,1581,0,0,0,0,0,0,0,0,0,0
1682956185.10018206,93128567,1581,1580,1581,1581,0,0,0,0,0,0,0,0,0,0
1682956185.20014215,93228527,1581,1580,1581,1581,0,0,0,0,0,0,0,0,0,0
1682956185.30010200,93328487,1581,1581,1581,1582,0,0,0,0,0,0,0,0,0,0
1682956185.40006208,93428447,1581,1581,1581,1581,0,0,0,0,0,0,0,0,0,0
1682956185.50002217,93528407,1581,1581,1581,1581,0,0,0,0,0,0,0,0,0,0
1682956185.59998202,93628367,1581,1581,1581,1581,0,0,0,0,0,0,0,0,0,0
1682956185.69994211,93728327,1581,1581,1581,1581,0,0,0,0,0,0,0,0,0,0
1682956185.79990196,93828287,1581,1581,1581,1580,0,0,0,0,0,0,0,0,0,0
1682956185.89986205,93928247,1581,1581,1581,1580,0,0,0,0,0,0,0,0,0,0
1682956185.99982214,94028207,1581,1582,1586,1573,0,0,0,0,0,0,0,0,0,0
1682956186.09978199,94128167,1581,1583,1584,1573,0,0,0,0,0,0,0,0,0,0
1682956186.20057511,94228960,1578,1581,1577,1573,0,0,0,0,0,0,0,0,0,0
1682956186.30053496,94328920,1577,1579,1569,1572,0,0,0,0,0,0,0,0,0,0
1682956186.40049505,94428880,1575,1577,1562,1568,0,0,0,0,0,0,0,0,0,0
1682956186.50045514,94528840,1575,1577,1557,1564,0,0,0,0,0,0,0,0,0,0
1682956186.60041499,94628800,1577,1576,1555,1560,0,0,0,0,0,0,0,0,0,0
1682956186.70037508,94728760,1578,1576,1554,1557,0,0,0,0,0,0,0,0,0,0
1682956186.80033517,94828720,1579,1577,1555,1555,0,0,0,0,0,0,0,0,0,0
1682956186.90029502,94928680,1579,1578,1556,1554,0,0,0,0,0,0,0,0,0,0
1682956187.00025511,95028640,1579,1579,1557,1553,0,0,0,0,0,0,0,0,0,0
1682956187.10021496,95128600,1578,1578,1556,1553,0,0,0,0,0,0,0,0,0,0
1682956187.20017505,95228560,1577,1578,1555,1554,0,0,0,0,0,0,0,0,0,0
1682956187.30013514,95328520,1576,1578,1554,1553,0,0,0,0,0,0,0,0,0,0
1682956187.40009499,95428480,1576,1578,1553,1553,0,0,0,0,0,0,0,0,0,0
1682956187.50005507,95528440,1576,1577,1551,1551,0,0,0,0,0,0,0,0,0,0
1682956187.60001516,95628400,1577,1579,1549,1549,0,0,0,0,0,0,0,0,0,0
1682956187.69997501,95728360,1579,1580,1547,1547,0,0,0,0,0,0,0,0,0,0
1682956187.79993510,95828320,1581,1582,1545,1545,0,0,0,0,0,0,0,0,0,0
1682956187.89989519,95928280,1584,1584,1543,1543,0,0,0,0,0,0,0,0,0,0
1682956187.99985504,96028240,1587,1587,1542,1541,0,0,0,0,0,0,0,0,0,0
1682956188.09981513,96128200,1589,1589,1540,1539,0,0,0,0,0,0,0,0,0,0
1682956188.19977498,96228160,1591,1591,1539,1539,0,0,0,0,0,0,0,0,0,0
1682956188.30056810,96328953,1593,1592,1538,1539,0,0,0,0,0,0,0,0,0,0
1682956188.40052819,96428913,1593,1593,1538,1540,0,0,0,0,0,0,0,0,0,0
1682956188.50048804,96528873,1593,1592,1540,1543,0,0,0,0,0,0,0,0,0,0
1682956188.60044813,96628833,1592,1590,1544,1547,0,0,0,0,0,0,0,0,0,0
1682956188.70040798,96728793,1587,1583,1549,1552,0,0,0,0,0,0,0,0,0,0
1682956188.80036807,96828753,1581,1578,1557,1560,0,0,0,0,0,0,0,0,0,0
1682956188.90032816,96928713,1572,1568,1566,1569,0,0,0,0,0,0,0,0,0,0
1682956189.00028801,97028673,1562,1559,1577,1579,0,0,0,0,0,0,0,0,0,0
1682956189.10024810,97128633,1553,1551,1588,1589,0,0,0,0,0,0,0,0,0,0
1682956189.20020819,97228593,1544,1545,1599,1598,0,0,0,0,0,0,0,0,0,0
1682956189.30016804,97328553,1538,1540,1607,1605,0,0,0,0,0,0,0,0,0,0
1682956189.40012813,97428513,1534,1537,1612,1609,0,0,0,0,0,0,0,0,0,0
1682956189.50008798,97528473,1535,1539,1615,1612,0,0,0,0,0,0,0,0,0,0
1682956189.60004807,97628433,1538,1541,1613,1611,0,0,0,0,0,0,0,0,0,0
1682956189.70000815,97728393,1543,1545,1610,1609,0,0,0,0,0,0,0,0,0,0
1682956189.79996800,97828353,1548,1549,1605,1603,0,0,0,0,0,0,0,0,0,0
1682956189.89992809,97928313,1554,1555,1598,1597,0,0,0,0,0,0,0,0,0,0
1682956189.99988818,98028273,1562,1561,1592,1591,0,0,0,0,0,0,0,0,0,0
1682956190.09984803,98128233,1569,1567,1584,1585,0,0,0,0,0,0,0,0,0,0
1682956190.19980812,98228193,1575,1573,1578,1579,0,0,0,0,0,0,0,0,0,0
1682956190.30060101,98328986,1580,1578,1572,1574,0,0,0,0,0,0,0,0,0,0
1682956190.40056109,98428946,1583,1581,1567,1569,0,0,0,0,0,0,0,0,0,0
1682956190.50052118,98528906,1585,1583,1565,1566,0,0,0,0,0,0,0,0,0,0
1682956190.60048103,98628866,1587,1585,1565,1566,0,0,0,0,0,0,0,0,0,0
1682956190.70044112,98728826,1587,1585,1566,1567,0,0,0,0,0,0,0,0,0,0
1682956190.80040097,98828786,1586,1584,1568,1568,0,0,0,0,0,0,0,0,0,0
1682956190.90036106,98928746,1584,1584,1571,1571,0,0,0,0,0,0,0,0,0,0
1682956191.00032115,99028706,1582,1582,1574,1573,0,0,0,0,0,0,0,0,0,0
1682956191.10028100,99128666,1578,1579,1576,1576,0,0,0,0,0,0,0,0,0,0
1682956191.20024109,99228626,1577,1578,1580,1579,0,0,0,0,0,0,0,0,0,0
1682956191.30020118,99328586,1574,1576,1581,1581,0,0,0,0,0,0,0,0,0,0
1682956191.40016103,99428546,1574,1575,1584,1583,0,0,0,0,0,0,0,0,0,0
1682956191.50012112,99528506,1573,1574,1584,1584,0,0,0,0,0,0,0,0,0,0
1682956191.60008097,99628466,1573,1573,1584,1584,0,0,0,0,0,0,0,0,0,0
1682956191.70004106,99728426,1573,1574,1584,1583,0,0,0,0,0,0,0,0,0,0
1682956191.80000114,99828386,1574,1575,1584,1583,0,0,0,0,0,0,0,0,0,0
1682956191.89996099,99928346,1576,1576,1583,1583,0,0,0,0,0,0,0,0,0,0
1682956191.99992108,100028306,1577,1577,1581,1581,0,0,0,0,0,0,0,0,0,0
1682956192.09988117,100128266,1578,1578,1580,1581,0,0,0,0,0,0,0,0,0,0
1682956192.19984102,100228226,1579,1579,1579,1579,0,0,0,0,0,0,0,0,0,0
1682956192.29980111,100328186,1580,1579,1577,1578,0,0,0,0,0,0,0,0,0,0
1682956192.40059400,100428979,1580,1580,1577,1577,0,0,0,0,0,0,0,0,0,0
1682956192.50055408,100528939,1581,1580,1576,1576,0,0,0,0,0,0,0,0,0,0
1682956192.60051417,100628899,1581,1581,1577,1576,0,0,0,0,0,0,0,0,0,0
1682956192.70047402,100728859,1582,1582,1577,1577,0,0,0,0,0,0,0,0,0,0
1682956192.80043411,100828819,1582,1581,1578,1578,0,0,0,0,0,0,0,0,0,0
1682956192.90039396,100928779,1581,1581,1578,1578,0,0,0,0,0,0,0,0,0,0
1682956193.00035405,101028739,1581,1581,1578,1579,0,0,0,0,0,0,0,0,0,0
1682956193.10031414,101128699,1580,1581,1579,1579,0,0,0,0,0,0,0,0,0,0
1682956193.20027399,101228659,1580,1580,1580,1580,0,0,0,0,0,0,0,0,0,0
1682956193.30023408,101328619,1581,1581,1581,1581,0,0,0,0,0,0,0,0,0,0
1682956193.40019417,101428579,1580,1580,1581,1581,0,0,0,0,0,0,0,0,0,0
1682956193.50015402,101528539,1580,1580,1582,1581,0,0,0,0,0,0,0,0,0,0
1682956193.60011411,101628499,1580,1580,1582,1582,0,0,0,0,0,0,0,0,0,0
1682956193.70007396,101728459,1580,1581,1582,1583,0,0,0,0,0,0,0,0,0,0
1682956193.80003405,101828419,1580,1580,1582,1582,0,0,0,0,0,0,0,0,0,0
1682956193.89999413,101928379,1581,1581,1582,1582,0,0,0,0,0,0,0,0,0,0
1682956193.99995399,102028339,1581,1581,1587,1575,0,0,0,0,0,0,0,0,0,0
1682956194.09991407,102128299,1581,1581,1586,1574,0,0,0,0,0,0,0,0,0,0
1682956194.19987416,102228259,1579,1579,1580,1575,0,0,0,0,0,0,0,0,0,0
1682956194.29983401,102328219,1575,1575,1574,1575,0,0,0,0,0,0,0,0,0,0
1682956194.39979410,102428179,1572,1572,1568,1575,0,0,0,0,0,0,0,0,0,0
1682956194.50058699,102528972,1569,1569,1565,1572,0,0,0,0,0,0,0,0,0,0
1682956194.60054708,102628932,1567,1567,1563,1569,0,0,0,0,0,0,0,0,0,0
1682956194.70050716,102728892,1566,1566,1564,1567,0,0,0,0,0,0,0,0,0,0
1682956194.80046701,102828852,1564,1565,1564,1563,0,0,0,0,0,0,0,0,0,0
1682956194.90042710,102928812,1564,1565,1565,1563,0,0,0,0,0,0,0,0,0,0
1682956195.00038719,103028772,1565,1566,1566,1563,0,0,0,0,0,0,0,0,0,0
1682956195.10034704,103128732,1565,1565,1566,1564,0,0,0,0,0,0,0,0,0,0
1682956195.20030713,103228692,1565,1564,1566,1563,0,0,0,0,0,0,0,0,0,0
1682956195.30026698,103328652,1563,1562,1564,1563,0,0,0,0,0,0,0,0,0,0
1682956195.40022707,103428612,1563,1562,1563,1563,0,0,0,0,0,0,0,0,0,0
1682956195.50018716,103528572,1562,1562,1563,1563,0,0,0,0,0,0,0,0,0,0
1682956195.60014701,103628532,1562,1562,1562,1563,0,0,0,0,0,0,0,0,0,0
1682956195.70010710,103728492,1561,1560,1561,1561,0,0,0,0,0,0,0,0,0,0
1682956195.80006719,103828452,1560,1560,1561,1560,0,0,0,0,0,0,0,0,0,0
1682956195.90002704,103928412,1560,1560,1560,1559,0,0,0,0,0,0,0,0,0,0
1682956195.99998713,104028372,1559,1560,1560,1559,0,0,0,0,0,0,0,0,0,0
1682956196.09994698,104128332,1559,1559,1560,1559,0,0,0,0,0,0,0,0,0,0
1682956196.19990706,104228292,1560,1560,1560,1560,0,0,0,0,0,0,0,0,0,0
1682956196.29986715,104328252,1560,1560,1560,1559,0,0,0,0,0,0,0,0,0,0
1682956196.39982700,104428212,1560,1560,1560,1559,0,0,0,0,0,0,0,0,0,0
1682956196.49978709,104528172,1559,1559,1560,1559,0,0,0,0,0,0,0,0,0,0
1682956196.60057998,104628965,1559,1559,1560,1558,0,0,0,0,0,0,0,0,0,0
1682956196.70054007,104728925,1560,1559,1561,1558,0,0,0,0,0,0,0,0,0,0
1682956196.80050015,104828885,1560,1560,1560,1560,0,0,0,0,0,0,0,0,0,0
1682956196.90046000,104928845,1561,1561,1559,1563,0,0,0,0,0,0,0,0,0,0
1682956197.00042009,105028805,1560,1560,1558,1563,0,0,0,0,0,0,0,0,0,0
1682956197.10038018,105128765,1561,1562,1558,1565,0,0,0,0,0,0,0,0,0,0
1682956197.20034003,105228725,1562,1561,1559,1563,0,0,0,0,0,0,0,0,0,0
1682956197.30030012,105328685,1561,1560,1559,1561,0,0,0,0,0,0,0,0,0,0
1682956197.40025997,105428645,1560,1559,1560,1557,0,0,0,0,0,0,0,0,0,0
1682956197.50022006,105528605,1560,1560,1559,1559,0,0,0,0,0,0,0,0,0,0
1682956197.60018015,105628565,1557,1556,1556,1557,0,0,0,0,0,0,0,0,0,0
1682956197.70014000,105728525,1553,1552,1552,1553,0,0,0,0,0,0,0,0,0,0
1682956197.80010009,105828485,1547,1548,1547,1548,0,0,0,0,0,0,0,0,0,0
1682956197.90006018,105928445,1542,1542,1542,1542,0,0,0,0,0,0,0,0,0,0
1682956198.00002003,106028405,1535,1535,1535,1535,0,0,0,0,0,0,0,0,0,0
1682956198.09998012,106128365,1528,1528,1528,1528,0,0,0,0,0,0,0,0,0,0
1682956198.19993997,106228325,1522,1522,1522,1522,0,0,0,0,0,0,0,0,0,0
1682956198.29990005,106328285,1519,1520,1519,1521,0,0,0,0,0,0,0,0,0,0
1682956198.39986014,106428245,1519,1520,1519,1521,0,0,0,0,0,0,0,0,0,0
1682956198.49981999,106528205,1520,1521,1520,1522,0,0,0,0,0,0,0,0,0,0
1682956198.59978008,106628165,1522,1523,1522,1523,0,0,0,0,0,0,0,0,0,0
1682956198.70057297,106728958,1526,1526,1526,1526,0,0,0,0,0,0,0,0,0,0
1682956198.80053306,106828918,1531,1531,1531,1531,0,0,0,0,0,0,0,0,0,0
1682956198.90049314,106928878,1535,1535,1536,1535,0,0,0,0,0,0,0,0,0,0
1682956199.00045300,107028838,1539,1538,1539,1538,0,0,0,0,0,0,0,0,0,0
1682956199.10041308,107128798,1541,1540,1541,1540,0,0,0,0,0,0,0,0,0,0
1682956199.20037317,107228758,1544,1543,1544,1543,0,0,0,0,0,0,0,0,0,0
1682956199.30033302,107328718,1545,1545,1545,1544,0,0,0,0,0,0,0,0,0,0
1682956199.40029311,107428678,1547,1546,1547,1546,0,0,0,0,0,0,0,0,0,0
1682956199.50025296,107528638,1547,1546,1547,1546,0,0,0,0,0,0,0,0,0,0
1682956199.60021305,107628598,1547,1547,1547,1546,0,0,0,0,0,0,0,0,0,0
1682956199.70017314,107728558,1547,1548,1547,1547,0,0,0,0,0,0,0,0,0,0
1682956199.80013299,107828518,1547,1547,1547,1547,0,0,0,0,0,0,0,0,0,0
1682956199.90009308,107928478,1547,1547,1547,1547,0,0,0,0,0,0,0,0,0,0
1682956200.00005317,108028438,1546,1547,1546,1546,0,0,0,0,0,0,0,0,0,0
1682956200.10001302,108128398,1546,1546,1546,1546,0,0,0,0,0,0,0,0,0,0
1682956200.19997311,108228358,1546,1546,1546,1546,0,0,0,0,0,0,0,0,0,0
1682956200.29993320,108328318,1546,1546,1546,1545,0,0,0,0,0,0,0,0,0,0
1682956200.39989305,108428278,1545,1546,1545,1545,0,0,0,0,0,0,0,0,0,0
1682956200.49985313,108528238,1545,1545,1545,1545,0,0,0,0,0,0,0,0,0,0
1682956200.59981298,108628198,1545,1545,1545,1545,0,0,0,0,0,0,0,0,0,0
1682956200.69977307,108728158,1545,1545,1545,1545,0,0,0,0,0,0,0,0,0,0
1682956200.80056596,108828951,1545,1545,1545,1545,0,0,0,0,0,0,0,0,0,0
1682956200.90052605,108928911,1545,1545,1544,1545,0,0,0,0,0,0,0,0,0,0
1682956201.00048614,109028871,1544,1544,1544,1544,0,0,0,0,0,0,0,0,0,0
1682956201.10044599,109128831,1544,1543,1544,1543,0,0,0,0,0,0,0,0,0,0
1682956201.20040607,109228791,1543,1543,1544,1543,0,0,0,0,0,0,0,0,0,0
1682956201.30036616,109328751,1544,1544,1544,1544,0,0,0,0,0,0,0,0,0,0
1682956201.40032601,109428711,1543,1544,1544,1544,0,0,0,0,0,0,0,0,0,0
1682956201.50028610,109528671,1543,1543,1543,1543,0,0,0,0,0,0,0,0,0,0
1682956201.60024619,109628631,1544,1545,1544,1545,0,0,0,0,0,0,0,0,0,0
1682956201.70020604,109728591,1544,1543,1543,1544,0,0,0,0,0,0,0,0,0,0
1682956201.80016613,109828551,1544,1544,1544,1544,0,0,0,0,0,0,0,0,0,0
1682956201.90012598,109928511,1545,1544,1544,1544,0,0,0,0,0,0,0,0,0,0
1682956202.00008607,110028471,1544,1544,1545,1544,0,0,0,0,0,0,0,0,0,0
1682956202.10004616,110128431,1545,1544,1544,1544,0,0,0,0,0,0,0,0,0,0
1682956202.20000601,110228391,1544,1545,1544,1545,0,0,0,0,0,0,0,0,0,0
1682956202.29996610,110328351,1544,1544,1544,1545,0,0,0,0,0,0,0,0,0,0
1682956202.39992619,110428311,1544,1544,1544,1544,0,0,0,0,0,0,0,0,0,0
1682956202.49988604,110528271,1545,1545,1545,1545,0,0,0,0,0,0,0,0,0,0
1682956202.59984612,110628231,1544,1544,1544,1544,0,0,0,0,0,0,0,0,0,0
1682956202.69980597,110728191,1544,1544,1544,1544,0,0,0,0,0,0,0,0,0,0
1682956202.80059910,110828984,1544,1545,1544,1545,0,0,0,0,0,0,0,0,0,0
1682956202.90055919,110928944,1544,1544,1544,1544,0,0,0,0,0,0,0,0,0,0
1682956203.00051904,111028904,1543,1543,1544,1543,0,0,0,0,0,0,0,0,0,0
1682956203.10047913,111128864,1544,1544,1543,1544,0,0,0,0,0,0,0,0,0,0
1682956203.20043898,111228824,1544,1544,1544,1544,0,0,0,0,0,0,0,0,0,0
1682956203.30039907,111328784,1544,1544,1544,1544,0,0,0,0,0,0,0,0,0,0
1682956203.40035915,111428744,1544,1544,1544,1544,0,0,0,0,0,0,0,0,0,0
1682956203.50031900,111528704,1545,1545,1545,1545,0,0,0,0,0,0,0,0,0,0
1682956203.60027909,111628664,1544,1545,1545,1545,0,0,0,0,0,0,0,0,0,0
1682956203.70023918,111728624,1544,1544,1544,1544,0,0,0,0,0,0,0,0,0,0
1682956203.80019903,111828584,1545,1544,1544,1544,0,0,0,0,0,0,0,0,0,0
1682956203.90015912,111928544,1545,1544,1544,1545,0,0,0,0,0,0,0,0,0,0
1682956204.00011897,112028504,1544,1544,1544,1544,0,0,0,0,0,0,0,0,0,0
1682956204.10007906,112128464,1544,1544,1544,1544,0,0,0,0,0,0,0,0,0,0
1682956204.20003915,112228424,1544,1544,1544,1544,0,0,0,0,0,0,0,0,0,0
1682956204.29999900,112328384,1544,1544,1544,1544,0,0,0,0,0,0,0,0,0,0
1682956204.39995909,112428344,1544,1545,1544,1544,0,0,0,0,0,0,0,0,0,0
1682956204.49991918,112528304,1544,1544,1544,1544,0,0,0,0,0,0,0,0,0,0
1682956204.59987903,112628264,1544,1543,1544,1544,0,0,0,0,0,0,0,0,0,0
1682956204.69983912,112728224,1545,1544,1545,1545,0,0,0,0,0,0,0,0,0,0
1682956204.79979897,112828184,1543,1544,1544,1543,0,0,0,0,0,0,0,0,0,0
1682956204.90059209,112928977,1543,1543,1543,1543,0,0,0,0,0,0,0,0,0,0
1682956205.00055218,113028937,1544,1544,1544,1544,0,0,0,0,0,0,0,0,0,0
1682956205.10051203,113128897,1544,1544,1544,1545,0,0,0,0,0,0,0,0,0,0
1682956205.20047212,113228857,1544,1544,1544,1545,0,0,0,0,0,0,0,0,0,0
1682956205.30043197,113328817,1544,1544,1544,1544,0,0,0,0,0,0,0,0,0,0
1682956205.40039206,113428777,1545,1545,1545,1545,0,0,0,0,0,0,0,0,0,0
1682956205.50035214,113528737,1544,1544,1544,1544,0,0,0,0,0,0,0,0,0,0
1682956205.60031199,113628697,1544,1544,1544,1544,0,0,0,0,0,0,0,0,0,0
1682956205.70027208,113728657,1544,1543,1544,1544,0,0,0,0,0,0,0,0,0,0
1682956205.80023217,113828617,1545,1544,1545,1544,0,0,0,0,0,0,0,0,0,0
1682956205.90019202,113928577,1544,1544,1544,1544,0,0,0,0,0,0,0,0,0,0
1682956206.00015211,114028537,1544,1544,1544,1544,0,0,0,0,0,0,0,0,0,0
1682956206.10011196,114128497,1544,1544,1544,1544,0,0,0,0,0,0,0,0,0,0
1682956206.20007205,114228457,1544,1544,1544,1544,0,0,0,0,0,0,0,0,0,0
1682956206.30003214,114328417,1545,1544,1544,1544,0,0,0,0,0,0,0,0,0,0
1682956206.39999199,114428377,1545,1545,1545,1545,0,0,0,0,0,0,0,0,0,0
1682956206.49995208,114528337,1544,1544,1544,1545,0,0,0,0,0,0,0,0,0,0
1682956206.59991217,114628297,1544,1544,1544,1544,0,0,0,0,0,0,0,0,0,0
1682956206.69987202,114728257,1545,1544,1545,1545,0,0,0,0,0,0,0,0,0,0
1682956206.79983211,114828217,1545,1545,1545,1545,0,0,0,0,0,0,0,0,0,0
1682956206.89979219,114928177,1545,1545,1545,1545,0,0,0,0,0,0,0,0,0,0
1682956207.00058508,115028970,1543,1544,1544,1543,0,0,0,0,0,0,0,0,0,0
1682956207.10054517,115128930,1544,1545,1544,1545,0,0,0,0,0,0,0,0,0,0
1682956207.20050502,115228890,1544,1545,1544,1544,0,0,0,0,0,0,0,0,0,0
1682956207.30046511,115328850,1544,1544,1544,1544,0,0,0,0,0,0,0,0,0,0
1682956207.40042496,115428810,1544,1544,1544,1544,0,0,0,0,0,0,0,0,0,0
1682956207.50038505,115528770,1544,1544,1544,1544,0,0,0,0,0,0,0,0,0,0
1682956207.60034513,115628730,1543,1544,1544,1544,0,0,0,0,0,0,0,0,0,0
1682956207.70030499,115728690,1544,1544,1544,1545,0,0,0,0,0,0,0,0,0,0
1682956207.80026507,115828650,1544,1544,1544,1544,0,0,0,0,0,0,0,0,0,0
1682956207.90022516,115928610,1545,1545,1545,1545,0,0,0,0,0,0,0,0,0,0
1682956208.00018501,116028570,1447,1406,1447,1406,0,0,0,0,0,0,0,0,0,0
1682956208.10014510,116128530,1361,1270,1361,1269,0,0,0,0,0,0,0,0,0,0
1682956208.20010519,116228490,1332,1220,1333,1218,0,0,0,0,0,0,0,0,0,0
1682956208.30006504,116328450,1322,1199,1322,1199,0,0,0,0,0,0,0,0,0,0
1682956208.40002513,116428410,1303,1163,1303,1162,0,0,0,0,0,0,0,0,0,0
1682956208.49998498,116528370,1250,1150,1250,1150,0,0,0,0,0,0,0,0,0,0
1682956208.59994507,116628330,1149,1150,1150,1150,0,0,0,0,0,0,0,0,0,0
1682956208.69990516,116728290,1035,1150,1035,1150,0,0,0,0,0,0,0,0,0,0
1682956208.79986501,116828250,1034,1150,1035,1150,0,0,0,0,0,0,0,0,0,0
1682956208.89982510,116928210,1035,1150,1035,1150,0,0,0,0,0,0,0,0,0,0
1682956208.99978518,117028170,1035,1150,1032,1154,0,0,0,0,0,0,0,0,0,0
1682956209.10057807,117128963,1035,1150,1027,1160,0,0,0,0,0,0,0,0,0,0
1682956209.20053816,117228923,1035,1150,1030,1156,0,0,0,0,0,0,0,0,0,0
1682956209.30049801,117328883,1035,1150,1031,1155,0,0,0,0,0,0,0,0,0,0
1682956209.40045810,117428843,1035,1150,1031,1155,0,0,0,0,0,0,0,0,0,0
1682956209.50041819,117528803,1035,1150,1030,1156,0,0,0,0,0,0,0,0,0,0
1682956209.60037804,117628763,1035,1150,1030,1156,0,0,0,0,0,0,0,0,0,0
1682956209.70033813,117728723,1035,1150,1030,1157,0,0,0,0,0,0,0,0,0,0
1682956209.80029798,117828683,1033,1151,1035,1150,0,0,0,0,0,0,0,0,0,0
1682956209.90025806,117928643,1035,1150,1033,1152,0,0,0,0,0,0,0,0,0,0
1682956210.00021815,118028603,1035,1150,1033,1153,0,0,0,0,0,0,0,0,0,0
1682956210.10017800,118128563,1035,1150,1032,1153,0,0,0,0,0,0,0,0,0,0
1682956210.20013809,118228523,1035,1150,1032,1153,0,0,0,0,0,0,0,0,0,0
1682956210.30009818,118328483,866,1145,866,1145,0,0,0,0,0,0,0,0,0,0
1682956210.40005803,118428443,1000,1000,1000,1000,0,0,0,0,0,0,0,0,0,0
1682956210.50001812,118528403,1000,1000,1000,1000,0,0,0,0,0,0,0,0,0,0
1682956210.59997797,118628363,1000,1000,1000,1000,0,0,0,0,0,0,0,0,0,0
1682956210.69993806,118728323,1000,1000,1000,1000,0,0,0,0,0,0,0,0,0,0
1682956210.79989815,118828283,1000,1000,1000,1000,0,0,0,0,0,0,0,0,0,0
1682956210.89985800,118928243,1000,1000,1000,1000,0,0,0,0,0,0,0,0,0,0
1682956210.99981809,119028203,1000,1000,1000,1000,0,0,0,0,0,0,0,0,0,0
1682956211.09977818,119128163,1000,1000,1000,1000,0,0,0,0,0,0,0,0,0,0
1682956211.20057106,119228956,1000,1000,1000,1000,0,0,0,0,0,0,0,0,0,0
1682956211.30053115,119328916,1000,1000,1000,1000,0,0,0,0,0,0,0,0,0,0
1682956211.40049100,119428876,1000,1000,1000,1000,0,0,0,0,0,0,0,0,0,0
1682956211.50045109,119528836,1000,1000,1000,1000,0,0,0,0,0,0,0,0,0,0
1682956211.60041118,119628796,1000,1000,1000,1000,0,0,0,0,0,0,0,0,0,0
1682956211.70037103,119728756,1000,1000,1000,1000,0,0,0,0,0,0,0,0,0,0
1682956211.80033112,119828716,1000,1000,1000,1000,0,0,0,0,0,0,0,0,0,0
1682956211.90029097,119928676,1000,1000,1000,1000,0,0,0,0,0,0,0,0,0,0
1682956212.00025105,120028636,1000,1000,1000,1000,0,0,0,0,0,0,0,0,0,0
1682956212.10021114,120128596,1000,1000,1000,1000,0,0,0,0,0,0,0,0,0,0
1682956212.20017099,120228556,1000,1000,1000,1000,0,0,0,0,0,0,0,0,0,0
1682956212.30013108,120328516,1000,1000,1000,1000,0,0,0,0,0,0,0,0,0,0
1682956212.40009117,120428476,1000,1000,1000,1000,0,0,0,0,0,0,0,0,0,0
1682956212.50005102,120528436,1000,1000,1000,1000,0,0,0,0,0,0,0,0,0,0
1682956212.60001111,120628396,1000,1000,1000,1000,0,0,0,0,0,0,0,0,0,0
1682956212.69997096,120728356,1000,1000,1000,1000,0,0,0,0,0,0,0,0,0,0
1682956212.79993105,120828316,1000,1000,1000,1000,0,0,0,0,0,0,0,0,0,0
1682956212.89989114,120928276,1000,1000,1000,1000,0,0,0,0,0,0,0,0,0,0
1682956212.99985099,121028236,1000,1000,1000,1000,0,0,0,0,0,0,0,0,0,0
1682956213.09981108,121128196,1000,1000,1000,1000,0,0,0,0,0,0,0,0,0,0
1682956213.19977117,121228156,1000,1000,1000,1000,0,0,0,0,0,0,0,0,0,0
1682956213.30056405,121328949,1000,1000,1000,1000,0,0,0,0,0,0,0,0,0,0
1682956213.40052414,121428909,1000,1000,1000,1000,0,0,0,0,0,0,0,0,0,0
1682956213.50048399,121528869,1000,1000,1000,1000,0,0,0,0,0,0,0,0,0,0
1682956213.60044408,121628829,1000,1000,1000,1000,0,0,0,0,0,0,0,0,0,0
1682956213.70040417,121728789,1000,1000,1000,1000,0,0,0,0,0,0,0,0,0,0
1682956213.80036402,121828749,1000,1000,1000,1000,0,0,0,0,0,0,0,0,0,0
1682956213.90032411,121928709,1000,1000,1000,1000,0,0,0,0,0,0,0,0,0,0
1682956214.00028419,122028669,1000,1000,1000,1000,0,0,0,0,0,0,0,0,0,0
1682956214.10024405,122128629,1000,1000,1000,1000,0,0,0,0,0,0,0,0,0,0
1682956214.20020413,122228589,1000,1000,1000,1000,0,0,0,0,0,0,0,0,0,0
1682956214.30016398,122328549,1000,1000,1000,1000,0,0,0,0,0,0,0,0,0,0
1682956214.40012407,122428509,1000,1000,1000,1000,0,0,0,0,0,0,0,0,0,0
1682956214.50008416,122528469,1000,1000,1000,1000,0,0,0,0,0,0,0,0,0,0
1682956214.60004401,122628429,1000,1000,1000,1000,0,0,0,0,0,0,0,0,0,0
1682956214.70000410,122728389,1000,1000,1000,1000,0,0,0,0,0,0,0,0,0,0
1682956214.79996419,122828349,1000,1000,1000,1000,0,0,0,0,0,0,0,0,0,0
1682956214.89992404,122928309,1000,1000,1000,1000,0,0,0,0,0,0,0,0,0,0
1682956214.99988413,123028269,1000,1000,1000,1000,0,0,0,0,0,0,0,0,0,0
1682956215.09984398,123128229,1000,1000,1000,1000,0,0,0,0,0,0,0,0,0,0
1682956215.19980407,123228189,1000,1000,1000,1000,0,0,0,0,0,0,0,0,0,0
1682956215.30059719,123328982,1000,1000,1000,1000,0,0,0,0,0,0,0,0,0,0
1682956215.40055704,123428942,1000,1000,1000,1000,0,0,0,0,0,0,0,0,0,0
1682956215.50051713,123528902,1000,1000,1000,1000,0,0,0,0,0,0,0,0,0,0
1682956215.60047698,123628862,1000,1000,1000,1000,0,0,0,0,0,0,0,0,0,0
1682956215.70043707,123728822,1000,1000,1000,1000,0,0,0,0,0,0,0,0,0,0
1682956215.80039716,123828782,1000,1000,1000,1000,0,0,0,0,0,0,0,0,0,0
1682956215.90035701,123928742,1000,1000,1000,1000,0,0,0,0,0,0,0,0,0,0
1682956216.00031710,124028702,1000,1000,1000,1000,0,0,0,0,0,0,0,0,0,0
1682956216.10027719,124128662,1000,1000,1000,1000,0,0,0,0,0,0,0,0,0,0
1682956216.20023704,124228622,1000,1000,1000,1000,0,0,0,0,0,0,0,0,0,0
1682956216.30019712,124328582,1000,1000,1000,1000,0,0,0,0,0,0,0,0,0,0
1682956216.40015697,124428542,1000,1000,1000,1000,0,0,0,0,0,0,0,0,0,0
1682956216.50011706,124528502,1000,1000,1000,1000,0,0,0,0,0,0,0,0,0,0
1682956216.60007715,124628462,1000,1000,1000,1000,0,0,0,0,0,0,0,0,0,0
1682956216.70003700,124728422,1000,1000,1000,1000,0,0,0,0,0,0,0,0,0,0
1682956216.79999709,124828382,1000,1000,1000,1000,0,0,0,0,0,0,0,0,0,0
1682956216.89995718,124928342,1000,1000,1000,1000,0,0,0,0,0,0,0,0,0,0
1682956216.99991703,125028302,1000,1000,1000,1000,0,0,0,0,0,0,0,0,0,0
1682956217.09987712,125128262,1000,1000,1000,1000,0,0,0,0,0,0,0,0,0,0
1682956217.19983697,125228222,1000,1000,1000,1000,0,0,0,0,0,0,0,0,0,0
1682956217.29979706,125328182,1000,1000,1000,1000,0,0,0,0,0,0,0,0,0,0
1682956217.40059018,125428975,1000,1000,1000,1000,0,0,0,0,0,0,0,0,0,0
1682956217.50055003,125528935,1000,1000,1000,1000,0,0,0,0,0,0,0,0,0,0
1682956217.60051012,125628895,1000,1000,1000,1000,0,0,0,0,0,0,0,0,0,0
1682956217.70046997,125728855,1000,1000,1000,1000,0,0,0,0,0,0,0,0,0,0
1682956217.80043006,125828815,1000,1000,1000,1000,0,0,0,0,0,0,0,0,0,0
1682956217.90039015,125928775,1000,1000,1000,1000,0,0,0,0,0,0,0,0,0,0
1682956218.00035000,126028735,1000,1000,1000,1000,0,0,0,0,0,0,0,0,0,0
1682956218.10031009,126128695,1000,1000,1000,1000,0,0,0,0,0,0,0,0,0,0
1682956218.20027018,126228655,1000,1000,1000,1000,0,0,0,0,0,0,0,0,0,0
1682956218.30023003,126328615,1000,1000,1000,1000,0,0,0,0,0,0,0,0,0,0
1682956218.40019011,126428575,1000,1000,1000,1000,0,0,0,0,0,0,0,0,0,0
1682956218.50014997,126528535,1000,1000,1000,1000,0,0,0,0,0,0,0,0,0,0
1682956218.60011005,126628495,1000,1000,1000,1000,0,0,0,0,0,0,0,0,0,0
1682956218.70007014,126728455,1000,1000,1000,1000,0,0,0,0,0,0,0,0,0,0
1682956218.80002999,126828415,1000,1000,1000,1000,0,0,0,0,0,0,0,0,0,0
1682956218.89999008,126928375,1000,1000,1000,1000,0,0,0,0,0,0,0,0,0,0
1682956218.99995017,127028335,1000,1000,1000,1000,0,0,0,0,0,0,0,0,0,0
1682956219.09991002,127128295,1000,1000,1000,1000,0,0,0,0,0,0,0,0,0,0
1682956219.19987011,127228255,1000,1000,1000,1000,0,0,0,0,0,0,0,0,0,0
1682956219.29982996,127328215,1000,1000,1000,1000,0,0,0,0,0,0,0,0,0,0
1682956219.39979005,127428175,1000,1000,1000,1000,0,0,0,0,0,0,0,0,0,0
1682956219.50058317,127528968,1000,1000,1000,1000,0,0,0,0,0,0,0,0,0,0
1682956219.60054302,127628928,1000,1000,1000,1000,0,0,0,0,0,0,0,0,0,0
1682956219.70050311,127728888,1000,1000,1000,1000,0,0,0,0,0,0,0,0,0,0
1682956219.80046296,127828848,1000,1000,1000,1000,0,0,0,0,0,0,0,0,0,0
1682956219.90042305,127928808,1000,1000,1000,1000,0,0,0,0,0,0,0,0,0,0
1682956220.00038314,128028768,1000,1000,1000,1000,0,0,0,0,0,0,0,0,0,0
1682956220.10034299,128128728,1000,1000,1000,1000,0,0,0,0,0,0,0,0,0,0
1682956220.20030308,128228688,1000,1000,1000,1000,0,0,0,0,0,0,0,0,0,0
1682956220.30026317,128328648,1000,1000,1000,1000,0,0,0,0,0,0,0,0,0,0
1682956220.40022302,128428608,1000,1000,1000,1000,0,0,0,0,0,0,0,0,0,0
1682956220.50018311,128528568,1000,1000,1000,1000,0,0,0,0,0,0,0,0,0,0
1682956220.60014319,128628528,1000,1000,1000,1000,0,0,0,0,0,0,0,0,0,0
1682956220.70010304,128728488,1000,1000,1000,1000,0,0,0,0,0,0,0,0,0,0
1682956220.80006313,128828448,1000,1000,1000,1000,0,0,0,0,0,0,0,0,0,0
1682956220.90002298,128928408,1000,1000,1000,1000,0,0,0,0,0,0,0,0,0,0
