timestamp,TimeUS,C1,C2,C3,C4,C5,C6,C7,C8,C9,C10,C11,C12,C13,C14
1683033708.10003996,57728566,1000,1000,1000,1000,0,0,0,0,0,0,0,0,0,0
1683033708.20000005,57828526,1000,1000,1000,1000,0,0,0,0,0,0,0,0,0,0
1683033708.29996014,57928486,1000,1000,1000,1000,0,0,0,0,0,0,0,0,0,0
1683033708.39991999,58028446,1000,1000,1000,1000,0,0,0,0,0,0,0,0,0,0
1683033708.49988008,58128406,1000,1000,1000,1000,0,0,0,0,0,0,0,0,0,0
1683033708.59983993,58228366,1000,1000,1000,1000,0,0,0,0,0,0,0,0,0,0
1683033708.69980001,58328326,1000,1000,1000,1000,0,0,0,0,0,0,0,0,0,0
1683033708.79976010,58428286,1000,1000,1000,1000,0,0,0,0,0,0,0,0,0,0
1683033708.89971995,58528246,1000,1000,1000,1000,0,0,0,0,0,0,0,0,0,0
1683033708.99968004,58628206,1000,1000,1000,1000,0,0,0,0,0,0,0,0,0,0
1683033709.09964013,58728166,1000,1000,1000,1000,0,0,0,0,0,0,0,0,0,0
1683033709.20043302,58828959,1000,1000,1000,1000,0,0,0,0,0,0,0,0,0,0
1683033709.30039310,58928919,1000,1000,1000,1000,0,0,0,0,0,0,0,0,0,0
1683033709.40035295,59028879,1000,1000,1000,1000,0,0,0,0,0,0,0,0,0,0
1683033709.50031304,59128839,1000,1000,1000,1000,0,0,0,0,0,0,0,0,0,0
1683033709.60027313,59228799,1000,1000,1000,1000,0,0,0,0,0,0,0,0,0,0
1683033709.70023298,59328759,1000,1000,1000,1000,0,0,0,0,0,0,0,0,0,0
1683033709.80019307,59428719,1000,1000,1000,1000,0,0,0,0,0,0,0,0,0,0
1683033709.90015292,59528679,1000,1000,1000,1000,0,0,0,0,0,0,0,0,0,0
1683033710.00011301,59628639,1000,1000,1000,1000,0,0,0,0,0,0,0,0,0,0
1683033710.10007310,59728599,1024,1024,1024,1024,0,0,0,0,0,0,0,0,0,0
1683033710.20003295,59828559,1054,1054,1054,1054,0,0,0,0,0,0,0,0,0,0
1683033710.29999304,59928519,1084,1084,1084,1084,0,0,0,0,0,0,0,0,0,0
1683033710.39995313,60028479,1114,1114,1114,1114,0,0,0,0,0,0,0,0,0,0
1683033710.49991298,60128439,1144,1144,1144,1144,0,0,0,0,0,0,0,0,0,0
1683033710.59987307,60228399,1363,1356,1357,1363,0,0,0,0,0,0,0,0,0,0
1683033710.69983292,60328359,1551,1545,1546,1551,0,0,0,0,0,0,0,0,0,0
1683033710.79979300,60428319,1702,1697,1698,1703,0,0,0,0,0,0,0,0,0,0
1683033710.89975309,60528279,1833,1828,1828,1833,0,0,0,0,0,0,0,0,0,0
1683033710.99971294,60628239,1891,1887,1887,1892,0,0,0,0,0,0,0,0,0,0
1683033711.09967303,60728199,1836,1834,1835,1837,0,0,0,0,0,0,0,0,0,0
1683033711.19963312,60828159,1710,1710,1711,1710,0,0,0,0,0,0,0,0,0,0
1683033711.30042601,60928952,1641,1643,1643,1641,0,0,0,0,0,0,0,0,0,0
1683033711.40038610,61028912,1629,1631,1631,1629,0,0,0,0,0,0,0,0,0,0
1683033711.50034595,61128872,1637,1639,1639,1637,0,0,0,0,0,0,0,0,0,0
1683033711.60030603,61228832,1642,1644,1643,1643,0,0,0,0,0,0,0,0,0,0
1683033711.70026612,61328792,1639,1638,1638,1639,0,0,0,0,0,0,0,0,0,0
1683033711.80022597,61428752,1630,1629,1629,1630,0,0,0,0,0,0,0,0,0,0
1683033711.90018606,61528712,1618,1619,1619,1617,0,0,0,0,0,0,0,0,0,0
1683033712.00014591,61628672,1586,1585,1585,1587,0,0,0,0,0,0,0,0,0,0
1683033712.10010600,61728632,1582,1581,1573,1591,0,0,0,0,0,0,0,0,0,0
1683033712.20006609,61828592,1580,1579,1571,1586,0,0,0,0,0,0,0,0,0,0
1683033712.30002594,61928552,1577,1577,1574,1580,0,0,0,0,0,0,0,0,0,0
1683033712.39998603,62028512,1580,1580,1580,1579,0,0,0,0,0,0,0,0,0,0
1683033712.49994612,62128472,1583,1583,1586,1579,0,0,0,0,0,0,0,0,0,0
1683033712.59990597,62228432,1576,1576,1584,1568,0,0,0,0,0,0,0,0,0,0
1683033712.69986606,62328392,1561,1562,1579,1544,0,0,0,0,0,0,0,0,0,0
1683033712.79982615,62428352,1553,1553,1562,1546,0,0,0,0,0,0,0,0,0,0
1683033712.89978600,62528312,1545,1544,1543,1548,0,0,0,0,0,0,0,0,0,0
1683033712.99974608,62628272,1537,1537,1529,1547,0,0,0,0,0,0,0,0,0,0
1683033713.09970593,62728232,1532,1531,1522,1542,0,0,0,0,0,0,0,0,0,0
1683033713.19966602,62828192,1530,1529,1522,1537,0,0,0,0,0,0,0,0,0,0
1683033713.30045915,62928985,1530,1529,1526,1533,0,0,0,0,0,0,0,0,0,0
1683033713.40041900,63028945,1532,1532,1532,1532,0,0,0,0,0,0,0,0,0,0
1683033713.50037909,63128905,1536,1536,1539,1532,0,0,0,0,0,0,0,0,0,0
1683033713.60033894,63228865,1539,1540,1544,1535,0,0,0,0,0,0,0,0,0,0
1683033713.70029902,63328825,1544,1544,1548,1541,0,0,0,0,0,0,0,0,0,0
1683033713.80025911,63428785,1547,1547,1549,1545,0,0,0,0,0,0,0,0,0,0
1683033713.90021896,63528745,1549,1549,1549,1549,0,0,0,0,0,0,0,0,0,0
1683033714.00017905,63628705,1552,1549,1551,1555,0,0,0,0,0,0,0,0,0,0
1683033714.10013914,63728665,1549,1549,1558,1563,0,0,0,0,0,0,0,0,0,0
1683033714.20009899,63828625,1550,1552,1560,1564,0,0,0,0,0,0,0,0,0,0
1683033714.30005908,63928585,1554,1555,1561,1563,0,0,0,0,0,0,0,0,0,0
1683033714.40001893,64028545,1559,1560,1563,1563,0,0,0,0,0,0,0,0,0,0
1683033714.49997902,64128505,1564,1564,1564,1563,0,0,0,0,0,0,0,0,0,0
1683033714.59993911,64228465,1567,1567,1564,1563,0,0,0,0,0,0,0,0,0,0
1683033714.69989896,64328425,1571,1570,1565,1564,0,0,0,0,0,0,0,0,0,0
1683033714.79985905,64428385,1573,1572,1566,1565,0,0,0,0,0,0,0,0,0,0
1683033714.89981914,64528345,1573,1572,1565,1565,0,0,0,0,0,0,0,0,0,0
1683033714.99977899,64628305,1573,1574,1567,1567,0,0,0,0,0,0,0,0,0,0
1683033715.09973907,64728265,1573,1573,1567,1568,0,0,0,0,0,0,0,0,0,0
1683033715.19969893,64828225,1573,1573,1569,1570,0,0,0,0,0,0,0,0,0,0
1683033715.29965901,64928185,1573,1572,1570,1571,0,0,0,0,0,0,0,0,0,0
1683033715.40045214,65028978,1573,1573,1572,1572,0,0,0,0,0,0,0,0,0,0
1683033715.50041199,65128938,1573,1573,1574,1573,0,0,0,0,0,0,0,0,0,0
1683033715.60037208,65228898,1573,1573,1576,1574,0,0,0,0,0,0,0,0,0,0
1683033715.70033193,65328858,1574,1574,1577,1576,0,0,0,0,0,0,0,0,0,0
1683033715.80029202,65428818,1574,1575,1578,1577,0,0,0,0,0,0,0,0,0,0
1683033715.90025210,65528778,1574,1574,1577,1577,0,0,0,0,0,0,0,0,0,0
1683033716.00021195,65628738,1574,1574,1576,1577,0,0,0,0,0,0,0,0,0,0
1683033716.10017204,65728698,1574,1575,1575,1576,0,0,0,0,0,0,0,0,0,0
1683033716.20013213,65828658,1575,1575,1576,1576,0,0,0,0,0,0,0,0,0,0
1683033716.30009198,65928618,1576,1576,1576,1576,0,0,0,0,0,0,0,0,0,0
1683033716.40005207,66028578,1577,1576,1577,1576,0,0,0,0,0,0,0,0,0,0
1683033716.50001192,66128538,1578,1578,1577,1577,0,0,0,0,0,0,0,0,0,0
1683033716.59997201,66228498,1578,1578,1577,1576,0,0,0,0,0,0,0,0,0,0
1683033716.69993210,66328458,1578,1579,1578,1577,0,0,0,0,0,0,0,0,0,0
1683033716.79989195,66428418,1577,1577,1576,1576,0,0,0,0,0,0,0,0,0,0
1683033716.89985204,66528378,1578,1578,1577,1577,0,0,0,0,0,0,0,0,0,0
1683033716.99981213,66628338,1578,1578,1577,1577,0,0,0,0,0,0,0,0,0,0
1683033717.09977198,66728298,1578,1578,1577,1578,0,0,0,0,0,0,0,0,0,0
1683033717.19973207,66828258,1579,1579,1579,1579,0,0,0,0,0,0,0,0,0,0
1683033717.29969192,66928218,1578,1579,1579,1578,0,0,0,0,0,0,0,0,0,0
1683033717.39965200,67028178,1579,1579,1579,1579,0,0,0,0,0,0,0,0,0,0
1683033717.50044513,67128971,1578,1578,1578,1579,0,0,0,0,0,0,0,0,0,0
1683033717.60040498,67228931,1578,1578,1579,1579,0,0,0,0,0,0,0,0,0,0
1683033717.70036507,67328891,1577,1579,1579,1579,0,0,0,0,0,0,0,0,0,0
1683033717.80032492,67428851,1578,1578,1579,1579,0,0,0,0,0,0,0,0,0,0
1683033717.90028501,67528811,1579,1579,1580,1579,0,0,0,0,0,0,0,0,0,0
1683033718.00024509,67628771,1580,1580,1580,1580,0,0,0,0,0,0,0,0,0,0
1683033718.10020494,67728731,1580,1580,1580,1580,0,0,0,0,0,0,0,0,0,0
1683033718.20016503,67828691,1581,1580,1580,1581,0,0,0,0,0,0,0,0,0,0
1683033718.30012512,67928651,1579,1579,1579,1579,0,0,0,0,0,0,0,0,0,0
1683033718.40008497,68028611,1579,1579,1579,1579,0,0,0,0,0,0,0,0,0,0
1683033718.50004506,68128571,1579,1580,1579,1579,0,0,0,0,0,0,0,0,0,0
1683033718.60000491,68228531,1580,1580,1580,1580,0,0,0,0,0,0,0,0,0,0
1683033718.69996500,68328491,1580,1580,1580,1580,0,0,0,0,0,0,0,0,0,0
1683033718.79992509,68428451,1579,1580,1580,1579,0,0,0,0,0,0,0,0,0,0
1683033718.89988494,68528411,1580,1580,1580,1580,0,0,0,0,0,0,0,0,0,0
1683033718.99984503,68628371,1580,1579,1580,1580,0,0,0,0,0,0,0,0,0,0
1683033719.09980512,68728331,1580,1580,1581,1580,0,0,0,0,0,0,0,0,0,0
1683033719.19976497,68828291,1580,1580,1580,1581,0,0,0,0,0,0,0,0,0,0
1683033719.29972506,68928251,1581,1581,1581,1581,0,0,0,0,0,0,0,0,0,0
1683033719.39968514,69028211,1580,1580,1580,1580,0,0,0,0,0,0,0,0,0,0
1683033719.49964499,69128171,1581,1581,1581,1581,0,0,0,0,0,0,0,0,0,0
1683033719.60043812,69228964,1581,1581,1581,1582,0,0,0,0,0,0,0,0,0,0
1683033719.70039797,69328924,1581,1581,1581,1582,0,0,0,0,0,0,0,0,0,0
1683033719.80035806,69428884,1580,1580,1580,1580,0,0,0,0,0,0,0,0,0,0
1683033719.90031815,69528844,1581,1581,1580,1581,0,0,0,0,0,0,0,0,0,0
1683033720.00027800,69628804,1580,1581,1581,1580,0,0,0,0,0,0,0,0,0,0
1683033720.10023808,69728764,1580,1580,1580,1580,0,0,0,0,0,0,0,0,0,0
1683033720.20019794,69828724,1580,1581,1581,1581,0,0,0,0,0,0,0,0,0,0
1683033720.30015802,69928684,1581,1581,1585,1577,0,0,0,0,0,0,0,0,0,0
1683033720.40011811,70028644,1579,1582,1587,1572,0,0,0,0,0,0,0,0,0,0
1683033720.50007796,70128604,1579,1581,1580,1573,0,0,0,0,0,0,0,0,0,0
1683033720.60003805,70228564,1577,1580,1572,1573,0,0,0,0,0,0,0,0,0,0
1683033720.69999814,70328524,1577,1579,1564,1570,0,0,0,0,0,0,0,0,0,0
1683033720.79995799,70428484,1577,1579,1559,1566,0,0,0,0,0,0,0,0,0,0
1683033720.89991808,70528444,1578,1577,1555,1561,0,0,0,0,0,0,0,0,0,0
1683033720.99987793,70628404,1578,1576,1554,1556,0,0,0,0,0,0,0,0,0,0
1683033721.09983802,70728364,1579,1577,1555,1555,0,0,0,0,0,0,0,0,0,0
1683033721.19979811,70828324,1579,1578,1557,1554,0,0,0,0,0,0,0,0,0,0
1683033721.29975796,70928284,1578,1578,1556,1554,0,0,0,0,0,0,0,0,0,0
1683033721.39971805,71028244,1577,1578,1556,1555,0,0,0,0,0,0,0,0,0,0
1683033721.49967813,71128204,1574,1576,1554,1554,0,0,0,0,0,0,0,0,0,0
1683033721.59963799,71228164,1575,1576,1554,1554,0,0,0,0,0,0,0,0,0,0
1683033721.70043111,71328957,1576,1577,1554,1553,0,0,0,0,0,0,0,0,0,0
1683033721.80039096,71428917,1576,1578,1552,1552,0,0,0,0,0,0,0,0,0,0
1683033721.90035105,71528877,1577,1579,1549,1550,0,0,0,0,0,0,0,0,0,0
1683033722.00031114,71628837,1579,1581,1547,1547,0,0,0,0,0,0,0,0,0,0
1683033722.10027099,71728797,1582,1583,1545,1545,0,0,0,0,0,0,0,0,0,0
1683033722.20023108,71828757,1585,1586,1542,1541,0,0,0,0,0,0,0,0,0,0
1683033722.30019093,71928717,1588,1589,1539,1539,0,0,0,0,0,0,0,0,0,0
1683033722.40015101,72028677,1591,1591,1536,1536,0,0,0,0,0,0,0,0,0,0
1683033722.50011110,72128637,1594,1593,1535,1535,0,0,0,0,0,0,0,0,0,0
1683033722.60007095,72228597,1595,1594,1534,1535,0,0,0,0,0,0,0,0,0,0
1683033722.70003104,72328557,1595,1595,1536,1537,0,0,0,0,0,0,0,0,0,0
1683033722.79999113,72428517,1593,1593,1537,1539,0,0,0,0,0,0,0,0,0,0
1683033722.89995098,72528477,1590,1589,1540,1543,0,0,0,0,0,0,0,0,0,0
1683033722.99991107,72628437,1586,1585,1546,1550,0,0,0,0,0,0,0,0,0,0
1683033723.09987092,72728397,1579,1576,1555,1558,0,0,0,0,0,0,0,0,0,0
1683033723.19983101,72828357,1571,1567,1567,1569,0,0,0,0,0,0,0,0,0,0
1683033723.29979110,72928317,1560,1556,1579,1580,0,0,0,0,0,0,0,0,0,0
1683033723.39975095,73028277,1549,1546,1591,1591,0,0,0,0,0,0,0,0,0,0
1683033723.49971104,73128237,1540,1538,1603,1602,0,0,0,0,0,0,0,0,0,0
1683033723.59967113,73228197,1533,1533,1610,1610,0,0,0,0,0,0,0,0,0,0
1683033723.69963098,73328157,1529,1530,1614,1614,0,0,0,0,0,0,0,0,0,0
1683033723.80042410,73428950,1528,1531,1615,1613,0,0,0,0,0,0,0,0,0,0
1683033723.90038395,73528910,1532,1535,1612,1611,0,0,0,0,0,0,0,0,0,0
1683033724.00034404,73628870,1540,1541,1607,1607,0,0,0,0,0,0,0,0,0,0
1683033724.10030413,73728830,1548,1548,1599,1600,0,0,0,0,0,0,0,0,0,0
1683033724.20026398,73828790,1557,1558,1593,1594,0,0,0,0,0,0,0,0,0,0
1683033724.30022407,73928750,1566,1566,1586,1585,0,0,0,0,0,0,0,0,0,0
1683033724.40018392,74028710,1574,1574,1579,1578,0,0,0,0,0,0,0,0,0,0
1683033724.50014400,74128670,1580,1579,1574,1573,0,0,0,0,0,0,0,0,0,0
1683033724.60010409,74228630,1585,1583,1569,1569,0,0,0,0,0,0,0,0,0,0
1683033724.70006394,74328590,1587,1586,1567,1567,0,0,0,0,0,0,0,0,0,0
1683033724.80002403,74428550,1588,1586,1566,1567,0,0,0,0,0,0,0,0,0,0
1683033724.89998412,74528510,1587,1585,1566,1567,0,0,0,0,0,0,0,0,0,0
1683033724.99994397,74628470,1586,1585,1569,1570,0,0,0,0,0,0,0,0,0,0
1683033725.09990406,74728430,1583,1582,1572,1572,0,0,0,0,0,0,0,0,0,0
1683033725.19986391,74828390,1581,1581,1576,1575,0,0,0,0,0,0,0,0,0,0
1683033725.29982400,74928350,1576,1577,1577,1577,0,0,0,0,0,0,0,0,0,0
1683033725.39978409,75028310,1574,1574,1579,1579,0,0,0,0,0,0,0,0,0,0
1683033725.49974394,75128270,1408,1549,1416,1557,0,0,0,0,0,0,0,0,0,0
1683033725.59970403,75228230,1601,1575,1613,1585,0,0,0,0,0,0,0,0,0,0
1683033725.69966412,75328190,1584,1578,1597,1589,0,0,0,0,0,0,0,0,0,0
1683033725.80045700,75428983,1572,1579,1583,1589,0,0,0,0,0,0,0,0,0,0
1683033725.90041709,75528943,1566,1579,1575,1588,0,0,0,0,0,0,0,0,0,0
1683033726.00037694,75628903,1564,1576,1570,1583,0,0,0,0,0,0,0,0,0,0
1683033726.10033703,75728863,1566,1573,1569,1577,0,0,0,0,0,0,0,0,0,0
1683033726.20029712,75828823,1572,1572,1571,1572,0,0,0,0,0,0,0,0,0,0
1683033726.30025697,75928783,1577,1573,1573,1570,0,0,0,0,0,0,0,0,0,0
1683033726.40021706,76028743,1581,1576,1576,1571,0,0,0,0,0,0,0,0,0,0
1683033726.50017715,76128703,1582,1578,1577,1571,0,0,0,0,0,0,0,0,0,0
1683033726.60013700,76228663,1583,1580,1578,1575,0,0,0,0,0,0,0,0,0,0
1683033726.70009708,76328623,1583,1581,1577,1576,0,0,0,0,0,0,0,0,0,0
1683033726.80005693,76428583,1581,1581,1578,1577,0,0,0,0,0,0,0,0,0,0
1683033726.90001702,76528543,1580,1582,1578,1580,0,0,0,0,0,0,0,0,0,0
1683033726.99997711,76628503,1581,1582,1580,1581,0,0,0,0,0,0,0,0,0,0
1683033727.09993696,76728463,1580,1580,1581,1581,0,0,0,0,0,0,0,0,0,0
1683033727.19989705,76828423,1580,1580,1582,1582,0,0,0,0,0,0,0,0,0,0
1683033727.29985714,76928383,1581,1580,1584,1583,0,0,0,0,0,0,0,0,0,0
1683033727.39981699,77028343,1580,1581,1584,1583,0,0,0,0,0,0,0,0,0,0
1683033727.49977708,77128303,1579,1579,1583,1582,0,0,0,0,0,0,0,0,0,0
1683033727.59973693,77228263,1579,1580,1583,1583,0,0,0,0,0,0,0,0,0,0
1683033727.69969702,77328223,1580,1579,1582,1582,0,0,0,0,0,0,0,0,0,0
1683033727.79965711,77428183,1581,1581,1582,1583,0,0,0,0,0,0,0,0,0,0
1683033727.90044999,77528976,1581,1580,1582,1581,0,0,0,0,0,0,0,0,0,0
1683033728.00041008,77628936,1581,1582,1582,1582,0,0,0,0,0,0,0,0,0,0
1683033728.10036993,77728896,1582,1582,1582,1582,0,0,0,0,0,0,0,0,0,0
1683033728.20033002,77828856,1582,1582,1581,1581,0,0,0,0,0,0,0,0,0,0
1683033728.30029011,77928816,1581,1582,1582,1578,0,0,0,0,0,0,0,0,0,0
1683033728.40024996,78028776,1581,1585,1588,1572,0,0,0,0,0,0,0,0,0,0
1683033728.50021005,78128736,1581,1585,1581,1571,0,0,0,0,0,0,0,0,0,0
1683033728.60017014,78228696,1580,1582,1571,1570,0,0,0,0,0,0,0,0,0,0
1683033728.70012999,78328656,1580,1581,1562,1568,0,0,0,0,0,0,0,0,0,0
1683033728.80009007,78428616,1580,1581,1555,1563,0,0,0,0,0,0,0,0,0,0
1683033728.90004992,78528576,1580,1580,1552,1558,0,0,0,0,0,0,0,0,0,0
1683033729.00001001,78628536,1582,1580,1552,1554,0,0,0,0,0,0,0,0,0,0
1683033729.09997010,78728496,1583,1582,1554,1554,0,0,0,0,0,0,0,0,0,0
1683033729.19992995,78828456,1582,1581,1555,1552,0,0,0,0,0,0,0,0,0,0
1683033729.29989004,78928416,1581,1581,1555,1553,0,0,0,0,0,0,0,0,0,0
1683033729.39985013,79028376,1579,1579,1555,1553,0,0,0,0,0,0,0,0,0,0
1683033729.49980998,79128336,1577,1578,1554,1553,0,0,0,0,0,0,0,0,0,0
1683033729.59977007,79228296,1576,1578,1554,1553,0,0,0,0,0,0,0,0,0,0
1683033729.69972992,79328256,1575,1577,1551,1552,0,0,0,0,0,0,0,0,0,0
1683033729.79969001,79428216,1577,1579,1551,1552,0,0,0,0,0,0,0,0,0,0
1683033729.89965010,79528176,1579,1580,1550,1550,0,0,0,0,0,0,0,0,0,0
1683033730.00044298,79628969,1581,1581,1548,1548,0,0,0,0,0,0,0,0,0,0
1683033730.10040307,79728929,1583,1584,1547,1547,0,0,0,0,0,0,0,0,0,0
1683033730.20036292,79828889,1585,1586,1545,1544,0,0,0,0,0,0,0,0,0,0
1683033730.30032301,79928849,1588,1589,1542,1542,0,0,0,0,0,0,0,0,0,0
1683033730.40028310,80028809,1590,1592,1539,1540,0,0,0,0,0,0,0,0,0,0
1683033730.50024295,80128769,1593,1594,1537,1540,0,0,0,0,0,0,0,0,0,0
1683033730.60020304,80228729,1595,1594,1539,1541,0,0,0,0,0,0,0,0,0,0
1683033730.70016313,80328689,1593,1591,1541,1544,0,0,0,0,0,0,0,0,0,0
1683033730.80012298,80428649,1590,1587,1547,1549,0,0,0,0,0,0,0,0,0,0
1683033730.90008307,80528609,1584,1580,1555,1557,0,0,0,0,0,0,0,0,0,0
1683033731.00004292,80628569,1576,1573,1566,1567,0,0,0,0,0,0,0,0,0,0
1683033731.10000300,80728529,1566,1563,1576,1578,0,0,0,0,0,0,0,0,0,0
1683033731.19996309,80828489,1556,1554,1588,1589,0,0,0,0,0,0,0,0,0,0
1683033731.29992294,80928449,1548,1547,1598,1598,0,0,0,0,0,0,0,0,0,0
1683033731.39988303,81028409,1542,1541,1605,1605,0,0,0,0,0,0,0,0,0,0
1683033731.49984312,81128369,1537,1538,1610,1609,0,0,0,0,0,0,0,0,0,0
1683033731.59980297,81228329,1536,1538,1611,1611,0,0,0,0,0,0,0,0,0,0
1683033731.69976306,81328289,1539,1541,1610,1610,0,0,0,0,0,0,0,0,0,0
1683033731.79972291,81428249,1544,1545,1606,1605,0,0,0,0,0,0,0,0,0,0
1683033731.89968300,81528209,1551,1552,1601,1600,0,0,0,0,0,0,0,0,0,0
1683033731.99964309,81628169,1559,1560,1595,1594,0,0,0,0,0,0,0,0,0,0
1683033732.10043597,81728962,1567,1567,1588,1587,0,0,0,0,0,0,0,0,0,0
1683033732.20039606,81828922,1573,1573,1582,1581,0,0,0,0,0,0,0,0,0,0
1683033732.30035591,81928882,1578,1578,1576,1577,0,0,0,0,0,0,0,0,0,0
1683033732.40031600,82028842,1582,1582,1572,1572,0,0,0,0,0,0,0,0,0,0
1683033732.50027609,82128802,1585,1584,1570,1570,0,0,0,0,0,0,0,0,0,0
1683033732.60023594,82228762,1587,1586,1569,1569,0,0,0,0,0,0,0,0,0,0
1683033732.70019603,82328722,1586,1585,1570,1569,0,0,0,0,0,0,0,0,0,0
1683033732.80015612,82428682,1585,1584,1572,1571,0,0,0,0,0,0,0,0,0,0
1683033732.90011597,82528642,1583,1582,1573,1573,0,0,0,0,0,0,0,0,0,0
1683033733.00007606,82628602,1580,1580,1576,1576,0,0,0,0,0,0,0,0,0,0
1683033733.10003614,82728562,1577,1577,1577,1578,0,0,0,0,0,0,0,0,0,0
1683033733.19999599,82828522,1575,1576,1580,1581,0,0,0,0,0,0,0,0,0,0
1683033733.29995608,82928482,1573,1574,1581,1581,0,0,0,0,0,0,0,0,0,0
1683033733.39991593,83028442,1573,1574,1583,1583,0,0,0,0,0,0,0,0,0,0
1683033733.49987602,83128402,1573,1573,1584,1583,0,0,0,0,0,0,0,0,0,0
1683033733.59983611,83228362,1574,1574,1584,1583,0,0,0,0,0,0,0,0,0,0
1683033733.69979596,83328322,1575,1575,1583,1583,0,0,0,0,0,0,0,0,0,0
1683033733.79975605,83428282,1576,1576,1582,1582,0,0,0,0,0,0,0,0,0,0
1683033733.89971614,83528242,1577,1577,1581,1581,0,0,0,0,0,0,0,0,0,0
1683033733.99967599,83628202,1578,1578,1580,1580,0,0,0,0,0,0,0,0,0,0
1683033734.09963608,83728162,1579,1580,1580,1580,0,0,0,0,0,0,0,0,0,0
1683033734.20042896,83828955,1580,1580,1578,1579,0,0,0,0,0,0,0,0,0,0
1683033734.30038905,83928915,1582,1581,1578,1578,0,0,0,0,0,0,0,0,0,0
1683033734.40034914,84028875,1582,1582,1578,1578,0,0,0,0,0,0,0,0,0,0
1683033734.50030899,84128835,1582,1581,1578,1578,0,0,0,0,0,0,0,0,0,0
1683033734.60026908,84228795,1581,1581,1578,1578,0,0,0,0,0,0,0,0,0,0
1683033734.70022893,84328755,1581,1581,1578,1578,0,0,0,0,0,0,0,0,0,0
1683033734.80018902,84428715,1581,1580,1579,1579,0,0,0,0,0,0,0,0,0,0
1683033734.90014911,84528675,1580,1580,1580,1580,0,0,0,0,0,0,0,0,0,0
1683033735.00010896,84628635,1580,1580,1580,1580,0,0,0,0,0,0,0,0,0,0
1683033735.10006905,84728595,1579,1579,1580,1580,0,0,0,0,0,0,0,0,0,0
1683033735.20002913,84828555,1580,1580,1580,1581,0,0,0,0,0,0,0,0,0,0
1683033735.29998899,84928515,1580,1580,1581,1581,0,0,0,0,0,0,0,0,0,0
1683033735.39994907,85028475,1580,1580,1581,1581,0,0,0,0,0,0,0,0,0,0
1683033735.49990892,85128435,1579,1579,1580,1580,0,0,0,0,0,0,0,0,0,0
1683033735.59986901,85228395,1580,1580,1581,1581,0,0,0,0,0,0,0,0,0,0
1683033735.69982910,85328355,1580,1580,1581,1581,0,0,0,0,0,0,0,0,0,0
1683033735.79978895,85428315,1579,1580,1580,1580,0,0,0,0,0,0,0,0,0,0
1683033735.89974904,85528275,1580,1580,1580,1581,0,0,0,0,0,0,0,0,0,0
1683033735.99970913,85628235,1581,1581,1581,1581,0,0,0,0,0,0,0,0,0,0
1683033736.09966898,85728195,1581,1581,1581,1581,0,0,0,0,0,0,0,0,0,0
1683033736.19962907,85828155,1582,1582,1581,1581,0,0,0,0,0,0,0,0,0,0
1683033736.30042195,85928948,1582,1582,1581,1582,0,0,0,0,0,0,0,0,0,0
1683033736.40038204,86028908,1581,1582,1587,1574,0,0,0,0,0,0,0,0,0,0
1683033736.50034213,86128868,1581,1583,1585,1572,0,0,0,0,0,0,0,0,0,0
1683033736.60030198,86228828,1580,1583,1577,1573,0,0,0,0,0,0,0,0,0,0
1683033736.70026207,86328788,1578,1581,1568,1571,0,0,0,0,0,0,0,0,0,0
1683033736.80022192,86428748,1578,1580,1560,1567,0,0,0,0,0,0,0,0,0,0
1683033736.90018201,86528708,1578,1579,1556,1563,0,0,0,0,0,0,0,0,0,0
1683033737.00014210,86628668,1580,1578,1554,1558,0,0,0,0,0,0,0,0,0,0
1683033737.10010195,86728628,1580,1579,1555,1555,0,0,0,0,0,0,0,0,0,0
1683033737.20006204,86828588,1580,1579,1556,1554,0,0,0,0,0,0,0,0,0,0
1683033737.30002213,86928548,1579,1579,1556,1554,0,0,0,0,0,0,0,0,0,0
1683033737.39998198,87028508,1578,1578,1556,1553,0,0,0,0,0,0,0,0,0,0
1683033737.49994206,87128468,1577,1577,1555,1555,0,0,0,0,0,0,0,0,0,0
1683033737.59990191,87228428,1576,1577,1555,1555,0,0,0,0,0,0,0,0,0,0
1683033737.69986200,87328388,1576,1577,1554,1554,0,0,0,0,0,0,0,0,0,0
1683033737.79982209,87428348,1576,1577,1552,1553,0,0,0,0,0,0,0,0,0,0
1683033737.89978194,87528308,1577,1578,1551,1551,0,0,0,0,0,0,0,0,0,0
1683033737.99974203,87628268,1578,1580,1549,1549,0,0,0,0,0,0,0,0,0,0
1683033738.09970212,87728228,1580,1580,1545,1545,0,0,0,0,0,0,0,0,0,0
1683033738.19966197,87828188,1583,1584,1544,1543,0,0,0,0,0,0,0,0,0,0
1683033738.30045509,87928981,1586,1587,1542,1541,0,0,0,0,0,0,0,0,0,0
1683033738.40041494,88028941,1588,1588,1539,1539,0,0,0,0,0,0,0,0,0,0
1683033738.50037503,88128901,1590,1590,1537,1537,0,0,0,0,0,0,0,0,0,0
1683033738.60033512,88228861,1591,1592,1537,1538,0,0,0,0,0,0,0,0,0,0
1683033738.70029497,88328821,1592,1593,1536,1538,0,0,0,0,0,0,0,0,0,0
1683033738.80025506,88428781,1593,1592,1537,1540,0,0,0,0,0,0,0,0,0,0
1683033738.90021491,88528741,1591,1590,1541,1544,0,0,0,0,0,0,0,0,0,0
1683033739.00017500,88628701,1588,1585,1547,1550,0,0,0,0,0,0,0,0,0,0
1683033739.10013509,88728661,1582,1578,1556,1559,0,0,0,0,0,0,0,0,0,0
1683033739.20009494,88828621,1573,1570,1568,1569,0,0,0,0,0,0,0,0,0,0
1683033739.30005503,88928581,1563,1560,1579,1581,0,0,0,0,0,0,0,0,0,0
1683033739.40001512,89028541,1551,1549,1589,1590,0,0,0,0,0,0,0,0,0,0
1683033739.49997497,89128501,1543,1541,1600,1600,0,0,0,0,0,0,0,0,0,0
1683033739.59993505,89228461,1536,1536,1607,1607,0,0,0,0,0,0,0,0,0,0
1683033739.69989514,89328421,1534,1535,1612,1612,0,0,0,0,0,0,0,0,0,0
1683033739.79985499,89428381,1534,1535,1613,1613,0,0,0,0,0,0,0,0,0,0
1683033739.89981508,89528341,1537,1539,1611,1610,0,0,0,0,0,0,0,0,0,0
1683033739.99977493,89628301,1543,1545,1607,1607,0,0,0,0,0,0,0,0,0,0
1683033740.09973502,89728261,1551,1552,1601,1600,0,0,0,0,0,0,0,0,0,0
1683033740.19969511,89828221,1559,1560,1594,1593,0,0,0,0,0,0,0,0,0,0
1683033740.29965496,89928181,1567,1567,1587,1586,0,0,0,0,0,0,0,0,0,0
1683033740.40044808,90028974,1574,1574,1581,1580,0,0,0,0,0,0,0,0,0,0
1683033740.50040793,90128934,1580,1579,1575,1574,0,0,0,0,0,0,0,0,0,0
1683033740.60036802,90228894,1583,1583,1571,1571,0,0,0,0,0,0,0,0,0,0
1683033740.70032811,90328854,1586,1585,1568,1568,0,0,0,0,0,0,0,0,0,0
1683033740.80028796,90428814,1586,1585,1567,1567,0,0,0,0,0,0,0,0,0,0
1683033740.90024805,90528774,1586,1584,1568,1568,0,0,0,0,0,0,0,0,0,0
1683033741.00020814,90628734,1584,1583,1570,1570,0,0,0,0,0,0,0,0,0,0
1683033741.10016799,90728694,1582,1581,1572,1572,0,0,0,0,0,0,0,0,0,0
1683033741.20012808,90828654,1579,1579,1575,1575,0,0,0,0,0,0,0,0,0,0
1683033741.30008793,90928614,1577,1578,1578,1578,0,0,0,0,0,0,0,0,0,0
1683033741.40004802,91028574,1576,1576,1581,1581,0,0,0,0,0,0,0,0,0,0
1683033741.50000811,91128534,1574,1575,1583,1582,0,0,0,0,0,0,0,0,0,0
1683033741.59996796,91228494,1573,1574,1584,1583,0,0,0,0,0,0,0,0,0,0
1683033741.69992805,91328454,1573,1573,1584,1583,0,0,0,0,0,0,0,0,0,0
1683033741.79988813,91428414,1573,1573,1583,1583,0,0,0,0,0,0,0,0,0,0
1683033741.89984798,91528374,1575,1575,1583,1583,0,0,0,0,0,0,0,0,0,0
1683033741.99980807,91628334,1576,1576,1582,1582,0,0,0,0,0,0,0,0,0,0
1683033742.09976792,91728294,1577,1577,1580,1581,0,0,0,0,0,0,0,0,0,0
1683033742.19972801,91828254,1578,1578,1579,1579,0,0,0,0,0,0,0,0,0,0
1683033742.29968810,91928214,1579,1579,1578,1578,0,0,0,0,0,0,0,0,0,0
1683033742.39964795,92028174,1579,1579,1577,1577,0,0,0,0,0,0,0,0,0,0
1683033742.50044107,92128967,1580,1580,1577,1577,0,0,0,0,0,0,0,0,0,0
1683033742.60040092,92228927,1580,1580,1576,1576,0,0,0,0,0,0,0,0,0,0
1683033742.70036101,92328887,1581,1581,1577,1577,0,0,0,0,0,0,0,0,0,0
1683033742.80032110,92428847,1581,1581,1579,1578,0,0,0,0,0,0,0,0,0,0
1683033742.90028095,92528807,1582,1581,1579,1579,0,0,0,0,0,0,0,0,0,0
1683033743.00024104,92628767,1580,1580,1578,1579,0,0,0,0,0,0,0,0,0,0
1683033743.10020113,92728727,1580,1580,1579,1579,0,0,0,0,0,0,0,0,0,0
1683033743.20016098,92828687,1579,1579,1579,1579,0,0,0,0,0,0,0,0,0,0
1683033743.30012107,92928647,1579,1579,1580,1580,0,0,0,0,0,0,0,0,0,0
1683033743.40008092,93028607,1580,1580,1581,1581,0,0,0,0,0,0,0,0,0,0
1683033743.50004101,93128567,1581,1581,1583,1582,0,0,0,0,0,0,0,0,0,0
1683033743.60000110,93228527,1580,1580,1581,1581,0,0,0,0,0,0,0,0,0,0
1683033743.69996095,93328487,1579,1579,1581,1581,0,0,0,0,0,0,0,0,0,0
1683033743.79992104,93428447,1579,1579,1580,1580,0,0,0,0,0,0,0,0,0,0
1683033743.89988112,93528407,1580,1580,1581,1580,0,0,0,0,0,0,0,0,0,0
1683033743.99984097,93628367,1580,1580,1581,1581,0,0,0,0,0,0,0,0,0,0
1683033744.09980106,93728327,1580,1580,1580,1580,0,0,0,0,0,0,0,0,0,0
1683033744.19976091,93828287,1581,1581,1581,1581,0,0,0,0,0,0,0,0,0,0
1683033744.29972100,93928247,1581,1581,1585,1574,0,0,0,0,0,0,0,0,0,0
1683033744.39968109,94028207,1581,1582,1587,1573,0,0,0,0,0,0,0,0,0,0
1683033744.49964094,94128167,1579,1580,1581,1574,0,0,0,0,0,0,0,0,0,0
1683033744.60043406,94228960,1576,1575,1572,1575,0,0,0,0,0,0,0,0,0,0
1683033744.70039392,94328920,1573,1572,1567,1574,0,0,0,0,0,0,0,0,0,0
1683033744.80035400,94428880,1570,1569,1565,1572,0,0,0,0,0,0,0,0,0,0
1683033744.90031409,94528840,1568,1568,1565,1570,0,0,0,0,0,0,0,0,0,0
1683033745.00027394,94628800,1566,1566,1565,1567,0,0,0,0,0,0,0,0,0,0
1683033745.10023403,94728760,1565,1566,1566,1565,0,0,0,0,0,0,0,0,0,0
1683033745.20019412,94828720,1566,1566,1568,1565,0,0,0,0,0,0,0,0,0,0
1683033745.30015397,94928680,1564,1564,1566,1563,0,0,0,0,0,0,0,0,0,0
1683033745.40011406,95028640,1564,1564,1566,1564,0,0,0,0,0,0,0,0,0,0
1683033745.50007391,95128600,1564,1564,1565,1564,0,0,0,0,0,0,0,0,0,0
1683033745.60003400,95228560,1563,1563,1564,1564,0,0,0,0,0,0,0,0,0,0
1683033745.69999409,95328520,1562,1562,1562,1563,0,0,0,0,0,0,0,0,0,0
1683033745.79995394,95428480,1562,1562,1562,1563,0,0,0,0,0,0,0,0,0,0
1683033745.89991403,95528440,1562,1562,1562,1562,0,0,0,0,0,0,0,0,0,0
1683033745.99987411,95628400,1562,1563,1562,1562,0,0,0,0,0,0,0,0,0,0
1683033746.09983397,95728360,1562,1562,1561,1561,0,0,0,0,0,0,0,0,0,0
1683033746.19979405,95828320,1560,1560,1560,1559,0,0,0,0,0,0,0,0,0,0
1683033746.29975414,95928280,1559,1559,1559,1558,0,0,0,0,0,0,0,0,0,0
1683033746.39971399,96028240,1558,1558,1558,1557,0,0,0,0,0,0,0,0,0,0
1683033746.49967408,96128200,1557,1557,1558,1557,0,0,0,0,0,0,0,0,0,0
1683033746.59963393,96228160,1556,1557,1557,1556,0,0,0,0,0,0,0,0,0,0
1683033746.70042706,96328953,1557,1557,1558,1556,0,0,0,0,0,0,0,0,0,0
1683033746.80038714,96428913,1557,1558,1558,1557,0,0,0,0,0,0,0,0,0,0
1683033746.90034699,96528873,1558,1558,1559,1557,0,0,0,0,0,0,0,0,0,0
1683033747.00030708,96628833,1558,1557,1559,1556,0,0,0,0,0,0,0,0,0,0
1683033747.10026693,96728793,1558,1558,1559,1558,0,0,0,0,0,0,0,0,0,0
1683033747.20022702,96828753,1559,1559,1557,1560,0,0,0,0,0,0,0,0,0,0
1683033747.30018711,96928713,1560,1560,1557,1563,0,0,0,0,0,0,0,0,0,0
1683033747.40014696,97028673,1561,1561,1558,1564,0,0,0,0,0,0,0,0,0,0
1683033747.50010705,97128633,1563,1562,1560,1565,0,0,0,0,0,0,0,0,0,0
1683033747.60006714,97228593,1563,1563,1562,1564,0,0,0,0,0,0,0,0,0,0
1683033747.70002699,97328553,1564,1564,1564,1564,0,0,0,0,0,0,0,0,0,0
1683033747.79998708,97428513,1563,1563,1564,1561,0,0,0,0,0,0,0,0,0,0
1683033747.89994693,97528473,1561,1560,1560,1561,0,0,0,0,0,0,0,0,0,0
1683033747.99990702,97628433,1556,1556,1555,1557,0,0,0,0,0,0,0,0,0,0
1683033748.09986711,97728393,1551,1551,1550,1552,0,0,0,0,0,0,0,0,0,0
1683033748.19982696,97828353,1545,1545,1545,1545,0,0,0,0,0,0,0,0,0,0
1683033748.29978704,97928313,1538,1538,1538,1538,0,0,0,0,0,0,0,0,0,0
1683033748.39974713,98028273,1531,1531,1531,1531,0,0,0,0,0,0,0,0,0,0
1683033748.49970698,98128233,1523,1523,1523,1523,0,0,0,0,0,0,0,0,0,0
1683033748.59966707,98228193,1520,1520,1520,1520,0,0,0,0,0,0,0,0,0,0
1683033748.70045996,98328986,1520,1520,1520,1520,0,0,0,0,0,0,0,0,0,0
1683033748.80042005,98428946,1520,1520,1520,1520,0,0,0,0,0,0,0,0,0,0
1683033748.90038013,98528906,1523,1523,1523,1523,0,0,0,0,0,0,0,0,0,0
1683033749.00033998,98628866,1526,1526,1526,1527,0,0,0,0,0,0,0,0,0,0
1683033749.10030007,98728826,1530,1530,1530,1530,0,0,0,0,0,0,0,0,0,0
1683033749.20025992,98828786,1536,1535,1536,1535,0,0,0,0,0,0,0,0,0,0
1683033749.30022001,98928746,1538,1538,1538,1538,0,0,0,0,0,0,0,0,0,0
1683033749.40018010,99028706,1540,1541,1541,1540,0,0,0,0,0,0,0,0,0,0
1683033749.50013995,99128666,1544,1543,1543,1543,0,0,0,0,0,0,0,0,0,0
1683033749.60010004,99228626,1544,1544,1544,1544,0,0,0,0,0,0,0,0,0,0
1683033749.70006013,99328586,1545,1546,1545,1546,0,0,0,0,0,0,0,0,0,0
1683033749.80001998,99428546,1546,1546,1546,1546,0,0,0,0,0,0,0,0,0,0
1683033749.89998007,99528506,1547,1546,1546,1547,0,0,0,0,0,0,0,0,0,0
1683033749.99993992,99628466,1546,1546,1547,1546,0,0,0,0,0,0,0,0,0,0
1683033750.09990001,99728426,1546,1546,1546,1545,0,0,0,0,0,0,0,0,0,0
1683033750.19986010,99828386,1545,1546,1545,1546,0,0,0,0,0,0,0,0,0,0
1683033750.29981995,99928346,1545,1545,1545,1545,0,0,0,0,0,0,0,0,0,0
1683033750.39978004,100028306,1545,1545,1545,1545,0,0,0,0,0,0,0,0,0,0
1683033750.49974012,100128266,1545,1545,1545,1545,0,0,0,0,0,0,0,0,0,0
1683033750.59969997,100228226,1545,1545,1545,1545,0,0,0,0,0,0,0,0,0,0
1683033750.69966006,100328186,1545,1545,1545,1545,0,0,0,0,0,0,0,0,0,0
1683033750.80045295,100428979,1544,1545,1545,1545,0,0,0,0,0,0,0,0,0,0
1683033750.90041304,100528939,1544,1545,1544,1544,0,0,0,0,0,0,0,0,0,0
1683033751.00037313,100628899,1544,1544,1544,1544,0,0,0,0,0,0,0,0,0,0
1683033751.10033298,100728859,1543,1543,1544,1543,0,0,0,0,0,0,0,0,0,0
1683033751.20029306,100828819,1545,1545,1545,1545,0,0,0,0,0,0,0,0,0,0
1683033751.30025291,100928779,1545,1544,1544,1544,0,0,0,0,0,0,0,0,0,0
1683033751.40021300,101028739,1544,1544,1544,1544,0,0,0,0,0,0,0,0,0,0
1683033751.50017309,101128699,1543,1543,1543,1543,0,0,0,0,0,0,0,0,0,0
1683033751.60013294,101228659,1543,1544,1543,1544,0,0,0,0,0,0,0,0,0,0
1683033751.70009303,101328619,1544,1544,1544,1544,0,0,0,0,0,0,0,0,0,0
1683033751.80005312,101428579,1544,1545,1544,1544,0,0,0,0,0,0,0,0,0,0
1683033751.90001297,101528539,1544,1543,1543,1543,0,0,0,0,0,0,0,0,0,0
1683033751.99997306,101628499,1544,1544,1543,1544,0,0,0,0,0,0,0,0,0,0
1683033752.09993291,101728459,1544,1544,1544,1544,0,0,0,0,0,0,0,0,0,0
1683033752.19989300,101828419,1544,1544,1544,1544,0,0,0,0,0,0,0,0,0,0
1683033752.29985309,101928379,1544,1543,1543,1543,0,0,0,0,0,0,0,0,0,0
1683033752.39981294,102028339,1544,1544,1544,1544,0,0,0,0,0,0,0,0,0,0
1683033752.49977303,102128299,1544,1544,1544,1544,0,0,0,0,0,0,0,0,0,0
1683033752.59973311,102228259,1544,1544,1544,1544,0,0,0,0,0,0,0,0,0,0
1683033752.69969296,102328219,1544,1544,1544,1544,0,0,0,0,0,0,0,0,0,0
1683033752.79965305,102428179,1544,1544,1544,1544,0,0,0,0,0,0,0,0,0,0
1683033752.90044594,102528972,1544,1544,1544,1544,0,0,0,0,0,0,0,0,0,0
1683033753.00040603,102628932,1544,1544,1544,1544,0,0,0,0,0,0,0,0,0,0
1683033753.10036612,102728892,1544,1543,1543,1544,0,0,0,0,0,0,0,0,0,0
1683033753.20032597,102828852,1544,1543,1543,1544,0,0,0,0,0,0,0,0,0,0
1683033753.30028605,102928812,1544,1544,1544,1544,0,0,0,0,0,0,0,0,0,0
1683033753.40024614,103028772,1544,1545,1544,1544,0,0,0,0,0,0,0,0,0,0
1683033753.50020599,103128732,1543,1544,1544,1543,0,0,0,0,0,0,0,0,0,0
1683033753.60016608,103228692,1544,1545,1545,1544,0,0,0,0,0,0,0,0,0,0
1683033753.70012593,103328652,1544,1544,1544,1544,0,0,0,0,0,0,0,0,0,0
1683033753.80008602,103428612,1543,1543,1543,1544,0,0,0,0,0,0,0,0,0,0
1683033753.90004611,103528572,1544,1543,1543,1544,0,0,0,0,0,0,0,0,0,0
1683033754.00000596,103628532,1544,1544,1544,1544,0,0,0,0,0,0,0,0,0,0
1683033754.09996605,103728492,1544,1543,1543,1544,0,0,0,0,0,0,0,0,0,0
1683033754.19992614,103828452,1544,1544,1544,1544,0,0,0,0,0,0,0,0,0,0
1683033754.29988599,103928412,1544,1543,1544,1543,0,0,0,0,0,0,0,0,0,0
1683033754.39984608,104028372,1544,1544,1544,1544,0,0,0,0,0,0,0,0,0,0
1683033754.49980593,104128332,1544,1544,1543,1544,0,0,0,0,0,0,0,0,0,0
1683033754.59976602,104228292,1544,1545,1544,1544,0,0,0,0,0,0,0,0,0,0
1683033754.69972610,104328252,1544,1545,1544,1544,0,0,0,0,0,0,0,0,0,0
1683033754.79968596,104428212,1544,1544,1544,1544,0,0,0,0,0,0,0,0,0,0
1683033754.89964604,104528172,1544,1544,1544,1544,0,0,0,0,0,0,0,0,0,0
1683033755.00043893,104628965,1544,1545,1544,1545,0,0,0,0,0,0,0,0,0,0
1683033755.10039902,104728925,1545,1545,1545,1545,0,0,0,0,0,0,0,0,0,0
1683033755.20035911,104828885,1544,1544,1544,1544,0,0,0,0,0,0,0,0,0,0
1683033755.30031896,104928845,1545,1545,1545,1545,0,0,0,0,0,0,0,0,0,0
1683033755.40027905,105028805,1545,1545,1545,1545,0,0,0,0,0,0,0,0,0,0
1683033755.50023913,105128765,1545,1545,1545,1545,0,0,0,0,0,0,0,0,0,0
1683033755.60019898,105228725,1545,1545,1545,1544,0,0,0,0,0,0,0,0,0,0
1683033755.70015907,105328685,1544,1543,1544,1544,0,0,0,0,0,0,0,0,0,0
1683033755.80011892,105428645,1544,1544,1544,1544,0,0,0,0,0,0,0,0,0,0
1683033755.90007901,105528605,1545,1545,1545,1545,0,0,0,0,0,0,0,0,0,0
1683033756.00003910,105628565,1544,1544,1544,1544,0,0,0,0,0,0,0,0,0,0
1683033756.09999895,105728525,1545,1545,1545,1545,0,0,0,0,0,0,0,0,0,0
1683033756.19995904,105828485,1545,1545,1546,1545,0,0,0,0,0,0,0,0,0,0
1683033756.29991913,105928445,1544,1544,1544,1544,0,0,0,0,0,0,0,0,0,0
1683033756.39987898,106028405,1544,1545,1544,1545,0,0,0,0,0,0,0,0,0,0
1683033756.49983907,106128365,1544,1544,1544,1544,0,0,0,0,0,0,0,0,0,0
1683033756.59979892,106228325,1545,1544,1545,1544,0,0,0,0,0,0,0,0,0,0
1683033756.69975901,106328285,1544,1543,1543,1543,0,0,0,0,0,0,0,0,0,0
1683033756.79971910,106428245,1544,1544,1544,1543,0,0,0,0,0,0,0,0,0,0
1683033756.89967895,106528205,1544,1544,1544,1544,0,0,0,0,0,0,0,0,0,0
1683033756.99963903,106628165,1543,1544,1544,1544,0,0,0,0,0,0,0,0,0,0
1683033757.10043192,106728958,1544,1544,1544,1545,0,0,0,0,0,0,0,0,0,0
1683033757.20039201,106828918,1544,1544,1544,1544,0,0,0,0,0,0,0,0,0,0
1683033757.30035210,106928878,1545,1544,1544,1545,0,0,0,0,0,0,0,0,0,0
1683033757.40031195,107028838,1544,1544,1544,1544,0,0,0,0,0,0,0,0,0,0
1683033757.50027204,107128798,1545,1545,1545,1545,0,0,0,0,0,0,0,0,0,0
1683033757.60023212,107228758,1544,1545,1545,1544,0,0,0,0,0,0,0,0,0,0
1683033757.70019197,107328718,1545,1544,1544,1545,0,0,0,0,0,0,0,0,0,0
1683033757.80015206,107428678,1544,1543,1543,1544,0,0,0,0,0,0,0,0,0,0
1683033757.90011191,107528638,1544,1544,1544,1544,0,0,0,0,0,0,0,0,0,0
1683033758.00007200,107628598,1543,1544,1544,1543,0,0,0,0,0,0,0,0,0,0
1683033758.10003209,107728558,1544,1544,1544,1544,0,0,0,0,0,0,0,0,0,0
1683033758.19999194,107828518,1544,1544,1544,1544,0,0,0,0,0,0,0,0,0,0
1683033758.29995203,107928478,1456,1459,1456,1458,0,0,0,0,0,0,0,0,0,0
1683033758.39991212,108028438,1284,1298,1287,1296,0,0,0,0,0,0,0,0,0,0
1683033758.49987197,108128398,1210,1229,1213,1227,0,0,0,0,0,0,0,0,0,0
1683033758.59983206,108228358,1185,1206,1188,1204,0,0,0,0,0,0,0,0,0,0
1683033758.69979215,108328318,1176,1197,1177,1196,0,0,0,0,0,0,0,0,0,0
1683033758.79975200,108428278,1176,1197,1178,1195,0,0,0,0,0,0,0,0,0,0
1683033758.89971209,108528238,1176,1196,1178,1195,0,0,0,0,0,0,0,0,0,0
1683033758.99967194,108628198,1212,1197,1176,1230,0,0,0,0,0,0,0,0,0,0
1683033759.09963202,108728158,1199,1195,1176,1218,0,0,0,0,0,0,0,0,0,0
1683033759.20042491,108828951,1195,1195,1176,1213,0,0,0,0,0,0,0,0,0,0
1683033759.30038500,108928911,1196,1195,1176,1214,0,0,0,0,0,0,0,0,0,0
1683033759.40034509,109028871,1197,1195,1176,1215,0,0,0,0,0,0,0,0,0,0
1683033759.50030494,109128831,1200,1194,1176,1217,0,0,0,0,0,0,0,0,0,0
1683033759.60026503,109228791,1201,1194,1176,1219,0,0,0,0,0,0,0,0,0,0
1683033759.70022511,109328751,1204,1194,1176,1221,0,0,0,0,0,0,0,0,0,0
1683033759.80018497,109428711,1189,1195,1176,1208,0,0,0,0,0,0,0,0,0,0
1683033759.90014505,109528671,1190,1195,1176,1210,0,0,0,0,0,0,0,0,0,0
1683033760.00010514,109628631,1191,1195,1176,1210,0,0,0,0,0,0,0,0,0,0
1683033760.10006499,109728591,1192,1195,1176,1211,0,0,0,0,0,0,0,0,0,0
1683033760.20002508,109828551,1192,1195,1176,1211,0,0,0,0,0,0,0,0,0,0
1683033760.29998493,109928511,1000,1000,1000,1000,0,0,0,0,0,0,0,0,0,0
1683033760.39994502,110028471,1000,1000,1000,1000,0,0,0,0,0,0,0,0,0,0
1683033760.49990511,110128431,1000,1000,1000,1000,0,0,0,0,0,0,0,0,0,0
1683033760.59986496,110228391,1000,1000,1000,1000,0,0,0,0,0,0,0,0,0,0
1683033760.69982505,110328351,1000,1000,1000,1000,0,0,0,0,0,0,0,0,0,0
1683033760.79978514,110428311,1000,1000,1000,1000,0,0,0,0,0,0,0,0,0,0
1683033760.89974499,110528271,1000,1000,1000,1000,0,0,0,0,0,0,0,0,0,0
1683033760.99970508,110628231,1000,1000,1000,1000,0,0,0,0,0,0,0,0,0,0
1683033761.09966493,110728191,1000,1000,1000,1000,0,0,0,0,0,0,0,0,0,0
1683033761.20045805,110828984,1000,1000,1000,1000,0,0,0,0,0,0,0,0,0,0
1683033761.30041814,110928944,1000,1000,1000,1000,0,0,0,0,0,0,0,0,0,0
1683033761.40037799,111028904,1000,1000,1000,1000,0,0,0,0,0,0,0,0,0,0
1683033761.50033808,111128864,1000,1000,1000,1000,0,0,0,0,0,0,0,0,0,0
1683033761.60029793,111228824,1000,1000,1000,1000,0,0,0,0,0,0,0,0,0,0
1683033761.70025802,111328784,1000,1000,1000,1000,0,0,0,0,0,0,0,0,0,0
1683033761.80021811,111428744,1000,1000,1000,1000,0,0,0,0,0,0,0,0,0,0
1683033761.90017796,111528704,1000,1000,1000,1000,0,0,0,0,0,0,0,0,0,0
1683033762.00013804,111628664,1000,1000,1000,1000,0,0,0,0,0,0,0,0,0,0
1683033762.10009813,111728624,1000,1000,1000,1000,0,0,0,0,0,0,0,0,0,0
1683033762.20005798,111828584,1000,1000,1000,1000,0,0,0,0,0,0,0,0,0,0
1683033762.30001807,111928544,1000,1000,1000,1000,0,0,0,0,0,0,0,0,0,0
1683033762.39997792,112028504,1000,1000,1000,1000,0,0,0,0,0,0,0,0,0,0
1683033762.49993801,112128464,1000,1000,1000,1000,0,0,0,0,0,0,0,0,0,0
1683033762.59989810,112228424,1000,1000,1000,1000,0,0,0,0,0,0,0,0,0,0
1683033762.69985795,112328384,1000,1000,1000,1000,0,0,0,0,0,0,0,0,0,0
1683033762.79981804,112428344,1000,1000,1000,1000,0,0,0,0,0,0,0,0,0,0
1683033762.89977813,112528304,1000,1000,1000,1000,0,0,0,0,0,0,0,0,0,0
1683033762.99973798,112628264,1000,1000,1000,1000,0,0,0,0,0,0,0,0,0,0
1683033763.09969807,112728224,1000,1000,1000,1000,0,0,0,0,0,0,0,0,0,0
1683033763.19965792,112828184,1000,1000,1000,1000,0,0,0,0,0,0,0,0,0,0
1683033763.30045104,112928977,1000,1000,1000,1000,0,0,0,0,0,0,0,0,0,0
1683033763.40041113,113028937,1000,1000,1000,1000,0,0,0,0,0,0,0,0,0,0
1683033763.50037098,113128897,1000,1000,1000,1000,0,0,0,0,0,0,0,0,0,0
1683033763.60033107,113228857,1000,1000,1000,1000,0,0,0,0,0,0,0,0,0,0
1683033763.70029092,113328817,1000,1000,1000,1000,0,0,0,0,0,0,0,0,0,0
1683033763.80025101,113428777,1000,1000,1000,1000,0,0,0,0,0,0,0,0,0,0
1683033763.90021110,113528737,1000,1000,1000,1000,0,0,0,0,0,0,0,0,0,0
1683033764.00017095,113628697,1000,1000,1000,1000,0,0,0,0,0,0,0,0,0,0
1683033764.10013103,113728657,1000,1000,1000,1000,0,0,0,0,0,0,0,0,0,0
1683033764.20009112,113828617,1000,1000,1000,1000,0,0,0,0,0,0,0,0,0,0
1683033764.30005097,113928577,1000,1000,1000,1000,0,0,0,0,0,0,0,0,0,0
1683033764.40001106,114028537,1000,1000,1000,1000,0,0,0,0,0,0,0,0,0,0
1683033764.49997091,114128497,1000,1000,1000,1000,0,0,0,0,0,0,0,0,0,0
1683033764.59993100,114228457,1000,1000,1000,1000,0,0,0,0,0,0,0,0,0,0
1683033764.69989109,114328417,1000,1000,1000,1000,0,0,0,0,0,0,0,0,0,0
1683033764.79985094,114428377,1000,1000,1000,1000,0,0,0,0,0,0,0,0,0,0
1683033764.89981103,114528337,1000,1000,1000,1000,0,0,0,0,0,0,0,0,0,0
1683033764.99977112,114628297,1000,1000,1000,1000,0,0,0,0,0,0,0,0,0,0
1683033765.09973097,114728257,1000,1000,1000,1000,0,0,0,0,0,0,0,0,0,0
1683033765.19969106,114828217,1000,1000,1000,1000,0,0,0,0,0,0,0,0,0,0
1683033765.29965115,114928177,1000,1000,1000,1000,0,0,0,0,0,0,0,0,0,0
1683033765.40044403,115028970,1000,1000,1000,1000,0,0,0,0,0,0,0,0,0,0
1683033765.50040412,115128930,1000,1000,1000,1000,0,0,0,0,0,0,0,0,0,0
1683033765.60036397,115228890,1000,1000,1000,1000,0,0,0,0,0,0,0,0,0,0
1683033765.70032406,115328850,1000,1000,1000,1000,0,0,0,0,0,0,0,0,0,0
1683033765.80028391,115428810,1000,1000,1000,1000,0,0,0,0,0,0,0,0,0,0
1683033765.90024400,115528770,1000,1000,1000,1000,0,0,0,0,0,0,0,0,0,0
1683033766.00020409,115628730,1000,1000,1000,1000,0,0,0,0,0,0,0,0,0,0
1683033766.10016394,115728690,1000,1000,1000,1000,0,0,0,0,0,0,0,0,0,0
1683033766.20012403,115828650,1000,1000,1000,1000,0,0,0,0,0,0,0,0,0,0
1683033766.30008411,115928610,1000,1000,1000,1000,0,0,0,0,0,0,0,0,0,0
1683033766.40004396,116028570,1000,1000,1000,1000,0,0,0,0,0,0,0,0,0,0
1683033766.50000405,116128530,1000,1000,1000,1000,0,0,0,0,0,0,0,0,0,0
1683033766.59996414,116228490,1000,1000,1000,1000,0,0,0,0,0,0,0,0,0,0
1683033766.69992399,116328450,1000,1000,1000,1000,0,0,0,0,0,0,0,0,0,0
1683033766.79988408,116428410,1000,1000,1000,1000,0,0,0,0,0,0,0,0,0,0
1683033766.89984393,116528370,1000,1000,1000,1000,0,0,0,0,0,0,0,0,0,0
1683033766.99980402,116628330,1000,1000,1000,1000,0,0,0,0,0,0,0,0,0,0
1683033767.09976411,116728290,1000,1000,1000,1000,0,0,0,0,0,0,0,0,0,0
1683033767.19972396,116828250,1000,1000,1000,1000,0,0,0,0,0,0,0,0,0,0
1683033767.29968405,116928210,1000,1000,1000,1000,0,0,0,0,0,0,0,0,0,0
1683033767.39964414,117028170,1000,1000,1000,1000,0,0,0,0,0,0,0,0,0,0
1683033767.50043702,117128963,1000,1000,1000,1000,0,0,0,0,0,0,0,0,0,0
1683033767.60039711,117228923,1000,1000,1000,1000,0,0,0,0,0,0,0,0,0,0
1683033767.70035696,117328883,1000,1000,1000,1000,0,0,0,0,0,0,0,0,0,0
1683033767.80031705,117428843,1000,1000,1000,1000,0,0,0,0,0,0,0,0,0,0
1683033767.90027714,117528803,1000,1000,1000,1000,0,0,0,0,0,0,0,0,0,0
1683033768.00023699,117628763,1000,1000,1000,1000,0,0,0,0,0,0,0,0,0,0
1683033768.10019708,117728723,1000,1000,1000,1000,0,0,0,0,0,0,0,0,0,0
1683033768.20015693,117828683,1000,1000,1000,1000,0,0,0,0,0,0,0,0,0,0
1683033768.30011702,117928643,1000,1000,1000,1000,0,0,0,0,0,0,0,0,0,0
1683033768.40007710,118028603,1000,1000,1000,1000,0,0,0,0,0,0,0,0,0,0
1683033768.50003695,118128563,1000,1000,1000,1000,0,0,0,0,0,0,0,0,0,0
1683033768.59999704,118228523,1000,1000,1000,1000,0,0,0,0,0,0,0,0,0,0
1683033768.69995713,118328483,1000,1000,1000,1000,0,0,0,0,0,0,0,0,0,0
1683033768.79991698,118428443,1000,1000,1000,1000,0,0,0,0,0,0,0,0,0,0
1683033768.89987707,118528403,1000,1000,1000,1000,0,0,0,0,0,0,0,0,0,0
1683033768.99983692,118628363,1000,1000,1000,1000,0,0,0,0,0,0,0,0,0,0
1683033769.09979701,118728323,1000,1000,1000,1000,0,0,0,0,0,0,0,0,0,0
1683033769.19975710,118828283,1000,1000,1000,1000,0,0,0,0,0,0,0,0,0,0
1683033769.29971695,118928243,1000,1000,1000,1000,0,0,0,0,0,0,0,0,0,0
1683033769.39967704,119028203,1000,1000,1000,1000,0,0,0,0,0,0,0,0,0,0
1683033769.49963713,119128163,1000,1000,1000,1000,0,0,0,0,0,0,0,0,0,0
1683033769.60043001,119228956,1000,1000,1000,1000,0,0,0,0,0,0,0,0,0,0
1683033769.70039010,119328916,1000,1000,1000,1000,0,0,0,0,0,0,0,0,0,0
1683033769.80034995,119428876,1000,1000,1000,1000,0,0,0,0,0,0,0,0,0,0
1683033769.90031004,119528836,1000,1000,1000,1000,0,0,0,0,0,0,0,0,0,0
1683033770.00027013,119628796,1000,1000,1000,1000,0,0,0,0,0,0,0,0,0,0
1683033770.10022998,119728756,1000,1000,1000,1000,0,0,0,0,0,0,0,0,0,0
1683033770.20019007,119828716,1000,1000,1000,1000,0,0,0,0,0,0,0,0,0,0
1683033770.30014992,119928676,1000,1000,1000,1000,0,0,0,0,0,0,0,0,0,0
1683033770.40011001,120028636,1000,1000,1000,1000,0,0,0,0,0,0,0,0,0,0
1683033770.50007010,120128596,1000,1000,1000,1000,0,0,0,0,0,0,0,0,0,0
1683033770.60002995,120228556,1000,1000,1000,1000,0,0,0,0,0,0,0,0,0,0
1683033770.69999003,120328516,1000,1000,1000,1000,0,0,0,0,0,0,0,0,0,0
1683033770.79995012,120428476,1000,1000,1000,1000,0,0,0,0,0,0,0,0,0,0
1683033770.89990997,120528436,1000,1000,1000,1000,0,0,0,0,0,0,0,0,0,0
1683033770.99987006,120628396,1000,1000,1000,1000,0,0,0,0,0,0,0,0,0,0
1683033771.09982991,120728356,1000,1000,1000,1000,0,0,0,0,0,0,0,0,0,0
1683033771.19979000,120828316,1000,1000,1000,1000,0,0,0,0,0,0,0,0,0,0
1683033771.29975009,120928276,1000,1000,1000,1000,0,0,0,0,0,0,0,0,0,0
1683033771.39970994,121028236,1000,1000,1000,1000,0,0,0,0,0,0,0,0,0,0
1683033771.49967003,121128196,1000,1000,1000,1000,0,0,0,0,0,0,0,0,0,0
1683033771.59963012,121228156,1000,1000,1000,1000,0,0,0,0,0,0,0,0,0,0
1683033771.70042300,121328949,1000,1000,1000,1000,0,0,0,0,0,0,0,0,0,0
1683033771.80038309,121428909,1000,1000,1000,1000,0,0,0,0,0,0,0,0,0,0
1683033771.90034294,121528869,1000,1000,1000,1000,0,0,0,0,0,0,0,0,0,0
1683033772.00030303,121628829,1000,1000,1000,1000,0,0,0,0,0,0,0,0,0,0
1683033772.10026312,121728789,1000,1000,1000,1000,0,0,0,0,0,0,0,0,0,0
1683033772.20022297,121828749,1000,1000,1000,1000,0,0,0,0,0,0,0,0,0,0
1683033772.30018306,121928709,1000,1000,1000,1000,0,0,0,0,0,0,0,0,0,0
1683033772.40014315,122028669,1000,1000,1000,1000,0,0,0,0,0,0,0,0,0,0
1683033772.50010300,122128629,1000,1000,1000,1000,0,0,0,0,0,0,0,0,0,0
1683033772.60006309,122228589,1000,1000,1000,1000,0,0,0,0,0,0,0,0,0,0
1683033772.70002294,122328549,1000,1000,1000,1000,0,0,0,0,0,0,0,0,0,0
1683033772.79998302,122428509,1000,1000,1000,1000,0,0,0,0,0,0,0,0,0,0
1683033772.89994311,122528469,1000,1000,1000,1000,0,0,0,0,0,0,0,0,0,0
1683033772.99990296,122628429,1000,1000,1000,1000,0,0,0,0,0,0,0,0,0,0
1683033773.09986305,122728389,1000,1000,1000,1000,0,0,0,0,0,0,0,0,0,0
1683033773.19982314,122828349,1000,1000,1000,1000,0,0,0,0,0,0,0,0,0,0
1683033773.29978299,122928309,1000,1000,1000,1000,0,0,0,0,0,0,0,0,0,0
1683033773.39974308,123028269,1000,1000,1000,1000,0,0,0,0,0,0,0,0,0,0
1683033773.49970293,123128229,1000,1000,1000,1000,0,0,0,0,0,0,0,0,0,0
1683033773.59966302,123228189,1000,1000,1000,1000,0,0,0,0,0,0,0,0,0,0
1683033773.70045614,123328982,1000,1000,1000,1000,0,0,0,0,0,0,0,0,0,0
1683033773.80041599,123428942,1000,1000,1000,1000,0,0,0,0,0,0,0,0,0,0
1683033773.90037608,123528902,1000,1000,1000,1000,0,0,0,0,0,0,0,0,0,0
1683033774.00033593,123628862,1000,1000,1000,1000,0,0,0,0,0,0,0,0,0,0
1683033774.10029602,123728822,1000,1000,1000,1000,0,0,0,0,0,0,0,0,0,0
1683033774.20025611,123828782,1000,1000,1000,1000,0,0,0,0,0,0,0,0,0,0
1683033774.30021596,123928742,1000,1000,1000,1000,0,0,0,0,0,0,0,0,0,0
1683033774.40017605,124028702,1000,1000,1000,1000,0,0,0,0,0,0,0,0,0,0
1683033774.50013614,124128662,1000,1000,1000,1000,0,0,0,0,0,0,0,0,0,0
1683033774.60009599,124228622,1000,1000,1000,1000,0,0,0,0,0,0,0,0,0,0
1683033774.70005608,124328582,1000,1000,1000,1000,0,0,0,0,0,0,0,0,0,0
1683033774.80001593,124428542,1000,1000,1000,1000,0,0,0,0,0,0,0,0,0,0
1683033774.89997602,124528502,1000,1000,1000,1000,0,0,0,0,0,0,0,0,0,0
1683033774.99993610,124628462,1000,1000,1000,1000,0,0,0,0,0,0,0,0,0,0
1683033775.09989595,124728422,1000,1000,1000,1000,0,0,0,0,0,0,0,0,0,0
1683033775.19985604,124828382,1000,1000,1000,1000,0,0,0,0,0,0,0,0,0,0
