timestamp,TimeUS,C1,C2,C3,C4,C5,C6,C7,C8,C9,C10,C11,C12,C13,C14
1682938109.79999995,52828860,1000,1000,1000,1000,0,0,0,0,0,0,0,0,0,0
1682938109.89995980,52928820,1000,1000,1000,1000,0,0,0,0,0,0,0,0,0,0
1682938109.99991989,53028780,1000,1000,1000,1000,0,0,0,0,0,0,0,0,0,0
1682938110.09987998,53128740,1000,1000,1000,1000,0,0,0,0,0,0,0,0,0,0
1682938110.19983983,53228700,1000,1000,1000,1000,0,0,0,0,0,0,0,0,0,0
1682938110.29979992,53328660,1000,1000,1000,1000,0,0,0,0,0,0,0,0,0,0
1682938110.39976001,53428620,1000,1000,1000,1000,0,0,0,0,0,0,0,0,0,0
1682938110.49971986,53528580,1000,1000,1000,1000,0,0,0,0,0,0,0,0,0,0
1682938110.59967995,53628540,1000,1000,1000,1000,0,0,0,0,0,0,0,0,0,0
1682938110.69963980,53728500,1000,1000,1000,1000,0,0,0,0,0,0,0,0,0,0
1682938110.79959989,53828460,1000,1000,1000,1000,0,0,0,0,0,0,0,0,0,0
1682938110.89955997,53928420,1000,1000,1000,1000,0,0,0,0,0,0,0,0,0,0
1682938110.99951982,54028380,1000,1000,1000,1000,0,0,0,0,0,0,0,0,0,0
1682938111.09947991,54128340,1000,1000,1000,1000,0,0,0,0,0,0,0,0,0,0
1682938111.19944000,54228300,1000,1000,1000,1000,0,0,0,0,0,0,0,0,0,0
1682938111.29939985,54328260,1000,1000,1000,1000,0,0,0,0,0,0,0,0,0,0
1682938111.39935994,54428220,1000,1000,1000,1000,0,0,0,0,0,0,0,0,0,0
1682938111.49931979,54528180,1000,1000,1000,1000,0,0,0,0,0,0,0,0,0,0
1682938111.60011292,54628973,1000,1000,1000,1000,0,0,0,0,0,0,0,0,0,0
1682938111.70007300,54728933,1000,1000,1000,1000,0,0,0,0,0,0,0,0,0,0
1682938111.80003285,54828893,1003,1003,1003,1003,0,0,0,0,0,0,0,0,0,0
1682938111.89999294,54928853,1033,1033,1033,1033,0,0,0,0,0,0,0,0,0,0
1682938111.99995279,55028813,1063,1063,1063,1063,0,0,0,0,0,0,0,0,0,0
1682938112.09991288,55128773,1093,1093,1093,1093,0,0,0,0,0,0,0,0,0,0
1682938112.19987297,55228733,1123,1123,1123,1123,0,0,0,0,0,0,0,0,0,0
1682938112.29983282,55328693,1185,1177,1177,1186,0,0,0,0,0,0,0,0,0,0
1682938112.39979291,55428653,1424,1419,1419,1425,0,0,0,0,0,0,0,0,0,0
1682938112.49975300,55528613,1599,1594,1594,1600,0,0,0,0,0,0,0,0,0,0
1682938112.59971285,55628573,1743,1739,1739,1744,0,0,0,0,0,0,0,0,0,0
1682938112.69967294,55728533,1869,1864,1865,1869,0,0,0,0,0,0,0,0,0,0
1682938112.79963303,55828493,1894,1890,1891,1895,0,0,0,0,0,0,0,0,0,0
1682938112.89959288,55928453,1799,1798,1798,1799,0,0,0,0,0,0,0,0,0,0
1682938112.99955297,56028413,1683,1685,1685,1684,0,0,0,0,0,0,0,0,0,0
1682938113.09951282,56128373,1635,1638,1638,1636,0,0,0,0,0,0,0,0,0,0
1682938113.19947290,56228333,1634,1636,1636,1634,0,0,0,0,0,0,0,0,0,0
1682938113.29943299,56328293,1647,1638,1637,1648,0,0,0,0,0,0,0,0,0,0
1682938113.39939284,56428253,1636,1636,1629,1643,0,0,0,0,0,0,0,0,0,0
1682938113.49935293,56528213,1626,1628,1621,1633,0,0,0,0,0,0,0,0,0,0
1682938113.59931302,56628173,1619,1620,1618,1622,0,0,0,0,0,0,0,0,0,0
1682938113.70010591,56728966,1616,1616,1618,1615,0,0,0,0,0,0,0,0,0,0
1682938113.80006599,56828926,1618,1617,1621,1613,0,0,0,0,0,0,0,0,0,0
1682938113.90002584,56928886,1619,1618,1623,1614,0,0,0,0,0,0,0,0,0,0
1682938113.99998593,57028846,1599,1598,1609,1589,0,0,0,0,0,0,0,0,0,0
1682938114.09994602,57128806,1580,1580,1593,1567,0,0,0,0,0,0,0,0,0,0
1682938114.19990587,57228766,1569,1569,1574,1564,0,0,0,0,0,0,0,0,0,0
1682938114.29986596,57328726,1558,1559,1556,1561,0,0,0,0,0,0,0,0,0,0
1682938114.39982581,57428686,1549,1550,1542,1557,0,0,0,0,0,0,0,0,0,0
1682938114.49978590,57528646,1543,1543,1531,1554,0,0,0,0,0,0,0,0,0,0
1682938114.59974599,57628606,1537,1536,1527,1545,0,0,0,0,0,0,0,0,0,0
1682938114.69970584,57728566,1531,1530,1526,1535,0,0,0,0,0,0,0,0,0,0
1682938114.79966593,57828526,1527,1527,1526,1527,0,0,0,0,0,0,0,0,0,0
1682938114.89962602,57928486,1526,1526,1528,1525,0,0,0,0,0,0,0,0,0,0
1682938114.99958587,58028446,1527,1527,1530,1525,0,0,0,0,0,0,0,0,0,0
1682938115.09954596,58128406,1531,1531,1534,1529,0,0,0,0,0,0,0,0,0,0
1682938115.19950581,58228366,1535,1535,1537,1532,0,0,0,0,0,0,0,0,0,0
1682938115.29946589,58328326,1539,1539,1541,1537,0,0,0,0,0,0,0,0,0,0
1682938115.39942598,58428286,1541,1541,1543,1540,0,0,0,0,0,0,0,0,0,0
1682938115.49938583,58528246,1545,1545,1546,1545,0,0,0,0,0,0,0,0,0,0
1682938115.59934592,58628206,1548,1548,1548,1548,0,0,0,0,0,0,0,0,0,0
1682938115.69930601,58728166,1552,1551,1551,1552,0,0,0,0,0,0,0,0,0,0
1682938115.80009890,58828959,1554,1554,1553,1555,0,0,0,0,0,0,0,0,0,0
1682938115.90005898,58928919,1556,1556,1555,1559,0,0,0,0,0,0,0,0,0,0
1682938116.00001884,59028879,1557,1556,1559,1561,0,0,0,0,0,0,0,0,0,0
1682938116.09997892,59128839,1558,1558,1562,1562,0,0,0,0,0,0,0,0,0,0
1682938116.19993901,59228799,1559,1559,1564,1564,0,0,0,0,0,0,0,0,0,0
1682938116.29989886,59328759,1561,1561,1565,1565,0,0,0,0,0,0,0,0,0,0
1682938116.39985895,59428719,1564,1564,1567,1566,0,0,0,0,0,0,0,0,0,0
1682938116.49981880,59528679,1565,1565,1566,1566,0,0,0,0,0,0,0,0,0,0
1682938116.59977889,59628639,1567,1567,1567,1567,0,0,0,0,0,0,0,0,0,0
1682938116.69973898,59728599,1570,1570,1568,1568,0,0,0,0,0,0,0,0,0,0
1682938116.79969883,59828559,1571,1570,1568,1568,0,0,0,0,0,0,0,0,0,0
1682938116.89965892,59928519,1572,1571,1569,1569,0,0,0,0,0,0,0,0,0,0
1682938116.99961901,60028479,1572,1572,1569,1570,0,0,0,0,0,0,0,0,0,0
1682938117.09957886,60128439,1574,1574,1571,1571,0,0,0,0,0,0,0,0,0,0
1682938117.19953895,60228399,1574,1574,1571,1571,0,0,0,0,0,0,0,0,0,0
1682938117.29949880,60328359,1575,1575,1574,1572,0,0,0,0,0,0,0,0,0,0
1682938117.39945889,60428319,1575,1576,1575,1573,0,0,0,0,0,0,0,0,0,0
1682938117.49941897,60528279,1576,1575,1575,1574,0,0,0,0,0,0,0,0,0,0
1682938117.59937882,60628239,1576,1576,1576,1576,0,0,0,0,0,0,0,0,0,0
1682938117.69933891,60728199,1575,1575,1575,1575,0,0,0,0,0,0,0,0,0,0
1682938117.79929900,60828159,1576,1576,1576,1576,0,0,0,0,0,0,0,0,0,0
1682938117.90009189,60928952,1575,1575,1575,1576,0,0,0,0,0,0,0,0,0,0
1682938118.00005198,61028912,1575,1575,1576,1576,0,0,0,0,0,0,0,0,0,0
1682938118.10001183,61128872,1576,1576,1576,1577,0,0,0,0,0,0,0,0,0,0
1682938118.19997191,61228832,1577,1577,1577,1577,0,0,0,0,0,0,0,0,0,0
1682938118.29993200,61328792,1578,1577,1578,1577,0,0,0,0,0,0,0,0,0,0
1682938118.39989185,61428752,1577,1578,1578,1578,0,0,0,0,0,0,0,0,0,0
1682938118.49985194,61528712,1577,1576,1577,1576,0,0,0,0,0,0,0,0,0,0
1682938118.59981179,61628672,1578,1578,1578,1578,0,0,0,0,0,0,0,0,0,0
1682938118.69977188,61728632,1578,1578,1578,1578,0,0,0,0,0,0,0,0,0,0
1682938118.79973197,61828592,1578,1578,1578,1578,0,0,0,0,0,0,0,0,0,0
1682938118.89969182,61928552,1578,1578,1577,1577,0,0,0,0,0,0,0,0,0,0
1682938118.99965191,62028512,1578,1579,1578,1578,0,0,0,0,0,0,0,0,0,0
1682938119.09961200,62128472,1578,1578,1578,1578,0,0,0,0,0,0,0,0,0,0
1682938119.19957185,62228432,1578,1578,1578,1578,0,0,0,0,0,0,0,0,0,0
1682938119.29953194,62328392,1578,1578,1578,1578,0,0,0,0,0,0,0,0,0,0
1682938119.39949203,62428352,1578,1578,1578,1578,0,0,0,0,0,0,0,0,0,0
1682938119.49945188,62528312,1578,1578,1578,1579,0,0,0,0,0,0,0,0,0,0
1682938119.59941196,62628272,1578,1578,1578,1578,0,0,0,0,0,0,0,0,0,0
1682938119.69937181,62728232,1579,1579,1580,1579,0,0,0,0,0,0,0,0,0,0
1682938119.79933190,62828192,1578,1579,1579,1579,0,0,0,0,0,0,0,0,0,0
1682938119.90012503,62928985,1578,1579,1579,1579,0,0,0,0,0,0,0,0,0,0
1682938120.00008488,63028945,1580,1580,1580,1580,0,0,0,0,0,0,0,0,0,0
1682938120.10004497,63128905,1579,1579,1579,1580,0,0,0,0,0,0,0,0,0,0
1682938120.20000482,63228865,1580,1579,1580,1579,0,0,0,0,0,0,0,0,0,0
1682938120.29996490,63328825,1579,1579,1579,1579,0,0,0,0,0,0,0,0,0,0
1682938120.39992499,63428785,1579,1579,1579,1579,0,0,0,0,0,0,0,0,0,0
1682938120.49988484,63528745,1579,1579,1580,1579,0,0,0,0,0,0,0,0,0,0
1682938120.59984493,63628705,1579,1579,1579,1579,0,0,0,0,0,0,0,0,0,0
1682938120.69980502,63728665,1579,1580,1580,1580,0,0,0,0,0,0,0,0,0,0
1682938120.79976487,63828625,1579,1580,1579,1580,0,0,0,0,0,0,0,0,0,0
1682938120.89972496,63928585,1580,1579,1580,1580,0,0,0,0,0,0,0,0,0,0
1682938120.99968481,64028545,1580,1579,1579,1580,0,0,0,0,0,0,0,0,0,0
1682938121.09964490,64128505,1580,1580,1580,1580,0,0,0,0,0,0,0,0,0,0
1682938121.19960499,64228465,1581,1580,1580,1581,0,0,0,0,0,0,0,0,0,0
1682938121.29956484,64328425,1581,1580,1580,1580,0,0,0,0,0,0,0,0,0,0
1682938121.39952493,64428385,1580,1581,1581,1580,0,0,0,0,0,0,0,0,0,0
1682938121.49948502,64528345,1580,1581,1580,1581,0,0,0,0,0,0,0,0,0,0
1682938121.59944487,64628305,1581,1581,1581,1581,0,0,0,0,0,0,0,0,0,0
1682938121.69940495,64728265,1581,1580,1581,1580,0,0,0,0,0,0,0,0,0,0
1682938121.79936481,64828225,1581,1581,1581,1581,0,0,0,0,0,0,0,0,0,0
1682938121.89932489,64928185,1580,1581,1581,1581,0,0,0,0,0,0,0,0,0,0
1682938122.00011802,65028978,1580,1581,1580,1580,0,0,0,0,0,0,0,0,0,0
1682938122.10007787,65128938,1581,1582,1585,1578,0,0,0,0,0,0,0,0,0,0
1682938122.20003796,65228898,1581,1581,1587,1572,0,0,0,0,0,0,0,0,0,0
1682938122.29999781,65328858,1579,1581,1581,1573,0,0,0,0,0,0,0,0,0,0
1682938122.39995790,65428818,1578,1581,1573,1572,0,0,0,0,0,0,0,0,0,0
1682938122.49991798,65528778,1577,1580,1564,1571,0,0,0,0,0,0,0,0,0,0
1682938122.59987783,65628738,1577,1578,1558,1566,0,0,0,0,0,0,0,0,0,0
1682938122.69983792,65728698,1578,1577,1555,1561,0,0,0,0,0,0,0,0,0,0
1682938122.79979801,65828658,1580,1578,1556,1558,0,0,0,0,0,0,0,0,0,0
1682938122.89975786,65928618,1580,1578,1556,1556,0,0,0,0,0,0,0,0,0,0
1682938122.99971795,66028578,1578,1577,1556,1554,0,0,0,0,0,0,0,0,0,0
1682938123.09967780,66128538,1578,1578,1556,1554,0,0,0,0,0,0,0,0,0,0
1682938123.19963789,66228498,1577,1578,1556,1554,0,0,0,0,0,0,0,0,0,0
1682938123.29959798,66328458,1576,1577,1555,1555,0,0,0,0,0,0,0,0,0,0
1682938123.39955783,66428418,1575,1576,1554,1554,0,0,0,0,0,0,0,0,0,0
1682938123.49951792,66528378,1574,1575,1552,1552,0,0,0,0,0,0,0,0,0,0
1682938123.59947801,66628338,1575,1577,1551,1551,0,0,0,0,0,0,0,0,0,0
1682938123.69943786,66728298,1577,1578,1549,1549,0,0,0,0,0,0,0,0,0,0
1682938123.79939795,66828258,1578,1580,1546,1546,0,0,0,0,0,0,0,0,0,0
1682938123.89935780,66928218,1581,1583,1544,1544,0,0,0,0,0,0,0,0,0,0
1682938123.99931788,67028178,1585,1586,1541,1541,0,0,0,0,0,0,0,0,0,0
1682938124.10011101,67128971,1589,1589,1539,1539,0,0,0,0,0,0,0,0,0,0
1682938124.20007086,67228931,1590,1591,1535,1536,0,0,0,0,0,0,0,0,0,0
1682938124.30003095,67328891,1593,1593,1534,1534,0,0,0,0,0,0,0,0,0,0
1682938124.39999080,67428851,1594,1594,1534,1534,0,0,0,0,0,0,0,0,0,0
1682938124.49995089,67528811,1595,1594,1535,1536,0,0,0,0,0,0,0,0,0,0
1682938124.59991097,67628771,1594,1593,1537,1539,0,0,0,0,0,0,0,0,0,0
1682938124.69987082,67728731,1591,1590,1541,1544,0,0,0,0,0,0,0,0,0,0
1682938124.79983091,67828691,1586,1584,1546,1550,0,0,0,0,0,0,0,0,0,0
1682938124.89979100,67928651,1580,1576,1555,1558,0,0,0,0,0,0,0,0,0,0
1682938124.99975085,68028611,1571,1567,1566,1569,0,0,0,0,0,0,0,0,0,0
1682938125.09971094,68128571,1561,1556,1579,1580,0,0,0,0,0,0,0,0,0,0
1682938125.19967079,68228531,1550,1547,1592,1592,0,0,0,0,0,0,0,0,0,0
1682938125.29963088,68328491,1540,1539,1603,1602,0,0,0,0,0,0,0,0,0,0
1682938125.39959097,68428451,1533,1533,1610,1610,0,0,0,0,0,0,0,0,0,0
1682938125.49955082,68528411,1529,1530,1614,1613,0,0,0,0,0,0,0,0,0,0
1682938125.59951091,68628371,1529,1532,1615,1615,0,0,0,0,0,0,0,0,0,0
1682938125.69947100,68728331,1533,1535,1612,1612,0,0,0,0,0,0,0,0,0,0
1682938125.79943085,68828291,1538,1541,1607,1606,0,0,0,0,0,0,0,0,0,0
1682938125.89939094,68928251,1547,1548,1600,1601,0,0,0,0,0,0,0,0,0,0
1682938125.99935102,69028211,1557,1557,1593,1593,0,0,0,0,0,0,0,0,0,0
1682938126.09931087,69128171,1566,1566,1586,1586,0,0,0,0,0,0,0,0,0,0
1682938126.20010400,69228964,1574,1573,1579,1578,0,0,0,0,0,0,0,0,0,0
1682938126.30006385,69328924,1580,1579,1574,1573,0,0,0,0,0,0,0,0,0,0
1682938126.40002394,69428884,1584,1583,1569,1569,0,0,0,0,0,0,0,0,0,0
1682938126.49998403,69528844,1587,1585,1566,1567,0,0,0,0,0,0,0,0,0,0
1682938126.59994388,69628804,1588,1586,1566,1566,0,0,0,0,0,0,0,0,0,0
1682938126.69990396,69728764,1586,1585,1567,1567,0,0,0,0,0,0,0,0,0,0
1682938126.79986382,69828724,1584,1584,1569,1569,0,0,0,0,0,0,0,0,0,0
1682938126.89982390,69928684,1582,1582,1572,1572,0,0,0,0,0,0,0,0,0,0
1682938126.99978399,70028644,1580,1580,1575,1575,0,0,0,0,0,0,0,0,0,0
1682938127.09974384,70128604,1577,1578,1578,1578,0,0,0,0,0,0,0,0,0,0
1682938127.19970393,70228564,1575,1575,1580,1580,0,0,0,0,0,0,0,0,0,0
1682938127.29966402,70328524,1574,1574,1582,1583,0,0,0,0,0,0,0,0,0,0
1682938127.39962387,70428484,1573,1572,1583,1583,0,0,0,0,0,0,0,0,0,0
1682938127.49958396,70528444,1573,1573,1584,1584,0,0,0,0,0,0,0,0,0,0
1682938127.59954381,70628404,1572,1573,1584,1583,0,0,0,0,0,0,0,0,0,0
1682938127.69950390,70728364,1693,1598,1704,1605,0,0,0,0,0,0,0,0,0,0
1682938127.79946399,70828324,1596,1599,1608,1603,0,0,0,0,0,0,0,0,0,0
1682938127.89942384,70928284,1551,1602,1557,1605,0,0,0,0,0,0,0,0,0,0
1682938127.99938393,71028244,1541,1596,1538,1595,0,0,0,0,0,0,0,0,0,0
1682938128.09934402,71128204,1551,1584,1535,1575,0,0,0,0,0,0,0,0,0,0
1682938128.19930387,71228164,1564,1572,1538,1552,0,0,0,0,0,0,0,0,0,0
1682938128.30009699,71328957,1575,1564,1546,1540,0,0,0,0,0,0,0,0,0,0
1682938128.40005684,71428917,1580,1561,1556,1539,0,0,0,0,0,0,0,0,0,0
1682938128.50001693,71528877,1580,1563,1566,1549,0,0,0,0,0,0,0,0,0,0
1682938128.59997702,71628837,1577,1565,1574,1561,0,0,0,0,0,0,0,0,0,0
1682938128.69993687,71728797,1572,1568,1579,1572,0,0,0,0,0,0,0,0,0,0
1682938128.79989696,71828757,1570,1571,1583,1581,0,0,0,0,0,0,0,0,0,0
1682938128.89985681,71928717,1570,1573,1586,1587,0,0,0,0,0,0,0,0,0,0
1682938128.99981689,72028677,1571,1575,1588,1590,0,0,0,0,0,0,0,0,0,0
1682938129.09977698,72128637,1574,1577,1590,1591,0,0,0,0,0,0,0,0,0,0
1682938129.19973683,72228597,1578,1579,1591,1592,0,0,0,0,0,0,0,0,0,0
1682938129.29969692,72328557,1583,1582,1592,1591,0,0,0,0,0,0,0,0,0,0
1682938129.39965701,72428517,1585,1584,1591,1590,0,0,0,0,0,0,0,0,0,0
1682938129.49961686,72528477,1587,1585,1590,1589,0,0,0,0,0,0,0,0,0,0
1682938129.59957695,72628437,1589,1588,1589,1588,0,0,0,0,0,0,0,0,0,0
1682938129.69953680,72728397,1591,1590,1589,1588,0,0,0,0,0,0,0,0,0,0
1682938129.79949689,72828357,1590,1590,1588,1588,0,0,0,0,0,0,0,0,0,0
1682938129.89945698,72928317,1590,1590,1588,1587,0,0,0,0,0,0,0,0,0,0
1682938129.99941683,73028277,1590,1590,1588,1588,0,0,0,0,0,0,0,0,0,0
1682938130.09937692,73128237,1589,1589,1588,1587,0,0,0,0,0,0,0,0,0,0
1682938130.19933701,73228197,1587,1593,1595,1581,0,0,0,0,0,0,0,0,0,0
1682938130.29929686,73328157,1587,1592,1589,1579,0,0,0,0,0,0,0,0,0,0
1682938130.40008998,73428950,1588,1591,1579,1577,0,0,0,0,0,0,0,0,0,0
1682938130.50004983,73528910,1589,1589,1568,1573,0,0,0,0,0,0,0,0,0,0
1682938130.60000992,73628870,1589,1588,1561,1568,0,0,0,0,0,0,0,0,0,0
1682938130.69997001,73728830,1590,1588,1558,1563,0,0,0,0,0,0,0,0,0,0
1682938130.79992986,73828790,1589,1588,1557,1558,0,0,0,0,0,0,0,0,0,0
1682938130.89988995,73928750,1589,1588,1557,1556,0,0,0,0,0,0,0,0,0,0
1682938130.99984980,74028710,1586,1586,1557,1555,0,0,0,0,0,0,0,0,0,0
1682938131.09980989,74128670,1584,1585,1557,1555,0,0,0,0,0,0,0,0,0,0
1682938131.19976997,74228630,1582,1583,1558,1556,0,0,0,0,0,0,0,0,0,0
1682938131.29972982,74328590,1580,1581,1557,1556,0,0,0,0,0,0,0,0,0,0
1682938131.39968991,74428550,1578,1580,1556,1556,0,0,0,0,0,0,0,0,0,0
1682938131.49965000,74528510,1579,1582,1554,1554,0,0,0,0,0,0,0,0,0,0
1682938131.59960985,74628470,1581,1584,1551,1552,0,0,0,0,0,0,0,0,0,0
1682938131.69956994,74728430,1585,1588,1547,1548,0,0,0,0,0,0,0,0,0,0
1682938131.79952979,74828390,1589,1591,1543,1543,0,0,0,0,0,0,0,0,0,0
1682938131.89948988,74928350,1594,1595,1540,1540,0,0,0,0,0,0,0,0,0,0
1682938131.99944997,75028310,1599,1599,1540,1539,0,0,0,0,0,0,0,0,0,0
1682938132.09940982,75128270,1601,1601,1539,1540,0,0,0,0,0,0,0,0,0,0
1682938132.19936991,75228230,1600,1599,1541,1542,0,0,0,0,0,0,0,0,0,0
1682938132.29933000,75328190,1599,1597,1545,1547,0,0,0,0,0,0,0,0,0,0
1682938132.40012288,75428983,1594,1591,1552,1555,0,0,0,0,0,0,0,0,0,0
1682938132.50008297,75528943,1587,1583,1562,1565,0,0,0,0,0,0,0,0,0,0
1682938132.60004282,75628903,1577,1574,1572,1575,0,0,0,0,0,0,0,0,0,0
1682938132.70000291,75728863,1567,1564,1583,1585,0,0,0,0,0,0,0,0,0,0
1682938132.79996300,75828823,1557,1555,1593,1594,0,0,0,0,0,0,0,0,0,0
1682938132.89992285,75928783,1549,1546,1601,1602,0,0,0,0,0,0,0,0,0,0
1682938132.99988294,76028743,1543,1542,1608,1607,0,0,0,0,0,0,0,0,0,0
1682938133.09984303,76128703,1541,1540,1612,1611,0,0,0,0,0,0,0,0,0,0
1682938133.19980288,76228663,1542,1542,1613,1612,0,0,0,0,0,0,0,0,0,0
1682938133.29976296,76328623,1545,1546,1609,1609,0,0,0,0,0,0,0,0,0,0
1682938133.39972281,76428583,1549,1551,1603,1604,0,0,0,0,0,0,0,0,0,0
1682938133.49968290,76528543,1557,1558,1597,1598,0,0,0,0,0,0,0,0,0,0
1682938133.59964299,76628503,1564,1566,1591,1591,0,0,0,0,0,0,0,0,0,0
1682938133.69960284,76728463,1572,1572,1584,1584,0,0,0,0,0,0,0,0,0,0
1682938133.79956293,76828423,1578,1578,1579,1579,0,0,0,0,0,0,0,0,0,0
1682938133.89952302,76928383,1584,1583,1576,1575,0,0,0,0,0,0,0,0,0,0
1682938133.99948287,77028343,1586,1585,1573,1572,0,0,0,0,0,0,0,0,0,0
1682938134.09944296,77128303,1588,1587,1573,1572,0,0,0,0,0,0,0,0,0,0
1682938134.19940281,77228263,1586,1586,1572,1572,0,0,0,0,0,0,0,0,0,0
1682938134.29936290,77328223,1585,1585,1574,1574,0,0,0,0,0,0,0,0,0,0
1682938134.39932299,77428183,1583,1583,1577,1577,0,0,0,0,0,0,0,0,0,0
1682938134.50011587,77528976,1580,1580,1577,1578,0,0,0,0,0,0,0,0,0,0
1682938134.60007596,77628936,1577,1577,1579,1579,0,0,0,0,0,0,0,0,0,0
1682938134.70003581,77728896,1575,1574,1581,1581,0,0,0,0,0,0,0,0,0,0
1682938134.79999590,77828856,1574,1574,1583,1583,0,0,0,0,0,0,0,0,0,0
1682938134.89995599,77928816,1573,1573,1584,1584,0,0,0,0,0,0,0,0,0,0
1682938134.99991584,78028776,1572,1573,1584,1583,0,0,0,0,0,0,0,0,0,0
1682938135.09987593,78128736,1573,1573,1582,1583,0,0,0,0,0,0,0,0,0,0
1682938135.19983602,78228696,1574,1575,1582,1583,0,0,0,0,0,0,0,0,0,0
1682938135.29979587,78328656,1575,1576,1581,1581,0,0,0,0,0,0,0,0,0,0
1682938135.39975595,78428616,1577,1577,1581,1581,0,0,0,0,0,0,0,0,0,0
1682938135.49971581,78528576,1579,1578,1580,1580,0,0,0,0,0,0,0,0,0,0
1682938135.59967589,78628536,1580,1580,1579,1579,0,0,0,0,0,0,0,0,0,0
1682938135.69963598,78728496,1581,1581,1579,1579,0,0,0,0,0,0,0,0,0,0
1682938135.79959583,78828456,1581,1581,1578,1578,0,0,0,0,0,0,0,0,0,0
1682938135.89955592,78928416,1581,1581,1578,1578,0,0,0,0,0,0,0,0,0,0
1682938135.99951601,79028376,1582,1582,1580,1579,0,0,0,0,0,0,0,0,0,0
1682938136.09947586,79128336,1581,1581,1579,1579,0,0,0,0,0,0,0,0,0,0
1682938136.19943595,79228296,1580,1579,1578,1578,0,0,0,0,0,0,0,0,0,0
1682938136.29939580,79328256,1581,1580,1580,1580,0,0,0,0,0,0,0,0,0,0
1682938136.39935589,79428216,1580,1579,1580,1580,0,0,0,0,0,0,0,0,0,0
1682938136.49931598,79528176,1579,1579,1580,1580,0,0,0,0,0,0,0,0,0,0
1682938136.60010886,79628969,1579,1579,1580,1580,0,0,0,0,0,0,0,0,0,0
1682938136.70006895,79728929,1579,1579,1581,1581,0,0,0,0,0,0,0,0,0,0
1682938136.80002880,79828889,1579,1579,1580,1580,0,0,0,0,0,0,0,0,0,0
1682938136.89998889,79928849,1580,1580,1581,1581,0,0,0,0,0,0,0,0,0,0
1682938136.99994898,80028809,1579,1579,1580,1580,0,0,0,0,0,0,0,0,0,0
1682938137.09990883,80128769,1580,1579,1580,1580,0,0,0,0,0,0,0,0,0,0
1682938137.19986892,80228729,1582,1581,1582,1582,0,0,0,0,0,0,0,0,0,0
1682938137.29982901,80328689,1581,1581,1581,1581,0,0,0,0,0,0,0,0,0,0
1682938137.39978886,80428649,1580,1581,1580,1580,0,0,0,0,0,0,0,0,0,0
1682938137.49974895,80528609,1581,1581,1581,1581,0,0,0,0,0,0,0,0,0,0
1682938137.59970880,80628569,1580,1580,1580,1580,0,0,0,0,0,0,0,0,0,0
1682938137.69966888,80728529,1581,1582,1585,1577,0,0,0,0,0,0,0,0,0,0
1682938137.79962897,80828489,1580,1583,1587,1572,0,0,0,0,0,0,0,0,0,0
1682938137.89958882,80928449,1581,1584,1580,1573,0,0,0,0,0,0,0,0,0,0
1682938137.99954891,81028409,1581,1583,1570,1572,0,0,0,0,0,0,0,0,0,0
1682938138.09950900,81128369,1580,1582,1562,1569,0,0,0,0,0,0,0,0,0,0
1682938138.19946885,81228329,1580,1581,1557,1563,0,0,0,0,0,0,0,0,0,0
1682938138.29942894,81328289,1581,1580,1554,1558,0,0,0,0,0,0,0,0,0,0
1682938138.39938879,81428249,1581,1580,1555,1555,0,0,0,0,0,0,0,0,0,0
1682938138.49934888,81528209,1581,1580,1556,1554,0,0,0,0,0,0,0,0,0,0
1682938138.59930897,81628169,1580,1580,1557,1554,0,0,0,0,0,0,0,0,0,0
1682938138.70010185,81728962,1577,1578,1556,1554,0,0,0,0,0,0,0,0,0,0
1682938138.80006194,81828922,1576,1577,1556,1555,0,0,0,0,0,0,0,0,0,0
1682938138.90002179,81928882,1575,1576,1554,1555,0,0,0,0,0,0,0,0,0,0
1682938138.99998188,82028842,1574,1575,1553,1554,0,0,0,0,0,0,0,0,0,0
1682938139.09994197,82128802,1576,1576,1553,1553,0,0,0,0,0,0,0,0,0,0
1682938139.19990182,82228762,1576,1577,1550,1551,0,0,0,0,0,0,0,0,0,0
1682938139.29986191,82328722,1578,1580,1549,1549,0,0,0,0,0,0,0,0,0,0
1682938139.39982200,82428682,1580,1581,1546,1546,0,0,0,0,0,0,0,0,0,0
1682938139.49978185,82528642,1584,1584,1544,1544,0,0,0,0,0,0,0,0,0,0
1682938139.59974194,82628602,1586,1587,1542,1542,0,0,0,0,0,0,0,0,0,0
1682938139.69970202,82728562,1588,1589,1540,1539,0,0,0,0,0,0,0,0,0,0
1682938139.79966187,82828522,1590,1591,1538,1538,0,0,0,0,0,0,0,0,0,0
1682938139.89962196,82928482,1592,1593,1537,1538,0,0,0,0,0,0,0,0,0,0
1682938139.99958181,83028442,1593,1594,1537,1538,0,0,0,0,0,0,0,0,0,0
1682938140.09954190,83128402,1593,1593,1538,1540,0,0,0,0,0,0,0,0,0,0
1682938140.19950199,83228362,1592,1591,1543,1545,0,0,0,0,0,0,0,0,0,0
1682938140.29946184,83328322,1588,1586,1550,1552,0,0,0,0,0,0,0,0,0,0
1682938140.39942193,83428282,1581,1578,1558,1560,0,0,0,0,0,0,0,0,0,0
1682938140.49938202,83528242,1572,1569,1570,1571,0,0,0,0,0,0,0,0,0,0
1682938140.59934187,83628202,1561,1558,1581,1582,0,0,0,0,0,0,0,0,0,0
1682938140.69930196,83728162,1550,1547,1592,1592,0,0,0,0,0,0,0,0,0,0
1682938140.80009484,83828955,1541,1538,1601,1602,0,0,0,0,0,0,0,0,0,0
1682938140.90005493,83928915,1535,1533,1608,1608,0,0,0,0,0,0,0,0,0,0
1682938141.00001502,84028875,1532,1533,1611,1612,0,0,0,0,0,0,0,0,0,0
1682938141.09997487,84128835,1534,1535,1611,1612,0,0,0,0,0,0,0,0,0,0
1682938141.19993496,84228795,1539,1540,1609,1609,0,0,0,0,0,0,0,0,0,0
1682938141.29989481,84328755,1545,1546,1602,1603,0,0,0,0,0,0,0,0,0,0
1682938141.39985490,84428715,1554,1555,1597,1597,0,0,0,0,0,0,0,0,0,0
1682938141.49981499,84528675,1561,1563,1590,1588,0,0,0,0,0,0,0,0,0,0
1682938141.59977484,84628635,1570,1571,1584,1582,0,0,0,0,0,0,0,0,0,0
1682938141.69973493,84728595,1577,1577,1577,1576,0,0,0,0,0,0,0,0,0,0
1682938141.79969501,84828555,1582,1582,1572,1572,0,0,0,0,0,0,0,0,0,0
1682938141.89965487,84928515,1585,1586,1571,1570,0,0,0,0,0,0,0,0,0,0
1682938141.99961495,85028475,1587,1586,1569,1569,0,0,0,0,0,0,0,0,0,0
1682938142.09957480,85128435,1586,1585,1569,1569,0,0,0,0,0,0,0,0,0,0
1682938142.19953489,85228395,1586,1585,1572,1572,0,0,0,0,0,0,0,0,0,0
1682938142.29949498,85328355,1583,1582,1573,1574,0,0,0,0,0,0,0,0,0,0
1682938142.39945483,85428315,1581,1580,1577,1576,0,0,0,0,0,0,0,0,0,0
1682938142.49941492,85528275,1577,1577,1578,1578,0,0,0,0,0,0,0,0,0,0
1682938142.59937501,85628235,1576,1575,1581,1581,0,0,0,0,0,0,0,0,0,0
1682938142.69933486,85728195,1574,1574,1582,1583,0,0,0,0,0,0,0,0,0,0
1682938142.79929495,85828155,1572,1572,1582,1583,0,0,0,0,0,0,0,0,0,0
1682938142.90008783,85928948,1573,1573,1583,1584,0,0,0,0,0,0,0,0,0,0
1682938143.00004792,86028908,1572,1573,1582,1582,0,0,0,0,0,0,0,0,0,0
1682938143.10000801,86128868,1574,1574,1582,1582,0,0,0,0,0,0,0,0,0,0
1682938143.19996786,86228828,1575,1575,1581,1580,0,0,0,0,0,0,0,0,0,0
1682938143.29992795,86328788,1577,1577,1580,1580,0,0,0,0,0,0,0,0,0,0
1682938143.39988780,86428748,1578,1578,1579,1579,0,0,0,0,0,0,0,0,0,0
1682938143.49984789,86528708,1580,1580,1579,1579,0,0,0,0,0,0,0,0,0,0
1682938143.59980798,86628668,1581,1580,1578,1578,0,0,0,0,0,0,0,0,0,0
1682938143.69976783,86728628,1581,1581,1578,1578,0,0,0,0,0,0,0,0,0,0
1682938143.79972792,86828588,1582,1582,1578,1578,0,0,0,0,0,0,0,0,0,0
1682938143.89968801,86928548,1581,1581,1578,1578,0,0,0,0,0,0,0,0,0,0
1682938143.99964786,87028508,1582,1581,1579,1579,0,0,0,0,0,0,0,0,0,0
1682938144.09960794,87128468,1581,1581,1579,1579,0,0,0,0,0,0,0,0,0,0
1682938144.19956779,87228428,1579,1579,1579,1579,0,0,0,0,0,0,0,0,0,0
1682938144.29952788,87328388,1580,1580,1580,1580,0,0,0,0,0,0,0,0,0,0
1682938144.39948797,87428348,1581,1580,1581,1581,0,0,0,0,0,0,0,0,0,0
1682938144.49944782,87528308,1578,1579,1580,1580,0,0,0,0,0,0,0,0,0,0
1682938144.59940791,87628268,1579,1580,1581,1582,0,0,0,0,0,0,0,0,0,0
1682938144.69936800,87728228,1580,1580,1582,1582,0,0,0,0,0,0,0,0,0,0
1682938144.79932785,87828188,1579,1580,1581,1581,0,0,0,0,0,0,0,0,0,0
1682938144.90012097,87928981,1580,1579,1580,1580,0,0,0,0,0,0,0,0,0,0
1682938145.00008082,88028941,1580,1580,1581,1581,0,0,0,0,0,0,0,0,0,0
1682938145.10004091,88128901,1581,1581,1581,1581,0,0,0,0,0,0,0,0,0,0
1682938145.20000100,88228861,1580,1580,1580,1580,0,0,0,0,0,0,0,0,0,0
1682938145.29996085,88328821,1581,1581,1580,1580,0,0,0,0,0,0,0,0,0,0
1682938145.39992094,88428781,1580,1580,1580,1580,0,0,0,0,0,0,0,0,0,0
1682938145.49988079,88528741,1581,1581,1580,1580,0,0,0,0,0,0,0,0,0,0
1682938145.59984088,88628701,1581,1582,1588,1574,0,0,0,0,0,0,0,0,0,0
1682938145.69980097,88728661,1581,1582,1587,1574,0,0,0,0,0,0,0,0,0,0
1682938145.79976082,88828621,1578,1578,1578,1575,0,0,0,0,0,0,0,0,0,0
1682938145.89972091,88928581,1577,1576,1572,1577,0,0,0,0,0,0,0,0,0,0
1682938145.99968100,89028541,1573,1573,1568,1575,0,0,0,0,0,0,0,0,0,0
1682938146.09964085,89128501,1569,1569,1565,1571,0,0,0,0,0,0,0,0,0,0
1682938146.19960093,89228461,1568,1567,1566,1569,0,0,0,0,0,0,0,0,0,0
1682938146.29956102,89328421,1566,1566,1567,1566,0,0,0,0,0,0,0,0,0,0
1682938146.39952087,89428381,1566,1566,1568,1566,0,0,0,0,0,0,0,0,0,0
1682938146.49948096,89528341,1565,1565,1567,1565,0,0,0,0,0,0,0,0,0,0
1682938146.59944081,89628301,1565,1565,1567,1565,0,0,0,0,0,0,0,0,0,0
1682938146.69940090,89728261,1563,1564,1565,1565,0,0,0,0,0,0,0,0,0,0
1682938146.79936099,89828221,1563,1563,1564,1564,0,0,0,0,0,0,0,0,0,0
1682938146.89932084,89928181,1563,1563,1563,1564,0,0,0,0,0,0,0,0,0,0
1682938147.00011396,90028974,1563,1562,1563,1563,0,0,0,0,0,0,0,0,0,0
1682938147.10007381,90128934,1561,1561,1561,1562,0,0,0,0,0,0,0,0,0,0
1682938147.20003390,90228894,1561,1561,1561,1561,0,0,0,0,0,0,0,0,0,0
1682938147.29999399,90328854,1562,1562,1562,1561,0,0,0,0,0,0,0,0,0,0
1682938147.39995384,90428814,1560,1561,1560,1560,0,0,0,0,0,0,0,0,0,0
1682938147.49991393,90528774,1559,1559,1559,1559,0,0,0,0,0,0,0,0,0,0
1682938147.59987402,90628734,1557,1557,1557,1556,0,0,0,0,0,0,0,0,0,0
1682938147.69983387,90728694,1557,1557,1557,1556,0,0,0,0,0,0,0,0,0,0
1682938147.79979396,90828654,1557,1557,1557,1556,0,0,0,0,0,0,0,0,0,0
1682938147.89975381,90928614,1556,1556,1556,1556,0,0,0,0,0,0,0,0,0,0
1682938147.99971390,91028574,1557,1556,1558,1556,0,0,0,0,0,0,0,0,0,0
1682938148.09967399,91128534,1557,1557,1558,1556,0,0,0,0,0,0,0,0,0,0
1682938148.19963384,91228494,1557,1558,1559,1556,0,0,0,0,0,0,0,0,0,0
1682938148.29959393,91328454,1557,1557,1559,1556,0,0,0,0,0,0,0,0,0,0
1682938148.39955401,91428414,1556,1556,1556,1555,0,0,0,0,0,0,0,0,0,0
1682938148.49951386,91528374,1557,1556,1553,1559,0,0,0,0,0,0,0,0,0,0
1682938148.59947395,91628334,1555,1555,1551,1558,0,0,0,0,0,0,0,0,0,0
1682938148.69943380,91728294,1551,1552,1548,1554,0,0,0,0,0,0,0,0,0,0
1682938148.79939389,91828254,1547,1547,1546,1549,0,0,0,0,0,0,0,0,0,0
1682938148.89935398,91928214,1541,1541,1541,1542,0,0,0,0,0,0,0,0,0,0
1682938148.99931383,92028174,1535,1535,1535,1535,0,0,0,0,0,0,0,0,0,0
1682938149.10010695,92128967,1527,1527,1527,1527,0,0,0,0,0,0,0,0,0,0
1682938149.20006680,92228927,1523,1522,1524,1522,0,0,0,0,0,0,0,0,0,0
1682938149.30002689,92328887,1523,1521,1522,1521,0,0,0,0,0,0,0,0,0,0
1682938149.39998698,92428847,1523,1521,1522,1522,0,0,0,0,0,0,0,0,0,0
1682938149.49994683,92528807,1526,1525,1525,1526,0,0,0,0,0,0,0,0,0,0
1682938149.59990692,92628767,1528,1528,1527,1528,0,0,0,0,0,0,0,0,0,0
1682938149.69986701,92728727,1533,1533,1532,1533,0,0,0,0,0,0,0,0,0,0
1682938149.79982686,92828687,1537,1538,1537,1538,0,0,0,0,0,0,0,0,0,0
1682938149.89978695,92928647,1540,1541,1540,1541,0,0,0,0,0,0,0,0,0,0
1682938149.99974680,93028607,1542,1543,1542,1543,0,0,0,0,0,0,0,0,0,0
1682938150.09970689,93128567,1544,1545,1544,1545,0,0,0,0,0,0,0,0,0,0
1682938150.19966698,93228527,1545,1545,1545,1545,0,0,0,0,0,0,0,0,0,0
1682938150.29962683,93328487,1545,1545,1545,1545,0,0,0,0,0,0,0,0,0,0
1682938150.39958692,93428447,1545,1545,1545,1545,0,0,0,0,0,0,0,0,0,0
1682938150.49954700,93528407,1546,1546,1546,1546,0,0,0,0,0,0,0,0,0,0
1682938150.59950686,93628367,1546,1546,1546,1546,0,0,0,0,0,0,0,0,0,0
1682938150.69946694,93728327,1546,1546,1546,1546,0,0,0,0,0,0,0,0,0,0
1682938150.79942679,93828287,1546,1546,1546,1546,0,0,0,0,0,0,0,0,0,0
1682938150.89938688,93928247,1545,1545,1545,1545,0,0,0,0,0,0,0,0,0,0
1682938150.99934697,94028207,1545,1546,1546,1546,0,0,0,0,0,0,0,0,0,0
1682938151.09930682,94128167,1546,1546,1546,1546,0,0,0,0,0,0,0,0,0,0
1682938151.20009995,94228960,1545,1544,1545,1545,0,0,0,0,0,0,0,0,0,0
1682938151.30005980,94328920,1544,1544,1544,1544,0,0,0,0,0,0,0,0,0,0
1682938151.40001988,94428880,1544,1544,1545,1544,0,0,0,0,0,0,0,0,0,0
1682938151.49997997,94528840,1544,1543,1544,1543,0,0,0,0,0,0,0,0,0,0
1682938151.59993982,94628800,1544,1544,1545,1544,0,0,0,0,0,0,0,0,0,0
1682938151.69989991,94728760,1544,1544,1545,1544,0,0,0,0,0,0,0,0,0,0
1682938151.79986000,94828720,1544,1545,1544,1544,0,0,0,0,0,0,0,0,0,0
1682938151.89981985,94928680,1544,1544,1544,1544,0,0,0,0,0,0,0,0,0,0
1682938151.99977994,95028640,1545,1545,1545,1545,0,0,0,0,0,0,0,0,0,0
1682938152.09973979,95128600,1544,1544,1544,1544,0,0,0,0,0,0,0,0,0,0
1682938152.19969988,95228560,1545,1544,1544,1544,0,0,0,0,0,0,0,0,0,0
1682938152.29965997,95328520,1545,1544,1544,1544,0,0,0,0,0,0,0,0,0,0
1682938152.39961982,95428480,1543,1544,1543,1544,0,0,0,0,0,0,0,0,0,0
1682938152.49957991,95528440,1545,1544,1545,1545,0,0,0,0,0,0,0,0,0,0
1682938152.59954000,95628400,1544,1544,1544,1544,0,0,0,0,0,0,0,0,0,0
1682938152.69949985,95728360,1544,1544,1545,1544,0,0,0,0,0,0,0,0,0,0
1682938152.79945993,95828320,1543,1543,1544,1543,0,0,0,0,0,0,0,0,0,0
1682938152.89942002,95928280,1544,1544,1544,1544,0,0,0,0,0,0,0,0,0,0
1682938152.99937987,96028240,1543,1544,1544,1544,0,0,0,0,0,0,0,0,0,0
1682938153.09933996,96128200,1545,1544,1544,1545,0,0,0,0,0,0,0,0,0,0
1682938153.19929981,96228160,1544,1545,1544,1545,0,0,0,0,0,0,0,0,0,0
1682938153.30009294,96328953,1544,1544,1544,1544,0,0,0,0,0,0,0,0,0,0
1682938153.40005302,96428913,1544,1544,1543,1543,0,0,0,0,0,0,0,0,0,0
1682938153.50001287,96528873,1544,1544,1543,1543,0,0,0,0,0,0,0,0,0,0
1682938153.59997296,96628833,1544,1544,1545,1544,0,0,0,0,0,0,0,0,0,0
1682938153.69993281,96728793,1544,1544,1544,1544,0,0,0,0,0,0,0,0,0,0
1682938153.79989290,96828753,1544,1545,1545,1544,0,0,0,0,0,0,0,0,0,0
1682938153.89985299,96928713,1545,1544,1544,1544,0,0,0,0,0,0,0,0,0,0
1682938153.99981284,97028673,1544,1545,1544,1544,0,0,0,0,0,0,0,0,0,0
1682938154.09977293,97128633,1544,1545,1545,1544,0,0,0,0,0,0,0,0,0,0
1682938154.19973302,97228593,1544,1545,1545,1544,0,0,0,0,0,0,0,0,0,0
1682938154.29969287,97328553,1545,1545,1545,1546,0,0,0,0,0,0,0,0,0,0
1682938154.39965296,97428513,1544,1544,1544,1544,0,0,0,0,0,0,0,0,0,0
1682938154.49961281,97528473,1544,1545,1544,1545,0,0,0,0,0,0,0,0,0,0
1682938154.59957290,97628433,1545,1545,1545,1545,0,0,0,0,0,0,0,0,0,0
1682938154.69953299,97728393,1544,1543,1544,1544,0,0,0,0,0,0,0,0,0,0
1682938154.79949284,97828353,1544,1545,1545,1544,0,0,0,0,0,0,0,0,0,0
1682938154.89945292,97928313,1545,1544,1544,1545,0,0,0,0,0,0,0,0,0,0
1682938154.99941301,98028273,1543,1544,1544,1543,0,0,0,0,0,0,0,0,0,0
1682938155.09937286,98128233,1544,1544,1544,1544,0,0,0,0,0,0,0,0,0,0
1682938155.19933295,98228193,1543,1544,1544,1543,0,0,0,0,0,0,0,0,0,0
1682938155.30012584,98328986,1544,1544,1544,1544,0,0,0,0,0,0,0,0,0,0
1682938155.40008593,98428946,1544,1544,1544,1544,0,0,0,0,0,0,0,0,0,0
1682938155.50004601,98528906,1544,1544,1544,1545,0,0,0,0,0,0,0,0,0,0
1682938155.60000587,98628866,1544,1544,1544,1544,0,0,0,0,0,0,0,0,0,0
1682938155.69996595,98728826,1544,1544,1544,1544,0,0,0,0,0,0,0,0,0,0
1682938155.79992580,98828786,1543,1544,1544,1544,0,0,0,0,0,0,0,0,0,0
1682938155.89988589,98928746,1545,1544,1545,1545,0,0,0,0,0,0,0,0,0,0
1682938155.99984598,99028706,1544,1544,1544,1544,0,0,0,0,0,0,0,0,0,0
1682938156.09980583,99128666,1545,1544,1544,1545,0,0,0,0,0,0,0,0,0,0
1682938156.19976592,99228626,1545,1545,1545,1545,0,0,0,0,0,0,0,0,0,0
1682938156.29972601,99328586,1546,1545,1545,1545,0,0,0,0,0,0,0,0,0,0
1682938156.39968586,99428546,1544,1544,1544,1544,0,0,0,0,0,0,0,0,0,0
1682938156.49964595,99528506,1544,1544,1544,1545,0,0,0,0,0,0,0,0,0,0
1682938156.59960580,99628466,1544,1544,1544,1544,0,0,0,0,0,0,0,0,0,0
1682938156.69956589,99728426,1545,1544,1545,1544,0,0,0,0,0,0,0,0,0,0
1682938156.79952598,99828386,1544,1544,1544,1544,0,0,0,0,0,0,0,0,0,0
1682938156.89948583,99928346,1543,1543,1543,1543,0,0,0,0,0,0,0,0,0,0
1682938156.99944592,100028306,1545,1545,1545,1545,0,0,0,0,0,0,0,0,0,0
1682938157.09940600,100128266,1545,1545,1544,1545,0,0,0,0,0,0,0,0,0,0
1682938157.19936585,100228226,1544,1544,1544,1543,0,0,0,0,0,0,0,0,0,0
1682938157.29932594,100328186,1544,1544,1544,1544,0,0,0,0,0,0,0,0,0,0
1682938157.40011883,100428979,1543,1543,1544,1544,0,0,0,0,0,0,0,0,0,0
1682938157.50007892,100528939,1544,1544,1544,1544,0,0,0,0,0,0,0,0,0,0
1682938157.60003901,100628899,1544,1545,1544,1544,0,0,0,0,0,0,0,0,0,0
1682938157.69999886,100728859,1544,1544,1544,1544,0,0,0,0,0,0,0,0,0,0
1682938157.79995894,100828819,1544,1544,1544,1544,0,0,0,0,0,0,0,0,0,0
1682938157.89991879,100928779,1545,1544,1545,1545,0,0,0,0,0,0,0,0,0,0
1682938157.99987888,101028739,1544,1544,1543,1544,0,0,0,0,0,0,0,0,0,0
1682938158.09983897,101128699,1544,1544,1544,1544,0,0,0,0,0,0,0,0,0,0
1682938158.19979882,101228659,1544,1544,1544,1544,0,0,0,0,0,0,0,0,0,0
1682938158.29975891,101328619,1545,1544,1545,1545,0,0,0,0,0,0,0,0,0,0
1682938158.39971900,101428579,1544,1544,1544,1544,0,0,0,0,0,0,0,0,0,0
1682938158.49967885,101528539,1545,1545,1545,1545,0,0,0,0,0,0,0,0,0,0
1682938158.59963894,101628499,1543,1544,1543,1544,0,0,0,0,0,0,0,0,0,0
1682938158.69959879,101728459,1544,1544,1544,1544,0,0,0,0,0,0,0,0,0,0
1682938158.79955888,101828419,1544,1544,1544,1544,0,0,0,0,0,0,0,0,0,0
1682938158.89951897,101928379,1522,1527,1521,1528,0,0,0,0,0,0,0,0,0,0
1682938158.99947882,102028339,1326,1388,1326,1388,0,0,0,0,0,0,0,0,0,0
1682938159.09943891,102128299,1327,1388,1326,1389,0,0,0,0,0,0,0,0,0,0
1682938159.19939899,102228259,1326,1388,1326,1388,0,0,0,0,0,0,0,0,0,0
1682938159.29935884,102328219,1327,1373,1326,1373,0,0,0,0,0,0,0,0,0,0
1682938159.39931893,102428179,1326,1309,1326,1309,0,0,0,0,0,0,0,0,0,0
1682938159.50011182,102528972,1326,1307,1326,1308,0,0,0,0,0,0,0,0,0,0
1682938159.60007191,102628932,1342,1296,1326,1308,0,0,0,0,0,0,0,0,0,0
1682938159.70003200,102728892,1340,1297,1326,1308,0,0,0,0,0,0,0,0,0,0
1682938159.79999185,102828852,1336,1300,1326,1308,0,0,0,0,0,0,0,0,0,0
1682938159.89995193,102928812,1335,1300,1326,1308,0,0,0,0,0,0,0,0,0,0
1682938159.99991202,103028772,1336,1300,1326,1308,0,0,0,0,0,0,0,0,0,0
1682938160.09987187,103128732,1337,1299,1326,1308,0,0,0,0,0,0,0,0,0,0
1682938160.19983196,103228692,1337,1299,1326,1308,0,0,0,0,0,0,0,0,0,0
1682938160.29979181,103328652,1338,1298,1326,1308,0,0,0,0,0,0,0,0,0,0
1682938160.39975190,103428612,1329,1305,1326,1308,0,0,0,0,0,0,0,0,0,0
1682938160.49971199,103528572,1331,1304,1326,1308,0,0,0,0,0,0,0,0,0,0
1682938160.59967184,103628532,1331,1303,1326,1308,0,0,0,0,0,0,0,0,0,0
1682938160.69963193,103728492,1332,1303,1326,1308,0,0,0,0,0,0,0,0,0,0
1682938160.79959202,103828452,1332,1303,1326,1308,0,0,0,0,0,0,0,0,0,0
1682938160.89955187,103928412,1000,1000,1000,1000,0,0,0,0,0,0,0,0,0,0
1682938160.99951196,104028372,1000,1000,1000,1000,0,0,0,0,0,0,0,0,0,0
1682938161.09947181,104128332,1000,1000,1000,1000,0,0,0,0,0,0,0,0,0,0
1682938161.19943190,104228292,1000,1000,1000,1000,0,0,0,0,0,0,0,0,0,0
1682938161.29939198,104328252,1000,1000,1000,1000,0,0,0,0,0,0,0,0,0,0
1682938161.39935184,104428212,1000,1000,1000,1000,0,0,0,0,0,0,0,0,0,0
1682938161.49931192,104528172,1000,1000,1000,1000,0,0,0,0,0,0,0,0,0,0
1682938161.60010481,104628965,1000,1000,1000,1000,0,0,0,0,0,0,0,0,0,0
1682938161.70006490,104728925,1000,1000,1000,1000,0,0,0,0,0,0,0,0,0,0
1682938161.80002499,104828885,1000,1000,1000,1000,0,0,0,0,0,0,0,0,0,0
1682938161.89998484,104928845,1000,1000,1000,1000,0,0,0,0,0,0,0,0,0,0
1682938161.99994493,105028805,1000,1000,1000,1000,0,0,0,0,0,0,0,0,0,0
1682938162.09990501,105128765,1000,1000,1000,1000,0,0,0,0,0,0,0,0,0,0
1682938162.19986486,105228725,1000,1000,1000,1000,0,0,0,0,0,0,0,0,0,0
1682938162.29982495,105328685,1000,1000,1000,1000,0,0,0,0,0,0,0,0,0,0
1682938162.39978480,105428645,1000,1000,1000,1000,0,0,0,0,0,0,0,0,0,0
1682938162.49974489,105528605,1000,1000,1000,1000,0,0,0,0,0,0,0,0,0,0
1682938162.59970498,105628565,1000,1000,1000,1000,0,0,0,0,0,0,0,0,0,0
1682938162.69966483,105728525,1000,1000,1000,1000,0,0,0,0,0,0,0,0,0,0
1682938162.79962492,105828485,1000,1000,1000,1000,0,0,0,0,0,0,0,0,0,0
1682938162.89958501,105928445,1000,1000,1000,1000,0,0,0,0,0,0,0,0,0,0
1682938162.99954486,106028405,1000,1000,1000,1000,0,0,0,0,0,0,0,0,0,0
1682938163.09950495,106128365,1000,1000,1000,1000,0,0,0,0,0,0,0,0,0,0
1682938163.19946480,106228325,1000,1000,1000,1000,0,0,0,0,0,0,0,0,0,0
1682938163.29942489,106328285,1000,1000,1000,1000,0,0,0,0,0,0,0,0,0,0
1682938163.39938498,106428245,1000,1000,1000,1000,0,0,0,0,0,0,0,0,0,0
1682938163.49934483,106528205,1000,1000,1000,1000,0,0,0,0,0,0,0,0,0,0
1682938163.59930491,106628165,1000,1000,1000,1000,0,0,0,0,0,0,0,0,0,0
1682938163.70009780,106728958,1000,1000,1000,1000,0,0,0,0,0,0,0,0,0,0
1682938163.80005789,106828918,1000,1000,1000,1000,0,0,0,0,0,0,0,0,0,0
1682938163.90001798,106928878,1000,1000,1000,1000,0,0,0,0,0,0,0,0,0,0
1682938163.99997783,107028838,1000,1000,1000,1000,0,0,0,0,0,0,0,0,0,0
1682938164.09993792,107128798,1000,1000,1000,1000,0,0,0,0,0,0,0,0,0,0
1682938164.19989800,107228758,1000,1000,1000,1000,0,0,0,0,0,0,0,0,0,0
1682938164.29985785,107328718,1000,1000,1000,1000,0,0,0,0,0,0,0,0,0,0
1682938164.39981794,107428678,1000,1000,1000,1000,0,0,0,0,0,0,0,0,0,0
1682938164.49977779,107528638,1000,1000,1000,1000,0,0,0,0,0,0,0,0,0,0
1682938164.59973788,107628598,1000,1000,1000,1000,0,0,0,0,0,0,0,0,0,0
1682938164.69969797,107728558,1000,1000,1000,1000,0,0,0,0,0,0,0,0,0,0
1682938164.79965782,107828518,1000,1000,1000,1000,0,0,0,0,0,0,0,0,0,0
1682938164.89961791,107928478,1000,1000,1000,1000,0,0,0,0,0,0,0,0,0,0
1682938164.99957800,108028438,1000,1000,1000,1000,0,0,0,0,0,0,0,0,0,0
1682938165.09953785,108128398,1000,1000,1000,1000,0,0,0,0,0,0,0,0,0,0
1682938165.19949794,108228358,1000,1000,1000,1000,0,0,0,0,0,0,0,0,0,0
1682938165.29945803,108328318,1000,1000,1000,1000,0,0,0,0,0,0,0,0,0,0
1682938165.39941788,108428278,1000,1000,1000,1000,0,0,0,0,0,0,0,0,0,0
1682938165.49937797,108528238,1000,1000,1000,1000,0,0,0,0,0,0,0,0,0,0
1682938165.59933782,108628198,1000,1000,1000,1000,0,0,0,0,0,0,0,0,0,0
1682938165.69929790,108728158,1000,1000,1000,1000,0,0,0,0,0,0,0,0,0,0
1682938165.80009079,108828951,1000,1000,1000,1000,0,0,0,0,0,0,0,0,0,0
1682938165.90005088,108928911,1000,1000,1000,1000,0,0,0,0,0,0,0,0,0,0
1682938166.00001097,109028871,1000,1000,1000,1000,0,0,0,0,0,0,0,0,0,0
1682938166.09997082,109128831,1000,1000,1000,1000,0,0,0,0,0,0,0,0,0,0
1682938166.19993091,109228791,1000,1000,1000,1000,0,0,0,0,0,0,0,0,0,0
1682938166.29989100,109328751,1000,1000,1000,1000,0,0,0,0,0,0,0,0,0,0
1682938166.39985085,109428711,1000,1000,1000,1000,0,0,0,0,0,0,0,0,0,0
1682938166.49981093,109528671,1000,1000,1000,1000,0,0,0,0,0,0,0,0,0,0
1682938166.59977102,109628631,1000,1000,1000,1000,0,0,0,0,0,0,0,0,0,0
1682938166.69973087,109728591,1000,1000,1000,1000,0,0,0,0,0,0,0,0,0,0
1682938166.79969096,109828551,1000,1000,1000,1000,0,0,0,0,0,0,0,0,0,0
1682938166.89965081,109928511,1000,1000,1000,1000,0,0,0,0,0,0,0,0,0,0
1682938166.99961090,110028471,1000,1000,1000,1000,0,0,0,0,0,0,0,0,0,0
1682938167.09957099,110128431,1000,1000,1000,1000,0,0,0,0,0,0,0,0,0,0
1682938167.19953084,110228391,1000,1000,1000,1000,0,0,0,0,0,0,0,0,0,0
1682938167.29949093,110328351,1000,1000,1000,1000,0,0,0,0,0,0,0,0,0,0
1682938167.39945102,110428311,1000,1000,1000,1000,0,0,0,0,0,0,0,0,0,0
1682938167.49941087,110528271,1000,1000,1000,1000,0,0,0,0,0,0,0,0,0,0
1682938167.59937096,110628231,1000,1000,1000,1000,0,0,0,0,0,0,0,0,0,0
1682938167.69933081,110728191,1000,1000,1000,1000,0,0,0,0,0,0,0,0,0,0
1682938167.80012393,110828984,1000,1000,1000,1000,0,0,0,0,0,0,0,0,0,0
1682938167.90008402,110928944,1000,1000,1000,1000,0,0,0,0,0,0,0,0,0,0
1682938168.00004387,111028904,1000,1000,1000,1000,0,0,0,0,0,0,0,0,0,0
1682938168.10000396,111128864,1000,1000,1000,1000,0,0,0,0,0,0,0,0,0,0
1682938168.19996381,111228824,1000,1000,1000,1000,0,0,0,0,0,0,0,0,0,0
1682938168.29992390,111328784,1000,1000,1000,1000,0,0,0,0,0,0,0,0,0,0
1682938168.39988399,111428744,1000,1000,1000,1000,0,0,0,0,0,0,0,0,0,0
1682938168.49984384,111528704,1000,1000,1000,1000,0,0,0,0,0,0,0,0,0,0
1682938168.59980392,111628664,1000,1000,1000,1000,0,0,0,0,0,0,0,0,0,0
1682938168.69976401,111728624,1000,1000,1000,1000,0,0,0,0,0,0,0,0,0,0
1682938168.79972386,111828584,1000,1000,1000,1000,0,0,0,0,0,0,0,0,0,0
1682938168.89968395,111928544,1000,1000,1000,1000,0,0,0,0,0,0,0,0,0,0
1682938168.99964380,112028504,1000,1000,1000,1000,0,0,0,0,0,0,0,0,0,0
1682938169.09960389,112128464,1000,1000,1000,1000,0,0,0,0,0,0,0,0,0,0
1682938169.19956398,112228424,1000,1000,1000,1000,0,0,0,0,0,0,0,0,0,0
1682938169.29952383,112328384,1000,1000,1000,1000,0,0,0,0,0,0,0,0,0,0
1682938169.39948392,112428344,1000,1000,1000,1000,0,0,0,0,0,0,0,0,0,0
1682938169.49944401,112528304,1000,1000,1000,1000,0,0,0,0,0,0,0,0,0,0
1682938169.59940386,112628264,1000,1000,1000,1000,0,0,0,0,0,0,0,0,0,0
1682938169.69936395,112728224,1000,1000,1000,1000,0,0,0,0,0,0,0,0,0,0
1682938169.79932380,112828184,1000,1000,1000,1000,0,0,0,0,0,0,0,0,0,0
1682938169.90011692,112928977,1000,1000,1000,1000,0,0,0,0,0,0,0,0,0,0
1682938170.00007701,113028937,1000,1000,1000,1000,0,0,0,0,0,0,0,0,0,0
1682938170.10003686,113128897,1000,1000,1000,1000,0,0,0,0,0,0,0,0,0,0
1682938170.19999695,113228857,1000,1000,1000,1000,0,0,0,0,0,0,0,0,0,0
1682938170.29995680,113328817,1000,1000,1000,1000,0,0,0,0,0,0,0,0,0,0
1682938170.39991689,113428777,1000,1000,1000,1000,0,0,0,0,0,0,0,0,0,0
1682938170.49987698,113528737,1000,1000,1000,1000,0,0,0,0,0,0,0,0,0,0
1682938170.59983683,113628697,1000,1000,1000,1000,0,0,0,0,0,0,0,0,0,0
1682938170.69979692,113728657,1000,1000,1000,1000,0,0,0,0,0,0,0,0,0,0
1682938170.79975700,113828617,1000,1000,1000,1000,0,0,0,0,0,0,0,0,0,0
1682938170.89971685,113928577,1000,1000,1000,1000,0,0,0,0,0,0,0,0,0,0
1682938170.99967694,114028537,1000,1000,1000,1000,0,0,0,0,0,0,0,0,0,0
1682938171.09963679,114128497,1000,1000,1000,1000,0,0,0,0,0,0,0,0,0,0
1682938171.19959688,114228457,1000,1000,1000,1000,0,0,0,0,0,0,0,0,0,0
1682938171.29955697,114328417,1000,1000,1000,1000,0,0,0,0,0,0,0,0,0,0
1682938171.39951682,114428377,1000,1000,1000,1000,0,0,0,0,0,0,0,0,0,0
1682938171.49947691,114528337,1000,1000,1000,1000,0,0,0,0,0,0,0,0,0,0
1682938171.59943700,114628297,1000,1000,1000,1000,0,0,0,0,0,0,0,0,0,0
1682938171.69939685,114728257,1000,1000,1000,1000,0,0,0,0,0,0,0,0,0,0
1682938171.79935694,114828217,1000,1000,1000,1000,0,0,0,0,0,0,0,0,0,0
1682938171.89931703,114928177,1000,1000,1000,1000,0,0,0,0,0,0,0,0,0,0
1682938172.00010991,115028970,1000,1000,1000,1000,0,0,0,0,0,0,0,0,0,0
1682938172.10007000,115128930,1000,1000,1000,1000,0,0,0,0,0,0,0,0,0,0
1682938172.20002985,115228890,1000,1000,1000,1000,0,0,0,0,0,0,0,0,0,0
1682938172.29998994,115328850,1000,1000,1000,1000,0,0,0,0,0,0,0,0,0,0
1682938172.39994979,115428810,1000,1000,1000,1000,0,0,0,0,0,0,0,0,0,0
1682938172.49990988,115528770,1000,1000,1000,1000,0,0,0,0,0,0,0,0,0,0
1682938172.59986997,115628730,1000,1000,1000,1000,0,0,0,0,0,0,0,0,0,0
1682938172.69982982,115728690,1000,1000,1000,1000,0,0,0,0,0,0,0,0,0,0
1682938172.79978991,115828650,1000,1000,1000,1000,0,0,0,0,0,0,0,0,0,0
1682938172.89974999,115928610,1000,1000,1000,1000,0,0,0,0,0,0,0,0,0,0
1682938172.99970984,116028570,1000,1000,1000,1000,0,0,0,0,0,0,0,0,0,0
1682938173.09966993,116128530,1000,1000,1000,1000,0,0,0,0,0,0,0,0,0,0
1682938173.19963002,116228490,1000,1000,1000,1000,0,0,0,0,0,0,0,0,0,0
1682938173.29958987,116328450,1000,1000,1000,1000,0,0,0,0,0,0,0,0,0,0
1682938173.39954996,116428410,1000,1000,1000,1000,0,0,0,0,0,0,0,0,0,0
1682938173.49950981,116528370,1000,1000,1000,1000,0,0,0,0,0,0,0,0,0,0
1682938173.59946990,116628330,1000,1000,1000,1000,0,0,0,0,0,0,0,0,0,0
1682938173.69942999,116728290,1000,1000,1000,1000,0,0,0,0,0,0,0,0,0,0
1682938173.79938984,116828250,1000,1000,1000,1000,0,0,0,0,0,0,0,0,0,0
1682938173.89934993,116928210,1000,1000,1000,1000,0,0,0,0,0,0,0,0,0,0
1682938173.99931002,117028170,1000,1000,1000,1000,0,0,0,0,0,0,0,0,0,0
1682938174.10010290,117128963,1000,1000,1000,1000,0,0,0,0,0,0,0,0,0,0
1682938174.20006299,117228923,1000,1000,1000,1000,0,0,0,0,0,0,0,0,0,0
1682938174.30002284,117328883,1000,1000,1000,1000,0,0,0,0,0,0,0,0,0,0
1682938174.39998293,117428843,1000,1000,1000,1000,0,0,0,0,0,0,0,0,0,0
1682938174.49994302,117528803,1000,1000,1000,1000,0,0,0,0,0,0,0,0,0,0
1682938174.59990287,117628763,1000,1000,1000,1000,0,0,0,0,0,0,0,0,0,0
1682938174.69986296,117728723,1000,1000,1000,1000,0,0,0,0,0,0,0,0,0,0
1682938174.79982281,117828683,1000,1000,1000,1000,0,0,0,0,0,0,0,0,0,0
1682938174.89978290,117928643,1000,1000,1000,1000,0,0,0,0,0,0,0,0,0,0
1682938174.99974298,118028603,1000,1000,1000,1000,0,0,0,0,0,0,0,0,0,0
1682938175.09970284,118128563,1000,1000,1000,1000,0,0,0,0,0,0,0,0,0,0
1682938175.19966292,118228523,1000,1000,1000,1000,0,0,0,0,0,0,0,0,0,0
1682938175.29962301,118328483,1000,1000,1000,1000,0,0,0,0,0,0,0,0,0,0
1682938175.39958286,118428443,1000,1000,1000,1000,0,0,0,0,0,0,0,0,0,0
1682938175.49954295,118528403,1000,1000,1000,1000,0,0,0,0,0,0,0,0,0,0
1682938175.59950280,118628363,1000,1000,1000,1000,0,0,0,0,0,0,0,0,0,0
1682938175.69946289,118728323,1000,1000,1000,1000,0,0,0,0,0,0,0,0,0,0
1682938175.79942298,118828283,1000,1000,1000,1000,0,0,0,0,0,0,0,0,0,0
