TimeUS,M1,M2,M3,M4,TimeUS,C1,C2,C3,C4
58913925,1000,1000,1000,1000,58928919,1000,1000,1000,1000
58916424,1000,1000,1000,1000,59028879,1000,1000,1000,1000
58918923,1000,1000,1000,1000,59128839,1000,1000,1000,1000
58921422,1000,1000,1000,1000,59228799,1000,1000,1000,1000
58923921,1000,1000,1000,1000,59328759,1000,1000,1000,1000
58926420,1000,1000,1000,1000,59428719,1000,1000,1000,1000
58928919,1000,1000,1000,1000,59528679,1000,1000,1000,1000
58931418,1000,1000,1000,1000,59628639,1000,1000,1000,1000
58933917,1000,1000,1000,1000,59728599,1000,1000,1000,1000
58936416,1000,1000,1000,1000,59828559,1000,1000,1000,1000
58938915,1000,1000,1000,1000,59928519,1000,1000,1000,1000
58941414,1000,1000,1000,1000,60028479,1000,1000,1000,1000
58943913,1000,1000,1000,1000,60128439,1000,1000,1000,1000
58946412,1000,1000,1000,1000,60228399,1000,1000,1000,1000
58948911,1000,1000,1000,1000,60328359,1000,1000,1000,1000
58951410,1000,1000,1000,1000,60428319,1000,1000,1000,1000
58953909,1000,1000,1000,1000,60528279,1000,1000,1000,1000
58956408,1000,1000,1000,1000,60628239,1000,1000,1000,1000
58958907,1000,1000,1000,1000,60728199,1000,1000,1000,1000
58961406,1000,1000,1000,1000,60828159,1000,1000,1000,1000
58963905,1000,1000,1000,1000,60928952,1004,1004,1004,1004
58966404,1000,1000,1000,1000,61028912,1034,1034,1034,1034
58968903,1000,1000,1000,1000,61128872,1064,1064,1064,1064
58971402,1000,1000,1000,1000,61228832,1094,1094,1094,1094
58973901,1000,1000,1000,1000,61328792,1124,1124,1124,1124
58976400,1000,1000,1000,1000,61428752,1193,1184,1185,1194
58978899,1000,1000,1000,1000,61528712,1430,1423,1424,1430
58981398,1000,1000,1000,1000,61628672,1603,1598,1598,1603
58983897,1000,1000,1000,1000,61728632,1747,1742,1742,1747
58986396,1000,1000,1000,1000,61828592,1872,1867,1867,1873
58988895,1000,1000,1000,1000,61928552,1919,1916,1916,1920
58991394,1000,1000,1000,1000,62028512,1807,1806,1806,1808
58993893,1000,1000,1000,1000,62128472,1690,1691,1689,1692
58996392,1000,1000,1000,1000,62228432,1636,1639,1634,1642
58998891,1000,1000,1000,1000,62328392,1630,1633,1630,1634
59001390,1000,1000,1000,1000,62428352,1636,1638,1638,1637
59003889,1000,1000,1000,1000,62528312,1637,1637,1639,1635
59006388,1000,1000,1000,1000,62628272,1632,1631,1634,1629
59008887,1000,1000,1000,1000,62728232,1624,1624,1626,1621
59011386,1000,1000,1000,1000,62828192,1619,1618,1620,1617
59013885,1000,1000,1000,1000,62928985,1616,1615,1617,1615
59016384,1000,1000,1000,1000,63028945,1611,1611,1612,1610
59018883,1000,1000,1000,1000,63128905,1582,1582,1589,1574
59021382,1000,1000,1000,1000,63228865,1568,1569,1573,1564
59023881,1000,1000,1000,1000,63328825,1558,1559,1558,1559
59026380,1000,1000,1000,1000,63428785,1549,1549,1546,1553
59028879,1000,1000,1000,1000,63528745,1543,1543,1535,1550
59031378,1000,1000,1000,1000,63628705,1537,1536,1528,1545
59033877,1000,1000,1000,1000,63728665,1532,1531,1526,1537
59036376,1000,1000,1000,1000,63828625,1527,1527,1525,1528
59038875,1000,1000,1000,1000,63928585,1524,1524,1525,1524
59041374,1000,1000,1000,1000,64028545,1526,1526,1528,1524
59043873,1000,1000,1000,1000,64128505,1529,1529,1531,1526
59046372,1000,1000,1000,1000,64228465,1532,1532,1535,1530
59048871,1000,1000,1000,1000,64328425,1536,1536,1538,1534
59051370,1000,1000,1000,1000,64428385,1539,1540,1541,1539
59053869,1000,1000,1000,1000,64528345,1543,1543,1544,1543
59056368,1000,1000,1000,1000,64628305,1546,1546,1546,1546
59058867,1000,1000,1000,1000,64728265,1548,1548,1548,1549
59061366,1000,1000,1000,1000,64828225,1551,1551,1551,1552
59063865,1000,1000,1000,1000,64928185,1555,1555,1554,1557
59066364,1000,1000,1000,1000,65028978,1553,1554,1559,1561
59068863,1000,1000,1000,1000,65128938,1555,1555,1562,1563
59071362,1000,1000,1000,1000,65228898,1558,1558,1564,1565
59073861,1000,1000,1000,1000,65328858,1561,1561,1565,1566
59076360,1000,1000,1000,1000,65428818,1563,1564,1566,1566
59078859,1000,1000,1000,1000,65528778,1566,1566,1566,1566
59081358,1000,1000,1000,1000,65628738,1568,1567,1566,1565
59083857,1000,1000,1000,1000,65728698,1570,1570,1567,1566
59086356,1000,1000,1000,1000,65828658,1573,1572,1568,1567
59088855,1000,1000,1000,1000,65928618,1572,1572,1567,1567
59091354,1000,1000,1000,1000,66028578,1573,1573,1569,1569
59093853,1000,1000,1000,1000,66128538,1573,1573,1569,1569
59096352,1000,1000,1000,1000,66228498,1573,1573,1570,1571
59098851,1000,1000,1000,1000,66328458,1575,1575,1573,1573
59101350,1000,1000,1000,1000,66428418,1574,1574,1574,1573
59103849,1000,1000,1000,1000,66528378,1575,1575,1576,1574
59106348,1000,1000,1000,1000,66628338,1575,1576,1577,1575
59108847,1000,1000,1000,1000,66728298,1575,1575,1577,1576
59111346,1000,1000,1000,1000,66828258,1575,1575,1577,1577
59113845,1000,1000,1000,1000,66928218,1575,1575,1576,1577
59116344,1000,1000,1000,1000,67028178,1575,1576,1577,1577
59118843,1000,1000,1000,1000,67128971,1576,1576,1576,1577
59121342,1000,1000,1000,1000,67228931,1575,1576,1576,1576
59123841,1000,1000,1000,1000,67328891,1577,1576,1577,1577
59126340,1000,1000,1000,1000,67428851,1577,1577,1577,1577
59128839,1000,1000,1000,1000,67528811,1577,1577,1577,1576
59131338,1000,1000,1000,1000,67628771,1577,1577,1577,1577
59133837,1000,1000,1000,1000,67728731,1577,1577,1577,1577
59136336,1000,1000,1000,1000,67828691,1577,1577,1576,1577
59138835,1000,1000,1000,1000,67928651,1578,1578,1577,1577
59141334,1000,1000,1000,1000,68028611,1577,1577,1576,1576
59143833,1000,1000,1000,1000,68128571,1578,1578,1577,1578
59146332,1000,1000,1000,1000,68228531,1578,1578,1579,1578
59148831,1000,1000,1000,1000,68328491,1578,1578,1578,1578
59151330,1000,1000,1000,1000,68428451,1578,1578,1579,1579
59153829,1000,1000,1000,1000,68528411,1579,1578,1579,1579
59156328,1000,1000,1000,1000,68628371,1579,1579,1580,1579
59158827,1000,1000,1000,1000,68728331,1579,1580,1579,1580
59161326,1000,1000,1000,1000,68828291,1580,1580,1580,1580
59163825,1000,1000,1000,1000,68928251,1580,1580,1580,1580
59166324,1000,1000,1000,1000,69028211,1580,1580,1580,1580
59168823,1000,1000,1000,1000,69128171,1580,1579,1580,1580
59171322,1000,1000,1000,1000,69228964,1579,1579,1580,1579
59173821,1000,1000,1000,1000,69328924,1579,1579,1579,1580
59176320,1000,1000,1000,1000,69428884,1580,1580,1580,1580
59178819,1000,1000,1000,1000,69528844,1582,1581,1581,1581
59181318,1000,1000,1000,1000,69628804,1580,1580,1580,1580
59183817,1000,1000,1000,1000,69728764,1581,1581,1581,1581
59186316,1000,1000,1000,1000,69828724,1580,1581,1581,1581
59188815,1000,1000,1000,1000,69928684,1581,1581,1581,1581
59191314,1000,1000,1000,1000,70028644,1581,1581,1581,1581
59193813,1000,1000,1000,1000,70128604,1582,1581,1581,1581
59196312,1000,1000,1000,1000,70228564,1581,1582,1582,1581
59198811,1000,1000,1000,1000,70328524,1581,1581,1581,1582
59201310,1000,1000,1000,1000,70428484,1580,1580,1580,1581
59203809,1000,1000,1000,1000,70528444,1581,1580,1581,1580
59206308,1000,1000,1000,1000,70628404,1581,1581,1581,1581
59208807,1000,1000,1000,1000,70728364,1581,1581,1581,1581
59211306,1000,1000,1000,1000,70828324,1580,1580,1580,1580
59213805,1000,1000,1000,1000,70928284,1581,1580,1580,1581
59216304,1000,1000,1000,1000,71028244,1581,1581,1581,1581
59218803,1000,1000,1000,1000,71128204,1581,1582,1582,1581
59221302,1000,1000,1000,1000,71228164,1581,1582,1588,1573
59223801,1000,1000,1000,1000,71328957,1580,1583,1585,1573
59226300,1000,1000,1000,1000,71428917,1579,1582,1576,1574
59228799,1000,1000,1000,1000,71528877,1577,1580,1567,1572
59231298,1000,1000,1000,1000,71628837,1576,1578,1560,1567
59233797,1000,1000,1000,1000,71728797,1578,1578,1557,1563
59236296,1000,1000,1000,1000,71828757,1578,1577,1554,1558
59238795,1000,1000,1000,1000,71928717,1580,1578,1555,1556
59241294,1000,1000,1000,1000,72028677,1579,1577,1555,1553
59243793,1000,1000,1000,1000,72128637,1578,1577,1555,1553
59246292,1000,1000,1000,1000,72228597,1576,1576,1555,1552
59248791,1000,1000,1000,1000,72328557,1575,1577,1555,1553
59251290,1000,1000,1000,1000,72428517,1574,1576,1553,1553
59253789,1000,1000,1000,1000,72528477,1575,1576,1553,1553
59256288,1000,1000,1000,1000,72628437,1574,1576,1550,1551
59258787,1000,1000,1000,1000,72728397,1577,1578,1550,1550
59261286,1000,1000,1000,1000,72828357,1578,1580,1548,1547
59263785,1000,1000,1000,1000,72928317,1582,1582,1546,1545
59266284,1000,1000,1000,1000,73028277,1584,1585,1542,1542
59268783,1000,1000,1000,1000,73128237,1587,1587,1539,1539
59271282,1000,1000,1000,1000,73228197,1589,1590,1536,1536
59273781,1000,1000,1000,1000,73328157,1592,1592,1534,1535
59276280,1000,1000,1000,1000,73428950,1594,1593,1534,1534
59278779,1000,1000,1000,1000,73528910,1594,1594,1534,1535
59281278,1000,1000,1000,1000,73628870,1593,1593,1535,1537
59283777,1000,1000,1000,1000,73728830,1592,1591,1539,1542
59286276,1000,1000,1000,1000,73828790,1588,1587,1545,1548
59288775,1000,1000,1000,1000,73928750,1583,1579,1553,1557
59291274,1000,1000,1000,1000,74028710,1573,1570,1563,1566
59293773,1000,1000,1000,1000,74128670,1563,1560,1575,1578
59296272,1000,1000,1000,1000,74228630,1553,1549,1588,1589
59298771,1000,1000,1000,1000,74328590,1542,1539,1599,1599
59301270,1000,1000,1000,1000,74428550,1534,1534,1609,1608
59303769,1000,1000,1000,1000,74528510,1530,1531,1614,1613
59306268,1000,1000,1000,1000,74628470,1528,1530,1616,1615
59308767,1000,1000,1000,1000,74728430,1531,1533,1613,1612
59311266,1000,1000,1000,1000,74828390,1537,1540,1609,1609
59313765,1000,1000,1000,1000,74928350,1546,1548,1603,1604
59316264,1000,1000,1000,1000,75028310,1554,1555,1595,1595
59318763,1000,1000,1000,1000,75128270,1563,1563,1587,1587
59321262,1000,1000,1000,1000,75228230,1571,1570,1580,1579
59323761,1000,1000,1000,1000,75328190,1578,1577,1574,1573
59326260,1000,1000,1000,1000,75428983,1584,1582,1570,1570
59328759,1000,1000,1000,1000,75528943,1586,1585,1567,1567
59331258,1000,1000,1000,1000,75628903,1588,1586,1565,1566
59333757,1000,1000,1000,1000,75728863,1587,1587,1566,1567
59336256,1000,1000,1000,1000,75828823,1585,1584,1567,1568
59338755,1000,1000,1000,1000,75928783,1583,1583,1571,1571
59341254,1000,1000,1000,1000,76028743,1580,1580,1573,1573
59343753,1000,1000,1000,1000,76128703,1578,1577,1577,1576
59346252,1000,1000,1000,1000,76228663,1576,1576,1580,1579
59348751,1000,1000,1000,1000,76328623,1573,1573,1581,1581
59351250,1000,1000,1000,1000,76428583,1573,1573,1583,1584
59353749,1000,1000,1000,1000,76528543,1572,1573,1584,1584
59356248,1000,1000,1000,1000,76628503,1573,1574,1584,1584
59358747,1000,1000,1000,1000,76728463,1574,1574,1584,1584
59361246,1000,1000,1000,1000,76828423,1576,1576,1584,1583
59363745,1000,1000,1000,1000,76928383,1576,1576,1582,1581
59366244,1000,1000,1000,1000,77028343,1578,1578,1580,1580
59368743,1000,1000,1000,1000,77128303,1579,1579,1579,1579
59371242,1000,1000,1000,1000,77228263,1580,1579,1577,1577
59373741,1000,1000,1000,1000,77328223,1581,1581,1577,1577
59376240,1000,1000,1000,1000,77428183,1581,1581,1577,1577
59378739,1000,1000,1000,1000,77528976,1581,1580,1576,1576
59381238,1000,1000,1000,1000,77628936,1582,1582,1578,1578
59383737,1000,1000,1000,1000,77728896,1581,1581,1578,1578
59386236,1000,1000,1000,1000,77828856,1582,1581,1579,1579
59388735,1000,1000,1000,1000,77928816,1580,1580,1579,1579
59391234,1000,1000,1000,1000,78028776,1580,1580,1579,1579
59393733,1000,1000,1000,1000,78128736,1579,1580,1580,1580
59396232,1000,1000,1000,1000,78228696,1579,1580,1581,1580
59398731,1000,1000,1000,1000,78328656,1579,1579,1581,1580
59401230,1000,1000,1000,1000,78428616,1677,1544,1678,1546
59403729,1000,1000,1000,1000,78528576,1620,1585,1622,1586
59406228,1000,1000,1000,1000,78628536,1593,1589,1595,1589
59408727,1000,1000,1000,1000,78728496,1573,1588,1575,1589
59411226,1000,1000,1000,1000,78828456,1564,1584,1564,1585
59413725,1000,1000,1000,1000,78928416,1562,1578,1561,1577
59416224,1000,1000,1000,1000,79028376,1567,1575,1565,1572
59418723,1000,1000,1000,1000,79128336,1573,1572,1569,1568
59421222,1000,1000,1000,1000,79228296,1578,1573,1581,1562
59423721,1000,1000,1000,1000,79328256,1579,1575,1583,1563
59426220,1000,1000,1000,1000,79428216,1579,1577,1577,1567
59428719,1000,1000,1000,1000,79528176,1578,1577,1567,1567
59431218,1000,1000,1000,1000,79628969,1576,1577,1558,1564
59433717,1000,1000,1000,1000,79728929,1577,1579,1553,1561
59436216,1000,1000,1000,1000,79828889,1579,1580,1551,1557
59438715,1000,1000,1000,1000,79928849,1581,1580,1552,1554
59441214,1000,1000,1000,1000,80028809,1581,1580,1554,1552
59443713,1000,1000,1000,1000,80128769,1580,1580,1556,1552
59446212,1000,1000,1000,1000,80228729,1580,1580,1558,1554
59448711,1000,1000,1000,1000,80328689,1578,1579,1557,1555
59451210,1000,1000,1000,1000,80428649,1577,1578,1556,1555
59453709,1000,1000,1000,1000,80528609,1577,1578,1556,1556
59456208,1000,1000,1000,1000,80628569,1578,1580,1556,1557
59458707,1000,1000,1000,1000,80728529,1578,1579,1553,1553
59461206,1000,1000,1000,1000,80828489,1579,1581,1550,1551
59463705,1000,1000,1000,1000,80928449,1582,1583,1549,1549
59466204,1000,1000,1000,1000,81028409,1584,1585,1547,1546
59468703,1000,1000,1000,1000,81128369,1587,1588,1545,1545
59471202,1000,1000,1000,1000,81228329,1589,1591,1543,1543
59473701,1000,1000,1000,1000,81328289,1592,1593,1541,1542
59476200,1000,1000,1000,1000,81428249,1594,1595,1540,1541
59478699,1000,1000,1000,1000,81528209,1595,1595,1540,1541
59481198,1000,1000,1000,1000,81628169,1595,1593,1543,1546
59483697,1000,1000,1000,1000,81728962,1592,1588,1549,1551
59486196,1000,1000,1000,1000,81828922,1585,1581,1556,1558
59488695,1000,1000,1000,1000,81928882,1577,1573,1566,1568
59491194,1000,1000,1000,1000,82028842,1567,1563,1576,1578
59493693,1000,1000,1000,1000,82128802,1558,1555,1587,1589
59496192,1000,1000,1000,1000,82228762,1548,1547,1596,1597
59498691,1000,1000,1000,1000,82328722,1542,1542,1605,1604
59501190,1000,1000,1000,1000,82428682,1539,1539,1610,1609
59503689,1000,1000,1000,1000,82528642,1537,1538,1610,1610
59506188,1000,1000,1000,1000,82628602,1540,1541,1609,1608
59508687,1000,1000,1000,1000,82728562,1545,1546,1606,1605
59511186,1000,1000,1000,1000,82828522,1551,1553,1601,1600
59513685,1000,1000,1000,1000,82928482,1559,1560,1596,1595
59516184,1000,1000,1000,1000,83028442,1567,1567,1589,1589
59518683,1000,1000,1000,1000,83128402,1573,1573,1583,1582
59521182,1000,1000,1000,1000,83228362,1579,1578,1577,1577
59523681,1000,1000,1000,1000,83328322,1583,1582,1574,1573
59526180,1000,1000,1000,1000,83428282,1586,1585,1571,1571
59528679,1000,1000,1000,1000,83528242,1587,1585,1570,1570
59531178,1000,1000,1000,1000,83628202,1586,1585,1571,1571
59533677,1000,1000,1000,1000,83728162,1585,1583,1572,1572
59536176,1000,1000,1000,1000,83828955,1583,1582,1574,1574
59538675,1000,1000,1000,1000,83928915,1580,1580,1576,1576
59541174,1000,1000,1000,1000,84028875,1578,1578,1579,1579
59543673,1000,1000,1000,1000,84128835,1576,1576,1581,1581
59546172,1000,1000,1000,1000,84228795,1574,1575,1582,1582
59548671,1000,1000,1000,1000,84328755,1575,1575,1584,1584
59551170,1000,1000,1000,1000,84428715,1574,1574,1584,1584
59553669,1000,1000,1000,1000,84528675,1574,1575,1584,1584
59556168,1000,1000,1000,1000,84628635,1574,1575,1582,1583
59558667,1000,1000,1000,1000,84728595,1575,1574,1580,1581
59561166,1000,1000,1000,1000,84828555,1576,1576,1580,1580
59563665,1000,1000,1000,1000,84928515,1577,1578,1579,1579
59566164,1000,1000,1000,1000,85028475,1578,1578,1578,1578
59568663,1000,1000,1000,1000,85128435,1580,1579,1578,1578
59571162,1000,1000,1000,1000,85228395,1581,1581,1578,1578
59573661,1000,1000,1000,1000,85328355,1581,1581,1578,1578
59576160,1000,1000,1000,1000,85428315,1580,1580,1577,1576
59578659,1000,1000,1000,1000,85528275,1580,1580,1577,1577
59581158,1000,1000,1000,1000,85628235,1580,1580,1577,1578
59583657,1000,1000,1000,1000,85728195,1581,1581,1579,1580
59586156,1000,1000,1000,1000,85828155,1580,1580,1579,1579
59588655,1000,1000,1000,1000,85928948,1579,1580,1580,1580
59591154,1000,1000,1000,1000,86028908,1580,1580,1581,1581
59593653,1000,1000,1000,1000,86128868,1579,1579,1581,1580
59596152,1000,1000,1000,1000,86228828,1580,1579,1581,1581
59598651,1000,1000,1000,1000,86328788,1580,1580,1582,1582
59601150,1000,1000,1000,1000,86428748,1580,1580,1581,1581
59603649,1000,1000,1000,1000,86528708,1579,1580,1581,1581
59606148,1000,1000,1000,1000,86628668,1580,1580,1581,1581
59608647,1000,1000,1000,1000,86728628,1580,1580,1580,1581
59611146,1000,1000,1000,1000,86828588,1581,1581,1581,1580
59613645,1000,1000,1000,1000,86928548,1581,1581,1581,1580
59616144,1000,1000,1000,1000,87028508,1581,1581,1580,1580
59618643,1000,1000,1000,1000,87128468,1581,1581,1580,1580
59621142,1000,1000,1000,1000,87228428,1582,1582,1581,1581
59623641,1000,1000,1000,1000,87328388,1582,1582,1583,1580
59626140,1000,1000,1000,1000,87428348,1581,1583,1588,1573
59628639,1000,1000,1000,1000,87528308,1580,1584,1582,1573
59631138,1000,1000,1000,1000,87628268,1579,1582,1572,1572
59633637,1000,1000,1000,1000,87728228,1578,1580,1564,1570
59636136,1000,1000,1000,1000,87828188,1579,1580,1559,1566
59638635,1000,1000,1000,1000,87928981,1580,1579,1555,1561
59641134,1000,1000,1000,1000,88028941,1581,1579,1555,1557
59643633,1000,1000,1000,1000,88128901,1581,1579,1555,1554
59646132,1000,1000,1000,1000,88228861,1581,1579,1556,1554
59648631,1000,1000,1000,1000,88328821,1579,1578,1556,1553
59651130,1000,1000,1000,1000,88428781,1576,1577,1554,1553
59653629,1000,1000,1000,1000,88528741,1576,1577,1554,1554
59656128,1000,1000,1000,1000,88628701,1575,1577,1553,1554
59658627,1000,1000,1000,1000,88728661,1575,1576,1552,1553
59661126,1000,1000,1000,1000,88828621,1576,1578,1552,1552
59663625,1000,1000,1000,1000,88928581,1578,1578,1550,1549
59666124,1000,1000,1000,1000,89028541,1580,1581,1548,1547
59668623,1000,1000,1000,1000,89128501,1583,1583,1546,1546
59671122,1000,1000,1000,1000,89228461,1585,1585,1542,1542
59673621,1000,1000,1000,1000,89328421,1588,1587,1540,1540
59676120,1000,1000,1000,1000,89428381,1590,1591,1540,1539
59678619,1000,1000,1000,1000,89528341,1592,1593,1539,1539
59681118,1000,1000,1000,1000,89628301,1593,1594,1538,1539
59683617,1000,1000,1000,1000,89728261,1594,1594,1538,1540
59686116,1000,1000,1000,1000,89828221,1592,1592,1540,1542
59688615,1000,1000,1000,1000,89928181,1590,1588,1544,1547
59691114,1000,1000,1000,1000,90028974,1585,1582,1553,1555
59693613,1000,1000,1000,1000,90128934,1577,1573,1562,1564
59696112,1000,1000,1000,1000,90228894,1568,1564,1573,1575
59698611,1000,1000,1000,1000,90328854,1557,1553,1586,1587
59701110,1000,1000,1000,1000,90428814,1546,1545,1596,1597
59703609,1000,1000,1000,1000,90528774,1539,1538,1605,1605
59706108,1000,1000,1000,1000,90628734,1533,1534,1610,1609
59708607,1000,1000,1000,1000,90728694,1533,1533,1612,1612
59711106,1000,1000,1000,1000,90828654,1534,1535,1611,1611
59713605,1000,1000,1000,1000,90928614,1540,1542,1609,1608
59716104,1000,1000,1000,1000,91028574,1547,1549,1603,1603
59718603,1000,1000,1000,1000,91128534,1555,1557,1597,1596
59721102,1000,1000,1000,1000,91228494,1564,1565,1590,1589
59723601,1000,1000,1000,1000,91328454,1573,1573,1584,1583
59726100,1000,1000,1000,1000,91428414,1579,1579,1578,1577
59728599,1000,1000,1000,1000,91528374,1584,1583,1574,1574
59731098,1000,1000,1000,1000,91628334,1588,1586,1571,1571
59733597,1000,1000,1000,1000,91728294,1588,1587,1569,1569
59736096,1000,1000,1000,1000,91828254,1587,1586,1569,1569
59738595,1000,1000,1000,1000,91928214,1585,1584,1569,1570
59741094,1000,1000,1000,1000,92028174,1583,1582,1572,1572
59743593,1000,1000,1000,1000,92128967,1580,1580,1575,1574
59746092,1000,1000,1000,1000,92228927,1579,1579,1578,1578
59748591,1000,1000,1000,1000,92328887,1576,1576,1580,1580
59751090,1000,1000,1000,1000,92428847,1575,1575,1582,1582
59753589,1000,1000,1000,1000,92528807,1573,1574,1583,1583
59756088,1000,1000,1000,1000,92628767,1572,1573,1583,1583
59758587,1000,1000,1000,1000,92728727,1572,1573,1582,1583
59761086,1000,1000,1000,1000,92828687,1574,1574,1582,1582
59763585,1000,1000,1000,1000,92928647,1575,1575,1581,1582
59766084,1000,1000,1000,1000,93028607,1576,1576,1581,1580
59768583,1000,1000,1000,1000,93128567,1578,1577,1580,1579
59771082,1000,1000,1000,1000,93228527,1579,1579,1579,1579
59773581,1000,1000,1000,1000,93328487,1580,1580,1578,1578
59776080,1000,1000,1000,1000,93428447,1580,1580,1577,1577
59778579,1000,1000,1000,1000,93528407,1581,1581,1577,1577
59781078,1000,1000,1000,1000,93628367,1581,1581,1577,1577
59783577,1000,1000,1000,1000,93728327,1581,1581,1578,1578
59786076,1000,1000,1000,1000,93828287,1580,1580,1578,1578
59788575,1000,1000,1000,1000,93928247,1580,1581,1579,1579
59791074,1000,1000,1000,1000,94028207,1580,1580,1579,1579
59793573,1000,1000,1000,1000,94128167,1580,1580,1580,1580
59796072,1000,1000,1000,1000,94228960,1580,1580,1580,1580
59798571,1000,1000,1000,1000,94328920,1580,1580,1581,1582
59801070,1000,1000,1000,1000,94428880,1579,1579,1581,1581
59803569,1000,1000,1000,1000,94528840,1579,1579,1580,1581
59806068,1000,1000,1000,1000,94628800,1579,1580,1581,1581
59808567,1000,1000,1000,1000,94728760,1580,1580,1582,1580
59811066,1000,1000,1000,1000,94828720,1581,1580,1582,1581
59813565,1000,1000,1000,1000,94928680,1580,1580,1580,1581
59816064,1000,1000,1000,1000,95028640,1580,1580,1580,1580
59818563,1000,1000,1000,1000,95128600,1581,1581,1581,1581
59821062,1000,1000,1000,1000,95228560,1580,1581,1580,1580
59823561,1000,1000,1000,1000,95328520,1581,1581,1587,1573
59826060,1000,1000,1000,1000,95428480,1580,1579,1584,1572
59828559,1000,1000,1000,1000,95528440,1578,1577,1577,1575
59831058,1000,1000,1000,1000,95628400,1574,1574,1570,1575
59833557,1000,1000,1000,1000,95728360,1572,1572,1567,1575
59836056,1000,1000,1000,1000,95828320,1570,1570,1566,1572
59838555,1000,1000,1000,1000,95928280,1569,1569,1567,1569
59841054,1000,1000,1000,1000,96028240,1568,1568,1568,1568
59843553,1000,1000,1000,1000,96128200,1566,1566,1567,1566
59846052,1000,1000,1000,1000,96228160,1566,1566,1568,1566
59848551,1000,1000,1000,1000,96328953,1566,1565,1567,1565
59851050,1000,1000,1000,1000,96428913,1563,1564,1565,1564
59853549,1000,1000,1000,1000,96528873,1563,1563,1564,1563
59856048,1000,1000,1000,1000,96628833,1562,1562,1562,1562
59858547,1000,1000,1000,1000,96728793,1562,1562,1562,1562
59861046,1000,1000,1000,1000,96828753,1561,1561,1561,1562
59863545,1000,1000,1000,1000,96928713,1561,1561,1561,1561
59866044,1000,1000,1000,1000,97028673,1561,1561,1561,1561
59868543,1000,1000,1000,1000,97128633,1560,1559,1560,1559
59871042,1000,1000,1000,1000,97228593,1559,1558,1559,1558
59873541,1000,1000,1000,1000,97328553,1558,1558,1558,1557
59876040,1000,1000,1000,1000,97428513,1558,1558,1559,1557
59878539,1000,1000,1000,1000,97528473,1557,1557,1558,1557
59881038,1000,1000,1000,1000,97628433,1556,1556,1556,1556
59883537,1000,1000,1000,1000,97728393,1557,1557,1557,1556
59886036,1000,1000,1000,1000,97828353,1557,1557,1558,1556
59888535,1000,1000,1000,1000,97928313,1557,1557,1558,1556
59891034,1000,1000,1000,1000,98028273,1558,1557,1560,1557
59893533,1000,1000,1000,1000,98128233,1559,1559,1559,1560
59896032,1000,1000,1000,1000,98228193,1559,1559,1557,1562
59898531,1000,1000,1000,1000,98328986,1560,1560,1556,1563
59901030,1000,1000,1000,1000,98428946,1561,1562,1559,1564
59903529,1000,1000,1000,1000,98528906,1564,1563,1561,1566
59906028,1000,1000,1000,1000,98628866,1563,1563,1563,1563
59908527,1000,1000,1000,1000,98728826,1563,1564,1565,1562
59911026,1000,1000,1000,1000,98828786,1561,1562,1564,1559
59913525,1000,1000,1000,1000,98928746,1561,1561,1562,1560
59916024,1000,1000,1000,1000,99028706,1560,1559,1556,1562
59918523,1000,1000,1000,1000,99128666,1556,1556,1553,1559
59921022,1000,1000,1000,1000,99228626,1552,1552,1550,1554
59923521,1000,1000,1000,1000,99328586,1545,1546,1545,1546
59926020,1000,1000,1000,1000,99428546,1538,1538,1539,1537
59928519,1000,1000,1000,1000,99528506,1531,1531,1532,1530
59931018,1000,1000,1000,1000,99628466,1522,1523,1524,1522
59933517,1000,1000,1000,1000,99728426,1520,1519,1520,1519
59936016,1000,1000,1000,1000,99828386,1520,1520,1520,1520
59938515,1000,1000,1000,1000,99928346,1520,1520,1520,1521
59941014,1000,1000,1000,1000,100028306,1523,1523,1523,1524
59943513,1000,1000,1000,1000,100128266,1527,1527,1527,1528
59946012,1000,1000,1000,1000,100228226,1531,1531,1531,1532
59948511,1000,1000,1000,1000,100328186,1536,1536,1536,1536
59951010,1000,1000,1000,1000,100428979,1539,1540,1540,1540
59953509,1000,1000,1000,1000,100528939,1543,1543,1543,1543
59956008,1000,1000,1000,1000,100628899,1543,1543,1543,1543
59958507,1000,1000,1000,1000,100728859,1545,1545,1545,1544
59961006,1000,1000,1000,1000,100828819,1545,1546,1546,1545
59963505,1000,1000,1000,1000,100928779,1545,1545,1545,1545
59966004,1000,1000,1000,1000,101028739,1546,1546,1546,1545
59968503,1000,1000,1000,1000,101128699,1546,1546,1546,1546
59971002,1000,1000,1000,1000,101228659,1546,1546,1546,1546
59973501,1000,1000,1000,1000,101328619,1547,1546,1547,1546
59976000,1000,1000,1000,1000,101428579,1545,1545,1545,1545
59978499,1000,1000,1000,1000,101528539,1545,1545,1545,1546
59980998,1000,1000,1000,1000,101628499,1545,1546,1546,1545
59983497,1000,1000,1000,1000,101728459,1545,1545,1545,1545
59985996,1000,1000,1000,1000,101828419,1545,1545,1545,1545
59988495,1000,1000,1000,1000,101928379,1545,1544,1545,1545
59990994,1000,1000,1000,1000,102028339,1545,1546,1546,1545
59993493,1000,1000,1000,1000,102128299,1545,1545,1545,1545
59995992,1000,1000,1000,1000,102228259,1545,1546,1545,1545
59998491,1000,1000,1000,1000,102328219,1545,1545,1545,1545
60000990,1000,1000,1000,1000,102428179,1545,1544,1544,1544
60003489,1000,1000,1000,1000,102528972,1544,1544,1544,1544
60005988,1000,1000,1000,1000,102628932,1544,1544,1544,1544
60008487,1000,1000,1000,1000,102728892,1543,1543,1543,1544
60010986,1000,1000,1000,1000,102828852,1543,1543,1543,1543
60013485,1000,1000,1000,1000,102928812,1544,1544,1544,1544
60015984,1000,1000,1000,1000,103028772,1543,1543,1543,1543
60018483,1000,1000,1000,1000,103128732,1543,1543,1543,1543
60020982,1000,1000,1000,1000,103228692,1544,1544,1544,1544
60023481,1000,1000,1000,1000,103328652,1544,1544,1544,1544
60025980,1000,1000,1000,1000,103428612,1544,1543,1543,1544
60028479,1000,1000,1000,1000,103528572,1544,1544,1544,1544
60030978,1000,1000,1000,1000,103628532,1543,1544,1543,1544
60033477,1000,1000,1000,1000,103728492,1545,1544,1544,1545
60035976,1000,1000,1000,1000,103828452,1545,1545,1545,1545
60038475,1000,1000,1000,1000,103928412,1545,1544,1545,1545
60040974,1000,1000,1000,1000,104028372,1545,1545,1545,1545
60043473,1000,1000,1000,1000,104128332,1544,1544,1544,1544
60045972,1000,1000,1000,1000,104228292,1544,1544,1544,1544
60048471,1000,1000,1000,1000,104328252,1544,1544,1544,1544
60050970,1000,1000,1000,1000,104428212,1544,1544,1544,1544
60053469,1000,1000,1000,1000,104528172,1544,1544,1544,1544
60055968,1000,1000,1000,1000,104628965,1544,1544,1544,1544
60058467,1000,1000,1000,1000,104728925,1544,1544,1544,1544
60060966,1000,1000,1000,1000,104828885,1543,1544,1544,1544
60063465,1000,1000,1000,1000,104928845,1544,1544,1544,1545
60065964,1000,1000,1000,1000,105028805,1544,1544,1544,1544
60068463,1000,1000,1000,1000,105128765,1544,1544,1544,1544
60070962,1000,1000,1000,1000,105228725,1544,1544,1544,1544
60073461,1000,1000,1000,1000,105328685,1545,1544,1544,1544
60075960,1000,1000,1000,1000,105428645,1543,1544,1544,1543
60078459,1000,1000,1000,1000,105528605,1543,1543,1543,1543
60080958,1000,1000,1000,1000,105628565,1544,1544,1544,1544
60083457,1000,1000,1000,1000,105728525,1545,1544,1544,1545
60085956,1000,1000,1000,1000,105828485,1543,1544,1544,1544
60088455,1000,1000,1000,1000,105928445,1544,1544,1544,1544
60090954,1000,1000,1000,1000,106028405,1544,1544,1544,1544
60093453,1000,1000,1000,1000,106128365,1544,1543,1544,1544
60095952,1000,1000,1000,1000,106228325,1544,1543,1544,1544
60098451,1000,1000,1000,1000,106328285,1544,1544,1544,1544
60100950,1000,1000,1000,1000,106428245,1544,1544,1544,1544
60103449,1000,1000,1000,1000,106528205,1545,1544,1544,1545
60105948,1000,1000,1000,1000,106628165,1544,1545,1545,1545
60108447,1000,1000,1000,1000,106728958,1545,1545,1545,1545
60110946,1000,1000,1000,1000,106828918,1544,1544,1544,1544
60113445,1000,1000,1000,1000,106928878,1545,1544,1545,1545
60115944,1000,1000,1000,1000,107028838,1544,1544,1544,1544
60118443,1000,1000,1000,1000,107128798,1544,1544,1544,1544
60120942,1000,1000,1000,1000,107228758,1544,1544,1544,1544
60123441,1000,1000,1000,1000,107328718,1543,1543,1543,1543
60125940,1000,1000,1000,1000,107428678,1544,1544,1544,1544
60128439,1000,1000,1000,1000,107528638,1545,1544,1545,1544
60130938,1000,1000,1000,1000,107628598,1544,1544,1544,1544
60133437,1000,1000,1000,1000,107728558,1544,1543,1543,1544
60135936,1000,1000,1000,1000,107828518,1544,1544,1544,1544
60138435,1000,1000,1000,1000,107928478,1544,1544,1544,1544
60140934,1000,1000,1000,1000,108028438,1543,1544,1544,1544
60143433,1000,1000,1000,1000,108128398,1545,1544,1545,1545
60145932,1000,1000,1000,1000,108228358,1544,1544,1544,1544
60148431,1000,1000,1000,1000,108328318,1544,1544,1545,1544
60150930,1000,1000,1000,1000,108428278,1545,1545,1545,1545
60153429,1000,1000,1000,1000,108528238,1545,1545,1544,1545
60155928,1000,1000,1000,1000,108628198,1544,1544,1544,1544
60158427,1000,1000,1000,1000,108728158,1544,1544,1544,1544
60160926,1000,1000,1000,1000,108828951,1544,1544,1544,1544
60163425,1000,1000,1000,1000,108928911,1545,1544,1544,1545
60165924,1000,1000,1000,1000,109028871,1545,1545,1545,1545
60168423,1000,1000,1000,1000,109128831,1545,1544,1545,1545
60170922,1000,1000,1000,1000,109228791,1545,1545,1545,1544
60173421,1000,1000,1000,1000,109328751,1544,1544,1544,1544
60175920,1000,1000,1000,1000,109428711,1423,1430,1423,1430
60178419,1000,1000,1000,1000,109528671,1257,1281,1257,1281
60180918,1000,1000,1000,1000,109628631,1199,1232,1199,1232
60183417,1000,1000,1000,1000,109728591,1199,1231,1199,1232
60185916,1000,1000,1000,1000,109828551,1199,1232,1199,1232
60188415,1000,1000,1000,1000,109928511,1199,1231,1199,1232
60190914,1000,1000,1000,1000,110028471,1199,1231,1199,1231
60193413,1000,1000,1000,1000,110128431,1235,1234,1199,1265
60195912,1000,1000,1000,1000,110228391,1222,1232,1199,1253
60198411,1000,1000,1000,1000,110328351,1219,1231,1199,1250
60200910,1000,1000,1000,1000,110428311,1220,1231,1199,1250
60203409,1000,1000,1000,1000,110528271,1222,1231,1199,1252
60205908,1000,1000,1000,1000,110628231,1224,1231,1199,1253
60208407,1000,1000,1000,1000,110728191,1226,1230,1199,1255
60210906,1000,1000,1000,1000,110828984,1228,1231,1199,1257
60213405,1000,1000,1000,1000,110928944,1213,1232,1199,1245
60215904,1000,1000,1000,1000,111028904,1214,1232,1199,1246
60218403,1000,1000,1000,1000,111128864,1215,1232,1199,1247
60220902,1000,1000,1000,1000,111228824,1216,1232,1199,1247
60223401,1000,1000,1000,1000,111328784,1216,1231,1199,1248
60225900,1000,1000,1000,1000,111428744,1000,1000,1000,1000
60228399,1000,1000,1000,1000,111528704,1000,1000,1000,1000
60230898,1000,1000,1000,1000,111628664,1000,1000,1000,1000
60233397,1000,1000,1000,1000,111728624,1000,1000,1000,1000
60235896,1000,1000,1000,1000,111828584,1000,1000,1000,1000
60238395,1000,1000,1000,1000,111928544,1000,1000,1000,1000
60240894,1000,1000,1000,1000,112028504,1000,1000,1000,1000
60243393,1000,1000,1000,1000,112128464,1000,1000,1000,1000
60245892,1000,1000,1000,1000,112228424,1000,1000,1000,1000
60248391,1000,1000,1000,1000,112328384,1000,1000,1000,1000
60250890,1000,1000,1000,1000,112428344,1000,1000,1000,1000
60253389,1000,1000,1000,1000,112528304,1000,1000,1000,1000
60255888,1000,1000,1000,1000,112628264,1000,1000,1000,1000
60258387,1000,1000,1000,1000,112728224,1000,1000,1000,1000
60260886,1000,1000,1000,1000,112828184,1000,1000,1000,1000
60263385,1000,1000,1000,1000,112928977,1000,1000,1000,1000
60265884,1000,1000,1000,1000,113028937,1000,1000,1000,1000
60268383,1000,1000,1000,1000,113128897,1000,1000,1000,1000
60270882,1000,1000,1000,1000,113228857,1000,1000,1000,1000
60273381,1000,1000,1000,1000,113328817,1000,1000,1000,1000
60275880,1000,1000,1000,1000,113428777,1000,1000,1000,1000
60278379,1000,1000,1000,1000,113528737,1000,1000,1000,1000
60280878,1000,1000,1000,1000,113628697,1000,1000,1000,1000
60283377,1000,1000,1000,1000,113728657,1000,1000,1000,1000
60285876,1000,1000,1000,1000,113828617,1000,1000,1000,1000
60288375,1000,1000,1000,1000,113928577,1000,1000,1000,1000
60290874,1000,1000,1000,1000,114028537,1000,1000,1000,1000
60293373,1000,1000,1000,1000,114128497,1000,1000,1000,1000
60295872,1000,1000,1000,1000,114228457,1000,1000,1000,1000
60298371,1000,1000,1000,1000,114328417,1000,1000,1000,1000
60300870,1000,1000,1000,1000,114428377,1000,1000,1000,1000
60303369,1000,1000,1000,1000,114528337,1000,1000,1000,1000
60305868,1000,1000,1000,1000,114628297,1000,1000,1000,1000
60308367,1000,1000,1000,1000,114728257,1000,1000,1000,1000
60310866,1000,1000,1000,1000,114828217,1000,1000,1000,1000
60313365,1000,1000,1000,1000,114928177,1000,1000,1000,1000
60315864,1000,1000,1000,1000,115028970,1000,1000,1000,1000
60318363,1000,1000,1000,1000,115128930,1000,1000,1000,1000
60320862,1000,1000,1000,1000,115228890,1000,1000,1000,1000
60323361,1000,1000,1000,1000,115328850,1000,1000,1000,1000
60325860,1000,1000,1000,1000,115428810,1000,1000,1000,1000
60328359,1000,1000,1000,1000,115528770,1000,1000,1000,1000
60330858,1000,1000,1000,1000,115628730,1000,1000,1000,1000
60333357,1000,1000,1000,1000,115728690,1000,1000,1000,1000
60335856,1000,1000,1000,1000,115828650,1000,1000,1000,1000
60338355,1000,1000,1000,1000,115928610,1000,1000,1000,1000
60340854,1000,1000,1000,1000,116028570,1000,1000,1000,1000
60343353,1000,1000,1000,1000,116128530,1000,1000,1000,1000
60345852,1000,1000,1000,1000,116228490,1000,1000,1000,1000
60348351,1000,1000,1000,1000,116328450,1000,1000,1000,1000
60350850,1000,1000,1000,1000,116428410,1000,1000,1000,1000
60353349,1000,1000,1000,1000,116528370,1000,1000,1000,1000
60355848,1000,1000,1000,1000,116628330,1000,1000,1000,1000
60358347,1000,1000,1000,1000,116728290,1000,1000,1000,1000
60360846,1000,1000,1000,1000,116828250,1000,1000,1000,1000
60363345,1000,1000,1000,1000,116928210,1000,1000,1000,1000
60365844,1000,1000,1000,1000,117028170,1000,1000,1000,1000
60368343,1000,1000,1000,1000,117128963,1000,1000,1000,1000
60370842,1000,1000,1000,1000,117228923,1000,1000,1000,1000
60373341,1000,1000,1000,1000,117328883,1000,1000,1000,1000
60375840,1000,1000,1000,1000,117428843,1000,1000,1000,1000
60378339,1000,1000,1000,1000,117528803,1000,1000,1000,1000
60380838,1000,1000,1000,1000,117628763,1000,1000,1000,1000
60383337,1000,1000,1000,1000,117728723,1000,1000,1000,1000
60385836,1000,1000,1000,1000,117828683,1000,1000,1000,1000
60388335,1000,1000,1000,1000,117928643,1000,1000,1000,1000
60390834,1000,1000,1000,1000,118028603,1000,1000,1000,1000
60393333,1000,1000,1000,1000,118128563,1000,1000,1000,1000
60395832,1000,1000,1000,1000,118228523,1000,1000,1000,1000
60398331,1000,1000,1000,1000,118328483,1000,1000,1000,1000
60400830,1000,1000,1000,1000,118428443,1000,1000,1000,1000
60403329,1000,1000,1000,1000,118528403,1000,1000,1000,1000
60405828,1000,1000,1000,1000,118628363,1000,1000,1000,1000
60408327,1000,1000,1000,1000,118728323,1000,1000,1000,1000
60410826,1000,1000,1000,1000,118828283,1000,1000,1000,1000
60413325,1000,1000,1000,1000,118928243,1000,1000,1000,1000
60415824,1000,1000,1000,1000,119028203,1000,1000,1000,1000
60418323,1000,1000,1000,1000,119128163,1000,1000,1000,1000
60420822,1000,1000,1000,1000,119228956,1000,1000,1000,1000
60423321,1000,1000,1000,1000,119328916,1000,1000,1000,1000
60425820,1000,1000,1000,1000,119428876,1000,1000,1000,1000
60428319,1000,1000,1000,1000,119528836,1000,1000,1000,1000
60430818,1000,1000,1000,1000,119628796,1000,1000,1000,1000
60433317,1000,1000,1000,1000,119728756,1000,1000,1000,1000
60435816,1000,1000,1000,1000,119828716,1000,1000,1000,1000
60438315,1000,1000,1000,1000,119928676,1000,1000,1000,1000
60440814,1000,1000,1000,1000,120028636,1000,1000,1000,1000
60443313,1000,1000,1000,1000,120128596,1000,1000,1000,1000
60445812,1000,1000,1000,1000,120228556,1000,1000,1000,1000
60448311,1000,1000,1000,1000,120328516,1000,1000,1000,1000
60450810,1000,1000,1000,1000,120428476,1000,1000,1000,1000
60453309,1000,1000,1000,1000,120528436,1000,1000,1000,1000
60455808,1000,1000,1000,1000,120628396,1000,1000,1000,1000
60458307,1000,1000,1000,1000,120728356,1000,1000,1000,1000
60460806,1000,1000,1000,1000,120828316,1000,1000,1000,1000
60463305,1000,1000,1000,1000,120928276,1000,1000,1000,1000
60465804,1000,1000,1000,1000,121028236,1000,1000,1000,1000
60468303,1000,1000,1000,1000,121128196,1000,1000,1000,1000
60470802,1000,1000,1000,1000,121228156,1000,1000,1000,1000
60473301,1000,1000,1000,1000,121328949,1000,1000,1000,1000
60475800,1000,1000,1000,1000,121428909,1000,1000,1000,1000
60478299,1000,1000,1000,1000,121528869,1000,1000,1000,1000
60480798,1000,1000,1000,1000,121628829,1000,1000,1000,1000
60483297,1000,1000,1000,1000,121728789,1000,1000,1000,1000
60485796,1000,1000,1000,1000,121828749,1000,1000,1000,1000
60488295,1000,1000,1000,1000,121928709,1000,1000,1000,1000
60490794,1000,1000,1000,1000,122028669,1000,1000,1000,1000
60493293,1000,1000,1000,1000,122128629,1000,1000,1000,1000
60495792,1000,1000,1000,1000,122228589,1000,1000,1000,1000
60498291,1000,1000,1000,1000,122328549,1000,1000,1000,1000
60500790,1000,1000,1000,1000,122428509,1000,1000,1000,1000
60503289,1000,1000,1000,1000,122528469,1000,1000,1000,1000
60505788,1000,1000,1000,1000,,,,,
60508287,1000,1000,1000,1000,,,,,
60510786,1000,1000,1000,1000,,,,,
60513285,1000,1000,1000,1000,,,,,
60515784,1000,1000,1000,1000,,,,,
60518283,1000,1000,1000,1000,,,,,
60520782,1000,1000,1000,1000,,,,,
60523281,1000,1000,1000,1000,,,,,
60525780,1000,1000,1000,1000,,,,,
60528279,1000,1000,1000,1000,,,,,
60530778,1000,1000,1000,1000,,,,,
60533277,1000,1000,1000,1000,,,,,
60535776,1000,1000,1000,1000,,,,,
60538275,1000,1000,1000,1000,,,,,
60540774,1000,1000,1000,1000,,,,,
60543273,1000,1000,1000,1000,,,,,
60545772,1000,1000,1000,1000,,,,,
60548271,1000,1000,1000,1000,,,,,
60550770,1000,1000,1000,1000,,,,,
60553269,1000,1000,1000,1000,,,,,
60555768,1000,1000,1000,1000,,,,,
60558267,1000,1000,1000,1000,,,,,
60560766,1000,1000,1000,1000,,,,,
60563265,1000,1000,1000,1000,,,,,
60565764,1000,1000,1000,1000,,,,,
60568263,1000,1000,1000,1000,,,,,
60570762,1000,1000,1000,1000,,,,,
60573261,1000,1000,1000,1000,,,,,
60575760,1000,1000,1000,1000,,,,,
60578259,1000,1000,1000,1000,,,,,
60580758,1000,1000,1000,1000,,,,,
60583257,1000,1000,1000,1000,,,,,
60585756,1000,1000,1000,1000,,,,,
60588255,1000,1000,1000,1000,,,,,
60590754,1000,1000,1000,1000,,,,,
60593253,1000,1000,1000,1000,,,,,
60595752,1000,1000,1000,1000,,,,,
60598251,1000,1000,1000,1000,,,,,
60600750,1000,1000,1000,1000,,,,,
60603249,1000,1000,1000,1000,,,,,
60605748,1000,1000,1000,1000,,,,,
60608247,1000,1000,1000,1000,,,,,
60610746,1000,1000,1000,1000,,,,,
60613245,1000,1000,1000,1000,,,,,
60615744,1000,1000,1000,1000,,,,,
60618243,1000,1000,1000,1000,,,,,
60620742,1000,1000,1000,1000,,,,,
60623241,1000,1000,1000,1000,,,,,
60625740,1000,1000,1000,1000,,,,,
60628239,1000,1000,1000,1000,,,,,
60630738,1000,1000,1000,1000,,,,,
60633237,1000,1000,1000,1000,,,,,
60635736,1000,1000,1000,1000,,,,,
60638235,1000,1000,1000,1000,,,,,
60640734,1000,1000,1000,1000,,,,,
60643233,1000,1000,1000,1000,,,,,
60645732,1000,1000,1000,1000,,,,,
60648231,1000,1000,1000,1000,,,,,
60650730,1000,1000,1000,1000,,,,,
60653229,1000,1000,1000,1000,,,,,
60655728,1000,1000,1000,1000,,,,,
60658227,1000,1000,1000,1000,,,,,
60660726,1000,1000,1000,1000,,,,,
60663225,1000,1000,1000,1000,,,,,
60665724,1000,1000,1000,1000,,,,,
60668223,1000,1000,1000,1000,,,,,
60670722,1000,1000,1000,1000,,,,,
60673221,1000,1000,1000,1000,,,,,
60675720,1000,1000,1000,1000,,,,,
60678219,1000,1000,1000,1000,,,,,
60680718,1000,1000,1000,1000,,,,,
60683217,1000,1000,1000,1000,,,,,
60685716,1000,1000,1000,1000,,,,,
60688215,1000,1000,1000,1000,,,,,
60690714,1000,1000,1000,1000,,,,,
60693213,1000,1000,1000,1000,,,,,
60695712,1000,1000,1000,1000,,,,,
60698211,1000,1000,1000,1000,,,,,
60700710,1000,1000,1000,1000,,,,,
60703209,1000,1000,1000,1000,,,,,
60705708,1000,1000,1000,1000,,,,,
60708207,1000,1000,1000,1000,,,,,
60710706,1000,1000,1000,1000,,,,,
60713205,1000,1000,1000,1000,,,,,
60715704,1000,1000,1000,1000,,,,,
60718203,1000,1000,1000,1000,,,,,
60720702,1000,1000,1000,1000,,,,,
60723201,1000,1000,1000,1000,,,,,
60725700,1000,1000,1000,1000,,,,,
60728199,1000,1000,1000,1000,,,,,
60730698,1000,1000,1000,1000,,,,,
60733197,1000,1000,1000,1000,,,,,
60735696,1000,1000,1000,1000,,,,,
60738195,1000,1000,1000,1000,,,,,
60740694,1000,1000,1000,1000,,,,,
60743193,1000,1000,1000,1000,,,,,
60745692,1000,1000,1000,1000,,,,,
60748191,1000,1000,1000,1000,,,,,
60750690,1000,1000,1000,1000,,,,,
60753189,1000,1000,1000,1000,,,,,
60755688,1000,1000,1000,1000,,,,,
60758187,1000,1000,1000,1000,,,,,
60760686,1000,1000,1000,1000,,,,,
60763185,1000,1000,1000,1000,,,,,
60765684,1000,1000,1000,1000,,,,,
60768183,1000,1000,1000,1000,,,,,
60770682,1000,1000,1000,1000,,,,,
60773181,1000,1000,1000,1000,,,,,
60775680,1000,1000,1000,1000,,,,,
60778179,1000,1000,1000,1000,,,,,
60780678,1000,1000,1000,1000,,,,,
60783177,1000,1000,1000,1000,,,,,
60785676,1000,1000,1000,1000,,,,,
60788175,1000,1000,1000,1000,,,,,
60790674,1000,1000,1000,1000,,,,,
60793173,1000,1000,1000,1000,,,,,
60795672,1000,1000,1000,1000,,,,,
60798171,1000,1000,1000,1000,,,,,
60800670,1000,1000,1000,1000,,,,,
60803169,1000,1000,1000,1000,,,,,
60805668,1000,1000,1000,1000,,,,,
60808167,1000,1000,1000,1000,,,,,
60810666,1000,1000,1000,1000,,,,,
60813165,1000,1000,1000,1000,,,,,
60815664,1000,1000,1000,1000,,,,,
60818163,1000,1000,1000,1000,,,,,
60820662,1000,1000,1000,1000,,,,,
60823161,1000,1000,1000,1000,,,,,
60825660,1000,1000,1000,1000,,,,,
60828159,1000,1000,1000,1000,,,,,
60830658,1000,1000,1000,1000,,,,,
60833157,1000,1000,1000,1000,,,,,
60835656,1000,1000,1000,1000,,,,,
60838155,1000,1000,1000,1000,,,,,
60840654,1000,1000,1000,1000,,,,,
60843986,1000,1000,1000,1000,,,,,
60846485,1000,1000,1000,1000,,,,,
60848984,1000,1000,1000,1000,,,,,
60851483,1000,1000,1000,1000,,,,,
60853982,1000,1000,1000,1000,,,,,
60856481,1000,1000,1000,1000,,,,,
60858980,1000,1000,1000,1000,,,,,
60861479,1000,1000,1000,1000,,,,,
60863978,1000,1000,1000,1000,,,,,
60866477,1000,1000,1000,1000,,,,,
60868976,1000,1000,1000,1000,,,,,
60871475,1000,1000,1000,1000,,,,,
60873974,1000,1000,1000,1000,,,,,
60876473,1000,1000,1000,1000,,,,,
60878972,1000,1000,1000,1000,,,,,
60881471,1000,1000,1000,1000,,,,,
60883970,1000,1000,1000,1000,,,,,
60886469,1000,1000,1000,1000,,,,,
60888968,1000,1000,1000,1000,,,,,
60891467,1000,1000,1000,1000,,,,,
60893966,1000,1000,1000,1000,,,,,
60896465,1000,1000,1000,1000,,,,,
60898964,1000,1000,1000,1000,,,,,
60901463,1000,1000,1000,1000,,,,,
60903962,1000,1000,1000,1000,,,,,
60906461,1000,1000,1000,1000,,,,,
60908960,1000,1000,1000,1000,,,,,
60911459,1000,1000,1000,1000,,,,,
60913958,1000,1000,1000,1000,,,,,
60916457,1000,1000,1000,1000,,,,,
60918956,1000,1000,1000,1000,,,,,
60921455,1001,1001,1001,1001,,,,,
60923954,1002,1002,1002,1002,,,,,
60926453,1003,1003,1003,1003,,,,,
60928952,1003,1003,1003,1003,,,,,
60931451,1004,1004,1004,1004,,,,,
60933950,1005,1005,1005,1005,,,,,
60936449,1006,1006,1006,1006,,,,,
60938948,1006,1006,1006,1006,,,,,
60941447,1007,1007,1007,1007,,,,,
60943946,1008,1008,1008,1008,,,,,
60946445,1009,1009,1009,1009,,,,,
60948944,1009,1009,1009,1009,,,,,
60951443,1010,1010,1010,1010,,,,,
60953942,1011,1011,1011,1011,,,,,
60956441,1012,1012,1012,1012,,,,,
60958940,1012,1012,1012,1012,,,,,
60961439,1013,1013,1013,1013,,,,,
60963938,1014,1014,1014,1014,,,,,
60966437,1015,1015,1015,1015,,,,,
60968936,1015,1015,1015,1015,,,,,
60971435,1016,1016,1016,1016,,,,,
60973934,1017,1017,1017,1017,,,,,
60976433,1018,1018,1018,1018,,,,,
60978932,1018,1018,1018,1018,,,,,
60981431,1019,1019,1019,1019,,,,,
60983930,1020,1020,1020,1020,,,,,
60986429,1021,1021,1021,1021,,,,,
60988928,1021,1021,1021,1021,,,,,
60991427,1022,1022,1022,1022,,,,,
60993926,1023,1023,1023,1023,,,,,
60996425,1024,1024,1024,1024,,,,,
60998924,1024,1024,1024,1024,,,,,
61001423,1025,1025,1025,1025,,,,,
61003922,1026,1026,1026,1026,,,,,
61006421,1027,1027,1027,1027,,,,,
61008920,1027,1027,1027,1027,,,,,
61011419,1028,1028,1028,1028,,,,,
61013918,1029,1029,1029,1029,,,,,
61016417,1030,1030,1030,1030,,,,,
61018916,1030,1030,1030,1030,,,,,
61021415,1031,1031,1031,1031,,,,,
61023914,1032,1032,1032,1032,,,,,
61026413,1033,1033,1033,1033,,,,,
61028912,1033,1033,1033,1033,,,,,
61031411,1034,1034,1034,1034,,,,,
61033910,1035,1035,1035,1035,,,,,
61036409,1036,1036,1036,1036,,,,,
61038908,1036,1036,1036,1036,,,,,
61041407,1037,1037,1037,1037,,,,,
61043906,1038,1038,1038,1038,,,,,
61046405,1039,1039,1039,1039,,,,,
61048904,1039,1039,1039,1039,,,,,
61051403,1040,1040,1040,1040,,,,,
61053902,1041,1041,1041,1041,,,,,
61056401,1042,1042,1042,1042,,,,,
61058900,1042,1042,1042,1042,,,,,
61061399,1043,1043,1043,1043,,,,,
61063898,1044,1044,1044,1044,,,,,
61066397,1045,1045,1045,1045,,,,,
61068896,1045,1045,1045,1045,,,,,
61071395,1046,1046,1046,1046,,,,,
61073894,1047,1047,1047,1047,,,,,
61076393,1048,1048,1048,1048,,,,,
61078892,1048,1048,1048,1048,,,,,
61081391,1049,1049,1049,1049,,,,,
61083890,1050,1050,1050,1050,,,,,
61086389,1051,1051,1051,1051,,,,,
61088888,1051,1051,1051,1051,,,,,
61091387,1052,1052,1052,1052,,,,,
61093886,1053,1053,1053,1053,,,,,
61096385,1054,1054,1054,1054,,,,,
61098884,1054,1054,1054,1054,,,,,
61101383,1055,1055,1055,1055,,,,,
61103882,1056,1056,1056,1056,,,,,
61106381,1057,1057,1057,1057,,,,,
61108880,1057,1057,1057,1057,,,,,
61111379,1058,1058,1058,1058,,,,,
61113878,1059,1059,1059,1059,,,,,
61116377,1060,1060,1060,1060,,,,,
61118876,1060,1060,1060,1060,,,,,
61121375,1061,1061,1061,1061,,,,,
61123874,1062,1062,1062,1062,,,,,
61126373,1063,1063,1063,1063,,,,,
61128872,1063,1063,1063,1063,,,,,
61131371,1064,1064,1064,1064,,,,,
61133870,1065,1065,1065,1065,,,,,
61136369,1066,1066,1066,1066,,,,,
61138868,1066,1066,1066,1066,,,,,
61141367,1067,1067,1067,1067,,,,,
61143866,1068,1068,1068,1068,,,,,
61146365,1069,1069,1069,1069,,,,,
61148864,1069,1069,1069,1069,,,,,
61151363,1070,1070,1070,1070,,,,,
61153862,1071,1071,1071,1071,,,,,
61156361,1072,1072,1072,1072,,,,,
61158860,1072,1072,1072,1072,,,,,
61161359,1073,1073,1073,1073,,,,,
61163858,1074,1074,1074,1074,,,,,
61166357,1075,1075,1075,1075,,,,,
61168856,1075,1075,1075,1075,,,,,
61171355,1076,1076,1076,1076,,,,,
61173854,1077,1077,1077,1077,,,,,
61176353,1078,1078,1078,1078,,,,,
61178852,1078,1078,1078,1078,,,,,
61181351,1079,1079,1079,1079,,,,,
61183850,1080,1080,1080,1080,,,,,
61186349,1081,1081,1081,1081,,,,,
61188848,1081,1081,1081,1081,,,,,
61191347,1082,1082,1082,1082,,,,,
61193846,1083,1083,1083,1083,,,,,
61196345,1084,1084,1084,1084,,,,,
61198844,1084,1084,1084,1084,,,,,
61201343,1085,1085,1085,1085,,,,,
61203842,1086,1086,1086,1086,,,,,
61206341,1087,1087,1087,1087,,,,,
61208840,1087,1087,1087,1087,,,,,
61211339,1088,1088,1088,1088,,,,,
61213838,1089,1089,1089,1089,,,,,
61216337,1090,1090,1090,1090,,,,,
61218836,1090,1090,1090,1090,,,,,
61221335,1091,1091,1091,1091,,,,,
61223834,1092,1092,1092,1092,,,,,
61226333,1093,1093,1093,1093,,,,,
61228832,1093,1093,1093,1093,,,,,
61231331,1094,1094,1094,1094,,,,,
61233830,1095,1095,1095,1095,,,,,
61236329,1096,1096,1096,1096,,,,,
61238828,1096,1096,1096,1096,,,,,
61241327,1097,1097,1097,1097,,,,,
61243826,1098,1098,1098,1098,,,,,
61246325,1099,1099,1099,1099,,,,,
61248824,1099,1099,1099,1099,,,,,
61251323,1100,1100,1100,1100,,,,,
61253822,1101,1101,1101,1101,,,,,
61256321,1101,1101,1101,1101,,,,,
61258820,1102,1102,1102,1102,,,,,
61261319,1103,1103,1103,1103,,,,,
61263818,1104,1104,1104,1104,,,,,
61266317,1104,1104,1104,1104,,,,,
61268816,1105,1105,1105,1105,,,,,
61271315,1106,1106,1106,1106,,,,,
61273814,1107,1107,1107,1107,,,,,
61276313,1107,1107,1107,1107,,,,,
61278812,1108,1108,1108,1108,,,,,
61281311,1109,1109,1109,1109,,,,,
61283810,1110,1110,1110,1110,,,,,
61286309,1110,1110,1110,1110,,,,,
61288808,1111,1111,1111,1111,,,,,
61291307,1112,1112,1112,1112,,,,,
61293806,1113,1113,1113,1113,,,,,
61296305,1113,1113,1113,1113,,,,,
61298804,1114,1114,1114,1114,,,,,
61301303,1115,1115,1115,1115,,,,,
61303802,1116,1116,1116,1116,,,,,
61306301,1116,1116,1116,1116,,,,,
61308800,1117,1117,1117,1117,,,,,
61311299,1118,1118,1118,1118,,,,,
61313798,1119,1119,1119,1119,,,,,
61316297,1119,1119,1119,1119,,,,,
61318796,1120,1120,1120,1120,,,,,
61321295,1121,1121,1121,1121,,,,,
61323794,1122,1122,1122,1122,,,,,
61326293,1122,1122,1122,1122,,,,,
61328792,1123,1123,1123,1123,,,,,
61331291,1124,1124,1124,1124,,,,,
61333790,1125,1125,1125,1125,,,,,
61336289,1125,1125,1125,1125,,,,,
61338788,1126,1126,1126,1126,,,,,
61341287,1127,1127,1127,1127,,,,,
61343786,1128,1128,1128,1128,,,,,
61346285,1128,1128,1128,1128,,,,,
61348784,1129,1129,1129,1129,,,,,
61351283,1130,1130,1130,1130,,,,,
61353782,1131,1131,1131,1131,,,,,
61356281,1131,1131,1131,1131,,,,,
61358780,1132,1132,1132,1132,,,,,
61361279,1133,1133,1133,1133,,,,,
61363778,1134,1134,1134,1134,,,,,
61366277,1134,1134,1134,1134,,,,,
61368776,1135,1135,1135,1135,,,,,
61371275,1136,1136,1136,1136,,,,,
61373774,1137,1137,1137,1137,,,,,
61376273,1137,1137,1137,1137,,,,,
61378772,1138,1138,1138,1138,,,,,
61381271,1139,1139,1139,1139,,,,,
61383770,1140,1140,1140,1140,,,,,
61386269,1140,1140,1140,1140,,,,,
61388768,1141,1141,1141,1141,,,,,
61391267,1142,1142,1142,1142,,,,,
61393766,1143,1143,1143,1143,,,,,
61396265,1143,1143,1143,1143,,,,,
61398764,1144,1144,1144,1144,,,,,
61401263,1145,1145,1145,1145,,,,,
61403762,1146,1146,1146,1146,,,,,
61406261,1146,1146,1146,1146,,,,,
61408760,1147,1147,1147,1147,,,,,
61411259,1148,1148,1148,1148,,,,,
61413758,1149,1149,1149,1149,,,,,
61416257,1149,1149,1149,1149,,,,,
61418756,1150,1150,1150,1150,,,,,
61421255,1162,1153,1153,1163,,,,,
61423754,1170,1161,1162,1171,,,,,
61426253,1178,1169,1170,1178,,,,,
61428752,1185,1177,1177,1186,,,,,
61431251,1193,1184,1185,1194,,,,,
61433750,1200,1192,1193,1201,,,,,
61436249,1208,1199,1200,1208,,,,,
61438748,1215,1207,1207,1216,,,,,
61441247,1222,1214,1214,1223,,,,,
61443746,1229,1221,1222,1230,,,,,
61446245,1236,1228,1229,1236,,,,,
61448744,1243,1235,1235,1243,,,,,
61451243,1249,1242,1242,1250,,,,,
61453742,1256,1248,1249,1257,,,,,
61456241,1263,1255,1255,1263,,,,,
61458740,1269,1261,1262,1269,,,,,
61461239,1275,1268,1268,1276,,,,,
61463738,1282,1274,1275,1282,,,,,
61466237,1288,1280,1281,1288,,,,,
61468736,1294,1287,1287,1295,,,,,
61471235,1300,1293,1293,1301,,,,,
61473734,1306,1299,1299,1307,,,,,
61476233,1312,1305,1305,1313,,,,,
61478732,1318,1311,1311,1318,,,,,
61481231,1324,1317,1317,1324,,,,,
61483730,1329,1322,1323,1330,,,,,
61486229,1335,1328,1329,1336,,,,,
61488728,1341,1334,1334,1341,,,,,
61491227,1346,1340,1340,1347,,,,,
61493726,1352,1345,1346,1353,,,,,
61496225,1358,1351,1351,1358,,,,,
61498724,1363,1356,1357,1363,,,,,
61501223,1368,1362,1362,1369,,,,,
61503722,1374,1367,1367,1374,,,,,
61506221,1379,1372,1373,1380,,,,,
61508720,1384,1378,1378,1385,,,,,
61511219,1390,1383,1383,1390,,,,,
61513718,1395,1388,1388,1395,,,,,
61516217,1400,1393,1394,1400,,,,,
61518716,1405,1398,1399,1405,,,,,
61521215,1410,1403,1404,1411,,,,,
61523714,1415,1408,1409,1416,,,,,
61526213,1420,1413,1414,1421,,,,,
61528712,1425,1418,1419,1425,,,,,
61531211,1430,1423,1424,1430,,,,,
61533710,1435,1428,1429,1435,,,,,
61536209,1440,1433,1433,1440,,,,,
61538708,1444,1438,1438,1445,,,,,
61541207,1449,1443,1443,1450,,,,,
61543706,1454,1447,1448,1454,,,,,
61546205,1459,1452,1453,1459,,,,,
61548704,1463,1457,1457,1464,,,,,
61551203,1468,1462,1462,1468,,,,,
61553702,1472,1466,1467,1473,,,,,
61556201,1477,1471,1471,1478,,,,,
61558700,1482,1475,1476,1482,,,,,
61561199,1486,1480,1480,1487,,,,,
61563698,1491,1485,1485,1491,,,,,
61566197,1495,1489,1489,1495,,,,,
61568696,1499,1494,1494,1500,,,,,
61571195,1504,1498,1498,1504,,,,,
61573694,1508,1502,1503,1509,,,,,
61576193,1513,1507,1507,1513,,,,,
61578692,1517,1511,1512,1517,,,,,
61581191,1521,1515,1516,1522,,,,,
61583690,1526,1520,1520,1526,,,,,
61586189,1530,1524,1525,1530,,,,,
61588688,1534,1528,1529,1534,,,,,
61591187,1538,1533,1533,1539,,,,,
61593686,1543,1537,1537,1543,,,,,
61596185,1547,1541,1542,1547,,,,,
61598684,1551,1545,1546,1551,,,,,
61601183,1555,1549,1550,1555,,,,,
61603682,1559,1554,1554,1559,,,,,
61606181,1563,1558,1558,1563,,,,,
61608680,1567,1562,1562,1568,,,,,
61611179,1571,1566,1566,1572,,,,,
61613678,1575,1570,1570,1576,,,,,
61616177,1579,1574,1574,1580,,,,,
61618676,1583,1578,1578,1584,,,,,
61621175,1587,1582,1582,1588,,,,,
61623674,1591,1586,1586,1592,,,,,
61626173,1595,1590,1590,1595,,,,,
61628672,1599,1594,1594,1599,,,,,
61631171,1603,1598,1598,1603,,,,,
61633670,1607,1602,1602,1607,,,,,
61636169,1611,1606,1606,1611,,,,,
61638668,1615,1609,1610,1615,,,,,
61641167,1618,1613,1614,1619,,,,,
61643666,1622,1617,1618,1622,,,,,
61646165,1626,1621,1621,1626,,,,,
61648664,1630,1625,1625,1630,,,,,
61651163,1633,1629,1629,1634,,,,,
61653662,1637,1632,1633,1638,,,,,
61656161,1641,1636,1637,1641,,,,,
61658660,1645,1640,1640,1645,,,,,
61661159,1648,1644,1644,1649,,,,,
61663658,1652,1647,1648,1652,,,,,
61666157,1656,1651,1651,1656,,,,,
61668656,1659,1655,1655,1660,,,,,
61671155,1663,1658,1659,1663,,,,,
61673654,1667,1662,1662,1667,,,,,
61676153,1670,1666,1666,1671,,,,,
61678652,1674,1669,1670,1674,,,,,
61681151,1678,1673,1673,1678,,,,,
61683650,1681,1676,1677,1681,,,,,
61686149,1685,1680,1680,1685,,,,,
61688648,1688,1683,1684,1688,,,,,
61691147,1692,1687,1687,1692,,,,,
61693646,1695,1690,1691,1696,,,,,
61696145,1699,1694,1694,1699,,,,,
61698644,1702,1697,1698,1703,,,,,
61701143,1706,1701,1701,1706,,,,,
61703642,1709,1704,1705,1710,,,,,
61706141,1713,1708,1708,1713,,,,,
61708640,1716,1711,1712,1717,,,,,
61711139,1720,1715,1715,1720,,,,,
61713638,1723,1718,1718,1723,,,,,
61716137,1727,1722,1722,1727,,,,,
61718636,1730,1725,1725,1730,,,,,
61721135,1733,1728,1729,1734,,,,,
61723634,1737,1732,1732,1737,,,,,
61726133,1740,1735,1735,1740,,,,,
61728632,1743,1738,1739,1744,,,,,
61731131,1747,1742,1742,1747,,,,,
61733630,1750,1745,1745,1750,,,,,
61736129,1754,1748,1749,1754,,,,,
61738628,1757,1752,1752,1757,,,,,
61741127,1760,1755,1755,1760,,,,,
61743626,1763,1758,1758,1764,,,,,
61746125,1767,1761,1762,1767,,,,,
61748624,1770,1765,1765,1770,,,,,
61751123,1773,1768,1768,1774,,,,,
61753622,1776,1771,1772,1777,,,,,
61756121,1780,1774,1775,1780,,,,,
61758620,1783,1778,1778,1783,,,,,
61761119,1786,1781,1781,1786,,,,,
61763618,1789,1784,1784,1790,,,,,
61766117,1792,1787,1788,1793,,,,,
61768616,1796,1791,1791,1796,,,,,
61771115,1799,1794,1794,1799,,,,,
61773614,1802,1797,1797,1802,,,,,
61776113,1805,1800,1800,1805,,,,,
61778612,1808,1803,1803,1809,,,,,
61781111,1811,1806,1807,1812,,,,,
61783610,1814,1810,1810,1815,,,,,
61786109,1818,1813,1813,1818,,,,,
61788608,1821,1816,1816,1821,,,,,
61791107,1824,1819,1819,1824,,,,,
61793606,1827,1822,1822,1827,,,,,
61796105,1830,1825,1825,1830,,,,,
61798604,1833,1828,1828,1834,,,,,
61801103,1836,1831,1831,1837,,,,,
61803602,1839,1834,1834,1840,,,,,
61806101,1842,1837,1837,1843,,,,,
61808600,1845,1840,1840,1846,,,,,
61811099,1848,1843,1843,1849,,,,,
61813598,1851,1847,1846,1852,,,,,
61816097,1854,1850,1849,1855,,,,,
61818596,1857,1853,1852,1858,,,,,
61821095,1860,1856,1855,1861,,,,,
61823594,1863,1859,1858,1864,,,,,
61826093,1866,1862,1861,1867,,,,,
61828592,1869,1865,1864,1870,,,,,
61831091,1872,1867,1867,1873,,,,,
61833590,1875,1870,1870,1876,,,,,
61836089,1878,1873,1873,1879,,,,,
61838588,1881,1876,1876,1882,,,,,
61841087,1884,1879,1879,1885,,,,,
61843586,1887,1882,1882,1888,,,,,
61846085,1890,1885,1885,1890,,,,,
61848584,1893,1888,1888,1893,,,,,
61851083,1896,1891,1891,1896,,,,,
61853582,1899,1894,1894,1899,,,,,
61856081,1902,1897,1897,1902,,,,,
61858580,1904,1899,1899,1905,,,,,
61861079,1907,1902,1902,1908,,,,,
61863578,1910,1905,1905,1911,,,,,
61866077,1913,1908,1908,1914,,,,,
61868576,1916,1911,1911,1916,,,,,
61871075,1919,1914,1914,1919,,,,,
61873574,1922,1917,1917,1922,,,,,
61876073,1924,1919,1919,1925,,,,,
61878572,1927,1922,1922,1928,,,,,
61881071,1930,1925,1925,1931,,,,,
61883570,1931,1926,1926,1931,,,,,
61886069,1930,1925,1925,1931,,,,,
61888568,1929,1924,1924,1930,,,,,
61891067,1929,1923,1923,1929,,,,,
61893566,1928,1923,1923,1929,,,,,
61896065,1927,1922,1922,1928,,,,,
61898564,1927,1922,1922,1927,,,,,
61901063,1926,1921,1921,1927,,,,,
61903562,1926,1921,1921,1927,,,,,
61906061,1926,1920,1920,1926,,,,,
61908560,1925,1920,1920,1926,,,,,
61911059,1925,1920,1920,1925,,,,,
61913558,1924,1920,1920,1925,,,,,
61916057,1924,1919,1919,1924,,,,,
61918556,1923,1919,1919,1924,,,,,
61921055,1923,1919,1919,1923,,,,,
61923554,1922,1918,1918,1923,,,,,
61926053,1921,1917,1917,1922,,,,,
61928552,1920,1917,1917,1921,,,,,
61931051,1919,1916,1916,1920,,,,,
61933550,1918,1915,1915,1919,,,,,
61936049,1917,1914,1914,1918,,,,,
61938548,1916,1912,1913,1916,,,,,
61941047,1914,1911,1911,1915,,,,,
61943546,1913,1910,1910,1913,,,,,
61946045,1911,1908,1908,1912,,,,,
61948544,1909,1906,1906,1910,,,,,
61951043,1907,1904,1904,1908,,,,,
61953542,1905,1902,1902,1906,,,,,
61956041,1903,1900,1900,1903,,,,,
61958540,1901,1898,1898,1901,,,,,
61961039,1898,1895,1895,1898,,,,,
61963538,1896,1893,1893,1896,,,,,
61966037,1893,1890,1890,1893,,,,,
61968536,1890,1887,1887,1890,,,,,
61971035,1887,1884,1885,1887,,,,,
61973534,1884,1881,1882,1885,,,,,
61976033,1881,1879,1879,1882,,,,,
61978532,1878,1876,1876,1879,,,,,
61981031,1875,1873,1873,1875,,,,,
61983530,1872,1870,1870,1872,,,,,
61986029,1869,1866,1867,1869,,,,,
61988528,1866,1863,1864,1866,,,,,
61991027,1862,1860,1860,1863,,,,,
61993526,1859,1857,1857,1860,,,,,
61996025,1856,1854,1854,1856,,,,,
61998524,1853,1850,1851,1853,,,,,
62001023,1849,1847,1848,1850,,,,,
62003522,1846,1844,1844,1846,,,,,
62006021,1843,1841,1841,1843,,,,,
62008520,1839,1837,1838,1839,,,,,
62011019,1836,1834,1834,1836,,,,,
62013518,1832,1830,1831,1832,,,,,
62016017,1829,1827,1827,1829,,,,,
62018516,1825,1823,1824,1825,,,,,
62021015,1822,1820,1820,1822,,,,,
62023514,1818,1816,1817,1818,,,,,
62026013,1815,1813,1813,1815,,,,,
62028512,1811,1810,1810,1811,,,,,
62031011,1807,1806,1806,1808,,,,,
62033510,1804,1803,1803,1804,,,,,
62036009,1800,1799,1800,1801,,,,,
62038508,1797,1796,1796,1797,,,,,
62041007,1794,1792,1793,1794,,,,,
62043506,1790,1789,1789,1790,,,,,
62046005,1787,1786,1786,1787,,,,,
62048504,1783,1782,1783,1784,,,,,
62051003,1780,1779,1779,1780,,,,,
62053502,1777,1776,1776,1777,,,,,
62056001,1773,1773,1773,1774,,,,,
62058500,1770,1769,1770,1770,,,,,
62060999,1767,1766,1766,1767,,,,,
62063498,1764,1763,1763,1764,,,,,
62065997,1761,1760,1760,1761,,,,,
62068496,1757,1757,1757,1758,,,,,
62070995,1754,1754,1754,1755,,,,,
62073494,1751,1751,1751,1751,,,,,
62075993,1748,1748,1748,1748,,,,,
62078492,1745,1745,1745,1745,,,,,
62080991,1742,1742,1742,1742,,,,,
62083490,1740,1739,1739,1740,,,,,
62085989,1737,1736,1736,1738,,,,,
62088488,1735,1733,1732,1735,,,,,
62090987,1732,1730,1730,1733,,,,,
62093486,1729,1727,1727,1730,,,,,
62095985,1726,1724,1724,1727,,,,,
62098484,1723,1721,1721,1724,,,,,
62100983,1721,1719,1719,1721,,,,,
62103482,1718,1716,1716,1719,,,,,
62105981,1715,1714,1713,1716,,,,,
62108480,1712,1711,1711,1713,,,,,
62110979,1710,1709,1708,1711,,,,,
62113478,1707,1706,1706,1708,,,,,
62115977,1705,1704,1703,1706,,,,,
62118476,1702,1702,1701,1703,,,,,
62120975,1700,1699,1699,1701,,,,,
62123474,1697,1697,1696,1699,,,,,
62125973,1695,1695,1694,1697,,,,,
62128472,1693,1693,1692,1694,,,,,
62130971,1690,1691,1689,1692,,,,,
62133470,1688,1689,1687,1690,,,,,
62135969,1686,1687,1685,1688,,,,,
62138468,1684,1685,1683,1686,,,,,
62140967,1682,1683,1681,1685,,,,,
62143466,1680,1681,1678,1683,,,,,
62145965,1678,1679,1676,1681,,,,,
62148464,1676,1677,1674,1679,,,,,
62150963,1674,1675,1672,1677,,,,,
62153462,1672,1673,1670,1675,,,,,
62155961,1670,1671,1668,1674,,,,,
62158460,1668,1670,1667,1672,,,,,
62160959,1667,1668,1665,1670,,,,,
62163458,1665,1666,1663,1669,,,,,
62165957,1663,1665,1661,1667,,,,,
62168456,1662,1663,1660,1666,,,,,
62170955,1660,1662,1658,1664,,,,,
62173454,1659,1660,1657,1663,,,,,
62175953,1657,1659,1655,1662,,,,,
62178452,1656,1658,1654,1661,,,,,
