TimeUS,M1,M2,M3,M4,TimeUS,C1,C2,C3,C4
57481165,1000,1000,1000,1000,57528646,1000,1000,1000,1000
57483664,1000,1000,1000,1000,57628606,1000,1000,1000,1000
57486163,1000,1000,1000,1000,57728566,1000,1000,1000,1000
57488662,1000,1000,1000,1000,57828526,1000,1000,1000,1000
57491161,1000,1000,1000,1000,57928486,1000,1000,1000,1000
57493660,1000,1000,1000,1000,58028446,1000,1000,1000,1000
57496159,1000,1000,1000,1000,58128406,1000,1000,1000,1000
57498658,1000,1000,1000,1000,58228366,1000,1000,1000,1000
57501157,1000,1000,1000,1000,58328326,1000,1000,1000,1000
57503656,1000,1000,1000,1000,58428286,1000,1000,1000,1000
57506155,1000,1000,1000,1000,58528246,1000,1000,1000,1000
57508654,1000,1000,1000,1000,58628206,1000,1000,1000,1000
57511153,1000,1000,1000,1000,58728166,1000,1000,1000,1000
57513652,1000,1000,1000,1000,58828959,1000,1000,1000,1000
57516151,1000,1000,1000,1000,58928919,1000,1000,1000,1000
57518650,1000,1000,1000,1000,59028879,1000,1000,1000,1000
57521149,1000,1000,1000,1000,59128839,1000,1000,1000,1000
57523648,1000,1000,1000,1000,59228799,1000,1000,1000,1000
57526147,1000,1000,1000,1000,59328759,1000,1000,1000,1000
57528646,1000,1000,1000,1000,59428719,1000,1000,1000,1000
57531145,1000,1000,1000,1000,59528679,1014,1014,1014,1014
57533644,1000,1000,1000,1000,59628639,1044,1044,1044,1044
57536143,1000,1000,1000,1000,59728599,1074,1074,1074,1074
57538642,1000,1000,1000,1000,59828559,1104,1104,1104,1104
57541141,1000,1000,1000,1000,59928519,1134,1134,1134,1134
57543640,1000,1000,1000,1000,60028479,1282,1274,1275,1282
57546139,1000,1000,1000,1000,60128439,1490,1485,1485,1491
57548638,1000,1000,1000,1000,60228399,1652,1647,1648,1652
57551137,1000,1000,1000,1000,60328359,1789,1784,1785,1789
57553636,1000,1000,1000,1000,60428319,1878,1873,1874,1878
57556135,1000,1000,1000,1000,60528279,1867,1864,1864,1867
57558634,1000,1000,1000,1000,60628239,1743,1743,1743,1744
57561133,1000,1000,1000,1000,60728199,1646,1647,1648,1646
57563632,1000,1000,1000,1000,60828159,1618,1621,1621,1618
57566131,1000,1000,1000,1000,60928952,1627,1629,1629,1627
57568630,1000,1000,1000,1000,61028912,1638,1639,1639,1638
57571129,1000,1000,1000,1000,61128872,1638,1638,1638,1638
57573628,1000,1000,1000,1000,61228832,1632,1631,1631,1632
57576127,1000,1000,1000,1000,61328792,1626,1625,1624,1626
57578626,1000,1000,1000,1000,61428752,1615,1616,1616,1614
57581125,1000,1000,1000,1000,61528712,1595,1594,1586,1603
57583624,1000,1000,1000,1000,61628672,1589,1589,1581,1597
57586123,1000,1000,1000,1000,61728632,1587,1586,1582,1590
57588622,1000,1000,1000,1000,61828592,1587,1587,1588,1587
57591121,1000,1000,1000,1000,61928552,1591,1591,1593,1588
57593620,1000,1000,1000,1000,62028512,1584,1584,1592,1577
57596119,1000,1000,1000,1000,62128472,1567,1567,1586,1548
57598618,1000,1000,1000,1000,62228432,1558,1558,1568,1548
57601117,1000,1000,1000,1000,62328392,1548,1548,1547,1551
57603616,1000,1000,1000,1000,62428352,1540,1540,1531,1550
57606115,1000,1000,1000,1000,62528312,1533,1533,1522,1545
57608614,1000,1000,1000,1000,62628272,1529,1529,1520,1537
57611113,1000,1000,1000,1000,62728232,1529,1528,1524,1533
57613612,1000,1000,1000,1000,62828192,1529,1529,1528,1529
57616111,1000,1000,1000,1000,62928985,1533,1533,1535,1530
57618610,1000,1000,1000,1000,63028945,1537,1537,1541,1532
57621109,1000,1000,1000,1000,63128905,1541,1540,1545,1536
57623608,1000,1000,1000,1000,63228865,1544,1544,1546,1541
57626107,1000,1000,1000,1000,63328825,1547,1547,1548,1546
57628606,1000,1000,1000,1000,63428785,1549,1550,1549,1550
57631105,1000,1000,1000,1000,63528745,1553,1551,1550,1555
57633604,1000,1000,1000,1000,63628705,1550,1549,1557,1562
57636103,1000,1000,1000,1000,63728665,1552,1552,1560,1563
57638602,1000,1000,1000,1000,63828625,1556,1556,1563,1563
57641101,1000,1000,1000,1000,63928585,1559,1560,1563,1564
57643600,1000,1000,1000,1000,64028545,1563,1564,1565,1563
57646099,1000,1000,1000,1000,64128505,1566,1566,1565,1563
57648598,1000,1000,1000,1000,64228465,1569,1569,1565,1564
57651097,1000,1000,1000,1000,64328425,1571,1570,1565,1564
57653596,1000,1000,1000,1000,64428385,1572,1572,1565,1566
57656095,1000,1000,1000,1000,64528345,1572,1572,1566,1567
57658594,1000,1000,1000,1000,64628305,1573,1573,1568,1568
57661093,1000,1000,1000,1000,64728265,1573,1573,1568,1569
57663592,1000,1000,1000,1000,64828225,1573,1573,1570,1571
57666091,1000,1000,1000,1000,64928185,1573,1573,1572,1572
57668590,1000,1000,1000,1000,65028978,1574,1574,1575,1573
57671089,1000,1000,1000,1000,65128938,1574,1574,1576,1574
57673588,1000,1000,1000,1000,65228898,1574,1574,1576,1575
57676087,1000,1000,1000,1000,65328858,1574,1574,1576,1576
57678586,1000,1000,1000,1000,65428818,1575,1575,1577,1577
57681085,1000,1000,1000,1000,65528778,1575,1575,1577,1577
57683584,1000,1000,1000,1000,65628738,1575,1575,1577,1577
57686083,1000,1000,1000,1000,65728698,1576,1576,1577,1577
57688582,1000,1000,1000,1000,65828658,1576,1576,1576,1577
57691081,1000,1000,1000,1000,65928618,1576,1576,1576,1576
57693580,1000,1000,1000,1000,66028578,1577,1577,1576,1577
57696079,1000,1000,1000,1000,66128538,1577,1577,1577,1577
57698578,1000,1000,1000,1000,66228498,1577,1578,1577,1576
57701077,1000,1000,1000,1000,66328458,1578,1578,1577,1577
57703576,1000,1000,1000,1000,66428418,1578,1578,1577,1577
57706075,1000,1000,1000,1000,66528378,1579,1578,1578,1578
57708574,1000,1000,1000,1000,66628338,1579,1579,1578,1578
57711073,1000,1000,1000,1000,66728298,1579,1579,1578,1579
57713572,1000,1000,1000,1000,66828258,1579,1579,1579,1579
57716071,1000,1000,1000,1000,66928218,1579,1579,1579,1579
57718570,1000,1000,1000,1000,67028178,1578,1579,1579,1579
57721069,1000,1000,1000,1000,67128971,1577,1577,1578,1578
57723568,1000,1000,1000,1000,67228931,1578,1579,1579,1579
57726067,1000,1000,1000,1000,67328891,1579,1579,1579,1580
57728566,1000,1000,1000,1000,67428851,1579,1579,1580,1580
57731065,1000,1000,1000,1000,67528811,1579,1579,1580,1580
57733564,1000,1000,1000,1000,67628771,1579,1580,1580,1580
57736063,1000,1000,1000,1000,67728731,1579,1579,1579,1579
57738562,1000,1000,1000,1000,67828691,1580,1580,1580,1580
57741061,1000,1000,1000,1000,67928651,1580,1580,1579,1580
57743560,1000,1000,1000,1000,68028611,1579,1579,1578,1579
57746059,1000,1000,1000,1000,68128571,1580,1579,1579,1579
57748558,1000,1000,1000,1000,68228531,1579,1579,1579,1579
57751057,1000,1000,1000,1000,68328491,1580,1581,1580,1580
57753556,1000,1000,1000,1000,68428451,1580,1581,1581,1580
57756055,1000,1000,1000,1000,68528411,1580,1581,1580,1581
57758554,1000,1000,1000,1000,68628371,1581,1580,1581,1581
57761053,1000,1000,1000,1000,68728331,1581,1581,1581,1581
57763552,1000,1000,1000,1000,68828291,1581,1581,1581,1581
57766051,1000,1000,1000,1000,68928251,1581,1581,1581,1581
57768550,1000,1000,1000,1000,69028211,1581,1581,1581,1581
57771049,1000,1000,1000,1000,69128171,1581,1581,1581,1581
57773548,1000,1000,1000,1000,69228964,1581,1581,1581,1581
57776047,1000,1000,1000,1000,69328924,1582,1581,1581,1582
57778546,1000,1000,1000,1000,69428884,1581,1580,1581,1581
57781045,1000,1000,1000,1000,69528844,1582,1581,1582,1582
57783544,1000,1000,1000,1000,69628804,1581,1581,1581,1581
57786043,1000,1000,1000,1000,69728764,1581,1581,1581,1581
57788542,1000,1000,1000,1000,69828724,1581,1582,1585,1578
57791041,1000,1000,1000,1000,69928684,1582,1583,1589,1574
57793540,1000,1000,1000,1000,70028644,1579,1582,1581,1573
57796039,1000,1000,1000,1000,70128604,1578,1581,1573,1573
57798538,1000,1000,1000,1000,70228564,1576,1579,1564,1570
57801037,1000,1000,1000,1000,70328524,1577,1578,1559,1566
57803536,1000,1000,1000,1000,70428484,1577,1577,1555,1560
57806035,1000,1000,1000,1000,70528444,1579,1578,1555,1557
57808534,1000,1000,1000,1000,70628404,1579,1577,1555,1554
57811033,1000,1000,1000,1000,70728364,1578,1577,1555,1553
57813532,1000,1000,1000,1000,70828324,1578,1578,1557,1554
57816031,1000,1000,1000,1000,70928284,1576,1577,1556,1554
57818530,1000,1000,1000,1000,71028244,1575,1577,1555,1553
57821029,1000,1000,1000,1000,71128204,1574,1576,1553,1554
57823528,1000,1000,1000,1000,71228164,1574,1576,1552,1552
57826027,1000,1000,1000,1000,71328957,1575,1576,1550,1551
57828526,1000,1000,1000,1000,71428917,1577,1578,1549,1549
57831025,1000,1000,1000,1000,71528877,1581,1581,1548,1548
57833524,1000,1000,1000,1000,71628837,1582,1583,1545,1544
57836023,1000,1000,1000,1000,71728797,1585,1586,1542,1542
57838522,1000,1000,1000,1000,71828757,1587,1589,1539,1538
57841021,1000,1000,1000,1000,71928717,1591,1591,1536,1536
57843520,1000,1000,1000,1000,72028677,1593,1593,1535,1535
57846019,1000,1000,1000,1000,72128637,1595,1594,1535,1536
57848518,1000,1000,1000,1000,72228597,1594,1594,1535,1537
57851017,1000,1000,1000,1000,72328557,1593,1593,1538,1540
57853516,1000,1000,1000,1000,72428517,1590,1590,1541,1544
57856015,1000,1000,1000,1000,72528477,1586,1584,1548,1551
57858514,1000,1000,1000,1000,72628437,1579,1576,1556,1559
57861013,1000,1000,1000,1000,72728397,1571,1567,1567,1570
57863512,1000,1000,1000,1000,72828357,1560,1556,1579,1581
57866011,1000,1000,1000,1000,72928317,1549,1545,1591,1592
57868510,1000,1000,1000,1000,73028277,1539,1538,1602,1602
57871009,1000,1000,1000,1000,73128237,1532,1533,1609,1609
57873508,1000,1000,1000,1000,73228197,1528,1530,1613,1612
57876007,1000,1000,1000,1000,73328157,1530,1532,1614,1613
57878506,1000,1000,1000,1000,73428950,1533,1536,1611,1611
57881005,1000,1000,1000,1000,73528910,1541,1543,1607,1607
57883504,1000,1000,1000,1000,73628870,1548,1550,1600,1600
57886003,1000,1000,1000,1000,73728830,1557,1557,1593,1592
57888502,1000,1000,1000,1000,73828790,1567,1567,1586,1586
57891001,1000,1000,1000,1000,73928750,1574,1574,1579,1579
57893500,1000,1000,1000,1000,74028710,1579,1579,1573,1572
57895999,1000,1000,1000,1000,74128670,1584,1583,1569,1569
57898498,1000,1000,1000,1000,74228630,1587,1585,1567,1567
57900997,1000,1000,1000,1000,74328590,1587,1586,1566,1566
57903496,1000,1000,1000,1000,74428550,1586,1585,1566,1567
57905995,1000,1000,1000,1000,74528510,1584,1584,1569,1569
57908494,1000,1000,1000,1000,74628470,1582,1582,1572,1572
57910993,1000,1000,1000,1000,74728430,1579,1579,1574,1575
57913492,1000,1000,1000,1000,74828390,1577,1577,1577,1577
57915991,1000,1000,1000,1000,74928350,1575,1575,1581,1580
57918490,1000,1000,1000,1000,75028310,1573,1573,1582,1581
57920989,1000,1000,1000,1000,75128270,1572,1572,1583,1583
57923488,1000,1000,1000,1000,75228230,1571,1572,1583,1583
57925987,1000,1000,1000,1000,75328190,1570,1524,1579,1535
57928486,1000,1000,1000,1000,75428983,1584,1565,1592,1575
57930985,1000,1000,1000,1000,75528943,1602,1574,1609,1581
57933484,1000,1000,1000,1000,75628903,1611,1586,1617,1590
57935983,1000,1000,1000,1000,75728863,1610,1594,1613,1596
57938482,1000,1000,1000,1000,75828823,1601,1597,1602,1598
57940981,1000,1000,1000,1000,75928783,1590,1597,1590,1597
57943480,1000,1000,1000,1000,76028743,1581,1594,1582,1595
57945979,1000,1000,1000,1000,76128703,1577,1588,1578,1590
57948478,1000,1000,1000,1000,76228663,1576,1584,1578,1586
57950977,1000,1000,1000,1000,76328623,1577,1580,1578,1582
57953476,1000,1000,1000,1000,76428583,1580,1578,1580,1579
57955975,1000,1000,1000,1000,76528543,1582,1579,1580,1577
57958474,1000,1000,1000,1000,76628503,1583,1580,1580,1577
57960973,1000,1000,1000,1000,76728463,1583,1581,1579,1577
57963472,1000,1000,1000,1000,76828423,1581,1581,1577,1576
57965971,1000,1000,1000,1000,76928383,1580,1581,1576,1577
57968470,1000,1000,1000,1000,77028343,1579,1581,1575,1576
57970969,1000,1000,1000,1000,77128303,1578,1579,1575,1575
57973468,1000,1000,1000,1000,77228263,1578,1579,1575,1576
57975967,1000,1000,1000,1000,77328223,1577,1578,1575,1576
57978466,1000,1000,1000,1000,77428183,1578,1578,1576,1576
57980965,1000,1000,1000,1000,77528976,1578,1578,1576,1577
57983464,1000,1000,1000,1000,77628936,1578,1578,1577,1577
57985963,1000,1000,1000,1000,77728896,1578,1578,1578,1578
57988462,1000,1000,1000,1000,77828856,1578,1578,1580,1576
57990961,1000,1000,1000,1000,77928816,1578,1579,1585,1569
57993460,1000,1000,1000,1000,78028776,1577,1580,1580,1570
57995959,1000,1000,1000,1000,78128736,1576,1578,1571,1570
57998458,1000,1000,1000,1000,78228696,1574,1577,1563,1568
58000957,1000,1000,1000,1000,78328656,1574,1576,1556,1564
58003456,1000,1000,1000,1000,78428616,1576,1576,1553,1560
58005955,1000,1000,1000,1000,78528576,1577,1576,1552,1556
58008454,1000,1000,1000,1000,78628536,1578,1577,1553,1552
58010953,1000,1000,1000,1000,78728496,1578,1578,1553,1551
58013452,1000,1000,1000,1000,78828456,1578,1578,1553,1551
58015951,1000,1000,1000,1000,78928416,1577,1577,1553,1551
58018450,1000,1000,1000,1000,79028376,1577,1578,1553,1551
58020949,1000,1000,1000,1000,79128336,1576,1577,1551,1551
58023448,1000,1000,1000,1000,79228296,1577,1578,1551,1551
58025947,1000,1000,1000,1000,79328256,1576,1577,1549,1549
58028446,1000,1000,1000,1000,79428216,1577,1579,1548,1548
58030945,1000,1000,1000,1000,79528176,1579,1580,1547,1547
58033444,1000,1000,1000,1000,79628969,1581,1582,1545,1545
58035943,1000,1000,1000,1000,79728929,1584,1584,1544,1544
58038442,1000,1000,1000,1000,79828889,1586,1586,1541,1542
58040941,1000,1000,1000,1000,79928849,1588,1588,1541,1541
58043440,1000,1000,1000,1000,80028809,1588,1589,1540,1540
58045939,1000,1000,1000,1000,80128769,1589,1589,1540,1541
58048438,1000,1000,1000,1000,80228729,1588,1589,1541,1543
58050937,1000,1000,1000,1000,80328689,1588,1587,1544,1547
58053436,1000,1000,1000,1000,80428649,1584,1583,1548,1551
58055935,1000,1000,1000,1000,80528609,1580,1577,1555,1557
58058434,1000,1000,1000,1000,80628569,1575,1571,1564,1566
58060933,1000,1000,1000,1000,80728529,1566,1562,1572,1575
58063432,1000,1000,1000,1000,80828489,1557,1554,1583,1583
58065931,1000,1000,1000,1000,80928449,1549,1547,1592,1592
58068430,1000,1000,1000,1000,81028409,1543,1542,1600,1599
58070929,1000,1000,1000,1000,81128369,1538,1539,1605,1604
58073428,1000,1000,1000,1000,81228329,1537,1539,1608,1607
58075927,1000,1000,1000,1000,81328289,1538,1540,1607,1607
58078426,1000,1000,1000,1000,81428249,1543,1545,1606,1605
58080925,1000,1000,1000,1000,81528209,1549,1550,1601,1601
58083424,1000,1000,1000,1000,81628169,1555,1557,1596,1595
58085923,1000,1000,1000,1000,81728962,1563,1563,1590,1589
58088422,1000,1000,1000,1000,81828922,1570,1569,1585,1584
58090921,1000,1000,1000,1000,81928882,1575,1574,1579,1578
58093420,1000,1000,1000,1000,82028842,1578,1578,1573,1573
58095919,1000,1000,1000,1000,82128802,1582,1581,1570,1570
58098418,1000,1000,1000,1000,82228762,1584,1583,1569,1569
58100917,1000,1000,1000,1000,82328722,1586,1584,1569,1569
58103416,1000,1000,1000,1000,82428682,1584,1583,1569,1570
58105915,1000,1000,1000,1000,82528642,1583,1582,1571,1571
58108414,1000,1000,1000,1000,82628602,1581,1580,1573,1573
58110913,1000,1000,1000,1000,82728562,1579,1579,1576,1576
58113412,1000,1000,1000,1000,82828522,1577,1578,1579,1578
58115911,1000,1000,1000,1000,82928482,1576,1577,1581,1581
58118410,1000,1000,1000,1000,83028442,1574,1575,1582,1581
58120909,1000,1000,1000,1000,83128402,1573,1574,1582,1582
58123408,1000,1000,1000,1000,83228362,1574,1574,1583,1583
58125907,1000,1000,1000,1000,83328322,1574,1575,1583,1583
58128406,1000,1000,1000,1000,83428282,1575,1575,1583,1582
58130905,1000,1000,1000,1000,83528242,1576,1576,1581,1582
58133404,1000,1000,1000,1000,83628202,1577,1577,1581,1581
58135903,1000,1000,1000,1000,83728162,1578,1578,1579,1580
58138402,1000,1000,1000,1000,83828955,1579,1578,1579,1578
58140901,1000,1000,1000,1000,83928915,1580,1579,1578,1578
58143400,1000,1000,1000,1000,84028875,1580,1579,1577,1577
58145899,1000,1000,1000,1000,84128835,1581,1581,1578,1577
58148398,1000,1000,1000,1000,84228795,1581,1581,1577,1578
58150897,1000,1000,1000,1000,84328755,1582,1582,1579,1579
58153396,1000,1000,1000,1000,84428715,1581,1581,1579,1578
58155895,1000,1000,1000,1000,84528675,1581,1580,1579,1578
58158394,1000,1000,1000,1000,84628635,1581,1581,1580,1580
58160893,1000,1000,1000,1000,84728595,1581,1580,1580,1580
58163392,1000,1000,1000,1000,84828555,1581,1581,1581,1581
58165891,1000,1000,1000,1000,84928515,1580,1581,1581,1582
58168390,1000,1000,1000,1000,85028475,1581,1581,1582,1582
58170889,1000,1000,1000,1000,85128435,1581,1582,1583,1583
58173388,1000,1000,1000,1000,85228395,1580,1581,1582,1582
58175887,1000,1000,1000,1000,85328355,1582,1582,1583,1583
58178386,1000,1000,1000,1000,85428315,1581,1580,1582,1581
58180885,1000,1000,1000,1000,85528275,1581,1581,1582,1582
58183384,1000,1000,1000,1000,85628235,1581,1581,1581,1582
58185883,1000,1000,1000,1000,85728195,1581,1581,1581,1581
58188382,1000,1000,1000,1000,85828155,1581,1581,1581,1581
58190881,1000,1000,1000,1000,85928948,1581,1581,1581,1581
58193380,1000,1000,1000,1000,86028908,1582,1582,1581,1581
58195879,1000,1000,1000,1000,86128868,1582,1582,1581,1582
58198378,1000,1000,1000,1000,86228828,1582,1583,1586,1576
58200877,1000,1000,1000,1000,86328788,1581,1584,1587,1573
58203376,1000,1000,1000,1000,86428748,1580,1582,1580,1573
58205875,1000,1000,1000,1000,86528708,1579,1581,1571,1573
58208374,1000,1000,1000,1000,86628668,1577,1579,1563,1570
58210873,1000,1000,1000,1000,86728628,1578,1579,1558,1565
58213372,1000,1000,1000,1000,86828588,1578,1578,1555,1560
58215871,1000,1000,1000,1000,86928548,1578,1577,1554,1556
58218370,1000,1000,1000,1000,87028508,1579,1578,1554,1554
58220869,1000,1000,1000,1000,87128468,1579,1578,1555,1553
58223368,1000,1000,1000,1000,87228428,1578,1578,1556,1553
58225867,1000,1000,1000,1000,87328388,1576,1578,1555,1553
58228366,1000,1000,1000,1000,87428348,1576,1577,1554,1554
58230865,1000,1000,1000,1000,87528308,1576,1578,1554,1554
58233364,1000,1000,1000,1000,87628268,1575,1578,1553,1553
58235863,1000,1000,1000,1000,87728228,1576,1577,1551,1552
58238362,1000,1000,1000,1000,87828188,1577,1579,1549,1549
58240861,1000,1000,1000,1000,87928981,1580,1581,1548,1548
58243360,1000,1000,1000,1000,88028941,1582,1583,1546,1545
58245859,1000,1000,1000,1000,88128901,1584,1585,1543,1542
58248358,1000,1000,1000,1000,88228861,1588,1589,1542,1541
58250857,1000,1000,1000,1000,88328821,1590,1590,1539,1539
58253356,1000,1000,1000,1000,88428781,1592,1592,1538,1538
58255855,1000,1000,1000,1000,88528741,1593,1593,1536,1538
58258354,1000,1000,1000,1000,88628701,1593,1593,1537,1539
58260853,1000,1000,1000,1000,88728661,1593,1592,1539,1541
58263352,1000,1000,1000,1000,88828621,1590,1588,1542,1545
58265851,1000,1000,1000,1000,88928581,1586,1582,1550,1553
58268350,1000,1000,1000,1000,89028541,1578,1574,1559,1561
58270849,1000,1000,1000,1000,89128501,1569,1565,1570,1572
58273348,1000,1000,1000,1000,89228461,1558,1555,1582,1583
58275847,1000,1000,1000,1000,89328421,1548,1546,1593,1593
58278346,1000,1000,1000,1000,89428381,1540,1539,1603,1602
58280845,1000,1000,1000,1000,89528341,1534,1535,1609,1608
58283344,1000,1000,1000,1000,89628301,1533,1535,1614,1613
58285843,1000,1000,1000,1000,89728261,1534,1536,1614,1612
58288342,1000,1000,1000,1000,89828221,1538,1540,1611,1610
58290841,1000,1000,1000,1000,89928181,1544,1546,1606,1605
58293340,1000,1000,1000,1000,90028974,1552,1553,1600,1599
58295839,1000,1000,1000,1000,90128934,1560,1560,1593,1593
58298338,1000,1000,1000,1000,90228894,1568,1568,1586,1585
58300837,1000,1000,1000,1000,90328854,1574,1573,1579,1578
58303336,1000,1000,1000,1000,90428814,1581,1579,1574,1574
58305835,1000,1000,1000,1000,90528774,1584,1583,1570,1570
58308334,1000,1000,1000,1000,90628734,1586,1585,1567,1568
58310833,1000,1000,1000,1000,90728694,1587,1585,1566,1566
58313332,1000,1000,1000,1000,90828654,1586,1585,1567,1568
58315831,1000,1000,1000,1000,90928614,1585,1584,1569,1569
58318330,1000,1000,1000,1000,91028574,1583,1583,1572,1572
58320829,1000,1000,1000,1000,91128534,1579,1579,1574,1574
58323328,1000,1000,1000,1000,91228494,1577,1578,1577,1577
58325827,1000,1000,1000,1000,91328454,1576,1576,1580,1579
58328326,1000,1000,1000,1000,91428414,1574,1575,1582,1581
58330825,1000,1000,1000,1000,91528374,1574,1574,1584,1583
58333324,1000,1000,1000,1000,91628334,1573,1574,1584,1584
58335823,1000,1000,1000,1000,91728294,1573,1574,1584,1584
58338322,1000,1000,1000,1000,91828254,1574,1575,1584,1584
58340821,1000,1000,1000,1000,91928214,1575,1575,1582,1582
58343320,1000,1000,1000,1000,92028174,1576,1576,1581,1581
58345819,1000,1000,1000,1000,92128967,1577,1577,1580,1579
58348318,1000,1000,1000,1000,92228927,1579,1579,1579,1579
58350817,1000,1000,1000,1000,92328887,1580,1579,1578,1578
58353316,1000,1000,1000,1000,92428847,1582,1582,1579,1579
58355815,1000,1000,1000,1000,92528807,1582,1582,1578,1578
58358314,1000,1000,1000,1000,92628767,1583,1582,1578,1578
58360813,1000,1000,1000,1000,92728727,1583,1582,1578,1578
58363312,1000,1000,1000,1000,92828687,1582,1582,1579,1579
58365811,1000,1000,1000,1000,92928647,1581,1580,1578,1578
58368310,1000,1000,1000,1000,93028607,1582,1582,1580,1580
58370809,1000,1000,1000,1000,93128567,1581,1581,1581,1581
58373308,1000,1000,1000,1000,93228527,1580,1581,1581,1581
58375807,1000,1000,1000,1000,93328487,1580,1580,1581,1581
58378306,1000,1000,1000,1000,93428447,1580,1580,1581,1581
58380805,1000,1000,1000,1000,93528407,1579,1579,1581,1580
58383304,1000,1000,1000,1000,93628367,1579,1579,1581,1581
58385803,1000,1000,1000,1000,93728327,1580,1580,1582,1581
58388302,1000,1000,1000,1000,93828287,1580,1580,1581,1581
58390801,1000,1000,1000,1000,93928247,1580,1580,1581,1581
58393300,1000,1000,1000,1000,94028207,1581,1581,1582,1582
58395799,1000,1000,1000,1000,94128167,1581,1581,1582,1581
58398298,1000,1000,1000,1000,94228960,1582,1583,1588,1574
58400797,1000,1000,1000,1000,94328920,1581,1581,1585,1573
58403296,1000,1000,1000,1000,94428880,1578,1578,1578,1575
58405795,1000,1000,1000,1000,94528840,1575,1575,1571,1575
58408294,1000,1000,1000,1000,94628800,1572,1571,1566,1574
58410793,1000,1000,1000,1000,94728760,1569,1569,1565,1572
58413292,1000,1000,1000,1000,94828720,1568,1568,1565,1569
58415791,1000,1000,1000,1000,94928680,1566,1566,1565,1566
58418290,1000,1000,1000,1000,95028640,1565,1566,1566,1564
58420789,1000,1000,1000,1000,95128600,1565,1564,1566,1564
58423288,1000,1000,1000,1000,95228560,1564,1565,1567,1563
58425787,1000,1000,1000,1000,95328520,1563,1564,1565,1563
58428286,1000,1000,1000,1000,95428480,1563,1563,1564,1564
58430785,1000,1000,1000,1000,95528440,1563,1562,1563,1564
58433284,1000,1000,1000,1000,95628400,1563,1562,1564,1564
58435783,1000,1000,1000,1000,95728360,1562,1562,1562,1562
58438282,1000,1000,1000,1000,95828320,1561,1561,1562,1562
58440781,1000,1000,1000,1000,95928280,1561,1561,1561,1561
58443280,1000,1000,1000,1000,96028240,1560,1561,1561,1560
58445779,1000,1000,1000,1000,96128200,1560,1559,1560,1559
58448278,1000,1000,1000,1000,96228160,1559,1559,1559,1559
58450777,1000,1000,1000,1000,96328953,1559,1559,1559,1558
58453276,1000,1000,1000,1000,96428913,1558,1559,1558,1558
58455775,1000,1000,1000,1000,96528873,1558,1558,1558,1558
58458274,1000,1000,1000,1000,96628833,1558,1558,1558,1557
58460773,1000,1000,1000,1000,96728793,1558,1558,1559,1557
58463272,1000,1000,1000,1000,96828753,1558,1558,1559,1556
58465771,1000,1000,1000,1000,96928713,1559,1559,1560,1558
58468270,1000,1000,1000,1000,97028673,1558,1559,1559,1559
58470769,1000,1000,1000,1000,97128633,1559,1560,1557,1562
58473268,1000,1000,1000,1000,97228593,1560,1560,1557,1563
58475767,1000,1000,1000,1000,97328553,1559,1558,1556,1561
58478266,1000,1000,1000,1000,97428513,1559,1559,1558,1561
58480765,1000,1000,1000,1000,97528473,1558,1558,1557,1559
58483264,1000,1000,1000,1000,97628433,1556,1555,1555,1556
58485763,1000,1000,1000,1000,97728393,1550,1550,1550,1550
58488262,1000,1000,1000,1000,97828353,1544,1544,1544,1544
58490761,1000,1000,1000,1000,97928313,1538,1538,1538,1537
58493260,1000,1000,1000,1000,98028273,1530,1530,1530,1530
58495759,1000,1000,1000,1000,98128233,1523,1523,1523,1523
58498258,1000,1000,1000,1000,98228193,1521,1521,1521,1521
58500757,1000,1000,1000,1000,98328986,1520,1520,1519,1521
58503256,1000,1000,1000,1000,98428946,1521,1521,1521,1522
58505755,1000,1000,1000,1000,98528906,1523,1523,1523,1524
58508254,1000,1000,1000,1000,98628866,1527,1527,1527,1528
58510753,1000,1000,1000,1000,98728826,1532,1532,1532,1532
58513252,1000,1000,1000,1000,98828786,1537,1537,1537,1537
58515751,1000,1000,1000,1000,98928746,1541,1540,1541,1540
58518250,1000,1000,1000,1000,99028706,1542,1541,1542,1542
58520749,1000,1000,1000,1000,99128666,1544,1543,1544,1543
58523248,1000,1000,1000,1000,99228626,1544,1544,1544,1545
58525747,1000,1000,1000,1000,99328586,1546,1546,1546,1546
58528246,1000,1000,1000,1000,99428546,1546,1546,1546,1546
58530745,1000,1000,1000,1000,99528506,1546,1547,1546,1546
58533244,1000,1000,1000,1000,99628466,1546,1546,1546,1546
58535743,1000,1000,1000,1000,99728426,1546,1546,1546,1546
58538242,1000,1000,1000,1000,99828386,1546,1546,1546,1546
58540741,1000,1000,1000,1000,99928346,1545,1545,1545,1545
58543240,1000,1000,1000,1000,100028306,1545,1545,1545,1545
58545739,1000,1000,1000,1000,100128266,1546,1545,1545,1545
58548238,1000,1000,1000,1000,100228226,1545,1545,1545,1545
58550737,1000,1000,1000,1000,100328186,1545,1545,1546,1545
58553236,1000,1000,1000,1000,100428979,1545,1546,1545,1545
58555735,1000,1000,1000,1000,100528939,1543,1543,1544,1543
58558234,1000,1000,1000,1000,100628899,1544,1544,1544,1544
58560733,1000,1000,1000,1000,100728859,1543,1543,1543,1544
58563232,1000,1000,1000,1000,100828819,1543,1543,1543,1543
58565731,1000,1000,1000,1000,100928779,1544,1544,1544,1544
58568230,1000,1000,1000,1000,101028739,1544,1544,1544,1543
58570729,1000,1000,1000,1000,101128699,1544,1544,1544,1544
58573228,1000,1000,1000,1000,101228659,1544,1545,1545,1544
58575727,1000,1000,1000,1000,101328619,1544,1543,1544,1544
58578226,1000,1000,1000,1000,101428579,1545,1544,1544,1545
58580725,1000,1000,1000,1000,101528539,1544,1544,1544,1544
58583224,1000,1000,1000,1000,101628499,1544,1544,1544,1544
58585723,1000,1000,1000,1000,101728459,1544,1544,1544,1544
58588222,1000,1000,1000,1000,101828419,1543,1544,1543,1543
58590721,1000,1000,1000,1000,101928379,1544,1544,1543,1544
58593220,1000,1000,1000,1000,102028339,1544,1544,1544,1544
58595719,1000,1000,1000,1000,102128299,1544,1544,1544,1544
58598218,1000,1000,1000,1000,102228259,1544,1544,1545,1544
58600717,1000,1000,1000,1000,102328219,1544,1544,1544,1544
58603216,1000,1000,1000,1000,102428179,1544,1544,1544,1544
58605715,1000,1000,1000,1000,102528972,1545,1544,1544,1544
58608214,1000,1000,1000,1000,102628932,1545,1544,1545,1545
58610713,1000,1000,1000,1000,102728892,1545,1545,1545,1545
58613212,1000,1000,1000,1000,102828852,1545,1545,1545,1545
58615711,1000,1000,1000,1000,102928812,1545,1545,1545,1545
58618210,1000,1000,1000,1000,103028772,1544,1545,1545,1545
58620709,1000,1000,1000,1000,103128732,1544,1544,1544,1544
58623208,1000,1000,1000,1000,103228692,1544,1544,1544,1544
58625707,1000,1000,1000,1000,103328652,1545,1544,1544,1544
58628206,1000,1000,1000,1000,103428612,1545,1545,1545,1544
58630705,1000,1000,1000,1000,103528572,1544,1544,1544,1544
58633204,1000,1000,1000,1000,103628532,1544,1544,1544,1544
58635703,1000,1000,1000,1000,103728492,1544,1544,1544,1544
58638202,1000,1000,1000,1000,103828452,1545,1545,1545,1545
58640701,1000,1000,1000,1000,103928412,1545,1544,1545,1544
58643200,1000,1000,1000,1000,104028372,1544,1544,1544,1544
58645699,1000,1000,1000,1000,104128332,1543,1544,1543,1544
58648198,1000,1000,1000,1000,104228292,1543,1543,1543,1544
58650697,1000,1000,1000,1000,104328252,1544,1544,1544,1544
58653196,1000,1000,1000,1000,104428212,1545,1545,1545,1545
58655695,1000,1000,1000,1000,104528172,1545,1545,1545,1545
58658194,1000,1000,1000,1000,104628965,1544,1544,1544,1544
58660693,1000,1000,1000,1000,104728925,1544,1544,1544,1544
58663192,1000,1000,1000,1000,104828885,1544,1544,1544,1544
58665691,1000,1000,1000,1000,104928845,1545,1544,1544,1545
58668190,1000,1000,1000,1000,105028805,1544,1544,1544,1544
58670689,1000,1000,1000,1000,105128765,1543,1544,1544,1544
58673188,1000,1000,1000,1000,105228725,1545,1545,1545,1545
58675687,1000,1000,1000,1000,105328685,1545,1544,1545,1545
58678186,1000,1000,1000,1000,105428645,1544,1545,1544,1544
58680685,1000,1000,1000,1000,105528605,1544,1544,1544,1544
58683184,1000,1000,1000,1000,105628565,1544,1545,1545,1544
58685683,1000,1000,1000,1000,105728525,1544,1543,1544,1544
58688182,1000,1000,1000,1000,105828485,1545,1544,1545,1544
58690681,1000,1000,1000,1000,105928445,1544,1544,1544,1544
58693180,1000,1000,1000,1000,106028405,1544,1544,1544,1544
58695679,1000,1000,1000,1000,106128365,1544,1544,1544,1544
58698178,1000,1000,1000,1000,106228325,1545,1544,1544,1545
58700677,1000,1000,1000,1000,106328285,1544,1544,1544,1544
58703176,1000,1000,1000,1000,106428245,1544,1544,1544,1544
58705675,1000,1000,1000,1000,106528205,1544,1544,1544,1544
58708174,1000,1000,1000,1000,106628165,1544,1544,1544,1544
58710673,1000,1000,1000,1000,106728958,1544,1544,1544,1544
58713172,1000,1000,1000,1000,106828918,1545,1545,1545,1544
58715671,1000,1000,1000,1000,106928878,1545,1544,1544,1545
58718170,1000,1000,1000,1000,107028838,1545,1546,1545,1545
58720669,1000,1000,1000,1000,107128798,1544,1544,1544,1544
58723168,1000,1000,1000,1000,107228758,1545,1544,1545,1544
58725667,1000,1000,1000,1000,107328718,1545,1544,1544,1545
58728166,1000,1000,1000,1000,107428678,1544,1544,1544,1544
58730665,1000,1000,1000,1000,107528638,1544,1543,1543,1544
58733164,1000,1000,1000,1000,107628598,1544,1544,1544,1544
58735663,1000,1000,1000,1000,107728558,1544,1544,1544,1544
58738162,1000,1000,1000,1000,107828518,1544,1545,1544,1544
58740661,1000,1000,1000,1000,107928478,1402,1387,1402,1387
58743160,1000,1000,1000,1000,108028438,1292,1260,1293,1259
58745659,1000,1000,1000,1000,108128398,1256,1215,1257,1215
58748158,1000,1000,1000,1000,108228358,1240,1196,1242,1195
58750657,1000,1000,1000,1000,108328318,1208,1154,1209,1154
58753156,1000,1000,1000,1000,108428278,1205,1151,1206,1150
58755655,1000,1000,1000,1000,108528238,1205,1150,1206,1150
58758154,1000,1000,1000,1000,108628198,1205,1151,1207,1150
58761486,1000,1000,1000,1000,108728158,1232,1150,1204,1187
58763985,1000,1000,1000,1000,108828951,1223,1150,1205,1174
58766484,1000,1000,1000,1000,108928911,1221,1150,1205,1171
58768983,1000,1000,1000,1000,109028871,1222,1150,1205,1172
58771482,1000,1000,1000,1000,109128831,1223,1150,1205,1174
58773981,1000,1000,1000,1000,109228791,1225,1150,1205,1176
58776480,1000,1000,1000,1000,109328751,1227,1150,1206,1179
58778979,1000,1000,1000,1000,109428711,1228,1150,1206,1180
58781478,1000,1000,1000,1000,109528671,1216,1150,1205,1165
58783977,1000,1000,1000,1000,109628631,1217,1150,1205,1166
58786476,1000,1000,1000,1000,109728591,1218,1150,1206,1167
58788975,1000,1000,1000,1000,109828551,1219,1150,1206,1168
58791474,1000,1000,1000,1000,109928511,1127,1150,1122,1155
58793973,1000,1000,1000,1000,110028471,1000,1000,1000,1000
58796472,1000,1000,1000,1000,110128431,1000,1000,1000,1000
58798971,1000,1000,1000,1000,110228391,1000,1000,1000,1000
58801470,1000,1000,1000,1000,110328351,1000,1000,1000,1000
58803969,1000,1000,1000,1000,110428311,1000,1000,1000,1000
58806468,1000,1000,1000,1000,110528271,1000,1000,1000,1000
58808967,1000,1000,1000,1000,110628231,1000,1000,1000,1000
58811466,1000,1000,1000,1000,110728191,1000,1000,1000,1000
58813965,1000,1000,1000,1000,110828984,1000,1000,1000,1000
58816464,1000,1000,1000,1000,110928944,1000,1000,1000,1000
58818963,1000,1000,1000,1000,111028904,1000,1000,1000,1000
58821462,1000,1000,1000,1000,111128864,1000,1000,1000,1000
58823961,1000,1000,1000,1000,111228824,1000,1000,1000,1000
58826460,1000,1000,1000,1000,111328784,1000,1000,1000,1000
58828959,1000,1000,1000,1000,111428744,1000,1000,1000,1000
58831458,1000,1000,1000,1000,111528704,1000,1000,1000,1000
58833957,1000,1000,1000,1000,111628664,1000,1000,1000,1000
58836456,1000,1000,1000,1000,111728624,1000,1000,1000,1000
58838955,1000,1000,1000,1000,111828584,1000,1000,1000,1000
58841454,1000,1000,1000,1000,111928544,1000,1000,1000,1000
58843953,1000,1000,1000,1000,112028504,1000,1000,1000,1000
58846452,1000,1000,1000,1000,112128464,1000,1000,1000,1000
58848951,1000,1000,1000,1000,112228424,1000,1000,1000,1000
58851450,1000,1000,1000,1000,112328384,1000,1000,1000,1000
58853949,1000,1000,1000,1000,112428344,1000,1000,1000,1000
58856448,1000,1000,1000,1000,112528304,1000,1000,1000,1000
58858947,1000,1000,1000,1000,112628264,1000,1000,1000,1000
58861446,1000,1000,1000,1000,112728224,1000,1000,1000,1000
58863945,1000,1000,1000,1000,112828184,1000,1000,1000,1000
58866444,1000,1000,1000,1000,112928977,1000,1000,1000,1000
58868943,1000,1000,1000,1000,113028937,1000,1000,1000,1000
58871442,1000,1000,1000,1000,113128897,1000,1000,1000,1000
58873941,1000,1000,1000,1000,113228857,1000,1000,1000,1000
58876440,1000,1000,1000,1000,113328817,1000,1000,1000,1000
58878939,1000,1000,1000,1000,113428777,1000,1000,1000,1000
58881438,1000,1000,1000,1000,113528737,1000,1000,1000,1000
58883937,1000,1000,1000,1000,113628697,1000,1000,1000,1000
58886436,1000,1000,1000,1000,113728657,1000,1000,1000,1000
58888935,1000,1000,1000,1000,113828617,1000,1000,1000,1000
58891434,1000,1000,1000,1000,113928577,1000,1000,1000,1000
58893933,1000,1000,1000,1000,114028537,1000,1000,1000,1000
58896432,1000,1000,1000,1000,114128497,1000,1000,1000,1000
58898931,1000,1000,1000,1000,114228457,1000,1000,1000,1000
58901430,1000,1000,1000,1000,114328417,1000,1000,1000,1000
58903929,1000,1000,1000,1000,114428377,1000,1000,1000,1000
58906428,1000,1000,1000,1000,114528337,1000,1000,1000,1000
58908927,1000,1000,1000,1000,114628297,1000,1000,1000,1000
58911426,1000,1000,1000,1000,114728257,1000,1000,1000,1000
58913925,1000,1000,1000,1000,114828217,1000,1000,1000,1000
58916424,1000,1000,1000,1000,114928177,1000,1000,1000,1000
58918923,1000,1000,1000,1000,115028970,1000,1000,1000,1000
58921422,1000,1000,1000,1000,115128930,1000,1000,1000,1000
58923921,1000,1000,1000,1000,115228890,1000,1000,1000,1000
58926420,1000,1000,1000,1000,115328850,1000,1000,1000,1000
58928919,1000,1000,1000,1000,115428810,1000,1000,1000,1000
58931418,1000,1000,1000,1000,115528770,1000,1000,1000,1000
58933917,1000,1000,1000,1000,115628730,1000,1000,1000,1000
58936416,1000,1000,1000,1000,115728690,1000,1000,1000,1000
58938915,1000,1000,1000,1000,115828650,1000,1000,1000,1000
58941414,1000,1000,1000,1000,115928610,1000,1000,1000,1000
58943913,1000,1000,1000,1000,116028570,1000,1000,1000,1000
58946412,1000,1000,1000,1000,116128530,1000,1000,1000,1000
58948911,1000,1000,1000,1000,116228490,1000,1000,1000,1000
58951410,1000,1000,1000,1000,116328450,1000,1000,1000,1000
58953909,1000,1000,1000,1000,116428410,1000,1000,1000,1000
58956408,1000,1000,1000,1000,116528370,1000,1000,1000,1000
58958907,1000,1000,1000,1000,116628330,1000,1000,1000,1000
58961406,1000,1000,1000,1000,116728290,1000,1000,1000,1000
58963905,1000,1000,1000,1000,116828250,1000,1000,1000,1000
58966404,1000,1000,1000,1000,116928210,1000,1000,1000,1000
58968903,1000,1000,1000,1000,117028170,1000,1000,1000,1000
58971402,1000,1000,1000,1000,117128963,1000,1000,1000,1000
58973901,1000,1000,1000,1000,117228923,1000,1000,1000,1000
58976400,1000,1000,1000,1000,117328883,1000,1000,1000,1000
58978899,1000,1000,1000,1000,117428843,1000,1000,1000,1000
58981398,1000,1000,1000,1000,117528803,1000,1000,1000,1000
58983897,1000,1000,1000,1000,117628763,1000,1000,1000,1000
58986396,1000,1000,1000,1000,117728723,1000,1000,1000,1000
58988895,1000,1000,1000,1000,117828683,1000,1000,1000,1000
58991394,1000,1000,1000,1000,117928643,1000,1000,1000,1000
58993893,1000,1000,1000,1000,118028603,1000,1000,1000,1000
58996392,1000,1000,1000,1000,118128563,1000,1000,1000,1000
58998891,1000,1000,1000,1000,118228523,1000,1000,1000,1000
59001390,1000,1000,1000,1000,118328483,1000,1000,1000,1000
59003889,1000,1000,1000,1000,118428443,1000,1000,1000,1000
59006388,1000,1000,1000,1000,118528403,1000,1000,1000,1000
59008887,1000,1000,1000,1000,118628363,1000,1000,1000,1000
59011386,1000,1000,1000,1000,118728323,1000,1000,1000,1000
59013885,1000,1000,1000,1000,118828283,1000,1000,1000,1000
59016384,1000,1000,1000,1000,118928243,1000,1000,1000,1000
59018883,1000,1000,1000,1000,119028203,1000,1000,1000,1000
59021382,1000,1000,1000,1000,119128163,1000,1000,1000,1000
59023881,1000,1000,1000,1000,119228956,1000,1000,1000,1000
59026380,1000,1000,1000,1000,119328916,1000,1000,1000,1000
59028879,1000,1000,1000,1000,119428876,1000,1000,1000,1000
59031378,1000,1000,1000,1000,119528836,1000,1000,1000,1000
59033877,1000,1000,1000,1000,119628796,1000,1000,1000,1000
59036376,1000,1000,1000,1000,119728756,1000,1000,1000,1000
59038875,1000,1000,1000,1000,119828716,1000,1000,1000,1000
59041374,1000,1000,1000,1000,119928676,1000,1000,1000,1000
59043873,1000,1000,1000,1000,120028636,1000,1000,1000,1000
59046372,1000,1000,1000,1000,120128596,1000,1000,1000,1000
59048871,1000,1000,1000,1000,120228556,1000,1000,1000,1000
59051370,1000,1000,1000,1000,120328516,1000,1000,1000,1000
59053869,1000,1000,1000,1000,120428476,1000,1000,1000,1000
59056368,1000,1000,1000,1000,120528436,1000,1000,1000,1000
59058867,1000,1000,1000,1000,120628396,1000,1000,1000,1000
59061366,1000,1000,1000,1000,120728356,1000,1000,1000,1000
59063865,1000,1000,1000,1000,120828316,1000,1000,1000,1000
59066364,1000,1000,1000,1000,120928276,1000,1000,1000,1000
59068863,1000,1000,1000,1000,121028236,1000,1000,1000,1000
59071362,1000,1000,1000,1000,121128196,1000,1000,1000,1000
59073861,1000,1000,1000,1000,121228156,1000,1000,1000,1000
59076360,1000,1000,1000,1000,121328949,1000,1000,1000,1000
59078859,1000,1000,1000,1000,121428909,1000,1000,1000,1000
59081358,1000,1000,1000,1000,121528869,1000,1000,1000,1000
59083857,1000,1000,1000,1000,121628829,1000,1000,1000,1000
59086356,1000,1000,1000,1000,121728789,1000,1000,1000,1000
59088855,1000,1000,1000,1000,121828749,1000,1000,1000,1000
59091354,1000,1000,1000,1000,121928709,1000,1000,1000,1000
59093853,1000,1000,1000,1000,122028669,1000,1000,1000,1000
59096352,1000,1000,1000,1000,122128629,1000,1000,1000,1000
59098851,1000,1000,1000,1000,122228589,1000,1000,1000,1000
59101350,1000,1000,1000,1000,122328549,1000,1000,1000,1000
59103849,1000,1000,1000,1000,122428509,1000,1000,1000,1000
59106348,1000,1000,1000,1000,122528469,1000,1000,1000,1000
59108847,1000,1000,1000,1000,122628429,1000,1000,1000,1000
59111346,1000,1000,1000,1000,122728389,1000,1000,1000,1000
59113845,1000,1000,1000,1000,122828349,1000,1000,1000,1000
59116344,1000,1000,1000,1000,122928309,1000,1000,1000,1000
59118843,1000,1000,1000,1000,123028269,1000,1000,1000,1000
59121342,1000,1000,1000,1000,123128229,1000,1000,1000,1000
59123841,1000,1000,1000,1000,123228189,1000,1000,1000,1000
59126340,1000,1000,1000,1000,123328982,1000,1000,1000,1000
59128839,1000,1000,1000,1000,123428942,1000,1000,1000,1000
59131338,1000,1000,1000,1000,123528902,1000,1000,1000,1000
59133837,1000,1000,1000,1000,123628862,1000,1000,1000,1000
59136336,1000,1000,1000,1000,123728822,1000,1000,1000,1000
59138835,1000,1000,1000,1000,123828782,1000,1000,1000,1000
59141334,1000,1000,1000,1000,123928742,1000,1000,1000,1000
59143833,1000,1000,1000,1000,124028702,1000,1000,1000,1000
59146332,1000,1000,1000,1000,124128662,1000,1000,1000,1000
59148831,1000,1000,1000,1000,124228622,1000,1000,1000,1000
59151330,1000,1000,1000,1000,124328582,1000,1000,1000,1000
59153829,1000,1000,1000,1000,124428542,1000,1000,1000,1000
59156328,1000,1000,1000,1000,124528502,1000,1000,1000,1000
59158827,1000,1000,1000,1000,124628462,1000,1000,1000,1000
59161326,1000,1000,1000,1000,124728422,1000,1000,1000,1000
59163825,1000,1000,1000,1000,124828382,1000,1000,1000,1000
59166324,1000,1000,1000,1000,124928342,1000,1000,1000,1000
59168823,1000,1000,1000,1000,,,,,
59171322,1000,1000,1000,1000,,,,,
59173821,1000,1000,1000,1000,,,,,
59176320,1000,1000,1000,1000,,,,,
59178819,1000,1000,1000,1000,,,,,
59181318,1000,1000,1000,1000,,,,,
59183817,1000,1000,1000,1000,,,,,
59186316,1000,1000,1000,1000,,,,,
59188815,1000,1000,1000,1000,,,,,
59191314,1000,1000,1000,1000,,,,,
59193813,1000,1000,1000,1000,,,,,
59196312,1000,1000,1000,1000,,,,,
59198811,1000,1000,1000,1000,,,,,
59201310,1000,1000,1000,1000,,,,,
59203809,1000,1000,1000,1000,,,,,
59206308,1000,1000,1000,1000,,,,,
59208807,1000,1000,1000,1000,,,,,
59211306,1000,1000,1000,1000,,,,,
59213805,1000,1000,1000,1000,,,,,
59216304,1000,1000,1000,1000,,,,,
59218803,1000,1000,1000,1000,,,,,
59221302,1000,1000,1000,1000,,,,,
59223801,1000,1000,1000,1000,,,,,
59226300,1000,1000,1000,1000,,,,,
59228799,1000,1000,1000,1000,,,,,
59231298,1000,1000,1000,1000,,,,,
59233797,1000,1000,1000,1000,,,,,
59236296,1000,1000,1000,1000,,,,,
59238795,1000,1000,1000,1000,,,,,
59241294,1000,1000,1000,1000,,,,,
59243793,1000,1000,1000,1000,,,,,
59246292,1000,1000,1000,1000,,,,,
59248791,1000,1000,1000,1000,,,,,
59251290,1000,1000,1000,1000,,,,,
59253789,1000,1000,1000,1000,,,,,
59256288,1000,1000,1000,1000,,,,,
59258787,1000,1000,1000,1000,,,,,
59261286,1000,1000,1000,1000,,,,,
59263785,1000,1000,1000,1000,,,,,
59266284,1000,1000,1000,1000,,,,,
59268783,1000,1000,1000,1000,,,,,
59271282,1000,1000,1000,1000,,,,,
59273781,1000,1000,1000,1000,,,,,
59276280,1000,1000,1000,1000,,,,,
59278779,1000,1000,1000,1000,,,,,
59281278,1000,1000,1000,1000,,,,,
59283777,1000,1000,1000,1000,,,,,
59286276,1000,1000,1000,1000,,,,,
59288775,1000,1000,1000,1000,,,,,
59291274,1000,1000,1000,1000,,,,,
59293773,1000,1000,1000,1000,,,,,
59296272,1000,1000,1000,1000,,,,,
59298771,1000,1000,1000,1000,,,,,
59301270,1000,1000,1000,1000,,,,,
59303769,1000,1000,1000,1000,,,,,
59306268,1000,1000,1000,1000,,,,,
59308767,1000,1000,1000,1000,,,,,
59311266,1000,1000,1000,1000,,,,,
59313765,1000,1000,1000,1000,,,,,
59316264,1000,1000,1000,1000,,,,,
59318763,1000,1000,1000,1000,,,,,
59321262,1000,1000,1000,1000,,,,,
59323761,1000,1000,1000,1000,,,,,
59326260,1000,1000,1000,1000,,,,,
59328759,1000,1000,1000,1000,,,,,
59331258,1000,1000,1000,1000,,,,,
59333757,1000,1000,1000,1000,,,,,
59336256,1000,1000,1000,1000,,,,,
59338755,1000,1000,1000,1000,,,,,
59341254,1000,1000,1000,1000,,,,,
59343753,1000,1000,1000,1000,,,,,
59346252,1000,1000,1000,1000,,,,,
59348751,1000,1000,1000,1000,,,,,
59351250,1000,1000,1000,1000,,,,,
59353749,1000,1000,1000,1000,,,,,
59356248,1000,1000,1000,1000,,,,,
59358747,1000,1000,1000,1000,,,,,
59361246,1000,1000,1000,1000,,,,,
59363745,1000,1000,1000,1000,,,,,
59366244,1000,1000,1000,1000,,,,,
59368743,1000,1000,1000,1000,,,,,
59371242,1000,1000,1000,1000,,,,,
59373741,1000,1000,1000,1000,,,,,
59376240,1000,1000,1000,1000,,,,,
59378739,1000,1000,1000,1000,,,,,
59381238,1000,1000,1000,1000,,,,,
59383737,1000,1000,1000,1000,,,,,
59386236,1000,1000,1000,1000,,,,,
59388735,1000,1000,1000,1000,,,,,
59391234,1000,1000,1000,1000,,,,,
59393733,1000,1000,1000,1000,,,,,
59396232,1000,1000,1000,1000,,,,,
59398731,1000,1000,1000,1000,,,,,
59401230,1000,1000,1000,1000,,,,,
59403729,1000,1000,1000,1000,,,,,
59406228,1000,1000,1000,1000,,,,,
59408727,1000,1000,1000,1000,,,,,
59411226,1000,1000,1000,1000,,,,,
59413725,1000,1000,1000,1000,,,,,
59416224,1000,1000,1000,1000,,,,,
59418723,1000,1000,1000,1000,,,,,
59421222,1000,1000,1000,1000,,,,,
59423721,1000,1000,1000,1000,,,,,
59426220,1000,1000,1000,1000,,,,,
59428719,1000,1000,1000,1000,,,,,
59431218,1000,1000,1000,1000,,,,,
59433717,1000,1000,1000,1000,,,,,
59436216,1000,1000,1000,1000,,,,,
59438715,1000,1000,1000,1000,,,,,
59441214,1000,1000,1000,1000,,,,,
59443713,1000,1000,1000,1000,,,,,
59446212,1000,1000,1000,1000,,,,,
59448711,1000,1000,1000,1000,,,,,
59451210,1000,1000,1000,1000,,,,,
59453709,1000,1000,1000,1000,,,,,
59456208,1000,1000,1000,1000,,,,,
59458707,1000,1000,1000,1000,,,,,
59461206,1000,1000,1000,1000,,,,,
59463705,1000,1000,1000,1000,,,,,
59466204,1000,1000,1000,1000,,,,,
59468703,1000,1000,1000,1000,,,,,
59471202,1000,1000,1000,1000,,,,,
59473701,1000,1000,1000,1000,,,,,
59476200,1000,1000,1000,1000,,,,,
59478699,1000,1000,1000,1000,,,,,
59481198,1000,1000,1000,1000,,,,,
59483697,1000,1000,1000,1000,,,,,
59486196,1000,1000,1000,1000,,,,,
59488695,1001,1001,1001,1001,,,,,
59491194,1002,1002,1002,1002,,,,,
59493693,1003,1003,1003,1003,,,,,
59496192,1003,1003,1003,1003,,,,,
59498691,1004,1004,1004,1004,,,,,
59501190,1005,1005,1005,1005,,,,,
59503689,1006,1006,1006,1006,,,,,
59506188,1006,1006,1006,1006,,,,,
59508687,1007,1007,1007,1007,,,,,
59511186,1008,1008,1008,1008,,,,,
59513685,1009,1009,1009,1009,,,,,
59516184,1009,1009,1009,1009,,,,,
59518683,1010,1010,1010,1010,,,,,
59521182,1011,1011,1011,1011,,,,,
59523681,1012,1012,1012,1012,,,,,
59526180,1012,1012,1012,1012,,,,,
59528679,1013,1013,1013,1013,,,,,
59531178,1014,1014,1014,1014,,,,,
59533677,1015,1015,1015,1015,,,,,
59536176,1015,1015,1015,1015,,,,,
59538675,1016,1016,1016,1016,,,,,
59541174,1017,1017,1017,1017,,,,,
59543673,1018,1018,1018,1018,,,,,
59546172,1018,1018,1018,1018,,,,,
59548671,1019,1019,1019,1019,,,,,
59551170,1020,1020,1020,1020,,,,,
59553669,1021,1021,1021,1021,,,,,
59556168,1021,1021,1021,1021,,,,,
59558667,1022,1022,1022,1022,,,,,
59561166,1023,1023,1023,1023,,,,,
59563665,1024,1024,1024,1024,,,,,
59566164,1024,1024,1024,1024,,,,,
59568663,1025,1025,1025,1025,,,,,
59571162,1026,1026,1026,1026,,,,,
59573661,1027,1027,1027,1027,,,,,
59576160,1027,1027,1027,1027,,,,,
59578659,1028,1028,1028,1028,,,,,
59581158,1029,1029,1029,1029,,,,,
59583657,1030,1030,1030,1030,,,,,
59586156,1030,1030,1030,1030,,,,,
59588655,1031,1031,1031,1031,,,,,
59591154,1032,1032,1032,1032,,,,,
59593653,1033,1033,1033,1033,,,,,
59596152,1033,1033,1033,1033,,,,,
59598651,1034,1034,1034,1034,,,,,
59601150,1035,1035,1035,1035,,,,,
59603649,1036,1036,1036,1036,,,,,
59606148,1036,1036,1036,1036,,,,,
59608647,1037,1037,1037,1037,,,,,
59611146,1038,1038,1038,1038,,,,,
59613645,1039,1039,1039,1039,,,,,
59616144,1039,1039,1039,1039,,,,,
59618643,1040,1040,1040,1040,,,,,
59621142,1041,1041,1041,1041,,,,,
59623641,1042,1042,1042,1042,,,,,
59626140,1042,1042,1042,1042,,,,,
59628639,1043,1043,1043,1043,,,,,
59631138,1044,1044,1044,1044,,,,,
59633637,1045,1045,1045,1045,,,,,
59636136,1045,1045,1045,1045,,,,,
59638635,1046,1046,1046,1046,,,,,
59641134,1047,1047,1047,1047,,,,,
59643633,1048,1048,1048,1048,,,,,
59646132,1048,1048,1048,1048,,,,,
59648631,1049,1049,1049,1049,,,,,
59651130,1050,1050,1050,1050,,,,,
59653629,1051,1051,1051,1051,,,,,
59656128,1051,1051,1051,1051,,,,,
59658627,1052,1052,1052,1052,,,,,
59661126,1053,1053,1053,1053,,,,,
59663625,1054,1054,1054,1054,,,,,
59666124,1054,1054,1054,1054,,,,,
59668623,1055,1055,1055,1055,,,,,
59671122,1056,1056,1056,1056,,,,,
59673621,1057,1057,1057,1057,,,,,
59676120,1057,1057,1057,1057,,,,,
59678619,1058,1058,1058,1058,,,,,
59681118,1059,1059,1059,1059,,,,,
59683617,1060,1060,1060,1060,,,,,
59686116,1060,1060,1060,1060,,,,,
59688615,1061,1061,1061,1061,,,,,
59691114,1062,1062,1062,1062,,,,,
59693613,1063,1063,1063,1063,,,,,
59696112,1063,1063,1063,1063,,,,,
59698611,1064,1064,1064,1064,,,,,
59701110,1065,1065,1065,1065,,,,,
59703609,1066,1066,1066,1066,,,,,
59706108,1066,1066,1066,1066,,,,,
59708607,1067,1067,1067,1067,,,,,
59711106,1068,1068,1068,1068,,,,,
59713605,1069,1069,1069,1069,,,,,
59716104,1069,1069,1069,1069,,,,,
59718603,1070,1070,1070,1070,,,,,
59721102,1071,1071,1071,1071,,,,,
59723601,1072,1072,1072,1072,,,,,
59726100,1072,1072,1072,1072,,,,,
59728599,1073,1073,1073,1073,,,,,
59731098,1074,1074,1074,1074,,,,,
59733597,1075,1075,1075,1075,,,,,
59736096,1075,1075,1075,1075,,,,,
59738595,1076,1076,1076,1076,,,,,
59741094,1077,1077,1077,1077,,,,,
59743593,1078,1078,1078,1078,,,,,
59746092,1078,1078,1078,1078,,,,,
59748591,1079,1079,1079,1079,,,,,
59751090,1080,1080,1080,1080,,,,,
59753589,1081,1081,1081,1081,,,,,
59756088,1081,1081,1081,1081,,,,,
59758587,1082,1082,1082,1082,,,,,
59761086,1083,1083,1083,1083,,,,,
59763585,1084,1084,1084,1084,,,,,
59766084,1084,1084,1084,1084,,,,,
59768583,1085,1085,1085,1085,,,,,
59771082,1086,1086,1086,1086,,,,,
59773581,1087,1087,1087,1087,,,,,
59776080,1087,1087,1087,1087,,,,,
59778579,1088,1088,1088,1088,,,,,
59781078,1089,1089,1089,1089,,,,,
59783577,1090,1090,1090,1090,,,,,
59786076,1090,1090,1090,1090,,,,,
59788575,1091,1091,1091,1091,,,,,
59791074,1092,1092,1092,1092,,,,,
59793573,1093,1093,1093,1093,,,,,
59796072,1093,1093,1093,1093,,,,,
59798571,1094,1094,1094,1094,,,,,
59801070,1095,1095,1095,1095,,,,,
59803569,1096,1096,1096,1096,,,,,
59806068,1096,1096,1096,1096,,,,,
59808567,1097,1097,1097,1097,,,,,
59811066,1098,1098,1098,1098,,,,,
59813565,1099,1099,1099,1099,,,,,
59816064,1099,1099,1099,1099,,,,,
59818563,1100,1100,1100,1100,,,,,
59821062,1101,1101,1101,1101,,,,,
59823561,1101,1101,1101,1101,,,,,
59826060,1102,1102,1102,1102,,,,,
59828559,1103,1103,1103,1103,,,,,
59831058,1104,1104,1104,1104,,,,,
59833557,1104,1104,1104,1104,,,,,
59836056,1105,1105,1105,1105,,,,,
59838555,1106,1106,1106,1106,,,,,
59841054,1107,1107,1107,1107,,,,,
59843553,1107,1107,1107,1107,,,,,
59846052,1108,1108,1108,1108,,,,,
59848551,1109,1109,1109,1109,,,,,
59851050,1110,1110,1110,1110,,,,,
59853549,1110,1110,1110,1110,,,,,
59856048,1111,1111,1111,1111,,,,,
59858547,1112,1112,1112,1112,,,,,
59861046,1113,1113,1113,1113,,,,,
59863545,1113,1113,1113,1113,,,,,
59866044,1114,1114,1114,1114,,,,,
59868543,1115,1115,1115,1115,,,,,
59871042,1116,1116,1116,1116,,,,,
59873541,1116,1116,1116,1116,,,,,
59876040,1117,1117,1117,1117,,,,,
59878539,1118,1118,1118,1118,,,,,
59881038,1119,1119,1119,1119,,,,,
59883537,1119,1119,1119,1119,,,,,
59886036,1120,1120,1120,1120,,,,,
59888535,1121,1121,1121,1121,,,,,
59891034,1122,1122,1122,1122,,,,,
59893533,1122,1122,1122,1122,,,,,
59896032,1123,1123,1123,1123,,,,,
59898531,1124,1124,1124,1124,,,,,
59901030,1125,1125,1125,1125,,,,,
59903529,1125,1125,1125,1125,,,,,
59906028,1126,1126,1126,1126,,,,,
59908527,1127,1127,1127,1127,,,,,
59911026,1128,1128,1128,1128,,,,,
59913525,1128,1128,1128,1128,,,,,
59916024,1129,1129,1129,1129,,,,,
59918523,1130,1130,1130,1130,,,,,
59921022,1131,1131,1131,1131,,,,,
59923521,1131,1131,1131,1131,,,,,
59926020,1132,1132,1132,1132,,,,,
59928519,1133,1133,1133,1133,,,,,
59931018,1134,1134,1134,1134,,,,,
59933517,1134,1134,1134,1134,,,,,
59936016,1135,1135,1135,1135,,,,,
59938515,1136,1136,1136,1136,,,,,
59941014,1137,1137,1137,1137,,,,,
59943513,1137,1137,1137,1137,,,,,
59946012,1138,1138,1138,1138,,,,,
59948511,1139,1139,1139,1139,,,,,
59951010,1140,1140,1140,1140,,,,,
59953509,1140,1140,1140,1140,,,,,
59956008,1141,1141,1141,1141,,,,,
59958507,1142,1142,1142,1142,,,,,
59961006,1143,1143,1143,1143,,,,,
59963505,1143,1143,1143,1143,,,,,
59966004,1144,1144,1144,1144,,,,,
59968503,1145,1145,1145,1145,,,,,
59971002,1146,1146,1146,1146,,,,,
59973501,1146,1146,1146,1146,,,,,
59976000,1147,1147,1147,1147,,,,,
59978499,1148,1148,1148,1148,,,,,
59980998,1149,1149,1149,1149,,,,,
59983497,1149,1149,1149,1149,,,,,
59985996,1150,1150,1150,1150,,,,,
59988495,1162,1153,1154,1162,,,,,
59990994,1170,1161,1162,1170,,,,,
59993493,1178,1169,1170,1178,,,,,
59995992,1185,1177,1178,1186,,,,,
59998491,1193,1185,1185,1193,,,,,
60000990,1200,1192,1193,1201,,,,,
60003489,1208,1200,1200,1208,,,,,
60005988,1215,1207,1208,1215,,,,,
60008487,1222,1214,1215,1222,,,,,
60010986,1229,1221,1222,1229,,,,,
60013485,1236,1228,1229,1236,,,,,
60015984,1243,1235,1236,1243,,,,,
60018483,1249,1242,1243,1249,,,,,
60020982,1256,1248,1249,1256,,,,,
60023481,1262,1255,1256,1263,,,,,
60025980,1269,1262,1262,1269,,,,,
60028479,1275,1268,1269,1275,,,,,
60030978,1282,1274,1275,1282,,,,,
60033477,1288,1281,1281,1288,,,,,
60035976,1294,1287,1288,1294,,,,,
60038475,1300,1293,1294,1300,,,,,
60040974,1306,1299,1300,1306,,,,,
60043473,1312,1305,1306,1312,,,,,
60045972,1318,1311,1312,1318,,,,,
60048471,1324,1317,1318,1324,,,,,
60050970,1329,1323,1323,1330,,,,,
60053469,1335,1328,1329,1335,,,,,
60055968,1341,1334,1335,1341,,,,,
60058467,1346,1340,1340,1346,,,,,
60060966,1352,1345,1346,1352,,,,,
60063465,1357,1351,1352,1357,,,,,
60065964,1363,1356,1357,1363,,,,,
60068463,1368,1362,1362,1368,,,,,
60070962,1374,1367,1368,1374,,,,,
60073461,1379,1373,1373,1379,,,,,
60075960,1384,1378,1378,1384,,,,,
60078459,1389,1383,1384,1390,,,,,
60080958,1395,1388,1389,1395,,,,,
60083457,1400,1393,1394,1400,,,,,
60085956,1405,1399,1399,1405,,,,,
60088455,1410,1404,1404,1410,,,,,
60090954,1415,1409,1409,1415,,,,,
60093453,1420,1414,1414,1420,,,,,
60095952,1425,1419,1419,1425,,,,,
60098451,1430,1424,1424,1430,,,,,
60100950,1434,1429,1429,1435,,,,,
60103449,1439,1433,1434,1440,,,,,
60105948,1444,1438,1439,1444,,,,,
60108447,1449,1443,1443,1449,,,,,
60110946,1454,1448,1448,1454,,,,,
60113445,1458,1452,1453,1459,,,,,
60115944,1463,1457,1458,1463,,,,,
60118443,1468,1462,1462,1468,,,,,
60120942,1472,1466,1467,1473,,,,,
60123441,1477,1471,1472,1477,,,,,
60125940,1481,1476,1476,1482,,,,,
60128439,1486,1480,1481,1486,,,,,
60130938,1490,1485,1485,1491,,,,,
60133437,1495,1489,1490,1495,,,,,
60135936,1499,1494,1494,1500,,,,,
60138435,1504,1498,1499,1504,,,,,
60140934,1508,1503,1503,1508,,,,,
60143433,1513,1507,1507,1513,,,,,
60145932,1517,1511,1512,1517,,,,,
60148431,1521,1516,1516,1521,,,,,
60150930,1525,1520,1520,1526,,,,,
60153429,1530,1524,1525,1530,,,,,
60155928,1534,1529,1529,1534,,,,,
60158427,1538,1533,1533,1538,,,,,
60160926,1542,1537,1537,1543,,,,,
60163425,1547,1541,1542,1547,,,,,
60165924,1551,1545,1546,1551,,,,,
60168423,1555,1550,1550,1555,,,,,
60170922,1559,1554,1554,1559,,,,,
60173421,1563,1558,1558,1563,,,,,
60175920,1567,1562,1562,1567,,,,,
60178419,1571,1566,1566,1571,,,,,
60180918,1575,1570,1571,1575,,,,,
60183417,1579,1574,1575,1579,,,,,
60185916,1583,1578,1579,1583,,,,,
60188415,1587,1582,1583,1587,,,,,
60190914,1591,1586,1587,1591,,,,,
60193413,1595,1590,1590,1595,,,,,
60195912,1599,1594,1594,1599,,,,,
60198411,1603,1598,1598,1603,,,,,
60200910,1607,1602,1602,1607,,,,,
60203409,1611,1606,1606,1611,,,,,
60205908,1615,1610,1610,1615,,,,,
60208407,1618,1613,1614,1618,,,,,
60210906,1622,1617,1618,1622,,,,,
60213405,1626,1621,1622,1626,,,,,
60215904,1630,1625,1625,1630,,,,,
60218403,1634,1629,1629,1634,,,,,
60220902,1637,1632,1633,1637,,,,,
60223401,1641,1636,1637,1641,,,,,
60225900,1645,1640,1640,1645,,,,,
60228399,1649,1643,1644,1648,,,,,
60230898,1652,1647,1648,1652,,,,,
60233397,1656,1651,1652,1656,,,,,
60235896,1660,1655,1655,1659,,,,,
60238395,1663,1658,1659,1663,,,,,
60240894,1667,1662,1663,1667,,,,,
60243393,1670,1665,1666,1670,,,,,
60245892,1674,1669,1670,1674,,,,,
60248391,1678,1673,1673,1677,,,,,
60250890,1681,1676,1677,1681,,,,,
60253389,1685,1680,1680,1685,,,,,
60255888,1688,1683,1684,1688,,,,,
60258387,1692,1687,1688,1692,,,,,
60260886,1695,1690,1691,1695,,,,,
60263385,1699,1694,1695,1699,,,,,
60265884,1702,1697,1698,1702,,,,,
60268383,1706,1701,1702,1706,,,,,
60270882,1709,1704,1705,1709,,,,,
60273381,1713,1708,1708,1713,,,,,
60275880,1716,1711,1712,1716,,,,,
60278379,1720,1715,1715,1720,,,,,
60280878,1723,1718,1719,1723,,,,,
60283377,1727,1722,1722,1726,,,,,
60285876,1730,1725,1726,1730,,,,,
60288375,1733,1728,1729,1733,,,,,
60290874,1737,1732,1732,1737,,,,,
60293373,1740,1735,1736,1740,,,,,
60295872,1743,1739,1739,1743,,,,,
60298371,1747,1742,1742,1747,,,,,
60300870,1750,1745,1746,1750,,,,,
60303369,1753,1749,1749,1753,,,,,
60305868,1757,1752,1752,1757,,,,,
60308367,1760,1755,1756,1760,,,,,
60310866,1763,1758,1759,1763,,,,,
60313365,1767,1762,1762,1767,,,,,
60315864,1770,1765,1765,1770,,,,,
60318363,1773,1768,1769,1773,,,,,
60320862,1776,1771,1772,1776,,,,,
60323361,1780,1775,1775,1780,,,,,
60325860,1783,1778,1778,1783,,,,,
60328359,1786,1781,1782,1786,,,,,
60330858,1789,1784,1785,1789,,,,,
60333357,1792,1788,1788,1792,,,,,
60335856,1796,1791,1791,1796,,,,,
60338355,1799,1794,1794,1799,,,,,
60340854,1802,1797,1798,1802,,,,,
60343353,1805,1800,1801,1805,,,,,
60345852,1808,1803,1804,1808,,,,,
60348351,1811,1806,1807,1811,,,,,
60350850,1814,1810,1810,1814,,,,,
60353349,1818,1813,1813,1817,,,,,
60355848,1821,1816,1816,1821,,,,,
60358347,1824,1819,1820,1824,,,,,
60360846,1827,1822,1823,1827,,,,,
60363345,1830,1825,1826,1830,,,,,
60365844,1833,1828,1829,1833,,,,,
60368343,1836,1831,1832,1836,,,,,
60370842,1839,1834,1835,1839,,,,,
60373341,1842,1837,1838,1842,,,,,
60375840,1845,1840,1841,1845,,,,,
60378339,1848,1843,1844,1848,,,,,
60380838,1851,1846,1847,1851,,,,,
60383337,1854,1849,1850,1854,,,,,
60385836,1858,1852,1853,1857,,,,,
60388335,1861,1855,1856,1860,,,,,
60390834,1864,1858,1859,1863,,,,,
60393333,1867,1861,1862,1866,,,,,
60395832,1870,1864,1865,1869,,,,,
60398331,1873,1867,1868,1872,,,,,
60400830,1875,1870,1871,1875,,,,,
60403329,1878,1873,1874,1878,,,,,
60405828,1881,1876,1877,1881,,,,,
60408327,1884,1879,1880,1884,,,,,
60410826,1887,1881,1882,1886,,,,,
60413325,1885,1880,1881,1885,,,,,
60415824,1884,1879,1880,1884,,,,,
60418323,1883,1878,1879,1883,,,,,
60420822,1882,1877,1878,1882,,,,,
60423321,1881,1876,1877,1880,,,,,
60425820,1880,1875,1876,1880,,,,,
60428319,1879,1874,1875,1879,,,,,
60430818,1878,1873,1874,1878,,,,,
60433317,1878,1872,1873,1877,,,,,
60435816,1877,1871,1872,1876,,,,,
60438315,1876,1871,1872,1876,,,,,
60440814,1876,1870,1871,1875,,,,,
60443313,1875,1870,1871,1875,,,,,
60445812,1875,1869,1870,1874,,,,,
60448311,1875,1869,1870,1874,,,,,
60450810,1874,1869,1870,1874,,,,,
60453309,1874,1869,1870,1874,,,,,
60455808,1874,1868,1869,1874,,,,,
60458307,1874,1868,1869,1874,,,,,
60460806,1874,1869,1869,1874,,,,,
60463305,1874,1869,1870,1874,,,,,
60465804,1874,1869,1870,1874,,,,,
60468303,1875,1869,1870,1874,,,,,
60470802,1875,1869,1870,1875,,,,,
60473301,1875,1870,1871,1875,,,,,
60475800,1876,1870,1871,1876,,,,,
60478299,1876,1871,1872,1876,,,,,
60480798,1877,1872,1872,1877,,,,,
60483297,1877,1872,1873,1877,,,,,
60485796,1878,1873,1873,1878,,,,,
60488295,1878,1873,1874,1878,,,,,
60490794,1879,1874,1875,1879,,,,,
60493293,1879,1874,1875,1879,,,,,
60495792,1879,1875,1875,1879,,,,,
60498291,1879,1875,1876,1879,,,,,
60500790,1879,1875,1876,1879,,,,,
60503289,1879,1875,1876,1879,,,,,
60505788,1879,1875,1875,1878,,,,,
60508287,1878,1874,1875,1878,,,,,
60510786,1877,1874,1874,1877,,,,,
60513285,1877,1873,1874,1877,,,,,
60515784,1876,1872,1873,1876,,,,,
60518283,1874,1871,1872,1874,,,,,
60520782,1873,1870,1870,1873,,,,,
60523281,1872,1869,1869,1872,,,,,
60525780,1870,1867,1867,1870,,,,,
60528279,1868,1865,1866,1868,,,,,
60530778,1867,1864,1864,1867,,,,,
60533277,1865,1862,1862,1865,,,,,
60535776,1862,1860,1860,1863,,,,,
60538275,1860,1857,1858,1860,,,,,
60540774,1858,1855,1855,1858,,,,,
60543273,1855,1853,1853,1856,,,,,
60545772,1853,1850,1851,1853,,,,,
60548271,1850,1848,1848,1851,,,,,
60550770,1848,1845,1845,1848,,,,,
60553269,1845,1842,1843,1845,,,,,
60555768,1842,1840,1840,1842,,,,,
60558267,1839,1837,1837,1840,,,,,
60560766,1836,1834,1834,1837,,,,,
60563265,1833,1831,1831,1834,,,,,
60565764,1830,1828,1828,1831,,,,,
60568263,1827,1825,1825,1827,,,,,
60570762,1824,1822,1822,1824,,,,,
60573261,1820,1819,1818,1821,,,,,
60575760,1817,1816,1815,1818,,,,,
60578259,1814,1812,1812,1814,,,,,
60580758,1810,1809,1809,1811,,,,,
60583257,1807,1806,1805,1808,,,,,
60585756,1804,1803,1802,1805,,,,,
60588255,1800,1799,1799,1801,,,,,
60590754,1797,1796,1795,1798,,,,,
60593253,1793,1793,1792,1794,,,,,
60595752,1790,1789,1789,1791,,,,,
60598251,1787,1786,1785,1788,,,,,
60600750,1783,1783,1782,1784,,,,,
60603249,1780,1779,1779,1781,,,,,
60605748,1776,1776,1775,1778,,,,,
60608247,1773,1773,1772,1774,,,,,
60610746,1770,1769,1769,1771,,,,,
60613245,1766,1766,1765,1767,,,,,
60615744,1763,1763,1762,1764,,,,,
60618243,1760,1759,1759,1760,,,,,
60620742,1756,1756,1756,1757,,,,,
60623241,1753,1753,1752,1754,,,,,
60625740,1750,1749,1749,1750,,,,,
60628239,1746,1746,1746,1747,,,,,
60630738,1743,1743,1743,1744,,,,,
60633237,1740,1740,1740,1741,,,,,
60635736,1737,1737,1736,1737,,,,,
60638235,1733,1733,1733,1734,,,,,
60640734,1730,1730,1730,1731,,,,,
60643233,1727,1727,1727,1728,,,,,
60645732,1724,1724,1724,1725,,,,,
60648231,1721,1721,1721,1722,,,,,
60650730,1718,1718,1718,1719,,,,,
60653229,1715,1715,1715,1715,,,,,
60655728,1712,1712,1712,1713,,,,,
60658227,1709,1709,1709,1710,,,,,
60660726,1706,1706,1707,1707,,,,,
60663225,1703,1704,1704,1704,,,,,
60665724,1701,1701,1701,1701,,,,,
60668223,1698,1698,1698,1698,,,,,
60670722,1695,1695,1696,1696,,,,,
60673221,1693,1693,1693,1693,,,,,
60675720,1690,1690,1690,1690,,,,,
