timestamp,TimeUS,C1,C2,C3,C4,C5,C6,C7,C8,C9,C10,C11,C12,C13,C14
1682940368.59999990,51628507,1000,1000,1000,1000,0,0,0,0,0,0,0,0,0,0
1682940368.69995999,51728467,1000,1000,1000,1000,0,0,0,0,0,0,0,0,0,0
1682940368.79992008,51828427,1000,1000,1000,1000,0,0,0,0,0,0,0,0,0,0
1682940368.89987993,51928387,1000,1000,1000,1000,0,0,0,0,0,0,0,0,0,0
1682940368.99984002,52028347,1000,1000,1000,1000,0,0,0,0,0,0,0,0,0,0
1682940369.09980011,52128307,1000,1000,1000,1000,0,0,0,0,0,0,0,0,0,0
1682940369.19975996,52228267,1000,1000,1000,1000,0,0,0,0,0,0,0,0,0,0
1682940369.29972005,52328227,1000,1000,1000,1000,0,0,0,0,0,0,0,0,0,0
1682940369.39967990,52428187,1000,1000,1000,1000,0,0,0,0,0,0,0,0,0,0
1682940369.50047302,52528980,1000,1000,1000,1000,0,0,0,0,0,0,0,0,0,0
1682940369.60043311,52628940,1000,1000,1000,1000,0,0,0,0,0,0,0,0,0,0
1682940369.70039296,52728900,1000,1000,1000,1000,0,0,0,0,0,0,0,0,0,0
1682940369.80035305,52828860,1000,1000,1000,1000,0,0,0,0,0,0,0,0,0,0
1682940369.90031290,52928820,1000,1000,1000,1000,0,0,0,0,0,0,0,0,0,0
1682940370.00027299,53028780,1000,1000,1000,1000,0,0,0,0,0,0,0,0,0,0
1682940370.10023308,53128740,1000,1000,1000,1000,0,0,0,0,0,0,0,0,0,0
1682940370.20019293,53228700,1000,1000,1000,1000,0,0,0,0,0,0,0,0,0,0
1682940370.30015302,53328660,1000,1000,1000,1000,0,0,0,0,0,0,0,0,0,0
1682940370.40011311,53428620,1000,1000,1000,1000,0,0,0,0,0,0,0,0,0,0
1682940370.50007296,53528580,1000,1000,1000,1000,0,0,0,0,0,0,0,0,0,0
1682940370.60003304,53628540,1003,1003,1003,1003,0,0,0,0,0,0,0,0,0,0
1682940370.69999290,53728500,1033,1033,1033,1033,0,0,0,0,0,0,0,0,0,0
1682940370.79995298,53828460,1063,1063,1063,1063,0,0,0,0,0,0,0,0,0,0
1682940370.89991307,53928420,1093,1093,1093,1093,0,0,0,0,0,0,0,0,0,0
1682940370.99987292,54028380,1123,1123,1123,1123,0,0,0,0,0,0,0,0,0,0
1682940371.09983301,54128340,1185,1177,1178,1186,0,0,0,0,0,0,0,0,0,0
1682940371.19979310,54228300,1425,1419,1419,1425,0,0,0,0,0,0,0,0,0,0
1682940371.29975295,54328260,1599,1594,1594,1599,0,0,0,0,0,0,0,0,0,0
1682940371.39971304,54428220,1743,1739,1739,1743,0,0,0,0,0,0,0,0,0,0
1682940371.49967289,54528180,1869,1865,1865,1870,0,0,0,0,0,0,0,0,0,0
1682940371.60046601,54628973,1889,1885,1885,1889,0,0,0,0,0,0,0,0,0,0
1682940371.70042610,54728933,1795,1794,1794,1795,0,0,0,0,0,0,0,0,0,0
1682940371.80038595,54828893,1679,1680,1680,1679,0,0,0,0,0,0,0,0,0,0
1682940371.90034604,54928853,1631,1633,1633,1631,0,0,0,0,0,0,0,0,0,0
1682940372.00030589,55028813,1631,1633,1633,1631,0,0,0,0,0,0,0,0,0,0
1682940372.10026598,55128773,1634,1634,1629,1639,0,0,0,0,0,0,0,0,0,0
1682940372.20022607,55228733,1634,1635,1629,1640,0,0,0,0,0,0,0,0,0,0
1682940372.30018592,55328693,1629,1630,1626,1632,0,0,0,0,0,0,0,0,0,0
1682940372.40014601,55428653,1624,1624,1624,1623,0,0,0,0,0,0,0,0,0,0
1682940372.50010610,55528613,1620,1620,1623,1617,0,0,0,0,0,0,0,0,0,0
1682940372.60006595,55628573,1619,1618,1623,1614,0,0,0,0,0,0,0,0,0,0
1682940372.70002604,55728533,1620,1619,1623,1616,0,0,0,0,0,0,0,0,0,0
1682940372.79998612,55828493,1617,1617,1620,1614,0,0,0,0,0,0,0,0,0,0
1682940372.89994597,55928453,1587,1587,1597,1578,0,0,0,0,0,0,0,0,0,0
1682940372.99990606,56028413,1573,1574,1580,1568,0,0,0,0,0,0,0,0,0,0
1682940373.09986591,56128373,1562,1563,1562,1563,0,0,0,0,0,0,0,0,0,0
1682940373.19982600,56228333,1553,1553,1548,1558,0,0,0,0,0,0,0,0,0,0
1682940373.29978609,56328293,1546,1545,1537,1555,0,0,0,0,0,0,0,0,0,0
1682940373.39974594,56428253,1540,1540,1531,1549,0,0,0,0,0,0,0,0,0,0
1682940373.49970603,56528213,1533,1532,1527,1538,0,0,0,0,0,0,0,0,0,0
1682940373.59966612,56628173,1528,1528,1526,1529,0,0,0,0,0,0,0,0,0,0
1682940373.70045900,56728966,1526,1526,1526,1525,0,0,0,0,0,0,0,0,0,0
1682940373.80041909,56828926,1527,1527,1528,1525,0,0,0,0,0,0,0,0,0,0
1682940373.90037894,56928886,1530,1530,1533,1527,0,0,0,0,0,0,0,0,0,0
1682940374.00033903,57028846,1533,1533,1536,1530,0,0,0,0,0,0,0,0,0,0
1682940374.10029912,57128806,1536,1536,1538,1534,0,0,0,0,0,0,0,0,0,0
1682940374.20025897,57228766,1540,1541,1542,1539,0,0,0,0,0,0,0,0,0,0
1682940374.30021906,57328726,1544,1544,1545,1543,0,0,0,0,0,0,0,0,0,0
1682940374.40017891,57428686,1547,1547,1547,1547,0,0,0,0,0,0,0,0,0,0
1682940374.50013900,57528646,1550,1550,1550,1550,0,0,0,0,0,0,0,0,0,0
1682940374.60009909,57628606,1552,1552,1552,1553,0,0,0,0,0,0,0,0,0,0
1682940374.70005894,57728566,1555,1554,1554,1557,0,0,0,0,0,0,0,0,0,0
1682940374.80001903,57828526,1556,1555,1559,1561,0,0,0,0,0,0,0,0,0,0
1682940374.89997911,57928486,1556,1557,1561,1563,0,0,0,0,0,0,0,0,0,0
1682940374.99993896,58028446,1559,1559,1564,1565,0,0,0,0,0,0,0,0,0,0
1682940375.09989905,58128406,1561,1561,1566,1565,0,0,0,0,0,0,0,0,0,0
1682940375.19985890,58228366,1563,1563,1566,1566,0,0,0,0,0,0,0,0,0,0
1682940375.29981899,58328326,1566,1566,1567,1567,0,0,0,0,0,0,0,0,0,0
1682940375.39977908,58428286,1567,1568,1567,1566,0,0,0,0,0,0,0,0,0,0
1682940375.49973893,58528246,1569,1569,1567,1567,0,0,0,0,0,0,0,0,0,0
1682940375.59969902,58628206,1571,1571,1567,1567,0,0,0,0,0,0,0,0,0,0
1682940375.69965911,58728166,1571,1571,1567,1568,0,0,0,0,0,0,0,0,0,0
1682940375.80045199,58828959,1573,1572,1568,1568,0,0,0,0,0,0,0,0,0,0
1682940375.90041208,58928919,1573,1573,1570,1569,0,0,0,0,0,0,0,0,0,0
1682940376.00037193,59028879,1572,1573,1569,1570,0,0,0,0,0,0,0,0,0,0
1682940376.10033202,59128839,1574,1574,1572,1572,0,0,0,0,0,0,0,0,0,0
1682940376.20029211,59228799,1575,1574,1574,1573,0,0,0,0,0,0,0,0,0,0
1682940376.30025196,59328759,1575,1575,1575,1573,0,0,0,0,0,0,0,0,0,0
1682940376.40021205,59428719,1574,1574,1575,1574,0,0,0,0,0,0,0,0,0,0
1682940376.50017190,59528679,1575,1575,1576,1575,0,0,0,0,0,0,0,0,0,0
1682940376.60013199,59628639,1575,1575,1576,1576,0,0,0,0,0,0,0,0,0,0
1682940376.70009208,59728599,1575,1575,1577,1576,0,0,0,0,0,0,0,0,0,0
1682940376.80005193,59828559,1576,1576,1577,1577,0,0,0,0,0,0,0,0,0,0
1682940376.90001202,59928519,1576,1576,1577,1578,0,0,0,0,0,0,0,0,0,0
1682940376.99997211,60028479,1576,1576,1576,1577,0,0,0,0,0,0,0,0,0,0
1682940377.09993196,60128439,1576,1575,1576,1576,0,0,0,0,0,0,0,0,0,0
1682940377.19989204,60228399,1576,1576,1576,1576,0,0,0,0,0,0,0,0,0,0
1682940377.29985189,60328359,1576,1577,1577,1577,0,0,0,0,0,0,0,0,0,0
1682940377.39981198,60428319,1577,1578,1578,1577,0,0,0,0,0,0,0,0,0,0
1682940377.49977207,60528279,1578,1578,1578,1577,0,0,0,0,0,0,0,0,0,0
1682940377.59973192,60628239,1579,1579,1578,1579,0,0,0,0,0,0,0,0,0,0
1682940377.69969201,60728199,1579,1579,1578,1579,0,0,0,0,0,0,0,0,0,0
1682940377.79965210,60828159,1579,1578,1578,1578,0,0,0,0,0,0,0,0,0,0
1682940377.90044498,60928952,1577,1578,1577,1577,0,0,0,0,0,0,0,0,0,0
1682940378.00040507,61028912,1578,1579,1578,1578,0,0,0,0,0,0,0,0,0,0
1682940378.10036492,61128872,1579,1579,1579,1579,0,0,0,0,0,0,0,0,0,0
1682940378.20032501,61228832,1578,1578,1578,1578,0,0,0,0,0,0,0,0,0,0
1682940378.30028510,61328792,1579,1578,1578,1579,0,0,0,0,0,0,0,0,0,0
1682940378.40024495,61428752,1578,1578,1578,1578,0,0,0,0,0,0,0,0,0,0
1682940378.50020504,61528712,1578,1578,1578,1578,0,0,0,0,0,0,0,0,0,0
1682940378.60016489,61628672,1578,1578,1578,1578,0,0,0,0,0,0,0,0,0,0
1682940378.70012498,61728632,1579,1579,1579,1580,0,0,0,0,0,0,0,0,0,0
1682940378.80008507,61828592,1578,1579,1579,1579,0,0,0,0,0,0,0,0,0,0
1682940378.90004492,61928552,1580,1579,1579,1580,0,0,0,0,0,0,0,0,0,0
1682940379.00000501,62028512,1579,1579,1579,1579,0,0,0,0,0,0,0,0,0,0
1682940379.09996510,62128472,1580,1580,1580,1580,0,0,0,0,0,0,0,0,0,0
1682940379.19992495,62228432,1580,1580,1580,1580,0,0,0,0,0,0,0,0,0,0
1682940379.29988503,62328392,1579,1580,1580,1580,0,0,0,0,0,0,0,0,0,0
1682940379.39984512,62428352,1580,1580,1580,1579,0,0,0,0,0,0,0,0,0,0
1682940379.49980497,62528312,1580,1579,1579,1580,0,0,0,0,0,0,0,0,0,0
1682940379.59976506,62628272,1580,1579,1579,1580,0,0,0,0,0,0,0,0,0,0
1682940379.69972491,62728232,1580,1580,1580,1580,0,0,0,0,0,0,0,0,0,0
1682940379.79968500,62828192,1580,1580,1580,1579,0,0,0,0,0,0,0,0,0,0
1682940379.90047812,62928985,1580,1581,1581,1580,0,0,0,0,0,0,0,0,0,0
1682940380.00043797,63028945,1580,1580,1580,1579,0,0,0,0,0,0,0,0,0,0
1682940380.10039806,63128905,1580,1580,1580,1580,0,0,0,0,0,0,0,0,0,0
1682940380.20035791,63228865,1580,1580,1580,1580,0,0,0,0,0,0,0,0,0,0
1682940380.30031800,63328825,1581,1580,1580,1581,0,0,0,0,0,0,0,0,0,0
1682940380.40027809,63428785,1581,1581,1581,1581,0,0,0,0,0,0,0,0,0,0
1682940380.50023794,63528745,1581,1580,1581,1581,0,0,0,0,0,0,0,0,0,0
1682940380.60019803,63628705,1581,1580,1580,1580,0,0,0,0,0,0,0,0,0,0
1682940380.70015812,63728665,1580,1580,1580,1580,0,0,0,0,0,0,0,0,0,0
1682940380.80011797,63828625,1581,1581,1581,1581,0,0,0,0,0,0,0,0,0,0
1682940380.90007806,63928585,1580,1580,1582,1578,0,0,0,0,0,0,0,0,0,0
1682940381.00003791,64028545,1580,1582,1588,1573,0,0,0,0,0,0,0,0,0,0
1682940381.09999800,64128505,1580,1582,1583,1573,0,0,0,0,0,0,0,0,0,0
1682940381.19995809,64228465,1578,1581,1575,1573,0,0,0,0,0,0,0,0,0,0
1682940381.29991794,64328425,1578,1580,1567,1572,0,0,0,0,0,0,0,0,0,0
1682940381.39987803,64428385,1576,1579,1559,1567,0,0,0,0,0,0,0,0,0,0
1682940381.49983811,64528345,1578,1578,1556,1562,0,0,0,0,0,0,0,0,0,0
1682940381.59979796,64628305,1578,1577,1555,1557,0,0,0,0,0,0,0,0,0,0
1682940381.69975805,64728265,1579,1578,1555,1555,0,0,0,0,0,0,0,0,0,0
1682940381.79971790,64828225,1579,1578,1556,1554,0,0,0,0,0,0,0,0,0,0
1682940381.89967799,64928185,1578,1578,1556,1554,0,0,0,0,0,0,0,0,0,0
1682940382.00047112,65028978,1577,1578,1556,1554,0,0,0,0,0,0,0,0,0,0
1682940382.10043097,65128938,1576,1577,1555,1554,0,0,0,0,0,0,0,0,0,0
1682940382.20039105,65228898,1574,1576,1553,1553,0,0,0,0,0,0,0,0,0,0
1682940382.30035090,65328858,1574,1576,1552,1553,0,0,0,0,0,0,0,0,0,0
1682940382.40031099,65428818,1576,1578,1552,1552,0,0,0,0,0,0,0,0,0,0
1682940382.50027108,65528778,1577,1578,1550,1550,0,0,0,0,0,0,0,0,0,0
1682940382.60023093,65628738,1579,1580,1548,1548,0,0,0,0,0,0,0,0,0,0
1682940382.70019102,65728698,1582,1582,1545,1545,0,0,0,0,0,0,0,0,0,0
1682940382.80015111,65828658,1584,1585,1542,1541,0,0,0,0,0,0,0,0,0,0
1682940382.90011096,65928618,1588,1588,1540,1539,0,0,0,0,0,0,0,0,0,0
1682940383.00007105,66028578,1590,1590,1536,1536,0,0,0,0,0,0,0,0,0,0
1682940383.10003090,66128538,1593,1593,1535,1536,0,0,0,0,0,0,0,0,0,0
1682940383.19999099,66228498,1594,1594,1534,1535,0,0,0,0,0,0,0,0,0,0
1682940383.29995108,66328458,1595,1595,1535,1537,0,0,0,0,0,0,0,0,0,0
1682940383.39991093,66428418,1593,1594,1536,1538,0,0,0,0,0,0,0,0,0,0
1682940383.49987102,66528378,1592,1591,1540,1543,0,0,0,0,0,0,0,0,0,0
1682940383.59983110,66628338,1588,1586,1546,1549,0,0,0,0,0,0,0,0,0,0
1682940383.69979095,66728298,1582,1579,1555,1558,0,0,0,0,0,0,0,0,0,0
1682940383.79975104,66828258,1573,1569,1566,1568,0,0,0,0,0,0,0,0,0,0
1682940383.89971089,66928218,1562,1558,1577,1579,0,0,0,0,0,0,0,0,0,0
1682940383.99967098,67028178,1551,1548,1590,1591,0,0,0,0,0,0,0,0,0,0
1682940384.10046411,67128971,1541,1539,1601,1601,0,0,0,0,0,0,0,0,0,0
1682940384.20042396,67228931,1532,1533,1609,1608,0,0,0,0,0,0,0,0,0,0
1682940384.30038404,67328891,1529,1530,1614,1613,0,0,0,0,0,0,0,0,0,0
1682940384.40034389,67428851,1529,1532,1616,1615,0,0,0,0,0,0,0,0,0,0
1682940384.50030398,67528811,1533,1535,1614,1614,0,0,0,0,0,0,0,0,0,0
1682940384.60026407,67628771,1539,1541,1608,1609,0,0,0,0,0,0,0,0,0,0
1682940384.70022392,67728731,1546,1548,1601,1602,0,0,0,0,0,0,0,0,0,0
1682940384.80018401,67828691,1555,1557,1594,1594,0,0,0,0,0,0,0,0,0,0
1682940384.90014410,67928651,1565,1565,1587,1586,0,0,0,0,0,0,0,0,0,0
1682940385.00010395,68028611,1573,1572,1580,1579,0,0,0,0,0,0,0,0,0,0
1682940385.10006404,68128571,1579,1578,1574,1573,0,0,0,0,0,0,0,0,0,0
1682940385.20002389,68228531,1585,1583,1570,1569,0,0,0,0,0,0,0,0,0,0
1682940385.29998398,68328491,1586,1585,1566,1566,0,0,0,0,0,0,0,0,0,0
1682940385.39994407,68428451,1587,1586,1565,1566,0,0,0,0,0,0,0,0,0,0
1682940385.49990392,68528411,1587,1586,1566,1567,0,0,0,0,0,0,0,0,0,0
1682940385.59986401,68628371,1586,1585,1569,1569,0,0,0,0,0,0,0,0,0,0
1682940385.69982409,68728331,1582,1582,1570,1571,0,0,0,0,0,0,0,0,0,0
1682940385.79978395,68828291,1579,1580,1574,1574,0,0,0,0,0,0,0,0,0,0
1682940385.89974403,68928251,1578,1579,1579,1578,0,0,0,0,0,0,0,0,0,0
1682940385.99970412,69028211,1576,1576,1581,1580,0,0,0,0,0,0,0,0,0,0
1682940386.09966397,69128171,1574,1574,1583,1582,0,0,0,0,0,0,0,0,0,0
1682940386.20045710,69228964,1573,1574,1584,1584,0,0,0,0,0,0,0,0,0,0
1682940386.30041695,69328924,1573,1574,1584,1584,0,0,0,0,0,0,0,0,0,0
1682940386.40037704,69428884,1573,1574,1584,1584,0,0,0,0,0,0,0,0,0,0
1682940386.50033712,69528844,1573,1574,1583,1583,0,0,0,0,0,0,0,0,0,0
1682940386.60029697,69628804,1575,1575,1582,1582,0,0,0,0,0,0,0,0,0,0
1682940386.70025706,69728764,1576,1576,1580,1580,0,0,0,0,0,0,0,0,0,0
1682940386.80021691,69828724,1577,1577,1579,1579,0,0,0,0,0,0,0,0,0,0
1682940386.90017700,69928684,1579,1579,1579,1579,0,0,0,0,0,0,0,0,0,0
1682940387.00013709,70028644,1579,1580,1577,1577,0,0,0,0,0,0,0,0,0,0
1682940387.10009694,70128604,1581,1580,1577,1577,0,0,0,0,0,0,0,0,0,0
1682940387.20005703,70228564,1604,1578,1599,1575,0,0,0,0,0,0,0,0,0,0
1682940387.30001712,70328524,1600,1580,1597,1575,0,0,0,0,0,0,0,0,0,0
1682940387.39997697,70428484,1597,1585,1593,1581,0,0,0,0,0,0,0,0,0,0
1682940387.49993706,70528444,1590,1587,1588,1585,0,0,0,0,0,0,0,0,0,0
1682940387.59989691,70628404,1583,1587,1582,1586,0,0,0,0,0,0,0,0,0,0
1682940387.69985700,70728364,1578,1585,1578,1586,0,0,0,0,0,0,0,0,0,0
1682940387.79981709,70828324,1576,1583,1577,1584,0,0,0,0,0,0,0,0,0,0
1682940387.89977694,70928284,1575,1580,1577,1582,0,0,0,0,0,0,0,0,0,0
1682940387.99973702,71028244,1576,1578,1579,1580,0,0,0,0,0,0,0,0,0,0
1682940388.09969711,71128204,1579,1578,1581,1580,0,0,0,0,0,0,0,0,0,0
1682940388.19965696,71228164,1581,1579,1582,1580,0,0,0,0,0,0,0,0,0,0
1682940388.30045009,71328957,1581,1578,1581,1579,0,0,0,0,0,0,0,0,0,0
1682940388.40040994,71428917,1581,1579,1581,1579,0,0,0,0,0,0,0,0,0,0
1682940388.50037003,71528877,1580,1580,1580,1580,0,0,0,0,0,0,0,0,0,0
1682940388.60033011,71628837,1580,1580,1579,1579,0,0,0,0,0,0,0,0,0,0
1682940388.70028996,71728797,1580,1581,1579,1580,0,0,0,0,0,0,0,0,0,0
1682940388.80025005,71828757,1580,1581,1578,1579,0,0,0,0,0,0,0,0,0,0
1682940388.90020990,71928717,1580,1580,1578,1578,0,0,0,0,0,0,0,0,0,0
1682940389.00016999,72028677,1580,1582,1585,1570,0,0,0,0,0,0,0,0,0,0
1682940389.10013008,72128637,1580,1583,1581,1569,0,0,0,0,0,0,0,0,0,0
1682940389.20008993,72228597,1579,1582,1573,1570,0,0,0,0,0,0,0,0,0,0
1682940389.30005002,72328557,1577,1580,1563,1568,0,0,0,0,0,0,0,0,0,0
1682940389.40001011,72428517,1577,1579,1557,1564,0,0,0,0,0,0,0,0,0,0
1682940389.49996996,72528477,1579,1578,1554,1560,0,0,0,0,0,0,0,0,0,0
1682940389.59993005,72628437,1579,1578,1552,1556,0,0,0,0,0,0,0,0,0,0
1682940389.69988990,72728397,1580,1579,1553,1554,0,0,0,0,0,0,0,0,0,0
1682940389.79984999,72828357,1580,1578,1553,1552,0,0,0,0,0,0,0,0,0,0
1682940389.89981008,72928317,1578,1578,1554,1551,0,0,0,0,0,0,0,0,0,0
1682940389.99976993,73028277,1576,1577,1553,1550,0,0,0,0,0,0,0,0,0,0
1682940390.09973001,73128237,1576,1578,1554,1553,0,0,0,0,0,0,0,0,0,0
1682940390.19969010,73228197,1576,1578,1553,1553,0,0,0,0,0,0,0,0,0,0
1682940390.29964995,73328157,1576,1577,1552,1552,0,0,0,0,0,0,0,0,0,0
1682940390.40044308,73428950,1577,1578,1551,1551,0,0,0,0,0,0,0,0,0,0
1682940390.50040293,73528910,1578,1579,1549,1549,0,0,0,0,0,0,0,0,0,0
1682940390.60036302,73628870,1579,1580,1548,1547,0,0,0,0,0,0,0,0,0,0
1682940390.70032310,73728830,1582,1583,1546,1546,0,0,0,0,0,0,0,0,0,0
1682940390.80028296,73828790,1584,1585,1544,1544,0,0,0,0,0,0,0,0,0,0
1682940390.90024304,73928750,1586,1586,1541,1542,0,0,0,0,0,0,0,0,0,0
1682940391.00020289,74028710,1589,1589,1541,1542,0,0,0,0,0,0,0,0,0,0
1682940391.10016298,74128670,1590,1591,1540,1541,0,0,0,0,0,0,0,0,0,0
1682940391.20012307,74228630,1592,1592,1540,1541,0,0,0,0,0,0,0,0,0,0
1682940391.30008292,74328590,1592,1592,1542,1543,0,0,0,0,0,0,0,0,0,0
1682940391.40004301,74428550,1590,1590,1544,1546,0,0,0,0,0,0,0,0,0,0
1682940391.50000310,74528510,1586,1584,1549,1552,0,0,0,0,0,0,0,0,0,0
1682940391.59996295,74628470,1582,1578,1557,1560,0,0,0,0,0,0,0,0,0,0
1682940391.69992304,74728430,1574,1570,1567,1569,0,0,0,0,0,0,0,0,0,0
1682940391.79988289,74828390,1566,1562,1578,1580,0,0,0,0,0,0,0,0,0,0
1682940391.89984298,74928350,1556,1552,1589,1589,0,0,0,0,0,0,0,0,0,0
1682940391.99980307,75028310,1546,1545,1598,1597,0,0,0,0,0,0,0,0,0,0
1682940392.09976292,75128270,1540,1540,1605,1604,0,0,0,0,0,0,0,0,0,0
1682940392.19972301,75228230,1536,1537,1608,1608,0,0,0,0,0,0,0,0,0,0
1682940392.29968309,75328190,1535,1538,1610,1609,0,0,0,0,0,0,0,0,0,0
1682940392.40047598,75428983,1539,1541,1608,1608,0,0,0,0,0,0,0,0,0,0
1682940392.50043607,75528943,1543,1545,1604,1604,0,0,0,0,0,0,0,0,0,0
1682940392.60039592,75628903,1551,1552,1600,1599,0,0,0,0,0,0,0,0,0,0
1682940392.70035601,75728863,1559,1559,1595,1593,0,0,0,0,0,0,0,0,0,0
1682940392.80031610,75828823,1566,1566,1588,1587,0,0,0,0,0,0,0,0,0,0
1682940392.90027595,75928783,1573,1573,1582,1582,0,0,0,0,0,0,0,0,0,0
1682940393.00023603,76028743,1578,1578,1576,1576,0,0,0,0,0,0,0,0,0,0
1682940393.10019612,76128703,1582,1582,1572,1572,0,0,0,0,0,0,0,0,0,0
1682940393.20015597,76228663,1585,1584,1570,1570,0,0,0,0,0,0,0,0,0,0
1682940393.30011606,76328623,1586,1584,1568,1569,0,0,0,0,0,0,0,0,0,0
1682940393.40007591,76428583,1586,1585,1569,1570,0,0,0,0,0,0,0,0,0,0
1682940393.50003600,76528543,1585,1584,1570,1571,0,0,0,0,0,0,0,0,0,0
1682940393.59999609,76628503,1582,1581,1572,1572,0,0,0,0,0,0,0,0,0,0
1682940393.69995594,76728463,1580,1580,1575,1574,0,0,0,0,0,0,0,0,0,0
1682940393.79991603,76828423,1578,1578,1577,1577,0,0,0,0,0,0,0,0,0,0
1682940393.89987612,76928383,1576,1577,1580,1580,0,0,0,0,0,0,0,0,0,0
1682940393.99983597,77028343,1575,1575,1582,1582,0,0,0,0,0,0,0,0,0,0
1682940394.09979606,77128303,1575,1575,1583,1583,0,0,0,0,0,0,0,0,0,0
1682940394.19975591,77228263,1574,1574,1584,1584,0,0,0,0,0,0,0,0,0,0
1682940394.29971600,77328223,1574,1574,1584,1583,0,0,0,0,0,0,0,0,0,0
1682940394.39967608,77428183,1573,1574,1582,1582,0,0,0,0,0,0,0,0,0,0
1682940394.50046897,77528976,1575,1576,1582,1582,0,0,0,0,0,0,0,0,0,0
1682940394.60042906,77628936,1577,1577,1581,1581,0,0,0,0,0,0,0,0,0,0
1682940394.70038891,77728896,1578,1578,1580,1580,0,0,0,0,0,0,0,0,0,0
1682940394.80034900,77828856,1579,1579,1580,1579,0,0,0,0,0,0,0,0,0,0
1682940394.90030909,77928816,1579,1579,1578,1578,0,0,0,0,0,0,0,0,0,0
1682940395.00026894,78028776,1581,1580,1578,1578,0,0,0,0,0,0,0,0,0,0
1682940395.10022902,78128736,1580,1580,1577,1577,0,0,0,0,0,0,0,0,0,0
1682940395.20018911,78228696,1581,1581,1577,1578,0,0,0,0,0,0,0,0,0,0
1682940395.30014896,78328656,1582,1582,1579,1579,0,0,0,0,0,0,0,0,0,0
1682940395.40010905,78428616,1581,1581,1579,1579,0,0,0,0,0,0,0,0,0,0
1682940395.50006890,78528576,1582,1582,1580,1580,0,0,0,0,0,0,0,0,0,0
1682940395.60002899,78628536,1581,1581,1580,1580,0,0,0,0,0,0,0,0,0,0
1682940395.69998908,78728496,1581,1581,1580,1580,0,0,0,0,0,0,0,0,0,0
1682940395.79994893,78828456,1581,1581,1581,1581,0,0,0,0,0,0,0,0,0,0
1682940395.89990902,78928416,1581,1581,1582,1582,0,0,0,0,0,0,0,0,0,0
1682940395.99986911,79028376,1580,1581,1582,1581,0,0,0,0,0,0,0,0,0,0
1682940396.09982896,79128336,1580,1580,1581,1581,0,0,0,0,0,0,0,0,0,0
1682940396.19978905,79228296,1580,1580,1581,1581,0,0,0,0,0,0,0,0,0,0
1682940396.29974890,79328256,1581,1581,1582,1582,0,0,0,0,0,0,0,0,0,0
1682940396.39970899,79428216,1580,1580,1581,1581,0,0,0,0,0,0,0,0,0,0
1682940396.49966908,79528176,1581,1581,1581,1581,0,0,0,0,0,0,0,0,0,0
1682940396.60046196,79628969,1580,1580,1581,1581,0,0,0,0,0,0,0,0,0,0
1682940396.70042205,79728929,1581,1580,1580,1581,0,0,0,0,0,0,0,0,0,0
1682940396.80038190,79828889,1582,1581,1581,1581,0,0,0,0,0,0,0,0,0,0
1682940396.90034199,79928849,1581,1581,1581,1580,0,0,0,0,0,0,0,0,0,0
1682940397.00030208,80028809,1581,1582,1581,1581,0,0,0,0,0,0,0,0,0,0
1682940397.10026193,80128769,1581,1582,1582,1581,0,0,0,0,0,0,0,0,0,0
1682940397.20022202,80228729,1580,1583,1588,1573,0,0,0,0,0,0,0,0,0,0
1682940397.30018210,80328689,1579,1582,1583,1572,0,0,0,0,0,0,0,0,0,0
1682940397.40014195,80428649,1578,1581,1574,1572,0,0,0,0,0,0,0,0,0,0
1682940397.50010204,80528609,1577,1580,1566,1570,0,0,0,0,0,0,0,0,0,0
1682940397.60006189,80628569,1577,1579,1559,1567,0,0,0,0,0,0,0,0,0,0
1682940397.70002198,80728529,1578,1578,1555,1562,0,0,0,0,0,0,0,0,0,0
1682940397.79998207,80828489,1579,1578,1554,1557,0,0,0,0,0,0,0,0,0,0
1682940397.89994192,80928449,1580,1578,1554,1555,0,0,0,0,0,0,0,0,0,0
1682940397.99990201,81028409,1580,1579,1556,1553,0,0,0,0,0,0,0,0,0,0
1682940398.09986210,81128369,1579,1579,1556,1554,0,0,0,0,0,0,0,0,0,0
1682940398.19982195,81228329,1577,1578,1556,1553,0,0,0,0,0,0,0,0,0,0
1682940398.29978204,81328289,1576,1578,1555,1554,0,0,0,0,0,0,0,0,0,0
1682940398.39974189,81428249,1576,1577,1555,1555,0,0,0,0,0,0,0,0,0,0
1682940398.49970198,81528209,1576,1577,1554,1554,0,0,0,0,0,0,0,0,0,0
1682940398.59966207,81628169,1576,1577,1553,1553,0,0,0,0,0,0,0,0,0,0
1682940398.70045495,81728962,1577,1577,1551,1551,0,0,0,0,0,0,0,0,0,0
1682940398.80041504,81828922,1578,1579,1548,1548,0,0,0,0,0,0,0,0,0,0
1682940398.90037489,81928882,1580,1581,1545,1546,0,0,0,0,0,0,0,0,0,0
1682940399.00033498,82028842,1582,1584,1543,1543,0,0,0,0,0,0,0,0,0,0
1682940399.10029507,82128802,1586,1586,1541,1541,0,0,0,0,0,0,0,0,0,0
1682940399.20025492,82228762,1588,1588,1539,1539,0,0,0,0,0,0,0,0,0,0
1682940399.30021501,82328722,1591,1591,1538,1538,0,0,0,0,0,0,0,0,0,0
1682940399.40017509,82428682,1591,1592,1536,1537,0,0,0,0,0,0,0,0,0,0
1682940399.50013494,82528642,1593,1593,1537,1538,0,0,0,0,0,0,0,0,0,0
1682940399.60009503,82628602,1593,1593,1538,1541,0,0,0,0,0,0,0,0,0,0
1682940399.70005512,82728562,1591,1589,1542,1544,0,0,0,0,0,0,0,0,0,0
1682940399.80001497,82828522,1586,1584,1547,1549,0,0,0,0,0,0,0,0,0,0
1682940399.89997506,82928482,1581,1577,1556,1559,0,0,0,0,0,0,0,0,0,0
1682940399.99993491,83028442,1573,1569,1566,1569,0,0,0,0,0,0,0,0,0,0
1682940400.09989500,83128402,1563,1558,1578,1579,0,0,0,0,0,0,0,0,0,0
1682940400.19985509,83228362,1553,1550,1590,1591,0,0,0,0,0,0,0,0,0,0
1682940400.29981494,83328322,1543,1542,1600,1600,0,0,0,0,0,0,0,0,0,0
1682940400.39977503,83428282,1537,1537,1608,1607,0,0,0,0,0,0,0,0,0,0
1682940400.49973512,83528242,1533,1534,1612,1611,0,0,0,0,0,0,0,0,0,0
1682940400.59969497,83628202,1534,1535,1613,1612,0,0,0,0,0,0,0,0,0,0
1682940400.69965506,83728162,1537,1539,1611,1611,0,0,0,0,0,0,0,0,0,0
1682940400.80044794,83828955,1541,1544,1606,1606,0,0,0,0,0,0,0,0,0,0
1682940400.90040803,83928915,1549,1550,1600,1600,0,0,0,0,0,0,0,0,0,0
1682940401.00036812,84028875,1558,1558,1594,1594,0,0,0,0,0,0,0,0,0,0
1682940401.10032797,84128835,1566,1566,1587,1587,0,0,0,0,0,0,0,0,0,0
1682940401.20028806,84228795,1573,1573,1581,1580,0,0,0,0,0,0,0,0,0,0
1682940401.30024791,84328755,1580,1579,1576,1575,0,0,0,0,0,0,0,0,0,0
1682940401.40020800,84428715,1583,1582,1571,1571,0,0,0,0,0,0,0,0,0,0
1682940401.50016809,84528675,1586,1584,1567,1568,0,0,0,0,0,0,0,0,0,0
1682940401.60012794,84628635,1586,1585,1566,1566,0,0,0,0,0,0,0,0,0,0
1682940401.70008802,84728595,1586,1584,1567,1568,0,0,0,0,0,0,0,0,0,0
1682940401.80004811,84828555,1585,1584,1570,1570,0,0,0,0,0,0,0,0,0,0
1682940401.90000796,84928515,1582,1582,1571,1571,0,0,0,0,0,0,0,0,0,0
1682940401.99996805,85028475,1580,1580,1574,1574,0,0,0,0,0,0,0,0,0,0
1682940402.09992790,85128435,1577,1577,1577,1576,0,0,0,0,0,0,0,0,0,0
1682940402.19988799,85228395,1575,1575,1579,1579,0,0,0,0,0,0,0,0,0,0
1682940402.29984808,85328355,1573,1573,1581,1580,0,0,0,0,0,0,0,0,0,0
1682940402.39980793,85428315,1573,1573,1582,1582,0,0,0,0,0,0,0,0,0,0
1682940402.49976802,85528275,1573,1573,1584,1583,0,0,0,0,0,0,0,0,0,0
1682940402.59972811,85628235,1573,1573,1583,1583,0,0,0,0,0,0,0,0,0,0
1682940402.69968796,85728195,1573,1573,1582,1582,0,0,0,0,0,0,0,0,0,0
1682940402.79964805,85828155,1574,1575,1582,1582,0,0,0,0,0,0,0,0,0,0
1682940402.90044093,85928948,1575,1575,1580,1580,0,0,0,0,0,0,0,0,0,0
1682940403.00040102,86028908,1576,1576,1578,1579,0,0,0,0,0,0,0,0,0,0
1682940403.10036111,86128868,1578,1578,1578,1579,0,0,0,0,0,0,0,0,0,0
1682940403.20032096,86228828,1580,1580,1579,1579,0,0,0,0,0,0,0,0,0,0
1682940403.30028105,86328788,1581,1581,1578,1578,0,0,0,0,0,0,0,0,0,0
1682940403.40024090,86428748,1582,1581,1578,1578,0,0,0,0,0,0,0,0,0,0
1682940403.50020099,86528708,1582,1581,1578,1578,0,0,0,0,0,0,0,0,0,0
1682940403.60016108,86628668,1582,1581,1578,1578,0,0,0,0,0,0,0,0,0,0
1682940403.70012093,86728628,1581,1582,1578,1578,0,0,0,0,0,0,0,0,0,0
1682940403.80008101,86828588,1581,1581,1579,1579,0,0,0,0,0,0,0,0,0,0
1682940403.90004110,86928548,1580,1580,1578,1578,0,0,0,0,0,0,0,0,0,0
1682940404.00000095,87028508,1580,1580,1580,1580,0,0,0,0,0,0,0,0,0,0
1682940404.09996104,87128468,1580,1580,1580,1581,0,0,0,0,0,0,0,0,0,0
1682940404.19992089,87228428,1579,1579,1580,1580,0,0,0,0,0,0,0,0,0,0
1682940404.29988098,87328388,1579,1579,1581,1580,0,0,0,0,0,0,0,0,0,0
1682940404.39984107,87428348,1580,1580,1581,1581,0,0,0,0,0,0,0,0,0,0
1682940404.49980092,87528308,1580,1580,1582,1582,0,0,0,0,0,0,0,0,0,0
1682940404.59976101,87628268,1579,1580,1580,1581,0,0,0,0,0,0,0,0,0,0
1682940404.69972110,87728228,1580,1580,1581,1581,0,0,0,0,0,0,0,0,0,0
1682940404.79968095,87828188,1580,1579,1580,1580,0,0,0,0,0,0,0,0,0,0
1682940404.90047407,87928981,1580,1581,1580,1581,0,0,0,0,0,0,0,0,0,0
1682940405.00043392,88028941,1581,1582,1582,1581,0,0,0,0,0,0,0,0,0,0
1682940405.10039401,88128901,1581,1582,1586,1575,0,0,0,0,0,0,0,0,0,0
1682940405.20035410,88228861,1581,1582,1587,1572,0,0,0,0,0,0,0,0,0,0
1682940405.30031395,88328821,1580,1580,1581,1575,0,0,0,0,0,0,0,0,0,0
1682940405.40027404,88428781,1577,1577,1574,1576,0,0,0,0,0,0,0,0,0,0
1682940405.50023389,88528741,1573,1572,1568,1575,0,0,0,0,0,0,0,0,0,0
1682940405.60019398,88628701,1570,1570,1565,1573,0,0,0,0,0,0,0,0,0,0
1682940405.70015407,88728661,1568,1568,1565,1570,0,0,0,0,0,0,0,0,0,0
1682940405.80011392,88828621,1567,1567,1566,1568,0,0,0,0,0,0,0,0,0,0
1682940405.90007401,88928581,1565,1566,1566,1565,0,0,0,0,0,0,0,0,0,0
1682940406.00003409,89028541,1565,1566,1568,1564,0,0,0,0,0,0,0,0,0,0
1682940406.09999394,89128501,1565,1565,1567,1565,0,0,0,0,0,0,0,0,0,0
1682940406.19995403,89228461,1564,1564,1566,1564,0,0,0,0,0,0,0,0,0,0
1682940406.29991412,89328421,1564,1563,1565,1563,0,0,0,0,0,0,0,0,0,0
1682940406.39987397,89428381,1563,1563,1564,1563,0,0,0,0,0,0,0,0,0,0
1682940406.49983406,89528341,1562,1563,1564,1563,0,0,0,0,0,0,0,0,0,0
1682940406.59979391,89628301,1562,1562,1563,1562,0,0,0,0,0,0,0,0,0,0
1682940406.69975400,89728261,1562,1562,1562,1563,0,0,0,0,0,0,0,0,0,0
1682940406.79971409,89828221,1562,1562,1562,1562,0,0,0,0,0,0,0,0,0,0
1682940406.89967394,89928181,1560,1561,1561,1561,0,0,0,0,0,0,0,0,0,0
1682940407.00046706,90028974,1559,1559,1559,1559,0,0,0,0,0,0,0,0,0,0
1682940407.10042691,90128934,1558,1557,1558,1557,0,0,0,0,0,0,0,0,0,0
1682940407.20038700,90228894,1557,1557,1557,1556,0,0,0,0,0,0,0,0,0,0
1682940407.30034709,90328854,1558,1558,1558,1557,0,0,0,0,0,0,0,0,0,0
1682940407.40030694,90428814,1557,1558,1558,1557,0,0,0,0,0,0,0,0,0,0
1682940407.50026703,90528774,1558,1558,1559,1557,0,0,0,0,0,0,0,0,0,0
1682940407.60022712,90628734,1557,1557,1558,1556,0,0,0,0,0,0,0,0,0,0
1682940407.70018697,90728694,1558,1558,1559,1557,0,0,0,0,0,0,0,0,0,0
1682940407.80014706,90828654,1558,1557,1559,1556,0,0,0,0,0,0,0,0,0,0
1682940407.90010691,90928614,1558,1558,1559,1558,0,0,0,0,0,0,0,0,0,0
1682940408.00006700,91028574,1559,1560,1558,1561,0,0,0,0,0,0,0,0,0,0
1682940408.10002708,91128534,1560,1560,1557,1564,0,0,0,0,0,0,0,0,0,0
1682940408.19998693,91228494,1561,1561,1557,1564,0,0,0,0,0,0,0,0,0,0
1682940408.29994702,91328454,1561,1561,1559,1564,0,0,0,0,0,0,0,0,0,0
1682940408.39990711,91428414,1561,1561,1561,1562,0,0,0,0,0,0,0,0,0,0
1682940408.49986696,91528374,1561,1561,1562,1560,0,0,0,0,0,0,0,0,0,0
1682940408.59982705,91628334,1559,1559,1561,1557,0,0,0,0,0,0,0,0,0,0
1682940408.69978690,91728294,1559,1559,1557,1560,0,0,0,0,0,0,0,0,0,0
1682940408.79974699,91828254,1557,1557,1555,1559,0,0,0,0,0,0,0,0,0,0
1682940408.89970708,91928214,1552,1552,1551,1553,0,0,0,0,0,0,0,0,0,0
1682940408.99966693,92028174,1547,1546,1546,1547,0,0,0,0,0,0,0,0,0,0
1682940409.10046005,92128967,1541,1541,1541,1541,0,0,0,0,0,0,0,0,0,0
1682940409.20041990,92228927,1534,1534,1534,1533,0,0,0,0,0,0,0,0,0,0
1682940409.30037999,92328887,1527,1527,1528,1527,0,0,0,0,0,0,0,0,0,0
1682940409.40034008,92428847,1521,1521,1522,1521,0,0,0,0,0,0,0,0,0,0
1682940409.50029993,92528807,1520,1519,1520,1520,0,0,0,0,0,0,0,0,0,0
1682940409.60026002,92628767,1520,1521,1520,1521,0,0,0,0,0,0,0,0,0,0
1682940409.70022011,92728727,1522,1522,1522,1522,0,0,0,0,0,0,0,0,0,0
1682940409.80017996,92828687,1524,1525,1525,1525,0,0,0,0,0,0,0,0,0,0
1682940409.90014005,92928647,1529,1529,1529,1529,0,0,0,0,0,0,0,0,0,0
1682940410.00009990,93028607,1534,1534,1534,1534,0,0,0,0,0,0,0,0,0,0
1682940410.10005999,93128567,1538,1538,1538,1538,0,0,0,0,0,0,0,0,0,0
1682940410.20002007,93228527,1540,1541,1540,1541,0,0,0,0,0,0,0,0,0,0
1682940410.29997993,93328487,1542,1542,1542,1542,0,0,0,0,0,0,0,0,0,0
1682940410.39994001,93428447,1544,1544,1545,1544,0,0,0,0,0,0,0,0,0,0
1682940410.49990010,93528407,1546,1545,1546,1545,0,0,0,0,0,0,0,0,0,0
1682940410.59985995,93628367,1545,1546,1546,1545,0,0,0,0,0,0,0,0,0,0
1682940410.69982004,93728327,1546,1546,1546,1546,0,0,0,0,0,0,0,0,0,0
1682940410.79977989,93828287,1546,1545,1546,1545,0,0,0,0,0,0,0,0,0,0
1682940410.89973998,93928247,1546,1546,1546,1546,0,0,0,0,0,0,0,0,0,0
1682940410.99970007,94028207,1546,1546,1546,1546,0,0,0,0,0,0,0,0,0,0
1682940411.09965992,94128167,1545,1546,1546,1546,0,0,0,0,0,0,0,0,0,0
1682940411.20045304,94228960,1546,1546,1546,1546,0,0,0,0,0,0,0,0,0,0
1682940411.30041289,94328920,1545,1546,1545,1545,0,0,0,0,0,0,0,0,0,0
1682940411.40037298,94428880,1546,1546,1546,1545,0,0,0,0,0,0,0,0,0,0
1682940411.50033307,94528840,1546,1545,1546,1545,0,0,0,0,0,0,0,0,0,0
1682940411.60029292,94628800,1546,1545,1546,1545,0,0,0,0,0,0,0,0,0,0
1682940411.70025301,94728760,1545,1545,1545,1545,0,0,0,0,0,0,0,0,0,0
1682940411.80021310,94828720,1544,1545,1545,1545,0,0,0,0,0,0,0,0,0,0
1682940411.90017295,94928680,1545,1545,1545,1545,0,0,0,0,0,0,0,0,0,0
1682940412.00013304,95028640,1544,1545,1544,1544,0,0,0,0,0,0,0,0,0,0
1682940412.10009289,95128600,1544,1544,1544,1544,0,0,0,0,0,0,0,0,0,0
1682940412.20005298,95228560,1544,1544,1544,1544,0,0,0,0,0,0,0,0,0,0
1682940412.30001307,95328520,1544,1544,1544,1544,0,0,0,0,0,0,0,0,0,0
1682940412.39997292,95428480,1544,1544,1544,1544,0,0,0,0,0,0,0,0,0,0
1682940412.49993300,95528440,1544,1544,1544,1544,0,0,0,0,0,0,0,0,0,0
1682940412.59989309,95628400,1545,1545,1545,1545,0,0,0,0,0,0,0,0,0,0
1682940412.69985294,95728360,1543,1543,1543,1543,0,0,0,0,0,0,0,0,0,0
1682940412.79981303,95828320,1544,1545,1544,1544,0,0,0,0,0,0,0,0,0,0
1682940412.89977312,95928280,1544,1544,1544,1544,0,0,0,0,0,0,0,0,0,0
1682940412.99973297,96028240,1545,1544,1545,1544,0,0,0,0,0,0,0,0,0,0
1682940413.09969306,96128200,1544,1543,1544,1544,0,0,0,0,0,0,0,0,0,0
1682940413.19965291,96228160,1544,1544,1544,1543,0,0,0,0,0,0,0,0,0,0
1682940413.30044603,96328953,1544,1544,1543,1544,0,0,0,0,0,0,0,0,0,0
1682940413.40040612,96428913,1544,1545,1545,1544,0,0,0,0,0,0,0,0,0,0
1682940413.50036597,96528873,1544,1544,1544,1544,0,0,0,0,0,0,0,0,0,0
1682940413.60032606,96628833,1544,1544,1544,1544,0,0,0,0,0,0,0,0,0,0
1682940413.70028591,96728793,1544,1544,1544,1544,0,0,0,0,0,0,0,0,0,0
1682940413.80024600,96828753,1544,1544,1544,1544,0,0,0,0,0,0,0,0,0,0
1682940413.90020609,96928713,1543,1543,1543,1544,0,0,0,0,0,0,0,0,0,0
1682940414.00016594,97028673,1543,1543,1543,1543,0,0,0,0,0,0,0,0,0,0
1682940414.10012603,97128633,1544,1544,1544,1544,0,0,0,0,0,0,0,0,0,0
1682940414.20008612,97228593,1544,1545,1545,1544,0,0,0,0,0,0,0,0,0,0
1682940414.30004597,97328553,1544,1544,1544,1544,0,0,0,0,0,0,0,0,0,0
1682940414.40000606,97428513,1545,1544,1544,1544,0,0,0,0,0,0,0,0,0,0
1682940414.49996591,97528473,1544,1544,1544,1544,0,0,0,0,0,0,0,0,0,0
1682940414.59992599,97628433,1544,1545,1544,1545,0,0,0,0,0,0,0,0,0,0
1682940414.69988608,97728393,1545,1544,1544,1545,0,0,0,0,0,0,0,0,0,0
1682940414.79984593,97828353,1544,1544,1544,1544,0,0,0,0,0,0,0,0,0,0
1682940414.89980602,97928313,1544,1544,1544,1544,0,0,0,0,0,0,0,0,0,0
1682940414.99976611,98028273,1544,1544,1545,1544,0,0,0,0,0,0,0,0,0,0
1682940415.09972596,98128233,1544,1544,1544,1545,0,0,0,0,0,0,0,0,0,0
1682940415.19968605,98228193,1544,1544,1545,1544,0,0,0,0,0,0,0,0,0,0
1682940415.30047894,98328986,1545,1545,1545,1545,0,0,0,0,0,0,0,0,0,0
1682940415.40043902,98428946,1545,1544,1545,1544,0,0,0,0,0,0,0,0,0,0
1682940415.50039911,98528906,1545,1545,1545,1545,0,0,0,0,0,0,0,0,0,0
1682940415.60035896,98628866,1544,1544,1544,1544,0,0,0,0,0,0,0,0,0,0
1682940415.70031905,98728826,1544,1544,1544,1544,0,0,0,0,0,0,0,0,0,0
1682940415.80027890,98828786,1544,1544,1544,1544,0,0,0,0,0,0,0,0,0,0
1682940415.90023899,98928746,1544,1544,1544,1544,0,0,0,0,0,0,0,0,0,0
1682940416.00019908,99028706,1543,1543,1543,1543,0,0,0,0,0,0,0,0,0,0
1682940416.10015893,99128666,1544,1544,1544,1544,0,0,0,0,0,0,0,0,0,0
1682940416.20011902,99228626,1544,1545,1544,1544,0,0,0,0,0,0,0,0,0,0
1682940416.30007911,99328586,1544,1544,1544,1544,0,0,0,0,0,0,0,0,0,0
1682940416.40003896,99428546,1543,1543,1543,1543,0,0,0,0,0,0,0,0,0,0
1682940416.49999905,99528506,1544,1544,1544,1544,0,0,0,0,0,0,0,0,0,0
1682940416.59995890,99628466,1544,1544,1544,1543,0,0,0,0,0,0,0,0,0,0
1682940416.69991899,99728426,1544,1544,1544,1544,0,0,0,0,0,0,0,0,0,0
1682940416.79987907,99828386,1544,1543,1544,1543,0,0,0,0,0,0,0,0,0,0
1682940416.89983892,99928346,1543,1543,1543,1543,0,0,0,0,0,0,0,0,0,0
1682940416.99979901,100028306,1544,1543,1544,1544,0,0,0,0,0,0,0,0,0,0
1682940417.09975910,100128266,1544,1544,1543,1544,0,0,0,0,0,0,0,0,0,0
1682940417.19971895,100228226,1545,1544,1544,1545,0,0,0,0,0,0,0,0,0,0
1682940417.29967904,100328186,1544,1544,1544,1544,0,0,0,0,0,0,0,0,0,0
1682940417.40047193,100428979,1544,1544,1544,1544,0,0,0,0,0,0,0,0,0,0
1682940417.50043201,100528939,1544,1544,1544,1544,0,0,0,0,0,0,0,0,0,0
1682940417.60039210,100628899,1543,1544,1543,1544,0,0,0,0,0,0,0,0,0,0
1682940417.70035195,100728859,1544,1544,1544,1544,0,0,0,0,0,0,0,0,0,0
1682940417.80031204,100828819,1544,1544,1544,1544,0,0,0,0,0,0,0,0,0,0
1682940417.90027189,100928779,1544,1544,1544,1544,0,0,0,0,0,0,0,0,0,0
1682940418.00023198,101028739,1544,1544,1544,1544,0,0,0,0,0,0,0,0,0,0
1682940418.10019207,101128699,1545,1545,1545,1545,0,0,0,0,0,0,0,0,0,0
1682940418.20015192,101228659,1544,1544,1544,1544,0,0,0,0,0,0,0,0,0,0
1682940418.30011201,101328619,1544,1544,1544,1545,0,0,0,0,0,0,0,0,0,0
1682940418.40007210,101428579,1544,1544,1544,1544,0,0,0,0,0,0,0,0,0,0
1682940418.50003195,101528539,1545,1544,1545,1545,0,0,0,0,0,0,0,0,0,0
1682940418.59999204,101628499,1544,1544,1544,1544,0,0,0,0,0,0,0,0,0,0
1682940418.69995189,101728459,1545,1545,1546,1545,0,0,0,0,0,0,0,0,0,0
1682940418.79991198,101828419,1546,1546,1546,1546,0,0,0,0,0,0,0,0,0,0
1682940418.89987206,101928379,1545,1545,1545,1545,0,0,0,0,0,0,0,0,0,0
1682940418.99983191,102028339,1545,1545,1545,1545,0,0,0,0,0,0,0,0,0,0
1682940419.09979200,102128299,1448,1445,1447,1446,0,0,0,0,0,0,0,0,0,0
1682940419.19975209,102228259,1300,1292,1300,1293,0,0,0,0,0,0,0,0,0,0
1682940419.29971194,102328219,1242,1229,1241,1231,0,0,0,0,0,0,0,0,0,0
1682940419.39967203,102428179,1221,1208,1221,1209,0,0,0,0,0,0,0,0,0,0
1682940419.50046492,102528972,1190,1174,1189,1176,0,0,0,0,0,0,0,0,0,0
1682940419.60042500,102628932,1167,1150,1167,1151,0,0,0,0,0,0,0,0,0,0
1682940419.70038509,102728892,1168,1150,1166,1152,0,0,0,0,0,0,0,0,0,0
1682940419.80034494,102828852,1184,1150,1167,1168,0,0,0,0,0,0,0,0,0,0
1682940419.90030503,102928812,1194,1150,1168,1179,0,0,0,0,0,0,0,0,0,0
1682940420.00026512,103028772,1187,1150,1167,1172,0,0,0,0,0,0,0,0,0,0
1682940420.10022497,103128732,1186,1150,1167,1171,0,0,0,0,0,0,0,0,0,0
1682940420.20018506,103228692,1187,1150,1167,1172,0,0,0,0,0,0,0,0,0,0
1682940420.30014491,103328652,1189,1150,1167,1174,0,0,0,0,0,0,0,0,0,0
1682940420.40010500,103428612,1190,1150,1167,1176,0,0,0,0,0,0,0,0,0,0
1682940420.50006509,103528572,1193,1150,1167,1179,0,0,0,0,0,0,0,0,0,0
1682940420.60002494,103628532,1172,1150,1168,1155,0,0,0,0,0,0,0,0,0,0
1682940420.69998503,103728492,1182,1150,1168,1166,0,0,0,0,0,0,0,0,0,0
1682940420.79994512,103828452,1183,1150,1168,1167,0,0,0,0,0,0,0,0,0,0
1682940420.89990497,103928412,1183,1150,1168,1168,0,0,0,0,0,0,0,0,0,0
1682940420.99986506,104028372,1184,1150,1168,1168,0,0,0,0,0,0,0,0,0,0
1682940421.09982491,104128332,1000,1000,1000,1000,0,0,0,0,0,0,0,0,0,0
1682940421.19978499,104228292,1000,1000,1000,1000,0,0,0,0,0,0,0,0,0,0
1682940421.29974508,104328252,1000,1000,1000,1000,0,0,0,0,0,0,0,0,0,0
1682940421.39970493,104428212,1000,1000,1000,1000,0,0,0,0,0,0,0,0,0,0
1682940421.49966502,104528172,1000,1000,1000,1000,0,0,0,0,0,0,0,0,0,0
1682940421.60045791,104628965,1000,1000,1000,1000,0,0,0,0,0,0,0,0,0,0
1682940421.70041800,104728925,1000,1000,1000,1000,0,0,0,0,0,0,0,0,0,0
1682940421.80037808,104828885,1000,1000,1000,1000,0,0,0,0,0,0,0,0,0,0
1682940421.90033793,104928845,1000,1000,1000,1000,0,0,0,0,0,0,0,0,0,0
1682940422.00029802,105028805,1000,1000,1000,1000,0,0,0,0,0,0,0,0,0,0
1682940422.10025811,105128765,1000,1000,1000,1000,0,0,0,0,0,0,0,0,0,0
1682940422.20021796,105228725,1000,1000,1000,1000,0,0,0,0,0,0,0,0,0,0
1682940422.30017805,105328685,1000,1000,1000,1000,0,0,0,0,0,0,0,0,0,0
1682940422.40013790,105428645,1000,1000,1000,1000,0,0,0,0,0,0,0,0,0,0
1682940422.50009799,105528605,1000,1000,1000,1000,0,0,0,0,0,0,0,0,0,0
1682940422.60005808,105628565,1000,1000,1000,1000,0,0,0,0,0,0,0,0,0,0
1682940422.70001793,105728525,1000,1000,1000,1000,0,0,0,0,0,0,0,0,0,0
1682940422.79997802,105828485,1000,1000,1000,1000,0,0,0,0,0,0,0,0,0,0
1682940422.89993811,105928445,1000,1000,1000,1000,0,0,0,0,0,0,0,0,0,0
1682940422.99989796,106028405,1000,1000,1000,1000,0,0,0,0,0,0,0,0,0,0
1682940423.09985805,106128365,1000,1000,1000,1000,0,0,0,0,0,0,0,0,0,0
1682940423.19981790,106228325,1000,1000,1000,1000,0,0,0,0,0,0,0,0,0,0
1682940423.29977798,106328285,1000,1000,1000,1000,0,0,0,0,0,0,0,0,0,0
1682940423.39973807,106428245,1000,1000,1000,1000,0,0,0,0,0,0,0,0,0,0
1682940423.49969792,106528205,1000,1000,1000,1000,0,0,0,0,0,0,0,0,0,0
1682940423.59965801,106628165,1000,1000,1000,1000,0,0,0,0,0,0,0,0,0,0
1682940423.70045090,106728958,1000,1000,1000,1000,0,0,0,0,0,0,0,0,0,0
1682940423.80041099,106828918,1000,1000,1000,1000,0,0,0,0,0,0,0,0,0,0
1682940423.90037107,106928878,1000,1000,1000,1000,0,0,0,0,0,0,0,0,0,0
1682940424.00033092,107028838,1000,1000,1000,1000,0,0,0,0,0,0,0,0,0,0
1682940424.10029101,107128798,1000,1000,1000,1000,0,0,0,0,0,0,0,0,0,0
1682940424.20025110,107228758,1000,1000,1000,1000,0,0,0,0,0,0,0,0,0,0
1682940424.30021095,107328718,1000,1000,1000,1000,0,0,0,0,0,0,0,0,0,0
1682940424.40017104,107428678,1000,1000,1000,1000,0,0,0,0,0,0,0,0,0,0
1682940424.50013089,107528638,1000,1000,1000,1000,0,0,0,0,0,0,0,0,0,0
1682940424.60009098,107628598,1000,1000,1000,1000,0,0,0,0,0,0,0,0,0,0
1682940424.70005107,107728558,1000,1000,1000,1000,0,0,0,0,0,0,0,0,0,0
1682940424.80001092,107828518,1000,1000,1000,1000,0,0,0,0,0,0,0,0,0,0
1682940424.89997101,107928478,1000,1000,1000,1000,0,0,0,0,0,0,0,0,0,0
1682940424.99993110,108028438,1000,1000,1000,1000,0,0,0,0,0,0,0,0,0,0
1682940425.09989095,108128398,1000,1000,1000,1000,0,0,0,0,0,0,0,0,0,0
1682940425.19985104,108228358,1000,1000,1000,1000,0,0,0,0,0,0,0,0,0,0
1682940425.29981112,108328318,1000,1000,1000,1000,0,0,0,0,0,0,0,0,0,0
1682940425.39977098,108428278,1000,1000,1000,1000,0,0,0,0,0,0,0,0,0,0
1682940425.49973106,108528238,1000,1000,1000,1000,0,0,0,0,0,0,0,0,0,0
1682940425.59969091,108628198,1000,1000,1000,1000,0,0,0,0,0,0,0,0,0,0
1682940425.69965100,108728158,1000,1000,1000,1000,0,0,0,0,0,0,0,0,0,0
1682940425.80044389,108828951,1000,1000,1000,1000,0,0,0,0,0,0,0,0,0,0
1682940425.90040398,108928911,1000,1000,1000,1000,0,0,0,0,0,0,0,0,0,0
1682940426.00036407,109028871,1000,1000,1000,1000,0,0,0,0,0,0,0,0,0,0
1682940426.10032392,109128831,1000,1000,1000,1000,0,0,0,0,0,0,0,0,0,0
1682940426.20028400,109228791,1000,1000,1000,1000,0,0,0,0,0,0,0,0,0,0
1682940426.30024409,109328751,1000,1000,1000,1000,0,0,0,0,0,0,0,0,0,0
1682940426.40020394,109428711,1000,1000,1000,1000,0,0,0,0,0,0,0,0,0,0
1682940426.50016403,109528671,1000,1000,1000,1000,0,0,0,0,0,0,0,0,0,0
1682940426.60012412,109628631,1000,1000,1000,1000,0,0,0,0,0,0,0,0,0,0
1682940426.70008397,109728591,1000,1000,1000,1000,0,0,0,0,0,0,0,0,0,0
1682940426.80004406,109828551,1000,1000,1000,1000,0,0,0,0,0,0,0,0,0,0
1682940426.90000391,109928511,1000,1000,1000,1000,0,0,0,0,0,0,0,0,0,0
1682940426.99996400,110028471,1000,1000,1000,1000,0,0,0,0,0,0,0,0,0,0
1682940427.09992409,110128431,1000,1000,1000,1000,0,0,0,0,0,0,0,0,0,0
1682940427.19988394,110228391,1000,1000,1000,1000,0,0,0,0,0,0,0,0,0,0
1682940427.29984403,110328351,1000,1000,1000,1000,0,0,0,0,0,0,0,0,0,0
1682940427.39980412,110428311,1000,1000,1000,1000,0,0,0,0,0,0,0,0,0,0
1682940427.49976397,110528271,1000,1000,1000,1000,0,0,0,0,0,0,0,0,0,0
1682940427.59972405,110628231,1000,1000,1000,1000,0,0,0,0,0,0,0,0,0,0
1682940427.69968390,110728191,1000,1000,1000,1000,0,0,0,0,0,0,0,0,0,0
1682940427.80047703,110828984,1000,1000,1000,1000,0,0,0,0,0,0,0,0,0,0
1682940427.90043712,110928944,1000,1000,1000,1000,0,0,0,0,0,0,0,0,0,0
1682940428.00039697,111028904,1000,1000,1000,1000,0,0,0,0,0,0,0,0,0,0
1682940428.10035706,111128864,1000,1000,1000,1000,0,0,0,0,0,0,0,0,0,0
1682940428.20031691,111228824,1000,1000,1000,1000,0,0,0,0,0,0,0,0,0,0
1682940428.30027699,111328784,1000,1000,1000,1000,0,0,0,0,0,0,0,0,0,0
1682940428.40023708,111428744,1000,1000,1000,1000,0,0,0,0,0,0,0,0,0,0
1682940428.50019693,111528704,1000,1000,1000,1000,0,0,0,0,0,0,0,0,0,0
1682940428.60015702,111628664,1000,1000,1000,1000,0,0,0,0,0,0,0,0,0,0
1682940428.70011711,111728624,1000,1000,1000,1000,0,0,0,0,0,0,0,0,0,0
1682940428.80007696,111828584,1000,1000,1000,1000,0,0,0,0,0,0,0,0,0,0
1682940428.90003705,111928544,1000,1000,1000,1000,0,0,0,0,0,0,0,0,0,0
1682940428.99999690,112028504,1000,1000,1000,1000,0,0,0,0,0,0,0,0,0,0
1682940429.09995699,112128464,1000,1000,1000,1000,0,0,0,0,0,0,0,0,0,0
1682940429.19991708,112228424,1000,1000,1000,1000,0,0,0,0,0,0,0,0,0,0
1682940429.29987693,112328384,1000,1000,1000,1000,0,0,0,0,0,0,0,0,0,0
1682940429.39983702,112428344,1000,1000,1000,1000,0,0,0,0,0,0,0,0,0,0
1682940429.49979711,112528304,1000,1000,1000,1000,0,0,0,0,0,0,0,0,0,0
1682940429.59975696,112628264,1000,1000,1000,1000,0,0,0,0,0,0,0,0,0,0
1682940429.69971704,112728224,1000,1000,1000,1000,0,0,0,0,0,0,0,0,0,0
1682940429.79967690,112828184,1000,1000,1000,1000,0,0,0,0,0,0,0,0,0,0
1682940429.90047002,112928977,1000,1000,1000,1000,0,0,0,0,0,0,0,0,0,0
1682940430.00043011,113028937,1000,1000,1000,1000,0,0,0,0,0,0,0,0,0,0
1682940430.10038996,113128897,1000,1000,1000,1000,0,0,0,0,0,0,0,0,0,0
1682940430.20035005,113228857,1000,1000,1000,1000,0,0,0,0,0,0,0,0,0,0
1682940430.30030990,113328817,1000,1000,1000,1000,0,0,0,0,0,0,0,0,0,0
1682940430.40026999,113428777,1000,1000,1000,1000,0,0,0,0,0,0,0,0,0,0
1682940430.50023007,113528737,1000,1000,1000,1000,0,0,0,0,0,0,0,0,0,0
1682940430.60018992,113628697,1000,1000,1000,1000,0,0,0,0,0,0,0,0,0,0
1682940430.70015001,113728657,1000,1000,1000,1000,0,0,0,0,0,0,0,0,0,0
1682940430.80011010,113828617,1000,1000,1000,1000,0,0,0,0,0,0,0,0,0,0
1682940430.90006995,113928577,1000,1000,1000,1000,0,0,0,0,0,0,0,0,0,0
1682940431.00003004,114028537,1000,1000,1000,1000,0,0,0,0,0,0,0,0,0,0
1682940431.09998989,114128497,1000,1000,1000,1000,0,0,0,0,0,0,0,0,0,0
1682940431.19994998,114228457,1000,1000,1000,1000,0,0,0,0,0,0,0,0,0,0
1682940431.29991007,114328417,1000,1000,1000,1000,0,0,0,0,0,0,0,0,0,0
1682940431.39986992,114428377,1000,1000,1000,1000,0,0,0,0,0,0,0,0,0,0
1682940431.49983001,114528337,1000,1000,1000,1000,0,0,0,0,0,0,0,0,0,0
1682940431.59979010,114628297,1000,1000,1000,1000,0,0,0,0,0,0,0,0,0,0
1682940431.69974995,114728257,1000,1000,1000,1000,0,0,0,0,0,0,0,0,0,0
1682940431.79971004,114828217,1000,1000,1000,1000,0,0,0,0,0,0,0,0,0,0
1682940431.89967012,114928177,1000,1000,1000,1000,0,0,0,0,0,0,0,0,0,0
1682940432.00046301,115028970,1000,1000,1000,1000,0,0,0,0,0,0,0,0,0,0
1682940432.10042310,115128930,1000,1000,1000,1000,0,0,0,0,0,0,0,0,0,0
1682940432.20038295,115228890,1000,1000,1000,1000,0,0,0,0,0,0,0,0,0,0
1682940432.30034304,115328850,1000,1000,1000,1000,0,0,0,0,0,0,0,0,0,0
1682940432.40030289,115428810,1000,1000,1000,1000,0,0,0,0,0,0,0,0,0,0
1682940432.50026298,115528770,1000,1000,1000,1000,0,0,0,0,0,0,0,0,0,0
1682940432.60022306,115628730,1000,1000,1000,1000,0,0,0,0,0,0,0,0,0,0
1682940432.70018291,115728690,1000,1000,1000,1000,0,0,0,0,0,0,0,0,0,0
1682940432.80014300,115828650,1000,1000,1000,1000,0,0,0,0,0,0,0,0,0,0
1682940432.90010309,115928610,1000,1000,1000,1000,0,0,0,0,0,0,0,0,0,0
1682940433.00006294,116028570,1000,1000,1000,1000,0,0,0,0,0,0,0,0,0,0
1682940433.10002303,116128530,1000,1000,1000,1000,0,0,0,0,0,0,0,0,0,0
1682940433.19998312,116228490,1000,1000,1000,1000,0,0,0,0,0,0,0,0,0,0
1682940433.29994297,116328450,1000,1000,1000,1000,0,0,0,0,0,0,0,0,0,0
1682940433.39990306,116428410,1000,1000,1000,1000,0,0,0,0,0,0,0,0,0,0
1682940433.49986291,116528370,1000,1000,1000,1000,0,0,0,0,0,0,0,0,0,0
1682940433.59982300,116628330,1000,1000,1000,1000,0,0,0,0,0,0,0,0,0,0
1682940433.69978309,116728290,1000,1000,1000,1000,0,0,0,0,0,0,0,0,0,0
1682940433.79974294,116828250,1000,1000,1000,1000,0,0,0,0,0,0,0,0,0,0
1682940433.89970303,116928210,1000,1000,1000,1000,0,0,0,0,0,0,0,0,0,0
1682940433.99966311,117028170,1000,1000,1000,1000,0,0,0,0,0,0,0,0,0,0
1682940434.10045600,117128963,1000,1000,1000,1000,0,0,0,0,0,0,0,0,0,0
1682940434.20041609,117228923,1000,1000,1000,1000,0,0,0,0,0,0,0,0,0,0
1682940434.30037594,117328883,1000,1000,1000,1000,0,0,0,0,0,0,0,0,0,0
1682940434.40033603,117428843,1000,1000,1000,1000,0,0,0,0,0,0,0,0,0,0
1682940434.50029612,117528803,1000,1000,1000,1000,0,0,0,0,0,0,0,0,0,0
1682940434.60025597,117628763,1000,1000,1000,1000,0,0,0,0,0,0,0,0,0,0
1682940434.70021605,117728723,1000,1000,1000,1000,0,0,0,0,0,0,0,0,0,0
1682940434.80017591,117828683,1000,1000,1000,1000,0,0,0,0,0,0,0,0,0,0
1682940434.90013599,117928643,1000,1000,1000,1000,0,0,0,0,0,0,0,0,0,0
1682940435.00009608,118028603,1000,1000,1000,1000,0,0,0,0,0,0,0,0,0,0
1682940435.10005593,118128563,1000,1000,1000,1000,0,0,0,0,0,0,0,0,0,0
1682940435.20001602,118228523,1000,1000,1000,1000,0,0,0,0,0,0,0,0,0,0
1682940435.29997611,118328483,1000,1000,1000,1000,0,0,0,0,0,0,0,0,0,0
1682940435.39993596,118428443,1000,1000,1000,1000,0,0,0,0,0,0,0,0,0,0
1682940435.49989605,118528403,1000,1000,1000,1000,0,0,0,0,0,0,0,0,0,0
1682940435.59985590,118628363,1000,1000,1000,1000,0,0,0,0,0,0,0,0,0,0
1682940435.69981599,118728323,1000,1000,1000,1000,0,0,0,0,0,0,0,0,0,0
1682940435.79977608,118828283,1000,1000,1000,1000,0,0,0,0,0,0,0,0,0,0
1682940435.89973593,118928243,1000,1000,1000,1000,0,0,0,0,0,0,0,0,0,0
1682940435.99969602,119028203,1000,1000,1000,1000,0,0,0,0,0,0,0,0,0,0
