TimeUS,M1,M2,M3,M4,TimeUS,C1,C2,C3,C4
64410892,1000,1000,1000,1000,64428385,1000,1000,1000,1000
64413391,1000,1000,1000,1000,64528345,1000,1000,1000,1000
64415890,1000,1000,1000,1000,64628305,1000,1000,1000,1000
64418389,1000,1000,1000,1000,64728265,1000,1000,1000,1000
64420888,1000,1000,1000,1000,64828225,1000,1000,1000,1000
64423387,1000,1000,1000,1000,64928185,1000,1000,1000,1000
64425886,1000,1000,1000,1000,65028978,1000,1000,1000,1000
64428385,1000,1000,1000,1000,65128938,1000,1000,1000,1000
64430884,1000,1000,1000,1000,65228898,1000,1000,1000,1000
64433383,1000,1000,1000,1000,65328858,1000,1000,1000,1000
64435882,1000,1000,1000,1000,65428818,1000,1000,1000,1000
64438381,1000,1000,1000,1000,65528778,1000,1000,1000,1000
64440880,1000,1000,1000,1000,65628738,1000,1000,1000,1000
64443379,1000,1000,1000,1000,65728698,1000,1000,1000,1000
64445878,1000,1000,1000,1000,65828658,1000,1000,1000,1000
64448377,1000,1000,1000,1000,65928618,1000,1000,1000,1000
64450876,1000,1000,1000,1000,66028578,1000,1000,1000,1000
64453375,1000,1000,1000,1000,66128538,1000,1000,1000,1000
64455874,1000,1000,1000,1000,66228498,1000,1000,1000,1000
64458373,1000,1000,1000,1000,66328458,1000,1000,1000,1000
64460872,1000,1000,1000,1000,66428418,1005,1005,1005,1005
64463371,1000,1000,1000,1000,66528378,1035,1035,1035,1035
64465870,1000,1000,1000,1000,66628338,1065,1065,1065,1065
64468369,1000,1000,1000,1000,66728298,1095,1095,1095,1095
64470868,1000,1000,1000,1000,66828258,1125,1125,1125,1125
64473367,1000,1000,1000,1000,66928218,1201,1192,1192,1202
64475866,1000,1000,1000,1000,67028178,1435,1428,1429,1435
64478365,1000,1000,1000,1000,67128971,1607,1601,1602,1608
64480864,1000,1000,1000,1000,67228931,1750,1745,1745,1751
64483363,1000,1000,1000,1000,67328891,1875,1870,1870,1876
64485862,1000,1000,1000,1000,67428851,1880,1876,1876,1880
64488361,1000,1000,1000,1000,67528811,1784,1782,1783,1784
64490860,1000,1000,1000,1000,67628771,1667,1668,1669,1667
64493359,1000,1000,1000,1000,67728731,1621,1624,1624,1621
64495858,1000,1000,1000,1000,67828691,1623,1626,1626,1623
64498357,1000,1000,1000,1000,67928651,1635,1637,1636,1635
64500856,1000,1000,1000,1000,68028611,1639,1640,1639,1639
64503355,1000,1000,1000,1000,68128571,1634,1633,1633,1634
64505854,1000,1000,1000,1000,68228531,1626,1625,1624,1626
64508353,1000,1000,1000,1000,68328491,1621,1620,1620,1621
64510852,1000,1000,1000,1000,68428451,1618,1617,1617,1617
64513351,1000,1000,1000,1000,68528411,1597,1598,1598,1597
64515850,1000,1000,1000,1000,68628371,1577,1577,1577,1577
64518349,1000,1000,1000,1000,68728331,1566,1566,1566,1566
64520848,1000,1000,1000,1000,68828291,1561,1561,1556,1565
64523347,1000,1000,1000,1000,68928251,1557,1556,1550,1563
64525846,1000,1000,1000,1000,69028211,1554,1555,1550,1559
64528345,1000,1000,1000,1000,69128171,1555,1554,1553,1556
64530844,1000,1000,1000,1000,69228964,1555,1556,1557,1554
64533343,1000,1000,1000,1000,69328924,1557,1557,1561,1554
64535842,1000,1000,1000,1000,69428884,1559,1560,1564,1556
64538341,1000,1000,1000,1000,69528844,1548,1547,1558,1538
64540840,1000,1000,1000,1000,69628804,1542,1542,1552,1534
64543339,1000,1000,1000,1000,69728764,1539,1539,1541,1538
64545838,1000,1000,1000,1000,69828724,1538,1538,1533,1543
64548337,1000,1000,1000,1000,69928684,1538,1538,1530,1545
64550836,1000,1000,1000,1000,70028644,1538,1538,1531,1545
64553335,1000,1000,1000,1000,70128604,1540,1540,1536,1544
64555834,1000,1000,1000,1000,70228564,1542,1542,1542,1543
64558333,1000,1000,1000,1000,70328524,1547,1547,1549,1544
64560832,1000,1000,1000,1000,70428484,1550,1550,1554,1546
64563331,1000,1000,1000,1000,70528444,1553,1552,1556,1549
64565830,1000,1000,1000,1000,70628404,1555,1555,1557,1553
64568329,1000,1000,1000,1000,70728364,1557,1557,1556,1557
64570828,1000,1000,1000,1000,70828324,1554,1554,1562,1565
64573327,1000,1000,1000,1000,70928284,1553,1554,1563,1568
64575826,1000,1000,1000,1000,71028244,1556,1557,1564,1567
64578325,1000,1000,1000,1000,71128204,1559,1560,1564,1566
64580824,1000,1000,1000,1000,71228164,1563,1564,1565,1565
64583323,1000,1000,1000,1000,71328957,1567,1567,1565,1564
64585822,1000,1000,1000,1000,71428917,1569,1569,1564,1564
64588321,1000,1000,1000,1000,71528877,1572,1571,1566,1564
64590820,1000,1000,1000,1000,71628837,1573,1573,1566,1565
64593319,1000,1000,1000,1000,71728797,1573,1573,1566,1566
64595818,1000,1000,1000,1000,71828757,1574,1574,1568,1568
64598317,1000,1000,1000,1000,71928717,1573,1573,1569,1569
64600816,1000,1000,1000,1000,72028677,1573,1573,1570,1571
64603315,1000,1000,1000,1000,72128637,1572,1572,1571,1571
64605814,1000,1000,1000,1000,72228597,1573,1572,1573,1573
64608313,1000,1000,1000,1000,72328557,1572,1572,1574,1573
64610812,1000,1000,1000,1000,72428517,1573,1574,1576,1574
64613311,1000,1000,1000,1000,72528477,1574,1574,1577,1576
64615810,1000,1000,1000,1000,72628437,1574,1575,1577,1576
64618309,1000,1000,1000,1000,72728397,1574,1575,1577,1577
64620808,1000,1000,1000,1000,72828357,1575,1575,1576,1576
64623307,1000,1000,1000,1000,72928317,1575,1575,1576,1576
64625806,1000,1000,1000,1000,73028277,1576,1576,1577,1577
64628305,1000,1000,1000,1000,73128237,1576,1576,1576,1576
64630804,1000,1000,1000,1000,73228197,1578,1577,1577,1577
64633303,1000,1000,1000,1000,73328157,1579,1579,1578,1578
64635802,1000,1000,1000,1000,73428950,1578,1578,1577,1577
64638301,1000,1000,1000,1000,73528910,1578,1578,1577,1578
64640800,1000,1000,1000,1000,73628870,1578,1579,1578,1577
64643299,1000,1000,1000,1000,73728830,1579,1579,1578,1578
64645798,1000,1000,1000,1000,73828790,1579,1579,1578,1579
64648297,1000,1000,1000,1000,73928750,1579,1578,1578,1578
64650796,1000,1000,1000,1000,74028710,1578,1577,1578,1577
64653295,1000,1000,1000,1000,74128670,1578,1578,1578,1579
64655794,1000,1000,1000,1000,74228630,1578,1579,1579,1579
64658293,1000,1000,1000,1000,74328590,1579,1579,1579,1579
64660792,1000,1000,1000,1000,74428550,1579,1579,1580,1579
64663291,1000,1000,1000,1000,74528510,1578,1579,1579,1579
64665790,1000,1000,1000,1000,74628470,1579,1579,1580,1580
64668289,1000,1000,1000,1000,74728430,1579,1579,1579,1579
64670788,1000,1000,1000,1000,74828390,1579,1579,1580,1579
64673287,1000,1000,1000,1000,74928350,1580,1580,1580,1580
64675786,1000,1000,1000,1000,75028310,1579,1579,1580,1579
64678285,1000,1000,1000,1000,75128270,1580,1580,1580,1580
64680784,1000,1000,1000,1000,75228230,1581,1581,1580,1581
64683283,1000,1000,1000,1000,75328190,1580,1580,1579,1580
64685782,1000,1000,1000,1000,75428983,1581,1581,1580,1581
64688281,1000,1000,1000,1000,75528943,1580,1580,1580,1580
64690780,1000,1000,1000,1000,75628903,1580,1580,1580,1580
64693279,1000,1000,1000,1000,75728863,1580,1580,1580,1580
64695778,1000,1000,1000,1000,75828823,1580,1581,1581,1581
64698277,1000,1000,1000,1000,75928783,1580,1579,1580,1580
64700776,1000,1000,1000,1000,76028743,1580,1580,1580,1580
64703275,1000,1000,1000,1000,76128703,1580,1579,1580,1580
64705774,1000,1000,1000,1000,76228663,1579,1579,1580,1579
64708273,1000,1000,1000,1000,76328623,1580,1580,1580,1580
64710772,1000,1000,1000,1000,76428583,1581,1580,1581,1581
64713271,1000,1000,1000,1000,76528543,1580,1580,1580,1580
64715770,1000,1000,1000,1000,76628503,1581,1581,1581,1581
64718269,1000,1000,1000,1000,76728463,1580,1580,1580,1581
64720768,1000,1000,1000,1000,76828423,1580,1580,1580,1580
64723267,1000,1000,1000,1000,76928383,1582,1582,1582,1582
64725766,1000,1000,1000,1000,77028343,1581,1581,1581,1580
64728265,1000,1000,1000,1000,77128303,1581,1582,1588,1575
64730764,1000,1000,1000,1000,77228263,1580,1582,1586,1573
64733263,1000,1000,1000,1000,77328223,1579,1582,1579,1574
64735762,1000,1000,1000,1000,77428183,1577,1580,1569,1572
64738261,1000,1000,1000,1000,77528976,1577,1579,1562,1568
64740760,1000,1000,1000,1000,77628936,1578,1578,1557,1564
64743259,1000,1000,1000,1000,77728896,1579,1578,1555,1559
64745758,1000,1000,1000,1000,77828856,1579,1578,1555,1556
64748257,1000,1000,1000,1000,77928816,1580,1578,1556,1555
64750756,1000,1000,1000,1000,78028776,1579,1578,1557,1554
64753255,1000,1000,1000,1000,78128736,1578,1579,1557,1555
64755754,1000,1000,1000,1000,78228696,1576,1577,1555,1553
64758253,1000,1000,1000,1000,78328656,1575,1577,1555,1554
64760752,1000,1000,1000,1000,78428616,1574,1576,1553,1553
64763251,1000,1000,1000,1000,78528576,1575,1577,1551,1552
64765750,1000,1000,1000,1000,78628536,1576,1577,1549,1549
64768249,1000,1000,1000,1000,78728496,1578,1578,1547,1547
64770748,1000,1000,1000,1000,78828456,1581,1582,1546,1546
64773247,1000,1000,1000,1000,78928416,1583,1584,1543,1542
64775746,1000,1000,1000,1000,79028376,1585,1587,1540,1539
64778245,1000,1000,1000,1000,79128336,1589,1589,1537,1537
64780744,1000,1000,1000,1000,79228296,1591,1592,1535,1535
64783243,1000,1000,1000,1000,79328256,1593,1593,1533,1534
64785742,1000,1000,1000,1000,79428216,1595,1594,1535,1536
64788241,1000,1000,1000,1000,79528176,1594,1594,1536,1538
64790740,1000,1000,1000,1000,79628969,1593,1592,1539,1542
64793239,1000,1000,1000,1000,79728929,1589,1587,1544,1547
64795738,1000,1000,1000,1000,79828889,1584,1582,1553,1556
64798237,1000,1000,1000,1000,79928849,1576,1572,1562,1565
64800736,1000,1000,1000,1000,80028809,1566,1562,1574,1576
64803235,1000,1000,1000,1000,80128769,1555,1552,1587,1588
64805734,1000,1000,1000,1000,80228729,1544,1542,1598,1597
64808233,1000,1000,1000,1000,80328689,1535,1534,1606,1606
64810732,1000,1000,1000,1000,80428649,1530,1530,1612,1611
64813231,1000,1000,1000,1000,80528609,1529,1530,1614,1613
64815730,1000,1000,1000,1000,80628569,1531,1533,1613,1612
64818229,1000,1000,1000,1000,80728529,1536,1538,1609,1609
64820728,1000,1000,1000,1000,80828489,1543,1545,1603,1603
64823227,1000,1000,1000,1000,80928449,1552,1553,1596,1595
64825726,1000,1000,1000,1000,81028409,1561,1562,1588,1588
64828225,1000,1000,1000,1000,81128369,1570,1570,1582,1582
64830724,1000,1000,1000,1000,81228329,1577,1576,1576,1575
64833223,1000,1000,1000,1000,81328289,1582,1580,1571,1569
64835722,1000,1000,1000,1000,81428249,1586,1584,1568,1567
64838221,1000,1000,1000,1000,81528209,1587,1586,1566,1566
64840720,1000,1000,1000,1000,81628169,1586,1585,1565,1565
64843219,1000,1000,1000,1000,81728962,1585,1584,1566,1568
64845718,1000,1000,1000,1000,81828922,1582,1582,1569,1570
64848217,1000,1000,1000,1000,81928882,1580,1580,1573,1572
64850716,1000,1000,1000,1000,82028842,1435,1544,1431,1545
64853215,1000,1000,1000,1000,82128802,1550,1551,1554,1555
64855714,1000,1000,1000,1000,82228762,1662,1604,1671,1610
64858213,1000,1000,1000,1000,82328722,1663,1580,1671,1591
64860712,1000,1000,1000,1000,82428682,1666,1603,1671,1612
64863211,1000,1000,1000,1000,82528642,1671,1626,1670,1627
64865710,1000,1000,1000,1000,82628602,1671,1641,1666,1633
64868209,1000,1000,1000,1000,82728562,1671,1658,1664,1637
64870708,1000,1000,1000,1000,82828522,1671,1685,1661,1648
64873207,1000,1000,1000,1000,82928482,1671,1718,1663,1676
64875706,1000,1000,1000,1000,83028442,1666,1702,1671,1701
64878205,1000,1000,1000,1000,83128402,1636,1661,1669,1715
64880704,1000,1000,1000,1000,83228362,1596,1605,1660,1707
64883203,1000,1000,1000,1000,83328322,1575,1573,1660,1698
64885702,1000,1000,1000,1000,83428282,1566,1558,1653,1673
64888201,1000,1000,1000,1000,83528242,1566,1563,1639,1641
64890700,1000,1000,1000,1000,83628202,1576,1579,1621,1608
64893199,1000,1000,1000,1000,83728162,1591,1599,1600,1580
64895698,1000,1000,1000,1000,83828955,1604,1615,1578,1559
64898197,1000,1000,1000,1000,83928915,1612,1622,1557,1544
64900696,1000,1000,1000,1000,84028875,1615,1620,1540,1535
64903195,1000,1000,1000,1000,84128835,1613,1612,1529,1530
64905694,1000,1000,1000,1000,84228795,1607,1602,1524,1530
64908193,1000,1000,1000,1000,84328755,1599,1593,1525,1532
64910692,1000,1000,1000,1000,84428715,1591,1584,1530,1536
64913191,1000,1000,1000,1000,84528675,1581,1578,1538,1542
64915690,1000,1000,1000,1000,84628635,1574,1573,1548,1550
64918189,1000,1000,1000,1000,84728595,1567,1568,1558,1558
64920688,1000,1000,1000,1000,84828555,1562,1564,1567,1566
64923187,1000,1000,1000,1000,84928515,1558,1561,1575,1573
64925686,1000,1000,1000,1000,85028475,1557,1558,1581,1580
64928185,1000,1000,1000,1000,85128435,1557,1558,1592,1577
64930684,1000,1000,1000,1000,85228395,1557,1558,1593,1577
64933183,1000,1000,1000,1000,85328355,1556,1558,1587,1580
64935682,1000,1000,1000,1000,85428315,1556,1558,1579,1581
64938181,1000,1000,1000,1000,85528275,1557,1558,1571,1578
64940680,1000,1000,1000,1000,85628235,1559,1559,1564,1572
64943179,1000,1000,1000,1000,85728195,1562,1563,1559,1566
64945678,1000,1000,1000,1000,85828155,1567,1567,1556,1559
64948177,1000,1000,1000,1000,85928948,1571,1571,1553,1553
64950676,1000,1000,1000,1000,86028908,1576,1575,1552,1550
64953175,1000,1000,1000,1000,86128868,1579,1578,1550,1547
64955674,1000,1000,1000,1000,86228828,1581,1581,1548,1545
64958173,1000,1000,1000,1000,86328788,1582,1581,1546,1544
64960672,1000,1000,1000,1000,86428748,1582,1582,1545,1545
64963171,1000,1000,1000,1000,86528708,1582,1582,1545,1546
64965670,1000,1000,1000,1000,86628668,1581,1582,1544,1545
64968169,1000,1000,1000,1000,86728628,1581,1582,1545,1546
64970668,1000,1000,1000,1000,86828588,1580,1582,1546,1546
64973167,1000,1000,1000,1000,86928548,1581,1582,1546,1546
64975666,1000,1000,1000,1000,87028508,1581,1582,1547,1546
64978165,1000,1000,1000,1000,87128468,1581,1582,1547,1546
64980664,1000,1000,1000,1000,87228428,1582,1582,1546,1546
64983163,1000,1000,1000,1000,87328388,1583,1583,1547,1548
64985662,1000,1000,1000,1000,87428348,1582,1582,1546,1547
64988161,1000,1000,1000,1000,87528308,1582,1581,1548,1549
64990660,1000,1000,1000,1000,87628268,1581,1580,1550,1552
64993159,1000,1000,1000,1000,87728228,1579,1578,1553,1554
64995658,1000,1000,1000,1000,87828188,1576,1575,1556,1558
64998157,1000,1000,1000,1000,87928981,1572,1571,1560,1561
65000656,1000,1000,1000,1000,88028941,1568,1568,1564,1566
65003155,1000,1000,1000,1000,88128901,1565,1563,1569,1571
65005654,1000,1000,1000,1000,88228861,1560,1559,1575,1576
65008986,1000,1000,1000,1000,88328821,1557,1555,1581,1582
65011485,1000,1000,1000,1000,88428781,1554,1553,1587,1587
65013984,1000,1000,1000,1000,88528741,1551,1550,1591,1590
65016483,1000,1000,1000,1000,88628701,1549,1549,1594,1593
65018982,1000,1000,1000,1000,88728661,1549,1550,1596,1595
65021481,1000,1000,1000,1000,88828621,1550,1551,1597,1596
65023980,1000,1000,1000,1000,88928581,1552,1552,1595,1594
65026479,1000,1000,1000,1000,89028541,1555,1555,1593,1593
65028978,1000,1000,1000,1000,89128501,1558,1558,1590,1590
65031477,1000,1000,1000,1000,89228461,1563,1562,1587,1587
65033976,1000,1000,1000,1000,89328421,1567,1566,1584,1584
65036475,1000,1000,1000,1000,89428381,1570,1570,1581,1580
65038974,1000,1000,1000,1000,89528341,1572,1571,1577,1576
65041473,1000,1000,1000,1000,89628301,1576,1576,1575,1575
65043972,1000,1000,1000,1000,89728261,1577,1577,1573,1573
65046471,1000,1000,1000,1000,89828221,1579,1578,1572,1573
65048970,1000,1000,1000,1000,89928181,1580,1579,1572,1572
65051469,1000,1000,1000,1000,90028974,1580,1579,1572,1572
65053968,1000,1000,1000,1000,90128934,1581,1580,1574,1574
65056467,1000,1000,1000,1000,90228894,1579,1579,1575,1574
65058966,1000,1000,1000,1000,90328854,1579,1579,1576,1576
65061465,1000,1000,1000,1000,90428814,1577,1578,1577,1577
65063964,1000,1000,1000,1000,90528774,1576,1577,1578,1578
65066463,1000,1000,1000,1000,90628734,1576,1577,1579,1579
65068962,1000,1000,1000,1000,90728694,1576,1576,1580,1580
65071461,1000,1000,1000,1000,90828654,1576,1576,1581,1581
65073960,1000,1000,1000,1000,90928614,1576,1577,1581,1581
65076459,1000,1000,1000,1000,91028574,1577,1577,1582,1581
65078958,1000,1000,1000,1000,91128534,1578,1579,1582,1582
65081457,1000,1000,1000,1000,91228494,1578,1578,1581,1581
65083956,1000,1000,1000,1000,91328454,1579,1579,1581,1581
65086455,1000,1000,1000,1000,91428414,1580,1580,1581,1581
65088954,1000,1000,1000,1000,91528374,1580,1579,1580,1580
65091453,1000,1000,1000,1000,91628334,1580,1580,1579,1579
65093952,1000,1000,1000,1000,91728294,1581,1581,1579,1580
65096451,1000,1000,1000,1000,91828254,1582,1581,1579,1580
65098950,1000,1000,1000,1000,91928214,1582,1582,1580,1580
65101449,1000,1000,1000,1000,92028174,1582,1581,1580,1580
65103948,1000,1000,1000,1000,92128967,1582,1582,1580,1580
65106447,1000,1000,1000,1000,92228927,1581,1581,1579,1579
65108946,1000,1000,1000,1000,92328887,1581,1581,1580,1580
65111445,1000,1000,1000,1000,92428847,1581,1582,1581,1581
65113944,1000,1000,1000,1000,92528807,1581,1581,1581,1581
65116443,1000,1000,1000,1000,92628767,1580,1581,1581,1581
65118942,1000,1000,1000,1000,92728727,1580,1581,1581,1581
65121441,1000,1000,1000,1000,92828687,1580,1581,1581,1581
65123940,1000,1000,1000,1000,92928647,1581,1581,1581,1581
65126439,1000,1000,1000,1000,93028607,1581,1580,1581,1581
65128938,1000,1000,1000,1000,93128567,1581,1580,1581,1581
65131437,1000,1000,1000,1000,93228527,1581,1580,1581,1581
65133936,1000,1000,1000,1000,93328487,1581,1581,1581,1582
65136435,1000,1000,1000,1000,93428447,1581,1581,1581,1581
65138934,1000,1000,1000,1000,93528407,1581,1581,1581,1581
65141433,1000,1000,1000,1000,93628367,1581,1581,1581,1581
65143932,1000,1000,1000,1000,93728327,1581,1581,1581,1581
65146431,1000,1000,1000,1000,93828287,1581,1581,1581,1580
65148930,1000,1000,1000,1000,93928247,1581,1581,1581,1580
65151429,1000,1000,1000,1000,94028207,1581,1582,1586,1573
65153928,1000,1000,1000,1000,94128167,1581,1583,1584,1573
65156427,1000,1000,1000,1000,94228960,1578,1581,1577,1573
65158926,1000,1000,1000,1000,94328920,1577,1579,1569,1572
65161425,1000,1000,1000,1000,94428880,1575,1577,1562,1568
65163924,1000,1000,1000,1000,94528840,1575,1577,1557,1564
65166423,1000,1000,1000,1000,94628800,1577,1576,1555,1560
65168922,1000,1000,1000,1000,94728760,1578,1576,1554,1557
65171421,1000,1000,1000,1000,94828720,1579,1577,1555,1555
65173920,1000,1000,1000,1000,94928680,1579,1578,1556,1554
65176419,1000,1000,1000,1000,95028640,1579,1579,1557,1553
65178918,1000,1000,1000,1000,95128600,1578,1578,1556,1553
65181417,1000,1000,1000,1000,95228560,1577,1578,1555,1554
65183916,1000,1000,1000,1000,95328520,1576,1578,1554,1553
65186415,1000,1000,1000,1000,95428480,1576,1578,1553,1553
65188914,1000,1000,1000,1000,95528440,1576,1577,1551,1551
65191413,1000,1000,1000,1000,95628400,1577,1579,1549,1549
65193912,1000,1000,1000,1000,95728360,1579,1580,1547,1547
65196411,1000,1000,1000,1000,95828320,1581,1582,1545,1545
65198910,1000,1000,1000,1000,95928280,1584,1584,1543,1543
65201409,1000,1000,1000,1000,96028240,1587,1587,1542,1541
65203908,1000,1000,1000,1000,96128200,1589,1589,1540,1539
65206407,1000,1000,1000,1000,96228160,1591,1591,1539,1539
65208906,1000,1000,1000,1000,96328953,1593,1592,1538,1539
65211405,1000,1000,1000,1000,96428913,1593,1593,1538,1540
65213904,1000,1000,1000,1000,96528873,1593,1592,1540,1543
65216403,1000,1000,1000,1000,96628833,1592,1590,1544,1547
65218902,1000,1000,1000,1000,96728793,1587,1583,1549,1552
65221401,1000,1000,1000,1000,96828753,1581,1578,1557,1560
65223900,1000,1000,1000,1000,96928713,1572,1568,1566,1569
65226399,1000,1000,1000,1000,97028673,1562,1559,1577,1579
65228898,1000,1000,1000,1000,97128633,1553,1551,1588,1589
65231397,1000,1000,1000,1000,97228593,1544,1545,1599,1598
65233896,1000,1000,1000,1000,97328553,1538,1540,1607,1605
65236395,1000,1000,1000,1000,97428513,1534,1537,1612,1609
65238894,1000,1000,1000,1000,97528473,1535,1539,1615,1612
65241393,1000,1000,1000,1000,97628433,1538,1541,1613,1611
65243892,1000,1000,1000,1000,97728393,1543,1545,1610,1609
65246391,1000,1000,1000,1000,97828353,1548,1549,1605,1603
65248890,1000,1000,1000,1000,97928313,1554,1555,1598,1597
65251389,1000,1000,1000,1000,98028273,1562,1561,1592,1591
65253888,1000,1000,1000,1000,98128233,1569,1567,1584,1585
65256387,1000,1000,1000,1000,98228193,1575,1573,1578,1579
65258886,1000,1000,1000,1000,98328986,1580,1578,1572,1574
65261385,1000,1000,1000,1000,98428946,1583,1581,1567,1569
65263884,1000,1000,1000,1000,98528906,1585,1583,1565,1566
65266383,1000,1000,1000,1000,98628866,1587,1585,1565,1566
65268882,1000,1000,1000,1000,98728826,1587,1585,1566,1567
65271381,1000,1000,1000,1000,98828786,1586,1584,1568,1568
65273880,1000,1000,1000,1000,98928746,1584,1584,1571,1571
65276379,1000,1000,1000,1000,99028706,1582,1582,1574,1573
65278878,1000,1000,1000,1000,99128666,1578,1579,1576,1576
65281377,1000,1000,1000,1000,99228626,1577,1578,1580,1579
65283876,1000,1000,1000,1000,99328586,1574,1576,1581,1581
65286375,1000,1000,1000,1000,99428546,1574,1575,1584,1583
65288874,1000,1000,1000,1000,99528506,1573,1574,1584,1584
65291373,1000,1000,1000,1000,99628466,1573,1573,1584,1584
65293872,1000,1000,1000,1000,99728426,1573,1574,1584,1583
65296371,1000,1000,1000,1000,99828386,1574,1575,1584,1583
65298870,1000,1000,1000,1000,99928346,1576,1576,1583,1583
65301369,1000,1000,1000,1000,100028306,1577,1577,1581,1581
65303868,1000,1000,1000,1000,100128266,1578,1578,1580,1581
65306367,1000,1000,1000,1000,100228226,1579,1579,1579,1579
65308866,1000,1000,1000,1000,100328186,1580,1579,1577,1578
65311365,1000,1000,1000,1000,100428979,1580,1580,1577,1577
65313864,1000,1000,1000,1000,100528939,1581,1580,1576,1576
65316363,1000,1000,1000,1000,100628899,1581,1581,1577,1576
65318862,1000,1000,1000,1000,100728859,1582,1582,1577,1577
65321361,1000,1000,1000,1000,100828819,1582,1581,1578,1578
65323860,1000,1000,1000,1000,100928779,1581,1581,1578,1578
65326359,1000,1000,1000,1000,101028739,1581,1581,1578,1579
65328858,1000,1000,1000,1000,101128699,1580,1581,1579,1579
65331357,1000,1000,1000,1000,101228659,1580,1580,1580,1580
65333856,1000,1000,1000,1000,101328619,1581,1581,1581,1581
65336355,1000,1000,1000,1000,101428579,1580,1580,1581,1581
65338854,1000,1000,1000,1000,101528539,1580,1580,1582,1581
65341353,1000,1000,1000,1000,101628499,1580,1580,1582,1582
65343852,1000,1000,1000,1000,101728459,1580,1581,1582,1583
65346351,1000,1000,1000,1000,101828419,1580,1580,1582,1582
65348850,1000,1000,1000,1000,101928379,1581,1581,1582,1582
65351349,1000,1000,1000,1000,102028339,1581,1581,1587,1575
65353848,1000,1000,1000,1000,102128299,1581,1581,1586,1574
65356347,1000,1000,1000,1000,102228259,1579,1579,1580,1575
65358846,1000,1000,1000,1000,102328219,1575,1575,1574,1575
65361345,1000,1000,1000,1000,102428179,1572,1572,1568,1575
65363844,1000,1000,1000,1000,102528972,1569,1569,1565,1572
65366343,1000,1000,1000,1000,102628932,1567,1567,1563,1569
65368842,1000,1000,1000,1000,102728892,1566,1566,1564,1567
65371341,1000,1000,1000,1000,102828852,1564,1565,1564,1563
65373840,1000,1000,1000,1000,102928812,1564,1565,1565,1563
65376339,1000,1000,1000,1000,103028772,1565,1566,1566,1563
65378838,1000,1000,1000,1000,103128732,1565,1565,1566,1564
65381337,1000,1000,1000,1000,103228692,1565,1564,1566,1563
65383836,1000,1000,1000,1000,103328652,1563,1562,1564,1563
65386335,1000,1000,1000,1000,103428612,1563,1562,1563,1563
65388834,1000,1000,1000,1000,103528572,1562,1562,1563,1563
65391333,1000,1000,1000,1000,103628532,1562,1562,1562,1563
65393832,1000,1000,1000,1000,103728492,1561,1560,1561,1561
65396331,1000,1000,1000,1000,103828452,1560,1560,1561,1560
65398830,1000,1000,1000,1000,103928412,1560,1560,1560,1559
65401329,1000,1000,1000,1000,104028372,1559,1560,1560,1559
65403828,1000,1000,1000,1000,104128332,1559,1559,1560,1559
65406327,1000,1000,1000,1000,104228292,1560,1560,1560,1560
65408826,1000,1000,1000,1000,104328252,1560,1560,1560,1559
65411325,1000,1000,1000,1000,104428212,1560,1560,1560,1559
65413824,1000,1000,1000,1000,104528172,1559,1559,1560,1559
65416323,1000,1000,1000,1000,104628965,1559,1559,1560,1558
65418822,1000,1000,1000,1000,104728925,1560,1559,1561,1558
65421321,1000,1000,1000,1000,104828885,1560,1560,1560,1560
65423820,1000,1000,1000,1000,104928845,1561,1561,1559,1563
65426319,1000,1000,1000,1000,105028805,1560,1560,1558,1563
65428818,1000,1000,1000,1000,105128765,1561,1562,1558,1565
65431317,1000,1000,1000,1000,105228725,1562,1561,1559,1563
65433816,1000,1000,1000,1000,105328685,1561,1560,1559,1561
65436315,1000,1000,1000,1000,105428645,1560,1559,1560,1557
65438814,1000,1000,1000,1000,105528605,1560,1560,1559,1559
65441313,1000,1000,1000,1000,105628565,1557,1556,1556,1557
65443812,1000,1000,1000,1000,105728525,1553,1552,1552,1553
65446311,1000,1000,1000,1000,105828485,1547,1548,1547,1548
65448810,1000,1000,1000,1000,105928445,1542,1542,1542,1542
65451309,1000,1000,1000,1000,106028405,1535,1535,1535,1535
65453808,1000,1000,1000,1000,106128365,1528,1528,1528,1528
65456307,1000,1000,1000,1000,106228325,1522,1522,1522,1522
65458806,1000,1000,1000,1000,106328285,1519,1520,1519,1521
65461305,1000,1000,1000,1000,106428245,1519,1520,1519,1521
65463804,1000,1000,1000,1000,106528205,1520,1521,1520,1522
65466303,1000,1000,1000,1000,106628165,1522,1523,1522,1523
65468802,1000,1000,1000,1000,106728958,1526,1526,1526,1526
65471301,1000,1000,1000,1000,106828918,1531,1531,1531,1531
65473800,1000,1000,1000,1000,106928878,1535,1535,1536,1535
65476299,1000,1000,1000,1000,107028838,1539,1538,1539,1538
65478798,1000,1000,1000,1000,107128798,1541,1540,1541,1540
65481297,1000,1000,1000,1000,107228758,1544,1543,1544,1543
65483796,1000,1000,1000,1000,107328718,1545,1545,1545,1544
65486295,1000,1000,1000,1000,107428678,1547,1546,1547,1546
65488794,1000,1000,1000,1000,107528638,1547,1546,1547,1546
65491293,1000,1000,1000,1000,107628598,1547,1547,1547,1546
65493792,1000,1000,1000,1000,107728558,1547,1548,1547,1547
65496291,1000,1000,1000,1000,107828518,1547,1547,1547,1547
65498790,1000,1000,1000,1000,107928478,1547,1547,1547,1547
65501289,1000,1000,1000,1000,108028438,1546,1547,1546,1546
65503788,1000,1000,1000,1000,108128398,1546,1546,1546,1546
65506287,1000,1000,1000,1000,108228358,1546,1546,1546,1546
65508786,1000,1000,1000,1000,108328318,1546,1546,1546,1545
65511285,1000,1000,1000,1000,108428278,1545,1546,1545,1545
65513784,1000,1000,1000,1000,108528238,1545,1545,1545,1545
65516283,1000,1000,1000,1000,108628198,1545,1545,1545,1545
65518782,1000,1000,1000,1000,108728158,1545,1545,1545,1545
65521281,1000,1000,1000,1000,108828951,1545,1545,1545,1545
65523780,1000,1000,1000,1000,108928911,1545,1545,1544,1545
65526279,1000,1000,1000,1000,109028871,1544,1544,1544,1544
65528778,1000,1000,1000,1000,109128831,1544,1543,1544,1543
65531277,1000,1000,1000,1000,109228791,1543,1543,1544,1543
65533776,1000,1000,1000,1000,109328751,1544,1544,1544,1544
65536275,1000,1000,1000,1000,109428711,1543,1544,1544,1544
65538774,1000,1000,1000,1000,109528671,1543,1543,1543,1543
65541273,1000,1000,1000,1000,109628631,1544,1545,1544,1545
65543772,1000,1000,1000,1000,109728591,1544,1543,1543,1544
65546271,1000,1000,1000,1000,109828551,1544,1544,1544,1544
65548770,1000,1000,1000,1000,109928511,1545,1544,1544,1544
65551269,1000,1000,1000,1000,110028471,1544,1544,1545,1544
65553768,1000,1000,1000,1000,110128431,1545,1544,1544,1544
65556267,1000,1000,1000,1000,110228391,1544,1545,1544,1545
65558766,1000,1000,1000,1000,110328351,1544,1544,1544,1545
65561265,1000,1000,1000,1000,110428311,1544,1544,1544,1544
65563764,1000,1000,1000,1000,110528271,1545,1545,1545,1545
65566263,1000,1000,1000,1000,110628231,1544,1544,1544,1544
65568762,1000,1000,1000,1000,110728191,1544,1544,1544,1544
65571261,1000,1000,1000,1000,110828984,1544,1545,1544,1545
65573760,1000,1000,1000,1000,110928944,1544,1544,1544,1544
65576259,1000,1000,1000,1000,111028904,1543,1543,1544,1543
65578758,1000,1000,1000,1000,111128864,1544,1544,1543,1544
65581257,1000,1000,1000,1000,111228824,1544,1544,1544,1544
65583756,1000,1000,1000,1000,111328784,1544,1544,1544,1544
65586255,1000,1000,1000,1000,111428744,1544,1544,1544,1544
65588754,1000,1000,1000,1000,111528704,1545,1545,1545,1545
65591253,1000,1000,1000,1000,111628664,1544,1545,1545,1545
65593752,1000,1000,1000,1000,111728624,1544,1544,1544,1544
65596251,1000,1000,1000,1000,111828584,1545,1544,1544,1544
65598750,1000,1000,1000,1000,111928544,1545,1544,1544,1545
65601249,1000,1000,1000,1000,112028504,1544,1544,1544,1544
65603748,1000,1000,1000,1000,112128464,1544,1544,1544,1544
65606247,1000,1000,1000,1000,112228424,1544,1544,1544,1544
65608746,1000,1000,1000,1000,112328384,1544,1544,1544,1544
65611245,1000,1000,1000,1000,112428344,1544,1545,1544,1544
65613744,1000,1000,1000,1000,112528304,1544,1544,1544,1544
65616243,1000,1000,1000,1000,112628264,1544,1543,1544,1544
65618742,1000,1000,1000,1000,112728224,1545,1544,1545,1545
65621241,1000,1000,1000,1000,112828184,1543,1544,1544,1543
65623740,1000,1000,1000,1000,112928977,1543,1543,1543,1543
65626239,1000,1000,1000,1000,113028937,1544,1544,1544,1544
65628738,1000,1000,1000,1000,113128897,1544,1544,1544,1545
65631237,1000,1000,1000,1000,113228857,1544,1544,1544,1545
65633736,1000,1000,1000,1000,113328817,1544,1544,1544,1544
65636235,1000,1000,1000,1000,113428777,1545,1545,1545,1545
65638734,1000,1000,1000,1000,113528737,1544,1544,1544,1544
65641233,1000,1000,1000,1000,113628697,1544,1544,1544,1544
65643732,1000,1000,1000,1000,113728657,1544,1543,1544,1544
65646231,1000,1000,1000,1000,113828617,1545,1544,1545,1544
65648730,1000,1000,1000,1000,113928577,1544,1544,1544,1544
65651229,1000,1000,1000,1000,114028537,1544,1544,1544,1544
65653728,1000,1000,1000,1000,114128497,1544,1544,1544,1544
65656227,1000,1000,1000,1000,114228457,1544,1544,1544,1544
65658726,1000,1000,1000,1000,114328417,1545,1544,1544,1544
65661225,1000,1000,1000,1000,114428377,1545,1545,1545,1545
65663724,1000,1000,1000,1000,114528337,1544,1544,1544,1545
65666223,1000,1000,1000,1000,114628297,1544,1544,1544,1544
65668722,1000,1000,1000,1000,114728257,1545,1544,1545,1545
65671221,1000,1000,1000,1000,114828217,1545,1545,1545,1545
65673720,1000,1000,1000,1000,114928177,1545,1545,1545,1545
65676219,1000,1000,1000,1000,115028970,1543,1544,1544,1543
65678718,1000,1000,1000,1000,115128930,1544,1545,1544,1545
65681217,1000,1000,1000,1000,115228890,1544,1545,1544,1544
65683716,1000,1000,1000,1000,115328850,1544,1544,1544,1544
65686215,1000,1000,1000,1000,115428810,1544,1544,1544,1544
65688714,1000,1000,1000,1000,115528770,1544,1544,1544,1544
65691213,1000,1000,1000,1000,115628730,1543,1544,1544,1544
65693712,1000,1000,1000,1000,115728690,1544,1544,1544,1545
65696211,1000,1000,1000,1000,115828650,1544,1544,1544,1544
65698710,1000,1000,1000,1000,115928610,1545,1545,1545,1545
65701209,1000,1000,1000,1000,116028570,1447,1406,1447,1406
65703708,1000,1000,1000,1000,116128530,1361,1270,1361,1269
65706207,1000,1000,1000,1000,116228490,1332,1220,1333,1218
65708706,1000,1000,1000,1000,116328450,1322,1199,1322,1199
65711205,1000,1000,1000,1000,116428410,1303,1163,1303,1162
65713704,1000,1000,1000,1000,116528370,1250,1150,1250,1150
65716203,1000,1000,1000,1000,116628330,1149,1150,1150,1150
65718702,1000,1000,1000,1000,116728290,1035,1150,1035,1150
65721201,1000,1000,1000,1000,116828250,1034,1150,1035,1150
65723700,1000,1000,1000,1000,116928210,1035,1150,1035,1150
65726199,1000,1000,1000,1000,117028170,1035,1150,1032,1154
65728698,1000,1000,1000,1000,117128963,1035,1150,1027,1160
65731197,1000,1000,1000,1000,117228923,1035,1150,1030,1156
65733696,1000,1000,1000,1000,117328883,1035,1150,1031,1155
65736195,1000,1000,1000,1000,117428843,1035,1150,1031,1155
65738694,1000,1000,1000,1000,117528803,1035,1150,1030,1156
65741193,1000,1000,1000,1000,117628763,1035,1150,1030,1156
65743692,1000,1000,1000,1000,117728723,1035,1150,1030,1157
65746191,1000,1000,1000,1000,117828683,1033,1151,1035,1150
65748690,1000,1000,1000,1000,117928643,1035,1150,1033,1152
65751189,1000,1000,1000,1000,118028603,1035,1150,1033,1153
65753688,1000,1000,1000,1000,118128563,1035,1150,1032,1153
65756187,1000,1000,1000,1000,118228523,1035,1150,1032,1153
65758686,1000,1000,1000,1000,118328483,866,1145,866,1145
65761185,1000,1000,1000,1000,118428443,1000,1000,1000,1000
65763684,1000,1000,1000,1000,118528403,1000,1000,1000,1000
65766183,1000,1000,1000,1000,118628363,1000,1000,1000,1000
65768682,1000,1000,1000,1000,118728323,1000,1000,1000,1000
65771181,1000,1000,1000,1000,118828283,1000,1000,1000,1000
65773680,1000,1000,1000,1000,118928243,1000,1000,1000,1000
65776179,1000,1000,1000,1000,119028203,1000,1000,1000,1000
65778678,1000,1000,1000,1000,119128163,1000,1000,1000,1000
65781177,1000,1000,1000,1000,119228956,1000,1000,1000,1000
65783676,1000,1000,1000,1000,119328916,1000,1000,1000,1000
65786175,1000,1000,1000,1000,119428876,1000,1000,1000,1000
65788674,1000,1000,1000,1000,119528836,1000,1000,1000,1000
65791173,1000,1000,1000,1000,119628796,1000,1000,1000,1000
65793672,1000,1000,1000,1000,119728756,1000,1000,1000,1000
65796171,1000,1000,1000,1000,119828716,1000,1000,1000,1000
65798670,1000,1000,1000,1000,119928676,1000,1000,1000,1000
65801169,1000,1000,1000,1000,120028636,1000,1000,1000,1000
65803668,1000,1000,1000,1000,120128596,1000,1000,1000,1000
65806167,1000,1000,1000,1000,120228556,1000,1000,1000,1000
65808666,1000,1000,1000,1000,120328516,1000,1000,1000,1000
65811165,1000,1000,1000,1000,120428476,1000,1000,1000,1000
65813664,1000,1000,1000,1000,120528436,1000,1000,1000,1000
65816163,1000,1000,1000,1000,120628396,1000,1000,1000,1000
65818662,1000,1000,1000,1000,120728356,1000,1000,1000,1000
65821161,1000,1000,1000,1000,120828316,1000,1000,1000,1000
65823660,1000,1000,1000,1000,120928276,1000,1000,1000,1000
65826159,1000,1000,1000,1000,121028236,1000,1000,1000,1000
65828658,1000,1000,1000,1000,121128196,1000,1000,1000,1000
65831157,1000,1000,1000,1000,121228156,1000,1000,1000,1000
65833656,1000,1000,1000,1000,121328949,1000,1000,1000,1000
65836155,1000,1000,1000,1000,121428909,1000,1000,1000,1000
65838654,1000,1000,1000,1000,121528869,1000,1000,1000,1000
65841153,1000,1000,1000,1000,121628829,1000,1000,1000,1000
65843652,1000,1000,1000,1000,121728789,1000,1000,1000,1000
65846151,1000,1000,1000,1000,121828749,1000,1000,1000,1000
65848650,1000,1000,1000,1000,121928709,1000,1000,1000,1000
65851149,1000,1000,1000,1000,122028669,1000,1000,1000,1000
65853648,1000,1000,1000,1000,122128629,1000,1000,1000,1000
65856147,1000,1000,1000,1000,122228589,1000,1000,1000,1000
65858646,1000,1000,1000,1000,122328549,1000,1000,1000,1000
65861145,1000,1000,1000,1000,122428509,1000,1000,1000,1000
65863644,1000,1000,1000,1000,122528469,1000,1000,1000,1000
65866143,1000,1000,1000,1000,122628429,1000,1000,1000,1000
65868642,1000,1000,1000,1000,122728389,1000,1000,1000,1000
65871141,1000,1000,1000,1000,122828349,1000,1000,1000,1000
65873640,1000,1000,1000,1000,122928309,1000,1000,1000,1000
65876139,1000,1000,1000,1000,123028269,1000,1000,1000,1000
65878638,1000,1000,1000,1000,123128229,1000,1000,1000,1000
65881137,1000,1000,1000,1000,123228189,1000,1000,1000,1000
65883636,1000,1000,1000,1000,123328982,1000,1000,1000,1000
65886135,1000,1000,1000,1000,123428942,1000,1000,1000,1000
65888634,1000,1000,1000,1000,123528902,1000,1000,1000,1000
65891133,1000,1000,1000,1000,123628862,1000,1000,1000,1000
65893632,1000,1000,1000,1000,123728822,1000,1000,1000,1000
65896131,1000,1000,1000,1000,123828782,1000,1000,1000,1000
65898630,1000,1000,1000,1000,123928742,1000,1000,1000,1000
65901129,1000,1000,1000,1000,124028702,1000,1000,1000,1000
65903628,1000,1000,1000,1000,124128662,1000,1000,1000,1000
65906127,1000,1000,1000,1000,124228622,1000,1000,1000,1000
65908626,1000,1000,1000,1000,124328582,1000,1000,1000,1000
65911125,1000,1000,1000,1000,124428542,1000,1000,1000,1000
65913624,1000,1000,1000,1000,124528502,1000,1000,1000,1000
65916123,1000,1000,1000,1000,124628462,1000,1000,1000,1000
65918622,1000,1000,1000,1000,124728422,1000,1000,1000,1000
65921121,1000,1000,1000,1000,124828382,1000,1000,1000,1000
65923620,1000,1000,1000,1000,124928342,1000,1000,1000,1000
65926119,1000,1000,1000,1000,125028302,1000,1000,1000,1000
65928618,1000,1000,1000,1000,125128262,1000,1000,1000,1000
65931117,1000,1000,1000,1000,125228222,1000,1000,1000,1000
65933616,1000,1000,1000,1000,125328182,1000,1000,1000,1000
65936115,1000,1000,1000,1000,125428975,1000,1000,1000,1000
65938614,1000,1000,1000,1000,125528935,1000,1000,1000,1000
65941113,1000,1000,1000,1000,125628895,1000,1000,1000,1000
65943612,1000,1000,1000,1000,125728855,1000,1000,1000,1000
65946111,1000,1000,1000,1000,125828815,1000,1000,1000,1000
65948610,1000,1000,1000,1000,125928775,1000,1000,1000,1000
65951109,1000,1000,1000,1000,126028735,1000,1000,1000,1000
65953608,1000,1000,1000,1000,126128695,1000,1000,1000,1000
65956107,1000,1000,1000,1000,126228655,1000,1000,1000,1000
65958606,1000,1000,1000,1000,126328615,1000,1000,1000,1000
65961105,1000,1000,1000,1000,126428575,1000,1000,1000,1000
65963604,1000,1000,1000,1000,126528535,1000,1000,1000,1000
65966103,1000,1000,1000,1000,126628495,1000,1000,1000,1000
65968602,1000,1000,1000,1000,126728455,1000,1000,1000,1000
65971101,1000,1000,1000,1000,126828415,1000,1000,1000,1000
65973600,1000,1000,1000,1000,126928375,1000,1000,1000,1000
65976099,1000,1000,1000,1000,127028335,1000,1000,1000,1000
65978598,1000,1000,1000,1000,127128295,1000,1000,1000,1000
65981097,1000,1000,1000,1000,127228255,1000,1000,1000,1000
65983596,1000,1000,1000,1000,127328215,1000,1000,1000,1000
65986095,1000,1000,1000,1000,127428175,1000,1000,1000,1000
65988594,1000,1000,1000,1000,127528968,1000,1000,1000,1000
65991093,1000,1000,1000,1000,127628928,1000,1000,1000,1000
65993592,1000,1000,1000,1000,127728888,1000,1000,1000,1000
65996091,1000,1000,1000,1000,127828848,1000,1000,1000,1000
65998590,1000,1000,1000,1000,127928808,1000,1000,1000,1000
66001089,1000,1000,1000,1000,128028768,1000,1000,1000,1000
66003588,1000,1000,1000,1000,128128728,1000,1000,1000,1000
66006087,1000,1000,1000,1000,128228688,1000,1000,1000,1000
66008586,1000,1000,1000,1000,128328648,1000,1000,1000,1000
66011085,1000,1000,1000,1000,128428608,1000,1000,1000,1000
66013584,1000,1000,1000,1000,128528568,1000,1000,1000,1000
66016083,1000,1000,1000,1000,128628528,1000,1000,1000,1000
66018582,1000,1000,1000,1000,128728488,1000,1000,1000,1000
66021081,1000,1000,1000,1000,128828448,1000,1000,1000,1000
66023580,1000,1000,1000,1000,128928408,1000,1000,1000,1000
66026079,1000,1000,1000,1000,,,,,
66028578,1000,1000,1000,1000,,,,,
66031077,1000,1000,1000,1000,,,,,
66033576,1000,1000,1000,1000,,,,,
66036075,1000,1000,1000,1000,,,,,
66038574,1000,1000,1000,1000,,,,,
66041073,1000,1000,1000,1000,,,,,
66043572,1000,1000,1000,1000,,,,,
66046071,1000,1000,1000,1000,,,,,
66048570,1000,1000,1000,1000,,,,,
66051069,1000,1000,1000,1000,,,,,
66053568,1000,1000,1000,1000,,,,,
66056067,1000,1000,1000,1000,,,,,
66058566,1000,1000,1000,1000,,,,,
66061065,1000,1000,1000,1000,,,,,
66063564,1000,1000,1000,1000,,,,,
66066063,1000,1000,1000,1000,,,,,
66068562,1000,1000,1000,1000,,,,,
66071061,1000,1000,1000,1000,,,,,
66073560,1000,1000,1000,1000,,,,,
66076059,1000,1000,1000,1000,,,,,
66078558,1000,1000,1000,1000,,,,,
66081057,1000,1000,1000,1000,,,,,
66083556,1000,1000,1000,1000,,,,,
66086055,1000,1000,1000,1000,,,,,
66088554,1000,1000,1000,1000,,,,,
66091053,1000,1000,1000,1000,,,,,
66093552,1000,1000,1000,1000,,,,,
66096051,1000,1000,1000,1000,,,,,
66098550,1000,1000,1000,1000,,,,,
66101049,1000,1000,1000,1000,,,,,
66103548,1000,1000,1000,1000,,,,,
66106047,1000,1000,1000,1000,,,,,
66108546,1000,1000,1000,1000,,,,,
66111045,1000,1000,1000,1000,,,,,
66113544,1000,1000,1000,1000,,,,,
66116043,1000,1000,1000,1000,,,,,
66118542,1000,1000,1000,1000,,,,,
66121041,1000,1000,1000,1000,,,,,
66123540,1000,1000,1000,1000,,,,,
66126039,1000,1000,1000,1000,,,,,
66128538,1000,1000,1000,1000,,,,,
66131037,1000,1000,1000,1000,,,,,
66133536,1000,1000,1000,1000,,,,,
66136035,1000,1000,1000,1000,,,,,
66138534,1000,1000,1000,1000,,,,,
66141033,1000,1000,1000,1000,,,,,
66143532,1000,1000,1000,1000,,,,,
66146031,1000,1000,1000,1000,,,,,
66148530,1000,1000,1000,1000,,,,,
66151029,1000,1000,1000,1000,,,,,
66153528,1000,1000,1000,1000,,,,,
66156027,1000,1000,1000,1000,,,,,
66158526,1000,1000,1000,1000,,,,,
66161025,1000,1000,1000,1000,,,,,
66163524,1000,1000,1000,1000,,,,,
66166023,1000,1000,1000,1000,,,,,
66168522,1000,1000,1000,1000,,,,,
66171021,1000,1000,1000,1000,,,,,
66173520,1000,1000,1000,1000,,,,,
66176019,1000,1000,1000,1000,,,,,
66178518,1000,1000,1000,1000,,,,,
66181017,1000,1000,1000,1000,,,,,
66183516,1000,1000,1000,1000,,,,,
66186015,1000,1000,1000,1000,,,,,
66188514,1000,1000,1000,1000,,,,,
66191013,1000,1000,1000,1000,,,,,
66193512,1000,1000,1000,1000,,,,,
66196011,1000,1000,1000,1000,,,,,
66198510,1000,1000,1000,1000,,,,,
66201009,1000,1000,1000,1000,,,,,
66203508,1000,1000,1000,1000,,,,,
66206007,1000,1000,1000,1000,,,,,
66208506,1000,1000,1000,1000,,,,,
66211005,1000,1000,1000,1000,,,,,
66213504,1000,1000,1000,1000,,,,,
66216003,1000,1000,1000,1000,,,,,
66218502,1000,1000,1000,1000,,,,,
66221001,1000,1000,1000,1000,,,,,
66223500,1000,1000,1000,1000,,,,,
66225999,1000,1000,1000,1000,,,,,
66228498,1000,1000,1000,1000,,,,,
66230997,1000,1000,1000,1000,,,,,
66233496,1000,1000,1000,1000,,,,,
66235995,1000,1000,1000,1000,,,,,
66238494,1000,1000,1000,1000,,,,,
66240993,1000,1000,1000,1000,,,,,
66243492,1000,1000,1000,1000,,,,,
66245991,1000,1000,1000,1000,,,,,
66248490,1000,1000,1000,1000,,,,,
66250989,1000,1000,1000,1000,,,,,
66253488,1000,1000,1000,1000,,,,,
66255987,1000,1000,1000,1000,,,,,
66258486,1000,1000,1000,1000,,,,,
66260985,1000,1000,1000,1000,,,,,
66263484,1000,1000,1000,1000,,,,,
66265983,1000,1000,1000,1000,,,,,
66268482,1000,1000,1000,1000,,,,,
66270981,1000,1000,1000,1000,,,,,
66273480,1000,1000,1000,1000,,,,,
66275979,1000,1000,1000,1000,,,,,
66278478,1000,1000,1000,1000,,,,,
66280977,1000,1000,1000,1000,,,,,
66283476,1000,1000,1000,1000,,,,,
66285975,1000,1000,1000,1000,,,,,
66288474,1000,1000,1000,1000,,,,,
66290973,1000,1000,1000,1000,,,,,
66293472,1000,1000,1000,1000,,,,,
66295971,1000,1000,1000,1000,,,,,
66298470,1000,1000,1000,1000,,,,,
66300969,1000,1000,1000,1000,,,,,
66303468,1000,1000,1000,1000,,,,,
66305967,1000,1000,1000,1000,,,,,
66308466,1000,1000,1000,1000,,,,,
66310965,1000,1000,1000,1000,,,,,
66313464,1000,1000,1000,1000,,,,,
66315963,1000,1000,1000,1000,,,,,
66318462,1000,1000,1000,1000,,,,,
66320961,1000,1000,1000,1000,,,,,
66323460,1000,1000,1000,1000,,,,,
66325959,1000,1000,1000,1000,,,,,
66328458,1000,1000,1000,1000,,,,,
66330957,1000,1000,1000,1000,,,,,
66333456,1000,1000,1000,1000,,,,,
66335955,1000,1000,1000,1000,,,,,
66338454,1000,1000,1000,1000,,,,,
66340953,1000,1000,1000,1000,,,,,
66343452,1000,1000,1000,1000,,,,,
66345951,1000,1000,1000,1000,,,,,
66348450,1000,1000,1000,1000,,,,,
66350949,1000,1000,1000,1000,,,,,
66353448,1000,1000,1000,1000,,,,,
66355947,1000,1000,1000,1000,,,,,
66358446,1000,1000,1000,1000,,,,,
66360945,1000,1000,1000,1000,,,,,
66363444,1000,1000,1000,1000,,,,,
66365943,1000,1000,1000,1000,,,,,
66368442,1000,1000,1000,1000,,,,,
66370941,1000,1000,1000,1000,,,,,
66373440,1000,1000,1000,1000,,,,,
66375939,1000,1000,1000,1000,,,,,
66378438,1000,1000,1000,1000,,,,,
66380937,1000,1000,1000,1000,,,,,
66383436,1000,1000,1000,1000,,,,,
66385935,1000,1000,1000,1000,,,,,
66388434,1000,1000,1000,1000,,,,,
66390933,1000,1000,1000,1000,,,,,
66393432,1000,1000,1000,1000,,,,,
66395931,1000,1000,1000,1000,,,,,
66398430,1000,1000,1000,1000,,,,,
66400929,1000,1000,1000,1000,,,,,
66403428,1000,1000,1000,1000,,,,,
66405927,1000,1000,1000,1000,,,,,
66408426,1000,1000,1000,1000,,,,,
66410925,1000,1000,1000,1000,,,,,
66413424,1000,1000,1000,1000,,,,,
66415923,1000,1000,1000,1000,,,,,
66418422,1001,1001,1001,1001,,,,,
66420921,1002,1002,1002,1002,,,,,
66423420,1003,1003,1003,1003,,,,,
66425919,1003,1003,1003,1003,,,,,
66428418,1004,1004,1004,1004,,,,,
66430917,1005,1005,1005,1005,,,,,
66433416,1006,1006,1006,1006,,,,,
66435915,1006,1006,1006,1006,,,,,
66438414,1007,1007,1007,1007,,,,,
66440913,1008,1008,1008,1008,,,,,
66443412,1009,1009,1009,1009,,,,,
66445911,1009,1009,1009,1009,,,,,
66448410,1010,1010,1010,1010,,,,,
66450909,1011,1011,1011,1011,,,,,
66453408,1012,1012,1012,1012,,,,,
66455907,1012,1012,1012,1012,,,,,
66458406,1013,1013,1013,1013,,,,,
66460905,1014,1014,1014,1014,,,,,
66463404,1015,1015,1015,1015,,,,,
66465903,1015,1015,1015,1015,,,,,
66468402,1016,1016,1016,1016,,,,,
66470901,1017,1017,1017,1017,,,,,
66473400,1018,1018,1018,1018,,,,,
66475899,1018,1018,1018,1018,,,,,
66478398,1019,1019,1019,1019,,,,,
66480897,1020,1020,1020,1020,,,,,
66483396,1021,1021,1021,1021,,,,,
66485895,1021,1021,1021,1021,,,,,
66488394,1022,1022,1022,1022,,,,,
66490893,1023,1023,1023,1023,,,,,
66493392,1024,1024,1024,1024,,,,,
66495891,1024,1024,1024,1024,,,,,
66498390,1025,1025,1025,1025,,,,,
66500889,1026,1026,1026,1026,,,,,
66503388,1027,1027,1027,1027,,,,,
66505887,1027,1027,1027,1027,,,,,
66508386,1028,1028,1028,1028,,,,,
66510885,1029,1029,1029,1029,,,,,
66513384,1030,1030,1030,1030,,,,,
66515883,1030,1030,1030,1030,,,,,
66518382,1031,1031,1031,1031,,,,,
66520881,1032,1032,1032,1032,,,,,
66523380,1033,1033,1033,1033,,,,,
66525879,1033,1033,1033,1033,,,,,
66528378,1034,1034,1034,1034,,,,,
66530877,1035,1035,1035,1035,,,,,
66533376,1036,1036,1036,1036,,,,,
66535875,1036,1036,1036,1036,,,,,
66538374,1037,1037,1037,1037,,,,,
66540873,1038,1038,1038,1038,,,,,
66543372,1039,1039,1039,1039,,,,,
66545871,1039,1039,1039,1039,,,,,
66548370,1040,1040,1040,1040,,,,,
66550869,1041,1041,1041,1041,,,,,
66553368,1042,1042,1042,1042,,,,,
66555867,1042,1042,1042,1042,,,,,
66558366,1043,1043,1043,1043,,,,,
66560865,1044,1044,1044,1044,,,,,
66563364,1045,1045,1045,1045,,,,,
66565863,1045,1045,1045,1045,,,,,
66568362,1046,1046,1046,1046,,,,,
66570861,1047,1047,1047,1047,,,,,
66573360,1048,1048,1048,1048,,,,,
66575859,1048,1048,1048,1048,,,,,
66578358,1049,1049,1049,1049,,,,,
66580857,1050,1050,1050,1050,,,,,
66583356,1051,1051,1051,1051,,,,,
66585855,1051,1051,1051,1051,,,,,
66588354,1052,1052,1052,1052,,,,,
66590853,1053,1053,1053,1053,,,,,
66593352,1054,1054,1054,1054,,,,,
66595851,1054,1054,1054,1054,,,,,
66598350,1055,1055,1055,1055,,,,,
66600849,1056,1056,1056,1056,,,,,
66603348,1057,1057,1057,1057,,,,,
66605847,1057,1057,1057,1057,,,,,
66608346,1058,1058,1058,1058,,,,,
66610845,1059,1059,1059,1059,,,,,
66613344,1060,1060,1060,1060,,,,,
66615843,1060,1060,1060,1060,,,,,
66618342,1061,1061,1061,1061,,,,,
66620841,1062,1062,1062,1062,,,,,
66623340,1063,1063,1063,1063,,,,,
66625839,1063,1063,1063,1063,,,,,
66628338,1064,1064,1064,1064,,,,,
66630837,1065,1065,1065,1065,,,,,
66633336,1066,1066,1066,1066,,,,,
66635835,1066,1066,1066,1066,,,,,
66638334,1067,1067,1067,1067,,,,,
66640833,1068,1068,1068,1068,,,,,
66643332,1069,1069,1069,1069,,,,,
66645831,1069,1069,1069,1069,,,,,
66648330,1070,1070,1070,1070,,,,,
66650829,1071,1071,1071,1071,,,,,
66653328,1072,1072,1072,1072,,,,,
66655827,1072,1072,1072,1072,,,,,
66658326,1073,1073,1073,1073,,,,,
66660825,1074,1074,1074,1074,,,,,
66663324,1075,1075,1075,1075,,,,,
66665823,1075,1075,1075,1075,,,,,
66668322,1076,1076,1076,1076,,,,,
66670821,1077,1077,1077,1077,,,,,
66673320,1078,1078,1078,1078,,,,,
66675819,1078,1078,1078,1078,,,,,
66678318,1079,1079,1079,1079,,,,,
66680817,1080,1080,1080,1080,,,,,
66683316,1081,1081,1081,1081,,,,,
66685815,1081,1081,1081,1081,,,,,
66688314,1082,1082,1082,1082,,,,,
66690813,1083,1083,1083,1083,,,,,
66693312,1084,1084,1084,1084,,,,,
66695811,1084,1084,1084,1084,,,,,
66698310,1085,1085,1085,1085,,,,,
66700809,1086,1086,1086,1086,,,,,
66703308,1087,1087,1087,1087,,,,,
66705807,1087,1087,1087,1087,,,,,
66708306,1088,1088,1088,1088,,,,,
66710805,1089,1089,1089,1089,,,,,
66713304,1090,1090,1090,1090,,,,,
66715803,1090,1090,1090,1090,,,,,
66718302,1091,1091,1091,1091,,,,,
66720801,1092,1092,1092,1092,,,,,
66723300,1093,1093,1093,1093,,,,,
66725799,1093,1093,1093,1093,,,,,
66728298,1094,1094,1094,1094,,,,,
66730797,1095,1095,1095,1095,,,,,
66733296,1096,1096,1096,1096,,,,,
66735795,1096,1096,1096,1096,,,,,
66738294,1097,1097,1097,1097,,,,,
66740793,1098,1098,1098,1098,,,,,
66743292,1099,1099,1099,1099,,,,,
66745791,1099,1099,1099,1099,,,,,
66748290,1100,1100,1100,1100,,,,,
66750789,1101,1101,1101,1101,,,,,
66753288,1101,1101,1101,1101,,,,,
66755787,1102,1102,1102,1102,,,,,
66758286,1103,1103,1103,1103,,,,,
66760785,1104,1104,1104,1104,,,,,
66763284,1104,1104,1104,1104,,,,,
66765783,1105,1105,1105,1105,,,,,
66768282,1106,1106,1106,1106,,,,,
66770781,1107,1107,1107,1107,,,,,
66773280,1107,1107,1107,1107,,,,,
66775779,1108,1108,1108,1108,,,,,
66778278,1109,1109,1109,1109,,,,,
66780777,1110,1110,1110,1110,,,,,
66783276,1110,1110,1110,1110,,,,,
66785775,1111,1111,1111,1111,,,,,
66788274,1112,1112,1112,1112,,,,,
66790773,1113,1113,1113,1113,,,,,
66793272,1113,1113,1113,1113,,,,,
66795771,1114,1114,1114,1114,,,,,
66798270,1115,1115,1115,1115,,,,,
66800769,1116,1116,1116,1116,,,,,
66803268,1116,1116,1116,1116,,,,,
66805767,1117,1117,1117,1117,,,,,
66808266,1118,1118,1118,1118,,,,,
66810765,1119,1119,1119,1119,,,,,
66813264,1119,1119,1119,1119,,,,,
66815763,1120,1120,1120,1120,,,,,
66818262,1121,1121,1121,1121,,,,,
66820761,1122,1122,1122,1122,,,,,
66823260,1122,1122,1122,1122,,,,,
66825759,1123,1123,1123,1123,,,,,
66828258,1124,1124,1124,1124,,,,,
66830757,1125,1125,1125,1125,,,,,
66833256,1125,1125,1125,1125,,,,,
66835755,1126,1126,1126,1126,,,,,
66838254,1127,1127,1127,1127,,,,,
66840753,1128,1128,1128,1128,,,,,
66843252,1128,1128,1128,1128,,,,,
66845751,1129,1129,1129,1129,,,,,
66848250,1130,1130,1130,1130,,,,,
66850749,1131,1131,1131,1131,,,,,
66853248,1131,1131,1131,1131,,,,,
66855747,1132,1132,1132,1132,,,,,
66858246,1133,1133,1133,1133,,,,,
66860745,1134,1134,1134,1134,,,,,
66863244,1134,1134,1134,1134,,,,,
66865743,1135,1135,1135,1135,,,,,
66868242,1136,1136,1136,1136,,,,,
66870741,1137,1137,1137,1137,,,,,
66873240,1137,1137,1137,1137,,,,,
66875739,1138,1138,1138,1138,,,,,
66878238,1139,1139,1139,1139,,,,,
66880737,1140,1140,1140,1140,,,,,
66883236,1140,1140,1140,1140,,,,,
66885735,1141,1141,1141,1141,,,,,
66888234,1142,1142,1142,1142,,,,,
66890733,1143,1143,1143,1143,,,,,
66893232,1143,1143,1143,1143,,,,,
66895731,1144,1144,1144,1144,,,,,
66898230,1145,1145,1145,1145,,,,,
66900729,1146,1146,1146,1146,,,,,
66903228,1146,1146,1146,1146,,,,,
66905727,1147,1147,1147,1147,,,,,
66908226,1148,1148,1148,1148,,,,,
66910725,1149,1149,1149,1149,,,,,
66913224,1149,1149,1149,1149,,,,,
66915723,1150,1150,1150,1150,,,,,
66918222,1162,1152,1153,1163,,,,,
66920721,1170,1161,1161,1171,,,,,
66923220,1178,1168,1169,1179,,,,,
66925719,1186,1176,1177,1187,,,,,
66928218,1193,1184,1184,1194,,,,,
66930717,1201,1192,1192,1202,,,,,
66933216,1208,1199,1199,1209,,,,,
66935715,1215,1206,1207,1216,,,,,
66938214,1222,1213,1214,1223,,,,,
66940713,1229,1221,1221,1230,,,,,
66943212,1236,1228,1228,1237,,,,,
66945711,1243,1234,1235,1244,,,,,
66948210,1250,1241,1242,1250,,,,,
66950709,1256,1248,1248,1257,,,,,
66953208,1263,1255,1255,1263,,,,,
66955707,1269,1261,1262,1270,,,,,
66958206,1276,1267,1268,1276,,,,,
66960705,1282,1274,1274,1282,,,,,
66963204,1288,1280,1281,1289,,,,,
66965703,1294,1286,1287,1295,,,,,
66968202,1300,1293,1293,1301,,,,,
66970701,1306,1299,1299,1307,,,,,
66973200,1312,1305,1305,1313,,,,,
66975699,1318,1311,1311,1319,,,,,
66978198,1324,1316,1317,1324,,,,,
66980697,1330,1322,1323,1330,,,,,
66983196,1335,1328,1328,1336,,,,,
66985695,1341,1334,1334,1342,,,,,
66988194,1347,1339,1340,1347,,,,,
66990693,1352,1345,1345,1353,,,,,
66993192,1358,1350,1351,1358,,,,,
66995691,1363,1356,1356,1364,,,,,
66998190,1369,1361,1362,1369,,,,,
67000689,1374,1367,1367,1374,,,,,
67003188,1379,1372,1373,1380,,,,,
67005687,1384,1377,1378,1385,,,,,
67008186,1390,1383,1383,1390,,,,,
67010685,1395,1388,1388,1395,,,,,
67013184,1400,1393,1393,1400,,,,,
67015683,1405,1398,1399,1405,,,,,
67018182,1410,1403,1404,1410,,,,,
67020681,1415,1408,1409,1416,,,,,
67023180,1420,1413,1414,1420,,,,,
67025679,1425,1418,1419,1425,,,,,
67028178,1430,1423,1424,1430,,,,,
67030677,1435,1428,1429,1435,,,,,
67033176,1440,1433,1433,1440,,,,,
67035675,1444,1438,1438,1445,,,,,
67038174,1449,1443,1443,1450,,,,,
67040673,1454,1447,1448,1454,,,,,
67043172,1459,1452,1453,1459,,,,,
67045671,1463,1457,1457,1464,,,,,
67048170,1468,1462,1462,1468,,,,,
67050669,1473,1466,1467,1473,,,,,
67053168,1477,1471,1471,1478,,,,,
67055667,1482,1475,1476,1482,,,,,
67058166,1486,1480,1480,1487,,,,,
67060665,1491,1484,1485,1491,,,,,
67063164,1495,1489,1489,1496,,,,,
67065663,1500,1493,1494,1500,,,,,
67068162,1504,1498,1498,1505,,,,,
67070661,1509,1502,1502,1509,,,,,
67073160,1513,1507,1507,1513,,,,,
67075659,1517,1511,1511,1518,,,,,
67078158,1522,1515,1515,1522,,,,,
67080657,1526,1520,1520,1526,,,,,
67083156,1530,1524,1524,1531,,,,,
67085655,1534,1528,1528,1535,,,,,
67088154,1539,1532,1533,1539,,,,,
67091486,1543,1537,1537,1543,,,,,
67093985,1547,1541,1541,1548,,,,,
67096484,1551,1545,1545,1552,,,,,
67098983,1555,1549,1549,1556,,,,,
67101482,1559,1553,1553,1560,,,,,
67103981,1563,1557,1557,1564,,,,,
67106480,1568,1562,1562,1568,,,,,
67108979,1572,1566,1566,1572,,,,,
67111478,1576,1570,1570,1576,,,,,
67113977,1580,1574,1574,1580,,,,,
67116476,1584,1578,1578,1584,,,,,
67118975,1588,1582,1582,1588,,,,,
67121474,1592,1586,1586,1592,,,,,
67123973,1596,1590,1590,1596,,,,,
67126472,1599,1593,1594,1600,,,,,
67128971,1603,1597,1598,1604,,,,,
67131470,1607,1601,1602,1608,,,,,
67133969,1611,1605,1605,1612,,,,,
67136468,1615,1609,1609,1615,,,,,
67138967,1619,1613,1613,1619,,,,,
67141466,1623,1617,1617,1623,,,,,
67143965,1626,1621,1621,1627,,,,,
67146464,1630,1624,1625,1631,,,,,
67148963,1634,1628,1628,1634,,,,,
67151462,1638,1632,1632,1638,,,,,
67153961,1641,1636,1636,1642,,,,,
67156460,1645,1639,1640,1645,,,,,
67158959,1649,1643,1643,1649,,,,,
67161458,1653,1647,1647,1653,,,,,
67163957,1656,1650,1651,1656,,,,,
67166456,1660,1654,1655,1660,,,,,
67168955,1664,1658,1658,1664,,,,,
67171454,1667,1661,1662,1667,,,,,
67173953,1671,1665,1665,1671,,,,,
67176452,1674,1669,1669,1675,,,,,
67178951,1678,1672,1673,1678,,,,,
67181450,1682,1676,1676,1682,,,,,
67183949,1685,1679,1680,1685,,,,,
67186448,1689,1683,1683,1689,,,,,
67188947,1692,1687,1687,1692,,,,,
67191446,1696,1690,1690,1696,,,,,
67193945,1699,1694,1694,1699,,,,,
67196444,1703,1697,1698,1703,,,,,
67198943,1706,1701,1701,1706,,,,,
67201442,1710,1704,1704,1710,,,,,
67203941,1713,1708,1708,1713,,,,,
67206440,1717,1711,1711,1717,,,,,
67208939,1720,1714,1715,1720,,,,,
67211438,1723,1718,1718,1724,,,,,
67213937,1727,1721,1722,1727,,,,,
67216436,1730,1725,1725,1730,,,,,
67218935,1734,1728,1728,1734,,,,,
67221434,1737,1731,1732,1737,,,,,
67223933,1740,1735,1735,1741,,,,,
67226432,1744,1738,1738,1744,,,,,
67228931,1747,1742,1742,1747,,,,,
67231430,1750,1745,1745,1751,,,,,
67233929,1754,1748,1748,1754,,,,,
67236428,1757,1752,1752,1757,,,,,
67238927,1760,1755,1755,1761,,,,,
67241426,1763,1758,1758,1764,,,,,
67243925,1767,1761,1762,1767,,,,,
67246424,1770,1765,1765,1770,,,,,
67248923,1773,1768,1768,1774,,,,,
67251422,1776,1771,1771,1777,,,,,
67253921,1780,1774,1775,1780,,,,,
67256420,1783,1778,1778,1783,,,,,
67258919,1786,1781,1781,1787,,,,,
67261418,1789,1784,1784,1790,,,,,
67263917,1793,1787,1787,1793,,,,,
67266416,1796,1791,1791,1796,,,,,
67268915,1799,1794,1794,1799,,,,,
67271414,1802,1797,1797,1803,,,,,
67273913,1805,1800,1800,1806,,,,,
67276412,1808,1803,1803,1809,,,,,
67278911,1811,1806,1806,1812,,,,,
67281410,1815,1810,1809,1815,,,,,
67283909,1818,1813,1813,1818,,,,,
67286408,1821,1816,1816,1821,,,,,
67288907,1824,1819,1819,1825,,,,,
67291406,1827,1822,1822,1828,,,,,
67293905,1830,1825,1825,1831,,,,,
67296404,1833,1828,1828,1834,,,,,
67298903,1836,1831,1831,1837,,,,,
67301402,1839,1834,1834,1840,,,,,
67303901,1842,1837,1837,1843,,,,,
67306400,1845,1840,1840,1846,,,,,
67308899,1848,1843,1843,1849,,,,,
67311398,1851,1846,1846,1852,,,,,
67313897,1854,1849,1849,1855,,,,,
67316396,1858,1852,1852,1858,,,,,
67318895,1861,1855,1855,1861,,,,,
67321394,1864,1858,1858,1864,,,,,
67323893,1867,1861,1861,1867,,,,,
67326392,1870,1864,1864,1870,,,,,
67328891,1872,1867,1867,1873,,,,,
67331390,1875,1870,1870,1876,,,,,
67333889,1878,1873,1873,1879,,,,,
67336388,1881,1876,1876,1882,,,,,
67338887,1884,1879,1879,1885,,,,,
67341386,1887,1882,1882,1888,,,,,
67343885,1886,1881,1881,1887,,,,,
67346384,1885,1880,1880,1885,,,,,
67348883,1884,1879,1879,1884,,,,,
67351382,1883,1877,1878,1883,,,,,
67353881,1882,1876,1876,1882,,,,,
67356380,1881,1875,1875,1881,,,,,
67358879,1880,1874,1874,1880,,,,,
67361378,1879,1873,1874,1879,,,,,
67363877,1878,1872,1873,1878,,,,,
67366376,1877,1872,1872,1878,,,,,
67368875,1877,1871,1871,1877,,,,,
67371374,1876,1870,1870,1876,,,,,
67373873,1875,1870,1870,1876,,,,,
67376372,1875,1869,1869,1875,,,,,
67378871,1874,1869,1869,1875,,,,,
67381370,1874,1868,1869,1875,,,,,
67383869,1874,1868,1868,1874,,,,,
67386368,1874,1868,1868,1874,,,,,
67388867,1874,1868,1868,1874,,,,,
67391366,1874,1868,1868,1874,,,,,
67393865,1874,1868,1868,1874,,,,,
67396364,1874,1868,1868,1874,,,,,
67398863,1874,1868,1868,1875,,,,,
67401362,1875,1869,1869,1875,,,,,
67403861,1875,1869,1869,1875,,,,,
67406360,1875,1869,1870,1876,,,,,
67408859,1876,1870,1870,1876,,,,,
67411358,1876,1871,1871,1877,,,,,
67413857,1877,1871,1871,1877,,,,,
67416356,1878,1872,1872,1878,,,,,
67418855,1878,1873,1873,1879,,,,,
67421354,1879,1873,1874,1879,,,,,
67423853,1879,1874,1874,1880,,,,,
67426352,1880,1875,1875,1880,,,,,
67428851,1880,1875,1876,1880,,,,,
67431350,1880,1876,1876,1880,,,,,
67433849,1880,1876,1876,1880,,,,,
67436348,1880,1876,1876,1880,,,,,
67438847,1880,1876,1876,1880,,,,,
67441346,1879,1875,1875,1879,,,,,
67443845,1878,1874,1875,1879,,,,,
67446344,1877,1874,1874,1878,,,,,
67448843,1876,1873,1873,1876,,,,,
67451342,1875,1871,1872,1875,,,,,
67453841,1873,1870,1870,1874,,,,,
67456340,1872,1868,1869,1872,,,,,
67458839,1870,1866,1867,1870,,,,,
67461338,1868,1865,1865,1868,,,,,
67463837,1866,1863,1863,1866,,,,,
67466336,1864,1860,1861,1864,,,,,
67468835,1862,1858,1859,1862,,,,,
67471334,1859,1856,1856,1859,,,,,
67473833,1857,1853,1854,1857,,,,,
67476332,1854,1851,1851,1854,,,,,
67478831,1852,1848,1849,1852,,,,,
67481330,1849,1846,1846,1849,,,,,
67483829,1846,1843,1843,1846,,,,,
67486328,1843,1840,1840,1843,,,,,
67488827,1840,1837,1838,1840,,,,,
67491326,1837,1834,1835,1837,,,,,
67493825,1834,1831,1832,1834,,,,,
67496324,1831,1828,1828,1831,,,,,
67498823,1828,1825,1825,1828,,,,,
67501322,1824,1822,1822,1824,,,,,
67503821,1821,1818,1819,1821,,,,,
67506320,1818,1815,1816,1818,,,,,
67508819,1814,1812,1812,1814,,,,,
67511318,1811,1809,1809,1811,,,,,
67513817,1808,1805,1806,1808,,,,,
67516316,1804,1802,1803,1804,,,,,
67518815,1801,1799,1799,1801,,,,,
67521314,1798,1795,1796,1798,,,,,
67523813,1794,1792,1793,1794,,,,,
67526312,1791,1789,1789,1791,,,,,
67528811,1788,1786,1786,1788,,,,,
67531310,1784,1782,1783,1784,,,,,
67533809,1781,1779,1779,1781,,,,,
67536308,1777,1776,1776,1777,,,,,
67538807,1774,1772,1773,1774,,,,,
67541306,1771,1769,1769,1771,,,,,
67543805,1767,1766,1766,1767,,,,,
67546304,1764,1762,1763,1764,,,,,
67548803,1760,1759,1760,1760,,,,,
67551302,1757,1756,1756,1757,,,,,
67553801,1754,1753,1753,1754,,,,,
67556300,1751,1749,1750,1751,,,,,
67558799,1747,1746,1747,1747,,,,,
67561298,1744,1743,1744,1744,,,,,
67563797,1741,1740,1741,1741,,,,,
67566296,1738,1737,1738,1738,,,,,
67568795,1735,1734,1735,1735,,,,,
67571294,1732,1731,1731,1732,,,,,
67573793,1729,1728,1729,1729,,,,,
67576292,1726,1725,1726,1726,,,,,
67578791,1723,1722,1723,1723,,,,,
67581290,1720,1719,1720,1720,,,,,
67583789,1717,1716,1717,1717,,,,,
67586288,1714,1714,1714,1714,,,,,
67588787,1711,1711,1711,1711,,,,,
67591286,1708,1708,1708,1708,,,,,
67593785,1705,1705,1706,1705,,,,,
67596284,1703,1703,1703,1703,,,,,
67598783,1700,1700,1700,1700,,,,,
67601282,1697,1697,1698,1697,,,,,
67603781,1695,1695,1695,1695,,,,,
67606280,1692,1692,1692,1692,,,,,
67608779,1689,1689,1690,1689,,,,,
67611278,1687,1687,1687,1687,,,,,
67613777,1684,1684,1685,1684,,,,,
67616276,1681,1682,1682,1681,,,,,
67618775,1679,1679,1680,1679,,,,,
67621274,1676,1677,1678,1676,,,,,
67623773,1674,1675,1675,1674,,,,,
67626272,1672,1672,1673,1672,,,,,
67628771,1669,1670,1671,1669,,,,,
67631270,1667,1668,1669,1667,,,,,
67633769,1665,1666,1667,1665,,,,,
67636268,1663,1664,1665,1663,,,,,
67638767,1661,1662,1663,1661,,,,,
67641266,1659,1660,1661,1659,,,,,
67643765,1657,1659,1659,1657,,,,,
67646264,1655,1657,1657,1655,,,,,
67648763,1654,1655,1656,1654,,,,,
67651262,1652,1653,1654,1652,,,,,
67653761,1650,1652,1652,1650,,,,,
67656260,1649,1650,1651,1649,,,,,
