timestamp,TimeUS,C1,C2,C3,C4,C5,C6,C7,C8,C9,C10,C11,C12,C13,C14
1682161235.70003986,137128460,1000,1000,1000,1000,0,0,0,0,0,0,0,0,0,0
1682161235.79999995,137228420,1000,1000,1000,1000,0,0,0,0,0,0,0,0,0,0
1682161235.89996004,137328380,1000,1000,1000,1000,0,0,0,0,0,0,0,0,0,0
1682161235.99991989,137428340,1000,1000,1000,1000,0,0,0,0,0,0,0,0,0,0
1682161236.09987998,137528300,1000,1000,1000,1000,0,0,0,0,0,0,0,0,0,0
1682161236.19983983,137628260,1000,1000,1000,1000,0,0,0,0,0,0,0,0,0,0
1682161236.29979992,137728220,1000,1000,1000,1000,0,0,0,0,0,0,0,0,0,0
1682161236.39976001,137828180,1000,1000,1000,1000,0,0,0,0,0,0,0,0,0,0
1682161236.50055289,137928973,1000,1000,1000,1000,0,0,0,0,0,0,0,0,0,0
1682161236.60051298,138028933,1000,1000,1000,1000,0,0,0,0,0,0,0,0,0,0
1682161236.70047283,138128893,1000,1000,1000,1000,0,0,0,0,0,0,0,0,0,0
1682161236.80043292,138228853,1000,1000,1000,1000,0,0,0,0,0,0,0,0,0,0
1682161236.90039301,138328813,1000,1000,1000,1000,0,0,0,0,0,0,0,0,0,0
1682161237.00035286,138428773,1000,1000,1000,1000,0,0,0,0,0,0,0,0,0,0
1682161237.10031295,138528733,1000,1000,1000,1000,0,0,0,0,0,0,0,0,0,0
1682161237.20027304,138628693,1000,1000,1000,1000,0,0,0,0,0,0,0,0,0,0
1682161237.30023289,138728653,1000,1000,1000,1000,0,0,0,0,0,0,0,0,0,0
1682161237.40019298,138828613,1000,1000,1000,1000,0,0,0,0,0,0,0,0,0,0
1682161237.50015283,138928573,1000,1000,1000,1000,0,0,0,0,0,0,0,0,0,0
1682161237.60011292,139028533,1000,1000,1000,1000,0,0,0,0,0,0,0,0,0,0
1682161237.70007300,139128493,1024,1024,1024,1024,0,0,0,0,0,0,0,0,0,0
1682161237.80003285,139228453,1054,1054,1054,1054,0,0,0,0,0,0,0,0,0,0
1682161237.89999294,139328413,1084,1084,1084,1084,0,0,0,0,0,0,0,0,0,0
1682161237.99995303,139428373,1100,1100,1100,1100,0,0,0,0,0,0,0,0,0,0
1682161238.09991288,139528333,1100,1100,1100,1100,0,0,0,0,0,0,0,0,0,0
1682161238.19987297,139628293,1100,1100,1100,1100,0,0,0,0,0,0,0,0,0,0
1682161238.29983282,139728253,1100,1100,1100,1100,0,0,0,0,0,0,0,0,0,0
1682161238.39979291,139828213,1100,1100,1100,1100,0,0,0,0,0,0,0,0,0,0
1682161238.49975300,139928173,1100,1100,1100,1100,0,0,0,0,0,0,0,0,0,0
1682161238.60054588,140028966,1100,1100,1100,1100,0,0,0,0,0,0,0,0,0,0
1682161238.70050597,140128926,1100,1100,1100,1100,0,0,0,0,0,0,0,0,0,0
1682161238.80046582,140228886,1100,1100,1100,1100,0,0,0,0,0,0,0,0,0,0
1682161238.90042591,140328846,1100,1100,1100,1100,0,0,0,0,0,0,0,0,0,0
1682161239.00038600,140428806,1100,1100,1100,1100,0,0,0,0,0,0,0,0,0,0
1682161239.10034585,140528766,1100,1100,1100,1100,0,0,0,0,0,0,0,0,0,0
1682161239.20030594,140628726,1100,1100,1100,1100,0,0,0,0,0,0,0,0,0,0
1682161239.30026603,140728686,1100,1100,1100,1100,0,0,0,0,0,0,0,0,0,0
1682161239.40022588,140828646,1100,1100,1100,1100,0,0,0,0,0,0,0,0,0,0
1682161239.50018597,140928606,1100,1100,1100,1100,0,0,0,0,0,0,0,0,0,0
1682161239.60014582,141028566,1100,1100,1100,1100,0,0,0,0,0,0,0,0,0,0
1682161239.70010591,141128526,1100,1100,1100,1100,0,0,0,0,0,0,0,0,0,0
1682161239.80006599,141228486,1100,1100,1100,1100,0,0,0,0,0,0,0,0,0,0
1682161239.90002584,141328446,1100,1100,1100,1100,0,0,0,0,0,0,0,0,0,0
1682161239.99998593,141428406,1100,1100,1100,1100,0,0,0,0,0,0,0,0,0,0
1682161240.09994602,141528366,1100,1100,1100,1100,0,0,0,0,0,0,0,0,0,0
1682161240.19990587,141628326,1100,1100,1100,1100,0,0,0,0,0,0,0,0,0,0
1682161240.29986596,141728286,1100,1100,1100,1100,0,0,0,0,0,0,0,0,0,0
1682161240.39982605,141828246,1100,1100,1100,1100,0,0,0,0,0,0,0,0,0,0
1682161240.49978590,141928206,1100,1100,1100,1100,0,0,0,0,0,0,0,0,0,0
1682161240.59974599,142028166,1100,1100,1100,1100,0,0,0,0,0,0,0,0,0,0
1682161240.70053887,142128959,1100,1100,1100,1100,0,0,0,0,0,0,0,0,0,0
1682161240.80049896,142228919,1100,1100,1100,1100,0,0,0,0,0,0,0,0,0,0
1682161240.90045905,142328879,1100,1100,1100,1100,0,0,0,0,0,0,0,0,0,0
1682161241.00041890,142428839,1100,1100,1100,1100,0,0,0,0,0,0,0,0,0,0
1682161241.10037899,142528799,1100,1100,1100,1100,0,0,0,0,0,0,0,0,0,0
1682161241.20033884,142628759,1100,1100,1100,1100,0,0,0,0,0,0,0,0,0,0
1682161241.30029893,142728719,1100,1100,1100,1100,0,0,0,0,0,0,0,0,0,0
1682161241.40025902,142828679,1100,1100,1100,1100,0,0,0,0,0,0,0,0,0,0
1682161241.50021887,142928639,1100,1100,1100,1100,0,0,0,0,0,0,0,0,0,0
1682161241.60017896,143028599,1100,1100,1100,1100,0,0,0,0,0,0,0,0,0,0
1682161241.70013905,143128559,1100,1100,1100,1100,0,0,0,0,0,0,0,0,0,0
1682161241.80009890,143228519,1100,1100,1100,1100,0,0,0,0,0,0,0,0,0,0
1682161241.90005898,143328479,1100,1100,1100,1100,0,0,0,0,0,0,0,0,0,0
1682161242.00001884,143428439,1100,1100,1100,1100,0,0,0,0,0,0,0,0,0,0
1682161242.09997892,143528399,1100,1100,1100,1100,0,0,0,0,0,0,0,0,0,0
1682161242.19993901,143628359,1100,1100,1100,1100,0,0,0,0,0,0,0,0,0,0
1682161242.29989886,143728319,1100,1100,1100,1100,0,0,0,0,0,0,0,0,0,0
1682161242.39985895,143828279,1100,1100,1100,1100,0,0,0,0,0,0,0,0,0,0
1682161242.49981904,143928239,1100,1100,1100,1100,0,0,0,0,0,0,0,0,0,0
1682161242.59977889,144028199,1100,1100,1100,1100,0,0,0,0,0,0,0,0,0,0
1682161242.69973898,144128159,1100,1100,1100,1100,0,0,0,0,0,0,0,0,0,0
1682161242.80053186,144228952,1100,1100,1100,1100,0,0,0,0,0,0,0,0,0,0
1682161242.90049195,144328912,1100,1100,1100,1100,0,0,0,0,0,0,0,0,0,0
1682161243.00045204,144428872,1100,1100,1100,1100,0,0,0,0,0,0,0,0,0,0
1682161243.10041189,144528832,1100,1100,1100,1100,0,0,0,0,0,0,0,0,0,0
1682161243.20037198,144628792,1100,1100,1100,1100,0,0,0,0,0,0,0,0,0,0
1682161243.30033183,144728752,1100,1100,1100,1100,0,0,0,0,0,0,0,0,0,0
1682161243.40029192,144828712,1100,1100,1100,1100,0,0,0,0,0,0,0,0,0,0
1682161243.50025201,144928672,1100,1100,1100,1100,0,0,0,0,0,0,0,0,0,0
1682161243.60021186,145028632,1100,1100,1100,1100,0,0,0,0,0,0,0,0,0,0
1682161243.70017195,145128592,1100,1100,1100,1100,0,0,0,0,0,0,0,0,0,0
1682161243.80013204,145228552,1100,1100,1100,1100,0,0,0,0,0,0,0,0,0,0
1682161243.90009189,145328512,1100,1100,1100,1100,0,0,0,0,0,0,0,0,0,0
1682161244.00005198,145428472,1100,1100,1100,1100,0,0,0,0,0,0,0,0,0,0
1682161244.10001183,145528432,1100,1100,1100,1100,0,0,0,0,0,0,0,0,0,0
1682161244.19997191,145628392,1100,1100,1100,1100,0,0,0,0,0,0,0,0,0,0
1682161244.29993200,145728352,1100,1100,1100,1100,0,0,0,0,0,0,0,0,0,0
1682161244.39989185,145828312,1100,1100,1100,1100,0,0,0,0,0,0,0,0,0,0
1682161244.49985194,145928272,1100,1100,1100,1100,0,0,0,0,0,0,0,0,0,0
1682161244.59981203,146028232,1100,1100,1100,1100,0,0,0,0,0,0,0,0,0,0
1682161244.69977188,146128192,1100,1100,1100,1100,0,0,0,0,0,0,0,0,0,0
1682161244.80056500,146228985,1100,1100,1100,1100,0,0,0,0,0,0,0,0,0,0
1682161244.90052485,146328945,1100,1100,1100,1100,0,0,0,0,0,0,0,0,0,0
1682161245.00048494,146428905,1100,1100,1100,1100,0,0,0,0,0,0,0,0,0,0
1682161245.10044503,146528865,1100,1100,1100,1100,0,0,0,0,0,0,0,0,0,0
1682161245.20040488,146628825,1100,1100,1100,1100,0,0,0,0,0,0,0,0,0,0
1682161245.30036497,146728785,1100,1100,1100,1100,0,0,0,0,0,0,0,0,0,0
1682161245.40032482,146828745,1100,1100,1100,1100,0,0,0,0,0,0,0,0,0,0
1682161245.50028491,146928705,1100,1100,1100,1100,0,0,0,0,0,0,0,0,0,0
1682161245.60024500,147028665,1100,1100,1100,1100,0,0,0,0,0,0,0,0,0,0
1682161245.70020485,147128625,1000,1000,1000,1000,0,0,0,0,0,0,0,0,0,0
1682161245.80016494,147228585,1000,1000,1000,1000,0,0,0,0,0,0,0,0,0,0
1682161245.90012503,147328545,1000,1000,1000,1000,0,0,0,0,0,0,0,0,0,0
1682161246.00008488,147428505,1000,1000,1000,1000,0,0,0,0,0,0,0,0,0,0
1682161246.10004497,147528465,1000,1000,1000,1000,0,0,0,0,0,0,0,0,0,0
1682161246.20000482,147628425,1000,1000,1000,1000,0,0,0,0,0,0,0,0,0,0
1682161246.29996490,147728385,1000,1000,1000,1000,0,0,0,0,0,0,0,0,0,0
1682161246.39992499,147828345,1000,1000,1000,1000,0,0,0,0,0,0,0,0,0,0
1682161246.49988484,147928305,1000,1000,1000,1000,0,0,0,0,0,0,0,0,0,0
1682161246.59984493,148028265,1000,1000,1000,1000,0,0,0,0,0,0,0,0,0,0
1682161246.69980502,148128225,1000,1000,1000,1000,0,0,0,0,0,0,0,0,0,0
1682161246.79976487,148228185,1000,1000,1000,1000,0,0,0,0,0,0,0,0,0,0
1682161246.90055799,148328978,1000,1000,1000,1000,0,0,0,0,0,0,0,0,0,0
1682161247.00051785,148428938,1000,1000,1000,1000,0,0,0,0,0,0,0,0,0,0
1682161247.10047793,148528898,1000,1000,1000,1000,0,0,0,0,0,0,0,0,0,0
1682161247.20043802,148628858,1000,1000,1000,1000,0,0,0,0,0,0,0,0,0,0
1682161247.30039787,148728818,1000,1000,1000,1000,0,0,0,0,0,0,0,0,0,0
1682161247.40035796,148828778,1000,1000,1000,1000,0,0,0,0,0,0,0,0,0,0
1682161247.50031805,148928738,1000,1000,1000,1000,0,0,0,0,0,0,0,0,0,0
1682161247.60027790,149028698,1000,1000,1000,1000,0,0,0,0,0,0,0,0,0,0
1682161247.70023799,149128658,1000,1000,1000,1000,0,0,0,0,0,0,0,0,0,0
1682161247.80019784,149228618,1000,1000,1000,1000,0,0,0,0,0,0,0,0,0,0
1682161247.90015793,149328578,1000,1000,1000,1000,0,0,0,0,0,0,0,0,0,0
1682161248.00011802,149428538,1000,1000,1000,1000,0,0,0,0,0,0,0,0,0,0
1682161248.10007787,149528498,1000,1000,1000,1000,0,0,0,0,0,0,0,0,0,0
1682161248.20003796,149628458,1000,1000,1000,1000,0,0,0,0,0,0,0,0,0,0
1682161248.29999804,149728418,1000,1000,1000,1000,0,0,0,0,0,0,0,0,0,0
1682161248.39995790,149828378,1000,1000,1000,1000,0,0,0,0,0,0,0,0,0,0
1682161248.49991798,149928338,1000,1000,1000,1000,0,0,0,0,0,0,0,0,0,0
1682161248.59987783,150028298,1000,1000,1000,1000,0,0,0,0,0,0,0,0,0,0
1682161248.69983792,150128258,1000,1000,1000,1000,0,0,0,0,0,0,0,0,0,0
1682161248.79979801,150228218,1000,1000,1000,1000,0,0,0,0,0,0,0,0,0,0
1682161248.89975786,150328178,1000,1000,1000,1000,0,0,0,0,0,0,0,0,0,0
1682161249.00055099,150428971,1000,1000,1000,1000,0,0,0,0,0,0,0,0,0,0
1682161249.10051084,150528931,1000,1000,1000,1000,0,0,0,0,0,0,0,0,0,0
1682161249.20047092,150628891,1000,1000,1000,1000,0,0,0,0,0,0,0,0,0,0
1682161249.30043101,150728851,1000,1000,1000,1000,0,0,0,0,0,0,0,0,0,0
1682161249.40039086,150828811,1000,1000,1000,1000,0,0,0,0,0,0,0,0,0,0
1682161249.50035095,150928771,1000,1000,1000,1000,0,0,0,0,0,0,0,0,0,0
1682161249.60031104,151028731,1000,1000,1000,1000,0,0,0,0,0,0,0,0,0,0
1682161249.70027089,151128691,1000,1000,1000,1000,0,0,0,0,0,0,0,0,0,0
1682161249.80023098,151228651,1000,1000,1000,1000,0,0,0,0,0,0,0,0,0,0
1682161249.90019083,151328611,1000,1000,1000,1000,0,0,0,0,0,0,0,0,0,0
1682161250.00015092,151428571,1000,1000,1000,1000,0,0,0,0,0,0,0,0,0,0
1682161250.10011101,151528531,1000,1000,1000,1000,0,0,0,0,0,0,0,0,0,0
1682161250.20007086,151628491,1000,1000,1000,1000,0,0,0,0,0,0,0,0,0,0
1682161250.30003095,151728451,1000,1000,1000,1000,0,0,0,0,0,0,0,0,0,0
1682161250.39999104,151828411,1000,1000,1000,1000,0,0,0,0,0,0,0,0,0,0
1682161250.49995089,151928371,1000,1000,1000,1000,0,0,0,0,0,0,0,0,0,0
1682161250.59991097,152028331,1000,1000,1000,1000,0,0,0,0,0,0,0,0,0,0
1682161250.69987082,152128291,1000,1000,1000,1000,0,0,0,0,0,0,0,0,0,0
1682161250.79983091,152228251,1000,1000,1000,1000,0,0,0,0,0,0,0,0,0,0
1682161250.89979100,152328211,1000,1000,1000,1000,0,0,0,0,0,0,0,0,0,0
1682161250.99975085,152428171,1000,1000,1000,1000,0,0,0,0,0,0,0,0,0,0
1682161251.10054398,152528964,1000,1000,1000,1000,0,0,0,0,0,0,0,0,0,0
1682161251.20050383,152628924,1000,1000,1000,1000,0,0,0,0,0,0,0,0,0,0
1682161251.30046391,152728884,1000,1000,1000,1000,0,0,0,0,0,0,0,0,0,0
1682161251.40042400,152828844,1000,1000,1000,1000,0,0,0,0,0,0,0,0,0,0
1682161251.50038385,152928804,1000,1000,1000,1000,0,0,0,0,0,0,0,0,0,0
1682161251.60034394,153028764,1000,1000,1000,1000,0,0,0,0,0,0,0,0,0,0
1682161251.70030403,153128724,1000,1000,1000,1000,0,0,0,0,0,0,0,0,0,0
1682161251.80026388,153228684,1000,1000,1000,1000,0,0,0,0,0,0,0,0,0,0
1682161251.90022397,153328644,1000,1000,1000,1000,0,0,0,0,0,0,0,0,0,0
1682161252.00018382,153428604,1000,1000,1000,1000,0,0,0,0,0,0,0,0,0,0
1682161252.10014391,153528564,1000,1000,1000,1000,0,0,0,0,0,0,0,0,0,0
1682161252.20010400,153628524,1000,1000,1000,1000,0,0,0,0,0,0,0,0,0,0
1682161252.30006385,153728484,1000,1000,1000,1000,0,0,0,0,0,0,0,0,0,0
1682161252.40002394,153828444,1000,1000,1000,1000,0,0,0,0,0,0,0,0,0,0
1682161252.49998403,153928404,1000,1000,1000,1000,0,0,0,0,0,0,0,0,0,0
1682161252.59994388,154028364,1000,1000,1000,1000,0,0,0,0,0,0,0,0,0,0
1682161252.69990396,154128324,1000,1000,1000,1000,0,0,0,0,0,0,0,0,0,0
1682161252.79986382,154228284,1000,1000,1000,1000,0,0,0,0,0,0,0,0,0,0
1682161252.89982390,154328244,1000,1000,1000,1000,0,0,0,0,0,0,0,0,0,0
1682161252.99978399,154428204,1000,1000,1000,1000,0,0,0,0,0,0,0,0,0,0
1682161253.09974384,154528164,1000,1000,1000,1000,0,0,0,0,0,0,0,0,0,0
1682161253.20053697,154628957,1000,1000,1000,1000,0,0,0,0,0,0,0,0,0,0
1682161253.30049682,154728917,1000,1000,1000,1000,0,0,0,0,0,0,0,0,0,0
1682161253.40045691,154828877,1000,1000,1000,1000,0,0,0,0,0,0,0,0,0,0
1682161253.50041699,154928837,1000,1000,1000,1000,0,0,0,0,0,0,0,0,0,0
1682161253.60037684,155028797,1000,1000,1000,1000,0,0,0,0,0,0,0,0,0,0
1682161253.70033693,155128757,1000,1000,1000,1000,0,0,0,0,0,0,0,0,0,0
1682161253.80029702,155228717,1000,1000,1000,1000,0,0,0,0,0,0,0,0,0,0
1682161253.90025687,155328677,1000,1000,1000,1000,0,0,0,0,0,0,0,0,0,0
1682161254.00021696,155428637,1000,1000,1000,1000,0,0,0,0,0,0,0,0,0,0
1682161254.10017705,155528597,1000,1000,1000,1000,0,0,0,0,0,0,0,0,0,0
1682161254.20013690,155628557,1000,1000,1000,1000,0,0,0,0,0,0,0,0,0,0
1682161254.30009699,155728517,1000,1000,1000,1000,0,0,0,0,0,0,0,0,0,0
1682161254.40005684,155828477,1000,1000,1000,1000,0,0,0,0,0,0,0,0,0,0
1682161254.50001693,155928437,1000,1000,1000,1000,0,0,0,0,0,0,0,0,0,0
1682161254.59997702,156028397,1000,1000,1000,1000,0,0,0,0,0,0,0,0,0,0
1682161254.69993687,156128357,1000,1000,1000,1000,0,0,0,0,0,0,0,0,0,0
1682161254.79989696,156228317,1000,1000,1000,1000,0,0,0,0,0,0,0,0,0,0
1682161254.89985704,156328277,1000,1000,1000,1000,0,0,0,0,0,0,0,0,0,0
1682161254.99981689,156428237,1000,1000,1000,1000,0,0,0,0,0,0,0,0,0,0
1682161255.09977698,156528197,1000,1000,1000,1000,0,0,0,0,0,0,0,0,0,0
1682161255.19973683,156628157,1000,1000,1000,1000,0,0,0,0,0,0,0,0,0,0
1682161255.30052996,156728950,1000,1000,1000,1000,0,0,0,0,0,0,0,0,0,0
1682161255.40049005,156828910,1000,1000,1000,1000,0,0,0,0,0,0,0,0,0,0
1682161255.50044990,156928870,1000,1000,1000,1000,0,0,0,0,0,0,0,0,0,0
1682161255.60040998,157028830,1000,1000,1000,1000,0,0,0,0,0,0,0,0,0,0
1682161255.70036983,157128790,1000,1000,1000,1000,0,0,0,0,0,0,0,0,0,0
1682161255.80032992,157228750,1000,1000,1000,1000,0,0,0,0,0,0,0,0,0,0
1682161255.90029001,157328710,1000,1000,1000,1000,0,0,0,0,0,0,0,0,0,0
1682161256.00024986,157428670,1000,1000,1000,1000,0,0,0,0,0,0,0,0,0,0
1682161256.10020995,157528630,1000,1000,1000,1000,0,0,0,0,0,0,0,0,0,0
1682161256.20017004,157628590,1000,1000,1000,1000,0,0,0,0,0,0,0,0,0,0
1682161256.30012989,157728550,1000,1000,1000,1000,0,0,0,0,0,0,0,0,0,0
1682161256.40008998,157828510,1000,1000,1000,1000,0,0,0,0,0,0,0,0,0,0
1682161256.50004983,157928470,1000,1000,1000,1000,0,0,0,0,0,0,0,0,0,0
1682161256.60000992,158028430,1000,1000,1000,1000,0,0,0,0,0,0,0,0,0,0
1682161256.69997001,158128390,1000,1000,1000,1000,0,0,0,0,0,0,0,0,0,0
1682161256.79992986,158228350,1000,1000,1000,1000,0,0,0,0,0,0,0,0,0,0
1682161256.89988995,158328310,1000,1000,1000,1000,0,0,0,0,0,0,0,0,0,0
1682161256.99985003,158428270,1000,1000,1000,1000,0,0,0,0,0,0,0,0,0,0
1682161257.09980989,158528230,1000,1000,1000,1000,0,0,0,0,0,0,0,0,0,0
1682161257.19976997,158628190,1000,1000,1000,1000,0,0,0,0,0,0,0,0,0,0
1682161257.30056286,158728983,1000,1000,1000,1000,0,0,0,0,0,0,0,0,0,0
1682161257.40052295,158828943,1000,1000,1000,1000,0,0,0,0,0,0,0,0,0,0
1682161257.50048304,158928903,1000,1000,1000,1000,0,0,0,0,0,0,0,0,0,0
1682161257.60044289,159028863,1000,1000,1000,1000,0,0,0,0,0,0,0,0,0,0
1682161257.70040298,159128823,1000,1000,1000,1000,0,0,0,0,0,0,0,0,0,0
1682161257.80036283,159228783,1000,1000,1000,1000,0,0,0,0,0,0,0,0,0,0
1682161257.90032291,159328743,1000,1000,1000,1000,0,0,0,0,0,0,0,0,0,0
1682161258.00028300,159428703,1000,1000,1000,1000,0,0,0,0,0,0,0,0,0,0
1682161258.10024285,159528663,1000,1000,1000,1000,0,0,0,0,0,0,0,0,0,0
1682161258.20020294,159628623,1000,1000,1000,1000,0,0,0,0,0,0,0,0,0,0
1682161258.30016303,159728583,1006,1006,1006,1006,0,0,0,0,0,0,0,0,0,0
1682161258.40012288,159828543,1036,1036,1036,1036,0,0,0,0,0,0,0,0,0,0
1682161258.50008297,159928503,1066,1066,1066,1066,0,0,0,0,0,0,0,0,0,0
1682161258.60004282,160028463,1096,1096,1096,1096,0,0,0,0,0,0,0,0,0,0
1682161258.70000291,160128423,1126,1126,1126,1126,0,0,0,0,0,0,0,0,0,0
1682161258.79996300,160228383,1222,1199,1200,1223,0,0,0,0,0,0,0,0,0,0
1682161258.89992285,160328343,1450,1432,1433,1451,0,0,0,0,0,0,0,0,0,0
1682161258.99988294,160428303,1619,1604,1605,1620,0,0,0,0,0,0,0,0,0,0
1682161259.09984303,160528263,1761,1747,1747,1762,0,0,0,0,0,0,0,0,0,0
1682161259.19980288,160628223,1886,1871,1872,1886,0,0,0,0,0,0,0,0,0,0
1682161259.29976296,160728183,1894,1883,1884,1894,0,0,0,0,0,0,0,0,0,0
1682161259.40055585,160828976,1784,1782,1782,1785,0,0,0,0,0,0,0,0,0,0
1682161259.50051594,160928936,1670,1673,1674,1671,0,0,0,0,0,0,0,0,0,0
1682161259.60047603,161028896,1626,1633,1633,1627,0,0,0,0,0,0,0,0,0,0
1682161259.70043588,161128856,1629,1635,1635,1628,0,0,0,0,0,0,0,0,0,0
1682161259.80039597,161228816,1638,1643,1643,1638,0,0,0,0,0,0,0,0,0,0
1682161259.90035582,161328776,1635,1632,1629,1639,0,0,0,0,0,0,0,0,0,0
1682161260.00031590,161428736,1622,1624,1615,1630,0,0,0,0,0,0,0,0,0,0
1682161260.10027599,161528696,1614,1616,1611,1619,0,0,0,0,0,0,0,0,0,0
1682161260.20023584,161628656,1611,1612,1611,1612,0,0,0,0,0,0,0,0,0,0
1682161260.30019593,161728616,1613,1611,1614,1610,0,0,0,0,0,0,0,0,0,0
1682161260.40015602,161828576,1617,1616,1620,1613,0,0,0,0,0,0,0,0,0,0
1682161260.50011587,161928536,1619,1618,1622,1615,0,0,0,0,0,0,0,0,0,0
1682161260.60007596,162028496,1588,1589,1602,1575,0,0,0,0,0,0,0,0,0,0
1682161260.70003605,162128456,1573,1575,1586,1563,0,0,0,0,0,0,0,0,0,0
1682161260.79999590,162228416,1562,1563,1566,1561,0,0,0,0,0,0,0,0,0,0
1682161260.89995599,162328376,1554,1553,1549,1559,0,0,0,0,0,0,0,0,0,0
1682161260.99991584,162428336,1546,1545,1535,1557,0,0,0,0,0,0,0,0,0,0
1682161261.09987593,162528296,1541,1540,1529,1551,0,0,0,0,0,0,0,0,0,0
1682161261.19983602,162628256,1535,1534,1526,1540,0,0,0,0,0,0,0,0,0,0
1682161261.29979587,162728216,1530,1528,1525,1531,0,0,0,0,0,0,0,0,0,0
1682161261.39975595,162828176,1527,1527,1527,1525,0,0,0,0,0,0,0,0,0,0
1682161261.50054884,162928969,1529,1529,1531,1526,0,0,0,0,0,0,0,0,0,0
1682161261.60050893,163028929,1531,1531,1534,1527,0,0,0,0,0,0,0,0,0,0
1682161261.70046902,163128889,1534,1534,1537,1532,0,0,0,0,0,0,0,0,0,0
1682161261.80042887,163228849,1537,1538,1540,1536,0,0,0,0,0,0,0,0,0,0
1682161261.90038896,163328809,1541,1540,1543,1540,0,0,0,0,0,0,0,0,0,0
1682161262.00034904,163428769,1544,1544,1545,1544,0,0,0,0,0,0,0,0,0,0
1682161262.10030890,163528729,1547,1546,1547,1548,0,0,0,0,0,0,0,0,0,0
1682161262.20026898,163628689,1550,1551,1551,1552,0,0,0,0,0,0,0,0,0,0
1682161262.30022883,163728649,1553,1553,1553,1554,0,0,0,0,0,0,0,0,0,0
1682161262.40018892,163828609,1553,1554,1553,1555,0,0,0,0,0,0,0,0,0,0
1682161262.50014901,163928569,1557,1560,1555,1557,0,0,0,0,0,0,0,0,0,0
1682161262.60010886,164028529,1572,1572,1545,1546,0,0,0,0,0,0,0,0,0,0
1682161262.70006895,164128489,1571,1569,1551,1551,0,0,0,0,0,0,0,0,0,0
1682161262.80002904,164228449,1566,1564,1560,1560,0,0,0,0,0,0,0,0,0,0
1682161262.89998889,164328409,1561,1560,1567,1567,0,0,0,0,0,0,0,0,0,0
1682161262.99994898,164428369,1558,1558,1573,1572,0,0,0,0,0,0,0,0,0,0
1682161263.09990883,164528329,1557,1558,1577,1577,0,0,0,0,0,0,0,0,0,0
1682161263.19986892,164628289,1557,1559,1578,1578,0,0,0,0,0,0,0,0,0,0
1682161263.29982901,164728249,1559,1561,1578,1579,0,0,0,0,0,0,0,0,0,0
1682161263.39978886,164828209,1562,1563,1577,1577,0,0,0,0,0,0,0,0,0,0
1682161263.49974895,164928169,1566,1566,1575,1575,0,0,0,0,0,0,0,0,0,0
1682161263.60054183,165028962,1569,1570,1574,1573,0,0,0,0,0,0,0,0,0,0
1682161263.70050192,165128922,1573,1573,1572,1572,0,0,0,0,0,0,0,0,0,0
1682161263.80046201,165228882,1577,1576,1571,1571,0,0,0,0,0,0,0,0,0,0
1682161263.90042186,165328842,1579,1578,1571,1569,0,0,0,0,0,0,0,0,0,0
1682161264.00038195,165428802,1580,1579,1570,1568,0,0,0,0,0,0,0,0,0,0
1682161264.10034204,165528762,1580,1580,1570,1569,0,0,0,0,0,0,0,0,0,0
1682161264.20030189,165628722,1581,1581,1571,1571,0,0,0,0,0,0,0,0,0,0
1682161264.30026197,165728682,1579,1580,1572,1571,0,0,0,0,0,0,0,0,0,0
1682161264.40022182,165828642,1579,1579,1573,1573,0,0,0,0,0,0,0,0,0,0
1682161264.50018191,165928602,1578,1577,1574,1575,0,0,0,0,0,0,0,0,0,0
1682161264.60014200,166028562,1577,1576,1575,1576,0,0,0,0,0,0,0,0,0,0
1682161264.70010185,166128522,1576,1575,1576,1577,0,0,0,0,0,0,0,0,0,0
1682161264.80006194,166228482,1574,1574,1577,1577,0,0,0,0,0,0,0,0,0,0
1682161264.90002203,166328442,1575,1575,1579,1579,0,0,0,0,0,0,0,0,0,0
1682161264.94000602,166368426,1574,1575,1579,1579,0,0,0,0,0,0,0,0,0,0
1682161265.03996587,166468386,1574,1575,1579,1579,0,0,0,0,0,0,0,0,0,0
1682161265.13992596,166568346,1574,1575,1579,1579,0,0,0,0,0,0,0,0,0,0
1682161265.23988605,166668306,1575,1576,1579,1579,0,0,0,0,0,0,0,0,0,0
1682161265.33984590,166768266,1577,1578,1580,1580,0,0,0,0,0,0,0,0,0,0
1682161265.43980598,166868226,1577,1577,1579,1579,0,0,0,0,0,0,0,0,0,0
1682161265.53976583,166968186,1578,1578,1579,1578,0,0,0,0,0,0,0,0,0,0
1682161265.64055896,167068979,1579,1578,1577,1578,0,0,0,0,0,0,0,0,0,0
1682161265.74051905,167168939,1579,1578,1577,1577,0,0,0,0,0,0,0,0,0,0
1682161265.84047890,167268899,1579,1578,1577,1577,0,0,0,0,0,0,0,0,0,0
1682161265.94043899,167368859,1580,1579,1578,1578,0,0,0,0,0,0,0,0,0,0
1682161266.04039884,167468819,1580,1581,1579,1579,0,0,0,0,0,0,0,0,0,0
1682161266.14035892,167568779,1580,1580,1579,1578,0,0,0,0,0,0,0,0,0,0
1682161266.24031901,167668739,1579,1579,1578,1578,0,0,0,0,0,0,0,0,0,0
1682161266.34027886,167768699,1581,1580,1580,1580,0,0,0,0,0,0,0,0,0,0
1682161266.44023895,167868659,1579,1579,1579,1579,0,0,0,0,0,0,0,0,0,0
1682161266.54019904,167968619,1580,1580,1580,1580,0,0,0,0,0,0,0,0,0,0
1682161266.64015889,168068579,1578,1579,1579,1580,0,0,0,0,0,0,0,0,0,0
1682161266.74011898,168168539,1578,1578,1579,1580,0,0,0,0,0,0,0,0,0,0
1682161266.84007883,168268499,1579,1579,1580,1580,0,0,0,0,0,0,0,0,0,0
1682161266.94003892,168368459,1578,1579,1580,1579,0,0,0,0,0,0,0,0,0,0
1682161267.03999901,168468419,1579,1579,1580,1580,0,0,0,0,0,0,0,0,0,0
1682161267.13995886,168568379,1579,1580,1581,1580,0,0,0,0,0,0,0,0,0,0
1682161267.23991895,168668339,1580,1579,1580,1580,0,0,0,0,0,0,0,0,0,0
1682161267.33987904,168768299,1580,1580,1580,1580,0,0,0,0,0,0,0,0,0,0
1682161267.43983889,168868259,1579,1579,1579,1580,0,0,0,0,0,0,0,0,0,0
1682161267.53979897,168968219,1580,1580,1580,1580,0,0,0,0,0,0,0,0,0,0
1682161267.63975883,169068179,1580,1580,1579,1580,0,0,0,0,0,0,0,0,0,0
1682161267.74055195,169168972,1580,1580,1580,1579,0,0,0,0,0,0,0,0,0,0
1682161267.84051204,169268932,1581,1581,1581,1580,0,0,0,0,0,0,0,0,0,0
1682161267.94047189,169368892,1580,1581,1581,1581,0,0,0,0,0,0,0,0,0,0
1682161268.04043198,169468852,1581,1581,1580,1581,0,0,0,0,0,0,0,0,0,0
1682161268.14039183,169568812,1581,1581,1581,1581,0,0,0,0,0,0,0,0,0,0
1682161268.24035192,169668772,1581,1580,1580,1581,0,0,0,0,0,0,0,0,0,0
1682161268.34031200,169768732,1581,1581,1581,1581,0,0,0,0,0,0,0,0,0,0
1682161268.44027185,169868692,1581,1581,1581,1581,0,0,0,0,0,0,0,0,0,0
1682161268.54023194,169968652,1580,1581,1581,1581,0,0,0,0,0,0,0,0,0,0
1682161268.64019203,170068612,1581,1582,1586,1578,0,0,0,0,0,0,0,0,0,0
1682161268.74015188,170168572,1581,1584,1589,1574,0,0,0,0,0,0,0,0,0,0
1682161268.84011197,170268532,1580,1583,1582,1573,0,0,0,0,0,0,0,0,0,0
1682161268.94007182,170368492,1579,1581,1573,1573,0,0,0,0,0,0,0,0,0,0
1682161269.04003191,170468452,1579,1581,1565,1571,0,0,0,0,0,0,0,0,0,0
1682161269.13999200,170568412,1578,1580,1558,1566,0,0,0,0,0,0,0,0,0,0
1682161269.23995185,170668372,1579,1578,1554,1560,0,0,0,0,0,0,0,0,0,0
1682161269.33991194,170768332,1580,1579,1554,1556,0,0,0,0,0,0,0,0,0,0
1682161269.43987203,170868292,1581,1579,1554,1553,0,0,0,0,0,0,0,0,0,0
1682161269.53983188,170968252,1580,1579,1555,1552,0,0,0,0,0,0,0,0,0,0
1682161269.63979197,171068212,1579,1579,1554,1552,0,0,0,0,0,0,0,0,0,0
1682161269.73975182,171168172,1578,1579,1554,1552,0,0,0,0,0,0,0,0,0,0
1682161269.84054494,171268965,1576,1579,1553,1553,0,0,0,0,0,0,0,0,0,0
1682161269.94050503,171368925,1575,1577,1552,1551,0,0,0,0,0,0,0,0,0,0
1682161270.04046488,171468885,1577,1579,1551,1552,0,0,0,0,0,0,0,0,0,0
1682161270.14042497,171568845,1577,1579,1549,1550,0,0,0,0,0,0,0,0,0,0
1682161270.24038482,171668805,1580,1581,1548,1548,0,0,0,0,0,0,0,0,0,0
1682161270.34034491,171768765,1582,1583,1546,1545,0,0,0,0,0,0,0,0,0,0
1682161270.44030499,171868725,1586,1586,1543,1543,0,0,0,0,0,0,0,0,0,0
1682161270.54026484,171968685,1588,1589,1540,1540,0,0,0,0,0,0,0,0,0,0
1682161270.64022493,172068645,1590,1591,1537,1537,0,0,0,0,0,0,0,0,0,0
1682161270.74018502,172168605,1593,1594,1536,1536,0,0,0,0,0,0,0,0,0,0
1682161270.84014487,172268565,1595,1595,1535,1536,0,0,0,0,0,0,0,0,0,0
1682161270.94010496,172368525,1595,1595,1534,1536,0,0,0,0,0,0,0,0,0,0
1682161271.04006505,172468485,1594,1595,1536,1539,0,0,0,0,0,0,0,0,0,0
1682161271.14002490,172568445,1592,1591,1539,1542,0,0,0,0,0,0,0,0,0,0
1682161271.23998499,172668405,1589,1587,1547,1549,0,0,0,0,0,0,0,0,0,0
1682161271.33994484,172768365,1581,1578,1555,1558,0,0,0,0,0,0,0,0,0,0
1682161271.43990493,172868325,1574,1569,1568,1570,0,0,0,0,0,0,0,0,0,0
1682161271.53986502,172968285,1561,1556,1579,1581,0,0,0,0,0,0,0,0,0,0
1682161271.63982487,173068245,1549,1546,1592,1593,0,0,0,0,0,0,0,0,0,0
1682161271.73978496,173168205,1539,1538,1604,1604,0,0,0,0,0,0,0,0,0,0
1682161271.83974504,173268165,1531,1532,1612,1610,0,0,0,0,0,0,0,0,0,0
1682161271.94053793,173368958,1528,1530,1617,1615,0,0,0,0,0,0,0,0,0,0
1682161272.04049802,173468918,1529,1531,1617,1616,0,0,0,0,0,0,0,0,0,0
1682161272.14045787,173568878,1532,1535,1614,1613,0,0,0,0,0,0,0,0,0,0
1682161272.24041796,173668838,1539,1541,1607,1608,0,0,0,0,0,0,0,0,0,0
1682161272.34037805,173768798,1546,1548,1600,1600,0,0,0,0,0,0,0,0,0,0
1682161272.44033790,173868758,1556,1558,1593,1593,0,0,0,0,0,0,0,0,0,0
1682161272.54029799,173968718,1565,1565,1585,1584,0,0,0,0,0,0,0,0,0,0
1682161272.64025784,174068678,1574,1573,1578,1577,0,0,0,0,0,0,0,0,0,0
1682161272.74021792,174168638,1581,1579,1573,1572,0,0,0,0,0,0,0,0,0,0
1682161272.84017801,174268598,1585,1584,1568,1568,0,0,0,0,0,0,0,0,0,0
1682161272.94013786,174368558,1588,1587,1567,1566,0,0,0,0,0,0,0,0,0,0
1682161273.04009795,174468518,1588,1587,1566,1566,0,0,0,0,0,0,0,0,0,0
1682161273.14005804,174568478,1587,1586,1566,1567,0,0,0,0,0,0,0,0,0,0
1682161273.24001789,174668438,1585,1584,1568,1568,0,0,0,0,0,0,0,0,0,0
1682161273.33997798,174768398,1582,1582,1571,1572,0,0,0,0,0,0,0,0,0,0
1682161273.43993783,174868358,1580,1580,1575,1575,0,0,0,0,0,0,0,0,0,0
1682161273.53989792,174968318,1576,1576,1577,1577,0,0,0,0,0,0,0,0,0,0
1682161273.63985801,175068278,1574,1574,1580,1580,0,0,0,0,0,0,0,0,0,0
1682161273.73981786,175168238,1573,1573,1583,1582,0,0,0,0,0,0,0,0,0,0
1682161273.83977795,175268198,1572,1573,1584,1583,0,0,0,0,0,0,0,0,0,0
1682161273.93973804,175368158,1571,1572,1583,1583,0,0,0,0,0,0,0,0,0,0
1682161274.04053092,175468951,1572,1572,1583,1583,0,0,0,0,0,0,0,0,0,0
1682161274.14049101,175568911,1574,1573,1583,1583,0,0,0,0,0,0,0,0,0,0
1682161274.24045086,175668871,1575,1574,1581,1582,0,0,0,0,0,0,0,0,0,0
1682161274.34041095,175768831,1576,1576,1581,1580,0,0,0,0,0,0,0,0,0,0
1682161274.44037104,175868791,1578,1579,1580,1580,0,0,0,0,0,0,0,0,0,0
1682161274.54033089,175968751,1579,1578,1578,1578,0,0,0,0,0,0,0,0,0,0
1682161274.64029098,176068711,1580,1580,1577,1577,0,0,0,0,0,0,0,0,0,0
1682161274.74025083,176168671,1441,1549,1436,1546,0,0,0,0,0,0,0,0,0,0
1682161274.84021091,176268631,1542,1559,1537,1557,0,0,0,0,0,0,0,0,0,0
1682161274.94017100,176368591,1616,1578,1613,1575,0,0,0,0,0,0,0,0,0,0
1682161275.04013085,176468551,1682,1619,1679,1618,0,0,0,0,0,0,0,0,0,0
1682161275.14009094,176568511,1720,1658,1715,1655,0,0,0,0,0,0,0,0,0,0
1682161275.24005103,176668471,1717,1673,1709,1662,0,0,0,0,0,0,0,0,0,0
1682161275.34001088,176768431,1685,1665,1671,1641,0,0,0,0,0,0,0,0,0,0
1682161275.43997097,176868391,1638,1647,1621,1616,0,0,0,0,0,0,0,0,0,0
1682161275.53993082,176968351,1593,1625,1584,1612,0,0,0,0,0,0,0,0,0,0
1682161275.63989091,177068311,1563,1600,1574,1620,0,0,0,0,0,0,0,0,0,0
1682161275.73985100,177168271,1546,1574,1580,1623,0,0,0,0,0,0,0,0,0,0
1682161275.83981085,177268231,1542,1556,1589,1617,0,0,0,0,0,0,0,0,0,0
1682161275.93977094,177368191,1546,1548,1595,1605,0,0,0,0,0,0,0,0,0,0
1682161276.04056382,177468984,1557,1552,1597,1591,0,0,0,0,0,0,0,0,0,0
1682161276.14052391,177568944,1568,1562,1593,1579,0,0,0,0,0,0,0,0,0,0
1682161276.24048400,177668904,1579,1574,1586,1571,0,0,0,0,0,0,0,0,0,0
1682161276.34044385,177768864,1586,1585,1577,1566,0,0,0,0,0,0,0,0,0,0
1682161276.44040394,177868824,1590,1592,1568,1563,0,0,0,0,0,0,0,0,0,0
1682161276.54036403,177968784,1591,1593,1562,1559,0,0,0,0,0,0,0,0,0,0
1682161276.64032388,178068744,1591,1593,1561,1549,0,0,0,0,0,0,0,0,0,0
1682161276.74028397,178168704,1590,1592,1554,1548,0,0,0,0,0,0,0,0,0,0
1682161276.84024382,178268664,1586,1588,1549,1551,0,0,0,0,0,0,0,0,0,0
1682161276.94020391,178368624,1581,1584,1545,1552,0,0,0,0,0,0,0,0,0,0
1682161277.04016399,178468584,1577,1578,1544,1554,0,0,0,0,0,0,0,0,0,0
1682161277.14012384,178568544,1574,1573,1547,1554,0,0,0,0,0,0,0,0,0,0
1682161277.24008393,178668504,1570,1569,1549,1553,0,0,0,0,0,0,0,0,0,0
1682161277.34004402,178768464,1568,1568,1553,1553,0,0,0,0,0,0,0,0,0,0
1682161277.44000387,178868424,1566,1566,1556,1553,0,0,0,0,0,0,0,0,0,0
1682161277.53996396,178968384,1565,1567,1557,1554,0,0,0,0,0,0,0,0,0,0
1682161277.63992405,179068344,1565,1567,1558,1555,0,0,0,0,0,0,0,0,0,0
1682161277.73988390,179168304,1565,1567,1556,1555,0,0,0,0,0,0,0,0,0,0
1682161277.83984399,179268264,1566,1568,1555,1554,0,0,0,0,0,0,0,0,0,0
1682161277.93980384,179368224,1569,1570,1553,1553,0,0,0,0,0,0,0,0,0,0
1682161278.03976393,179468184,1572,1573,1551,1551,0,0,0,0,0,0,0,0,0,0
1682161278.14055705,179568977,1575,1575,1547,1548,0,0,0,0,0,0,0,0,0,0
1682161278.24051690,179668937,1578,1578,1544,1544,0,0,0,0,0,0,0,0,0,0
1682161278.34047699,179768897,1581,1582,1540,1540,0,0,0,0,0,0,0,0,0,0
1682161278.44043684,179868857,1586,1586,1538,1538,0,0,0,0,0,0,0,0,0,0
1682161278.54039693,179968817,1589,1589,1535,1535,0,0,0,0,0,0,0,0,0,0
1682161278.64035702,180068777,1591,1592,1533,1533,0,0,0,0,0,0,0,0,0,0
1682161278.74031687,180168737,1593,1593,1532,1532,0,0,0,0,0,0,0,0,0,0
1682161278.84027696,180268697,1595,1595,1534,1535,0,0,0,0,0,0,0,0,0,0
1682161278.94023705,180368657,1594,1593,1535,1537,0,0,0,0,0,0,0,0,0,0
1682161279.04019690,180468617,1592,1589,1540,1542,0,0,0,0,0,0,0,0,0,0
1682161279.14015698,180568577,1587,1584,1546,1547,0,0,0,0,0,0,0,0,0,0
1682161279.24011683,180668537,1580,1578,1553,1555,0,0,0,0,0,0,0,0,0,0
1682161279.34007692,180768497,1572,1570,1561,1564,0,0,0,0,0,0,0,0,0,0
1682161279.44003701,180868457,1563,1562,1569,1571,0,0,0,0,0,0,0,0,0,0
1682161279.53999686,180968417,1554,1554,1577,1578,0,0,0,0,0,0,0,0,0,0
1682161279.63995695,181068377,1547,1548,1585,1586,0,0,0,0,0,0,0,0,0,0
1682161279.73991704,181168337,1542,1543,1592,1592,0,0,0,0,0,0,0,0,0,0
1682161279.83987689,181268297,1538,1539,1597,1596,0,0,0,0,0,0,0,0,0,0
1682161279.93983698,181368257,1537,1538,1601,1599,0,0,0,0,0,0,0,0,0,0
1682161280.03979683,181468217,1537,1537,1601,1599,0,0,0,0,0,0,0,0,0,0
1682161280.13975692,181568177,1540,1540,1601,1599,0,0,0,0,0,0,0,0,0,0
1682161280.24055004,181668970,1543,1543,1597,1596,0,0,0,0,0,0,0,0,0,0
1682161280.34050989,181768930,1548,1548,1594,1594,0,0,0,0,0,0,0,0,0,0
1682161280.44046998,181868890,1554,1554,1589,1590,0,0,0,0,0,0,0,0,0,0
1682161280.54042983,181968850,1559,1558,1584,1585,0,0,0,0,0,0,0,0,0,0
1682161280.64038992,182068810,1564,1564,1579,1580,0,0,0,0,0,0,0,0,0,0
1682161280.74035001,182168770,1568,1567,1574,1575,0,0,0,0,0,0,0,0,0,0
1682161280.84030986,182268730,1572,1572,1571,1572,0,0,0,0,0,0,0,0,0,0
1682161280.94026995,182368690,1576,1575,1570,1570,0,0,0,0,0,0,0,0,0,0
1682161281.04023004,182468650,1580,1579,1571,1570,0,0,0,0,0,0,0,0,0,0
1682161281.14018989,182568610,1581,1579,1570,1569,0,0,0,0,0,0,0,0,0,0
1682161281.24014997,182668570,1581,1581,1571,1570,0,0,0,0,0,0,0,0,0,0
1682161281.34010983,182768530,1580,1580,1571,1571,0,0,0,0,0,0,0,0,0,0
1682161281.44006991,182868490,1579,1579,1572,1572,0,0,0,0,0,0,0,0,0,0
1682161281.54003000,182968450,1578,1578,1575,1575,0,0,0,0,0,0,0,0,0,0
1682161281.63998985,183068410,1577,1577,1576,1576,0,0,0,0,0,0,0,0,0,0
1682161281.73994994,183168370,1576,1577,1578,1578,0,0,0,0,0,0,0,0,0,0
1682161281.83991003,183268330,1574,1575,1579,1578,0,0,0,0,0,0,0,0,0,0
1682161281.93986988,183368290,1574,1575,1580,1580,0,0,0,0,0,0,0,0,0,0
1682161282.03982997,183468250,1575,1575,1580,1581,0,0,0,0,0,0,0,0,0,0
1682161282.13978982,183568210,1575,1575,1581,1581,0,0,0,0,0,0,0,0,0,0
1682161282.23974991,183668170,1576,1576,1581,1581,0,0,0,0,0,0,0,0,0,0
1682161282.34054303,183768963,1576,1576,1581,1581,0,0,0,0,0,0,0,0,0,0
1682161282.44050288,183868923,1577,1577,1581,1580,0,0,0,0,0,0,0,0,0,0
1682161282.54046297,183968883,1578,1579,1580,1580,0,0,0,0,0,0,0,0,0,0
1682161282.64042282,184068843,1578,1578,1579,1579,0,0,0,0,0,0,0,0,0,0
1682161282.74038291,184168803,1578,1578,1577,1578,0,0,0,0,0,0,0,0,0,0
1682161282.84034300,184268763,1579,1578,1577,1577,0,0,0,0,0,0,0,0,0,0
1682161282.94030285,184368723,1579,1579,1577,1577,0,0,0,0,0,0,0,0,0,0
1682161283.04026294,184468683,1580,1580,1577,1577,0,0,0,0,0,0,0,0,0,0
1682161283.14022303,184568643,1580,1580,1578,1577,0,0,0,0,0,0,0,0,0,0
1682161283.24018288,184668603,1580,1580,1578,1578,0,0,0,0,0,0,0,0,0,0
1682161283.34014297,184768563,1581,1580,1579,1578,0,0,0,0,0,0,0,0,0,0
1682161283.44010282,184868523,1581,1581,1579,1579,0,0,0,0,0,0,0,0,0,0
1682161283.54006290,184968483,1581,1581,1580,1580,0,0,0,0,0,0,0,0,0,0
1682161283.64002299,185068443,1581,1581,1581,1580,0,0,0,0,0,0,0,0,0,0
1682161283.73998284,185168403,1580,1580,1581,1580,0,0,0,0,0,0,0,0,0,0
1682161283.83994293,185268363,1580,1580,1580,1580,0,0,0,0,0,0,0,0,0,0
1682161283.93990302,185368323,1581,1580,1581,1581,0,0,0,0,0,0,0,0,0,0
1682161284.03986287,185468283,1580,1581,1582,1582,0,0,0,0,0,0,0,0,0,0
1682161284.13982296,185568243,1580,1580,1582,1581,0,0,0,0,0,0,0,0,0,0
1682161284.23978305,185668203,1581,1581,1582,1582,0,0,0,0,0,0,0,0,0,0
1682161284.33974290,185768163,1581,1581,1582,1582,0,0,0,0,0,0,0,0,0,0
1682161284.44053602,185868956,1580,1581,1581,1581,0,0,0,0,0,0,0,0,0,0
1682161284.54049587,185968916,1581,1581,1581,1581,0,0,0,0,0,0,0,0,0,0
1682161284.64045596,186068876,1581,1581,1581,1581,0,0,0,0,0,0,0,0,0,0
1682161284.74041605,186168836,1580,1580,1580,1581,0,0,0,0,0,0,0,0,0,0
1682161284.84037590,186268796,1581,1581,1581,1581,0,0,0,0,0,0,0,0,0,0
1682161284.94033599,186368756,1582,1582,1582,1582,0,0,0,0,0,0,0,0,0,0
1682161285.04029584,186468716,1583,1582,1582,1582,0,0,0,0,0,0,0,0,0,0
1682161285.14025593,186568676,1582,1583,1582,1582,0,0,0,0,0,0,0,0,0,0
1682161285.24021602,186668636,1583,1583,1583,1583,0,0,0,0,0,0,0,0,0,0
1682161285.34017587,186768596,1583,1583,1583,1582,0,0,0,0,0,0,0,0,0,0
1682161285.44013596,186868556,1583,1584,1587,1577,0,0,0,0,0,0,0,0,0,0
1682161285.54009604,186968516,1582,1585,1587,1573,0,0,0,0,0,0,0,0,0,0
1682161285.64005589,187068476,1581,1584,1581,1574,0,0,0,0,0,0,0,0,0,0
1682161285.74001598,187168436,1579,1582,1572,1572,0,0,0,0,0,0,0,0,0,0
1682161285.83997583,187268396,1577,1579,1564,1569,0,0,0,0,0,0,0,0,0,0
1682161285.93993592,187368356,1578,1578,1558,1565,0,0,0,0,0,0,0,0,0,0
1682161286.03989601,187468316,1579,1579,1555,1561,0,0,0,0,0,0,0,0,0,0
1682161286.13985586,187568276,1579,1578,1553,1557,0,0,0,0,0,0,0,0,0,0
1682161286.23981595,187668236,1579,1578,1553,1554,0,0,0,0,0,0,0,0,0,0
1682161286.33977604,187768196,1580,1579,1554,1553,0,0,0,0,0,0,0,0,0,0
1682161286.43973589,187868156,1581,1581,1556,1554,0,0,0,0,0,0,0,0,0,0
1682161286.54052901,187968949,1579,1580,1556,1553,0,0,0,0,0,0,0,0,0,0
1682161286.64048886,188068909,1578,1579,1555,1553,0,0,0,0,0,0,0,0,0,0
1682161286.74044895,188168869,1577,1579,1554,1553,0,0,0,0,0,0,0,0,0,0
1682161286.84040904,188268829,1578,1579,1553,1553,0,0,0,0,0,0,0,0,0,0
1682161286.94036889,188368789,1578,1579,1552,1552,0,0,0,0,0,0,0,0,0,0
1682161287.04032898,188468749,1579,1580,1550,1551,0,0,0,0,0,0,0,0,0,0
1682161287.14028883,188568709,1580,1582,1548,1549,0,0,0,0,0,0,0,0,0,0
1682161287.24024892,188668669,1582,1584,1547,1547,0,0,0,0,0,0,0,0,0,0
1682161287.34020901,188768629,1585,1586,1545,1544,0,0,0,0,0,0,0,0,0,0
1682161287.44016886,188868589,1588,1587,1543,1542,0,0,0,0,0,0,0,0,0,0
1682161287.54012895,188968549,1589,1589,1541,1541,0,0,0,0,0,0,0,0,0,0
1682161287.64008904,189068509,1592,1593,1540,1541,0,0,0,0,0,0,0,0,0,0
1682161287.74004889,189168469,1593,1594,1538,1540,0,0,0,0,0,0,0,0,0,0
1682161287.84000897,189268429,1594,1594,1539,1542,0,0,0,0,0,0,0,0,0,0
1682161287.93996882,189368389,1594,1593,1543,1545,0,0,0,0,0,0,0,0,0,0
1682161288.03992891,189468349,1592,1588,1547,1549,0,0,0,0,0,0,0,0,0,0
1682161288.13988900,189568309,1587,1583,1555,1557,0,0,0,0,0,0,0,0,0,0
1682161288.23984885,189668269,1579,1575,1563,1567,0,0,0,0,0,0,0,0,0,0
1682161288.33980894,189768229,1569,1565,1574,1576,0,0,0,0,0,0,0,0,0,0
1682161288.43976903,189868189,1559,1557,1585,1587,0,0,0,0,0,0,0,0,0,0
1682161288.54056191,189968982,1549,1548,1595,1595,0,0,0,0,0,0,0,0,0,0
1682161288.64052200,190068942,1542,1543,1605,1603,0,0,0,0,0,0,0,0,0,0
1682161288.74048185,190168902,1537,1540,1612,1609,0,0,0,0,0,0,0,0,0,0
1682161288.84044194,190268862,1536,1540,1615,1612,0,0,0,0,0,0,0,0,0,0
1682161288.94040203,190368822,1537,1541,1614,1612,0,0,0,0,0,0,0,0,0,0
1682161289.04036188,190468782,1542,1545,1612,1611,0,0,0,0,0,0,0,0,0,0
1682161289.14032197,190568742,1547,1548,1606,1605,0,0,0,0,0,0,0,0,0,0
1682161289.24028182,190668702,1553,1553,1600,1599,0,0,0,0,0,0,0,0,0,0
1682161289.34024191,190768662,1560,1560,1593,1592,0,0,0,0,0,0,0,0,0,0
1682161289.44020200,190868622,1566,1565,1585,1585,0,0,0,0,0,0,0,0,0,0
1682161289.54016185,190968582,1573,1571,1578,1578,0,0,0,0,0,0,0,0,0,0
1682161289.64012194,191068542,1578,1576,1572,1573,0,0,0,0,0,0,0,0,0,0
1682161289.74008203,191168502,1582,1580,1568,1569,0,0,0,0,0,0,0,0,0,0
1682161289.84004188,191268462,1584,1582,1565,1567,0,0,0,0,0,0,0,0,0,0
1682161289.94000196,191368422,1585,1583,1564,1565,0,0,0,0,0,0,0,0,0,0
1682161290.03996181,191468382,1585,1585,1565,1567,0,0,0,0,0,0,0,0,0,0
1682161290.13992190,191568342,1585,1584,1568,1568,0,0,0,0,0,0,0,0,0,0
1682161290.23988199,191668302,1582,1582,1570,1569,0,0,0,0,0,0,0,0,0,0
1682161290.33984184,191768262,1581,1581,1574,1573,0,0,0,0,0,0,0,0,0,0
1682161290.43980193,191868222,1579,1579,1577,1576,0,0,0,0,0,0,0,0,0,0
1682161290.53976202,191968182,1577,1577,1580,1579,0,0,0,0,0,0,0,0,0,0
1682161290.64055490,192068975,1575,1576,1582,1581,0,0,0,0,0,0,0,0,0,0
1682161290.74051499,192168935,1573,1575,1583,1583,0,0,0,0,0,0,0,0,0,0
1682161290.84047484,192268895,1572,1573,1584,1583,0,0,0,0,0,0,0,0,0,0
1682161290.94043493,192368855,1572,1573,1584,1584,0,0,0,0,0,0,0,0,0,0
1682161291.04039502,192468815,1573,1573,1583,1583,0,0,0,0,0,0,0,0,0,0
1682161291.14035487,192568775,1573,1575,1583,1583,0,0,0,0,0,0,0,0,0,0
1682161291.24031496,192668735,1575,1575,1581,1582,0,0,0,0,0,0,0,0,0,0
1682161291.34027505,192768695,1575,1576,1580,1580,0,0,0,0,0,0,0,0,0,0
1682161291.44023490,192868655,1577,1577,1579,1579,0,0,0,0,0,0,0,0,0,0
1682161291.54019499,192968615,1579,1578,1578,1579,0,0,0,0,0,0,0,0,0,0
1682161291.64015484,193068575,1580,1580,1577,1578,0,0,0,0,0,0,0,0,0,0
1682161291.74011493,193168535,1580,1580,1576,1576,0,0,0,0,0,0,0,0,0,0
1682161291.84007502,193268495,1582,1582,1578,1578,0,0,0,0,0,0,0,0,0,0
1682161291.94003487,193368455,1582,1582,1578,1577,0,0,0,0,0,0,0,0,0,0
1682161292.03999496,193468415,1582,1582,1578,1578,0,0,0,0,0,0,0,0,0,0
1682161292.13995504,193568375,1581,1581,1578,1578,0,0,0,0,0,0,0,0,0,0
1682161292.23991489,193668335,1582,1582,1579,1579,0,0,0,0,0,0,0,0,0,0
1682161292.33987498,193768295,1580,1579,1578,1578,0,0,0,0,0,0,0,0,0,0
1682161292.43983483,193868255,1579,1579,1579,1579,0,0,0,0,0,0,0,0,0,0
1682161292.53979492,193968215,1579,1579,1580,1580,0,0,0,0,0,0,0,0,0,0
1682161292.63975501,194068175,1579,1580,1581,1581,0,0,0,0,0,0,0,0,0,0
1682161292.74054790,194168968,1579,1579,1581,1580,0,0,0,0,0,0,0,0,0,0
1682161292.84050798,194268928,1579,1579,1580,1581,0,0,0,0,0,0,0,0,0,0
1682161292.94046783,194368888,1579,1579,1581,1581,0,0,0,0,0,0,0,0,0,0
1682161293.04042792,194468848,1578,1579,1580,1580,0,0,0,0,0,0,0,0,0,0
1682161293.14038801,194568808,1578,1579,1580,1580,0,0,0,0,0,0,0,0,0,0
1682161293.24034786,194668768,1579,1579,1580,1580,0,0,0,0,0,0,0,0,0,0
1682161293.34030795,194768728,1581,1582,1587,1574,0,0,0,0,0,0,0,0,0,0
1682161293.44026804,194868688,1581,1581,1586,1572,0,0,0,0,0,0,0,0,0,0
1682161293.54022789,194968648,1578,1578,1579,1574,0,0,0,0,0,0,0,0,0,0
1682161293.64018798,195068608,1575,1574,1573,1575,0,0,0,0,0,0,0,0,0,0
1682161293.74014783,195168568,1572,1572,1568,1575,0,0,0,0,0,0,0,0,0,0
1682161293.84010792,195268528,1569,1569,1565,1572,0,0,0,0,0,0,0,0,0,0
1682161293.94006801,195368488,1567,1567,1564,1569,0,0,0,0,0,0,0,0,0,0
1682161294.04002786,195468448,1566,1566,1564,1566,0,0,0,0,0,0,0,0,0,0
1682161294.13998795,195568408,1566,1566,1565,1565,0,0,0,0,0,0,0,0,0,0
1682161294.23994803,195668368,1566,1566,1566,1564,0,0,0,0,0,0,0,0,0,0
1682161294.33990788,195768328,1565,1565,1566,1564,0,0,0,0,0,0,0,0,0,0
1682161294.43986797,195868288,1564,1564,1566,1564,0,0,0,0,0,0,0,0,0,0
1682161294.53982782,195968248,1564,1564,1566,1564,0,0,0,0,0,0,0,0,0,0
1682161294.63978791,196068208,1563,1563,1564,1564,0,0,0,0,0,0,0,0,0,0
1682161294.73974800,196168168,1563,1562,1563,1563,0,0,0,0,0,0,0,0,0,0
1682161294.84054089,196268961,1562,1562,1563,1563,0,0,0,0,0,0,0,0,0,0
1682161294.94050097,196368921,1562,1562,1562,1563,0,0,0,0,0,0,0,0,0,0
1682161295.04046082,196468881,1562,1562,1562,1562,0,0,0,0,0,0,0,0,0,0
1682161295.14042091,196568841,1562,1561,1562,1561,0,0,0,0,0,0,0,0,0,0
1682161295.24038100,196668801,1562,1562,1562,1561,0,0,0,0,0,0,0,0,0,0
1682161295.34034085,196768761,1560,1560,1561,1560,0,0,0,0,0,0,0,0,0,0
1682161295.44030094,196868721,1561,1560,1561,1560,0,0,0,0,0,0,0,0,0,0
1682161295.54026103,196968681,1560,1560,1560,1559,0,0,0,0,0,0,0,0,0,0
1682161295.64022088,197068641,1559,1558,1559,1558,0,0,0,0,0,0,0,0,0,0
1682161295.74018097,197168601,1559,1559,1560,1558,0,0,0,0,0,0,0,0,0,0
1682161295.84014082,197268561,1558,1558,1559,1557,0,0,0,0,0,0,0,0,0,0
1682161295.94010091,197368521,1559,1559,1561,1558,0,0,0,0,0,0,0,0,0,0
1682161296.04006100,197468481,1560,1559,1561,1558,0,0,0,0,0,0,0,0,0,0
1682161296.14002085,197568441,1560,1560,1560,1561,0,0,0,0,0,0,0,0,0,0
1682161296.23998094,197668401,1560,1560,1558,1563,0,0,0,0,0,0,0,0,0,0
1682161296.33994102,197768361,1561,1561,1558,1564,0,0,0,0,0,0,0,0,0,0
1682161296.43990088,197868321,1561,1561,1558,1564,0,0,0,0,0,0,0,0,0,0
1682161296.53986096,197968281,1561,1562,1559,1563,0,0,0,0,0,0,0,0,0,0
1682161296.63982081,198068241,1561,1562,1561,1561,0,0,0,0,0,0,0,0,0,0
1682161296.73978090,198168201,1561,1560,1560,1560,0,0,0,0,0,0,0,0,0,0
1682161296.83974099,198268161,1557,1556,1556,1556,0,0,0,0,0,0,0,0,0,0
1682161296.94053388,198368954,1553,1552,1552,1552,0,0,0,0,0,0,0,0,0,0
1682161297.04049397,198468914,1548,1547,1547,1547,0,0,0,0,0,0,0,0,0,0
1682161297.14045382,198568874,1542,1541,1542,1541,0,0,0,0,0,0,0,0,0,0
1682161297.24041390,198668834,1534,1534,1534,1534,0,0,0,0,0,0,0,0,0,0
1682161297.34037399,198768794,1527,1528,1527,1528,0,0,0,0,0,0,0,0,0,0
1682161297.44033384,198868754,1521,1523,1522,1523,0,0,0,0,0,0,0,0,0,0
1682161297.54029393,198968714,1520,1521,1520,1521,0,0,0,0,0,0,0,0,0,0
1682161297.64025402,199068674,1519,1520,1519,1520,0,0,0,0,0,0,0,0,0,0
1682161297.74021387,199168634,1520,1521,1520,1521,0,0,0,0,0,0,0,0,0,0
1682161297.84017396,199268594,1523,1524,1523,1524,0,0,0,0,0,0,0,0,0,0
1682161297.94013405,199368554,1527,1527,1527,1528,0,0,0,0,0,0,0,0,0,0
1682161298.04009390,199468514,1532,1532,1532,1532,0,0,0,0,0,0,0,0,0,0
1682161298.14005399,199568474,1536,1536,1537,1536,0,0,0,0,0,0,0,0,0,0
1682161298.24001384,199668434,1539,1539,1540,1538,0,0,0,0,0,0,0,0,0,0
1682161298.33997393,199768394,1542,1540,1542,1540,0,0,0,0,0,0,0,0,0,0
1682161298.43993402,199868354,1543,1542,1543,1542,0,0,0,0,0,0,0,0,0,0
1682161298.53989387,199968314,1544,1544,1544,1543,0,0,0,0,0,0,0,0,0,0
1682161298.63985395,200068274,1545,1545,1545,1545,0,0,0,0,0,0,0,0,0,0
1682161298.73981404,200168234,1546,1547,1546,1546,0,0,0,0,0,0,0,0,0,0
1682161298.83977389,200268194,1546,1546,1546,1546,0,0,0,0,0,0,0,0,0,0
1682161298.93973398,200368154,1546,1546,1546,1546,0,0,0,0,0,0,0,0,0,0
1682161299.04052687,200468947,1546,1546,1546,1546,0,0,0,0,0,0,0,0,0,0
1682161299.14048696,200568907,1546,1546,1546,1546,0,0,0,0,0,0,0,0,0,0
1682161299.24044704,200668867,1546,1546,1547,1546,0,0,0,0,0,0,0,0,0,0
1682161299.34040689,200768827,1546,1547,1547,1546,0,0,0,0,0,0,0,0,0,0
1682161299.44036698,200868787,1547,1546,1546,1546,0,0,0,0,0,0,0,0,0,0
1682161299.54032683,200968747,1546,1546,1546,1546,0,0,0,0,0,0,0,0,0,0
1682161299.64028692,201068707,1544,1545,1545,1545,0,0,0,0,0,0,0,0,0,0
1682161299.74024701,201168667,1545,1545,1545,1545,0,0,0,0,0,0,0,0,0,0
1682161299.84020686,201268627,1544,1544,1544,1544,0,0,0,0,0,0,0,0,0,0
1682161299.94016695,201368587,1544,1544,1544,1544,0,0,0,0,0,0,0,0,0,0
1682161300.04012704,201468547,1545,1544,1544,1544,0,0,0,0,0,0,0,0,0,0
1682161300.14008689,201568507,1544,1544,1544,1544,0,0,0,0,0,0,0,0,0,0
1682161300.24004698,201668467,1544,1544,1544,1544,0,0,0,0,0,0,0,0,0,0
1682161300.34000683,201768427,1543,1543,1544,1543,0,0,0,0,0,0,0,0,0,0
1682161300.43996692,201868387,1544,1544,1544,1544,0,0,0,0,0,0,0,0,0,0
1682161300.53992701,201968347,1543,1543,1543,1543,0,0,0,0,0,0,0,0,0,0
1682161300.63988686,202068307,1543,1543,1543,1543,0,0,0,0,0,0,0,0,0,0
1682161300.73984694,202168267,1544,1544,1544,1544,0,0,0,0,0,0,0,0,0,0
1682161300.83980703,202268227,1543,1544,1543,1544,0,0,0,0,0,0,0,0,0,0
1682161300.93976688,202368187,1544,1544,1544,1544,0,0,0,0,0,0,0,0,0,0
1682161301.04056001,202468980,1544,1543,1543,1544,0,0,0,0,0,0,0,0,0,0
1682161301.14051986,202568940,1544,1544,1544,1544,0,0,0,0,0,0,0,0,0,0
1682161301.24047995,202668900,1544,1543,1543,1543,0,0,0,0,0,0,0,0,0,0
1682161301.34044003,202768860,1544,1545,1544,1544,0,0,0,0,0,0,0,0,0,0
1682161301.44039989,202868820,1543,1543,1543,1543,0,0,0,0,0,0,0,0,0,0
1682161301.54035997,202968780,1544,1544,1544,1544,0,0,0,0,0,0,0,0,0,0
1682161301.64031982,203068740,1544,1544,1544,1544,0,0,0,0,0,0,0,0,0,0
1682161301.74027991,203168700,1543,1544,1544,1543,0,0,0,0,0,0,0,0,0,0
1682161301.84024000,203268660,1544,1544,1544,1544,0,0,0,0,0,0,0,0,0,0
1682161301.94019985,203368620,1543,1543,1544,1543,0,0,0,0,0,0,0,0,0,0
1682161302.04015994,203468580,1544,1544,1544,1544,0,0,0,0,0,0,0,0,0,0
1682161302.14012003,203568540,1544,1544,1544,1544,0,0,0,0,0,0,0,0,0,0
1682161302.24007988,203668500,1545,1545,1545,1545,0,0,0,0,0,0,0,0,0,0
1682161302.34003997,203768460,1544,1545,1545,1544,0,0,0,0,0,0,0,0,0,0
1682161302.43999982,203868420,1544,1544,1544,1544,0,0,0,0,0,0,0,0,0,0
1682161302.53995991,203968380,1545,1545,1544,1545,0,0,0,0,0,0,0,0,0,0
1682161302.63992000,204068340,1544,1543,1544,1543,0,0,0,0,0,0,0,0,0,0
1682161302.73987985,204168300,1543,1544,1544,1543,0,0,0,0,0,0,0,0,0,0
1682161302.83983994,204268260,1543,1543,1543,1543,0,0,0,0,0,0,0,0,0,0
1682161302.93980002,204368220,1544,1544,1544,1544,0,0,0,0,0,0,0,0,0,0
1682161303.03975987,204468180,1544,1544,1544,1544,0,0,0,0,0,0,0,0,0,0
1682161303.14055300,204568973,1544,1545,1545,1545,0,0,0,0,0,0,0,0,0,0
1682161303.24051285,204668933,1545,1545,1545,1545,0,0,0,0,0,0,0,0,0,0
1682161303.34047294,204768893,1544,1544,1544,1544,0,0,0,0,0,0,0,0,0,0
1682161303.44043303,204868853,1544,1544,1544,1544,0,0,0,0,0,0,0,0,0,0
1682161303.54039288,204968813,1545,1545,1545,1544,0,0,0,0,0,0,0,0,0,0
1682161303.64035296,205068773,1545,1544,1545,1545,0,0,0,0,0,0,0,0,0,0
1682161303.74031281,205168733,1545,1544,1545,1544,0,0,0,0,0,0,0,0,0,0
1682161303.84027290,205268693,1544,1545,1545,1544,0,0,0,0,0,0,0,0,0,0
1682161303.94023299,205368653,1544,1544,1544,1544,0,0,0,0,0,0,0,0,0,0
1682161304.04019284,205468613,1544,1544,1544,1543,0,0,0,0,0,0,0,0,0,0
1682161304.14015293,205568573,1544,1545,1544,1545,0,0,0,0,0,0,0,0,0,0
1682161304.24011302,205668533,1544,1544,1544,1544,0,0,0,0,0,0,0,0,0,0
1682161304.34007287,205768493,1544,1543,1544,1544,0,0,0,0,0,0,0,0,0,0
1682161304.44003296,205868453,1544,1544,1544,1544,0,0,0,0,0,0,0,0,0,0
1682161304.53999305,205968413,1543,1544,1544,1544,0,0,0,0,0,0,0,0,0,0
1682161304.63995290,206068373,1544,1543,1544,1543,0,0,0,0,0,0,0,0,0,0
1682161304.73991299,206168333,1545,1545,1545,1545,0,0,0,0,0,0,0,0,0,0
1682161304.83987284,206268293,1545,1544,1544,1545,0,0,0,0,0,0,0,0,0,0
1682161304.93983293,206368253,1544,1544,1544,1544,0,0,0,0,0,0,0,0,0,0
1682161305.03979301,206468213,1543,1543,1543,1543,0,0,0,0,0,0,0,0,0,0
1682161305.13975286,206568173,1544,1545,1544,1545,0,0,0,0,0,0,0,0,0,0
1682161305.24054599,206668966,1545,1545,1544,1545,0,0,0,0,0,0,0,0,0,0
1682161305.34050584,206768926,1544,1543,1544,1544,0,0,0,0,0,0,0,0,0,0
1682161305.44046593,206868886,1544,1543,1544,1544,0,0,0,0,0,0,0,0,0,0
1682161305.54042602,206968846,1544,1544,1544,1544,0,0,0,0,0,0,0,0,0,0
1682161305.64038587,207068806,1544,1543,1543,1543,0,0,0,0,0,0,0,0,0,0
1682161305.74034595,207168766,1544,1544,1544,1544,0,0,0,0,0,0,0,0,0,0
1682161305.84030604,207268726,1543,1544,1544,1543,0,0,0,0,0,0,0,0,0,0
1682161305.94026589,207368686,1544,1544,1544,1544,0,0,0,0,0,0,0,0,0,0
1682161306.04022598,207468646,1545,1545,1545,1545,0,0,0,0,0,0,0,0,0,0
1682161306.14018583,207568606,1544,1544,1543,1544,0,0,0,0,0,0,0,0,0,0
1682161306.24014592,207668566,1544,1544,1544,1544,0,0,0,0,0,0,0,0,0,0
1682161306.34010601,207768526,1544,1544,1544,1544,0,0,0,0,0,0,0,0,0,0
1682161306.44006586,207868486,1544,1544,1544,1544,0,0,0,0,0,0,0,0,0,0
1682161306.54002595,207968446,1544,1545,1544,1544,0,0,0,0,0,0,0,0,0,0
1682161306.63998604,208068406,1545,1545,1545,1545,0,0,0,0,0,0,0,0,0,0
1682161306.73994589,208168366,1545,1545,1545,1544,0,0,0,0,0,0,0,0,0,0
1682161306.83990598,208268326,1545,1544,1545,1544,0,0,0,0,0,0,0,0,0,0
1682161306.93986583,208368286,1544,1544,1544,1544,0,0,0,0,0,0,0,0,0,0
1682161307.03982592,208468246,1544,1544,1544,1544,0,0,0,0,0,0,0,0,0,0
1682161307.13978601,208568206,1544,1544,1544,1544,0,0,0,0,0,0,0,0,0,0
1682161307.23974586,208668166,1419,1380,1419,1381,0,0,0,0,0,0,0,0,0,0
1682161307.34053898,208768959,1335,1258,1335,1260,0,0,0,0,0,0,0,0,0,0
1682161307.44049883,208868919,1308,1216,1308,1217,0,0,0,0,0,0,0,0,0,0
1682161307.54045892,208968879,1296,1197,1296,1198,0,0,0,0,0,0,0,0,0,0
1682161307.64041901,209068839,1272,1155,1272,1156,0,0,0,0,0,0,0,0,0,0
1682161307.74037886,209168799,1213,1150,1213,1151,0,0,0,0,0,0,0,0,0,0
1682161307.84033895,209268759,1113,1150,1113,1150,0,0,0,0,0,0,0,0,0,0
1682161307.94029903,209368719,1113,1150,1113,1150,0,0,0,0,0,0,0,0,0,0
1682161308.04025888,209468679,1113,1150,1113,1150,0,0,0,0,0,0,0,0,0,0
1682161308.14021897,209568639,1113,1150,1097,1172,0,0,0,0,0,0,0,0,0,0
1682161308.24017882,209668599,1113,1150,1096,1173,0,0,0,0,0,0,0,0,0,0
1682161308.34013891,209768559,1113,1150,1101,1167,0,0,0,0,0,0,0,0,0,0
1682161308.44009900,209868519,1113,1150,1102,1166,0,0,0,0,0,0,0,0,0,0
1682161308.54005885,209968479,1113,1150,1102,1167,0,0,0,0,0,0,0,0,0,0
1682161308.64001894,210068439,1113,1150,1101,1168,0,0,0,0,0,0,0,0,0,0
1682161308.73997903,210168399,1113,1150,1100,1169,0,0,0,0,0,0,0,0,0,0
1682161308.83993888,210268359,1112,1150,1099,1170,0,0,0,0,0,0,0,0,0,0
1682161308.93989897,210368319,1113,1150,1113,1152,0,0,0,0,0,0,0,0,0,0
1682161309.03985882,210468279,1113,1150,1108,1159,0,0,0,0,0,0,0,0,0,0
1682161309.13981891,210568239,1112,1150,1107,1160,0,0,0,0,0,0,0,0,0,0
1682161309.23977900,210668199,1112,1150,1107,1161,0,0,0,0,0,0,0,0,0,0
1682161309.33973885,210768159,1112,1150,1106,1161,0,0,0,0,0,0,0,0,0,0
1682161309.44053197,210868952,1000,1000,1000,1000,0,0,0,0,0,0,0,0,0,0
1682161309.54049182,210968912,1000,1000,1000,1000,0,0,0,0,0,0,0,0,0,0
1682161309.64045191,211068872,1000,1000,1000,1000,0,0,0,0,0,0,0,0,0,0
1682161309.74041200,211168832,1000,1000,1000,1000,0,0,0,0,0,0,0,0,0,0
1682161309.84037185,211268792,1000,1000,1000,1000,0,0,0,0,0,0,0,0,0,0
1682161309.94033194,211368752,1000,1000,1000,1000,0,0,0,0,0,0,0,0,0,0
1682161310.04029202,211468712,1000,1000,1000,1000,0,0,0,0,0,0,0,0,0,0
1682161310.14025187,211568672,1000,1000,1000,1000,0,0,0,0,0,0,0,0,0,0
1682161310.24021196,211668632,1000,1000,1000,1000,0,0,0,0,0,0,0,0,0,0
1682161310.34017181,211768592,1000,1000,1000,1000,0,0,0,0,0,0,0,0,0,0
1682161310.44013190,211868552,1000,1000,1000,1000,0,0,0,0,0,0,0,0,0,0
1682161310.54009199,211968512,1000,1000,1000,1000,0,0,0,0,0,0,0,0,0,0
1682161310.64005184,212068472,1000,1000,1000,1000,0,0,0,0,0,0,0,0,0,0
1682161310.74001193,212168432,1000,1000,1000,1000,0,0,0,0,0,0,0,0,0,0
1682161310.83997202,212268392,1000,1000,1000,1000,0,0,0,0,0,0,0,0,0,0
1682161310.93993187,212368352,1000,1000,1000,1000,0,0,0,0,0,0,0,0,0,0
1682161311.03989196,212468312,1000,1000,1000,1000,0,0,0,0,0,0,0,0,0,0
1682161311.13985205,212568272,1000,1000,1000,1000,0,0,0,0,0,0,0,0,0,0
1682161311.23981190,212668232,1000,1000,1000,1000,0,0,0,0,0,0,0,0,0,0
1682161311.33977199,212768192,1000,1000,1000,1000,0,0,0,0,0,0,0,0,0,0
1682161311.44056487,212868985,1000,1000,1000,1000,0,0,0,0,0,0,0,0,0,0
1682161311.54052496,212968945,1000,1000,1000,1000,0,0,0,0,0,0,0,0,0,0
1682161311.64048505,213068905,1000,1000,1000,1000,0,0,0,0,0,0,0,0,0,0
1682161311.74044490,213168865,1000,1000,1000,1000,0,0,0,0,0,0,0,0,0,0
1682161311.84040499,213268825,1000,1000,1000,1000,0,0,0,0,0,0,0,0,0,0
1682161311.94036484,213368785,1000,1000,1000,1000,0,0,0,0,0,0,0,0,0,0
1682161312.04032493,213468745,1000,1000,1000,1000,0,0,0,0,0,0,0,0,0,0
1682161312.14028502,213568705,1000,1000,1000,1000,0,0,0,0,0,0,0,0,0,0
1682161312.24024487,213668665,1000,1000,1000,1000,0,0,0,0,0,0,0,0,0,0
1682161312.34020495,213768625,1000,1000,1000,1000,0,0,0,0,0,0,0,0,0,0
1682161312.44016504,213868585,1000,1000,1000,1000,0,0,0,0,0,0,0,0,0,0
1682161312.54012489,213968545,1000,1000,1000,1000,0,0,0,0,0,0,0,0,0,0
1682161312.64008498,214068505,1000,1000,1000,1000,0,0,0,0,0,0,0,0,0,0
1682161312.74004483,214168465,1000,1000,1000,1000,0,0,0,0,0,0,0,0,0,0
1682161312.84000492,214268425,1000,1000,1000,1000,0,0,0,0,0,0,0,0,0,0
1682161312.93996501,214368385,1000,1000,1000,1000,0,0,0,0,0,0,0,0,0,0
1682161313.03992486,214468345,1000,1000,1000,1000,0,0,0,0,0,0,0,0,0,0
1682161313.13988495,214568305,1000,1000,1000,1000,0,0,0,0,0,0,0,0,0,0
1682161313.23984504,214668265,1000,1000,1000,1000,0,0,0,0,0,0,0,0,0,0
1682161313.33980489,214768225,1000,1000,1000,1000,0,0,0,0,0,0,0,0,0,0
1682161313.43976498,214868185,1000,1000,1000,1000,0,0,0,0,0,0,0,0,0,0
1682161313.54055786,214968978,1000,1000,1000,1000,0,0,0,0,0,0,0,0,0,0
1682161313.64051795,215068938,1000,1000,1000,1000,0,0,0,0,0,0,0,0,0,0
1682161313.74047804,215168898,1000,1000,1000,1000,0,0,0,0,0,0,0,0,0,0
1682161313.84043789,215268858,1000,1000,1000,1000,0,0,0,0,0,0,0,0,0,0
1682161313.94039798,215368818,1000,1000,1000,1000,0,0,0,0,0,0,0,0,0,0
1682161314.04035783,215468778,1000,1000,1000,1000,0,0,0,0,0,0,0,0,0,0
1682161314.14031792,215568738,1000,1000,1000,1000,0,0,0,0,0,0,0,0,0,0
1682161314.24027801,215668698,1000,1000,1000,1000,0,0,0,0,0,0,0,0,0,0
1682161314.34023786,215768658,1000,1000,1000,1000,0,0,0,0,0,0,0,0,0,0
1682161314.44019794,215868618,1000,1000,1000,1000,0,0,0,0,0,0,0,0,0,0
1682161314.54015803,215968578,1000,1000,1000,1000,0,0,0,0,0,0,0,0,0,0
1682161314.64011788,216068538,1000,1000,1000,1000,0,0,0,0,0,0,0,0,0,0
1682161314.74007797,216168498,1000,1000,1000,1000,0,0,0,0,0,0,0,0,0,0
1682161314.84003782,216268458,1000,1000,1000,1000,0,0,0,0,0,0,0,0,0,0
1682161314.93999791,216368418,1000,1000,1000,1000,0,0,0,0,0,0,0,0,0,0
1682161315.03995800,216468378,1000,1000,1000,1000,0,0,0,0,0,0,0,0,0,0
1682161315.13991785,216568338,1000,1000,1000,1000,0,0,0,0,0,0,0,0,0,0
1682161315.23987794,216668298,1000,1000,1000,1000,0,0,0,0,0,0,0,0,0,0
1682161315.33983803,216768258,1000,1000,1000,1000,0,0,0,0,0,0,0,0,0,0
1682161315.43979788,216868218,1000,1000,1000,1000,0,0,0,0,0,0,0,0,0,0
1682161315.53975797,216968178,1000,1000,1000,1000,0,0,0,0,0,0,0,0,0,0
1682161315.64055085,217068971,1000,1000,1000,1000,0,0,0,0,0,0,0,0,0,0
1682161315.74051094,217168931,1000,1000,1000,1000,0,0,0,0,0,0,0,0,0,0
1682161315.84047103,217268891,1000,1000,1000,1000,0,0,0,0,0,0,0,0,0,0
1682161315.94043088,217368851,1000,1000,1000,1000,0,0,0,0,0,0,0,0,0,0
1682161316.04039097,217468811,1000,1000,1000,1000,0,0,0,0,0,0,0,0,0,0
1682161316.14035082,217568771,1000,1000,1000,1000,0,0,0,0,0,0,0,0,0,0
1682161316.24031091,217668731,1000,1000,1000,1000,0,0,0,0,0,0,0,0,0,0
1682161316.34027100,217768691,1000,1000,1000,1000,0,0,0,0,0,0,0,0,0,0
1682161316.44023085,217868651,1000,1000,1000,1000,0,0,0,0,0,0,0,0,0,0
1682161316.54019094,217968611,1000,1000,1000,1000,0,0,0,0,0,0,0,0,0,0
1682161316.64015102,218068571,1000,1000,1000,1000,0,0,0,0,0,0,0,0,0,0
1682161316.74011087,218168531,1000,1000,1000,1000,0,0,0,0,0,0,0,0,0,0
1682161316.84007096,218268491,1000,1000,1000,1000,0,0,0,0,0,0,0,0,0,0
1682161316.94003105,218368451,1000,1000,1000,1000,0,0,0,0,0,0,0,0,0,0
1682161317.03999090,218468411,1000,1000,1000,1000,0,0,0,0,0,0,0,0,0,0
1682161317.13995099,218568371,1000,1000,1000,1000,0,0,0,0,0,0,0,0,0,0
1682161317.23991084,218668331,1000,1000,1000,1000,0,0,0,0,0,0,0,0,0,0
1682161317.33987093,218768291,1000,1000,1000,1000,0,0,0,0,0,0,0,0,0,0
1682161317.43983102,218868251,1000,1000,1000,1000,0,0,0,0,0,0,0,0,0,0
1682161317.53979087,218968211,1000,1000,1000,1000,0,0,0,0,0,0,0,0,0,0
1682161317.63975096,219068171,1000,1000,1000,1000,0,0,0,0,0,0,0,0,0,0
1682161317.74054384,219168964,1000,1000,1000,1000,0,0,0,0,0,0,0,0,0,0
1682161317.84050393,219268924,1000,1000,1000,1000,0,0,0,0,0,0,0,0,0,0
1682161317.94046402,219368884,1000,1000,1000,1000,0,0,0,0,0,0,0,0,0,0
1682161318.04042387,219468844,1000,1000,1000,1000,0,0,0,0,0,0,0,0,0,0
1682161318.14038396,219568804,1000,1000,1000,1000,0,0,0,0,0,0,0,0,0,0
1682161318.24034405,219668764,1000,1000,1000,1000,0,0,0,0,0,0,0,0,0,0
1682161318.34030390,219768724,1000,1000,1000,1000,0,0,0,0,0,0,0,0,0,0
1682161318.44026399,219868684,1000,1000,1000,1000,0,0,0,0,0,0,0,0,0,0
1682161318.54022384,219968644,1000,1000,1000,1000,0,0,0,0,0,0,0,0,0,0
1682161318.64018393,220068604,1000,1000,1000,1000,0,0,0,0,0,0,0,0,0,0
1682161318.74014401,220168564,1000,1000,1000,1000,0,0,0,0,0,0,0,0,0,0
1682161318.84010386,220268524,1000,1000,1000,1000,0,0,0,0,0,0,0,0,0,0
1682161318.94006395,220368484,1000,1000,1000,1000,0,0,0,0,0,0,0,0,0,0
1682161319.04002404,220468444,1000,1000,1000,1000,0,0,0,0,0,0,0,0,0,0
1682161319.13998389,220568404,1000,1000,1000,1000,0,0,0,0,0,0,0,0,0,0
1682161319.23994398,220668364,1000,1000,1000,1000,0,0,0,0,0,0,0,0,0,0
1682161319.33990383,220768324,1000,1000,1000,1000,0,0,0,0,0,0,0,0,0,0
1682161319.43986392,220868284,1000,1000,1000,1000,0,0,0,0,0,0,0,0,0,0
1682161319.53982401,220968244,1000,1000,1000,1000,0,0,0,0,0,0,0,0,0,0
1682161319.63978386,221068204,1000,1000,1000,1000,0,0,0,0,0,0,0,0,0,0
1682161319.73974395,221168164,1000,1000,1000,1000,0,0,0,0,0,0,0,0,0,0
1682161319.84053683,221268957,1000,1000,1000,1000,0,0,0,0,0,0,0,0,0,0
1682161319.94049692,221368917,1000,1000,1000,1000,0,0,0,0,0,0,0,0,0,0
1682161320.04045701,221468877,1000,1000,1000,1000,0,0,0,0,0,0,0,0,0,0
1682161320.14041686,221568837,1000,1000,1000,1000,0,0,0,0,0,0,0,0,0,0
1682161320.24037695,221668797,1000,1000,1000,1000,0,0,0,0,0,0,0,0,0,0
1682161320.34033704,221768757,1000,1000,1000,1000,0,0,0,0,0,0,0,0,0,0
1682161320.44029689,221868717,1000,1000,1000,1000,0,0,0,0,0,0,0,0,0,0
1682161320.54025698,221968677,1000,1000,1000,1000,0,0,0,0,0,0,0,0,0,0
1682161320.64021683,222068637,1000,1000,1000,1000,0,0,0,0,0,0,0,0,0,0
1682161320.74017692,222168597,1000,1000,1000,1000,0,0,0,0,0,0,0,0,0,0
1682161320.84013700,222268557,1000,1000,1000,1000,0,0,0,0,0,0,0,0,0,0
1682161320.94009686,222368517,1000,1000,1000,1000,0,0,0,0,0,0,0,0,0,0
1682161321.04005694,222468477,1000,1000,1000,1000,0,0,0,0,0,0,0,0,0,0
1682161321.14001703,222568437,1000,1000,1000,1000,0,0,0,0,0,0,0,0,0,0
