timestamp,TimeUS,C1,C2,C3,C4,C5,C6,C7,C8,C9,C10,C11,C12,C13,C14
1682239364.10003996,76528543,1000,1000,1000,1000,0,0,0,0,0,0,0,0,0,0
1682239364.20000005,76628503,1000,1000,1000,1000,0,0,0,0,0,0,0,0,0,0
1682239364.29995990,76728463,1000,1000,1000,1000,0,0,0,0,0,0,0,0,0,0
1682239364.39991999,76828423,1000,1000,1000,1000,0,0,0,0,0,0,0,0,0,0
1682239364.49988008,76928383,1000,1000,1000,1000,0,0,0,0,0,0,0,0,0,0
1682239364.59983993,77028343,1000,1000,1000,1000,0,0,0,0,0,0,0,0,0,0
1682239364.69980001,77128303,1000,1000,1000,1000,0,0,0,0,0,0,0,0,0,0
1682239364.79975986,77228263,1000,1000,1000,1000,0,0,0,0,0,0,0,0,0,0
1682239364.89971995,77328223,1000,1000,1000,1000,0,0,0,0,0,0,0,0,0,0
1682239364.99968004,77428183,1000,1000,1000,1000,0,0,0,0,0,0,0,0,0,0
1682239365.10047293,77528976,1000,1000,1000,1000,0,0,0,0,0,0,0,0,0,0
1682239365.20043302,77628936,1000,1000,1000,1000,0,0,0,0,0,0,0,0,0,0
1682239365.30039287,77728896,1000,1000,1000,1000,0,0,0,0,0,0,0,0,0,0
1682239365.40035295,77828856,1000,1000,1000,1000,0,0,0,0,0,0,0,0,0,0
1682239365.50031304,77928816,1000,1000,1000,1000,0,0,0,0,0,0,0,0,0,0
1682239365.60027289,78028776,1000,1000,1000,1000,0,0,0,0,0,0,0,0,0,0
1682239365.70023298,78128736,1000,1000,1000,1000,0,0,0,0,0,0,0,0,0,0
1682239365.80019307,78228696,1000,1000,1000,1000,0,0,0,0,0,0,0,0,0,0
1682239365.90015292,78328656,1000,1000,1000,1000,0,0,0,0,0,0,0,0,0,0
1682239366.00011301,78428616,1000,1000,1000,1000,0,0,0,0,0,0,0,0,0,0
1682239366.10007286,78528576,1027,1027,1027,1027,0,0,0,0,0,0,0,0,0,0
1682239366.20003295,78628536,1057,1057,1057,1057,0,0,0,0,0,0,0,0,0,0
1682239366.29999304,78728496,1087,1087,1087,1087,0,0,0,0,0,0,0,0,0,0
1682239366.39995289,78828456,1116,1116,1116,1116,0,0,0,0,0,0,0,0,0,0
1682239366.49991298,78928416,1146,1146,1146,1146,0,0,0,0,0,0,0,0,0,0
1682239366.59987307,79028376,1380,1371,1372,1380,0,0,0,0,0,0,0,0,0,0
1682239366.69983292,79128336,1564,1557,1557,1564,0,0,0,0,0,0,0,0,0,0
1682239366.79979300,79228296,1714,1707,1708,1714,0,0,0,0,0,0,0,0,0,0
1682239366.89975286,79328256,1843,1837,1837,1844,0,0,0,0,0,0,0,0,0,0
1682239366.99971294,79428216,1902,1896,1896,1903,0,0,0,0,0,0,0,0,0,0
1682239367.09967303,79528176,1829,1827,1827,1830,0,0,0,0,0,0,0,0,0,0
1682239367.20046592,79628969,1700,1702,1702,1701,0,0,0,0,0,0,0,0,0,0
1682239367.30042601,79728929,1633,1635,1636,1633,0,0,0,0,0,0,0,0,0,0
1682239367.40038586,79828889,1624,1627,1628,1624,0,0,0,0,0,0,0,0,0,0
1682239367.50034595,79928849,1633,1627,1625,1636,0,0,0,0,0,0,0,0,0,0
1682239367.60030603,80028809,1628,1629,1622,1634,0,0,0,0,0,0,0,0,0,0
1682239367.70026588,80128769,1622,1624,1618,1627,0,0,0,0,0,0,0,0,0,0
1682239367.80022597,80228729,1616,1618,1616,1618,0,0,0,0,0,0,0,0,0,0
1682239367.90018606,80328689,1613,1613,1615,1611,0,0,0,0,0,0,0,0,0,0
1682239368.00014591,80428649,1612,1611,1615,1607,0,0,0,0,0,0,0,0,0,0
1682239368.10010600,80528609,1614,1613,1618,1610,0,0,0,0,0,0,0,0,0,0
1682239368.20006585,80628569,1616,1616,1619,1613,0,0,0,0,0,0,0,0,0,0
1682239368.30002594,80728529,1604,1603,1607,1600,0,0,0,0,0,0,0,0,0,0
1682239368.39998603,80828489,1580,1580,1589,1572,0,0,0,0,0,0,0,0,0,0
1682239368.49994588,80928449,1567,1568,1571,1563,0,0,0,0,0,0,0,0,0,0
1682239368.59990597,81028409,1556,1557,1555,1558,0,0,0,0,0,0,0,0,0,0
1682239368.69986606,81128369,1549,1549,1541,1556,0,0,0,0,0,0,0,0,0,0
1682239368.79982591,81228329,1541,1541,1531,1551,0,0,0,0,0,0,0,0,0,0
1682239368.89978600,81328289,1535,1534,1527,1542,0,0,0,0,0,0,0,0,0,0
1682239368.99974585,81428249,1529,1530,1526,1532,0,0,0,0,0,0,0,0,0,0
1682239369.09970593,81528209,1527,1527,1527,1527,0,0,0,0,0,0,0,0,0,0
1682239369.19966602,81628169,1528,1528,1529,1526,0,0,0,0,0,0,0,0,0,0
1682239369.30045891,81728962,1530,1529,1532,1526,0,0,0,0,0,0,0,0,0,0
1682239369.40041900,81828922,1533,1533,1536,1530,0,0,0,0,0,0,0,0,0,0
1682239369.50037885,81928882,1537,1537,1539,1535,0,0,0,0,0,0,0,0,0,0
1682239369.60033894,82028842,1540,1540,1542,1539,0,0,0,0,0,0,0,0,0,0
1682239369.70029902,82128802,1544,1543,1545,1543,0,0,0,0,0,0,0,0,0,0
1682239369.80025887,82228762,1547,1547,1547,1548,0,0,0,0,0,0,0,0,0,0
1682239369.90021896,82328722,1549,1549,1549,1550,0,0,0,0,0,0,0,0,0,0
1682239370.00017905,82428682,1551,1551,1550,1553,0,0,0,0,0,0,0,0,0,0
1682239370.10013890,82528642,1554,1555,1553,1556,0,0,0,0,0,0,0,0,0,0
1682239370.20009899,82628602,1558,1558,1556,1558,0,0,0,0,0,0,0,0,0,0
1682239370.30005908,82728562,1559,1558,1559,1560,0,0,0,0,0,0,0,0,0,0
1682239370.40001893,82828522,1559,1559,1562,1562,0,0,0,0,0,0,0,0,0,0
1682239370.49997902,82928482,1560,1559,1564,1564,0,0,0,0,0,0,0,0,0,0
1682239370.59993887,83028442,1561,1562,1567,1566,0,0,0,0,0,0,0,0,0,0
1682239370.69989896,83128402,1563,1563,1568,1567,0,0,0,0,0,0,0,0,0,0
1682239370.79985905,83228362,1565,1566,1569,1569,0,0,0,0,0,0,0,0,0,0
1682239370.89981890,83328322,1567,1567,1569,1569,0,0,0,0,0,0,0,0,0,0
1682239370.99977899,83428282,1568,1569,1569,1569,0,0,0,0,0,0,0,0,0,0
1682239371.09973907,83528242,1571,1570,1569,1570,0,0,0,0,0,0,0,0,0,0
1682239371.19969893,83628202,1572,1573,1570,1570,0,0,0,0,0,0,0,0,0,0
1682239371.29965901,83728162,1573,1573,1570,1570,0,0,0,0,0,0,0,0,0,0
1682239371.40045190,83828955,1573,1574,1570,1570,0,0,0,0,0,0,0,0,0,0
1682239371.50041199,83928915,1574,1574,1571,1570,0,0,0,0,0,0,0,0,0,0
1682239371.60037208,84028875,1576,1576,1574,1573,0,0,0,0,0,0,0,0,0,0
1682239371.70033193,84128835,1577,1577,1575,1573,0,0,0,0,0,0,0,0,0,0
1682239371.80029202,84228795,1576,1576,1575,1574,0,0,0,0,0,0,0,0,0,0
1682239371.90025187,84328755,1576,1576,1575,1575,0,0,0,0,0,0,0,0,0,0
1682239372.00021195,84428715,1576,1576,1575,1575,0,0,0,0,0,0,0,0,0,0
1682239372.10017204,84528675,1575,1575,1576,1576,0,0,0,0,0,0,0,0,0,0
1682239372.20013189,84628635,1575,1575,1576,1576,0,0,0,0,0,0,0,0,0,0
1682239372.30009198,84728595,1575,1575,1576,1577,0,0,0,0,0,0,0,0,0,0
1682239372.40005207,84828555,1575,1576,1577,1577,0,0,0,0,0,0,0,0,0,0
1682239372.50001192,84928515,1576,1576,1577,1576,0,0,0,0,0,0,0,0,0,0
1682239372.59997201,85028475,1576,1576,1577,1577,0,0,0,0,0,0,0,0,0,0
1682239372.69993186,85128435,1577,1576,1578,1577,0,0,0,0,0,0,0,0,0,0
1682239372.79989195,85228395,1576,1577,1577,1577,0,0,0,0,0,0,0,0,0,0
1682239372.89985204,85328355,1578,1577,1577,1578,0,0,0,0,0,0,0,0,0,0
1682239372.99981189,85428315,1579,1579,1579,1579,0,0,0,0,0,0,0,0,0,0
1682239373.09977198,85528275,1578,1578,1578,1578,0,0,0,0,0,0,0,0,0,0
1682239373.19973207,85628235,1579,1578,1578,1578,0,0,0,0,0,0,0,0,0,0
1682239373.29969192,85728195,1579,1579,1578,1578,0,0,0,0,0,0,0,0,0,0
1682239373.39965200,85828155,1578,1578,1577,1577,0,0,0,0,0,0,0,0,0,0
1682239373.50044489,85928948,1579,1579,1579,1579,0,0,0,0,0,0,0,0,0,0
1682239373.60040498,86028908,1579,1579,1579,1579,0,0,0,0,0,0,0,0,0,0
1682239373.70036507,86128868,1579,1579,1578,1579,0,0,0,0,0,0,0,0,0,0
1682239373.80032492,86228828,1579,1579,1579,1579,0,0,0,0,0,0,0,0,0,0
1682239373.90028501,86328788,1579,1578,1579,1579,0,0,0,0,0,0,0,0,0,0
1682239374.00024486,86428748,1579,1579,1579,1579,0,0,0,0,0,0,0,0,0,0
1682239374.10020494,86528708,1579,1579,1579,1580,0,0,0,0,0,0,0,0,0,0
1682239374.20016503,86628668,1578,1579,1579,1579,0,0,0,0,0,0,0,0,0,0
1682239374.30012488,86728628,1579,1579,1579,1579,0,0,0,0,0,0,0,0,0,0
1682239374.40008497,86828588,1579,1579,1579,1579,0,0,0,0,0,0,0,0,0,0
1682239374.50004506,86928548,1579,1579,1579,1580,0,0,0,0,0,0,0,0,0,0
1682239374.60000491,87028508,1579,1579,1580,1580,0,0,0,0,0,0,0,0,0,0
1682239374.69996500,87128468,1579,1579,1579,1579,0,0,0,0,0,0,0,0,0,0
1682239374.79992485,87228428,1579,1580,1580,1580,0,0,0,0,0,0,0,0,0,0
1682239374.89988494,87328388,1580,1580,1580,1580,0,0,0,0,0,0,0,0,0,0
1682239374.99984503,87428348,1581,1580,1581,1580,0,0,0,0,0,0,0,0,0,0
1682239375.09980488,87528308,1580,1580,1580,1580,0,0,0,0,0,0,0,0,0,0
1682239375.19976497,87628268,1580,1580,1580,1579,0,0,0,0,0,0,0,0,0,0
1682239375.29972506,87728228,1580,1580,1580,1580,0,0,0,0,0,0,0,0,0,0
1682239375.39968491,87828188,1580,1580,1579,1580,0,0,0,0,0,0,0,0,0,0
1682239375.50047803,87928981,1581,1581,1581,1581,0,0,0,0,0,0,0,0,0,0
1682239375.60043788,88028941,1580,1580,1580,1580,0,0,0,0,0,0,0,0,0,0
1682239375.70039797,88128901,1581,1581,1581,1580,0,0,0,0,0,0,0,0,0,0
1682239375.80035806,88228861,1580,1580,1580,1580,0,0,0,0,0,0,0,0,0,0
1682239375.90031791,88328821,1580,1580,1580,1581,0,0,0,0,0,0,0,0,0,0
1682239376.00027800,88428781,1580,1580,1580,1581,0,0,0,0,0,0,0,0,0,0
1682239376.10023785,88528741,1580,1581,1581,1581,0,0,0,0,0,0,0,0,0,0
1682239376.20019794,88628701,1580,1581,1581,1581,0,0,0,0,0,0,0,0,0,0
1682239376.30015802,88728661,1580,1581,1582,1579,0,0,0,0,0,0,0,0,0,0
1682239376.40011787,88828621,1580,1582,1588,1573,0,0,0,0,0,0,0,0,0,0
1682239376.50007796,88928581,1579,1582,1583,1572,0,0,0,0,0,0,0,0,0,0
1682239376.60003805,89028541,1578,1580,1574,1572,0,0,0,0,0,0,0,0,0,0
1682239376.69999790,89128501,1577,1579,1565,1571,0,0,0,0,0,0,0,0,0,0
1682239376.79995799,89228461,1577,1578,1559,1566,0,0,0,0,0,0,0,0,0,0
1682239376.89991808,89328421,1578,1578,1555,1561,0,0,0,0,0,0,0,0,0,0
1682239376.99987793,89428381,1579,1578,1555,1557,0,0,0,0,0,0,0,0,0,0
1682239377.09983802,89528341,1580,1578,1555,1555,0,0,0,0,0,0,0,0,0,0
1682239377.19979787,89628301,1579,1578,1556,1553,0,0,0,0,0,0,0,0,0,0
1682239377.29975796,89728261,1578,1578,1556,1554,0,0,0,0,0,0,0,0,0,0
1682239377.39971805,89828221,1577,1578,1556,1553,0,0,0,0,0,0,0,0,0,0
1682239377.49967790,89928181,1576,1577,1554,1554,0,0,0,0,0,0,0,0,0,0
1682239377.60047102,90028974,1575,1577,1554,1553,0,0,0,0,0,0,0,0,0,0
1682239377.70043087,90128934,1575,1577,1552,1553,0,0,0,0,0,0,0,0,0,0
1682239377.80039096,90228894,1576,1577,1551,1551,0,0,0,0,0,0,0,0,0,0
1682239377.90035105,90328854,1578,1579,1549,1550,0,0,0,0,0,0,0,0,0,0
1682239378.00031090,90428814,1579,1580,1547,1547,0,0,0,0,0,0,0,0,0,0
1682239378.10027099,90528774,1583,1584,1545,1545,0,0,0,0,0,0,0,0,0,0
1682239378.20023108,90628734,1586,1587,1543,1542,0,0,0,0,0,0,0,0,0,0
1682239378.30019093,90728694,1588,1589,1539,1539,0,0,0,0,0,0,0,0,0,0
1682239378.40015101,90828654,1591,1592,1537,1537,0,0,0,0,0,0,0,0,0,0
1682239378.50011086,90928614,1594,1593,1535,1536,0,0,0,0,0,0,0,0,0,0
1682239378.60007095,91028574,1595,1595,1535,1535,0,0,0,0,0,0,0,0,0,0
1682239378.70003104,91128534,1596,1596,1536,1538,0,0,0,0,0,0,0,0,0,0
1682239378.79999089,91228494,1594,1594,1537,1540,0,0,0,0,0,0,0,0,0,0
1682239378.89995098,91328454,1591,1590,1540,1544,0,0,0,0,0,0,0,0,0,0
1682239378.99991107,91428414,1586,1584,1547,1550,0,0,0,0,0,0,0,0,0,0
1682239379.09987092,91528374,1580,1576,1557,1559,0,0,0,0,0,0,0,0,0,0
1682239379.19983101,91628334,1570,1566,1568,1570,0,0,0,0,0,0,0,0,0,0
1682239379.29979086,91728294,1559,1555,1581,1582,0,0,0,0,0,0,0,0,0,0
1682239379.39975095,91828254,1547,1545,1592,1593,0,0,0,0,0,0,0,0,0,0
1682239379.49971104,91928214,1539,1538,1604,1604,0,0,0,0,0,0,0,0,0,0
1682239379.59967089,92028174,1532,1532,1611,1611,0,0,0,0,0,0,0,0,0,0
1682239379.70046401,92128967,1528,1530,1615,1614,0,0,0,0,0,0,0,0,0,0
1682239379.80042386,92228927,1529,1531,1615,1614,0,0,0,0,0,0,0,0,0,0
1682239379.90038395,92328887,1534,1536,1613,1612,0,0,0,0,0,0,0,0,0,0
1682239380.00034404,92428847,1541,1543,1608,1607,0,0,0,0,0,0,0,0,0,0
1682239380.10030389,92528807,1549,1550,1600,1600,0,0,0,0,0,0,0,0,0,0
1682239380.20026398,92628767,1558,1559,1593,1592,0,0,0,0,0,0,0,0,0,0
1682239380.30022407,92728727,1568,1568,1586,1585,0,0,0,0,0,0,0,0,0,0
1682239380.40018392,92828687,1575,1575,1579,1578,0,0,0,0,0,0,0,0,0,0
1682239380.50014400,92928647,1582,1580,1573,1573,0,0,0,0,0,0,0,0,0,0
1682239380.60010386,93028607,1585,1583,1568,1568,0,0,0,0,0,0,0,0,0,0
1682239380.70006394,93128567,1588,1586,1566,1567,0,0,0,0,0,0,0,0,0,0
1682239380.80002403,93228527,1587,1586,1565,1566,0,0,0,0,0,0,0,0,0,0
1682239380.89998388,93328487,1587,1586,1567,1567,0,0,0,0,0,0,0,0,0,0
1682239380.99994397,93428447,1444,1550,1428,1538,0,0,0,0,0,0,0,0,0,0
1682239381.09990406,93528407,1557,1557,1548,1550,0,0,0,0,0,0,0,0,0,0
1682239381.19986391,93628367,1664,1608,1662,1605,0,0,0,0,0,0,0,0,0,0
1682239381.29982400,93728327,1677,1597,1679,1602,0,0,0,0,0,0,0,0,0,0
1682239381.39978385,93828287,1678,1615,1679,1620,0,0,0,0,0,0,0,0,0,0
1682239381.49974394,93928247,1679,1635,1676,1633,0,0,0,0,0,0,0,0,0,0
1682239381.59970403,94028207,1679,1651,1673,1640,0,0,0,0,0,0,0,0,0,0
1682239381.69966388,94128167,1679,1669,1671,1645,0,0,0,0,0,0,0,0,0,0
1682239381.80045700,94228960,1679,1695,1668,1657,0,0,0,0,0,0,0,0,0,0
1682239381.90041685,94328920,1679,1725,1674,1690,0,0,0,0,0,0,0,0,0,0
1682239382.00037694,94428880,1666,1710,1679,1719,0,0,0,0,0,0,0,0,0,0
1682239382.10033703,94528840,1619,1645,1664,1715,0,0,0,0,0,0,0,0,0,0
1682239382.20029688,94628800,1583,1587,1658,1707,0,0,0,0,0,0,0,0,0,0
1682239382.30025697,94728760,1561,1553,1653,1689,0,0,0,0,0,0,0,0,0,0
1682239382.40021706,94828720,1551,1541,1641,1656,0,0,0,0,0,0,0,0,0,0
1682239382.50017691,94928680,1553,1549,1623,1619,0,0,0,0,0,0,0,0,0,0
1682239382.60013700,95028640,1564,1569,1603,1586,0,0,0,0,0,0,0,0,0,0
1682239382.70009685,95128600,1578,1590,1579,1560,0,0,0,0,0,0,0,0,0,0
1682239382.80005693,95228560,1592,1605,1558,1540,0,0,0,0,0,0,0,0,0,0
1682239382.90001702,95328520,1601,1612,1539,1528,0,0,0,0,0,0,0,0,0,0
1682239382.99997687,95428480,1605,1609,1524,1520,0,0,0,0,0,0,0,0,0,0
1682239383.09993696,95528440,1604,1603,1516,1519,0,0,0,0,0,0,0,0,0,0
1682239383.19989705,95628400,1601,1594,1516,1522,0,0,0,0,0,0,0,0,0,0
1682239383.29985690,95728360,1594,1587,1520,1527,0,0,0,0,0,0,0,0,0,0
1682239383.39981699,95828320,1587,1581,1529,1534,0,0,0,0,0,0,0,0,0,0
1682239383.49977708,95928280,1580,1576,1540,1542,0,0,0,0,0,0,0,0,0,0
1682239383.59973693,96028240,1573,1572,1551,1552,0,0,0,0,0,0,0,0,0,0
1682239383.69969702,96128200,1566,1567,1562,1561,0,0,0,0,0,0,0,0,0,0
1682239383.79965687,96228160,1562,1564,1571,1570,0,0,0,0,0,0,0,0,0,0
1682239383.90044999,96328953,1558,1560,1579,1577,0,0,0,0,0,0,0,0,0,0
1682239384.00041008,96428913,1556,1559,1585,1583,0,0,0,0,0,0,0,0,0,0
1682239384.10036993,96528873,1556,1558,1588,1587,0,0,0,0,0,0,0,0,0,0
1682239384.20033002,96628833,1558,1559,1590,1589,0,0,0,0,0,0,0,0,0,0
1682239384.30028987,96728793,1560,1560,1591,1588,0,0,0,0,0,0,0,0,0,0
1682239384.40024996,96828753,1564,1564,1595,1579,0,0,0,0,0,0,0,0,0,0
1682239384.50021005,96928713,1566,1568,1589,1577,0,0,0,0,0,0,0,0,0,0
1682239384.60016990,97028673,1569,1570,1578,1576,0,0,0,0,0,0,0,0,0,0
1682239384.70012999,97128633,1570,1570,1568,1572,0,0,0,0,0,0,0,0,0,0
1682239384.80009007,97228593,1572,1571,1559,1567,0,0,0,0,0,0,0,0,0,0
1682239384.90004992,97328553,1574,1572,1553,1561,0,0,0,0,0,0,0,0,0,0
1682239385.00001001,97428513,1576,1575,1550,1555,0,0,0,0,0,0,0,0,0,0
1682239385.09996986,97528473,1578,1577,1549,1550,0,0,0,0,0,0,0,0,0,0
1682239385.19992995,97628433,1580,1580,1549,1548,0,0,0,0,0,0,0,0,0,0
1682239385.29989004,97728393,1581,1581,1549,1548,0,0,0,0,0,0,0,0,0,0
1682239385.39984989,97828353,1581,1582,1550,1547,0,0,0,0,0,0,0,0,0,0
1682239385.49980998,97928313,1581,1582,1550,1549,0,0,0,0,0,0,0,0,0,0
1682239385.59977007,98028273,1580,1581,1550,1549,0,0,0,0,0,0,0,0,0,0
1682239385.69972992,98128233,1580,1580,1551,1551,0,0,0,0,0,0,0,0,0,0
1682239385.79969001,98228193,1579,1580,1552,1552,0,0,0,0,0,0,0,0,0,0
1682239385.90048289,98328986,1578,1579,1552,1552,0,0,0,0,0,0,0,0,0,0
1682239386.00044298,98428946,1576,1577,1550,1551,0,0,0,0,0,0,0,0,0,0
1682239386.10040307,98528906,1576,1579,1551,1551,0,0,0,0,0,0,0,0,0,0
1682239386.20036292,98628866,1577,1579,1550,1550,0,0,0,0,0,0,0,0,0,0
1682239386.30032301,98728826,1579,1579,1549,1549,0,0,0,0,0,0,0,0,0,0
1682239386.40028286,98828786,1580,1581,1548,1548,0,0,0,0,0,0,0,0,0,0
1682239386.50024295,98928746,1582,1582,1548,1549,0,0,0,0,0,0,0,0,0,0
1682239386.60020304,99028706,1583,1582,1548,1549,0,0,0,0,0,0,0,0,0,0
1682239386.70016289,99128666,1583,1582,1549,1549,0,0,0,0,0,0,0,0,0,0
1682239386.80012298,99228626,1581,1580,1550,1551,0,0,0,0,0,0,0,0,0,0
1682239386.90008307,99328586,1581,1580,1552,1554,0,0,0,0,0,0,0,0,0,0
1682239387.00004292,99428546,1578,1578,1554,1557,0,0,0,0,0,0,0,0,0,0
1682239387.10000300,99528506,1576,1575,1558,1561,0,0,0,0,0,0,0,0,0,0
1682239387.19996285,99628466,1572,1571,1562,1564,0,0,0,0,0,0,0,0,0,0
1682239387.29992294,99728426,1569,1567,1569,1570,0,0,0,0,0,0,0,0,0,0
1682239387.39988303,99828386,1564,1562,1574,1575,0,0,0,0,0,0,0,0,0,0
1682239387.49984288,99928346,1560,1558,1580,1581,0,0,0,0,0,0,0,0,0,0
1682239387.59980297,100028306,1555,1554,1586,1585,0,0,0,0,0,0,0,0,0,0
1682239387.69976306,100128266,1553,1552,1591,1591,0,0,0,0,0,0,0,0,0,0
1682239387.79972291,100228226,1550,1551,1595,1593,0,0,0,0,0,0,0,0,0,0
1682239387.89968300,100328186,1549,1550,1597,1595,0,0,0,0,0,0,0,0,0,0
1682239388.00047588,100428979,1549,1551,1597,1596,0,0,0,0,0,0,0,0,0,0
1682239388.10043597,100528939,1551,1553,1596,1595,0,0,0,0,0,0,0,0,0,0
1682239388.20039606,100628899,1555,1556,1594,1594,0,0,0,0,0,0,0,0,0,0
1682239388.30035591,100728859,1558,1558,1590,1590,0,0,0,0,0,0,0,0,0,0
1682239388.40031600,100828819,1563,1563,1588,1587,0,0,0,0,0,0,0,0,0,0
1682239388.50027585,100928779,1567,1566,1585,1584,0,0,0,0,0,0,0,0,0,0
1682239388.60023594,101028739,1571,1570,1582,1581,0,0,0,0,0,0,0,0,0,0
1682239388.70019603,101128699,1575,1573,1578,1578,0,0,0,0,0,0,0,0,0,0
1682239388.80015588,101228659,1577,1576,1575,1576,0,0,0,0,0,0,0,0,0,0
1682239388.90011597,101328619,1579,1577,1573,1574,0,0,0,0,0,0,0,0,0,0
1682239389.00007606,101428579,1580,1579,1572,1573,0,0,0,0,0,0,0,0,0,0
1682239389.10003591,101528539,1580,1580,1572,1572,0,0,0,0,0,0,0,0,0,0
1682239389.19999599,101628499,1581,1581,1573,1573,0,0,0,0,0,0,0,0,0,0
1682239389.29995584,101728459,1580,1580,1573,1574,0,0,0,0,0,0,0,0,0,0
1682239389.39991593,101828419,1580,1579,1575,1574,0,0,0,0,0,0,0,0,0,0
1682239389.49987602,101928379,1579,1579,1577,1576,0,0,0,0,0,0,0,0,0,0
1682239389.59983587,102028339,1579,1578,1578,1578,0,0,0,0,0,0,0,0,0,0
1682239389.69979596,102128299,1578,1578,1579,1579,0,0,0,0,0,0,0,0,0,0
1682239389.79975605,102228259,1577,1577,1580,1580,0,0,0,0,0,0,0,0,0,0
1682239389.89971590,102328219,1577,1578,1582,1581,0,0,0,0,0,0,0,0,0,0
1682239389.99967599,102428179,1577,1578,1583,1582,0,0,0,0,0,0,0,0,0,0
1682239390.10046887,102528972,1577,1577,1583,1583,0,0,0,0,0,0,0,0,0,0
1682239390.20042896,102628932,1577,1578,1582,1583,0,0,0,0,0,0,0,0,0,0
1682239390.30038905,102728892,1578,1579,1583,1583,0,0,0,0,0,0,0,0,0,0
1682239390.40034890,102828852,1579,1579,1582,1582,0,0,0,0,0,0,0,0,0,0
1682239390.50030899,102928812,1578,1577,1580,1580,0,0,0,0,0,0,0,0,0,0
1682239390.60026908,103028772,1579,1578,1579,1580,0,0,0,0,0,0,0,0,0,0
1682239390.70022893,103128732,1579,1578,1579,1579,0,0,0,0,0,0,0,0,0,0
1682239390.80018902,103228692,1579,1579,1578,1578,0,0,0,0,0,0,0,0,0,0
1682239390.90014887,103328652,1580,1580,1579,1579,0,0,0,0,0,0,0,0,0,0
1682239391.00010896,103428612,1579,1580,1578,1578,0,0,0,0,0,0,0,0,0,0
1682239391.10006905,103528572,1580,1581,1578,1579,0,0,0,0,0,0,0,0,0,0
1682239391.20002890,103628532,1579,1579,1577,1577,0,0,0,0,0,0,0,0,0,0
1682239391.29998899,103728492,1580,1580,1578,1578,0,0,0,0,0,0,0,0,0,0
1682239391.39994907,103828452,1580,1580,1578,1578,0,0,0,0,0,0,0,0,0,0
1682239391.49990892,103928412,1581,1580,1580,1579,0,0,0,0,0,0,0,0,0,0
1682239391.59986901,104028372,1580,1580,1580,1579,0,0,0,0,0,0,0,0,0,0
1682239391.69982886,104128332,1581,1581,1581,1581,0,0,0,0,0,0,0,0,0,0
1682239391.79978895,104228292,1581,1581,1581,1581,0,0,0,0,0,0,0,0,0,0
1682239391.89974904,104328252,1581,1581,1582,1581,0,0,0,0,0,0,0,0,0,0
1682239391.99970889,104428212,1580,1580,1581,1580,0,0,0,0,0,0,0,0,0,0
1682239392.09966898,104528172,1580,1581,1581,1582,0,0,0,0,0,0,0,0,0,0
1682239392.20046186,104628965,1580,1581,1582,1581,0,0,0,0,0,0,0,0,0,0
1682239392.30042195,104728925,1580,1580,1581,1581,0,0,0,0,0,0,0,0,0,0
1682239392.40038204,104828885,1581,1581,1582,1582,0,0,0,0,0,0,0,0,0,0
1682239392.50034189,104928845,1581,1581,1582,1582,0,0,0,0,0,0,0,0,0,0
1682239392.60030198,105028805,1581,1581,1581,1581,0,0,0,0,0,0,0,0,0,0
1682239392.70026207,105128765,1581,1580,1581,1581,0,0,0,0,0,0,0,0,0,0
1682239392.80022192,105228725,1581,1581,1581,1582,0,0,0,0,0,0,0,0,0,0
1682239392.90018201,105328685,1582,1581,1581,1581,0,0,0,0,0,0,0,0,0,0
1682239393.00014186,105428645,1581,1582,1585,1575,0,0,0,0,0,0,0,0,0,0
1682239393.10010195,105528605,1581,1584,1586,1572,0,0,0,0,0,0,0,0,0,0
1682239393.20006204,105628565,1580,1583,1580,1573,0,0,0,0,0,0,0,0,0,0
1682239393.30002189,105728525,1578,1580,1572,1572,0,0,0,0,0,0,0,0,0,0
1682239393.39998198,105828485,1576,1578,1564,1569,0,0,0,0,0,0,0,0,0,0
1682239393.49994206,105928445,1576,1577,1559,1565,0,0,0,0,0,0,0,0,0,0
1682239393.59990191,106028405,1577,1576,1555,1560,0,0,0,0,0,0,0,0,0,0
1682239393.69986200,106128365,1578,1577,1554,1558,0,0,0,0,0,0,0,0,0,0
1682239393.79982185,106228325,1579,1577,1554,1555,0,0,0,0,0,0,0,0,0,0
1682239393.89978194,106328285,1579,1578,1554,1553,0,0,0,0,0,0,0,0,0,0
1682239393.99974203,106428245,1579,1578,1555,1553,0,0,0,0,0,0,0,0,0,0
1682239394.09970188,106528205,1578,1579,1555,1553,0,0,0,0,0,0,0,0,0,0
1682239394.19966197,106628165,1577,1578,1555,1553,0,0,0,0,0,0,0,0,0,0
1682239394.30045485,106728958,1576,1578,1554,1554,0,0,0,0,0,0,0,0,0,0
1682239394.40041494,106828918,1576,1578,1554,1553,0,0,0,0,0,0,0,0,0,0
1682239394.50037503,106928878,1577,1579,1553,1553,0,0,0,0,0,0,0,0,0,0
1682239394.60033488,107028838,1578,1579,1551,1551,0,0,0,0,0,0,0,0,0,0
1682239394.70029497,107128798,1580,1581,1550,1551,0,0,0,0,0,0,0,0,0,0
1682239394.80025506,107228758,1582,1582,1547,1548,0,0,0,0,0,0,0,0,0,0
1682239394.90021491,107328718,1584,1584,1546,1545,0,0,0,0,0,0,0,0,0,0
1682239395.00017500,107428678,1587,1587,1544,1543,0,0,0,0,0,0,0,0,0,0
1682239395.10013485,107528638,1589,1589,1542,1542,0,0,0,0,0,0,0,0,0,0
1682239395.20009494,107628598,1590,1590,1539,1540,0,0,0,0,0,0,0,0,0,0
1682239395.30005503,107728558,1592,1593,1539,1540,0,0,0,0,0,0,0,0,0,0
1682239395.40001488,107828518,1593,1594,1539,1541,0,0,0,0,0,0,0,0,0,0
1682239395.49997497,107928478,1594,1594,1540,1543,0,0,0,0,0,0,0,0,0,0
1682239395.59993505,108028438,1592,1590,1543,1546,0,0,0,0,0,0,0,0,0,0
1682239395.69989491,108128398,1588,1584,1548,1551,0,0,0,0,0,0,0,0,0,0
1682239395.79985499,108228358,1583,1578,1556,1560,0,0,0,0,0,0,0,0,0,0
1682239395.89981508,108328318,1573,1569,1565,1568,0,0,0,0,0,0,0,0,0,0
1682239395.99977493,108428278,1564,1560,1576,1579,0,0,0,0,0,0,0,0,0,0
1682239396.09973502,108528238,1554,1552,1588,1588,0,0,0,0,0,0,0,0,0,0
1682239396.19969487,108628198,1545,1546,1598,1597,0,0,0,0,0,0,0,0,0,0
1682239396.29965496,108728158,1539,1542,1606,1605,0,0,0,0,0,0,0,0,0,0
1682239396.40044785,108828951,1535,1539,1612,1609,0,0,0,0,0,0,0,0,0,0
1682239396.50040793,108928911,1536,1539,1614,1611,0,0,0,0,0,0,0,0,0,0
1682239396.60036802,109028871,1538,1541,1613,1611,0,0,0,0,0,0,0,0,0,0
1682239396.70032787,109128831,1544,1546,1610,1608,0,0,0,0,0,0,0,0,0,0
1682239396.80028796,109228791,1549,1550,1605,1603,0,0,0,0,0,0,0,0,0,0
1682239396.90024805,109328751,1556,1556,1599,1598,0,0,0,0,0,0,0,0,0,0
1682239397.00020790,109428711,1562,1561,1591,1591,0,0,0,0,0,0,0,0,0,0
1682239397.10016799,109528671,1568,1567,1584,1584,0,0,0,0,0,0,0,0,0,0
1682239397.20012808,109628631,1573,1572,1576,1578,0,0,0,0,0,0,0,0,0,0
1682239397.30008793,109728591,1578,1576,1571,1573,0,0,0,0,0,0,0,0,0,0
1682239397.40004802,109828551,1581,1580,1567,1568,0,0,0,0,0,0,0,0,0,0
1682239397.50000787,109928511,1585,1583,1566,1567,0,0,0,0,0,0,0,0,0,0
1682239397.59996796,110028471,1586,1584,1565,1566,0,0,0,0,0,0,0,0,0,0
1682239397.69992805,110128431,1586,1585,1567,1567,0,0,0,0,0,0,0,0,0,0
1682239397.79988790,110228391,1585,1584,1568,1568,0,0,0,0,0,0,0,0,0,0
1682239397.89984798,110328351,1583,1582,1570,1570,0,0,0,0,0,0,0,0,0,0
1682239397.99980807,110428311,1580,1580,1573,1572,0,0,0,0,0,0,0,0,0,0
1682239398.09976792,110528271,1578,1578,1576,1576,0,0,0,0,0,0,0,0,0,0
1682239398.19972801,110628231,1576,1577,1579,1579,0,0,0,0,0,0,0,0,0,0
1682239398.29968786,110728191,1575,1576,1581,1581,0,0,0,0,0,0,0,0,0,0
1682239398.40048099,110828984,1574,1576,1584,1583,0,0,0,0,0,0,0,0,0,0
1682239398.50044107,110928944,1573,1574,1584,1584,0,0,0,0,0,0,0,0,0,0
1682239398.60040092,111028904,1574,1575,1585,1585,0,0,0,0,0,0,0,0,0,0
1682239398.70036101,111128864,1574,1574,1585,1584,0,0,0,0,0,0,0,0,0,0
1682239398.80032086,111228824,1575,1576,1584,1584,0,0,0,0,0,0,0,0,0,0
1682239398.90028095,111328784,1575,1576,1583,1582,0,0,0,0,0,0,0,0,0,0
1682239399.00024104,111428744,1577,1577,1581,1582,0,0,0,0,0,0,0,0,0,0
1682239399.10020089,111528704,1578,1579,1581,1581,0,0,0,0,0,0,0,0,0,0
1682239399.20016098,111628664,1579,1579,1579,1579,0,0,0,0,0,0,0,0,0,0
1682239399.30012107,111728624,1580,1580,1578,1578,0,0,0,0,0,0,0,0,0,0
1682239399.40008092,111828584,1581,1580,1577,1577,0,0,0,0,0,0,0,0,0,0
1682239399.50004101,111928544,1581,1581,1577,1578,0,0,0,0,0,0,0,0,0,0
1682239399.60000086,112028504,1581,1581,1576,1576,0,0,0,0,0,0,0,0,0,0
1682239399.69996095,112128464,1581,1581,1577,1577,0,0,0,0,0,0,0,0,0,0
1682239399.79992104,112228424,1582,1581,1577,1578,0,0,0,0,0,0,0,0,0,0
1682239399.89988089,112328384,1582,1582,1579,1579,0,0,0,0,0,0,0,0,0,0
1682239399.99984097,112428344,1582,1582,1579,1579,0,0,0,0,0,0,0,0,0,0
1682239400.09980106,112528304,1581,1580,1579,1578,0,0,0,0,0,0,0,0,0,0
1682239400.19976091,112628264,1581,1581,1581,1580,0,0,0,0,0,0,0,0,0,0
1682239400.29972100,112728224,1580,1581,1581,1581,0,0,0,0,0,0,0,0,0,0
1682239400.39968085,112828184,1580,1580,1581,1581,0,0,0,0,0,0,0,0,0,0
1682239400.50047398,112928977,1579,1579,1580,1581,0,0,0,0,0,0,0,0,0,0
1682239400.60043406,113028937,1580,1580,1581,1582,0,0,0,0,0,0,0,0,0,0
1682239400.70039392,113128897,1579,1579,1581,1581,0,0,0,0,0,0,0,0,0,0
1682239400.80035400,113228857,1579,1580,1581,1581,0,0,0,0,0,0,0,0,0,0
1682239400.90031385,113328817,1580,1580,1582,1579,0,0,0,0,0,0,0,0,0,0
1682239401.00027394,113428777,1581,1582,1588,1573,0,0,0,0,0,0,0,0,0,0
1682239401.10023403,113528737,1580,1580,1584,1574,0,0,0,0,0,0,0,0,0,0
1682239401.20019388,113628697,1577,1576,1578,1575,0,0,0,0,0,0,0,0,0,0
1682239401.30015397,113728657,1574,1573,1571,1575,0,0,0,0,0,0,0,0,0,0
1682239401.40011406,113828617,1570,1569,1566,1573,0,0,0,0,0,0,0,0,0,0
1682239401.50007391,113928577,1568,1568,1564,1571,0,0,0,0,0,0,0,0,0,0
1682239401.60003400,114028537,1567,1568,1564,1569,0,0,0,0,0,0,0,0,0,0
1682239401.69999385,114128497,1566,1567,1564,1566,0,0,0,0,0,0,0,0,0,0
1682239401.79995394,114228457,1565,1566,1565,1564,0,0,0,0,0,0,0,0,0,0
1682239401.89991403,114328417,1565,1566,1566,1563,0,0,0,0,0,0,0,0,0,0
1682239401.99987388,114428377,1565,1565,1566,1563,0,0,0,0,0,0,0,0,0,0
1682239402.09983397,114528337,1565,1565,1566,1564,0,0,0,0,0,0,0,0,0,0
1682239402.19979405,114628297,1564,1564,1565,1563,0,0,0,0,0,0,0,0,0,0
1682239402.29975390,114728257,1563,1562,1564,1563,0,0,0,0,0,0,0,0,0,0
1682239402.39971399,114828217,1563,1562,1564,1564,0,0,0,0,0,0,0,0,0,0
1682239402.49967408,114928177,1562,1561,1562,1562,0,0,0,0,0,0,0,0,0,0
1682239402.60046697,115028970,1561,1561,1561,1562,0,0,0,0,0,0,0,0,0,0
1682239402.70042706,115128930,1561,1561,1561,1561,0,0,0,0,0,0,0,0,0,0
1682239402.80038691,115228890,1560,1560,1560,1560,0,0,0,0,0,0,0,0,0,0
1682239402.90034699,115328850,1559,1559,1560,1560,0,0,0,0,0,0,0,0,0,0
1682239403.00030684,115428810,1559,1559,1560,1559,0,0,0,0,0,0,0,0,0,0
1682239403.10026693,115528770,1559,1559,1560,1559,0,0,0,0,0,0,0,0,0,0
1682239403.20022702,115628730,1558,1558,1559,1558,0,0,0,0,0,0,0,0,0,0
1682239403.30018687,115728690,1559,1558,1559,1558,0,0,0,0,0,0,0,0,0,0
1682239403.40014696,115828650,1558,1558,1559,1558,0,0,0,0,0,0,0,0,0,0
1682239403.50010705,115928610,1557,1557,1558,1556,0,0,0,0,0,0,0,0,0,0
1682239403.60006690,116028570,1557,1557,1559,1555,0,0,0,0,0,0,0,0,0,0
1682239403.70002699,116128530,1556,1555,1557,1554,0,0,0,0,0,0,0,0,0,0
1682239403.79998708,116228490,1553,1552,1552,1554,0,0,0,0,0,0,0,0,0,0
1682239403.89994693,116328450,1549,1547,1546,1551,0,0,0,0,0,0,0,0,0,0
1682239403.99990702,116428410,1545,1544,1541,1548,0,0,0,0,0,0,0,0,0,0
1682239404.09986687,116528370,1539,1539,1536,1541,0,0,0,0,0,0,0,0,0,0
1682239404.19982696,116628330,1532,1532,1530,1533,0,0,0,0,0,0,0,0,0,0
1682239404.29978704,116728290,1525,1525,1523,1525,0,0,0,0,0,0,0,0,0,0
1682239404.39974689,116828250,1522,1523,1522,1522,0,0,0,0,0,0,0,0,0,0
1682239404.49970698,116928210,1520,1522,1520,1521,0,0,0,0,0,0,0,0,0,0
1682239404.59966707,117028170,1521,1522,1521,1521,0,0,0,0,0,0,0,0,0,0
1682239404.70045996,117128963,1523,1524,1523,1524,0,0,0,0,0,0,0,0,0,0
1682239404.80042005,117228923,1525,1526,1525,1526,0,0,0,0,0,0,0,0,0,0
1682239404.90037990,117328883,1530,1531,1530,1531,0,0,0,0,0,0,0,0,0,0
1682239405.00033998,117428843,1535,1536,1535,1536,0,0,0,0,0,0,0,0,0,0
1682239405.10030007,117528803,1539,1538,1539,1539,0,0,0,0,0,0,0,0,0,0
1682239405.20025992,117628763,1542,1540,1542,1541,0,0,0,0,0,0,0,0,0,0
1682239405.30022001,117728723,1543,1541,1543,1542,0,0,0,0,0,0,0,0,0,0
1682239405.40017986,117828683,1544,1543,1545,1543,0,0,0,0,0,0,0,0,0,0
1682239405.50013995,117928643,1545,1545,1546,1545,0,0,0,0,0,0,0,0,0,0
1682239405.60010004,118028603,1546,1546,1546,1546,0,0,0,0,0,0,0,0,0,0
1682239405.70005989,118128563,1546,1547,1547,1547,0,0,0,0,0,0,0,0,0,0
1682239405.80001998,118228523,1546,1547,1547,1547,0,0,0,0,0,0,0,0,0,0
1682239405.89998007,118328483,1546,1546,1546,1546,0,0,0,0,0,0,0,0,0,0
1682239405.99993992,118428443,1547,1547,1547,1547,0,0,0,0,0,0,0,0,0,0
1682239406.09990001,118528403,1547,1546,1546,1546,0,0,0,0,0,0,0,0,0,0
1682239406.19985986,118628363,1547,1547,1547,1547,0,0,0,0,0,0,0,0,0,0
1682239406.29981995,118728323,1546,1547,1546,1546,0,0,0,0,0,0,0,0,0,0
1682239406.39978004,118828283,1545,1545,1545,1545,0,0,0,0,0,0,0,0,0,0
1682239406.49973989,118928243,1545,1545,1545,1545,0,0,0,0,0,0,0,0,0,0
1682239406.59969997,119028203,1545,1545,1545,1545,0,0,0,0,0,0,0,0,0,0
1682239406.69966006,119128163,1545,1545,1545,1545,0,0,0,0,0,0,0,0,0,0
1682239406.80045295,119228956,1545,1545,1545,1545,0,0,0,0,0,0,0,0,0,0
1682239406.90041304,119328916,1545,1545,1545,1545,0,0,0,0,0,0,0,0,0,0
1682239407.00037289,119428876,1545,1545,1545,1545,0,0,0,0,0,0,0,0,0,0
1682239407.10033298,119528836,1545,1545,1545,1544,0,0,0,0,0,0,0,0,0,0
1682239407.20029306,119628796,1544,1544,1545,1544,0,0,0,0,0,0,0,0,0,0
1682239407.30025291,119728756,1545,1545,1545,1545,0,0,0,0,0,0,0,0,0,0
1682239407.40021300,119828716,1545,1545,1545,1545,0,0,0,0,0,0,0,0,0,0
1682239407.50017285,119928676,1544,1544,1544,1545,0,0,0,0,0,0,0,0,0,0
1682239407.60013294,120028636,1544,1545,1544,1544,0,0,0,0,0,0,0,0,0,0
1682239407.70009303,120128596,1544,1544,1544,1544,0,0,0,0,0,0,0,0,0,0
1682239407.80005288,120228556,1544,1544,1544,1544,0,0,0,0,0,0,0,0,0,0
1682239407.90001297,120328516,1544,1544,1544,1544,0,0,0,0,0,0,0,0,0,0
1682239407.99997306,120428476,1544,1545,1544,1544,0,0,0,0,0,0,0,0,0,0
1682239408.09993291,120528436,1543,1543,1544,1543,0,0,0,0,0,0,0,0,0,0
1682239408.19989300,120628396,1543,1544,1544,1543,0,0,0,0,0,0,0,0,0,0
1682239408.29985285,120728356,1543,1543,1543,1543,0,0,0,0,0,0,0,0,0,0
1682239408.39981294,120828316,1543,1542,1542,1542,0,0,0,0,0,0,0,0,0,0
1682239408.49977303,120928276,1543,1543,1543,1543,0,0,0,0,0,0,0,0,0,0
1682239408.59973288,121028236,1543,1543,1543,1543,0,0,0,0,0,0,0,0,0,0
1682239408.69969296,121128196,1544,1544,1544,1545,0,0,0,0,0,0,0,0,0,0
1682239408.79965305,121228156,1544,1544,1544,1543,0,0,0,0,0,0,0,0,0,0
1682239408.90044594,121328949,1544,1544,1544,1544,0,0,0,0,0,0,0,0,0,0
1682239409.00040603,121428909,1544,1544,1544,1544,0,0,0,0,0,0,0,0,0,0
1682239409.10036588,121528869,1544,1543,1543,1544,0,0,0,0,0,0,0,0,0,0
1682239409.20032597,121628829,1544,1544,1544,1544,0,0,0,0,0,0,0,0,0,0
1682239409.30028605,121728789,1545,1544,1544,1545,0,0,0,0,0,0,0,0,0,0
1682239409.40024590,121828749,1545,1545,1545,1545,0,0,0,0,0,0,0,0,0,0
1682239409.50020599,121928709,1545,1545,1545,1545,0,0,0,0,0,0,0,0,0,0
1682239409.60016608,122028669,1544,1545,1545,1544,0,0,0,0,0,0,0,0,0,0
1682239409.70012593,122128629,1545,1545,1545,1545,0,0,0,0,0,0,0,0,0,0
1682239409.80008602,122228589,1544,1544,1544,1544,0,0,0,0,0,0,0,0,0,0
1682239409.90004587,122328549,1544,1544,1544,1544,0,0,0,0,0,0,0,0,0,0
1682239410.00000596,122428509,1544,1544,1543,1544,0,0,0,0,0,0,0,0,0,0
1682239410.09996605,122528469,1544,1544,1544,1543,0,0,0,0,0,0,0,0,0,0
1682239410.19992590,122628429,1544,1544,1544,1544,0,0,0,0,0,0,0,0,0,0
1682239410.29988599,122728389,1544,1544,1544,1545,0,0,0,0,0,0,0,0,0,0
1682239410.39984608,122828349,1544,1544,1544,1544,0,0,0,0,0,0,0,0,0,0
1682239410.49980593,122928309,1544,1544,1544,1544,0,0,0,0,0,0,0,0,0,0
1682239410.59976602,123028269,1544,1544,1544,1544,0,0,0,0,0,0,0,0,0,0
1682239410.69972587,123128229,1544,1543,1544,1543,0,0,0,0,0,0,0,0,0,0
1682239410.79968596,123228189,1543,1544,1544,1543,0,0,0,0,0,0,0,0,0,0
1682239410.90047908,123328982,1543,1543,1543,1543,0,0,0,0,0,0,0,0,0,0
1682239411.00043893,123428942,1543,1543,1543,1543,0,0,0,0,0,0,0,0,0,0
1682239411.10039902,123528902,1543,1543,1543,1544,0,0,0,0,0,0,0,0,0,0
1682239411.20035887,123628862,1544,1544,1544,1544,0,0,0,0,0,0,0,0,0,0
1682239411.30031896,123728822,1544,1543,1544,1544,0,0,0,0,0,0,0,0,0,0
1682239411.40027905,123828782,1543,1544,1544,1544,0,0,0,0,0,0,0,0,0,0
1682239411.50023890,123928742,1544,1544,1544,1544,0,0,0,0,0,0,0,0,0,0
1682239411.60019898,124028702,1544,1544,1544,1544,0,0,0,0,0,0,0,0,0,0
1682239411.70015907,124128662,1544,1544,1544,1545,0,0,0,0,0,0,0,0,0,0
1682239411.80011892,124228622,1545,1545,1545,1545,0,0,0,0,0,0,0,0,0,0
1682239411.90007901,124328582,1545,1544,1545,1544,0,0,0,0,0,0,0,0,0,0
1682239412.00003886,124428542,1544,1544,1544,1543,0,0,0,0,0,0,0,0,0,0
1682239412.09999895,124528502,1544,1544,1544,1544,0,0,0,0,0,0,0,0,0,0
1682239412.19995904,124628462,1544,1545,1544,1545,0,0,0,0,0,0,0,0,0,0
1682239412.29991889,124728422,1545,1544,1545,1545,0,0,0,0,0,0,0,0,0,0
1682239412.39987898,124828382,1544,1544,1544,1544,0,0,0,0,0,0,0,0,0,0
1682239412.49983907,124928342,1544,1544,1544,1544,0,0,0,0,0,0,0,0,0,0
1682239412.59979892,125028302,1543,1544,1544,1544,0,0,0,0,0,0,0,0,0,0
1682239412.69975901,125128262,1544,1544,1544,1544,0,0,0,0,0,0,0,0,0,0
1682239412.79971886,125228222,1544,1545,1545,1544,0,0,0,0,0,0,0,0,0,0
1682239412.89967895,125328182,1545,1545,1545,1545,0,0,0,0,0,0,0,0,0,0
1682239413.00047207,125428975,1545,1545,1544,1545,0,0,0,0,0,0,0,0,0,0
1682239413.10043192,125528935,1545,1544,1544,1545,0,0,0,0,0,0,0,0,0,0
1682239413.20039201,125628895,1545,1545,1545,1545,0,0,0,0,0,0,0,0,0,0
1682239413.30035186,125728855,1545,1545,1544,1544,0,0,0,0,0,0,0,0,0,0
1682239413.40031195,125828815,1544,1544,1545,1544,0,0,0,0,0,0,0,0,0,0
1682239413.50027204,125928775,1544,1544,1544,1544,0,0,0,0,0,0,0,0,0,0
1682239413.60023189,126028735,1544,1544,1544,1544,0,0,0,0,0,0,0,0,0,0
1682239413.70019197,126128695,1545,1545,1544,1545,0,0,0,0,0,0,0,0,0,0
1682239413.80015206,126228655,1544,1544,1544,1544,0,0,0,0,0,0,0,0,0,0
1682239413.90011191,126328615,1545,1544,1545,1545,0,0,0,0,0,0,0,0,0,0
1682239414.00007200,126428575,1544,1544,1544,1544,0,0,0,0,0,0,0,0,0,0
1682239414.10003185,126528535,1458,1425,1458,1425,0,0,0,0,0,0,0,0,0,0
1682239414.19999194,126628495,1365,1281,1365,1282,0,0,0,0,0,0,0,0,0,0
1682239414.29995203,126728455,1333,1225,1332,1226,0,0,0,0,0,0,0,0,0,0
1682239414.39991188,126828415,1321,1204,1321,1204,0,0,0,0,0,0,0,0,0,0
1682239414.49987197,126928375,1302,1167,1302,1168,0,0,0,0,0,0,0,0,0,0
1682239414.59983206,127028335,1282,1151,1283,1150,0,0,0,0,0,0,0,0,0,0
1682239414.69979191,127128295,1161,1150,1162,1150,0,0,0,0,0,0,0,0,0,0
1682239414.79975200,127228255,1056,1150,1056,1150,0,0,0,0,0,0,0,0,0,0
1682239414.89971185,127328215,1056,1150,1056,1150,0,0,0,0,0,0,0,0,0,0
1682239414.99967194,127428175,1055,1150,1056,1150,0,0,0,0,0,0,0,0,0,0
1682239415.10046506,127528968,1056,1150,1051,1157,0,0,0,0,0,0,0,0,0,0
1682239415.20042491,127628928,1056,1150,1047,1162,0,0,0,0,0,0,0,0,0,0
1682239415.30038500,127728888,1056,1150,1050,1158,0,0,0,0,0,0,0,0,0,0
1682239415.40034485,127828848,1056,1150,1051,1157,0,0,0,0,0,0,0,0,0,0
1682239415.50030494,127928808,1056,1150,1051,1157,0,0,0,0,0,0,0,0,0,0
1682239415.60026503,128028768,1056,1150,1051,1158,0,0,0,0,0,0,0,0,0,0
1682239415.70022488,128128728,1056,1150,1050,1158,0,0,0,0,0,0,0,0,0,0
1682239415.80018497,128228688,1056,1150,1050,1159,0,0,0,0,0,0,0,0,0,0
1682239415.90014505,128328648,1055,1150,1056,1150,0,0,0,0,0,0,0,0,0,0
1682239416.00010490,128428608,1056,1150,1054,1153,0,0,0,0,0,0,0,0,0,0
1682239416.10006499,128528568,1056,1150,1053,1154,0,0,0,0,0,0,0,0,0,0
1682239416.20002508,128628528,1056,1150,1053,1154,0,0,0,0,0,0,0,0,0,0
1682239416.29998493,128728488,1056,1150,1053,1154,0,0,0,0,0,0,0,0,0,0
1682239416.39994502,128828448,1000,1000,1000,1000,0,0,0,0,0,0,0,0,0,0
1682239416.49990487,128928408,1000,1000,1000,1000,0,0,0,0,0,0,0,0,0,0
1682239416.59986496,129028368,1000,1000,1000,1000,0,0,0,0,0,0,0,0,0,0
1682239416.69982505,129128328,1000,1000,1000,1000,0,0,0,0,0,0,0,0,0,0
1682239416.79978490,129228288,1000,1000,1000,1000,0,0,0,0,0,0,0,0,0,0
1682239416.89974499,129328248,1000,1000,1000,1000,0,0,0,0,0,0,0,0,0,0
1682239416.99970508,129428208,1000,1000,1000,1000,0,0,0,0,0,0,0,0,0,0
1682239417.09966493,129528168,1000,1000,1000,1000,0,0,0,0,0,0,0,0,0,0
1682239417.20045805,129628961,1000,1000,1000,1000,0,0,0,0,0,0,0,0,0,0
1682239417.30041790,129728921,1000,1000,1000,1000,0,0,0,0,0,0,0,0,0,0
1682239417.40037799,129828881,1000,1000,1000,1000,0,0,0,0,0,0,0,0,0,0
1682239417.50033808,129928841,1000,1000,1000,1000,0,0,0,0,0,0,0,0,0,0
1682239417.60029793,130028801,1000,1000,1000,1000,0,0,0,0,0,0,0,0,0,0
1682239417.70025802,130128761,1000,1000,1000,1000,0,0,0,0,0,0,0,0,0,0
1682239417.80021787,130228721,1000,1000,1000,1000,0,0,0,0,0,0,0,0,0,0
1682239417.90017796,130328681,1000,1000,1000,1000,0,0,0,0,0,0,0,0,0,0
1682239418.00013804,130428641,1000,1000,1000,1000,0,0,0,0,0,0,0,0,0,0
1682239418.10009789,130528601,1000,1000,1000,1000,0,0,0,0,0,0,0,0,0,0
1682239418.20005798,130628561,1000,1000,1000,1000,0,0,0,0,0,0,0,0,0,0
1682239418.30001807,130728521,1000,1000,1000,1000,0,0,0,0,0,0,0,0,0,0
1682239418.39997792,130828481,1000,1000,1000,1000,0,0,0,0,0,0,0,0,0,0
1682239418.49993801,130928441,1000,1000,1000,1000,0,0,0,0,0,0,0,0,0,0
1682239418.59989786,131028401,1000,1000,1000,1000,0,0,0,0,0,0,0,0,0,0
1682239418.69985795,131128361,1000,1000,1000,1000,0,0,0,0,0,0,0,0,0,0
1682239418.79981804,131228321,1000,1000,1000,1000,0,0,0,0,0,0,0,0,0,0
1682239418.89977789,131328281,1000,1000,1000,1000,0,0,0,0,0,0,0,0,0,0
1682239418.99973798,131428241,1000,1000,1000,1000,0,0,0,0,0,0,0,0,0,0
1682239419.09969807,131528201,1000,1000,1000,1000,0,0,0,0,0,0,0,0,0,0
1682239419.19965792,131628161,1000,1000,1000,1000,0,0,0,0,0,0,0,0,0,0
1682239419.30045104,131728954,1000,1000,1000,1000,0,0,0,0,0,0,0,0,0,0
1682239419.40041089,131828914,1000,1000,1000,1000,0,0,0,0,0,0,0,0,0,0
1682239419.50037098,131928874,1000,1000,1000,1000,0,0,0,0,0,0,0,0,0,0
1682239419.60033107,132028834,1000,1000,1000,1000,0,0,0,0,0,0,0,0,0,0
1682239419.70029092,132128794,1000,1000,1000,1000,0,0,0,0,0,0,0,0,0,0
1682239419.80025101,132228754,1000,1000,1000,1000,0,0,0,0,0,0,0,0,0,0
1682239419.90021086,132328714,1000,1000,1000,1000,0,0,0,0,0,0,0,0,0,0
1682239420.00017095,132428674,1000,1000,1000,1000,0,0,0,0,0,0,0,0,0,0
1682239420.10013103,132528634,1000,1000,1000,1000,0,0,0,0,0,0,0,0,0,0
1682239420.20009089,132628594,1000,1000,1000,1000,0,0,0,0,0,0,0,0,0,0
1682239420.30005097,132728554,1000,1000,1000,1000,0,0,0,0,0,0,0,0,0,0
1682239420.40001106,132828514,1000,1000,1000,1000,0,0,0,0,0,0,0,0,0,0
1682239420.49997091,132928474,1000,1000,1000,1000,0,0,0,0,0,0,0,0,0,0
1682239420.59993100,133028434,1000,1000,1000,1000,0,0,0,0,0,0,0,0,0,0
1682239420.69989085,133128394,1000,1000,1000,1000,0,0,0,0,0,0,0,0,0,0
1682239420.79985094,133228354,1000,1000,1000,1000,0,0,0,0,0,0,0,0,0,0
1682239420.89981103,133328314,1000,1000,1000,1000,0,0,0,0,0,0,0,0,0,0
1682239420.99977088,133428274,1000,1000,1000,1000,0,0,0,0,0,0,0,0,0,0
1682239421.09973097,133528234,1000,1000,1000,1000,0,0,0,0,0,0,0,0,0,0
1682239421.19969106,133628194,1000,1000,1000,1000,0,0,0,0,0,0,0,0,0,0
1682239421.29965091,133728154,1000,1000,1000,1000,0,0,0,0,0,0,0,0,0,0
1682239421.40044403,133828947,1000,1000,1000,1000,0,0,0,0,0,0,0,0,0,0
1682239421.50040388,133928907,1000,1000,1000,1000,0,0,0,0,0,0,0,0,0,0
1682239421.60036397,134028867,1000,1000,1000,1000,0,0,0,0,0,0,0,0,0,0
1682239421.70032406,134128827,1000,1000,1000,1000,0,0,0,0,0,0,0,0,0,0
1682239421.80028391,134228787,1000,1000,1000,1000,0,0,0,0,0,0,0,0,0,0
1682239421.90024400,134328747,1000,1000,1000,1000,0,0,0,0,0,0,0,0,0,0
1682239422.00020385,134428707,1000,1000,1000,1000,0,0,0,0,0,0,0,0,0,0
1682239422.10016394,134528667,1000,1000,1000,1000,0,0,0,0,0,0,0,0,0,0
1682239422.20012403,134628627,1000,1000,1000,1000,0,0,0,0,0,0,0,0,0,0
1682239422.30008388,134728587,1000,1000,1000,1000,0,0,0,0,0,0,0,0,0,0
1682239422.40004396,134828547,1000,1000,1000,1000,0,0,0,0,0,0,0,0,0,0
1682239422.50000405,134928507,1000,1000,1000,1000,0,0,0,0,0,0,0,0,0,0
1682239422.59996390,135028467,1000,1000,1000,1000,0,0,0,0,0,0,0,0,0,0
1682239422.69992399,135128427,1000,1000,1000,1000,0,0,0,0,0,0,0,0,0,0
1682239422.79988408,135228387,1000,1000,1000,1000,0,0,0,0,0,0,0,0,0,0
1682239422.89984393,135328347,1000,1000,1000,1000,0,0,0,0,0,0,0,0,0,0
1682239422.99980402,135428307,1000,1000,1000,1000,0,0,0,0,0,0,0,0,0,0
1682239423.09976387,135528267,1000,1000,1000,1000,0,0,0,0,0,0,0,0,0,0
1682239423.19972396,135628227,1000,1000,1000,1000,0,0,0,0,0,0,0,0,0,0
1682239423.29968405,135728187,1000,1000,1000,1000,0,0,0,0,0,0,0,0,0,0
1682239423.40047693,135828980,1000,1000,1000,1000,0,0,0,0,0,0,0,0,0,0
1682239423.50043702,135928940,1000,1000,1000,1000,0,0,0,0,0,0,0,0,0,0
1682239423.60039687,136028900,1000,1000,1000,1000,0,0,0,0,0,0,0,0,0,0
1682239423.70035696,136128860,1000,1000,1000,1000,0,0,0,0,0,0,0,0,0,0
1682239423.80031705,136228820,1000,1000,1000,1000,0,0,0,0,0,0,0,0,0,0
1682239423.90027690,136328780,1000,1000,1000,1000,0,0,0,0,0,0,0,0,0,0
1682239424.00023699,136428740,1000,1000,1000,1000,0,0,0,0,0,0,0,0,0,0
1682239424.10019708,136528700,1000,1000,1000,1000,0,0,0,0,0,0,0,0,0,0
1682239424.20015693,136628660,1000,1000,1000,1000,0,0,0,0,0,0,0,0,0,0
1682239424.30011702,136728620,1000,1000,1000,1000,0,0,0,0,0,0,0,0,0,0
1682239424.40007687,136828580,1000,1000,1000,1000,0,0,0,0,0,0,0,0,0,0
1682239424.50003695,136928540,1000,1000,1000,1000,0,0,0,0,0,0,0,0,0,0
1682239424.59999704,137028500,1000,1000,1000,1000,0,0,0,0,0,0,0,0,0,0
1682239424.69995689,137128460,1000,1000,1000,1000,0,0,0,0,0,0,0,0,0,0
1682239424.79991698,137228420,1000,1000,1000,1000,0,0,0,0,0,0,0,0,0,0
1682239424.89987707,137328380,1000,1000,1000,1000,0,0,0,0,0,0,0,0,0,0
1682239424.99983692,137428340,1000,1000,1000,1000,0,0,0,0,0,0,0,0,0,0
1682239425.09979701,137528300,1000,1000,1000,1000,0,0,0,0,0,0,0,0,0,0
1682239425.19975686,137628260,1000,1000,1000,1000,0,0,0,0,0,0,0,0,0,0
1682239425.29971695,137728220,1000,1000,1000,1000,0,0,0,0,0,0,0,0,0,0
1682239425.39967704,137828180,1000,1000,1000,1000,0,0,0,0,0,0,0,0,0,0
1682239425.50046992,137928973,1000,1000,1000,1000,0,0,0,0,0,0,0,0,0,0
1682239425.60043001,138028933,1000,1000,1000,1000,0,0,0,0,0,0,0,0,0,0
1682239425.70038986,138128893,1000,1000,1000,1000,0,0,0,0,0,0,0,0,0,0
1682239425.80034995,138228853,1000,1000,1000,1000,0,0,0,0,0,0,0,0,0,0
1682239425.90031004,138328813,1000,1000,1000,1000,0,0,0,0,0,0,0,0,0,0
1682239426.00026989,138428773,1000,1000,1000,1000,0,0,0,0,0,0,0,0,0,0
1682239426.10022998,138528733,1000,1000,1000,1000,0,0,0,0,0,0,0,0,0,0
1682239426.20019007,138628693,1000,1000,1000,1000,0,0,0,0,0,0,0,0,0,0
1682239426.30014992,138728653,1000,1000,1000,1000,0,0,0,0,0,0,0,0,0,0
1682239426.40011001,138828613,1000,1000,1000,1000,0,0,0,0,0,0,0,0,0,0
1682239426.50006986,138928573,1000,1000,1000,1000,0,0,0,0,0,0,0,0,0,0
1682239426.60002995,139028533,1000,1000,1000,1000,0,0,0,0,0,0,0,0,0,0
1682239426.69999003,139128493,1000,1000,1000,1000,0,0,0,0,0,0,0,0,0,0
1682239426.79994988,139228453,1000,1000,1000,1000,0,0,0,0,0,0,0,0,0,0
1682239426.89990997,139328413,1000,1000,1000,1000,0,0,0,0,0,0,0,0,0,0
1682239426.99987006,139428373,1000,1000,1000,1000,0,0,0,0,0,0,0,0,0,0
1682239427.09982991,139528333,1000,1000,1000,1000,0,0,0,0,0,0,0,0,0,0
1682239427.19979000,139628293,1000,1000,1000,1000,0,0,0,0,0,0,0,0,0,0
1682239427.29974985,139728253,1000,1000,1000,1000,0,0,0,0,0,0,0,0,0,0
1682239427.39970994,139828213,1000,1000,1000,1000,0,0,0,0,0,0,0,0,0,0
1682239427.49967003,139928173,1000,1000,1000,1000,0,0,0,0,0,0,0,0,0,0
1682239427.60046291,140028966,1000,1000,1000,1000,0,0,0,0,0,0,0,0,0,0
1682239427.70042300,140128926,1000,1000,1000,1000,0,0,0,0,0,0,0,0,0,0
1682239427.80038285,140228886,1000,1000,1000,1000,0,0,0,0,0,0,0,0,0,0
1682239427.90034294,140328846,1000,1000,1000,1000,0,0,0,0,0,0,0,0,0,0
1682239428.00030303,140428806,1000,1000,1000,1000,0,0,0,0,0,0,0,0,0,0
1682239428.10026288,140528766,1000,1000,1000,1000,0,0,0,0,0,0,0,0,0,0
1682239428.20022297,140628726,1000,1000,1000,1000,0,0,0,0,0,0,0,0,0,0
1682239428.30018306,140728686,1000,1000,1000,1000,0,0,0,0,0,0,0,0,0,0
1682239428.40014291,140828646,1000,1000,1000,1000,0,0,0,0,0,0,0,0,0,0
1682239428.50010300,140928606,1000,1000,1000,1000,0,0,0,0,0,0,0,0,0,0
1682239428.60006285,141028566,1000,1000,1000,1000,0,0,0,0,0,0,0,0,0,0
1682239428.70002294,141128526,1000,1000,1000,1000,0,0,0,0,0,0,0,0,0,0
1682239428.79998302,141228486,1000,1000,1000,1000,0,0,0,0,0,0,0,0,0,0
1682239428.89994287,141328446,1000,1000,1000,1000,0,0,0,0,0,0,0,0,0,0
1682239428.99990296,141428406,1000,1000,1000,1000,0,0,0,0,0,0,0,0,0,0
1682239429.09986305,141528366,1000,1000,1000,1000,0,0,0,0,0,0,0,0,0,0
1682239429.19982290,141628326,1000,1000,1000,1000,0,0,0,0,0,0,0,0,0,0
1682239429.29978299,141728286,1000,1000,1000,1000,0,0,0,0,0,0,0,0,0,0
1682239429.39974308,141828246,1000,1000,1000,1000,0,0,0,0,0,0,0,0,0,0
1682239429.49970293,141928206,1000,1000,1000,1000,0,0,0,0,0,0,0,0,0,0
1682239429.59966302,142028166,1000,1000,1000,1000,0,0,0,0,0,0,0,0,0,0
1682239429.70045590,142128959,1000,1000,1000,1000,0,0,0,0,0,0,0,0,0,0
1682239429.80041599,142228919,1000,1000,1000,1000,0,0,0,0,0,0,0,0,0,0
1682239429.90037608,142328879,1000,1000,1000,1000,0,0,0,0,0,0,0,0,0,0
1682239430.00033593,142428839,1000,1000,1000,1000,0,0,0,0,0,0,0,0,0,0
1682239430.10029602,142528799,1000,1000,1000,1000,0,0,0,0,0,0,0,0,0,0
1682239430.20025587,142628759,1000,1000,1000,1000,0,0,0,0,0,0,0,0,0,0
1682239430.30021596,142728719,1000,1000,1000,1000,0,0,0,0,0,0,0,0,0,0
1682239430.40017605,142828679,1000,1000,1000,1000,0,0,0,0,0,0,0,0,0,0
1682239430.50013590,142928639,1000,1000,1000,1000,0,0,0,0,0,0,0,0,0,0
1682239430.60009599,143028599,1000,1000,1000,1000,0,0,0,0,0,0,0,0,0,0
1682239430.70005608,143128559,1000,1000,1000,1000,0,0,0,0,0,0,0,0,0,0
1682239430.80001593,143228519,1000,1000,1000,1000,0,0,0,0,0,0,0,0,0,0
1682239430.89997602,143328479,1000,1000,1000,1000,0,0,0,0,0,0,0,0,0,0
1682239430.99993587,143428439,1000,1000,1000,1000,0,0,0,0,0,0,0,0,0,0
1682239431.09989595,143528399,1000,1000,1000,1000,0,0,0,0,0,0,0,0,0,0
1682239431.19985604,143628359,1000,1000,1000,1000,0,0,0,0,0,0,0,0,0,0
1682239431.29981589,143728319,1000,1000,1000,1000,0,0,0,0,0,0,0,0,0,0
