timestamp,TimeUS,C1,C2,C3,C4,C5,C6,C7,C8,C9,C10,C11,C12,C13,C14
1682949871.59999990,106428245,1000,1000,1000,1000,0,0,0,0,0,0,0,0,0,0
1682949871.69995975,106528205,1000,1000,1000,1000,0,0,0,0,0,0,0,0,0,0
1682949871.79991984,106628165,1000,1000,1000,1000,0,0,0,0,0,0,0,0,0,0
1682949871.90071273,106728958,1000,1000,1000,1000,0,0,0,0,0,0,0,0,0,0
1682949872.00067282,106828918,1000,1000,1000,1000,0,0,0,0,0,0,0,0,0,0
1682949872.10063291,106928878,1000,1000,1000,1000,0,0,0,0,0,0,0,0,0,0
1682949872.20059276,107028838,1000,1000,1000,1000,0,0,0,0,0,0,0,0,0,0
1682949872.30055285,107128798,1000,1000,1000,1000,0,0,0,0,0,0,0,0,0,0
1682949872.40051293,107228758,1000,1000,1000,1000,0,0,0,0,0,0,0,0,0,0
1682949872.50047278,107328718,1000,1000,1000,1000,0,0,0,0,0,0,0,0,0,0
1682949872.60043287,107428678,1000,1000,1000,1000,0,0,0,0,0,0,0,0,0,0
1682949872.70039272,107528638,1000,1000,1000,1000,0,0,0,0,0,0,0,0,0,0
1682949872.80035281,107628598,1000,1000,1000,1000,0,0,0,0,0,0,0,0,0,0
1682949872.90031290,107728558,1000,1000,1000,1000,0,0,0,0,0,0,0,0,0,0
1682949873.00027275,107828518,1000,1000,1000,1000,0,0,0,0,0,0,0,0,0,0
1682949873.10023284,107928478,1000,1000,1000,1000,0,0,0,0,0,0,0,0,0,0
1682949873.20019293,108028438,1000,1000,1000,1000,0,0,0,0,0,0,0,0,0,0
1682949873.30015278,108128398,1000,1000,1000,1000,0,0,0,0,0,0,0,0,0,0
1682949873.40011287,108228358,1000,1000,1000,1000,0,0,0,0,0,0,0,0,0,0
1682949873.50007296,108328318,1000,1000,1000,1000,0,0,0,0,0,0,0,0,0,0
1682949873.60003281,108428278,1020,1020,1020,1020,0,0,0,0,0,0,0,0,0,0
1682949873.69999290,108528238,1050,1050,1050,1050,0,0,0,0,0,0,0,0,0,0
1682949873.79995275,108628198,1080,1080,1080,1080,0,0,0,0,0,0,0,0,0,0
1682949873.89991283,108728158,1110,1110,1110,1110,0,0,0,0,0,0,0,0,0,0
1682949874.00070572,108828951,1140,1140,1140,1140,0,0,0,0,0,0,0,0,0,0
1682949874.10066581,108928911,1333,1319,1320,1333,0,0,0,0,0,0,0,0,0,0
1682949874.20062590,109028871,1528,1517,1518,1528,0,0,0,0,0,0,0,0,0,0
1682949874.30058575,109128831,1684,1673,1674,1684,0,0,0,0,0,0,0,0,0,0
1682949874.40054584,109228791,1817,1807,1808,1817,0,0,0,0,0,0,0,0,0,0
1682949874.50050592,109328751,1875,1865,1866,1875,0,0,0,0,0,0,0,0,0,0
1682949874.60046577,109428711,1847,1842,1843,1847,0,0,0,0,0,0,0,0,0,0
1682949874.70042586,109528671,1718,1718,1718,1718,0,0,0,0,0,0,0,0,0,0
1682949874.80038595,109628631,1634,1637,1637,1634,0,0,0,0,0,0,0,0,0,0
1682949874.90034580,109728591,1617,1621,1621,1617,0,0,0,0,0,0,0,0,0,0
1682949875.00030589,109828551,1629,1633,1633,1629,0,0,0,0,0,0,0,0,0,0
1682949875.10026574,109928511,1637,1639,1639,1637,0,0,0,0,0,0,0,0,0,0
1682949875.20022583,110028471,1636,1636,1636,1636,0,0,0,0,0,0,0,0,0,0
1682949875.30018592,110128431,1630,1628,1628,1629,0,0,0,0,0,0,0,0,0,0
1682949875.40014577,110228391,1623,1622,1622,1623,0,0,0,0,0,0,0,0,0,0
1682949875.50010586,110328351,1619,1617,1617,1619,0,0,0,0,0,0,0,0,0,0
1682949875.60006595,110428311,1618,1616,1616,1617,0,0,0,0,0,0,0,0,0,0
1682949875.70002580,110528271,1617,1618,1617,1617,0,0,0,0,0,0,0,0,0,0
1682949875.79998589,110628231,1617,1620,1620,1617,0,0,0,0,0,0,0,0,0,0
1682949875.89994574,110728191,1586,1587,1586,1587,0,0,0,0,0,0,0,0,0,0
1682949876.00073886,110828984,1572,1572,1570,1574,0,0,0,0,0,0,0,0,0,0
1682949876.10069895,110928944,1562,1561,1558,1565,0,0,0,0,0,0,0,0,0,0
1682949876.20065880,111028904,1552,1552,1549,1555,0,0,0,0,0,0,0,0,0,0
1682949876.30061889,111128864,1545,1544,1542,1546,0,0,0,0,0,0,0,0,0,0
1682949876.40057874,111228824,1537,1536,1536,1536,0,0,0,0,0,0,0,0,0,0
1682949876.50053883,111328784,1531,1530,1532,1529,0,0,0,0,0,0,0,0,0,0
1682949876.60049891,111428744,1524,1525,1527,1523,0,0,0,0,0,0,0,0,0,0
1682949876.70045877,111528704,1523,1523,1524,1521,0,0,0,0,0,0,0,0,0,0
1682949876.80041885,111628664,1523,1524,1524,1523,0,0,0,0,0,0,0,0,0,0
1682949876.90037894,111728624,1525,1525,1525,1526,0,0,0,0,0,0,0,0,0,0
1682949877.00033879,111828584,1529,1529,1531,1528,0,0,0,0,0,0,0,0,0,0
1682949877.10029888,111928544,1533,1533,1539,1528,0,0,0,0,0,0,0,0,0,0
1682949877.20025873,112028504,1538,1538,1540,1536,0,0,0,0,0,0,0,0,0,0
1682949877.30021882,112128464,1541,1541,1539,1543,0,0,0,0,0,0,0,0,0,0
1682949877.40017891,112228424,1544,1544,1540,1548,0,0,0,0,0,0,0,0,0,0
1682949877.50013876,112328384,1547,1546,1541,1551,0,0,0,0,0,0,0,0,0,0
1682949877.60009885,112428344,1549,1548,1545,1552,0,0,0,0,0,0,0,0,0,0
1682949877.70005894,112528304,1552,1552,1551,1553,0,0,0,0,0,0,0,0,0,0
1682949877.80001879,112628264,1555,1556,1557,1554,0,0,0,0,0,0,0,0,0,0
1682949877.89997888,112728224,1558,1558,1561,1555,0,0,0,0,0,0,0,0,0,0
1682949877.99993873,112828184,1561,1561,1564,1558,0,0,0,0,0,0,0,0,0,0
1682949878.10073185,112928977,1562,1562,1564,1560,0,0,0,0,0,0,0,0,0,0
1682949878.20069194,113028937,1563,1563,1563,1563,0,0,0,0,0,0,0,0,0,0
1682949878.30065179,113128897,1564,1564,1563,1566,0,0,0,0,0,0,0,0,0,0
1682949878.40061188,113228857,1562,1562,1565,1569,0,0,0,0,0,0,0,0,0,0
1682949878.50057173,113328817,1560,1560,1565,1569,0,0,0,0,0,0,0,0,0,0
1682949878.60053182,113428777,1562,1563,1567,1569,0,0,0,0,0,0,0,0,0,0
1682949878.70049191,113528737,1564,1563,1567,1568,0,0,0,0,0,0,0,0,0,0
1682949878.80045176,113628697,1565,1566,1568,1567,0,0,0,0,0,0,0,0,0,0
1682949878.90041184,113728657,1567,1567,1568,1566,0,0,0,0,0,0,0,0,0,0
1682949879.00037193,113828617,1568,1568,1567,1566,0,0,0,0,0,0,0,0,0,0
1682949879.10033178,113928577,1570,1569,1567,1567,0,0,0,0,0,0,0,0,0,0
1682949879.20029187,114028537,1572,1571,1568,1567,0,0,0,0,0,0,0,0,0,0
1682949879.30025172,114128497,1572,1571,1567,1568,0,0,0,0,0,0,0,0,0,0
1682949879.40021181,114228457,1572,1572,1568,1568,0,0,0,0,0,0,0,0,0,0
1682949879.50017190,114328417,1573,1573,1570,1570,0,0,0,0,0,0,0,0,0,0
1682949879.60013175,114428377,1573,1574,1571,1571,0,0,0,0,0,0,0,0,0,0
1682949879.70009184,114528337,1574,1573,1572,1572,0,0,0,0,0,0,0,0,0,0
1682949879.80005193,114628297,1574,1575,1575,1574,0,0,0,0,0,0,0,0,0,0
1682949879.90001178,114728257,1574,1574,1575,1573,0,0,0,0,0,0,0,0,0,0
1682949879.99997187,114828217,1575,1575,1577,1575,0,0,0,0,0,0,0,0,0,0
1682949880.09993196,114928177,1575,1575,1577,1576,0,0,0,0,0,0,0,0,0,0
1682949880.20072484,115028970,1575,1575,1576,1576,0,0,0,0,0,0,0,0,0,0
1682949880.30068493,115128930,1576,1575,1577,1577,0,0,0,0,0,0,0,0,0,0
1682949880.40064478,115228890,1575,1575,1576,1576,0,0,0,0,0,0,0,0,0,0
1682949880.50060487,115328850,1575,1576,1576,1576,0,0,0,0,0,0,0,0,0,0
1682949880.60056472,115428810,1575,1576,1576,1576,0,0,0,0,0,0,0,0,0,0
1682949880.70052481,115528770,1576,1577,1577,1577,0,0,0,0,0,0,0,0,0,0
1682949880.80048490,115628730,1577,1577,1577,1576,0,0,0,0,0,0,0,0,0,0
1682949880.90044475,115728690,1577,1577,1577,1577,0,0,0,0,0,0,0,0,0,0
1682949881.00040483,115828650,1578,1578,1577,1577,0,0,0,0,0,0,0,0,0,0
1682949881.10036492,115928610,1578,1578,1577,1578,0,0,0,0,0,0,0,0,0,0
1682949881.20032477,116028570,1578,1577,1577,1577,0,0,0,0,0,0,0,0,0,0
1682949881.30028486,116128530,1577,1577,1577,1577,0,0,0,0,0,0,0,0,0,0
1682949881.40024495,116228490,1578,1578,1578,1578,0,0,0,0,0,0,0,0,0,0
1682949881.50020480,116328450,1578,1579,1578,1578,0,0,0,0,0,0,0,0,0,0
1682949881.60016489,116428410,1578,1578,1578,1578,0,0,0,0,0,0,0,0,0,0
1682949881.70012474,116528370,1579,1579,1579,1579,0,0,0,0,0,0,0,0,0,0
1682949881.80008483,116628330,1579,1579,1580,1579,0,0,0,0,0,0,0,0,0,0
1682949881.90004492,116728290,1579,1579,1579,1579,0,0,0,0,0,0,0,0,0,0
1682949882.00000477,116828250,1578,1578,1579,1579,0,0,0,0,0,0,0,0,0,0
1682949882.09996486,116928210,1579,1578,1578,1579,0,0,0,0,0,0,0,0,0,0
1682949882.19992495,117028170,1579,1580,1580,1580,0,0,0,0,0,0,0,0,0,0
1682949882.30071783,117128963,1580,1580,1580,1580,0,0,0,0,0,0,0,0,0,0
1682949882.40067792,117228923,1579,1579,1580,1579,0,0,0,0,0,0,0,0,0,0
1682949882.50063777,117328883,1581,1580,1580,1581,0,0,0,0,0,0,0,0,0,0
1682949882.60059786,117428843,1580,1581,1581,1581,0,0,0,0,0,0,0,0,0,0
1682949882.70055795,117528803,1580,1580,1580,1580,0,0,0,0,0,0,0,0,0,0
1682949882.80051780,117628763,1580,1580,1580,1580,0,0,0,0,0,0,0,0,0,0
1682949882.90047789,117728723,1580,1580,1579,1580,0,0,0,0,0,0,0,0,0,0
1682949883.00043774,117828683,1580,1579,1580,1579,0,0,0,0,0,0,0,0,0,0
1682949883.10039783,117928643,1579,1580,1580,1580,0,0,0,0,0,0,0,0,0,0
1682949883.20035791,118028603,1579,1579,1579,1579,0,0,0,0,0,0,0,0,0,0
1682949883.30031776,118128563,1581,1581,1581,1581,0,0,0,0,0,0,0,0,0,0
1682949883.40027785,118228523,1580,1580,1580,1580,0,0,0,0,0,0,0,0,0,0
1682949883.50023794,118328483,1580,1581,1581,1580,0,0,0,0,0,0,0,0,0,0
1682949883.60019779,118428443,1580,1581,1581,1580,0,0,0,0,0,0,0,0,0,0
1682949883.70015788,118528403,1581,1581,1581,1581,0,0,0,0,0,0,0,0,0,0
1682949883.80011773,118628363,1580,1580,1581,1580,0,0,0,0,0,0,0,0,0,0
1682949883.90007782,118728323,1581,1580,1580,1580,0,0,0,0,0,0,0,0,0,0
1682949884.00003791,118828283,1581,1581,1581,1581,0,0,0,0,0,0,0,0,0,0
1682949884.09999776,118928243,1580,1581,1580,1580,0,0,0,0,0,0,0,0,0,0
1682949884.19995785,119028203,1581,1580,1581,1581,0,0,0,0,0,0,0,0,0,0
1682949884.29991794,119128163,1581,1581,1581,1581,0,0,0,0,0,0,0,0,0,0
1682949884.40071082,119228956,1580,1581,1581,1580,0,0,0,0,0,0,0,0,0,0
1682949884.50067091,119328916,1581,1581,1581,1581,0,0,0,0,0,0,0,0,0,0
1682949884.60063076,119428876,1581,1582,1583,1580,0,0,0,0,0,0,0,0,0,0
1682949884.70059085,119528836,1580,1582,1588,1573,0,0,0,0,0,0,0,0,0,0
1682949884.80055094,119628796,1580,1582,1583,1573,0,0,0,0,0,0,0,0,0,0
1682949884.90051079,119728756,1579,1581,1574,1573,0,0,0,0,0,0,0,0,0,0
1682949885.00047088,119828716,1577,1580,1566,1571,0,0,0,0,0,0,0,0,0,0
1682949885.10043073,119928676,1577,1579,1559,1567,0,0,0,0,0,0,0,0,0,0
1682949885.20039082,120028636,1578,1579,1556,1562,0,0,0,0,0,0,0,0,0,0
1682949885.30035090,120128596,1579,1579,1555,1558,0,0,0,0,0,0,0,0,0,0
1682949885.40031075,120228556,1581,1579,1556,1555,0,0,0,0,0,0,0,0,0,0
1682949885.50027084,120328516,1580,1578,1556,1553,0,0,0,0,0,0,0,0,0,0
1682949885.60023093,120428476,1580,1580,1557,1554,0,0,0,0,0,0,0,0,0,0
1682949885.70019078,120528436,1578,1578,1556,1554,0,0,0,0,0,0,0,0,0,0
1682949885.80015087,120628396,1576,1577,1554,1553,0,0,0,0,0,0,0,0,0,0
1682949885.90011072,120728356,1575,1577,1553,1553,0,0,0,0,0,0,0,0,0,0
1682949886.00007081,120828316,1575,1577,1552,1553,0,0,0,0,0,0,0,0,0,0
1682949886.10003090,120928276,1576,1578,1551,1551,0,0,0,0,0,0,0,0,0,0
1682949886.19999075,121028236,1578,1580,1549,1549,0,0,0,0,0,0,0,0,0,0
1682949886.29995084,121128196,1580,1581,1547,1547,0,0,0,0,0,0,0,0,0,0
1682949886.39991093,121228156,1583,1584,1544,1544,0,0,0,0,0,0,0,0,0,0
1682949886.50070381,121328949,1586,1586,1542,1541,0,0,0,0,0,0,0,0,0,0
1682949886.60066390,121428909,1589,1589,1539,1539,0,0,0,0,0,0,0,0,0,0
1682949886.70062375,121528869,1592,1592,1537,1537,0,0,0,0,0,0,0,0,0,0
1682949886.80058384,121628829,1594,1595,1535,1536,0,0,0,0,0,0,0,0,0,0
1682949886.90054393,121728789,1595,1596,1535,1536,0,0,0,0,0,0,0,0,0,0
1682949887.00050378,121828749,1594,1595,1535,1537,0,0,0,0,0,0,0,0,0,0
1682949887.10046387,121928709,1594,1593,1537,1540,0,0,0,0,0,0,0,0,0,0
1682949887.20042396,122028669,1592,1590,1543,1545,0,0,0,0,0,0,0,0,0,0
1682949887.30038381,122128629,1587,1584,1550,1552,0,0,0,0,0,0,0,0,0,0
1682949887.40034389,122228589,1578,1575,1558,1561,0,0,0,0,0,0,0,0,0,0
1682949887.50030375,122328549,1569,1564,1569,1572,0,0,0,0,0,0,0,0,0,0
1682949887.60026383,122428509,1557,1553,1582,1583,0,0,0,0,0,0,0,0,0,0
1682949887.70022392,122528469,1547,1544,1595,1595,0,0,0,0,0,0,0,0,0,0
1682949887.80018377,122628429,1537,1536,1605,1604,0,0,0,0,0,0,0,0,0,0
1682949887.90014386,122728389,1531,1531,1612,1611,0,0,0,0,0,0,0,0,0,0
1682949888.00010395,122828349,1528,1530,1615,1614,0,0,0,0,0,0,0,0,0,0
1682949888.10006380,122928309,1530,1532,1616,1615,0,0,0,0,0,0,0,0,0,0
1682949888.20002389,123028269,1534,1536,1611,1611,0,0,0,0,0,0,0,0,0,0
1682949888.29998374,123128229,1542,1543,1606,1606,0,0,0,0,0,0,0,0,0,0
1682949888.39994383,123228189,1550,1551,1599,1599,0,0,0,0,0,0,0,0,0,0
1682949888.50073695,123328982,1559,1560,1591,1591,0,0,0,0,0,0,0,0,0,0
1682949888.60069680,123428942,1567,1568,1584,1583,0,0,0,0,0,0,0,0,0,0
1682949888.70065689,123528902,1575,1575,1577,1576,0,0,0,0,0,0,0,0,0,0
1682949888.80061674,123628862,1581,1580,1572,1571,0,0,0,0,0,0,0,0,0,0
1682949888.90057683,123728822,1586,1584,1568,1568,0,0,0,0,0,0,0,0,0,0
1682949889.00053692,123828782,1588,1586,1566,1567,0,0,0,0,0,0,0,0,0,0
1682949889.10049677,123928742,1587,1585,1564,1565,0,0,0,0,0,0,0,0,0,0
1682949889.20045686,124028702,1586,1586,1567,1567,0,0,0,0,0,0,0,0,0,0
1682949889.30041695,124128662,1584,1583,1569,1569,0,0,0,0,0,0,0,0,0,0
1682949889.40037680,124228622,1581,1581,1572,1572,0,0,0,0,0,0,0,0,0,0
1682949889.50033689,124328582,1578,1578,1575,1575,0,0,0,0,0,0,0,0,0,0
1682949889.60029674,124428542,1576,1576,1578,1578,0,0,0,0,0,0,0,0,0,0
1682949889.70025682,124528502,1574,1574,1581,1580,0,0,0,0,0,0,0,0,0,0
1682949889.80021691,124628462,1573,1573,1583,1583,0,0,0,0,0,0,0,0,0,0
1682949889.90017676,124728422,1572,1572,1584,1583,0,0,0,0,0,0,0,0,0,0
1682949890.00013685,124828382,1571,1572,1583,1583,0,0,0,0,0,0,0,0,0,0
1682949890.10009694,124928342,1572,1573,1584,1583,0,0,0,0,0,0,0,0,0,0
1682949890.20005679,125028302,1574,1575,1584,1583,0,0,0,0,0,0,0,0,0,0
1682949890.30001688,125128262,1575,1576,1582,1582,0,0,0,0,0,0,0,0,0,0
1682949890.39997673,125228222,1576,1576,1580,1580,0,0,0,0,0,0,0,0,0,0
1682949890.49993682,125328182,1579,1578,1579,1580,0,0,0,0,0,0,0,0,0,0
1682949890.60072994,125428975,1580,1579,1578,1579,0,0,0,0,0,0,0,0,0,0
1682949890.70068979,125528935,1580,1580,1577,1578,0,0,0,0,0,0,0,0,0,0
1682949890.80064988,125628895,1581,1581,1577,1577,0,0,0,0,0,0,0,0,0,0
1682949890.90060973,125728855,1582,1582,1577,1577,0,0,0,0,0,0,0,0,0,0
1682949891.00056982,125828815,1582,1582,1578,1578,0,0,0,0,0,0,0,0,0,0
1682949891.10052991,125928775,1581,1581,1577,1577,0,0,0,0,0,0,0,0,0,0
1682949891.20048976,126028735,1579,1579,1577,1577,0,0,0,0,0,0,0,0,0,0
1682949891.30044985,126128695,1580,1580,1579,1579,0,0,0,0,0,0,0,0,0,0
1682949891.40040994,126228655,1580,1580,1579,1579,0,0,0,0,0,0,0,0,0,0
1682949891.50036979,126328615,1580,1580,1580,1580,0,0,0,0,0,0,0,0,0,0
1682949891.60032988,126428575,1579,1579,1580,1580,0,0,0,0,0,0,0,0,0,0
1682949891.70028973,126528535,1579,1580,1581,1581,0,0,0,0,0,0,0,0,0,0
1682949891.80024981,126628495,1580,1579,1581,1581,0,0,0,0,0,0,0,0,0,0
1682949891.90020990,126728455,1581,1580,1582,1582,0,0,0,0,0,0,0,0,0,0
1682949892.00016975,126828415,1545,1553,1545,1556,0,0,0,0,0,0,0,0,0,0
1682949892.10012984,126928375,1580,1566,1581,1569,0,0,0,0,0,0,0,0,0,0
1682949892.20008993,127028335,1620,1583,1622,1583,0,0,0,0,0,0,0,0,0,0
1682949892.30004978,127128295,1646,1603,1647,1603,0,0,0,0,0,0,0,0,0,0
1682949892.40000987,127228255,1651,1618,1651,1615,0,0,0,0,0,0,0,0,0,0
1682949892.49996972,127328215,1637,1621,1634,1616,0,0,0,0,0,0,0,0,0,0
1682949892.59992981,127428175,1613,1620,1612,1608,0,0,0,0,0,0,0,0,0,0
1682949892.70072293,127528968,1594,1619,1590,1594,0,0,0,0,0,0,0,0,0,0
1682949892.80068278,127628928,1582,1611,1571,1587,0,0,0,0,0,0,0,0,0,0
1682949892.90064287,127728888,1576,1597,1561,1582,0,0,0,0,0,0,0,0,0,0
1682949893.00060272,127828848,1574,1584,1558,1576,0,0,0,0,0,0,0,0,0,0
1682949893.10056281,127928808,1576,1575,1559,1569,0,0,0,0,0,0,0,0,0,0
1682949893.20052290,128028768,1578,1570,1560,1561,0,0,0,0,0,0,0,0,0,0
1682949893.30048275,128128728,1579,1570,1560,1555,0,0,0,0,0,0,0,0,0,0
1682949893.40044284,128228688,1579,1573,1558,1551,0,0,0,0,0,0,0,0,0,0
1682949893.50040293,128328648,1578,1577,1556,1550,0,0,0,0,0,0,0,0,0,0
1682949893.60036278,128428608,1576,1579,1551,1549,0,0,0,0,0,0,0,0,0,0
1682949893.70032287,128528568,1576,1579,1548,1548,0,0,0,0,0,0,0,0,0,0
1682949893.80028296,128628528,1575,1580,1545,1547,0,0,0,0,0,0,0,0,0,0
1682949893.90024281,128728488,1575,1579,1542,1544,0,0,0,0,0,0,0,0,0,0
1682949894.00020289,128828448,1577,1579,1541,1543,0,0,0,0,0,0,0,0,0,0
1682949894.10016274,128928408,1578,1579,1539,1540,0,0,0,0,0,0,0,0,0,0
1682949894.20012283,129028368,1581,1580,1539,1539,0,0,0,0,0,0,0,0,0,0
1682949894.30008292,129128328,1582,1582,1538,1538,0,0,0,0,0,0,0,0,0,0
1682949894.40004277,129228288,1585,1584,1538,1538,0,0,0,0,0,0,0,0,0,0
1682949894.50000286,129328248,1585,1585,1538,1537,0,0,0,0,0,0,0,0,0,0
1682949894.59996295,129428208,1587,1587,1539,1539,0,0,0,0,0,0,0,0,0,0
1682949894.69992280,129528168,1587,1586,1539,1541,0,0,0,0,0,0,0,0,0,0
1682949894.80071592,129628961,1586,1587,1541,1544,0,0,0,0,0,0,0,0,0,0
1682949894.90067577,129728921,1586,1585,1545,1547,0,0,0,0,0,0,0,0,0,0
1682949895.00063586,129828881,1583,1582,1549,1551,0,0,0,0,0,0,0,0,0,0
1682949895.10059595,129928841,1579,1576,1555,1557,0,0,0,0,0,0,0,0,0,0
1682949895.20055580,130028801,1574,1570,1563,1566,0,0,0,0,0,0,0,0,0,0
1682949895.30051589,130128761,1567,1563,1573,1575,0,0,0,0,0,0,0,0,0,0
1682949895.40047574,130228721,1558,1555,1582,1583,0,0,0,0,0,0,0,0,0,0
1682949895.50043583,130328681,1549,1547,1591,1591,0,0,0,0,0,0,0,0,0,0
1682949895.60039592,130428641,1544,1543,1599,1599,0,0,0,0,0,0,0,0,0,0
1682949895.70035577,130528601,1539,1540,1605,1603,0,0,0,0,0,0,0,0,0,0
1682949895.80031586,130628561,1537,1539,1607,1606,0,0,0,0,0,0,0,0,0,0
1682949895.90027595,130728521,1538,1541,1608,1606,0,0,0,0,0,0,0,0,0,0
1682949896.00023580,130828481,1542,1544,1605,1604,0,0,0,0,0,0,0,0,0,0
1682949896.10019588,130928441,1546,1548,1599,1600,0,0,0,0,0,0,0,0,0,0
1682949896.20015574,131028401,1554,1555,1595,1595,0,0,0,0,0,0,0,0,0,0
1682949896.30011582,131128361,1561,1560,1590,1588,0,0,0,0,0,0,0,0,0,0
1682949896.40007591,131228321,1566,1566,1583,1582,0,0,0,0,0,0,0,0,0,0
1682949896.50003576,131328281,1573,1572,1578,1578,0,0,0,0,0,0,0,0,0,0
1682949896.59999585,131428241,1577,1576,1573,1573,0,0,0,0,0,0,0,0,0,0
1682949896.69995594,131528201,1581,1580,1571,1571,0,0,0,0,0,0,0,0,0,0
1682949896.79991579,131628161,1582,1581,1567,1568,0,0,0,0,0,0,0,0,0,0
1682949896.90070891,131728954,1584,1583,1567,1568,0,0,0,0,0,0,0,0,0,0
1682949897.00066876,131828914,1583,1582,1567,1568,0,0,0,0,0,0,0,0,0,0
1682949897.10062885,131928874,1582,1582,1569,1569,0,0,0,0,0,0,0,0,0,0
1682949897.20058894,132028834,1581,1581,1571,1571,0,0,0,0,0,0,0,0,0,0
1682949897.30054879,132128794,1580,1580,1574,1574,0,0,0,0,0,0,0,0,0,0
1682949897.40050888,132228754,1578,1578,1577,1577,0,0,0,0,0,0,0,0,0,0
1682949897.50046873,132328714,1576,1577,1579,1579,0,0,0,0,0,0,0,0,0,0
1682949897.60042882,132428674,1576,1576,1581,1581,0,0,0,0,0,0,0,0,0,0
1682949897.70038891,132528634,1575,1576,1583,1582,0,0,0,0,0,0,0,0,0,0
1682949897.80034876,132628594,1574,1575,1584,1583,0,0,0,0,0,0,0,0,0,0
1682949897.90030885,132728554,1575,1576,1584,1584,0,0,0,0,0,0,0,0,0,0
1682949898.00026894,132828514,1575,1575,1583,1583,0,0,0,0,0,0,0,0,0,0
1682949898.10022879,132928474,1576,1576,1582,1583,0,0,0,0,0,0,0,0,0,0
1682949898.20018888,133028434,1576,1576,1581,1581,0,0,0,0,0,0,0,0,0,0
1682949898.30014873,133128394,1578,1577,1580,1580,0,0,0,0,0,0,0,0,0,0
1682949898.40010881,133228354,1579,1579,1579,1579,0,0,0,0,0,0,0,0,0,0
1682949898.50006890,133328314,1579,1579,1578,1578,0,0,0,0,0,0,0,0,0,0
1682949898.60002875,133428274,1581,1580,1578,1578,0,0,0,0,0,0,0,0,0,0
1682949898.69998884,133528234,1581,1581,1578,1578,0,0,0,0,0,0,0,0,0,0
1682949898.79994893,133628194,1581,1581,1578,1578,0,0,0,0,0,0,0,0,0,0
1682949898.89990878,133728154,1582,1582,1578,1578,0,0,0,0,0,0,0,0,0,0
1682949899.00070190,133828947,1582,1582,1579,1579,0,0,0,0,0,0,0,0,0,0
1682949899.10066175,133928907,1581,1581,1579,1579,0,0,0,0,0,0,0,0,0,0
1682949899.20062184,134028867,1582,1581,1580,1580,0,0,0,0,0,0,0,0,0,0
1682949899.30058193,134128827,1582,1581,1580,1581,0,0,0,0,0,0,0,0,0,0
1682949899.40054178,134228787,1581,1581,1581,1581,0,0,0,0,0,0,0,0,0,0
1682949899.50050187,134328747,1581,1581,1581,1581,0,0,0,0,0,0,0,0,0,0
1682949899.60046172,134428707,1580,1581,1582,1581,0,0,0,0,0,0,0,0,0,0
1682949899.70042181,134528667,1580,1580,1582,1581,0,0,0,0,0,0,0,0,0,0
1682949899.80038190,134628627,1580,1581,1582,1582,0,0,0,0,0,0,0,0,0,0
1682949899.90034175,134728587,1580,1580,1581,1581,0,0,0,0,0,0,0,0,0,0
1682949900.00030184,134828547,1581,1580,1582,1582,0,0,0,0,0,0,0,0,0,0
1682949900.10026193,134928507,1581,1580,1581,1581,0,0,0,0,0,0,0,0,0,0
1682949900.20022178,135028467,1581,1581,1581,1581,0,0,0,0,0,0,0,0,0,0
1682949900.30018187,135128427,1582,1582,1582,1582,0,0,0,0,0,0,0,0,0,0
1682949900.40014195,135228387,1581,1582,1581,1582,0,0,0,0,0,0,0,0,0,0
1682949900.50010180,135328347,1582,1582,1582,1582,0,0,0,0,0,0,0,0,0,0
1682949900.60006189,135428307,1582,1582,1581,1582,0,0,0,0,0,0,0,0,0,0
1682949900.70002174,135528267,1582,1584,1587,1577,0,0,0,0,0,0,0,0,0,0
1682949900.79998183,135628227,1582,1584,1587,1573,0,0,0,0,0,0,0,0,0,0
1682949900.89994192,135728187,1580,1582,1580,1573,0,0,0,0,0,0,0,0,0,0
1682949901.00073481,135828980,1579,1581,1572,1573,0,0,0,0,0,0,0,0,0,0
1682949901.10069489,135928940,1577,1579,1564,1569,0,0,0,0,0,0,0,0,0,0
1682949901.20065475,136028900,1577,1579,1558,1565,0,0,0,0,0,0,0,0,0,0
1682949901.30061483,136128860,1578,1577,1555,1561,0,0,0,0,0,0,0,0,0,0
1682949901.40057492,136228820,1580,1578,1555,1558,0,0,0,0,0,0,0,0,0,0
1682949901.50053477,136328780,1579,1578,1555,1554,0,0,0,0,0,0,0,0,0,0
1682949901.60049486,136428740,1579,1578,1555,1553,0,0,0,0,0,0,0,0,0,0
1682949901.70045495,136528700,1578,1579,1556,1553,0,0,0,0,0,0,0,0,0,0
1682949901.80041480,136628660,1577,1578,1555,1553,0,0,0,0,0,0,0,0,0,0
1682949901.90037489,136728620,1577,1579,1556,1554,0,0,0,0,0,0,0,0,0,0
1682949902.00033474,136828580,1576,1577,1554,1553,0,0,0,0,0,0,0,0,0,0
1682949902.10029483,136928540,1575,1576,1552,1552,0,0,0,0,0,0,0,0,0,0
1682949902.20025492,137028500,1576,1578,1552,1552,0,0,0,0,0,0,0,0,0,0
1682949902.30021477,137128460,1578,1579,1550,1551,0,0,0,0,0,0,0,0,0,0
1682949902.40017486,137228420,1579,1581,1548,1548,0,0,0,0,0,0,0,0,0,0
1682949902.50013494,137328380,1582,1583,1546,1546,0,0,0,0,0,0,0,0,0,0
1682949902.60009480,137428340,1584,1585,1544,1543,0,0,0,0,0,0,0,0,0,0
1682949902.70005488,137528300,1587,1587,1542,1542,0,0,0,0,0,0,0,0,0,0
1682949902.80001473,137628260,1590,1590,1540,1540,0,0,0,0,0,0,0,0,0,0
1682949902.89997482,137728220,1592,1592,1539,1540,0,0,0,0,0,0,0,0,0,0
1682949902.99993491,137828180,1593,1593,1538,1539,0,0,0,0,0,0,0,0,0,0
1682949903.10072780,137928973,1593,1593,1538,1540,0,0,0,0,0,0,0,0,0,0
1682949903.20068789,138028933,1593,1592,1540,1542,0,0,0,0,0,0,0,0,0,0
1682949903.30064774,138128893,1591,1589,1544,1547,0,0,0,0,0,0,0,0,0,0
1682949903.40060782,138228853,1587,1584,1550,1554,0,0,0,0,0,0,0,0,0,0
1682949903.50056791,138328813,1580,1576,1559,1562,0,0,0,0,0,0,0,0,0,0
1682949903.60052776,138428773,1571,1567,1568,1571,0,0,0,0,0,0,0,0,0,0
1682949903.70048785,138528733,1561,1558,1581,1582,0,0,0,0,0,0,0,0,0,0
1682949903.80044794,138628693,1552,1550,1592,1592,0,0,0,0,0,0,0,0,0,0
1682949903.90040779,138728653,1544,1543,1602,1601,0,0,0,0,0,0,0,0,0,0
1682949904.00036788,138828613,1537,1539,1609,1608,0,0,0,0,0,0,0,0,0,0
1682949904.10032773,138928573,1535,1536,1613,1611,0,0,0,0,0,0,0,0,0,0
1682949904.20028782,139028533,1535,1538,1614,1612,0,0,0,0,0,0,0,0,0,0
1682949904.30024791,139128493,1538,1541,1612,1610,0,0,0,0,0,0,0,0,0,0
1682949904.40020776,139228453,1544,1546,1608,1606,0,0,0,0,0,0,0,0,0,0
1682949904.50016785,139328413,1550,1551,1601,1600,0,0,0,0,0,0,0,0,0,0
1682949904.60012794,139428373,1558,1558,1594,1594,0,0,0,0,0,0,0,0,0,0
1682949904.70008779,139528333,1566,1565,1588,1587,0,0,0,0,0,0,0,0,0,0
1682949904.80004787,139628293,1572,1571,1580,1580,0,0,0,0,0,0,0,0,0,0
1682949904.90000772,139728253,1578,1576,1574,1575,0,0,0,0,0,0,0,0,0,0
1682949904.99996781,139828213,1582,1580,1569,1570,0,0,0,0,0,0,0,0,0,0
1682949905.09992790,139928173,1584,1581,1566,1567,0,0,0,0,0,0,0,0,0,0
1682949905.20072079,140028966,1586,1585,1566,1567,0,0,0,0,0,0,0,0,0,0
1682949905.30068088,140128926,1586,1585,1567,1567,0,0,0,0,0,0,0,0,0,0
1682949905.40064073,140228886,1584,1584,1568,1568,0,0,0,0,0,0,0,0,0,0
1682949905.50060081,140328846,1583,1583,1571,1570,0,0,0,0,0,0,0,0,0,0
1682949905.60056090,140428806,1581,1580,1573,1573,0,0,0,0,0,0,0,0,0,0
1682949905.70052075,140528766,1578,1578,1576,1576,0,0,0,0,0,0,0,0,0,0
1682949905.80048084,140628726,1576,1577,1579,1579,0,0,0,0,0,0,0,0,0,0
1682949905.90044093,140728686,1574,1575,1581,1581,0,0,0,0,0,0,0,0,0,0
1682949906.00040078,140828646,1573,1574,1583,1582,0,0,0,0,0,0,0,0,0,0
1682949906.10036087,140928606,1573,1574,1584,1584,0,0,0,0,0,0,0,0,0,0
1682949906.20032072,141028566,1574,1574,1585,1585,0,0,0,0,0,0,0,0,0,0
1682949906.30028081,141128526,1573,1574,1583,1583,0,0,0,0,0,0,0,0,0,0
1682949906.40024090,141228486,1574,1575,1582,1583,0,0,0,0,0,0,0,0,0,0
1682949906.50020075,141328446,1575,1576,1581,1582,0,0,0,0,0,0,0,0,0,0
1682949906.60016084,141428406,1576,1577,1580,1581,0,0,0,0,0,0,0,0,0,0
1682949906.70012093,141528366,1578,1578,1579,1579,0,0,0,0,0,0,0,0,0,0
1682949906.80008078,141628326,1580,1580,1579,1579,0,0,0,0,0,0,0,0,0,0
1682949906.90004086,141728286,1580,1580,1578,1577,0,0,0,0,0,0,0,0,0,0
1682949907.00000095,141828246,1581,1580,1577,1577,0,0,0,0,0,0,0,0,0,0
1682949907.09996080,141928206,1581,1581,1577,1577,0,0,0,0,0,0,0,0,0,0
1682949907.19992089,142028166,1581,1581,1577,1577,0,0,0,0,0,0,0,0,0,0
1682949907.30071378,142128959,1581,1581,1577,1578,0,0,0,0,0,0,0,0,0,0
1682949907.40067387,142228919,1581,1581,1578,1578,0,0,0,0,0,0,0,0,0,0
1682949907.50063396,142328879,1581,1581,1579,1579,0,0,0,0,0,0,0,0,0,0
1682949907.60059381,142428839,1580,1580,1578,1578,0,0,0,0,0,0,0,0,0,0
1682949907.70055389,142528799,1580,1580,1579,1580,0,0,0,0,0,0,0,0,0,0
1682949907.80051374,142628759,1580,1580,1580,1581,0,0,0,0,0,0,0,0,0,0
1682949907.90047383,142728719,1580,1580,1581,1581,0,0,0,0,0,0,0,0,0,0
1682949908.00043392,142828679,1579,1580,1581,1581,0,0,0,0,0,0,0,0,0,0
1682949908.10039377,142928639,1579,1579,1581,1581,0,0,0,0,0,0,0,0,0,0
1682949908.20035386,143028599,1579,1579,1581,1580,0,0,0,0,0,0,0,0,0,0
1682949908.30031395,143128559,1580,1580,1582,1581,0,0,0,0,0,0,0,0,0,0
1682949908.40027380,143228519,1580,1580,1581,1581,0,0,0,0,0,0,0,0,0,0
1682949908.50023389,143328479,1581,1580,1581,1581,0,0,0,0,0,0,0,0,0,0
1682949908.60019374,143428439,1580,1581,1581,1581,0,0,0,0,0,0,0,0,0,0
1682949908.70015383,143528399,1581,1581,1587,1573,0,0,0,0,0,0,0,0,0,0
1682949908.80011392,143628359,1581,1581,1585,1574,0,0,0,0,0,0,0,0,0,0
1682949908.90007377,143728319,1579,1578,1579,1575,0,0,0,0,0,0,0,0,0,0
1682949909.00003386,143828279,1575,1575,1572,1576,0,0,0,0,0,0,0,0,0,0
1682949909.09999394,143928239,1572,1571,1567,1574,0,0,0,0,0,0,0,0,0,0
1682949909.19995379,144028199,1569,1569,1565,1572,0,0,0,0,0,0,0,0,0,0
1682949909.29991388,144128159,1568,1568,1565,1569,0,0,0,0,0,0,0,0,0,0
1682949909.40070677,144228952,1566,1567,1565,1566,0,0,0,0,0,0,0,0,0,0
1682949909.50066686,144328912,1566,1566,1566,1565,0,0,0,0,0,0,0,0,0,0
1682949909.60062695,144428872,1566,1566,1567,1564,0,0,0,0,0,0,0,0,0,0
1682949909.70058680,144528832,1565,1564,1566,1563,0,0,0,0,0,0,0,0,0,0
1682949909.80054688,144628792,1565,1565,1567,1564,0,0,0,0,0,0,0,0,0,0
1682949909.90050673,144728752,1563,1564,1565,1564,0,0,0,0,0,0,0,0,0,0
1682949910.00046682,144828712,1562,1562,1563,1563,0,0,0,0,0,0,0,0,0,0
1682949910.10042691,144928672,1562,1563,1563,1564,0,0,0,0,0,0,0,0,0,0
1682949910.20038676,145028632,1562,1562,1562,1563,0,0,0,0,0,0,0,0,0,0
1682949910.30034685,145128592,1562,1562,1562,1563,0,0,0,0,0,0,0,0,0,0
1682949910.40030694,145228552,1561,1560,1561,1561,0,0,0,0,0,0,0,0,0,0
1682949910.50026679,145328512,1561,1560,1561,1561,0,0,0,0,0,0,0,0,0,0
1682949910.60022688,145428472,1560,1560,1561,1560,0,0,0,0,0,0,0,0,0,0
1682949910.70018673,145528432,1559,1559,1559,1559,0,0,0,0,0,0,0,0,0,0
1682949910.80014682,145628392,1559,1559,1559,1558,0,0,0,0,0,0,0,0,0,0
1682949910.90010691,145728352,1559,1559,1559,1558,0,0,0,0,0,0,0,0,0,0
1682949911.00006676,145828312,1558,1558,1558,1558,0,0,0,0,0,0,0,0,0,0
1682949911.10002685,145928272,1559,1558,1559,1558,0,0,0,0,0,0,0,0,0,0
1682949911.19998693,146028232,1558,1558,1559,1557,0,0,0,0,0,0,0,0,0,0
1682949911.29994678,146128192,1558,1558,1559,1556,0,0,0,0,0,0,0,0,0,0
1682949911.40073991,146228985,1558,1558,1560,1556,0,0,0,0,0,0,0,0,0,0
1682949911.50069976,146328945,1559,1558,1558,1559,0,0,0,0,0,0,0,0,0,0
1682949911.60065985,146428905,1559,1560,1557,1562,0,0,0,0,0,0,0,0,0,0
1682949911.70061994,146528865,1561,1561,1557,1565,0,0,0,0,0,0,0,0,0,0
1682949911.80057979,146628825,1562,1562,1559,1564,0,0,0,0,0,0,0,0,0,0
1682949911.90053988,146728785,1563,1562,1560,1564,0,0,0,0,0,0,0,0,0,0
1682949912.00049973,146828745,1562,1562,1562,1562,0,0,0,0,0,0,0,0,0,0
1682949912.10045981,146928705,1562,1561,1562,1560,0,0,0,0,0,0,0,0,0,0
1682949912.20041990,147028665,1561,1561,1563,1559,0,0,0,0,0,0,0,0,0,0
1682949912.30037975,147128625,1561,1562,1561,1562,0,0,0,0,0,0,0,0,0,0
1682949912.40033984,147228585,1559,1559,1557,1561,0,0,0,0,0,0,0,0,0,0
1682949912.50029993,147328545,1555,1554,1552,1557,0,0,0,0,0,0,0,0,0,0
1682949912.60025978,147428505,1550,1549,1549,1551,0,0,0,0,0,0,0,0,0,0
1682949912.70021987,147528465,1544,1543,1544,1544,0,0,0,0,0,0,0,0,0,0
1682949912.80017972,147628425,1537,1537,1538,1537,0,0,0,0,0,0,0,0,0,0
1682949912.90013981,147728385,1529,1530,1531,1529,0,0,0,0,0,0,0,0,0,0
1682949913.00009990,147828345,1522,1523,1523,1522,0,0,0,0,0,0,0,0,0,0
1682949913.10005975,147928305,1520,1520,1520,1520,0,0,0,0,0,0,0,0,0,0
1682949913.20001984,148028265,1519,1520,1519,1520,0,0,0,0,0,0,0,0,0,0
1682949913.29997993,148128225,1520,1522,1521,1522,0,0,0,0,0,0,0,0,0,0
1682949913.39993978,148228185,1523,1524,1523,1524,0,0,0,0,0,0,0,0,0,0
1682949913.50073290,148328978,1527,1527,1527,1528,0,0,0,0,0,0,0,0,0,0
1682949913.60069275,148428938,1531,1531,1531,1531,0,0,0,0,0,0,0,0,0,0
1682949913.70065284,148528898,1535,1535,1535,1535,0,0,0,0,0,0,0,0,0,0
1682949913.80061293,148628858,1538,1537,1538,1538,0,0,0,0,0,0,0,0,0,0
1682949913.90057278,148728818,1541,1540,1541,1540,0,0,0,0,0,0,0,0,0,0
1682949914.00053287,148828778,1543,1543,1544,1542,0,0,0,0,0,0,0,0,0,0
1682949914.10049295,148928738,1545,1544,1545,1544,0,0,0,0,0,0,0,0,0,0
1682949914.20045280,149028698,1545,1545,1545,1545,0,0,0,0,0,0,0,0,0,0
1682949914.30041289,149128658,1546,1546,1546,1546,0,0,0,0,0,0,0,0,0,0
1682949914.40037274,149228618,1546,1546,1546,1546,0,0,0,0,0,0,0,0,0,0
1682949914.50033283,149328578,1546,1546,1546,1546,0,0,0,0,0,0,0,0,0,0
1682949914.60029292,149428538,1546,1546,1546,1546,0,0,0,0,0,0,0,0,0,0
1682949914.70025277,149528498,1547,1546,1546,1546,0,0,0,0,0,0,0,0,0,0
1682949914.80021286,149628458,1546,1545,1546,1545,0,0,0,0,0,0,0,0,0,0
1682949914.90017295,149728418,1545,1545,1545,1545,0,0,0,0,0,0,0,0,0,0
1682949915.00013280,149828378,1546,1546,1546,1546,0,0,0,0,0,0,0,0,0,0
1682949915.10009289,149928338,1546,1546,1546,1546,0,0,0,0,0,0,0,0,0,0
1682949915.20005274,150028298,1545,1545,1545,1545,0,0,0,0,0,0,0,0,0,0
1682949915.30001283,150128258,1545,1545,1545,1545,0,0,0,0,0,0,0,0,0,0
1682949915.39997292,150228218,1544,1545,1544,1544,0,0,0,0,0,0,0,0,0,0
1682949915.49993277,150328178,1544,1544,1544,1544,0,0,0,0,0,0,0,0,0,0
1682949915.60072589,150428971,1543,1543,1544,1543,0,0,0,0,0,0,0,0,0,0
1682949915.70068574,150528931,1544,1544,1544,1544,0,0,0,0,0,0,0,0,0,0
1682949915.80064583,150628891,1544,1543,1543,1544,0,0,0,0,0,0,0,0,0,0
1682949915.90060592,150728851,1544,1544,1544,1544,0,0,0,0,0,0,0,0,0,0
1682949916.00056577,150828811,1544,1544,1544,1544,0,0,0,0,0,0,0,0,0,0
1682949916.10052586,150928771,1545,1545,1545,1545,0,0,0,0,0,0,0,0,0,0
1682949916.20048594,151028731,1544,1544,1544,1544,0,0,0,0,0,0,0,0,0,0
1682949916.30044580,151128691,1544,1544,1544,1544,0,0,0,0,0,0,0,0,0,0
1682949916.40040588,151228651,1543,1544,1544,1544,0,0,0,0,0,0,0,0,0,0
1682949916.50036573,151328611,1544,1544,1543,1544,0,0,0,0,0,0,0,0,0,0
1682949916.60032582,151428571,1543,1543,1543,1543,0,0,0,0,0,0,0,0,0,0
1682949916.70028591,151528531,1545,1543,1544,1544,0,0,0,0,0,0,0,0,0,0
1682949916.80024576,151628491,1544,1544,1544,1544,0,0,0,0,0,0,0,0,0,0
1682949916.90020585,151728451,1543,1543,1543,1543,0,0,0,0,0,0,0,0,0,0
1682949917.00016594,151828411,1543,1544,1544,1544,0,0,0,0,0,0,0,0,0,0
1682949917.10012579,151928371,1544,1544,1544,1544,0,0,0,0,0,0,0,0,0,0
1682949917.20008588,152028331,1543,1543,1543,1543,0,0,0,0,0,0,0,0,0,0
1682949917.30004573,152128291,1544,1543,1543,1543,0,0,0,0,0,0,0,0,0,0
1682949917.40000582,152228251,1543,1543,1543,1543,0,0,0,0,0,0,0,0,0,0
1682949917.49996591,152328211,1544,1544,1544,1544,0,0,0,0,0,0,0,0,0,0
1682949917.59992576,152428171,1544,1544,1544,1544,0,0,0,0,0,0,0,0,0,0
1682949917.70071888,152528964,1545,1544,1544,1545,0,0,0,0,0,0,0,0,0,0
1682949917.80067873,152628924,1544,1543,1544,1544,0,0,0,0,0,0,0,0,0,0
1682949917.90063882,152728884,1545,1544,1544,1545,0,0,0,0,0,0,0,0,0,0
1682949918.00059891,152828844,1544,1544,1544,1543,0,0,0,0,0,0,0,0,0,0
1682949918.10055876,152928804,1545,1545,1544,1545,0,0,0,0,0,0,0,0,0,0
1682949918.20051885,153028764,1544,1545,1545,1544,0,0,0,0,0,0,0,0,0,0
1682949918.30047894,153128724,1545,1544,1545,1545,0,0,0,0,0,0,0,0,0,0
1682949918.40043879,153228684,1545,1546,1545,1545,0,0,0,0,0,0,0,0,0,0
1682949918.50039887,153328644,1545,1545,1545,1545,0,0,0,0,0,0,0,0,0,0
1682949918.60035872,153428604,1545,1545,1545,1545,0,0,0,0,0,0,0,0,0,0
1682949918.70031881,153528564,1545,1545,1545,1545,0,0,0,0,0,0,0,0,0,0
1682949918.80027890,153628524,1545,1545,1545,1545,0,0,0,0,0,0,0,0,0,0
1682949918.90023875,153728484,1545,1545,1544,1545,0,0,0,0,0,0,0,0,0,0
1682949919.00019884,153828444,1544,1545,1545,1545,0,0,0,0,0,0,0,0,0,0
1682949919.10015893,153928404,1544,1544,1544,1545,0,0,0,0,0,0,0,0,0,0
1682949919.20011878,154028364,1544,1544,1544,1544,0,0,0,0,0,0,0,0,0,0
1682949919.30007887,154128324,1544,1543,1544,1544,0,0,0,0,0,0,0,0,0,0
1682949919.40003872,154228284,1543,1543,1544,1543,0,0,0,0,0,0,0,0,0,0
1682949919.49999881,154328244,1545,1545,1545,1545,0,0,0,0,0,0,0,0,0,0
1682949919.59995890,154428204,1543,1544,1544,1543,0,0,0,0,0,0,0,0,0,0
1682949919.69991875,154528164,1544,1544,1543,1544,0,0,0,0,0,0,0,0,0,0
1682949919.80071187,154628957,1544,1544,1544,1544,0,0,0,0,0,0,0,0,0,0
1682949919.90067172,154728917,1544,1544,1544,1544,0,0,0,0,0,0,0,0,0,0
1682949920.00063181,154828877,1544,1544,1544,1544,0,0,0,0,0,0,0,0,0,0
1682949920.10059190,154928837,1544,1543,1543,1543,0,0,0,0,0,0,0,0,0,0
1682949920.20055175,155028797,1544,1545,1545,1544,0,0,0,0,0,0,0,0,0,0
1682949920.30051184,155128757,1545,1545,1544,1545,0,0,0,0,0,0,0,0,0,0
1682949920.40047193,155228717,1544,1544,1544,1544,0,0,0,0,0,0,0,0,0,0
1682949920.50043178,155328677,1544,1544,1544,1544,0,0,0,0,0,0,0,0,0,0
1682949920.60039186,155428637,1544,1544,1545,1544,0,0,0,0,0,0,0,0,0,0
1682949920.70035195,155528597,1545,1544,1545,1545,0,0,0,0,0,0,0,0,0,0
1682949920.80031180,155628557,1544,1544,1544,1544,0,0,0,0,0,0,0,0,0,0
1682949920.90027189,155728517,1544,1543,1543,1544,0,0,0,0,0,0,0,0,0,0
1682949921.00023174,155828477,1543,1544,1544,1543,0,0,0,0,0,0,0,0,0,0
1682949921.10019183,155928437,1545,1544,1544,1545,0,0,0,0,0,0,0,0,0,0
1682949921.20015192,156028397,1544,1545,1544,1544,0,0,0,0,0,0,0,0,0,0
1682949921.30011177,156128357,1545,1545,1545,1545,0,0,0,0,0,0,0,0,0,0
1682949921.40007186,156228317,1544,1544,1544,1544,0,0,0,0,0,0,0,0,0,0
1682949921.50003195,156328277,1543,1544,1544,1544,0,0,0,0,0,0,0,0,0,0
1682949921.59999180,156428237,1544,1544,1544,1544,0,0,0,0,0,0,0,0,0,0
1682949921.69995189,156528197,1544,1544,1544,1544,0,0,0,0,0,0,0,0,0,0
1682949921.79991174,156628157,1545,1545,1545,1545,0,0,0,0,0,0,0,0,0,0
1682949921.90070486,156728950,1544,1543,1543,1544,0,0,0,0,0,0,0,0,0,0
1682949922.00066495,156828910,1544,1544,1544,1544,0,0,0,0,0,0,0,0,0,0
1682949922.10062480,156928870,1545,1544,1544,1544,0,0,0,0,0,0,0,0,0,0
1682949922.20058489,157028830,1545,1545,1545,1544,0,0,0,0,0,0,0,0,0,0
1682949922.30054474,157128790,1545,1545,1545,1545,0,0,0,0,0,0,0,0,0,0
1682949922.40050483,157228750,1544,1545,1544,1544,0,0,0,0,0,0,0,0,0,0
1682949922.50046492,157328710,1545,1545,1545,1545,0,0,0,0,0,0,0,0,0,0
1682949922.60042477,157428670,1545,1546,1546,1545,0,0,0,0,0,0,0,0,0,0
1682949922.70038486,157528630,1545,1545,1545,1545,0,0,0,0,0,0,0,0,0,0
1682949922.80034494,157628590,1492,1484,1493,1484,0,0,0,0,0,0,0,0,0,0
1682949922.90030479,157728550,1354,1312,1354,1313,0,0,0,0,0,0,0,0,0,0
1682949923.00026488,157828510,1296,1236,1297,1236,0,0,0,0,0,0,0,0,0,0
1682949923.10022473,157928470,1280,1212,1280,1213,0,0,0,0,0,0,0,0,0,0
1682949923.20018482,158028430,1262,1188,1264,1187,0,0,0,0,0,0,0,0,0,0
1682949923.30014491,158128390,1237,1150,1238,1150,0,0,0,0,0,0,0,0,0,0
1682949923.40010476,158228350,1183,1151,1185,1150,0,0,0,0,0,0,0,0,0,0
1682949923.50006485,158328310,1184,1150,1185,1150,0,0,0,0,0,0,0,0,0,0
1682949923.60002494,158428270,1183,1151,1185,1150,0,0,0,0,0,0,0,0,0,0
1682949923.69998479,158528230,1184,1150,1159,1184,0,0,0,0,0,0,0,0,0,0
1682949923.79994488,158628190,1184,1150,1167,1174,0,0,0,0,0,0,0,0,0,0
1682949923.90073776,158728983,1184,1150,1171,1169,0,0,0,0,0,0,0,0,0,0
1682949924.00069785,158828943,1184,1150,1172,1168,0,0,0,0,0,0,0,0,0,0
1682949924.10065794,158928903,1184,1150,1171,1169,0,0,0,0,0,0,0,0,0,0
1682949924.20061779,159028863,1184,1150,1170,1170,0,0,0,0,0,0,0,0,0,0
1682949924.30057788,159128823,1183,1150,1169,1172,0,0,0,0,0,0,0,0,0,0
1682949924.40053773,159228783,1183,1150,1168,1173,0,0,0,0,0,0,0,0,0,0
1682949924.50049782,159328743,1183,1150,1179,1158,0,0,0,0,0,0,0,0,0,0
1682949924.60045791,159428703,1183,1150,1178,1160,0,0,0,0,0,0,0,0,0,0
1682949924.70041776,159528663,1184,1150,1177,1161,0,0,0,0,0,0,0,0,0,0
1682949924.80037785,159628623,1183,1150,1176,1162,0,0,0,0,0,0,0,0,0,0
1682949924.90033793,159728583,1183,1150,1176,1163,0,0,0,0,0,0,0,0,0,0
1682949925.00029778,159828543,1000,1000,1000,1000,0,0,0,0,0,0,0,0,0,0
1682949925.10025787,159928503,1000,1000,1000,1000,0,0,0,0,0,0,0,0,0,0
1682949925.20021772,160028463,1000,1000,1000,1000,0,0,0,0,0,0,0,0,0,0
1682949925.30017781,160128423,1000,1000,1000,1000,0,0,0,0,0,0,0,0,0,0
1682949925.40013790,160228383,1000,1000,1000,1000,0,0,0,0,0,0,0,0,0,0
1682949925.50009775,160328343,1000,1000,1000,1000,0,0,0,0,0,0,0,0,0,0
1682949925.60005784,160428303,1000,1000,1000,1000,0,0,0,0,0,0,0,0,0,0
1682949925.70001793,160528263,1000,1000,1000,1000,0,0,0,0,0,0,0,0,0,0
1682949925.79997778,160628223,1000,1000,1000,1000,0,0,0,0,0,0,0,0,0,0
1682949925.89993787,160728183,1000,1000,1000,1000,0,0,0,0,0,0,0,0,0,0
1682949926.00073075,160828976,1000,1000,1000,1000,0,0,0,0,0,0,0,0,0,0
1682949926.10069084,160928936,1000,1000,1000,1000,0,0,0,0,0,0,0,0,0,0
1682949926.20065093,161028896,1000,1000,1000,1000,0,0,0,0,0,0,0,0,0,0
1682949926.30061078,161128856,1000,1000,1000,1000,0,0,0,0,0,0,0,0,0,0
1682949926.40057087,161228816,1000,1000,1000,1000,0,0,0,0,0,0,0,0,0,0
1682949926.50053072,161328776,1000,1000,1000,1000,0,0,0,0,0,0,0,0,0,0
1682949926.60049081,161428736,1000,1000,1000,1000,0,0,0,0,0,0,0,0,0,0
1682949926.70045090,161528696,1000,1000,1000,1000,0,0,0,0,0,0,0,0,0,0
1682949926.80041075,161628656,1000,1000,1000,1000,0,0,0,0,0,0,0,0,0,0
1682949926.90037084,161728616,1000,1000,1000,1000,0,0,0,0,0,0,0,0,0,0
1682949927.00033092,161828576,1000,1000,1000,1000,0,0,0,0,0,0,0,0,0,0
1682949927.10029078,161928536,1000,1000,1000,1000,0,0,0,0,0,0,0,0,0,0
1682949927.20025086,162028496,1000,1000,1000,1000,0,0,0,0,0,0,0,0,0,0
1682949927.30021095,162128456,1000,1000,1000,1000,0,0,0,0,0,0,0,0,0,0
1682949927.40017080,162228416,1000,1000,1000,1000,0,0,0,0,0,0,0,0,0,0
1682949927.50013089,162328376,1000,1000,1000,1000,0,0,0,0,0,0,0,0,0,0
1682949927.60009074,162428336,1000,1000,1000,1000,0,0,0,0,0,0,0,0,0,0
1682949927.70005083,162528296,1000,1000,1000,1000,0,0,0,0,0,0,0,0,0,0
1682949927.80001092,162628256,1000,1000,1000,1000,0,0,0,0,0,0,0,0,0,0
1682949927.89997077,162728216,1000,1000,1000,1000,0,0,0,0,0,0,0,0,0,0
1682949927.99993086,162828176,1000,1000,1000,1000,0,0,0,0,0,0,0,0,0,0
1682949928.10072374,162928969,1000,1000,1000,1000,0,0,0,0,0,0,0,0,0,0
1682949928.20068383,163028929,1000,1000,1000,1000,0,0,0,0,0,0,0,0,0,0
1682949928.30064392,163128889,1000,1000,1000,1000,0,0,0,0,0,0,0,0,0,0
1682949928.40060377,163228849,1000,1000,1000,1000,0,0,0,0,0,0,0,0,0,0
1682949928.50056386,163328809,1000,1000,1000,1000,0,0,0,0,0,0,0,0,0,0
1682949928.60052395,163428769,1000,1000,1000,1000,0,0,0,0,0,0,0,0,0,0
1682949928.70048380,163528729,1000,1000,1000,1000,0,0,0,0,0,0,0,0,0,0
1682949928.80044389,163628689,1000,1000,1000,1000,0,0,0,0,0,0,0,0,0,0
1682949928.90040374,163728649,1000,1000,1000,1000,0,0,0,0,0,0,0,0,0,0
1682949929.00036383,163828609,1000,1000,1000,1000,0,0,0,0,0,0,0,0,0,0
1682949929.10032392,163928569,1000,1000,1000,1000,0,0,0,0,0,0,0,0,0,0
1682949929.20028377,164028529,1000,1000,1000,1000,0,0,0,0,0,0,0,0,0,0
1682949929.30024385,164128489,1000,1000,1000,1000,0,0,0,0,0,0,0,0,0,0
1682949929.40020394,164228449,1000,1000,1000,1000,0,0,0,0,0,0,0,0,0,0
1682949929.50016379,164328409,1000,1000,1000,1000,0,0,0,0,0,0,0,0,0,0
1682949929.60012388,164428369,1000,1000,1000,1000,0,0,0,0,0,0,0,0,0,0
1682949929.70008373,164528329,1000,1000,1000,1000,0,0,0,0,0,0,0,0,0,0
1682949929.80004382,164628289,1000,1000,1000,1000,0,0,0,0,0,0,0,0,0,0
1682949929.90000391,164728249,1000,1000,1000,1000,0,0,0,0,0,0,0,0,0,0
1682949929.99996376,164828209,1000,1000,1000,1000,0,0,0,0,0,0,0,0,0,0
1682949930.09992385,164928169,1000,1000,1000,1000,0,0,0,0,0,0,0,0,0,0
1682949930.20071673,165028962,1000,1000,1000,1000,0,0,0,0,0,0,0,0,0,0
1682949930.30067682,165128922,1000,1000,1000,1000,0,0,0,0,0,0,0,0,0,0
1682949930.40063691,165228882,1000,1000,1000,1000,0,0,0,0,0,0,0,0,0,0
1682949930.50059676,165328842,1000,1000,1000,1000,0,0,0,0,0,0,0,0,0,0
1682949930.60055685,165428802,1000,1000,1000,1000,0,0,0,0,0,0,0,0,0,0
1682949930.70051694,165528762,1000,1000,1000,1000,0,0,0,0,0,0,0,0,0,0
1682949930.80047679,165628722,1000,1000,1000,1000,0,0,0,0,0,0,0,0,0,0
1682949930.90043688,165728682,1000,1000,1000,1000,0,0,0,0,0,0,0,0,0,0
1682949931.00039673,165828642,1000,1000,1000,1000,0,0,0,0,0,0,0,0,0,0
1682949931.10035682,165928602,1000,1000,1000,1000,0,0,0,0,0,0,0,0,0,0
1682949931.20031691,166028562,1000,1000,1000,1000,0,0,0,0,0,0,0,0,0,0
1682949931.30027676,166128522,1000,1000,1000,1000,0,0,0,0,0,0,0,0,0,0
1682949931.40023685,166228482,1000,1000,1000,1000,0,0,0,0,0,0,0,0,0,0
1682949931.50019693,166328442,1000,1000,1000,1000,0,0,0,0,0,0,0,0,0,0
1682949931.54018092,166368426,1000,1000,1000,1000,0,0,0,0,0,0,0,0,0,0
1682949931.64014077,166468386,1000,1000,1000,1000,0,0,0,0,0,0,0,0,0,0
1682949931.74010086,166568346,1000,1000,1000,1000,0,0,0,0,0,0,0,0,0,0
1682949931.84006095,166668306,1000,1000,1000,1000,0,0,0,0,0,0,0,0,0,0
1682949931.94002080,166768266,1000,1000,1000,1000,0,0,0,0,0,0,0,0,0,0
1682949932.03998089,166868226,1000,1000,1000,1000,0,0,0,0,0,0,0,0,0,0
1682949932.13994074,166968186,1000,1000,1000,1000,0,0,0,0,0,0,0,0,0,0
1682949932.24073386,167068979,1000,1000,1000,1000,0,0,0,0,0,0,0,0,0,0
1682949932.34069395,167168939,1000,1000,1000,1000,0,0,0,0,0,0,0,0,0,0
1682949932.44065380,167268899,1000,1000,1000,1000,0,0,0,0,0,0,0,0,0,0
1682949932.54061389,167368859,1000,1000,1000,1000,0,0,0,0,0,0,0,0,0,0
1682949932.64057374,167468819,1000,1000,1000,1000,0,0,0,0,0,0,0,0,0,0
1682949932.74053383,167568779,1000,1000,1000,1000,0,0,0,0,0,0,0,0,0,0
1682949932.84049392,167668739,1000,1000,1000,1000,0,0,0,0,0,0,0,0,0,0
1682949932.94045377,167768699,1000,1000,1000,1000,0,0,0,0,0,0,0,0,0,0
1682949933.04041386,167868659,1000,1000,1000,1000,0,0,0,0,0,0,0,0,0,0
1682949933.14037395,167968619,1000,1000,1000,1000,0,0,0,0,0,0,0,0,0,0
1682949933.24033380,168068579,1000,1000,1000,1000,0,0,0,0,0,0,0,0,0,0
1682949933.34029388,168168539,1000,1000,1000,1000,0,0,0,0,0,0,0,0,0,0
1682949933.44025373,168268499,1000,1000,1000,1000,0,0,0,0,0,0,0,0,0,0
1682949933.54021382,168368459,1000,1000,1000,1000,0,0,0,0,0,0,0,0,0,0
1682949933.64017391,168468419,1000,1000,1000,1000,0,0,0,0,0,0,0,0,0,0
1682949933.74013376,168568379,1000,1000,1000,1000,0,0,0,0,0,0,0,0,0,0
1682949933.84009385,168668339,1000,1000,1000,1000,0,0,0,0,0,0,0,0,0,0
1682949933.94005394,168768299,1000,1000,1000,1000,0,0,0,0,0,0,0,0,0,0
1682949934.04001379,168868259,1000,1000,1000,1000,0,0,0,0,0,0,0,0,0,0
1682949934.13997388,168968219,1000,1000,1000,1000,0,0,0,0,0,0,0,0,0,0
1682949934.23993373,169068179,1000,1000,1000,1000,0,0,0,0,0,0,0,0,0,0
1682949934.34072685,169168972,1000,1000,1000,1000,0,0,0,0,0,0,0,0,0,0
1682949934.44068694,169268932,1000,1000,1000,1000,0,0,0,0,0,0,0,0,0,0
1682949934.54064679,169368892,1000,1000,1000,1000,0,0,0,0,0,0,0,0,0,0
1682949934.64060688,169468852,1000,1000,1000,1000,0,0,0,0,0,0,0,0,0,0
1682949934.74056673,169568812,1000,1000,1000,1000,0,0,0,0,0,0,0,0,0,0
1682949934.84052682,169668772,1000,1000,1000,1000,0,0,0,0,0,0,0,0,0,0
1682949934.94048691,169768732,1000,1000,1000,1000,0,0,0,0,0,0,0,0,0,0
1682949935.04044676,169868692,1000,1000,1000,1000,0,0,0,0,0,0,0,0,0,0
1682949935.14040685,169968652,1000,1000,1000,1000,0,0,0,0,0,0,0,0,0,0
1682949935.24036694,170068612,1000,1000,1000,1000,0,0,0,0,0,0,0,0,0,0
1682949935.34032679,170168572,1000,1000,1000,1000,0,0,0,0,0,0,0,0,0,0
1682949935.44028687,170268532,1000,1000,1000,1000,0,0,0,0,0,0,0,0,0,0
1682949935.54024673,170368492,1000,1000,1000,1000,0,0,0,0,0,0,0,0,0,0
1682949935.64020681,170468452,1000,1000,1000,1000,0,0,0,0,0,0,0,0,0,0
1682949935.74016690,170568412,1000,1000,1000,1000,0,0,0,0,0,0,0,0,0,0
1682949935.84012675,170668372,1000,1000,1000,1000,0,0,0,0,0,0,0,0,0,0
1682949935.94008684,170768332,1000,1000,1000,1000,0,0,0,0,0,0,0,0,0,0
1682949936.04004693,170868292,1000,1000,1000,1000,0,0,0,0,0,0,0,0,0,0
1682949936.14000678,170968252,1000,1000,1000,1000,0,0,0,0,0,0,0,0,0,0
1682949936.23996687,171068212,1000,1000,1000,1000,0,0,0,0,0,0,0,0,0,0
1682949936.33992672,171168172,1000,1000,1000,1000,0,0,0,0,0,0,0,0,0,0
1682949936.44071984,171268965,1000,1000,1000,1000,0,0,0,0,0,0,0,0,0,0
1682949936.54067993,171368925,1000,1000,1000,1000,0,0,0,0,0,0,0,0,0,0
1682949936.64063978,171468885,1000,1000,1000,1000,0,0,0,0,0,0,0,0,0,0
1682949936.74059987,171568845,1000,1000,1000,1000,0,0,0,0,0,0,0,0,0,0
1682949936.84055972,171668805,1000,1000,1000,1000,0,0,0,0,0,0,0,0,0,0
1682949936.94051981,171768765,1000,1000,1000,1000,0,0,0,0,0,0,0,0,0,0
1682949937.04047990,171868725,1000,1000,1000,1000,0,0,0,0,0,0,0,0,0,0
1682949937.14043975,171968685,1000,1000,1000,1000,0,0,0,0,0,0,0,0,0,0
1682949937.24039984,172068645,1000,1000,1000,1000,0,0,0,0,0,0,0,0,0,0
1682949937.34035993,172168605,1000,1000,1000,1000,0,0,0,0,0,0,0,0,0,0
1682949937.44031978,172268565,1000,1000,1000,1000,0,0,0,0,0,0,0,0,0,0
1682949937.54027987,172368525,1000,1000,1000,1000,0,0,0,0,0,0,0,0,0,0
1682949937.64023995,172468485,1000,1000,1000,1000,0,0,0,0,0,0,0,0,0,0
1682949937.74019980,172568445,1000,1000,1000,1000,0,0,0,0,0,0,0,0,0,0
1682949937.84015989,172668405,1000,1000,1000,1000,0,0,0,0,0,0,0,0,0,0
1682949937.94011974,172768365,1000,1000,1000,1000,0,0,0,0,0,0,0,0,0,0
1682949938.04007983,172868325,1000,1000,1000,1000,0,0,0,0,0,0,0,0,0,0
1682949938.14003992,172968285,1000,1000,1000,1000,0,0,0,0,0,0,0,0,0,0
1682949938.23999977,173068245,1000,1000,1000,1000,0,0,0,0,0,0,0,0,0,0
1682949938.33995986,173168205,1000,1000,1000,1000,0,0,0,0,0,0,0,0,0,0
1682949938.43991995,173268165,1000,1000,1000,1000,0,0,0,0,0,0,0,0,0,0
1682949938.54071283,173368958,1000,1000,1000,1000,0,0,0,0,0,0,0,0,0,0
1682949938.64067292,173468918,1000,1000,1000,1000,0,0,0,0,0,0,0,0,0,0
1682949938.74063277,173568878,1000,1000,1000,1000,0,0,0,0,0,0,0,0,0,0
1682949938.84059286,173668838,1000,1000,1000,1000,0,0,0,0,0,0,0,0,0,0
1682949938.94055295,173768798,1000,1000,1000,1000,0,0,0,0,0,0,0,0,0,0
1682949939.04051280,173868758,1000,1000,1000,1000,0,0,0,0,0,0,0,0,0,0
1682949939.14047289,173968718,1000,1000,1000,1000,0,0,0,0,0,0,0,0,0,0
1682949939.24043274,174068678,1000,1000,1000,1000,0,0,0,0,0,0,0,0,0,0
1682949939.34039283,174168638,1000,1000,1000,1000,0,0,0,0,0,0,0,0,0,0
1682949939.44035292,174268598,1000,1000,1000,1000,0,0,0,0,0,0,0,0,0,0
1682949939.54031277,174368558,1000,1000,1000,1000,0,0,0,0,0,0,0,0,0,0
1682949939.64027286,174468518,1000,1000,1000,1000,0,0,0,0,0,0,0,0,0,0
1682949939.74023294,174568478,1000,1000,1000,1000,0,0,0,0,0,0,0,0,0,0
1682949939.84019279,174668438,1000,1000,1000,1000,0,0,0,0,0,0,0,0,0,0
