timestamp,TimeUS,C1,C2,C3,C4,C5,C6,C7,C8,C9,C10,C11,C12,C13,C14
1682958859.50003982,70928284,1000,1000,1000,1000,0,0,0,0,0,0,0,0,0,0
1682958859.59999990,71028244,1000,1000,1000,1000,0,0,0,0,0,0,0,0,0,0
1682958859.69995999,71128204,1000,1000,1000,1000,0,0,0,0,0,0,0,0,0,0
1682958859.79991984,71228164,1000,1000,1000,1000,0,0,0,0,0,0,0,0,0,0
1682958859.90071297,71328957,1000,1000,1000,1000,0,0,0,0,0,0,0,0,0,0
1682958860.00067282,71428917,1000,1000,1000,1000,0,0,0,0,0,0,0,0,0,0
1682958860.10063291,71528877,1000,1000,1000,1000,0,0,0,0,0,0,0,0,0,0
1682958860.20059299,71628837,1000,1000,1000,1000,0,0,0,0,0,0,0,0,0,0
1682958860.30055285,71728797,1000,1000,1000,1000,0,0,0,0,0,0,0,0,0,0
1682958860.40051293,71828757,1000,1000,1000,1000,0,0,0,0,0,0,0,0,0,0
1682958860.50047278,71928717,1000,1000,1000,1000,0,0,0,0,0,0,0,0,0,0
1682958860.60043287,72028677,1000,1000,1000,1000,0,0,0,0,0,0,0,0,0,0
1682958860.70039296,72128637,1000,1000,1000,1000,0,0,0,0,0,0,0,0,0,0
1682958860.80035281,72228597,1000,1000,1000,1000,0,0,0,0,0,0,0,0,0,0
1682958860.90031290,72328557,1000,1000,1000,1000,0,0,0,0,0,0,0,0,0,0
1682958861.00027299,72428517,1000,1000,1000,1000,0,0,0,0,0,0,0,0,0,0
1682958861.10023284,72528477,1000,1000,1000,1000,0,0,0,0,0,0,0,0,0,0
1682958861.20019293,72628437,1000,1000,1000,1000,0,0,0,0,0,0,0,0,0,0
1682958861.30015278,72728397,1000,1000,1000,1000,0,0,0,0,0,0,0,0,0,0
1682958861.40011287,72828357,1000,1000,1000,1000,0,0,0,0,0,0,0,0,0,0
1682958861.50007296,72928317,1026,1026,1026,1026,0,0,0,0,0,0,0,0,0,0
1682958861.60003281,73028277,1056,1056,1056,1056,0,0,0,0,0,0,0,0,0,0
1682958861.69999290,73128237,1086,1086,1086,1086,0,0,0,0,0,0,0,0,0,0
1682958861.79995298,73228197,1116,1116,1116,1116,0,0,0,0,0,0,0,0,0,0
1682958861.89991283,73328157,1146,1146,1146,1146,0,0,0,0,0,0,0,0,0,0
1682958862.00070596,73428950,1375,1366,1367,1375,0,0,0,0,0,0,0,0,0,0
1682958862.10066581,73528910,1560,1553,1553,1560,0,0,0,0,0,0,0,0,0,0
1682958862.20062590,73628870,1710,1703,1704,1710,0,0,0,0,0,0,0,0,0,0
1682958862.30058599,73728830,1840,1833,1834,1840,0,0,0,0,0,0,0,0,0,0
1682958862.40054584,73828790,1901,1895,1895,1902,0,0,0,0,0,0,0,0,0,0
1682958862.50050592,73928750,1836,1833,1834,1836,0,0,0,0,0,0,0,0,0,0
1682958862.60046577,74028710,1711,1711,1712,1711,0,0,0,0,0,0,0,0,0,0
1682958862.70042586,74128670,1645,1647,1647,1645,0,0,0,0,0,0,0,0,0,0
1682958862.80038595,74228630,1634,1638,1637,1635,0,0,0,0,0,0,0,0,0,0
1682958862.90034580,74328590,1643,1646,1646,1643,0,0,0,0,0,0,0,0,0,0
1682958863.00030589,74428550,1647,1648,1648,1647,0,0,0,0,0,0,0,0,0,0
1682958863.10026598,74528510,1642,1641,1641,1641,0,0,0,0,0,0,0,0,0,0
1682958863.20022583,74628470,1633,1632,1632,1633,0,0,0,0,0,0,0,0,0,0
1682958863.30018592,74728430,1617,1617,1617,1617,0,0,0,0,0,0,0,0,0,0
1682958863.40014577,74828390,1585,1585,1584,1585,0,0,0,0,0,0,0,0,0,0
1682958863.50010586,74928350,1571,1570,1570,1571,0,0,0,0,0,0,0,0,0,0
1682958863.60006595,75028310,1560,1560,1559,1560,0,0,0,0,0,0,0,0,0,0
1682958863.70002580,75128270,1560,1559,1552,1566,0,0,0,0,0,0,0,0,0,0
1682958863.79998589,75228230,1558,1558,1550,1565,0,0,0,0,0,0,0,0,0,0
1682958863.89994597,75328190,1558,1557,1553,1561,0,0,0,0,0,0,0,0,0,0
1682958864.00073886,75428983,1559,1559,1558,1559,0,0,0,0,0,0,0,0,0,0
1682958864.10069895,75528943,1561,1561,1563,1558,0,0,0,0,0,0,0,0,0,0
1682958864.20065880,75628903,1563,1564,1568,1559,0,0,0,0,0,0,0,0,0,0
1682958864.30061889,75728863,1555,1555,1564,1546,0,0,0,0,0,0,0,0,0,0
1682958864.40057898,75828823,1545,1546,1558,1534,0,0,0,0,0,0,0,0,0,0
1682958864.50053883,75928783,1539,1539,1543,1536,0,0,0,0,0,0,0,0,0,0
1682958864.60049891,76028743,1535,1535,1532,1540,0,0,0,0,0,0,0,0,0,0
1682958864.70045900,76128703,1535,1534,1527,1543,0,0,0,0,0,0,0,0,0,0
1682958864.80041885,76228663,1535,1534,1527,1542,0,0,0,0,0,0,0,0,0,0
1682958864.90037894,76328623,1537,1537,1531,1542,0,0,0,0,0,0,0,0,0,0
1682958865.00033879,76428583,1539,1539,1537,1540,0,0,0,0,0,0,0,0,0,0
1682958865.10029888,76528543,1542,1543,1544,1541,0,0,0,0,0,0,0,0,0,0
1682958865.20025897,76628503,1546,1546,1550,1542,0,0,0,0,0,0,0,0,0,0
1682958865.30021882,76728463,1550,1550,1554,1546,0,0,0,0,0,0,0,0,0,0
1682958865.40017891,76828423,1552,1553,1554,1550,0,0,0,0,0,0,0,0,0,0
1682958865.50013900,76928383,1555,1555,1555,1554,0,0,0,0,0,0,0,0,0,0
1682958865.60009885,77028343,1554,1553,1558,1560,0,0,0,0,0,0,0,0,0,0
1682958865.70005894,77128303,1552,1552,1561,1565,0,0,0,0,0,0,0,0,0,0
1682958865.80001879,77228263,1554,1554,1562,1566,0,0,0,0,0,0,0,0,0,0
1682958865.89997888,77328223,1558,1558,1563,1566,0,0,0,0,0,0,0,0,0,0
1682958865.99993896,77428183,1561,1562,1564,1565,0,0,0,0,0,0,0,0,0,0
1682958866.10073185,77528976,1565,1565,1564,1564,0,0,0,0,0,0,0,0,0,0
1682958866.20069194,77628936,1568,1568,1565,1564,0,0,0,0,0,0,0,0,0,0
1682958866.30065179,77728896,1569,1569,1564,1563,0,0,0,0,0,0,0,0,0,0
1682958866.40061188,77828856,1571,1571,1564,1564,0,0,0,0,0,0,0,0,0,0
1682958866.50057197,77928816,1573,1572,1566,1565,0,0,0,0,0,0,0,0,0,0
1682958866.60053182,78028776,1574,1574,1567,1567,0,0,0,0,0,0,0,0,0,0
1682958866.70049191,78128736,1573,1573,1568,1568,0,0,0,0,0,0,0,0,0,0
1682958866.80045199,78228696,1573,1573,1569,1570,0,0,0,0,0,0,0,0,0,0
1682958866.90041184,78328656,1574,1574,1572,1572,0,0,0,0,0,0,0,0,0,0
1682958867.00037193,78428616,1573,1573,1573,1573,0,0,0,0,0,0,0,0,0,0
1682958867.10033178,78528576,1573,1574,1575,1574,0,0,0,0,0,0,0,0,0,0
1682958867.20029187,78628536,1573,1573,1576,1574,0,0,0,0,0,0,0,0,0,0
1682958867.30025196,78728496,1573,1573,1576,1575,0,0,0,0,0,0,0,0,0,0
1682958867.40021181,78828456,1574,1574,1577,1577,0,0,0,0,0,0,0,0,0,0
1682958867.50017190,78928416,1575,1575,1577,1577,0,0,0,0,0,0,0,0,0,0
1682958867.60013199,79028376,1575,1575,1577,1577,0,0,0,0,0,0,0,0,0,0
1682958867.70009184,79128336,1576,1576,1577,1577,0,0,0,0,0,0,0,0,0,0
1682958867.80005193,79228296,1577,1577,1578,1578,0,0,0,0,0,0,0,0,0,0
1682958867.90001178,79328256,1577,1577,1577,1577,0,0,0,0,0,0,0,0,0,0
1682958867.99997187,79428216,1578,1578,1578,1578,0,0,0,0,0,0,0,0,0,0
1682958868.09993196,79528176,1578,1578,1577,1577,0,0,0,0,0,0,0,0,0,0
1682958868.20072484,79628969,1578,1578,1577,1577,0,0,0,0,0,0,0,0,0,0
1682958868.30068493,79728929,1579,1579,1577,1578,0,0,0,0,0,0,0,0,0,0
1682958868.40064478,79828889,1578,1578,1578,1577,0,0,0,0,0,0,0,0,0,0
1682958868.50060487,79928849,1579,1579,1579,1578,0,0,0,0,0,0,0,0,0,0
1682958868.60056496,80028809,1579,1579,1578,1578,0,0,0,0,0,0,0,0,0,0
1682958868.70052481,80128769,1581,1580,1580,1580,0,0,0,0,0,0,0,0,0,0
1682958868.80048490,80228729,1578,1579,1578,1579,0,0,0,0,0,0,0,0,0,0
1682958868.90044498,80328689,1579,1579,1579,1579,0,0,0,0,0,0,0,0,0,0
1682958869.00040483,80428649,1579,1579,1579,1579,0,0,0,0,0,0,0,0,0,0
1682958869.10036492,80528609,1579,1579,1580,1579,0,0,0,0,0,0,0,0,0,0
1682958869.20032477,80628569,1579,1578,1579,1579,0,0,0,0,0,0,0,0,0,0
1682958869.30028486,80728529,1578,1578,1579,1578,0,0,0,0,0,0,0,0,0,0
1682958869.40024495,80828489,1578,1578,1579,1579,0,0,0,0,0,0,0,0,0,0
1682958869.50020480,80928449,1578,1578,1578,1579,0,0,0,0,0,0,0,0,0,0
1682958869.60016489,81028409,1579,1579,1579,1580,0,0,0,0,0,0,0,0,0,0
1682958869.70012498,81128369,1579,1579,1579,1579,0,0,0,0,0,0,0,0,0,0
1682958869.80008483,81228329,1579,1579,1579,1579,0,0,0,0,0,0,0,0,0,0
1682958869.90004492,81328289,1579,1579,1579,1579,0,0,0,0,0,0,0,0,0,0
1682958870.00000477,81428249,1579,1579,1579,1579,0,0,0,0,0,0,0,0,0,0
1682958870.09996486,81528209,1580,1580,1580,1580,0,0,0,0,0,0,0,0,0,0
1682958870.19992495,81628169,1580,1580,1580,1580,0,0,0,0,0,0,0,0,0,0
1682958870.30071783,81728962,1579,1579,1579,1579,0,0,0,0,0,0,0,0,0,0
1682958870.40067792,81828922,1580,1580,1580,1581,0,0,0,0,0,0,0,0,0,0
1682958870.50063777,81928882,1580,1580,1580,1580,0,0,0,0,0,0,0,0,0,0
1682958870.60059786,82028842,1580,1580,1580,1580,0,0,0,0,0,0,0,0,0,0
1682958870.70055795,82128802,1580,1580,1580,1580,0,0,0,0,0,0,0,0,0,0
1682958870.80051780,82228762,1581,1580,1581,1580,0,0,0,0,0,0,0,0,0,0
1682958870.90047789,82328722,1581,1581,1581,1581,0,0,0,0,0,0,0,0,0,0
1682958871.00043797,82428682,1580,1580,1580,1581,0,0,0,0,0,0,0,0,0,0
1682958871.10039783,82528642,1581,1581,1581,1581,0,0,0,0,0,0,0,0,0,0
1682958871.20035791,82628602,1581,1581,1581,1581,0,0,0,0,0,0,0,0,0,0
1682958871.30031800,82728562,1581,1581,1581,1581,0,0,0,0,0,0,0,0,0,0
1682958871.40027785,82828522,1581,1581,1582,1581,0,0,0,0,0,0,0,0,0,0
1682958871.50023794,82928482,1582,1582,1582,1582,0,0,0,0,0,0,0,0,0,0
1682958871.60019779,83028442,1581,1581,1581,1582,0,0,0,0,0,0,0,0,0,0
1682958871.70015788,83128402,1582,1582,1582,1582,0,0,0,0,0,0,0,0,0,0
1682958871.80011797,83228362,1582,1582,1582,1582,0,0,0,0,0,0,0,0,0,0
1682958871.90007782,83328322,1582,1582,1585,1578,0,0,0,0,0,0,0,0,0,0
1682958872.00003791,83428282,1580,1582,1587,1572,0,0,0,0,0,0,0,0,0,0
1682958872.09999800,83528242,1579,1581,1581,1573,0,0,0,0,0,0,0,0,0,0
1682958872.19995785,83628202,1578,1581,1572,1573,0,0,0,0,0,0,0,0,0,0
1682958872.29991794,83728162,1576,1579,1563,1569,0,0,0,0,0,0,0,0,0,0
1682958872.40071082,83828955,1577,1579,1558,1566,0,0,0,0,0,0,0,0,0,0
1682958872.50067091,83928915,1578,1578,1555,1561,0,0,0,0,0,0,0,0,0,0
1682958872.60063100,84028875,1580,1578,1556,1558,0,0,0,0,0,0,0,0,0,0
1682958872.70059085,84128835,1580,1578,1556,1555,0,0,0,0,0,0,0,0,0,0
1682958872.80055094,84228795,1578,1577,1555,1553,0,0,0,0,0,0,0,0,0,0
1682958872.90051079,84328755,1578,1577,1555,1553,0,0,0,0,0,0,0,0,0,0
1682958873.00047088,84428715,1576,1577,1555,1553,0,0,0,0,0,0,0,0,0,0
1682958873.10043097,84528675,1575,1576,1554,1553,0,0,0,0,0,0,0,0,0,0
1682958873.20039082,84628635,1576,1577,1554,1554,0,0,0,0,0,0,0,0,0,0
1682958873.30035090,84728595,1576,1577,1553,1553,0,0,0,0,0,0,0,0,0,0
1682958873.40031099,84828555,1577,1578,1551,1552,0,0,0,0,0,0,0,0,0,0
1682958873.50027084,84928515,1578,1579,1549,1550,0,0,0,0,0,0,0,0,0,0
1682958873.60023093,85028475,1580,1581,1547,1547,0,0,0,0,0,0,0,0,0,0
1682958873.70019078,85128435,1583,1584,1545,1544,0,0,0,0,0,0,0,0,0,0
1682958873.80015087,85228395,1585,1586,1541,1541,0,0,0,0,0,0,0,0,0,0
1682958873.90011096,85328355,1590,1590,1540,1539,0,0,0,0,0,0,0,0,0,0
1682958874.00007081,85428315,1591,1592,1536,1536,0,0,0,0,0,0,0,0,0,0
1682958874.10003090,85528275,1594,1594,1535,1535,0,0,0,0,0,0,0,0,0,0
1682958874.19999099,85628235,1594,1594,1534,1535,0,0,0,0,0,0,0,0,0,0
1682958874.29995084,85728195,1595,1595,1535,1537,0,0,0,0,0,0,0,0,0,0
1682958874.39991093,85828155,1593,1593,1537,1539,0,0,0,0,0,0,0,0,0,0
1682958874.50070381,85928948,1591,1589,1542,1545,0,0,0,0,0,0,0,0,0,0
1682958874.60066390,86028908,1586,1584,1549,1552,0,0,0,0,0,0,0,0,0,0
1682958874.70062399,86128868,1580,1576,1559,1562,0,0,0,0,0,0,0,0,0,0
1682958874.80058384,86228828,1569,1566,1569,1572,0,0,0,0,0,0,0,0,0,0
1682958874.90054393,86328788,1559,1555,1582,1584,0,0,0,0,0,0,0,0,0,0
1682958875.00050378,86428748,1547,1544,1593,1594,0,0,0,0,0,0,0,0,0,0
1682958875.10046387,86528708,1537,1535,1603,1603,0,0,0,0,0,0,0,0,0,0
1682958875.20042396,86628668,1532,1532,1612,1610,0,0,0,0,0,0,0,0,0,0
1682958875.30038381,86728628,1528,1530,1615,1614,0,0,0,0,0,0,0,0,0,0
1682958875.40034389,86828588,1530,1532,1616,1615,0,0,0,0,0,0,0,0,0,0
1682958875.50030398,86928548,1535,1537,1613,1612,0,0,0,0,0,0,0,0,0,0
1682958875.60026383,87028508,1542,1544,1608,1608,0,0,0,0,0,0,0,0,0,0
1682958875.70022392,87128468,1549,1551,1599,1600,0,0,0,0,0,0,0,0,0,0
1682958875.80018377,87228428,1559,1559,1592,1592,0,0,0,0,0,0,0,0,0,0
1682958875.90014386,87328388,1567,1567,1584,1583,0,0,0,0,0,0,0,0,0,0
1682958876.00010395,87428348,1575,1574,1577,1577,0,0,0,0,0,0,0,0,0,0
1682958876.10006380,87528308,1581,1580,1572,1572,0,0,0,0,0,0,0,0,0,0
1682958876.20002389,87628268,1586,1584,1569,1568,0,0,0,0,0,0,0,0,0,0
1682958876.29998398,87728228,1588,1587,1567,1567,0,0,0,0,0,0,0,0,0,0
1682958876.39994383,87828188,1588,1587,1566,1566,0,0,0,0,0,0,0,0,0,0
1682958876.50073695,87928981,1587,1585,1567,1567,0,0,0,0,0,0,0,0,0,0
1682958876.60069680,88028941,1584,1583,1569,1569,0,0,0,0,0,0,0,0,0,0
1682958876.70065689,88128901,1582,1582,1572,1572,0,0,0,0,0,0,0,0,0,0
1682958876.80061698,88228861,1579,1579,1575,1575,0,0,0,0,0,0,0,0,0,0
1682958876.90057683,88328821,1577,1577,1579,1579,0,0,0,0,0,0,0,0,0,0
1682958877.00053692,88428781,1404,1520,1410,1527,0,0,0,0,0,0,0,0,0,0
1682958877.10049677,88528741,1524,1545,1532,1556,0,0,0,0,0,0,0,0,0,0
1682958877.20045686,88628701,1622,1578,1633,1589,0,0,0,0,0,0,0,0,0,0
1682958877.30041695,88728661,1686,1610,1697,1623,0,0,0,0,0,0,0,0,0,0
1682958877.40037680,88828621,1691,1621,1697,1630,0,0,0,0,0,0,0,0,0,0
1682958877.50033689,88928581,1697,1648,1696,1648,0,0,0,0,0,0,0,0,0,0
1682958877.60029697,89028541,1697,1668,1690,1655,0,0,0,0,0,0,0,0,0,0
1682958877.70025682,89128501,1697,1689,1685,1662,0,0,0,0,0,0,0,0,0,0
1682958877.80021691,89228461,1697,1715,1682,1677,0,0,0,0,0,0,0,0,0,0
1682958877.90017700,89328421,1662,1696,1651,1665,0,0,0,0,0,0,0,0,0,0
1682958878.00013685,89428381,1608,1644,1617,1657,0,0,0,0,0,0,0,0,0,0
1682958878.10009694,89528341,1572,1595,1613,1666,0,0,0,0,0,0,0,0,0,0
1682958878.20005679,89628301,1549,1558,1618,1665,0,0,0,0,0,0,0,0,0,0
1682958878.30001688,89728261,1537,1538,1619,1648,0,0,0,0,0,0,0,0,0,0
1682958878.39997697,89828221,1540,1537,1614,1622,0,0,0,0,0,0,0,0,0,0
1682958878.49993682,89928181,1551,1550,1603,1594,0,0,0,0,0,0,0,0,0,0
1682958878.60072994,90028974,1567,1570,1588,1569,0,0,0,0,0,0,0,0,0,0
1682958878.70068979,90128934,1583,1589,1572,1553,0,0,0,0,0,0,0,0,0,0
1682958878.80064988,90228894,1595,1601,1556,1541,0,0,0,0,0,0,0,0,0,0
1682958878.90060997,90328854,1601,1605,1542,1534,0,0,0,0,0,0,0,0,0,0
1682958879.00056982,90428814,1603,1603,1533,1533,0,0,0,0,0,0,0,0,0,0
1682958879.10052991,90528774,1601,1598,1530,1534,0,0,0,0,0,0,0,0,0,0
1682958879.20049000,90628734,1597,1593,1531,1538,0,0,0,0,0,0,0,0,0,0
1682958879.30044985,90728694,1591,1587,1536,1542,0,0,0,0,0,0,0,0,0,0
1682958879.40040994,90828654,1585,1582,1544,1547,0,0,0,0,0,0,0,0,0,0
1682958879.50036979,90928614,1579,1577,1552,1554,0,0,0,0,0,0,0,0,0,0
1682958879.60032988,91028574,1574,1574,1562,1562,0,0,0,0,0,0,0,0,0,0
1682958879.70028996,91128534,1569,1571,1570,1569,0,0,0,0,0,0,0,0,0,0
1682958879.80024981,91228494,1566,1568,1577,1576,0,0,0,0,0,0,0,0,0,0
1682958879.90020990,91328454,1565,1565,1586,1577,0,0,0,0,0,0,0,0,0,0
1682958880.00016999,91428414,1564,1565,1592,1576,0,0,0,0,0,0,0,0,0,0
1682958880.10012984,91528374,1562,1565,1589,1579,0,0,0,0,0,0,0,0,0,0
1682958880.20008993,91628334,1560,1562,1581,1580,0,0,0,0,0,0,0,0,0,0
1682958880.30004978,91728294,1558,1559,1572,1578,0,0,0,0,0,0,0,0,0,0
1682958880.40000987,91828254,1559,1560,1567,1575,0,0,0,0,0,0,0,0,0,0
1682958880.49996996,91928214,1562,1562,1563,1570,0,0,0,0,0,0,0,0,0,0
1682958880.59992981,92028174,1565,1565,1560,1564,0,0,0,0,0,0,0,0,0,0
1682958880.70072293,92128967,1569,1568,1557,1558,0,0,0,0,0,0,0,0,0,0
1682958880.80068278,92228927,1573,1573,1555,1553,0,0,0,0,0,0,0,0,0,0
1682958880.90064287,92328887,1576,1576,1553,1549,0,0,0,0,0,0,0,0,0,0
1682958881.00060296,92428847,1578,1578,1550,1547,0,0,0,0,0,0,0,0,0,0
1682958881.10056281,92528807,1580,1580,1548,1546,0,0,0,0,0,0,0,0,0,0
1682958881.20052290,92628767,1581,1582,1546,1546,0,0,0,0,0,0,0,0,0,0
1682958881.30048299,92728727,1582,1582,1545,1546,0,0,0,0,0,0,0,0,0,0
1682958881.40044284,92828687,1582,1582,1545,1545,0,0,0,0,0,0,0,0,0,0
1682958881.50040293,92928647,1583,1582,1545,1545,0,0,0,0,0,0,0,0,0,0
1682958881.60036278,93028607,1582,1583,1544,1544,0,0,0,0,0,0,0,0,0,0
1682958881.70032287,93128567,1583,1584,1545,1545,0,0,0,0,0,0,0,0,0,0
1682958881.80028296,93228527,1583,1584,1545,1544,0,0,0,0,0,0,0,0,0,0
1682958881.90024281,93328487,1582,1583,1543,1543,0,0,0,0,0,0,0,0,0,0
1682958882.00020289,93428447,1583,1584,1544,1543,0,0,0,0,0,0,0,0,0,0
1682958882.10016298,93528407,1584,1584,1544,1544,0,0,0,0,0,0,0,0,0,0
1682958882.20012283,93628367,1584,1583,1544,1545,0,0,0,0,0,0,0,0,0,0
1682958882.30008292,93728327,1583,1583,1545,1547,0,0,0,0,0,0,0,0,0,0
1682958882.40004277,93828287,1582,1581,1547,1549,0,0,0,0,0,0,0,0,0,0
1682958882.50000286,93928247,1580,1577,1551,1552,0,0,0,0,0,0,0,0,0,0
1682958882.59996295,94028207,1576,1575,1555,1557,0,0,0,0,0,0,0,0,0,0
1682958882.69992280,94128167,1572,1571,1560,1562,0,0,0,0,0,0,0,0,0,0
1682958882.80071592,94228960,1567,1567,1565,1567,0,0,0,0,0,0,0,0,0,0
1682958882.90067577,94328920,1563,1563,1571,1573,0,0,0,0,0,0,0,0,0,0
1682958883.00063586,94428880,1558,1557,1576,1577,0,0,0,0,0,0,0,0,0,0
1682958883.10059595,94528840,1555,1554,1582,1583,0,0,0,0,0,0,0,0,0,0
1682958883.20055580,94628800,1551,1550,1587,1587,0,0,0,0,0,0,0,0,0,0
1682958883.30051589,94728760,1549,1548,1592,1591,0,0,0,0,0,0,0,0,0,0
1682958883.40047598,94828720,1547,1547,1595,1594,0,0,0,0,0,0,0,0,0,0
1682958883.50043583,94928680,1547,1548,1597,1596,0,0,0,0,0,0,0,0,0,0
1682958883.60039592,95028640,1548,1549,1596,1596,0,0,0,0,0,0,0,0,0,0
1682958883.70035577,95128600,1551,1551,1595,1594,0,0,0,0,0,0,0,0,0,0
1682958883.80031586,95228560,1553,1554,1592,1591,0,0,0,0,0,0,0,0,0,0
1682958883.90027595,95328520,1558,1558,1590,1590,0,0,0,0,0,0,0,0,0,0
1682958884.00023580,95428480,1562,1562,1585,1586,0,0,0,0,0,0,0,0,0,0
1682958884.10019588,95528440,1566,1565,1581,1582,0,0,0,0,0,0,0,0,0,0
1682958884.20015597,95628400,1570,1569,1579,1579,0,0,0,0,0,0,0,0,0,0
1682958884.30011582,95728360,1574,1573,1577,1576,0,0,0,0,0,0,0,0,0,0
1682958884.40007591,95828320,1576,1576,1575,1574,0,0,0,0,0,0,0,0,0,0
1682958884.50003600,95928280,1578,1577,1573,1573,0,0,0,0,0,0,0,0,0,0
1682958884.59999585,96028240,1580,1579,1572,1572,0,0,0,0,0,0,0,0,0,0
1682958884.69995594,96128200,1580,1579,1572,1572,0,0,0,0,0,0,0,0,0,0
1682958884.79991579,96228160,1580,1579,1572,1573,0,0,0,0,0,0,0,0,0,0
1682958884.90070891,96328953,1580,1580,1574,1574,0,0,0,0,0,0,0,0,0,0
1682958885.00066900,96428913,1579,1579,1575,1575,0,0,0,0,0,0,0,0,0,0
1682958885.10062885,96528873,1579,1579,1577,1577,0,0,0,0,0,0,0,0,0,0
1682958885.20058894,96628833,1578,1579,1578,1578,0,0,0,0,0,0,0,0,0,0
1682958885.30054879,96728793,1577,1578,1580,1579,0,0,0,0,0,0,0,0,0,0
1682958885.40050888,96828753,1576,1577,1580,1579,0,0,0,0,0,0,0,0,0,0
1682958885.50046897,96928713,1575,1576,1580,1580,0,0,0,0,0,0,0,0,0,0
1682958885.60042882,97028673,1576,1576,1581,1581,0,0,0,0,0,0,0,0,0,0
1682958885.70038891,97128633,1576,1576,1581,1582,0,0,0,0,0,0,0,0,0,0
1682958885.80034900,97228593,1576,1577,1581,1581,0,0,0,0,0,0,0,0,0,0
1682958885.90030885,97328553,1577,1577,1581,1580,0,0,0,0,0,0,0,0,0,0
1682958886.00026894,97428513,1578,1578,1581,1580,0,0,0,0,0,0,0,0,0,0
1682958886.10022879,97528473,1578,1578,1580,1580,0,0,0,0,0,0,0,0,0,0
1682958886.20018888,97628433,1578,1578,1578,1579,0,0,0,0,0,0,0,0,0,0
1682958886.30014896,97728393,1579,1578,1578,1578,0,0,0,0,0,0,0,0,0,0
1682958886.40010881,97828353,1579,1579,1578,1578,0,0,0,0,0,0,0,0,0,0
1682958886.50006890,97928313,1580,1581,1579,1579,0,0,0,0,0,0,0,0,0,0
1682958886.60002899,98028273,1581,1580,1579,1579,0,0,0,0,0,0,0,0,0,0
1682958886.69998884,98128233,1581,1580,1579,1579,0,0,0,0,0,0,0,0,0,0
1682958886.79994893,98228193,1581,1581,1579,1579,0,0,0,0,0,0,0,0,0,0
1682958886.90074182,98328986,1581,1581,1579,1579,0,0,0,0,0,0,0,0,0,0
1682958887.00070190,98428946,1580,1580,1579,1579,0,0,0,0,0,0,0,0,0,0
1682958887.10066199,98528906,1581,1581,1579,1580,0,0,0,0,0,0,0,0,0,0
1682958887.20062184,98628866,1580,1580,1580,1580,0,0,0,0,0,0,0,0,0,0
1682958887.30058193,98728826,1581,1581,1581,1581,0,0,0,0,0,0,0,0,0,0
1682958887.40054178,98828786,1582,1581,1582,1581,0,0,0,0,0,0,0,0,0,0
1682958887.50050187,98928746,1581,1581,1582,1581,0,0,0,0,0,0,0,0,0,0
1682958887.60046196,99028706,1581,1581,1582,1581,0,0,0,0,0,0,0,0,0,0
1682958887.70042181,99128666,1580,1581,1581,1581,0,0,0,0,0,0,0,0,0,0
1682958887.80038190,99228626,1580,1580,1581,1581,0,0,0,0,0,0,0,0,0,0
1682958887.90034199,99328586,1581,1581,1581,1581,0,0,0,0,0,0,0,0,0,0
1682958888.00030184,99428546,1581,1581,1582,1582,0,0,0,0,0,0,0,0,0,0
1682958888.10026193,99528506,1581,1581,1581,1582,0,0,0,0,0,0,0,0,0,0
1682958888.20022178,99628466,1582,1582,1582,1582,0,0,0,0,0,0,0,0,0,0
1682958888.30018187,99728426,1581,1581,1581,1581,0,0,0,0,0,0,0,0,0,0
1682958888.40014195,99828386,1582,1582,1582,1581,0,0,0,0,0,0,0,0,0,0
1682958888.50010180,99928346,1581,1581,1581,1581,0,0,0,0,0,0,0,0,0,0
1682958888.60006189,100028306,1582,1582,1581,1581,0,0,0,0,0,0,0,0,0,0
1682958888.70002198,100128266,1583,1582,1582,1582,0,0,0,0,0,0,0,0,0,0
1682958888.79998183,100228226,1581,1582,1586,1575,0,0,0,0,0,0,0,0,0,0
1682958888.89994192,100328186,1581,1584,1586,1573,0,0,0,0,0,0,0,0,0,0
1682958889.00073481,100428979,1580,1582,1580,1573,0,0,0,0,0,0,0,0,0,0
1682958889.10069489,100528939,1578,1580,1571,1573,0,0,0,0,0,0,0,0,0,0
1682958889.20065498,100628899,1576,1579,1564,1570,0,0,0,0,0,0,0,0,0,0
1682958889.30061483,100728859,1576,1578,1558,1565,0,0,0,0,0,0,0,0,0,0
1682958889.40057492,100828819,1576,1576,1555,1560,0,0,0,0,0,0,0,0,0,0
1682958889.50053477,100928779,1577,1576,1553,1556,0,0,0,0,0,0,0,0,0,0
1682958889.60049486,101028739,1578,1577,1554,1554,0,0,0,0,0,0,0,0,0,0
1682958889.70045495,101128699,1579,1577,1555,1553,0,0,0,0,0,0,0,0,0,0
1682958889.80041480,101228659,1578,1578,1555,1553,0,0,0,0,0,0,0,0,0,0
1682958889.90037489,101328619,1577,1577,1555,1553,0,0,0,0,0,0,0,0,0,0
1682958890.00033498,101428579,1577,1578,1555,1553,0,0,0,0,0,0,0,0,0,0
1682958890.10029483,101528539,1576,1577,1554,1553,0,0,0,0,0,0,0,0,0,0
1682958890.20025492,101628499,1576,1578,1553,1553,0,0,0,0,0,0,0,0,0,0
1682958890.30021477,101728459,1576,1578,1551,1552,0,0,0,0,0,0,0,0,0,0
1682958890.40017486,101828419,1578,1580,1551,1551,0,0,0,0,0,0,0,0,0,0
1682958890.50013494,101928379,1580,1581,1549,1549,0,0,0,0,0,0,0,0,0,0
1682958890.60009480,102028339,1582,1583,1547,1546,0,0,0,0,0,0,0,0,0,0
1682958890.70005488,102128299,1584,1585,1545,1544,0,0,0,0,0,0,0,0,0,0
1682958890.80001497,102228259,1587,1588,1543,1542,0,0,0,0,0,0,0,0,0,0
1682958890.89997482,102328219,1589,1589,1540,1540,0,0,0,0,0,0,0,0,0,0
1682958890.99993491,102428179,1592,1592,1540,1540,0,0,0,0,0,0,0,0,0,0
1682958891.10072780,102528972,1594,1594,1539,1541,0,0,0,0,0,0,0,0,0,0
1682958891.20068789,102628932,1594,1594,1539,1540,0,0,0,0,0,0,0,0,0,0
1682958891.30064797,102728892,1594,1593,1540,1543,0,0,0,0,0,0,0,0,0,0
1682958891.40060782,102828852,1592,1591,1544,1547,0,0,0,0,0,0,0,0,0,0
1682958891.50056791,102928812,1589,1585,1549,1553,0,0,0,0,0,0,0,0,0,0
1682958891.60052800,103028772,1582,1578,1557,1560,0,0,0,0,0,0,0,0,0,0
1682958891.70048785,103128732,1574,1569,1567,1570,0,0,0,0,0,0,0,0,0,0
1682958891.80044794,103228692,1563,1560,1578,1580,0,0,0,0,0,0,0,0,0,0
1682958891.90040779,103328652,1553,1551,1588,1590,0,0,0,0,0,0,0,0,0,0
1682958892.00036788,103428612,1545,1545,1598,1598,0,0,0,0,0,0,0,0,0,0
1682958892.10032797,103528572,1539,1541,1607,1606,0,0,0,0,0,0,0,0,0,0
1682958892.20028782,103628532,1535,1539,1613,1610,0,0,0,0,0,0,0,0,0,0
1682958892.30024791,103728492,1536,1540,1615,1613,0,0,0,0,0,0,0,0,0,0
1682958892.40020800,103828452,1538,1541,1613,1611,0,0,0,0,0,0,0,0,0,0
1682958892.50016785,103928412,1542,1544,1609,1607,0,0,0,0,0,0,0,0,0,0
1682958892.60012794,104028372,1548,1549,1604,1603,0,0,0,0,0,0,0,0,0,0
1682958892.70008779,104128332,1555,1555,1598,1597,0,0,0,0,0,0,0,0,0,0
1682958892.80004787,104228292,1562,1562,1591,1591,0,0,0,0,0,0,0,0,0,0
1682958892.90000796,104328252,1568,1567,1583,1584,0,0,0,0,0,0,0,0,0,0
1682958892.99996781,104428212,1574,1573,1577,1578,0,0,0,0,0,0,0,0,0,0
1682958893.09992790,104528172,1579,1577,1571,1572,0,0,0,0,0,0,0,0,0,0
1682958893.20072079,104628965,1583,1581,1568,1569,0,0,0,0,0,0,0,0,0,0
1682958893.30068088,104728925,1585,1582,1565,1566,0,0,0,0,0,0,0,0,0,0
1682958893.40064096,104828885,1585,1583,1564,1565,0,0,0,0,0,0,0,0,0,0
1682958893.50060081,104928845,1585,1584,1565,1566,0,0,0,0,0,0,0,0,0,0
1682958893.60056090,105028805,1584,1583,1567,1567,0,0,0,0,0,0,0,0,0,0
1682958893.70052099,105128765,1582,1581,1570,1569,0,0,0,0,0,0,0,0,0,0
1682958893.80048084,105228725,1580,1580,1573,1573,0,0,0,0,0,0,0,0,0,0
1682958893.90044093,105328685,1578,1578,1576,1575,0,0,0,0,0,0,0,0,0,0
1682958894.00040078,105428645,1575,1577,1579,1578,0,0,0,0,0,0,0,0,0,0
1682958894.10036087,105528605,1575,1576,1582,1581,0,0,0,0,0,0,0,0,0,0
1682958894.20032096,105628565,1573,1574,1583,1582,0,0,0,0,0,0,0,0,0,0
1682958894.30028081,105728525,1573,1574,1584,1584,0,0,0,0,0,0,0,0,0,0
1682958894.40024090,105828485,1573,1575,1585,1585,0,0,0,0,0,0,0,0,0,0
1682958894.50020099,105928445,1574,1575,1584,1584,0,0,0,0,0,0,0,0,0,0
1682958894.60016084,106028405,1574,1574,1583,1582,0,0,0,0,0,0,0,0,0,0
1682958894.70012093,106128365,1576,1576,1583,1583,0,0,0,0,0,0,0,0,0,0
1682958894.80008078,106228325,1577,1577,1581,1581,0,0,0,0,0,0,0,0,0,0
1682958894.90004086,106328285,1578,1578,1580,1580,0,0,0,0,0,0,0,0,0,0
1682958895.00000095,106428245,1579,1579,1579,1579,0,0,0,0,0,0,0,0,0,0
1682958895.09996080,106528205,1581,1580,1578,1579,0,0,0,0,0,0,0,0,0,0
1682958895.19992089,106628165,1582,1581,1578,1578,0,0,0,0,0,0,0,0,0,0
1682958895.30071378,106728958,1582,1581,1577,1577,0,0,0,0,0,0,0,0,0,0
1682958895.40067387,106828918,1582,1582,1578,1578,0,0,0,0,0,0,0,0,0,0
1682958895.50063396,106928878,1582,1582,1578,1578,0,0,0,0,0,0,0,0,0,0
1682958895.60059381,107028838,1582,1582,1578,1579,0,0,0,0,0,0,0,0,0,0
1682958895.70055389,107128798,1582,1582,1578,1579,0,0,0,0,0,0,0,0,0,0
1682958895.80051398,107228758,1581,1581,1579,1579,0,0,0,0,0,0,0,0,0,0
1682958895.90047383,107328718,1581,1581,1580,1580,0,0,0,0,0,0,0,0,0,0
1682958896.00043392,107428678,1580,1580,1580,1580,0,0,0,0,0,0,0,0,0,0
1682958896.10039377,107528638,1580,1580,1581,1581,0,0,0,0,0,0,0,0,0,0
1682958896.20035386,107628598,1580,1581,1582,1582,0,0,0,0,0,0,0,0,0,0
1682958896.30031395,107728558,1580,1581,1582,1582,0,0,0,0,0,0,0,0,0,0
1682958896.40027380,107828518,1580,1579,1582,1581,0,0,0,0,0,0,0,0,0,0
1682958896.50023389,107928478,1580,1580,1581,1582,0,0,0,0,0,0,0,0,0,0
1682958896.60019398,108028438,1579,1580,1581,1581,0,0,0,0,0,0,0,0,0,0
1682958896.70015383,108128398,1581,1581,1582,1582,0,0,0,0,0,0,0,0,0,0
1682958896.80011392,108228358,1581,1582,1587,1574,0,0,0,0,0,0,0,0,0,0
1682958896.90007401,108328318,1581,1582,1586,1573,0,0,0,0,0,0,0,0,0,0
1682958897.00003386,108428278,1579,1579,1580,1575,0,0,0,0,0,0,0,0,0,0
1682958897.09999394,108528238,1576,1575,1574,1575,0,0,0,0,0,0,0,0,0,0
1682958897.19995379,108628198,1572,1570,1567,1574,0,0,0,0,0,0,0,0,0,0
1682958897.29991388,108728158,1569,1568,1564,1572,0,0,0,0,0,0,0,0,0,0
1682958897.40070677,108828951,1567,1567,1564,1569,0,0,0,0,0,0,0,0,0,0
1682958897.50066686,108928911,1566,1567,1564,1567,0,0,0,0,0,0,0,0,0,0
1682958897.60062695,109028871,1565,1567,1565,1565,0,0,0,0,0,0,0,0,0,0
1682958897.70058680,109128831,1565,1566,1566,1564,0,0,0,0,0,0,0,0,0,0
1682958897.80054688,109228791,1565,1565,1566,1563,0,0,0,0,0,0,0,0,0,0
1682958897.90050697,109328751,1565,1565,1566,1564,0,0,0,0,0,0,0,0,0,0
1682958898.00046682,109428711,1564,1563,1564,1562,0,0,0,0,0,0,0,0,0,0
1682958898.10042691,109528671,1563,1563,1564,1563,0,0,0,0,0,0,0,0,0,0
1682958898.20038700,109628631,1562,1562,1563,1562,0,0,0,0,0,0,0,0,0,0
1682958898.30034685,109728591,1563,1562,1563,1563,0,0,0,0,0,0,0,0,0,0
1682958898.40030694,109828551,1562,1562,1562,1563,0,0,0,0,0,0,0,0,0,0
1682958898.50026679,109928511,1561,1562,1562,1562,0,0,0,0,0,0,0,0,0,0
1682958898.60022688,110028471,1561,1561,1561,1561,0,0,0,0,0,0,0,0,0,0
1682958898.70018697,110128431,1561,1561,1561,1561,0,0,0,0,0,0,0,0,0,0
1682958898.80014682,110228391,1559,1559,1560,1559,0,0,0,0,0,0,0,0,0,0
1682958898.90010691,110328351,1559,1559,1560,1559,0,0,0,0,0,0,0,0,0,0
1682958899.00006700,110428311,1559,1559,1560,1559,0,0,0,0,0,0,0,0,0,0
1682958899.10002685,110528271,1559,1559,1559,1558,0,0,0,0,0,0,0,0,0,0
1682958899.19998693,110628231,1559,1559,1559,1558,0,0,0,0,0,0,0,0,0,0
1682958899.29994678,110728191,1559,1559,1560,1558,0,0,0,0,0,0,0,0,0,0
1682958899.40073991,110828984,1559,1559,1560,1558,0,0,0,0,0,0,0,0,0,0
1682958899.50070000,110928944,1560,1560,1561,1559,0,0,0,0,0,0,0,0,0,0
1682958899.60065985,111028904,1560,1560,1560,1560,0,0,0,0,0,0,0,0,0,0
1682958899.70061994,111128864,1561,1561,1559,1563,0,0,0,0,0,0,0,0,0,0
1682958899.80057979,111228824,1561,1561,1559,1564,0,0,0,0,0,0,0,0,0,0
1682958899.90053988,111328784,1561,1561,1558,1564,0,0,0,0,0,0,0,0,0,0
1682958900.00049996,111428744,1561,1561,1559,1563,0,0,0,0,0,0,0,0,0,0
1682958900.10045981,111528704,1561,1560,1560,1561,0,0,0,0,0,0,0,0,0,0
1682958900.20041990,111628664,1559,1559,1560,1557,0,0,0,0,0,0,0,0,0,0
1682958900.30037999,111728624,1559,1559,1559,1558,0,0,0,0,0,0,0,0,0,0
1682958900.40033984,111828584,1557,1556,1555,1557,0,0,0,0,0,0,0,0,0,0
1682958900.50029993,111928544,1553,1553,1552,1554,0,0,0,0,0,0,0,0,0,0
1682958900.60025978,112028504,1548,1547,1547,1548,0,0,0,0,0,0,0,0,0,0
1682958900.70021987,112128464,1542,1542,1541,1542,0,0,0,0,0,0,0,0,0,0
1682958900.80017996,112228424,1536,1536,1536,1536,0,0,0,0,0,0,0,0,0,0
1682958900.90013981,112328384,1528,1528,1528,1528,0,0,0,0,0,0,0,0,0,0
1682958901.00009990,112428344,1522,1522,1522,1522,0,0,0,0,0,0,0,0,0,0
1682958901.10005999,112528304,1519,1520,1519,1520,0,0,0,0,0,0,0,0,0,0
1682958901.20001984,112628264,1518,1520,1519,1520,0,0,0,0,0,0,0,0,0,0
1682958901.29997993,112728224,1519,1521,1520,1521,0,0,0,0,0,0,0,0,0,0
1682958901.39993978,112828184,1522,1523,1522,1523,0,0,0,0,0,0,0,0,0,0
1682958901.50073290,112928977,1525,1526,1525,1526,0,0,0,0,0,0,0,0,0,0
1682958901.60069299,113028937,1530,1530,1530,1530,0,0,0,0,0,0,0,0,0,0
1682958901.70065284,113128897,1536,1535,1536,1535,0,0,0,0,0,0,0,0,0,0
1682958901.80061293,113228857,1539,1537,1539,1537,0,0,0,0,0,0,0,0,0,0
1682958901.90057278,113328817,1542,1541,1543,1540,0,0,0,0,0,0,0,0,0,0
1682958902.00053287,113428777,1544,1543,1544,1543,0,0,0,0,0,0,0,0,0,0
1682958902.10049295,113528737,1545,1545,1545,1545,0,0,0,0,0,0,0,0,0,0
1682958902.20045280,113628697,1546,1545,1546,1545,0,0,0,0,0,0,0,0,0,0
1682958902.30041289,113728657,1547,1546,1547,1546,0,0,0,0,0,0,0,0,0,0
1682958902.40037298,113828617,1546,1547,1546,1547,0,0,0,0,0,0,0,0,0,0
1682958902.50033283,113928577,1547,1548,1547,1547,0,0,0,0,0,0,0,0,0,0
1682958902.60029292,114028537,1546,1547,1547,1546,0,0,0,0,0,0,0,0,0,0
1682958902.70025277,114128497,1548,1548,1547,1548,0,0,0,0,0,0,0,0,0,0
1682958902.80021286,114228457,1547,1547,1547,1548,0,0,0,0,0,0,0,0,0,0
1682958902.90017295,114328417,1547,1547,1546,1546,0,0,0,0,0,0,0,0,0,0
1682958903.00013280,114428377,1546,1546,1546,1546,0,0,0,0,0,0,0,0,0,0
1682958903.10009289,114528337,1546,1547,1546,1546,0,0,0,0,0,0,0,0,0,0
1682958903.20005298,114628297,1545,1545,1545,1545,0,0,0,0,0,0,0,0,0,0
1682958903.30001283,114728257,1545,1545,1545,1545,0,0,0,0,0,0,0,0,0,0
1682958903.39997292,114828217,1545,1546,1545,1545,0,0,0,0,0,0,0,0,0,0
1682958903.49993300,114928177,1545,1545,1545,1545,0,0,0,0,0,0,0,0,0,0
1682958903.60072589,115028970,1543,1544,1544,1543,0,0,0,0,0,0,0,0,0,0
1682958903.70068598,115128930,1544,1544,1544,1544,0,0,0,0,0,0,0,0,0,0
1682958903.80064583,115228890,1543,1544,1544,1543,0,0,0,0,0,0,0,0,0,0
1682958903.90060592,115328850,1544,1544,1544,1544,0,0,0,0,0,0,0,0,0,0
1682958904.00056577,115428810,1543,1543,1543,1543,0,0,0,0,0,0,0,0,0,0
1682958904.10052586,115528770,1544,1543,1544,1544,0,0,0,0,0,0,0,0,0,0
1682958904.20048594,115628730,1544,1544,1544,1544,0,0,0,0,0,0,0,0,0,0
1682958904.30044580,115728690,1544,1544,1544,1544,0,0,0,0,0,0,0,0,0,0
1682958904.40040588,115828650,1544,1543,1543,1543,0,0,0,0,0,0,0,0,0,0
1682958904.50036597,115928610,1544,1544,1544,1544,0,0,0,0,0,0,0,0,0,0
1682958904.60032582,116028570,1543,1544,1544,1543,0,0,0,0,0,0,0,0,0,0
1682958904.70028591,116128530,1544,1544,1544,1544,0,0,0,0,0,0,0,0,0,0
1682958904.80024600,116228490,1543,1544,1544,1543,0,0,0,0,0,0,0,0,0,0
1682958904.90020585,116328450,1544,1544,1544,1544,0,0,0,0,0,0,0,0,0,0
1682958905.00016594,116428410,1544,1544,1544,1544,0,0,0,0,0,0,0,0,0,0
1682958905.10012579,116528370,1544,1544,1544,1544,0,0,0,0,0,0,0,0,0,0
1682958905.20008588,116628330,1544,1544,1544,1544,0,0,0,0,0,0,0,0,0,0
1682958905.30004597,116728290,1544,1543,1544,1544,0,0,0,0,0,0,0,0,0,0
1682958905.40000582,116828250,1544,1545,1544,1544,0,0,0,0,0,0,0,0,0,0
1682958905.49996591,116928210,1544,1544,1544,1544,0,0,0,0,0,0,0,0,0,0
1682958905.59992599,117028170,1544,1545,1544,1544,0,0,0,0,0,0,0,0,0,0
1682958905.70071888,117128963,1544,1544,1544,1544,0,0,0,0,0,0,0,0,0,0
1682958905.80067897,117228923,1545,1545,1544,1545,0,0,0,0,0,0,0,0,0,0
1682958905.90063882,117328883,1544,1544,1544,1544,0,0,0,0,0,0,0,0,0,0
1682958906.00059891,117428843,1545,1544,1545,1544,0,0,0,0,0,0,0,0,0,0
1682958906.10055900,117528803,1545,1544,1545,1545,0,0,0,0,0,0,0,0,0,0
1682958906.20051885,117628763,1544,1544,1545,1544,0,0,0,0,0,0,0,0,0,0
1682958906.30047894,117728723,1544,1544,1544,1544,0,0,0,0,0,0,0,0,0,0
1682958906.40043879,117828683,1544,1545,1544,1545,0,0,0,0,0,0,0,0,0,0
1682958906.50039887,117928643,1544,1544,1544,1544,0,0,0,0,0,0,0,0,0,0
1682958906.60035896,118028603,1545,1544,1544,1544,0,0,0,0,0,0,0,0,0,0
1682958906.70031881,118128563,1545,1545,1545,1545,0,0,0,0,0,0,0,0,0,0
1682958906.80027890,118228523,1545,1546,1546,1545,0,0,0,0,0,0,0,0,0,0
1682958906.90023899,118328483,1546,1546,1546,1546,0,0,0,0,0,0,0,0,0,0
1682958907.00019884,118428443,1545,1546,1545,1545,0,0,0,0,0,0,0,0,0,0
1682958907.10015893,118528403,1544,1544,1544,1544,0,0,0,0,0,0,0,0,0,0
1682958907.20011878,118628363,1544,1544,1544,1545,0,0,0,0,0,0,0,0,0,0
1682958907.30007887,118728323,1545,1545,1545,1545,0,0,0,0,0,0,0,0,0,0
1682958907.40003896,118828283,1544,1545,1545,1544,0,0,0,0,0,0,0,0,0,0
1682958907.49999881,118928243,1544,1544,1545,1544,0,0,0,0,0,0,0,0,0,0
1682958907.59995890,119028203,1544,1544,1544,1544,0,0,0,0,0,0,0,0,0,0
1682958907.69991899,119128163,1544,1544,1544,1545,0,0,0,0,0,0,0,0,0,0
1682958907.80071187,119228956,1545,1545,1544,1545,0,0,0,0,0,0,0,0,0,0
1682958907.90067196,119328916,1545,1544,1544,1545,0,0,0,0,0,0,0,0,0,0
1682958908.00063181,119428876,1544,1544,1544,1544,0,0,0,0,0,0,0,0,0,0
1682958908.10059190,119528836,1545,1544,1544,1545,0,0,0,0,0,0,0,0,0,0
1682958908.20055199,119628796,1544,1545,1545,1544,0,0,0,0,0,0,0,0,0,0
1682958908.30051184,119728756,1545,1545,1545,1545,0,0,0,0,0,0,0,0,0,0
1682958908.40047193,119828716,1545,1545,1545,1545,0,0,0,0,0,0,0,0,0,0
1682958908.50043178,119928676,1545,1544,1545,1545,0,0,0,0,0,0,0,0,0,0
1682958908.60039186,120028636,1545,1545,1545,1545,0,0,0,0,0,0,0,0,0,0
1682958908.70035195,120128596,1544,1544,1544,1545,0,0,0,0,0,0,0,0,0,0
1682958908.80031180,120228556,1545,1545,1545,1545,0,0,0,0,0,0,0,0,0,0
1682958908.90027189,120328516,1544,1544,1544,1545,0,0,0,0,0,0,0,0,0,0
1682958909.00023198,120428476,1544,1545,1545,1545,0,0,0,0,0,0,0,0,0,0
1682958909.10019183,120528436,1545,1545,1545,1545,0,0,0,0,0,0,0,0,0,0
1682958909.20015192,120628396,1545,1545,1545,1545,0,0,0,0,0,0,0,0,0,0
1682958909.30011177,120728356,1545,1544,1544,1544,0,0,0,0,0,0,0,0,0,0
1682958909.40007186,120828316,1544,1544,1544,1544,0,0,0,0,0,0,0,0,0,0
1682958909.50003195,120928276,1544,1544,1544,1544,0,0,0,0,0,0,0,0,0,0
1682958909.59999180,121028236,1543,1543,1543,1543,0,0,0,0,0,0,0,0,0,0
1682958909.69995189,121128196,1544,1544,1544,1544,0,0,0,0,0,0,0,0,0,0
1682958909.79991198,121228156,1544,1544,1544,1544,0,0,0,0,0,0,0,0,0,0
1682958909.90070486,121328949,1545,1544,1544,1545,0,0,0,0,0,0,0,0,0,0
1682958910.00066495,121428909,1544,1544,1544,1543,0,0,0,0,0,0,0,0,0,0
1682958910.10062480,121528869,1544,1544,1544,1544,0,0,0,0,0,0,0,0,0,0
1682958910.20058489,121628829,1543,1544,1543,1543,0,0,0,0,0,0,0,0,0,0
1682958910.30054498,121728789,1544,1544,1544,1545,0,0,0,0,0,0,0,0,0,0
1682958910.40050483,121828749,1545,1545,1545,1545,0,0,0,0,0,0,0,0,0,0
1682958910.50046492,121928709,1545,1545,1545,1545,0,0,0,0,0,0,0,0,0,0
1682958910.60042500,122028669,1545,1545,1545,1545,0,0,0,0,0,0,0,0,0,0
1682958910.70038486,122128629,1545,1545,1545,1545,0,0,0,0,0,0,0,0,0,0
1682958910.80034494,122228589,1435,1393,1435,1393,0,0,0,0,0,0,0,0,0,0
1682958910.90030479,122328549,1353,1266,1352,1267,0,0,0,0,0,0,0,0,0,0
1682958911.00026488,122428509,1326,1222,1326,1222,0,0,0,0,0,0,0,0,0,0
1682958911.10022497,122528469,1316,1202,1315,1203,0,0,0,0,0,0,0,0,0,0
1682958911.20018482,122628429,1295,1163,1295,1164,0,0,0,0,0,0,0,0,0,0
1682958911.30014491,122728389,1242,1150,1241,1151,0,0,0,0,0,0,0,0,0,0
1682958911.40010500,122828349,1137,1150,1137,1150,0,0,0,0,0,0,0,0,0,0
1682958911.50006485,122928309,1061,1150,1061,1150,0,0,0,0,0,0,0,0,0,0
1682958911.60002494,123028269,1061,1150,1061,1150,0,0,0,0,0,0,0,0,0,0
1682958911.69998479,123128229,1061,1150,1061,1150,0,0,0,0,0,0,0,0,0,0
1682958911.79994488,123228189,1061,1150,1051,1163,0,0,0,0,0,0,0,0,0,0
1682958911.90073800,123328982,1061,1150,1054,1160,0,0,0,0,0,0,0,0,0,0
1682958912.00069785,123428942,1061,1150,1056,1157,0,0,0,0,0,0,0,0,0,0
1682958912.10065794,123528902,1061,1150,1056,1157,0,0,0,0,0,0,0,0,0,0
1682958912.20061779,123628862,1061,1150,1056,1157,0,0,0,0,0,0,0,0,0,0
1682958912.30057788,123728822,1061,1150,1055,1158,0,0,0,0,0,0,0,0,0,0
1682958912.40053797,123828782,1061,1150,1055,1159,0,0,0,0,0,0,0,0,0,0
1682958912.50049782,123928742,1061,1150,1054,1159,0,0,0,0,0,0,0,0,0,0
1682958912.60045791,124028702,1061,1150,1059,1153,0,0,0,0,0,0,0,0,0,0
1682958912.70041800,124128662,1061,1150,1058,1154,0,0,0,0,0,0,0,0,0,0
1682958912.80037785,124228622,1061,1150,1058,1154,0,0,0,0,0,0,0,0,0,0
1682958912.90033793,124328582,1061,1150,1058,1154,0,0,0,0,0,0,0,0,0,0
1682958913.00029778,124428542,1061,1150,1058,1155,0,0,0,0,0,0,0,0,0,0
1682958913.10025787,124528502,1000,1000,1000,1000,0,0,0,0,0,0,0,0,0,0
1682958913.20021796,124628462,1000,1000,1000,1000,0,0,0,0,0,0,0,0,0,0
1682958913.30017781,124728422,1000,1000,1000,1000,0,0,0,0,0,0,0,0,0,0
1682958913.40013790,124828382,1000,1000,1000,1000,0,0,0,0,0,0,0,0,0,0
1682958913.50009799,124928342,1000,1000,1000,1000,0,0,0,0,0,0,0,0,0,0
1682958913.60005784,125028302,1000,1000,1000,1000,0,0,0,0,0,0,0,0,0,0
1682958913.70001793,125128262,1000,1000,1000,1000,0,0,0,0,0,0,0,0,0,0
1682958913.79997778,125228222,1000,1000,1000,1000,0,0,0,0,0,0,0,0,0,0
1682958913.89993787,125328182,1000,1000,1000,1000,0,0,0,0,0,0,0,0,0,0
1682958914.00073099,125428975,1000,1000,1000,1000,0,0,0,0,0,0,0,0,0,0
1682958914.10069084,125528935,1000,1000,1000,1000,0,0,0,0,0,0,0,0,0,0
1682958914.20065093,125628895,1000,1000,1000,1000,0,0,0,0,0,0,0,0,0,0
1682958914.30061078,125728855,1000,1000,1000,1000,0,0,0,0,0,0,0,0,0,0
1682958914.40057087,125828815,1000,1000,1000,1000,0,0,0,0,0,0,0,0,0,0
1682958914.50053096,125928775,1000,1000,1000,1000,0,0,0,0,0,0,0,0,0,0
1682958914.60049081,126028735,1000,1000,1000,1000,0,0,0,0,0,0,0,0,0,0
1682958914.70045090,126128695,1000,1000,1000,1000,0,0,0,0,0,0,0,0,0,0
1682958914.80041099,126228655,1000,1000,1000,1000,0,0,0,0,0,0,0,0,0,0
1682958914.90037084,126328615,1000,1000,1000,1000,0,0,0,0,0,0,0,0,0,0
1682958915.00033092,126428575,1000,1000,1000,1000,0,0,0,0,0,0,0,0,0,0
1682958915.10029078,126528535,1000,1000,1000,1000,0,0,0,0,0,0,0,0,0,0
1682958915.20025086,126628495,1000,1000,1000,1000,0,0,0,0,0,0,0,0,0,0
1682958915.30021095,126728455,1000,1000,1000,1000,0,0,0,0,0,0,0,0,0,0
1682958915.40017080,126828415,1000,1000,1000,1000,0,0,0,0,0,0,0,0,0,0
1682958915.50013089,126928375,1000,1000,1000,1000,0,0,0,0,0,0,0,0,0,0
1682958915.60009098,127028335,1000,1000,1000,1000,0,0,0,0,0,0,0,0,0,0
1682958915.70005083,127128295,1000,1000,1000,1000,0,0,0,0,0,0,0,0,0,0
1682958915.80001092,127228255,1000,1000,1000,1000,0,0,0,0,0,0,0,0,0,0
1682958915.89997077,127328215,1000,1000,1000,1000,0,0,0,0,0,0,0,0,0,0
1682958915.99993086,127428175,1000,1000,1000,1000,0,0,0,0,0,0,0,0,0,0
1682958916.10072398,127528968,1000,1000,1000,1000,0,0,0,0,0,0,0,0,0,0
1682958916.20068383,127628928,1000,1000,1000,1000,0,0,0,0,0,0,0,0,0,0
1682958916.30064392,127728888,1000,1000,1000,1000,0,0,0,0,0,0,0,0,0,0
1682958916.40060377,127828848,1000,1000,1000,1000,0,0,0,0,0,0,0,0,0,0
1682958916.50056386,127928808,1000,1000,1000,1000,0,0,0,0,0,0,0,0,0,0
1682958916.60052395,128028768,1000,1000,1000,1000,0,0,0,0,0,0,0,0,0,0
1682958916.70048380,128128728,1000,1000,1000,1000,0,0,0,0,0,0,0,0,0,0
1682958916.80044389,128228688,1000,1000,1000,1000,0,0,0,0,0,0,0,0,0,0
1682958916.90040398,128328648,1000,1000,1000,1000,0,0,0,0,0,0,0,0,0,0
1682958917.00036383,128428608,1000,1000,1000,1000,0,0,0,0,0,0,0,0,0,0
1682958917.10032392,128528568,1000,1000,1000,1000,0,0,0,0,0,0,0,0,0,0
1682958917.20028400,128628528,1000,1000,1000,1000,0,0,0,0,0,0,0,0,0,0
1682958917.30024385,128728488,1000,1000,1000,1000,0,0,0,0,0,0,0,0,0,0
1682958917.40020394,128828448,1000,1000,1000,1000,0,0,0,0,0,0,0,0,0,0
1682958917.50016379,128928408,1000,1000,1000,1000,0,0,0,0,0,0,0,0,0,0
1682958917.60012388,129028368,1000,1000,1000,1000,0,0,0,0,0,0,0,0,0,0
1682958917.70008397,129128328,1000,1000,1000,1000,0,0,0,0,0,0,0,0,0,0
1682958917.80004382,129228288,1000,1000,1000,1000,0,0,0,0,0,0,0,0,0,0
1682958917.90000391,129328248,1000,1000,1000,1000,0,0,0,0,0,0,0,0,0,0
1682958917.99996400,129428208,1000,1000,1000,1000,0,0,0,0,0,0,0,0,0,0
1682958918.09992385,129528168,1000,1000,1000,1000,0,0,0,0,0,0,0,0,0,0
1682958918.20071697,129628961,1000,1000,1000,1000,0,0,0,0,0,0,0,0,0,0
1682958918.30067682,129728921,1000,1000,1000,1000,0,0,0,0,0,0,0,0,0,0
1682958918.40063691,129828881,1000,1000,1000,1000,0,0,0,0,0,0,0,0,0,0
1682958918.50059700,129928841,1000,1000,1000,1000,0,0,0,0,0,0,0,0,0,0
1682958918.60055685,130028801,1000,1000,1000,1000,0,0,0,0,0,0,0,0,0,0
1682958918.70051694,130128761,1000,1000,1000,1000,0,0,0,0,0,0,0,0,0,0
1682958918.80047679,130228721,1000,1000,1000,1000,0,0,0,0,0,0,0,0,0,0
1682958918.90043688,130328681,1000,1000,1000,1000,0,0,0,0,0,0,0,0,0,0
1682958919.00039697,130428641,1000,1000,1000,1000,0,0,0,0,0,0,0,0,0,0
1682958919.10035682,130528601,1000,1000,1000,1000,0,0,0,0,0,0,0,0,0,0
1682958919.20031691,130628561,1000,1000,1000,1000,0,0,0,0,0,0,0,0,0,0
1682958919.30027699,130728521,1000,1000,1000,1000,0,0,0,0,0,0,0,0,0,0
1682958919.40023685,130828481,1000,1000,1000,1000,0,0,0,0,0,0,0,0,0,0
1682958919.50019693,130928441,1000,1000,1000,1000,0,0,0,0,0,0,0,0,0,0
1682958919.60015678,131028401,1000,1000,1000,1000,0,0,0,0,0,0,0,0,0,0
1682958919.70011687,131128361,1000,1000,1000,1000,0,0,0,0,0,0,0,0,0,0
1682958919.80007696,131228321,1000,1000,1000,1000,0,0,0,0,0,0,0,0,0,0
1682958919.90003681,131328281,1000,1000,1000,1000,0,0,0,0,0,0,0,0,0,0
1682958919.99999690,131428241,1000,1000,1000,1000,0,0,0,0,0,0,0,0,0,0
1682958920.09995699,131528201,1000,1000,1000,1000,0,0,0,0,0,0,0,0,0,0
1682958920.19991684,131628161,1000,1000,1000,1000,0,0,0,0,0,0,0,0,0,0
1682958920.30070996,131728954,1000,1000,1000,1000,0,0,0,0,0,0,0,0,0,0
1682958920.40066981,131828914,1000,1000,1000,1000,0,0,0,0,0,0,0,0,0,0
1682958920.50062990,131928874,1000,1000,1000,1000,0,0,0,0,0,0,0,0,0,0
1682958920.60058999,132028834,1000,1000,1000,1000,0,0,0,0,0,0,0,0,0,0
1682958920.70054984,132128794,1000,1000,1000,1000,0,0,0,0,0,0,0,0,0,0
1682958920.80050993,132228754,1000,1000,1000,1000,0,0,0,0,0,0,0,0,0,0
1682958920.90046978,132328714,1000,1000,1000,1000,0,0,0,0,0,0,0,0,0,0
1682958921.00042987,132428674,1000,1000,1000,1000,0,0,0,0,0,0,0,0,0,0
1682958921.10038996,132528634,1000,1000,1000,1000,0,0,0,0,0,0,0,0,0,0
1682958921.20034981,132628594,1000,1000,1000,1000,0,0,0,0,0,0,0,0,0,0
1682958921.30030990,132728554,1000,1000,1000,1000,0,0,0,0,0,0,0,0,0,0
1682958921.40026999,132828514,1000,1000,1000,1000,0,0,0,0,0,0,0,0,0,0
1682958921.50022984,132928474,1000,1000,1000,1000,0,0,0,0,0,0,0,0,0,0
1682958921.60018992,133028434,1000,1000,1000,1000,0,0,0,0,0,0,0,0,0,0
1682958921.70014977,133128394,1000,1000,1000,1000,0,0,0,0,0,0,0,0,0,0
1682958921.80010986,133228354,1000,1000,1000,1000,0,0,0,0,0,0,0,0,0,0
1682958921.90006995,133328314,1000,1000,1000,1000,0,0,0,0,0,0,0,0,0,0
1682958922.00002980,133428274,1000,1000,1000,1000,0,0,0,0,0,0,0,0,0,0
1682958922.09998989,133528234,1000,1000,1000,1000,0,0,0,0,0,0,0,0,0,0
1682958922.19994998,133628194,1000,1000,1000,1000,0,0,0,0,0,0,0,0,0,0
1682958922.29990983,133728154,1000,1000,1000,1000,0,0,0,0,0,0,0,0,0,0
1682958922.40070295,133828947,1000,1000,1000,1000,0,0,0,0,0,0,0,0,0,0
1682958922.50066280,133928907,1000,1000,1000,1000,0,0,0,0,0,0,0,0,0,0
1682958922.60062289,134028867,1000,1000,1000,1000,0,0,0,0,0,0,0,0,0,0
1682958922.70058298,134128827,1000,1000,1000,1000,0,0,0,0,0,0,0,0,0,0
1682958922.80054283,134228787,1000,1000,1000,1000,0,0,0,0,0,0,0,0,0,0
1682958922.90050292,134328747,1000,1000,1000,1000,0,0,0,0,0,0,0,0,0,0
1682958923.00046277,134428707,1000,1000,1000,1000,0,0,0,0,0,0,0,0,0,0
1682958923.10042286,134528667,1000,1000,1000,1000,0,0,0,0,0,0,0,0,0,0
1682958923.20038295,134628627,1000,1000,1000,1000,0,0,0,0,0,0,0,0,0,0
1682958923.30034280,134728587,1000,1000,1000,1000,0,0,0,0,0,0,0,0,0,0
1682958923.40030289,134828547,1000,1000,1000,1000,0,0,0,0,0,0,0,0,0,0
1682958923.50026298,134928507,1000,1000,1000,1000,0,0,0,0,0,0,0,0,0,0
1682958923.60022283,135028467,1000,1000,1000,1000,0,0,0,0,0,0,0,0,0,0
1682958923.70018291,135128427,1000,1000,1000,1000,0,0,0,0,0,0,0,0,0,0
1682958923.80014300,135228387,1000,1000,1000,1000,0,0,0,0,0,0,0,0,0,0
1682958923.90010285,135328347,1000,1000,1000,1000,0,0,0,0,0,0,0,0,0,0
1682958924.00006294,135428307,1000,1000,1000,1000,0,0,0,0,0,0,0,0,0,0
1682958924.10002279,135528267,1000,1000,1000,1000,0,0,0,0,0,0,0,0,0,0
1682958924.19998288,135628227,1000,1000,1000,1000,0,0,0,0,0,0,0,0,0,0
1682958924.29994297,135728187,1000,1000,1000,1000,0,0,0,0,0,0,0,0,0,0
1682958924.40073586,135828980,1000,1000,1000,1000,0,0,0,0,0,0,0,0,0,0
1682958924.50069594,135928940,1000,1000,1000,1000,0,0,0,0,0,0,0,0,0,0
1682958924.60065579,136028900,1000,1000,1000,1000,0,0,0,0,0,0,0,0,0,0
1682958924.70061588,136128860,1000,1000,1000,1000,0,0,0,0,0,0,0,0,0,0
1682958924.80057597,136228820,1000,1000,1000,1000,0,0,0,0,0,0,0,0,0,0
1682958924.90053582,136328780,1000,1000,1000,1000,0,0,0,0,0,0,0,0,0,0
1682958925.00049591,136428740,1000,1000,1000,1000,0,0,0,0,0,0,0,0,0,0
1682958925.10045600,136528700,1000,1000,1000,1000,0,0,0,0,0,0,0,0,0,0
1682958925.20041585,136628660,1000,1000,1000,1000,0,0,0,0,0,0,0,0,0,0
1682958925.30037594,136728620,1000,1000,1000,1000,0,0,0,0,0,0,0,0,0,0
1682958925.40033579,136828580,1000,1000,1000,1000,0,0,0,0,0,0,0,0,0,0
1682958925.50029588,136928540,1000,1000,1000,1000,0,0,0,0,0,0,0,0,0,0
1682958925.60025597,137028500,1000,1000,1000,1000,0,0,0,0,0,0,0,0,0,0
1682958925.70021582,137128460,1000,1000,1000,1000,0,0,0,0,0,0,0,0,0,0
1682958925.80017591,137228420,1000,1000,1000,1000,0,0,0,0,0,0,0,0,0,0
1682958925.90013599,137328380,1000,1000,1000,1000,0,0,0,0,0,0,0,0,0,0
1682958926.00009584,137428340,1000,1000,1000,1000,0,0,0,0,0,0,0,0,0,0
1682958926.10005593,137528300,1000,1000,1000,1000,0,0,0,0,0,0,0,0,0,0
1682958926.20001578,137628260,1000,1000,1000,1000,0,0,0,0,0,0,0,0,0,0
1682958926.29997587,137728220,1000,1000,1000,1000,0,0,0,0,0,0,0,0,0,0
1682958926.39993596,137828180,1000,1000,1000,1000,0,0,0,0,0,0,0,0,0,0
1682958926.50072885,137928973,1000,1000,1000,1000,0,0,0,0,0,0,0,0,0,0
