timestamp,TimeUS,C1,C2,C3,C4,C5,C6,C7,C8,C9,C10,C11,C12,C13,C14
1682780142.59999990,53228700,1000,1000,1000,1000,0,0,0,0,0,0,0,0,0,0
1682780142.69995999,53328660,1000,1000,1000,1000,0,0,0,0,0,0,0,0,0,0
1682780142.79992008,53428620,1000,1000,1000,1000,0,0,0,0,0,0,0,0,0,0
1682780142.89987993,53528580,1000,1000,1000,1000,0,0,0,0,0,0,0,0,0,0
1682780142.99984002,53628540,1000,1000,1000,1000,0,0,0,0,0,0,0,0,0,0
1682780143.09979987,53728500,1000,1000,1000,1000,0,0,0,0,0,0,0,0,0,0
1682780143.19975996,53828460,1000,1000,1000,1000,0,0,0,0,0,0,0,0,0,0
1682780143.29972005,53928420,1000,1000,1000,1000,0,0,0,0,0,0,0,0,0,0
1682780143.39967990,54028380,1000,1000,1000,1000,0,0,0,0,0,0,0,0,0,0
1682780143.49963999,54128340,1000,1000,1000,1000,0,0,0,0,0,0,0,0,0,0
1682780143.59960008,54228300,1000,1000,1000,1000,0,0,0,0,0,0,0,0,0,0
1682780143.69955993,54328260,1000,1000,1000,1000,0,0,0,0,0,0,0,0,0,0
1682780143.79952002,54428220,1000,1000,1000,1000,0,0,0,0,0,0,0,0,0,0
1682780143.89947987,54528180,1000,1000,1000,1000,0,0,0,0,0,0,0,0,0,0
1682780144.00027299,54628973,1000,1000,1000,1000,0,0,0,0,0,0,0,0,0,0
1682780144.10023308,54728933,1000,1000,1000,1000,0,0,0,0,0,0,0,0,0,0
1682780144.20019293,54828893,1000,1000,1000,1000,0,0,0,0,0,0,0,0,0,0
1682780144.30015302,54928853,1000,1000,1000,1000,0,0,0,0,0,0,0,0,0,0
1682780144.40011287,55028813,1000,1000,1000,1000,0,0,0,0,0,0,0,0,0,0
1682780144.50007296,55128773,1000,1000,1000,1000,0,0,0,0,0,0,0,0,0,0
1682780144.60003304,55228733,1014,1014,1014,1014,0,0,0,0,0,0,0,0,0,0
1682780144.69999290,55328693,1044,1044,1044,1044,0,0,0,0,0,0,0,0,0,0
1682780144.79995298,55428653,1074,1074,1074,1074,0,0,0,0,0,0,0,0,0,0
1682780144.89991307,55528613,1104,1104,1104,1104,0,0,0,0,0,0,0,0,0,0
1682780144.99987292,55628573,1134,1134,1134,1134,0,0,0,0,0,0,0,0,0,0
1682780145.09983301,55728533,1281,1275,1275,1282,0,0,0,0,0,0,0,0,0,0
1682780145.19979310,55828493,1490,1485,1486,1490,0,0,0,0,0,0,0,0,0,0
1682780145.29975295,55928453,1652,1647,1648,1652,0,0,0,0,0,0,0,0,0,0
1682780145.39971304,56028413,1789,1784,1785,1789,0,0,0,0,0,0,0,0,0,0
1682780145.49967289,56128373,1863,1858,1859,1863,0,0,0,0,0,0,0,0,0,0
1682780145.59963298,56228333,1860,1857,1858,1860,0,0,0,0,0,0,0,0,0,0
1682780145.69959307,56328293,1737,1736,1736,1737,0,0,0,0,0,0,0,0,0,0
1682780145.79955292,56428253,1636,1638,1638,1636,0,0,0,0,0,0,0,0,0,0
1682780145.89951301,56528213,1608,1611,1611,1608,0,0,0,0,0,0,0,0,0,0
1682780145.99947309,56628173,1619,1622,1621,1620,0,0,0,0,0,0,0,0,0,0
1682780146.10026598,56728966,1631,1632,1631,1631,0,0,0,0,0,0,0,0,0,0
1682780146.20022607,56828926,1632,1633,1632,1632,0,0,0,0,0,0,0,0,0,0
1682780146.30018592,56928886,1628,1627,1627,1628,0,0,0,0,0,0,0,0,0,0
1682780146.40014601,57028846,1621,1620,1620,1621,0,0,0,0,0,0,0,0,0,0
1682780146.50010610,57128806,1603,1602,1597,1609,0,0,0,0,0,0,0,0,0,0
1682780146.60006595,57228766,1597,1597,1589,1605,0,0,0,0,0,0,0,0,0,0
1682780146.70002604,57328726,1598,1597,1592,1602,0,0,0,0,0,0,0,0,0,0
1682780146.79998589,57428686,1601,1601,1600,1601,0,0,0,0,0,0,0,0,0,0
1682780146.89994597,57528646,1606,1606,1609,1604,0,0,0,0,0,0,0,0,0,0
1682780146.99990606,57628606,1612,1613,1616,1608,0,0,0,0,0,0,0,0,0,0
1682780147.09986591,57728566,1595,1596,1606,1584,0,0,0,0,0,0,0,0,0,0
1682780147.19982600,57828526,1576,1577,1593,1560,0,0,0,0,0,0,0,0,0,0
1682780147.29978609,57928486,1566,1566,1574,1559,0,0,0,0,0,0,0,0,0,0
1682780147.39974594,58028446,1555,1555,1551,1560,0,0,0,0,0,0,0,0,0,0
1682780147.49970603,58128406,1546,1545,1535,1557,0,0,0,0,0,0,0,0,0,0
1682780147.59966588,58228366,1539,1538,1527,1550,0,0,0,0,0,0,0,0,0,0
1682780147.69962597,58328326,1533,1532,1524,1540,0,0,0,0,0,0,0,0,0,0
1682780147.79958606,58428286,1529,1529,1526,1532,0,0,0,0,0,0,0,0,0,0
1682780147.89954591,58528246,1529,1529,1529,1529,0,0,0,0,0,0,0,0,0,0
1682780147.99950600,58628206,1531,1531,1533,1529,0,0,0,0,0,0,0,0,0,0
1682780148.09946609,58728166,1535,1535,1538,1531,0,0,0,0,0,0,0,0,0,0
1682780148.20025897,58828959,1537,1538,1542,1533,0,0,0,0,0,0,0,0,0,0
1682780148.30021906,58928919,1541,1542,1545,1538,0,0,0,0,0,0,0,0,0,0
1682780148.40017891,59028879,1545,1545,1546,1543,0,0,0,0,0,0,0,0,0,0
1682780148.50013900,59128839,1547,1547,1547,1548,0,0,0,0,0,0,0,0,0,0
1682780148.60009909,59228799,1550,1550,1549,1551,0,0,0,0,0,0,0,0,0,0
1682780148.70005894,59328759,1553,1552,1550,1555,0,0,0,0,0,0,0,0,0,0
1682780148.80001903,59428719,1549,1549,1558,1562,0,0,0,0,0,0,0,0,0,0
1682780148.89997888,59528679,1551,1551,1562,1564,0,0,0,0,0,0,0,0,0,0
1682780148.99993896,59628639,1554,1555,1563,1563,0,0,0,0,0,0,0,0,0,0
1682780149.09989905,59728599,1559,1559,1564,1563,0,0,0,0,0,0,0,0,0,0
1682780149.19985890,59828559,1564,1564,1565,1563,0,0,0,0,0,0,0,0,0,0
1682780149.29981899,59928519,1567,1566,1564,1563,0,0,0,0,0,0,0,0,0,0
1682780149.39977908,60028479,1569,1569,1564,1564,0,0,0,0,0,0,0,0,0,0
1682780149.49973893,60128439,1572,1571,1565,1564,0,0,0,0,0,0,0,0,0,0
1682780149.59969902,60228399,1572,1572,1564,1565,0,0,0,0,0,0,0,0,0,0
1682780149.69965887,60328359,1572,1572,1565,1566,0,0,0,0,0,0,0,0,0,0
1682780149.79961896,60428319,1572,1573,1567,1567,0,0,0,0,0,0,0,0,0,0
1682780149.89957905,60528279,1574,1573,1569,1569,0,0,0,0,0,0,0,0,0,0
1682780149.99953890,60628239,1574,1573,1571,1571,0,0,0,0,0,0,0,0,0,0
1682780150.09949899,60728199,1574,1574,1573,1573,0,0,0,0,0,0,0,0,0,0
1682780150.19945908,60828159,1574,1574,1575,1573,0,0,0,0,0,0,0,0,0,0
1682780150.30025196,60928952,1574,1573,1576,1574,0,0,0,0,0,0,0,0,0,0
1682780150.40021205,61028912,1574,1574,1577,1575,0,0,0,0,0,0,0,0,0,0
1682780150.50017190,61128872,1573,1573,1576,1576,0,0,0,0,0,0,0,0,0,0
1682780150.60013199,61228832,1575,1575,1577,1578,0,0,0,0,0,0,0,0,0,0
1682780150.70009208,61328792,1575,1575,1577,1577,0,0,0,0,0,0,0,0,0,0
1682780150.80005193,61428752,1575,1575,1577,1577,0,0,0,0,0,0,0,0,0,0
1682780150.90001202,61528712,1575,1575,1576,1577,0,0,0,0,0,0,0,0,0,0
1682780150.99997187,61628672,1576,1576,1577,1577,0,0,0,0,0,0,0,0,0,0
1682780151.09993196,61728632,1577,1577,1577,1577,0,0,0,0,0,0,0,0,0,0
1682780151.19989204,61828592,1578,1578,1577,1577,0,0,0,0,0,0,0,0,0,0
1682780151.29985189,61928552,1579,1579,1578,1578,0,0,0,0,0,0,0,0,0,0
1682780151.39981198,62028512,1579,1579,1577,1577,0,0,0,0,0,0,0,0,0,0
1682780151.49977207,62128472,1578,1578,1577,1577,0,0,0,0,0,0,0,0,0,0
1682780151.59973192,62228432,1579,1579,1578,1578,0,0,0,0,0,0,0,0,0,0
1682780151.69969201,62328392,1579,1579,1578,1579,0,0,0,0,0,0,0,0,0,0
1682780151.79965210,62428352,1579,1579,1579,1579,0,0,0,0,0,0,0,0,0,0
1682780151.89961195,62528312,1579,1579,1579,1579,0,0,0,0,0,0,0,0,0,0
1682780151.99957204,62628272,1580,1580,1580,1580,0,0,0,0,0,0,0,0,0,0
1682780152.09953189,62728232,1579,1579,1580,1580,0,0,0,0,0,0,0,0,0,0
1682780152.19949198,62828192,1578,1579,1579,1579,0,0,0,0,0,0,0,0,0,0
1682780152.30028510,62928985,1578,1579,1579,1579,0,0,0,0,0,0,0,0,0,0
1682780152.40024495,63028945,1578,1578,1579,1579,0,0,0,0,0,0,0,0,0,0
1682780152.50020504,63128905,1579,1579,1579,1579,0,0,0,0,0,0,0,0,0,0
1682780152.60016489,63228865,1578,1579,1579,1579,0,0,0,0,0,0,0,0,0,0
1682780152.70012498,63328825,1578,1578,1578,1579,0,0,0,0,0,0,0,0,0,0
1682780152.80008507,63428785,1579,1578,1578,1578,0,0,0,0,0,0,0,0,0,0
1682780152.90004492,63528745,1579,1579,1579,1579,0,0,0,0,0,0,0,0,0,0
1682780153.00000501,63628705,1579,1579,1579,1579,0,0,0,0,0,0,0,0,0,0
1682780153.09996510,63728665,1579,1579,1579,1579,0,0,0,0,0,0,0,0,0,0
1682780153.19992495,63828625,1579,1579,1579,1579,0,0,0,0,0,0,0,0,0,0
1682780153.29988503,63928585,1579,1580,1579,1579,0,0,0,0,0,0,0,0,0,0
1682780153.39984488,64028545,1580,1580,1580,1580,0,0,0,0,0,0,0,0,0,0
1682780153.49980497,64128505,1580,1580,1580,1580,0,0,0,0,0,0,0,0,0,0
1682780153.59976506,64228465,1580,1580,1581,1580,0,0,0,0,0,0,0,0,0,0
1682780153.69972491,64328425,1580,1580,1580,1580,0,0,0,0,0,0,0,0,0,0
1682780153.79968500,64428385,1579,1579,1579,1579,0,0,0,0,0,0,0,0,0,0
1682780153.89964509,64528345,1580,1580,1580,1580,0,0,0,0,0,0,0,0,0,0
1682780153.99960494,64628305,1580,1581,1580,1581,0,0,0,0,0,0,0,0,0,0
1682780154.09956503,64728265,1580,1580,1580,1581,0,0,0,0,0,0,0,0,0,0
1682780154.19952488,64828225,1581,1581,1581,1580,0,0,0,0,0,0,0,0,0,0
1682780154.29948497,64928185,1582,1581,1581,1581,0,0,0,0,0,0,0,0,0,0
1682780154.40027809,65028978,1581,1581,1581,1580,0,0,0,0,0,0,0,0,0,0
1682780154.50023794,65128938,1581,1581,1581,1581,0,0,0,0,0,0,0,0,0,0
1682780154.60019803,65228898,1580,1580,1580,1580,0,0,0,0,0,0,0,0,0,0
1682780154.70015788,65328858,1580,1580,1580,1580,0,0,0,0,0,0,0,0,0,0
1682780154.80011797,65428818,1580,1580,1580,1581,0,0,0,0,0,0,0,0,0,0
1682780154.90007806,65528778,1581,1581,1581,1581,0,0,0,0,0,0,0,0,0,0
1682780155.00003791,65628738,1580,1581,1586,1575,0,0,0,0,0,0,0,0,0,0
1682780155.09999800,65728698,1580,1582,1587,1573,0,0,0,0,0,0,0,0,0,0
1682780155.19995809,65828658,1579,1582,1580,1573,0,0,0,0,0,0,0,0,0,0
1682780155.29991794,65928618,1578,1581,1572,1573,0,0,0,0,0,0,0,0,0,0
1682780155.39987803,66028578,1577,1579,1563,1570,0,0,0,0,0,0,0,0,0,0
1682780155.49983788,66128538,1577,1578,1558,1565,0,0,0,0,0,0,0,0,0,0
1682780155.59979796,66228498,1578,1577,1555,1560,0,0,0,0,0,0,0,0,0,0
1682780155.69975805,66328458,1579,1577,1555,1556,0,0,0,0,0,0,0,0,0,0
1682780155.79971790,66428418,1579,1577,1555,1554,0,0,0,0,0,0,0,0,0,0
1682780155.89967799,66528378,1578,1578,1556,1553,0,0,0,0,0,0,0,0,0,0
1682780155.99963808,66628338,1577,1577,1556,1553,0,0,0,0,0,0,0,0,0,0
1682780156.09959793,66728298,1576,1577,1556,1554,0,0,0,0,0,0,0,0,0,0
1682780156.19955802,66828258,1576,1577,1555,1554,0,0,0,0,0,0,0,0,0,0
1682780156.29951787,66928218,1575,1577,1554,1554,0,0,0,0,0,0,0,0,0,0
1682780156.39947796,67028178,1574,1576,1551,1552,0,0,0,0,0,0,0,0,0,0
1682780156.50027108,67128971,1576,1578,1551,1551,0,0,0,0,0,0,0,0,0,0
1682780156.60023093,67228931,1578,1579,1549,1549,0,0,0,0,0,0,0,0,0,0
1682780156.70019102,67328891,1580,1581,1547,1547,0,0,0,0,0,0,0,0,0,0
1682780156.80015087,67428851,1583,1584,1544,1544,0,0,0,0,0,0,0,0,0,0
1682780156.90011096,67528811,1585,1586,1541,1540,0,0,0,0,0,0,0,0,0,0
1682780157.00007105,67628771,1589,1590,1539,1539,0,0,0,0,0,0,0,0,0,0
1682780157.10003090,67728731,1592,1592,1537,1537,0,0,0,0,0,0,0,0,0,0
1682780157.19999099,67828691,1595,1594,1536,1536,0,0,0,0,0,0,0,0,0,0
1682780157.29995108,67928651,1595,1595,1535,1536,0,0,0,0,0,0,0,0,0,0
1682780157.39991093,68028611,1594,1595,1536,1537,0,0,0,0,0,0,0,0,0,0
1682780157.49987102,68128571,1594,1593,1538,1541,0,0,0,0,0,0,0,0,0,0
1682780157.59983087,68228531,1591,1590,1542,1546,0,0,0,0,0,0,0,0,0,0
1682780157.69979095,68328491,1586,1584,1549,1552,0,0,0,0,0,0,0,0,0,0
1682780157.79975104,68428451,1578,1575,1558,1561,0,0,0,0,0,0,0,0,0,0
1682780157.89971089,68528411,1569,1564,1569,1571,0,0,0,0,0,0,0,0,0,0
1682780157.99967098,68628371,1559,1555,1583,1584,0,0,0,0,0,0,0,0,0,0
1682780158.09963107,68728331,1547,1544,1594,1594,0,0,0,0,0,0,0,0,0,0
1682780158.19959092,68828291,1537,1536,1604,1603,0,0,0,0,0,0,0,0,0,0
1682780158.29955101,68928251,1530,1530,1611,1610,0,0,0,0,0,0,0,0,0,0
1682780158.39951110,69028211,1527,1529,1614,1613,0,0,0,0,0,0,0,0,0,0
1682780158.49947095,69128171,1529,1531,1614,1613,0,0,0,0,0,0,0,0,0,0
1682780158.60026407,69228964,1533,1536,1611,1610,0,0,0,0,0,0,0,0,0,0
1682780158.70022392,69328924,1541,1543,1606,1606,0,0,0,0,0,0,0,0,0,0
1682780158.80018401,69428884,1550,1551,1599,1599,0,0,0,0,0,0,0,0,0,0
1682780158.90014410,69528844,1559,1560,1592,1592,0,0,0,0,0,0,0,0,0,0
1682780159.00010395,69628804,1567,1567,1583,1583,0,0,0,0,0,0,0,0,0,0
1682780159.10006404,69728764,1576,1575,1578,1577,0,0,0,0,0,0,0,0,0,0
1682780159.20002389,69828724,1581,1580,1572,1571,0,0,0,0,0,0,0,0,0,0
1682780159.29998398,69928684,1586,1585,1569,1568,0,0,0,0,0,0,0,0,0,0
1682780159.39994407,70028644,1589,1588,1567,1567,0,0,0,0,0,0,0,0,0,0
1682780159.49990392,70128604,1588,1587,1566,1567,0,0,0,0,0,0,0,0,0,0
1682780159.59986401,70228564,1587,1586,1568,1567,0,0,0,0,0,0,0,0,0,0
1682780159.69982409,70328524,1586,1585,1570,1570,0,0,0,0,0,0,0,0,0,0
1682780159.79978395,70428484,1583,1583,1573,1574,0,0,0,0,0,0,0,0,0,0
1682780159.89974403,70528444,1580,1580,1576,1576,0,0,0,0,0,0,0,0,0,0
1682780159.99970388,70628404,1576,1577,1578,1578,0,0,0,0,0,0,0,0,0,0
1682780160.09966397,70728364,1574,1575,1581,1581,0,0,0,0,0,0,0,0,0,0
1682780160.19962406,70828324,1572,1573,1582,1582,0,0,0,0,0,0,0,0,0,0
1682780160.29958391,70928284,1573,1573,1584,1584,0,0,0,0,0,0,0,0,0,0
1682780160.39954400,71028244,1572,1573,1585,1584,0,0,0,0,0,0,0,0,0,0
1682780160.49950409,71128204,1572,1573,1583,1583,0,0,0,0,0,0,0,0,0,0
1682780160.59946394,71228164,1573,1574,1582,1583,0,0,0,0,0,0,0,0,0,0
1682780160.70025706,71328957,1575,1576,1581,1582,0,0,0,0,0,0,0,0,0,0
1682780160.80021691,71428917,1577,1576,1580,1580,0,0,0,0,0,0,0,0,0,0
1682780160.90017700,71528877,1578,1578,1578,1579,0,0,0,0,0,0,0,0,0,0
1682780161.00013709,71628837,1579,1578,1577,1577,0,0,0,0,0,0,0,0,0,0
1682780161.10009694,71728797,1581,1581,1578,1578,0,0,0,0,0,0,0,0,0,0
1682780161.20005703,71828757,1513,1563,1508,1561,0,0,0,0,0,0,0,0,0,0
1682780161.30001688,71928717,1575,1565,1571,1562,0,0,0,0,0,0,0,0,0,0
1682780161.39997697,72028677,1628,1585,1624,1582,0,0,0,0,0,0,0,0,0,0
1682780161.49993706,72128637,1665,1612,1662,1608,0,0,0,0,0,0,0,0,0,0
1682780161.59989691,72228597,1678,1632,1673,1626,0,0,0,0,0,0,0,0,0,0
1682780161.69985700,72328557,1661,1636,1655,1626,0,0,0,0,0,0,0,0,0,0
1682780161.79981709,72428517,1627,1630,1620,1617,0,0,0,0,0,0,0,0,0,0
1682780161.89977694,72528477,1596,1617,1592,1612,0,0,0,0,0,0,0,0,0,0
1682780161.99973702,72628437,1573,1601,1580,1611,0,0,0,0,0,0,0,0,0,0
1682780162.09969687,72728397,1561,1585,1580,1609,0,0,0,0,0,0,0,0,0,0
1682780162.19965696,72828357,1559,1572,1584,1603,0,0,0,0,0,0,0,0,0,0
1682780162.29961705,72928317,1562,1565,1588,1595,0,0,0,0,0,0,0,0,0,0
1682780162.39957690,73028277,1568,1564,1590,1586,0,0,0,0,0,0,0,0,0,0
1682780162.49953699,73128237,1575,1569,1588,1580,0,0,0,0,0,0,0,0,0,0
1682780162.59949708,73228197,1580,1575,1584,1575,0,0,0,0,0,0,0,0,0,0
1682780162.69945693,73328157,1583,1580,1578,1572,0,0,0,0,0,0,0,0,0,0
1682780162.80025005,73428950,1584,1584,1572,1570,0,0,0,0,0,0,0,0,0,0
1682780162.90020990,73528910,1584,1586,1567,1568,0,0,0,0,0,0,0,0,0,0
1682780163.00016999,73628870,1583,1585,1567,1563,0,0,0,0,0,0,0,0,0,0
1682780163.10013008,73728830,1583,1585,1568,1556,0,0,0,0,0,0,0,0,0,0
1682780163.20008993,73828790,1581,1584,1562,1556,0,0,0,0,0,0,0,0,0,0
1682780163.30005002,73928750,1578,1581,1556,1557,0,0,0,0,0,0,0,0,0,0
1682780163.40000987,74028710,1576,1579,1553,1558,0,0,0,0,0,0,0,0,0,0
1682780163.49996996,74128670,1574,1574,1550,1557,0,0,0,0,0,0,0,0,0,0
1682780163.59993005,74228630,1573,1572,1551,1556,0,0,0,0,0,0,0,0,0,0
1682780163.69988990,74328590,1571,1570,1552,1555,0,0,0,0,0,0,0,0,0,0
1682780163.79984999,74428550,1569,1569,1553,1553,0,0,0,0,0,0,0,0,0,0
1682780163.89981008,74528510,1568,1568,1554,1552,0,0,0,0,0,0,0,0,0,0
1682780163.99976993,74628470,1569,1570,1556,1554,0,0,0,0,0,0,0,0,0,0
1682780164.09973001,74728430,1569,1570,1555,1553,0,0,0,0,0,0,0,0,0,0
1682780164.19968987,74828390,1569,1571,1554,1553,0,0,0,0,0,0,0,0,0,0
1682780164.29964995,74928350,1569,1571,1551,1551,0,0,0,0,0,0,0,0,0,0
1682780164.39961004,75028310,1571,1573,1550,1550,0,0,0,0,0,0,0,0,0,0
1682780164.49956989,75128270,1574,1575,1548,1548,0,0,0,0,0,0,0,0,0,0
1682780164.59952998,75228230,1576,1577,1545,1545,0,0,0,0,0,0,0,0,0,0
1682780164.69949007,75328190,1579,1579,1542,1542,0,0,0,0,0,0,0,0,0,0
1682780164.80028296,75428983,1581,1581,1539,1538,0,0,0,0,0,0,0,0,0,0
1682780164.90024304,75528943,1585,1585,1537,1537,0,0,0,0,0,0,0,0,0,0
1682780165.00020289,75628903,1588,1589,1535,1536,0,0,0,0,0,0,0,0,0,0
1682780165.10016298,75728863,1592,1592,1535,1536,0,0,0,0,0,0,0,0,0,0
1682780165.20012307,75828823,1594,1593,1535,1535,0,0,0,0,0,0,0,0,0,0
1682780165.30008292,75928783,1593,1592,1535,1536,0,0,0,0,0,0,0,0,0,0
1682780165.40004301,76028743,1592,1591,1538,1539,0,0,0,0,0,0,0,0,0,0
1682780165.50000310,76128703,1589,1587,1542,1544,0,0,0,0,0,0,0,0,0,0
1682780165.59996295,76228663,1585,1582,1548,1551,0,0,0,0,0,0,0,0,0,0
1682780165.69992304,76328623,1578,1576,1555,1558,0,0,0,0,0,0,0,0,0,0
1682780165.79988289,76428583,1569,1568,1562,1565,0,0,0,0,0,0,0,0,0,0
1682780165.89984298,76528543,1562,1561,1571,1573,0,0,0,0,0,0,0,0,0,0
1682780165.99980307,76628503,1554,1554,1580,1582,0,0,0,0,0,0,0,0,0,0
1682780166.09976292,76728463,1547,1547,1588,1588,0,0,0,0,0,0,0,0,0,0
1682780166.19972301,76828423,1542,1541,1595,1594,0,0,0,0,0,0,0,0,0,0
1682780166.29968309,76928383,1538,1538,1600,1599,0,0,0,0,0,0,0,0,0,0
1682780166.39964294,77028343,1536,1537,1603,1602,0,0,0,0,0,0,0,0,0,0
1682780166.49960303,77128303,1537,1538,1604,1602,0,0,0,0,0,0,0,0,0,0
1682780166.59956288,77228263,1540,1541,1603,1601,0,0,0,0,0,0,0,0,0,0
1682780166.69952297,77328223,1544,1545,1599,1599,0,0,0,0,0,0,0,0,0,0
1682780166.79948306,77428183,1550,1551,1595,1595,0,0,0,0,0,0,0,0,0,0
1682780166.90027595,77528976,1556,1555,1589,1589,0,0,0,0,0,0,0,0,0,0
1682780167.00023603,77628936,1562,1562,1584,1585,0,0,0,0,0,0,0,0,0,0
1682780167.10019588,77728896,1568,1567,1578,1580,0,0,0,0,0,0,0,0,0,0
1682780167.20015597,77828856,1573,1571,1574,1575,0,0,0,0,0,0,0,0,0,0
1682780167.30011606,77928816,1577,1576,1572,1571,0,0,0,0,0,0,0,0,0,0
1682780167.40007591,78028776,1580,1579,1570,1569,0,0,0,0,0,0,0,0,0,0
1682780167.50003600,78128736,1581,1580,1569,1568,0,0,0,0,0,0,0,0,0,0
1682780167.59999609,78228696,1582,1581,1569,1568,0,0,0,0,0,0,0,0,0,0
1682780167.69995594,78328656,1582,1582,1570,1570,0,0,0,0,0,0,0,0,0,0
1682780167.79991603,78428616,1581,1581,1572,1572,0,0,0,0,0,0,0,0,0,0
1682780167.89987588,78528576,1580,1580,1574,1574,0,0,0,0,0,0,0,0,0,0
1682780167.99983597,78628536,1578,1578,1575,1575,0,0,0,0,0,0,0,0,0,0
1682780168.09979606,78728496,1577,1577,1577,1577,0,0,0,0,0,0,0,0,0,0
1682780168.19975591,78828456,1575,1576,1579,1578,0,0,0,0,0,0,0,0,0,0
1682780168.29971600,78928416,1574,1574,1579,1579,0,0,0,0,0,0,0,0,0,0
1682780168.39967608,79028376,1574,1575,1581,1581,0,0,0,0,0,0,0,0,0,0
1682780168.49963593,79128336,1575,1575,1582,1582,0,0,0,0,0,0,0,0,0,0
1682780168.59959602,79228296,1574,1574,1581,1581,0,0,0,0,0,0,0,0,0,0
1682780168.69955587,79328256,1574,1575,1581,1581,0,0,0,0,0,0,0,0,0,0
1682780168.79951596,79428216,1576,1577,1581,1581,0,0,0,0,0,0,0,0,0,0
1682780168.89947605,79528176,1577,1577,1581,1580,0,0,0,0,0,0,0,0,0,0
1682780169.00026894,79628969,1578,1578,1580,1579,0,0,0,0,0,0,0,0,0,0
1682780169.10022902,79728929,1579,1578,1579,1578,0,0,0,0,0,0,0,0,0,0
1682780169.20018888,79828889,1580,1580,1579,1579,0,0,0,0,0,0,0,0,0,0
1682780169.30014896,79928849,1580,1580,1577,1578,0,0,0,0,0,0,0,0,0,0
1682780169.40010905,80028809,1580,1580,1577,1578,0,0,0,0,0,0,0,0,0,0
1682780169.50006890,80128769,1580,1580,1577,1577,0,0,0,0,0,0,0,0,0,0
1682780169.60002899,80228729,1581,1581,1578,1578,0,0,0,0,0,0,0,0,0,0
1682780169.69998908,80328689,1581,1581,1579,1578,0,0,0,0,0,0,0,0,0,0
1682780169.79994893,80428649,1581,1581,1579,1579,0,0,0,0,0,0,0,0,0,0
1682780169.89990902,80528609,1581,1581,1579,1579,0,0,0,0,0,0,0,0,0,0
1682780169.99986887,80628569,1580,1580,1579,1580,0,0,0,0,0,0,0,0,0,0
1682780170.09982896,80728529,1580,1580,1580,1580,0,0,0,0,0,0,0,0,0,0
1682780170.19978905,80828489,1579,1580,1580,1580,0,0,0,0,0,0,0,0,0,0
1682780170.29974890,80928449,1580,1580,1580,1581,0,0,0,0,0,0,0,0,0,0
1682780170.39970899,81028409,1580,1580,1581,1581,0,0,0,0,0,0,0,0,0,0
1682780170.49966908,81128369,1580,1580,1581,1581,0,0,0,0,0,0,0,0,0,0
1682780170.59962893,81228329,1580,1580,1581,1581,0,0,0,0,0,0,0,0,0,0
1682780170.69958901,81328289,1580,1580,1582,1581,0,0,0,0,0,0,0,0,0,0
1682780170.79954886,81428249,1581,1581,1581,1581,0,0,0,0,0,0,0,0,0,0
1682780170.89950895,81528209,1581,1581,1581,1582,0,0,0,0,0,0,0,0,0,0
1682780170.99946904,81628169,1580,1580,1580,1581,0,0,0,0,0,0,0,0,0,0
1682780171.10026193,81728962,1581,1580,1580,1581,0,0,0,0,0,0,0,0,0,0
1682780171.20022202,81828922,1581,1581,1581,1580,0,0,0,0,0,0,0,0,0,0
1682780171.30018187,81928882,1581,1580,1580,1580,0,0,0,0,0,0,0,0,0,0
1682780171.40014195,82028842,1581,1581,1581,1581,0,0,0,0,0,0,0,0,0,0
1682780171.50010204,82128802,1581,1581,1580,1580,0,0,0,0,0,0,0,0,0,0
1682780171.60006189,82228762,1581,1582,1581,1581,0,0,0,0,0,0,0,0,0,0
1682780171.70002198,82328722,1581,1582,1583,1579,0,0,0,0,0,0,0,0,0,0
1682780171.79998207,82428682,1580,1582,1587,1572,0,0,0,0,0,0,0,0,0,0
1682780171.89994192,82528642,1579,1581,1582,1572,0,0,0,0,0,0,0,0,0,0
1682780171.99990201,82628602,1578,1580,1575,1573,0,0,0,0,0,0,0,0,0,0
1682780172.09986210,82728562,1576,1579,1567,1571,0,0,0,0,0,0,0,0,0,0
1682780172.19982195,82828522,1576,1578,1560,1567,0,0,0,0,0,0,0,0,0,0
1682780172.29978204,82928482,1576,1577,1556,1562,0,0,0,0,0,0,0,0,0,0
1682780172.39974189,83028442,1577,1577,1554,1558,0,0,0,0,0,0,0,0,0,0
1682780172.49970198,83128402,1579,1577,1555,1555,0,0,0,0,0,0,0,0,0,0
1682780172.59966207,83228362,1578,1577,1554,1553,0,0,0,0,0,0,0,0,0,0
1682780172.69962192,83328322,1579,1579,1556,1554,0,0,0,0,0,0,0,0,0,0
1682780172.79958200,83428282,1578,1578,1555,1553,0,0,0,0,0,0,0,0,0,0
1682780172.89954209,83528242,1577,1577,1554,1553,0,0,0,0,0,0,0,0,0,0
1682780172.99950194,83628202,1576,1578,1554,1553,0,0,0,0,0,0,0,0,0,0
1682780173.09946203,83728162,1575,1577,1553,1552,0,0,0,0,0,0,0,0,0,0
1682780173.20025492,83828955,1576,1578,1552,1552,0,0,0,0,0,0,0,0,0,0
1682780173.30021501,83928915,1576,1578,1550,1550,0,0,0,0,0,0,0,0,0,0
1682780173.40017509,84028875,1578,1579,1549,1549,0,0,0,0,0,0,0,0,0,0
1682780173.50013494,84128835,1580,1581,1547,1546,0,0,0,0,0,0,0,0,0,0
1682780173.60009503,84228795,1582,1583,1544,1544,0,0,0,0,0,0,0,0,0,0
1682780173.70005488,84328755,1585,1586,1542,1542,0,0,0,0,0,0,0,0,0,0
1682780173.80001497,84428715,1588,1589,1540,1540,0,0,0,0,0,0,0,0,0,0
1682780173.89997506,84528675,1590,1590,1538,1538,0,0,0,0,0,0,0,0,0,0
1682780173.99993491,84628635,1592,1592,1537,1538,0,0,0,0,0,0,0,0,0,0
1682780174.09989500,84728595,1593,1593,1537,1539,0,0,0,0,0,0,0,0,0,0
1682780174.19985509,84828555,1593,1593,1538,1540,0,0,0,0,0,0,0,0,0,0
1682780174.29981494,84928515,1593,1591,1541,1544,0,0,0,0,0,0,0,0,0,0
1682780174.39977503,85028475,1589,1587,1546,1549,0,0,0,0,0,0,0,0,0,0
1682780174.49973488,85128435,1583,1579,1553,1556,0,0,0,0,0,0,0,0,0,0
1682780174.59969497,85228395,1575,1572,1562,1565,0,0,0,0,0,0,0,0,0,0
1682780174.69965506,85328355,1566,1562,1574,1576,0,0,0,0,0,0,0,0,0,0
1682780174.79961491,85428315,1556,1553,1585,1586,0,0,0,0,0,0,0,0,0,0
1682780174.89957500,85528275,1546,1545,1595,1595,0,0,0,0,0,0,0,0,0,0
1682780174.99953508,85628235,1539,1540,1605,1604,0,0,0,0,0,0,0,0,0,0
1682780175.09949493,85728195,1535,1537,1611,1609,0,0,0,0,0,0,0,0,0,0
1682780175.19945502,85828155,1534,1537,1614,1612,0,0,0,0,0,0,0,0,0,0
1682780175.30024791,85928948,1536,1539,1613,1611,0,0,0,0,0,0,0,0,0,0
1682780175.40020800,86028908,1541,1543,1611,1609,0,0,0,0,0,0,0,0,0,0
1682780175.50016809,86128868,1546,1548,1605,1604,0,0,0,0,0,0,0,0,0,0
1682780175.60012794,86228828,1554,1554,1599,1598,0,0,0,0,0,0,0,0,0,0
1682780175.70008802,86328788,1561,1560,1592,1591,0,0,0,0,0,0,0,0,0,0
1682780175.80004787,86428748,1567,1566,1584,1583,0,0,0,0,0,0,0,0,0,0
1682780175.90000796,86528708,1573,1572,1576,1577,0,0,0,0,0,0,0,0,0,0
1682780175.99996805,86628668,1580,1579,1573,1574,0,0,0,0,0,0,0,0,0,0
1682780176.09992790,86728628,1584,1582,1569,1570,0,0,0,0,0,0,0,0,0,0
1682780176.19988799,86828588,1585,1584,1566,1567,0,0,0,0,0,0,0,0,0,0
1682780176.29984808,86928548,1587,1585,1566,1567,0,0,0,0,0,0,0,0,0,0
1682780176.39980793,87028508,1586,1585,1567,1568,0,0,0,0,0,0,0,0,0,0
1682780176.49976802,87128468,1585,1583,1569,1569,0,0,0,0,0,0,0,0,0,0
1682780176.59972787,87228428,1582,1582,1571,1571,0,0,0,0,0,0,0,0,0,0
1682780176.69968796,87328388,1580,1580,1574,1574,0,0,0,0,0,0,0,0,0,0
1682780176.79964805,87428348,1577,1578,1577,1576,0,0,0,0,0,0,0,0,0,0
1682780176.89960790,87528308,1575,1576,1579,1579,0,0,0,0,0,0,0,0,0,0
1682780176.99956799,87628268,1575,1575,1582,1582,0,0,0,0,0,0,0,0,0,0
1682780177.09952807,87728228,1574,1575,1584,1583,0,0,0,0,0,0,0,0,0,0
1682780177.19948792,87828188,1573,1574,1584,1584,0,0,0,0,0,0,0,0,0,0
1682780177.30028105,87928981,1573,1573,1584,1583,0,0,0,0,0,0,0,0,0,0
1682780177.40024090,88028941,1574,1574,1583,1584,0,0,0,0,0,0,0,0,0,0
1682780177.50020099,88128901,1574,1575,1582,1582,0,0,0,0,0,0,0,0,0,0
1682780177.60016108,88228861,1576,1576,1582,1581,0,0,0,0,0,0,0,0,0,0
1682780177.70012093,88328821,1577,1577,1581,1581,0,0,0,0,0,0,0,0,0,0
1682780177.80008101,88428781,1578,1578,1578,1579,0,0,0,0,0,0,0,0,0,0
1682780177.90004086,88528741,1580,1580,1579,1579,0,0,0,0,0,0,0,0,0,0
1682780178.00000095,88628701,1581,1581,1579,1579,0,0,0,0,0,0,0,0,0,0
1682780178.09996104,88728661,1582,1582,1579,1578,0,0,0,0,0,0,0,0,0,0
1682780178.19992089,88828621,1582,1582,1578,1578,0,0,0,0,0,0,0,0,0,0
1682780178.29988098,88928581,1582,1582,1577,1577,0,0,0,0,0,0,0,0,0,0
1682780178.39984107,89028541,1582,1582,1578,1578,0,0,0,0,0,0,0,0,0,0
1682780178.49980092,89128501,1582,1581,1578,1579,0,0,0,0,0,0,0,0,0,0
1682780178.59976101,89228461,1582,1582,1579,1579,0,0,0,0,0,0,0,0,0,0
1682780178.69972110,89328421,1581,1581,1580,1579,0,0,0,0,0,0,0,0,0,0
1682780178.79968095,89428381,1581,1581,1581,1580,0,0,0,0,0,0,0,0,0,0
1682780178.89964104,89528341,1580,1581,1581,1581,0,0,0,0,0,0,0,0,0,0
1682780178.99960089,89628301,1580,1580,1581,1581,0,0,0,0,0,0,0,0,0,0
1682780179.09956098,89728261,1580,1581,1582,1582,0,0,0,0,0,0,0,0,0,0
1682780179.19952106,89828221,1580,1580,1581,1582,0,0,0,0,0,0,0,0,0,0
1682780179.29948092,89928181,1579,1579,1580,1581,0,0,0,0,0,0,0,0,0,0
1682780179.40027404,90028974,1580,1580,1582,1581,0,0,0,0,0,0,0,0,0,0
1682780179.50023389,90128934,1581,1581,1582,1581,0,0,0,0,0,0,0,0,0,0
1682780179.60019398,90228894,1580,1580,1581,1580,0,0,0,0,0,0,0,0,0,0
1682780179.70015407,90328854,1581,1581,1582,1579,0,0,0,0,0,0,0,0,0,0
1682780179.80011392,90428814,1580,1582,1587,1572,0,0,0,0,0,0,0,0,0,0
1682780179.90007401,90528774,1580,1581,1583,1573,0,0,0,0,0,0,0,0,0,0
1682780180.00003409,90628734,1578,1577,1577,1575,0,0,0,0,0,0,0,0,0,0
1682780180.09999394,90728694,1574,1573,1570,1575,0,0,0,0,0,0,0,0,0,0
1682780180.19995403,90828654,1571,1570,1566,1573,0,0,0,0,0,0,0,0,0,0
1682780180.29991388,90928614,1569,1568,1564,1571,0,0,0,0,0,0,0,0,0,0
1682780180.39987397,91028574,1566,1567,1564,1568,0,0,0,0,0,0,0,0,0,0
1682780180.49983406,91128534,1566,1567,1565,1566,0,0,0,0,0,0,0,0,0,0
1682780180.59979391,91228494,1565,1566,1566,1564,0,0,0,0,0,0,0,0,0,0
1682780180.69975400,91328454,1565,1565,1566,1564,0,0,0,0,0,0,0,0,0,0
1682780180.79971409,91428414,1565,1565,1566,1564,0,0,0,0,0,0,0,0,0,0
1682780180.89967394,91528374,1565,1564,1566,1564,0,0,0,0,0,0,0,0,0,0
1682780180.99963403,91628334,1563,1563,1564,1564,0,0,0,0,0,0,0,0,0,0
1682780181.09959388,91728294,1562,1562,1563,1563,0,0,0,0,0,0,0,0,0,0
1682780181.19955397,91828254,1562,1562,1563,1563,0,0,0,0,0,0,0,0,0,0
1682780181.29951406,91928214,1561,1561,1561,1562,0,0,0,0,0,0,0,0,0,0
1682780181.39947391,92028174,1561,1561,1561,1561,0,0,0,0,0,0,0,0,0,0
1682780181.50026703,92128967,1560,1561,1561,1560,0,0,0,0,0,0,0,0,0,0
1682780181.60022688,92228927,1560,1559,1560,1559,0,0,0,0,0,0,0,0,0,0
1682780181.70018697,92328887,1559,1558,1559,1558,0,0,0,0,0,0,0,0,0,0
1682780181.80014706,92428847,1559,1559,1559,1559,0,0,0,0,0,0,0,0,0,0
1682780181.90010691,92528807,1558,1559,1559,1558,0,0,0,0,0,0,0,0,0,0
1682780182.00006700,92628767,1558,1557,1558,1557,0,0,0,0,0,0,0,0,0,0
1682780182.10002708,92728727,1559,1558,1559,1558,0,0,0,0,0,0,0,0,0,0
1682780182.19998693,92828687,1558,1558,1558,1557,0,0,0,0,0,0,0,0,0,0
1682780182.29994702,92928647,1558,1559,1559,1557,0,0,0,0,0,0,0,0,0,0
1682780182.39990687,93028607,1558,1559,1560,1557,0,0,0,0,0,0,0,0,0,0
1682780182.49986696,93128567,1559,1559,1560,1558,0,0,0,0,0,0,0,0,0,0
1682780182.59982705,93228527,1559,1559,1559,1560,0,0,0,0,0,0,0,0,0,0
1682780182.69978690,93328487,1561,1560,1558,1563,0,0,0,0,0,0,0,0,0,0
1682780182.79974699,93428447,1560,1560,1557,1564,0,0,0,0,0,0,0,0,0,0
1682780182.89970708,93528407,1561,1562,1558,1565,0,0,0,0,0,0,0,0,0,0
1682780182.99966693,93628367,1562,1562,1560,1564,0,0,0,0,0,0,0,0,0,0
1682780183.09962702,93728327,1562,1562,1561,1562,0,0,0,0,0,0,0,0,0,0
1682780183.19958687,93828287,1562,1562,1563,1560,0,0,0,0,0,0,0,0,0,0
1682780183.29954696,93928247,1561,1561,1563,1558,0,0,0,0,0,0,0,0,0,0
1682780183.39950705,94028207,1561,1561,1561,1561,0,0,0,0,0,0,0,0,0,0
1682780183.49946690,94128167,1559,1558,1556,1561,0,0,0,0,0,0,0,0,0,0
1682780183.60026002,94228960,1555,1554,1552,1557,0,0,0,0,0,0,0,0,0,0
1682780183.70021987,94328920,1550,1550,1549,1551,0,0,0,0,0,0,0,0,0,0
1682780183.80017996,94428880,1544,1544,1544,1544,0,0,0,0,0,0,0,0,0,0
1682780183.90014005,94528840,1537,1538,1538,1537,0,0,0,0,0,0,0,0,0,0
1682780184.00009990,94628800,1530,1530,1531,1529,0,0,0,0,0,0,0,0,0,0
1682780184.10005999,94728760,1522,1523,1523,1522,0,0,0,0,0,0,0,0,0,0
1682780184.20002007,94828720,1519,1520,1519,1520,0,0,0,0,0,0,0,0,0,0
1682780184.29997993,94928680,1519,1520,1519,1520,0,0,0,0,0,0,0,0,0,0
1682780184.39994001,95028640,1520,1521,1520,1522,0,0,0,0,0,0,0,0,0,0
1682780184.49989986,95128600,1523,1523,1522,1524,0,0,0,0,0,0,0,0,0,0
1682780184.59985995,95228560,1526,1527,1526,1527,0,0,0,0,0,0,0,0,0,0
1682780184.69982004,95328520,1530,1530,1530,1530,0,0,0,0,0,0,0,0,0,0
1682780184.79977989,95428480,1535,1534,1535,1534,0,0,0,0,0,0,0,0,0,0
1682780184.89973998,95528440,1539,1538,1539,1538,0,0,0,0,0,0,0,0,0,0
1682780184.99970007,95628400,1542,1541,1542,1541,0,0,0,0,0,0,0,0,0,0
1682780185.09965992,95728360,1543,1543,1543,1543,0,0,0,0,0,0,0,0,0,0
1682780185.19962001,95828320,1545,1544,1545,1544,0,0,0,0,0,0,0,0,0,0
1682780185.29958010,95928280,1545,1545,1545,1544,0,0,0,0,0,0,0,0,0,0
1682780185.39953995,96028240,1546,1546,1546,1546,0,0,0,0,0,0,0,0,0,0
1682780185.49950004,96128200,1546,1546,1546,1545,0,0,0,0,0,0,0,0,0,0
1682780185.59945989,96228160,1545,1545,1545,1545,0,0,0,0,0,0,0,0,0,0
1682780185.70025301,96328953,1546,1546,1546,1546,0,0,0,0,0,0,0,0,0,0
1682780185.80021310,96428913,1546,1546,1546,1546,0,0,0,0,0,0,0,0,0,0
1682780185.90017295,96528873,1546,1547,1546,1546,0,0,0,0,0,0,0,0,0,0
1682780186.00013304,96628833,1545,1545,1545,1545,0,0,0,0,0,0,0,0,0,0
1682780186.10009289,96728793,1546,1545,1545,1545,0,0,0,0,0,0,0,0,0,0
1682780186.20005298,96828753,1545,1545,1545,1545,0,0,0,0,0,0,0,0,0,0
1682780186.30001307,96928713,1545,1545,1545,1545,0,0,0,0,0,0,0,0,0,0
1682780186.39997292,97028673,1545,1545,1545,1545,0,0,0,0,0,0,0,0,0,0
1682780186.49993300,97128633,1544,1544,1544,1544,0,0,0,0,0,0,0,0,0,0
1682780186.59989309,97228593,1544,1545,1544,1545,0,0,0,0,0,0,0,0,0,0
1682780186.69985294,97328553,1544,1544,1544,1544,0,0,0,0,0,0,0,0,0,0
1682780186.79981303,97428513,1544,1544,1544,1544,0,0,0,0,0,0,0,0,0,0
1682780186.89977288,97528473,1544,1544,1544,1545,0,0,0,0,0,0,0,0,0,0
1682780186.99973297,97628433,1544,1544,1544,1544,0,0,0,0,0,0,0,0,0,0
1682780187.09969306,97728393,1544,1544,1544,1544,0,0,0,0,0,0,0,0,0,0
1682780187.19965291,97828353,1544,1544,1544,1543,0,0,0,0,0,0,0,0,0,0
1682780187.29961300,97928313,1544,1544,1544,1544,0,0,0,0,0,0,0,0,0,0
1682780187.39957309,98028273,1544,1544,1544,1543,0,0,0,0,0,0,0,0,0,0
1682780187.49953294,98128233,1545,1545,1544,1545,0,0,0,0,0,0,0,0,0,0
1682780187.59949303,98228193,1544,1544,1544,1544,0,0,0,0,0,0,0,0,0,0
1682780187.70028591,98328986,1545,1544,1545,1545,0,0,0,0,0,0,0,0,0,0
1682780187.80024600,98428946,1544,1545,1544,1545,0,0,0,0,0,0,0,0,0,0
1682780187.90020609,98528906,1544,1544,1544,1544,0,0,0,0,0,0,0,0,0,0
1682780188.00016594,98628866,1545,1545,1545,1545,0,0,0,0,0,0,0,0,0,0
1682780188.10012603,98728826,1545,1545,1545,1545,0,0,0,0,0,0,0,0,0,0
1682780188.20008588,98828786,1544,1545,1545,1544,0,0,0,0,0,0,0,0,0,0
1682780188.30004597,98928746,1545,1545,1545,1545,0,0,0,0,0,0,0,0,0,0
1682780188.40000606,99028706,1545,1545,1545,1545,0,0,0,0,0,0,0,0,0,0
1682780188.49996591,99128666,1545,1544,1544,1545,0,0,0,0,0,0,0,0,0,0
1682780188.59992599,99228626,1544,1544,1544,1544,0,0,0,0,0,0,0,0,0,0
1682780188.69988608,99328586,1545,1544,1544,1544,0,0,0,0,0,0,0,0,0,0
1682780188.79984593,99428546,1544,1545,1544,1544,0,0,0,0,0,0,0,0,0,0
1682780188.89980602,99528506,1545,1544,1544,1545,0,0,0,0,0,0,0,0,0,0
1682780188.99976587,99628466,1544,1544,1545,1544,0,0,0,0,0,0,0,0,0,0
1682780189.09972596,99728426,1543,1543,1543,1543,0,0,0,0,0,0,0,0,0,0
1682780189.19968605,99828386,1543,1544,1543,1543,0,0,0,0,0,0,0,0,0,0
1682780189.29964590,99928346,1544,1544,1544,1545,0,0,0,0,0,0,0,0,0,0
1682780189.39960599,100028306,1544,1544,1544,1544,0,0,0,0,0,0,0,0,0,0
1682780189.49956608,100128266,1545,1544,1544,1544,0,0,0,0,0,0,0,0,0,0
1682780189.59952593,100228226,1544,1544,1544,1544,0,0,0,0,0,0,0,0,0,0
1682780189.69948602,100328186,1544,1543,1544,1543,0,0,0,0,0,0,0,0,0,0
1682780189.80027890,100428979,1544,1544,1544,1544,0,0,0,0,0,0,0,0,0,0
1682780189.90023899,100528939,1544,1544,1544,1544,0,0,0,0,0,0,0,0,0,0
1682780190.00019908,100628899,1544,1545,1544,1545,0,0,0,0,0,0,0,0,0,0
1682780190.10015893,100728859,1544,1544,1544,1544,0,0,0,0,0,0,0,0,0,0
1682780190.20011902,100828819,1544,1544,1544,1544,0,0,0,0,0,0,0,0,0,0
1682780190.30007887,100928779,1544,1544,1544,1544,0,0,0,0,0,0,0,0,0,0
1682780190.40003896,101028739,1544,1544,1544,1544,0,0,0,0,0,0,0,0,0,0
1682780190.49999905,101128699,1544,1544,1544,1544,0,0,0,0,0,0,0,0,0,0
1682780190.59995890,101228659,1544,1545,1545,1545,0,0,0,0,0,0,0,0,0,0
1682780190.69991899,101328619,1545,1544,1545,1545,0,0,0,0,0,0,0,0,0,0
1682780190.79987907,101428579,1544,1544,1544,1544,0,0,0,0,0,0,0,0,0,0
1682780190.89983892,101528539,1545,1544,1544,1545,0,0,0,0,0,0,0,0,0,0
1682780190.99979901,101628499,1545,1545,1545,1545,0,0,0,0,0,0,0,0,0,0
1682780191.09975886,101728459,1546,1546,1545,1546,0,0,0,0,0,0,0,0,0,0
1682780191.19971895,101828419,1545,1545,1545,1545,0,0,0,0,0,0,0,0,0,0
1682780191.29967904,101928379,1544,1544,1544,1544,0,0,0,0,0,0,0,0,0,0
1682780191.39963889,102028339,1544,1545,1545,1544,0,0,0,0,0,0,0,0,0,0
1682780191.49959898,102128299,1544,1545,1544,1545,0,0,0,0,0,0,0,0,0,0
1682780191.59955907,102228259,1544,1544,1544,1544,0,0,0,0,0,0,0,0,0,0
1682780191.69951892,102328219,1544,1544,1544,1544,0,0,0,0,0,0,0,0,0,0
1682780191.79947901,102428179,1544,1544,1544,1544,0,0,0,0,0,0,0,0,0,0
1682780191.90027189,102528972,1543,1543,1543,1543,0,0,0,0,0,0,0,0,0,0
1682780192.00023198,102628932,1544,1544,1544,1544,0,0,0,0,0,0,0,0,0,0
1682780192.10019207,102728892,1543,1543,1543,1543,0,0,0,0,0,0,0,0,0,0
1682780192.20015192,102828852,1543,1544,1544,1544,0,0,0,0,0,0,0,0,0,0
1682780192.30011201,102928812,1543,1543,1543,1543,0,0,0,0,0,0,0,0,0,0
1682780192.40007210,103028772,1543,1543,1543,1543,0,0,0,0,0,0,0,0,0,0
1682780192.50003195,103128732,1543,1543,1543,1544,0,0,0,0,0,0,0,0,0,0
1682780192.59999204,103228692,1544,1544,1544,1544,0,0,0,0,0,0,0,0,0,0
1682780192.69995189,103328652,1544,1545,1544,1545,0,0,0,0,0,0,0,0,0,0
1682780192.79991198,103428612,1544,1545,1545,1544,0,0,0,0,0,0,0,0,0,0
1682780192.89987206,103528572,1544,1544,1544,1544,0,0,0,0,0,0,0,0,0,0
1682780192.99983191,103628532,1545,1545,1545,1545,0,0,0,0,0,0,0,0,0,0
1682780193.09979200,103728492,1544,1544,1544,1544,0,0,0,0,0,0,0,0,0,0
1682780193.19975209,103828452,1545,1545,1545,1544,0,0,0,0,0,0,0,0,0,0
1682780193.29971194,103928412,1545,1545,1545,1545,0,0,0,0,0,0,0,0,0,0
1682780193.39967203,104028372,1545,1545,1545,1545,0,0,0,0,0,0,0,0,0,0
1682780193.49963188,104128332,1545,1544,1544,1544,0,0,0,0,0,0,0,0,0,0
1682780193.59959197,104228292,1544,1544,1544,1544,0,0,0,0,0,0,0,0,0,0
1682780193.69955206,104328252,1544,1544,1544,1544,0,0,0,0,0,0,0,0,0,0
1682780193.79951191,104428212,1544,1545,1544,1544,0,0,0,0,0,0,0,0,0,0
1682780193.89947200,104528172,1450,1429,1450,1429,0,0,0,0,0,0,0,0,0,0
1682780194.00026488,104628965,1340,1282,1341,1280,0,0,0,0,0,0,0,0,0,0
1682780194.10022497,104728925,1300,1224,1301,1223,0,0,0,0,0,0,0,0,0,0
1682780194.20018506,104828885,1285,1203,1286,1201,0,0,0,0,0,0,0,0,0,0
1682780194.30014491,104928845,1262,1166,1262,1165,0,0,0,0,0,0,0,0,0,0
1682780194.40010500,105028805,1219,1151,1220,1150,0,0,0,0,0,0,0,0,0,0
1682780194.50006509,105128765,1157,1150,1158,1150,0,0,0,0,0,0,0,0,0,0
1682780194.60002494,105228725,1157,1151,1158,1150,0,0,0,0,0,0,0,0,0,0
1682780194.69998503,105328685,1157,1150,1158,1150,0,0,0,0,0,0,0,0,0,0
1682780194.79994488,105428645,1158,1150,1144,1168,0,0,0,0,0,0,0,0,0,0
1682780194.89990497,105528605,1158,1150,1149,1162,0,0,0,0,0,0,0,0,0,0
1682780194.99986506,105628565,1158,1150,1151,1159,0,0,0,0,0,0,0,0,0,0
1682780195.09982491,105728525,1158,1150,1151,1159,0,0,0,0,0,0,0,0,0,0
1682780195.19978499,105828485,1158,1150,1151,1159,0,0,0,0,0,0,0,0,0,0
1682780195.29974508,105928445,1158,1150,1150,1160,0,0,0,0,0,0,0,0,0,0
1682780195.39970493,106028405,1158,1150,1150,1160,0,0,0,0,0,0,0,0,0,0
1682780195.49966502,106128365,1158,1150,1149,1161,0,0,0,0,0,0,0,0,0,0
1682780195.59962487,106228325,1158,1150,1155,1153,0,0,0,0,0,0,0,0,0,0
1682780195.69958496,106328285,1158,1150,1154,1154,0,0,0,0,0,0,0,0,0,0
1682780195.79954505,106428245,1158,1150,1154,1155,0,0,0,0,0,0,0,0,0,0
1682780195.89950490,106528205,1158,1150,1154,1155,0,0,0,0,0,0,0,0,0,0
1682780195.99946499,106628165,1157,1150,1154,1155,0,0,0,0,0,0,0,0,0,0
1682780196.10025787,106728958,1000,1000,1000,1000,0,0,0,0,0,0,0,0,0,0
1682780196.20021796,106828918,1000,1000,1000,1000,0,0,0,0,0,0,0,0,0,0
1682780196.30017805,106928878,1000,1000,1000,1000,0,0,0,0,0,0,0,0,0,0
1682780196.40013790,107028838,1000,1000,1000,1000,0,0,0,0,0,0,0,0,0,0
1682780196.50009799,107128798,1000,1000,1000,1000,0,0,0,0,0,0,0,0,0,0
1682780196.60005808,107228758,1000,1000,1000,1000,0,0,0,0,0,0,0,0,0,0
1682780196.70001793,107328718,1000,1000,1000,1000,0,0,0,0,0,0,0,0,0,0
1682780196.79997802,107428678,1000,1000,1000,1000,0,0,0,0,0,0,0,0,0,0
1682780196.89993787,107528638,1000,1000,1000,1000,0,0,0,0,0,0,0,0,0,0
1682780196.99989796,107628598,1000,1000,1000,1000,0,0,0,0,0,0,0,0,0,0
1682780197.09985805,107728558,1000,1000,1000,1000,0,0,0,0,0,0,0,0,0,0
1682780197.19981790,107828518,1000,1000,1000,1000,0,0,0,0,0,0,0,0,0,0
1682780197.29977798,107928478,1000,1000,1000,1000,0,0,0,0,0,0,0,0,0,0
1682780197.39973807,108028438,1000,1000,1000,1000,0,0,0,0,0,0,0,0,0,0
1682780197.49969792,108128398,1000,1000,1000,1000,0,0,0,0,0,0,0,0,0,0
1682780197.59965801,108228358,1000,1000,1000,1000,0,0,0,0,0,0,0,0,0,0
1682780197.69961810,108328318,1000,1000,1000,1000,0,0,0,0,0,0,0,0,0,0
1682780197.79957795,108428278,1000,1000,1000,1000,0,0,0,0,0,0,0,0,0,0
1682780197.89953804,108528238,1000,1000,1000,1000,0,0,0,0,0,0,0,0,0,0
1682780197.99949789,108628198,1000,1000,1000,1000,0,0,0,0,0,0,0,0,0,0
1682780198.09945798,108728158,1000,1000,1000,1000,0,0,0,0,0,0,0,0,0,0
1682780198.20025086,108828951,1000,1000,1000,1000,0,0,0,0,0,0,0,0,0,0
1682780198.30021095,108928911,1000,1000,1000,1000,0,0,0,0,0,0,0,0,0,0
1682780198.40017104,109028871,1000,1000,1000,1000,0,0,0,0,0,0,0,0,0,0
1682780198.50013089,109128831,1000,1000,1000,1000,0,0,0,0,0,0,0,0,0,0
1682780198.60009098,109228791,1000,1000,1000,1000,0,0,0,0,0,0,0,0,0,0
1682780198.70005107,109328751,1000,1000,1000,1000,0,0,0,0,0,0,0,0,0,0
1682780198.80001092,109428711,1000,1000,1000,1000,0,0,0,0,0,0,0,0,0,0
1682780198.89997101,109528671,1000,1000,1000,1000,0,0,0,0,0,0,0,0,0,0
1682780198.99993110,109628631,1000,1000,1000,1000,0,0,0,0,0,0,0,0,0,0
1682780199.09989095,109728591,1000,1000,1000,1000,0,0,0,0,0,0,0,0,0,0
1682780199.19985104,109828551,1000,1000,1000,1000,0,0,0,0,0,0,0,0,0,0
1682780199.29981089,109928511,1000,1000,1000,1000,0,0,0,0,0,0,0,0,0,0
1682780199.39977098,110028471,1000,1000,1000,1000,0,0,0,0,0,0,0,0,0,0
1682780199.49973106,110128431,1000,1000,1000,1000,0,0,0,0,0,0,0,0,0,0
1682780199.59969091,110228391,1000,1000,1000,1000,0,0,0,0,0,0,0,0,0,0
1682780199.69965100,110328351,1000,1000,1000,1000,0,0,0,0,0,0,0,0,0,0
1682780199.79961109,110428311,1000,1000,1000,1000,0,0,0,0,0,0,0,0,0,0
1682780199.89957094,110528271,1000,1000,1000,1000,0,0,0,0,0,0,0,0,0,0
1682780199.99953103,110628231,1000,1000,1000,1000,0,0,0,0,0,0,0,0,0,0
1682780200.09949088,110728191,1000,1000,1000,1000,0,0,0,0,0,0,0,0,0,0
1682780200.20028400,110828984,1000,1000,1000,1000,0,0,0,0,0,0,0,0,0,0
1682780200.30024409,110928944,1000,1000,1000,1000,0,0,0,0,0,0,0,0,0,0
1682780200.40020394,111028904,1000,1000,1000,1000,0,0,0,0,0,0,0,0,0,0
1682780200.50016403,111128864,1000,1000,1000,1000,0,0,0,0,0,0,0,0,0,0
1682780200.60012388,111228824,1000,1000,1000,1000,0,0,0,0,0,0,0,0,0,0
1682780200.70008397,111328784,1000,1000,1000,1000,0,0,0,0,0,0,0,0,0,0
1682780200.80004406,111428744,1000,1000,1000,1000,0,0,0,0,0,0,0,0,0,0
1682780200.90000391,111528704,1000,1000,1000,1000,0,0,0,0,0,0,0,0,0,0
1682780200.99996400,111628664,1000,1000,1000,1000,0,0,0,0,0,0,0,0,0,0
1682780201.09992409,111728624,1000,1000,1000,1000,0,0,0,0,0,0,0,0,0,0
1682780201.19988394,111828584,1000,1000,1000,1000,0,0,0,0,0,0,0,0,0,0
1682780201.29984403,111928544,1000,1000,1000,1000,0,0,0,0,0,0,0,0,0,0
1682780201.39980388,112028504,1000,1000,1000,1000,0,0,0,0,0,0,0,0,0,0
1682780201.49976397,112128464,1000,1000,1000,1000,0,0,0,0,0,0,0,0,0,0
1682780201.59972405,112228424,1000,1000,1000,1000,0,0,0,0,0,0,0,0,0,0
1682780201.69968390,112328384,1000,1000,1000,1000,0,0,0,0,0,0,0,0,0,0
1682780201.79964399,112428344,1000,1000,1000,1000,0,0,0,0,0,0,0,0,0,0
1682780201.89960408,112528304,1000,1000,1000,1000,0,0,0,0,0,0,0,0,0,0
1682780201.99956393,112628264,1000,1000,1000,1000,0,0,0,0,0,0,0,0,0,0
1682780202.09952402,112728224,1000,1000,1000,1000,0,0,0,0,0,0,0,0,0,0
1682780202.19948387,112828184,1000,1000,1000,1000,0,0,0,0,0,0,0,0,0,0
1682780202.30027699,112928977,1000,1000,1000,1000,0,0,0,0,0,0,0,0,0,0
1682780202.40023708,113028937,1000,1000,1000,1000,0,0,0,0,0,0,0,0,0,0
1682780202.50019693,113128897,1000,1000,1000,1000,0,0,0,0,0,0,0,0,0,0
1682780202.60015702,113228857,1000,1000,1000,1000,0,0,0,0,0,0,0,0,0,0
1682780202.70011687,113328817,1000,1000,1000,1000,0,0,0,0,0,0,0,0,0,0
1682780202.80007696,113428777,1000,1000,1000,1000,0,0,0,0,0,0,0,0,0,0
1682780202.90003705,113528737,1000,1000,1000,1000,0,0,0,0,0,0,0,0,0,0
1682780202.99999690,113628697,1000,1000,1000,1000,0,0,0,0,0,0,0,0,0,0
1682780203.09995699,113728657,1000,1000,1000,1000,0,0,0,0,0,0,0,0,0,0
1682780203.19991708,113828617,1000,1000,1000,1000,0,0,0,0,0,0,0,0,0,0
1682780203.29987693,113928577,1000,1000,1000,1000,0,0,0,0,0,0,0,0,0,0
1682780203.39983702,114028537,1000,1000,1000,1000,0,0,0,0,0,0,0,0,0,0
1682780203.49979687,114128497,1000,1000,1000,1000,0,0,0,0,0,0,0,0,0,0
1682780203.59975696,114228457,1000,1000,1000,1000,0,0,0,0,0,0,0,0,0,0
1682780203.69971704,114328417,1000,1000,1000,1000,0,0,0,0,0,0,0,0,0,0
1682780203.79967690,114428377,1000,1000,1000,1000,0,0,0,0,0,0,0,0,0,0
1682780203.89963698,114528337,1000,1000,1000,1000,0,0,0,0,0,0,0,0,0,0
1682780203.99959707,114628297,1000,1000,1000,1000,0,0,0,0,0,0,0,0,0,0
1682780204.09955692,114728257,1000,1000,1000,1000,0,0,0,0,0,0,0,0,0,0
1682780204.19951701,114828217,1000,1000,1000,1000,0,0,0,0,0,0,0,0,0,0
1682780204.29947710,114928177,1000,1000,1000,1000,0,0,0,0,0,0,0,0,0,0
1682780204.40026999,115028970,1000,1000,1000,1000,0,0,0,0,0,0,0,0,0,0
1682780204.50023007,115128930,1000,1000,1000,1000,0,0,0,0,0,0,0,0,0,0
1682780204.60018992,115228890,1000,1000,1000,1000,0,0,0,0,0,0,0,0,0,0
1682780204.70015001,115328850,1000,1000,1000,1000,0,0,0,0,0,0,0,0,0,0
1682780204.80010986,115428810,1000,1000,1000,1000,0,0,0,0,0,0,0,0,0,0
1682780204.90006995,115528770,1000,1000,1000,1000,0,0,0,0,0,0,0,0,0,0
1682780205.00003004,115628730,1000,1000,1000,1000,0,0,0,0,0,0,0,0,0,0
1682780205.09998989,115728690,1000,1000,1000,1000,0,0,0,0,0,0,0,0,0,0
1682780205.19994998,115828650,1000,1000,1000,1000,0,0,0,0,0,0,0,0,0,0
1682780205.29991007,115928610,1000,1000,1000,1000,0,0,0,0,0,0,0,0,0,0
1682780205.39986992,116028570,1000,1000,1000,1000,0,0,0,0,0,0,0,0,0,0
1682780205.49983001,116128530,1000,1000,1000,1000,0,0,0,0,0,0,0,0,0,0
1682780205.59979010,116228490,1000,1000,1000,1000,0,0,0,0,0,0,0,0,0,0
1682780205.69974995,116328450,1000,1000,1000,1000,0,0,0,0,0,0,0,0,0,0
1682780205.79971004,116428410,1000,1000,1000,1000,0,0,0,0,0,0,0,0,0,0
1682780205.89966989,116528370,1000,1000,1000,1000,0,0,0,0,0,0,0,0,0,0
1682780205.99962997,116628330,1000,1000,1000,1000,0,0,0,0,0,0,0,0,0,0
1682780206.09959006,116728290,1000,1000,1000,1000,0,0,0,0,0,0,0,0,0,0
1682780206.19954991,116828250,1000,1000,1000,1000,0,0,0,0,0,0,0,0,0,0
1682780206.29951000,116928210,1000,1000,1000,1000,0,0,0,0,0,0,0,0,0,0
1682780206.39947009,117028170,1000,1000,1000,1000,0,0,0,0,0,0,0,0,0,0
1682780206.50026298,117128963,1000,1000,1000,1000,0,0,0,0,0,0,0,0,0,0
1682780206.60022306,117228923,1000,1000,1000,1000,0,0,0,0,0,0,0,0,0,0
