timestamp,TimeUS,C1,C2,C3,C4,C5,C6,C7,C8,C9,C10,C11,C12,C13,C14
1683031575.10003996,49528514,1000,1000,1000,1000,0,0,0,0,0,0,0,0,0,0
1683031575.20000005,49628474,1000,1000,1000,1000,0,0,0,0,0,0,0,0,0,0
1683031575.29996014,49728434,1000,1000,1000,1000,0,0,0,0,0,0,0,0,0,0
1683031575.39991999,49828394,1000,1000,1000,1000,0,0,0,0,0,0,0,0,0,0
1683031575.49988008,49928354,1000,1000,1000,1000,0,0,0,0,0,0,0,0,0,0
1683031575.59984016,50028314,1000,1000,1000,1000,0,0,0,0,0,0,0,0,0,0
1683031575.69980001,50128274,1000,1000,1000,1000,0,0,0,0,0,0,0,0,0,0
1683031575.79976010,50228234,1000,1000,1000,1000,0,0,0,0,0,0,0,0,0,0
1683031575.89971995,50328194,1000,1000,1000,1000,0,0,0,0,0,0,0,0,0,0
1683031575.99968004,50428154,1000,1000,1000,1000,0,0,0,0,0,0,0,0,0,0
1683031576.10047317,50528947,1000,1000,1000,1000,0,0,0,0,0,0,0,0,0,0
1683031576.20043302,50628907,1000,1000,1000,1000,0,0,0,0,0,0,0,0,0,0
1683031576.30039310,50728867,1000,1000,1000,1000,0,0,0,0,0,0,0,0,0,0
1683031576.40035295,50828827,1000,1000,1000,1000,0,0,0,0,0,0,0,0,0,0
1683031576.50031304,50928787,1000,1000,1000,1000,0,0,0,0,0,0,0,0,0,0
1683031576.60027313,51028747,1000,1000,1000,1000,0,0,0,0,0,0,0,0,0,0
1683031576.70023298,51128707,1000,1000,1000,1000,0,0,0,0,0,0,0,0,0,0
1683031576.80019307,51228667,1000,1000,1000,1000,0,0,0,0,0,0,0,0,0,0
1683031576.90015316,51328627,1000,1000,1000,1000,0,0,0,0,0,0,0,0,0,0
1683031577.00011301,51428587,1000,1000,1000,1000,0,0,0,0,0,0,0,0,0,0
1683031577.10007310,51528547,1013,1013,1013,1013,0,0,0,0,0,0,0,0,0,0
1683031577.20003295,51628507,1043,1043,1043,1043,0,0,0,0,0,0,0,0,0,0
1683031577.29999304,51728467,1073,1073,1073,1073,0,0,0,0,0,0,0,0,0,0
1683031577.39995313,51828427,1103,1103,1103,1103,0,0,0,0,0,0,0,0,0,0
1683031577.49991298,51928387,1133,1133,1133,1133,0,0,0,0,0,0,0,0,0,0
1683031577.59987307,52028347,1275,1269,1269,1275,0,0,0,0,0,0,0,0,0,0
1683031577.69983315,52128307,1486,1481,1481,1486,0,0,0,0,0,0,0,0,0,0
1683031577.79979300,52228267,1648,1644,1644,1648,0,0,0,0,0,0,0,0,0,0
1683031577.89975309,52328227,1786,1781,1782,1786,0,0,0,0,0,0,0,0,0,0
1683031577.99971294,52428187,1893,1889,1889,1893,0,0,0,0,0,0,0,0,0,0
1683031578.10050607,52528980,1874,1872,1872,1875,0,0,0,0,0,0,0,0,0,0
1683031578.20046616,52628940,1750,1749,1749,1750,0,0,0,0,0,0,0,0,0,0
1683031578.30042601,52728900,1650,1652,1652,1651,0,0,0,0,0,0,0,0,0,0
1683031578.40038610,52828860,1621,1624,1624,1621,0,0,0,0,0,0,0,0,0,0
1683031578.50034595,52928820,1627,1629,1629,1627,0,0,0,0,0,0,0,0,0,0
1683031578.60030603,53028780,1637,1638,1638,1637,0,0,0,0,0,0,0,0,0,0
1683031578.70026612,53128740,1636,1636,1636,1636,0,0,0,0,0,0,0,0,0,0
1683031578.80022597,53228700,1630,1629,1629,1630,0,0,0,0,0,0,0,0,0,0
1683031578.90018606,53328660,1623,1622,1622,1622,0,0,0,0,0,0,0,0,0,0
1683031579.00014615,53428620,1618,1617,1616,1617,0,0,0,0,0,0,0,0,0,0
1683031579.10010600,53528580,1616,1616,1616,1616,0,0,0,0,0,0,0,0,0,0
1683031579.20006609,53628540,1612,1615,1615,1612,0,0,0,0,0,0,0,0,0,0
1683031579.30002594,53728500,1582,1582,1582,1582,0,0,0,0,0,0,0,0,0,0
1683031579.39998603,53828460,1569,1569,1569,1569,0,0,0,0,0,0,0,0,0,0
1683031579.49994612,53928420,1559,1559,1559,1559,0,0,0,0,0,0,0,0,0,0
1683031579.59990597,54028380,1552,1551,1550,1553,0,0,0,0,0,0,0,0,0,0
1683031579.69986606,54128340,1547,1546,1542,1551,0,0,0,0,0,0,0,0,0,0
1683031579.79982615,54228300,1542,1542,1538,1546,0,0,0,0,0,0,0,0,0,0
1683031579.89978600,54328260,1540,1539,1537,1542,0,0,0,0,0,0,0,0,0,0
1683031579.99974608,54428220,1538,1539,1538,1540,0,0,0,0,0,0,0,0,0,0
1683031580.09970593,54528180,1538,1538,1539,1537,0,0,0,0,0,0,0,0,0,0
1683031580.20049906,54628973,1540,1540,1543,1537,0,0,0,0,0,0,0,0,0,0
1683031580.30045915,54728933,1544,1544,1547,1541,0,0,0,0,0,0,0,0,0,0
1683031580.40041900,54828893,1546,1546,1548,1544,0,0,0,0,0,0,0,0,0,0
1683031580.50037909,54928853,1542,1541,1550,1534,0,0,0,0,0,0,0,0,0,0
1683031580.60033894,55028813,1543,1543,1547,1539,0,0,0,0,0,0,0,0,0,0
1683031580.70029902,55128773,1543,1544,1542,1545,0,0,0,0,0,0,0,0,0,0
1683031580.80025911,55228733,1544,1545,1539,1550,0,0,0,0,0,0,0,0,0,0
1683031580.90021896,55328693,1545,1545,1538,1551,0,0,0,0,0,0,0,0,0,0
1683031581.00017905,55428653,1546,1546,1541,1551,0,0,0,0,0,0,0,0,0,0
1683031581.10013914,55528613,1548,1547,1545,1549,0,0,0,0,0,0,0,0,0,0
1683031581.20009899,55628573,1551,1551,1552,1550,0,0,0,0,0,0,0,0,0,0
1683031581.30005908,55728533,1554,1554,1557,1551,0,0,0,0,0,0,0,0,0,0
1683031581.40001917,55828493,1557,1557,1560,1554,0,0,0,0,0,0,0,0,0,0
1683031581.49997902,55928453,1559,1559,1562,1557,0,0,0,0,0,0,0,0,0,0
1683031581.59993911,56028413,1561,1561,1561,1560,0,0,0,0,0,0,0,0,0,0
1683031581.69989896,56128373,1561,1559,1563,1565,0,0,0,0,0,0,0,0,0,0
1683031581.79985905,56228333,1557,1557,1567,1571,0,0,0,0,0,0,0,0,0,0
1683031581.89981914,56328293,1557,1558,1567,1570,0,0,0,0,0,0,0,0,0,0
1683031581.99977899,56428253,1559,1561,1566,1568,0,0,0,0,0,0,0,0,0,0
1683031582.09973907,56528213,1563,1564,1566,1567,0,0,0,0,0,0,0,0,0,0
1683031582.19969916,56628173,1567,1567,1566,1565,0,0,0,0,0,0,0,0,0,0
1683031582.30049205,56728966,1569,1569,1566,1564,0,0,0,0,0,0,0,0,0,0
1683031582.40045214,56828926,1572,1572,1566,1565,0,0,0,0,0,0,0,0,0,0
1683031582.50041199,56928886,1573,1572,1565,1565,0,0,0,0,0,0,0,0,0,0
1683031582.60037208,57028846,1573,1573,1566,1566,0,0,0,0,0,0,0,0,0,0
1683031582.70033216,57128806,1574,1574,1567,1568,0,0,0,0,0,0,0,0,0,0
1683031582.80029202,57228766,1573,1573,1568,1569,0,0,0,0,0,0,0,0,0,0
1683031582.90025210,57328726,1574,1573,1570,1570,0,0,0,0,0,0,0,0,0,0
1683031583.00021195,57428686,1573,1573,1571,1572,0,0,0,0,0,0,0,0,0,0
1683031583.10017204,57528646,1573,1573,1573,1573,0,0,0,0,0,0,0,0,0,0
1683031583.20013213,57628606,1573,1574,1575,1574,0,0,0,0,0,0,0,0,0,0
1683031583.30009198,57728566,1573,1573,1576,1574,0,0,0,0,0,0,0,0,0,0
1683031583.40005207,57828526,1574,1575,1578,1576,0,0,0,0,0,0,0,0,0,0
1683031583.50001216,57928486,1575,1574,1577,1577,0,0,0,0,0,0,0,0,0,0
1683031583.59997201,58028446,1575,1575,1577,1577,0,0,0,0,0,0,0,0,0,0
1683031583.69993210,58128406,1575,1575,1577,1577,0,0,0,0,0,0,0,0,0,0
1683031583.79989195,58228366,1575,1576,1577,1577,0,0,0,0,0,0,0,0,0,0
1683031583.89985204,58328326,1577,1577,1578,1578,0,0,0,0,0,0,0,0,0,0
1683031583.99981213,58428286,1577,1576,1577,1577,0,0,0,0,0,0,0,0,0,0
1683031584.09977198,58528246,1578,1577,1577,1577,0,0,0,0,0,0,0,0,0,0
1683031584.19973207,58628206,1577,1577,1577,1577,0,0,0,0,0,0,0,0,0,0
1683031584.29969215,58728166,1576,1577,1576,1576,0,0,0,0,0,0,0,0,0,0
1683031584.40048504,58828959,1577,1577,1576,1576,0,0,0,0,0,0,0,0,0,0
1683031584.50044513,58928919,1577,1577,1576,1576,0,0,0,0,0,0,0,0,0,0
1683031584.60040498,59028879,1577,1577,1576,1576,0,0,0,0,0,0,0,0,0,0
1683031584.70036507,59128839,1577,1577,1576,1577,0,0,0,0,0,0,0,0,0,0
1683031584.80032516,59228799,1579,1579,1578,1578,0,0,0,0,0,0,0,0,0,0
1683031584.90028501,59328759,1578,1578,1578,1578,0,0,0,0,0,0,0,0,0,0
1683031585.00024509,59428719,1578,1578,1578,1578,0,0,0,0,0,0,0,0,0,0
1683031585.10020494,59528679,1577,1577,1577,1577,0,0,0,0,0,0,0,0,0,0
1683031585.20016503,59628639,1578,1578,1578,1578,0,0,0,0,0,0,0,0,0,0
1683031585.30012512,59728599,1578,1578,1578,1578,0,0,0,0,0,0,0,0,0,0
1683031585.40008497,59828559,1578,1579,1579,1579,0,0,0,0,0,0,0,0,0,0
1683031585.50004506,59928519,1579,1579,1579,1579,0,0,0,0,0,0,0,0,0,0
1683031585.60000515,60028479,1580,1580,1580,1580,0,0,0,0,0,0,0,0,0,0
1683031585.69996500,60128439,1579,1579,1579,1579,0,0,0,0,0,0,0,0,0,0
1683031585.79992509,60228399,1579,1579,1580,1580,0,0,0,0,0,0,0,0,0,0
1683031585.89988494,60328359,1579,1579,1579,1579,0,0,0,0,0,0,0,0,0,0
1683031585.99984503,60428319,1579,1579,1579,1579,0,0,0,0,0,0,0,0,0,0
1683031586.09980512,60528279,1579,1578,1579,1578,0,0,0,0,0,0,0,0,0,0
1683031586.19976497,60628239,1579,1579,1579,1579,0,0,0,0,0,0,0,0,0,0
1683031586.29972506,60728199,1579,1579,1579,1579,0,0,0,0,0,0,0,0,0,0
1683031586.39968514,60828159,1580,1579,1580,1579,0,0,0,0,0,0,0,0,0,0
1683031586.50047803,60928952,1580,1580,1580,1579,0,0,0,0,0,0,0,0,0,0
1683031586.60043812,61028912,1579,1580,1579,1580,0,0,0,0,0,0,0,0,0,0
1683031586.70039797,61128872,1580,1580,1580,1580,0,0,0,0,0,0,0,0,0,0
1683031586.80035806,61228832,1580,1580,1580,1581,0,0,0,0,0,0,0,0,0,0
1683031586.90031815,61328792,1580,1580,1580,1580,0,0,0,0,0,0,0,0,0,0
1683031587.00027800,61428752,1581,1581,1581,1581,0,0,0,0,0,0,0,0,0,0
1683031587.10023808,61528712,1581,1581,1581,1581,0,0,0,0,0,0,0,0,0,0
1683031587.20019794,61628672,1581,1581,1581,1581,0,0,0,0,0,0,0,0,0,0
1683031587.30015802,61728632,1581,1581,1581,1582,0,0,0,0,0,0,0,0,0,0
1683031587.40011811,61828592,1581,1581,1581,1581,0,0,0,0,0,0,0,0,0,0
1683031587.50007796,61928552,1581,1581,1581,1581,0,0,0,0,0,0,0,0,0,0
1683031587.60003805,62028512,1582,1582,1582,1582,0,0,0,0,0,0,0,0,0,0
1683031587.69999814,62128472,1580,1580,1580,1581,0,0,0,0,0,0,0,0,0,0
1683031587.79995799,62228432,1581,1580,1580,1581,0,0,0,0,0,0,0,0,0,0
1683031587.89991808,62328392,1581,1581,1580,1581,0,0,0,0,0,0,0,0,0,0
1683031587.99987817,62428352,1581,1581,1584,1577,0,0,0,0,0,0,0,0,0,0
1683031588.09983802,62528312,1580,1581,1587,1572,0,0,0,0,0,0,0,0,0,0
1683031588.19979811,62628272,1579,1581,1580,1573,0,0,0,0,0,0,0,0,0,0
1683031588.29975796,62728232,1578,1580,1573,1573,0,0,0,0,0,0,0,0,0,0
1683031588.39971805,62828192,1577,1579,1565,1570,0,0,0,0,0,0,0,0,0,0
1683031588.50051117,62928985,1576,1578,1558,1565,0,0,0,0,0,0,0,0,0,0
1683031588.60047102,63028945,1578,1578,1556,1561,0,0,0,0,0,0,0,0,0,0
1683031588.70043111,63128905,1579,1578,1555,1557,0,0,0,0,0,0,0,0,0,0
1683031588.80039096,63228865,1579,1577,1555,1555,0,0,0,0,0,0,0,0,0,0
1683031588.90035105,63328825,1579,1578,1556,1554,0,0,0,0,0,0,0,0,0,0
1683031589.00031114,63428785,1578,1577,1557,1554,0,0,0,0,0,0,0,0,0,0
1683031589.10027099,63528745,1576,1577,1555,1554,0,0,0,0,0,0,0,0,0,0
1683031589.20023108,63628705,1576,1577,1555,1555,0,0,0,0,0,0,0,0,0,0
1683031589.30019116,63728665,1574,1576,1553,1553,0,0,0,0,0,0,0,0,0,0
1683031589.40015101,63828625,1575,1576,1553,1553,0,0,0,0,0,0,0,0,0,0
1683031589.50011110,63928585,1576,1577,1551,1551,0,0,0,0,0,0,0,0,0,0
1683031589.60007095,64028545,1578,1579,1550,1550,0,0,0,0,0,0,0,0,0,0
1683031589.70003104,64128505,1580,1580,1547,1547,0,0,0,0,0,0,0,0,0,0
1683031589.79999113,64228465,1582,1583,1545,1544,0,0,0,0,0,0,0,0,0,0
1683031589.89995098,64328425,1584,1585,1541,1541,0,0,0,0,0,0,0,0,0,0
1683031589.99991107,64428385,1588,1589,1539,1539,0,0,0,0,0,0,0,0,0,0
1683031590.09987116,64528345,1591,1591,1537,1537,0,0,0,0,0,0,0,0,0,0
1683031590.19983101,64628305,1594,1594,1536,1536,0,0,0,0,0,0,0,0,0,0
1683031590.29979110,64728265,1595,1594,1535,1535,0,0,0,0,0,0,0,0,0,0
1683031590.39975095,64828225,1595,1595,1536,1537,0,0,0,0,0,0,0,0,0,0
1683031590.49971104,64928185,1593,1593,1537,1540,0,0,0,0,0,0,0,0,0,0
1683031590.60050416,65028978,1591,1591,1542,1544,0,0,0,0,0,0,0,0,0,0
1683031590.70046401,65128938,1588,1585,1548,1551,0,0,0,0,0,0,0,0,0,0
1683031590.80042410,65228898,1580,1577,1556,1559,0,0,0,0,0,0,0,0,0,0
1683031590.90038395,65328858,1571,1567,1566,1569,0,0,0,0,0,0,0,0,0,0
1683031591.00034404,65428818,1561,1558,1580,1581,0,0,0,0,0,0,0,0,0,0
1683031591.10030413,65528778,1549,1546,1591,1592,0,0,0,0,0,0,0,0,0,0
1683031591.20026398,65628738,1539,1537,1601,1601,0,0,0,0,0,0,0,0,0,0
1683031591.30022407,65728698,1532,1532,1609,1608,0,0,0,0,0,0,0,0,0,0
1683031591.40018415,65828658,1529,1530,1614,1613,0,0,0,0,0,0,0,0,0,0
1683031591.50014400,65928618,1529,1531,1615,1613,0,0,0,0,0,0,0,0,0,0
1683031591.60010409,66028578,1532,1534,1611,1610,0,0,0,0,0,0,0,0,0,0
1683031591.70006394,66128538,1538,1541,1606,1606,0,0,0,0,0,0,0,0,0,0
1683031591.80002403,66228498,1547,1548,1599,1600,0,0,0,0,0,0,0,0,0,0
1683031591.89998412,66328458,1556,1557,1592,1593,0,0,0,0,0,0,0,0,0,0
1683031591.99994397,66428418,1565,1565,1585,1585,0,0,0,0,0,0,0,0,0,0
1683031592.09990406,66528378,1573,1572,1578,1577,0,0,0,0,0,0,0,0,0,0
1683031592.19986415,66628338,1580,1578,1573,1572,0,0,0,0,0,0,0,0,0,0
1683031592.29982400,66728298,1584,1582,1568,1568,0,0,0,0,0,0,0,0,0,0
1683031592.39978409,66828258,1587,1586,1567,1566,0,0,0,0,0,0,0,0,0,0
1683031592.49974394,66928218,1588,1587,1567,1566,0,0,0,0,0,0,0,0,0,0
1683031592.59970403,67028178,1587,1587,1568,1568,0,0,0,0,0,0,0,0,0,0
1683031592.70049715,67128971,1586,1585,1570,1570,0,0,0,0,0,0,0,0,0,0
1683031592.80045700,67228931,1583,1583,1572,1572,0,0,0,0,0,0,0,0,0,0
1683031592.90041709,67328891,1580,1580,1575,1576,0,0,0,0,0,0,0,0,0,0
1683031593.00037694,67428851,1578,1578,1578,1578,0,0,0,0,0,0,0,0,0,0
1683031593.10033703,67528811,1575,1576,1580,1580,0,0,0,0,0,0,0,0,0,0
1683031593.20029712,67628771,1560,1545,1568,1553,0,0,0,0,0,0,0,0,0,0
1683031593.30025697,67728731,1581,1565,1591,1576,0,0,0,0,0,0,0,0,0,0
1683031593.40021706,67828691,1593,1571,1605,1581,0,0,0,0,0,0,0,0,0,0
1683031593.50017715,67928651,1598,1578,1610,1588,0,0,0,0,0,0,0,0,0,0
1683031593.60013700,68028611,1596,1585,1607,1594,0,0,0,0,0,0,0,0,0,0
1683031593.70009708,68128571,1589,1587,1597,1595,0,0,0,0,0,0,0,0,0,0
1683031593.80005693,68228531,1583,1588,1589,1596,0,0,0,0,0,0,0,0,0,0
1683031593.90001702,68328491,1577,1587,1583,1593,0,0,0,0,0,0,0,0,0,0
1683031593.99997711,68428451,1575,1584,1580,1589,0,0,0,0,0,0,0,0,0,0
1683031594.09993696,68528411,1576,1582,1579,1585,0,0,0,0,0,0,0,0,0,0
1683031594.19989705,68628371,1579,1580,1579,1581,0,0,0,0,0,0,0,0,0,0
1683031594.29985714,68728331,1581,1581,1579,1578,0,0,0,0,0,0,0,0,0,0
1683031594.39981699,68828291,1583,1582,1580,1577,0,0,0,0,0,0,0,0,0,0
1683031594.49977708,68928251,1584,1582,1578,1576,0,0,0,0,0,0,0,0,0,0
1683031594.59973717,69028211,1584,1582,1577,1576,0,0,0,0,0,0,0,0,0,0
1683031594.69969702,69128171,1582,1581,1575,1575,0,0,0,0,0,0,0,0,0,0
1683031594.80049014,69228964,1582,1582,1576,1576,0,0,0,0,0,0,0,0,0,0
1683031594.90044999,69328924,1581,1581,1576,1576,0,0,0,0,0,0,0,0,0,0
1683031595.00041008,69428884,1580,1581,1576,1577,0,0,0,0,0,0,0,0,0,0
1683031595.10037017,69528844,1579,1580,1576,1578,0,0,0,0,0,0,0,0,0,0
1683031595.20033002,69628804,1578,1578,1576,1577,0,0,0,0,0,0,0,0,0,0
1683031595.30029011,69728764,1577,1577,1577,1577,0,0,0,0,0,0,0,0,0,0
1683031595.40024996,69828724,1578,1578,1579,1579,0,0,0,0,0,0,0,0,0,0
1683031595.50021005,69928684,1579,1578,1579,1579,0,0,0,0,0,0,0,0,0,0
1683031595.60017014,70028644,1578,1578,1579,1579,0,0,0,0,0,0,0,0,0,0
1683031595.70012999,70128604,1577,1577,1578,1578,0,0,0,0,0,0,0,0,0,0
1683031595.80009007,70228564,1576,1576,1577,1577,0,0,0,0,0,0,0,0,0,0
1683031595.90005016,70328524,1578,1579,1579,1579,0,0,0,0,0,0,0,0,0,0
1683031596.00001001,70428484,1578,1579,1580,1577,0,0,0,0,0,0,0,0,0,0
1683031596.09997010,70528444,1578,1580,1585,1570,0,0,0,0,0,0,0,0,0,0
1683031596.19992995,70628404,1579,1581,1581,1570,0,0,0,0,0,0,0,0,0,0
1683031596.29989004,70728364,1578,1581,1573,1571,0,0,0,0,0,0,0,0,0,0
1683031596.39985013,70828324,1577,1579,1564,1569,0,0,0,0,0,0,0,0,0,0
1683031596.49980998,70928284,1577,1579,1558,1565,0,0,0,0,0,0,0,0,0,0
1683031596.59977007,71028244,1578,1579,1554,1560,0,0,0,0,0,0,0,0,0,0
1683031596.69973016,71128204,1579,1578,1552,1556,0,0,0,0,0,0,0,0,0,0
1683031596.79969001,71228164,1580,1578,1552,1553,0,0,0,0,0,0,0,0,0,0
1683031596.90048313,71328957,1579,1578,1553,1551,0,0,0,0,0,0,0,0,0,0
1683031597.00044298,71428917,1579,1579,1553,1551,0,0,0,0,0,0,0,0,0,0
1683031597.10040307,71528877,1577,1578,1554,1551,0,0,0,0,0,0,0,0,0,0
1683031597.20036316,71628837,1577,1578,1553,1552,0,0,0,0,0,0,0,0,0,0
1683031597.30032301,71728797,1576,1577,1552,1552,0,0,0,0,0,0,0,0,0,0
1683031597.40028310,71828757,1576,1578,1552,1552,0,0,0,0,0,0,0,0,0,0
1683031597.50024295,71928717,1576,1578,1550,1550,0,0,0,0,0,0,0,0,0,0
1683031597.60020304,72028677,1577,1579,1549,1549,0,0,0,0,0,0,0,0,0,0
1683031597.70016313,72128637,1580,1581,1549,1548,0,0,0,0,0,0,0,0,0,0
1683031597.80012298,72228597,1582,1583,1547,1546,0,0,0,0,0,0,0,0,0,0
1683031597.90008307,72328557,1584,1584,1544,1544,0,0,0,0,0,0,0,0,0,0
1683031598.00004315,72428517,1587,1587,1542,1543,0,0,0,0,0,0,0,0,0,0
1683031598.10000300,72528477,1588,1588,1541,1542,0,0,0,0,0,0,0,0,0,0
1683031598.19996309,72628437,1590,1590,1541,1541,0,0,0,0,0,0,0,0,0,0
1683031598.29992294,72728397,1591,1591,1541,1542,0,0,0,0,0,0,0,0,0,0
1683031598.39988303,72828357,1590,1590,1541,1544,0,0,0,0,0,0,0,0,0,0
1683031598.49984312,72928317,1588,1588,1544,1547,0,0,0,0,0,0,0,0,0,0
1683031598.59980297,73028277,1584,1583,1548,1550,0,0,0,0,0,0,0,0,0,0
1683031598.69976306,73128237,1580,1578,1556,1558,0,0,0,0,0,0,0,0,0,0
1683031598.79972315,73228197,1573,1570,1564,1566,0,0,0,0,0,0,0,0,0,0
1683031598.89968300,73328157,1566,1562,1574,1576,0,0,0,0,0,0,0,0,0,0
1683031599.00047612,73428950,1557,1553,1584,1585,0,0,0,0,0,0,0,0,0,0
1683031599.10043597,73528910,1549,1547,1594,1594,0,0,0,0,0,0,0,0,0,0
1683031599.20039606,73628870,1542,1542,1601,1601,0,0,0,0,0,0,0,0,0,0
1683031599.30035615,73728830,1537,1538,1605,1605,0,0,0,0,0,0,0,0,0,0
1683031599.40031600,73828790,1537,1539,1608,1607,0,0,0,0,0,0,0,0,0,0
1683031599.50027609,73928750,1539,1541,1608,1607,0,0,0,0,0,0,0,0,0,0
1683031599.60023594,74028710,1543,1545,1605,1604,0,0,0,0,0,0,0,0,0,0
1683031599.70019603,74128670,1549,1551,1600,1600,0,0,0,0,0,0,0,0,0,0
1683031599.80015612,74228630,1556,1557,1595,1594,0,0,0,0,0,0,0,0,0,0
1683031599.90011597,74328590,1563,1563,1588,1588,0,0,0,0,0,0,0,0,0,0
1683031600.00007606,74428550,1569,1569,1582,1582,0,0,0,0,0,0,0,0,0,0
1683031600.10003614,74528510,1576,1575,1578,1578,0,0,0,0,0,0,0,0,0,0
1683031600.19999599,74628470,1580,1579,1573,1573,0,0,0,0,0,0,0,0,0,0
1683031600.29995608,74728430,1583,1582,1570,1571,0,0,0,0,0,0,0,0,0,0
1683031600.39991593,74828390,1585,1583,1569,1569,0,0,0,0,0,0,0,0,0,0
1683031600.49987602,74928350,1585,1583,1569,1569,0,0,0,0,0,0,0,0,0,0
1683031600.59983611,75028310,1584,1583,1570,1570,0,0,0,0,0,0,0,0,0,0
1683031600.69979596,75128270,1582,1581,1571,1571,0,0,0,0,0,0,0,0,0,0
1683031600.79975605,75228230,1580,1580,1573,1573,0,0,0,0,0,0,0,0,0,0
1683031600.89971614,75328190,1578,1579,1576,1576,0,0,0,0,0,0,0,0,0,0
1683031601.00050902,75428983,1577,1577,1579,1578,0,0,0,0,0,0,0,0,0,0
1683031601.10046911,75528943,1576,1576,1580,1580,0,0,0,0,0,0,0,0,0,0
1683031601.20042896,75628903,1574,1574,1581,1581,0,0,0,0,0,0,0,0,0,0
1683031601.30038905,75728863,1573,1575,1583,1583,0,0,0,0,0,0,0,0,0,0
1683031601.40034914,75828823,1573,1574,1583,1583,0,0,0,0,0,0,0,0,0,0
1683031601.50030899,75928783,1573,1573,1582,1582,0,0,0,0,0,0,0,0,0,0
1683031601.60026908,76028743,1575,1575,1582,1582,0,0,0,0,0,0,0,0,0,0
1683031601.70022917,76128703,1576,1576,1582,1581,0,0,0,0,0,0,0,0,0,0
1683031601.80018902,76228663,1577,1577,1581,1581,0,0,0,0,0,0,0,0,0,0
1683031601.90014911,76328623,1578,1579,1580,1580,0,0,0,0,0,0,0,0,0,0
1683031602.00010896,76428583,1579,1580,1579,1579,0,0,0,0,0,0,0,0,0,0
1683031602.10006905,76528543,1580,1580,1578,1578,0,0,0,0,0,0,0,0,0,0
1683031602.20002913,76628503,1582,1581,1578,1579,0,0,0,0,0,0,0,0,0,0
1683031602.29998899,76728463,1581,1580,1578,1578,0,0,0,0,0,0,0,0,0,0
1683031602.39994907,76828423,1581,1580,1577,1577,0,0,0,0,0,0,0,0,0,0
1683031602.49990916,76928383,1581,1581,1578,1578,0,0,0,0,0,0,0,0,0,0
1683031602.59986901,77028343,1581,1581,1578,1578,0,0,0,0,0,0,0,0,0,0
1683031602.69982910,77128303,1581,1581,1579,1579,0,0,0,0,0,0,0,0,0,0
1683031602.79978895,77228263,1580,1580,1579,1579,0,0,0,0,0,0,0,0,0,0
1683031602.89974904,77328223,1579,1579,1579,1579,0,0,0,0,0,0,0,0,0,0
1683031602.99970913,77428183,1579,1580,1580,1580,0,0,0,0,0,0,0,0,0,0
1683031603.10050201,77528976,1578,1578,1580,1580,0,0,0,0,0,0,0,0,0,0
1683031603.20046210,77628936,1579,1579,1580,1581,0,0,0,0,0,0,0,0,0,0
1683031603.30042195,77728896,1579,1579,1580,1581,0,0,0,0,0,0,0,0,0,0
1683031603.40038204,77828856,1580,1580,1581,1581,0,0,0,0,0,0,0,0,0,0
1683031603.50034213,77928816,1580,1580,1581,1581,0,0,0,0,0,0,0,0,0,0
1683031603.60030198,78028776,1581,1580,1581,1581,0,0,0,0,0,0,0,0,0,0
1683031603.70026207,78128736,1580,1581,1581,1581,0,0,0,0,0,0,0,0,0,0
1683031603.80022216,78228696,1580,1581,1580,1580,0,0,0,0,0,0,0,0,0,0
1683031603.90018201,78328656,1581,1581,1580,1581,0,0,0,0,0,0,0,0,0,0
1683031604.00014210,78428616,1581,1582,1581,1581,0,0,0,0,0,0,0,0,0,0
1683031604.10010195,78528576,1581,1581,1580,1581,0,0,0,0,0,0,0,0,0,0
1683031604.20006204,78628536,1582,1581,1581,1581,0,0,0,0,0,0,0,0,0,0
1683031604.30002213,78728496,1582,1582,1583,1580,0,0,0,0,0,0,0,0,0,0
1683031604.39998198,78828456,1581,1582,1587,1572,0,0,0,0,0,0,0,0,0,0
1683031604.49994206,78928416,1581,1584,1583,1573,0,0,0,0,0,0,0,0,0,0
1683031604.59990215,79028376,1580,1583,1575,1574,0,0,0,0,0,0,0,0,0,0
1683031604.69986200,79128336,1578,1582,1567,1572,0,0,0,0,0,0,0,0,0,0
1683031604.79982209,79228296,1577,1579,1559,1566,0,0,0,0,0,0,0,0,0,0
1683031604.89978194,79328256,1577,1578,1555,1561,0,0,0,0,0,0,0,0,0,0
1683031604.99974203,79428216,1579,1577,1554,1557,0,0,0,0,0,0,0,0,0,0
1683031605.09970212,79528176,1579,1578,1554,1555,0,0,0,0,0,0,0,0,0,0
1683031605.20049500,79628969,1580,1578,1555,1553,0,0,0,0,0,0,0,0,0,0
1683031605.30045509,79728929,1579,1578,1556,1553,0,0,0,0,0,0,0,0,0,0
1683031605.40041494,79828889,1576,1577,1554,1552,0,0,0,0,0,0,0,0,0,0
1683031605.50037503,79928849,1575,1577,1555,1553,0,0,0,0,0,0,0,0,0,0
1683031605.60033512,80028809,1575,1577,1554,1553,0,0,0,0,0,0,0,0,0,0
1683031605.70029497,80128769,1576,1578,1553,1554,0,0,0,0,0,0,0,0,0,0
1683031605.80025506,80228729,1577,1579,1553,1553,0,0,0,0,0,0,0,0,0,0
1683031605.90021515,80328689,1578,1578,1551,1551,0,0,0,0,0,0,0,0,0,0
1683031606.00017500,80428649,1579,1580,1549,1549,0,0,0,0,0,0,0,0,0,0
1683031606.10013509,80528609,1581,1582,1547,1546,0,0,0,0,0,0,0,0,0,0
1683031606.20009494,80628569,1584,1585,1544,1544,0,0,0,0,0,0,0,0,0,0
1683031606.30005503,80728529,1587,1587,1542,1542,0,0,0,0,0,0,0,0,0,0
1683031606.40001512,80828489,1589,1590,1540,1540,0,0,0,0,0,0,0,0,0,0
1683031606.49997497,80928449,1591,1591,1538,1539,0,0,0,0,0,0,0,0,0,0
1683031606.59993505,81028409,1593,1594,1538,1539,0,0,0,0,0,0,0,0,0,0
1683031606.69989514,81128369,1594,1594,1538,1540,0,0,0,0,0,0,0,0,0,0
1683031606.79985499,81228329,1594,1593,1540,1542,0,0,0,0,0,0,0,0,0,0
1683031606.89981508,81328289,1591,1590,1543,1545,0,0,0,0,0,0,0,0,0,0
1683031606.99977493,81428249,1588,1585,1549,1552,0,0,0,0,0,0,0,0,0,0
1683031607.09973502,81528209,1581,1578,1558,1561,0,0,0,0,0,0,0,0,0,0
1683031607.19969511,81628169,1573,1569,1568,1571,0,0,0,0,0,0,0,0,0,0
1683031607.30048800,81728962,1562,1559,1579,1581,0,0,0,0,0,0,0,0,0,0
1683031607.40044808,81828922,1552,1549,1590,1591,0,0,0,0,0,0,0,0,0,0
1683031607.50040793,81928882,1544,1543,1601,1601,0,0,0,0,0,0,0,0,0,0
1683031607.60036802,82028842,1537,1537,1608,1607,0,0,0,0,0,0,0,0,0,0
1683031607.70032811,82128802,1533,1534,1612,1611,0,0,0,0,0,0,0,0,0,0
1683031607.80028796,82228762,1534,1537,1613,1612,0,0,0,0,0,0,0,0,0,0
1683031607.90024805,82328722,1537,1540,1611,1610,0,0,0,0,0,0,0,0,0,0
1683031608.00020814,82428682,1544,1546,1608,1607,0,0,0,0,0,0,0,0,0,0
1683031608.10016799,82528642,1551,1553,1602,1602,0,0,0,0,0,0,0,0,0,0
1683031608.20012808,82628602,1559,1559,1595,1594,0,0,0,0,0,0,0,0,0,0
1683031608.30008817,82728562,1567,1567,1589,1588,0,0,0,0,0,0,0,0,0,0
1683031608.40004802,82828522,1573,1571,1580,1579,0,0,0,0,0,0,0,0,0,0
1683031608.50000811,82928482,1579,1577,1574,1575,0,0,0,0,0,0,0,0,0,0
1683031608.59996796,83028442,1583,1582,1571,1571,0,0,0,0,0,0,0,0,0,0
1683031608.69992805,83128402,1586,1584,1568,1568,0,0,0,0,0,0,0,0,0,0
1683031608.79988813,83228362,1586,1585,1566,1567,0,0,0,0,0,0,0,0,0,0
1683031608.89984798,83328322,1586,1585,1568,1568,0,0,0,0,0,0,0,0,0,0
1683031608.99980807,83428282,1584,1583,1569,1569,0,0,0,0,0,0,0,0,0,0
1683031609.09976816,83528242,1583,1582,1572,1572,0,0,0,0,0,0,0,0,0,0
1683031609.19972801,83628202,1581,1580,1575,1574,0,0,0,0,0,0,0,0,0,0
1683031609.29968810,83728162,1577,1578,1577,1576,0,0,0,0,0,0,0,0,0,0
1683031609.40048099,83828955,1576,1577,1580,1580,0,0,0,0,0,0,0,0,0,0
1683031609.50044107,83928915,1574,1575,1582,1582,0,0,0,0,0,0,0,0,0,0
1683031609.60040116,84028875,1572,1573,1582,1582,0,0,0,0,0,0,0,0,0,0
1683031609.70036101,84128835,1573,1574,1584,1583,0,0,0,0,0,0,0,0,0,0
1683031609.80032110,84228795,1573,1574,1584,1584,0,0,0,0,0,0,0,0,0,0
1683031609.90028095,84328755,1574,1575,1584,1583,0,0,0,0,0,0,0,0,0,0
1683031610.00024104,84428715,1575,1575,1583,1582,0,0,0,0,0,0,0,0,0,0
1683031610.10020113,84528675,1576,1576,1581,1581,0,0,0,0,0,0,0,0,0,0
1683031610.20016098,84628635,1577,1577,1579,1580,0,0,0,0,0,0,0,0,0,0
1683031610.30012107,84728595,1579,1578,1579,1579,0,0,0,0,0,0,0,0,0,0
1683031610.40008116,84828555,1579,1580,1578,1578,0,0,0,0,0,0,0,0,0,0
1683031610.50004101,84928515,1581,1580,1578,1578,0,0,0,0,0,0,0,0,0,0
1683031610.60000110,85028475,1581,1581,1578,1578,0,0,0,0,0,0,0,0,0,0
1683031610.69996095,85128435,1582,1582,1578,1578,0,0,0,0,0,0,0,0,0,0
1683031610.79992104,85228395,1582,1581,1578,1578,0,0,0,0,0,0,0,0,0,0
1683031610.89988112,85328355,1582,1581,1578,1578,0,0,0,0,0,0,0,0,0,0
1683031610.99984097,85428315,1581,1582,1579,1579,0,0,0,0,0,0,0,0,0,0
1683031611.09980106,85528275,1581,1581,1579,1579,0,0,0,0,0,0,0,0,0,0
1683031611.19976115,85628235,1580,1580,1579,1579,0,0,0,0,0,0,0,0,0,0
1683031611.29972100,85728195,1580,1580,1580,1580,0,0,0,0,0,0,0,0,0,0
1683031611.39968109,85828155,1581,1581,1582,1582,0,0,0,0,0,0,0,0,0,0
1683031611.50047398,85928948,1579,1580,1581,1581,0,0,0,0,0,0,0,0,0,0
1683031611.60043406,86028908,1580,1580,1582,1581,0,0,0,0,0,0,0,0,0,0
1683031611.70039415,86128868,1579,1579,1581,1581,0,0,0,0,0,0,0,0,0,0
1683031611.80035400,86228828,1580,1580,1581,1582,0,0,0,0,0,0,0,0,0,0
1683031611.90031409,86328788,1581,1580,1582,1582,0,0,0,0,0,0,0,0,0,0
1683031612.00027394,86428748,1580,1580,1581,1581,0,0,0,0,0,0,0,0,0,0
1683031612.10023403,86528708,1581,1580,1581,1581,0,0,0,0,0,0,0,0,0,0
1683031612.20019412,86628668,1580,1580,1580,1580,0,0,0,0,0,0,0,0,0,0
1683031612.30015397,86728628,1580,1581,1585,1574,0,0,0,0,0,0,0,0,0,0
1683031612.40011406,86828588,1581,1582,1586,1573,0,0,0,0,0,0,0,0,0,0
1683031612.50007415,86928548,1578,1579,1580,1574,0,0,0,0,0,0,0,0,0,0
1683031612.60003400,87028508,1576,1576,1574,1575,0,0,0,0,0,0,0,0,0,0
1683031612.69999409,87128468,1573,1573,1569,1575,0,0,0,0,0,0,0,0,0,0
1683031612.79995394,87228428,1570,1570,1565,1573,0,0,0,0,0,0,0,0,0,0
1683031612.89991403,87328388,1569,1568,1565,1570,0,0,0,0,0,0,0,0,0,0
1683031612.99987411,87428348,1567,1567,1566,1568,0,0,0,0,0,0,0,0,0,0
1683031613.09983397,87528308,1566,1566,1566,1565,0,0,0,0,0,0,0,0,0,0
1683031613.19979405,87628268,1566,1566,1568,1565,0,0,0,0,0,0,0,0,0,0
1683031613.29975414,87728228,1565,1565,1567,1564,0,0,0,0,0,0,0,0,0,0
1683031613.39971399,87828188,1565,1565,1567,1564,0,0,0,0,0,0,0,0,0,0
1683031613.50050712,87928981,1563,1563,1565,1564,0,0,0,0,0,0,0,0,0,0
1683031613.60046697,88028941,1563,1563,1564,1563,0,0,0,0,0,0,0,0,0,0
1683031613.70042706,88128901,1562,1562,1563,1563,0,0,0,0,0,0,0,0,0,0
1683031613.80038714,88228861,1561,1561,1562,1562,0,0,0,0,0,0,0,0,0,0
1683031613.90034699,88328821,1561,1560,1561,1561,0,0,0,0,0,0,0,0,0,0
1683031614.00030708,88428781,1560,1560,1560,1560,0,0,0,0,0,0,0,0,0,0
1683031614.10026693,88528741,1561,1560,1561,1560,0,0,0,0,0,0,0,0,0,0
1683031614.20022702,88628701,1560,1560,1560,1559,0,0,0,0,0,0,0,0,0,0
1683031614.30018711,88728661,1559,1559,1559,1559,0,0,0,0,0,0,0,0,0,0
1683031614.40014696,88828621,1557,1558,1558,1557,0,0,0,0,0,0,0,0,0,0
1683031614.50010705,88928581,1557,1557,1557,1557,0,0,0,0,0,0,0,0,0,0
1683031614.60006714,89028541,1558,1557,1558,1557,0,0,0,0,0,0,0,0,0,0
1683031614.70002699,89128501,1557,1557,1557,1556,0,0,0,0,0,0,0,0,0,0
1683031614.79998708,89228461,1557,1557,1558,1556,0,0,0,0,0,0,0,0,0,0
1683031614.89994717,89328421,1557,1557,1558,1556,0,0,0,0,0,0,0,0,0,0
1683031614.99990702,89428381,1558,1559,1560,1557,0,0,0,0,0,0,0,0,0,0
1683031615.09986711,89528341,1559,1559,1559,1559,0,0,0,0,0,0,0,0,0,0
1683031615.19982696,89628301,1560,1560,1559,1562,0,0,0,0,0,0,0,0,0,0
1683031615.29978704,89728261,1560,1560,1557,1563,0,0,0,0,0,0,0,0,0,0
1683031615.39974713,89828221,1560,1560,1557,1563,0,0,0,0,0,0,0,0,0,0
1683031615.49970698,89928181,1561,1561,1559,1563,0,0,0,0,0,0,0,0,0,0
1683031615.60050011,90028974,1563,1563,1562,1564,0,0,0,0,0,0,0,0,0,0
1683031615.70045996,90128934,1562,1563,1563,1562,0,0,0,0,0,0,0,0,0,0
1683031615.80042005,90228894,1561,1561,1563,1559,0,0,0,0,0,0,0,0,0,0
1683031615.90038013,90328854,1560,1560,1562,1558,0,0,0,0,0,0,0,0,0,0
1683031616.00033998,90428814,1560,1559,1558,1561,0,0,0,0,0,0,0,0,0,0
1683031616.10030007,90528774,1557,1557,1554,1561,0,0,0,0,0,0,0,0,0,0
1683031616.20026016,90628734,1554,1554,1551,1556,0,0,0,0,0,0,0,0,0,0
1683031616.30022001,90728694,1549,1549,1548,1550,0,0,0,0,0,0,0,0,0,0
1683031616.40018010,90828654,1542,1542,1542,1541,0,0,0,0,0,0,0,0,0,0
1683031616.50013995,90928614,1535,1535,1536,1534,0,0,0,0,0,0,0,0,0,0
1683031616.60010004,91028574,1527,1527,1528,1526,0,0,0,0,0,0,0,0,0,0
1683031616.70006013,91128534,1521,1520,1521,1520,0,0,0,0,0,0,0,0,0,0
1683031616.80001998,91228494,1519,1519,1519,1519,0,0,0,0,0,0,0,0,0,0
1683031616.89998007,91328454,1519,1518,1519,1519,0,0,0,0,0,0,0,0,0,0
1683031616.99994016,91428414,1520,1521,1520,1521,0,0,0,0,0,0,0,0,0,0
1683031617.09990001,91528374,1523,1523,1523,1524,0,0,0,0,0,0,0,0,0,0
1683031617.19986010,91628334,1527,1528,1527,1528,0,0,0,0,0,0,0,0,0,0
1683031617.29981995,91728294,1532,1533,1532,1533,0,0,0,0,0,0,0,0,0,0
1683031617.39978004,91828254,1537,1537,1537,1537,0,0,0,0,0,0,0,0,0,0
1683031617.49974012,91928214,1541,1540,1540,1540,0,0,0,0,0,0,0,0,0,0
1683031617.59969997,92028174,1542,1541,1542,1541,0,0,0,0,0,0,0,0,0,0
1683031617.70049310,92128967,1544,1543,1544,1543,0,0,0,0,0,0,0,0,0,0
1683031617.80045295,92228927,1544,1544,1545,1544,0,0,0,0,0,0,0,0,0,0
1683031617.90041304,92328887,1546,1546,1546,1546,0,0,0,0,0,0,0,0,0,0
1683031618.00037313,92428847,1545,1546,1545,1546,0,0,0,0,0,0,0,0,0,0
1683031618.10033298,92528807,1547,1547,1547,1547,0,0,0,0,0,0,0,0,0,0
1683031618.20029306,92628767,1547,1548,1547,1548,0,0,0,0,0,0,0,0,0,0
1683031618.30025315,92728727,1547,1547,1547,1547,0,0,0,0,0,0,0,0,0,0
1683031618.40021300,92828687,1546,1546,1546,1546,0,0,0,0,0,0,0,0,0,0
1683031618.50017309,92928647,1546,1545,1546,1546,0,0,0,0,0,0,0,0,0,0
1683031618.60013294,93028607,1546,1546,1546,1546,0,0,0,0,0,0,0,0,0,0
1683031618.70009303,93128567,1545,1546,1545,1546,0,0,0,0,0,0,0,0,0,0
1683031618.80005312,93228527,1544,1544,1544,1544,0,0,0,0,0,0,0,0,0,0
1683031618.90001297,93328487,1545,1544,1545,1544,0,0,0,0,0,0,0,0,0,0
1683031618.99997306,93428447,1544,1544,1544,1544,0,0,0,0,0,0,0,0,0,0
1683031619.09993315,93528407,1544,1544,1544,1544,0,0,0,0,0,0,0,0,0,0
1683031619.19989300,93628367,1544,1544,1544,1544,0,0,0,0,0,0,0,0,0,0
1683031619.29985309,93728327,1543,1542,1543,1543,0,0,0,0,0,0,0,0,0,0
1683031619.39981294,93828287,1543,1543,1543,1543,0,0,0,0,0,0,0,0,0,0
1683031619.49977303,93928247,1544,1544,1544,1544,0,0,0,0,0,0,0,0,0,0
1683031619.59973311,94028207,1544,1544,1544,1544,0,0,0,0,0,0,0,0,0,0
1683031619.69969296,94128167,1543,1544,1543,1543,0,0,0,0,0,0,0,0,0,0
1683031619.80048609,94228960,1544,1544,1544,1544,0,0,0,0,0,0,0,0,0,0
1683031619.90044594,94328920,1544,1544,1544,1544,0,0,0,0,0,0,0,0,0,0
1683031620.00040603,94428880,1544,1544,1544,1544,0,0,0,0,0,0,0,0,0,0
1683031620.10036612,94528840,1544,1543,1544,1543,0,0,0,0,0,0,0,0,0,0
1683031620.20032597,94628800,1545,1545,1545,1545,0,0,0,0,0,0,0,0,0,0
1683031620.30028605,94728760,1544,1544,1544,1544,0,0,0,0,0,0,0,0,0,0
1683031620.40024614,94828720,1544,1544,1544,1544,0,0,0,0,0,0,0,0,0,0
1683031620.50020599,94928680,1544,1543,1544,1544,0,0,0,0,0,0,0,0,0,0
1683031620.60016608,95028640,1544,1544,1544,1544,0,0,0,0,0,0,0,0,0,0
1683031620.70012593,95128600,1543,1543,1543,1543,0,0,0,0,0,0,0,0,0,0
1683031620.80008602,95228560,1544,1544,1544,1544,0,0,0,0,0,0,0,0,0,0
1683031620.90004611,95328520,1545,1545,1545,1545,0,0,0,0,0,0,0,0,0,0
1683031621.00000596,95428480,1544,1544,1544,1544,0,0,0,0,0,0,0,0,0,0
1683031621.09996605,95528440,1544,1544,1544,1545,0,0,0,0,0,0,0,0,0,0
1683031621.19992614,95628400,1544,1544,1544,1544,0,0,0,0,0,0,0,0,0,0
1683031621.29988599,95728360,1545,1545,1544,1545,0,0,0,0,0,0,0,0,0,0
1683031621.39984608,95828320,1545,1546,1545,1545,0,0,0,0,0,0,0,0,0,0
1683031621.49980617,95928280,1544,1544,1544,1544,0,0,0,0,0,0,0,0,0,0
1683031621.59976602,96028240,1545,1545,1545,1544,0,0,0,0,0,0,0,0,0,0
1683031621.69972610,96128200,1544,1544,1544,1544,0,0,0,0,0,0,0,0,0,0
1683031621.79968596,96228160,1544,1544,1544,1544,0,0,0,0,0,0,0,0,0,0
1683031621.90047908,96328953,1544,1543,1544,1544,0,0,0,0,0,0,0,0,0,0
1683031622.00043917,96428913,1544,1544,1544,1544,0,0,0,0,0,0,0,0,0,0
1683031622.10039902,96528873,1544,1544,1544,1544,0,0,0,0,0,0,0,0,0,0
1683031622.20035911,96628833,1543,1544,1543,1543,0,0,0,0,0,0,0,0,0,0
1683031622.30031896,96728793,1544,1544,1544,1544,0,0,0,0,0,0,0,0,0,0
1683031622.40027905,96828753,1544,1545,1544,1545,0,0,0,0,0,0,0,0,0,0
1683031622.50023913,96928713,1544,1544,1544,1544,0,0,0,0,0,0,0,0,0,0
1683031622.60019898,97028673,1544,1544,1544,1544,0,0,0,0,0,0,0,0,0,0
1683031622.70015907,97128633,1544,1544,1544,1544,0,0,0,0,0,0,0,0,0,0
1683031622.80011916,97228593,1545,1545,1545,1545,0,0,0,0,0,0,0,0,0,0
1683031622.90007901,97328553,1545,1545,1545,1545,0,0,0,0,0,0,0,0,0,0
1683031623.00003910,97428513,1544,1545,1545,1544,0,0,0,0,0,0,0,0,0,0
1683031623.09999895,97528473,1545,1545,1545,1545,0,0,0,0,0,0,0,0,0,0
1683031623.19995904,97628433,1546,1545,1545,1546,0,0,0,0,0,0,0,0,0,0
1683031623.29991913,97728393,1546,1545,1545,1546,0,0,0,0,0,0,0,0,0,0
1683031623.39987898,97828353,1545,1545,1545,1545,0,0,0,0,0,0,0,0,0,0
1683031623.49983907,97928313,1545,1544,1544,1545,0,0,0,0,0,0,0,0,0,0
1683031623.59979916,98028273,1544,1544,1544,1544,0,0,0,0,0,0,0,0,0,0
1683031623.69975901,98128233,1544,1544,1544,1544,0,0,0,0,0,0,0,0,0,0
1683031623.79971910,98228193,1544,1545,1544,1544,0,0,0,0,0,0,0,0,0,0
1683031623.90051198,98328986,1544,1544,1544,1544,0,0,0,0,0,0,0,0,0,0
1683031624.00047207,98428946,1544,1544,1544,1544,0,0,0,0,0,0,0,0,0,0
1683031624.10043216,98528906,1544,1544,1544,1544,0,0,0,0,0,0,0,0,0,0
1683031624.20039201,98628866,1544,1544,1544,1544,0,0,0,0,0,0,0,0,0,0
1683031624.30035210,98728826,1544,1544,1544,1544,0,0,0,0,0,0,0,0,0,0
1683031624.40031195,98828786,1544,1544,1544,1544,0,0,0,0,0,0,0,0,0,0
1683031624.50027204,98928746,1544,1543,1544,1544,0,0,0,0,0,0,0,0,0,0
1683031624.60023212,99028706,1543,1544,1543,1544,0,0,0,0,0,0,0,0,0,0
1683031624.70019197,99128666,1543,1543,1543,1544,0,0,0,0,0,0,0,0,0,0
1683031624.80015206,99228626,1543,1544,1544,1544,0,0,0,0,0,0,0,0,0,0
1683031624.90011215,99328586,1543,1543,1543,1543,0,0,0,0,0,0,0,0,0,0
1683031625.00007200,99428546,1544,1543,1544,1543,0,0,0,0,0,0,0,0,0,0
1683031625.10003209,99528506,1545,1544,1544,1545,0,0,0,0,0,0,0,0,0,0
1683031625.19999194,99628466,1544,1545,1545,1544,0,0,0,0,0,0,0,0,0,0
1683031625.29995203,99728426,1545,1544,1544,1544,0,0,0,0,0,0,0,0,0,0
1683031625.39991212,99828386,1544,1544,1544,1545,0,0,0,0,0,0,0,0,0,0
1683031625.49987197,99928346,1545,1545,1545,1545,0,0,0,0,0,0,0,0,0,0
1683031625.59983206,100028306,1545,1545,1545,1545,0,0,0,0,0,0,0,0,0,0
1683031625.69979215,100128266,1545,1544,1544,1545,0,0,0,0,0,0,0,0,0,0
1683031625.79975200,100228226,1544,1544,1544,1544,0,0,0,0,0,0,0,0,0,0
1683031625.89971209,100328186,1545,1544,1545,1545,0,0,0,0,0,0,0,0,0,0
1683031626.00050497,100428979,1545,1545,1545,1545,0,0,0,0,0,0,0,0,0,0
1683031626.10046506,100528939,1544,1544,1544,1544,0,0,0,0,0,0,0,0,0,0
1683031626.20042515,100628899,1545,1545,1545,1545,0,0,0,0,0,0,0,0,0,0
1683031626.30038500,100728859,1544,1545,1544,1545,0,0,0,0,0,0,0,0,0,0
1683031626.40034509,100828819,1545,1544,1545,1544,0,0,0,0,0,0,0,0,0,0
1683031626.50030494,100928779,1393,1377,1390,1379,0,0,0,0,0,0,0,0,0,0
1683031626.60026503,101028739,1287,1257,1284,1260,0,0,0,0,0,0,0,0,0,0
1683031626.70022511,101128699,1253,1216,1250,1220,0,0,0,0,0,0,0,0,0,0
1683031626.80018497,101228659,1237,1198,1235,1201,0,0,0,0,0,0,0,0,0,0
1683031626.90014505,101328619,1202,1155,1200,1158,0,0,0,0,0,0,0,0,0,0
1683031627.00010514,101428579,1197,1150,1195,1152,0,0,0,0,0,0,0,0,0,0
1683031627.10006499,101528539,1198,1150,1195,1153,0,0,0,0,0,0,0,0,0,0
1683031627.20002508,101628499,1202,1150,1195,1158,0,0,0,0,0,0,0,0,0,0
1683031627.29998493,101728459,1223,1150,1195,1184,0,0,0,0,0,0,0,0,0,0
1683031627.39994502,101828419,1215,1150,1195,1174,0,0,0,0,0,0,0,0,0,0
1683031627.49990511,101928379,1214,1150,1195,1173,0,0,0,0,0,0,0,0,0,0
1683031627.59986496,102028339,1215,1150,1196,1174,0,0,0,0,0,0,0,0,0,0
1683031627.69982505,102128299,1217,1150,1196,1176,0,0,0,0,0,0,0,0,0,0
1683031627.79978514,102228259,1218,1150,1196,1177,0,0,0,0,0,0,0,0,0,0
1683031627.89974499,102328219,1219,1150,1196,1179,0,0,0,0,0,0,0,0,0,0
1683031627.99970508,102428179,1197,1150,1196,1152,0,0,0,0,0,0,0,0,0,0
1683031628.10049796,102528972,1209,1150,1196,1166,0,0,0,0,0,0,0,0,0,0
1683031628.20045805,102628932,1210,1150,1195,1168,0,0,0,0,0,0,0,0,0,0
1683031628.30041814,102728892,1211,1150,1196,1169,0,0,0,0,0,0,0,0,0,0
1683031628.40037799,102828852,1211,1150,1196,1169,0,0,0,0,0,0,0,0,0,0
1683031628.50033808,102928812,1093,1148,1093,1148,0,0,0,0,0,0,0,0,0,0
1683031628.60029817,103028772,1000,1000,1000,1000,0,0,0,0,0,0,0,0,0,0
1683031628.70025802,103128732,1000,1000,1000,1000,0,0,0,0,0,0,0,0,0,0
1683031628.80021811,103228692,1000,1000,1000,1000,0,0,0,0,0,0,0,0,0,0
1683031628.90017796,103328652,1000,1000,1000,1000,0,0,0,0,0,0,0,0,0,0
1683031629.00013804,103428612,1000,1000,1000,1000,0,0,0,0,0,0,0,0,0,0
1683031629.10009813,103528572,1000,1000,1000,1000,0,0,0,0,0,0,0,0,0,0
1683031629.20005798,103628532,1000,1000,1000,1000,0,0,0,0,0,0,0,0,0,0
1683031629.30001807,103728492,1000,1000,1000,1000,0,0,0,0,0,0,0,0,0,0
1683031629.39997816,103828452,1000,1000,1000,1000,0,0,0,0,0,0,0,0,0,0
1683031629.49993801,103928412,1000,1000,1000,1000,0,0,0,0,0,0,0,0,0,0
1683031629.59989810,104028372,1000,1000,1000,1000,0,0,0,0,0,0,0,0,0,0
1683031629.69985795,104128332,1000,1000,1000,1000,0,0,0,0,0,0,0,0,0,0
1683031629.79981804,104228292,1000,1000,1000,1000,0,0,0,0,0,0,0,0,0,0
1683031629.89977813,104328252,1000,1000,1000,1000,0,0,0,0,0,0,0,0,0,0
1683031629.99973798,104428212,1000,1000,1000,1000,0,0,0,0,0,0,0,0,0,0
1683031630.09969807,104528172,1000,1000,1000,1000,0,0,0,0,0,0,0,0,0,0
1683031630.20049095,104628965,1000,1000,1000,1000,0,0,0,0,0,0,0,0,0,0
1683031630.30045104,104728925,1000,1000,1000,1000,0,0,0,0,0,0,0,0,0,0
1683031630.40041113,104828885,1000,1000,1000,1000,0,0,0,0,0,0,0,0,0,0
1683031630.50037098,104928845,1000,1000,1000,1000,0,0,0,0,0,0,0,0,0,0
1683031630.60033107,105028805,1000,1000,1000,1000,0,0,0,0,0,0,0,0,0,0
1683031630.70029116,105128765,1000,1000,1000,1000,0,0,0,0,0,0,0,0,0,0
1683031630.80025101,105228725,1000,1000,1000,1000,0,0,0,0,0,0,0,0,0,0
1683031630.90021110,105328685,1000,1000,1000,1000,0,0,0,0,0,0,0,0,0,0
1683031631.00017095,105428645,1000,1000,1000,1000,0,0,0,0,0,0,0,0,0,0
1683031631.10013103,105528605,1000,1000,1000,1000,0,0,0,0,0,0,0,0,0,0
1683031631.20009112,105628565,1000,1000,1000,1000,0,0,0,0,0,0,0,0,0,0
1683031631.30005097,105728525,1000,1000,1000,1000,0,0,0,0,0,0,0,0,0,0
1683031631.40001106,105828485,1000,1000,1000,1000,0,0,0,0,0,0,0,0,0,0
1683031631.49997115,105928445,1000,1000,1000,1000,0,0,0,0,0,0,0,0,0,0
1683031631.59993100,106028405,1000,1000,1000,1000,0,0,0,0,0,0,0,0,0,0
1683031631.69989109,106128365,1000,1000,1000,1000,0,0,0,0,0,0,0,0,0,0
1683031631.79985094,106228325,1000,1000,1000,1000,0,0,0,0,0,0,0,0,0,0
1683031631.89981103,106328285,1000,1000,1000,1000,0,0,0,0,0,0,0,0,0,0
1683031631.99977112,106428245,1000,1000,1000,1000,0,0,0,0,0,0,0,0,0,0
1683031632.09973097,106528205,1000,1000,1000,1000,0,0,0,0,0,0,0,0,0,0
1683031632.19969106,106628165,1000,1000,1000,1000,0,0,0,0,0,0,0,0,0,0
1683031632.30048394,106728958,1000,1000,1000,1000,0,0,0,0,0,0,0,0,0,0
1683031632.40044403,106828918,1000,1000,1000,1000,0,0,0,0,0,0,0,0,0,0
1683031632.50040412,106928878,1000,1000,1000,1000,0,0,0,0,0,0,0,0,0,0
1683031632.60036397,107028838,1000,1000,1000,1000,0,0,0,0,0,0,0,0,0,0
1683031632.70032406,107128798,1000,1000,1000,1000,0,0,0,0,0,0,0,0,0,0
1683031632.80028415,107228758,1000,1000,1000,1000,0,0,0,0,0,0,0,0,0,0
1683031632.90024400,107328718,1000,1000,1000,1000,0,0,0,0,0,0,0,0,0,0
1683031633.00020409,107428678,1000,1000,1000,1000,0,0,0,0,0,0,0,0,0,0
1683031633.10016394,107528638,1000,1000,1000,1000,0,0,0,0,0,0,0,0,0,0
1683031633.20012403,107628598,1000,1000,1000,1000,0,0,0,0,0,0,0,0,0,0
1683031633.30008411,107728558,1000,1000,1000,1000,0,0,0,0,0,0,0,0,0,0
1683031633.40004396,107828518,1000,1000,1000,1000,0,0,0,0,0,0,0,0,0,0
1683031633.50000405,107928478,1000,1000,1000,1000,0,0,0,0,0,0,0,0,0,0
1683031633.59996414,108028438,1000,1000,1000,1000,0,0,0,0,0,0,0,0,0,0
1683031633.69992399,108128398,1000,1000,1000,1000,0,0,0,0,0,0,0,0,0,0
1683031633.79988408,108228358,1000,1000,1000,1000,0,0,0,0,0,0,0,0,0,0
1683031633.89984417,108328318,1000,1000,1000,1000,0,0,0,0,0,0,0,0,0,0
1683031633.99980402,108428278,1000,1000,1000,1000,0,0,0,0,0,0,0,0,0,0
1683031634.09976411,108528238,1000,1000,1000,1000,0,0,0,0,0,0,0,0,0,0
1683031634.19972396,108628198,1000,1000,1000,1000,0,0,0,0,0,0,0,0,0,0
1683031634.29968405,108728158,1000,1000,1000,1000,0,0,0,0,0,0,0,0,0,0
1683031634.40047693,108828951,1000,1000,1000,1000,0,0,0,0,0,0,0,0,0,0
1683031634.50043702,108928911,1000,1000,1000,1000,0,0,0,0,0,0,0,0,0,0
1683031634.60039711,109028871,1000,1000,1000,1000,0,0,0,0,0,0,0,0,0,0
1683031634.70035696,109128831,1000,1000,1000,1000,0,0,0,0,0,0,0,0,0,0
1683031634.80031705,109228791,1000,1000,1000,1000,0,0,0,0,0,0,0,0,0,0
1683031634.90027714,109328751,1000,1000,1000,1000,0,0,0,0,0,0,0,0,0,0
1683031635.00023699,109428711,1000,1000,1000,1000,0,0,0,0,0,0,0,0,0,0
1683031635.10019708,109528671,1000,1000,1000,1000,0,0,0,0,0,0,0,0,0,0
1683031635.20015717,109628631,1000,1000,1000,1000,0,0,0,0,0,0,0,0,0,0
1683031635.30011702,109728591,1000,1000,1000,1000,0,0,0,0,0,0,0,0,0,0
1683031635.40007710,109828551,1000,1000,1000,1000,0,0,0,0,0,0,0,0,0,0
1683031635.50003695,109928511,1000,1000,1000,1000,0,0,0,0,0,0,0,0,0,0
1683031635.59999704,110028471,1000,1000,1000,1000,0,0,0,0,0,0,0,0,0,0
1683031635.69995713,110128431,1000,1000,1000,1000,0,0,0,0,0,0,0,0,0,0
1683031635.79991698,110228391,1000,1000,1000,1000,0,0,0,0,0,0,0,0,0,0
1683031635.89987707,110328351,1000,1000,1000,1000,0,0,0,0,0,0,0,0,0,0
1683031635.99983716,110428311,1000,1000,1000,1000,0,0,0,0,0,0,0,0,0,0
1683031636.09979701,110528271,1000,1000,1000,1000,0,0,0,0,0,0,0,0,0,0
1683031636.19975710,110628231,1000,1000,1000,1000,0,0,0,0,0,0,0,0,0,0
1683031636.29971695,110728191,1000,1000,1000,1000,0,0,0,0,0,0,0,0,0,0
1683031636.40051007,110828984,1000,1000,1000,1000,0,0,0,0,0,0,0,0,0,0
1683031636.50047016,110928944,1000,1000,1000,1000,0,0,0,0,0,0,0,0,0,0
1683031636.60043001,111028904,1000,1000,1000,1000,0,0,0,0,0,0,0,0,0,0
1683031636.70039010,111128864,1000,1000,1000,1000,0,0,0,0,0,0,0,0,0,0
1683031636.80034995,111228824,1000,1000,1000,1000,0,0,0,0,0,0,0,0,0,0
1683031636.90031004,111328784,1000,1000,1000,1000,0,0,0,0,0,0,0,0,0,0
1683031637.00027013,111428744,1000,1000,1000,1000,0,0,0,0,0,0,0,0,0,0
1683031637.10022998,111528704,1000,1000,1000,1000,0,0,0,0,0,0,0,0,0,0
1683031637.20019007,111628664,1000,1000,1000,1000,0,0,0,0,0,0,0,0,0,0
1683031637.30015016,111728624,1000,1000,1000,1000,0,0,0,0,0,0,0,0,0,0
1683031637.40011001,111828584,1000,1000,1000,1000,0,0,0,0,0,0,0,0,0,0
1683031637.50007010,111928544,1000,1000,1000,1000,0,0,0,0,0,0,0,0,0,0
1683031637.60002995,112028504,1000,1000,1000,1000,0,0,0,0,0,0,0,0,0,0
1683031637.69999003,112128464,1000,1000,1000,1000,0,0,0,0,0,0,0,0,0,0
1683031637.79995012,112228424,1000,1000,1000,1000,0,0,0,0,0,0,0,0,0,0
1683031637.89990997,112328384,1000,1000,1000,1000,0,0,0,0,0,0,0,0,0,0
1683031637.99987006,112428344,1000,1000,1000,1000,0,0,0,0,0,0,0,0,0,0
1683031638.09983015,112528304,1000,1000,1000,1000,0,0,0,0,0,0,0,0,0,0
1683031638.19979000,112628264,1000,1000,1000,1000,0,0,0,0,0,0,0,0,0,0
1683031638.29975009,112728224,1000,1000,1000,1000,0,0,0,0,0,0,0,0,0,0
1683031638.39970994,112828184,1000,1000,1000,1000,0,0,0,0,0,0,0,0,0,0
1683031638.50050306,112928977,1000,1000,1000,1000,0,0,0,0,0,0,0,0,0,0
1683031638.60046315,113028937,1000,1000,1000,1000,0,0,0,0,0,0,0,0,0,0
1683031638.70042300,113128897,1000,1000,1000,1000,0,0,0,0,0,0,0,0,0,0
1683031638.80038309,113228857,1000,1000,1000,1000,0,0,0,0,0,0,0,0,0,0
1683031638.90034294,113328817,1000,1000,1000,1000,0,0,0,0,0,0,0,0,0,0
1683031639.00030303,113428777,1000,1000,1000,1000,0,0,0,0,0,0,0,0,0,0
1683031639.10026312,113528737,1000,1000,1000,1000,0,0,0,0,0,0,0,0,0,0
1683031639.20022297,113628697,1000,1000,1000,1000,0,0,0,0,0,0,0,0,0,0
1683031639.30018306,113728657,1000,1000,1000,1000,0,0,0,0,0,0,0,0,0,0
1683031639.40014315,113828617,1000,1000,1000,1000,0,0,0,0,0,0,0,0,0,0
1683031639.50010300,113928577,1000,1000,1000,1000,0,0,0,0,0,0,0,0,0,0
1683031639.60006309,114028537,1000,1000,1000,1000,0,0,0,0,0,0,0,0,0,0
1683031639.70002294,114128497,1000,1000,1000,1000,0,0,0,0,0,0,0,0,0,0
1683031639.79998302,114228457,1000,1000,1000,1000,0,0,0,0,0,0,0,0,0,0
1683031639.89994311,114328417,1000,1000,1000,1000,0,0,0,0,0,0,0,0,0,0
1683031639.99990296,114428377,1000,1000,1000,1000,0,0,0,0,0,0,0,0,0,0
1683031640.09986305,114528337,1000,1000,1000,1000,0,0,0,0,0,0,0,0,0,0
1683031640.19982314,114628297,1000,1000,1000,1000,0,0,0,0,0,0,0,0,0,0
1683031640.29978299,114728257,1000,1000,1000,1000,0,0,0,0,0,0,0,0,0,0
1683031640.39974308,114828217,1000,1000,1000,1000,0,0,0,0,0,0,0,0,0,0
1683031640.49970317,114928177,1000,1000,1000,1000,0,0,0,0,0,0,0,0,0,0
1683031640.60049605,115028970,1000,1000,1000,1000,0,0,0,0,0,0,0,0,0,0
1683031640.70045614,115128930,1000,1000,1000,1000,0,0,0,0,0,0,0,0,0,0
1683031640.80041599,115228890,1000,1000,1000,1000,0,0,0,0,0,0,0,0,0,0
1683031640.90037608,115328850,1000,1000,1000,1000,0,0,0,0,0,0,0,0,0,0
1683031641.00033593,115428810,1000,1000,1000,1000,0,0,0,0,0,0,0,0,0,0
1683031641.10029602,115528770,1000,1000,1000,1000,0,0,0,0,0,0,0,0,0,0
1683031641.20025611,115628730,1000,1000,1000,1000,0,0,0,0,0,0,0,0,0,0
1683031641.30021596,115728690,1000,1000,1000,1000,0,0,0,0,0,0,0,0,0,0
1683031641.40017605,115828650,1000,1000,1000,1000,0,0,0,0,0,0,0,0,0,0
1683031641.50013614,115928610,1000,1000,1000,1000,0,0,0,0,0,0,0,0,0,0
1683031641.60009599,116028570,1000,1000,1000,1000,0,0,0,0,0,0,0,0,0,0
1683031641.70005608,116128530,1000,1000,1000,1000,0,0,0,0,0,0,0,0,0,0
1683031641.80001616,116228490,1000,1000,1000,1000,0,0,0,0,0,0,0,0,0,0
1683031641.89997602,116328450,1000,1000,1000,1000,0,0,0,0,0,0,0,0,0,0
1683031641.99993610,116428410,1000,1000,1000,1000,0,0,0,0,0,0,0,0,0,0
1683031642.09989595,116528370,1000,1000,1000,1000,0,0,0,0,0,0,0,0,0,0
1683031642.19985604,116628330,1000,1000,1000,1000,0,0,0,0,0,0,0,0,0,0
1683031642.29981613,116728290,1000,1000,1000,1000,0,0,0,0,0,0,0,0,0,0
1683031642.39977598,116828250,1000,1000,1000,1000,0,0,0,0,0,0,0,0,0,0
1683031642.49973607,116928210,1000,1000,1000,1000,0,0,0,0,0,0,0,0,0,0
1683031642.59969616,117028170,1000,1000,1000,1000,0,0,0,0,0,0,0,0,0,0
1683031642.70048904,117128963,1000,1000,1000,1000,0,0,0,0,0,0,0,0,0,0
1683031642.80044913,117228923,1000,1000,1000,1000,0,0,0,0,0,0,0,0,0,0
1683031642.90040898,117328883,1000,1000,1000,1000,0,0,0,0,0,0,0,0,0,0
1683031643.00036907,117428843,1000,1000,1000,1000,0,0,0,0,0,0,0,0,0,0
1683031643.10032916,117528803,1000,1000,1000,1000,0,0,0,0,0,0,0,0,0,0
1683031643.20028901,117628763,1000,1000,1000,1000,0,0,0,0,0,0,0,0,0,0
1683031643.30024910,117728723,1000,1000,1000,1000,0,0,0,0,0,0,0,0,0,0
1683031643.40020895,117828683,1000,1000,1000,1000,0,0,0,0,0,0,0,0,0,0
