TimeUS,M1,M2,M3,M4,TimeUS,C1,C2,C3,C4
46851252,1000,1000,1000,1000,46928721,1000,1000,1000,1000
46853751,1000,1000,1000,1000,47028681,1000,1000,1000,1000
46856250,1000,1000,1000,1000,47128641,1000,1000,1000,1000
46858749,1000,1000,1000,1000,47228601,1000,1000,1000,1000
46861248,1000,1000,1000,1000,47328561,1000,1000,1000,1000
46863747,1000,1000,1000,1000,47428521,1000,1000,1000,1000
46866246,1000,1000,1000,1000,47528481,1000,1000,1000,1000
46868745,1000,1000,1000,1000,47628441,1000,1000,1000,1000
46871244,1000,1000,1000,1000,47728401,1000,1000,1000,1000
46873743,1000,1000,1000,1000,47828361,1000,1000,1000,1000
46876242,1000,1000,1000,1000,47928321,1000,1000,1000,1000
46878741,1000,1000,1000,1000,48028281,1000,1000,1000,1000
46881240,1000,1000,1000,1000,48128241,1000,1000,1000,1000
46883739,1000,1000,1000,1000,48228201,1000,1000,1000,1000
46886238,1000,1000,1000,1000,48328161,1000,1000,1000,1000
46888737,1000,1000,1000,1000,48428954,1000,1000,1000,1000
46891236,1000,1000,1000,1000,48528914,1000,1000,1000,1000
46893735,1000,1000,1000,1000,48628874,1000,1000,1000,1000
46896234,1000,1000,1000,1000,48728834,1000,1000,1000,1000
46898733,1000,1000,1000,1000,48828794,1000,1000,1000,1000
46901232,1000,1000,1000,1000,48928754,1023,1023,1023,1023
46903731,1000,1000,1000,1000,49028714,1053,1053,1053,1053
46906230,1000,1000,1000,1000,49128674,1083,1083,1083,1083
46908729,1000,1000,1000,1000,49228634,1113,1113,1113,1113
46911228,1000,1000,1000,1000,49328594,1143,1143,1143,1143
46913727,1000,1000,1000,1000,49428554,1351,1346,1346,1352
46916226,1000,1000,1000,1000,49528514,1542,1538,1538,1542
46918725,1000,1000,1000,1000,49628474,1695,1691,1691,1695
46921224,1000,1000,1000,1000,49728434,1827,1822,1823,1827
46923723,1000,1000,1000,1000,49828394,1905,1902,1902,1906
46926222,1000,1000,1000,1000,49928354,1852,1849,1850,1852
46928721,1000,1000,1000,1000,50028314,1724,1724,1724,1724
46931220,1000,1000,1000,1000,50128274,1650,1651,1651,1650
46933719,1000,1000,1000,1000,50228234,1634,1637,1637,1634
46936218,1000,1000,1000,1000,50328194,1642,1644,1644,1642
46938717,1000,1000,1000,1000,50428154,1646,1647,1647,1646
46941216,1000,1000,1000,1000,50528947,1630,1629,1623,1636
46943715,1000,1000,1000,1000,50628907,1617,1618,1609,1626
46946214,1000,1000,1000,1000,50728867,1609,1609,1604,1614
46948713,1000,1000,1000,1000,50828827,1606,1607,1606,1607
46951212,1000,1000,1000,1000,50928787,1610,1610,1613,1607
46953711,1000,1000,1000,1000,51028747,1614,1614,1619,1610
46956210,1000,1000,1000,1000,51128707,1587,1587,1604,1570
46958709,1000,1000,1000,1000,51228667,1574,1575,1590,1559
46961208,1000,1000,1000,1000,51328627,1563,1563,1568,1558
46963707,1000,1000,1000,1000,51428587,1552,1552,1547,1557
46966206,1000,1000,1000,1000,51528547,1545,1544,1533,1556
46968705,1000,1000,1000,1000,51628507,1538,1537,1525,1550
46971204,1000,1000,1000,1000,51728467,1533,1533,1524,1542
46973703,1000,1000,1000,1000,51828427,1528,1528,1524,1532
46976202,1000,1000,1000,1000,51928387,1525,1525,1525,1525
46978701,1000,1000,1000,1000,52028347,1526,1526,1528,1524
46981200,1000,1000,1000,1000,52128307,1530,1530,1532,1527
46983699,1000,1000,1000,1000,52228267,1533,1533,1536,1530
46986198,1000,1000,1000,1000,52328227,1537,1537,1540,1534
46988697,1000,1000,1000,1000,52428187,1541,1541,1543,1539
46991196,1000,1000,1000,1000,52528980,1544,1544,1545,1543
46993695,1000,1000,1000,1000,52628940,1547,1547,1547,1547
46996194,1000,1000,1000,1000,52728900,1551,1550,1549,1551
46998693,1000,1000,1000,1000,52828860,1553,1553,1551,1554
47001192,1000,1000,1000,1000,52928820,1554,1553,1554,1557
47003691,1000,1000,1000,1000,53028780,1554,1554,1559,1562
47006190,1000,1000,1000,1000,53128740,1555,1556,1562,1563
47008689,1000,1000,1000,1000,53228700,1558,1559,1564,1564
47011188,1000,1000,1000,1000,53328660,1561,1562,1565,1564
47013687,1000,1000,1000,1000,53428620,1564,1565,1566,1565
47016186,1000,1000,1000,1000,53528580,1566,1566,1566,1565
47018685,1000,1000,1000,1000,53628540,1569,1569,1567,1567
47021184,1000,1000,1000,1000,53728500,1570,1569,1566,1566
47023683,1000,1000,1000,1000,53828460,1572,1572,1568,1568
47026182,1000,1000,1000,1000,53928420,1572,1572,1568,1569
47028681,1000,1000,1000,1000,54028380,1573,1573,1569,1570
47031180,1000,1000,1000,1000,54128340,1573,1573,1570,1570
47033679,1000,1000,1000,1000,54228300,1574,1573,1571,1571
47036178,1000,1000,1000,1000,54328260,1574,1574,1573,1572
47038677,1000,1000,1000,1000,54428220,1574,1574,1574,1573
47041176,1000,1000,1000,1000,54528180,1574,1575,1576,1574
47043675,1000,1000,1000,1000,54628973,1575,1575,1576,1575
47046174,1000,1000,1000,1000,54728933,1575,1576,1577,1576
47048673,1000,1000,1000,1000,54828893,1575,1575,1576,1576
47051172,1000,1000,1000,1000,54928853,1576,1575,1576,1577
47053671,1000,1000,1000,1000,55028813,1576,1576,1577,1577
47056170,1000,1000,1000,1000,55128773,1575,1575,1576,1576
47058669,1000,1000,1000,1000,55228733,1576,1576,1576,1576
47061168,1000,1000,1000,1000,55328693,1577,1577,1577,1577
47063667,1000,1000,1000,1000,55428653,1576,1577,1577,1576
47066166,1000,1000,1000,1000,55528613,1577,1578,1577,1577
47068665,1000,1000,1000,1000,55628573,1577,1577,1576,1576
47071164,1000,1000,1000,1000,55728533,1577,1577,1576,1577
47073663,1000,1000,1000,1000,55828493,1577,1577,1576,1577
47076162,1000,1000,1000,1000,55928453,1578,1578,1577,1577
47078661,1000,1000,1000,1000,56028413,1577,1577,1577,1576
47081160,1000,1000,1000,1000,56128373,1578,1577,1577,1577
47083659,1000,1000,1000,1000,56228333,1578,1578,1578,1578
47086158,1000,1000,1000,1000,56328293,1579,1579,1579,1579
47088657,1000,1000,1000,1000,56428253,1578,1578,1578,1578
47091156,1000,1000,1000,1000,56528213,1579,1579,1579,1579
47093655,1000,1000,1000,1000,56628173,1577,1578,1577,1577
47096154,1000,1000,1000,1000,56728966,1579,1579,1579,1579
47098653,1000,1000,1000,1000,56828926,1578,1578,1578,1578
47101152,1000,1000,1000,1000,56928886,1579,1578,1579,1579
47103651,1000,1000,1000,1000,57028846,1579,1579,1579,1579
47106150,1000,1000,1000,1000,57128806,1579,1579,1579,1579
47108649,1000,1000,1000,1000,57228766,1578,1579,1578,1579
47111148,1000,1000,1000,1000,57328726,1578,1578,1578,1578
47113647,1000,1000,1000,1000,57428686,1578,1578,1579,1578
47116146,1000,1000,1000,1000,57528646,1580,1580,1580,1580
47118645,1000,1000,1000,1000,57628606,1580,1581,1581,1581
47121144,1000,1000,1000,1000,57728566,1580,1580,1580,1580
47123643,1000,1000,1000,1000,57828526,1580,1580,1580,1580
47126142,1000,1000,1000,1000,57928486,1580,1580,1580,1580
47128641,1000,1000,1000,1000,58028446,1580,1580,1580,1580
47131140,1000,1000,1000,1000,58128406,1580,1580,1580,1580
47133639,1000,1000,1000,1000,58228366,1579,1580,1580,1580
47136138,1000,1000,1000,1000,58328326,1580,1580,1580,1580
47138637,1000,1000,1000,1000,58428286,1581,1580,1581,1580
47141136,1000,1000,1000,1000,58528246,1581,1580,1581,1580
47143635,1000,1000,1000,1000,58628206,1581,1581,1581,1581
47146134,1000,1000,1000,1000,58728166,1581,1580,1581,1581
47148633,1000,1000,1000,1000,58828959,1581,1581,1581,1581
47151132,1000,1000,1000,1000,58928919,1579,1580,1580,1580
47153631,1000,1000,1000,1000,59028879,1580,1580,1580,1580
47156130,1000,1000,1000,1000,59128839,1581,1581,1582,1579
47158629,1000,1000,1000,1000,59228799,1581,1582,1588,1573
47161128,1000,1000,1000,1000,59328759,1579,1583,1583,1573
47163627,1000,1000,1000,1000,59428719,1577,1580,1574,1573
47166126,1000,1000,1000,1000,59528679,1576,1578,1565,1570
47168625,1000,1000,1000,1000,59628639,1577,1579,1560,1567
47171124,1000,1000,1000,1000,59728599,1577,1577,1555,1562
47173623,1000,1000,1000,1000,59828559,1578,1577,1555,1558
47176122,1000,1000,1000,1000,59928519,1579,1578,1556,1555
47178621,1000,1000,1000,1000,60028479,1579,1578,1556,1554
47181120,1000,1000,1000,1000,60128439,1578,1578,1556,1554
47183619,1000,1000,1000,1000,60228399,1576,1577,1556,1554
47186118,1000,1000,1000,1000,60328359,1574,1575,1554,1553
47188617,1000,1000,1000,1000,60428319,1575,1576,1555,1555
47191116,1000,1000,1000,1000,60528279,1574,1576,1553,1553
47193615,1000,1000,1000,1000,60628239,1575,1576,1551,1551
47196114,1000,1000,1000,1000,60728199,1576,1578,1549,1550
47198613,1000,1000,1000,1000,60828159,1578,1580,1547,1548
47201112,1000,1000,1000,1000,60928952,1581,1582,1545,1545
47203611,1000,1000,1000,1000,61028912,1584,1585,1542,1542
47206110,1000,1000,1000,1000,61128872,1587,1588,1540,1539
47208609,1000,1000,1000,1000,61228832,1591,1591,1537,1537
47211108,1000,1000,1000,1000,61328792,1594,1593,1535,1536
47213607,1000,1000,1000,1000,61428752,1595,1596,1535,1536
47216106,1000,1000,1000,1000,61528712,1596,1595,1535,1536
47218605,1000,1000,1000,1000,61628672,1596,1595,1537,1540
47221104,1000,1000,1000,1000,61728632,1593,1593,1541,1543
47223603,1000,1000,1000,1000,61828592,1589,1588,1546,1549
47226102,1000,1000,1000,1000,61928552,1582,1580,1553,1557
47228601,1000,1000,1000,1000,62028512,1575,1572,1565,1567
47231100,1000,1000,1000,1000,62128472,1564,1560,1576,1578
47233599,1000,1000,1000,1000,62228432,1553,1550,1589,1589
47236098,1000,1000,1000,1000,62328392,1542,1540,1599,1599
47238597,1000,1000,1000,1000,62428352,1534,1533,1608,1607
47241096,1000,1000,1000,1000,62528312,1529,1530,1614,1613
47243595,1000,1000,1000,1000,62628272,1529,1531,1616,1615
47246094,1000,1000,1000,1000,62728232,1532,1534,1614,1613
47248593,1000,1000,1000,1000,62828192,1538,1541,1610,1610
47251092,1000,1000,1000,1000,62928985,1545,1547,1603,1603
47253591,1000,1000,1000,1000,63028945,1554,1555,1596,1596
47256090,1000,1000,1000,1000,63128905,1564,1564,1589,1588
47258589,1000,1000,1000,1000,63228865,1571,1571,1581,1580
47261088,1000,1000,1000,1000,63328825,1578,1577,1575,1574
47263587,1000,1000,1000,1000,63428785,1583,1582,1570,1570
47266086,1000,1000,1000,1000,63528745,1587,1585,1567,1567
47268585,1000,1000,1000,1000,63628705,1588,1587,1566,1566
47271084,1000,1000,1000,1000,63728665,1588,1586,1567,1566
47273583,1000,1000,1000,1000,63828625,1587,1586,1569,1570
47276082,1000,1000,1000,1000,63928585,1583,1583,1571,1571
47278581,1000,1000,1000,1000,64028545,1581,1581,1574,1574
47281080,1000,1000,1000,1000,64128505,1578,1578,1577,1577
47283579,1000,1000,1000,1000,64228465,1575,1575,1579,1579
47286078,1000,1000,1000,1000,64328425,1573,1573,1581,1581
47288577,1000,1000,1000,1000,64428385,1572,1573,1583,1583
47291076,1000,1000,1000,1000,64528345,1572,1573,1584,1584
47293575,1000,1000,1000,1000,64628305,1626,1580,1638,1591
47296074,1000,1000,1000,1000,64728265,1595,1581,1607,1590
47298573,1000,1000,1000,1000,64828225,1576,1583,1585,1590
47301072,1000,1000,1000,1000,64928185,1566,1584,1571,1589
47303571,1000,1000,1000,1000,65028978,1562,1580,1564,1583
47306070,1000,1000,1000,1000,65128938,1566,1575,1563,1575
47308569,1000,1000,1000,1000,65228898,1571,1574,1566,1569
47311068,1000,1000,1000,1000,65328858,1576,1573,1569,1565
47313567,1000,1000,1000,1000,65428818,1581,1574,1573,1566
47316066,1000,1000,1000,1000,65528778,1583,1576,1575,1569
47318565,1000,1000,1000,1000,65628738,1582,1578,1576,1572
47321064,1000,1000,1000,1000,65728698,1582,1579,1577,1576
47323563,1000,1000,1000,1000,65828658,1579,1580,1578,1578
47326062,1000,1000,1000,1000,65928618,1578,1580,1579,1580
47328561,1000,1000,1000,1000,66028578,1578,1579,1580,1582
47331060,1000,1000,1000,1000,66128538,1577,1579,1581,1582
47333559,1000,1000,1000,1000,66228498,1579,1579,1583,1583
47336058,1000,1000,1000,1000,66328458,1579,1579,1584,1584
47338557,1000,1000,1000,1000,66428418,1581,1580,1585,1584
47341056,1000,1000,1000,1000,66528378,1581,1580,1585,1584
47343555,1000,1000,1000,1000,66628338,1581,1581,1584,1584
47346054,1000,1000,1000,1000,66728298,1582,1582,1584,1584
47348553,1000,1000,1000,1000,66828258,1582,1582,1583,1583
47351052,1000,1000,1000,1000,66928218,1582,1582,1582,1583
47353551,1000,1000,1000,1000,67028178,1583,1584,1583,1583
47356050,1000,1000,1000,1000,67128971,1583,1583,1582,1582
47358549,1000,1000,1000,1000,67228931,1582,1585,1588,1575
47361048,1000,1000,1000,1000,67328891,1583,1587,1586,1573
47363547,1000,1000,1000,1000,67428851,1582,1586,1576,1572
47366046,1000,1000,1000,1000,67528811,1581,1584,1567,1570
47368545,1000,1000,1000,1000,67628771,1582,1583,1559,1566
47371044,1000,1000,1000,1000,67728731,1582,1582,1554,1561
47373543,1000,1000,1000,1000,67828691,1583,1582,1553,1557
47376042,1000,1000,1000,1000,67928651,1584,1582,1554,1554
47378541,1000,1000,1000,1000,68028611,1583,1581,1554,1552
47381040,1000,1000,1000,1000,68128571,1581,1581,1555,1552
47383539,1000,1000,1000,1000,68228531,1580,1580,1555,1553
47386038,1000,1000,1000,1000,68328491,1578,1580,1555,1554
47388537,1000,1000,1000,1000,68428451,1577,1579,1555,1555
47391036,1000,1000,1000,1000,68528411,1576,1578,1553,1553
47393535,1000,1000,1000,1000,68628371,1577,1578,1552,1552
47396034,1000,1000,1000,1000,68728331,1578,1579,1551,1551
47398533,1000,1000,1000,1000,68828291,1579,1580,1548,1548
47401032,1000,1000,1000,1000,68928251,1582,1582,1546,1546
47403531,1000,1000,1000,1000,69028211,1584,1586,1545,1545
47406030,1000,1000,1000,1000,69128171,1586,1589,1541,1542
47408529,1000,1000,1000,1000,69228964,1590,1592,1538,1539
47411028,1000,1000,1000,1000,69328924,1593,1594,1537,1538
47413527,1000,1000,1000,1000,69428884,1595,1595,1538,1539
47416026,1000,1000,1000,1000,69528844,1596,1594,1541,1542
47418525,1000,1000,1000,1000,69628804,1592,1589,1545,1547
47421024,1000,1000,1000,1000,69728764,1587,1583,1553,1556
47423523,1000,1000,1000,1000,69828724,1579,1575,1563,1565
47426022,1000,1000,1000,1000,69928684,1570,1566,1575,1577
47428521,1000,1000,1000,1000,70028644,1559,1556,1586,1588
47431020,1000,1000,1000,1000,70128604,1549,1548,1596,1597
47433519,1000,1000,1000,1000,70228564,1541,1541,1604,1604
47436018,1000,1000,1000,1000,70328524,1537,1537,1609,1609
47438517,1000,1000,1000,1000,70428484,1537,1538,1612,1612
47441016,1000,1000,1000,1000,70528444,1539,1540,1611,1610
47443515,1000,1000,1000,1000,70628404,1543,1545,1608,1607
47446014,1000,1000,1000,1000,70728364,1550,1551,1603,1602
47448513,1000,1000,1000,1000,70828324,1558,1559,1597,1596
47451012,1000,1000,1000,1000,70928284,1566,1565,1590,1589
47453511,1000,1000,1000,1000,71028244,1571,1572,1582,1582
47456010,1000,1000,1000,1000,71128204,1578,1577,1576,1577
47458509,1000,1000,1000,1000,71228164,1582,1581,1572,1572
47461008,1000,1000,1000,1000,71328957,1585,1584,1570,1570
47463507,1000,1000,1000,1000,71428917,1586,1585,1569,1569
47466006,1000,1000,1000,1000,71528877,1587,1586,1570,1569
47468505,1000,1000,1000,1000,71628837,1585,1584,1571,1570
47471004,1000,1000,1000,1000,71728797,1582,1582,1573,1572
47473503,1000,1000,1000,1000,71828757,1580,1580,1575,1575
47476002,1000,1000,1000,1000,71928717,1578,1578,1577,1578
47478501,1000,1000,1000,1000,72028677,1576,1576,1580,1580
47481000,1000,1000,1000,1000,72128637,1575,1575,1583,1582
47483499,1000,1000,1000,1000,72228597,1575,1576,1585,1584
47485998,1000,1000,1000,1000,72328557,1574,1576,1585,1585
47488497,1000,1000,1000,1000,72428517,1575,1575,1584,1585
47490996,1000,1000,1000,1000,72528477,1574,1574,1583,1583
47493495,1000,1000,1000,1000,72628437,1575,1575,1582,1582
47495994,1000,1000,1000,1000,72728397,1577,1577,1582,1582
47498493,1000,1000,1000,1000,72828357,1579,1579,1582,1581
47500992,1000,1000,1000,1000,72928317,1579,1579,1579,1579
47503491,1000,1000,1000,1000,73028277,1580,1581,1579,1579
47505990,1000,1000,1000,1000,73128237,1581,1580,1578,1578
47508489,1000,1000,1000,1000,73228197,1581,1580,1577,1577
47510988,1000,1000,1000,1000,73328157,1581,1581,1577,1577
47513487,1000,1000,1000,1000,73428950,1582,1581,1578,1578
47515986,1000,1000,1000,1000,73528910,1581,1581,1578,1578
47518485,1000,1000,1000,1000,73628870,1581,1582,1580,1579
47520984,1000,1000,1000,1000,73728830,1581,1581,1580,1580
47523483,1000,1000,1000,1000,73828790,1580,1580,1580,1580
47525982,1000,1000,1000,1000,73928750,1580,1579,1580,1580
47528481,1000,1000,1000,1000,74028710,1579,1579,1580,1580
47530980,1000,1000,1000,1000,74128670,1579,1579,1580,1581
47533479,1000,1000,1000,1000,74228630,1580,1580,1582,1582
47535978,1000,1000,1000,1000,74328590,1580,1580,1582,1582
47538477,1000,1000,1000,1000,74428550,1580,1580,1582,1582
47540976,1000,1000,1000,1000,74528510,1579,1579,1580,1580
47543475,1000,1000,1000,1000,74628470,1581,1581,1582,1582
47545974,1000,1000,1000,1000,74728430,1580,1581,1581,1581
47548473,1000,1000,1000,1000,74828390,1581,1581,1580,1580
47550972,1000,1000,1000,1000,74928350,1581,1581,1581,1581
47553471,1000,1000,1000,1000,75028310,1581,1581,1580,1580
47555970,1000,1000,1000,1000,75128270,1582,1581,1580,1581
47558469,1000,1000,1000,1000,75228230,1583,1584,1589,1575
47560968,1000,1000,1000,1000,75328190,1580,1584,1585,1572
47563467,1000,1000,1000,1000,75428983,1580,1583,1577,1573
47565966,1000,1000,1000,1000,75528943,1579,1581,1568,1571
47568465,1000,1000,1000,1000,75628903,1578,1580,1561,1568
47570964,1000,1000,1000,1000,75728863,1579,1580,1557,1563
47573463,1000,1000,1000,1000,75828823,1580,1579,1555,1559
47575962,1000,1000,1000,1000,75928783,1581,1579,1555,1556
47578461,1000,1000,1000,1000,76028743,1581,1579,1556,1555
47580960,1000,1000,1000,1000,76128703,1578,1578,1555,1553
47583459,1000,1000,1000,1000,76228663,1577,1578,1556,1553
47585958,1000,1000,1000,1000,76328623,1576,1577,1555,1554
47588457,1000,1000,1000,1000,76428583,1575,1577,1555,1554
47590956,1000,1000,1000,1000,76528543,1576,1578,1554,1555
47593455,1000,1000,1000,1000,76628503,1575,1577,1552,1552
47595954,1000,1000,1000,1000,76728463,1576,1578,1551,1550
47598453,1000,1000,1000,1000,76828423,1578,1578,1548,1548
47600952,1000,1000,1000,1000,76928383,1581,1582,1547,1547
47603451,1000,1000,1000,1000,77028343,1583,1584,1543,1544
47605950,1000,1000,1000,1000,77128303,1586,1586,1541,1541
47608449,1000,1000,1000,1000,77228263,1588,1589,1540,1539
47610948,1000,1000,1000,1000,77328223,1591,1591,1539,1538
47613447,1000,1000,1000,1000,77428183,1592,1593,1538,1538
47615946,1000,1000,1000,1000,77528976,1594,1594,1538,1540
47618445,1000,1000,1000,1000,77628936,1593,1594,1539,1541
47620944,1000,1000,1000,1000,77728896,1592,1591,1542,1545
47623443,1000,1000,1000,1000,77828856,1587,1586,1547,1550
47625942,1000,1000,1000,1000,77928816,1582,1579,1555,1558
47628441,1000,1000,1000,1000,78028776,1574,1571,1566,1569
47630940,1000,1000,1000,1000,78128736,1564,1560,1577,1578
47633439,1000,1000,1000,1000,78228696,1553,1550,1588,1589
47635938,1000,1000,1000,1000,78328656,1544,1542,1599,1599
47638437,1000,1000,1000,1000,78428616,1536,1536,1606,1606
47640936,1000,1000,1000,1000,78528576,1533,1533,1611,1610
47643435,1000,1000,1000,1000,78628536,1533,1535,1613,1612
47645934,1000,1000,1000,1000,78728496,1536,1537,1610,1610
47648433,1000,1000,1000,1000,78828456,1542,1544,1606,1606
47650932,1000,1000,1000,1000,78928416,1549,1550,1600,1600
47653431,1000,1000,1000,1000,79028376,1558,1559,1594,1594
47655930,1000,1000,1000,1000,79128336,1566,1566,1587,1586
47658429,1000,1000,1000,1000,79228296,1573,1573,1580,1579
47660928,1000,1000,1000,1000,79328256,1579,1578,1574,1574
47663427,1000,1000,1000,1000,79428216,1584,1582,1571,1571
47665926,1000,1000,1000,1000,79528176,1585,1584,1568,1568
47668425,1000,1000,1000,1000,79628969,1586,1585,1567,1567
47670924,1000,1000,1000,1000,79728929,1586,1585,1568,1568
47673423,1000,1000,1000,1000,79828889,1583,1582,1569,1569
47675922,1000,1000,1000,1000,79928849,1582,1581,1572,1572
47678421,1000,1000,1000,1000,80028809,1578,1578,1574,1574
47680920,1000,1000,1000,1000,80128769,1578,1577,1578,1578
47683419,1000,1000,1000,1000,80228729,1575,1575,1580,1580
47685918,1000,1000,1000,1000,80328689,1574,1575,1583,1582
47688417,1000,1000,1000,1000,80428649,1574,1574,1584,1584
47690916,1000,1000,1000,1000,80528609,1573,1573,1584,1584
47693415,1000,1000,1000,1000,80628569,1572,1574,1583,1583
47695914,1000,1000,1000,1000,80728529,1573,1574,1582,1582
47698413,1000,1000,1000,1000,80828489,1575,1575,1581,1581
47700912,1000,1000,1000,1000,80928449,1576,1577,1581,1581
47703411,1000,1000,1000,1000,81028409,1578,1578,1580,1580
47705910,1000,1000,1000,1000,81128369,1579,1579,1579,1579
47708409,1000,1000,1000,1000,81228329,1579,1580,1577,1577
47710908,1000,1000,1000,1000,81328289,1580,1580,1577,1577
47713407,1000,1000,1000,1000,81428249,1581,1581,1578,1577
47715906,1000,1000,1000,1000,81528209,1581,1581,1577,1577
47718405,1000,1000,1000,1000,81628169,1581,1581,1577,1578
47720904,1000,1000,1000,1000,81728962,1581,1580,1578,1578
47723403,1000,1000,1000,1000,81828922,1581,1581,1579,1579
47725902,1000,1000,1000,1000,81928882,1580,1580,1579,1579
47728401,1000,1000,1000,1000,82028842,1580,1581,1581,1580
47730900,1000,1000,1000,1000,82128802,1580,1580,1580,1581
47733399,1000,1000,1000,1000,82228762,1580,1580,1581,1582
47735898,1000,1000,1000,1000,82328722,1580,1580,1581,1581
47738397,1000,1000,1000,1000,82428682,1580,1580,1582,1582
47740896,1000,1000,1000,1000,82528642,1579,1580,1581,1581
47743395,1000,1000,1000,1000,82628602,1580,1580,1581,1581
47745894,1000,1000,1000,1000,82728562,1580,1580,1581,1581
47748393,1000,1000,1000,1000,82828522,1581,1581,1581,1581
47750892,1000,1000,1000,1000,82928482,1580,1580,1580,1580
47753391,1000,1000,1000,1000,83028442,1581,1581,1580,1580
47755890,1000,1000,1000,1000,83128402,1580,1581,1583,1576
47758389,1000,1000,1000,1000,83228362,1580,1581,1586,1572
47760888,1000,1000,1000,1000,83328322,1579,1579,1581,1573
47763387,1000,1000,1000,1000,83428282,1576,1576,1574,1575
47765886,1000,1000,1000,1000,83528242,1574,1574,1569,1575
47768385,1000,1000,1000,1000,83628202,1571,1571,1566,1573
47770884,1000,1000,1000,1000,83728162,1569,1569,1566,1571
47773383,1000,1000,1000,1000,83828955,1567,1567,1566,1568
47775882,1000,1000,1000,1000,83928915,1566,1566,1566,1566
47778381,1000,1000,1000,1000,84028875,1564,1565,1567,1564
47780880,1000,1000,1000,1000,84128835,1565,1565,1567,1565
47783379,1000,1000,1000,1000,84228795,1564,1564,1566,1564
47785878,1000,1000,1000,1000,84328755,1563,1563,1564,1563
47788377,1000,1000,1000,1000,84428715,1562,1562,1563,1563
47790876,1000,1000,1000,1000,84528675,1562,1562,1563,1563
47793375,1000,1000,1000,1000,84628635,1562,1562,1562,1563
47795874,1000,1000,1000,1000,84728595,1561,1561,1561,1561
47798373,1000,1000,1000,1000,84828555,1562,1562,1562,1562
47800872,1000,1000,1000,1000,84928515,1561,1561,1561,1561
47803371,1000,1000,1000,1000,85028475,1560,1561,1561,1560
47805870,1000,1000,1000,1000,85128435,1558,1558,1558,1557
47808369,1000,1000,1000,1000,85228395,1559,1558,1559,1558
47810868,1000,1000,1000,1000,85328355,1559,1558,1559,1558
47813367,1000,1000,1000,1000,85428315,1557,1557,1557,1557
47815866,1000,1000,1000,1000,85528275,1557,1557,1557,1557
47818365,1000,1000,1000,1000,85628235,1558,1557,1558,1556
47820864,1000,1000,1000,1000,85728195,1558,1558,1560,1557
47823363,1000,1000,1000,1000,85828155,1558,1559,1560,1557
47825862,1000,1000,1000,1000,85928948,1558,1558,1559,1558
47828361,1000,1000,1000,1000,86028908,1558,1558,1557,1560
47830860,1000,1000,1000,1000,86128868,1560,1559,1556,1563
47833359,1000,1000,1000,1000,86228828,1561,1561,1557,1564
47835858,1000,1000,1000,1000,86328788,1562,1562,1559,1564
47838357,1000,1000,1000,1000,86428748,1563,1563,1562,1564
47840856,1000,1000,1000,1000,86528708,1562,1562,1563,1562
47843355,1000,1000,1000,1000,86628668,1561,1561,1563,1559
47845854,1000,1000,1000,1000,86728628,1562,1561,1561,1562
47848353,1000,1000,1000,1000,86828588,1558,1559,1557,1560
47850852,1000,1000,1000,1000,86928548,1554,1554,1552,1555
47853351,1000,1000,1000,1000,87028508,1548,1548,1547,1549
47855850,1000,1000,1000,1000,87128468,1543,1543,1543,1543
47858349,1000,1000,1000,1000,87228428,1535,1536,1536,1535
47860848,1000,1000,1000,1000,87328388,1528,1528,1528,1527
47863347,1000,1000,1000,1000,87428348,1521,1521,1522,1521
47865846,1000,1000,1000,1000,87528308,1520,1519,1520,1520
47868345,1000,1000,1000,1000,87628268,1520,1520,1520,1520
47870844,1000,1000,1000,1000,87728228,1522,1522,1521,1522
47873343,1000,1000,1000,1000,87828188,1525,1525,1524,1525
47875842,1000,1000,1000,1000,87928981,1528,1528,1528,1528
47878341,1000,1000,1000,1000,88028941,1532,1532,1532,1532
47880840,1000,1000,1000,1000,88128901,1537,1537,1537,1537
47883339,1000,1000,1000,1000,88228861,1540,1540,1540,1540
47885838,1000,1000,1000,1000,88328821,1543,1543,1543,1543
47888337,1000,1000,1000,1000,88428781,1543,1543,1543,1543
47890836,1000,1000,1000,1000,88528741,1545,1545,1545,1544
47893335,1000,1000,1000,1000,88628701,1546,1546,1546,1546
47895834,1000,1000,1000,1000,88728661,1546,1545,1545,1545
47898333,1000,1000,1000,1000,88828621,1547,1547,1547,1546
47900832,1000,1000,1000,1000,88928581,1546,1546,1546,1546
47903331,1000,1000,1000,1000,89028541,1546,1546,1546,1546
47905830,1000,1000,1000,1000,89128501,1546,1546,1546,1546
47908329,1000,1000,1000,1000,89228461,1546,1547,1547,1546
47910828,1000,1000,1000,1000,89328421,1546,1546,1546,1546
47913327,1000,1000,1000,1000,89428381,1545,1545,1545,1545
47915826,1000,1000,1000,1000,89528341,1545,1545,1546,1545
47918325,1000,1000,1000,1000,89628301,1545,1545,1545,1545
47920824,1000,1000,1000,1000,89728261,1545,1544,1544,1544
47923323,1000,1000,1000,1000,89828221,1544,1544,1544,1544
47925822,1000,1000,1000,1000,89928181,1545,1545,1545,1545
47928321,1000,1000,1000,1000,90028974,1543,1543,1543,1543
47930820,1000,1000,1000,1000,90128934,1544,1544,1544,1544
47933319,1000,1000,1000,1000,90228894,1544,1544,1543,1544
47935818,1000,1000,1000,1000,90328854,1544,1544,1544,1544
47938317,1000,1000,1000,1000,90428814,1544,1543,1544,1544
47940816,1000,1000,1000,1000,90528774,1544,1544,1544,1544
47943315,1000,1000,1000,1000,90628734,1545,1545,1545,1544
47945814,1000,1000,1000,1000,90728694,1546,1546,1546,1545
47948313,1000,1000,1000,1000,90828654,1544,1544,1544,1544
47950812,1000,1000,1000,1000,90928614,1545,1545,1545,1545
47953311,1000,1000,1000,1000,91028574,1544,1545,1544,1545
47955810,1000,1000,1000,1000,91128534,1545,1544,1545,1545
47958309,1000,1000,1000,1000,91228494,1544,1544,1544,1544
47960808,1000,1000,1000,1000,91328454,1544,1543,1544,1543
47963307,1000,1000,1000,1000,91428414,1543,1544,1544,1544
47965806,1000,1000,1000,1000,91528374,1546,1545,1545,1545
47968305,1000,1000,1000,1000,91628334,1544,1544,1543,1544
47970804,1000,1000,1000,1000,91728294,1545,1543,1544,1544
47973303,1000,1000,1000,1000,91828254,1544,1544,1544,1543
47975802,1000,1000,1000,1000,91928214,1545,1545,1544,1545
47978301,1000,1000,1000,1000,92028174,1544,1545,1545,1544
47980800,1000,1000,1000,1000,92128967,1544,1543,1543,1544
47983299,1000,1000,1000,1000,92228927,1544,1544,1544,1544
47985798,1000,1000,1000,1000,92328887,1544,1544,1544,1544
47988297,1000,1000,1000,1000,92428847,1545,1545,1545,1545
47990796,1000,1000,1000,1000,92528807,1544,1544,1543,1544
47993295,1000,1000,1000,1000,92628767,1543,1543,1544,1543
47995794,1000,1000,1000,1000,92728727,1544,1543,1543,1543
47998293,1000,1000,1000,1000,92828687,1543,1544,1544,1543
48000792,1000,1000,1000,1000,92928647,1544,1543,1543,1544
48003291,1000,1000,1000,1000,93028607,1544,1543,1544,1543
48005790,1000,1000,1000,1000,93128567,1544,1543,1543,1544
48008289,1000,1000,1000,1000,93228527,1543,1544,1544,1544
48010788,1000,1000,1000,1000,93328487,1543,1543,1543,1544
48013287,1000,1000,1000,1000,93428447,1544,1545,1544,1544
48015786,1000,1000,1000,1000,93528407,1545,1545,1545,1545
48018285,1000,1000,1000,1000,93628367,1544,1544,1544,1544
48020784,1000,1000,1000,1000,93728327,1544,1544,1544,1544
48023283,1000,1000,1000,1000,93828287,1544,1544,1544,1544
48025782,1000,1000,1000,1000,93928247,1544,1543,1543,1543
48028281,1000,1000,1000,1000,94028207,1544,1544,1544,1544
48030780,1000,1000,1000,1000,94128167,1544,1544,1544,1544
48033279,1000,1000,1000,1000,94228960,1545,1545,1545,1545
48035778,1000,1000,1000,1000,94328920,1544,1544,1544,1544
48038277,1000,1000,1000,1000,94428880,1545,1545,1545,1545
48040776,1000,1000,1000,1000,94528840,1545,1544,1544,1544
48043275,1000,1000,1000,1000,94628800,1544,1544,1544,1544
48045774,1000,1000,1000,1000,94728760,1545,1545,1545,1545
48048273,1000,1000,1000,1000,94828720,1545,1545,1545,1545
48050772,1000,1000,1000,1000,94928680,1545,1545,1545,1545
48053271,1000,1000,1000,1000,95028640,1545,1545,1545,1545
48055770,1000,1000,1000,1000,95128600,1545,1545,1545,1545
48058269,1000,1000,1000,1000,95228560,1544,1544,1544,1544
48060768,1000,1000,1000,1000,95328520,1544,1544,1544,1544
48063267,1000,1000,1000,1000,95428480,1544,1545,1545,1544
48065766,1000,1000,1000,1000,95528440,1544,1544,1544,1544
48068265,1000,1000,1000,1000,95628400,1543,1543,1543,1543
48070764,1000,1000,1000,1000,95728360,1544,1544,1544,1544
48073263,1000,1000,1000,1000,95828320,1544,1544,1544,1544
48075762,1000,1000,1000,1000,95928280,1545,1544,1545,1545
48078261,1000,1000,1000,1000,96028240,1543,1544,1544,1544
48080760,1000,1000,1000,1000,96128200,1543,1543,1543,1543
48083259,1000,1000,1000,1000,96228160,1544,1544,1544,1545
48085758,1000,1000,1000,1000,96328953,1545,1545,1545,1545
48088257,1000,1000,1000,1000,96428913,1544,1545,1544,1545
48090756,1000,1000,1000,1000,96528873,1544,1544,1544,1544
48093255,1000,1000,1000,1000,96628833,1543,1544,1544,1543
48095754,1000,1000,1000,1000,96728793,1544,1543,1544,1543
48098253,1000,1000,1000,1000,96828753,1543,1544,1543,1543
48100752,1000,1000,1000,1000,96928713,1544,1544,1544,1544
48103251,1000,1000,1000,1000,97028673,1543,1544,1543,1543
48105750,1000,1000,1000,1000,97128633,1544,1544,1544,1544
48108249,1000,1000,1000,1000,97228593,1398,1406,1396,1407
48110748,1000,1000,1000,1000,97328553,1249,1268,1244,1272
48113247,1000,1000,1000,1000,97428513,1195,1223,1192,1226
48115746,1000,1000,1000,1000,97528473,1195,1224,1192,1227
48118245,1000,1000,1000,1000,97628433,1194,1224,1192,1227
48120744,1000,1000,1000,1000,97728393,1195,1224,1192,1227
48123243,1000,1000,1000,1000,97828353,1196,1224,1192,1228
48125742,1000,1000,1000,1000,97928313,1223,1224,1192,1251
48128241,1000,1000,1000,1000,98028273,1214,1224,1192,1244
48130740,1000,1000,1000,1000,98128233,1213,1224,1192,1243
48133239,1000,1000,1000,1000,98228193,1214,1224,1192,1243
48135738,1000,1000,1000,1000,98328986,1215,1224,1192,1245
48138237,1000,1000,1000,1000,98428946,1217,1223,1192,1246
48140736,1000,1000,1000,1000,98528906,1219,1223,1192,1247
48143235,1000,1000,1000,1000,98628866,1201,1223,1192,1232
48145734,1000,1000,1000,1000,98728826,1207,1223,1192,1237
48148233,1000,1000,1000,1000,98828786,1208,1223,1192,1238
48150732,1000,1000,1000,1000,98928746,1209,1223,1192,1238
48153231,1000,1000,1000,1000,99028706,1209,1223,1192,1239
48155730,1000,1000,1000,1000,99128666,1192,1150,1192,1150
48158229,1000,1000,1000,1000,99228626,1000,1000,1000,1000
48160728,1000,1000,1000,1000,99328586,1000,1000,1000,1000
48163227,1000,1000,1000,1000,99428546,1000,1000,1000,1000
48165726,1000,1000,1000,1000,99528506,1000,1000,1000,1000
48168225,1000,1000,1000,1000,99628466,1000,1000,1000,1000
48170724,1000,1000,1000,1000,99728426,1000,1000,1000,1000
48173223,1000,1000,1000,1000,99828386,1000,1000,1000,1000
48175722,1000,1000,1000,1000,99928346,1000,1000,1000,1000
48178221,1000,1000,1000,1000,100028306,1000,1000,1000,1000
48180720,1000,1000,1000,1000,100128266,1000,1000,1000,1000
48183219,1000,1000,1000,1000,100228226,1000,1000,1000,1000
48185718,1000,1000,1000,1000,100328186,1000,1000,1000,1000
48188217,1000,1000,1000,1000,100428979,1000,1000,1000,1000
48190716,1000,1000,1000,1000,100528939,1000,1000,1000,1000
48193215,1000,1000,1000,1000,100628899,1000,1000,1000,1000
48195714,1000,1000,1000,1000,100728859,1000,1000,1000,1000
48198213,1000,1000,1000,1000,100828819,1000,1000,1000,1000
48200712,1000,1000,1000,1000,100928779,1000,1000,1000,1000
48203211,1000,1000,1000,1000,101028739,1000,1000,1000,1000
48205710,1000,1000,1000,1000,101128699,1000,1000,1000,1000
48208209,1000,1000,1000,1000,101228659,1000,1000,1000,1000
48210708,1000,1000,1000,1000,101328619,1000,1000,1000,1000
48213207,1000,1000,1000,1000,101428579,1000,1000,1000,1000
48215706,1000,1000,1000,1000,101528539,1000,1000,1000,1000
48218205,1000,1000,1000,1000,101628499,1000,1000,1000,1000
48220704,1000,1000,1000,1000,101728459,1000,1000,1000,1000
48223203,1000,1000,1000,1000,101828419,1000,1000,1000,1000
48225702,1000,1000,1000,1000,101928379,1000,1000,1000,1000
48228201,1000,1000,1000,1000,102028339,1000,1000,1000,1000
48230700,1000,1000,1000,1000,102128299,1000,1000,1000,1000
48233199,1000,1000,1000,1000,102228259,1000,1000,1000,1000
48235698,1000,1000,1000,1000,102328219,1000,1000,1000,1000
48238197,1000,1000,1000,1000,102428179,1000,1000,1000,1000
48240696,1000,1000,1000,1000,102528972,1000,1000,1000,1000
48243195,1000,1000,1000,1000,102628932,1000,1000,1000,1000
48245694,1000,1000,1000,1000,102728892,1000,1000,1000,1000
48248193,1000,1000,1000,1000,102828852,1000,1000,1000,1000
48250692,1000,1000,1000,1000,102928812,1000,1000,1000,1000
48253191,1000,1000,1000,1000,103028772,1000,1000,1000,1000
48255690,1000,1000,1000,1000,103128732,1000,1000,1000,1000
48258189,1000,1000,1000,1000,103228692,1000,1000,1000,1000
48260688,1000,1000,1000,1000,103328652,1000,1000,1000,1000
48263187,1000,1000,1000,1000,103428612,1000,1000,1000,1000
48265686,1000,1000,1000,1000,103528572,1000,1000,1000,1000
48268185,1000,1000,1000,1000,103628532,1000,1000,1000,1000
48270684,1000,1000,1000,1000,103728492,1000,1000,1000,1000
48273183,1000,1000,1000,1000,103828452,1000,1000,1000,1000
48275682,1000,1000,1000,1000,103928412,1000,1000,1000,1000
48278181,1000,1000,1000,1000,104028372,1000,1000,1000,1000
48280680,1000,1000,1000,1000,104128332,1000,1000,1000,1000
48283179,1000,1000,1000,1000,104228292,1000,1000,1000,1000
48285678,1000,1000,1000,1000,104328252,1000,1000,1000,1000
48288177,1000,1000,1000,1000,104428212,1000,1000,1000,1000
48290676,1000,1000,1000,1000,104528172,1000,1000,1000,1000
48293175,1000,1000,1000,1000,104628965,1000,1000,1000,1000
48295674,1000,1000,1000,1000,104728925,1000,1000,1000,1000
48298173,1000,1000,1000,1000,104828885,1000,1000,1000,1000
48300672,1000,1000,1000,1000,104928845,1000,1000,1000,1000
48303171,1000,1000,1000,1000,105028805,1000,1000,1000,1000
48305670,1000,1000,1000,1000,105128765,1000,1000,1000,1000
48308169,1000,1000,1000,1000,105228725,1000,1000,1000,1000
48310668,1000,1000,1000,1000,105328685,1000,1000,1000,1000
48313167,1000,1000,1000,1000,105428645,1000,1000,1000,1000
48315666,1000,1000,1000,1000,105528605,1000,1000,1000,1000
48318165,1000,1000,1000,1000,105628565,1000,1000,1000,1000
48320664,1000,1000,1000,1000,105728525,1000,1000,1000,1000
48323163,1000,1000,1000,1000,105828485,1000,1000,1000,1000
48325662,1000,1000,1000,1000,105928445,1000,1000,1000,1000
48328161,1000,1000,1000,1000,106028405,1000,1000,1000,1000
48330660,1000,1000,1000,1000,106128365,1000,1000,1000,1000
48333159,1000,1000,1000,1000,106228325,1000,1000,1000,1000
48335658,1000,1000,1000,1000,106328285,1000,1000,1000,1000
48338157,1000,1000,1000,1000,106428245,1000,1000,1000,1000
48340656,1000,1000,1000,1000,106528205,1000,1000,1000,1000
48343155,1000,1000,1000,1000,106628165,1000,1000,1000,1000
48345654,1000,1000,1000,1000,106728958,1000,1000,1000,1000
48348986,1000,1000,1000,1000,106828918,1000,1000,1000,1000
48351485,1000,1000,1000,1000,106928878,1000,1000,1000,1000
48353984,1000,1000,1000,1000,107028838,1000,1000,1000,1000
48356483,1000,1000,1000,1000,107128798,1000,1000,1000,1000
48358982,1000,1000,1000,1000,107228758,1000,1000,1000,1000
48361481,1000,1000,1000,1000,107328718,1000,1000,1000,1000
48363980,1000,1000,1000,1000,107428678,1000,1000,1000,1000
48366479,1000,1000,1000,1000,107528638,1000,1000,1000,1000
48368978,1000,1000,1000,1000,107628598,1000,1000,1000,1000
48371477,1000,1000,1000,1000,107728558,1000,1000,1000,1000
48373976,1000,1000,1000,1000,107828518,1000,1000,1000,1000
48376475,1000,1000,1000,1000,107928478,1000,1000,1000,1000
48378974,1000,1000,1000,1000,108028438,1000,1000,1000,1000
48381473,1000,1000,1000,1000,108128398,1000,1000,1000,1000
48383972,1000,1000,1000,1000,108228358,1000,1000,1000,1000
48386471,1000,1000,1000,1000,108328318,1000,1000,1000,1000
48388970,1000,1000,1000,1000,108428278,1000,1000,1000,1000
48391469,1000,1000,1000,1000,108528238,1000,1000,1000,1000
48393968,1000,1000,1000,1000,108628198,1000,1000,1000,1000
48396467,1000,1000,1000,1000,108728158,1000,1000,1000,1000
48398966,1000,1000,1000,1000,108828951,1000,1000,1000,1000
48401465,1000,1000,1000,1000,108928911,1000,1000,1000,1000
48403964,1000,1000,1000,1000,109028871,1000,1000,1000,1000
48406463,1000,1000,1000,1000,109128831,1000,1000,1000,1000
48408962,1000,1000,1000,1000,109228791,1000,1000,1000,1000
48411461,1000,1000,1000,1000,109328751,1000,1000,1000,1000
48413960,1000,1000,1000,1000,109428711,1000,1000,1000,1000
48416459,1000,1000,1000,1000,109528671,1000,1000,1000,1000
48418958,1000,1000,1000,1000,109628631,1000,1000,1000,1000
48421457,1000,1000,1000,1000,109728591,1000,1000,1000,1000
48423956,1000,1000,1000,1000,109828551,1000,1000,1000,1000
48426455,1000,1000,1000,1000,109928511,1000,1000,1000,1000
48428954,1000,1000,1000,1000,110028471,1000,1000,1000,1000
48431453,1000,1000,1000,1000,110128431,1000,1000,1000,1000
48433952,1000,1000,1000,1000,110228391,1000,1000,1000,1000
48436451,1000,1000,1000,1000,110328351,1000,1000,1000,1000
48438950,1000,1000,1000,1000,110428311,1000,1000,1000,1000
48441449,1000,1000,1000,1000,110528271,1000,1000,1000,1000
48443948,1000,1000,1000,1000,110628231,1000,1000,1000,1000
48446447,1000,1000,1000,1000,110728191,1000,1000,1000,1000
48448946,1000,1000,1000,1000,110828984,1000,1000,1000,1000
48451445,1000,1000,1000,1000,110928944,1000,1000,1000,1000
48453944,1000,1000,1000,1000,111028904,1000,1000,1000,1000
48456443,1000,1000,1000,1000,111128864,1000,1000,1000,1000
48458942,1000,1000,1000,1000,111228824,1000,1000,1000,1000
48461441,1000,1000,1000,1000,111328784,1000,1000,1000,1000
48463940,1000,1000,1000,1000,111428744,1000,1000,1000,1000
48466439,1000,1000,1000,1000,111528704,1000,1000,1000,1000
48468938,1000,1000,1000,1000,111628664,1000,1000,1000,1000
48471437,1000,1000,1000,1000,111728624,1000,1000,1000,1000
48473936,1000,1000,1000,1000,111828584,1000,1000,1000,1000
48476435,1000,1000,1000,1000,111928544,1000,1000,1000,1000
48478934,1000,1000,1000,1000,112028504,1000,1000,1000,1000
48481433,1000,1000,1000,1000,112128464,1000,1000,1000,1000
48483932,1000,1000,1000,1000,112228424,1000,1000,1000,1000
48486431,1000,1000,1000,1000,112328384,1000,1000,1000,1000
48488930,1000,1000,1000,1000,112428344,1000,1000,1000,1000
48491429,1000,1000,1000,1000,112528304,1000,1000,1000,1000
48493928,1000,1000,1000,1000,112628264,1000,1000,1000,1000
48496427,1000,1000,1000,1000,112728224,1000,1000,1000,1000
48498926,1000,1000,1000,1000,112828184,1000,1000,1000,1000
48501425,1000,1000,1000,1000,112928977,1000,1000,1000,1000
48503924,1000,1000,1000,1000,113028937,1000,1000,1000,1000
48506423,1000,1000,1000,1000,113128897,1000,1000,1000,1000
48508922,1000,1000,1000,1000,113228857,1000,1000,1000,1000
48511421,1000,1000,1000,1000,113328817,1000,1000,1000,1000
48513920,1000,1000,1000,1000,113428777,1000,1000,1000,1000
48516419,1000,1000,1000,1000,113528737,1000,1000,1000,1000
48518918,1000,1000,1000,1000,113628697,1000,1000,1000,1000
48521417,1000,1000,1000,1000,113728657,1000,1000,1000,1000
48523916,1000,1000,1000,1000,113828617,1000,1000,1000,1000
48526415,1000,1000,1000,1000,113928577,1000,1000,1000,1000
48528914,1000,1000,1000,1000,114028537,1000,1000,1000,1000
48531413,1000,1000,1000,1000,,,,,
48533912,1000,1000,1000,1000,,,,,
48536411,1000,1000,1000,1000,,,,,
48538910,1000,1000,1000,1000,,,,,
48541409,1000,1000,1000,1000,,,,,
48543908,1000,1000,1000,1000,,,,,
48546407,1000,1000,1000,1000,,,,,
48548906,1000,1000,1000,1000,,,,,
48551405,1000,1000,1000,1000,,,,,
48553904,1000,1000,1000,1000,,,,,
48556403,1000,1000,1000,1000,,,,,
48558902,1000,1000,1000,1000,,,,,
48561401,1000,1000,1000,1000,,,,,
48563900,1000,1000,1000,1000,,,,,
48566399,1000,1000,1000,1000,,,,,
48568898,1000,1000,1000,1000,,,,,
48571397,1000,1000,1000,1000,,,,,
48573896,1000,1000,1000,1000,,,,,
48576395,1000,1000,1000,1000,,,,,
48578894,1000,1000,1000,1000,,,,,
48581393,1000,1000,1000,1000,,,,,
48583892,1000,1000,1000,1000,,,,,
48586391,1000,1000,1000,1000,,,,,
48588890,1000,1000,1000,1000,,,,,
48591389,1000,1000,1000,1000,,,,,
48593888,1000,1000,1000,1000,,,,,
48596387,1000,1000,1000,1000,,,,,
48598886,1000,1000,1000,1000,,,,,
48601385,1000,1000,1000,1000,,,,,
48603884,1000,1000,1000,1000,,,,,
48606383,1000,1000,1000,1000,,,,,
48608882,1000,1000,1000,1000,,,,,
48611381,1000,1000,1000,1000,,,,,
48613880,1000,1000,1000,1000,,,,,
48616379,1000,1000,1000,1000,,,,,
48618878,1000,1000,1000,1000,,,,,
48621377,1000,1000,1000,1000,,,,,
48623876,1000,1000,1000,1000,,,,,
48626375,1000,1000,1000,1000,,,,,
48628874,1000,1000,1000,1000,,,,,
48631373,1000,1000,1000,1000,,,,,
48633872,1000,1000,1000,1000,,,,,
48636371,1000,1000,1000,1000,,,,,
48638870,1000,1000,1000,1000,,,,,
48641369,1000,1000,1000,1000,,,,,
48643868,1000,1000,1000,1000,,,,,
48646367,1000,1000,1000,1000,,,,,
48648866,1000,1000,1000,1000,,,,,
48651365,1000,1000,1000,1000,,,,,
48653864,1000,1000,1000,1000,,,,,
48656363,1000,1000,1000,1000,,,,,
48658862,1000,1000,1000,1000,,,,,
48661361,1000,1000,1000,1000,,,,,
48663860,1000,1000,1000,1000,,,,,
48666359,1000,1000,1000,1000,,,,,
48668858,1000,1000,1000,1000,,,,,
48671357,1000,1000,1000,1000,,,,,
48673856,1000,1000,1000,1000,,,,,
48676355,1000,1000,1000,1000,,,,,
48678854,1000,1000,1000,1000,,,,,
48681353,1000,1000,1000,1000,,,,,
48683852,1000,1000,1000,1000,,,,,
48686351,1000,1000,1000,1000,,,,,
48688850,1000,1000,1000,1000,,,,,
48691349,1000,1000,1000,1000,,,,,
48693848,1000,1000,1000,1000,,,,,
48696347,1000,1000,1000,1000,,,,,
48698846,1000,1000,1000,1000,,,,,
48701345,1000,1000,1000,1000,,,,,
48703844,1000,1000,1000,1000,,,,,
48706343,1000,1000,1000,1000,,,,,
48708842,1000,1000,1000,1000,,,,,
48711341,1000,1000,1000,1000,,,,,
48713840,1000,1000,1000,1000,,,,,
48716339,1000,1000,1000,1000,,,,,
48718838,1000,1000,1000,1000,,,,,
48721337,1000,1000,1000,1000,,,,,
48723836,1000,1000,1000,1000,,,,,
48726335,1000,1000,1000,1000,,,,,
48728834,1000,1000,1000,1000,,,,,
48731333,1000,1000,1000,1000,,,,,
48733832,1000,1000,1000,1000,,,,,
48736331,1000,1000,1000,1000,,,,,
48738830,1000,1000,1000,1000,,,,,
48741329,1000,1000,1000,1000,,,,,
48743828,1000,1000,1000,1000,,,,,
48746327,1000,1000,1000,1000,,,,,
48748826,1000,1000,1000,1000,,,,,
48751325,1000,1000,1000,1000,,,,,
48753824,1000,1000,1000,1000,,,,,
48756323,1000,1000,1000,1000,,,,,
48758822,1000,1000,1000,1000,,,,,
48761321,1000,1000,1000,1000,,,,,
48763820,1000,1000,1000,1000,,,,,
48766319,1000,1000,1000,1000,,,,,
48768818,1000,1000,1000,1000,,,,,
48771317,1000,1000,1000,1000,,,,,
48773816,1000,1000,1000,1000,,,,,
48776315,1000,1000,1000,1000,,,,,
48778814,1000,1000,1000,1000,,,,,
48781313,1000,1000,1000,1000,,,,,
48783812,1000,1000,1000,1000,,,,,
48786311,1000,1000,1000,1000,,,,,
48788810,1000,1000,1000,1000,,,,,
48791309,1000,1000,1000,1000,,,,,
48793808,1000,1000,1000,1000,,,,,
48796307,1000,1000,1000,1000,,,,,
48798806,1000,1000,1000,1000,,,,,
48801305,1000,1000,1000,1000,,,,,
48803804,1000,1000,1000,1000,,,,,
48806303,1000,1000,1000,1000,,,,,
48808802,1000,1000,1000,1000,,,,,
48811301,1000,1000,1000,1000,,,,,
48813800,1000,1000,1000,1000,,,,,
48816299,1000,1000,1000,1000,,,,,
48818798,1000,1000,1000,1000,,,,,
48821297,1000,1000,1000,1000,,,,,
48823796,1000,1000,1000,1000,,,,,
48826295,1000,1000,1000,1000,,,,,
48828794,1000,1000,1000,1000,,,,,
48831293,1000,1000,1000,1000,,,,,
48833792,1000,1000,1000,1000,,,,,
48836291,1000,1000,1000,1000,,,,,
48838790,1000,1000,1000,1000,,,,,
48841289,1000,1000,1000,1000,,,,,
48843788,1000,1000,1000,1000,,,,,
48846287,1000,1000,1000,1000,,,,,
48848786,1000,1000,1000,1000,,,,,
48851285,1000,1000,1000,1000,,,,,
48853784,1000,1000,1000,1000,,,,,
48856283,1000,1000,1000,1000,,,,,
48858782,1001,1001,1001,1001,,,,,
48861281,1002,1002,1002,1002,,,,,
48863780,1003,1003,1003,1003,,,,,
48866279,1003,1003,1003,1003,,,,,
48868778,1004,1004,1004,1004,,,,,
48871277,1005,1005,1005,1005,,,,,
48873776,1006,1006,1006,1006,,,,,
48876275,1006,1006,1006,1006,,,,,
48878774,1007,1007,1007,1007,,,,,
48881273,1008,1008,1008,1008,,,,,
48883772,1009,1009,1009,1009,,,,,
48886271,1009,1009,1009,1009,,,,,
48888770,1010,1010,1010,1010,,,,,
48891269,1011,1011,1011,1011,,,,,
48893768,1012,1012,1012,1012,,,,,
48896267,1012,1012,1012,1012,,,,,
48898766,1013,1013,1013,1013,,,,,
48901265,1014,1014,1014,1014,,,,,
48903764,1015,1015,1015,1015,,,,,
48906263,1015,1015,1015,1015,,,,,
48908762,1016,1016,1016,1016,,,,,
48911261,1017,1017,1017,1017,,,,,
48913760,1018,1018,1018,1018,,,,,
48916259,1018,1018,1018,1018,,,,,
48918758,1019,1019,1019,1019,,,,,
48921257,1020,1020,1020,1020,,,,,
48923756,1021,1021,1021,1021,,,,,
48926255,1021,1021,1021,1021,,,,,
48928754,1022,1022,1022,1022,,,,,
48931253,1023,1023,1023,1023,,,,,
48933752,1024,1024,1024,1024,,,,,
48936251,1024,1024,1024,1024,,,,,
48938750,1025,1025,1025,1025,,,,,
48941249,1026,1026,1026,1026,,,,,
48943748,1027,1027,1027,1027,,,,,
48946247,1027,1027,1027,1027,,,,,
48948746,1028,1028,1028,1028,,,,,
48951245,1029,1029,1029,1029,,,,,
48953744,1030,1030,1030,1030,,,,,
48956243,1030,1030,1030,1030,,,,,
48958742,1031,1031,1031,1031,,,,,
48961241,1032,1032,1032,1032,,,,,
48963740,1033,1033,1033,1033,,,,,
48966239,1033,1033,1033,1033,,,,,
48968738,1034,1034,1034,1034,,,,,
48971237,1035,1035,1035,1035,,,,,
48973736,1036,1036,1036,1036,,,,,
48976235,1036,1036,1036,1036,,,,,
48978734,1037,1037,1037,1037,,,,,
48981233,1038,1038,1038,1038,,,,,
48983732,1039,1039,1039,1039,,,,,
48986231,1039,1039,1039,1039,,,,,
48988730,1040,1040,1040,1040,,,,,
48991229,1041,1041,1041,1041,,,,,
48993728,1042,1042,1042,1042,,,,,
48996227,1042,1042,1042,1042,,,,,
48998726,1043,1043,1043,1043,,,,,
49001225,1044,1044,1044,1044,,,,,
49003724,1045,1045,1045,1045,,,,,
49006223,1045,1045,1045,1045,,,,,
49008722,1046,1046,1046,1046,,,,,
49011221,1047,1047,1047,1047,,,,,
49013720,1048,1048,1048,1048,,,,,
49016219,1048,1048,1048,1048,,,,,
49018718,1049,1049,1049,1049,,,,,
49021217,1050,1050,1050,1050,,,,,
49023716,1051,1051,1051,1051,,,,,
49026215,1051,1051,1051,1051,,,,,
49028714,1052,1052,1052,1052,,,,,
49031213,1053,1053,1053,1053,,,,,
49033712,1054,1054,1054,1054,,,,,
49036211,1054,1054,1054,1054,,,,,
49038710,1055,1055,1055,1055,,,,,
49041209,1056,1056,1056,1056,,,,,
49043708,1057,1057,1057,1057,,,,,
49046207,1057,1057,1057,1057,,,,,
49048706,1058,1058,1058,1058,,,,,
49051205,1059,1059,1059,1059,,,,,
49053704,1060,1060,1060,1060,,,,,
49056203,1060,1060,1060,1060,,,,,
49058702,1061,1061,1061,1061,,,,,
49061201,1062,1062,1062,1062,,,,,
49063700,1063,1063,1063,1063,,,,,
49066199,1063,1063,1063,1063,,,,,
49068698,1064,1064,1064,1064,,,,,
49071197,1065,1065,1065,1065,,,,,
49073696,1066,1066,1066,1066,,,,,
49076195,1066,1066,1066,1066,,,,,
49078694,1067,1067,1067,1067,,,,,
49081193,1068,1068,1068,1068,,,,,
49083692,1069,1069,1069,1069,,,,,
49086191,1069,1069,1069,1069,,,,,
49088690,1070,1070,1070,1070,,,,,
49091189,1071,1071,1071,1071,,,,,
49093688,1072,1072,1072,1072,,,,,
49096187,1072,1072,1072,1072,,,,,
49098686,1073,1073,1073,1073,,,,,
49101185,1074,1074,1074,1074,,,,,
49103684,1075,1075,1075,1075,,,,,
49106183,1075,1075,1075,1075,,,,,
49108682,1076,1076,1076,1076,,,,,
49111181,1077,1077,1077,1077,,,,,
49113680,1078,1078,1078,1078,,,,,
49116179,1078,1078,1078,1078,,,,,
49118678,1079,1079,1079,1079,,,,,
49121177,1080,1080,1080,1080,,,,,
49123676,1081,1081,1081,1081,,,,,
49126175,1081,1081,1081,1081,,,,,
49128674,1082,1082,1082,1082,,,,,
49131173,1083,1083,1083,1083,,,,,
49133672,1084,1084,1084,1084,,,,,
49136171,1084,1084,1084,1084,,,,,
49138670,1085,1085,1085,1085,,,,,
49141169,1086,1086,1086,1086,,,,,
49143668,1087,1087,1087,1087,,,,,
49146167,1087,1087,1087,1087,,,,,
49148666,1088,1088,1088,1088,,,,,
49151165,1089,1089,1089,1089,,,,,
49153664,1090,1090,1090,1090,,,,,
49156163,1090,1090,1090,1090,,,,,
49158662,1091,1091,1091,1091,,,,,
49161161,1092,1092,1092,1092,,,,,
49163660,1093,1093,1093,1093,,,,,
49166159,1093,1093,1093,1093,,,,,
49168658,1094,1094,1094,1094,,,,,
49171157,1095,1095,1095,1095,,,,,
49173656,1096,1096,1096,1096,,,,,
49176155,1096,1096,1096,1096,,,,,
49178654,1097,1097,1097,1097,,,,,
49181153,1098,1098,1098,1098,,,,,
49183652,1099,1099,1099,1099,,,,,
49186151,1099,1099,1099,1099,,,,,
49188650,1100,1100,1100,1100,,,,,
49191149,1101,1101,1101,1101,,,,,
49193648,1101,1101,1101,1101,,,,,
49196147,1102,1102,1102,1102,,,,,
49198646,1103,1103,1103,1103,,,,,
49201145,1104,1104,1104,1104,,,,,
49203644,1104,1104,1104,1104,,,,,
49206143,1105,1105,1105,1105,,,,,
49208642,1106,1106,1106,1106,,,,,
49211141,1107,1107,1107,1107,,,,,
49213640,1107,1107,1107,1107,,,,,
49216139,1108,1108,1108,1108,,,,,
49218638,1109,1109,1109,1109,,,,,
49221137,1110,1110,1110,1110,,,,,
49223636,1110,1110,1110,1110,,,,,
49226135,1111,1111,1111,1111,,,,,
49228634,1112,1112,1112,1112,,,,,
49231133,1113,1113,1113,1113,,,,,
49233632,1113,1113,1113,1113,,,,,
49236131,1114,1114,1114,1114,,,,,
49238630,1115,1115,1115,1115,,,,,
49241129,1116,1116,1116,1116,,,,,
49243628,1116,1116,1116,1116,,,,,
49246127,1117,1117,1117,1117,,,,,
49248626,1118,1118,1118,1118,,,,,
49251125,1119,1119,1119,1119,,,,,
49253624,1119,1119,1119,1119,,,,,
49256123,1120,1120,1120,1120,,,,,
49258622,1121,1121,1121,1121,,,,,
49261121,1122,1122,1122,1122,,,,,
49263620,1122,1122,1122,1122,,,,,
49266119,1123,1123,1123,1123,,,,,
49268618,1124,1124,1124,1124,,,,,
49271117,1125,1125,1125,1125,,,,,
49273616,1125,1125,1125,1125,,,,,
49276115,1126,1126,1126,1126,,,,,
49278614,1127,1127,1127,1127,,,,,
49281113,1128,1128,1128,1128,,,,,
49283612,1128,1128,1128,1128,,,,,
49286111,1129,1129,1129,1129,,,,,
49288610,1130,1130,1130,1130,,,,,
49291109,1131,1131,1131,1131,,,,,
49293608,1131,1131,1131,1131,,,,,
49296107,1132,1132,1132,1132,,,,,
49298606,1133,1133,1133,1133,,,,,
49301105,1134,1134,1134,1134,,,,,
49303604,1134,1134,1134,1134,,,,,
49306103,1135,1135,1135,1135,,,,,
49308602,1136,1136,1136,1136,,,,,
49311101,1137,1137,1137,1137,,,,,
49313600,1137,1137,1137,1137,,,,,
49316099,1138,1138,1138,1138,,,,,
49318598,1139,1139,1139,1139,,,,,
49321097,1140,1140,1140,1140,,,,,
49323596,1140,1140,1140,1140,,,,,
49326095,1141,1141,1141,1141,,,,,
49328594,1142,1142,1142,1142,,,,,
49331093,1143,1143,1143,1143,,,,,
49333592,1143,1143,1143,1143,,,,,
49336091,1144,1144,1144,1144,,,,,
49338590,1145,1145,1145,1145,,,,,
49341089,1146,1146,1146,1146,,,,,
49343588,1146,1146,1146,1146,,,,,
49346087,1147,1147,1147,1147,,,,,
49348586,1148,1148,1148,1148,,,,,
49351085,1149,1149,1149,1149,,,,,
49353584,1149,1149,1149,1149,,,,,
49356083,1150,1150,1150,1150,,,,,
49358582,1161,1154,1154,1162,,,,,
49361081,1169,1162,1162,1170,,,,,
49363580,1177,1170,1170,1177,,,,,
49366079,1185,1178,1178,1185,,,,,
49368578,1192,1185,1186,1193,,,,,
49371077,1200,1193,1193,1200,,,,,
49373576,1207,1200,1201,1207,,,,,
49376075,1214,1208,1208,1215,,,,,
49378574,1221,1215,1215,1222,,,,,
49381073,1228,1222,1222,1229,,,,,
49383572,1235,1229,1229,1236,,,,,
49386071,1242,1236,1236,1242,,,,,
49388570,1249,1243,1243,1249,,,,,
49391069,1255,1249,1250,1256,,,,,
49393568,1262,1256,1256,1262,,,,,
49396067,1268,1262,1263,1269,,,,,
49398566,1274,1269,1269,1275,,,,,
49401065,1281,1275,1276,1281,,,,,
49403564,1287,1281,1282,1287,,,,,
49406063,1293,1288,1288,1294,,,,,
49408562,1299,1294,1294,1300,,,,,
49411061,1305,1300,1300,1306,,,,,
49413560,1311,1306,1306,1312,,,,,
49416059,1317,1312,1312,1318,,,,,
49418558,1323,1318,1318,1323,,,,,
49421057,1329,1323,1324,1329,,,,,
49423556,1334,1329,1329,1335,,,,,
49426055,1340,1335,1335,1340,,,,,
49428554,1346,1341,1341,1346,,,,,
49431053,1351,1346,1346,1352,,,,,
49433552,1357,1352,1352,1357,,,,,
49436051,1362,1357,1357,1363,,,,,
49438550,1367,1363,1363,1368,,,,,
49441049,1373,1368,1368,1373,,,,,
49443548,1378,1373,1374,1379,,,,,
49446047,1383,1379,1379,1384,,,,,
49448546,1389,1384,1384,1389,,,,,
49451045,1394,1389,1389,1394,,,,,
49453544,1399,1394,1394,1399,,,,,
49456043,1404,1399,1400,1404,,,,,
49458542,1409,1404,1405,1410,,,,,
49461041,1414,1410,1410,1415,,,,,
49463540,1419,1415,1415,1420,,,,,
49466039,1424,1419,1420,1425,,,,,
49468538,1429,1424,1425,1429,,,,,
49471037,1434,1429,1429,1434,,,,,
49473536,1439,1434,1434,1439,,,,,
49476035,1443,1439,1439,1444,,,,,
49478534,1448,1444,1444,1449,,,,,
49481033,1453,1448,1449,1453,,,,,
49483532,1458,1453,1453,1458,,,,,
49486031,1462,1458,1458,1463,,,,,
49488530,1467,1463,1463,1468,,,,,
49491029,1472,1467,1467,1472,,,,,
49493528,1476,1472,1472,1477,,,,,
49496027,1481,1476,1476,1481,,,,,
49498526,1485,1481,1481,1486,,,,,
49501025,1490,1485,1485,1490,,,,,
49503524,1494,1490,1490,1495,,,,,
49506023,1499,1494,1494,1499,,,,,
49508522,1503,1499,1499,1504,,,,,
49511021,1508,1503,1503,1508,,,,,
49513520,1512,1508,1508,1513,,,,,
49516019,1516,1512,1512,1517,,,,,
49518518,1521,1516,1516,1521,,,,,
49521017,1525,1521,1521,1525,,,,,
49523516,1529,1525,1525,1530,,,,,
49526015,1533,1529,1529,1534,,,,,
49528514,1538,1533,1533,1538,,,,,
49531013,1542,1538,1538,1542,,,,,
49533512,1546,1542,1542,1547,,,,,
49536011,1550,1546,1546,1551,,,,,
49538510,1554,1550,1550,1555,,,,,
49541009,1559,1554,1554,1559,,,,,
49543508,1563,1558,1558,1563,,,,,
49546007,1567,1562,1563,1567,,,,,
49548506,1571,1566,1567,1571,,,,,
49551005,1575,1570,1571,1575,,,,,
49553504,1579,1575,1575,1579,,,,,
49556003,1583,1579,1579,1583,,,,,
49558502,1587,1582,1583,1587,,,,,
49561001,1591,1586,1587,1591,,,,,
49563500,1595,1590,1591,1595,,,,,
49565999,1599,1594,1595,1599,,,,,
49568498,1603,1598,1599,1603,,,,,
49570997,1607,1602,1602,1607,,,,,
49573496,1610,1606,1606,1611,,,,,
49575995,1614,1610,1610,1614,,,,,
49578494,1618,1614,1614,1618,,,,,
49580993,1622,1618,1618,1622,,,,,
49583492,1626,1621,1622,1626,,,,,
49585991,1630,1625,1626,1630,,,,,
49588490,1633,1629,1629,1633,,,,,
49590989,1637,1633,1633,1637,,,,,
49593488,1641,1636,1637,1641,,,,,
49595987,1644,1640,1641,1645,,,,,
49598486,1648,1644,1644,1648,,,,,
49600985,1652,1648,1648,1652,,,,,
49603484,1656,1651,1652,1656,,,,,
49605983,1659,1655,1655,1659,,,,,
49608482,1663,1659,1659,1663,,,,,
49610981,1666,1662,1662,1667,,,,,
49613480,1670,1666,1666,1670,,,,,
49615979,1674,1669,1670,1674,,,,,
49618478,1677,1673,1673,1678,,,,,
49620977,1681,1677,1677,1681,,,,,
49623476,1684,1680,1680,1685,,,,,
49625975,1688,1684,1684,1688,,,,,
49628474,1691,1687,1687,1692,,,,,
49630973,1695,1691,1691,1695,,,,,
49633472,1698,1694,1695,1699,,,,,
49635971,1702,1698,1698,1702,,,,,
49638470,1705,1701,1701,1706,,,,,
49640969,1709,1705,1705,1709,,,,,
49643468,1712,1708,1708,1713,,,,,
49645967,1716,1712,1712,1716,,,,,
49648466,1719,1715,1715,1720,,,,,
49650965,1723,1719,1719,1723,,,,,
49653464,1726,1722,1722,1727,,,,,
49655963,1729,1726,1725,1730,,,,,
49658462,1733,1729,1729,1733,,,,,
49660961,1736,1732,1732,1737,,,,,
49663460,1739,1736,1736,1740,,,,,
49665959,1743,1739,1739,1744,,,,,
49668458,1746,1742,1742,1747,,,,,
49670957,1749,1746,1746,1750,,,,,
49673456,1753,1749,1749,1754,,,,,
49675955,1756,1752,1752,1757,,,,,
49678454,1759,1756,1755,1760,,,,,
49680953,1763,1759,1759,1763,,,,,
49683452,1766,1762,1762,1767,,,,,
49685951,1769,1765,1765,1770,,,,,
49688450,1773,1769,1769,1773,,,,,
49690949,1776,1772,1772,1776,,,,,
49693448,1779,1775,1775,1780,,,,,
49695947,1782,1778,1778,1783,,,,,
49698446,1785,1782,1782,1786,,,,,
49700945,1789,1785,1785,1789,,,,,
49703444,1792,1788,1788,1792,,,,,
49705943,1795,1791,1791,1796,,,,,
49708442,1798,1794,1794,1799,,,,,
49710941,1801,1797,1797,1802,,,,,
49713440,1805,1801,1801,1805,,,,,
49715939,1808,1804,1804,1808,,,,,
49718438,1811,1807,1807,1811,,,,,
49720937,1814,1810,1810,1814,,,,,
49723436,1817,1813,1813,1818,,,,,
49725935,1820,1816,1816,1821,,,,,
49728434,1823,1819,1819,1824,,,,,
49730933,1827,1822,1823,1827,,,,,
49733432,1830,1825,1826,1830,,,,,
49735931,1833,1829,1829,1833,,,,,
49738430,1836,1832,1832,1836,,,,,
49740929,1839,1835,1835,1839,,,,,
49743428,1842,1838,1838,1842,,,,,
49745927,1845,1841,1841,1845,,,,,
49748426,1848,1844,1844,1848,,,,,
49750925,1851,1847,1847,1851,,,,,
49753424,1854,1850,1850,1854,,,,,
49755923,1857,1853,1853,1857,,,,,
49758422,1860,1856,1856,1860,,,,,
49760921,1863,1859,1859,1863,,,,,
49763420,1866,1862,1862,1866,,,,,
49765919,1869,1865,1865,1869,,,,,
49768418,1872,1868,1868,1872,,,,,
49770917,1875,1871,1871,1875,,,,,
49773416,1878,1874,1874,1878,,,,,
49775915,1881,1877,1877,1881,,,,,
49778414,1884,1880,1880,1884,,,,,
49780913,1886,1883,1883,1887,,,,,
49783412,1889,1886,1886,1890,,,,,
49785911,1892,1889,1889,1893,,,,,
49788410,1895,1891,1891,1896,,,,,
49790909,1898,1894,1894,1899,,,,,
49793408,1901,1897,1897,1901,,,,,
49795907,1904,1900,1900,1904,,,,,
49798406,1907,1903,1903,1907,,,,,
49800905,1909,1906,1906,1910,,,,,
49803404,1912,1909,1909,1913,,,,,
49805903,1913,1909,1909,1913,,,,,
49808402,1912,1908,1908,1912,,,,,
49810901,1911,1907,1907,1912,,,,,
49813400,1910,1907,1906,1911,,,,,
49815899,1909,1906,1906,1910,,,,,
49818398,1909,1905,1905,1909,,,,,
49820897,1908,1904,1904,1909,,,,,
49823396,1907,1904,1903,1908,,,,,
49825895,1907,1903,1903,1907,,,,,
49828394,1906,1903,1902,1907,,,,,
49830893,1905,1902,1902,1906,,,,,
49833392,1905,1902,1901,1906,,,,,
49835891,1905,1901,1901,1906,,,,,
49838390,1905,1901,1901,1906,,,,,
49840889,1904,1901,1900,1905,,,,,
49843388,1904,1901,1900,1905,,,,,
49845887,1904,1901,1900,1905,,,,,
49848386,1904,1901,1901,1905,,,,,
49850885,1904,1901,1901,1905,,,,,
49853384,1904,1901,1901,1906,,,,,
49855883,1905,1902,1901,1906,,,,,
49858382,1905,1902,1901,1905,,,,,
49860881,1904,1902,1901,1905,,,,,
49863380,1904,1902,1901,1905,,,,,
49865879,1904,1901,1901,1905,,,,,
49868378,1904,1901,1901,1904,,,,,
49870877,1903,1901,1900,1904,,,,,
49873376,1902,1900,1900,1903,,,,,
49875875,1902,1899,1899,1902,,,,,
49878374,1901,1898,1898,1901,,,,,
49880873,1899,1897,1897,1900,,,,,
49883372,1898,1896,1896,1899,,,,,
49885871,1897,1894,1894,1897,,,,,
49888370,1895,1892,1892,1895,,,,,
49890869,1893,1891,1891,1894,,,,,
49893368,1891,1889,1889,1892,,,,,
49895867,1889,1887,1887,1890,,,,,
49898366,1887,1885,1885,1887,,,,,
49900865,1885,1882,1883,1885,,,,,
49903364,1883,1880,1880,1883,,,,,
49905863,1880,1878,1878,1880,,,,,
49908362,1878,1875,1875,1878,,,,,
49910861,1875,1872,1873,1875,,,,,
49913360,1872,1870,1870,1872,,,,,
49915859,1870,1867,1868,1869,,,,,
49918358,1867,1864,1865,1867,,,,,
49920857,1864,1861,1862,1864,,,,,
49923356,1861,1858,1859,1861,,,,,
49925855,1858,1855,1856,1858,,,,,
49928354,1855,1852,1853,1855,,,,,
49930853,1852,1849,1850,1852,,,,,
49933352,1849,1846,1847,1848,,,,,
49935851,1846,1843,1844,1845,,,,,
49938350,1842,1840,1841,1842,,,,,
49940849,1839,1837,1838,1839,,,,,
49943348,1836,1834,1834,1836,,,,,
49945847,1833,1831,1831,1833,,,,,
49948346,1830,1827,1828,1829,,,,,
49950845,1826,1824,1825,1826,,,,,
49953344,1823,1821,1822,1823,,,,,
49955843,1820,1818,1818,1820,,,,,
49958342,1817,1815,1815,1816,,,,,
49960841,1813,1811,1812,1813,,,,,
49963340,1810,1808,1809,1810,,,,,
49965839,1807,1805,1805,1806,,,,,
49968338,1803,1801,1802,1803,,,,,
49970837,1800,1798,1799,1800,,,,,
49973336,1797,1795,1795,1796,,,,,
49975835,1793,1791,1792,1793,,,,,
49978334,1790,1788,1789,1790,,,,,
49980833,1786,1785,1785,1786,,,,,
49983332,1783,1782,1782,1783,,,,,
49985831,1780,1778,1779,1780,,,,,
49988330,1776,1775,1776,1776,,,,,
49990829,1773,1772,1772,1773,,,,,
49993328,1770,1769,1769,1770,,,,,
49995827,1766,1765,1766,1766,,,,,
49998326,1763,1762,1762,1763,,,,,
50000825,1760,1759,1759,1760,,,,,
50003324,1757,1756,1756,1757,,,,,
50005823,1753,1753,1753,1754,,,,,
50008322,1750,1750,1750,1750,,,,,
50010821,1747,1747,1747,1747,,,,,
50013320,1744,1744,1744,1744,,,,,
50015819,1741,1741,1741,1741,,,,,
50018318,1738,1738,1738,1738,,,,,
50020817,1735,1735,1735,1735,,,,,
50023316,1732,1732,1732,1733,,,,,
50025815,1730,1729,1729,1730,,,,,
50028314,1727,1726,1727,1727,,,,,
50030813,1724,1724,1724,1724,,,,,
50033312,1721,1721,1721,1721,,,,,
50035811,1719,1718,1719,1719,,,,,
50038310,1716,1716,1716,1716,,,,,
50040809,1713,1713,1713,1713,,,,,
50043308,1711,1710,1711,1711,,,,,
50045807,1708,1708,1708,1708,,,,,
50048306,1706,1706,1706,1706,,,,,
50050805,1703,1703,1704,1703,,,,,
50053304,1701,1701,1701,1701,,,,,
50055803,1698,1699,1699,1699,,,,,
50058302,1696,1697,1697,1696,,,,,
50060801,1694,1694,1695,1694,,,,,
