timestamp,TimeUS,C1,C2,C3,C4,C5,C6,C7,C8,C9,C10,C11,C12,C13,C14
1683029996.40000010,80428649,1000,1000,1000,1000,0,0,0,0,0,0,0,0,0,0
1683029996.49996018,80528609,1000,1000,1000,1000,0,0,0,0,0,0,0,0,0,0
1683029996.59992003,80628569,1000,1000,1000,1000,0,0,0,0,0,0,0,0,0,0
1683029996.69988012,80728529,1000,1000,1000,1000,0,0,0,0,0,0,0,0,0,0
1683029996.79984021,80828489,1000,1000,1000,1000,0,0,0,0,0,0,0,0,0,0
1683029996.89980006,80928449,1000,1000,1000,1000,0,0,0,0,0,0,0,0,0,0
1683029996.99976015,81028409,1000,1000,1000,1000,0,0,0,0,0,0,0,0,0,0
1683029997.09972024,81128369,1000,1000,1000,1000,0,0,0,0,0,0,0,0,0,0
1683029997.19968009,81228329,1000,1000,1000,1000,0,0,0,0,0,0,0,0,0,0
1683029997.29964018,81328289,1000,1000,1000,1000,0,0,0,0,0,0,0,0,0,0
1683029997.39960003,81428249,1000,1000,1000,1000,0,0,0,0,0,0,0,0,0,0
1683029997.49956012,81528209,1000,1000,1000,1000,0,0,0,0,0,0,0,0,0,0
1683029997.59952021,81628169,1000,1000,1000,1000,0,0,0,0,0,0,0,0,0,0
1683029997.70031309,81728962,1000,1000,1000,1000,0,0,0,0,0,0,0,0,0,0
1683029997.80027318,81828922,1000,1000,1000,1000,0,0,0,0,0,0,0,0,0,0
1683029997.90023303,81928882,1000,1000,1000,1000,0,0,0,0,0,0,0,0,0,0
1683029998.00019312,82028842,1000,1000,1000,1000,0,0,0,0,0,0,0,0,0,0
1683029998.10015321,82128802,1000,1000,1000,1000,0,0,0,0,0,0,0,0,0,0
1683029998.20011306,82228762,1000,1000,1000,1000,0,0,0,0,0,0,0,0,0,0
1683029998.30007315,82328722,1000,1000,1000,1000,0,0,0,0,0,0,0,0,0,0
1683029998.40003324,82428682,1027,1027,1027,1027,0,0,0,0,0,0,0,0,0,0
1683029998.49999309,82528642,1057,1057,1057,1057,0,0,0,0,0,0,0,0,0,0
1683029998.59995317,82628602,1087,1087,1087,1087,0,0,0,0,0,0,0,0,0,0
1683029998.69991326,82728562,1116,1116,1116,1116,0,0,0,0,0,0,0,0,0,0
1683029998.79987311,82828522,1146,1146,1146,1146,0,0,0,0,0,0,0,0,0,0
1683029998.89983320,82928482,1380,1371,1372,1381,0,0,0,0,0,0,0,0,0,0
1683029998.99979305,83028442,1564,1557,1557,1565,0,0,0,0,0,0,0,0,0,0
1683029999.09975314,83128402,1714,1707,1707,1714,0,0,0,0,0,0,0,0,0,0
1683029999.19971323,83228362,1843,1837,1837,1844,0,0,0,0,0,0,0,0,0,0
1683029999.29967308,83328322,1881,1873,1874,1881,0,0,0,0,0,0,0,0,0,0
1683029999.39963317,83428282,1820,1818,1818,1821,0,0,0,0,0,0,0,0,0,0
1683029999.49959326,83528242,1692,1693,1693,1693,0,0,0,0,0,0,0,0,0,0
1683029999.59955311,83628202,1626,1629,1630,1626,0,0,0,0,0,0,0,0,0,0
1683029999.69951320,83728162,1619,1622,1622,1619,0,0,0,0,0,0,0,0,0,0
1683029999.80030608,83828955,1630,1633,1633,1630,0,0,0,0,0,0,0,0,0,0
1683029999.90026617,83928915,1637,1638,1638,1637,0,0,0,0,0,0,0,0,0,0
1683030000.00022626,84028875,1633,1633,1632,1633,0,0,0,0,0,0,0,0,0,0
1683030000.10018611,84128835,1626,1624,1624,1626,0,0,0,0,0,0,0,0,0,0
1683030000.20014620,84228795,1620,1619,1619,1620,0,0,0,0,0,0,0,0,0,0
1683030000.30010605,84328755,1609,1611,1610,1610,0,0,0,0,0,0,0,0,0,0
1683030000.40006614,84428715,1592,1591,1582,1600,0,0,0,0,0,0,0,0,0,0
1683030000.50002623,84528675,1588,1586,1579,1594,0,0,0,0,0,0,0,0,0,0
1683030000.59998608,84628635,1587,1586,1582,1589,0,0,0,0,0,0,0,0,0,0
1683030000.69994617,84728595,1587,1587,1587,1586,0,0,0,0,0,0,0,0,0,0
1683030000.79990625,84828555,1590,1591,1593,1587,0,0,0,0,0,0,0,0,0,0
1683030000.89986610,84928515,1583,1583,1590,1575,0,0,0,0,0,0,0,0,0,0
1683030000.99982619,85028475,1566,1567,1585,1548,0,0,0,0,0,0,0,0,0,0
1683030001.09978604,85128435,1556,1556,1566,1547,0,0,0,0,0,0,0,0,0,0
1683030001.19974613,85228395,1546,1546,1545,1550,0,0,0,0,0,0,0,0,0,0
1683030001.29970622,85328355,1539,1538,1530,1549,0,0,0,0,0,0,0,0,0,0
1683030001.39966607,85428315,1532,1532,1521,1543,0,0,0,0,0,0,0,0,0,0
1683030001.49962616,85528275,1530,1529,1522,1538,0,0,0,0,0,0,0,0,0,0
1683030001.59958625,85628235,1530,1529,1525,1533,0,0,0,0,0,0,0,0,0,0
1683030001.69954610,85728195,1531,1531,1530,1531,0,0,0,0,0,0,0,0,0,0
1683030001.79950619,85828155,1534,1534,1537,1531,0,0,0,0,0,0,0,0,0,0
1683030001.90029907,85928948,1538,1538,1543,1533,0,0,0,0,0,0,0,0,0,0
1683030002.00025916,86028908,1542,1543,1547,1538,0,0,0,0,0,0,0,0,0,0
1683030002.10021925,86128868,1545,1545,1548,1543,0,0,0,0,0,0,0,0,0,0
1683030002.20017910,86228828,1548,1548,1548,1547,0,0,0,0,0,0,0,0,0,0
1683030002.30013919,86328788,1550,1550,1548,1552,0,0,0,0,0,0,0,0,0,0
1683030002.40009904,86428748,1551,1550,1552,1557,0,0,0,0,0,0,0,0,0,0
1683030002.50005913,86528708,1551,1550,1558,1561,0,0,0,0,0,0,0,0,0,0
1683030002.60001922,86628668,1552,1552,1559,1561,0,0,0,0,0,0,0,0,0,0
1683030002.69997907,86728628,1555,1555,1561,1562,0,0,0,0,0,0,0,0,0,0
1683030002.79993916,86828588,1560,1560,1564,1563,0,0,0,0,0,0,0,0,0,0
1683030002.89989924,86928548,1564,1565,1566,1565,0,0,0,0,0,0,0,0,0,0
1683030002.99985909,87028508,1566,1567,1566,1564,0,0,0,0,0,0,0,0,0,0
1683030003.09981918,87128468,1569,1569,1566,1566,0,0,0,0,0,0,0,0,0,0
1683030003.19977903,87228428,1570,1570,1565,1565,0,0,0,0,0,0,0,0,0,0
1683030003.29973912,87328388,1572,1572,1566,1567,0,0,0,0,0,0,0,0,0,0
1683030003.39969921,87428348,1573,1573,1567,1568,0,0,0,0,0,0,0,0,0,0
1683030003.49965906,87528308,1573,1573,1568,1569,0,0,0,0,0,0,0,0,0,0
1683030003.59961915,87628268,1573,1573,1570,1570,0,0,0,0,0,0,0,0,0,0
1683030003.69957924,87728228,1574,1574,1571,1571,0,0,0,0,0,0,0,0,0,0
1683030003.79953909,87828188,1574,1574,1573,1572,0,0,0,0,0,0,0,0,0,0
1683030003.90033221,87928981,1574,1574,1574,1573,0,0,0,0,0,0,0,0,0,0
1683030004.00029206,88028941,1574,1575,1576,1574,0,0,0,0,0,0,0,0,0,0
1683030004.10025215,88128901,1575,1574,1576,1575,0,0,0,0,0,0,0,0,0,0
1683030004.20021224,88228861,1575,1575,1576,1576,0,0,0,0,0,0,0,0,0,0
1683030004.30017209,88328821,1574,1574,1576,1576,0,0,0,0,0,0,0,0,0,0
1683030004.40013218,88428781,1575,1575,1576,1577,0,0,0,0,0,0,0,0,0,0
1683030004.50009203,88528741,1576,1575,1577,1577,0,0,0,0,0,0,0,0,0,0
1683030004.60005212,88628701,1576,1577,1578,1578,0,0,0,0,0,0,0,0,0,0
1683030004.70001221,88728661,1577,1577,1578,1577,0,0,0,0,0,0,0,0,0,0
1683030004.79997206,88828621,1578,1578,1578,1577,0,0,0,0,0,0,0,0,0,0
1683030004.89993215,88928581,1577,1577,1577,1577,0,0,0,0,0,0,0,0,0,0
1683030004.99989223,89028541,1578,1578,1577,1577,0,0,0,0,0,0,0,0,0,0
1683030005.09985209,89128501,1577,1577,1577,1577,0,0,0,0,0,0,0,0,0,0
1683030005.19981217,89228461,1578,1578,1578,1578,0,0,0,0,0,0,0,0,0,0
1683030005.29977226,89328421,1579,1578,1577,1578,0,0,0,0,0,0,0,0,0,0
1683030005.39973211,89428381,1578,1578,1577,1577,0,0,0,0,0,0,0,0,0,0
1683030005.49969220,89528341,1577,1577,1577,1577,0,0,0,0,0,0,0,0,0,0
1683030005.59965205,89628301,1578,1578,1578,1578,0,0,0,0,0,0,0,0,0,0
1683030005.69961214,89728261,1579,1578,1578,1579,0,0,0,0,0,0,0,0,0,0
1683030005.79957223,89828221,1578,1578,1578,1578,0,0,0,0,0,0,0,0,0,0
1683030005.89953208,89928181,1578,1578,1579,1578,0,0,0,0,0,0,0,0,0,0
1683030006.00032520,90028974,1578,1578,1579,1579,0,0,0,0,0,0,0,0,0,0
1683030006.10028505,90128934,1578,1578,1579,1579,0,0,0,0,0,0,0,0,0,0
1683030006.20024514,90228894,1579,1578,1579,1579,0,0,0,0,0,0,0,0,0,0
1683030006.30020523,90328854,1578,1578,1578,1578,0,0,0,0,0,0,0,0,0,0
1683030006.40016508,90428814,1579,1580,1579,1580,0,0,0,0,0,0,0,0,0,0
1683030006.50012517,90528774,1579,1579,1579,1580,0,0,0,0,0,0,0,0,0,0
1683030006.60008526,90628734,1579,1579,1579,1579,0,0,0,0,0,0,0,0,0,0
1683030006.70004511,90728694,1580,1579,1580,1580,0,0,0,0,0,0,0,0,0,0
1683030006.80000520,90828654,1580,1579,1580,1579,0,0,0,0,0,0,0,0,0,0
1683030006.89996505,90928614,1580,1580,1580,1580,0,0,0,0,0,0,0,0,0,0
1683030006.99992514,91028574,1581,1581,1581,1580,0,0,0,0,0,0,0,0,0,0
1683030007.09988523,91128534,1580,1580,1580,1580,0,0,0,0,0,0,0,0,0,0
1683030007.19984508,91228494,1580,1580,1580,1579,0,0,0,0,0,0,0,0,0,0
1683030007.29980516,91328454,1581,1581,1581,1581,0,0,0,0,0,0,0,0,0,0
1683030007.39976525,91428414,1581,1580,1581,1580,0,0,0,0,0,0,0,0,0,0
1683030007.49972510,91528374,1580,1580,1580,1580,0,0,0,0,0,0,0,0,0,0
1683030007.59968519,91628334,1580,1580,1580,1580,0,0,0,0,0,0,0,0,0,0
1683030007.69964504,91728294,1580,1580,1580,1580,0,0,0,0,0,0,0,0,0,0
1683030007.79960513,91828254,1581,1581,1581,1581,0,0,0,0,0,0,0,0,0,0
1683030007.89956522,91928214,1580,1580,1580,1580,0,0,0,0,0,0,0,0,0,0
1683030007.99952507,92028174,1581,1581,1581,1581,0,0,0,0,0,0,0,0,0,0
1683030008.10031819,92128967,1581,1581,1581,1581,0,0,0,0,0,0,0,0,0,0
1683030008.20027804,92228927,1580,1581,1581,1581,0,0,0,0,0,0,0,0,0,0
1683030008.30023813,92328887,1581,1580,1581,1581,0,0,0,0,0,0,0,0,0,0
1683030008.40019822,92428847,1581,1581,1581,1581,0,0,0,0,0,0,0,0,0,0
1683030008.50015807,92528807,1581,1580,1580,1581,0,0,0,0,0,0,0,0,0,0
1683030008.60011816,92628767,1581,1581,1581,1581,0,0,0,0,0,0,0,0,0,0
1683030008.70007825,92728727,1581,1583,1588,1575,0,0,0,0,0,0,0,0,0,0
1683030008.80003810,92828687,1581,1583,1587,1573,0,0,0,0,0,0,0,0,0,0
1683030008.89999819,92928647,1580,1583,1579,1575,0,0,0,0,0,0,0,0,0,0
1683030008.99995804,93028607,1578,1581,1569,1572,0,0,0,0,0,0,0,0,0,0
1683030009.09991813,93128567,1576,1578,1561,1568,0,0,0,0,0,0,0,0,0,0
1683030009.19987822,93228527,1577,1577,1556,1563,0,0,0,0,0,0,0,0,0,0
1683030009.29983807,93328487,1579,1578,1555,1559,0,0,0,0,0,0,0,0,0,0
1683030009.39979815,93428447,1579,1578,1555,1555,0,0,0,0,0,0,0,0,0,0
1683030009.49975824,93528407,1580,1579,1556,1554,0,0,0,0,0,0,0,0,0,0
1683030009.59971809,93628367,1578,1578,1556,1553,0,0,0,0,0,0,0,0,0,0
1683030009.69967818,93728327,1578,1578,1556,1553,0,0,0,0,0,0,0,0,0,0
1683030009.79963803,93828287,1576,1577,1555,1553,0,0,0,0,0,0,0,0,0,0
1683030009.89959812,93928247,1576,1577,1554,1554,0,0,0,0,0,0,0,0,0,0
1683030009.99955821,94028207,1576,1577,1553,1554,0,0,0,0,0,0,0,0,0,0
1683030010.09951806,94128167,1575,1577,1552,1552,0,0,0,0,0,0,0,0,0,0
1683030010.20031118,94228960,1576,1578,1550,1550,0,0,0,0,0,0,0,0,0,0
1683030010.30027103,94328920,1579,1580,1548,1548,0,0,0,0,0,0,0,0,0,0
1683030010.40023112,94428880,1581,1582,1545,1545,0,0,0,0,0,0,0,0,0,0
1683030010.50019121,94528840,1584,1584,1543,1543,0,0,0,0,0,0,0,0,0,0
1683030010.60015106,94628800,1587,1587,1540,1540,0,0,0,0,0,0,0,0,0,0
1683030010.70011115,94728760,1590,1591,1538,1538,0,0,0,0,0,0,0,0,0,0
1683030010.80007124,94828720,1592,1593,1535,1536,0,0,0,0,0,0,0,0,0,0
1683030010.90003109,94928680,1594,1594,1535,1535,0,0,0,0,0,0,0,0,0,0
1683030010.99999118,95028640,1595,1595,1536,1536,0,0,0,0,0,0,0,0,0,0
1683030011.09995103,95128600,1594,1594,1536,1539,0,0,0,0,0,0,0,0,0,0
1683030011.19991112,95228560,1592,1592,1539,1542,0,0,0,0,0,0,0,0,0,0
1683030011.29987121,95328520,1589,1587,1545,1548,0,0,0,0,0,0,0,0,0,0
1683030011.39983106,95428480,1583,1580,1553,1556,0,0,0,0,0,0,0,0,0,0
1683030011.49979115,95528440,1574,1570,1562,1565,0,0,0,0,0,0,0,0,0,0
1683030011.59975123,95628400,1563,1559,1574,1576,0,0,0,0,0,0,0,0,0,0
1683030011.69971108,95728360,1552,1548,1587,1588,0,0,0,0,0,0,0,0,0,0
1683030011.79967117,95828320,1541,1540,1599,1598,0,0,0,0,0,0,0,0,0,0
1683030011.89963126,95928280,1535,1534,1608,1608,0,0,0,0,0,0,0,0,0,0
1683030011.99959111,96028240,1530,1531,1614,1613,0,0,0,0,0,0,0,0,0,0
1683030012.09955120,96128200,1528,1531,1615,1614,0,0,0,0,0,0,0,0,0,0
1683030012.19951105,96228160,1531,1534,1613,1613,0,0,0,0,0,0,0,0,0,0
1683030012.30030417,96328953,1538,1539,1609,1608,0,0,0,0,0,0,0,0,0,0
1683030012.40026426,96428913,1545,1547,1602,1603,0,0,0,0,0,0,0,0,0,0
1683030012.50022411,96528873,1554,1555,1595,1595,0,0,0,0,0,0,0,0,0,0
1683030012.60018420,96628833,1564,1564,1588,1588,0,0,0,0,0,0,0,0,0,0
1683030012.70014405,96728793,1571,1571,1581,1580,0,0,0,0,0,0,0,0,0,0
1683030012.80010414,96828753,1578,1578,1575,1574,0,0,0,0,0,0,0,0,0,0
1683030012.90006423,96928713,1584,1583,1571,1570,0,0,0,0,0,0,0,0,0,0
1683030013.00002408,97028673,1586,1585,1567,1567,0,0,0,0,0,0,0,0,0,0
1683030013.09998417,97128633,1588,1586,1566,1566,0,0,0,0,0,0,0,0,0,0
1683030013.19994426,97228593,1588,1586,1566,1567,0,0,0,0,0,0,0,0,0,0
1683030013.29990411,97328553,1585,1584,1568,1567,0,0,0,0,0,0,0,0,0,0
1683030013.39986420,97428513,1583,1582,1570,1570,0,0,0,0,0,0,0,0,0,0
1683030013.49982405,97528473,1579,1580,1573,1573,0,0,0,0,0,0,0,0,0,0
1683030013.59978414,97628433,1577,1577,1576,1576,0,0,0,0,0,0,0,0,0,0
1683030013.69974422,97728393,1574,1575,1578,1579,0,0,0,0,0,0,0,0,0,0
1683030013.79970407,97828353,1573,1573,1581,1581,0,0,0,0,0,0,0,0,0,0
1683030013.89966416,97928313,1572,1572,1582,1582,0,0,0,0,0,0,0,0,0,0
1683030013.99962425,98028273,1572,1572,1584,1583,0,0,0,0,0,0,0,0,0,0
1683030014.09958410,98128233,1573,1573,1584,1584,0,0,0,0,0,0,0,0,0,0
1683030014.19954419,98228193,1573,1574,1583,1583,0,0,0,0,0,0,0,0,0,0
1683030014.30033708,98328986,1574,1574,1582,1582,0,0,0,0,0,0,0,0,0,0
1683030014.40029716,98428946,1575,1576,1581,1580,0,0,0,0,0,0,0,0,0,0
1683030014.50025725,98528906,1577,1577,1580,1579,0,0,0,0,0,0,0,0,0,0
1683030014.60021710,98628866,1500,1528,1499,1530,0,0,0,0,0,0,0,0,0,0
1683030014.70017719,98728826,1563,1559,1559,1561,0,0,0,0,0,0,0,0,0,0
1683030014.80013704,98828786,1623,1581,1620,1579,0,0,0,0,0,0,0,0,0,0
1683030014.90009713,98928746,1670,1613,1667,1609,0,0,0,0,0,0,0,0,0,0
1683030015.00005722,99028706,1691,1637,1685,1631,0,0,0,0,0,0,0,0,0,0
1683030015.10001707,99128666,1678,1645,1669,1632,0,0,0,0,0,0,0,0,0,0
1683030015.19997716,99228626,1644,1641,1632,1621,0,0,0,0,0,0,0,0,0,0
1683030015.29993725,99328586,1606,1627,1597,1613,0,0,0,0,0,0,0,0,0,0
1683030015.39989710,99428546,1576,1609,1578,1612,0,0,0,0,0,0,0,0,0,0
1683030015.49985719,99528506,1561,1590,1577,1613,0,0,0,0,0,0,0,0,0,0
1683030015.59981704,99628466,1555,1572,1582,1608,0,0,0,0,0,0,0,0,0,0
1683030015.69977713,99728426,1557,1562,1588,1599,0,0,0,0,0,0,0,0,0,0
1683030015.79973722,99828386,1563,1560,1591,1589,0,0,0,0,0,0,0,0,0,0
1683030015.89969707,99928346,1571,1565,1591,1582,0,0,0,0,0,0,0,0,0,0
1683030015.99965715,100028306,1578,1572,1587,1576,0,0,0,0,0,0,0,0,0,0
1683030016.09961724,100128266,1583,1580,1581,1573,0,0,0,0,0,0,0,0,0,0
1683030016.19957709,100228226,1585,1585,1574,1570,0,0,0,0,0,0,0,0,0,0
1683030016.29953718,100328186,1586,1588,1569,1569,0,0,0,0,0,0,0,0,0,0
1683030016.40033007,100428979,1584,1587,1563,1566,0,0,0,0,0,0,0,0,0,0
1683030016.50029016,100528939,1583,1585,1561,1565,0,0,0,0,0,0,0,0,0,0
1683030016.60025024,100628899,1583,1584,1561,1564,0,0,0,0,0,0,0,0,0,0
1683030016.70021009,100728859,1583,1582,1569,1557,0,0,0,0,0,0,0,0,0,0
1683030016.80017018,100828819,1580,1580,1568,1556,0,0,0,0,0,0,0,0,0,0
1683030016.90013003,100928779,1577,1579,1563,1559,0,0,0,0,0,0,0,0,0,0
1683030017.00009012,101028739,1574,1576,1558,1561,0,0,0,0,0,0,0,0,0,0
1683030017.10005021,101128699,1571,1573,1555,1562,0,0,0,0,0,0,0,0,0,0
1683030017.20001006,101228659,1569,1570,1554,1561,0,0,0,0,0,0,0,0,0,0
1683030017.29997015,101328619,1568,1568,1555,1559,0,0,0,0,0,0,0,0,0,0
1683030017.39993024,101428579,1568,1568,1556,1558,0,0,0,0,0,0,0,0,0,0
1683030017.49989009,101528539,1568,1567,1556,1555,0,0,0,0,0,0,0,0,0,0
1683030017.59985018,101628499,1568,1568,1556,1554,0,0,0,0,0,0,0,0,0,0
1683030017.69981003,101728459,1569,1569,1555,1553,0,0,0,0,0,0,0,0,0,0
1683030017.79977012,101828419,1570,1571,1554,1552,0,0,0,0,0,0,0,0,0,0
1683030017.89973021,101928379,1571,1572,1552,1551,0,0,0,0,0,0,0,0,0,0
1683030017.99969006,102028339,1573,1574,1551,1550,0,0,0,0,0,0,0,0,0,0
1683030018.09965014,102128299,1574,1575,1548,1548,0,0,0,0,0,0,0,0,0,0
1683030018.19961023,102228259,1577,1577,1545,1546,0,0,0,0,0,0,0,0,0,0
1683030018.29957008,102328219,1579,1580,1543,1544,0,0,0,0,0,0,0,0,0,0
1683030018.39953017,102428179,1582,1582,1541,1541,0,0,0,0,0,0,0,0,0,0
1683030018.50032306,102528972,1584,1584,1539,1539,0,0,0,0,0,0,0,0,0,0
1683030018.60028315,102628932,1588,1587,1538,1537,0,0,0,0,0,0,0,0,0,0
1683030018.70024323,102728892,1589,1589,1536,1536,0,0,0,0,0,0,0,0,0,0
1683030018.80020308,102828852,1591,1591,1534,1535,0,0,0,0,0,0,0,0,0,0
1683030018.90016317,102928812,1592,1591,1535,1536,0,0,0,0,0,0,0,0,0,0
1683030019.00012326,103028772,1591,1590,1536,1538,0,0,0,0,0,0,0,0,0,0
1683030019.10008311,103128732,1589,1587,1540,1542,0,0,0,0,0,0,0,0,0,0
1683030019.20004320,103228692,1585,1583,1545,1547,0,0,0,0,0,0,0,0,0,0
1683030019.30000305,103328652,1580,1578,1552,1554,0,0,0,0,0,0,0,0,0,0
1683030019.39996314,103428612,1573,1572,1559,1561,0,0,0,0,0,0,0,0,0,0
1683030019.49992323,103528572,1565,1564,1566,1568,0,0,0,0,0,0,0,0,0,0
1683030019.59988308,103628532,1558,1557,1574,1576,0,0,0,0,0,0,0,0,0,0
1683030019.69984317,103728492,1551,1550,1582,1583,0,0,0,0,0,0,0,0,0,0
1683030019.79980326,103828452,1545,1545,1589,1590,0,0,0,0,0,0,0,0,0,0
1683030019.89976311,103928412,1541,1541,1596,1595,0,0,0,0,0,0,0,0,0,0
1683030019.99972320,104028372,1539,1539,1600,1599,0,0,0,0,0,0,0,0,0,0
1683030020.09968305,104128332,1539,1539,1603,1601,0,0,0,0,0,0,0,0,0,0
1683030020.19964314,104228292,1540,1540,1602,1601,0,0,0,0,0,0,0,0,0,0
1683030020.29960322,104328252,1542,1543,1600,1599,0,0,0,0,0,0,0,0,0,0
1683030020.39956307,104428212,1548,1549,1597,1597,0,0,0,0,0,0,0,0,0,0
1683030020.49952316,104528172,1553,1553,1592,1593,0,0,0,0,0,0,0,0,0,0
1683030020.60031605,104628965,1559,1559,1587,1588,0,0,0,0,0,0,0,0,0,0
1683030020.70027614,104728925,1564,1564,1582,1583,0,0,0,0,0,0,0,0,0,0
1683030020.80023623,104828885,1570,1569,1578,1578,0,0,0,0,0,0,0,0,0,0
1683030020.90019608,104928845,1575,1574,1575,1575,0,0,0,0,0,0,0,0,0,0
1683030021.00015616,105028805,1579,1577,1572,1572,0,0,0,0,0,0,0,0,0,0
1683030021.10011625,105128765,1580,1579,1570,1570,0,0,0,0,0,0,0,0,0,0
1683030021.20007610,105228725,1582,1581,1570,1570,0,0,0,0,0,0,0,0,0,0
1683030021.30003619,105328685,1582,1581,1570,1570,0,0,0,0,0,0,0,0,0,0
1683030021.39999604,105428645,1581,1581,1571,1570,0,0,0,0,0,0,0,0,0,0
1683030021.49995613,105528605,1580,1580,1572,1572,0,0,0,0,0,0,0,0,0,0
1683030021.59991622,105628565,1578,1578,1573,1573,0,0,0,0,0,0,0,0,0,0
1683030021.69987607,105728525,1577,1578,1576,1576,0,0,0,0,0,0,0,0,0,0
1683030021.79983616,105828485,1575,1576,1577,1577,0,0,0,0,0,0,0,0,0,0
1683030021.89979625,105928445,1576,1576,1579,1579,0,0,0,0,0,0,0,0,0,0
1683030021.99975610,106028405,1574,1574,1580,1579,0,0,0,0,0,0,0,0,0,0
1683030022.09971619,106128365,1575,1575,1581,1581,0,0,0,0,0,0,0,0,0,0
1683030022.19967604,106228325,1574,1575,1581,1580,0,0,0,0,0,0,0,0,0,0
1683030022.29963613,106328285,1575,1575,1581,1581,0,0,0,0,0,0,0,0,0,0
1683030022.39959621,106428245,1576,1576,1581,1581,0,0,0,0,0,0,0,0,0,0
1683030022.49955606,106528205,1576,1576,1580,1580,0,0,0,0,0,0,0,0,0,0
1683030022.59951615,106628165,1578,1577,1580,1580,0,0,0,0,0,0,0,0,0,0
1683030022.70030904,106728958,1579,1578,1580,1580,0,0,0,0,0,0,0,0,0,0
1683030022.80026913,106828918,1579,1579,1579,1579,0,0,0,0,0,0,0,0,0,0
1683030022.90022922,106928878,1579,1579,1578,1578,0,0,0,0,0,0,0,0,0,0
1683030023.00018907,107028838,1580,1580,1578,1578,0,0,0,0,0,0,0,0,0,0
1683030023.10014915,107128798,1580,1580,1577,1577,0,0,0,0,0,0,0,0,0,0
1683030023.20010924,107228758,1580,1580,1577,1578,0,0,0,0,0,0,0,0,0,0
1683030023.30006909,107328718,1580,1580,1577,1577,0,0,0,0,0,0,0,0,0,0
1683030023.40002918,107428678,1580,1580,1578,1578,0,0,0,0,0,0,0,0,0,0
1683030023.49998903,107528638,1581,1581,1579,1579,0,0,0,0,0,0,0,0,0,0
1683030023.59994912,107628598,1581,1581,1579,1579,0,0,0,0,0,0,0,0,0,0
1683030023.69990921,107728558,1581,1581,1580,1580,0,0,0,0,0,0,0,0,0,0
1683030023.79986906,107828518,1580,1580,1580,1580,0,0,0,0,0,0,0,0,0,0
1683030023.89982915,107928478,1579,1580,1580,1580,0,0,0,0,0,0,0,0,0,0
1683030023.99978924,108028438,1580,1580,1581,1581,0,0,0,0,0,0,0,0,0,0
1683030024.09974909,108128398,1579,1579,1580,1580,0,0,0,0,0,0,0,0,0,0
1683030024.19970918,108228358,1580,1581,1582,1582,0,0,0,0,0,0,0,0,0,0
1683030024.29966927,108328318,1581,1580,1581,1581,0,0,0,0,0,0,0,0,0,0
1683030024.39962912,108428278,1580,1580,1581,1581,0,0,0,0,0,0,0,0,0,0
1683030024.49958920,108528238,1581,1581,1582,1581,0,0,0,0,0,0,0,0,0,0
1683030024.59954906,108628198,1581,1581,1581,1581,0,0,0,0,0,0,0,0,0,0
1683030024.69950914,108728158,1581,1581,1581,1581,0,0,0,0,0,0,0,0,0,0
1683030024.80030203,108828951,1581,1581,1581,1581,0,0,0,0,0,0,0,0,0,0
1683030024.90026212,108928911,1582,1582,1581,1582,0,0,0,0,0,0,0,0,0,0
1683030025.00022221,109028871,1582,1582,1581,1582,0,0,0,0,0,0,0,0,0,0
1683030025.10018206,109128831,1582,1582,1582,1582,0,0,0,0,0,0,0,0,0,0
1683030025.20014215,109228791,1582,1582,1581,1582,0,0,0,0,0,0,0,0,0,0
1683030025.30010223,109328751,1582,1582,1582,1581,0,0,0,0,0,0,0,0,0,0
1683030025.40006208,109428711,1581,1582,1586,1575,0,0,0,0,0,0,0,0,0,0
1683030025.50002217,109528671,1582,1584,1587,1574,0,0,0,0,0,0,0,0,0,0
1683030025.59998226,109628631,1580,1582,1581,1573,0,0,0,0,0,0,0,0,0,0
1683030025.69994211,109728591,1578,1581,1573,1572,0,0,0,0,0,0,0,0,0,0
1683030025.79990220,109828551,1577,1579,1564,1571,0,0,0,0,0,0,0,0,0,0
1683030025.89986205,109928511,1576,1578,1558,1566,0,0,0,0,0,0,0,0,0,0
1683030025.99982214,110028471,1577,1577,1555,1561,0,0,0,0,0,0,0,0,0,0
1683030026.09978223,110128431,1578,1577,1554,1557,0,0,0,0,0,0,0,0,0,0
1683030026.19974208,110228391,1578,1577,1554,1554,0,0,0,0,0,0,0,0,0,0
1683030026.29970217,110328351,1578,1577,1554,1552,0,0,0,0,0,0,0,0,0,0
1683030026.39966226,110428311,1578,1578,1555,1553,0,0,0,0,0,0,0,0,0,0
1683030026.49962211,110528271,1578,1577,1555,1553,0,0,0,0,0,0,0,0,0,0
1683030026.59958220,110628231,1576,1577,1554,1552,0,0,0,0,0,0,0,0,0,0
1683030026.69954205,110728191,1575,1577,1553,1553,0,0,0,0,0,0,0,0,0,0
1683030026.80033517,110828984,1575,1577,1552,1552,0,0,0,0,0,0,0,0,0,0
1683030026.90029526,110928944,1575,1577,1551,1550,0,0,0,0,0,0,0,0,0,0
1683030027.00025511,111028904,1577,1579,1550,1549,0,0,0,0,0,0,0,0,0,0
1683030027.10021520,111128864,1578,1579,1547,1547,0,0,0,0,0,0,0,0,0,0
1683030027.20017505,111228824,1581,1582,1545,1546,0,0,0,0,0,0,0,0,0,0
1683030027.30013514,111328784,1584,1585,1543,1544,0,0,0,0,0,0,0,0,0,0
1683030027.40009522,111428744,1586,1587,1541,1541,0,0,0,0,0,0,0,0,0,0
1683030027.50005507,111528704,1590,1590,1540,1540,0,0,0,0,0,0,0,0,0,0
1683030027.60001516,111628664,1591,1591,1538,1538,0,0,0,0,0,0,0,0,0,0
1683030027.69997525,111728624,1592,1592,1537,1538,0,0,0,0,0,0,0,0,0,0
1683030027.79993510,111828584,1593,1593,1538,1539,0,0,0,0,0,0,0,0,0,0
1683030027.89989519,111928544,1593,1592,1540,1542,0,0,0,0,0,0,0,0,0,0
1683030027.99985504,112028504,1591,1589,1544,1547,0,0,0,0,0,0,0,0,0,0
1683030028.09981513,112128464,1587,1584,1550,1553,0,0,0,0,0,0,0,0,0,0
1683030028.19977522,112228424,1580,1577,1558,1562,0,0,0,0,0,0,0,0,0,0
1683030028.29973507,112328384,1573,1569,1569,1572,0,0,0,0,0,0,0,0,0,0
1683030028.39969516,112428344,1562,1559,1580,1582,0,0,0,0,0,0,0,0,0,0
1683030028.49965525,112528304,1553,1550,1592,1592,0,0,0,0,0,0,0,0,0,0
1683030028.59961510,112628264,1543,1543,1601,1600,0,0,0,0,0,0,0,0,0,0
1683030028.69957519,112728224,1538,1539,1609,1607,0,0,0,0,0,0,0,0,0,0
1683030028.79953504,112828184,1535,1538,1613,1611,0,0,0,0,0,0,0,0,0,0
1683030028.90032816,112928977,1536,1538,1615,1613,0,0,0,0,0,0,0,0,0,0
1683030029.00028825,113028937,1538,1541,1612,1610,0,0,0,0,0,0,0,0,0,0
1683030029.10024810,113128897,1543,1545,1607,1607,0,0,0,0,0,0,0,0,0,0
1683030029.20020819,113228857,1550,1551,1602,1601,0,0,0,0,0,0,0,0,0,0
1683030029.30016804,113328817,1557,1557,1595,1595,0,0,0,0,0,0,0,0,0,0
1683030029.40012813,113428777,1565,1564,1589,1588,0,0,0,0,0,0,0,0,0,0
1683030029.50008821,113528737,1571,1570,1581,1581,0,0,0,0,0,0,0,0,0,0
1683030029.60004807,113628697,1577,1576,1575,1576,0,0,0,0,0,0,0,0,0,0
1683030029.70000815,113728657,1582,1580,1571,1572,0,0,0,0,0,0,0,0,0,0
1683030029.79996824,113828617,1585,1583,1567,1568,0,0,0,0,0,0,0,0,0,0
1683030029.89992809,113928577,1585,1583,1565,1566,0,0,0,0,0,0,0,0,0,0
1683030029.99988818,114028537,1586,1584,1565,1566,0,0,0,0,0,0,0,0,0,0
1683030030.09984803,114128497,1585,1584,1567,1568,0,0,0,0,0,0,0,0,0,0
1683030030.19980812,114228457,1583,1583,1569,1569,0,0,0,0,0,0,0,0,0,0
1683030030.29976821,114328417,1581,1581,1572,1572,0,0,0,0,0,0,0,0,0,0
1683030030.39972806,114428377,1578,1579,1575,1575,0,0,0,0,0,0,0,0,0,0
1683030030.49968815,114528337,1576,1577,1578,1578,0,0,0,0,0,0,0,0,0,0
1683030030.59964824,114628297,1575,1576,1581,1580,0,0,0,0,0,0,0,0,0,0
1683030030.69960809,114728257,1574,1575,1583,1582,0,0,0,0,0,0,0,0,0,0
1683030030.79956818,114828217,1573,1574,1584,1583,0,0,0,0,0,0,0,0,0,0
1683030030.89952826,114928177,1573,1574,1585,1584,0,0,0,0,0,0,0,0,0,0
1683030031.00032115,115028970,1575,1575,1586,1585,0,0,0,0,0,0,0,0,0,0
1683030031.10028124,115128930,1574,1575,1584,1584,0,0,0,0,0,0,0,0,0,0
1683030031.20024109,115228890,1575,1576,1582,1583,0,0,0,0,0,0,0,0,0,0
1683030031.30020118,115328850,1578,1578,1582,1583,0,0,0,0,0,0,0,0,0,0
1683030031.40016103,115428810,1579,1579,1581,1581,0,0,0,0,0,0,0,0,0,0
1683030031.50012112,115528770,1580,1579,1580,1580,0,0,0,0,0,0,0,0,0,0
1683030031.60008121,115628730,1580,1580,1579,1579,0,0,0,0,0,0,0,0,0,0
1683030031.70004106,115728690,1581,1581,1578,1578,0,0,0,0,0,0,0,0,0,0
1683030031.80000114,115828650,1582,1581,1578,1577,0,0,0,0,0,0,0,0,0,0
1683030031.89996123,115928610,1582,1581,1577,1577,0,0,0,0,0,0,0,0,0,0
1683030031.99992108,116028570,1582,1582,1578,1578,0,0,0,0,0,0,0,0,0,0
1683030032.09988117,116128530,1582,1582,1578,1578,0,0,0,0,0,0,0,0,0,0
1683030032.19984126,116228490,1580,1580,1578,1577,0,0,0,0,0,0,0,0,0,0
1683030032.29980111,116328450,1580,1580,1578,1578,0,0,0,0,0,0,0,0,0,0
1683030032.39976120,116428410,1580,1581,1579,1580,0,0,0,0,0,0,0,0,0,0
1683030032.49972105,116528370,1580,1580,1580,1580,0,0,0,0,0,0,0,0,0,0
1683030032.59968114,116628330,1580,1580,1581,1581,0,0,0,0,0,0,0,0,0,0
1683030032.69964123,116728290,1580,1580,1581,1581,0,0,0,0,0,0,0,0,0,0
1683030032.79960108,116828250,1579,1580,1581,1580,0,0,0,0,0,0,0,0,0,0
1683030032.89956117,116928210,1580,1580,1582,1582,0,0,0,0,0,0,0,0,0,0
1683030032.99952126,117028170,1580,1580,1582,1582,0,0,0,0,0,0,0,0,0,0
1683030033.10031414,117128963,1580,1580,1582,1582,0,0,0,0,0,0,0,0,0,0
1683030033.20027423,117228923,1581,1580,1581,1581,0,0,0,0,0,0,0,0,0,0
1683030033.30023408,117328883,1580,1580,1581,1581,0,0,0,0,0,0,0,0,0,0
1683030033.40019417,117428843,1580,1581,1586,1573,0,0,0,0,0,0,0,0,0,0
1683030033.50015426,117528803,1580,1581,1585,1572,0,0,0,0,0,0,0,0,0,0
1683030033.60011411,117628763,1578,1578,1579,1574,0,0,0,0,0,0,0,0,0,0
1683030033.70007420,117728723,1575,1574,1572,1575,0,0,0,0,0,0,0,0,0,0
1683030033.80003405,117828683,1571,1570,1567,1573,0,0,0,0,0,0,0,0,0,0
1683030033.89999413,117928643,1569,1568,1564,1571,0,0,0,0,0,0,0,0,0,0
1683030033.99995422,118028603,1567,1567,1564,1569,0,0,0,0,0,0,0,0,0,0
1683030034.09991407,118128563,1566,1567,1565,1567,0,0,0,0,0,0,0,0,0,0
1683030034.19987416,118228523,1565,1565,1565,1564,0,0,0,0,0,0,0,0,0,0
1683030034.29983425,118328483,1566,1566,1566,1564,0,0,0,0,0,0,0,0,0,0
1683030034.39979410,118428443,1565,1565,1566,1564,0,0,0,0,0,0,0,0,0,0
1683030034.49975419,118528403,1565,1565,1566,1564,0,0,0,0,0,0,0,0,0,0
1683030034.59971404,118628363,1564,1564,1565,1564,0,0,0,0,0,0,0,0,0,0
1683030034.69967413,118728323,1564,1564,1565,1564,0,0,0,0,0,0,0,0,0,0
1683030034.79963422,118828283,1563,1563,1563,1564,0,0,0,0,0,0,0,0,0,0
1683030034.89959407,118928243,1562,1562,1562,1563,0,0,0,0,0,0,0,0,0,0
1683030034.99955416,119028203,1561,1561,1562,1562,0,0,0,0,0,0,0,0,0,0
1683030035.09951425,119128163,1562,1561,1562,1562,0,0,0,0,0,0,0,0,0,0
1683030035.20030713,119228956,1560,1561,1561,1560,0,0,0,0,0,0,0,0,0,0
1683030035.30026722,119328916,1560,1560,1560,1560,0,0,0,0,0,0,0,0,0,0
1683030035.40022707,119428876,1559,1560,1560,1559,0,0,0,0,0,0,0,0,0,0
1683030035.50018716,119528836,1559,1558,1559,1558,0,0,0,0,0,0,0,0,0,0
1683030035.60014725,119628796,1558,1558,1558,1557,0,0,0,0,0,0,0,0,0,0
1683030035.70010710,119728756,1558,1558,1558,1557,0,0,0,0,0,0,0,0,0,0
1683030035.80006719,119828716,1558,1558,1559,1557,0,0,0,0,0,0,0,0,0,0
1683030035.90002704,119928676,1558,1558,1559,1557,0,0,0,0,0,0,0,0,0,0
1683030035.99998713,120028636,1558,1558,1559,1557,0,0,0,0,0,0,0,0,0,0
1683030036.09994721,120128596,1558,1558,1560,1557,0,0,0,0,0,0,0,0,0,0
1683030036.19990706,120228556,1558,1558,1559,1558,0,0,0,0,0,0,0,0,0,0
1683030036.29986715,120328516,1559,1559,1558,1562,0,0,0,0,0,0,0,0,0,0
1683030036.39982724,120428476,1560,1560,1557,1563,0,0,0,0,0,0,0,0,0,0
1683030036.49978709,120528436,1560,1560,1557,1564,0,0,0,0,0,0,0,0,0,0
1683030036.59974718,120628396,1562,1562,1559,1564,0,0,0,0,0,0,0,0,0,0
1683030036.69970703,120728356,1562,1562,1561,1563,0,0,0,0,0,0,0,0,0,0
1683030036.79966712,120828316,1562,1562,1563,1561,0,0,0,0,0,0,0,0,0,0
1683030036.89962721,120928276,1562,1562,1563,1559,0,0,0,0,0,0,0,0,0,0
1683030036.99958706,121028236,1561,1562,1563,1559,0,0,0,0,0,0,0,0,0,0
1683030037.09954715,121128196,1560,1559,1558,1561,0,0,0,0,0,0,0,0,0,0
1683030037.19950724,121228156,1556,1556,1554,1559,0,0,0,0,0,0,0,0,0,0
1683030037.30030012,121328949,1552,1552,1550,1554,0,0,0,0,0,0,0,0,0,0
1683030037.40026021,121428909,1546,1546,1546,1547,0,0,0,0,0,0,0,0,0,0
1683030037.50022006,121528869,1540,1540,1540,1540,0,0,0,0,0,0,0,0,0,0
1683030037.60018015,121628829,1533,1533,1534,1531,0,0,0,0,0,0,0,0,0,0
1683030037.70014024,121728789,1524,1524,1525,1523,0,0,0,0,0,0,0,0,0,0
1683030037.80010009,121828749,1520,1520,1521,1520,0,0,0,0,0,0,0,0,0,0
1683030037.90006018,121928709,1518,1519,1518,1519,0,0,0,0,0,0,0,0,0,0
1683030038.00002027,122028669,1518,1520,1519,1520,0,0,0,0,0,0,0,0,0,0
1683030038.09998012,122128629,1521,1521,1520,1522,0,0,0,0,0,0,0,0,0,0
1683030038.19994020,122228589,1524,1525,1524,1526,0,0,0,0,0,0,0,0,0,0
1683030038.29990005,122328549,1529,1528,1529,1530,0,0,0,0,0,0,0,0,0,0
1683030038.39986014,122428509,1534,1533,1534,1534,0,0,0,0,0,0,0,0,0,0
1683030038.49982023,122528469,1538,1537,1538,1537,0,0,0,0,0,0,0,0,0,0
1683030038.59978008,122628429,1540,1539,1540,1539,0,0,0,0,0,0,0,0,0,0
1683030038.69974017,122728389,1542,1541,1543,1541,0,0,0,0,0,0,0,0,0,0
1683030038.79970026,122828349,1543,1543,1544,1543,0,0,0,0,0,0,0,0,0,0
1683030038.89966011,122928309,1545,1544,1545,1544,0,0,0,0,0,0,0,0,0,0
1683030038.99962020,123028269,1546,1546,1546,1546,0,0,0,0,0,0,0,0,0,0
1683030039.09958005,123128229,1546,1547,1546,1547,0,0,0,0,0,0,0,0,0,0
1683030039.19954014,123228189,1547,1547,1546,1547,0,0,0,0,0,0,0,0,0,0
1683030039.30033326,123328982,1547,1546,1546,1546,0,0,0,0,0,0,0,0,0,0
1683030039.40029311,123428942,1546,1546,1546,1546,0,0,0,0,0,0,0,0,0,0
1683030039.50025320,123528902,1546,1545,1546,1545,0,0,0,0,0,0,0,0,0,0
1683030039.60021305,123628862,1546,1546,1546,1546,0,0,0,0,0,0,0,0,0,0
1683030039.70017314,123728822,1546,1546,1546,1546,0,0,0,0,0,0,0,0,0,0
1683030039.80013323,123828782,1545,1546,1545,1545,0,0,0,0,0,0,0,0,0,0
1683030039.90009308,123928742,1545,1545,1546,1545,0,0,0,0,0,0,0,0,0,0
1683030040.00005317,124028702,1545,1545,1545,1544,0,0,0,0,0,0,0,0,0,0
1683030040.10001326,124128662,1544,1544,1544,1545,0,0,0,0,0,0,0,0,0,0
1683030040.19997311,124228622,1544,1544,1544,1544,0,0,0,0,0,0,0,0,0,0
1683030040.29993320,124328582,1544,1543,1544,1544,0,0,0,0,0,0,0,0,0,0
1683030040.39989305,124428542,1544,1543,1544,1543,0,0,0,0,0,0,0,0,0,0
1683030040.49985313,124528502,1543,1543,1543,1543,0,0,0,0,0,0,0,0,0,0
1683030040.59981322,124628462,1543,1543,1543,1543,0,0,0,0,0,0,0,0,0,0
1683030040.69977307,124728422,1544,1544,1544,1544,0,0,0,0,0,0,0,0,0,0
1683030040.79973316,124828382,1544,1544,1544,1544,0,0,0,0,0,0,0,0,0,0
1683030040.89969325,124928342,1544,1544,1544,1543,0,0,0,0,0,0,0,0,0,0
1683030040.99965310,125028302,1544,1543,1543,1544,0,0,0,0,0,0,0,0,0,0
1683030041.09961319,125128262,1543,1543,1543,1544,0,0,0,0,0,0,0,0,0,0
1683030041.19957304,125228222,1544,1544,1544,1544,0,0,0,0,0,0,0,0,0,0
1683030041.29953313,125328182,1544,1544,1543,1544,0,0,0,0,0,0,0,0,0,0
1683030041.40032625,125428975,1544,1544,1545,1544,0,0,0,0,0,0,0,0,0,0
1683030041.50028610,125528935,1545,1544,1545,1544,0,0,0,0,0,0,0,0,0,0
1683030041.60024619,125628895,1545,1545,1545,1545,0,0,0,0,0,0,0,0,0,0
1683030041.70020604,125728855,1544,1543,1544,1544,0,0,0,0,0,0,0,0,0,0
1683030041.80016613,125828815,1544,1544,1544,1544,0,0,0,0,0,0,0,0,0,0
1683030041.90012622,125928775,1544,1544,1544,1545,0,0,0,0,0,0,0,0,0,0
1683030042.00008607,126028735,1545,1545,1545,1545,0,0,0,0,0,0,0,0,0,0
1683030042.10004616,126128695,1544,1544,1543,1544,0,0,0,0,0,0,0,0,0,0
1683030042.20000625,126228655,1544,1544,1544,1544,0,0,0,0,0,0,0,0,0,0
1683030042.29996610,126328615,1544,1544,1544,1544,0,0,0,0,0,0,0,0,0,0
1683030042.39992619,126428575,1544,1544,1544,1544,0,0,0,0,0,0,0,0,0,0
1683030042.49988604,126528535,1544,1544,1544,1543,0,0,0,0,0,0,0,0,0,0
1683030042.59984612,126628495,1544,1544,1544,1543,0,0,0,0,0,0,0,0,0,0
1683030042.69980621,126728455,1544,1544,1544,1544,0,0,0,0,0,0,0,0,0,0
1683030042.79976606,126828415,1543,1544,1544,1544,0,0,0,0,0,0,0,0,0,0
1683030042.89972615,126928375,1543,1543,1543,1544,0,0,0,0,0,0,0,0,0,0
1683030042.99968624,127028335,1544,1544,1544,1544,0,0,0,0,0,0,0,0,0,0
1683030043.09964609,127128295,1544,1544,1544,1544,0,0,0,0,0,0,0,0,0,0
1683030043.19960618,127228255,1544,1544,1545,1544,0,0,0,0,0,0,0,0,0,0
1683030043.29956603,127328215,1545,1545,1545,1545,0,0,0,0,0,0,0,0,0,0
1683030043.39952612,127428175,1544,1544,1544,1544,0,0,0,0,0,0,0,0,0,0
1683030043.50031924,127528968,1545,1544,1544,1544,0,0,0,0,0,0,0,0,0,0
1683030043.60027909,127628928,1545,1545,1545,1545,0,0,0,0,0,0,0,0,0,0
1683030043.70023918,127728888,1544,1544,1544,1544,0,0,0,0,0,0,0,0,0,0
1683030043.80019903,127828848,1544,1544,1544,1544,0,0,0,0,0,0,0,0,0,0
1683030043.90015912,127928808,1544,1544,1544,1544,0,0,0,0,0,0,0,0,0,0
1683030044.00011921,128028768,1544,1545,1545,1545,0,0,0,0,0,0,0,0,0,0
1683030044.10007906,128128728,1545,1545,1545,1545,0,0,0,0,0,0,0,0,0,0
1683030044.20003915,128228688,1544,1544,1544,1544,0,0,0,0,0,0,0,0,0,0
1683030044.29999924,128328648,1545,1544,1545,1545,0,0,0,0,0,0,0,0,0,0
1683030044.39995909,128428608,1544,1544,1544,1544,0,0,0,0,0,0,0,0,0,0
1683030044.49991918,128528568,1544,1544,1544,1544,0,0,0,0,0,0,0,0,0,0
1683030044.59987926,128628528,1545,1545,1545,1544,0,0,0,0,0,0,0,0,0,0
1683030044.69983912,128728488,1544,1545,1544,1545,0,0,0,0,0,0,0,0,0,0
1683030044.79979920,128828448,1544,1544,1544,1544,0,0,0,0,0,0,0,0,0,0
1683030044.89975905,128928408,1545,1545,1545,1545,0,0,0,0,0,0,0,0,0,0
1683030044.99971914,129028368,1544,1545,1544,1545,0,0,0,0,0,0,0,0,0,0
1683030045.09967923,129128328,1545,1545,1545,1546,0,0,0,0,0,0,0,0,0,0
1683030045.19963908,129228288,1544,1544,1544,1544,0,0,0,0,0,0,0,0,0,0
1683030045.29959917,129328248,1545,1545,1545,1545,0,0,0,0,0,0,0,0,0,0
1683030045.39955926,129428208,1545,1545,1545,1545,0,0,0,0,0,0,0,0,0,0
1683030045.49951911,129528168,1544,1543,1544,1544,0,0,0,0,0,0,0,0,0,0
1683030045.60031223,129628961,1544,1544,1544,1544,0,0,0,0,0,0,0,0,0,0
1683030045.70027208,129728921,1543,1544,1544,1543,0,0,0,0,0,0,0,0,0,0
1683030045.80023217,129828881,1544,1544,1544,1544,0,0,0,0,0,0,0,0,0,0
1683030045.90019226,129928841,1545,1544,1544,1545,0,0,0,0,0,0,0,0,0,0
1683030046.00015211,130028801,1544,1544,1545,1544,0,0,0,0,0,0,0,0,0,0
1683030046.10011220,130128761,1544,1544,1544,1544,0,0,0,0,0,0,0,0,0,0
1683030046.20007205,130228721,1543,1544,1544,1543,0,0,0,0,0,0,0,0,0,0
1683030046.30003214,130328681,1544,1543,1543,1544,0,0,0,0,0,0,0,0,0,0
1683030046.39999223,130428641,1544,1545,1544,1544,0,0,0,0,0,0,0,0,0,0
1683030046.49995208,130528601,1544,1544,1544,1544,0,0,0,0,0,0,0,0,0,0
1683030046.59991217,130628561,1545,1545,1545,1545,0,0,0,0,0,0,0,0,0,0
1683030046.69987226,130728521,1544,1544,1544,1544,0,0,0,0,0,0,0,0,0,0
1683030046.79983211,130828481,1544,1544,1544,1544,0,0,0,0,0,0,0,0,0,0
1683030046.89979219,130928441,1544,1544,1545,1544,0,0,0,0,0,0,0,0,0,0
1683030046.99975204,131028401,1544,1544,1544,1544,0,0,0,0,0,0,0,0,0,0
1683030047.09971213,131128361,1545,1544,1544,1545,0,0,0,0,0,0,0,0,0,0
1683030047.19967222,131228321,1544,1544,1545,1544,0,0,0,0,0,0,0,0,0,0
1683030047.29963207,131328281,1545,1545,1545,1545,0,0,0,0,0,0,0,0,0,0
1683030047.39959216,131428241,1544,1544,1544,1544,0,0,0,0,0,0,0,0,0,0
1683030047.49955225,131528201,1544,1544,1544,1545,0,0,0,0,0,0,0,0,0,0
1683030047.59951210,131628161,1411,1375,1411,1375,0,0,0,0,0,0,0,0,0,0
1683030047.70030522,131728954,1326,1256,1326,1256,0,0,0,0,0,0,0,0,0,0
1683030047.80026507,131828914,1299,1216,1299,1215,0,0,0,0,0,0,0,0,0,0
1683030047.90022516,131928874,1285,1193,1285,1195,0,0,0,0,0,0,0,0,0,0
1683030048.00018525,132028834,1258,1150,1258,1151,0,0,0,0,0,0,0,0,0,0
1683030048.10014510,132128794,1196,1150,1196,1151,0,0,0,0,0,0,0,0,0,0
1683030048.20010519,132228754,1147,1150,1147,1150,0,0,0,0,0,0,0,0,0,0
1683030048.30006504,132328714,1147,1150,1147,1150,0,0,0,0,0,0,0,0,0,0
1683030048.40002513,132428674,1147,1150,1147,1150,0,0,0,0,0,0,0,0,0,0
1683030048.49998522,132528634,1147,1150,1131,1172,0,0,0,0,0,0,0,0,0,0
1683030048.59994507,132628594,1147,1150,1136,1165,0,0,0,0,0,0,0,0,0,0
1683030048.69990516,132728554,1147,1150,1138,1162,0,0,0,0,0,0,0,0,0,0
1683030048.79986525,132828514,1147,1150,1139,1162,0,0,0,0,0,0,0,0,0,0
1683030048.89982510,132928474,1147,1150,1138,1163,0,0,0,0,0,0,0,0,0,0
1683030048.99978518,133028434,1147,1150,1137,1164,0,0,0,0,0,0,0,0,0,0
1683030049.09974504,133128394,1147,1150,1137,1165,0,0,0,0,0,0,0,0,0,0
1683030049.19970512,133228354,1147,1150,1136,1165,0,0,0,0,0,0,0,0,0,0
1683030049.29966521,133328314,1147,1150,1143,1155,0,0,0,0,0,0,0,0,0,0
1683030049.39962506,133428274,1147,1150,1143,1156,0,0,0,0,0,0,0,0,0,0
1683030049.49958515,133528234,1147,1150,1142,1157,0,0,0,0,0,0,0,0,0,0
1683030049.59954524,133628194,1147,1150,1142,1157,0,0,0,0,0,0,0,0,0,0
1683030049.69950509,133728154,1109,1150,1105,1156,0,0,0,0,0,0,0,0,0,0
1683030049.80029821,133828947,1000,1000,1000,1000,0,0,0,0,0,0,0,0,0,0
1683030049.90025806,133928907,1000,1000,1000,1000,0,0,0,0,0,0,0,0,0,0
1683030050.00021815,134028867,1000,1000,1000,1000,0,0,0,0,0,0,0,0,0,0
1683030050.10017824,134128827,1000,1000,1000,1000,0,0,0,0,0,0,0,0,0,0
1683030050.20013809,134228787,1000,1000,1000,1000,0,0,0,0,0,0,0,0,0,0
1683030050.30009818,134328747,1000,1000,1000,1000,0,0,0,0,0,0,0,0,0,0
1683030050.40005803,134428707,1000,1000,1000,1000,0,0,0,0,0,0,0,0,0,0
1683030050.50001812,134528667,1000,1000,1000,1000,0,0,0,0,0,0,0,0,0,0
1683030050.59997821,134628627,1000,1000,1000,1000,0,0,0,0,0,0,0,0,0,0
1683030050.69993806,134728587,1000,1000,1000,1000,0,0,0,0,0,0,0,0,0,0
1683030050.79989815,134828547,1000,1000,1000,1000,0,0,0,0,0,0,0,0,0,0
1683030050.89985824,134928507,1000,1000,1000,1000,0,0,0,0,0,0,0,0,0,0
1683030050.99981809,135028467,1000,1000,1000,1000,0,0,0,0,0,0,0,0,0,0
1683030051.09977818,135128427,1000,1000,1000,1000,0,0,0,0,0,0,0,0,0,0
1683030051.19973826,135228387,1000,1000,1000,1000,0,0,0,0,0,0,0,0,0,0
1683030051.29969811,135328347,1000,1000,1000,1000,0,0,0,0,0,0,0,0,0,0
1683030051.39965820,135428307,1000,1000,1000,1000,0,0,0,0,0,0,0,0,0,0
1683030051.49961805,135528267,1000,1000,1000,1000,0,0,0,0,0,0,0,0,0,0
1683030051.59957814,135628227,1000,1000,1000,1000,0,0,0,0,0,0,0,0,0,0
1683030051.69953823,135728187,1000,1000,1000,1000,0,0,0,0,0,0,0,0,0,0
1683030051.80033112,135828980,1000,1000,1000,1000,0,0,0,0,0,0,0,0,0,0
1683030051.90029120,135928940,1000,1000,1000,1000,0,0,0,0,0,0,0,0,0,0
1683030052.00025105,136028900,1000,1000,1000,1000,0,0,0,0,0,0,0,0,0,0
1683030052.10021114,136128860,1000,1000,1000,1000,0,0,0,0,0,0,0,0,0,0
1683030052.20017123,136228820,1000,1000,1000,1000,0,0,0,0,0,0,0,0,0,0
1683030052.30013108,136328780,1000,1000,1000,1000,0,0,0,0,0,0,0,0,0,0
1683030052.40009117,136428740,1000,1000,1000,1000,0,0,0,0,0,0,0,0,0,0
1683030052.50005126,136528700,1000,1000,1000,1000,0,0,0,0,0,0,0,0,0,0
1683030052.60001111,136628660,1000,1000,1000,1000,0,0,0,0,0,0,0,0,0,0
1683030052.69997120,136728620,1000,1000,1000,1000,0,0,0,0,0,0,0,0,0,0
1683030052.79993105,136828580,1000,1000,1000,1000,0,0,0,0,0,0,0,0,0,0
1683030052.89989114,136928540,1000,1000,1000,1000,0,0,0,0,0,0,0,0,0,0
1683030052.99985123,137028500,1000,1000,1000,1000,0,0,0,0,0,0,0,0,0,0
1683030053.09981108,137128460,1000,1000,1000,1000,0,0,0,0,0,0,0,0,0,0
1683030053.19977117,137228420,1000,1000,1000,1000,0,0,0,0,0,0,0,0,0,0
1683030053.29973125,137328380,1000,1000,1000,1000,0,0,0,0,0,0,0,0,0,0
1683030053.39969110,137428340,1000,1000,1000,1000,0,0,0,0,0,0,0,0,0,0
1683030053.49965119,137528300,1000,1000,1000,1000,0,0,0,0,0,0,0,0,0,0
1683030053.59961104,137628260,1000,1000,1000,1000,0,0,0,0,0,0,0,0,0,0
1683030053.69957113,137728220,1000,1000,1000,1000,0,0,0,0,0,0,0,0,0,0
1683030053.79953122,137828180,1000,1000,1000,1000,0,0,0,0,0,0,0,0,0,0
1683030053.90032411,137928973,1000,1000,1000,1000,0,0,0,0,0,0,0,0,0,0
1683030054.00028419,138028933,1000,1000,1000,1000,0,0,0,0,0,0,0,0,0,0
1683030054.10024405,138128893,1000,1000,1000,1000,0,0,0,0,0,0,0,0,0,0
1683030054.20020413,138228853,1000,1000,1000,1000,0,0,0,0,0,0,0,0,0,0
1683030054.30016422,138328813,1000,1000,1000,1000,0,0,0,0,0,0,0,0,0,0
1683030054.40012407,138428773,1000,1000,1000,1000,0,0,0,0,0,0,0,0,0,0
1683030054.50008416,138528733,1000,1000,1000,1000,0,0,0,0,0,0,0,0,0,0
1683030054.60004425,138628693,1000,1000,1000,1000,0,0,0,0,0,0,0,0,0,0
1683030054.70000410,138728653,1000,1000,1000,1000,0,0,0,0,0,0,0,0,0,0
1683030054.79996419,138828613,1000,1000,1000,1000,0,0,0,0,0,0,0,0,0,0
1683030054.89992404,138928573,1000,1000,1000,1000,0,0,0,0,0,0,0,0,0,0
1683030054.99988413,139028533,1000,1000,1000,1000,0,0,0,0,0,0,0,0,0,0
1683030055.09984422,139128493,1000,1000,1000,1000,0,0,0,0,0,0,0,0,0,0
1683030055.19980407,139228453,1000,1000,1000,1000,0,0,0,0,0,0,0,0,0,0
1683030055.29976416,139328413,1000,1000,1000,1000,0,0,0,0,0,0,0,0,0,0
1683030055.39972425,139428373,1000,1000,1000,1000,0,0,0,0,0,0,0,0,0,0
1683030055.49968410,139528333,1000,1000,1000,1000,0,0,0,0,0,0,0,0,0,0
1683030055.59964418,139628293,1000,1000,1000,1000,0,0,0,0,0,0,0,0,0,0
1683030055.69960403,139728253,1000,1000,1000,1000,0,0,0,0,0,0,0,0,0,0
1683030055.79956412,139828213,1000,1000,1000,1000,0,0,0,0,0,0,0,0,0,0
1683030055.89952421,139928173,1000,1000,1000,1000,0,0,0,0,0,0,0,0,0,0
1683030056.00031710,140028966,1000,1000,1000,1000,0,0,0,0,0,0,0,0,0,0
1683030056.10027719,140128926,1000,1000,1000,1000,0,0,0,0,0,0,0,0,0,0
1683030056.20023704,140228886,1000,1000,1000,1000,0,0,0,0,0,0,0,0,0,0
1683030056.30019712,140328846,1000,1000,1000,1000,0,0,0,0,0,0,0,0,0,0
1683030056.40015721,140428806,1000,1000,1000,1000,0,0,0,0,0,0,0,0,0,0
1683030056.50011706,140528766,1000,1000,1000,1000,0,0,0,0,0,0,0,0,0,0
1683030056.60007715,140628726,1000,1000,1000,1000,0,0,0,0,0,0,0,0,0,0
1683030056.70003724,140728686,1000,1000,1000,1000,0,0,0,0,0,0,0,0,0,0
1683030056.79999709,140828646,1000,1000,1000,1000,0,0,0,0,0,0,0,0,0,0
1683030056.89995718,140928606,1000,1000,1000,1000,0,0,0,0,0,0,0,0,0,0
1683030056.99991703,141028566,1000,1000,1000,1000,0,0,0,0,0,0,0,0,0,0
1683030057.09987712,141128526,1000,1000,1000,1000,0,0,0,0,0,0,0,0,0,0
1683030057.19983721,141228486,1000,1000,1000,1000,0,0,0,0,0,0,0,0,0,0
1683030057.29979706,141328446,1000,1000,1000,1000,0,0,0,0,0,0,0,0,0,0
1683030057.39975715,141428406,1000,1000,1000,1000,0,0,0,0,0,0,0,0,0,0
1683030057.49971724,141528366,1000,1000,1000,1000,0,0,0,0,0,0,0,0,0,0
1683030057.59967709,141628326,1000,1000,1000,1000,0,0,0,0,0,0,0,0,0,0
1683030057.69963717,141728286,1000,1000,1000,1000,0,0,0,0,0,0,0,0,0,0
1683030057.79959726,141828246,1000,1000,1000,1000,0,0,0,0,0,0,0,0,0,0
1683030057.89955711,141928206,1000,1000,1000,1000,0,0,0,0,0,0,0,0,0,0
1683030057.99951720,142028166,1000,1000,1000,1000,0,0,0,0,0,0,0,0,0,0
1683030058.10031009,142128959,1000,1000,1000,1000,0,0,0,0,0,0,0,0,0,0
1683030058.20027018,142228919,1000,1000,1000,1000,0,0,0,0,0,0,0,0,0,0
1683030058.30023026,142328879,1000,1000,1000,1000,0,0,0,0,0,0,0,0,0,0
1683030058.40019011,142428839,1000,1000,1000,1000,0,0,0,0,0,0,0,0,0,0
1683030058.50015020,142528799,1000,1000,1000,1000,0,0,0,0,0,0,0,0,0,0
1683030058.60011005,142628759,1000,1000,1000,1000,0,0,0,0,0,0,0,0,0,0
1683030058.70007014,142728719,1000,1000,1000,1000,0,0,0,0,0,0,0,0,0,0
1683030058.80003023,142828679,1000,1000,1000,1000,0,0,0,0,0,0,0,0,0,0
1683030058.89999008,142928639,1000,1000,1000,1000,0,0,0,0,0,0,0,0,0,0
1683030058.99995017,143028599,1000,1000,1000,1000,0,0,0,0,0,0,0,0,0,0
1683030059.09991026,143128559,1000,1000,1000,1000,0,0,0,0,0,0,0,0,0,0
1683030059.19987011,143228519,1000,1000,1000,1000,0,0,0,0,0,0,0,0,0,0
1683030059.29983020,143328479,1000,1000,1000,1000,0,0,0,0,0,0,0,0,0,0
1683030059.39979005,143428439,1000,1000,1000,1000,0,0,0,0,0,0,0,0,0,0
1683030059.49975014,143528399,1000,1000,1000,1000,0,0,0,0,0,0,0,0,0,0
1683030059.59971023,143628359,1000,1000,1000,1000,0,0,0,0,0,0,0,0,0,0
1683030059.69967008,143728319,1000,1000,1000,1000,0,0,0,0,0,0,0,0,0,0
1683030059.79963017,143828279,1000,1000,1000,1000,0,0,0,0,0,0,0,0,0,0
1683030059.89959025,143928239,1000,1000,1000,1000,0,0,0,0,0,0,0,0,0,0
1683030059.99955010,144028199,1000,1000,1000,1000,0,0,0,0,0,0,0,0,0,0
1683030060.09951019,144128159,1000,1000,1000,1000,0,0,0,0,0,0,0,0,0,0
1683030060.20030308,144228952,1000,1000,1000,1000,0,0,0,0,0,0,0,0,0,0
1683030060.30026317,144328912,1000,1000,1000,1000,0,0,0,0,0,0,0,0,0,0
1683030060.40022326,144428872,1000,1000,1000,1000,0,0,0,0,0,0,0,0,0,0
1683030060.50018311,144528832,1000,1000,1000,1000,0,0,0,0,0,0,0,0,0,0
1683030060.60014319,144628792,1000,1000,1000,1000,0,0,0,0,0,0,0,0,0,0
1683030060.70010304,144728752,1000,1000,1000,1000,0,0,0,0,0,0,0,0,0,0
1683030060.80006313,144828712,1000,1000,1000,1000,0,0,0,0,0,0,0,0,0,0
1683030060.90002322,144928672,1000,1000,1000,1000,0,0,0,0,0,0,0,0,0,0
1683030060.99998307,145028632,1000,1000,1000,1000,0,0,0,0,0,0,0,0,0,0
1683030061.09994316,145128592,1000,1000,1000,1000,0,0,0,0,0,0,0,0,0,0
1683030061.19990325,145228552,1000,1000,1000,1000,0,0,0,0,0,0,0,0,0,0
1683030061.29986310,145328512,1000,1000,1000,1000,0,0,0,0,0,0,0,0,0,0
1683030061.39982319,145428472,1000,1000,1000,1000,0,0,0,0,0,0,0,0,0,0
1683030061.49978304,145528432,1000,1000,1000,1000,0,0,0,0,0,0,0,0,0,0
1683030061.59974313,145628392,1000,1000,1000,1000,0,0,0,0,0,0,0,0,0,0
1683030061.69970322,145728352,1000,1000,1000,1000,0,0,0,0,0,0,0,0,0,0
1683030061.79966307,145828312,1000,1000,1000,1000,0,0,0,0,0,0,0,0,0,0
1683030061.89962316,145928272,1000,1000,1000,1000,0,0,0,0,0,0,0,0,0,0
1683030061.99958324,146028232,1000,1000,1000,1000,0,0,0,0,0,0,0,0,0,0
1683030062.09954309,146128192,1000,1000,1000,1000,0,0,0,0,0,0,0,0,0,0
1683030062.20033622,146228985,1000,1000,1000,1000,0,0,0,0,0,0,0,0,0,0
1683030062.30029607,146328945,1000,1000,1000,1000,0,0,0,0,0,0,0,0,0,0
1683030062.40025616,146428905,1000,1000,1000,1000,0,0,0,0,0,0,0,0,0,0
1683030062.50021625,146528865,1000,1000,1000,1000,0,0,0,0,0,0,0,0,0,0
1683030062.60017610,146628825,1000,1000,1000,1000,0,0,0,0,0,0,0,0,0,0
1683030062.70013618,146728785,1000,1000,1000,1000,0,0,0,0,0,0,0,0,0,0
1683030062.80009604,146828745,1000,1000,1000,1000,0,0,0,0,0,0,0,0,0,0
1683030062.90005612,146928705,1000,1000,1000,1000,0,0,0,0,0,0,0,0,0,0
1683030063.00001621,147028665,1000,1000,1000,1000,0,0,0,0,0,0,0,0,0,0
1683030063.09997606,147128625,1000,1000,1000,1000,0,0,0,0,0,0,0,0,0,0
1683030063.19993615,147228585,1000,1000,1000,1000,0,0,0,0,0,0,0,0,0,0
1683030063.29989624,147328545,1000,1000,1000,1000,0,0,0,0,0,0,0,0,0,0
1683030063.39985609,147428505,1000,1000,1000,1000,0,0,0,0,0,0,0,0,0,0
1683030063.49981618,147528465,1000,1000,1000,1000,0,0,0,0,0,0,0,0,0,0
1683030063.59977603,147628425,1000,1000,1000,1000,0,0,0,0,0,0,0,0,0,0
1683030063.69973612,147728385,1000,1000,1000,1000,0,0,0,0,0,0,0,0,0,0
1683030063.79969621,147828345,1000,1000,1000,1000,0,0,0,0,0,0,0,0,0,0
1683030063.89965606,147928305,1000,1000,1000,1000,0,0,0,0,0,0,0,0,0,0
1683030063.99961615,148028265,1000,1000,1000,1000,0,0,0,0,0,0,0,0,0,0
1683030064.09957623,148128225,1000,1000,1000,1000,0,0,0,0,0,0,0,0,0,0
1683030064.19953609,148228185,1000,1000,1000,1000,0,0,0,0,0,0,0,0,0,0
1683030064.30032921,148328978,1000,1000,1000,1000,0,0,0,0,0,0,0,0,0,0
1683030064.40028906,148428938,1000,1000,1000,1000,0,0,0,0,0,0,0,0,0,0
1683030064.50024915,148528898,1000,1000,1000,1000,0,0,0,0,0,0,0,0,0,0
1683030064.60020924,148628858,1000,1000,1000,1000,0,0,0,0,0,0,0,0,0,0
1683030064.70016909,148728818,1000,1000,1000,1000,0,0,0,0,0,0,0,0,0,0
