timestamp,TimeUS,C1,C2,C3,C4,C5,C6,C7,C8,C9,C10,C11,C12,C13,C14
1682255124.79999995,44028215,1000,1000,1000,1000,0,0,0,0,0,0,0,0,0,0
1682255124.89996004,44128175,1000,1000,1000,1000,0,0,0,0,0,0,0,0,0,0
1682255125.00075293,44228968,1000,1000,1000,1000,0,0,0,0,0,0,0,0,0,0
1682255125.10071301,44328928,1000,1000,1000,1000,0,0,0,0,0,0,0,0,0,0
1682255125.20067310,44428888,1000,1000,1000,1000,0,0,0,0,0,0,0,0,0,0
1682255125.30063295,44528848,1000,1000,1000,1000,0,0,0,0,0,0,0,0,0,0
1682255125.40059304,44628808,1000,1000,1000,1000,0,0,0,0,0,0,0,0,0,0
1682255125.50055313,44728768,1000,1000,1000,1000,0,0,0,0,0,0,0,0,0,0
1682255125.60051298,44828728,1000,1000,1000,1000,0,0,0,0,0,0,0,0,0,0
1682255125.70047307,44928688,1000,1000,1000,1000,0,0,0,0,0,0,0,0,0,0
1682255125.80043292,45028648,1000,1000,1000,1000,0,0,0,0,0,0,0,0,0,0
1682255125.90039301,45128608,1000,1000,1000,1000,0,0,0,0,0,0,0,0,0,0
1682255126.00035310,45228568,1000,1000,1000,1000,0,0,0,0,0,0,0,0,0,0
1682255126.10031295,45328528,1000,1000,1000,1000,0,0,0,0,0,0,0,0,0,0
1682255126.20027304,45428488,1000,1000,1000,1000,0,0,0,0,0,0,0,0,0,0
1682255126.30023313,45528448,1000,1000,1000,1000,0,0,0,0,0,0,0,0,0,0
1682255126.40019298,45628408,1000,1000,1000,1000,0,0,0,0,0,0,0,0,0,0
1682255126.50015306,45728368,1000,1000,1000,1000,0,0,0,0,0,0,0,0,0,0
1682255126.60011292,45828328,1000,1000,1000,1000,0,0,0,0,0,0,0,0,0,0
1682255126.70007300,45928288,1000,1000,1000,1000,0,0,0,0,0,0,0,0,0,0
1682255126.80003309,46028248,1003,1003,1003,1003,0,0,0,0,0,0,0,0,0,0
1682255126.89999294,46128208,1033,1033,1033,1033,0,0,0,0,0,0,0,0,0,0
1682255126.99995303,46228168,1063,1063,1063,1063,0,0,0,0,0,0,0,0,0,0
1682255127.10074592,46328961,1093,1093,1093,1093,0,0,0,0,0,0,0,0,0,0
1682255127.20070601,46428921,1122,1122,1122,1122,0,0,0,0,0,0,0,0,0,0
1682255127.30066609,46528881,1177,1170,1170,1177,0,0,0,0,0,0,0,0,0,0
1682255127.40062594,46628841,1419,1415,1415,1419,0,0,0,0,0,0,0,0,0,0
1682255127.50058603,46728801,1595,1591,1591,1595,0,0,0,0,0,0,0,0,0,0
1682255127.60054612,46828761,1739,1736,1736,1740,0,0,0,0,0,0,0,0,0,0
1682255127.70050597,46928721,1866,1862,1863,1866,0,0,0,0,0,0,0,0,0,0
1682255127.80046606,47028681,1938,1936,1936,1938,0,0,0,0,0,0,0,0,0,0
1682255127.90042591,47128641,1827,1826,1826,1827,0,0,0,0,0,0,0,0,0,0
1682255128.00038600,47228601,1706,1707,1707,1706,0,0,0,0,0,0,0,0,0,0
1682255128.10034609,47328561,1651,1652,1652,1651,0,0,0,0,0,0,0,0,0,0
1682255128.20030594,47428521,1643,1644,1645,1643,0,0,0,0,0,0,0,0,0,0
1682255128.30026603,47528481,1647,1648,1648,1647,0,0,0,0,0,0,0,0,0,0
1682255128.40022612,47628441,1646,1647,1646,1647,0,0,0,0,0,0,0,0,0,0
1682255128.50018597,47728401,1637,1636,1636,1637,0,0,0,0,0,0,0,0,0,0
1682255128.60014606,47828361,1627,1626,1626,1627,0,0,0,0,0,0,0,0,0,0
1682255128.70010591,47928321,1619,1618,1618,1619,0,0,0,0,0,0,0,0,0,0
1682255128.80006599,48028281,1615,1615,1614,1615,0,0,0,0,0,0,0,0,0,0
1682255128.90002608,48128241,1614,1614,1614,1613,0,0,0,0,0,0,0,0,0,0
1682255128.99998593,48228201,1612,1614,1613,1613,0,0,0,0,0,0,0,0,0,0
1682255129.09994602,48328161,1582,1582,1582,1582,0,0,0,0,0,0,0,0,0,0
1682255129.20073891,48428954,1569,1569,1569,1570,0,0,0,0,0,0,0,0,0,0
1682255129.30069900,48528914,1559,1560,1559,1560,0,0,0,0,0,0,0,0,0,0
1682255129.40065908,48628874,1550,1550,1549,1551,0,0,0,0,0,0,0,0,0,0
1682255129.50061893,48728834,1542,1542,1541,1543,0,0,0,0,0,0,0,0,0,0
1682255129.60057902,48828794,1534,1534,1534,1535,0,0,0,0,0,0,0,0,0,0
1682255129.70053911,48928754,1528,1528,1527,1528,0,0,0,0,0,0,0,0,0,0
1682255129.80049896,49028714,1518,1518,1518,1519,0,0,0,0,0,0,0,0,0,0
1682255129.90045905,49128674,1512,1512,1511,1513,0,0,0,0,0,0,0,0,0,0
1682255130.00041914,49228634,1509,1509,1509,1510,0,0,0,0,0,0,0,0,0,0
1682255130.10037899,49328594,1510,1510,1510,1510,0,0,0,0,0,0,0,0,0,0
1682255130.20033908,49428554,1509,1509,1509,1509,0,0,0,0,0,0,0,0,0,0
1682255130.30029893,49528514,1510,1510,1510,1510,0,0,0,0,0,0,0,0,0,0
1682255130.40025902,49628474,1510,1510,1510,1510,0,0,0,0,0,0,0,0,0,0
1682255130.50021911,49728434,1511,1511,1511,1511,0,0,0,0,0,0,0,0,0,0
1682255130.60017896,49828394,1512,1511,1511,1512,0,0,0,0,0,0,0,0,0,0
1682255130.70013905,49928354,1524,1523,1525,1523,0,0,0,0,0,0,0,0,0,0
1682255130.80009913,50028314,1540,1540,1546,1534,0,0,0,0,0,0,0,0,0,0
1682255130.90005898,50128274,1548,1548,1551,1545,0,0,0,0,0,0,0,0,0,0
1682255131.00001907,50228234,1554,1555,1553,1555,0,0,0,0,0,0,0,0,0,0
1682255131.09997892,50328194,1559,1559,1555,1563,0,0,0,0,0,0,0,0,0,0
1682255131.19993901,50428154,1561,1561,1557,1566,0,0,0,0,0,0,0,0,0,0
1682255131.30073214,50528947,1563,1562,1558,1567,0,0,0,0,0,0,0,0,0,0
1682255131.40069199,50628907,1565,1565,1564,1566,0,0,0,0,0,0,0,0,0,0
1682255131.50065207,50728867,1566,1566,1567,1565,0,0,0,0,0,0,0,0,0,0
1682255131.60061193,50828827,1568,1568,1571,1565,0,0,0,0,0,0,0,0,0,0
1682255131.70057201,50928787,1570,1570,1573,1567,0,0,0,0,0,0,0,0,0,0
1682255131.80053210,51028747,1570,1571,1572,1568,0,0,0,0,0,0,0,0,0,0
1682255131.90049195,51128707,1570,1570,1570,1569,0,0,0,0,0,0,0,0,0,0
1682255132.00045204,51228667,1569,1569,1568,1570,0,0,0,0,0,0,0,0,0,0
1682255132.10041213,51328627,1562,1561,1571,1576,0,0,0,0,0,0,0,0,0,0
1682255132.20037198,51428587,1561,1562,1572,1575,0,0,0,0,0,0,0,0,0,0
1682255132.30033207,51528547,1564,1565,1572,1574,0,0,0,0,0,0,0,0,0,0
1682255132.40029192,51628507,1566,1567,1570,1570,0,0,0,0,0,0,0,0,0,0
1682255132.50025201,51728467,1569,1569,1569,1569,0,0,0,0,0,0,0,0,0,0
1682255132.60021210,51828427,1570,1570,1567,1566,0,0,0,0,0,0,0,0,0,0
1682255132.70017195,51928387,1572,1572,1566,1565,0,0,0,0,0,0,0,0,0,0
1682255132.80013204,52028347,1572,1572,1565,1565,0,0,0,0,0,0,0,0,0,0
1682255132.90009212,52128307,1573,1573,1565,1566,0,0,0,0,0,0,0,0,0,0
1682255133.00005198,52228267,1574,1573,1566,1567,0,0,0,0,0,0,0,0,0,0
1682255133.10001206,52328227,1574,1573,1568,1568,0,0,0,0,0,0,0,0,0,0
1682255133.19997191,52428187,1574,1574,1570,1570,0,0,0,0,0,0,0,0,0,0
1682255133.30076504,52528980,1573,1572,1570,1570,0,0,0,0,0,0,0,0,0,0
1682255133.40072513,52628940,1574,1574,1573,1573,0,0,0,0,0,0,0,0,0,0
1682255133.50068498,52728900,1573,1573,1574,1573,0,0,0,0,0,0,0,0,0,0
1682255133.60064507,52828860,1573,1573,1576,1575,0,0,0,0,0,0,0,0,0,0
1682255133.70060492,52928820,1574,1574,1578,1577,0,0,0,0,0,0,0,0,0,0
1682255133.80056500,53028780,1574,1574,1577,1577,0,0,0,0,0,0,0,0,0,0
1682255133.90052509,53128740,1574,1574,1578,1577,0,0,0,0,0,0,0,0,0,0
1682255134.00048494,53228700,1575,1575,1577,1578,0,0,0,0,0,0,0,0,0,0
1682255134.10044503,53328660,1577,1577,1579,1578,0,0,0,0,0,0,0,0,0,0
1682255134.20040512,53428620,1577,1577,1578,1578,0,0,0,0,0,0,0,0,0,0
1682255134.30036497,53528580,1577,1576,1577,1577,0,0,0,0,0,0,0,0,0,0
1682255134.40032506,53628540,1577,1577,1576,1577,0,0,0,0,0,0,0,0,0,0
1682255134.50028491,53728500,1577,1577,1576,1576,0,0,0,0,0,0,0,0,0,0
1682255134.60024500,53828460,1578,1578,1577,1577,0,0,0,0,0,0,0,0,0,0
1682255134.70020509,53928420,1578,1578,1577,1577,0,0,0,0,0,0,0,0,0,0
1682255134.80016494,54028380,1579,1579,1578,1577,0,0,0,0,0,0,0,0,0,0
1682255134.90012503,54128340,1578,1579,1577,1577,0,0,0,0,0,0,0,0,0,0
1682255135.00008512,54228300,1579,1579,1578,1577,0,0,0,0,0,0,0,0,0,0
1682255135.10004497,54328260,1579,1578,1578,1578,0,0,0,0,0,0,0,0,0,0
1682255135.20000505,54428220,1578,1578,1578,1578,0,0,0,0,0,0,0,0,0,0
1682255135.29996490,54528180,1578,1578,1578,1578,0,0,0,0,0,0,0,0,0,0
1682255135.40075803,54628973,1578,1578,1578,1579,0,0,0,0,0,0,0,0,0,0
1682255135.50071812,54728933,1579,1578,1579,1579,0,0,0,0,0,0,0,0,0,0
1682255135.60067797,54828893,1578,1579,1580,1579,0,0,0,0,0,0,0,0,0,0
1682255135.70063806,54928853,1578,1578,1579,1578,0,0,0,0,0,0,0,0,0,0
1682255135.80059791,55028813,1578,1579,1579,1579,0,0,0,0,0,0,0,0,0,0
1682255135.90055799,55128773,1579,1580,1580,1580,0,0,0,0,0,0,0,0,0,0
1682255136.00051808,55228733,1580,1580,1581,1580,0,0,0,0,0,0,0,0,0,0
1682255136.10047793,55328693,1579,1579,1579,1579,0,0,0,0,0,0,0,0,0,0
1682255136.20043802,55428653,1579,1579,1579,1579,0,0,0,0,0,0,0,0,0,0
1682255136.30039811,55528613,1580,1579,1579,1580,0,0,0,0,0,0,0,0,0,0
1682255136.40035796,55628573,1579,1579,1579,1579,0,0,0,0,0,0,0,0,0,0
1682255136.50031805,55728533,1580,1580,1580,1580,0,0,0,0,0,0,0,0,0,0
1682255136.60027814,55828493,1579,1579,1579,1579,0,0,0,0,0,0,0,0,0,0
1682255136.70023799,55928453,1580,1580,1580,1580,0,0,0,0,0,0,0,0,0,0
1682255136.80019808,56028413,1580,1580,1580,1580,0,0,0,0,0,0,0,0,0,0
1682255136.90015793,56128373,1580,1580,1580,1580,0,0,0,0,0,0,0,0,0,0
1682255137.00011802,56228333,1580,1580,1580,1580,0,0,0,0,0,0,0,0,0,0
1682255137.10007811,56328293,1580,1579,1580,1580,0,0,0,0,0,0,0,0,0,0
1682255137.20003796,56428253,1580,1579,1579,1579,0,0,0,0,0,0,0,0,0,0
1682255137.29999804,56528213,1580,1580,1580,1581,0,0,0,0,0,0,0,0,0,0
1682255137.39995813,56628173,1580,1580,1580,1580,0,0,0,0,0,0,0,0,0,0
1682255137.50075102,56728966,1580,1580,1580,1580,0,0,0,0,0,0,0,0,0,0
1682255137.60071111,56828926,1580,1580,1580,1580,0,0,0,0,0,0,0,0,0,0
1682255137.70067096,56928886,1580,1580,1580,1580,0,0,0,0,0,0,0,0,0,0
1682255137.80063105,57028846,1580,1580,1580,1580,0,0,0,0,0,0,0,0,0,0
1682255137.90059114,57128806,1580,1580,1580,1580,0,0,0,0,0,0,0,0,0,0
1682255138.00055099,57228766,1580,1580,1580,1580,0,0,0,0,0,0,0,0,0,0
1682255138.10051107,57328726,1581,1581,1581,1581,0,0,0,0,0,0,0,0,0,0
1682255138.20047092,57428686,1580,1581,1581,1580,0,0,0,0,0,0,0,0,0,0
1682255138.30043101,57528646,1580,1581,1584,1577,0,0,0,0,0,0,0,0,0,0
1682255138.40039110,57628606,1581,1582,1588,1573,0,0,0,0,0,0,0,0,0,0
1682255138.50035095,57728566,1579,1582,1581,1574,0,0,0,0,0,0,0,0,0,0
1682255138.60031104,57828526,1579,1581,1573,1573,0,0,0,0,0,0,0,0,0,0
1682255138.70027113,57928486,1576,1579,1564,1569,0,0,0,0,0,0,0,0,0,0
1682255138.80023098,58028446,1578,1579,1560,1566,0,0,0,0,0,0,0,0,0,0
1682255138.90019107,58128406,1578,1578,1556,1561,0,0,0,0,0,0,0,0,0,0
1682255139.00015092,58228366,1578,1577,1555,1557,0,0,0,0,0,0,0,0,0,0
1682255139.10011101,58328326,1579,1577,1555,1555,0,0,0,0,0,0,0,0,0,0
1682255139.20007110,58428286,1578,1577,1556,1554,0,0,0,0,0,0,0,0,0,0
1682255139.30003095,58528246,1577,1577,1555,1553,0,0,0,0,0,0,0,0,0,0
1682255139.39999104,58628206,1576,1577,1556,1554,0,0,0,0,0,0,0,0,0,0
1682255139.49995112,58728166,1574,1576,1554,1554,0,0,0,0,0,0,0,0,0,0
1682255139.60074401,58828959,1574,1576,1554,1553,0,0,0,0,0,0,0,0,0,0
1682255139.70070410,58928919,1575,1576,1552,1553,0,0,0,0,0,0,0,0,0,0
1682255139.80066395,59028879,1575,1577,1551,1551,0,0,0,0,0,0,0,0,0,0
1682255139.90062404,59128839,1577,1578,1549,1550,0,0,0,0,0,0,0,0,0,0
1682255140.00058413,59228799,1579,1580,1547,1547,0,0,0,0,0,0,0,0,0,0
1682255140.10054398,59328759,1582,1582,1544,1544,0,0,0,0,0,0,0,0,0,0
1682255140.20050406,59428719,1585,1586,1542,1542,0,0,0,0,0,0,0,0,0,0
1682255140.30046391,59528679,1587,1588,1538,1538,0,0,0,0,0,0,0,0,0,0
1682255140.40042400,59628639,1590,1591,1536,1536,0,0,0,0,0,0,0,0,0,0
1682255140.50038409,59728599,1593,1594,1535,1535,0,0,0,0,0,0,0,0,0,0
1682255140.60034394,59828559,1595,1596,1535,1536,0,0,0,0,0,0,0,0,0,0
1682255140.70030403,59928519,1595,1595,1536,1537,0,0,0,0,0,0,0,0,0,0
1682255140.80026412,60028479,1593,1593,1537,1538,0,0,0,0,0,0,0,0,0,0
1682255140.90022397,60128439,1591,1590,1540,1544,0,0,0,0,0,0,0,0,0,0
1682255141.00018406,60228399,1587,1585,1546,1550,0,0,0,0,0,0,0,0,0,0
1682255141.10014391,60328359,1581,1577,1555,1558,0,0,0,0,0,0,0,0,0,0
1682255141.20010400,60428319,1571,1567,1566,1568,0,0,0,0,0,0,0,0,0,0
1682255141.30006409,60528279,1561,1557,1578,1580,0,0,0,0,0,0,0,0,0,0
1682255141.40002394,60628239,1550,1547,1591,1592,0,0,0,0,0,0,0,0,0,0
1682255141.49998403,60728199,1540,1538,1602,1601,0,0,0,0,0,0,0,0,0,0
1682255141.59994411,60828159,1533,1532,1610,1609,0,0,0,0,0,0,0,0,0,0
1682255141.70073700,60928952,1529,1530,1615,1613,0,0,0,0,0,0,0,0,0,0
1682255141.80069709,61028912,1529,1532,1615,1615,0,0,0,0,0,0,0,0,0,0
1682255141.90065694,61128872,1532,1534,1611,1611,0,0,0,0,0,0,0,0,0,0
1682255142.00061703,61228832,1538,1541,1607,1607,0,0,0,0,0,0,0,0,0,0
1682255142.10057712,61328792,1546,1548,1599,1600,0,0,0,0,0,0,0,0,0,0
1682255142.20053697,61428752,1556,1557,1593,1593,0,0,0,0,0,0,0,0,0,0
1682255142.30049706,61528712,1566,1566,1587,1586,0,0,0,0,0,0,0,0,0,0
1682255142.40045691,61628672,1574,1573,1579,1578,0,0,0,0,0,0,0,0,0,0
1682255142.50041699,61728632,1581,1580,1575,1574,0,0,0,0,0,0,0,0,0,0
1682255142.60037708,61828592,1584,1584,1570,1569,0,0,0,0,0,0,0,0,0,0
1682255142.70033693,61928552,1587,1586,1568,1567,0,0,0,0,0,0,0,0,0,0
1682255142.80029702,62028512,1589,1588,1567,1568,0,0,0,0,0,0,0,0,0,0
1682255142.90025711,62128472,1588,1586,1567,1568,0,0,0,0,0,0,0,0,0,0
1682255143.00021696,62228432,1584,1583,1568,1568,0,0,0,0,0,0,0,0,0,0
1682255143.10017705,62328392,1581,1581,1570,1571,0,0,0,0,0,0,0,0,0,0
1682255143.20013714,62428352,1580,1580,1575,1575,0,0,0,0,0,0,0,0,0,0
1682255143.30009699,62528312,1577,1577,1578,1577,0,0,0,0,0,0,0,0,0,0
1682255143.40005708,62628272,1263,1543,1268,1548,0,0,0,0,0,0,0,0,0,0
1682255143.50001693,62728232,1510,1542,1516,1554,0,0,0,0,0,0,0,0,0,0
1682255143.59997702,62828192,1609,1572,1621,1582,0,0,0,0,0,0,0,0,0,0
1682255143.70077014,62928985,1679,1604,1690,1615,0,0,0,0,0,0,0,0,0,0
1682255143.80072999,63028945,1684,1612,1690,1621,0,0,0,0,0,0,0,0,0,0
1682255143.90069008,63128905,1689,1639,1690,1640,0,0,0,0,0,0,0,0,0,0
1682255144.00064993,63228865,1690,1657,1684,1648,0,0,0,0,0,0,0,0,0,0
1682255144.10061002,63328825,1690,1676,1680,1653,0,0,0,0,0,0,0,0,0,0
1682255144.20057011,63428785,1690,1701,1676,1664,0,0,0,0,0,0,0,0,0,0
1682255144.30052996,63528745,1690,1726,1677,1689,0,0,0,0,0,0,0,0,0,0
1682255144.40049005,63628705,1659,1701,1660,1695,0,0,0,0,0,0,0,0,0,0
1682255144.50045013,63728665,1608,1636,1638,1686,0,0,0,0,0,0,0,0,0,0
1682255144.60040998,63828625,1574,1583,1634,1682,0,0,0,0,0,0,0,0,0,0
1682255144.70037007,63928585,1550,1546,1630,1666,0,0,0,0,0,0,0,0,0,0
1682255144.80032992,64028545,1541,1534,1623,1638,0,0,0,0,0,0,0,0,0,0
1682255144.90029001,64128505,1544,1541,1609,1606,0,0,0,0,0,0,0,0,0,0
1682255145.00025010,64228465,1555,1558,1592,1577,0,0,0,0,0,0,0,0,0,0
1682255145.10020995,64328425,1569,1578,1573,1554,0,0,0,0,0,0,0,0,0,0
1682255145.20017004,64428385,1583,1594,1555,1539,0,0,0,0,0,0,0,0,0,0
1682255145.30013013,64528345,1593,1602,1540,1531,0,0,0,0,0,0,0,0,0,0
1682255145.40008998,64628305,1598,1601,1529,1526,0,0,0,0,0,0,0,0,0,0
1682255145.50005007,64728265,1598,1597,1523,1525,0,0,0,0,0,0,0,0,0,0
1682255145.60000992,64828225,1596,1590,1523,1527,0,0,0,0,0,0,0,0,0,0
1682255145.69997001,64928185,1592,1585,1528,1533,0,0,0,0,0,0,0,0,0,0
1682255145.80076313,65028978,1586,1581,1536,1540,0,0,0,0,0,0,0,0,0,0
1682255145.90072298,65128938,1580,1577,1545,1547,0,0,0,0,0,0,0,0,0,0
1682255146.00068307,65228898,1575,1573,1555,1555,0,0,0,0,0,0,0,0,0,0
1682255146.10064292,65328858,1570,1571,1565,1564,0,0,0,0,0,0,0,0,0,0
1682255146.20060301,65428818,1566,1568,1573,1572,0,0,0,0,0,0,0,0,0,0
1682255146.30056310,65528778,1564,1566,1580,1579,0,0,0,0,0,0,0,0,0,0
1682255146.40052295,65628738,1563,1563,1592,1576,0,0,0,0,0,0,0,0,0,0
1682255146.50048304,65728698,1563,1565,1593,1580,0,0,0,0,0,0,0,0,0,0
1682255146.60044312,65828658,1560,1563,1587,1582,0,0,0,0,0,0,0,0,0,0
1682255146.70040298,65928618,1559,1561,1579,1583,0,0,0,0,0,0,0,0,0,0
1682255146.80036306,66028578,1559,1560,1572,1581,0,0,0,0,0,0,0,0,0,0
1682255146.90032291,66128538,1561,1561,1567,1576,0,0,0,0,0,0,0,0,0,0
1682255147.00028300,66228498,1563,1563,1563,1569,0,0,0,0,0,0,0,0,0,0
1682255147.10024309,66328458,1567,1567,1560,1562,0,0,0,0,0,0,0,0,0,0
1682255147.20020294,66428418,1571,1571,1558,1556,0,0,0,0,0,0,0,0,0,0
1682255147.30016303,66528378,1575,1575,1555,1552,0,0,0,0,0,0,0,0,0,0
1682255147.40012312,66628338,1578,1578,1552,1549,0,0,0,0,0,0,0,0,0,0
1682255147.50008297,66728298,1581,1580,1549,1547,0,0,0,0,0,0,0,0,0,0
1682255147.60004306,66828258,1582,1582,1547,1546,0,0,0,0,0,0,0,0,0,0
1682255147.70000291,66928218,1583,1582,1545,1546,0,0,0,0,0,0,0,0,0,0
1682255147.79996300,67028178,1582,1582,1544,1545,0,0,0,0,0,0,0,0,0,0
1682255147.90075612,67128971,1582,1583,1544,1545,0,0,0,0,0,0,0,0,0,0
1682255148.00071597,67228931,1581,1582,1543,1544,0,0,0,0,0,0,0,0,0,0
1682255148.10067606,67328891,1581,1582,1543,1543,0,0,0,0,0,0,0,0,0,0
1682255148.20063591,67428851,1581,1583,1544,1543,0,0,0,0,0,0,0,0,0,0
1682255148.30059600,67528811,1581,1583,1543,1543,0,0,0,0,0,0,0,0,0,0
1682255148.40055609,67628771,1582,1583,1544,1544,0,0,0,0,0,0,0,0,0,0
1682255148.50051594,67728731,1583,1583,1544,1543,0,0,0,0,0,0,0,0,0,0
1682255148.60047603,67828691,1584,1584,1544,1545,0,0,0,0,0,0,0,0,0,0
1682255148.70043612,67928651,1583,1583,1545,1545,0,0,0,0,0,0,0,0,0,0
1682255148.80039597,68028611,1584,1582,1546,1548,0,0,0,0,0,0,0,0,0,0
1682255148.90035605,68128571,1582,1580,1549,1550,0,0,0,0,0,0,0,0,0,0
1682255149.00031590,68228531,1579,1577,1552,1554,0,0,0,0,0,0,0,0,0,0
1682255149.10027599,68328491,1575,1573,1556,1558,0,0,0,0,0,0,0,0,0,0
1682255149.20023608,68428451,1570,1570,1561,1563,0,0,0,0,0,0,0,0,0,0
1682255149.30019593,68528411,1567,1566,1567,1569,0,0,0,0,0,0,0,0,0,0
1682255149.40015602,68628371,1561,1561,1573,1574,0,0,0,0,0,0,0,0,0,0
1682255149.50011611,68728331,1557,1557,1578,1580,0,0,0,0,0,0,0,0,0,0
1682255149.60007596,68828291,1553,1553,1584,1584,0,0,0,0,0,0,0,0,0,0
1682255149.70003605,68928251,1550,1549,1589,1589,0,0,0,0,0,0,0,0,0,0
1682255149.79999614,69028211,1547,1547,1592,1592,0,0,0,0,0,0,0,0,0,0
1682255149.89995599,69128171,1546,1546,1595,1594,0,0,0,0,0,0,0,0,0,0
1682255150.00074911,69228964,1547,1548,1597,1596,0,0,0,0,0,0,0,0,0,0
1682255150.10070896,69328924,1549,1550,1596,1595,0,0,0,0,0,0,0,0,0,0
1682255150.20066905,69428884,1552,1552,1595,1594,0,0,0,0,0,0,0,0,0,0
1682255150.30062914,69528844,1555,1556,1592,1591,0,0,0,0,0,0,0,0,0,0
1682255150.40058899,69628804,1558,1558,1587,1587,0,0,0,0,0,0,0,0,0,0
1682255150.50054908,69728764,1563,1562,1583,1584,0,0,0,0,0,0,0,0,0,0
1682255150.60050893,69828724,1567,1566,1580,1581,0,0,0,0,0,0,0,0,0,0
1682255150.70046902,69928684,1571,1570,1578,1578,0,0,0,0,0,0,0,0,0,0
1682255150.80042911,70028644,1575,1574,1576,1575,0,0,0,0,0,0,0,0,0,0
1682255150.90038896,70128604,1578,1576,1575,1574,0,0,0,0,0,0,0,0,0,0
1682255151.00034904,70228564,1579,1578,1573,1573,0,0,0,0,0,0,0,0,0,0
1682255151.10030913,70328524,1580,1578,1572,1572,0,0,0,0,0,0,0,0,0,0
1682255151.20026898,70428484,1580,1579,1572,1572,0,0,0,0,0,0,0,0,0,0
1682255151.30022907,70528444,1579,1580,1573,1573,0,0,0,0,0,0,0,0,0,0
1682255151.40018892,70628404,1580,1579,1574,1574,0,0,0,0,0,0,0,0,0,0
1682255151.50014901,70728364,1579,1579,1575,1575,0,0,0,0,0,0,0,0,0,0
1682255151.60010910,70828324,1577,1577,1576,1576,0,0,0,0,0,0,0,0,0,0
1682255151.70006895,70928284,1577,1578,1578,1578,0,0,0,0,0,0,0,0,0,0
1682255151.80002904,71028244,1576,1577,1579,1579,0,0,0,0,0,0,0,0,0,0
1682255151.89998913,71128204,1576,1577,1581,1580,0,0,0,0,0,0,0,0,0,0
1682255151.99994898,71228164,1576,1577,1581,1581,0,0,0,0,0,0,0,0,0,0
1682255152.10074210,71328957,1577,1578,1582,1582,0,0,0,0,0,0,0,0,0,0
1682255152.20070195,71428917,1577,1577,1582,1581,0,0,0,0,0,0,0,0,0,0
1682255152.30066204,71528877,1577,1576,1581,1581,0,0,0,0,0,0,0,0,0,0
1682255152.40062213,71628837,1577,1577,1580,1580,0,0,0,0,0,0,0,0,0,0
1682255152.50058198,71728797,1578,1577,1580,1580,0,0,0,0,0,0,0,0,0,0
1682255152.60054207,71828757,1578,1579,1580,1580,0,0,0,0,0,0,0,0,0,0
1682255152.70050192,71928717,1579,1579,1579,1579,0,0,0,0,0,0,0,0,0,0
1682255152.80046201,72028677,1579,1579,1578,1578,0,0,0,0,0,0,0,0,0,0
1682255152.90042210,72128637,1580,1580,1579,1579,0,0,0,0,0,0,0,0,0,0
1682255153.00038195,72228597,1580,1580,1578,1578,0,0,0,0,0,0,0,0,0,0
1682255153.10034204,72328557,1581,1580,1578,1578,0,0,0,0,0,0,0,0,0,0
1682255153.20030212,72428517,1581,1581,1579,1579,0,0,0,0,0,0,0,0,0,0
1682255153.30026197,72528477,1581,1581,1580,1580,0,0,0,0,0,0,0,0,0,0
1682255153.40022206,72628437,1581,1582,1580,1580,0,0,0,0,0,0,0,0,0,0
1682255153.50018191,72728397,1581,1581,1580,1580,0,0,0,0,0,0,0,0,0,0
1682255153.60014200,72828357,1580,1580,1580,1580,0,0,0,0,0,0,0,0,0,0
1682255153.70010209,72928317,1580,1581,1580,1580,0,0,0,0,0,0,0,0,0,0
1682255153.80006194,73028277,1580,1580,1580,1580,0,0,0,0,0,0,0,0,0,0
1682255153.90002203,73128237,1581,1581,1581,1581,0,0,0,0,0,0,0,0,0,0
1682255153.99998212,73228197,1581,1581,1582,1581,0,0,0,0,0,0,0,0,0,0
1682255154.09994197,73328157,1581,1581,1581,1581,0,0,0,0,0,0,0,0,0,0
1682255154.20073509,73428950,1581,1581,1581,1581,0,0,0,0,0,0,0,0,0,0
1682255154.30069494,73528910,1581,1581,1581,1582,0,0,0,0,0,0,0,0,0,0
1682255154.40065503,73628870,1581,1581,1581,1581,0,0,0,0,0,0,0,0,0,0
1682255154.50061512,73728830,1581,1581,1582,1582,0,0,0,0,0,0,0,0,0,0
1682255154.60057497,73828790,1581,1581,1582,1581,0,0,0,0,0,0,0,0,0,0
1682255154.70053506,73928750,1582,1582,1582,1582,0,0,0,0,0,0,0,0,0,0
1682255154.80049491,74028710,1581,1581,1581,1581,0,0,0,0,0,0,0,0,0,0
1682255154.90045500,74128670,1581,1581,1581,1581,0,0,0,0,0,0,0,0,0,0
1682255155.00041509,74228630,1581,1581,1581,1581,0,0,0,0,0,0,0,0,0,0
1682255155.10037494,74328590,1581,1582,1581,1581,0,0,0,0,0,0,0,0,0,0
1682255155.20033503,74428550,1582,1582,1581,1581,0,0,0,0,0,0,0,0,0,0
1682255155.30029511,74528510,1582,1583,1587,1574,0,0,0,0,0,0,0,0,0,0
1682255155.40025496,74628470,1580,1582,1584,1572,0,0,0,0,0,0,0,0,0,0
1682255155.50021505,74728430,1579,1581,1577,1573,0,0,0,0,0,0,0,0,0,0
1682255155.60017490,74828390,1576,1578,1569,1571,0,0,0,0,0,0,0,0,0,0
1682255155.70013499,74928350,1575,1577,1562,1568,0,0,0,0,0,0,0,0,0,0
1682255155.80009508,75028310,1574,1576,1557,1564,0,0,0,0,0,0,0,0,0,0
1682255155.90005493,75128270,1576,1576,1554,1560,0,0,0,0,0,0,0,0,0,0
1682255156.00001502,75228230,1577,1576,1553,1556,0,0,0,0,0,0,0,0,0,0
1682255156.09997511,75328190,1578,1577,1554,1554,0,0,0,0,0,0,0,0,0,0
1682255156.20076799,75428983,1578,1577,1554,1552,0,0,0,0,0,0,0,0,0,0
1682255156.30072808,75528943,1577,1577,1555,1552,0,0,0,0,0,0,0,0,0,0
1682255156.40068793,75628903,1577,1578,1555,1553,0,0,0,0,0,0,0,0,0,0
1682255156.50064802,75728863,1577,1578,1555,1553,0,0,0,0,0,0,0,0,0,0
1682255156.60060811,75828823,1575,1577,1553,1553,0,0,0,0,0,0,0,0,0,0
1682255156.70056796,75928783,1576,1578,1553,1553,0,0,0,0,0,0,0,0,0,0
1682255156.80052805,76028743,1576,1578,1551,1551,0,0,0,0,0,0,0,0,0,0
1682255156.90048814,76128703,1577,1579,1550,1550,0,0,0,0,0,0,0,0,0,0
1682255157.00044799,76228663,1579,1581,1548,1548,0,0,0,0,0,0,0,0,0,0
1682255157.10040808,76328623,1581,1582,1546,1546,0,0,0,0,0,0,0,0,0,0
1682255157.20036793,76428583,1584,1584,1544,1543,0,0,0,0,0,0,0,0,0,0
1682255157.30032802,76528543,1586,1586,1541,1541,0,0,0,0,0,0,0,0,0,0
1682255157.40028811,76628503,1589,1589,1540,1540,0,0,0,0,0,0,0,0,0,0
1682255157.50024796,76728463,1591,1591,1539,1540,0,0,0,0,0,0,0,0,0,0
1682255157.60020804,76828423,1592,1593,1538,1539,0,0,0,0,0,0,0,0,0,0
1682255157.70016813,76928383,1593,1593,1538,1540,0,0,0,0,0,0,0,0,0,0
1682255157.80012798,77028343,1593,1592,1540,1542,0,0,0,0,0,0,0,0,0,0
1682255157.90008807,77128303,1591,1589,1543,1546,0,0,0,0,0,0,0,0,0,0
1682255158.00004792,77228263,1588,1585,1550,1553,0,0,0,0,0,0,0,0,0,0
1682255158.10000801,77328223,1581,1577,1558,1561,0,0,0,0,0,0,0,0,0,0
1682255158.19996810,77428183,1572,1568,1567,1570,0,0,0,0,0,0,0,0,0,0
1682255158.30076098,77528976,1563,1559,1578,1580,0,0,0,0,0,0,0,0,0,0
1682255158.40072107,77628936,1553,1551,1589,1590,0,0,0,0,0,0,0,0,0,0
1682255158.50068092,77728896,1544,1545,1599,1599,0,0,0,0,0,0,0,0,0,0
1682255158.60064101,77828856,1538,1541,1608,1606,0,0,0,0,0,0,0,0,0,0
1682255158.70060110,77928816,1535,1538,1613,1610,0,0,0,0,0,0,0,0,0,0
1682255158.80056095,78028776,1535,1539,1615,1612,0,0,0,0,0,0,0,0,0,0
1682255158.90052104,78128736,1539,1542,1614,1611,0,0,0,0,0,0,0,0,0,0
1682255159.00048113,78228696,1543,1545,1610,1608,0,0,0,0,0,0,0,0,0,0
1682255159.10044098,78328656,1549,1549,1604,1602,0,0,0,0,0,0,0,0,0,0
1682255159.20040107,78428616,1555,1555,1597,1597,0,0,0,0,0,0,0,0,0,0
1682255159.30036092,78528576,1562,1561,1590,1590,0,0,0,0,0,0,0,0,0,0
1682255159.40032101,78628536,1568,1567,1583,1583,0,0,0,0,0,0,0,0,0,0
1682255159.50028110,78728496,1574,1573,1576,1577,0,0,0,0,0,0,0,0,0,0
1682255159.60024095,78828456,1579,1577,1570,1572,0,0,0,0,0,0,0,0,0,0
1682255159.70020103,78928416,1583,1581,1567,1569,0,0,0,0,0,0,0,0,0,0
1682255159.80016112,79028376,1585,1583,1565,1567,0,0,0,0,0,0,0,0,0,0
1682255159.90012097,79128336,1586,1584,1565,1566,0,0,0,0,0,0,0,0,0,0
1682255160.00008106,79228296,1586,1585,1566,1567,0,0,0,0,0,0,0,0,0,0
1682255160.10004091,79328256,1585,1583,1568,1568,0,0,0,0,0,0,0,0,0,0
1682255160.20000100,79428216,1584,1583,1571,1571,0,0,0,0,0,0,0,0,0,0
1682255160.29996109,79528176,1581,1581,1574,1573,0,0,0,0,0,0,0,0,0,0
1682255160.40075397,79628969,1579,1579,1577,1577,0,0,0,0,0,0,0,0,0,0
1682255160.50071406,79728929,1576,1577,1579,1579,0,0,0,0,0,0,0,0,0,0
1682255160.60067391,79828889,1575,1577,1582,1582,0,0,0,0,0,0,0,0,0,0
1682255160.70063400,79928849,1574,1575,1584,1584,0,0,0,0,0,0,0,0,0,0
1682255160.80059409,80028809,1574,1575,1585,1584,0,0,0,0,0,0,0,0,0,0
1682255160.90055394,80128769,1573,1575,1585,1585,0,0,0,0,0,0,0,0,0,0
1682255161.00051403,80228729,1574,1575,1584,1584,0,0,0,0,0,0,0,0,0,0
1682255161.10047412,80328689,1575,1575,1583,1583,0,0,0,0,0,0,0,0,0,0
1682255161.20043397,80428649,1576,1576,1582,1582,0,0,0,0,0,0,0,0,0,0
1682255161.30039406,80528609,1577,1577,1581,1581,0,0,0,0,0,0,0,0,0,0
1682255161.40035391,80628569,1579,1578,1580,1580,0,0,0,0,0,0,0,0,0,0
1682255161.50031400,80728529,1579,1579,1578,1579,0,0,0,0,0,0,0,0,0,0
1682255161.60027409,80828489,1580,1580,1578,1578,0,0,0,0,0,0,0,0,0,0
1682255161.70023394,80928449,1580,1580,1577,1577,0,0,0,0,0,0,0,0,0,0
1682255161.80019403,81028409,1582,1581,1577,1577,0,0,0,0,0,0,0,0,0,0
1682255161.90015411,81128369,1582,1582,1577,1578,0,0,0,0,0,0,0,0,0,0
1682255162.00011396,81228329,1582,1582,1578,1578,0,0,0,0,0,0,0,0,0,0
1682255162.10007405,81328289,1582,1582,1578,1578,0,0,0,0,0,0,0,0,0,0
1682255162.20003390,81428249,1582,1582,1579,1579,0,0,0,0,0,0,0,0,0,0
1682255162.29999399,81528209,1581,1581,1579,1579,0,0,0,0,0,0,0,0,0,0
1682255162.39995408,81628169,1581,1582,1581,1580,0,0,0,0,0,0,0,0,0,0
1682255162.50074697,81728962,1582,1581,1581,1581,0,0,0,0,0,0,0,0,0,0
1682255162.60070705,81828922,1580,1580,1581,1581,0,0,0,0,0,0,0,0,0,0
1682255162.70066690,81928882,1580,1580,1581,1581,0,0,0,0,0,0,0,0,0,0
1682255162.80062699,82028842,1579,1580,1581,1581,0,0,0,0,0,0,0,0,0,0
1682255162.90058708,82128802,1579,1580,1581,1582,0,0,0,0,0,0,0,0,0,0
1682255163.00054693,82228762,1579,1579,1581,1581,0,0,0,0,0,0,0,0,0,0
1682255163.10050702,82328722,1579,1579,1581,1581,0,0,0,0,0,0,0,0,0,0
1682255163.20046711,82428682,1580,1580,1582,1581,0,0,0,0,0,0,0,0,0,0
1682255163.30042696,82528642,1581,1582,1587,1574,0,0,0,0,0,0,0,0,0,0
1682255163.40038705,82628602,1581,1581,1586,1573,0,0,0,0,0,0,0,0,0,0
1682255163.50034714,82728562,1579,1578,1580,1575,0,0,0,0,0,0,0,0,0,0
1682255163.60030699,82828522,1575,1574,1573,1575,0,0,0,0,0,0,0,0,0,0
1682255163.70026708,82928482,1572,1571,1568,1574,0,0,0,0,0,0,0,0,0,0
1682255163.80022693,83028442,1569,1568,1564,1572,0,0,0,0,0,0,0,0,0,0
1682255163.90018702,83128402,1567,1568,1564,1570,0,0,0,0,0,0,0,0,0,0
1682255164.00014710,83228362,1566,1568,1565,1567,0,0,0,0,0,0,0,0,0,0
1682255164.10010695,83328322,1567,1568,1566,1566,0,0,0,0,0,0,0,0,0,0
1682255164.20006704,83428282,1567,1567,1567,1565,0,0,0,0,0,0,0,0,0,0
1682255164.30002713,83528242,1566,1566,1567,1564,0,0,0,0,0,0,0,0,0,0
1682255164.39998698,83628202,1566,1566,1567,1564,0,0,0,0,0,0,0,0,0,0
1682255164.49994707,83728162,1564,1564,1565,1563,0,0,0,0,0,0,0,0,0,0
1682255164.60073996,83828955,1564,1563,1564,1564,0,0,0,0,0,0,0,0,0,0
1682255164.70070004,83928915,1562,1562,1563,1563,0,0,0,0,0,0,0,0,0,0
1682255164.80066013,84028875,1562,1562,1563,1564,0,0,0,0,0,0,0,0,0,0
1682255164.90061998,84128835,1562,1562,1562,1563,0,0,0,0,0,0,0,0,0,0
1682255165.00058007,84228795,1561,1561,1562,1561,0,0,0,0,0,0,0,0,0,0
1682255165.10053992,84328755,1561,1561,1561,1561,0,0,0,0,0,0,0,0,0,0
1682255165.20050001,84428715,1560,1560,1561,1560,0,0,0,0,0,0,0,0,0,0
1682255165.30046010,84528675,1559,1559,1560,1559,0,0,0,0,0,0,0,0,0,0
1682255165.40041995,84628635,1558,1558,1559,1558,0,0,0,0,0,0,0,0,0,0
1682255165.50038004,84728595,1559,1558,1559,1558,0,0,0,0,0,0,0,0,0,0
1682255165.60034013,84828555,1559,1559,1559,1558,0,0,0,0,0,0,0,0,0,0
1682255165.70029998,84928515,1558,1558,1558,1558,0,0,0,0,0,0,0,0,0,0
1682255165.80026007,85028475,1558,1558,1559,1557,0,0,0,0,0,0,0,0,0,0
1682255165.90021992,85128435,1559,1559,1560,1558,0,0,0,0,0,0,0,0,0,0
1682255166.00018001,85228395,1559,1559,1561,1557,0,0,0,0,0,0,0,0,0,0
1682255166.10014009,85328355,1560,1560,1560,1559,0,0,0,0,0,0,0,0,0,0
1682255166.20009995,85428315,1559,1559,1558,1561,0,0,0,0,0,0,0,0,0,0
1682255166.30006003,85528275,1559,1559,1556,1562,0,0,0,0,0,0,0,0,0,0
1682255166.40002012,85628235,1560,1561,1557,1564,0,0,0,0,0,0,0,0,0,0
1682255166.49997997,85728195,1562,1561,1559,1563,0,0,0,0,0,0,0,0,0,0
1682255166.59994006,85828155,1561,1561,1560,1562,0,0,0,0,0,0,0,0,0,0
1682255166.70073295,85928948,1560,1560,1560,1559,0,0,0,0,0,0,0,0,0,0
1682255166.80069304,86028908,1559,1559,1560,1556,0,0,0,0,0,0,0,0,0,0
1682255166.90065312,86128868,1558,1557,1559,1555,0,0,0,0,0,0,0,0,0,0
1682255167.00061297,86228828,1558,1558,1557,1560,0,0,0,0,0,0,0,0,0,0
1682255167.10057306,86328788,1556,1556,1554,1560,0,0,0,0,0,0,0,0,0,0
1682255167.20053291,86428748,1552,1553,1550,1555,0,0,0,0,0,0,0,0,0,0
1682255167.30049300,86528708,1548,1547,1546,1549,0,0,0,0,0,0,0,0,0,0
1682255167.40045309,86628668,1543,1542,1543,1542,0,0,0,0,0,0,0,0,0,0
1682255167.50041294,86728628,1536,1536,1537,1535,0,0,0,0,0,0,0,0,0,0
1682255167.60037303,86828588,1528,1528,1530,1527,0,0,0,0,0,0,0,0,0,0
1682255167.70033312,86928548,1522,1522,1523,1521,0,0,0,0,0,0,0,0,0,0
1682255167.80029297,87028508,1519,1520,1519,1520,0,0,0,0,0,0,0,0,0,0
1682255167.90025306,87128468,1519,1520,1519,1521,0,0,0,0,0,0,0,0,0,0
1682255168.00021291,87228428,1520,1522,1520,1522,0,0,0,0,0,0,0,0,0,0
1682255168.10017300,87328388,1522,1524,1522,1524,0,0,0,0,0,0,0,0,0,0
1682255168.20013309,87428348,1527,1527,1527,1528,0,0,0,0,0,0,0,0,0,0
1682255168.30009294,87528308,1532,1531,1531,1531,0,0,0,0,0,0,0,0,0,0
1682255168.40005302,87628268,1535,1534,1535,1534,0,0,0,0,0,0,0,0,0,0
1682255168.50001311,87728228,1539,1538,1539,1537,0,0,0,0,0,0,0,0,0,0
1682255168.59997296,87828188,1541,1540,1542,1540,0,0,0,0,0,0,0,0,0,0
1682255168.70076609,87928981,1543,1542,1544,1541,0,0,0,0,0,0,0,0,0,0
1682255168.80072594,88028941,1545,1544,1545,1544,0,0,0,0,0,0,0,0,0,0
1682255168.90068603,88128901,1546,1545,1546,1546,0,0,0,0,0,0,0,0,0,0
1682255169.00064611,88228861,1546,1546,1546,1546,0,0,0,0,0,0,0,0,0,0
1682255169.10060596,88328821,1547,1547,1547,1547,0,0,0,0,0,0,0,0,0,0
1682255169.20056605,88428781,1547,1547,1547,1547,0,0,0,0,0,0,0,0,0,0
1682255169.30052590,88528741,1546,1547,1546,1546,0,0,0,0,0,0,0,0,0,0
1682255169.40048599,88628701,1546,1546,1546,1546,0,0,0,0,0,0,0,0,0,0
1682255169.50044608,88728661,1546,1546,1546,1545,0,0,0,0,0,0,0,0,0,0
1682255169.60040593,88828621,1546,1546,1546,1545,0,0,0,0,0,0,0,0,0,0
1682255169.70036602,88928581,1545,1545,1545,1545,0,0,0,0,0,0,0,0,0,0
1682255169.80032611,89028541,1545,1545,1545,1545,0,0,0,0,0,0,0,0,0,0
1682255169.90028596,89128501,1545,1545,1545,1545,0,0,0,0,0,0,0,0,0,0
1682255170.00024605,89228461,1545,1545,1545,1545,0,0,0,0,0,0,0,0,0,0
1682255170.10020614,89328421,1544,1544,1544,1544,0,0,0,0,0,0,0,0,0,0
1682255170.20016599,89428381,1545,1545,1545,1544,0,0,0,0,0,0,0,0,0,0
1682255170.30012608,89528341,1545,1545,1545,1545,0,0,0,0,0,0,0,0,0,0
1682255170.40008593,89628301,1544,1544,1544,1545,0,0,0,0,0,0,0,0,0,0
1682255170.50004601,89728261,1544,1544,1544,1544,0,0,0,0,0,0,0,0,0,0
1682255170.60000610,89828221,1545,1545,1545,1545,0,0,0,0,0,0,0,0,0,0
1682255170.69996595,89928181,1544,1544,1544,1544,0,0,0,0,0,0,0,0,0,0
1682255170.80075908,90028974,1544,1545,1544,1544,0,0,0,0,0,0,0,0,0,0
1682255170.90071893,90128934,1544,1545,1544,1544,0,0,0,0,0,0,0,0,0,0
1682255171.00067902,90228894,1544,1544,1544,1544,0,0,0,0,0,0,0,0,0,0
1682255171.10063910,90328854,1544,1544,1544,1544,0,0,0,0,0,0,0,0,0,0
1682255171.20059896,90428814,1543,1544,1544,1543,0,0,0,0,0,0,0,0,0,0
1682255171.30055904,90528774,1543,1543,1543,1543,0,0,0,0,0,0,0,0,0,0
1682255171.40051913,90628734,1544,1544,1543,1544,0,0,0,0,0,0,0,0,0,0
1682255171.50047898,90728694,1544,1544,1544,1544,0,0,0,0,0,0,0,0,0,0
1682255171.60043907,90828654,1544,1544,1544,1544,0,0,0,0,0,0,0,0,0,0
1682255171.70039892,90928614,1544,1544,1544,1544,0,0,0,0,0,0,0,0,0,0
1682255171.80035901,91028574,1544,1544,1544,1544,0,0,0,0,0,0,0,0,0,0
1682255171.90031910,91128534,1544,1543,1543,1543,0,0,0,0,0,0,0,0,0,0
1682255172.00027895,91228494,1543,1543,1543,1543,0,0,0,0,0,0,0,0,0,0
1682255172.10023904,91328454,1544,1544,1544,1544,0,0,0,0,0,0,0,0,0,0
1682255172.20019913,91428414,1544,1544,1544,1544,0,0,0,0,0,0,0,0,0,0
1682255172.30015898,91528374,1544,1545,1544,1545,0,0,0,0,0,0,0,0,0,0
1682255172.40011907,91628334,1543,1544,1544,1544,0,0,0,0,0,0,0,0,0,0
1682255172.50007892,91728294,1544,1544,1544,1544,0,0,0,0,0,0,0,0,0,0
1682255172.60003901,91828254,1544,1543,1544,1543,0,0,0,0,0,0,0,0,0,0
1682255172.69999909,91928214,1544,1544,1544,1544,0,0,0,0,0,0,0,0,0,0
1682255172.79995894,92028174,1544,1544,1544,1544,0,0,0,0,0,0,0,0,0,0
1682255172.90075207,92128967,1545,1544,1545,1544,0,0,0,0,0,0,0,0,0,0
1682255173.00071192,92228927,1544,1544,1544,1544,0,0,0,0,0,0,0,0,0,0
1682255173.10067201,92328887,1543,1544,1543,1544,0,0,0,0,0,0,0,0,0,0
1682255173.20063210,92428847,1544,1544,1544,1544,0,0,0,0,0,0,0,0,0,0
1682255173.30059195,92528807,1544,1544,1544,1544,0,0,0,0,0,0,0,0,0,0
1682255173.40055203,92628767,1544,1544,1544,1544,0,0,0,0,0,0,0,0,0,0
1682255173.50051212,92728727,1544,1544,1544,1544,0,0,0,0,0,0,0,0,0,0
1682255173.60047197,92828687,1544,1544,1544,1544,0,0,0,0,0,0,0,0,0,0
1682255173.70043206,92928647,1544,1544,1544,1544,0,0,0,0,0,0,0,0,0,0
1682255173.80039191,93028607,1545,1544,1545,1545,0,0,0,0,0,0,0,0,0,0
1682255173.90035200,93128567,1544,1544,1544,1544,0,0,0,0,0,0,0,0,0,0
1682255174.00031209,93228527,1544,1544,1544,1544,0,0,0,0,0,0,0,0,0,0
1682255174.10027194,93328487,1544,1544,1544,1544,0,0,0,0,0,0,0,0,0,0
1682255174.20023203,93428447,1543,1544,1544,1544,0,0,0,0,0,0,0,0,0,0
1682255174.30019212,93528407,1544,1544,1544,1544,0,0,0,0,0,0,0,0,0,0
1682255174.40015197,93628367,1544,1545,1544,1544,0,0,0,0,0,0,0,0,0,0
1682255174.50011206,93728327,1544,1544,1544,1544,0,0,0,0,0,0,0,0,0,0
1682255174.60007191,93828287,1544,1544,1544,1544,0,0,0,0,0,0,0,0,0,0
1682255174.70003200,93928247,1544,1544,1544,1544,0,0,0,0,0,0,0,0,0,0
1682255174.79999208,94028207,1544,1544,1544,1544,0,0,0,0,0,0,0,0,0,0
1682255174.89995193,94128167,1545,1543,1544,1544,0,0,0,0,0,0,0,0,0,0
1682255175.00074506,94228960,1545,1544,1545,1544,0,0,0,0,0,0,0,0,0,0
1682255175.10070491,94328920,1544,1545,1544,1545,0,0,0,0,0,0,0,0,0,0
1682255175.20066500,94428880,1544,1544,1544,1544,0,0,0,0,0,0,0,0,0,0
1682255175.30062509,94528840,1544,1544,1544,1545,0,0,0,0,0,0,0,0,0,0
1682255175.40058494,94628800,1545,1545,1545,1545,0,0,0,0,0,0,0,0,0,0
1682255175.50054502,94728760,1544,1544,1544,1544,0,0,0,0,0,0,0,0,0,0
1682255175.60050511,94828720,1544,1544,1544,1544,0,0,0,0,0,0,0,0,0,0
1682255175.70046496,94928680,1544,1544,1544,1545,0,0,0,0,0,0,0,0,0,0
1682255175.80042505,95028640,1544,1545,1544,1544,0,0,0,0,0,0,0,0,0,0
1682255175.90038490,95128600,1543,1543,1543,1543,0,0,0,0,0,0,0,0,0,0
1682255176.00034499,95228560,1543,1543,1543,1543,0,0,0,0,0,0,0,0,0,0
1682255176.10030508,95328520,1544,1544,1544,1544,0,0,0,0,0,0,0,0,0,0
1682255176.20026493,95428480,1544,1544,1544,1544,0,0,0,0,0,0,0,0,0,0
1682255176.30022502,95528440,1544,1543,1543,1544,0,0,0,0,0,0,0,0,0,0
1682255176.40018511,95628400,1543,1543,1543,1543,0,0,0,0,0,0,0,0,0,0
1682255176.50014496,95728360,1544,1544,1544,1544,0,0,0,0,0,0,0,0,0,0
1682255176.60010505,95828320,1544,1544,1544,1544,0,0,0,0,0,0,0,0,0,0
1682255176.70006514,95928280,1545,1544,1545,1545,0,0,0,0,0,0,0,0,0,0
1682255176.80002499,96028240,1546,1545,1546,1545,0,0,0,0,0,0,0,0,0,0
1682255176.89998507,96128200,1545,1545,1545,1545,0,0,0,0,0,0,0,0,0,0
1682255176.99994493,96228160,1546,1546,1546,1546,0,0,0,0,0,0,0,0,0,0
1682255177.10073805,96328953,1545,1545,1545,1545,0,0,0,0,0,0,0,0,0,0
1682255177.20069814,96428913,1544,1545,1545,1545,0,0,0,0,0,0,0,0,0,0
1682255177.30065799,96528873,1545,1545,1544,1545,0,0,0,0,0,0,0,0,0,0
1682255177.40061808,96628833,1525,1520,1525,1520,0,0,0,0,0,0,0,0,0,0
1682255177.50057793,96728793,1397,1334,1396,1335,0,0,0,0,0,0,0,0,0,0
1682255177.60053802,96828753,1341,1244,1341,1245,0,0,0,0,0,0,0,0,0,0
1682255177.70049810,96928713,1326,1216,1325,1218,0,0,0,0,0,0,0,0,0,0
1682255177.80045795,97028673,1314,1196,1314,1196,0,0,0,0,0,0,0,0,0,0
1682255177.90041804,97128633,1290,1150,1290,1151,0,0,0,0,0,0,0,0,0,0
1682255178.00037813,97228593,1223,1150,1223,1150,0,0,0,0,0,0,0,0,0,0
1682255178.10033798,97328553,1115,1150,1115,1150,0,0,0,0,0,0,0,0,0,0
1682255178.20029807,97428513,1066,1150,1066,1150,0,0,0,0,0,0,0,0,0,0
1682255178.30025792,97528473,1066,1150,1066,1150,0,0,0,0,0,0,0,0,0,0
1682255178.40021801,97628433,1066,1150,1066,1150,0,0,0,0,0,0,0,0,0,0
1682255178.50017810,97728393,1066,1150,1058,1161,0,0,0,0,0,0,0,0,0,0
1682255178.60013795,97828353,1066,1150,1061,1157,0,0,0,0,0,0,0,0,0,0
1682255178.70009804,97928313,1066,1150,1062,1156,0,0,0,0,0,0,0,0,0,0
1682255178.80005813,98028273,1066,1150,1062,1156,0,0,0,0,0,0,0,0,0,0
1682255178.90001798,98128233,1066,1150,1061,1156,0,0,0,0,0,0,0,0,0,0
1682255178.99997807,98228193,1066,1150,1061,1156,0,0,0,0,0,0,0,0,0,0
1682255179.10077095,98328986,1066,1150,1061,1157,0,0,0,0,0,0,0,0,0,0
1682255179.20073104,98428946,1066,1150,1061,1157,0,0,0,0,0,0,0,0,0,0
1682255179.30069113,98528906,1066,1150,1064,1152,0,0,0,0,0,0,0,0,0,0
1682255179.40065098,98628866,1066,1150,1064,1153,0,0,0,0,0,0,0,0,0,0
1682255179.50061107,98728826,1066,1150,1064,1153,0,0,0,0,0,0,0,0,0,0
1682255179.60057092,98828786,1066,1150,1063,1153,0,0,0,0,0,0,0,0,0,0
1682255179.70053101,98928746,1043,1150,1040,1153,0,0,0,0,0,0,0,0,0,0
1682255179.80049109,99028706,1000,1000,1000,1000,0,0,0,0,0,0,0,0,0,0
1682255179.90045094,99128666,1000,1000,1000,1000,0,0,0,0,0,0,0,0,0,0
1682255180.00041103,99228626,1000,1000,1000,1000,0,0,0,0,0,0,0,0,0,0
1682255180.10037112,99328586,1000,1000,1000,1000,0,0,0,0,0,0,0,0,0,0
1682255180.20033097,99428546,1000,1000,1000,1000,0,0,0,0,0,0,0,0,0,0
1682255180.30029106,99528506,1000,1000,1000,1000,0,0,0,0,0,0,0,0,0,0
1682255180.40025091,99628466,1000,1000,1000,1000,0,0,0,0,0,0,0,0,0,0
1682255180.50021100,99728426,1000,1000,1000,1000,0,0,0,0,0,0,0,0,0,0
1682255180.60017109,99828386,1000,1000,1000,1000,0,0,0,0,0,0,0,0,0,0
1682255180.70013094,99928346,1000,1000,1000,1000,0,0,0,0,0,0,0,0,0,0
1682255180.80009103,100028306,1000,1000,1000,1000,0,0,0,0,0,0,0,0,0,0
1682255180.90005112,100128266,1000,1000,1000,1000,0,0,0,0,0,0,0,0,0,0
1682255181.00001097,100228226,1000,1000,1000,1000,0,0,0,0,0,0,0,0,0,0
1682255181.09997106,100328186,1000,1000,1000,1000,0,0,0,0,0,0,0,0,0,0
1682255181.20076394,100428979,1000,1000,1000,1000,0,0,0,0,0,0,0,0,0,0
1682255181.30072403,100528939,1000,1000,1000,1000,0,0,0,0,0,0,0,0,0,0
1682255181.40068412,100628899,1000,1000,1000,1000,0,0,0,0,0,0,0,0,0,0
1682255181.50064397,100728859,1000,1000,1000,1000,0,0,0,0,0,0,0,0,0,0
1682255181.60060406,100828819,1000,1000,1000,1000,0,0,0,0,0,0,0,0,0,0
1682255181.70056391,100928779,1000,1000,1000,1000,0,0,0,0,0,0,0,0,0,0
1682255181.80052400,101028739,1000,1000,1000,1000,0,0,0,0,0,0,0,0,0,0
1682255181.90048409,101128699,1000,1000,1000,1000,0,0,0,0,0,0,0,0,0,0
1682255182.00044394,101228659,1000,1000,1000,1000,0,0,0,0,0,0,0,0,0,0
1682255182.10040402,101328619,1000,1000,1000,1000,0,0,0,0,0,0,0,0,0,0
1682255182.20036411,101428579,1000,1000,1000,1000,0,0,0,0,0,0,0,0,0,0
1682255182.30032396,101528539,1000,1000,1000,1000,0,0,0,0,0,0,0,0,0,0
1682255182.40028405,101628499,1000,1000,1000,1000,0,0,0,0,0,0,0,0,0,0
1682255182.50024390,101728459,1000,1000,1000,1000,0,0,0,0,0,0,0,0,0,0
1682255182.60020399,101828419,1000,1000,1000,1000,0,0,0,0,0,0,0,0,0,0
1682255182.70016408,101928379,1000,1000,1000,1000,0,0,0,0,0,0,0,0,0,0
1682255182.80012393,102028339,1000,1000,1000,1000,0,0,0,0,0,0,0,0,0,0
1682255182.90008402,102128299,1000,1000,1000,1000,0,0,0,0,0,0,0,0,0,0
1682255183.00004411,102228259,1000,1000,1000,1000,0,0,0,0,0,0,0,0,0,0
1682255183.10000396,102328219,1000,1000,1000,1000,0,0,0,0,0,0,0,0,0,0
1682255183.19996405,102428179,1000,1000,1000,1000,0,0,0,0,0,0,0,0,0,0
1682255183.30075693,102528972,1000,1000,1000,1000,0,0,0,0,0,0,0,0,0,0
1682255183.40071702,102628932,1000,1000,1000,1000,0,0,0,0,0,0,0,0,0,0
1682255183.50067711,102728892,1000,1000,1000,1000,0,0,0,0,0,0,0,0,0,0
1682255183.60063696,102828852,1000,1000,1000,1000,0,0,0,0,0,0,0,0,0,0
1682255183.70059705,102928812,1000,1000,1000,1000,0,0,0,0,0,0,0,0,0,0
1682255183.80055714,103028772,1000,1000,1000,1000,0,0,0,0,0,0,0,0,0,0
1682255183.90051699,103128732,1000,1000,1000,1000,0,0,0,0,0,0,0,0,0,0
1682255184.00047708,103228692,1000,1000,1000,1000,0,0,0,0,0,0,0,0,0,0
1682255184.10043693,103328652,1000,1000,1000,1000,0,0,0,0,0,0,0,0,0,0
1682255184.20039701,103428612,1000,1000,1000,1000,0,0,0,0,0,0,0,0,0,0
1682255184.30035710,103528572,1000,1000,1000,1000,0,0,0,0,0,0,0,0,0,0
1682255184.40031695,103628532,1000,1000,1000,1000,0,0,0,0,0,0,0,0,0,0
1682255184.50027704,103728492,1000,1000,1000,1000,0,0,0,0,0,0,0,0,0,0
1682255184.60023713,103828452,1000,1000,1000,1000,0,0,0,0,0,0,0,0,0,0
1682255184.70019698,103928412,1000,1000,1000,1000,0,0,0,0,0,0,0,0,0,0
1682255184.80015707,104028372,1000,1000,1000,1000,0,0,0,0,0,0,0,0,0,0
1682255184.90011692,104128332,1000,1000,1000,1000,0,0,0,0,0,0,0,0,0,0
1682255185.00007701,104228292,1000,1000,1000,1000,0,0,0,0,0,0,0,0,0,0
1682255185.10003710,104328252,1000,1000,1000,1000,0,0,0,0,0,0,0,0,0,0
1682255185.19999695,104428212,1000,1000,1000,1000,0,0,0,0,0,0,0,0,0,0
1682255185.29995704,104528172,1000,1000,1000,1000,0,0,0,0,0,0,0,0,0,0
1682255185.40074992,104628965,1000,1000,1000,1000,0,0,0,0,0,0,0,0,0,0
1682255185.50071001,104728925,1000,1000,1000,1000,0,0,0,0,0,0,0,0,0,0
1682255185.60067010,104828885,1000,1000,1000,1000,0,0,0,0,0,0,0,0,0,0
1682255185.70062995,104928845,1000,1000,1000,1000,0,0,0,0,0,0,0,0,0,0
1682255185.80059004,105028805,1000,1000,1000,1000,0,0,0,0,0,0,0,0,0,0
1682255185.90055013,105128765,1000,1000,1000,1000,0,0,0,0,0,0,0,0,0,0
1682255186.00050998,105228725,1000,1000,1000,1000,0,0,0,0,0,0,0,0,0,0
1682255186.10047007,105328685,1000,1000,1000,1000,0,0,0,0,0,0,0,0,0,0
1682255186.20042992,105428645,1000,1000,1000,1000,0,0,0,0,0,0,0,0,0,0
1682255186.30039001,105528605,1000,1000,1000,1000,0,0,0,0,0,0,0,0,0,0
1682255186.40035009,105628565,1000,1000,1000,1000,0,0,0,0,0,0,0,0,0,0
1682255186.50030994,105728525,1000,1000,1000,1000,0,0,0,0,0,0,0,0,0,0
1682255186.60027003,105828485,1000,1000,1000,1000,0,0,0,0,0,0,0,0,0,0
1682255186.70023012,105928445,1000,1000,1000,1000,0,0,0,0,0,0,0,0,0,0
1682255186.80018997,106028405,1000,1000,1000,1000,0,0,0,0,0,0,0,0,0,0
1682255186.90015006,106128365,1000,1000,1000,1000,0,0,0,0,0,0,0,0,0,0
1682255187.00010991,106228325,1000,1000,1000,1000,0,0,0,0,0,0,0,0,0,0
1682255187.10007000,106328285,1000,1000,1000,1000,0,0,0,0,0,0,0,0,0,0
1682255187.20003009,106428245,1000,1000,1000,1000,0,0,0,0,0,0,0,0,0,0
1682255187.29998994,106528205,1000,1000,1000,1000,0,0,0,0,0,0,0,0,0,0
1682255187.39995003,106628165,1000,1000,1000,1000,0,0,0,0,0,0,0,0,0,0
1682255187.50074291,106728958,1000,1000,1000,1000,0,0,0,0,0,0,0,0,0,0
1682255187.60070300,106828918,1000,1000,1000,1000,0,0,0,0,0,0,0,0,0,0
1682255187.70066309,106928878,1000,1000,1000,1000,0,0,0,0,0,0,0,0,0,0
1682255187.80062294,107028838,1000,1000,1000,1000,0,0,0,0,0,0,0,0,0,0
1682255187.90058303,107128798,1000,1000,1000,1000,0,0,0,0,0,0,0,0,0,0
1682255188.00054312,107228758,1000,1000,1000,1000,0,0,0,0,0,0,0,0,0,0
1682255188.10050297,107328718,1000,1000,1000,1000,0,0,0,0,0,0,0,0,0,0
1682255188.20046306,107428678,1000,1000,1000,1000,0,0,0,0,0,0,0,0,0,0
1682255188.30042291,107528638,1000,1000,1000,1000,0,0,0,0,0,0,0,0,0,0
1682255188.40038300,107628598,1000,1000,1000,1000,0,0,0,0,0,0,0,0,0,0
1682255188.50034308,107728558,1000,1000,1000,1000,0,0,0,0,0,0,0,0,0,0
1682255188.60030293,107828518,1000,1000,1000,1000,0,0,0,0,0,0,0,0,0,0
1682255188.70026302,107928478,1000,1000,1000,1000,0,0,0,0,0,0,0,0,0,0
1682255188.80022311,108028438,1000,1000,1000,1000,0,0,0,0,0,0,0,0,0,0
1682255188.90018296,108128398,1000,1000,1000,1000,0,0,0,0,0,0,0,0,0,0
1682255189.00014305,108228358,1000,1000,1000,1000,0,0,0,0,0,0,0,0,0,0
1682255189.10010314,108328318,1000,1000,1000,1000,0,0,0,0,0,0,0,0,0,0
1682255189.20006299,108428278,1000,1000,1000,1000,0,0,0,0,0,0,0,0,0,0
1682255189.30002308,108528238,1000,1000,1000,1000,0,0,0,0,0,0,0,0,0,0
1682255189.39998293,108628198,1000,1000,1000,1000,0,0,0,0,0,0,0,0,0,0
1682255189.49994302,108728158,1000,1000,1000,1000,0,0,0,0,0,0,0,0,0,0
1682255189.60073590,108828951,1000,1000,1000,1000,0,0,0,0,0,0,0,0,0,0
1682255189.70069599,108928911,1000,1000,1000,1000,0,0,0,0,0,0,0,0,0,0
1682255189.80065608,109028871,1000,1000,1000,1000,0,0,0,0,0,0,0,0,0,0
1682255189.90061593,109128831,1000,1000,1000,1000,0,0,0,0,0,0,0,0,0,0
1682255190.00057602,109228791,1000,1000,1000,1000,0,0,0,0,0,0,0,0,0,0
1682255190.10053611,109328751,1000,1000,1000,1000,0,0,0,0,0,0,0,0,0,0
1682255190.20049596,109428711,1000,1000,1000,1000,0,0,0,0,0,0,0,0,0,0
1682255190.30045605,109528671,1000,1000,1000,1000,0,0,0,0,0,0,0,0,0,0
1682255190.40041614,109628631,1000,1000,1000,1000,0,0,0,0,0,0,0,0,0,0
1682255190.50037599,109728591,1000,1000,1000,1000,0,0,0,0,0,0,0,0,0,0
1682255190.60033607,109828551,1000,1000,1000,1000,0,0,0,0,0,0,0,0,0,0
1682255190.70029593,109928511,1000,1000,1000,1000,0,0,0,0,0,0,0,0,0,0
1682255190.80025601,110028471,1000,1000,1000,1000,0,0,0,0,0,0,0,0,0,0
1682255190.90021610,110128431,1000,1000,1000,1000,0,0,0,0,0,0,0,0,0,0
1682255191.00017595,110228391,1000,1000,1000,1000,0,0,0,0,0,0,0,0,0,0
1682255191.10013604,110328351,1000,1000,1000,1000,0,0,0,0,0,0,0,0,0,0
1682255191.20009613,110428311,1000,1000,1000,1000,0,0,0,0,0,0,0,0,0,0
1682255191.30005598,110528271,1000,1000,1000,1000,0,0,0,0,0,0,0,0,0,0
1682255191.40001607,110628231,1000,1000,1000,1000,0,0,0,0,0,0,0,0,0,0
1682255191.49997592,110728191,1000,1000,1000,1000,0,0,0,0,0,0,0,0,0,0
1682255191.60076904,110828984,1000,1000,1000,1000,0,0,0,0,0,0,0,0,0,0
1682255191.70072913,110928944,1000,1000,1000,1000,0,0,0,0,0,0,0,0,0,0
1682255191.80068898,111028904,1000,1000,1000,1000,0,0,0,0,0,0,0,0,0,0
1682255191.90064907,111128864,1000,1000,1000,1000,0,0,0,0,0,0,0,0,0,0
1682255192.00060892,111228824,1000,1000,1000,1000,0,0,0,0,0,0,0,0,0,0
1682255192.10056901,111328784,1000,1000,1000,1000,0,0,0,0,0,0,0,0,0,0
1682255192.20052910,111428744,1000,1000,1000,1000,0,0,0,0,0,0,0,0,0,0
1682255192.30048895,111528704,1000,1000,1000,1000,0,0,0,0,0,0,0,0,0,0
1682255192.40044904,111628664,1000,1000,1000,1000,0,0,0,0,0,0,0,0,0,0
1682255192.50040913,111728624,1000,1000,1000,1000,0,0,0,0,0,0,0,0,0,0
1682255192.60036898,111828584,1000,1000,1000,1000,0,0,0,0,0,0,0,0,0,0
1682255192.70032907,111928544,1000,1000,1000,1000,0,0,0,0,0,0,0,0,0,0
1682255192.80028892,112028504,1000,1000,1000,1000,0,0,0,0,0,0,0,0,0,0
1682255192.90024900,112128464,1000,1000,1000,1000,0,0,0,0,0,0,0,0,0,0
1682255193.00020909,112228424,1000,1000,1000,1000,0,0,0,0,0,0,0,0,0,0
1682255193.10016894,112328384,1000,1000,1000,1000,0,0,0,0,0,0,0,0,0,0
1682255193.20012903,112428344,1000,1000,1000,1000,0,0,0,0,0,0,0,0,0,0
1682255193.30008912,112528304,1000,1000,1000,1000,0,0,0,0,0,0,0,0,0,0
1682255193.40004897,112628264,1000,1000,1000,1000,0,0,0,0,0,0,0,0,0,0
1682255193.50000906,112728224,1000,1000,1000,1000,0,0,0,0,0,0,0,0,0,0
1682255193.59996891,112828184,1000,1000,1000,1000,0,0,0,0,0,0,0,0,0,0
1682255193.70076203,112928977,1000,1000,1000,1000,0,0,0,0,0,0,0,0,0,0
1682255193.80072212,113028937,1000,1000,1000,1000,0,0,0,0,0,0,0,0,0,0
1682255193.90068197,113128897,1000,1000,1000,1000,0,0,0,0,0,0,0,0,0,0
1682255194.00064206,113228857,1000,1000,1000,1000,0,0,0,0,0,0,0,0,0,0
1682255194.10060191,113328817,1000,1000,1000,1000,0,0,0,0,0,0,0,0,0,0
1682255194.20056200,113428777,1000,1000,1000,1000,0,0,0,0,0,0,0,0,0,0
1682255194.30052209,113528737,1000,1000,1000,1000,0,0,0,0,0,0,0,0,0,0
1682255194.40048194,113628697,1000,1000,1000,1000,0,0,0,0,0,0,0,0,0,0
1682255194.50044203,113728657,1000,1000,1000,1000,0,0,0,0,0,0,0,0,0,0
1682255194.60040212,113828617,1000,1000,1000,1000,0,0,0,0,0,0,0,0,0,0
1682255194.70036197,113928577,1000,1000,1000,1000,0,0,0,0,0,0,0,0,0,0
