TimeUS,M1,M2,M3,M4,TimeUS,C1,C2,C3,C4
51616012,1000,1000,1000,1000,51628507,1000,1000,1000,1000
51618511,1000,1000,1000,1000,51728467,1000,1000,1000,1000
51621010,1000,1000,1000,1000,51828427,1000,1000,1000,1000
51623509,1000,1000,1000,1000,51928387,1000,1000,1000,1000
51626008,1000,1000,1000,1000,52028347,1000,1000,1000,1000
51628507,1000,1000,1000,1000,52128307,1000,1000,1000,1000
51631006,1000,1000,1000,1000,52228267,1000,1000,1000,1000
51633505,1000,1000,1000,1000,52328227,1000,1000,1000,1000
51636004,1000,1000,1000,1000,52428187,1000,1000,1000,1000
51638503,1000,1000,1000,1000,52528980,1000,1000,1000,1000
51641002,1000,1000,1000,1000,52628940,1000,1000,1000,1000
51643501,1000,1000,1000,1000,52728900,1000,1000,1000,1000
51646000,1000,1000,1000,1000,52828860,1000,1000,1000,1000
51648499,1000,1000,1000,1000,52928820,1000,1000,1000,1000
51650998,1000,1000,1000,1000,53028780,1000,1000,1000,1000
51653497,1000,1000,1000,1000,53128740,1000,1000,1000,1000
51655996,1000,1000,1000,1000,53228700,1000,1000,1000,1000
51658495,1000,1000,1000,1000,53328660,1000,1000,1000,1000
51660994,1000,1000,1000,1000,53428620,1000,1000,1000,1000
51663493,1000,1000,1000,1000,53528580,1000,1000,1000,1000
51665992,1000,1000,1000,1000,53628540,1003,1003,1003,1003
51668491,1000,1000,1000,1000,53728500,1033,1033,1033,1033
51670990,1000,1000,1000,1000,53828460,1063,1063,1063,1063
51673489,1000,1000,1000,1000,53928420,1093,1093,1093,1093
51675988,1000,1000,1000,1000,54028380,1123,1123,1123,1123
51678487,1000,1000,1000,1000,54128340,1185,1177,1178,1186
51680986,1000,1000,1000,1000,54228300,1425,1419,1419,1425
51683485,1000,1000,1000,1000,54328260,1599,1594,1594,1599
51685984,1000,1000,1000,1000,54428220,1743,1739,1739,1743
51688483,1000,1000,1000,1000,54528180,1869,1865,1865,1870
51690982,1000,1000,1000,1000,54628973,1889,1885,1885,1889
51693481,1000,1000,1000,1000,54728933,1795,1794,1794,1795
51695980,1000,1000,1000,1000,54828893,1679,1680,1680,1679
51698479,1000,1000,1000,1000,54928853,1631,1633,1633,1631
51700978,1000,1000,1000,1000,55028813,1631,1633,1633,1631
51703477,1000,1000,1000,1000,55128773,1634,1634,1629,1639
51705976,1000,1000,1000,1000,55228733,1634,1635,1629,1640
51708475,1000,1000,1000,1000,55328693,1629,1630,1626,1632
51710974,1000,1000,1000,1000,55428653,1624,1624,1624,1623
51713473,1000,1000,1000,1000,55528613,1620,1620,1623,1617
51715972,1000,1000,1000,1000,55628573,1619,1618,1623,1614
51718471,1000,1000,1000,1000,55728533,1620,1619,1623,1616
51720970,1000,1000,1000,1000,55828493,1617,1617,1620,1614
51723469,1000,1000,1000,1000,55928453,1587,1587,1597,1578
51725968,1000,1000,1000,1000,56028413,1573,1574,1580,1568
51728467,1000,1000,1000,1000,56128373,1562,1563,1562,1563
51730966,1000,1000,1000,1000,56228333,1553,1553,1548,1558
51733465,1000,1000,1000,1000,56328293,1546,1545,1537,1555
51735964,1000,1000,1000,1000,56428253,1540,1540,1531,1549
51738463,1000,1000,1000,1000,56528213,1533,1532,1527,1538
51740962,1000,1000,1000,1000,56628173,1528,1528,1526,1529
51743461,1000,1000,1000,1000,56728966,1526,1526,1526,1525
51745960,1000,1000,1000,1000,56828926,1527,1527,1528,1525
51748459,1000,1000,1000,1000,56928886,1530,1530,1533,1527
51750958,1000,1000,1000,1000,57028846,1533,1533,1536,1530
51753457,1000,1000,1000,1000,57128806,1536,1536,1538,1534
51755956,1000,1000,1000,1000,57228766,1540,1541,1542,1539
51758455,1000,1000,1000,1000,57328726,1544,1544,1545,1543
51760954,1000,1000,1000,1000,57428686,1547,1547,1547,1547
51763453,1000,1000,1000,1000,57528646,1550,1550,1550,1550
51765952,1000,1000,1000,1000,57628606,1552,1552,1552,1553
51768451,1000,1000,1000,1000,57728566,1555,1554,1554,1557
51770950,1000,1000,1000,1000,57828526,1556,1555,1559,1561
51773449,1000,1000,1000,1000,57928486,1556,1557,1561,1563
51775948,1000,1000,1000,1000,58028446,1559,1559,1564,1565
51778447,1000,1000,1000,1000,58128406,1561,1561,1566,1565
51780946,1000,1000,1000,1000,58228366,1563,1563,1566,1566
51783445,1000,1000,1000,1000,58328326,1566,1566,1567,1567
51785944,1000,1000,1000,1000,58428286,1567,1568,1567,1566
51788443,1000,1000,1000,1000,58528246,1569,1569,1567,1567
51790942,1000,1000,1000,1000,58628206,1571,1571,1567,1567
51793441,1000,1000,1000,1000,58728166,1571,1571,1567,1568
51795940,1000,1000,1000,1000,58828959,1573,1572,1568,1568
51798439,1000,1000,1000,1000,58928919,1573,1573,1570,1569
51800938,1000,1000,1000,1000,59028879,1572,1573,1569,1570
51803437,1000,1000,1000,1000,59128839,1574,1574,1572,1572
51805936,1000,1000,1000,1000,59228799,1575,1574,1574,1573
51808435,1000,1000,1000,1000,59328759,1575,1575,1575,1573
51810934,1000,1000,1000,1000,59428719,1574,1574,1575,1574
51813433,1000,1000,1000,1000,59528679,1575,1575,1576,1575
51815932,1000,1000,1000,1000,59628639,1575,1575,1576,1576
51818431,1000,1000,1000,1000,59728599,1575,1575,1577,1576
51820930,1000,1000,1000,1000,59828559,1576,1576,1577,1577
51823429,1000,1000,1000,1000,59928519,1576,1576,1577,1578
51825928,1000,1000,1000,1000,60028479,1576,1576,1576,1577
51828427,1000,1000,1000,1000,60128439,1576,1575,1576,1576
51830926,1000,1000,1000,1000,60228399,1576,1576,1576,1576
51833425,1000,1000,1000,1000,60328359,1576,1577,1577,1577
51835924,1000,1000,1000,1000,60428319,1577,1578,1578,1577
51838423,1000,1000,1000,1000,60528279,1578,1578,1578,1577
51840922,1000,1000,1000,1000,60628239,1579,1579,1578,1579
51843421,1000,1000,1000,1000,60728199,1579,1579,1578,1579
51845920,1000,1000,1000,1000,60828159,1579,1578,1578,1578
51848419,1000,1000,1000,1000,60928952,1577,1578,1577,1577
51850918,1000,1000,1000,1000,61028912,1578,1579,1578,1578
51853417,1000,1000,1000,1000,61128872,1579,1579,1579,1579
51855916,1000,1000,1000,1000,61228832,1578,1578,1578,1578
51858415,1000,1000,1000,1000,61328792,1579,1578,1578,1579
51860914,1000,1000,1000,1000,61428752,1578,1578,1578,1578
51863413,1000,1000,1000,1000,61528712,1578,1578,1578,1578
51865912,1000,1000,1000,1000,61628672,1578,1578,1578,1578
51868411,1000,1000,1000,1000,61728632,1579,1579,1579,1580
51870910,1000,1000,1000,1000,61828592,1578,1579,1579,1579
51873409,1000,1000,1000,1000,61928552,1580,1579,1579,1580
51875908,1000,1000,1000,1000,62028512,1579,1579,1579,1579
51878407,1000,1000,1000,1000,62128472,1580,1580,1580,1580
51880906,1000,1000,1000,1000,62228432,1580,1580,1580,1580
51883405,1000,1000,1000,1000,62328392,1579,1580,1580,1580
51885904,1000,1000,1000,1000,62428352,1580,1580,1580,1579
51888403,1000,1000,1000,1000,62528312,1580,1579,1579,1580
51890902,1000,1000,1000,1000,62628272,1580,1579,1579,1580
51893401,1000,1000,1000,1000,62728232,1580,1580,1580,1580
51895900,1000,1000,1000,1000,62828192,1580,1580,1580,1579
51898399,1000,1000,1000,1000,62928985,1580,1581,1581,1580
51900898,1000,1000,1000,1000,63028945,1580,1580,1580,1579
51903397,1000,1000,1000,1000,63128905,1580,1580,1580,1580
51905896,1000,1000,1000,1000,63228865,1580,1580,1580,1580
51908395,1000,1000,1000,1000,63328825,1581,1580,1580,1581
51910894,1000,1000,1000,1000,63428785,1581,1581,1581,1581
51913393,1000,1000,1000,1000,63528745,1581,1580,1581,1581
51915892,1000,1000,1000,1000,63628705,1581,1580,1580,1580
51918391,1000,1000,1000,1000,63728665,1580,1580,1580,1580
51920890,1000,1000,1000,1000,63828625,1581,1581,1581,1581
51923389,1000,1000,1000,1000,63928585,1580,1580,1582,1578
51925888,1000,1000,1000,1000,64028545,1580,1582,1588,1573
51928387,1000,1000,1000,1000,64128505,1580,1582,1583,1573
51930886,1000,1000,1000,1000,64228465,1578,1581,1575,1573
51933385,1000,1000,1000,1000,64328425,1578,1580,1567,1572
51935884,1000,1000,1000,1000,64428385,1576,1579,1559,1567
51938383,1000,1000,1000,1000,64528345,1578,1578,1556,1562
51940882,1000,1000,1000,1000,64628305,1578,1577,1555,1557
51943381,1000,1000,1000,1000,64728265,1579,1578,1555,1555
51945880,1000,1000,1000,1000,64828225,1579,1578,1556,1554
51948379,1000,1000,1000,1000,64928185,1578,1578,1556,1554
51950878,1000,1000,1000,1000,65028978,1577,1578,1556,1554
51953377,1000,1000,1000,1000,65128938,1576,1577,1555,1554
51955876,1000,1000,1000,1000,65228898,1574,1576,1553,1553
51958375,1000,1000,1000,1000,65328858,1574,1576,1552,1553
51960874,1000,1000,1000,1000,65428818,1576,1578,1552,1552
51963373,1000,1000,1000,1000,65528778,1577,1578,1550,1550
51965872,1000,1000,1000,1000,65628738,1579,1580,1548,1548
51968371,1000,1000,1000,1000,65728698,1582,1582,1545,1545
51970870,1000,1000,1000,1000,65828658,1584,1585,1542,1541
51973369,1000,1000,1000,1000,65928618,1588,1588,1540,1539
51975868,1000,1000,1000,1000,66028578,1590,1590,1536,1536
51978367,1000,1000,1000,1000,66128538,1593,1593,1535,1536
51980866,1000,1000,1000,1000,66228498,1594,1594,1534,1535
51983365,1000,1000,1000,1000,66328458,1595,1595,1535,1537
51985864,1000,1000,1000,1000,66428418,1593,1594,1536,1538
51988363,1000,1000,1000,1000,66528378,1592,1591,1540,1543
51990862,1000,1000,1000,1000,66628338,1588,1586,1546,1549
51993361,1000,1000,1000,1000,66728298,1582,1579,1555,1558
51995860,1000,1000,1000,1000,66828258,1573,1569,1566,1568
51998359,1000,1000,1000,1000,66928218,1562,1558,1577,1579
52000858,1000,1000,1000,1000,67028178,1551,1548,1590,1591
52003357,1000,1000,1000,1000,67128971,1541,1539,1601,1601
52005856,1000,1000,1000,1000,67228931,1532,1533,1609,1608
52008355,1000,1000,1000,1000,67328891,1529,1530,1614,1613
52010854,1000,1000,1000,1000,67428851,1529,1532,1616,1615
52013353,1000,1000,1000,1000,67528811,1533,1535,1614,1614
52015852,1000,1000,1000,1000,67628771,1539,1541,1608,1609
52018351,1000,1000,1000,1000,67728731,1546,1548,1601,1602
52020850,1000,1000,1000,1000,67828691,1555,1557,1594,1594
52023349,1000,1000,1000,1000,67928651,1565,1565,1587,1586
52025848,1000,1000,1000,1000,68028611,1573,1572,1580,1579
52028347,1000,1000,1000,1000,68128571,1579,1578,1574,1573
52030846,1000,1000,1000,1000,68228531,1585,1583,1570,1569
52033345,1000,1000,1000,1000,68328491,1586,1585,1566,1566
52035844,1000,1000,1000,1000,68428451,1587,1586,1565,1566
52038343,1000,1000,1000,1000,68528411,1587,1586,1566,1567
52040842,1000,1000,1000,1000,68628371,1586,1585,1569,1569
52043341,1000,1000,1000,1000,68728331,1582,1582,1570,1571
52045840,1000,1000,1000,1000,68828291,1579,1580,1574,1574
52048339,1000,1000,1000,1000,68928251,1578,1579,1579,1578
52050838,1000,1000,1000,1000,69028211,1576,1576,1581,1580
52053337,1000,1000,1000,1000,69128171,1574,1574,1583,1582
52055836,1000,1000,1000,1000,69228964,1573,1574,1584,1584
52058335,1000,1000,1000,1000,69328924,1573,1574,1584,1584
52060834,1000,1000,1000,1000,69428884,1573,1574,1584,1584
52063333,1000,1000,1000,1000,69528844,1573,1574,1583,1583
52065832,1000,1000,1000,1000,69628804,1575,1575,1582,1582
52068331,1000,1000,1000,1000,69728764,1576,1576,1580,1580
52070830,1000,1000,1000,1000,69828724,1577,1577,1579,1579
52073329,1000,1000,1000,1000,69928684,1579,1579,1579,1579
52075828,1000,1000,1000,1000,70028644,1579,1580,1577,1577
52078327,1000,1000,1000,1000,70128604,1581,1580,1577,1577
52080826,1000,1000,1000,1000,70228564,1604,1578,1599,1575
52083325,1000,1000,1000,1000,70328524,1600,1580,1597,1575
52085824,1000,1000,1000,1000,70428484,1597,1585,1593,1581
52088323,1000,1000,1000,1000,70528444,1590,1587,1588,1585
52090822,1000,1000,1000,1000,70628404,1583,1587,1582,1586
52093321,1000,1000,1000,1000,70728364,1578,1585,1578,1586
52095820,1000,1000,1000,1000,70828324,1576,1583,1577,1584
52098319,1000,1000,1000,1000,70928284,1575,1580,1577,1582
52100818,1000,1000,1000,1000,71028244,1576,1578,1579,1580
52103317,1000,1000,1000,1000,71128204,1579,1578,1581,1580
52105816,1000,1000,1000,1000,71228164,1581,1579,1582,1580
52108315,1000,1000,1000,1000,71328957,1581,1578,1581,1579
52110814,1000,1000,1000,1000,71428917,1581,1579,1581,1579
52113313,1000,1000,1000,1000,71528877,1580,1580,1580,1580
52115812,1000,1000,1000,1000,71628837,1580,1580,1579,1579
52118311,1000,1000,1000,1000,71728797,1580,1581,1579,1580
52120810,1000,1000,1000,1000,71828757,1580,1581,1578,1579
52123309,1000,1000,1000,1000,71928717,1580,1580,1578,1578
52125808,1000,1000,1000,1000,72028677,1580,1582,1585,1570
52128307,1000,1000,1000,1000,72128637,1580,1583,1581,1569
52130806,1000,1000,1000,1000,72228597,1579,1582,1573,1570
52133305,1000,1000,1000,1000,72328557,1577,1580,1563,1568
52135804,1000,1000,1000,1000,72428517,1577,1579,1557,1564
52138303,1000,1000,1000,1000,72528477,1579,1578,1554,1560
52140802,1000,1000,1000,1000,72628437,1579,1578,1552,1556
52143301,1000,1000,1000,1000,72728397,1580,1579,1553,1554
52145800,1000,1000,1000,1000,72828357,1580,1578,1553,1552
52148299,1000,1000,1000,1000,72928317,1578,1578,1554,1551
52150798,1000,1000,1000,1000,73028277,1576,1577,1553,1550
52153297,1000,1000,1000,1000,73128237,1576,1578,1554,1553
52155796,1000,1000,1000,1000,73228197,1576,1578,1553,1553
52158295,1000,1000,1000,1000,73328157,1576,1577,1552,1552
52160794,1000,1000,1000,1000,73428950,1577,1578,1551,1551
52163293,1000,1000,1000,1000,73528910,1578,1579,1549,1549
52165792,1000,1000,1000,1000,73628870,1579,1580,1548,1547
52168291,1000,1000,1000,1000,73728830,1582,1583,1546,1546
52170790,1000,1000,1000,1000,73828790,1584,1585,1544,1544
52173289,1000,1000,1000,1000,73928750,1586,1586,1541,1542
52175788,1000,1000,1000,1000,74028710,1589,1589,1541,1542
52178287,1000,1000,1000,1000,74128670,1590,1591,1540,1541
52180786,1000,1000,1000,1000,74228630,1592,1592,1540,1541
52183285,1000,1000,1000,1000,74328590,1592,1592,1542,1543
52185784,1000,1000,1000,1000,74428550,1590,1590,1544,1546
52188283,1000,1000,1000,1000,74528510,1586,1584,1549,1552
52190782,1000,1000,1000,1000,74628470,1582,1578,1557,1560
52193281,1000,1000,1000,1000,74728430,1574,1570,1567,1569
52195780,1000,1000,1000,1000,74828390,1566,1562,1578,1580
52198279,1000,1000,1000,1000,74928350,1556,1552,1589,1589
52200778,1000,1000,1000,1000,75028310,1546,1545,1598,1597
52203277,1000,1000,1000,1000,75128270,1540,1540,1605,1604
52205776,1000,1000,1000,1000,75228230,1536,1537,1608,1608
52208275,1000,1000,1000,1000,75328190,1535,1538,1610,1609
52210774,1000,1000,1000,1000,75428983,1539,1541,1608,1608
52213273,1000,1000,1000,1000,75528943,1543,1545,1604,1604
52215772,1000,1000,1000,1000,75628903,1551,1552,1600,1599
52218271,1000,1000,1000,1000,75728863,1559,1559,1595,1593
52220770,1000,1000,1000,1000,75828823,1566,1566,1588,1587
52223269,1000,1000,1000,1000,75928783,1573,1573,1582,1582
52225768,1000,1000,1000,1000,76028743,1578,1578,1576,1576
52228267,1000,1000,1000,1000,76128703,1582,1582,1572,1572
52230766,1000,1000,1000,1000,76228663,1585,1584,1570,1570
52233265,1000,1000,1000,1000,76328623,1586,1584,1568,1569
52235764,1000,1000,1000,1000,76428583,1586,1585,1569,1570
52238263,1000,1000,1000,1000,76528543,1585,1584,1570,1571
52240762,1000,1000,1000,1000,76628503,1582,1581,1572,1572
52243261,1000,1000,1000,1000,76728463,1580,1580,1575,1574
52245760,1000,1000,1000,1000,76828423,1578,1578,1577,1577
52248259,1000,1000,1000,1000,76928383,1576,1577,1580,1580
52250758,1000,1000,1000,1000,77028343,1575,1575,1582,1582
52253257,1000,1000,1000,1000,77128303,1575,1575,1583,1583
52255756,1000,1000,1000,1000,77228263,1574,1574,1584,1584
52258255,1000,1000,1000,1000,77328223,1574,1574,1584,1583
52260754,1000,1000,1000,1000,77428183,1573,1574,1582,1582
52263253,1000,1000,1000,1000,77528976,1575,1576,1582,1582
52265752,1000,1000,1000,1000,77628936,1577,1577,1581,1581
52268251,1000,1000,1000,1000,77728896,1578,1578,1580,1580
52270750,1000,1000,1000,1000,77828856,1579,1579,1580,1579
52273249,1000,1000,1000,1000,77928816,1579,1579,1578,1578
52275748,1000,1000,1000,1000,78028776,1581,1580,1578,1578
52278247,1000,1000,1000,1000,78128736,1580,1580,1577,1577
52280746,1000,1000,1000,1000,78228696,1581,1581,1577,1578
52283245,1000,1000,1000,1000,78328656,1582,1582,1579,1579
52285744,1000,1000,1000,1000,78428616,1581,1581,1579,1579
52288243,1000,1000,1000,1000,78528576,1582,1582,1580,1580
52290742,1000,1000,1000,1000,78628536,1581,1581,1580,1580
52293241,1000,1000,1000,1000,78728496,1581,1581,1580,1580
52295740,1000,1000,1000,1000,78828456,1581,1581,1581,1581
52298239,1000,1000,1000,1000,78928416,1581,1581,1582,1582
52300738,1000,1000,1000,1000,79028376,1580,1581,1582,1581
52303237,1000,1000,1000,1000,79128336,1580,1580,1581,1581
52305736,1000,1000,1000,1000,79228296,1580,1580,1581,1581
52308235,1000,1000,1000,1000,79328256,1581,1581,1582,1582
52310734,1000,1000,1000,1000,79428216,1580,1580,1581,1581
52313233,1000,1000,1000,1000,79528176,1581,1581,1581,1581
52315732,1000,1000,1000,1000,79628969,1580,1580,1581,1581
52318231,1000,1000,1000,1000,79728929,1581,1580,1580,1581
52320730,1000,1000,1000,1000,79828889,1582,1581,1581,1581
52323229,1000,1000,1000,1000,79928849,1581,1581,1581,1580
52325728,1000,1000,1000,1000,80028809,1581,1582,1581,1581
52328227,1000,1000,1000,1000,80128769,1581,1582,1582,1581
52330726,1000,1000,1000,1000,80228729,1580,1583,1588,1573
52333225,1000,1000,1000,1000,80328689,1579,1582,1583,1572
52335724,1000,1000,1000,1000,80428649,1578,1581,1574,1572
52338223,1000,1000,1000,1000,80528609,1577,1580,1566,1570
52340722,1000,1000,1000,1000,80628569,1577,1579,1559,1567
52343221,1000,1000,1000,1000,80728529,1578,1578,1555,1562
52345720,1000,1000,1000,1000,80828489,1579,1578,1554,1557
52348219,1000,1000,1000,1000,80928449,1580,1578,1554,1555
52350718,1000,1000,1000,1000,81028409,1580,1579,1556,1553
52353217,1000,1000,1000,1000,81128369,1579,1579,1556,1554
52355716,1000,1000,1000,1000,81228329,1577,1578,1556,1553
52358215,1000,1000,1000,1000,81328289,1576,1578,1555,1554
52360714,1000,1000,1000,1000,81428249,1576,1577,1555,1555
52363213,1000,1000,1000,1000,81528209,1576,1577,1554,1554
52365712,1000,1000,1000,1000,81628169,1576,1577,1553,1553
52368211,1000,1000,1000,1000,81728962,1577,1577,1551,1551
52370710,1000,1000,1000,1000,81828922,1578,1579,1548,1548
52373209,1000,1000,1000,1000,81928882,1580,1581,1545,1546
52375708,1000,1000,1000,1000,82028842,1582,1584,1543,1543
52378207,1000,1000,1000,1000,82128802,1586,1586,1541,1541
52380706,1000,1000,1000,1000,82228762,1588,1588,1539,1539
52383205,1000,1000,1000,1000,82328722,1591,1591,1538,1538
52385704,1000,1000,1000,1000,82428682,1591,1592,1536,1537
52388203,1000,1000,1000,1000,82528642,1593,1593,1537,1538
52390702,1000,1000,1000,1000,82628602,1593,1593,1538,1541
52393201,1000,1000,1000,1000,82728562,1591,1589,1542,1544
52395700,1000,1000,1000,1000,82828522,1586,1584,1547,1549
52398199,1000,1000,1000,1000,82928482,1581,1577,1556,1559
52400698,1000,1000,1000,1000,83028442,1573,1569,1566,1569
52403197,1000,1000,1000,1000,83128402,1563,1558,1578,1579
52405696,1000,1000,1000,1000,83228362,1553,1550,1590,1591
52408195,1000,1000,1000,1000,83328322,1543,1542,1600,1600
52410694,1000,1000,1000,1000,83428282,1537,1537,1608,1607
52413193,1000,1000,1000,1000,83528242,1533,1534,1612,1611
52415692,1000,1000,1000,1000,83628202,1534,1535,1613,1612
52418191,1000,1000,1000,1000,83728162,1537,1539,1611,1611
52420690,1000,1000,1000,1000,83828955,1541,1544,1606,1606
52423189,1000,1000,1000,1000,83928915,1549,1550,1600,1600
52425688,1000,1000,1000,1000,84028875,1558,1558,1594,1594
52428187,1000,1000,1000,1000,84128835,1566,1566,1587,1587
52430686,1000,1000,1000,1000,84228795,1573,1573,1581,1580
52433185,1000,1000,1000,1000,84328755,1580,1579,1576,1575
52435684,1000,1000,1000,1000,84428715,1583,1582,1571,1571
52438183,1000,1000,1000,1000,84528675,1586,1584,1567,1568
52440682,1000,1000,1000,1000,84628635,1586,1585,1566,1566
52443181,1000,1000,1000,1000,84728595,1586,1584,1567,1568
52445680,1000,1000,1000,1000,84828555,1585,1584,1570,1570
52448179,1000,1000,1000,1000,84928515,1582,1582,1571,1571
52450678,1000,1000,1000,1000,85028475,1580,1580,1574,1574
52453177,1000,1000,1000,1000,85128435,1577,1577,1577,1576
52455676,1000,1000,1000,1000,85228395,1575,1575,1579,1579
52458175,1000,1000,1000,1000,85328355,1573,1573,1581,1580
52460674,1000,1000,1000,1000,85428315,1573,1573,1582,1582
52463173,1000,1000,1000,1000,85528275,1573,1573,1584,1583
52465672,1000,1000,1000,1000,85628235,1573,1573,1583,1583
52468171,1000,1000,1000,1000,85728195,1573,1573,1582,1582
52470670,1000,1000,1000,1000,85828155,1574,1575,1582,1582
52473169,1000,1000,1000,1000,85928948,1575,1575,1580,1580
52475668,1000,1000,1000,1000,86028908,1576,1576,1578,1579
52478167,1000,1000,1000,1000,86128868,1578,1578,1578,1579
52480666,1000,1000,1000,1000,86228828,1580,1580,1579,1579
52483165,1000,1000,1000,1000,86328788,1581,1581,1578,1578
52485664,1000,1000,1000,1000,86428748,1582,1581,1578,1578
52488163,1000,1000,1000,1000,86528708,1582,1581,1578,1578
52490662,1000,1000,1000,1000,86628668,1582,1581,1578,1578
52493161,1000,1000,1000,1000,86728628,1581,1582,1578,1578
52495660,1000,1000,1000,1000,86828588,1581,1581,1579,1579
52498159,1000,1000,1000,1000,86928548,1580,1580,1578,1578
52500658,1000,1000,1000,1000,87028508,1580,1580,1580,1580
52503157,1000,1000,1000,1000,87128468,1580,1580,1580,1581
52505656,1000,1000,1000,1000,87228428,1579,1579,1580,1580
52508155,1000,1000,1000,1000,87328388,1579,1579,1581,1580
52510654,1000,1000,1000,1000,87428348,1580,1580,1581,1581
52513986,1000,1000,1000,1000,87528308,1580,1580,1582,1582
52516485,1000,1000,1000,1000,87628268,1579,1580,1580,1581
52518984,1000,1000,1000,1000,87728228,1580,1580,1581,1581
52521483,1000,1000,1000,1000,87828188,1580,1579,1580,1580
52523982,1000,1000,1000,1000,87928981,1580,1581,1580,1581
52526481,1000,1000,1000,1000,88028941,1581,1582,1582,1581
52528980,1000,1000,1000,1000,88128901,1581,1582,1586,1575
52531479,1000,1000,1000,1000,88228861,1581,1582,1587,1572
52533978,1000,1000,1000,1000,88328821,1580,1580,1581,1575
52536477,1000,1000,1000,1000,88428781,1577,1577,1574,1576
52538976,1000,1000,1000,1000,88528741,1573,1572,1568,1575
52541475,1000,1000,1000,1000,88628701,1570,1570,1565,1573
52543974,1000,1000,1000,1000,88728661,1568,1568,1565,1570
52546473,1000,1000,1000,1000,88828621,1567,1567,1566,1568
52548972,1000,1000,1000,1000,88928581,1565,1566,1566,1565
52551471,1000,1000,1000,1000,89028541,1565,1566,1568,1564
52553970,1000,1000,1000,1000,89128501,1565,1565,1567,1565
52556469,1000,1000,1000,1000,89228461,1564,1564,1566,1564
52558968,1000,1000,1000,1000,89328421,1564,1563,1565,1563
52561467,1000,1000,1000,1000,89428381,1563,1563,1564,1563
52563966,1000,1000,1000,1000,89528341,1562,1563,1564,1563
52566465,1000,1000,1000,1000,89628301,1562,1562,1563,1562
52568964,1000,1000,1000,1000,89728261,1562,1562,1562,1563
52571463,1000,1000,1000,1000,89828221,1562,1562,1562,1562
52573962,1000,1000,1000,1000,89928181,1560,1561,1561,1561
52576461,1000,1000,1000,1000,90028974,1559,1559,1559,1559
52578960,1000,1000,1000,1000,90128934,1558,1557,1558,1557
52581459,1000,1000,1000,1000,90228894,1557,1557,1557,1556
52583958,1000,1000,1000,1000,90328854,1558,1558,1558,1557
52586457,1000,1000,1000,1000,90428814,1557,1558,1558,1557
52588956,1000,1000,1000,1000,90528774,1558,1558,1559,1557
52591455,1000,1000,1000,1000,90628734,1557,1557,1558,1556
52593954,1000,1000,1000,1000,90728694,1558,1558,1559,1557
52596453,1000,1000,1000,1000,90828654,1558,1557,1559,1556
52598952,1000,1000,1000,1000,90928614,1558,1558,1559,1558
52601451,1000,1000,1000,1000,91028574,1559,1560,1558,1561
52603950,1000,1000,1000,1000,91128534,1560,1560,1557,1564
52606449,1000,1000,1000,1000,91228494,1561,1561,1557,1564
52608948,1000,1000,1000,1000,91328454,1561,1561,1559,1564
52611447,1000,1000,1000,1000,91428414,1561,1561,1561,1562
52613946,1000,1000,1000,1000,91528374,1561,1561,1562,1560
52616445,1000,1000,1000,1000,91628334,1559,1559,1561,1557
52618944,1000,1000,1000,1000,91728294,1559,1559,1557,1560
52621443,1000,1000,1000,1000,91828254,1557,1557,1555,1559
52623942,1000,1000,1000,1000,91928214,1552,1552,1551,1553
52626441,1000,1000,1000,1000,92028174,1547,1546,1546,1547
52628940,1000,1000,1000,1000,92128967,1541,1541,1541,1541
52631439,1000,1000,1000,1000,92228927,1534,1534,1534,1533
52633938,1000,1000,1000,1000,92328887,1527,1527,1528,1527
52636437,1000,1000,1000,1000,92428847,1521,1521,1522,1521
52638936,1000,1000,1000,1000,92528807,1520,1519,1520,1520
52641435,1000,1000,1000,1000,92628767,1520,1521,1520,1521
52643934,1000,1000,1000,1000,92728727,1522,1522,1522,1522
52646433,1000,1000,1000,1000,92828687,1524,1525,1525,1525
52648932,1000,1000,1000,1000,92928647,1529,1529,1529,1529
52651431,1000,1000,1000,1000,93028607,1534,1534,1534,1534
52653930,1000,1000,1000,1000,93128567,1538,1538,1538,1538
52656429,1000,1000,1000,1000,93228527,1540,1541,1540,1541
52658928,1000,1000,1000,1000,93328487,1542,1542,1542,1542
52661427,1000,1000,1000,1000,93428447,1544,1544,1545,1544
52663926,1000,1000,1000,1000,93528407,1546,1545,1546,1545
52666425,1000,1000,1000,1000,93628367,1545,1546,1546,1545
52668924,1000,1000,1000,1000,93728327,1546,1546,1546,1546
52671423,1000,1000,1000,1000,93828287,1546,1545,1546,1545
52673922,1000,1000,1000,1000,93928247,1546,1546,1546,1546
52676421,1000,1000,1000,1000,94028207,1546,1546,1546,1546
52678920,1000,1000,1000,1000,94128167,1545,1546,1546,1546
52681419,1000,1000,1000,1000,94228960,1546,1546,1546,1546
52683918,1000,1000,1000,1000,94328920,1545,1546,1545,1545
52686417,1000,1000,1000,1000,94428880,1546,1546,1546,1545
52688916,1000,1000,1000,1000,94528840,1546,1545,1546,1545
52691415,1000,1000,1000,1000,94628800,1546,1545,1546,1545
52693914,1000,1000,1000,1000,94728760,1545,1545,1545,1545
52696413,1000,1000,1000,1000,94828720,1544,1545,1545,1545
52698912,1000,1000,1000,1000,94928680,1545,1545,1545,1545
52701411,1000,1000,1000,1000,95028640,1544,1545,1544,1544
52703910,1000,1000,1000,1000,95128600,1544,1544,1544,1544
52706409,1000,1000,1000,1000,95228560,1544,1544,1544,1544
52708908,1000,1000,1000,1000,95328520,1544,1544,1544,1544
52711407,1000,1000,1000,1000,95428480,1544,1544,1544,1544
52713906,1000,1000,1000,1000,95528440,1544,1544,1544,1544
52716405,1000,1000,1000,1000,95628400,1545,1545,1545,1545
52718904,1000,1000,1000,1000,95728360,1543,1543,1543,1543
52721403,1000,1000,1000,1000,95828320,1544,1545,1544,1544
52723902,1000,1000,1000,1000,95928280,1544,1544,1544,1544
52726401,1000,1000,1000,1000,96028240,1545,1544,1545,1544
52728900,1000,1000,1000,1000,96128200,1544,1543,1544,1544
52731399,1000,1000,1000,1000,96228160,1544,1544,1544,1543
52733898,1000,1000,1000,1000,96328953,1544,1544,1543,1544
52736397,1000,1000,1000,1000,96428913,1544,1545,1545,1544
52738896,1000,1000,1000,1000,96528873,1544,1544,1544,1544
52741395,1000,1000,1000,1000,96628833,1544,1544,1544,1544
52743894,1000,1000,1000,1000,96728793,1544,1544,1544,1544
52746393,1000,1000,1000,1000,96828753,1544,1544,1544,1544
52748892,1000,1000,1000,1000,96928713,1543,1543,1543,1544
52751391,1000,1000,1000,1000,97028673,1543,1543,1543,1543
52753890,1000,1000,1000,1000,97128633,1544,1544,1544,1544
52756389,1000,1000,1000,1000,97228593,1544,1545,1545,1544
52758888,1000,1000,1000,1000,97328553,1544,1544,1544,1544
52761387,1000,1000,1000,1000,97428513,1545,1544,1544,1544
52763886,1000,1000,1000,1000,97528473,1544,1544,1544,1544
52766385,1000,1000,1000,1000,97628433,1544,1545,1544,1545
52768884,1000,1000,1000,1000,97728393,1545,1544,1544,1545
52771383,1000,1000,1000,1000,97828353,1544,1544,1544,1544
52773882,1000,1000,1000,1000,97928313,1544,1544,1544,1544
52776381,1000,1000,1000,1000,98028273,1544,1544,1545,1544
52778880,1000,1000,1000,1000,98128233,1544,1544,1544,1545
52781379,1000,1000,1000,1000,98228193,1544,1544,1545,1544
52783878,1000,1000,1000,1000,98328986,1545,1545,1545,1545
52786377,1000,1000,1000,1000,98428946,1545,1544,1545,1544
52788876,1000,1000,1000,1000,98528906,1545,1545,1545,1545
52791375,1000,1000,1000,1000,98628866,1544,1544,1544,1544
52793874,1000,1000,1000,1000,98728826,1544,1544,1544,1544
52796373,1000,1000,1000,1000,98828786,1544,1544,1544,1544
52798872,1000,1000,1000,1000,98928746,1544,1544,1544,1544
52801371,1000,1000,1000,1000,99028706,1543,1543,1543,1543
52803870,1000,1000,1000,1000,99128666,1544,1544,1544,1544
52806369,1000,1000,1000,1000,99228626,1544,1545,1544,1544
52808868,1000,1000,1000,1000,99328586,1544,1544,1544,1544
52811367,1000,1000,1000,1000,99428546,1543,1543,1543,1543
52813866,1000,1000,1000,1000,99528506,1544,1544,1544,1544
52816365,1000,1000,1000,1000,99628466,1544,1544,1544,1543
52818864,1000,1000,1000,1000,99728426,1544,1544,1544,1544
52821363,1000,1000,1000,1000,99828386,1544,1543,1544,1543
52823862,1000,1000,1000,1000,99928346,1543,1543,1543,1543
52826361,1000,1000,1000,1000,100028306,1544,1543,1544,1544
52828860,1000,1000,1000,1000,100128266,1544,1544,1543,1544
52831359,1000,1000,1000,1000,100228226,1545,1544,1544,1545
52833858,1000,1000,1000,1000,100328186,1544,1544,1544,1544
52836357,1000,1000,1000,1000,100428979,1544,1544,1544,1544
52838856,1000,1000,1000,1000,100528939,1544,1544,1544,1544
52841355,1000,1000,1000,1000,100628899,1543,1544,1543,1544
52843854,1000,1000,1000,1000,100728859,1544,1544,1544,1544
52846353,1000,1000,1000,1000,100828819,1544,1544,1544,1544
52848852,1000,1000,1000,1000,100928779,1544,1544,1544,1544
52851351,1000,1000,1000,1000,101028739,1544,1544,1544,1544
52853850,1000,1000,1000,1000,101128699,1545,1545,1545,1545
52856349,1000,1000,1000,1000,101228659,1544,1544,1544,1544
52858848,1000,1000,1000,1000,101328619,1544,1544,1544,1545
52861347,1000,1000,1000,1000,101428579,1544,1544,1544,1544
52863846,1000,1000,1000,1000,101528539,1545,1544,1545,1545
52866345,1000,1000,1000,1000,101628499,1544,1544,1544,1544
52868844,1000,1000,1000,1000,101728459,1545,1545,1546,1545
52871343,1000,1000,1000,1000,101828419,1546,1546,1546,1546
52873842,1000,1000,1000,1000,101928379,1545,1545,1545,1545
52876341,1000,1000,1000,1000,102028339,1545,1545,1545,1545
52878840,1000,1000,1000,1000,102128299,1448,1445,1447,1446
52881339,1000,1000,1000,1000,102228259,1300,1292,1300,1293
52883838,1000,1000,1000,1000,102328219,1242,1229,1241,1231
52886337,1000,1000,1000,1000,102428179,1221,1208,1221,1209
52888836,1000,1000,1000,1000,102528972,1190,1174,1189,1176
52891335,1000,1000,1000,1000,102628932,1167,1150,1167,1151
52893834,1000,1000,1000,1000,102728892,1168,1150,1166,1152
52896333,1000,1000,1000,1000,102828852,1184,1150,1167,1168
52898832,1000,1000,1000,1000,102928812,1194,1150,1168,1179
52901331,1000,1000,1000,1000,103028772,1187,1150,1167,1172
52903830,1000,1000,1000,1000,103128732,1186,1150,1167,1171
52906329,1000,1000,1000,1000,103228692,1187,1150,1167,1172
52908828,1000,1000,1000,1000,103328652,1189,1150,1167,1174
52911327,1000,1000,1000,1000,103428612,1190,1150,1167,1176
52913826,1000,1000,1000,1000,103528572,1193,1150,1167,1179
52916325,1000,1000,1000,1000,103628532,1172,1150,1168,1155
52918824,1000,1000,1000,1000,103728492,1182,1150,1168,1166
52921323,1000,1000,1000,1000,103828452,1183,1150,1168,1167
52923822,1000,1000,1000,1000,103928412,1183,1150,1168,1168
52926321,1000,1000,1000,1000,104028372,1184,1150,1168,1168
52928820,1000,1000,1000,1000,104128332,1000,1000,1000,1000
52931319,1000,1000,1000,1000,104228292,1000,1000,1000,1000
52933818,1000,1000,1000,1000,104328252,1000,1000,1000,1000
52936317,1000,1000,1000,1000,104428212,1000,1000,1000,1000
52938816,1000,1000,1000,1000,104528172,1000,1000,1000,1000
52941315,1000,1000,1000,1000,104628965,1000,1000,1000,1000
52943814,1000,1000,1000,1000,104728925,1000,1000,1000,1000
52946313,1000,1000,1000,1000,104828885,1000,1000,1000,1000
52948812,1000,1000,1000,1000,104928845,1000,1000,1000,1000
52951311,1000,1000,1000,1000,105028805,1000,1000,1000,1000
52953810,1000,1000,1000,1000,105128765,1000,1000,1000,1000
52956309,1000,1000,1000,1000,105228725,1000,1000,1000,1000
52958808,1000,1000,1000,1000,105328685,1000,1000,1000,1000
52961307,1000,1000,1000,1000,105428645,1000,1000,1000,1000
52963806,1000,1000,1000,1000,105528605,1000,1000,1000,1000
52966305,1000,1000,1000,1000,105628565,1000,1000,1000,1000
52968804,1000,1000,1000,1000,105728525,1000,1000,1000,1000
52971303,1000,1000,1000,1000,105828485,1000,1000,1000,1000
52973802,1000,1000,1000,1000,105928445,1000,1000,1000,1000
52976301,1000,1000,1000,1000,106028405,1000,1000,1000,1000
52978800,1000,1000,1000,1000,106128365,1000,1000,1000,1000
52981299,1000,1000,1000,1000,106228325,1000,1000,1000,1000
52983798,1000,1000,1000,1000,106328285,1000,1000,1000,1000
52986297,1000,1000,1000,1000,106428245,1000,1000,1000,1000
52988796,1000,1000,1000,1000,106528205,1000,1000,1000,1000
52991295,1000,1000,1000,1000,106628165,1000,1000,1000,1000
52993794,1000,1000,1000,1000,106728958,1000,1000,1000,1000
52996293,1000,1000,1000,1000,106828918,1000,1000,1000,1000
52998792,1000,1000,1000,1000,106928878,1000,1000,1000,1000
53001291,1000,1000,1000,1000,107028838,1000,1000,1000,1000
53003790,1000,1000,1000,1000,107128798,1000,1000,1000,1000
53006289,1000,1000,1000,1000,107228758,1000,1000,1000,1000
53008788,1000,1000,1000,1000,107328718,1000,1000,1000,1000
53011287,1000,1000,1000,1000,107428678,1000,1000,1000,1000
53013786,1000,1000,1000,1000,107528638,1000,1000,1000,1000
53016285,1000,1000,1000,1000,107628598,1000,1000,1000,1000
53018784,1000,1000,1000,1000,107728558,1000,1000,1000,1000
53021283,1000,1000,1000,1000,107828518,1000,1000,1000,1000
53023782,1000,1000,1000,1000,107928478,1000,1000,1000,1000
53026281,1000,1000,1000,1000,108028438,1000,1000,1000,1000
53028780,1000,1000,1000,1000,108128398,1000,1000,1000,1000
53031279,1000,1000,1000,1000,108228358,1000,1000,1000,1000
53033778,1000,1000,1000,1000,108328318,1000,1000,1000,1000
53036277,1000,1000,1000,1000,108428278,1000,1000,1000,1000
53038776,1000,1000,1000,1000,108528238,1000,1000,1000,1000
53041275,1000,1000,1000,1000,108628198,1000,1000,1000,1000
53043774,1000,1000,1000,1000,108728158,1000,1000,1000,1000
53046273,1000,1000,1000,1000,108828951,1000,1000,1000,1000
53048772,1000,1000,1000,1000,108928911,1000,1000,1000,1000
53051271,1000,1000,1000,1000,109028871,1000,1000,1000,1000
53053770,1000,1000,1000,1000,109128831,1000,1000,1000,1000
53056269,1000,1000,1000,1000,109228791,1000,1000,1000,1000
53058768,1000,1000,1000,1000,109328751,1000,1000,1000,1000
53061267,1000,1000,1000,1000,109428711,1000,1000,1000,1000
53063766,1000,1000,1000,1000,109528671,1000,1000,1000,1000
53066265,1000,1000,1000,1000,109628631,1000,1000,1000,1000
53068764,1000,1000,1000,1000,109728591,1000,1000,1000,1000
53071263,1000,1000,1000,1000,109828551,1000,1000,1000,1000
53073762,1000,1000,1000,1000,109928511,1000,1000,1000,1000
53076261,1000,1000,1000,1000,110028471,1000,1000,1000,1000
53078760,1000,1000,1000,1000,110128431,1000,1000,1000,1000
53081259,1000,1000,1000,1000,110228391,1000,1000,1000,1000
53083758,1000,1000,1000,1000,110328351,1000,1000,1000,1000
53086257,1000,1000,1000,1000,110428311,1000,1000,1000,1000
53088756,1000,1000,1000,1000,110528271,1000,1000,1000,1000
53091255,1000,1000,1000,1000,110628231,1000,1000,1000,1000
53093754,1000,1000,1000,1000,110728191,1000,1000,1000,1000
53096253,1000,1000,1000,1000,110828984,1000,1000,1000,1000
53098752,1000,1000,1000,1000,110928944,1000,1000,1000,1000
53101251,1000,1000,1000,1000,111028904,1000,1000,1000,1000
53103750,1000,1000,1000,1000,111128864,1000,1000,1000,1000
53106249,1000,1000,1000,1000,111228824,1000,1000,1000,1000
53108748,1000,1000,1000,1000,111328784,1000,1000,1000,1000
53111247,1000,1000,1000,1000,111428744,1000,1000,1000,1000
53113746,1000,1000,1000,1000,111528704,1000,1000,1000,1000
53116245,1000,1000,1000,1000,111628664,1000,1000,1000,1000
53118744,1000,1000,1000,1000,111728624,1000,1000,1000,1000
53121243,1000,1000,1000,1000,111828584,1000,1000,1000,1000
53123742,1000,1000,1000,1000,111928544,1000,1000,1000,1000
53126241,1000,1000,1000,1000,112028504,1000,1000,1000,1000
53128740,1000,1000,1000,1000,112128464,1000,1000,1000,1000
53131239,1000,1000,1000,1000,112228424,1000,1000,1000,1000
53133738,1000,1000,1000,1000,112328384,1000,1000,1000,1000
53136237,1000,1000,1000,1000,112428344,1000,1000,1000,1000
53138736,1000,1000,1000,1000,112528304,1000,1000,1000,1000
53141235,1000,1000,1000,1000,112628264,1000,1000,1000,1000
53143734,1000,1000,1000,1000,112728224,1000,1000,1000,1000
53146233,1000,1000,1000,1000,112828184,1000,1000,1000,1000
53148732,1000,1000,1000,1000,112928977,1000,1000,1000,1000
53151231,1000,1000,1000,1000,113028937,1000,1000,1000,1000
53153730,1000,1000,1000,1000,113128897,1000,1000,1000,1000
53156229,1000,1000,1000,1000,113228857,1000,1000,1000,1000
53158728,1000,1000,1000,1000,113328817,1000,1000,1000,1000
53161227,1000,1000,1000,1000,113428777,1000,1000,1000,1000
53163726,1000,1000,1000,1000,113528737,1000,1000,1000,1000
53166225,1000,1000,1000,1000,113628697,1000,1000,1000,1000
53168724,1000,1000,1000,1000,113728657,1000,1000,1000,1000
53171223,1000,1000,1000,1000,113828617,1000,1000,1000,1000
53173722,1000,1000,1000,1000,113928577,1000,1000,1000,1000
53176221,1000,1000,1000,1000,114028537,1000,1000,1000,1000
53178720,1000,1000,1000,1000,114128497,1000,1000,1000,1000
53181219,1000,1000,1000,1000,114228457,1000,1000,1000,1000
53183718,1000,1000,1000,1000,114328417,1000,1000,1000,1000
53186217,1000,1000,1000,1000,114428377,1000,1000,1000,1000
53188716,1000,1000,1000,1000,114528337,1000,1000,1000,1000
53191215,1000,1000,1000,1000,114628297,1000,1000,1000,1000
53193714,1000,1000,1000,1000,114728257,1000,1000,1000,1000
53196213,1000,1000,1000,1000,114828217,1000,1000,1000,1000
53198712,1000,1000,1000,1000,114928177,1000,1000,1000,1000
53201211,1000,1000,1000,1000,115028970,1000,1000,1000,1000
53203710,1000,1000,1000,1000,115128930,1000,1000,1000,1000
53206209,1000,1000,1000,1000,115228890,1000,1000,1000,1000
53208708,1000,1000,1000,1000,115328850,1000,1000,1000,1000
53211207,1000,1000,1000,1000,115428810,1000,1000,1000,1000
53213706,1000,1000,1000,1000,115528770,1000,1000,1000,1000
53216205,1000,1000,1000,1000,115628730,1000,1000,1000,1000
53218704,1000,1000,1000,1000,115728690,1000,1000,1000,1000
53221203,1000,1000,1000,1000,115828650,1000,1000,1000,1000
53223702,1000,1000,1000,1000,115928610,1000,1000,1000,1000
53226201,1000,1000,1000,1000,116028570,1000,1000,1000,1000
53228700,1000,1000,1000,1000,116128530,1000,1000,1000,1000
53231199,1000,1000,1000,1000,116228490,1000,1000,1000,1000
53233698,1000,1000,1000,1000,116328450,1000,1000,1000,1000
53236197,1000,1000,1000,1000,116428410,1000,1000,1000,1000
53238696,1000,1000,1000,1000,116528370,1000,1000,1000,1000
53241195,1000,1000,1000,1000,116628330,1000,1000,1000,1000
53243694,1000,1000,1000,1000,116728290,1000,1000,1000,1000
53246193,1000,1000,1000,1000,116828250,1000,1000,1000,1000
53248692,1000,1000,1000,1000,116928210,1000,1000,1000,1000
53251191,1000,1000,1000,1000,117028170,1000,1000,1000,1000
53253690,1000,1000,1000,1000,117128963,1000,1000,1000,1000
53256189,1000,1000,1000,1000,117228923,1000,1000,1000,1000
53258688,1000,1000,1000,1000,117328883,1000,1000,1000,1000
53261187,1000,1000,1000,1000,117428843,1000,1000,1000,1000
53263686,1000,1000,1000,1000,117528803,1000,1000,1000,1000
53266185,1000,1000,1000,1000,117628763,1000,1000,1000,1000
53268684,1000,1000,1000,1000,117728723,1000,1000,1000,1000
53271183,1000,1000,1000,1000,117828683,1000,1000,1000,1000
53273682,1000,1000,1000,1000,117928643,1000,1000,1000,1000
53276181,1000,1000,1000,1000,118028603,1000,1000,1000,1000
53278680,1000,1000,1000,1000,118128563,1000,1000,1000,1000
53281179,1000,1000,1000,1000,118228523,1000,1000,1000,1000
53283678,1000,1000,1000,1000,118328483,1000,1000,1000,1000
53286177,1000,1000,1000,1000,118428443,1000,1000,1000,1000
53288676,1000,1000,1000,1000,118528403,1000,1000,1000,1000
53291175,1000,1000,1000,1000,118628363,1000,1000,1000,1000
53293674,1000,1000,1000,1000,118728323,1000,1000,1000,1000
53296173,1000,1000,1000,1000,118828283,1000,1000,1000,1000
53298672,1000,1000,1000,1000,118928243,1000,1000,1000,1000
53301171,1000,1000,1000,1000,119028203,1000,1000,1000,1000
53303670,1000,1000,1000,1000,,,,,
53306169,1000,1000,1000,1000,,,,,
53308668,1000,1000,1000,1000,,,,,
53311167,1000,1000,1000,1000,,,,,
53313666,1000,1000,1000,1000,,,,,
53316165,1000,1000,1000,1000,,,,,
53318664,1000,1000,1000,1000,,,,,
53321163,1000,1000,1000,1000,,,,,
53323662,1000,1000,1000,1000,,,,,
53326161,1000,1000,1000,1000,,,,,
53328660,1000,1000,1000,1000,,,,,
53331159,1000,1000,1000,1000,,,,,
53333658,1000,1000,1000,1000,,,,,
53336157,1000,1000,1000,1000,,,,,
53338656,1000,1000,1000,1000,,,,,
53341155,1000,1000,1000,1000,,,,,
53343654,1000,1000,1000,1000,,,,,
53346153,1000,1000,1000,1000,,,,,
53348652,1000,1000,1000,1000,,,,,
53351151,1000,1000,1000,1000,,,,,
53353650,1000,1000,1000,1000,,,,,
53356149,1000,1000,1000,1000,,,,,
53358648,1000,1000,1000,1000,,,,,
53361147,1000,1000,1000,1000,,,,,
53363646,1000,1000,1000,1000,,,,,
53366145,1000,1000,1000,1000,,,,,
53368644,1000,1000,1000,1000,,,,,
53371143,1000,1000,1000,1000,,,,,
53373642,1000,1000,1000,1000,,,,,
53376141,1000,1000,1000,1000,,,,,
53378640,1000,1000,1000,1000,,,,,
53381139,1000,1000,1000,1000,,,,,
53383638,1000,1000,1000,1000,,,,,
53386137,1000,1000,1000,1000,,,,,
53388636,1000,1000,1000,1000,,,,,
53391135,1000,1000,1000,1000,,,,,
53393634,1000,1000,1000,1000,,,,,
53396133,1000,1000,1000,1000,,,,,
53398632,1000,1000,1000,1000,,,,,
53401131,1000,1000,1000,1000,,,,,
53403630,1000,1000,1000,1000,,,,,
53406129,1000,1000,1000,1000,,,,,
53408628,1000,1000,1000,1000,,,,,
53411127,1000,1000,1000,1000,,,,,
53413626,1000,1000,1000,1000,,,,,
53416125,1000,1000,1000,1000,,,,,
53418624,1000,1000,1000,1000,,,,,
53421123,1000,1000,1000,1000,,,,,
53423622,1000,1000,1000,1000,,,,,
53426121,1000,1000,1000,1000,,,,,
53428620,1000,1000,1000,1000,,,,,
53431119,1000,1000,1000,1000,,,,,
53433618,1000,1000,1000,1000,,,,,
53436117,1000,1000,1000,1000,,,,,
53438616,1000,1000,1000,1000,,,,,
53441115,1000,1000,1000,1000,,,,,
53443614,1000,1000,1000,1000,,,,,
53446113,1000,1000,1000,1000,,,,,
53448612,1000,1000,1000,1000,,,,,
53451111,1000,1000,1000,1000,,,,,
53453610,1000,1000,1000,1000,,,,,
53456109,1000,1000,1000,1000,,,,,
53458608,1000,1000,1000,1000,,,,,
53461107,1000,1000,1000,1000,,,,,
53463606,1000,1000,1000,1000,,,,,
53466105,1000,1000,1000,1000,,,,,
53468604,1000,1000,1000,1000,,,,,
53471103,1000,1000,1000,1000,,,,,
53473602,1000,1000,1000,1000,,,,,
53476101,1000,1000,1000,1000,,,,,
53478600,1000,1000,1000,1000,,,,,
53481099,1000,1000,1000,1000,,,,,
53483598,1000,1000,1000,1000,,,,,
53486097,1000,1000,1000,1000,,,,,
53488596,1000,1000,1000,1000,,,,,
53491095,1000,1000,1000,1000,,,,,
53493594,1000,1000,1000,1000,,,,,
53496093,1000,1000,1000,1000,,,,,
53498592,1000,1000,1000,1000,,,,,
53501091,1000,1000,1000,1000,,,,,
53503590,1000,1000,1000,1000,,,,,
53506089,1000,1000,1000,1000,,,,,
53508588,1000,1000,1000,1000,,,,,
53511087,1000,1000,1000,1000,,,,,
53513586,1000,1000,1000,1000,,,,,
53516085,1000,1000,1000,1000,,,,,
53518584,1000,1000,1000,1000,,,,,
53521083,1000,1000,1000,1000,,,,,
53523582,1000,1000,1000,1000,,,,,
53526081,1000,1000,1000,1000,,,,,
53528580,1000,1000,1000,1000,,,,,
53531079,1000,1000,1000,1000,,,,,
53533578,1000,1000,1000,1000,,,,,
53536077,1000,1000,1000,1000,,,,,
53538576,1000,1000,1000,1000,,,,,
53541075,1000,1000,1000,1000,,,,,
53543574,1000,1000,1000,1000,,,,,
53546073,1000,1000,1000,1000,,,,,
53548572,1000,1000,1000,1000,,,,,
53551071,1000,1000,1000,1000,,,,,
53553570,1000,1000,1000,1000,,,,,
53556069,1000,1000,1000,1000,,,,,
53558568,1000,1000,1000,1000,,,,,
53561067,1000,1000,1000,1000,,,,,
53563566,1000,1000,1000,1000,,,,,
53566065,1000,1000,1000,1000,,,,,
53568564,1000,1000,1000,1000,,,,,
53571063,1000,1000,1000,1000,,,,,
53573562,1000,1000,1000,1000,,,,,
53576061,1000,1000,1000,1000,,,,,
53578560,1000,1000,1000,1000,,,,,
53581059,1000,1000,1000,1000,,,,,
53583558,1000,1000,1000,1000,,,,,
53586057,1000,1000,1000,1000,,,,,
53588556,1000,1000,1000,1000,,,,,
53591055,1000,1000,1000,1000,,,,,
53593554,1000,1000,1000,1000,,,,,
53596053,1000,1000,1000,1000,,,,,
53598552,1000,1000,1000,1000,,,,,
53601051,1000,1000,1000,1000,,,,,
53603550,1000,1000,1000,1000,,,,,
53606049,1000,1000,1000,1000,,,,,
53608548,1000,1000,1000,1000,,,,,
53611047,1000,1000,1000,1000,,,,,
53613546,1000,1000,1000,1000,,,,,
53616045,1000,1000,1000,1000,,,,,
53618544,1000,1000,1000,1000,,,,,
53621043,1000,1000,1000,1000,,,,,
53623542,1001,1001,1001,1001,,,,,
53626041,1002,1002,1002,1002,,,,,
53628540,1003,1003,1003,1003,,,,,
53631039,1003,1003,1003,1003,,,,,
53633538,1004,1004,1004,1004,,,,,
53636037,1005,1005,1005,1005,,,,,
53638536,1006,1006,1006,1006,,,,,
53641035,1006,1006,1006,1006,,,,,
53643534,1007,1007,1007,1007,,,,,
53646033,1008,1008,1008,1008,,,,,
53648532,1009,1009,1009,1009,,,,,
53651031,1009,1009,1009,1009,,,,,
53653530,1010,1010,1010,1010,,,,,
53656029,1011,1011,1011,1011,,,,,
53658528,1012,1012,1012,1012,,,,,
53661027,1012,1012,1012,1012,,,,,
53663526,1013,1013,1013,1013,,,,,
53666025,1014,1014,1014,1014,,,,,
53668524,1015,1015,1015,1015,,,,,
53671023,1015,1015,1015,1015,,,,,
53673522,1016,1016,1016,1016,,,,,
53676021,1017,1017,1017,1017,,,,,
53678520,1018,1018,1018,1018,,,,,
53681019,1018,1018,1018,1018,,,,,
53683518,1019,1019,1019,1019,,,,,
53686017,1020,1020,1020,1020,,,,,
53688516,1021,1021,1021,1021,,,,,
53691015,1021,1021,1021,1021,,,,,
53693514,1022,1022,1022,1022,,,,,
53696013,1023,1023,1023,1023,,,,,
53698512,1024,1024,1024,1024,,,,,
53701011,1024,1024,1024,1024,,,,,
53703510,1025,1025,1025,1025,,,,,
53706009,1026,1026,1026,1026,,,,,
53708508,1027,1027,1027,1027,,,,,
53711007,1027,1027,1027,1027,,,,,
53713506,1028,1028,1028,1028,,,,,
53716005,1029,1029,1029,1029,,,,,
53718504,1030,1030,1030,1030,,,,,
53721003,1030,1030,1030,1030,,,,,
53723502,1031,1031,1031,1031,,,,,
53726001,1032,1032,1032,1032,,,,,
53728500,1033,1033,1033,1033,,,,,
53730999,1033,1033,1033,1033,,,,,
53733498,1034,1034,1034,1034,,,,,
53735997,1035,1035,1035,1035,,,,,
53738496,1036,1036,1036,1036,,,,,
53740995,1036,1036,1036,1036,,,,,
53743494,1037,1037,1037,1037,,,,,
53745993,1038,1038,1038,1038,,,,,
53748492,1039,1039,1039,1039,,,,,
53750991,1039,1039,1039,1039,,,,,
53753490,1040,1040,1040,1040,,,,,
53755989,1041,1041,1041,1041,,,,,
53758488,1042,1042,1042,1042,,,,,
53760987,1042,1042,1042,1042,,,,,
53763486,1043,1043,1043,1043,,,,,
53765985,1044,1044,1044,1044,,,,,
53768484,1045,1045,1045,1045,,,,,
53770983,1045,1045,1045,1045,,,,,
53773482,1046,1046,1046,1046,,,,,
53775981,1047,1047,1047,1047,,,,,
53778480,1048,1048,1048,1048,,,,,
53780979,1048,1048,1048,1048,,,,,
53783478,1049,1049,1049,1049,,,,,
53785977,1050,1050,1050,1050,,,,,
53788476,1051,1051,1051,1051,,,,,
53790975,1051,1051,1051,1051,,,,,
53793474,1052,1052,1052,1052,,,,,
53795973,1053,1053,1053,1053,,,,,
53798472,1054,1054,1054,1054,,,,,
53800971,1054,1054,1054,1054,,,,,
53803470,1055,1055,1055,1055,,,,,
53805969,1056,1056,1056,1056,,,,,
53808468,1057,1057,1057,1057,,,,,
53810967,1057,1057,1057,1057,,,,,
53813466,1058,1058,1058,1058,,,,,
53815965,1059,1059,1059,1059,,,,,
53818464,1060,1060,1060,1060,,,,,
53820963,1060,1060,1060,1060,,,,,
53823462,1061,1061,1061,1061,,,,,
53825961,1062,1062,1062,1062,,,,,
53828460,1063,1063,1063,1063,,,,,
53830959,1063,1063,1063,1063,,,,,
53833458,1064,1064,1064,1064,,,,,
53835957,1065,1065,1065,1065,,,,,
53838456,1066,1066,1066,1066,,,,,
53840955,1066,1066,1066,1066,,,,,
53843454,1067,1067,1067,1067,,,,,
53845953,1068,1068,1068,1068,,,,,
53848452,1069,1069,1069,1069,,,,,
53850951,1069,1069,1069,1069,,,,,
53853450,1070,1070,1070,1070,,,,,
53855949,1071,1071,1071,1071,,,,,
53858448,1072,1072,1072,1072,,,,,
53860947,1072,1072,1072,1072,,,,,
53863446,1073,1073,1073,1073,,,,,
53865945,1074,1074,1074,1074,,,,,
53868444,1075,1075,1075,1075,,,,,
53870943,1075,1075,1075,1075,,,,,
53873442,1076,1076,1076,1076,,,,,
53875941,1077,1077,1077,1077,,,,,
53878440,1078,1078,1078,1078,,,,,
53880939,1078,1078,1078,1078,,,,,
53883438,1079,1079,1079,1079,,,,,
53885937,1080,1080,1080,1080,,,,,
53888436,1081,1081,1081,1081,,,,,
53890935,1081,1081,1081,1081,,,,,
53893434,1082,1082,1082,1082,,,,,
53895933,1083,1083,1083,1083,,,,,
53898432,1084,1084,1084,1084,,,,,
53900931,1084,1084,1084,1084,,,,,
53903430,1085,1085,1085,1085,,,,,
53905929,1086,1086,1086,1086,,,,,
53908428,1087,1087,1087,1087,,,,,
53910927,1087,1087,1087,1087,,,,,
53913426,1088,1088,1088,1088,,,,,
53915925,1089,1089,1089,1089,,,,,
53918424,1090,1090,1090,1090,,,,,
53920923,1090,1090,1090,1090,,,,,
53923422,1091,1091,1091,1091,,,,,
53925921,1092,1092,1092,1092,,,,,
53928420,1093,1093,1093,1093,,,,,
53930919,1093,1093,1093,1093,,,,,
53933418,1094,1094,1094,1094,,,,,
53935917,1095,1095,1095,1095,,,,,
53938416,1096,1096,1096,1096,,,,,
53940915,1096,1096,1096,1096,,,,,
53943414,1097,1097,1097,1097,,,,,
53945913,1098,1098,1098,1098,,,,,
53948412,1099,1099,1099,1099,,,,,
53950911,1099,1099,1099,1099,,,,,
53953410,1100,1100,1100,1100,,,,,
53955909,1101,1101,1101,1101,,,,,
53958408,1101,1101,1101,1101,,,,,
53960907,1102,1102,1102,1102,,,,,
53963406,1103,1103,1103,1103,,,,,
53965905,1104,1104,1104,1104,,,,,
53968404,1104,1104,1104,1104,,,,,
53970903,1105,1105,1105,1105,,,,,
53973402,1106,1106,1106,1106,,,,,
53975901,1107,1107,1107,1107,,,,,
53978400,1107,1107,1107,1107,,,,,
53980899,1108,1108,1108,1108,,,,,
53983398,1109,1109,1109,1109,,,,,
53985897,1110,1110,1110,1110,,,,,
53988396,1110,1110,1110,1110,,,,,
53990895,1111,1111,1111,1111,,,,,
53993394,1112,1112,1112,1112,,,,,
53995893,1113,1113,1113,1113,,,,,
53998392,1113,1113,1113,1113,,,,,
54000891,1114,1114,1114,1114,,,,,
54003390,1115,1115,1115,1115,,,,,
54005889,1116,1116,1116,1116,,,,,
54008388,1116,1116,1116,1116,,,,,
54010887,1117,1117,1117,1117,,,,,
54013386,1118,1118,1118,1118,,,,,
54015885,1119,1119,1119,1119,,,,,
54018384,1119,1119,1119,1119,,,,,
54020883,1120,1120,1120,1120,,,,,
54023382,1121,1121,1121,1121,,,,,
54025881,1122,1122,1122,1122,,,,,
54028380,1122,1122,1122,1122,,,,,
54030879,1123,1123,1123,1123,,,,,
54033378,1124,1124,1124,1124,,,,,
54035877,1125,1125,1125,1125,,,,,
54038376,1125,1125,1125,1125,,,,,
54040875,1126,1126,1126,1126,,,,,
54043374,1127,1127,1127,1127,,,,,
54045873,1128,1128,1128,1128,,,,,
54048372,1128,1128,1128,1128,,,,,
54050871,1129,1129,1129,1129,,,,,
54053370,1130,1130,1130,1130,,,,,
54055869,1131,1131,1131,1131,,,,,
54058368,1131,1131,1131,1131,,,,,
54060867,1132,1132,1132,1132,,,,,
54063366,1133,1133,1133,1133,,,,,
54065865,1134,1134,1134,1134,,,,,
54068364,1134,1134,1134,1134,,,,,
54070863,1135,1135,1135,1135,,,,,
54073362,1136,1136,1136,1136,,,,,
54075861,1137,1137,1137,1137,,,,,
54078360,1137,1137,1137,1137,,,,,
54080859,1138,1138,1138,1138,,,,,
54083358,1139,1139,1139,1139,,,,,
54085857,1140,1140,1140,1140,,,,,
54088356,1140,1140,1140,1140,,,,,
54090855,1141,1141,1141,1141,,,,,
54093354,1142,1142,1142,1142,,,,,
54095853,1143,1143,1143,1143,,,,,
54098352,1143,1143,1143,1143,,,,,
54100851,1144,1144,1144,1144,,,,,
54103350,1145,1145,1145,1145,,,,,
54105849,1146,1146,1146,1146,,,,,
54108348,1146,1146,1146,1146,,,,,
54110847,1147,1147,1147,1147,,,,,
54113346,1148,1148,1148,1148,,,,,
54115845,1149,1149,1149,1149,,,,,
54118344,1149,1149,1149,1149,,,,,
54120843,1150,1150,1150,1150,,,,,
54123342,1162,1153,1154,1162,,,,,
54125841,1170,1161,1162,1170,,,,,
54128340,1178,1169,1170,1178,,,,,
54130839,1185,1177,1178,1186,,,,,
54133338,1193,1185,1185,1193,,,,,
54135837,1200,1192,1193,1201,,,,,
54138336,1208,1200,1200,1208,,,,,
54140835,1215,1207,1208,1215,,,,,
54143334,1222,1214,1215,1222,,,,,
54145833,1229,1221,1222,1229,,,,,
54148332,1236,1228,1229,1236,,,,,
54150831,1242,1235,1236,1243,,,,,
54153330,1249,1242,1242,1250,,,,,
54155829,1256,1249,1249,1256,,,,,
54158328,1262,1255,1256,1263,,,,,
54160827,1269,1262,1262,1269,,,,,
54163326,1275,1268,1269,1275,,,,,
54165825,1281,1275,1275,1282,,,,,
54168324,1287,1281,1281,1288,,,,,
54170823,1294,1287,1288,1294,,,,,
54173322,1300,1293,1294,1300,,,,,
54175821,1306,1299,1300,1306,,,,,
54178320,1312,1305,1306,1312,,,,,
54180819,1318,1311,1312,1318,,,,,
54183318,1323,1317,1318,1324,,,,,
54185817,1329,1323,1323,1330,,,,,
54188316,1335,1329,1329,1335,,,,,
54190815,1341,1334,1335,1341,,,,,
54193314,1346,1340,1340,1346,,,,,
54195813,1352,1346,1346,1352,,,,,
54198312,1357,1351,1352,1357,,,,,
54200811,1363,1357,1357,1363,,,,,
54203310,1368,1362,1362,1368,,,,,
54205809,1373,1367,1368,1374,,,,,
54208308,1379,1373,1373,1379,,,,,
54210807,1384,1378,1378,1384,,,,,
54213306,1389,1383,1384,1389,,,,,
54215805,1394,1388,1389,1395,,,,,
54218304,1399,1394,1394,1400,,,,,
54220803,1405,1399,1399,1405,,,,,
54223302,1410,1404,1404,1410,,,,,
54225801,1415,1409,1409,1415,,,,,
54228300,1420,1414,1414,1420,,,,,
54230799,1425,1419,1419,1425,,,,,
54233298,1429,1424,1424,1430,,,,,
54235797,1434,1429,1429,1435,,,,,
54238296,1439,1434,1434,1440,,,,,
54240795,1444,1438,1439,1444,,,,,
54243294,1449,1443,1443,1449,,,,,
54245793,1453,1448,1448,1454,,,,,
54248292,1458,1453,1453,1459,,,,,
54250791,1463,1457,1458,1463,,,,,
54253290,1467,1462,1462,1468,,,,,
54255789,1472,1467,1467,1473,,,,,
54258288,1477,1471,1472,1477,,,,,
54260787,1481,1476,1476,1482,,,,,
54263286,1486,1480,1481,1486,,,,,
54265785,1490,1485,1485,1491,,,,,
54268284,1495,1489,1490,1495,,,,,
54270783,1499,1494,1494,1500,,,,,
54273282,1504,1498,1499,1504,,,,,
54275781,1508,1503,1503,1508,,,,,
54278280,1512,1507,1507,1513,,,,,
54280779,1517,1511,1512,1517,,,,,
54283278,1521,1516,1516,1522,,,,,
54285777,1525,1520,1520,1526,,,,,
54288276,1530,1524,1525,1530,,,,,
54290775,1534,1529,1529,1534,,,,,
54293274,1538,1533,1533,1539,,,,,
54295773,1542,1537,1537,1543,,,,,
54298272,1547,1541,1542,1547,,,,,
54300771,1551,1545,1546,1551,,,,,
54303270,1555,1550,1550,1555,,,,,
54305769,1559,1554,1554,1559,,,,,
54308268,1563,1558,1558,1563,,,,,
54310767,1567,1562,1562,1568,,,,,
54313266,1571,1566,1566,1572,,,,,
54315765,1575,1570,1570,1576,,,,,
54318264,1579,1574,1574,1580,,,,,
54320763,1583,1578,1578,1584,,,,,
54323262,1587,1582,1582,1588,,,,,
54325761,1591,1586,1586,1592,,,,,
54328260,1595,1590,1590,1595,,,,,
54330759,1599,1594,1594,1599,,,,,
54333258,1603,1598,1598,1603,,,,,
54335757,1607,1602,1602,1607,,,,,
54338256,1611,1605,1606,1611,,,,,
54340755,1615,1609,1610,1615,,,,,
54343254,1619,1613,1614,1619,,,,,
54345753,1622,1617,1617,1623,,,,,
54348252,1626,1621,1621,1626,,,,,
54350751,1630,1625,1625,1630,,,,,
54353250,1634,1628,1629,1634,,,,,
54355749,1637,1632,1633,1638,,,,,
54358248,1641,1636,1636,1641,,,,,
54360747,1645,1640,1640,1645,,,,,
54363246,1649,1643,1644,1649,,,,,
54365745,1652,1647,1648,1652,,,,,
54368244,1656,1651,1651,1656,,,,,
54370743,1660,1654,1655,1660,,,,,
54373242,1663,1658,1659,1663,,,,,
54375741,1667,1662,1662,1667,,,,,
54378240,1670,1665,1666,1671,,,,,
54380739,1674,1669,1669,1674,,,,,
54383238,1678,1673,1673,1678,,,,,
54385737,1681,1676,1677,1681,,,,,
54388236,1685,1680,1680,1685,,,,,
54390735,1688,1683,1684,1688,,,,,
54393234,1692,1687,1687,1692,,,,,
54395733,1695,1690,1691,1695,,,,,
54398232,1699,1694,1694,1699,,,,,
54400731,1702,1698,1698,1702,,,,,
54403230,1706,1701,1701,1706,,,,,
54405729,1709,1704,1705,1709,,,,,
54408228,1713,1708,1708,1713,,,,,
54410727,1716,1711,1712,1716,,,,,
54413226,1720,1715,1715,1720,,,,,
54415725,1723,1718,1719,1723,,,,,
54418224,1726,1722,1722,1727,,,,,
54420723,1730,1725,1725,1730,,,,,
54423222,1733,1729,1729,1733,,,,,
54425721,1737,1732,1732,1737,,,,,
54428220,1740,1735,1736,1740,,,,,
54430719,1743,1739,1739,1743,,,,,
54433218,1747,1742,1742,1747,,,,,
54435717,1750,1745,1746,1750,,,,,
54438216,1753,1749,1749,1753,,,,,
54440715,1757,1752,1752,1757,,,,,
54443214,1760,1755,1756,1760,,,,,
54445713,1763,1759,1759,1763,,,,,
54448212,1766,1762,1762,1767,,,,,
54450711,1770,1765,1765,1770,,,,,
54453210,1773,1768,1769,1773,,,,,
54455709,1776,1772,1772,1776,,,,,
54458208,1779,1775,1775,1780,,,,,
54460707,1783,1778,1778,1783,,,,,
54463206,1786,1781,1782,1786,,,,,
54465705,1789,1785,1785,1789,,,,,
54468204,1792,1788,1788,1792,,,,,
54470703,1795,1791,1791,1796,,,,,
54473202,1799,1794,1794,1799,,,,,
54475701,1802,1797,1797,1802,,,,,
54478200,1805,1800,1801,1805,,,,,
54480699,1808,1804,1804,1808,,,,,
54483198,1811,1807,1807,1812,,,,,
54485697,1814,1810,1810,1815,,,,,
54488196,1817,1813,1813,1818,,,,,
54490695,1820,1816,1816,1821,,,,,
54493194,1824,1819,1819,1824,,,,,
54495693,1827,1822,1822,1827,,,,,
54498192,1830,1825,1825,1830,,,,,
54500691,1833,1828,1828,1833,,,,,
54503190,1836,1831,1832,1836,,,,,
54505689,1839,1834,1835,1839,,,,,
54508188,1842,1838,1838,1842,,,,,
54510687,1845,1841,1841,1845,,,,,
54513186,1848,1844,1844,1848,,,,,
54515685,1851,1847,1847,1852,,,,,
54518184,1854,1850,1850,1855,,,,,
54520683,1857,1853,1853,1858,,,,,
54523182,1860,1856,1856,1861,,,,,
54525681,1863,1859,1859,1864,,,,,
54528180,1866,1862,1862,1867,,,,,
54530679,1869,1865,1865,1870,,,,,
54533178,1872,1868,1868,1873,,,,,
54535677,1875,1870,1871,1875,,,,,
54538176,1878,1873,1874,1878,,,,,
54540675,1881,1876,1876,1881,,,,,
54543174,1884,1879,1879,1884,,,,,
54545673,1887,1882,1882,1887,,,,,
54548172,1890,1885,1885,1890,,,,,
54550671,1893,1888,1888,1893,,,,,
54553170,1896,1891,1891,1896,,,,,
54555669,1897,1893,1893,1897,,,,,
54558168,1896,1892,1892,1896,,,,,
54560667,1895,1891,1891,1895,,,,,
54563166,1894,1890,1890,1894,,,,,
54565665,1893,1889,1889,1893,,,,,
54568164,1892,1888,1888,1893,,,,,
54570663,1891,1887,1887,1892,,,,,
54573162,1890,1886,1886,1891,,,,,
54575661,1890,1885,1885,1890,,,,,
54578160,1889,1884,1885,1889,,,,,
54580659,1888,1884,1884,1889,,,,,
54583158,1888,1883,1883,1888,,,,,
54585657,1887,1883,1883,1887,,,,,
54588156,1887,1882,1882,1887,,,,,
54590655,1887,1882,1882,1887,,,,,
54593154,1886,1882,1882,1887,,,,,
54596486,1886,1882,1882,1887,,,,,
54598985,1886,1882,1882,1887,,,,,
54601484,1886,1882,1882,1887,,,,,
54603983,1886,1882,1882,1887,,,,,
54606482,1887,1882,1882,1887,,,,,
54608981,1887,1882,1882,1887,,,,,
54611480,1887,1883,1883,1887,,,,,
54613979,1887,1883,1883,1888,,,,,
54616478,1888,1883,1884,1888,,,,,
54618977,1888,1884,1884,1888,,,,,
54621476,1888,1884,1884,1889,,,,,
54623975,1889,1885,1885,1889,,,,,
54626474,1889,1885,1885,1889,,,,,
54628973,1889,1885,1885,1889,,,,,
54631472,1889,1885,1885,1889,,,,,
54633971,1889,1885,1885,1889,,,,,
54636470,1888,1885,1885,1888,,,,,
54638969,1888,1884,1885,1888,,,,,
54641468,1887,1884,1884,1887,,,,,
54643967,1886,1883,1884,1887,,,,,
54646466,1885,1882,1883,1886,,,,,
54648965,1884,1881,1882,1884,,,,,
54651464,1883,1880,1880,1883,,,,,
54653963,1881,1878,1879,1882,,,,,
54656462,1880,1877,1877,1880,,,,,
54658961,1878,1875,1876,1878,,,,,
54661460,1876,1873,1874,1876,,,,,
54663959,1874,1871,1872,1874,,,,,
54666458,1872,1869,1870,1872,,,,,
54668957,1870,1867,1868,1870,,,,,
54671456,1868,1865,1865,1868,,,,,
54673955,1865,1863,1863,1865,,,,,
54676454,1863,1860,1861,1863,,,,,
54678953,1860,1858,1858,1860,,,,,
54681452,1858,1855,1856,1858,,,,,
54683951,1855,1853,1853,1855,,,,,
54686450,1852,1850,1850,1852,,,,,
54688949,1849,1847,1847,1850,,,,,
54691448,1846,1844,1845,1847,,,,,
54693947,1843,1841,1842,1844,,,,,
54696446,1840,1838,1839,1841,,,,,
54698945,1837,1835,1836,1838,,,,,
54701444,1834,1832,1833,1834,,,,,
54703943,1831,1829,1830,1831,,,,,
54706442,1828,1826,1826,1828,,,,,
54708941,1825,1823,1823,1825,,,,,
54711440,1821,1820,1820,1822,,,,,
54713939,1818,1816,1817,1818,,,,,
54716438,1815,1813,1813,1815,,,,,
54718937,1811,1810,1810,1812,,,,,
54721436,1808,1807,1807,1808,,,,,
54723935,1805,1804,1804,1805,,,,,
54726434,1801,1800,1800,1802,,,,,
54728933,1798,1797,1797,1798,,,,,
54731432,1795,1794,1794,1795,,,,,
54733931,1791,1790,1790,1792,,,,,
54736430,1788,1787,1787,1788,,,,,
54738929,1785,1784,1784,1785,,,,,
54741428,1781,1781,1780,1782,,,,,
54743927,1778,1777,1777,1779,,,,,
54746426,1775,1774,1774,1775,,,,,
54748925,1771,1771,1770,1772,,,,,
54751424,1768,1767,1767,1768,,,,,
54753923,1764,1764,1764,1765,,,,,
54756422,1761,1761,1761,1762,,,,,
54758921,1758,1757,1757,1758,,,,,
54761420,1755,1754,1754,1755,,,,,
54763919,1751,1751,1751,1752,,,,,
54766418,1748,1748,1748,1749,,,,,
54768917,1745,1745,1745,1746,,,,,
54771416,1742,1742,1742,1742,,,,,
54773915,1739,1739,1739,1739,,,,,
54776414,1736,1736,1736,1736,,,,,
54778913,1733,1733,1733,1733,,,,,
54781412,1730,1730,1730,1730,,,,,
54783911,1727,1727,1727,1727,,,,,
54786410,1724,1724,1724,1724,,,,,
54788909,1721,1721,1721,1722,,,,,
54791408,1718,1719,1718,1719,,,,,
54793907,1716,1716,1716,1716,,,,,
54796406,1713,1713,1713,1713,,,,,
54798905,1710,1711,1710,1711,,,,,
54801404,1707,1708,1708,1708,,,,,
54803903,1705,1705,1705,1705,,,,,
54806402,1702,1703,1703,1703,,,,,
54808901,1700,1700,1700,1700,,,,,
54811400,1697,1698,1698,1698,,,,,
54813899,1695,1696,1695,1695,,,,,
54816398,1692,1693,1693,1693,,,,,
