TimeUS,M1,M2,M3,M4,TimeUS,C1,C2,C3,C4
44686285,1000,1000,1000,1000,44728768,1000,1000,1000,1000
44688784,1000,1000,1000,1000,44828728,1000,1000,1000,1000
44691283,1000,1000,1000,1000,44928688,1000,1000,1000,1000
44693782,1000,1000,1000,1000,45028648,1000,1000,1000,1000
44696281,1000,1000,1000,1000,45128608,1000,1000,1000,1000
44698780,1000,1000,1000,1000,45228568,1000,1000,1000,1000
44701279,1000,1000,1000,1000,45328528,1000,1000,1000,1000
44703778,1000,1000,1000,1000,45428488,1000,1000,1000,1000
44706277,1000,1000,1000,1000,45528448,1000,1000,1000,1000
44708776,1000,1000,1000,1000,45628408,1000,1000,1000,1000
44711275,1000,1000,1000,1000,45728368,1000,1000,1000,1000
44713774,1000,1000,1000,1000,45828328,1000,1000,1000,1000
44716273,1000,1000,1000,1000,45928288,1000,1000,1000,1000
44718772,1000,1000,1000,1000,46028248,1000,1000,1000,1000
44721271,1000,1000,1000,1000,46128208,1000,1000,1000,1000
44723770,1000,1000,1000,1000,46228168,1000,1000,1000,1000
44726269,1000,1000,1000,1000,46328961,1000,1000,1000,1000
44728768,1000,1000,1000,1000,46428921,1000,1000,1000,1000
44731267,1000,1000,1000,1000,46528881,1000,1000,1000,1000
44733766,1000,1000,1000,1000,46628841,1000,1000,1000,1000
44736265,1000,1000,1000,1000,46728801,1012,1012,1012,1012
44738764,1000,1000,1000,1000,46828761,1042,1042,1042,1042
44741263,1000,1000,1000,1000,46928721,1072,1072,1072,1072
44743762,1000,1000,1000,1000,47028681,1102,1102,1102,1102
44746261,1000,1000,1000,1000,47128641,1132,1132,1132,1132
44748760,1000,1000,1000,1000,47228601,1268,1263,1263,1268
44751259,1000,1000,1000,1000,47328561,1481,1476,1477,1481
44753758,1000,1000,1000,1000,47428521,1644,1640,1641,1644
44756257,1000,1000,1000,1000,47528481,1782,1779,1779,1782
44758756,1000,1000,1000,1000,47628441,1896,1893,1892,1896
44761255,1000,1000,1000,1000,47728401,1878,1876,1876,1878
44763754,1000,1000,1000,1000,47828361,1756,1755,1755,1756
44766253,1000,1000,1000,1000,47928321,1658,1658,1659,1658
44768752,1000,1000,1000,1000,48028281,1627,1629,1629,1627
44771251,1000,1000,1000,1000,48128241,1632,1634,1634,1632
44773750,1000,1000,1000,1000,48228201,1642,1644,1644,1643
44776249,1000,1000,1000,1000,48328161,1636,1635,1632,1638
44778748,1000,1000,1000,1000,48428954,1621,1622,1613,1629
44781247,1000,1000,1000,1000,48528914,1612,1613,1607,1618
44783746,1000,1000,1000,1000,48628874,1609,1609,1608,1610
44786245,1000,1000,1000,1000,48728834,1611,1611,1613,1608
44788744,1000,1000,1000,1000,48828794,1614,1614,1618,1610
44791243,1000,1000,1000,1000,48928754,1615,1614,1619,1610
44793742,1000,1000,1000,1000,49028714,1585,1585,1600,1569
44796241,1000,1000,1000,1000,49128674,1571,1571,1582,1561
44798740,1000,1000,1000,1000,49228634,1560,1560,1562,1559
44801239,1000,1000,1000,1000,49328594,1551,1551,1544,1557
44803738,1000,1000,1000,1000,49428554,1543,1543,1531,1555
44806237,1000,1000,1000,1000,49528514,1537,1537,1526,1548
44808736,1000,1000,1000,1000,49628474,1532,1532,1526,1538
44811235,1000,1000,1000,1000,49728434,1527,1527,1525,1529
44813734,1000,1000,1000,1000,49828394,1527,1527,1528,1525
44816233,1000,1000,1000,1000,49928354,1528,1528,1530,1526
44818732,1000,1000,1000,1000,50028314,1531,1531,1534,1528
44821231,1000,1000,1000,1000,50128274,1535,1535,1538,1532
44823730,1000,1000,1000,1000,50228234,1538,1538,1541,1536
44826229,1000,1000,1000,1000,50328194,1542,1542,1544,1541
44828728,1000,1000,1000,1000,50428154,1546,1546,1547,1545
44831227,1000,1000,1000,1000,50528947,1548,1548,1548,1549
44833726,1000,1000,1000,1000,50628907,1551,1551,1550,1552
44836225,1000,1000,1000,1000,50728867,1553,1553,1552,1554
44838724,1000,1000,1000,1000,50828827,1552,1552,1556,1559
44841223,1000,1000,1000,1000,50928787,1552,1553,1560,1562
44843722,1000,1000,1000,1000,51028747,1555,1556,1563,1563
44846221,1000,1000,1000,1000,51128707,1559,1560,1565,1564
44848720,1000,1000,1000,1000,51228667,1562,1562,1565,1564
44851219,1000,1000,1000,1000,51328627,1566,1566,1566,1565
44853718,1000,1000,1000,1000,51428587,1568,1569,1567,1566
44856217,1000,1000,1000,1000,51528547,1571,1571,1567,1567
44858716,1000,1000,1000,1000,51628507,1572,1571,1567,1567
44861215,1000,1000,1000,1000,51728467,1571,1571,1566,1566
44863714,1000,1000,1000,1000,51828427,1572,1572,1567,1568
44866213,1000,1000,1000,1000,51928387,1573,1573,1569,1569
44868712,1000,1000,1000,1000,52028347,1573,1573,1570,1570
44871211,1000,1000,1000,1000,52128307,1573,1573,1572,1571
44873710,1000,1000,1000,1000,52228267,1573,1574,1573,1572
44876209,1000,1000,1000,1000,52328227,1574,1574,1575,1573
44878708,1000,1000,1000,1000,52428187,1575,1575,1576,1575
44881207,1000,1000,1000,1000,52528980,1574,1574,1576,1575
44883706,1000,1000,1000,1000,52628940,1575,1575,1576,1576
44886205,1000,1000,1000,1000,52728900,1575,1575,1577,1577
44888704,1000,1000,1000,1000,52828860,1575,1575,1576,1576
44891203,1000,1000,1000,1000,52928820,1576,1576,1577,1577
44893702,1000,1000,1000,1000,53028780,1576,1576,1576,1577
44896201,1000,1000,1000,1000,53128740,1577,1577,1577,1577
44898700,1000,1000,1000,1000,53228700,1577,1577,1577,1577
44901199,1000,1000,1000,1000,53328660,1577,1577,1577,1577
44903698,1000,1000,1000,1000,53428620,1578,1578,1579,1577
44906197,1000,1000,1000,1000,53528580,1578,1578,1578,1577
44908696,1000,1000,1000,1000,53628540,1579,1579,1578,1578
44911195,1000,1000,1000,1000,53728500,1578,1578,1577,1578
44913694,1000,1000,1000,1000,53828460,1578,1578,1577,1578
44916193,1000,1000,1000,1000,53928420,1578,1578,1578,1578
44918692,1000,1000,1000,1000,54028380,1579,1578,1579,1578
44921191,1000,1000,1000,1000,54128340,1578,1578,1578,1578
44923690,1000,1000,1000,1000,54228300,1579,1579,1579,1579
44926189,1000,1000,1000,1000,54328260,1579,1579,1579,1579
44928688,1000,1000,1000,1000,54428220,1578,1578,1579,1578
44931187,1000,1000,1000,1000,54528180,1578,1578,1579,1579
44933686,1000,1000,1000,1000,54628973,1579,1579,1579,1579
44936185,1000,1000,1000,1000,54728933,1580,1579,1580,1580
44938684,1000,1000,1000,1000,54828893,1580,1580,1580,1580
44941183,1000,1000,1000,1000,54928853,1580,1579,1580,1580
44943682,1000,1000,1000,1000,55028813,1580,1580,1581,1580
44946181,1000,1000,1000,1000,55128773,1579,1579,1579,1579
44948680,1000,1000,1000,1000,55228733,1580,1581,1581,1580
44951179,1000,1000,1000,1000,55328693,1581,1581,1581,1581
44953678,1000,1000,1000,1000,55428653,1581,1581,1581,1581
44956177,1000,1000,1000,1000,55528613,1581,1580,1581,1580
44958676,1000,1000,1000,1000,55628573,1581,1580,1581,1580
44961175,1000,1000,1000,1000,55728533,1580,1581,1581,1581
44963674,1000,1000,1000,1000,55828493,1580,1581,1580,1581
44966173,1000,1000,1000,1000,55928453,1580,1580,1580,1581
44968672,1000,1000,1000,1000,56028413,1581,1581,1581,1581
44971171,1000,1000,1000,1000,56128373,1581,1580,1581,1580
44973670,1000,1000,1000,1000,56228333,1580,1580,1581,1580
44976169,1000,1000,1000,1000,56328293,1580,1581,1580,1581
44978668,1000,1000,1000,1000,56428253,1580,1580,1580,1580
44981167,1000,1000,1000,1000,56528213,1581,1580,1581,1580
44983666,1000,1000,1000,1000,56628173,1581,1581,1581,1580
44986165,1000,1000,1000,1000,56728966,1582,1581,1581,1581
44988664,1000,1000,1000,1000,56828926,1581,1581,1581,1581
44991163,1000,1000,1000,1000,56928886,1580,1580,1580,1580
44993662,1000,1000,1000,1000,57028846,1581,1582,1586,1576
44996161,1000,1000,1000,1000,57128806,1580,1581,1586,1572
44998660,1000,1000,1000,1000,57228766,1579,1581,1580,1573
45001159,1000,1000,1000,1000,57328726,1578,1580,1571,1573
45003658,1000,1000,1000,1000,57428686,1576,1578,1562,1569
45006157,1000,1000,1000,1000,57528646,1577,1578,1558,1565
45008656,1000,1000,1000,1000,57628606,1579,1579,1557,1561
45011155,1000,1000,1000,1000,57728566,1579,1577,1555,1557
45013654,1000,1000,1000,1000,57828526,1580,1578,1556,1555
45016153,1000,1000,1000,1000,57928486,1579,1578,1556,1554
45018652,1000,1000,1000,1000,58028446,1577,1578,1556,1553
45021151,1000,1000,1000,1000,58128406,1576,1577,1556,1554
45023650,1000,1000,1000,1000,58228366,1575,1576,1555,1554
45026149,1000,1000,1000,1000,58328326,1574,1576,1553,1553
45028648,1000,1000,1000,1000,58428286,1574,1576,1552,1552
45031147,1000,1000,1000,1000,58528246,1575,1577,1550,1550
45033646,1000,1000,1000,1000,58628206,1577,1578,1548,1548
45036145,1000,1000,1000,1000,58728166,1580,1580,1547,1546
45038644,1000,1000,1000,1000,58828959,1584,1584,1545,1545
45041143,1000,1000,1000,1000,58928919,1585,1585,1541,1541
45043642,1000,1000,1000,1000,59028879,1589,1589,1539,1539
45046141,1000,1000,1000,1000,59128839,1591,1591,1535,1536
45048640,1000,1000,1000,1000,59228799,1593,1594,1534,1534
45051139,1000,1000,1000,1000,59328759,1595,1595,1534,1536
45053638,1000,1000,1000,1000,59428719,1595,1595,1535,1537
45056137,1000,1000,1000,1000,59528679,1593,1592,1537,1539
45058636,1000,1000,1000,1000,59628639,1590,1590,1541,1544
45061135,1000,1000,1000,1000,59728599,1585,1583,1547,1550
45063634,1000,1000,1000,1000,59828559,1578,1575,1557,1560
45066133,1000,1000,1000,1000,59928519,1569,1565,1568,1570
45068632,1000,1000,1000,1000,60028479,1559,1555,1581,1582
45071131,1000,1000,1000,1000,60128439,1548,1545,1593,1594
45073630,1000,1000,1000,1000,60228399,1538,1536,1603,1602
45076129,1000,1000,1000,1000,60328359,1531,1531,1610,1609
45078628,1000,1000,1000,1000,60428319,1528,1529,1614,1613
45081127,1000,1000,1000,1000,60528279,1529,1531,1615,1614
45083626,1000,1000,1000,1000,60628239,1534,1535,1611,1611
45086125,1000,1000,1000,1000,60728199,1540,1542,1606,1606
45088624,1000,1000,1000,1000,60828159,1549,1550,1599,1600
45091123,1000,1000,1000,1000,60928952,1557,1558,1591,1591
45093622,1000,1000,1000,1000,61028912,1567,1567,1584,1584
45096121,1000,1000,1000,1000,61128872,1575,1574,1578,1577
45098620,1000,1000,1000,1000,61228832,1580,1579,1572,1571
45101119,1000,1000,1000,1000,61328792,1585,1583,1569,1568
45103618,1000,1000,1000,1000,61428752,1588,1586,1566,1566
45106117,1000,1000,1000,1000,61528712,1588,1586,1566,1566
45108616,1000,1000,1000,1000,61628672,1588,1587,1568,1568
45111115,1000,1000,1000,1000,61728632,1586,1586,1571,1571
45113614,1000,1000,1000,1000,61828592,1582,1582,1573,1572
45116113,1000,1000,1000,1000,61928552,1579,1580,1576,1576
45118612,1000,1000,1000,1000,62028512,1576,1577,1578,1578
45121111,1000,1000,1000,1000,62128472,1574,1574,1580,1580
45123610,1000,1000,1000,1000,62228432,1573,1573,1582,1582
45126109,1000,1000,1000,1000,62328392,1572,1573,1583,1583
45128608,1000,1000,1000,1000,62428352,1573,1574,1585,1584
45131107,1000,1000,1000,1000,62528312,1573,1574,1584,1584
45133606,1000,1000,1000,1000,62628272,1574,1574,1583,1583
45136105,1000,1000,1000,1000,62728232,1575,1575,1582,1582
45138604,1000,1000,1000,1000,62828192,1578,1577,1581,1581
45141103,1000,1000,1000,1000,62928985,1578,1578,1579,1579
45143602,1000,1000,1000,1000,63028945,1580,1580,1579,1579
45146101,1000,1000,1000,1000,63128905,1580,1580,1577,1577
45148600,1000,1000,1000,1000,63228865,1581,1581,1577,1577
45151099,1000,1000,1000,1000,63328825,1580,1581,1576,1576
45153598,1000,1000,1000,1000,63428785,1582,1581,1577,1577
45156097,1000,1000,1000,1000,63528745,1581,1581,1577,1577
45158596,1000,1000,1000,1000,63628705,1581,1581,1578,1578
45161095,1000,1000,1000,1000,63728665,1423,1509,1607,1613
45163594,1000,1000,1000,1000,63828625,1515,1491,1618,1627
45166093,1000,1000,1000,1000,63928585,1591,1518,1631,1644
45168592,1000,1000,1000,1000,64028545,1847,1630,1622,1622
45171091,1000,1000,1000,1000,64128505,1753,1679,1587,1576
45173590,1000,1000,1000,1000,64228465,1657,1702,1558,1549
45176089,1000,1000,1000,1000,64328425,1600,1710,1559,1556
45178588,1000,1000,1000,1000,64428385,1588,1703,1579,1580
45181087,1000,1000,1000,1000,64528345,1594,1674,1594,1593
45183586,1000,1000,1000,1000,64628305,1598,1626,1597,1594
45186085,1000,1000,1000,1000,64728265,1595,1578,1595,1592
45188584,1000,1000,1000,1000,64828225,1588,1546,1594,1594
45191083,1000,1000,1000,1000,64928185,1576,1534,1595,1597
45193582,1000,1000,1000,1000,65028978,1563,1537,1598,1597
45196081,1000,1000,1000,1000,65128938,1551,1546,1604,1590
45198580,1000,1000,1000,1000,65228898,1544,1554,1597,1587
45201079,1000,1000,1000,1000,65328858,1544,1562,1585,1584
45203578,1000,1000,1000,1000,65428818,1552,1568,1572,1577
45206077,1000,1000,1000,1000,65528778,1562,1569,1559,1567
45208576,1000,1000,1000,1000,65628738,1573,1572,1552,1558
45211075,1000,1000,1000,1000,65728698,1581,1575,1547,1550
45213574,1000,1000,1000,1000,65828658,1587,1579,1545,1545
45216073,1000,1000,1000,1000,65928618,1588,1582,1544,1542
45218572,1000,1000,1000,1000,66028578,1588,1584,1544,1541
45221071,1000,1000,1000,1000,66128538,1586,1585,1545,1543
45223570,1000,1000,1000,1000,66228498,1583,1585,1546,1544
45226069,1000,1000,1000,1000,66328458,1580,1584,1547,1546
45228568,1000,1000,1000,1000,66428418,1579,1582,1548,1548
45231067,1000,1000,1000,1000,66528378,1579,1581,1549,1550
45233566,1000,1000,1000,1000,66628338,1579,1580,1549,1550
45236065,1000,1000,1000,1000,66728298,1579,1580,1549,1549
45238564,1000,1000,1000,1000,66828258,1581,1581,1548,1548
45241063,1000,1000,1000,1000,66928218,1583,1583,1547,1546
45243562,1000,1000,1000,1000,67028178,1584,1585,1544,1544
45246061,1000,1000,1000,1000,67128971,1586,1586,1541,1542
45248560,1000,1000,1000,1000,67228931,1589,1589,1541,1542
45251059,1000,1000,1000,1000,67328891,1590,1589,1540,1542
45253558,1000,1000,1000,1000,67428851,1591,1591,1543,1544
45256057,1000,1000,1000,1000,67528811,1589,1589,1545,1546
45258556,1000,1000,1000,1000,67628771,1587,1586,1549,1551
45261055,1000,1000,1000,1000,67728731,1583,1580,1555,1559
45263554,1000,1000,1000,1000,67828691,1576,1573,1563,1566
45266053,1000,1000,1000,1000,67928651,1568,1564,1574,1576
45268552,1000,1000,1000,1000,68028611,1557,1554,1583,1584
45271051,1000,1000,1000,1000,68128571,1548,1546,1593,1593
45273550,1000,1000,1000,1000,68228531,1542,1542,1603,1602
45276049,1000,1000,1000,1000,68328491,1538,1538,1608,1607
45278548,1000,1000,1000,1000,68428451,1535,1536,1609,1608
45281047,1000,1000,1000,1000,68528411,1537,1539,1609,1609
45283546,1000,1000,1000,1000,68628371,1541,1543,1606,1606
45286045,1000,1000,1000,1000,68728331,1547,1548,1601,1601
45288544,1000,1000,1000,1000,68828291,1555,1556,1595,1596
45291043,1000,1000,1000,1000,68928251,1562,1563,1589,1589
45293542,1000,1000,1000,1000,69028211,1570,1569,1584,1583
45296041,1000,1000,1000,1000,69128171,1575,1574,1577,1577
45298540,1000,1000,1000,1000,69228964,1580,1579,1574,1573
45301039,1000,1000,1000,1000,69328924,1583,1582,1570,1569
45303538,1000,1000,1000,1000,69428884,1584,1583,1568,1568
45306037,1000,1000,1000,1000,69528844,1584,1583,1568,1568
45308536,1000,1000,1000,1000,69628804,1584,1583,1570,1570
45311035,1000,1000,1000,1000,69728764,1583,1582,1572,1572
45313534,1000,1000,1000,1000,69828724,1580,1580,1574,1574
45316033,1000,1000,1000,1000,69928684,1578,1579,1576,1576
45318532,1000,1000,1000,1000,70028644,1577,1577,1579,1579
45321031,1000,1000,1000,1000,70128604,1575,1575,1580,1580
45323530,1000,1000,1000,1000,70228564,1575,1575,1582,1583
45326029,1000,1000,1000,1000,70328524,1573,1574,1583,1582
45328528,1000,1000,1000,1000,70428484,1574,1574,1583,1583
45331027,1000,1000,1000,1000,70528444,1574,1574,1583,1582
45333526,1000,1000,1000,1000,70628404,1575,1576,1582,1582
45336025,1000,1000,1000,1000,70728364,1576,1576,1581,1581
45338524,1000,1000,1000,1000,70828324,1577,1577,1580,1580
45341023,1000,1000,1000,1000,70928284,1579,1579,1580,1580
45343522,1000,1000,1000,1000,71028244,1580,1580,1579,1579
45346021,1000,1000,1000,1000,71128204,1581,1580,1578,1578
45348520,1000,1000,1000,1000,71228164,1581,1581,1578,1578
45351019,1000,1000,1000,1000,71328957,1580,1580,1576,1577
45353518,1000,1000,1000,1000,71428917,1581,1581,1577,1577
45356017,1000,1000,1000,1000,71528877,1581,1581,1578,1578
45358516,1000,1000,1000,1000,71628837,1580,1580,1578,1578
45361015,1000,1000,1000,1000,71728797,1580,1580,1578,1579
45363514,1000,1000,1000,1000,71828757,1581,1581,1581,1581
45366013,1000,1000,1000,1000,71928717,1580,1581,1581,1581
45368512,1000,1000,1000,1000,72028677,1579,1580,1580,1580
45371011,1000,1000,1000,1000,72128637,1580,1580,1581,1581
45373510,1000,1000,1000,1000,72228597,1580,1580,1581,1581
45376009,1000,1000,1000,1000,72328557,1580,1579,1581,1581
45378508,1000,1000,1000,1000,72428517,1579,1579,1580,1580
45381007,1000,1000,1000,1000,72528477,1581,1581,1582,1582
45383506,1000,1000,1000,1000,72628437,1580,1581,1581,1581
45386005,1000,1000,1000,1000,72728397,1580,1581,1581,1581
45388504,1000,1000,1000,1000,72828357,1580,1580,1580,1580
45391003,1000,1000,1000,1000,72928317,1580,1580,1580,1580
45393502,1000,1000,1000,1000,73028277,1581,1581,1581,1580
45396001,1000,1000,1000,1000,73128237,1581,1581,1581,1581
45398500,1000,1000,1000,1000,73228197,1581,1581,1580,1580
45400999,1000,1000,1000,1000,73328157,1581,1581,1580,1580
45403498,1000,1000,1000,1000,73428950,1581,1581,1580,1581
45405997,1000,1000,1000,1000,73528910,1581,1582,1587,1574
45408496,1000,1000,1000,1000,73628870,1580,1583,1586,1573
45410995,1000,1000,1000,1000,73728830,1579,1582,1578,1573
45413494,1000,1000,1000,1000,73828790,1577,1580,1568,1571
45415993,1000,1000,1000,1000,73928750,1577,1579,1561,1568
45418492,1000,1000,1000,1000,74028710,1578,1578,1556,1564
45420991,1000,1000,1000,1000,74128670,1579,1579,1555,1559
45423490,1000,1000,1000,1000,74228630,1580,1579,1555,1556
45425989,1000,1000,1000,1000,74328590,1579,1579,1556,1554
45428488,1000,1000,1000,1000,74428550,1579,1578,1556,1553
45430987,1000,1000,1000,1000,74528510,1578,1578,1557,1554
45433486,1000,1000,1000,1000,74628470,1576,1577,1555,1553
45435985,1000,1000,1000,1000,74728430,1575,1577,1554,1554
45438484,1000,1000,1000,1000,74828390,1575,1577,1553,1553
45440983,1000,1000,1000,1000,74928350,1575,1577,1552,1553
45443482,1000,1000,1000,1000,75028310,1577,1578,1550,1551
45445981,1000,1000,1000,1000,75128270,1579,1579,1549,1549
45448480,1000,1000,1000,1000,75228230,1580,1581,1546,1545
45450979,1000,1000,1000,1000,75328190,1583,1584,1544,1543
45453478,1000,1000,1000,1000,75428983,1585,1586,1541,1540
45455977,1000,1000,1000,1000,75528943,1588,1589,1539,1540
45458476,1000,1000,1000,1000,75628903,1590,1591,1537,1537
45460975,1000,1000,1000,1000,75728863,1592,1592,1536,1537
45463474,1000,1000,1000,1000,75828823,1593,1593,1536,1538
45465973,1000,1000,1000,1000,75928783,1593,1593,1538,1540
45468472,1000,1000,1000,1000,76028743,1591,1591,1540,1544
45470971,1000,1000,1000,1000,76128703,1588,1586,1546,1549
45473470,1000,1000,1000,1000,76228663,1583,1580,1554,1557
45475969,1000,1000,1000,1000,76328623,1575,1570,1564,1566
45478468,1000,1000,1000,1000,76428583,1566,1561,1576,1578
45480967,1000,1000,1000,1000,76528543,1555,1551,1588,1589
45483466,1000,1000,1000,1000,76628503,1545,1544,1599,1599
45485965,1000,1000,1000,1000,76728463,1538,1537,1607,1607
45488464,1000,1000,1000,1000,76828423,1533,1534,1612,1611
45490963,1000,1000,1000,1000,76928383,1531,1533,1613,1612
45493462,1000,1000,1000,1000,77028343,1535,1537,1612,1612
45495961,1000,1000,1000,1000,77128303,1540,1542,1608,1607
45498460,1000,1000,1000,1000,77228263,1547,1549,1602,1602
45500959,1000,1000,1000,1000,77328223,1556,1556,1596,1595
45503458,1000,1000,1000,1000,77428183,1565,1564,1588,1588
45505957,1000,1000,1000,1000,77528976,1571,1570,1581,1580
45508456,1000,1000,1000,1000,77628936,1578,1577,1576,1575
45510955,1000,1000,1000,1000,77728896,1583,1582,1572,1571
45513454,1000,1000,1000,1000,77828856,1585,1585,1568,1569
45515953,1000,1000,1000,1000,77928816,1588,1586,1568,1568
45518452,1000,1000,1000,1000,78028776,1586,1585,1567,1567
45520951,1000,1000,1000,1000,78128736,1585,1584,1569,1569
45523450,1000,1000,1000,1000,78228696,1584,1583,1572,1572
45525949,1000,1000,1000,1000,78328656,1581,1581,1575,1574
45528448,1000,1000,1000,1000,78428616,1579,1578,1577,1577
45530947,1000,1000,1000,1000,78528576,1576,1576,1579,1579
45533446,1000,1000,1000,1000,78628536,1574,1575,1582,1582
45535945,1000,1000,1000,1000,78728496,1573,1574,1583,1583
45538444,1000,1000,1000,1000,78828456,1573,1573,1584,1583
45540943,1000,1000,1000,1000,78928416,1573,1573,1583,1583
45543442,1000,1000,1000,1000,79028376,1573,1574,1582,1583
45545941,1000,1000,1000,1000,79128336,1574,1574,1581,1581
45548440,1000,1000,1000,1000,79228296,1575,1575,1580,1580
45550939,1000,1000,1000,1000,79328256,1578,1577,1580,1580
45553438,1000,1000,1000,1000,79428216,1579,1579,1579,1579
45555937,1000,1000,1000,1000,79528176,1580,1579,1578,1578
45558436,1000,1000,1000,1000,79628969,1580,1580,1577,1578
45560935,1000,1000,1000,1000,79728929,1580,1580,1577,1577
45563434,1000,1000,1000,1000,79828889,1581,1581,1577,1577
45565933,1000,1000,1000,1000,79928849,1582,1582,1579,1578
45568432,1000,1000,1000,1000,80028809,1582,1582,1578,1578
45570931,1000,1000,1000,1000,80128769,1581,1580,1578,1578
45573430,1000,1000,1000,1000,80228729,1580,1581,1579,1579
45575929,1000,1000,1000,1000,80328689,1580,1580,1579,1579
45578428,1000,1000,1000,1000,80428649,1580,1580,1580,1580
45580927,1000,1000,1000,1000,80528609,1580,1580,1580,1581
45583426,1000,1000,1000,1000,80628569,1579,1579,1581,1580
45585925,1000,1000,1000,1000,80728529,1580,1580,1581,1581
45588424,1000,1000,1000,1000,80828489,1580,1580,1581,1582
45590923,1000,1000,1000,1000,80928449,1580,1581,1582,1582
45593422,1000,1000,1000,1000,81028409,1581,1581,1582,1582
45595921,1000,1000,1000,1000,81128369,1580,1580,1581,1581
45598420,1000,1000,1000,1000,81228329,1582,1582,1582,1582
45600919,1000,1000,1000,1000,81328289,1582,1582,1582,1582
45603418,1000,1000,1000,1000,81428249,1582,1581,1583,1579
45605917,1000,1000,1000,1000,81528209,1582,1583,1588,1573
45608416,1000,1000,1000,1000,81628169,1581,1581,1584,1575
45610915,1000,1000,1000,1000,81728962,1579,1578,1577,1577
45613414,1000,1000,1000,1000,81828922,1576,1575,1571,1577
45615913,1000,1000,1000,1000,81928882,1572,1571,1567,1574
45618412,1000,1000,1000,1000,82028842,1569,1569,1565,1571
45620911,1000,1000,1000,1000,82128802,1567,1567,1565,1568
45623410,1000,1000,1000,1000,82228762,1566,1566,1566,1566
45625909,1000,1000,1000,1000,82328722,1566,1565,1567,1565
45628408,1000,1000,1000,1000,82428682,1564,1564,1566,1563
45630907,1000,1000,1000,1000,82528642,1564,1564,1566,1563
45633406,1000,1000,1000,1000,82628602,1564,1564,1566,1564
45635905,1000,1000,1000,1000,82728562,1563,1562,1563,1563
45638404,1000,1000,1000,1000,82828522,1562,1562,1563,1563
45640903,1000,1000,1000,1000,82928482,1562,1563,1563,1563
45643402,1000,1000,1000,1000,83028442,1561,1561,1561,1562
45645901,1000,1000,1000,1000,83128402,1561,1561,1561,1562
45648400,1000,1000,1000,1000,83228362,1561,1561,1561,1560
45650899,1000,1000,1000,1000,83328322,1560,1560,1560,1559
45653398,1000,1000,1000,1000,83428282,1558,1559,1559,1558
45655897,1000,1000,1000,1000,83528242,1558,1558,1558,1557
45658396,1000,1000,1000,1000,83628202,1557,1557,1557,1557
45660895,1000,1000,1000,1000,83728162,1558,1558,1558,1558
45663394,1000,1000,1000,1000,83828955,1557,1557,1558,1556
45665893,1000,1000,1000,1000,83928915,1558,1558,1558,1557
45668392,1000,1000,1000,1000,84028875,1558,1558,1559,1557
45670891,1000,1000,1000,1000,84128835,1557,1558,1559,1557
45673390,1000,1000,1000,1000,84228795,1558,1557,1559,1557
45675889,1000,1000,1000,1000,84328755,1559,1559,1558,1560
45678388,1000,1000,1000,1000,84428715,1559,1559,1557,1562
45680887,1000,1000,1000,1000,84528675,1560,1560,1557,1563
45683386,1000,1000,1000,1000,84628635,1559,1559,1557,1561
45685885,1000,1000,1000,1000,84728595,1560,1560,1559,1562
45688384,1000,1000,1000,1000,84828555,1559,1558,1558,1559
45690883,1000,1000,1000,1000,84928515,1555,1555,1555,1556
45693382,1000,1000,1000,1000,85028475,1551,1550,1551,1550
45695881,1000,1000,1000,1000,85128435,1544,1544,1544,1544
45698380,1000,1000,1000,1000,85228395,1537,1537,1537,1537
45700879,1000,1000,1000,1000,85328355,1530,1530,1530,1530
45703378,1000,1000,1000,1000,85428315,1523,1523,1523,1523
45705877,1000,1000,1000,1000,85528275,1521,1521,1521,1522
45708376,1000,1000,1000,1000,85628235,1520,1520,1520,1520
45710875,1000,1000,1000,1000,85728195,1520,1520,1520,1521
45713374,1000,1000,1000,1000,85828155,1524,1524,1524,1524
45715873,1000,1000,1000,1000,85928948,1528,1528,1528,1529
45718372,1000,1000,1000,1000,86028908,1532,1532,1532,1533
45720871,1000,1000,1000,1000,86128868,1538,1538,1538,1538
45723370,1000,1000,1000,1000,86228828,1541,1541,1541,1541
45725869,1000,1000,1000,1000,86328788,1542,1542,1542,1542
45728368,1000,1000,1000,1000,86428748,1543,1543,1544,1543
45730867,1000,1000,1000,1000,86528708,1545,1545,1545,1545
45733366,1000,1000,1000,1000,86628668,1546,1546,1546,1545
45735865,1000,1000,1000,1000,86728628,1545,1545,1545,1545
45738364,1000,1000,1000,1000,86828588,1546,1547,1546,1547
45740863,1000,1000,1000,1000,86928548,1547,1546,1546,1547
45743362,1000,1000,1000,1000,87028508,1547,1547,1547,1546
45745861,1000,1000,1000,1000,87128468,1546,1546,1547,1546
45748360,1000,1000,1000,1000,87228428,1547,1547,1547,1547
45750859,1000,1000,1000,1000,87328388,1545,1545,1545,1545
45753358,1000,1000,1000,1000,87428348,1545,1546,1546,1546
45755857,1000,1000,1000,1000,87528308,1546,1545,1546,1545
45758356,1000,1000,1000,1000,87628268,1546,1545,1546,1545
45760855,1000,1000,1000,1000,87728228,1545,1545,1545,1544
45763354,1000,1000,1000,1000,87828188,1544,1544,1544,1544
45765853,1000,1000,1000,1000,87928981,1543,1544,1544,1544
45768352,1000,1000,1000,1000,88028941,1544,1544,1544,1544
45770851,1000,1000,1000,1000,88128901,1543,1544,1544,1544
45773350,1000,1000,1000,1000,88228861,1544,1544,1544,1544
45775849,1000,1000,1000,1000,88328821,1544,1544,1544,1544
45778348,1000,1000,1000,1000,88428781,1544,1545,1545,1544
45780847,1000,1000,1000,1000,88528741,1544,1544,1544,1544
45783346,1000,1000,1000,1000,88628701,1544,1544,1544,1543
45785845,1000,1000,1000,1000,88728661,1545,1544,1545,1545
45788344,1000,1000,1000,1000,88828621,1544,1544,1544,1544
45790843,1000,1000,1000,1000,88928581,1544,1544,1544,1544
45793342,1000,1000,1000,1000,89028541,1544,1544,1544,1544
45795841,1000,1000,1000,1000,89128501,1543,1544,1544,1544
45798340,1000,1000,1000,1000,89228461,1544,1545,1544,1545
45800839,1000,1000,1000,1000,89328421,1545,1544,1545,1545
45803338,1000,1000,1000,1000,89428381,1543,1543,1544,1543
45805837,1000,1000,1000,1000,89528341,1544,1543,1543,1544
45808336,1000,1000,1000,1000,89628301,1544,1544,1544,1544
45810835,1000,1000,1000,1000,89728261,1545,1544,1544,1544
45813334,1000,1000,1000,1000,89828221,1544,1543,1544,1543
45815833,1000,1000,1000,1000,89928181,1543,1544,1544,1544
45818332,1000,1000,1000,1000,90028974,1544,1544,1544,1544
45820831,1000,1000,1000,1000,90128934,1544,1544,1545,1544
45823330,1000,1000,1000,1000,90228894,1543,1544,1544,1543
45825829,1000,1000,1000,1000,90328854,1543,1543,1543,1543
45828328,1000,1000,1000,1000,90428814,1544,1544,1544,1544
45830827,1000,1000,1000,1000,90528774,1544,1543,1544,1544
45833326,1000,1000,1000,1000,90628734,1545,1544,1544,1545
45835825,1000,1000,1000,1000,90728694,1546,1545,1545,1546
45838324,1000,1000,1000,1000,90828654,1545,1544,1544,1545
45840823,1000,1000,1000,1000,90928614,1545,1545,1545,1545
45843322,1000,1000,1000,1000,91028574,1545,1545,1545,1545
45845821,1000,1000,1000,1000,91128534,1545,1545,1545,1545
45848320,1000,1000,1000,1000,91228494,1544,1544,1544,1544
45850819,1000,1000,1000,1000,91328454,1546,1545,1545,1546
45853318,1000,1000,1000,1000,91428414,1544,1544,1544,1544
45855817,1000,1000,1000,1000,91528374,1545,1545,1545,1545
45858316,1000,1000,1000,1000,91628334,1545,1545,1545,1545
45860815,1000,1000,1000,1000,91728294,1545,1545,1545,1545
45863314,1000,1000,1000,1000,91828254,1545,1545,1545,1545
45865813,1000,1000,1000,1000,91928214,1544,1544,1544,1544
45868312,1000,1000,1000,1000,92028174,1544,1543,1543,1544
45870811,1000,1000,1000,1000,92128967,1544,1544,1543,1544
45873310,1000,1000,1000,1000,92228927,1543,1543,1543,1543
45875809,1000,1000,1000,1000,92328887,1544,1544,1545,1544
45878308,1000,1000,1000,1000,92428847,1544,1544,1544,1543
45880807,1000,1000,1000,1000,92528807,1543,1543,1543,1543
45883306,1000,1000,1000,1000,92628767,1543,1544,1544,1544
45885805,1000,1000,1000,1000,92728727,1544,1543,1544,1544
45888304,1000,1000,1000,1000,92828687,1545,1544,1545,1544
45890803,1000,1000,1000,1000,92928647,1545,1545,1545,1545
45893302,1000,1000,1000,1000,93028607,1545,1545,1545,1545
45895801,1000,1000,1000,1000,93128567,1544,1544,1544,1544
45898300,1000,1000,1000,1000,93228527,1544,1545,1544,1544
45900799,1000,1000,1000,1000,93328487,1545,1545,1545,1545
45903298,1000,1000,1000,1000,93428447,1545,1545,1545,1545
45905797,1000,1000,1000,1000,93528407,1545,1545,1545,1545
45908296,1000,1000,1000,1000,93628367,1544,1545,1545,1544
45910795,1000,1000,1000,1000,93728327,1545,1544,1545,1545
45913294,1000,1000,1000,1000,93828287,1544,1544,1544,1544
45915793,1000,1000,1000,1000,93928247,1545,1544,1544,1545
45918292,1000,1000,1000,1000,94028207,1544,1544,1544,1544
45920791,1000,1000,1000,1000,94128167,1545,1545,1545,1545
45923290,1000,1000,1000,1000,94228960,1544,1545,1544,1544
45925789,1000,1000,1000,1000,94328920,1544,1544,1544,1544
45928288,1000,1000,1000,1000,94428880,1543,1544,1544,1543
45930787,1000,1000,1000,1000,94528840,1544,1544,1544,1544
45933286,1000,1000,1000,1000,94628800,1545,1544,1544,1544
45935785,1000,1000,1000,1000,94728760,1544,1544,1544,1544
45938284,1000,1000,1000,1000,94828720,1544,1545,1544,1544
45940783,1000,1000,1000,1000,94928680,1545,1545,1544,1545
45943282,1000,1000,1000,1000,95028640,1543,1543,1543,1544
45945781,1000,1000,1000,1000,95128600,1544,1544,1544,1544
45948280,1000,1000,1000,1000,95228560,1410,1409,1410,1410
45950779,1000,1000,1000,1000,95328520,1273,1269,1270,1272
45953278,1000,1000,1000,1000,95428480,1220,1217,1218,1219
45955777,1000,1000,1000,1000,95528440,1199,1196,1197,1198
45958276,1000,1000,1000,1000,95628400,1162,1160,1161,1162
45960775,1000,1000,1000,1000,95728360,1153,1150,1150,1152
45963274,1000,1000,1000,1000,95828320,1152,1150,1151,1151
45965773,1000,1000,1000,1000,95928280,1183,1150,1150,1183
45968272,1000,1000,1000,1000,96028240,1174,1150,1150,1174
45970771,1000,1000,1000,1000,96128200,1171,1150,1151,1170
45973270,1000,1000,1000,1000,96228160,1171,1150,1151,1171
45975769,1000,1000,1000,1000,96328953,1173,1150,1151,1173
45978268,1000,1000,1000,1000,96428913,1175,1150,1151,1174
45980767,1000,1000,1000,1000,96528873,1177,1150,1151,1176
45983266,1000,1000,1000,1000,96628833,1177,1150,1151,1177
45985765,1000,1000,1000,1000,96728793,1164,1150,1151,1164
45988264,1000,1000,1000,1000,96828753,1166,1150,1151,1165
45990763,1000,1000,1000,1000,96928713,1167,1150,1151,1166
45993262,1000,1000,1000,1000,97028673,1168,1150,1151,1167
45995761,1000,1000,1000,1000,97128633,1168,1150,1151,1167
45998260,1000,1000,1000,1000,97228593,1000,1000,1000,1000
46000759,1000,1000,1000,1000,97328553,1000,1000,1000,1000
46003258,1000,1000,1000,1000,97428513,1000,1000,1000,1000
46005757,1000,1000,1000,1000,97528473,1000,1000,1000,1000
46008256,1000,1000,1000,1000,97628433,1000,1000,1000,1000
46010755,1000,1000,1000,1000,97728393,1000,1000,1000,1000
46013254,1000,1000,1000,1000,97828353,1000,1000,1000,1000
46015753,1000,1000,1000,1000,97928313,1000,1000,1000,1000
46018252,1000,1000,1000,1000,98028273,1000,1000,1000,1000
46020751,1000,1000,1000,1000,98128233,1000,1000,1000,1000
46023250,1000,1000,1000,1000,98228193,1000,1000,1000,1000
46025749,1000,1000,1000,1000,98328986,1000,1000,1000,1000
46028248,1000,1000,1000,1000,98428946,1000,1000,1000,1000
46030747,1000,1000,1000,1000,98528906,1000,1000,1000,1000
46033246,1000,1000,1000,1000,98628866,1000,1000,1000,1000
46035745,1000,1000,1000,1000,98728826,1000,1000,1000,1000
46038244,1000,1000,1000,1000,98828786,1000,1000,1000,1000
46040743,1000,1000,1000,1000,98928746,1000,1000,1000,1000
46043242,1000,1000,1000,1000,99028706,1000,1000,1000,1000
46045741,1000,1000,1000,1000,99128666,1000,1000,1000,1000
46048240,1000,1000,1000,1000,99228626,1000,1000,1000,1000
46050739,1000,1000,1000,1000,99328586,1000,1000,1000,1000
46053238,1000,1000,1000,1000,99428546,1000,1000,1000,1000
46055737,1000,1000,1000,1000,99528506,1000,1000,1000,1000
46058236,1000,1000,1000,1000,99628466,1000,1000,1000,1000
46060735,1000,1000,1000,1000,99728426,1000,1000,1000,1000
46063234,1000,1000,1000,1000,99828386,1000,1000,1000,1000
46065733,1000,1000,1000,1000,99928346,1000,1000,1000,1000
46068232,1000,1000,1000,1000,100028306,1000,1000,1000,1000
46070731,1000,1000,1000,1000,100128266,1000,1000,1000,1000
46073230,1000,1000,1000,1000,100228226,1000,1000,1000,1000
46075729,1000,1000,1000,1000,100328186,1000,1000,1000,1000
46078228,1000,1000,1000,1000,100428979,1000,1000,1000,1000
46080727,1000,1000,1000,1000,100528939,1000,1000,1000,1000
46083226,1000,1000,1000,1000,100628899,1000,1000,1000,1000
46085725,1000,1000,1000,1000,100728859,1000,1000,1000,1000
46088224,1000,1000,1000,1000,100828819,1000,1000,1000,1000
46090723,1000,1000,1000,1000,100928779,1000,1000,1000,1000
46093222,1000,1000,1000,1000,101028739,1000,1000,1000,1000
46095721,1000,1000,1000,1000,101128699,1000,1000,1000,1000
46098220,1000,1000,1000,1000,101228659,1000,1000,1000,1000
46100719,1000,1000,1000,1000,101328619,1000,1000,1000,1000
46103218,1000,1000,1000,1000,101428579,1000,1000,1000,1000
46105717,1000,1000,1000,1000,101528539,1000,1000,1000,1000
46108216,1000,1000,1000,1000,101628499,1000,1000,1000,1000
46110715,1000,1000,1000,1000,101728459,1000,1000,1000,1000
46113214,1000,1000,1000,1000,101828419,1000,1000,1000,1000
46115713,1000,1000,1000,1000,101928379,1000,1000,1000,1000
46118212,1000,1000,1000,1000,102028339,1000,1000,1000,1000
46120711,1000,1000,1000,1000,102128299,1000,1000,1000,1000
46123210,1000,1000,1000,1000,102228259,1000,1000,1000,1000
46125709,1000,1000,1000,1000,102328219,1000,1000,1000,1000
46128208,1000,1000,1000,1000,102428179,1000,1000,1000,1000
46130707,1000,1000,1000,1000,102528972,1000,1000,1000,1000
46133206,1000,1000,1000,1000,102628932,1000,1000,1000,1000
46135705,1000,1000,1000,1000,102728892,1000,1000,1000,1000
46138204,1000,1000,1000,1000,102828852,1000,1000,1000,1000
46140703,1000,1000,1000,1000,102928812,1000,1000,1000,1000
46143202,1000,1000,1000,1000,103028772,1000,1000,1000,1000
46145701,1000,1000,1000,1000,103128732,1000,1000,1000,1000
46148200,1000,1000,1000,1000,103228692,1000,1000,1000,1000
46150699,1000,1000,1000,1000,103328652,1000,1000,1000,1000
46153198,1000,1000,1000,1000,103428612,1000,1000,1000,1000
46155697,1000,1000,1000,1000,103528572,1000,1000,1000,1000
46158196,1000,1000,1000,1000,103628532,1000,1000,1000,1000
46160695,1000,1000,1000,1000,103728492,1000,1000,1000,1000
46163194,1000,1000,1000,1000,103828452,1000,1000,1000,1000
46165693,1000,1000,1000,1000,103928412,1000,1000,1000,1000
46168192,1000,1000,1000,1000,104028372,1000,1000,1000,1000
46170691,1000,1000,1000,1000,104128332,1000,1000,1000,1000
46173190,1000,1000,1000,1000,104228292,1000,1000,1000,1000
46175689,1000,1000,1000,1000,104328252,1000,1000,1000,1000
46178188,1000,1000,1000,1000,104428212,1000,1000,1000,1000
46180687,1000,1000,1000,1000,104528172,1000,1000,1000,1000
46183186,1000,1000,1000,1000,104628965,1000,1000,1000,1000
46185685,1000,1000,1000,1000,104728925,1000,1000,1000,1000
46188184,1000,1000,1000,1000,104828885,1000,1000,1000,1000
46190683,1000,1000,1000,1000,104928845,1000,1000,1000,1000
46193182,1000,1000,1000,1000,105028805,1000,1000,1000,1000
46195681,1000,1000,1000,1000,105128765,1000,1000,1000,1000
46198180,1000,1000,1000,1000,105228725,1000,1000,1000,1000
46200679,1000,1000,1000,1000,105328685,1000,1000,1000,1000
46203178,1000,1000,1000,1000,105428645,1000,1000,1000,1000
46205677,1000,1000,1000,1000,105528605,1000,1000,1000,1000
46208176,1000,1000,1000,1000,105628565,1000,1000,1000,1000
46210675,1000,1000,1000,1000,105728525,1000,1000,1000,1000
46213174,1000,1000,1000,1000,105828485,1000,1000,1000,1000
46215673,1000,1000,1000,1000,105928445,1000,1000,1000,1000
46218172,1000,1000,1000,1000,106028405,1000,1000,1000,1000
46220671,1000,1000,1000,1000,106128365,1000,1000,1000,1000
46223170,1000,1000,1000,1000,106228325,1000,1000,1000,1000
46225669,1000,1000,1000,1000,106328285,1000,1000,1000,1000
46228168,1000,1000,1000,1000,106428245,1000,1000,1000,1000
46230667,1000,1000,1000,1000,106528205,1000,1000,1000,1000
46233166,1000,1000,1000,1000,106628165,1000,1000,1000,1000
46235665,1000,1000,1000,1000,106728958,1000,1000,1000,1000
46238164,1000,1000,1000,1000,106828918,1000,1000,1000,1000
46240663,1000,1000,1000,1000,106928878,1000,1000,1000,1000
46243162,1000,1000,1000,1000,107028838,1000,1000,1000,1000
46245661,1000,1000,1000,1000,107128798,1000,1000,1000,1000
46248160,1000,1000,1000,1000,107228758,1000,1000,1000,1000
46250659,1000,1000,1000,1000,107328718,1000,1000,1000,1000
46253158,1000,1000,1000,1000,107428678,1000,1000,1000,1000
46255657,1000,1000,1000,1000,107528638,1000,1000,1000,1000
46258156,1000,1000,1000,1000,107628598,1000,1000,1000,1000
46260655,1000,1000,1000,1000,107728558,1000,1000,1000,1000
46263154,1000,1000,1000,1000,107828518,1000,1000,1000,1000
46266486,1000,1000,1000,1000,107928478,1000,1000,1000,1000
46268985,1000,1000,1000,1000,108028438,1000,1000,1000,1000
46271484,1000,1000,1000,1000,108128398,1000,1000,1000,1000
46273983,1000,1000,1000,1000,108228358,1000,1000,1000,1000
46276482,1000,1000,1000,1000,108328318,1000,1000,1000,1000
46278981,1000,1000,1000,1000,108428278,1000,1000,1000,1000
46281480,1000,1000,1000,1000,108528238,1000,1000,1000,1000
46283979,1000,1000,1000,1000,108628198,1000,1000,1000,1000
46286478,1000,1000,1000,1000,108728158,1000,1000,1000,1000
46288977,1000,1000,1000,1000,108828951,1000,1000,1000,1000
46291476,1000,1000,1000,1000,108928911,1000,1000,1000,1000
46293975,1000,1000,1000,1000,109028871,1000,1000,1000,1000
46296474,1000,1000,1000,1000,109128831,1000,1000,1000,1000
46298973,1000,1000,1000,1000,109228791,1000,1000,1000,1000
46301472,1000,1000,1000,1000,109328751,1000,1000,1000,1000
46303971,1000,1000,1000,1000,109428711,1000,1000,1000,1000
46306470,1000,1000,1000,1000,109528671,1000,1000,1000,1000
46308969,1000,1000,1000,1000,109628631,1000,1000,1000,1000
46311468,1000,1000,1000,1000,109728591,1000,1000,1000,1000
46313967,1000,1000,1000,1000,109828551,1000,1000,1000,1000
46316466,1000,1000,1000,1000,109928511,1000,1000,1000,1000
46318965,1000,1000,1000,1000,110028471,1000,1000,1000,1000
46321464,1000,1000,1000,1000,110128431,1000,1000,1000,1000
46323963,1000,1000,1000,1000,110228391,1000,1000,1000,1000
46326462,1000,1000,1000,1000,110328351,1000,1000,1000,1000
46328961,1000,1000,1000,1000,110428311,1000,1000,1000,1000
46331460,1000,1000,1000,1000,110528271,1000,1000,1000,1000
46333959,1000,1000,1000,1000,110628231,1000,1000,1000,1000
46336458,1000,1000,1000,1000,110728191,1000,1000,1000,1000
46338957,1000,1000,1000,1000,110828984,1000,1000,1000,1000
46341456,1000,1000,1000,1000,110928944,1000,1000,1000,1000
46343955,1000,1000,1000,1000,111028904,1000,1000,1000,1000
46346454,1000,1000,1000,1000,111128864,1000,1000,1000,1000
46348953,1000,1000,1000,1000,111228824,1000,1000,1000,1000
46351452,1000,1000,1000,1000,111328784,1000,1000,1000,1000
46353951,1000,1000,1000,1000,111428744,1000,1000,1000,1000
46356450,1000,1000,1000,1000,111528704,1000,1000,1000,1000
46358949,1000,1000,1000,1000,111628664,1000,1000,1000,1000
46361448,1000,1000,1000,1000,111728624,1000,1000,1000,1000
46363947,1000,1000,1000,1000,111828584,1000,1000,1000,1000
46366446,1000,1000,1000,1000,111928544,1000,1000,1000,1000
46368945,1000,1000,1000,1000,112028504,1000,1000,1000,1000
46371444,1000,1000,1000,1000,112128464,1000,1000,1000,1000
46373943,1000,1000,1000,1000,,,,,
46376442,1000,1000,1000,1000,,,,,
46378941,1000,1000,1000,1000,,,,,
46381440,1000,1000,1000,1000,,,,,
46383939,1000,1000,1000,1000,,,,,
46386438,1000,1000,1000,1000,,,,,
46388937,1000,1000,1000,1000,,,,,
46391436,1000,1000,1000,1000,,,,,
46393935,1000,1000,1000,1000,,,,,
46396434,1000,1000,1000,1000,,,,,
46398933,1000,1000,1000,1000,,,,,
46401432,1000,1000,1000,1000,,,,,
46403931,1000,1000,1000,1000,,,,,
46406430,1000,1000,1000,1000,,,,,
46408929,1000,1000,1000,1000,,,,,
46411428,1000,1000,1000,1000,,,,,
46413927,1000,1000,1000,1000,,,,,
46416426,1000,1000,1000,1000,,,,,
46418925,1000,1000,1000,1000,,,,,
46421424,1000,1000,1000,1000,,,,,
46423923,1000,1000,1000,1000,,,,,
46426422,1000,1000,1000,1000,,,,,
46428921,1000,1000,1000,1000,,,,,
46431420,1000,1000,1000,1000,,,,,
46433919,1000,1000,1000,1000,,,,,
46436418,1000,1000,1000,1000,,,,,
46438917,1000,1000,1000,1000,,,,,
46441416,1000,1000,1000,1000,,,,,
46443915,1000,1000,1000,1000,,,,,
46446414,1000,1000,1000,1000,,,,,
46448913,1000,1000,1000,1000,,,,,
46451412,1000,1000,1000,1000,,,,,
46453911,1000,1000,1000,1000,,,,,
46456410,1000,1000,1000,1000,,,,,
46458909,1000,1000,1000,1000,,,,,
46461408,1000,1000,1000,1000,,,,,
46463907,1000,1000,1000,1000,,,,,
46466406,1000,1000,1000,1000,,,,,
46468905,1000,1000,1000,1000,,,,,
46471404,1000,1000,1000,1000,,,,,
46473903,1000,1000,1000,1000,,,,,
46476402,1000,1000,1000,1000,,,,,
46478901,1000,1000,1000,1000,,,,,
46481400,1000,1000,1000,1000,,,,,
46483899,1000,1000,1000,1000,,,,,
46486398,1000,1000,1000,1000,,,,,
46488897,1000,1000,1000,1000,,,,,
46491396,1000,1000,1000,1000,,,,,
46493895,1000,1000,1000,1000,,,,,
46496394,1000,1000,1000,1000,,,,,
46498893,1000,1000,1000,1000,,,,,
46501392,1000,1000,1000,1000,,,,,
46503891,1000,1000,1000,1000,,,,,
46506390,1000,1000,1000,1000,,,,,
46508889,1000,1000,1000,1000,,,,,
46511388,1000,1000,1000,1000,,,,,
46513887,1000,1000,1000,1000,,,,,
46516386,1000,1000,1000,1000,,,,,
46518885,1000,1000,1000,1000,,,,,
46521384,1000,1000,1000,1000,,,,,
46523883,1000,1000,1000,1000,,,,,
46526382,1000,1000,1000,1000,,,,,
46528881,1000,1000,1000,1000,,,,,
46531380,1000,1000,1000,1000,,,,,
46533879,1000,1000,1000,1000,,,,,
46536378,1000,1000,1000,1000,,,,,
46538877,1000,1000,1000,1000,,,,,
46541376,1000,1000,1000,1000,,,,,
46543875,1000,1000,1000,1000,,,,,
46546374,1000,1000,1000,1000,,,,,
46548873,1000,1000,1000,1000,,,,,
46551372,1000,1000,1000,1000,,,,,
46553871,1000,1000,1000,1000,,,,,
46556370,1000,1000,1000,1000,,,,,
46558869,1000,1000,1000,1000,,,,,
46561368,1000,1000,1000,1000,,,,,
46563867,1000,1000,1000,1000,,,,,
46566366,1000,1000,1000,1000,,,,,
46568865,1000,1000,1000,1000,,,,,
46571364,1000,1000,1000,1000,,,,,
46573863,1000,1000,1000,1000,,,,,
46576362,1000,1000,1000,1000,,,,,
46578861,1000,1000,1000,1000,,,,,
46581360,1000,1000,1000,1000,,,,,
46583859,1000,1000,1000,1000,,,,,
46586358,1000,1000,1000,1000,,,,,
46588857,1000,1000,1000,1000,,,,,
46591356,1000,1000,1000,1000,,,,,
46593855,1000,1000,1000,1000,,,,,
46596354,1000,1000,1000,1000,,,,,
46598853,1000,1000,1000,1000,,,,,
46601352,1000,1000,1000,1000,,,,,
46603851,1000,1000,1000,1000,,,,,
46606350,1000,1000,1000,1000,,,,,
46608849,1000,1000,1000,1000,,,,,
46611348,1000,1000,1000,1000,,,,,
46613847,1000,1000,1000,1000,,,,,
46616346,1000,1000,1000,1000,,,,,
46618845,1000,1000,1000,1000,,,,,
46621344,1000,1000,1000,1000,,,,,
46623843,1000,1000,1000,1000,,,,,
46626342,1000,1000,1000,1000,,,,,
46628841,1000,1000,1000,1000,,,,,
46631340,1000,1000,1000,1000,,,,,
46633839,1000,1000,1000,1000,,,,,
46636338,1000,1000,1000,1000,,,,,
46638837,1000,1000,1000,1000,,,,,
46641336,1000,1000,1000,1000,,,,,
46643835,1000,1000,1000,1000,,,,,
46646334,1000,1000,1000,1000,,,,,
46648833,1000,1000,1000,1000,,,,,
46651332,1000,1000,1000,1000,,,,,
46653831,1000,1000,1000,1000,,,,,
46656330,1000,1000,1000,1000,,,,,
46658829,1000,1000,1000,1000,,,,,
46661328,1000,1000,1000,1000,,,,,
46663827,1000,1000,1000,1000,,,,,
46666326,1000,1000,1000,1000,,,,,
46668825,1000,1000,1000,1000,,,,,
46671324,1000,1000,1000,1000,,,,,
46673823,1000,1000,1000,1000,,,,,
46676322,1000,1000,1000,1000,,,,,
46678821,1000,1000,1000,1000,,,,,
46681320,1000,1000,1000,1000,,,,,
46683819,1000,1000,1000,1000,,,,,
46686318,1000,1000,1000,1000,,,,,
46688817,1000,1000,1000,1000,,,,,
46691316,1000,1000,1000,1000,,,,,
46693815,1001,1001,1001,1001,,,,,
46696314,1002,1002,1002,1002,,,,,
46698813,1003,1003,1003,1003,,,,,
46701312,1003,1003,1003,1003,,,,,
46703811,1004,1004,1004,1004,,,,,
46706310,1005,1005,1005,1005,,,,,
46708809,1006,1006,1006,1006,,,,,
46711308,1006,1006,1006,1006,,,,,
46713807,1007,1007,1007,1007,,,,,
46716306,1008,1008,1008,1008,,,,,
46718805,1009,1009,1009,1009,,,,,
46721304,1009,1009,1009,1009,,,,,
46723803,1010,1010,1010,1010,,,,,
46726302,1011,1011,1011,1011,,,,,
46728801,1012,1012,1012,1012,,,,,
46731300,1012,1012,1012,1012,,,,,
46733799,1013,1013,1013,1013,,,,,
46736298,1014,1014,1014,1014,,,,,
46738797,1015,1015,1015,1015,,,,,
46741296,1015,1015,1015,1015,,,,,
46743795,1016,1016,1016,1016,,,,,
46746294,1017,1017,1017,1017,,,,,
46748793,1018,1018,1018,1018,,,,,
46751292,1018,1018,1018,1018,,,,,
46753791,1019,1019,1019,1019,,,,,
46756290,1020,1020,1020,1020,,,,,
46758789,1021,1021,1021,1021,,,,,
46761288,1021,1021,1021,1021,,,,,
46763787,1022,1022,1022,1022,,,,,
46766286,1023,1023,1023,1023,,,,,
46768785,1024,1024,1024,1024,,,,,
46771284,1024,1024,1024,1024,,,,,
46773783,1025,1025,1025,1025,,,,,
46776282,1026,1026,1026,1026,,,,,
46778781,1027,1027,1027,1027,,,,,
46781280,1027,1027,1027,1027,,,,,
46783779,1028,1028,1028,1028,,,,,
46786278,1029,1029,1029,1029,,,,,
46788777,1030,1030,1030,1030,,,,,
46791276,1030,1030,1030,1030,,,,,
46793775,1031,1031,1031,1031,,,,,
46796274,1032,1032,1032,1032,,,,,
46798773,1033,1033,1033,1033,,,,,
46801272,1033,1033,1033,1033,,,,,
46803771,1034,1034,1034,1034,,,,,
46806270,1035,1035,1035,1035,,,,,
46808769,1036,1036,1036,1036,,,,,
46811268,1036,1036,1036,1036,,,,,
46813767,1037,1037,1037,1037,,,,,
46816266,1038,1038,1038,1038,,,,,
46818765,1039,1039,1039,1039,,,,,
46821264,1039,1039,1039,1039,,,,,
46823763,1040,1040,1040,1040,,,,,
46826262,1041,1041,1041,1041,,,,,
46828761,1042,1042,1042,1042,,,,,
46831260,1042,1042,1042,1042,,,,,
46833759,1043,1043,1043,1043,,,,,
46836258,1044,1044,1044,1044,,,,,
46838757,1045,1045,1045,1045,,,,,
46841256,1045,1045,1045,1045,,,,,
46843755,1046,1046,1046,1046,,,,,
46846254,1047,1047,1047,1047,,,,,
46848753,1048,1048,1048,1048,,,,,
46851252,1048,1048,1048,1048,,,,,
46853751,1049,1049,1049,1049,,,,,
46856250,1050,1050,1050,1050,,,,,
46858749,1051,1051,1051,1051,,,,,
46861248,1051,1051,1051,1051,,,,,
46863747,1052,1052,1052,1052,,,,,
46866246,1053,1053,1053,1053,,,,,
46868745,1054,1054,1054,1054,,,,,
46871244,1054,1054,1054,1054,,,,,
46873743,1055,1055,1055,1055,,,,,
46876242,1056,1056,1056,1056,,,,,
46878741,1057,1057,1057,1057,,,,,
46881240,1057,1057,1057,1057,,,,,
46883739,1058,1058,1058,1058,,,,,
46886238,1059,1059,1059,1059,,,,,
46888737,1060,1060,1060,1060,,,,,
46891236,1060,1060,1060,1060,,,,,
46893735,1061,1061,1061,1061,,,,,
46896234,1062,1062,1062,1062,,,,,
46898733,1063,1063,1063,1063,,,,,
46901232,1063,1063,1063,1063,,,,,
46903731,1064,1064,1064,1064,,,,,
46906230,1065,1065,1065,1065,,,,,
46908729,1066,1066,1066,1066,,,,,
46911228,1066,1066,1066,1066,,,,,
46913727,1067,1067,1067,1067,,,,,
46916226,1068,1068,1068,1068,,,,,
46918725,1069,1069,1069,1069,,,,,
46921224,1069,1069,1069,1069,,,,,
46923723,1070,1070,1070,1070,,,,,
46926222,1071,1071,1071,1071,,,,,
46928721,1072,1072,1072,1072,,,,,
46931220,1072,1072,1072,1072,,,,,
46933719,1073,1073,1073,1073,,,,,
46936218,1074,1074,1074,1074,,,,,
46938717,1075,1075,1075,1075,,,,,
46941216,1075,1075,1075,1075,,,,,
46943715,1076,1076,1076,1076,,,,,
46946214,1077,1077,1077,1077,,,,,
46948713,1078,1078,1078,1078,,,,,
46951212,1078,1078,1078,1078,,,,,
46953711,1079,1079,1079,1079,,,,,
46956210,1080,1080,1080,1080,,,,,
46958709,1081,1081,1081,1081,,,,,
46961208,1081,1081,1081,1081,,,,,
46963707,1082,1082,1082,1082,,,,,
46966206,1083,1083,1083,1083,,,,,
46968705,1084,1084,1084,1084,,,,,
46971204,1084,1084,1084,1084,,,,,
46973703,1085,1085,1085,1085,,,,,
46976202,1086,1086,1086,1086,,,,,
46978701,1087,1087,1087,1087,,,,,
46981200,1087,1087,1087,1087,,,,,
46983699,1088,1088,1088,1088,,,,,
46986198,1089,1089,1089,1089,,,,,
46988697,1090,1090,1090,1090,,,,,
46991196,1090,1090,1090,1090,,,,,
46993695,1091,1091,1091,1091,,,,,
46996194,1092,1092,1092,1092,,,,,
46998693,1093,1093,1093,1093,,,,,
47001192,1093,1093,1093,1093,,,,,
47003691,1094,1094,1094,1094,,,,,
47006190,1095,1095,1095,1095,,,,,
47008689,1096,1096,1096,1096,,,,,
47011188,1096,1096,1096,1096,,,,,
47013687,1097,1097,1097,1097,,,,,
47016186,1098,1098,1098,1098,,,,,
47018685,1099,1099,1099,1099,,,,,
47021184,1099,1099,1099,1099,,,,,
47023683,1100,1100,1100,1100,,,,,
47026182,1101,1101,1101,1101,,,,,
47028681,1101,1101,1101,1101,,,,,
47031180,1102,1102,1102,1102,,,,,
47033679,1103,1103,1103,1103,,,,,
47036178,1104,1104,1104,1104,,,,,
47038677,1104,1104,1104,1104,,,,,
47041176,1105,1105,1105,1105,,,,,
47043675,1106,1106,1106,1106,,,,,
47046174,1107,1107,1107,1107,,,,,
47048673,1107,1107,1107,1107,,,,,
47051172,1108,1108,1108,1108,,,,,
47053671,1109,1109,1109,1109,,,,,
47056170,1110,1110,1110,1110,,,,,
47058669,1110,1110,1110,1110,,,,,
47061168,1111,1111,1111,1111,,,,,
47063667,1112,1112,1112,1112,,,,,
47066166,1113,1113,1113,1113,,,,,
47068665,1113,1113,1113,1113,,,,,
47071164,1114,1114,1114,1114,,,,,
47073663,1115,1115,1115,1115,,,,,
47076162,1116,1116,1116,1116,,,,,
47078661,1116,1116,1116,1116,,,,,
47081160,1117,1117,1117,1117,,,,,
47083659,1118,1118,1118,1118,,,,,
47086158,1119,1119,1119,1119,,,,,
47088657,1119,1119,1119,1119,,,,,
47091156,1120,1120,1120,1120,,,,,
47093655,1121,1121,1121,1121,,,,,
47096154,1122,1122,1122,1122,,,,,
47098653,1122,1122,1122,1122,,,,,
47101152,1123,1123,1123,1123,,,,,
47103651,1124,1124,1124,1124,,,,,
47106150,1125,1125,1125,1125,,,,,
47108649,1125,1125,1125,1125,,,,,
47111148,1126,1126,1126,1126,,,,,
47113647,1127,1127,1127,1127,,,,,
47116146,1128,1128,1128,1128,,,,,
47118645,1128,1128,1128,1128,,,,,
47121144,1129,1129,1129,1129,,,,,
47123643,1130,1130,1130,1130,,,,,
47126142,1131,1131,1131,1131,,,,,
47128641,1131,1131,1131,1131,,,,,
47131140,1132,1132,1132,1132,,,,,
47133639,1133,1133,1133,1133,,,,,
47136138,1134,1134,1134,1134,,,,,
47138637,1134,1134,1134,1134,,,,,
47141136,1135,1135,1135,1135,,,,,
47143635,1136,1136,1136,1136,,,,,
47146134,1137,1137,1137,1137,,,,,
47148633,1137,1137,1137,1137,,,,,
47151132,1138,1138,1138,1138,,,,,
47153631,1139,1139,1139,1139,,,,,
47156130,1140,1140,1140,1140,,,,,
47158629,1140,1140,1140,1140,,,,,
47161128,1141,1141,1141,1141,,,,,
47163627,1142,1142,1142,1142,,,,,
47166126,1143,1143,1143,1143,,,,,
47168625,1143,1143,1143,1143,,,,,
47171124,1144,1144,1144,1144,,,,,
47173623,1145,1145,1145,1145,,,,,
47176122,1146,1146,1146,1146,,,,,
47178621,1146,1146,1146,1146,,,,,
47181120,1147,1147,1147,1147,,,,,
47183619,1148,1148,1148,1148,,,,,
47186118,1149,1149,1149,1149,,,,,
47188617,1149,1149,1149,1149,,,,,
47191116,1150,1150,1150,1150,,,,,
47193615,1161,1154,1155,1161,,,,,
47196114,1169,1162,1163,1169,,,,,
47198613,1177,1170,1171,1177,,,,,
47201112,1184,1178,1179,1185,,,,,
47203611,1192,1186,1186,1192,,,,,
47206110,1199,1193,1194,1200,,,,,
47208609,1207,1201,1201,1207,,,,,
47211108,1214,1208,1208,1214,,,,,
47213607,1221,1215,1216,1221,,,,,
47216106,1228,1222,1223,1228,,,,,
47218605,1235,1229,1230,1235,,,,,
47221104,1242,1236,1236,1242,,,,,
47223603,1248,1243,1243,1249,,,,,
47226102,1255,1249,1250,1255,,,,,
47228601,1262,1256,1256,1262,,,,,
47231100,1268,1263,1263,1268,,,,,
47233599,1274,1269,1269,1275,,,,,
47236098,1281,1275,1276,1281,,,,,
47238597,1287,1282,1282,1287,,,,,
47241096,1293,1288,1288,1293,,,,,
47243595,1299,1294,1294,1299,,,,,
47246094,1305,1300,1300,1305,,,,,
47248593,1311,1306,1306,1311,,,,,
47251092,1317,1312,1312,1317,,,,,
47253591,1323,1318,1318,1323,,,,,
47256090,1329,1324,1324,1329,,,,,
47258589,1334,1329,1330,1335,,,,,
47261088,1340,1335,1335,1340,,,,,
47263587,1346,1341,1341,1346,,,,,
47266086,1351,1346,1347,1351,,,,,
47268585,1357,1352,1352,1357,,,,,
47271084,1362,1357,1358,1362,,,,,
47273583,1367,1363,1363,1368,,,,,
47276082,1373,1368,1368,1373,,,,,
47278581,1378,1373,1374,1378,,,,,
47281080,1383,1379,1379,1384,,,,,
47283579,1389,1384,1384,1389,,,,,
47286078,1394,1389,1389,1394,,,,,
47288577,1399,1394,1395,1399,,,,,
47291076,1404,1399,1400,1404,,,,,
47293575,1409,1404,1405,1409,,,,,
47296074,1414,1409,1410,1414,,,,,
47298573,1419,1414,1415,1419,,,,,
47301072,1424,1419,1420,1424,,,,,
47303571,1429,1424,1425,1429,,,,,
47306070,1434,1429,1430,1434,,,,,
47308569,1439,1434,1434,1439,,,,,
47311068,1443,1439,1439,1444,,,,,
47313567,1448,1444,1444,1449,,,,,
47316066,1453,1448,1449,1453,,,,,
47318565,1458,1453,1453,1458,,,,,
47321064,1462,1458,1458,1463,,,,,
47323563,1467,1463,1463,1467,,,,,
47326062,1472,1467,1467,1472,,,,,
47328561,1476,1472,1472,1477,,,,,
47331060,1481,1476,1477,1481,,,,,
47333559,1485,1481,1481,1486,,,,,
47336058,1490,1485,1486,1490,,,,,
47338557,1494,1490,1490,1495,,,,,
47341056,1499,1494,1495,1499,,,,,
47343555,1503,1499,1499,1504,,,,,
47346054,1508,1503,1503,1508,,,,,
47348553,1512,1508,1508,1512,,,,,
47351052,1516,1512,1512,1517,,,,,
47353551,1521,1516,1517,1521,,,,,
47356050,1525,1521,1521,1525,,,,,
47358549,1529,1525,1525,1530,,,,,
47361048,1533,1529,1529,1534,,,,,
47363547,1538,1533,1534,1538,,,,,
47366046,1542,1538,1538,1542,,,,,
47368545,1546,1542,1542,1546,,,,,
47371044,1550,1546,1546,1551,,,,,
47373543,1554,1550,1550,1555,,,,,
47376042,1558,1554,1554,1559,,,,,
47378541,1563,1558,1559,1563,,,,,
47381040,1567,1563,1563,1567,,,,,
47383539,1571,1567,1567,1571,,,,,
47386038,1575,1571,1571,1575,,,,,
47388537,1579,1575,1575,1579,,,,,
47391036,1583,1579,1579,1583,,,,,
47393535,1587,1583,1583,1587,,,,,
47396034,1591,1587,1587,1591,,,,,
47398533,1594,1591,1591,1595,,,,,
47401032,1598,1595,1595,1599,,,,,
47403531,1602,1599,1599,1603,,,,,
47406030,1606,1603,1603,1607,,,,,
47408529,1610,1606,1606,1610,,,,,
47411028,1614,1610,1610,1614,,,,,
47413527,1618,1614,1614,1618,,,,,
47416026,1621,1618,1618,1622,,,,,
47418525,1625,1622,1622,1626,,,,,
47421024,1629,1626,1626,1630,,,,,
47423523,1633,1629,1629,1633,,,,,
47426022,1637,1633,1633,1637,,,,,
47428521,1640,1637,1637,1641,,,,,
47431020,1644,1640,1641,1644,,,,,
47433519,1648,1644,1644,1648,,,,,
47436018,1652,1648,1648,1652,,,,,
47438517,1655,1652,1652,1655,,,,,
47441016,1659,1655,1655,1659,,,,,
47443515,1663,1659,1659,1663,,,,,
47446014,1666,1663,1663,1666,,,,,
47448513,1670,1666,1666,1670,,,,,
47451012,1673,1670,1670,1674,,,,,
47453511,1677,1673,1674,1677,,,,,
47456010,1681,1677,1677,1681,,,,,
47458509,1684,1680,1681,1684,,,,,
47461008,1688,1684,1684,1688,,,,,
47463507,1691,1688,1688,1691,,,,,
47466006,1695,1691,1691,1695,,,,,
47468505,1698,1695,1695,1698,,,,,
47471004,1702,1698,1698,1702,,,,,
47473503,1705,1702,1702,1705,,,,,
47476002,1709,1705,1705,1709,,,,,
47478501,1712,1709,1709,1712,,,,,
47481000,1716,1712,1712,1716,,,,,
47483499,1719,1715,1716,1719,,,,,
47485998,1722,1719,1719,1723,,,,,
47488497,1726,1722,1723,1726,,,,,
47490996,1729,1726,1726,1729,,,,,
47493495,1733,1729,1729,1733,,,,,
47495994,1736,1732,1733,1736,,,,,
47498493,1739,1736,1736,1740,,,,,
47500992,1743,1739,1739,1743,,,,,
47503491,1746,1743,1743,1746,,,,,
47505990,1749,1746,1746,1750,,,,,
47508489,1753,1749,1749,1753,,,,,
47510988,1756,1753,1753,1756,,,,,
47513487,1759,1756,1756,1759,,,,,
47515986,1762,1759,1759,1763,,,,,
47518485,1766,1763,1763,1766,,,,,
47520984,1769,1766,1766,1769,,,,,
47523483,1772,1769,1769,1773,,,,,
47525982,1775,1772,1772,1776,,,,,
47528481,1779,1776,1776,1779,,,,,
47530980,1782,1779,1779,1782,,,,,
47533479,1785,1782,1782,1786,,,,,
47535978,1788,1785,1785,1789,,,,,
47538477,1792,1788,1788,1792,,,,,
47540976,1795,1792,1792,1795,,,,,
47543475,1798,1795,1795,1798,,,,,
47545974,1801,1798,1798,1802,,,,,
47548473,1804,1801,1801,1805,,,,,
47550972,1807,1804,1804,1808,,,,,
47553471,1811,1807,1807,1811,,,,,
47555970,1814,1810,1810,1814,,,,,
47558469,1817,1814,1814,1817,,,,,
47560968,1820,1817,1817,1820,,,,,
47563467,1823,1820,1820,1823,,,,,
47565966,1826,1823,1823,1827,,,,,
47568465,1829,1826,1826,1830,,,,,
47570964,1832,1829,1829,1833,,,,,
47573463,1835,1832,1832,1836,,,,,
47575962,1838,1835,1835,1839,,,,,
47578461,1841,1838,1838,1842,,,,,
47580960,1844,1841,1841,1845,,,,,
47583459,1848,1844,1844,1848,,,,,
47585958,1851,1847,1847,1851,,,,,
47588457,1854,1850,1850,1854,,,,,
47590956,1857,1853,1853,1857,,,,,
47593455,1860,1856,1856,1860,,,,,
47595954,1863,1859,1859,1863,,,,,
47598453,1866,1862,1862,1866,,,,,
47600952,1868,1865,1865,1869,,,,,
47603451,1871,1868,1868,1872,,,,,
47605950,1874,1871,1871,1875,,,,,
47608449,1877,1874,1874,1878,,,,,
47610948,1880,1877,1877,1881,,,,,
47613447,1883,1880,1880,1884,,,,,
47615946,1886,1883,1883,1887,,,,,
47618445,1889,1886,1886,1890,,,,,
47620944,1892,1889,1889,1893,,,,,
47623443,1895,1892,1891,1896,,,,,
47625942,1898,1895,1894,1898,,,,,
47628441,1897,1894,1893,1897,,,,,
47630940,1896,1893,1892,1896,,,,,
47633439,1895,1892,1891,1895,,,,,
47635938,1894,1891,1890,1895,,,,,
47638437,1893,1890,1889,1894,,,,,
47640936,1892,1889,1889,1893,,,,,
47643435,1891,1888,1888,1892,,,,,
47645934,1890,1887,1887,1891,,,,,
47648433,1890,1887,1886,1891,,,,,
47650932,1889,1886,1886,1890,,,,,
47653431,1889,1886,1885,1889,,,,,
47655930,1888,1885,1885,1889,,,,,
47658429,1888,1885,1884,1889,,,,,
47660928,1887,1884,1884,1888,,,,,
47663427,1887,1884,1884,1888,,,,,
47665926,1887,1884,1883,1888,,,,,
47668425,1887,1884,1883,1888,,,,,
47670924,1887,1884,1883,1888,,,,,
47673423,1887,1884,1883,1888,,,,,
47675922,1887,1884,1883,1888,,,,,
47678421,1887,1884,1884,1888,,,,,
47680920,1888,1884,1884,1888,,,,,
47683419,1888,1884,1884,1888,,,,,
47685918,1888,1885,1885,1889,,,,,
47688417,1888,1885,1885,1889,,,,,
47690916,1889,1886,1885,1889,,,,,
47693415,1889,1886,1886,1890,,,,,
47695914,1889,1886,1886,1890,,,,,
47698413,1889,1886,1886,1890,,,,,
47700912,1889,1887,1886,1890,,,,,
47703411,1889,1886,1886,1890,,,,,
47705910,1889,1886,1886,1889,,,,,
47708409,1888,1886,1886,1889,,,,,
47710908,1888,1885,1885,1888,,,,,
47713407,1887,1885,1885,1888,,,,,
47715906,1886,1884,1884,1887,,,,,
47718405,1885,1883,1883,1886,,,,,
47720904,1884,1882,1882,1884,,,,,
47723403,1882,1880,1880,1883,,,,,
47725902,1881,1879,1879,1882,,,,,
47728401,1879,1877,1877,1880,,,,,
47730900,1878,1876,1876,1878,,,,,
47733399,1876,1874,1874,1876,,,,,
47735898,1874,1872,1872,1874,,,,,
47738397,1871,1870,1869,1872,,,,,
47740896,1869,1867,1867,1870,,,,,
47743395,1867,1865,1865,1867,,,,,
47745894,1864,1863,1862,1865,,,,,
47748393,1862,1860,1860,1862,,,,,
47750892,1859,1857,1857,1860,,,,,
47753391,1856,1855,1854,1857,,,,,
47755890,1853,1852,1852,1854,,,,,
47758389,1850,1849,1849,1851,,,,,
47760888,1847,1846,1846,1848,,,,,
47763387,1844,1843,1843,1845,,,,,
47765886,1841,1840,1840,1842,,,,,
47768385,1838,1837,1837,1839,,,,,
47770884,1835,1834,1834,1836,,,,,
47773383,1832,1831,1830,1833,,,,,
47775882,1829,1828,1827,1830,,,,,
47778381,1826,1824,1824,1826,,,,,
47780880,1822,1821,1821,1823,,,,,
47783379,1819,1818,1818,1820,,,,,
47785878,1816,1815,1814,1816,,,,,
47788377,1812,1811,1811,1813,,,,,
47790876,1809,1808,1808,1810,,,,,
47793375,1806,1805,1804,1806,,,,,
47795874,1802,1801,1801,1803,,,,,
47798373,1799,1798,1798,1800,,,,,
47800872,1795,1795,1794,1796,,,,,
47803371,1792,1791,1791,1793,,,,,
47805870,1789,1788,1788,1789,,,,,
47808369,1785,1784,1784,1786,,,,,
47810868,1782,1781,1781,1782,,,,,
47813367,1779,1778,1778,1779,,,,,
47815866,1775,1774,1774,1776,,,,,
47818365,1772,1771,1771,1772,,,,,
47820864,1769,1768,1768,1769,,,,,
47823363,1765,1765,1765,1766,,,,,
47825862,1762,1761,1762,1762,,,,,
47828361,1759,1758,1758,1759,,,,,
47830860,1756,1755,1755,1756,,,,,
47833359,1752,1752,1752,1753,,,,,
47835858,1749,1749,1749,1750,,,,,
47838357,1746,1746,1746,1746,,,,,
47840856,1743,1743,1743,1743,,,,,
47843355,1740,1740,1740,1740,,,,,
47845854,1737,1737,1737,1737,,,,,
47848353,1734,1734,1734,1734,,,,,
47850852,1731,1731,1731,1731,,,,,
47853351,1728,1728,1728,1728,,,,,
47855850,1725,1725,1725,1725,,,,,
47858349,1723,1722,1722,1723,,,,,
47860848,1720,1719,1720,1720,,,,,
47863347,1717,1716,1717,1717,,,,,
47865846,1714,1714,1714,1714,,,,,
47868345,1712,1711,1712,1711,,,,,
47870844,1709,1708,1709,1709,,,,,
47873343,1706,1706,1706,1706,,,,,
47875842,1704,1703,1704,1704,,,,,
47878341,1701,1701,1701,1701,,,,,
47880840,1699,1698,1699,1698,,,,,
47883339,1696,1696,1696,1696,,,,,
47885838,1694,1693,1694,1694,,,,,
47888337,1692,1691,1692,1691,,,,,
47890836,1689,1689,1689,1689,,,,,
