TimeUS,M1,M2,M3,M4,TimeUS,C1,C2,C3,C4
47183619,1000,1000,1000,1000,47228601,1000,1000,1000,1000
47186118,1000,1000,1000,1000,47328561,1000,1000,1000,1000
47188617,1000,1000,1000,1000,47428521,1000,1000,1000,1000
47191116,1000,1000,1000,1000,47528481,1000,1000,1000,1000
47193615,1000,1000,1000,1000,47628441,1000,1000,1000,1000
47196114,1000,1000,1000,1000,47728401,1000,1000,1000,1000
47198613,1000,1000,1000,1000,47828361,1000,1000,1000,1000
47201112,1000,1000,1000,1000,47928321,1000,1000,1000,1000
47203611,1000,1000,1000,1000,48028281,1000,1000,1000,1000
47206110,1000,1000,1000,1000,48128241,1000,1000,1000,1000
47208609,1000,1000,1000,1000,48228201,1000,1000,1000,1000
47211108,1000,1000,1000,1000,48328161,1000,1000,1000,1000
47213607,1000,1000,1000,1000,48428954,1000,1000,1000,1000
47216106,1000,1000,1000,1000,48528914,1000,1000,1000,1000
47218605,1000,1000,1000,1000,48628874,1000,1000,1000,1000
47221104,1000,1000,1000,1000,48728834,1000,1000,1000,1000
47223603,1000,1000,1000,1000,48828794,1000,1000,1000,1000
47226102,1000,1000,1000,1000,48928754,1000,1000,1000,1000
47228601,1000,1000,1000,1000,49028714,1000,1000,1000,1000
47231100,1000,1000,1000,1000,49128674,1000,1000,1000,1000
47233599,1000,1000,1000,1000,49228634,1013,1013,1013,1013
47236098,1000,1000,1000,1000,49328594,1043,1043,1043,1043
47238597,1000,1000,1000,1000,49428554,1073,1073,1073,1073
47241096,1000,1000,1000,1000,49528514,1103,1103,1103,1103
47243595,1000,1000,1000,1000,49628474,1133,1133,1133,1133
47246094,1000,1000,1000,1000,49728434,1275,1269,1269,1275
47248593,1000,1000,1000,1000,49828394,1485,1481,1481,1485
47251092,1000,1000,1000,1000,49928354,1648,1644,1644,1648
47253591,1000,1000,1000,1000,50028314,1786,1782,1782,1786
47256090,1000,1000,1000,1000,50128274,1855,1851,1851,1855
47258589,1000,1000,1000,1000,50228234,1859,1856,1857,1859
47261088,1000,1000,1000,1000,50328194,1739,1738,1738,1739
47263587,1000,1000,1000,1000,50428154,1637,1638,1638,1637
47266086,1000,1000,1000,1000,50528947,1607,1609,1609,1607
47268585,1000,1000,1000,1000,50628907,1618,1621,1620,1619
47271084,1000,1000,1000,1000,50728867,1632,1633,1633,1632
47273583,1000,1000,1000,1000,50828827,1635,1635,1635,1635
47276082,1000,1000,1000,1000,50928787,1623,1622,1620,1625
47278581,1000,1000,1000,1000,51028747,1610,1610,1602,1617
47281080,1000,1000,1000,1000,51128707,1605,1604,1599,1610
47283579,1000,1000,1000,1000,51228667,1606,1606,1604,1607
47286078,1000,1000,1000,1000,51328627,1610,1610,1612,1608
47288577,1000,1000,1000,1000,51428587,1615,1615,1618,1612
47291076,1000,1000,1000,1000,51528547,1620,1619,1623,1616
47293575,1000,1000,1000,1000,51628507,1618,1618,1622,1614
47296074,1000,1000,1000,1000,51728467,1586,1588,1599,1575
47298573,1000,1000,1000,1000,51828427,1573,1574,1582,1566
47301072,1000,1000,1000,1000,51928387,1562,1561,1562,1562
47303571,1000,1000,1000,1000,52028347,1553,1552,1544,1562
47306070,1000,1000,1000,1000,52128307,1545,1544,1533,1556
47308569,1000,1000,1000,1000,52228267,1538,1537,1528,1546
47311068,1000,1000,1000,1000,52328227,1532,1531,1527,1536
47313567,1000,1000,1000,1000,52428187,1529,1529,1528,1529
47316066,1000,1000,1000,1000,52528980,1529,1529,1531,1527
47318565,1000,1000,1000,1000,52628940,1531,1531,1534,1528
47321064,1000,1000,1000,1000,52728900,1534,1534,1537,1530
47323563,1000,1000,1000,1000,52828860,1537,1538,1540,1534
47326062,1000,1000,1000,1000,52928820,1541,1541,1543,1539
47328561,1000,1000,1000,1000,53028780,1544,1544,1545,1543
47331060,1000,1000,1000,1000,53128740,1546,1546,1546,1547
47333559,1000,1000,1000,1000,53228700,1549,1549,1548,1550
47336058,1000,1000,1000,1000,53328660,1552,1551,1550,1554
47338557,1000,1000,1000,1000,53428620,1549,1549,1557,1560
47341056,1000,1000,1000,1000,53528580,1551,1551,1561,1563
47343555,1000,1000,1000,1000,53628540,1555,1556,1564,1564
47346054,1000,1000,1000,1000,53728500,1558,1559,1564,1564
47348553,1000,1000,1000,1000,53828460,1562,1563,1564,1563
47351052,1000,1000,1000,1000,53928420,1565,1565,1563,1562
47353551,1000,1000,1000,1000,54028380,1568,1568,1564,1563
47356050,1000,1000,1000,1000,54128340,1571,1570,1564,1565
47358549,1000,1000,1000,1000,54228300,1572,1573,1566,1566
47361048,1000,1000,1000,1000,54328260,1573,1573,1566,1566
47363547,1000,1000,1000,1000,54428220,1574,1573,1567,1568
47366046,1000,1000,1000,1000,54528180,1574,1573,1569,1569
47368545,1000,1000,1000,1000,54628973,1574,1573,1571,1571
47371044,1000,1000,1000,1000,54728933,1574,1574,1573,1573
47373543,1000,1000,1000,1000,54828893,1574,1575,1576,1575
47376042,1000,1000,1000,1000,54928853,1574,1575,1577,1575
47378541,1000,1000,1000,1000,55028813,1574,1574,1577,1575
47381040,1000,1000,1000,1000,55128773,1575,1575,1578,1577
47383539,1000,1000,1000,1000,55228733,1575,1575,1577,1577
47386038,1000,1000,1000,1000,55328693,1575,1575,1577,1577
47388537,1000,1000,1000,1000,55428653,1574,1575,1576,1576
47391036,1000,1000,1000,1000,55528613,1575,1575,1576,1577
47393535,1000,1000,1000,1000,55628573,1576,1576,1577,1576
47396034,1000,1000,1000,1000,55728533,1576,1576,1576,1576
47398533,1000,1000,1000,1000,55828493,1576,1576,1576,1576
47401032,1000,1000,1000,1000,55928453,1578,1578,1577,1577
47403531,1000,1000,1000,1000,56028413,1579,1579,1578,1577
47406030,1000,1000,1000,1000,56128373,1578,1579,1578,1577
47408529,1000,1000,1000,1000,56228333,1578,1578,1577,1577
47411028,1000,1000,1000,1000,56328293,1579,1579,1578,1578
47413527,1000,1000,1000,1000,56428253,1578,1578,1578,1578
47416026,1000,1000,1000,1000,56528213,1579,1578,1578,1578
47418525,1000,1000,1000,1000,56628173,1578,1577,1577,1577
47421024,1000,1000,1000,1000,56728966,1577,1577,1577,1577
47423523,1000,1000,1000,1000,56828926,1577,1578,1578,1578
47426022,1000,1000,1000,1000,56928886,1578,1578,1579,1578
47428521,1000,1000,1000,1000,57028846,1577,1578,1579,1578
47431020,1000,1000,1000,1000,57128806,1578,1578,1579,1579
47433519,1000,1000,1000,1000,57228766,1578,1578,1579,1579
47436018,1000,1000,1000,1000,57328726,1579,1580,1580,1580
47438517,1000,1000,1000,1000,57428686,1580,1580,1580,1580
47441016,1000,1000,1000,1000,57528646,1580,1580,1580,1580
47443515,1000,1000,1000,1000,57628606,1580,1579,1579,1580
47446014,1000,1000,1000,1000,57728566,1581,1580,1580,1580
47448513,1000,1000,1000,1000,57828526,1580,1580,1580,1580
47451012,1000,1000,1000,1000,57928486,1580,1580,1580,1580
47453511,1000,1000,1000,1000,58028446,1580,1581,1581,1580
47456010,1000,1000,1000,1000,58128406,1580,1580,1580,1580
47458509,1000,1000,1000,1000,58228366,1580,1580,1580,1580
47461008,1000,1000,1000,1000,58328326,1580,1580,1580,1580
47463507,1000,1000,1000,1000,58428286,1580,1581,1581,1580
47466006,1000,1000,1000,1000,58528246,1580,1580,1580,1580
47468505,1000,1000,1000,1000,58628206,1580,1580,1581,1580
47471004,1000,1000,1000,1000,58728166,1580,1580,1580,1580
47473503,1000,1000,1000,1000,58828959,1580,1580,1580,1580
47476002,1000,1000,1000,1000,58928919,1580,1580,1580,1580
47478501,1000,1000,1000,1000,59028879,1580,1580,1580,1580
47481000,1000,1000,1000,1000,59128839,1580,1581,1581,1581
47483499,1000,1000,1000,1000,59228799,1581,1581,1581,1581
47485998,1000,1000,1000,1000,59328759,1580,1580,1580,1580
47488497,1000,1000,1000,1000,59428719,1581,1581,1581,1581
47490996,1000,1000,1000,1000,59528679,1580,1580,1581,1579
47493495,1000,1000,1000,1000,59628639,1579,1580,1585,1574
47495994,1000,1000,1000,1000,59728599,1580,1581,1586,1572
47498493,1000,1000,1000,1000,59828559,1579,1581,1579,1573
47500992,1000,1000,1000,1000,59928519,1576,1580,1570,1572
47503491,1000,1000,1000,1000,60028479,1576,1579,1562,1569
47505990,1000,1000,1000,1000,60128439,1577,1578,1557,1565
47508489,1000,1000,1000,1000,60228399,1577,1577,1555,1559
47510988,1000,1000,1000,1000,60328359,1579,1577,1555,1557
47513487,1000,1000,1000,1000,60428319,1578,1577,1555,1554
47515986,1000,1000,1000,1000,60528279,1578,1578,1556,1554
47518485,1000,1000,1000,1000,60628239,1577,1577,1556,1553
47520984,1000,1000,1000,1000,60728199,1576,1577,1556,1554
47523483,1000,1000,1000,1000,60828159,1575,1576,1555,1554
47525982,1000,1000,1000,1000,60928952,1575,1577,1554,1554
47528481,1000,1000,1000,1000,61028912,1575,1576,1552,1553
47530980,1000,1000,1000,1000,61128872,1575,1576,1550,1551
47533479,1000,1000,1000,1000,61228832,1578,1578,1549,1549
47535978,1000,1000,1000,1000,61328792,1579,1580,1546,1546
47538477,1000,1000,1000,1000,61428752,1582,1583,1544,1543
47540976,1000,1000,1000,1000,61528712,1586,1587,1542,1542
47543475,1000,1000,1000,1000,61628672,1589,1589,1539,1538
47545974,1000,1000,1000,1000,61728632,1592,1592,1537,1537
47548473,1000,1000,1000,1000,61828592,1594,1595,1536,1536
47550972,1000,1000,1000,1000,61928552,1594,1594,1534,1535
47553471,1000,1000,1000,1000,62028512,1594,1594,1535,1537
47555970,1000,1000,1000,1000,62128472,1594,1593,1538,1540
47558469,1000,1000,1000,1000,62228432,1590,1589,1542,1544
47560968,1000,1000,1000,1000,62328392,1586,1584,1549,1552
47563467,1000,1000,1000,1000,62428352,1579,1577,1558,1561
47565966,1000,1000,1000,1000,62528312,1569,1566,1568,1571
47568465,1000,1000,1000,1000,62628272,1559,1555,1581,1582
47570964,1000,1000,1000,1000,62728232,1548,1545,1593,1593
47573463,1000,1000,1000,1000,62828192,1539,1538,1604,1602
47575962,1000,1000,1000,1000,62928985,1533,1533,1611,1610
47578461,1000,1000,1000,1000,63028945,1528,1530,1614,1613
47580960,1000,1000,1000,1000,63128905,1530,1532,1615,1614
47583459,1000,1000,1000,1000,63228865,1534,1537,1611,1611
47585958,1000,1000,1000,1000,63328825,1541,1543,1606,1606
47588457,1000,1000,1000,1000,63428785,1549,1550,1598,1599
47590956,1000,1000,1000,1000,63528745,1557,1558,1591,1591
47593455,1000,1000,1000,1000,63628705,1567,1567,1585,1584
47595954,1000,1000,1000,1000,63728665,1575,1574,1579,1578
47598453,1000,1000,1000,1000,63828625,1580,1579,1573,1572
47600952,1000,1000,1000,1000,63928585,1584,1583,1569,1569
47603451,1000,1000,1000,1000,64028545,1588,1586,1567,1567
47605950,1000,1000,1000,1000,64128505,1587,1586,1567,1566
47608449,1000,1000,1000,1000,64228465,1587,1586,1567,1568
47610948,1000,1000,1000,1000,64328425,1584,1583,1568,1569
47613447,1000,1000,1000,1000,64428385,1581,1581,1571,1572
47615946,1000,1000,1000,1000,64528345,1579,1579,1575,1575
47618445,1000,1000,1000,1000,64628305,1576,1577,1578,1578
47620944,1000,1000,1000,1000,64728265,1574,1575,1580,1580
47623443,1000,1000,1000,1000,64828225,1573,1573,1582,1582
47625942,1000,1000,1000,1000,64928185,1572,1572,1583,1583
47628441,1000,1000,1000,1000,65028978,1571,1572,1583,1583
47630940,1000,1000,1000,1000,65128938,1573,1573,1583,1584
47633439,1000,1000,1000,1000,65228898,1574,1575,1582,1583
47635938,1000,1000,1000,1000,65328858,1575,1575,1582,1581
47638437,1000,1000,1000,1000,65428818,1576,1577,1580,1580
47640936,1000,1000,1000,1000,65528778,1578,1578,1579,1579
47643435,1000,1000,1000,1000,65628738,1580,1580,1579,1579
47645934,1000,1000,1000,1000,65728698,1384,1515,1596,1599
47648433,1000,1000,1000,1000,65828658,1489,1493,1613,1622
47650932,1000,1000,1000,1000,65928618,1569,1507,1624,1636
47653431,1000,1000,1000,1000,66028578,1651,1558,1637,1650
47655930,1000,1000,1000,1000,66128538,1675,1606,1641,1653
47658429,1000,1000,1000,1000,66228498,1675,1636,1642,1651
47660928,1000,1000,1000,1000,66328458,1664,1651,1629,1631
47663427,1000,1000,1000,1000,66428418,1651,1664,1609,1604
47665926,1000,1000,1000,1000,66528378,1643,1669,1602,1589
47668425,1000,1000,1000,1000,66628338,1643,1669,1602,1583
47670924,1000,1000,1000,1000,66728298,1645,1662,1601,1580
47673423,1000,1000,1000,1000,66828258,1646,1651,1598,1580
47675922,1000,1000,1000,1000,66928218,1641,1639,1593,1581
47678421,1000,1000,1000,1000,67028178,1629,1622,1584,1580
47680920,1000,1000,1000,1000,67128971,1614,1609,1578,1582
47683419,1000,1000,1000,1000,67228931,1596,1596,1574,1583
47685918,1000,1000,1000,1000,67328891,1580,1587,1571,1582
47688417,1000,1000,1000,1000,67428851,1570,1582,1573,1581
47690916,1000,1000,1000,1000,67528811,1566,1579,1576,1579
47693415,1000,1000,1000,1000,67628771,1565,1575,1579,1575
47695914,1000,1000,1000,1000,67728731,1568,1569,1584,1567
47698413,1000,1000,1000,1000,67828691,1569,1566,1576,1565
47700912,1000,1000,1000,1000,67928651,1568,1564,1568,1567
47703411,1000,1000,1000,1000,68028611,1565,1561,1561,1567
47705910,1000,1000,1000,1000,68128571,1562,1560,1559,1568
47708409,1000,1000,1000,1000,68228531,1559,1560,1559,1567
47710908,1000,1000,1000,1000,68328491,1558,1561,1560,1564
47713407,1000,1000,1000,1000,68428451,1558,1562,1560,1561
47715906,1000,1000,1000,1000,68528411,1560,1564,1561,1559
47718405,1000,1000,1000,1000,68628371,1562,1564,1559,1555
47720904,1000,1000,1000,1000,68728331,1563,1563,1555,1553
47723403,1000,1000,1000,1000,68828291,1566,1564,1553,1551
47725902,1000,1000,1000,1000,68928251,1568,1566,1551,1550
47728401,1000,1000,1000,1000,69028211,1569,1568,1548,1548
47730900,1000,1000,1000,1000,69128171,1571,1571,1547,1547
47733399,1000,1000,1000,1000,69228964,1573,1573,1544,1545
47735898,1000,1000,1000,1000,69328924,1574,1575,1541,1542
47738397,1000,1000,1000,1000,69428884,1576,1578,1539,1538
47740896,1000,1000,1000,1000,69528844,1579,1581,1537,1536
47743395,1000,1000,1000,1000,69628804,1583,1584,1534,1533
47745894,1000,1000,1000,1000,69728764,1587,1587,1531,1529
47748393,1000,1000,1000,1000,69828724,1591,1591,1528,1527
47750892,1000,1000,1000,1000,69928684,1595,1595,1526,1526
47753391,1000,1000,1000,1000,70028644,1599,1599,1525,1526
47755890,1000,1000,1000,1000,70128604,1602,1600,1526,1527
47758389,1000,1000,1000,1000,70228564,1602,1600,1527,1529
47760888,1000,1000,1000,1000,70328524,1600,1598,1530,1533
47763387,1000,1000,1000,1000,70428484,1596,1593,1535,1539
47765886,1000,1000,1000,1000,70528444,1589,1587,1542,1547
47768385,1000,1000,1000,1000,70628404,1581,1579,1551,1555
47770884,1000,1000,1000,1000,70728364,1571,1568,1562,1565
47773383,1000,1000,1000,1000,70828324,1560,1558,1574,1576
47775882,1000,1000,1000,1000,70928284,1547,1545,1584,1585
47778381,1000,1000,1000,1000,71028244,1535,1534,1595,1594
47780880,1000,1000,1000,1000,71128204,1525,1525,1606,1605
47783379,1000,1000,1000,1000,71228164,1515,1518,1613,1611
47785878,1000,1000,1000,1000,71328957,1512,1516,1616,1615
47788377,1000,1000,1000,1000,71428917,1513,1518,1614,1613
47790876,1000,1000,1000,1000,71528877,1519,1524,1608,1608
47793375,1000,1000,1000,1000,71628837,1529,1532,1600,1600
47795874,1000,1000,1000,1000,71728797,1540,1541,1590,1591
47798373,1000,1000,1000,1000,71828757,1552,1551,1581,1581
47800872,1000,1000,1000,1000,71928717,1563,1561,1573,1574
47803371,1000,1000,1000,1000,72028677,1573,1569,1566,1567
47805870,1000,1000,1000,1000,72128637,1580,1576,1562,1562
47808369,1000,1000,1000,1000,72228597,1583,1579,1559,1560
47810868,1000,1000,1000,1000,72328557,1585,1583,1561,1562
47813367,1000,1000,1000,1000,72428517,1585,1583,1563,1563
47815866,1000,1000,1000,1000,72528477,1583,1583,1565,1566
47818365,1000,1000,1000,1000,72628437,1581,1582,1568,1568
47820864,1000,1000,1000,1000,72728397,1580,1581,1572,1571
47823363,1000,1000,1000,1000,72828357,1579,1580,1575,1573
47825862,1000,1000,1000,1000,72928317,1577,1577,1577,1575
47828361,1000,1000,1000,1000,73028277,1576,1577,1579,1578
47830860,1000,1000,1000,1000,73128237,1575,1575,1580,1580
47833359,1000,1000,1000,1000,73228197,1573,1574,1580,1581
47835858,1000,1000,1000,1000,73328157,1573,1574,1581,1581
47838357,1000,1000,1000,1000,73428950,1573,1574,1581,1582
47840856,1000,1000,1000,1000,73528910,1573,1574,1581,1581
47843355,1000,1000,1000,1000,73628870,1574,1575,1581,1580
47845854,1000,1000,1000,1000,73728830,1575,1576,1580,1580
47848353,1000,1000,1000,1000,73828790,1577,1577,1579,1579
47850852,1000,1000,1000,1000,73928750,1578,1578,1578,1578
47853351,1000,1000,1000,1000,74028710,1579,1579,1577,1577
47855850,1000,1000,1000,1000,74128670,1579,1579,1576,1576
47858349,1000,1000,1000,1000,74228630,1579,1579,1575,1575
47860848,1000,1000,1000,1000,74328590,1580,1580,1576,1576
47863347,1000,1000,1000,1000,74428550,1581,1581,1577,1577
47865846,1000,1000,1000,1000,74528510,1581,1581,1578,1577
47868345,1000,1000,1000,1000,74628470,1581,1581,1578,1578
47870844,1000,1000,1000,1000,74728430,1581,1581,1578,1578
47873343,1000,1000,1000,1000,74828390,1580,1580,1579,1579
47875842,1000,1000,1000,1000,74928350,1580,1580,1579,1580
47878341,1000,1000,1000,1000,75028310,1580,1580,1579,1580
47880840,1000,1000,1000,1000,75128270,1579,1579,1579,1579
47883339,1000,1000,1000,1000,75228230,1579,1579,1579,1579
47885838,1000,1000,1000,1000,75328190,1579,1580,1580,1580
47888337,1000,1000,1000,1000,75428983,1579,1579,1581,1580
47890836,1000,1000,1000,1000,75528943,1580,1580,1581,1581
47893335,1000,1000,1000,1000,75628903,1580,1580,1581,1581
47895834,1000,1000,1000,1000,75728863,1580,1580,1581,1581
47898333,1000,1000,1000,1000,75828823,1580,1580,1580,1580
47900832,1000,1000,1000,1000,75928783,1580,1580,1580,1580
47903331,1000,1000,1000,1000,76028743,1581,1581,1581,1581
47905830,1000,1000,1000,1000,76128703,1581,1581,1580,1580
47908329,1000,1000,1000,1000,76228663,1581,1581,1580,1580
47910828,1000,1000,1000,1000,76328623,1581,1581,1580,1580
47913327,1000,1000,1000,1000,76428583,1581,1581,1580,1581
47915826,1000,1000,1000,1000,76528543,1581,1581,1581,1581
47918325,1000,1000,1000,1000,76628503,1582,1582,1582,1581
47920824,1000,1000,1000,1000,76728463,1582,1582,1582,1582
47923323,1000,1000,1000,1000,76828423,1581,1581,1581,1581
47925822,1000,1000,1000,1000,76928383,1582,1582,1581,1582
47928321,1000,1000,1000,1000,77028343,1582,1582,1581,1582
47930820,1000,1000,1000,1000,77128303,1581,1581,1581,1581
47933319,1000,1000,1000,1000,77228263,1581,1581,1581,1581
47935818,1000,1000,1000,1000,77328223,1581,1581,1584,1577
47938317,1000,1000,1000,1000,77428183,1581,1582,1588,1573
47940816,1000,1000,1000,1000,77528976,1579,1581,1581,1573
47943315,1000,1000,1000,1000,77628936,1578,1580,1572,1573
47945814,1000,1000,1000,1000,77728896,1576,1578,1563,1569
47948313,1000,1000,1000,1000,77828856,1576,1578,1558,1565
47950812,1000,1000,1000,1000,77928816,1577,1577,1556,1561
47953311,1000,1000,1000,1000,78028776,1578,1578,1556,1558
47955810,1000,1000,1000,1000,78128736,1579,1578,1556,1555
47958309,1000,1000,1000,1000,78228696,1579,1578,1557,1555
47960808,1000,1000,1000,1000,78328656,1578,1578,1557,1554
47963307,1000,1000,1000,1000,78428616,1578,1578,1557,1555
47965806,1000,1000,1000,1000,78528576,1577,1578,1556,1556
47968305,1000,1000,1000,1000,78628536,1575,1577,1554,1554
47970804,1000,1000,1000,1000,78728496,1575,1577,1553,1553
47973303,1000,1000,1000,1000,78828456,1575,1577,1551,1551
47975802,1000,1000,1000,1000,78928416,1577,1579,1550,1550
47978301,1000,1000,1000,1000,79028376,1578,1580,1548,1547
47980800,1000,1000,1000,1000,79128336,1580,1582,1545,1546
47983299,1000,1000,1000,1000,79228296,1583,1585,1544,1543
47985798,1000,1000,1000,1000,79328256,1587,1587,1542,1542
47988297,1000,1000,1000,1000,79428216,1589,1589,1540,1540
47990796,1000,1000,1000,1000,79528176,1591,1591,1539,1539
47993295,1000,1000,1000,1000,79628969,1593,1592,1539,1539
47995794,1000,1000,1000,1000,79728929,1593,1592,1539,1540
47998293,1000,1000,1000,1000,79828889,1593,1592,1540,1542
48000792,1000,1000,1000,1000,79928849,1591,1590,1543,1546
48003291,1000,1000,1000,1000,80028809,1587,1586,1546,1550
48005790,1000,1000,1000,1000,80128769,1582,1580,1553,1556
48008289,1000,1000,1000,1000,80228729,1576,1572,1563,1566
48010788,1000,1000,1000,1000,80328689,1566,1562,1573,1575
48013287,1000,1000,1000,1000,80428649,1557,1554,1585,1587
48015786,1000,1000,1000,1000,80528609,1547,1545,1594,1596
48018285,1000,1000,1000,1000,80628569,1539,1539,1603,1603
48020784,1000,1000,1000,1000,80728529,1534,1536,1608,1608
48023283,1000,1000,1000,1000,80828489,1530,1534,1610,1609
48025782,1000,1000,1000,1000,80928449,1532,1536,1610,1609
48028281,1000,1000,1000,1000,81028409,1536,1541,1608,1607
48030780,1000,1000,1000,1000,81128369,1542,1545,1602,1601
48033279,1000,1000,1000,1000,81228329,1550,1551,1596,1595
48035778,1000,1000,1000,1000,81328289,1559,1558,1590,1589
48038277,1000,1000,1000,1000,81428249,1567,1564,1582,1582
48040776,1000,1000,1000,1000,81528209,1573,1571,1577,1576
48043275,1000,1000,1000,1000,81628169,1579,1577,1573,1572
48045774,1000,1000,1000,1000,81728962,1584,1581,1569,1569
48048273,1000,1000,1000,1000,81828922,1586,1584,1567,1568
48050772,1000,1000,1000,1000,81928882,1587,1586,1568,1568
48053271,1000,1000,1000,1000,82028842,1587,1586,1569,1569
48055770,1000,1000,1000,1000,82128802,1585,1584,1570,1570
48058269,1000,1000,1000,1000,82228762,1583,1583,1573,1573
48060768,1000,1000,1000,1000,82328722,1581,1581,1576,1575
48063267,1000,1000,1000,1000,82428682,1579,1579,1578,1578
48065766,1000,1000,1000,1000,82528642,1576,1577,1579,1580
48068265,1000,1000,1000,1000,82628602,1575,1576,1582,1582
48070764,1000,1000,1000,1000,82728562,1574,1575,1583,1583
48073263,1000,1000,1000,1000,82828522,1574,1575,1584,1584
48075762,1000,1000,1000,1000,82928482,1574,1574,1584,1584
48078261,1000,1000,1000,1000,83028442,1575,1575,1584,1583
48080760,1000,1000,1000,1000,83128402,1575,1576,1583,1582
48083259,1000,1000,1000,1000,83228362,1576,1577,1581,1581
48085758,1000,1000,1000,1000,83328322,1578,1578,1580,1580
48088257,1000,1000,1000,1000,83428282,1578,1578,1579,1579
48090756,1000,1000,1000,1000,83528242,1580,1580,1578,1578
48093255,1000,1000,1000,1000,83628202,1581,1581,1578,1578
48095754,1000,1000,1000,1000,83728162,1582,1581,1577,1577
48098253,1000,1000,1000,1000,83828955,1582,1581,1577,1578
48100752,1000,1000,1000,1000,83928915,1582,1582,1577,1578
48103251,1000,1000,1000,1000,84028875,1582,1582,1578,1579
48105750,1000,1000,1000,1000,84128835,1581,1581,1578,1578
48108249,1000,1000,1000,1000,84228795,1581,1581,1579,1578
48110748,1000,1000,1000,1000,84328755,1581,1580,1579,1579
48113247,1000,1000,1000,1000,84428715,1580,1580,1580,1579
48115746,1000,1000,1000,1000,84528675,1580,1581,1581,1581
48118245,1000,1000,1000,1000,84628635,1580,1580,1581,1581
48120744,1000,1000,1000,1000,84728595,1579,1580,1581,1581
48123243,1000,1000,1000,1000,84828555,1579,1580,1581,1581
48125742,1000,1000,1000,1000,84928515,1580,1580,1581,1581
48128241,1000,1000,1000,1000,85028475,1580,1579,1581,1581
48130740,1000,1000,1000,1000,85128435,1580,1579,1581,1581
48133239,1000,1000,1000,1000,85228395,1580,1580,1580,1580
48135738,1000,1000,1000,1000,85328355,1581,1581,1581,1581
48138237,1000,1000,1000,1000,85428315,1580,1581,1585,1574
48140736,1000,1000,1000,1000,85528275,1581,1581,1587,1572
48143235,1000,1000,1000,1000,85628235,1580,1579,1581,1575
48145734,1000,1000,1000,1000,85728195,1576,1575,1572,1574
48148233,1000,1000,1000,1000,85828155,1573,1572,1567,1574
48150732,1000,1000,1000,1000,85928948,1570,1570,1564,1572
48153231,1000,1000,1000,1000,86028908,1567,1568,1564,1568
48155730,1000,1000,1000,1000,86128868,1566,1567,1565,1566
48158229,1000,1000,1000,1000,86228828,1565,1566,1566,1564
48160728,1000,1000,1000,1000,86328788,1565,1565,1567,1564
48163227,1000,1000,1000,1000,86428748,1564,1565,1567,1564
48165726,1000,1000,1000,1000,86528708,1564,1563,1566,1564
48168225,1000,1000,1000,1000,86628668,1563,1563,1565,1564
48170724,1000,1000,1000,1000,86728628,1563,1562,1564,1564
48173223,1000,1000,1000,1000,86828588,1562,1562,1563,1564
48175722,1000,1000,1000,1000,86928548,1563,1563,1564,1564
48178221,1000,1000,1000,1000,87028508,1562,1562,1563,1562
48180720,1000,1000,1000,1000,87128468,1562,1562,1562,1562
48183219,1000,1000,1000,1000,87228428,1561,1561,1561,1561
48185718,1000,1000,1000,1000,87328388,1560,1560,1561,1559
48188217,1000,1000,1000,1000,87428348,1560,1560,1560,1559
48190716,1000,1000,1000,1000,87528308,1559,1559,1559,1558
48193215,1000,1000,1000,1000,87628268,1559,1559,1558,1558
48195714,1000,1000,1000,1000,87728228,1559,1559,1559,1558
48198213,1000,1000,1000,1000,87828188,1559,1558,1559,1558
48200712,1000,1000,1000,1000,87928981,1558,1558,1559,1557
48203211,1000,1000,1000,1000,88028941,1559,1559,1560,1558
48205710,1000,1000,1000,1000,88128901,1558,1558,1560,1557
48208209,1000,1000,1000,1000,88228861,1560,1559,1561,1559
48210708,1000,1000,1000,1000,88328821,1560,1560,1559,1562
48213207,1000,1000,1000,1000,88428781,1560,1560,1557,1563
48215706,1000,1000,1000,1000,88528741,1560,1560,1557,1564
48218205,1000,1000,1000,1000,88628701,1561,1561,1558,1563
48220704,1000,1000,1000,1000,88728661,1562,1562,1561,1563
48223203,1000,1000,1000,1000,88828621,1561,1562,1562,1560
48225702,1000,1000,1000,1000,88928581,1560,1560,1561,1558
48228201,1000,1000,1000,1000,89028541,1560,1560,1559,1560
48230700,1000,1000,1000,1000,89128501,1558,1557,1555,1559
48233199,1000,1000,1000,1000,89228461,1554,1554,1551,1555
48235698,1000,1000,1000,1000,89328421,1549,1549,1546,1549
48238197,1000,1000,1000,1000,89428381,1543,1543,1540,1541
48240696,1000,1000,1000,1000,89528341,1536,1536,1534,1534
48243195,1000,1000,1000,1000,89628301,1529,1529,1527,1526
48245694,1000,1000,1000,1000,89728261,1522,1522,1520,1519
48248193,1000,1000,1000,1000,89828221,1519,1521,1519,1519
48250692,1000,1000,1000,1000,89928181,1518,1520,1520,1520
48253191,1000,1000,1000,1000,90028974,1519,1521,1521,1522
48255690,1000,1000,1000,1000,90128934,1522,1523,1525,1526
48258189,1000,1000,1000,1000,90228894,1525,1525,1529,1529
48260688,1000,1000,1000,1000,90328854,1530,1529,1534,1534
48263187,1000,1000,1000,1000,90428814,1535,1534,1539,1539
48265686,1000,1000,1000,1000,90528774,1538,1537,1542,1541
48268185,1000,1000,1000,1000,90628734,1542,1541,1544,1544
48270684,1000,1000,1000,1000,90728694,1544,1542,1544,1544
48273183,1000,1000,1000,1000,90828654,1546,1544,1545,1545
48275682,1000,1000,1000,1000,90928614,1547,1546,1546,1545
48278181,1000,1000,1000,1000,91028574,1548,1548,1545,1545
48280680,1000,1000,1000,1000,91128534,1548,1548,1546,1546
48283179,1000,1000,1000,1000,91228494,1548,1549,1545,1545
48285678,1000,1000,1000,1000,91328454,1548,1548,1545,1545
48288177,1000,1000,1000,1000,91428414,1547,1547,1544,1544
48290676,1000,1000,1000,1000,91528374,1548,1548,1546,1545
48293175,1000,1000,1000,1000,91628334,1546,1547,1545,1545
48295674,1000,1000,1000,1000,91728294,1546,1546,1546,1545
48298173,1000,1000,1000,1000,91828254,1546,1546,1546,1546
48300672,1000,1000,1000,1000,91928214,1546,1546,1546,1546
48303171,1000,1000,1000,1000,92028174,1545,1545,1546,1545
48305670,1000,1000,1000,1000,92128967,1545,1544,1546,1546
48308169,1000,1000,1000,1000,92228927,1543,1544,1544,1544
48310668,1000,1000,1000,1000,92328887,1543,1543,1544,1544
48313167,1000,1000,1000,1000,92428847,1543,1543,1544,1544
48315666,1000,1000,1000,1000,92528807,1543,1543,1544,1544
48318165,1000,1000,1000,1000,92628767,1543,1544,1544,1544
48320664,1000,1000,1000,1000,92728727,1544,1544,1544,1545
48323163,1000,1000,1000,1000,92828687,1544,1544,1544,1544
48325662,1000,1000,1000,1000,92928647,1544,1544,1544,1544
48328161,1000,1000,1000,1000,93028607,1544,1544,1544,1544
48330660,1000,1000,1000,1000,93128567,1544,1544,1544,1543
48333159,1000,1000,1000,1000,93228527,1544,1544,1544,1544
48335658,1000,1000,1000,1000,93328487,1544,1544,1543,1543
48338157,1000,1000,1000,1000,93428447,1544,1544,1544,1544
48340656,1000,1000,1000,1000,93528407,1544,1544,1544,1544
48343155,1000,1000,1000,1000,93628367,1544,1544,1544,1544
48345654,1000,1000,1000,1000,93728327,1544,1544,1544,1544
48348986,1000,1000,1000,1000,93828287,1544,1544,1544,1544
48351485,1000,1000,1000,1000,93928247,1544,1544,1544,1544
48353984,1000,1000,1000,1000,94028207,1544,1545,1545,1544
48356483,1000,1000,1000,1000,94128167,1544,1545,1545,1545
48358982,1000,1000,1000,1000,94228960,1544,1544,1544,1545
48361481,1000,1000,1000,1000,94328920,1544,1544,1544,1544
48363980,1000,1000,1000,1000,94428880,1545,1545,1545,1545
48366479,1000,1000,1000,1000,94528840,1545,1545,1545,1545
48368978,1000,1000,1000,1000,94628800,1545,1545,1545,1545
48371477,1000,1000,1000,1000,94728760,1544,1544,1544,1545
48373976,1000,1000,1000,1000,94828720,1544,1544,1545,1544
48376475,1000,1000,1000,1000,94928680,1545,1545,1544,1545
48378974,1000,1000,1000,1000,95028640,1544,1545,1544,1545
48381473,1000,1000,1000,1000,95128600,1545,1545,1545,1545
48383972,1000,1000,1000,1000,95228560,1544,1544,1544,1544
48386471,1000,1000,1000,1000,95328520,1544,1544,1544,1544
48388970,1000,1000,1000,1000,95428480,1544,1544,1544,1544
48391469,1000,1000,1000,1000,95528440,1544,1544,1544,1544
48393968,1000,1000,1000,1000,95628400,1544,1545,1544,1544
48396467,1000,1000,1000,1000,95728360,1544,1544,1544,1544
48398966,1000,1000,1000,1000,95828320,1544,1544,1544,1544
48401465,1000,1000,1000,1000,95928280,1544,1544,1544,1544
48403964,1000,1000,1000,1000,96028240,1543,1543,1543,1543
48406463,1000,1000,1000,1000,96128200,1544,1544,1544,1544
48408962,1000,1000,1000,1000,96228160,1544,1544,1544,1544
48411461,1000,1000,1000,1000,96328953,1544,1544,1544,1545
48413960,1000,1000,1000,1000,96428913,1544,1544,1545,1544
48416459,1000,1000,1000,1000,96528873,1545,1545,1545,1545
48418958,1000,1000,1000,1000,96628833,1545,1545,1545,1544
48421457,1000,1000,1000,1000,96728793,1544,1544,1545,1545
48423956,1000,1000,1000,1000,96828753,1544,1544,1544,1544
48426455,1000,1000,1000,1000,96928713,1544,1544,1544,1544
48428954,1000,1000,1000,1000,97028673,1544,1544,1543,1544
48431453,1000,1000,1000,1000,97128633,1544,1544,1544,1544
48433952,1000,1000,1000,1000,97228593,1544,1545,1545,1544
48436451,1000,1000,1000,1000,97328553,1544,1544,1544,1544
48438950,1000,1000,1000,1000,97428513,1544,1544,1544,1544
48441449,1000,1000,1000,1000,97528473,1545,1545,1544,1545
48443948,1000,1000,1000,1000,97628433,1544,1544,1544,1544
48446447,1000,1000,1000,1000,97728393,1544,1544,1544,1544
48448946,1000,1000,1000,1000,97828353,1544,1544,1544,1544
48451445,1000,1000,1000,1000,97928313,1545,1545,1545,1545
48453944,1000,1000,1000,1000,98028273,1544,1544,1544,1544
48456443,1000,1000,1000,1000,98128233,1545,1545,1544,1545
48458942,1000,1000,1000,1000,98228193,1545,1545,1545,1545
48461441,1000,1000,1000,1000,98328986,1544,1544,1544,1544
48463940,1000,1000,1000,1000,98428946,1544,1544,1544,1543
48466439,1000,1000,1000,1000,98528906,1545,1544,1545,1544
48468938,1000,1000,1000,1000,98628866,1544,1545,1545,1544
48471437,1000,1000,1000,1000,98728826,1544,1544,1543,1544
48473936,1000,1000,1000,1000,98828786,1544,1544,1544,1544
48476435,1000,1000,1000,1000,98928746,1544,1544,1544,1544
48478934,1000,1000,1000,1000,99028706,1544,1544,1544,1544
48481433,1000,1000,1000,1000,99128666,1544,1544,1544,1544
48483932,1000,1000,1000,1000,99228626,1544,1545,1545,1545
48486431,1000,1000,1000,1000,99328586,1545,1544,1544,1545
48488930,1000,1000,1000,1000,99428546,1544,1544,1544,1544
48491429,1000,1000,1000,1000,99528506,1427,1375,1377,1375
48493928,1000,1000,1000,1000,99628466,1352,1256,1258,1255
48496427,1000,1000,1000,1000,99728426,1330,1215,1217,1215
48498926,1000,1000,1000,1000,99828386,1319,1196,1199,1196
48501425,1000,1000,1000,1000,99928346,1298,1152,1155,1153
48503924,1000,1000,1000,1000,100028306,1197,1150,1152,1150
48506423,1000,1000,1000,1000,100128266,1155,1150,1152,1150
48508922,1000,1000,1000,1000,100228226,1155,1150,1152,1150
48511421,1000,1000,1000,1000,100328186,1155,1150,1152,1151
48513920,1000,1000,1000,1000,100428979,1147,1150,1150,1166
48516419,1000,1000,1000,1000,100528939,1150,1150,1150,1160
48518918,1000,1000,1000,1000,100628899,1151,1150,1151,1158
48521417,1000,1000,1000,1000,100728859,1151,1150,1151,1157
48523916,1000,1000,1000,1000,100828819,1151,1150,1151,1158
48526415,1000,1000,1000,1000,100928779,1151,1150,1151,1158
48528914,1000,1000,1000,1000,101028739,1151,1150,1151,1158
48531413,1000,1000,1000,1000,101128699,1154,1150,1151,1154
48533912,1000,1000,1000,1000,101228659,1156,1150,1150,1151
48536411,1000,1000,1000,1000,101328619,1155,1150,1150,1151
48538910,1000,1000,1000,1000,101428579,1155,1150,1150,1152
48541409,1000,1000,1000,1000,101528539,1155,1150,1150,1152
48543908,1000,1000,1000,1000,101628499,875,1150,1150,1150
48546407,1000,1000,1000,1000,101728459,1000,1000,1000,1000
48548906,1000,1000,1000,1000,101828419,1000,1000,1000,1000
48551405,1000,1000,1000,1000,101928379,1000,1000,1000,1000
48553904,1000,1000,1000,1000,102028339,1000,1000,1000,1000
48556403,1000,1000,1000,1000,102128299,1000,1000,1000,1000
48558902,1000,1000,1000,1000,102228259,1000,1000,1000,1000
48561401,1000,1000,1000,1000,102328219,1000,1000,1000,1000
48563900,1000,1000,1000,1000,102428179,1000,1000,1000,1000
48566399,1000,1000,1000,1000,102528972,1000,1000,1000,1000
48568898,1000,1000,1000,1000,102628932,1000,1000,1000,1000
48571397,1000,1000,1000,1000,102728892,1000,1000,1000,1000
48573896,1000,1000,1000,1000,102828852,1000,1000,1000,1000
48576395,1000,1000,1000,1000,102928812,1000,1000,1000,1000
48578894,1000,1000,1000,1000,103028772,1000,1000,1000,1000
48581393,1000,1000,1000,1000,103128732,1000,1000,1000,1000
48583892,1000,1000,1000,1000,103228692,1000,1000,1000,1000
48586391,1000,1000,1000,1000,103328652,1000,1000,1000,1000
48588890,1000,1000,1000,1000,103428612,1000,1000,1000,1000
48591389,1000,1000,1000,1000,103528572,1000,1000,1000,1000
48593888,1000,1000,1000,1000,103628532,1000,1000,1000,1000
48596387,1000,1000,1000,1000,103728492,1000,1000,1000,1000
48598886,1000,1000,1000,1000,103828452,1000,1000,1000,1000
48601385,1000,1000,1000,1000,103928412,1000,1000,1000,1000
48603884,1000,1000,1000,1000,104028372,1000,1000,1000,1000
48606383,1000,1000,1000,1000,104128332,1000,1000,1000,1000
48608882,1000,1000,1000,1000,104228292,1000,1000,1000,1000
48611381,1000,1000,1000,1000,104328252,1000,1000,1000,1000
48613880,1000,1000,1000,1000,104428212,1000,1000,1000,1000
48616379,1000,1000,1000,1000,104528172,1000,1000,1000,1000
48618878,1000,1000,1000,1000,104628965,1000,1000,1000,1000
48621377,1000,1000,1000,1000,104728925,1000,1000,1000,1000
48623876,1000,1000,1000,1000,104828885,1000,1000,1000,1000
48626375,1000,1000,1000,1000,104928845,1000,1000,1000,1000
48628874,1000,1000,1000,1000,105028805,1000,1000,1000,1000
48631373,1000,1000,1000,1000,105128765,1000,1000,1000,1000
48633872,1000,1000,1000,1000,105228725,1000,1000,1000,1000
48636371,1000,1000,1000,1000,105328685,1000,1000,1000,1000
48638870,1000,1000,1000,1000,105428645,1000,1000,1000,1000
48641369,1000,1000,1000,1000,105528605,1000,1000,1000,1000
48643868,1000,1000,1000,1000,105628565,1000,1000,1000,1000
48646367,1000,1000,1000,1000,105728525,1000,1000,1000,1000
48648866,1000,1000,1000,1000,105828485,1000,1000,1000,1000
48651365,1000,1000,1000,1000,105928445,1000,1000,1000,1000
48653864,1000,1000,1000,1000,106028405,1000,1000,1000,1000
48656363,1000,1000,1000,1000,106128365,1000,1000,1000,1000
48658862,1000,1000,1000,1000,106228325,1000,1000,1000,1000
48661361,1000,1000,1000,1000,106328285,1000,1000,1000,1000
48663860,1000,1000,1000,1000,106428245,1000,1000,1000,1000
48666359,1000,1000,1000,1000,106528205,1000,1000,1000,1000
48668858,1000,1000,1000,1000,106628165,1000,1000,1000,1000
48671357,1000,1000,1000,1000,106728958,1000,1000,1000,1000
48673856,1000,1000,1000,1000,106828918,1000,1000,1000,1000
48676355,1000,1000,1000,1000,106928878,1000,1000,1000,1000
48678854,1000,1000,1000,1000,107028838,1000,1000,1000,1000
48681353,1000,1000,1000,1000,107128798,1000,1000,1000,1000
48683852,1000,1000,1000,1000,107228758,1000,1000,1000,1000
48686351,1000,1000,1000,1000,107328718,1000,1000,1000,1000
48688850,1000,1000,1000,1000,107428678,1000,1000,1000,1000
48691349,1000,1000,1000,1000,107528638,1000,1000,1000,1000
48693848,1000,1000,1000,1000,107628598,1000,1000,1000,1000
48696347,1000,1000,1000,1000,107728558,1000,1000,1000,1000
48698846,1000,1000,1000,1000,107828518,1000,1000,1000,1000
48701345,1000,1000,1000,1000,107928478,1000,1000,1000,1000
48703844,1000,1000,1000,1000,108028438,1000,1000,1000,1000
48706343,1000,1000,1000,1000,108128398,1000,1000,1000,1000
48708842,1000,1000,1000,1000,108228358,1000,1000,1000,1000
48711341,1000,1000,1000,1000,108328318,1000,1000,1000,1000
48713840,1000,1000,1000,1000,108428278,1000,1000,1000,1000
48716339,1000,1000,1000,1000,108528238,1000,1000,1000,1000
48718838,1000,1000,1000,1000,108628198,1000,1000,1000,1000
48721337,1000,1000,1000,1000,108728158,1000,1000,1000,1000
48723836,1000,1000,1000,1000,108828951,1000,1000,1000,1000
48726335,1000,1000,1000,1000,108928911,1000,1000,1000,1000
48728834,1000,1000,1000,1000,109028871,1000,1000,1000,1000
48731333,1000,1000,1000,1000,109128831,1000,1000,1000,1000
48733832,1000,1000,1000,1000,109228791,1000,1000,1000,1000
48736331,1000,1000,1000,1000,109328751,1000,1000,1000,1000
48738830,1000,1000,1000,1000,109428711,1000,1000,1000,1000
48741329,1000,1000,1000,1000,109528671,1000,1000,1000,1000
48743828,1000,1000,1000,1000,109628631,1000,1000,1000,1000
48746327,1000,1000,1000,1000,109728591,1000,1000,1000,1000
48748826,1000,1000,1000,1000,109828551,1000,1000,1000,1000
48751325,1000,1000,1000,1000,109928511,1000,1000,1000,1000
48753824,1000,1000,1000,1000,110028471,1000,1000,1000,1000
48756323,1000,1000,1000,1000,110128431,1000,1000,1000,1000
48758822,1000,1000,1000,1000,110228391,1000,1000,1000,1000
48761321,1000,1000,1000,1000,110328351,1000,1000,1000,1000
48763820,1000,1000,1000,1000,110428311,1000,1000,1000,1000
48766319,1000,1000,1000,1000,110528271,1000,1000,1000,1000
48768818,1000,1000,1000,1000,110628231,1000,1000,1000,1000
48771317,1000,1000,1000,1000,110728191,1000,1000,1000,1000
48773816,1000,1000,1000,1000,110828984,1000,1000,1000,1000
48776315,1000,1000,1000,1000,110928944,1000,1000,1000,1000
48778814,1000,1000,1000,1000,111028904,1000,1000,1000,1000
48781313,1000,1000,1000,1000,111128864,1000,1000,1000,1000
48783812,1000,1000,1000,1000,111228824,1000,1000,1000,1000
48786311,1000,1000,1000,1000,111328784,1000,1000,1000,1000
48788810,1000,1000,1000,1000,111428744,1000,1000,1000,1000
48791309,1000,1000,1000,1000,111528704,1000,1000,1000,1000
48793808,1000,1000,1000,1000,111628664,1000,1000,1000,1000
48796307,1000,1000,1000,1000,111728624,1000,1000,1000,1000
48798806,1000,1000,1000,1000,111828584,1000,1000,1000,1000
48801305,1000,1000,1000,1000,111928544,1000,1000,1000,1000
48803804,1000,1000,1000,1000,112028504,1000,1000,1000,1000
48806303,1000,1000,1000,1000,112128464,1000,1000,1000,1000
48808802,1000,1000,1000,1000,112228424,1000,1000,1000,1000
48811301,1000,1000,1000,1000,112328384,1000,1000,1000,1000
48813800,1000,1000,1000,1000,112428344,1000,1000,1000,1000
48816299,1000,1000,1000,1000,112528304,1000,1000,1000,1000
48818798,1000,1000,1000,1000,112628264,1000,1000,1000,1000
48821297,1000,1000,1000,1000,112728224,1000,1000,1000,1000
48823796,1000,1000,1000,1000,112828184,1000,1000,1000,1000
48826295,1000,1000,1000,1000,112928977,1000,1000,1000,1000
48828794,1000,1000,1000,1000,113028937,1000,1000,1000,1000
48831293,1000,1000,1000,1000,113128897,1000,1000,1000,1000
48833792,1000,1000,1000,1000,113228857,1000,1000,1000,1000
48836291,1000,1000,1000,1000,113328817,1000,1000,1000,1000
48838790,1000,1000,1000,1000,113428777,1000,1000,1000,1000
48841289,1000,1000,1000,1000,113528737,1000,1000,1000,1000
48843788,1000,1000,1000,1000,113628697,1000,1000,1000,1000
48846287,1000,1000,1000,1000,113728657,1000,1000,1000,1000
48848786,1000,1000,1000,1000,113828617,1000,1000,1000,1000
48851285,1000,1000,1000,1000,113928577,1000,1000,1000,1000
48853784,1000,1000,1000,1000,114028537,1000,1000,1000,1000
48856283,1000,1000,1000,1000,114128497,1000,1000,1000,1000
48858782,1000,1000,1000,1000,114228457,1000,1000,1000,1000
48861281,1000,1000,1000,1000,114328417,1000,1000,1000,1000
48863780,1000,1000,1000,1000,114428377,1000,1000,1000,1000
48866279,1000,1000,1000,1000,114528337,1000,1000,1000,1000
48868778,1000,1000,1000,1000,114628297,1000,1000,1000,1000
48871277,1000,1000,1000,1000,114728257,1000,1000,1000,1000
48873776,1000,1000,1000,1000,114828217,1000,1000,1000,1000
48876275,1000,1000,1000,1000,114928177,1000,1000,1000,1000
48878774,1000,1000,1000,1000,115028970,1000,1000,1000,1000
48881273,1000,1000,1000,1000,115128930,1000,1000,1000,1000
48883772,1000,1000,1000,1000,115228890,1000,1000,1000,1000
48886271,1000,1000,1000,1000,115328850,1000,1000,1000,1000
48888770,1000,1000,1000,1000,115428810,1000,1000,1000,1000
48891269,1000,1000,1000,1000,115528770,1000,1000,1000,1000
48893768,1000,1000,1000,1000,115628730,1000,1000,1000,1000
48896267,1000,1000,1000,1000,115728690,1000,1000,1000,1000
48898766,1000,1000,1000,1000,115828650,1000,1000,1000,1000
48901265,1000,1000,1000,1000,115928610,1000,1000,1000,1000
48903764,1000,1000,1000,1000,116028570,1000,1000,1000,1000
48906263,1000,1000,1000,1000,116128530,1000,1000,1000,1000
48908762,1000,1000,1000,1000,116228490,1000,1000,1000,1000
48911261,1000,1000,1000,1000,116328450,1000,1000,1000,1000
48913760,1000,1000,1000,1000,116428410,1000,1000,1000,1000
48916259,1000,1000,1000,1000,116528370,1000,1000,1000,1000
48918758,1000,1000,1000,1000,116628330,1000,1000,1000,1000
48921257,1000,1000,1000,1000,,,,,
48923756,1000,1000,1000,1000,,,,,
48926255,1000,1000,1000,1000,,,,,
48928754,1000,1000,1000,1000,,,,,
48931253,1000,1000,1000,1000,,,,,
48933752,1000,1000,1000,1000,,,,,
48936251,1000,1000,1000,1000,,,,,
48938750,1000,1000,1000,1000,,,,,
48941249,1000,1000,1000,1000,,,,,
48943748,1000,1000,1000,1000,,,,,
48946247,1000,1000,1000,1000,,,,,
48948746,1000,1000,1000,1000,,,,,
48951245,1000,1000,1000,1000,,,,,
48953744,1000,1000,1000,1000,,,,,
48956243,1000,1000,1000,1000,,,,,
48958742,1000,1000,1000,1000,,,,,
48961241,1000,1000,1000,1000,,,,,
48963740,1000,1000,1000,1000,,,,,
48966239,1000,1000,1000,1000,,,,,
48968738,1000,1000,1000,1000,,,,,
48971237,1000,1000,1000,1000,,,,,
48973736,1000,1000,1000,1000,,,,,
48976235,1000,1000,1000,1000,,,,,
48978734,1000,1000,1000,1000,,,,,
48981233,1000,1000,1000,1000,,,,,
48983732,1000,1000,1000,1000,,,,,
48986231,1000,1000,1000,1000,,,,,
48988730,1000,1000,1000,1000,,,,,
48991229,1000,1000,1000,1000,,,,,
48993728,1000,1000,1000,1000,,,,,
48996227,1000,1000,1000,1000,,,,,
48998726,1000,1000,1000,1000,,,,,
49001225,1000,1000,1000,1000,,,,,
49003724,1000,1000,1000,1000,,,,,
49006223,1000,1000,1000,1000,,,,,
49008722,1000,1000,1000,1000,,,,,
49011221,1000,1000,1000,1000,,,,,
49013720,1000,1000,1000,1000,,,,,
49016219,1000,1000,1000,1000,,,,,
49018718,1000,1000,1000,1000,,,,,
49021217,1000,1000,1000,1000,,,,,
49023716,1000,1000,1000,1000,,,,,
49026215,1000,1000,1000,1000,,,,,
49028714,1000,1000,1000,1000,,,,,
49031213,1000,1000,1000,1000,,,,,
49033712,1000,1000,1000,1000,,,,,
49036211,1000,1000,1000,1000,,,,,
49038710,1000,1000,1000,1000,,,,,
49041209,1000,1000,1000,1000,,,,,
49043708,1000,1000,1000,1000,,,,,
49046207,1000,1000,1000,1000,,,,,
49048706,1000,1000,1000,1000,,,,,
49051205,1000,1000,1000,1000,,,,,
49053704,1000,1000,1000,1000,,,,,
49056203,1000,1000,1000,1000,,,,,
49058702,1000,1000,1000,1000,,,,,
49061201,1000,1000,1000,1000,,,,,
49063700,1000,1000,1000,1000,,,,,
49066199,1000,1000,1000,1000,,,,,
49068698,1000,1000,1000,1000,,,,,
49071197,1000,1000,1000,1000,,,,,
49073696,1000,1000,1000,1000,,,,,
49076195,1000,1000,1000,1000,,,,,
49078694,1000,1000,1000,1000,,,,,
49081193,1000,1000,1000,1000,,,,,
49083692,1000,1000,1000,1000,,,,,
49086191,1000,1000,1000,1000,,,,,
49088690,1000,1000,1000,1000,,,,,
49091189,1000,1000,1000,1000,,,,,
49093688,1000,1000,1000,1000,,,,,
49096187,1000,1000,1000,1000,,,,,
49098686,1000,1000,1000,1000,,,,,
49101185,1000,1000,1000,1000,,,,,
49103684,1000,1000,1000,1000,,,,,
49106183,1000,1000,1000,1000,,,,,
49108682,1000,1000,1000,1000,,,,,
49111181,1000,1000,1000,1000,,,,,
49113680,1000,1000,1000,1000,,,,,
49116179,1000,1000,1000,1000,,,,,
49118678,1000,1000,1000,1000,,,,,
49121177,1000,1000,1000,1000,,,,,
49123676,1000,1000,1000,1000,,,,,
49126175,1000,1000,1000,1000,,,,,
49128674,1000,1000,1000,1000,,,,,
49131173,1000,1000,1000,1000,,,,,
49133672,1000,1000,1000,1000,,,,,
49136171,1000,1000,1000,1000,,,,,
49138670,1000,1000,1000,1000,,,,,
49141169,1000,1000,1000,1000,,,,,
49143668,1000,1000,1000,1000,,,,,
49146167,1000,1000,1000,1000,,,,,
49148666,1000,1000,1000,1000,,,,,
49151165,1000,1000,1000,1000,,,,,
49153664,1000,1000,1000,1000,,,,,
49156163,1000,1000,1000,1000,,,,,
49158662,1000,1000,1000,1000,,,,,
49161161,1000,1000,1000,1000,,,,,
49163660,1000,1000,1000,1000,,,,,
49166159,1000,1000,1000,1000,,,,,
49168658,1000,1000,1000,1000,,,,,
49171157,1000,1000,1000,1000,,,,,
49173656,1000,1000,1000,1000,,,,,
49176155,1000,1000,1000,1000,,,,,
49178654,1000,1000,1000,1000,,,,,
49181153,1000,1000,1000,1000,,,,,
49183652,1000,1000,1000,1000,,,,,
49186151,1000,1000,1000,1000,,,,,
49188650,1000,1000,1000,1000,,,,,
49191149,1001,1001,1001,1001,,,,,
49193648,1002,1002,1002,1002,,,,,
49196147,1003,1003,1003,1003,,,,,
49198646,1003,1003,1003,1003,,,,,
49201145,1004,1004,1004,1004,,,,,
49203644,1005,1005,1005,1005,,,,,
49206143,1006,1006,1006,1006,,,,,
49208642,1006,1006,1006,1006,,,,,
49211141,1007,1007,1007,1007,,,,,
49213640,1008,1008,1008,1008,,,,,
49216139,1009,1009,1009,1009,,,,,
49218638,1009,1009,1009,1009,,,,,
49221137,1010,1010,1010,1010,,,,,
49223636,1011,1011,1011,1011,,,,,
49226135,1012,1012,1012,1012,,,,,
49228634,1012,1012,1012,1012,,,,,
49231133,1013,1013,1013,1013,,,,,
49233632,1014,1014,1014,1014,,,,,
49236131,1015,1015,1015,1015,,,,,
49238630,1015,1015,1015,1015,,,,,
49241129,1016,1016,1016,1016,,,,,
49243628,1017,1017,1017,1017,,,,,
49246127,1018,1018,1018,1018,,,,,
49248626,1018,1018,1018,1018,,,,,
49251125,1019,1019,1019,1019,,,,,
49253624,1020,1020,1020,1020,,,,,
49256123,1021,1021,1021,1021,,,,,
49258622,1021,1021,1021,1021,,,,,
49261121,1022,1022,1022,1022,,,,,
49263620,1023,1023,1023,1023,,,,,
49266119,1024,1024,1024,1024,,,,,
49268618,1024,1024,1024,1024,,,,,
49271117,1025,1025,1025,1025,,,,,
49273616,1026,1026,1026,1026,,,,,
49276115,1027,1027,1027,1027,,,,,
49278614,1027,1027,1027,1027,,,,,
49281113,1028,1028,1028,1028,,,,,
49283612,1029,1029,1029,1029,,,,,
49286111,1030,1030,1030,1030,,,,,
49288610,1030,1030,1030,1030,,,,,
49291109,1031,1031,1031,1031,,,,,
49293608,1032,1032,1032,1032,,,,,
49296107,1033,1033,1033,1033,,,,,
49298606,1033,1033,1033,1033,,,,,
49301105,1034,1034,1034,1034,,,,,
49303604,1035,1035,1035,1035,,,,,
49306103,1036,1036,1036,1036,,,,,
49308602,1036,1036,1036,1036,,,,,
49311101,1037,1037,1037,1037,,,,,
49313600,1038,1038,1038,1038,,,,,
49316099,1039,1039,1039,1039,,,,,
49318598,1039,1039,1039,1039,,,,,
49321097,1040,1040,1040,1040,,,,,
49323596,1041,1041,1041,1041,,,,,
49326095,1042,1042,1042,1042,,,,,
49328594,1042,1042,1042,1042,,,,,
49331093,1043,1043,1043,1043,,,,,
49333592,1044,1044,1044,1044,,,,,
49336091,1045,1045,1045,1045,,,,,
49338590,1045,1045,1045,1045,,,,,
49341089,1046,1046,1046,1046,,,,,
49343588,1047,1047,1047,1047,,,,,
49346087,1048,1048,1048,1048,,,,,
49348586,1048,1048,1048,1048,,,,,
49351085,1049,1049,1049,1049,,,,,
49353584,1050,1050,1050,1050,,,,,
49356083,1051,1051,1051,1051,,,,,
49358582,1051,1051,1051,1051,,,,,
49361081,1052,1052,1052,1052,,,,,
49363580,1053,1053,1053,1053,,,,,
49366079,1054,1054,1054,1054,,,,,
49368578,1054,1054,1054,1054,,,,,
49371077,1055,1055,1055,1055,,,,,
49373576,1056,1056,1056,1056,,,,,
49376075,1057,1057,1057,1057,,,,,
49378574,1057,1057,1057,1057,,,,,
49381073,1058,1058,1058,1058,,,,,
49383572,1059,1059,1059,1059,,,,,
49386071,1060,1060,1060,1060,,,,,
49388570,1060,1060,1060,1060,,,,,
49391069,1061,1061,1061,1061,,,,,
49393568,1062,1062,1062,1062,,,,,
49396067,1063,1063,1063,1063,,,,,
49398566,1063,1063,1063,1063,,,,,
49401065,1064,1064,1064,1064,,,,,
49403564,1065,1065,1065,1065,,,,,
49406063,1066,1066,1066,1066,,,,,
49408562,1066,1066,1066,1066,,,,,
49411061,1067,1067,1067,1067,,,,,
49413560,1068,1068,1068,1068,,,,,
49416059,1069,1069,1069,1069,,,,,
49418558,1069,1069,1069,1069,,,,,
49421057,1070,1070,1070,1070,,,,,
49423556,1071,1071,1071,1071,,,,,
49426055,1072,1072,1072,1072,,,,,
49428554,1072,1072,1072,1072,,,,,
49431053,1073,1073,1073,1073,,,,,
49433552,1074,1074,1074,1074,,,,,
49436051,1075,1075,1075,1075,,,,,
49438550,1075,1075,1075,1075,,,,,
49441049,1076,1076,1076,1076,,,,,
49443548,1077,1077,1077,1077,,,,,
49446047,1078,1078,1078,1078,,,,,
49448546,1078,1078,1078,1078,,,,,
49451045,1079,1079,1079,1079,,,,,
49453544,1080,1080,1080,1080,,,,,
49456043,1081,1081,1081,1081,,,,,
49458542,1081,1081,1081,1081,,,,,
49461041,1082,1082,1082,1082,,,,,
49463540,1083,1083,1083,1083,,,,,
49466039,1084,1084,1084,1084,,,,,
49468538,1084,1084,1084,1084,,,,,
49471037,1085,1085,1085,1085,,,,,
49473536,1086,1086,1086,1086,,,,,
49476035,1087,1087,1087,1087,,,,,
49478534,1087,1087,1087,1087,,,,,
49481033,1088,1088,1088,1088,,,,,
49483532,1089,1089,1089,1089,,,,,
49486031,1090,1090,1090,1090,,,,,
49488530,1090,1090,1090,1090,,,,,
49491029,1091,1091,1091,1091,,,,,
49493528,1092,1092,1092,1092,,,,,
49496027,1093,1093,1093,1093,,,,,
49498526,1093,1093,1093,1093,,,,,
49501025,1094,1094,1094,1094,,,,,
49503524,1095,1095,1095,1095,,,,,
49506023,1096,1096,1096,1096,,,,,
49508522,1096,1096,1096,1096,,,,,
49511021,1097,1097,1097,1097,,,,,
49513520,1098,1098,1098,1098,,,,,
49516019,1099,1099,1099,1099,,,,,
49518518,1099,1099,1099,1099,,,,,
49521017,1100,1100,1100,1100,,,,,
49523516,1101,1101,1101,1101,,,,,
49526015,1101,1101,1101,1101,,,,,
49528514,1102,1102,1102,1102,,,,,
49531013,1103,1103,1103,1103,,,,,
49533512,1104,1104,1104,1104,,,,,
49536011,1104,1104,1104,1104,,,,,
49538510,1105,1105,1105,1105,,,,,
49541009,1106,1106,1106,1106,,,,,
49543508,1107,1107,1107,1107,,,,,
49546007,1107,1107,1107,1107,,,,,
49548506,1108,1108,1108,1108,,,,,
49551005,1109,1109,1109,1109,,,,,
49553504,1110,1110,1110,1110,,,,,
49556003,1110,1110,1110,1110,,,,,
49558502,1111,1111,1111,1111,,,,,
49561001,1112,1112,1112,1112,,,,,
49563500,1113,1113,1113,1113,,,,,
49565999,1113,1113,1113,1113,,,,,
49568498,1114,1114,1114,1114,,,,,
49570997,1115,1115,1115,1115,,,,,
49573496,1116,1116,1116,1116,,,,,
49575995,1116,1116,1116,1116,,,,,
49578494,1117,1117,1117,1117,,,,,
49580993,1118,1118,1118,1118,,,,,
49583492,1119,1119,1119,1119,,,,,
49585991,1119,1119,1119,1119,,,,,
49588490,1120,1120,1120,1120,,,,,
49590989,1121,1121,1121,1121,,,,,
49593488,1122,1122,1122,1122,,,,,
49595987,1122,1122,1122,1122,,,,,
49598486,1123,1123,1123,1123,,,,,
49600985,1124,1124,1124,1124,,,,,
49603484,1125,1125,1125,1125,,,,,
49605983,1125,1125,1125,1125,,,,,
49608482,1126,1126,1126,1126,,,,,
49610981,1127,1127,1127,1127,,,,,
49613480,1128,1128,1128,1128,,,,,
49615979,1128,1128,1128,1128,,,,,
49618478,1129,1129,1129,1129,,,,,
49620977,1130,1130,1130,1130,,,,,
49623476,1131,1131,1131,1131,,,,,
49625975,1131,1131,1131,1131,,,,,
49628474,1132,1132,1132,1132,,,,,
49630973,1133,1133,1133,1133,,,,,
49633472,1134,1134,1134,1134,,,,,
49635971,1134,1134,1134,1134,,,,,
49638470,1135,1135,1135,1135,,,,,
49640969,1136,1136,1136,1136,,,,,
49643468,1137,1137,1137,1137,,,,,
49645967,1137,1137,1137,1137,,,,,
49648466,1138,1138,1138,1138,,,,,
49650965,1139,1139,1139,1139,,,,,
49653464,1140,1140,1140,1140,,,,,
49655963,1140,1140,1140,1140,,,,,
49658462,1141,1141,1141,1141,,,,,
49660961,1142,1142,1142,1142,,,,,
49663460,1143,1143,1143,1143,,,,,
49665959,1143,1143,1143,1143,,,,,
49668458,1144,1144,1144,1144,,,,,
49670957,1145,1145,1145,1145,,,,,
49673456,1146,1146,1146,1146,,,,,
49675955,1146,1146,1146,1146,,,,,
49678454,1147,1147,1147,1147,,,,,
49680953,1148,1148,1148,1148,,,,,
49683452,1149,1149,1149,1149,,,,,
49685951,1149,1149,1149,1149,,,,,
49688450,1150,1150,1150,1150,,,,,
49690949,1161,1154,1154,1161,,,,,
49693448,1169,1162,1163,1169,,,,,
49695947,1177,1170,1170,1177,,,,,
49698446,1185,1178,1178,1185,,,,,
49700945,1192,1186,1186,1192,,,,,
49703444,1200,1193,1193,1200,,,,,
49705943,1207,1200,1201,1207,,,,,
49708442,1214,1208,1208,1214,,,,,
49710941,1221,1215,1215,1222,,,,,
49713440,1228,1222,1222,1229,,,,,
49715939,1235,1229,1229,1235,,,,,
49718438,1242,1236,1236,1242,,,,,
49720937,1249,1243,1243,1249,,,,,
49723436,1255,1249,1250,1256,,,,,
49725935,1262,1256,1256,1262,,,,,
49728434,1268,1262,1263,1269,,,,,
49730933,1275,1269,1269,1275,,,,,
49733432,1281,1275,1276,1281,,,,,
49735931,1287,1281,1282,1287,,,,,
49738430,1293,1288,1288,1293,,,,,
49740929,1299,1294,1294,1300,,,,,
49743428,1305,1300,1300,1306,,,,,
49745927,1311,1306,1306,1312,,,,,
49748426,1317,1312,1312,1317,,,,,
49750925,1323,1318,1318,1323,,,,,
49753424,1329,1323,1324,1329,,,,,
49755923,1334,1329,1330,1335,,,,,
49758422,1340,1335,1335,1340,,,,,
49760921,1346,1341,1341,1346,,,,,
49763420,1351,1346,1346,1351,,,,,
49765919,1357,1352,1352,1357,,,,,
49768418,1362,1357,1357,1362,,,,,
49770917,1368,1363,1363,1368,,,,,
49773416,1373,1368,1368,1373,,,,,
49775915,1378,1373,1374,1378,,,,,
49778414,1383,1379,1379,1384,,,,,
49780913,1389,1384,1384,1389,,,,,
49783412,1394,1389,1389,1394,,,,,
49785911,1399,1394,1395,1399,,,,,
49788410,1404,1399,1400,1404,,,,,
49790909,1409,1404,1405,1409,,,,,
49793408,1414,1410,1410,1414,,,,,
49795907,1419,1415,1415,1419,,,,,
49798406,1424,1419,1420,1424,,,,,
49800905,1429,1424,1425,1429,,,,,
49803404,1434,1429,1430,1434,,,,,
49805903,1439,1434,1434,1439,,,,,
49808402,1443,1439,1439,1444,,,,,
49810901,1448,1444,1444,1448,,,,,
49813400,1453,1449,1449,1453,,,,,
49815899,1458,1453,1454,1458,,,,,
49818398,1462,1458,1458,1463,,,,,
49820897,1467,1463,1463,1467,,,,,
49823396,1472,1467,1468,1472,,,,,
49825895,1476,1472,1472,1476,,,,,
49828394,1481,1476,1477,1481,,,,,
49830893,1485,1481,1481,1485,,,,,
49833392,1490,1486,1486,1490,,,,,
49835891,1494,1490,1490,1494,,,,,
49838390,1499,1495,1495,1499,,,,,
49840889,1503,1499,1499,1503,,,,,
49843388,1508,1503,1504,1508,,,,,
49845887,1512,1508,1508,1512,,,,,
49848386,1516,1512,1512,1516,,,,,
49850885,1521,1516,1517,1521,,,,,
49853384,1525,1521,1521,1525,,,,,
49855883,1529,1525,1525,1529,,,,,
49858382,1533,1529,1530,1534,,,,,
49860881,1538,1534,1534,1538,,,,,
49863380,1542,1538,1538,1542,,,,,
49865879,1546,1542,1542,1546,,,,,
49868378,1550,1546,1546,1550,,,,,
49870877,1554,1550,1550,1555,,,,,
49873376,1558,1554,1555,1559,,,,,
49875875,1563,1559,1559,1563,,,,,
49878374,1567,1563,1563,1567,,,,,
49880873,1571,1567,1567,1571,,,,,
49883372,1575,1571,1571,1575,,,,,
49885871,1579,1575,1575,1579,,,,,
49888370,1583,1579,1579,1583,,,,,
49890869,1587,1583,1583,1587,,,,,
49893368,1591,1587,1587,1591,,,,,
49895867,1595,1591,1591,1595,,,,,
49898366,1599,1595,1595,1599,,,,,
49900865,1603,1598,1599,1603,,,,,
49903364,1606,1602,1603,1606,,,,,
49905863,1610,1606,1607,1610,,,,,
49908362,1614,1610,1610,1614,,,,,
49910861,1618,1614,1614,1618,,,,,
49913360,1622,1618,1618,1622,,,,,
49915859,1626,1621,1622,1626,,,,,
49918358,1629,1625,1626,1629,,,,,
49920857,1633,1629,1629,1633,,,,,
49923356,1637,1633,1633,1637,,,,,
49925855,1641,1637,1637,1641,,,,,
49928354,1644,1640,1641,1644,,,,,
49930853,1648,1644,1644,1648,,,,,
49933352,1652,1648,1648,1652,,,,,
49935851,1656,1651,1652,1655,,,,,
49938350,1659,1655,1655,1659,,,,,
49940849,1663,1659,1659,1663,,,,,
49943348,1666,1662,1663,1666,,,,,
49945847,1670,1666,1666,1670,,,,,
49948346,1674,1669,1670,1674,,,,,
49950845,1677,1673,1674,1677,,,,,
49953344,1681,1677,1677,1681,,,,,
49955843,1684,1680,1681,1684,,,,,
49958342,1688,1684,1684,1688,,,,,
49960841,1692,1687,1688,1691,,,,,
49963340,1695,1691,1691,1695,,,,,
49965839,1699,1694,1695,1698,,,,,
49968338,1702,1698,1698,1702,,,,,
49970837,1706,1701,1702,1705,,,,,
49973336,1709,1705,1705,1709,,,,,
49975835,1712,1708,1709,1712,,,,,
49978334,1716,1712,1712,1716,,,,,
49980833,1719,1715,1716,1719,,,,,
49983332,1723,1719,1719,1723,,,,,
49985831,1726,1722,1723,1726,,,,,
49988330,1730,1725,1726,1729,,,,,
49990829,1733,1729,1729,1733,,,,,
49993328,1736,1732,1733,1736,,,,,
49995827,1740,1736,1736,1740,,,,,
49998326,1743,1739,1739,1743,,,,,
50000825,1746,1742,1743,1746,,,,,
50003324,1750,1746,1746,1750,,,,,
50005823,1753,1749,1749,1753,,,,,
50008322,1756,1752,1753,1756,,,,,
50010821,1760,1756,1756,1760,,,,,
50013320,1763,1759,1759,1763,,,,,
50015819,1766,1762,1763,1766,,,,,
50018318,1769,1765,1766,1769,,,,,
50020817,1773,1769,1769,1773,,,,,
50023316,1776,1772,1772,1776,,,,,
50025815,1779,1775,1776,1779,,,,,
50028314,1782,1778,1779,1782,,,,,
50030813,1786,1782,1782,1786,,,,,
50033312,1789,1785,1785,1789,,,,,
50035811,1792,1788,1788,1792,,,,,
50038310,1795,1791,1792,1795,,,,,
50040809,1798,1794,1795,1798,,,,,
50043308,1802,1797,1798,1801,,,,,
50045807,1805,1801,1801,1805,,,,,
50048306,1808,1804,1804,1808,,,,,
50050805,1811,1807,1807,1811,,,,,
50053304,1814,1810,1810,1814,,,,,
50055803,1817,1813,1814,1817,,,,,
50058302,1820,1816,1817,1820,,,,,
50060801,1823,1819,1820,1823,,,,,
50063300,1826,1823,1823,1826,,,,,
50065799,1830,1826,1826,1830,,,,,
50068298,1833,1829,1829,1833,,,,,
50070797,1836,1832,1832,1836,,,,,
50073296,1839,1835,1835,1839,,,,,
50075795,1842,1838,1838,1842,,,,,
50078294,1845,1841,1841,1845,,,,,
50080793,1848,1844,1844,1848,,,,,
50083292,1851,1847,1847,1851,,,,,
50085791,1854,1850,1850,1854,,,,,
50088290,1857,1853,1853,1857,,,,,
50090789,1860,1856,1856,1860,,,,,
50093288,1863,1859,1859,1863,,,,,
50095787,1866,1862,1862,1866,,,,,
50098286,1869,1865,1865,1869,,,,,
50100785,1867,1863,1864,1867,,,,,
50103284,1866,1862,1862,1866,,,,,
50105783,1865,1861,1861,1865,,,,,
50108282,1864,1860,1860,1864,,,,,
50110781,1863,1859,1859,1863,,,,,
50113280,1862,1857,1858,1862,,,,,
50115779,1860,1856,1857,1860,,,,,
50118278,1859,1855,1856,1859,,,,,
50120777,1858,1854,1855,1858,,,,,
50123276,1858,1853,1854,1858,,,,,
50125775,1857,1853,1853,1857,,,,,
50128274,1856,1852,1852,1856,,,,,
50130773,1855,1851,1851,1855,,,,,
50133272,1855,1851,1851,1855,,,,,
50135771,1854,1850,1850,1854,,,,,
50138270,1854,1850,1850,1854,,,,,
50140769,1854,1849,1850,1854,,,,,
50143268,1853,1849,1850,1854,,,,,
50145767,1853,1849,1849,1853,,,,,
50148266,1853,1849,1849,1853,,,,,
50150765,1853,1849,1849,1854,,,,,
50153264,1854,1849,1850,1854,,,,,
50155763,1854,1849,1850,1854,,,,,
50158262,1854,1850,1850,1854,,,,,
50160761,1854,1850,1850,1855,,,,,
50163260,1855,1850,1851,1855,,,,,
50165759,1855,1851,1851,1855,,,,,
50168258,1856,1851,1852,1856,,,,,
50170757,1857,1852,1852,1857,,,,,
50173256,1857,1853,1853,1857,,,,,
50175755,1858,1853,1854,1858,,,,,
50178254,1859,1854,1854,1859,,,,,
50180753,1859,1855,1855,1859,,,,,
50183252,1860,1856,1856,1860,,,,,
50185751,1861,1856,1857,1861,,,,,
50188250,1862,1857,1858,1862,,,,,
50190749,1863,1858,1859,1863,,,,,
50193248,1864,1859,1860,1863,,,,,
50195747,1864,1860,1861,1864,,,,,
50198246,1865,1861,1861,1865,,,,,
50200745,1865,1861,1862,1865,,,,,
50203244,1866,1862,1863,1866,,,,,
50205743,1866,1862,1863,1866,,,,,
50208242,1866,1863,1863,1866,,,,,
50210741,1866,1863,1863,1866,,,,,
50213240,1866,1863,1863,1866,,,,,
50215739,1865,1862,1863,1865,,,,,
50218238,1865,1862,1862,1865,,,,,
50220737,1864,1861,1861,1864,,,,,
50223236,1863,1860,1860,1863,,,,,
50225735,1862,1859,1859,1862,,,,,
50228234,1861,1858,1858,1861,,,,,
50230733,1859,1856,1857,1859,,,,,
50233232,1857,1855,1855,1857,,,,,
50235731,1856,1853,1853,1856,,,,,
50238230,1854,1851,1851,1854,,,,,
50240729,1851,1849,1849,1852,,,,,
50243228,1849,1847,1847,1849,,,,,
50245727,1847,1845,1845,1847,,,,,
50248226,1845,1842,1842,1845,,,,,
50250725,1842,1840,1840,1842,,,,,
50253224,1840,1837,1837,1840,,,,,
50255723,1837,1835,1835,1837,,,,,
50258222,1834,1832,1832,1834,,,,,
50260721,1831,1829,1829,1832,,,,,
50263220,1829,1826,1827,1829,,,,,
50265719,1826,1823,1824,1826,,,,,
50268218,1823,1821,1821,1823,,,,,
50270717,1820,1818,1818,1820,,,,,
50273216,1816,1814,1815,1817,,,,,
50275715,1813,1811,1812,1814,,,,,
50278214,1810,1808,1808,1810,,,,,
50280713,1807,1805,1805,1807,,,,,
50283212,1803,1802,1802,1804,,,,,
50285711,1800,1798,1799,1800,,,,,
50288210,1797,1795,1795,1797,,,,,
50290709,1793,1792,1792,1794,,,,,
50293208,1790,1788,1789,1790,,,,,
50295707,1787,1785,1785,1787,,,,,
50298206,1783,1782,1782,1783,,,,,
50300705,1780,1778,1778,1780,,,,,
50303204,1776,1775,1775,1777,,,,,
50305703,1773,1772,1772,1773,,,,,
50308202,1769,1768,1768,1770,,,,,
50310701,1766,1765,1765,1766,,,,,
50313200,1762,1761,1761,1763,,,,,
50315699,1759,1758,1758,1759,,,,,
50318198,1756,1754,1755,1756,,,,,
50320697,1752,1751,1751,1752,,,,,
50323196,1749,1748,1748,1749,,,,,
50325695,1745,1745,1745,1746,,,,,
50328194,1742,1741,1741,1742,,,,,
50330693,1739,1738,1738,1739,,,,,
50333192,1735,1735,1735,1736,,,,,
50335691,1732,1732,1732,1732,,,,,
50338190,1729,1729,1729,1729,,,,,
50340689,1726,1725,1726,1726,,,,,
50343188,1723,1722,1723,1723,,,,,
50345687,1719,1719,1720,1720,,,,,
50348186,1716,1716,1716,1717,,,,,
50350685,1713,1713,1713,1713,,,,,
