timestamp,TimeUS,C1,C2,C3,C4,C5,C6,C7,C8,C9,C10,C11,C12,C13,C14
1708793602.00000000,47228601,1000,1000,1000,1000,0,0,0,0,0,0,0,0,0,0
1708793602.09996009,47328561,1000,1000,1000,1000,0,0,0,0,0,0,0,0,0,0
1708793602.19991994,47428521,1000,1000,1000,1000,0,0,0,0,0,0,0,0,0,0
1708793602.29988003,47528481,1000,1000,1000,1000,0,0,0,0,0,0,0,0,0,0
1708793602.39984012,47628441,1000,1000,1000,1000,0,0,0,0,0,0,0,0,0,0
1708793602.49979997,47728401,1000,1000,1000,1000,0,0,0,0,0,0,0,0,0,0
1708793602.59976006,47828361,1000,1000,1000,1000,0,0,0,0,0,0,0,0,0,0
1708793602.69971991,47928321,1000,1000,1000,1000,0,0,0,0,0,0,0,0,0,0
1708793602.79967999,48028281,1000,1000,1000,1000,0,0,0,0,0,0,0,0,0,0
1708793602.89964008,48128241,1000,1000,1000,1000,0,0,0,0,0,0,0,0,0,0
1708793602.99959993,48228201,1000,1000,1000,1000,0,0,0,0,0,0,0,0,0,0
1708793603.09956002,48328161,1000,1000,1000,1000,0,0,0,0,0,0,0,0,0,0
1708793603.20035291,48428954,1000,1000,1000,1000,0,0,0,0,0,0,0,0,0,0
1708793603.30031300,48528914,1000,1000,1000,1000,0,0,0,0,0,0,0,0,0,0
1708793603.40027308,48628874,1000,1000,1000,1000,0,0,0,0,0,0,0,0,0,0
1708793603.50023293,48728834,1000,1000,1000,1000,0,0,0,0,0,0,0,0,0,0
1708793603.60019302,48828794,1000,1000,1000,1000,0,0,0,0,0,0,0,0,0,0
1708793603.70015311,48928754,1000,1000,1000,1000,0,0,0,0,0,0,0,0,0,0
1708793603.80011296,49028714,1000,1000,1000,1000,0,0,0,0,0,0,0,0,0,0
1708793603.90007305,49128674,1000,1000,1000,1000,0,0,0,0,0,0,0,0,0,0
1708793604.00003314,49228634,1013,1013,1013,1013,0,0,0,0,0,0,0,0,0,0
1708793604.09999299,49328594,1043,1043,1043,1043,0,0,0,0,0,0,0,0,0,0
1708793604.19995308,49428554,1073,1073,1073,1073,0,0,0,0,0,0,0,0,0,0
1708793604.29991293,49528514,1103,1103,1103,1103,0,0,0,0,0,0,0,0,0,0
1708793604.39987302,49628474,1133,1133,1133,1133,0,0,0,0,0,0,0,0,0,0
1708793604.49983311,49728434,1275,1269,1269,1275,0,0,0,0,0,0,0,0,0,0
1708793604.59979296,49828394,1485,1481,1481,1485,0,0,0,0,0,0,0,0,0,0
1708793604.69975305,49928354,1648,1644,1644,1648,0,0,0,0,0,0,0,0,0,0
1708793604.79971313,50028314,1786,1782,1782,1786,0,0,0,0,0,0,0,0,0,0
1708793604.89967299,50128274,1855,1851,1851,1855,0,0,0,0,0,0,0,0,0,0
1708793604.99963307,50228234,1859,1856,1857,1859,0,0,0,0,0,0,0,0,0,0
1708793605.09959292,50328194,1739,1738,1738,1739,0,0,0,0,0,0,0,0,0,0
1708793605.19955301,50428154,1637,1638,1638,1637,0,0,0,0,0,0,0,0,0,0
1708793605.30034614,50528947,1607,1609,1609,1607,0,0,0,0,0,0,0,0,0,0
1708793605.40030599,50628907,1618,1621,1620,1619,0,0,0,0,0,0,0,0,0,0
1708793605.50026608,50728867,1632,1633,1633,1632,0,0,0,0,0,0,0,0,0,0
1708793605.60022593,50828827,1635,1635,1635,1635,0,0,0,0,0,0,0,0,0,0
1708793605.70018601,50928787,1623,1622,1620,1625,0,0,0,0,0,0,0,0,0,0
1708793605.80014610,51028747,1610,1610,1602,1617,0,0,0,0,0,0,0,0,0,0
1708793605.90010595,51128707,1605,1604,1599,1610,0,0,0,0,0,0,0,0,0,0
1708793606.00006604,51228667,1606,1606,1604,1607,0,0,0,0,0,0,0,0,0,0
1708793606.10002613,51328627,1610,1610,1612,1608,0,0,0,0,0,0,0,0,0,0
1708793606.19998598,51428587,1615,1615,1618,1612,0,0,0,0,0,0,0,0,0,0
1708793606.29994607,51528547,1620,1619,1623,1616,0,0,0,0,0,0,0,0,0,0
1708793606.39990592,51628507,1618,1618,1622,1614,0,0,0,0,0,0,0,0,0,0
1708793606.49986601,51728467,1586,1588,1599,1575,0,0,0,0,0,0,0,0,0,0
1708793606.59982610,51828427,1573,1574,1582,1566,0,0,0,0,0,0,0,0,0,0
1708793606.69978595,51928387,1562,1561,1562,1562,0,0,0,0,0,0,0,0,0,0
1708793606.79974604,52028347,1553,1552,1544,1562,0,0,0,0,0,0,0,0,0,0
1708793606.89970613,52128307,1545,1544,1533,1556,0,0,0,0,0,0,0,0,0,0
1708793606.99966598,52228267,1538,1537,1528,1546,0,0,0,0,0,0,0,0,0,0
1708793607.09962606,52328227,1532,1531,1527,1536,0,0,0,0,0,0,0,0,0,0
1708793607.19958591,52428187,1529,1529,1528,1529,0,0,0,0,0,0,0,0,0,0
1708793607.30037904,52528980,1529,1529,1531,1527,0,0,0,0,0,0,0,0,0,0
1708793607.40033913,52628940,1531,1531,1534,1528,0,0,0,0,0,0,0,0,0,0
1708793607.50029898,52728900,1534,1534,1537,1530,0,0,0,0,0,0,0,0,0,0
1708793607.60025907,52828860,1537,1538,1540,1534,0,0,0,0,0,0,0,0,0,0
1708793607.70021892,52928820,1541,1541,1543,1539,0,0,0,0,0,0,0,0,0,0
1708793607.80017900,53028780,1544,1544,1545,1543,0,0,0,0,0,0,0,0,0,0
1708793607.90013909,53128740,1546,1546,1546,1547,0,0,0,0,0,0,0,0,0,0
1708793608.00009894,53228700,1549,1549,1548,1550,0,0,0,0,0,0,0,0,0,0
1708793608.10005903,53328660,1552,1551,1550,1554,0,0,0,0,0,0,0,0,0,0
1708793608.20001912,53428620,1549,1549,1557,1560,0,0,0,0,0,0,0,0,0,0
1708793608.29997897,53528580,1551,1551,1561,1563,0,0,0,0,0,0,0,0,0,0
1708793608.39993906,53628540,1555,1556,1564,1564,0,0,0,0,0,0,0,0,0,0
1708793608.49989891,53728500,1558,1559,1564,1564,0,0,0,0,0,0,0,0,0,0
1708793608.59985900,53828460,1562,1563,1564,1563,0,0,0,0,0,0,0,0,0,0
1708793608.69981909,53928420,1565,1565,1563,1562,0,0,0,0,0,0,0,0,0,0
1708793608.79977894,54028380,1568,1568,1564,1563,0,0,0,0,0,0,0,0,0,0
1708793608.89973903,54128340,1571,1570,1564,1565,0,0,0,0,0,0,0,0,0,0
1708793608.99969912,54228300,1572,1573,1566,1566,0,0,0,0,0,0,0,0,0,0
1708793609.09965897,54328260,1573,1573,1566,1566,0,0,0,0,0,0,0,0,0,0
1708793609.19961905,54428220,1574,1573,1567,1568,0,0,0,0,0,0,0,0,0,0
1708793609.29957891,54528180,1574,1573,1569,1569,0,0,0,0,0,0,0,0,0,0
1708793609.40037203,54628973,1574,1573,1571,1571,0,0,0,0,0,0,0,0,0,0
1708793609.50033212,54728933,1574,1574,1573,1573,0,0,0,0,0,0,0,0,0,0
1708793609.60029197,54828893,1574,1575,1576,1575,0,0,0,0,0,0,0,0,0,0
1708793609.70025206,54928853,1574,1575,1577,1575,0,0,0,0,0,0,0,0,0,0
1708793609.80021191,55028813,1574,1574,1577,1575,0,0,0,0,0,0,0,0,0,0
1708793609.90017200,55128773,1575,1575,1578,1577,0,0,0,0,0,0,0,0,0,0
1708793610.00013208,55228733,1575,1575,1577,1577,0,0,0,0,0,0,0,0,0,0
1708793610.10009193,55328693,1575,1575,1577,1577,0,0,0,0,0,0,0,0,0,0
1708793610.20005202,55428653,1574,1575,1576,1576,0,0,0,0,0,0,0,0,0,0
1708793610.30001211,55528613,1575,1575,1576,1577,0,0,0,0,0,0,0,0,0,0
1708793610.39997196,55628573,1576,1576,1577,1576,0,0,0,0,0,0,0,0,0,0
1708793610.49993205,55728533,1576,1576,1576,1576,0,0,0,0,0,0,0,0,0,0
1708793610.59989214,55828493,1576,1576,1576,1576,0,0,0,0,0,0,0,0,0,0
1708793610.69985199,55928453,1578,1578,1577,1577,0,0,0,0,0,0,0,0,0,0
1708793610.79981208,56028413,1579,1579,1578,1577,0,0,0,0,0,0,0,0,0,0
1708793610.89977193,56128373,1578,1579,1578,1577,0,0,0,0,0,0,0,0,0,0
1708793610.99973202,56228333,1578,1578,1577,1577,0,0,0,0,0,0,0,0,0,0
1708793611.09969211,56328293,1579,1579,1578,1578,0,0,0,0,0,0,0,0,0,0
1708793611.19965196,56428253,1578,1578,1578,1578,0,0,0,0,0,0,0,0,0,0
1708793611.29961205,56528213,1579,1578,1578,1578,0,0,0,0,0,0,0,0,0,0
1708793611.39957213,56628173,1578,1577,1577,1577,0,0,0,0,0,0,0,0,0,0
1708793611.50036502,56728966,1577,1577,1577,1577,0,0,0,0,0,0,0,0,0,0
1708793611.60032511,56828926,1577,1578,1578,1578,0,0,0,0,0,0,0,0,0,0
1708793611.70028496,56928886,1578,1578,1579,1578,0,0,0,0,0,0,0,0,0,0
1708793611.80024505,57028846,1577,1578,1579,1578,0,0,0,0,0,0,0,0,0,0
1708793611.90020514,57128806,1578,1578,1579,1579,0,0,0,0,0,0,0,0,0,0
1708793612.00016499,57228766,1578,1578,1579,1579,0,0,0,0,0,0,0,0,0,0
1708793612.10012507,57328726,1579,1580,1580,1580,0,0,0,0,0,0,0,0,0,0
1708793612.20008492,57428686,1580,1580,1580,1580,0,0,0,0,0,0,0,0,0,0
1708793612.30004501,57528646,1580,1580,1580,1580,0,0,0,0,0,0,0,0,0,0
1708793612.40000510,57628606,1580,1579,1579,1580,0,0,0,0,0,0,0,0,0,0
1708793612.49996495,57728566,1581,1580,1580,1580,0,0,0,0,0,0,0,0,0,0
1708793612.59992504,57828526,1580,1580,1580,1580,0,0,0,0,0,0,0,0,0,0
1708793612.69988513,57928486,1580,1580,1580,1580,0,0,0,0,0,0,0,0,0,0
1708793612.79984498,58028446,1580,1581,1581,1580,0,0,0,0,0,0,0,0,0,0
1708793612.89980507,58128406,1580,1580,1580,1580,0,0,0,0,0,0,0,0,0,0
1708793612.99976492,58228366,1580,1580,1580,1580,0,0,0,0,0,0,0,0,0,0
1708793613.09972501,58328326,1580,1580,1580,1580,0,0,0,0,0,0,0,0,0,0
1708793613.19968510,58428286,1580,1581,1581,1580,0,0,0,0,0,0,0,0,0,0
1708793613.29964495,58528246,1580,1580,1580,1580,0,0,0,0,0,0,0,0,0,0
1708793613.39960504,58628206,1580,1580,1581,1580,0,0,0,0,0,0,0,0,0,0
1708793613.49956512,58728166,1580,1580,1580,1580,0,0,0,0,0,0,0,0,0,0
1708793613.60035801,58828959,1580,1580,1580,1580,0,0,0,0,0,0,0,0,0,0
1708793613.70031810,58928919,1580,1580,1580,1580,0,0,0,0,0,0,0,0,0,0
1708793613.80027795,59028879,1580,1580,1580,1580,0,0,0,0,0,0,0,0,0,0
1708793613.90023804,59128839,1580,1581,1581,1581,0,0,0,0,0,0,0,0,0,0
1708793614.00019813,59228799,1581,1581,1581,1581,0,0,0,0,0,0,0,0,0,0
1708793614.10015798,59328759,1580,1580,1580,1580,0,0,0,0,0,0,0,0,0,0
1708793614.20011806,59428719,1581,1581,1581,1581,0,0,0,0,0,0,0,0,0,0
1708793614.30007792,59528679,1580,1580,1581,1579,0,0,0,0,0,0,0,0,0,0
1708793614.40003800,59628639,1579,1580,1585,1574,0,0,0,0,0,0,0,0,0,0
1708793614.49999809,59728599,1580,1581,1586,1572,0,0,0,0,0,0,0,0,0,0
1708793614.59995794,59828559,1579,1581,1579,1573,0,0,0,0,0,0,0,0,0,0
1708793614.69991803,59928519,1576,1580,1570,1572,0,0,0,0,0,0,0,0,0,0
1708793614.79987812,60028479,1576,1579,1562,1569,0,0,0,0,0,0,0,0,0,0
1708793614.89983797,60128439,1577,1578,1557,1565,0,0,0,0,0,0,0,0,0,0
1708793614.99979806,60228399,1577,1577,1555,1559,0,0,0,0,0,0,0,0,0,0
1708793615.09975791,60328359,1579,1577,1555,1557,0,0,0,0,0,0,0,0,0,0
1708793615.19971800,60428319,1578,1577,1555,1554,0,0,0,0,0,0,0,0,0,0
1708793615.29967809,60528279,1578,1578,1556,1554,0,0,0,0,0,0,0,0,0,0
1708793615.39963794,60628239,1577,1577,1556,1553,0,0,0,0,0,0,0,0,0,0
1708793615.49959803,60728199,1576,1577,1556,1554,0,0,0,0,0,0,0,0,0,0
1708793615.59955812,60828159,1575,1576,1555,1554,0,0,0,0,0,0,0,0,0,0
1708793615.70035100,60928952,1575,1577,1554,1554,0,0,0,0,0,0,0,0,0,0
1708793615.80031109,61028912,1575,1576,1552,1553,0,0,0,0,0,0,0,0,0,0
1708793615.90027094,61128872,1575,1576,1550,1551,0,0,0,0,0,0,0,0,0,0
1708793616.00023103,61228832,1578,1578,1549,1549,0,0,0,0,0,0,0,0,0,0
1708793616.10019112,61328792,1579,1580,1546,1546,0,0,0,0,0,0,0,0,0,0
1708793616.20015097,61428752,1582,1583,1544,1543,0,0,0,0,0,0,0,0,0,0
1708793616.30011106,61528712,1586,1587,1542,1542,0,0,0,0,0,0,0,0,0,0
1708793616.40007091,61628672,1589,1589,1539,1538,0,0,0,0,0,0,0,0,0,0
1708793616.50003099,61728632,1592,1592,1537,1537,0,0,0,0,0,0,0,0,0,0
1708793616.59999108,61828592,1594,1595,1536,1536,0,0,0,0,0,0,0,0,0,0
1708793616.69995093,61928552,1594,1594,1534,1535,0,0,0,0,0,0,0,0,0,0
1708793616.79991102,62028512,1594,1594,1535,1537,0,0,0,0,0,0,0,0,0,0
1708793616.89987111,62128472,1594,1593,1538,1540,0,0,0,0,0,0,0,0,0,0
1708793616.99983096,62228432,1590,1589,1542,1544,0,0,0,0,0,0,0,0,0,0
1708793617.09979105,62328392,1586,1584,1549,1552,0,0,0,0,0,0,0,0,0,0
1708793617.19975114,62428352,1579,1577,1558,1561,0,0,0,0,0,0,0,0,0,0
1708793617.29971099,62528312,1569,1566,1568,1571,0,0,0,0,0,0,0,0,0,0
1708793617.39967108,62628272,1559,1555,1581,1582,0,0,0,0,0,0,0,0,0,0
1708793617.49963093,62728232,1548,1545,1593,1593,0,0,0,0,0,0,0,0,0,0
1708793617.59959102,62828192,1539,1538,1604,1602,0,0,0,0,0,0,0,0,0,0
1708793617.70038414,62928985,1533,1533,1611,1610,0,0,0,0,0,0,0,0,0,0
1708793617.80034399,63028945,1528,1530,1614,1613,0,0,0,0,0,0,0,0,0,0
1708793617.90030408,63128905,1530,1532,1615,1614,0,0,0,0,0,0,0,0,0,0
1708793618.00026393,63228865,1534,1537,1611,1611,0,0,0,0,0,0,0,0,0,0
1708793618.10022402,63328825,1541,1543,1606,1606,0,0,0,0,0,0,0,0,0,0
1708793618.20018411,63428785,1549,1550,1598,1599,0,0,0,0,0,0,0,0,0,0
1708793618.30014396,63528745,1557,1558,1591,1591,0,0,0,0,0,0,0,0,0,0
1708793618.40010405,63628705,1567,1567,1585,1584,0,0,0,0,0,0,0,0,0,0
1708793618.50006413,63728665,1575,1574,1579,1578,0,0,0,0,0,0,0,0,0,0
1708793618.60002398,63828625,1580,1579,1573,1572,0,0,0,0,0,0,0,0,0,0
1708793618.69998407,63928585,1584,1583,1569,1569,0,0,0,0,0,0,0,0,0,0
1708793618.79994392,64028545,1588,1586,1567,1567,0,0,0,0,0,0,0,0,0,0
1708793618.89990401,64128505,1587,1586,1567,1566,0,0,0,0,0,0,0,0,0,0
1708793618.99986410,64228465,1587,1586,1567,1568,0,0,0,0,0,0,0,0,0,0
1708793619.09982395,64328425,1584,1583,1568,1569,0,0,0,0,0,0,0,0,0,0
1708793619.19978404,64428385,1581,1581,1571,1572,0,0,0,0,0,0,0,0,0,0
1708793619.29974413,64528345,1579,1579,1575,1575,0,0,0,0,0,0,0,0,0,0
1708793619.39970398,64628305,1576,1577,1578,1578,0,0,0,0,0,0,0,0,0,0
1708793619.49966407,64728265,1574,1575,1580,1580,0,0,0,0,0,0,0,0,0,0
1708793619.59962392,64828225,1573,1573,1582,1582,0,0,0,0,0,0,0,0,0,0
1708793619.69958401,64928185,1572,1572,1583,1583,0,0,0,0,0,0,0,0,0,0
1708793619.80037713,65028978,1571,1572,1583,1583,0,0,0,0,0,0,0,0,0,0
1708793619.90033698,65128938,1573,1573,1583,1584,0,0,0,0,0,0,0,0,0,0
1708793620.00029707,65228898,1574,1575,1582,1583,0,0,0,0,0,0,0,0,0,0
1708793620.10025692,65328858,1575,1575,1582,1581,0,0,0,0,0,0,0,0,0,0
1708793620.20021701,65428818,1576,1577,1580,1580,0,0,0,0,0,0,0,0,0,0
1708793620.30017710,65528778,1578,1578,1579,1579,0,0,0,0,0,0,0,0,0,0
1708793620.40013695,65628738,1580,1580,1579,1579,0,0,0,0,0,0,0,0,0,0
1708793620.50009704,65728698,1384,1515,1596,1599,0,0,0,0,0,0,0,0,0,0
1708793620.60005713,65828658,1489,1493,1613,1622,0,0,0,0,0,0,0,0,0,0
1708793620.70001698,65928618,1569,1507,1624,1636,0,0,0,0,0,0,0,0,0,0
1708793620.79997706,66028578,1651,1558,1637,1650,0,0,0,0,0,0,0,0,0,0
1708793620.89993691,66128538,1675,1606,1641,1653,0,0,0,0,0,0,0,0,0,0
1708793620.99989700,66228498,1675,1636,1642,1651,0,0,0,0,0,0,0,0,0,0
1708793621.09985709,66328458,1664,1651,1629,1631,0,0,0,0,0,0,0,0,0,0
1708793621.19981694,66428418,1651,1664,1609,1604,0,0,0,0,0,0,0,0,0,0
1708793621.29977703,66528378,1643,1669,1602,1589,0,0,0,0,0,0,0,0,0,0
1708793621.39973712,66628338,1643,1669,1602,1583,0,0,0,0,0,0,0,0,0,0
1708793621.49969697,66728298,1645,1662,1601,1580,0,0,0,0,0,0,0,0,0,0
1708793621.59965706,66828258,1646,1651,1598,1580,0,0,0,0,0,0,0,0,0,0
1708793621.69961691,66928218,1641,1639,1593,1581,0,0,0,0,0,0,0,0,0,0
1708793621.79957700,67028178,1629,1622,1584,1580,0,0,0,0,0,0,0,0,0,0
1708793621.90037012,67128971,1614,1609,1578,1582,0,0,0,0,0,0,0,0,0,0
1708793622.00032997,67228931,1596,1596,1574,1583,0,0,0,0,0,0,0,0,0,0
1708793622.10029006,67328891,1580,1587,1571,1582,0,0,0,0,0,0,0,0,0,0
1708793622.20024991,67428851,1570,1582,1573,1581,0,0,0,0,0,0,0,0,0,0
1708793622.30021000,67528811,1566,1579,1576,1579,0,0,0,0,0,0,0,0,0,0
1708793622.40017009,67628771,1565,1575,1579,1575,0,0,0,0,0,0,0,0,0,0
1708793622.50012994,67728731,1568,1569,1584,1567,0,0,0,0,0,0,0,0,0,0
1708793622.60009003,67828691,1569,1566,1576,1565,0,0,0,0,0,0,0,0,0,0
1708793622.70005012,67928651,1568,1564,1568,1567,0,0,0,0,0,0,0,0,0,0
1708793622.80000997,68028611,1565,1561,1561,1567,0,0,0,0,0,0,0,0,0,0
1708793622.89997005,68128571,1562,1560,1559,1568,0,0,0,0,0,0,0,0,0,0
1708793622.99992990,68228531,1559,1560,1559,1567,0,0,0,0,0,0,0,0,0,0
1708793623.09988999,68328491,1558,1561,1560,1564,0,0,0,0,0,0,0,0,0,0
1708793623.19985008,68428451,1558,1562,1560,1561,0,0,0,0,0,0,0,0,0,0
1708793623.29980993,68528411,1560,1564,1561,1559,0,0,0,0,0,0,0,0,0,0
1708793623.39977002,68628371,1562,1564,1559,1555,0,0,0,0,0,0,0,0,0,0
1708793623.49973011,68728331,1563,1563,1555,1553,0,0,0,0,0,0,0,0,0,0
1708793623.59968996,68828291,1566,1564,1553,1551,0,0,0,0,0,0,0,0,0,0
1708793623.69965005,68928251,1568,1566,1551,1550,0,0,0,0,0,0,0,0,0,0
1708793623.79961014,69028211,1569,1568,1548,1548,0,0,0,0,0,0,0,0,0,0
1708793623.89956999,69128171,1571,1571,1547,1547,0,0,0,0,0,0,0,0,0,0
1708793624.00036311,69228964,1573,1573,1544,1545,0,0,0,0,0,0,0,0,0,0
1708793624.10032296,69328924,1574,1575,1541,1542,0,0,0,0,0,0,0,0,0,0
1708793624.20028305,69428884,1576,1578,1539,1538,0,0,0,0,0,0,0,0,0,0
1708793624.30024314,69528844,1579,1581,1537,1536,0,0,0,0,0,0,0,0,0,0
1708793624.40020299,69628804,1583,1584,1534,1533,0,0,0,0,0,0,0,0,0,0
1708793624.50016308,69728764,1587,1587,1531,1529,0,0,0,0,0,0,0,0,0,0
1708793624.60012293,69828724,1591,1591,1528,1527,0,0,0,0,0,0,0,0,0,0
1708793624.70008302,69928684,1595,1595,1526,1526,0,0,0,0,0,0,0,0,0,0
1708793624.80004311,70028644,1599,1599,1525,1526,0,0,0,0,0,0,0,0,0,0
1708793624.90000296,70128604,1602,1600,1526,1527,0,0,0,0,0,0,0,0,0,0
1708793624.99996305,70228564,1602,1600,1527,1529,0,0,0,0,0,0,0,0,0,0
1708793625.09992313,70328524,1600,1598,1530,1533,0,0,0,0,0,0,0,0,0,0
1708793625.19988298,70428484,1596,1593,1535,1539,0,0,0,0,0,0,0,0,0,0
1708793625.29984307,70528444,1589,1587,1542,1547,0,0,0,0,0,0,0,0,0,0
1708793625.39980292,70628404,1581,1579,1551,1555,0,0,0,0,0,0,0,0,0,0
1708793625.49976301,70728364,1571,1568,1562,1565,0,0,0,0,0,0,0,0,0,0
1708793625.59972310,70828324,1560,1558,1574,1576,0,0,0,0,0,0,0,0,0,0
1708793625.69968295,70928284,1547,1545,1584,1585,0,0,0,0,0,0,0,0,0,0
1708793625.79964304,71028244,1535,1534,1595,1594,0,0,0,0,0,0,0,0,0,0
1708793625.89960313,71128204,1525,1525,1606,1605,0,0,0,0,0,0,0,0,0,0
1708793625.99956298,71228164,1515,1518,1613,1611,0,0,0,0,0,0,0,0,0,0
1708793626.10035610,71328957,1512,1516,1616,1615,0,0,0,0,0,0,0,0,0,0
1708793626.20031595,71428917,1513,1518,1614,1613,0,0,0,0,0,0,0,0,0,0
1708793626.30027604,71528877,1519,1524,1608,1608,0,0,0,0,0,0,0,0,0,0
1708793626.40023613,71628837,1529,1532,1600,1600,0,0,0,0,0,0,0,0,0,0
1708793626.50019598,71728797,1540,1541,1590,1591,0,0,0,0,0,0,0,0,0,0
1708793626.60015607,71828757,1552,1551,1581,1581,0,0,0,0,0,0,0,0,0,0
1708793626.70011592,71928717,1563,1561,1573,1574,0,0,0,0,0,0,0,0,0,0
1708793626.80007601,72028677,1573,1569,1566,1567,0,0,0,0,0,0,0,0,0,0
1708793626.90003610,72128637,1580,1576,1562,1562,0,0,0,0,0,0,0,0,0,0
1708793626.99999595,72228597,1583,1579,1559,1560,0,0,0,0,0,0,0,0,0,0
1708793627.09995604,72328557,1585,1583,1561,1562,0,0,0,0,0,0,0,0,0,0
1708793627.19991612,72428517,1585,1583,1563,1563,0,0,0,0,0,0,0,0,0,0
1708793627.29987597,72528477,1583,1583,1565,1566,0,0,0,0,0,0,0,0,0,0
1708793627.39983606,72628437,1581,1582,1568,1568,0,0,0,0,0,0,0,0,0,0
1708793627.49979591,72728397,1580,1581,1572,1571,0,0,0,0,0,0,0,0,0,0
1708793627.59975600,72828357,1579,1580,1575,1573,0,0,0,0,0,0,0,0,0,0
1708793627.69971609,72928317,1577,1577,1577,1575,0,0,0,0,0,0,0,0,0,0
1708793627.79967594,73028277,1576,1577,1579,1578,0,0,0,0,0,0,0,0,0,0
1708793627.89963603,73128237,1575,1575,1580,1580,0,0,0,0,0,0,0,0,0,0
1708793627.99959612,73228197,1573,1574,1580,1581,0,0,0,0,0,0,0,0,0,0
1708793628.09955597,73328157,1573,1574,1581,1581,0,0,0,0,0,0,0,0,0,0
1708793628.20034909,73428950,1573,1574,1581,1582,0,0,0,0,0,0,0,0,0,0
1708793628.30030894,73528910,1573,1574,1581,1581,0,0,0,0,0,0,0,0,0,0
1708793628.40026903,73628870,1574,1575,1581,1580,0,0,0,0,0,0,0,0,0,0
1708793628.50022912,73728830,1575,1576,1580,1580,0,0,0,0,0,0,0,0,0,0
1708793628.60018897,73828790,1577,1577,1579,1579,0,0,0,0,0,0,0,0,0,0
1708793628.70014906,73928750,1578,1578,1578,1578,0,0,0,0,0,0,0,0,0,0
1708793628.80010891,74028710,1579,1579,1577,1577,0,0,0,0,0,0,0,0,0,0
1708793628.90006900,74128670,1579,1579,1576,1576,0,0,0,0,0,0,0,0,0,0
1708793629.00002909,74228630,1579,1579,1575,1575,0,0,0,0,0,0,0,0,0,0
1708793629.09998894,74328590,1580,1580,1576,1576,0,0,0,0,0,0,0,0,0,0
1708793629.19994903,74428550,1581,1581,1577,1577,0,0,0,0,0,0,0,0,0,0
1708793629.29990911,74528510,1581,1581,1578,1577,0,0,0,0,0,0,0,0,0,0
1708793629.39986897,74628470,1581,1581,1578,1578,0,0,0,0,0,0,0,0,0,0
1708793629.49982905,74728430,1581,1581,1578,1578,0,0,0,0,0,0,0,0,0,0
1708793629.59978890,74828390,1580,1580,1579,1579,0,0,0,0,0,0,0,0,0,0
1708793629.69974899,74928350,1580,1580,1579,1580,0,0,0,0,0,0,0,0,0,0
1708793629.79970908,75028310,1580,1580,1579,1580,0,0,0,0,0,0,0,0,0,0
1708793629.89966893,75128270,1579,1579,1579,1579,0,0,0,0,0,0,0,0,0,0
1708793629.99962902,75228230,1579,1579,1579,1579,0,0,0,0,0,0,0,0,0,0
1708793630.09958911,75328190,1579,1580,1580,1580,0,0,0,0,0,0,0,0,0,0
1708793630.20038199,75428983,1579,1579,1581,1580,0,0,0,0,0,0,0,0,0,0
1708793630.30034208,75528943,1580,1580,1581,1581,0,0,0,0,0,0,0,0,0,0
1708793630.40030193,75628903,1580,1580,1581,1581,0,0,0,0,0,0,0,0,0,0
1708793630.50026202,75728863,1580,1580,1581,1581,0,0,0,0,0,0,0,0,0,0
1708793630.60022211,75828823,1580,1580,1580,1580,0,0,0,0,0,0,0,0,0,0
1708793630.70018196,75928783,1580,1580,1580,1580,0,0,0,0,0,0,0,0,0,0
1708793630.80014205,76028743,1581,1581,1581,1581,0,0,0,0,0,0,0,0,0,0
1708793630.90010214,76128703,1581,1581,1580,1580,0,0,0,0,0,0,0,0,0,0
1708793631.00006199,76228663,1581,1581,1580,1580,0,0,0,0,0,0,0,0,0,0
1708793631.10002208,76328623,1581,1581,1580,1580,0,0,0,0,0,0,0,0,0,0
1708793631.19998193,76428583,1581,1581,1580,1581,0,0,0,0,0,0,0,0,0,0
1708793631.29994202,76528543,1581,1581,1581,1581,0,0,0,0,0,0,0,0,0,0
1708793631.39990211,76628503,1582,1582,1582,1581,0,0,0,0,0,0,0,0,0,0
1708793631.49986196,76728463,1582,1582,1582,1582,0,0,0,0,0,0,0,0,0,0
1708793631.59982204,76828423,1581,1581,1581,1581,0,0,0,0,0,0,0,0,0,0
1708793631.69978213,76928383,1582,1582,1581,1582,0,0,0,0,0,0,0,0,0,0
1708793631.79974198,77028343,1582,1582,1581,1582,0,0,0,0,0,0,0,0,0,0
1708793631.89970207,77128303,1581,1581,1581,1581,0,0,0,0,0,0,0,0,0,0
1708793631.99966192,77228263,1581,1581,1581,1581,0,0,0,0,0,0,0,0,0,0
1708793632.09962201,77328223,1581,1581,1584,1577,0,0,0,0,0,0,0,0,0,0
1708793632.19958210,77428183,1581,1582,1588,1573,0,0,0,0,0,0,0,0,0,0
1708793632.30037498,77528976,1579,1581,1581,1573,0,0,0,0,0,0,0,0,0,0
1708793632.40033507,77628936,1578,1580,1572,1573,0,0,0,0,0,0,0,0,0,0
1708793632.50029492,77728896,1576,1578,1563,1569,0,0,0,0,0,0,0,0,0,0
1708793632.60025501,77828856,1576,1578,1558,1565,0,0,0,0,0,0,0,0,0,0
1708793632.70021510,77928816,1577,1577,1556,1561,0,0,0,0,0,0,0,0,0,0
1708793632.80017495,78028776,1578,1578,1556,1558,0,0,0,0,0,0,0,0,0,0
1708793632.90013504,78128736,1579,1578,1556,1555,0,0,0,0,0,0,0,0,0,0
1708793633.00009513,78228696,1579,1578,1557,1555,0,0,0,0,0,0,0,0,0,0
1708793633.10005498,78328656,1578,1578,1557,1554,0,0,0,0,0,0,0,0,0,0
1708793633.20001507,78428616,1578,1578,1557,1555,0,0,0,0,0,0,0,0,0,0
1708793633.29997492,78528576,1577,1578,1556,1556,0,0,0,0,0,0,0,0,0,0
1708793633.39993501,78628536,1575,1577,1554,1554,0,0,0,0,0,0,0,0,0,0
1708793633.49989510,78728496,1575,1577,1553,1553,0,0,0,0,0,0,0,0,0,0
1708793633.59985495,78828456,1575,1577,1551,1551,0,0,0,0,0,0,0,0,0,0
1708793633.69981503,78928416,1577,1579,1550,1550,0,0,0,0,0,0,0,0,0,0
1708793633.79977512,79028376,1578,1580,1548,1547,0,0,0,0,0,0,0,0,0,0
1708793633.89973497,79128336,1580,1582,1545,1546,0,0,0,0,0,0,0,0,0,0
1708793633.99969506,79228296,1583,1585,1544,1543,0,0,0,0,0,0,0,0,0,0
1708793634.09965491,79328256,1587,1587,1542,1542,0,0,0,0,0,0,0,0,0,0
1708793634.19961500,79428216,1589,1589,1540,1540,0,0,0,0,0,0,0,0,0,0
1708793634.29957509,79528176,1591,1591,1539,1539,0,0,0,0,0,0,0,0,0,0
1708793634.40036798,79628969,1593,1592,1539,1539,0,0,0,0,0,0,0,0,0,0
1708793634.50032806,79728929,1593,1592,1539,1540,0,0,0,0,0,0,0,0,0,0
1708793634.60028791,79828889,1593,1592,1540,1542,0,0,0,0,0,0,0,0,0,0
1708793634.70024800,79928849,1591,1590,1543,1546,0,0,0,0,0,0,0,0,0,0
1708793634.80020809,80028809,1587,1586,1546,1550,0,0,0,0,0,0,0,0,0,0
1708793634.90016794,80128769,1582,1580,1553,1556,0,0,0,0,0,0,0,0,0,0
1708793635.00012803,80228729,1576,1572,1563,1566,0,0,0,0,0,0,0,0,0,0
1708793635.10008812,80328689,1566,1562,1573,1575,0,0,0,0,0,0,0,0,0,0
1708793635.20004797,80428649,1557,1554,1585,1587,0,0,0,0,0,0,0,0,0,0
1708793635.30000806,80528609,1547,1545,1594,1596,0,0,0,0,0,0,0,0,0,0
1708793635.39996791,80628569,1539,1539,1603,1603,0,0,0,0,0,0,0,0,0,0
1708793635.49992800,80728529,1534,1536,1608,1608,0,0,0,0,0,0,0,0,0,0
1708793635.59988809,80828489,1530,1534,1610,1609,0,0,0,0,0,0,0,0,0,0
1708793635.69984794,80928449,1532,1536,1610,1609,0,0,0,0,0,0,0,0,0,0
1708793635.79980803,81028409,1536,1541,1608,1607,0,0,0,0,0,0,0,0,0,0
1708793635.89976811,81128369,1542,1545,1602,1601,0,0,0,0,0,0,0,0,0,0
1708793635.99972796,81228329,1550,1551,1596,1595,0,0,0,0,0,0,0,0,0,0
1708793636.09968805,81328289,1559,1558,1590,1589,0,0,0,0,0,0,0,0,0,0
1708793636.19964790,81428249,1567,1564,1582,1582,0,0,0,0,0,0,0,0,0,0
1708793636.29960799,81528209,1573,1571,1577,1576,0,0,0,0,0,0,0,0,0,0
1708793636.39956808,81628169,1579,1577,1573,1572,0,0,0,0,0,0,0,0,0,0
1708793636.50036097,81728962,1584,1581,1569,1569,0,0,0,0,0,0,0,0,0,0
1708793636.60032105,81828922,1586,1584,1567,1568,0,0,0,0,0,0,0,0,0,0
1708793636.70028090,81928882,1587,1586,1568,1568,0,0,0,0,0,0,0,0,0,0
1708793636.80024099,82028842,1587,1586,1569,1569,0,0,0,0,0,0,0,0,0,0
1708793636.90020108,82128802,1585,1584,1570,1570,0,0,0,0,0,0,0,0,0,0
1708793637.00016093,82228762,1583,1583,1573,1573,0,0,0,0,0,0,0,0,0,0
1708793637.10012102,82328722,1581,1581,1576,1575,0,0,0,0,0,0,0,0,0,0
1708793637.20008111,82428682,1579,1579,1578,1578,0,0,0,0,0,0,0,0,0,0
1708793637.30004096,82528642,1576,1577,1579,1580,0,0,0,0,0,0,0,0,0,0
1708793637.40000105,82628602,1575,1576,1582,1582,0,0,0,0,0,0,0,0,0,0
1708793637.49996114,82728562,1574,1575,1583,1583,0,0,0,0,0,0,0,0,0,0
1708793637.59992099,82828522,1574,1575,1584,1584,0,0,0,0,0,0,0,0,0,0
1708793637.69988108,82928482,1574,1574,1584,1584,0,0,0,0,0,0,0,0,0,0
1708793637.79984093,83028442,1575,1575,1584,1583,0,0,0,0,0,0,0,0,0,0
1708793637.89980102,83128402,1575,1576,1583,1582,0,0,0,0,0,0,0,0,0,0
1708793637.99976110,83228362,1576,1577,1581,1581,0,0,0,0,0,0,0,0,0,0
1708793638.09972095,83328322,1578,1578,1580,1580,0,0,0,0,0,0,0,0,0,0
1708793638.19968104,83428282,1578,1578,1579,1579,0,0,0,0,0,0,0,0,0,0
1708793638.29964113,83528242,1580,1580,1578,1578,0,0,0,0,0,0,0,0,0,0
1708793638.39960098,83628202,1581,1581,1578,1578,0,0,0,0,0,0,0,0,0,0
1708793638.49956107,83728162,1582,1581,1577,1577,0,0,0,0,0,0,0,0,0,0
1708793638.60035396,83828955,1582,1581,1577,1578,0,0,0,0,0,0,0,0,0,0
1708793638.70031404,83928915,1582,1582,1577,1578,0,0,0,0,0,0,0,0,0,0
1708793638.80027413,84028875,1582,1582,1578,1579,0,0,0,0,0,0,0,0,0,0
1708793638.90023398,84128835,1581,1581,1578,1578,0,0,0,0,0,0,0,0,0,0
1708793639.00019407,84228795,1581,1581,1579,1578,0,0,0,0,0,0,0,0,0,0
1708793639.10015392,84328755,1581,1580,1579,1579,0,0,0,0,0,0,0,0,0,0
1708793639.20011401,84428715,1580,1580,1580,1579,0,0,0,0,0,0,0,0,0,0
1708793639.30007410,84528675,1580,1581,1581,1581,0,0,0,0,0,0,0,0,0,0
1708793639.40003395,84628635,1580,1580,1581,1581,0,0,0,0,0,0,0,0,0,0
1708793639.49999404,84728595,1579,1580,1581,1581,0,0,0,0,0,0,0,0,0,0
1708793639.59995413,84828555,1579,1580,1581,1581,0,0,0,0,0,0,0,0,0,0
1708793639.69991398,84928515,1580,1580,1581,1581,0,0,0,0,0,0,0,0,0,0
1708793639.79987407,85028475,1580,1579,1581,1581,0,0,0,0,0,0,0,0,0,0
1708793639.89983392,85128435,1580,1579,1581,1581,0,0,0,0,0,0,0,0,0,0
1708793639.99979401,85228395,1580,1580,1580,1580,0,0,0,0,0,0,0,0,0,0
1708793640.09975410,85328355,1581,1581,1581,1581,0,0,0,0,0,0,0,0,0,0
1708793640.19971395,85428315,1580,1581,1585,1574,0,0,0,0,0,0,0,0,0,0
1708793640.29967403,85528275,1581,1581,1587,1572,0,0,0,0,0,0,0,0,0,0
1708793640.39963412,85628235,1580,1579,1581,1575,0,0,0,0,0,0,0,0,0,0
1708793640.49959397,85728195,1576,1575,1572,1574,0,0,0,0,0,0,0,0,0,0
1708793640.59955406,85828155,1573,1572,1567,1574,0,0,0,0,0,0,0,0,0,0
1708793640.70034695,85928948,1570,1570,1564,1572,0,0,0,0,0,0,0,0,0,0
1708793640.80030704,86028908,1567,1568,1564,1568,0,0,0,0,0,0,0,0,0,0
1708793640.90026712,86128868,1566,1567,1565,1566,0,0,0,0,0,0,0,0,0,0
1708793641.00022697,86228828,1565,1566,1566,1564,0,0,0,0,0,0,0,0,0,0
1708793641.10018706,86328788,1565,1565,1567,1564,0,0,0,0,0,0,0,0,0,0
1708793641.20014691,86428748,1564,1565,1567,1564,0,0,0,0,0,0,0,0,0,0
1708793641.30010700,86528708,1564,1563,1566,1564,0,0,0,0,0,0,0,0,0,0
1708793641.40006709,86628668,1563,1563,1565,1564,0,0,0,0,0,0,0,0,0,0
1708793641.50002694,86728628,1563,1562,1564,1564,0,0,0,0,0,0,0,0,0,0
1708793641.59998703,86828588,1562,1562,1563,1564,0,0,0,0,0,0,0,0,0,0
1708793641.69994712,86928548,1563,1563,1564,1564,0,0,0,0,0,0,0,0,0,0
1708793641.79990697,87028508,1562,1562,1563,1562,0,0,0,0,0,0,0,0,0,0
1708793641.89986706,87128468,1562,1562,1562,1562,0,0,0,0,0,0,0,0,0,0
1708793641.99982691,87228428,1561,1561,1561,1561,0,0,0,0,0,0,0,0,0,0
1708793642.09978700,87328388,1560,1560,1561,1559,0,0,0,0,0,0,0,0,0,0
1708793642.19974709,87428348,1560,1560,1560,1559,0,0,0,0,0,0,0,0,0,0
1708793642.29970694,87528308,1559,1559,1559,1558,0,0,0,0,0,0,0,0,0,0
1708793642.39966702,87628268,1559,1559,1558,1558,0,0,0,0,0,0,0,0,0,0
1708793642.49962711,87728228,1559,1559,1559,1558,0,0,0,0,0,0,0,0,0,0
1708793642.59958696,87828188,1559,1558,1559,1558,0,0,0,0,0,0,0,0,0,0
1708793642.70038009,87928981,1558,1558,1559,1557,0,0,0,0,0,0,0,0,0,0
1708793642.80033994,88028941,1559,1559,1560,1558,0,0,0,0,0,0,0,0,0,0
1708793642.90030003,88128901,1558,1558,1560,1557,0,0,0,0,0,0,0,0,0,0
1708793643.00026011,88228861,1560,1559,1561,1559,0,0,0,0,0,0,0,0,0,0
1708793643.10021996,88328821,1560,1560,1559,1562,0,0,0,0,0,0,0,0,0,0
1708793643.20018005,88428781,1560,1560,1557,1563,0,0,0,0,0,0,0,0,0,0
1708793643.30013990,88528741,1560,1560,1557,1564,0,0,0,0,0,0,0,0,0,0
1708793643.40009999,88628701,1561,1561,1558,1563,0,0,0,0,0,0,0,0,0,0
1708793643.50006008,88728661,1562,1562,1561,1563,0,0,0,0,0,0,0,0,0,0
1708793643.60001993,88828621,1561,1562,1562,1560,0,0,0,0,0,0,0,0,0,0
1708793643.69998002,88928581,1560,1560,1561,1558,0,0,0,0,0,0,0,0,0,0
1708793643.79994011,89028541,1560,1560,1559,1560,0,0,0,0,0,0,0,0,0,0
1708793643.89989996,89128501,1558,1557,1555,1559,0,0,0,0,0,0,0,0,0,0
1708793643.99986005,89228461,1554,1554,1551,1555,0,0,0,0,0,0,0,0,0,0
1708793644.09982014,89328421,1549,1549,1546,1549,0,0,0,0,0,0,0,0,0,0
1708793644.19977999,89428381,1543,1543,1540,1541,0,0,0,0,0,0,0,0,0,0
1708793644.29974008,89528341,1536,1536,1534,1534,0,0,0,0,0,0,0,0,0,0
1708793644.39969993,89628301,1529,1529,1527,1526,0,0,0,0,0,0,0,0,0,0
1708793644.49966002,89728261,1522,1522,1520,1519,0,0,0,0,0,0,0,0,0,0
1708793644.59962010,89828221,1519,1521,1519,1519,0,0,0,0,0,0,0,0,0,0
1708793644.69957995,89928181,1518,1520,1520,1520,0,0,0,0,0,0,0,0,0,0
1708793644.80037308,90028974,1519,1521,1521,1522,0,0,0,0,0,0,0,0,0,0
1708793644.90033293,90128934,1522,1523,1525,1526,0,0,0,0,0,0,0,0,0,0
1708793645.00029302,90228894,1525,1525,1529,1529,0,0,0,0,0,0,0,0,0,0
1708793645.10025311,90328854,1530,1529,1534,1534,0,0,0,0,0,0,0,0,0,0
1708793645.20021296,90428814,1535,1534,1539,1539,0,0,0,0,0,0,0,0,0,0
1708793645.30017304,90528774,1538,1537,1542,1541,0,0,0,0,0,0,0,0,0,0
1708793645.40013313,90628734,1542,1541,1544,1544,0,0,0,0,0,0,0,0,0,0
1708793645.50009298,90728694,1544,1542,1544,1544,0,0,0,0,0,0,0,0,0,0
1708793645.60005307,90828654,1546,1544,1545,1545,0,0,0,0,0,0,0,0,0,0
1708793645.70001292,90928614,1547,1546,1546,1545,0,0,0,0,0,0,0,0,0,0
1708793645.79997301,91028574,1548,1548,1545,1545,0,0,0,0,0,0,0,0,0,0
1708793645.89993310,91128534,1548,1548,1546,1546,0,0,0,0,0,0,0,0,0,0
1708793645.99989295,91228494,1548,1549,1545,1545,0,0,0,0,0,0,0,0,0,0
1708793646.09985304,91328454,1548,1548,1545,1545,0,0,0,0,0,0,0,0,0,0
1708793646.19981313,91428414,1547,1547,1544,1544,0,0,0,0,0,0,0,0,0,0
1708793646.29977298,91528374,1548,1548,1546,1545,0,0,0,0,0,0,0,0,0,0
1708793646.39973307,91628334,1546,1547,1545,1545,0,0,0,0,0,0,0,0,0,0
1708793646.49969292,91728294,1546,1546,1546,1545,0,0,0,0,0,0,0,0,0,0
1708793646.59965301,91828254,1546,1546,1546,1546,0,0,0,0,0,0,0,0,0,0
1708793646.69961309,91928214,1546,1546,1546,1546,0,0,0,0,0,0,0,0,0,0
1708793646.79957294,92028174,1545,1545,1546,1545,0,0,0,0,0,0,0,0,0,0
1708793646.90036607,92128967,1545,1544,1546,1546,0,0,0,0,0,0,0,0,0,0
1708793647.00032592,92228927,1543,1544,1544,1544,0,0,0,0,0,0,0,0,0,0
1708793647.10028601,92328887,1543,1543,1544,1544,0,0,0,0,0,0,0,0,0,0
1708793647.20024610,92428847,1543,1543,1544,1544,0,0,0,0,0,0,0,0,0,0
1708793647.30020595,92528807,1543,1543,1544,1544,0,0,0,0,0,0,0,0,0,0
1708793647.40016603,92628767,1543,1544,1544,1544,0,0,0,0,0,0,0,0,0,0
1708793647.50012612,92728727,1544,1544,1544,1545,0,0,0,0,0,0,0,0,0,0
1708793647.60008597,92828687,1544,1544,1544,1544,0,0,0,0,0,0,0,0,0,0
1708793647.70004606,92928647,1544,1544,1544,1544,0,0,0,0,0,0,0,0,0,0
1708793647.80000591,93028607,1544,1544,1544,1544,0,0,0,0,0,0,0,0,0,0
1708793647.89996600,93128567,1544,1544,1544,1543,0,0,0,0,0,0,0,0,0,0
1708793647.99992609,93228527,1544,1544,1544,1544,0,0,0,0,0,0,0,0,0,0
1708793648.09988594,93328487,1544,1544,1543,1543,0,0,0,0,0,0,0,0,0,0
1708793648.19984603,93428447,1544,1544,1544,1544,0,0,0,0,0,0,0,0,0,0
1708793648.29980612,93528407,1544,1544,1544,1544,0,0,0,0,0,0,0,0,0,0
1708793648.39976597,93628367,1544,1544,1544,1544,0,0,0,0,0,0,0,0,0,0
1708793648.49972606,93728327,1544,1544,1544,1544,0,0,0,0,0,0,0,0,0,0
1708793648.59968591,93828287,1544,1544,1544,1544,0,0,0,0,0,0,0,0,0,0
1708793648.69964600,93928247,1544,1544,1544,1544,0,0,0,0,0,0,0,0,0,0
1708793648.79960608,94028207,1544,1545,1545,1544,0,0,0,0,0,0,0,0,0,0
1708793648.89956594,94128167,1544,1545,1545,1545,0,0,0,0,0,0,0,0,0,0
1708793649.00035906,94228960,1544,1544,1544,1545,0,0,0,0,0,0,0,0,0,0
1708793649.10031891,94328920,1544,1544,1544,1544,0,0,0,0,0,0,0,0,0,0
1708793649.20027900,94428880,1545,1545,1545,1545,0,0,0,0,0,0,0,0,0,0
1708793649.30023909,94528840,1545,1545,1545,1545,0,0,0,0,0,0,0,0,0,0
1708793649.40019894,94628800,1545,1545,1545,1545,0,0,0,0,0,0,0,0,0,0
1708793649.50015903,94728760,1544,1544,1544,1545,0,0,0,0,0,0,0,0,0,0
1708793649.60011911,94828720,1544,1544,1545,1544,0,0,0,0,0,0,0,0,0,0
1708793649.70007896,94928680,1545,1545,1544,1545,0,0,0,0,0,0,0,0,0,0
1708793649.80003905,95028640,1544,1545,1544,1545,0,0,0,0,0,0,0,0,0,0
1708793649.89999890,95128600,1545,1545,1545,1545,0,0,0,0,0,0,0,0,0,0
1708793649.99995899,95228560,1544,1544,1544,1544,0,0,0,0,0,0,0,0,0,0
1708793650.09991908,95328520,1544,1544,1544,1544,0,0,0,0,0,0,0,0,0,0
1708793650.19987893,95428480,1544,1544,1544,1544,0,0,0,0,0,0,0,0,0,0
1708793650.29983902,95528440,1544,1544,1544,1544,0,0,0,0,0,0,0,0,0,0
1708793650.39979911,95628400,1544,1545,1544,1544,0,0,0,0,0,0,0,0,0,0
1708793650.49975896,95728360,1544,1544,1544,1544,0,0,0,0,0,0,0,0,0,0
1708793650.59971905,95828320,1544,1544,1544,1544,0,0,0,0,0,0,0,0,0,0
1708793650.69967914,95928280,1544,1544,1544,1544,0,0,0,0,0,0,0,0,0,0
1708793650.79963899,96028240,1543,1543,1543,1543,0,0,0,0,0,0,0,0,0,0
1708793650.89959908,96128200,1544,1544,1544,1544,0,0,0,0,0,0,0,0,0,0
1708793650.99955893,96228160,1544,1544,1544,1544,0,0,0,0,0,0,0,0,0,0
1708793651.10035205,96328953,1544,1544,1544,1545,0,0,0,0,0,0,0,0,0,0
1708793651.20031214,96428913,1544,1544,1545,1544,0,0,0,0,0,0,0,0,0,0
1708793651.30027199,96528873,1545,1545,1545,1545,0,0,0,0,0,0,0,0,0,0
1708793651.40023208,96628833,1545,1545,1545,1544,0,0,0,0,0,0,0,0,0,0
1708793651.50019193,96728793,1544,1544,1545,1545,0,0,0,0,0,0,0,0,0,0
1708793651.60015202,96828753,1544,1544,1544,1544,0,0,0,0,0,0,0,0,0,0
1708793651.70011210,96928713,1544,1544,1544,1544,0,0,0,0,0,0,0,0,0,0
1708793651.80007195,97028673,1544,1544,1543,1544,0,0,0,0,0,0,0,0,0,0
1708793651.90003204,97128633,1544,1544,1544,1544,0,0,0,0,0,0,0,0,0,0
1708793651.99999213,97228593,1544,1545,1545,1544,0,0,0,0,0,0,0,0,0,0
1708793652.09995198,97328553,1544,1544,1544,1544,0,0,0,0,0,0,0,0,0,0
1708793652.19991207,97428513,1544,1544,1544,1544,0,0,0,0,0,0,0,0,0,0
1708793652.29987192,97528473,1545,1545,1544,1545,0,0,0,0,0,0,0,0,0,0
1708793652.39983201,97628433,1544,1544,1544,1544,0,0,0,0,0,0,0,0,0,0
1708793652.49979210,97728393,1544,1544,1544,1544,0,0,0,0,0,0,0,0,0,0
1708793652.59975195,97828353,1544,1544,1544,1544,0,0,0,0,0,0,0,0,0,0
1708793652.69971204,97928313,1545,1545,1545,1545,0,0,0,0,0,0,0,0,0,0
1708793652.79967213,98028273,1544,1544,1544,1544,0,0,0,0,0,0,0,0,0,0
1708793652.89963198,98128233,1545,1545,1544,1545,0,0,0,0,0,0,0,0,0,0
1708793652.99959207,98228193,1545,1545,1545,1545,0,0,0,0,0,0,0,0,0,0
1708793653.10038495,98328986,1544,1544,1544,1544,0,0,0,0,0,0,0,0,0,0
1708793653.20034504,98428946,1544,1544,1544,1543,0,0,0,0,0,0,0,0,0,0
1708793653.30030513,98528906,1545,1544,1545,1544,0,0,0,0,0,0,0,0,0,0
1708793653.40026498,98628866,1544,1545,1545,1544,0,0,0,0,0,0,0,0,0,0
1708793653.50022507,98728826,1544,1544,1543,1544,0,0,0,0,0,0,0,0,0,0
1708793653.60018492,98828786,1544,1544,1544,1544,0,0,0,0,0,0,0,0,0,0
1708793653.70014501,98928746,1544,1544,1544,1544,0,0,0,0,0,0,0,0,0,0
1708793653.80010509,99028706,1544,1544,1544,1544,0,0,0,0,0,0,0,0,0,0
1708793653.90006495,99128666,1544,1544,1544,1544,0,0,0,0,0,0,0,0,0,0
1708793654.00002503,99228626,1544,1545,1545,1545,0,0,0,0,0,0,0,0,0,0
1708793654.09998512,99328586,1545,1544,1544,1545,0,0,0,0,0,0,0,0,0,0
1708793654.19994497,99428546,1544,1544,1544,1544,0,0,0,0,0,0,0,0,0,0
1708793654.29990506,99528506,1427,1375,1377,1375,0,0,0,0,0,0,0,0,0,0
1708793654.39986491,99628466,1352,1256,1258,1255,0,0,0,0,0,0,0,0,0,0
1708793654.49982500,99728426,1330,1215,1217,1215,0,0,0,0,0,0,0,0,0,0
1708793654.59978509,99828386,1319,1196,1199,1196,0,0,0,0,0,0,0,0,0,0
1708793654.69974494,99928346,1298,1152,1155,1153,0,0,0,0,0,0,0,0,0,0
1708793654.79970503,100028306,1197,1150,1152,1150,0,0,0,0,0,0,0,0,0,0
1708793654.89966512,100128266,1155,1150,1152,1150,0,0,0,0,0,0,0,0,0,0
1708793654.99962497,100228226,1155,1150,1152,1150,0,0,0,0,0,0,0,0,0,0
1708793655.09958506,100328186,1155,1150,1152,1151,0,0,0,0,0,0,0,0,0,0
1708793655.20037794,100428979,1147,1150,1150,1166,0,0,0,0,0,0,0,0,0,0
1708793655.30033803,100528939,1150,1150,1150,1160,0,0,0,0,0,0,0,0,0,0
1708793655.40029812,100628899,1151,1150,1151,1158,0,0,0,0,0,0,0,0,0,0
1708793655.50025797,100728859,1151,1150,1151,1157,0,0,0,0,0,0,0,0,0,0
1708793655.60021806,100828819,1151,1150,1151,1158,0,0,0,0,0,0,0,0,0,0
1708793655.70017791,100928779,1151,1150,1151,1158,0,0,0,0,0,0,0,0,0,0
1708793655.80013800,101028739,1151,1150,1151,1158,0,0,0,0,0,0,0,0,0,0
1708793655.90009809,101128699,1154,1150,1151,1154,0,0,0,0,0,0,0,0,0,0
1708793656.00005794,101228659,1156,1150,1150,1151,0,0,0,0,0,0,0,0,0,0
1708793656.10001802,101328619,1155,1150,1150,1151,0,0,0,0,0,0,0,0,0,0
1708793656.19997811,101428579,1155,1150,1150,1152,0,0,0,0,0,0,0,0,0,0
1708793656.29993796,101528539,1155,1150,1150,1152,0,0,0,0,0,0,0,0,0,0
1708793656.39989805,101628499,875,1150,1150,1150,0,0,0,0,0,0,0,0,0,0
1708793656.49985790,101728459,1000,1000,1000,1000,0,0,0,0,0,0,0,0,0,0
1708793656.59981799,101828419,1000,1000,1000,1000,0,0,0,0,0,0,0,0,0,0
1708793656.69977808,101928379,1000,1000,1000,1000,0,0,0,0,0,0,0,0,0,0
1708793656.79973793,102028339,1000,1000,1000,1000,0,0,0,0,0,0,0,0,0,0
1708793656.89969802,102128299,1000,1000,1000,1000,0,0,0,0,0,0,0,0,0,0
1708793656.99965811,102228259,1000,1000,1000,1000,0,0,0,0,0,0,0,0,0,0
1708793657.09961796,102328219,1000,1000,1000,1000,0,0,0,0,0,0,0,0,0,0
1708793657.19957805,102428179,1000,1000,1000,1000,0,0,0,0,0,0,0,0,0,0
1708793657.30037093,102528972,1000,1000,1000,1000,0,0,0,0,0,0,0,0,0,0
1708793657.40033102,102628932,1000,1000,1000,1000,0,0,0,0,0,0,0,0,0,0
1708793657.50029111,102728892,1000,1000,1000,1000,0,0,0,0,0,0,0,0,0,0
1708793657.60025096,102828852,1000,1000,1000,1000,0,0,0,0,0,0,0,0,0,0
1708793657.70021105,102928812,1000,1000,1000,1000,0,0,0,0,0,0,0,0,0,0
1708793657.80017114,103028772,1000,1000,1000,1000,0,0,0,0,0,0,0,0,0,0
1708793657.90013099,103128732,1000,1000,1000,1000,0,0,0,0,0,0,0,0,0,0
1708793658.00009108,103228692,1000,1000,1000,1000,0,0,0,0,0,0,0,0,0,0
1708793658.10005093,103328652,1000,1000,1000,1000,0,0,0,0,0,0,0,0,0,0
1708793658.20001101,103428612,1000,1000,1000,1000,0,0,0,0,0,0,0,0,0,0
1708793658.29997110,103528572,1000,1000,1000,1000,0,0,0,0,0,0,0,0,0,0
1708793658.39993095,103628532,1000,1000,1000,1000,0,0,0,0,0,0,0,0,0,0
1708793658.49989104,103728492,1000,1000,1000,1000,0,0,0,0,0,0,0,0,0,0
1708793658.59985113,103828452,1000,1000,1000,1000,0,0,0,0,0,0,0,0,0,0
1708793658.69981098,103928412,1000,1000,1000,1000,0,0,0,0,0,0,0,0,0,0
1708793658.79977107,104028372,1000,1000,1000,1000,0,0,0,0,0,0,0,0,0,0
1708793658.89973092,104128332,1000,1000,1000,1000,0,0,0,0,0,0,0,0,0,0
1708793658.99969101,104228292,1000,1000,1000,1000,0,0,0,0,0,0,0,0,0,0
1708793659.09965110,104328252,1000,1000,1000,1000,0,0,0,0,0,0,0,0,0,0
1708793659.19961095,104428212,1000,1000,1000,1000,0,0,0,0,0,0,0,0,0,0
1708793659.29957104,104528172,1000,1000,1000,1000,0,0,0,0,0,0,0,0,0,0
1708793659.40036392,104628965,1000,1000,1000,1000,0,0,0,0,0,0,0,0,0,0
1708793659.50032401,104728925,1000,1000,1000,1000,0,0,0,0,0,0,0,0,0,0
1708793659.60028410,104828885,1000,1000,1000,1000,0,0,0,0,0,0,0,0,0,0
1708793659.70024395,104928845,1000,1000,1000,1000,0,0,0,0,0,0,0,0,0,0
1708793659.80020404,105028805,1000,1000,1000,1000,0,0,0,0,0,0,0,0,0,0
1708793659.90016413,105128765,1000,1000,1000,1000,0,0,0,0,0,0,0,0,0,0
1708793660.00012398,105228725,1000,1000,1000,1000,0,0,0,0,0,0,0,0,0,0
1708793660.10008407,105328685,1000,1000,1000,1000,0,0,0,0,0,0,0,0,0,0
1708793660.20004392,105428645,1000,1000,1000,1000,0,0,0,0,0,0,0,0,0,0
1708793660.30000401,105528605,1000,1000,1000,1000,0,0,0,0,0,0,0,0,0,0
1708793660.39996409,105628565,1000,1000,1000,1000,0,0,0,0,0,0,0,0,0,0
1708793660.49992394,105728525,1000,1000,1000,1000,0,0,0,0,0,0,0,0,0,0
1708793660.59988403,105828485,1000,1000,1000,1000,0,0,0,0,0,0,0,0,0,0
1708793660.69984412,105928445,1000,1000,1000,1000,0,0,0,0,0,0,0,0,0,0
1708793660.79980397,106028405,1000,1000,1000,1000,0,0,0,0,0,0,0,0,0,0
1708793660.89976406,106128365,1000,1000,1000,1000,0,0,0,0,0,0,0,0,0,0
1708793660.99972391,106228325,1000,1000,1000,1000,0,0,0,0,0,0,0,0,0,0
1708793661.09968400,106328285,1000,1000,1000,1000,0,0,0,0,0,0,0,0,0,0
1708793661.19964409,106428245,1000,1000,1000,1000,0,0,0,0,0,0,0,0,0,0
1708793661.29960394,106528205,1000,1000,1000,1000,0,0,0,0,0,0,0,0,0,0
1708793661.39956403,106628165,1000,1000,1000,1000,0,0,0,0,0,0,0,0,0,0
1708793661.50035691,106728958,1000,1000,1000,1000,0,0,0,0,0,0,0,0,0,0
1708793661.60031700,106828918,1000,1000,1000,1000,0,0,0,0,0,0,0,0,0,0
1708793661.70027709,106928878,1000,1000,1000,1000,0,0,0,0,0,0,0,0,0,0
1708793661.80023694,107028838,1000,1000,1000,1000,0,0,0,0,0,0,0,0,0,0
1708793661.90019703,107128798,1000,1000,1000,1000,0,0,0,0,0,0,0,0,0,0
1708793662.00015712,107228758,1000,1000,1000,1000,0,0,0,0,0,0,0,0,0,0
1708793662.10011697,107328718,1000,1000,1000,1000,0,0,0,0,0,0,0,0,0,0
1708793662.20007706,107428678,1000,1000,1000,1000,0,0,0,0,0,0,0,0,0,0
1708793662.30003691,107528638,1000,1000,1000,1000,0,0,0,0,0,0,0,0,0,0
1708793662.39999700,107628598,1000,1000,1000,1000,0,0,0,0,0,0,0,0,0,0
1708793662.49995708,107728558,1000,1000,1000,1000,0,0,0,0,0,0,0,0,0,0
1708793662.59991693,107828518,1000,1000,1000,1000,0,0,0,0,0,0,0,0,0,0
1708793662.69987702,107928478,1000,1000,1000,1000,0,0,0,0,0,0,0,0,0,0
1708793662.79983711,108028438,1000,1000,1000,1000,0,0,0,0,0,0,0,0,0,0
1708793662.89979696,108128398,1000,1000,1000,1000,0,0,0,0,0,0,0,0,0,0
1708793662.99975705,108228358,1000,1000,1000,1000,0,0,0,0,0,0,0,0,0,0
1708793663.09971714,108328318,1000,1000,1000,1000,0,0,0,0,0,0,0,0,0,0
1708793663.19967699,108428278,1000,1000,1000,1000,0,0,0,0,0,0,0,0,0,0
1708793663.29963708,108528238,1000,1000,1000,1000,0,0,0,0,0,0,0,0,0,0
1708793663.39959693,108628198,1000,1000,1000,1000,0,0,0,0,0,0,0,0,0,0
1708793663.49955702,108728158,1000,1000,1000,1000,0,0,0,0,0,0,0,0,0,0
1708793663.60034990,108828951,1000,1000,1000,1000,0,0,0,0,0,0,0,0,0,0
1708793663.70030999,108928911,1000,1000,1000,1000,0,0,0,0,0,0,0,0,0,0
1708793663.80027008,109028871,1000,1000,1000,1000,0,0,0,0,0,0,0,0,0,0
1708793663.90022993,109128831,1000,1000,1000,1000,0,0,0,0,0,0,0,0,0,0
1708793664.00019002,109228791,1000,1000,1000,1000,0,0,0,0,0,0,0,0,0,0
1708793664.10015011,109328751,1000,1000,1000,1000,0,0,0,0,0,0,0,0,0,0
1708793664.20010996,109428711,1000,1000,1000,1000,0,0,0,0,0,0,0,0,0,0
1708793664.30007005,109528671,1000,1000,1000,1000,0,0,0,0,0,0,0,0,0,0
1708793664.40003014,109628631,1000,1000,1000,1000,0,0,0,0,0,0,0,0,0,0
1708793664.49998999,109728591,1000,1000,1000,1000,0,0,0,0,0,0,0,0,0,0
1708793664.59995008,109828551,1000,1000,1000,1000,0,0,0,0,0,0,0,0,0,0
1708793664.69990993,109928511,1000,1000,1000,1000,0,0,0,0,0,0,0,0,0,0
1708793664.79987001,110028471,1000,1000,1000,1000,0,0,0,0,0,0,0,0,0,0
1708793664.89983010,110128431,1000,1000,1000,1000,0,0,0,0,0,0,0,0,0,0
1708793664.99978995,110228391,1000,1000,1000,1000,0,0,0,0,0,0,0,0,0,0
1708793665.09975004,110328351,1000,1000,1000,1000,0,0,0,0,0,0,0,0,0,0
1708793665.19971013,110428311,1000,1000,1000,1000,0,0,0,0,0,0,0,0,0,0
1708793665.29966998,110528271,1000,1000,1000,1000,0,0,0,0,0,0,0,0,0,0
1708793665.39963007,110628231,1000,1000,1000,1000,0,0,0,0,0,0,0,0,0,0
1708793665.49958992,110728191,1000,1000,1000,1000,0,0,0,0,0,0,0,0,0,0
1708793665.60038304,110828984,1000,1000,1000,1000,0,0,0,0,0,0,0,0,0,0
1708793665.70034313,110928944,1000,1000,1000,1000,0,0,0,0,0,0,0,0,0,0
1708793665.80030298,111028904,1000,1000,1000,1000,0,0,0,0,0,0,0,0,0,0
1708793665.90026307,111128864,1000,1000,1000,1000,0,0,0,0,0,0,0,0,0,0
1708793666.00022292,111228824,1000,1000,1000,1000,0,0,0,0,0,0,0,0,0,0
1708793666.10018301,111328784,1000,1000,1000,1000,0,0,0,0,0,0,0,0,0,0
1708793666.20014310,111428744,1000,1000,1000,1000,0,0,0,0,0,0,0,0,0,0
1708793666.30010295,111528704,1000,1000,1000,1000,0,0,0,0,0,0,0,0,0,0
1708793666.40006304,111628664,1000,1000,1000,1000,0,0,0,0,0,0,0,0,0,0
1708793666.50002313,111728624,1000,1000,1000,1000,0,0,0,0,0,0,0,0,0,0
1708793666.59998298,111828584,1000,1000,1000,1000,0,0,0,0,0,0,0,0,0,0
1708793666.69994307,111928544,1000,1000,1000,1000,0,0,0,0,0,0,0,0,0,0
1708793666.79990292,112028504,1000,1000,1000,1000,0,0,0,0,0,0,0,0,0,0
1708793666.89986300,112128464,1000,1000,1000,1000,0,0,0,0,0,0,0,0,0,0
1708793666.99982309,112228424,1000,1000,1000,1000,0,0,0,0,0,0,0,0,0,0
1708793667.09978294,112328384,1000,1000,1000,1000,0,0,0,0,0,0,0,0,0,0
1708793667.19974303,112428344,1000,1000,1000,1000,0,0,0,0,0,0,0,0,0,0
1708793667.29970312,112528304,1000,1000,1000,1000,0,0,0,0,0,0,0,0,0,0
1708793667.39966297,112628264,1000,1000,1000,1000,0,0,0,0,0,0,0,0,0,0
1708793667.49962306,112728224,1000,1000,1000,1000,0,0,0,0,0,0,0,0,0,0
1708793667.59958291,112828184,1000,1000,1000,1000,0,0,0,0,0,0,0,0,0,0
1708793667.70037603,112928977,1000,1000,1000,1000,0,0,0,0,0,0,0,0,0,0
1708793667.80033612,113028937,1000,1000,1000,1000,0,0,0,0,0,0,0,0,0,0
1708793667.90029597,113128897,1000,1000,1000,1000,0,0,0,0,0,0,0,0,0,0
1708793668.00025606,113228857,1000,1000,1000,1000,0,0,0,0,0,0,0,0,0,0
1708793668.10021591,113328817,1000,1000,1000,1000,0,0,0,0,0,0,0,0,0,0
1708793668.20017600,113428777,1000,1000,1000,1000,0,0,0,0,0,0,0,0,0,0
1708793668.30013609,113528737,1000,1000,1000,1000,0,0,0,0,0,0,0,0,0,0
1708793668.40009594,113628697,1000,1000,1000,1000,0,0,0,0,0,0,0,0,0,0
1708793668.50005603,113728657,1000,1000,1000,1000,0,0,0,0,0,0,0,0,0,0
1708793668.60001612,113828617,1000,1000,1000,1000,0,0,0,0,0,0,0,0,0,0
1708793668.69997597,113928577,1000,1000,1000,1000,0,0,0,0,0,0,0,0,0,0
1708793668.79993606,114028537,1000,1000,1000,1000,0,0,0,0,0,0,0,0,0,0
1708793668.89989591,114128497,1000,1000,1000,1000,0,0,0,0,0,0,0,0,0,0
1708793668.99985600,114228457,1000,1000,1000,1000,0,0,0,0,0,0,0,0,0,0
1708793669.09981608,114328417,1000,1000,1000,1000,0,0,0,0,0,0,0,0,0,0
1708793669.19977593,114428377,1000,1000,1000,1000,0,0,0,0,0,0,0,0,0,0
1708793669.29973602,114528337,1000,1000,1000,1000,0,0,0,0,0,0,0,0,0,0
1708793669.39969611,114628297,1000,1000,1000,1000,0,0,0,0,0,0,0,0,0,0
1708793669.49965596,114728257,1000,1000,1000,1000,0,0,0,0,0,0,0,0,0,0
1708793669.59961605,114828217,1000,1000,1000,1000,0,0,0,0,0,0,0,0,0,0
1708793669.69957614,114928177,1000,1000,1000,1000,0,0,0,0,0,0,0,0,0,0
1708793669.80036902,115028970,1000,1000,1000,1000,0,0,0,0,0,0,0,0,0,0
1708793669.90032911,115128930,1000,1000,1000,1000,0,0,0,0,0,0,0,0,0,0
1708793670.00028896,115228890,1000,1000,1000,1000,0,0,0,0,0,0,0,0,0,0
1708793670.10024905,115328850,1000,1000,1000,1000,0,0,0,0,0,0,0,0,0,0
1708793670.20020890,115428810,1000,1000,1000,1000,0,0,0,0,0,0,0,0,0,0
1708793670.30016899,115528770,1000,1000,1000,1000,0,0,0,0,0,0,0,0,0,0
1708793670.40012908,115628730,1000,1000,1000,1000,0,0,0,0,0,0,0,0,0,0
1708793670.50008893,115728690,1000,1000,1000,1000,0,0,0,0,0,0,0,0,0,0
1708793670.60004902,115828650,1000,1000,1000,1000,0,0,0,0,0,0,0,0,0,0
1708793670.70000911,115928610,1000,1000,1000,1000,0,0,0,0,0,0,0,0,0,0
1708793670.79996896,116028570,1000,1000,1000,1000,0,0,0,0,0,0,0,0,0,0
1708793670.89992905,116128530,1000,1000,1000,1000,0,0,0,0,0,0,0,0,0,0
1708793670.99988914,116228490,1000,1000,1000,1000,0,0,0,0,0,0,0,0,0,0
1708793671.09984899,116328450,1000,1000,1000,1000,0,0,0,0,0,0,0,0,0,0
1708793671.19980907,116428410,1000,1000,1000,1000,0,0,0,0,0,0,0,0,0,0
1708793671.29976892,116528370,1000,1000,1000,1000,0,0,0,0,0,0,0,0,0,0
1708793671.39972901,116628330,1000,1000,1000,1000,0,0,0,0,0,0,0,0,0,0
