timestamp,TimeUS,C1,C2,C3,C4,C5,C6,C7,C8,C9,C10,C11,C12,C13,C14
1708794500.30004025,44728768,1000,1000,1000,1000,0,0,0,0,0,0,0,0,0,0
1708794500.40000010,44828728,1000,1000,1000,1000,0,0,0,0,0,0,0,0,0,0
1708794500.49996018,44928688,1000,1000,1000,1000,0,0,0,0,0,0,0,0,0,0
1708794500.59992003,45028648,1000,1000,1000,1000,0,0,0,0,0,0,0,0,0,0
1708794500.69988012,45128608,1000,1000,1000,1000,0,0,0,0,0,0,0,0,0,0
1708794500.79984021,45228568,1000,1000,1000,1000,0,0,0,0,0,0,0,0,0,0
1708794500.89980006,45328528,1000,1000,1000,1000,0,0,0,0,0,0,0,0,0,0
1708794500.99976015,45428488,1000,1000,1000,1000,0,0,0,0,0,0,0,0,0,0
1708794501.09972024,45528448,1000,1000,1000,1000,0,0,0,0,0,0,0,0,0,0
1708794501.19968009,45628408,1000,1000,1000,1000,0,0,0,0,0,0,0,0,0,0
1708794501.29964018,45728368,1000,1000,1000,1000,0,0,0,0,0,0,0,0,0,0
1708794501.39960003,45828328,1000,1000,1000,1000,0,0,0,0,0,0,0,0,0,0
1708794501.49956012,45928288,1000,1000,1000,1000,0,0,0,0,0,0,0,0,0,0
1708794501.59952021,46028248,1000,1000,1000,1000,0,0,0,0,0,0,0,0,0,0
1708794501.69948006,46128208,1000,1000,1000,1000,0,0,0,0,0,0,0,0,0,0
1708794501.79944015,46228168,1000,1000,1000,1000,0,0,0,0,0,0,0,0,0,0
1708794501.90023303,46328961,1000,1000,1000,1000,0,0,0,0,0,0,0,0,0,0
1708794502.00019312,46428921,1000,1000,1000,1000,0,0,0,0,0,0,0,0,0,0
1708794502.10015321,46528881,1000,1000,1000,1000,0,0,0,0,0,0,0,0,0,0
1708794502.20011306,46628841,1000,1000,1000,1000,0,0,0,0,0,0,0,0,0,0
1708794502.30007315,46728801,1012,1012,1012,1012,0,0,0,0,0,0,0,0,0,0
1708794502.40003324,46828761,1042,1042,1042,1042,0,0,0,0,0,0,0,0,0,0
1708794502.49999309,46928721,1072,1072,1072,1072,0,0,0,0,0,0,0,0,0,0
1708794502.59995317,47028681,1102,1102,1102,1102,0,0,0,0,0,0,0,0,0,0
1708794502.69991302,47128641,1132,1132,1132,1132,0,0,0,0,0,0,0,0,0,0
1708794502.79987311,47228601,1268,1263,1263,1268,0,0,0,0,0,0,0,0,0,0
1708794502.89983320,47328561,1481,1476,1477,1481,0,0,0,0,0,0,0,0,0,0
1708794502.99979305,47428521,1644,1640,1641,1644,0,0,0,0,0,0,0,0,0,0
1708794503.09975314,47528481,1782,1779,1779,1782,0,0,0,0,0,0,0,0,0,0
1708794503.19971323,47628441,1896,1893,1892,1896,0,0,0,0,0,0,0,0,0,0
1708794503.29967308,47728401,1878,1876,1876,1878,0,0,0,0,0,0,0,0,0,0
1708794503.39963317,47828361,1756,1755,1755,1756,0,0,0,0,0,0,0,0,0,0
1708794503.49959302,47928321,1658,1658,1659,1658,0,0,0,0,0,0,0,0,0,0
1708794503.59955311,48028281,1627,1629,1629,1627,0,0,0,0,0,0,0,0,0,0
1708794503.69951320,48128241,1632,1634,1634,1632,0,0,0,0,0,0,0,0,0,0
1708794503.79947305,48228201,1642,1644,1644,1643,0,0,0,0,0,0,0,0,0,0
1708794503.89943314,48328161,1636,1635,1632,1638,0,0,0,0,0,0,0,0,0,0
1708794504.00022602,48428954,1621,1622,1613,1629,0,0,0,0,0,0,0,0,0,0
1708794504.10018611,48528914,1612,1613,1607,1618,0,0,0,0,0,0,0,0,0,0
1708794504.20014620,48628874,1609,1609,1608,1610,0,0,0,0,0,0,0,0,0,0
1708794504.30010605,48728834,1611,1611,1613,1608,0,0,0,0,0,0,0,0,0,0
1708794504.40006614,48828794,1614,1614,1618,1610,0,0,0,0,0,0,0,0,0,0
1708794504.50002623,48928754,1615,1614,1619,1610,0,0,0,0,0,0,0,0,0,0
1708794504.59998608,49028714,1585,1585,1600,1569,0,0,0,0,0,0,0,0,0,0
1708794504.69994617,49128674,1571,1571,1582,1561,0,0,0,0,0,0,0,0,0,0
1708794504.79990625,49228634,1560,1560,1562,1559,0,0,0,0,0,0,0,0,0,0
1708794504.89986610,49328594,1551,1551,1544,1557,0,0,0,0,0,0,0,0,0,0
1708794504.99982619,49428554,1543,1543,1531,1555,0,0,0,0,0,0,0,0,0,0
1708794505.09978604,49528514,1537,1537,1526,1548,0,0,0,0,0,0,0,0,0,0
1708794505.19974613,49628474,1532,1532,1526,1538,0,0,0,0,0,0,0,0,0,0
1708794505.29970622,49728434,1527,1527,1525,1529,0,0,0,0,0,0,0,0,0,0
1708794505.39966607,49828394,1527,1527,1528,1525,0,0,0,0,0,0,0,0,0,0
1708794505.49962616,49928354,1528,1528,1530,1526,0,0,0,0,0,0,0,0,0,0
1708794505.59958625,50028314,1531,1531,1534,1528,0,0,0,0,0,0,0,0,0,0
1708794505.69954610,50128274,1535,1535,1538,1532,0,0,0,0,0,0,0,0,0,0
1708794505.79950619,50228234,1538,1538,1541,1536,0,0,0,0,0,0,0,0,0,0
1708794505.89946604,50328194,1542,1542,1544,1541,0,0,0,0,0,0,0,0,0,0
1708794505.99942613,50428154,1546,1546,1547,1545,0,0,0,0,0,0,0,0,0,0
1708794506.10021925,50528947,1548,1548,1548,1549,0,0,0,0,0,0,0,0,0,0
1708794506.20017910,50628907,1551,1551,1550,1552,0,0,0,0,0,0,0,0,0,0
1708794506.30013919,50728867,1553,1553,1552,1554,0,0,0,0,0,0,0,0,0,0
1708794506.40009904,50828827,1552,1552,1556,1559,0,0,0,0,0,0,0,0,0,0
1708794506.50005913,50928787,1552,1553,1560,1562,0,0,0,0,0,0,0,0,0,0
1708794506.60001922,51028747,1555,1556,1563,1563,0,0,0,0,0,0,0,0,0,0
1708794506.69997907,51128707,1559,1560,1565,1564,0,0,0,0,0,0,0,0,0,0
1708794506.79993916,51228667,1562,1562,1565,1564,0,0,0,0,0,0,0,0,0,0
1708794506.89989924,51328627,1566,1566,1566,1565,0,0,0,0,0,0,0,0,0,0
1708794506.99985909,51428587,1568,1569,1567,1566,0,0,0,0,0,0,0,0,0,0
1708794507.09981918,51528547,1571,1571,1567,1567,0,0,0,0,0,0,0,0,0,0
1708794507.19977903,51628507,1572,1571,1567,1567,0,0,0,0,0,0,0,0,0,0
1708794507.29973912,51728467,1571,1571,1566,1566,0,0,0,0,0,0,0,0,0,0
1708794507.39969921,51828427,1572,1572,1567,1568,0,0,0,0,0,0,0,0,0,0
1708794507.49965906,51928387,1573,1573,1569,1569,0,0,0,0,0,0,0,0,0,0
1708794507.59961915,52028347,1573,1573,1570,1570,0,0,0,0,0,0,0,0,0,0
1708794507.69957924,52128307,1573,1573,1572,1571,0,0,0,0,0,0,0,0,0,0
1708794507.79953909,52228267,1573,1574,1573,1572,0,0,0,0,0,0,0,0,0,0
1708794507.89949918,52328227,1574,1574,1575,1573,0,0,0,0,0,0,0,0,0,0
1708794507.99945903,52428187,1575,1575,1576,1575,0,0,0,0,0,0,0,0,0,0
1708794508.10025215,52528980,1574,1574,1576,1575,0,0,0,0,0,0,0,0,0,0
1708794508.20021224,52628940,1575,1575,1576,1576,0,0,0,0,0,0,0,0,0,0
1708794508.30017209,52728900,1575,1575,1577,1577,0,0,0,0,0,0,0,0,0,0
1708794508.40013218,52828860,1575,1575,1576,1576,0,0,0,0,0,0,0,0,0,0
1708794508.50009203,52928820,1576,1576,1577,1577,0,0,0,0,0,0,0,0,0,0
1708794508.60005212,53028780,1576,1576,1576,1577,0,0,0,0,0,0,0,0,0,0
1708794508.70001221,53128740,1577,1577,1577,1577,0,0,0,0,0,0,0,0,0,0
1708794508.79997206,53228700,1577,1577,1577,1577,0,0,0,0,0,0,0,0,0,0
1708794508.89993215,53328660,1577,1577,1577,1577,0,0,0,0,0,0,0,0,0,0
1708794508.99989223,53428620,1578,1578,1579,1577,0,0,0,0,0,0,0,0,0,0
1708794509.09985209,53528580,1578,1578,1578,1577,0,0,0,0,0,0,0,0,0,0
1708794509.19981217,53628540,1579,1579,1578,1578,0,0,0,0,0,0,0,0,0,0
1708794509.29977202,53728500,1578,1578,1577,1578,0,0,0,0,0,0,0,0,0,0
1708794509.39973211,53828460,1578,1578,1577,1578,0,0,0,0,0,0,0,0,0,0
1708794509.49969220,53928420,1578,1578,1578,1578,0,0,0,0,0,0,0,0,0,0
1708794509.59965205,54028380,1579,1578,1579,1578,0,0,0,0,0,0,0,0,0,0
1708794509.69961214,54128340,1578,1578,1578,1578,0,0,0,0,0,0,0,0,0,0
1708794509.79957223,54228300,1579,1579,1579,1579,0,0,0,0,0,0,0,0,0,0
1708794509.89953208,54328260,1579,1579,1579,1579,0,0,0,0,0,0,0,0,0,0
1708794509.99949217,54428220,1578,1578,1579,1578,0,0,0,0,0,0,0,0,0,0
1708794510.09945202,54528180,1578,1578,1579,1579,0,0,0,0,0,0,0,0,0,0
1708794510.20024514,54628973,1579,1579,1579,1579,0,0,0,0,0,0,0,0,0,0
1708794510.30020523,54728933,1580,1579,1580,1580,0,0,0,0,0,0,0,0,0,0
1708794510.40016508,54828893,1580,1580,1580,1580,0,0,0,0,0,0,0,0,0,0
1708794510.50012517,54928853,1580,1579,1580,1580,0,0,0,0,0,0,0,0,0,0
1708794510.60008502,55028813,1580,1580,1581,1580,0,0,0,0,0,0,0,0,0,0
1708794510.70004511,55128773,1579,1579,1579,1579,0,0,0,0,0,0,0,0,0,0
1708794510.80000520,55228733,1580,1581,1581,1580,0,0,0,0,0,0,0,0,0,0
1708794510.89996505,55328693,1581,1581,1581,1581,0,0,0,0,0,0,0,0,0,0
1708794510.99992514,55428653,1581,1581,1581,1581,0,0,0,0,0,0,0,0,0,0
1708794511.09988523,55528613,1581,1580,1581,1580,0,0,0,0,0,0,0,0,0,0
1708794511.19984508,55628573,1581,1580,1581,1580,0,0,0,0,0,0,0,0,0,0
1708794511.29980516,55728533,1580,1581,1581,1581,0,0,0,0,0,0,0,0,0,0
1708794511.39976525,55828493,1580,1581,1580,1581,0,0,0,0,0,0,0,0,0,0
1708794511.49972510,55928453,1580,1580,1580,1581,0,0,0,0,0,0,0,0,0,0
1708794511.59968519,56028413,1581,1581,1581,1581,0,0,0,0,0,0,0,0,0,0
1708794511.69964504,56128373,1581,1580,1581,1580,0,0,0,0,0,0,0,0,0,0
1708794511.79960513,56228333,1580,1580,1581,1580,0,0,0,0,0,0,0,0,0,0
1708794511.89956522,56328293,1580,1581,1580,1581,0,0,0,0,0,0,0,0,0,0
1708794511.99952507,56428253,1580,1580,1580,1580,0,0,0,0,0,0,0,0,0,0
1708794512.09948516,56528213,1581,1580,1581,1580,0,0,0,0,0,0,0,0,0,0
1708794512.19944525,56628173,1581,1581,1581,1580,0,0,0,0,0,0,0,0,0,0
1708794512.30023813,56728966,1582,1581,1581,1581,0,0,0,0,0,0,0,0,0,0
1708794512.40019822,56828926,1581,1581,1581,1581,0,0,0,0,0,0,0,0,0,0
1708794512.50015807,56928886,1580,1580,1580,1580,0,0,0,0,0,0,0,0,0,0
1708794512.60011816,57028846,1581,1582,1586,1576,0,0,0,0,0,0,0,0,0,0
1708794512.70007825,57128806,1580,1581,1586,1572,0,0,0,0,0,0,0,0,0,0
1708794512.80003810,57228766,1579,1581,1580,1573,0,0,0,0,0,0,0,0,0,0
1708794512.89999819,57328726,1578,1580,1571,1573,0,0,0,0,0,0,0,0,0,0
1708794512.99995804,57428686,1576,1578,1562,1569,0,0,0,0,0,0,0,0,0,0
1708794513.09991813,57528646,1577,1578,1558,1565,0,0,0,0,0,0,0,0,0,0
1708794513.19987822,57628606,1579,1579,1557,1561,0,0,0,0,0,0,0,0,0,0
1708794513.29983807,57728566,1579,1577,1555,1557,0,0,0,0,0,0,0,0,0,0
1708794513.39979815,57828526,1580,1578,1556,1555,0,0,0,0,0,0,0,0,0,0
1708794513.49975824,57928486,1579,1578,1556,1554,0,0,0,0,0,0,0,0,0,0
1708794513.59971809,58028446,1577,1578,1556,1553,0,0,0,0,0,0,0,0,0,0
1708794513.69967818,58128406,1576,1577,1556,1554,0,0,0,0,0,0,0,0,0,0
1708794513.79963803,58228366,1575,1576,1555,1554,0,0,0,0,0,0,0,0,0,0
1708794513.89959812,58328326,1574,1576,1553,1553,0,0,0,0,0,0,0,0,0,0
1708794513.99955821,58428286,1574,1576,1552,1552,0,0,0,0,0,0,0,0,0,0
1708794514.09951806,58528246,1575,1577,1550,1550,0,0,0,0,0,0,0,0,0,0
1708794514.19947815,58628206,1577,1578,1548,1548,0,0,0,0,0,0,0,0,0,0
1708794514.29943824,58728166,1580,1580,1547,1546,0,0,0,0,0,0,0,0,0,0
1708794514.40023112,58828959,1584,1584,1545,1545,0,0,0,0,0,0,0,0,0,0
1708794514.50019121,58928919,1585,1585,1541,1541,0,0,0,0,0,0,0,0,0,0
1708794514.60015106,59028879,1589,1589,1539,1539,0,0,0,0,0,0,0,0,0,0
1708794514.70011115,59128839,1591,1591,1535,1536,0,0,0,0,0,0,0,0,0,0
1708794514.80007124,59228799,1593,1594,1534,1534,0,0,0,0,0,0,0,0,0,0
1708794514.90003109,59328759,1595,1595,1534,1536,0,0,0,0,0,0,0,0,0,0
1708794514.99999118,59428719,1595,1595,1535,1537,0,0,0,0,0,0,0,0,0,0
1708794515.09995103,59528679,1593,1592,1537,1539,0,0,0,0,0,0,0,0,0,0
1708794515.19991112,59628639,1590,1590,1541,1544,0,0,0,0,0,0,0,0,0,0
1708794515.29987121,59728599,1585,1583,1547,1550,0,0,0,0,0,0,0,0,0,0
1708794515.39983106,59828559,1578,1575,1557,1560,0,0,0,0,0,0,0,0,0,0
1708794515.49979115,59928519,1569,1565,1568,1570,0,0,0,0,0,0,0,0,0,0
1708794515.59975123,60028479,1559,1555,1581,1582,0,0,0,0,0,0,0,0,0,0
1708794515.69971108,60128439,1548,1545,1593,1594,0,0,0,0,0,0,0,0,0,0
1708794515.79967117,60228399,1538,1536,1603,1602,0,0,0,0,0,0,0,0,0,0
1708794515.89963102,60328359,1531,1531,1610,1609,0,0,0,0,0,0,0,0,0,0
1708794515.99959111,60428319,1528,1529,1614,1613,0,0,0,0,0,0,0,0,0,0
1708794516.09955120,60528279,1529,1531,1615,1614,0,0,0,0,0,0,0,0,0,0
1708794516.19951105,60628239,1534,1535,1611,1611,0,0,0,0,0,0,0,0,0,0
1708794516.29947114,60728199,1540,1542,1606,1606,0,0,0,0,0,0,0,0,0,0
1708794516.39943123,60828159,1549,1550,1599,1600,0,0,0,0,0,0,0,0,0,0
1708794516.50022411,60928952,1557,1558,1591,1591,0,0,0,0,0,0,0,0,0,0
1708794516.60018420,61028912,1567,1567,1584,1584,0,0,0,0,0,0,0,0,0,0
1708794516.70014405,61128872,1575,1574,1578,1577,0,0,0,0,0,0,0,0,0,0
1708794516.80010414,61228832,1580,1579,1572,1571,0,0,0,0,0,0,0,0,0,0
1708794516.90006423,61328792,1585,1583,1569,1568,0,0,0,0,0,0,0,0,0,0
1708794517.00002408,61428752,1588,1586,1566,1566,0,0,0,0,0,0,0,0,0,0
1708794517.09998417,61528712,1588,1586,1566,1566,0,0,0,0,0,0,0,0,0,0
1708794517.19994402,61628672,1588,1587,1568,1568,0,0,0,0,0,0,0,0,0,0
1708794517.29990411,61728632,1586,1586,1571,1571,0,0,0,0,0,0,0,0,0,0
1708794517.39986420,61828592,1582,1582,1573,1572,0,0,0,0,0,0,0,0,0,0
1708794517.49982405,61928552,1579,1580,1576,1576,0,0,0,0,0,0,0,0,0,0
1708794517.59978414,62028512,1576,1577,1578,1578,0,0,0,0,0,0,0,0,0,0
1708794517.69974422,62128472,1574,1574,1580,1580,0,0,0,0,0,0,0,0,0,0
1708794517.79970407,62228432,1573,1573,1582,1582,0,0,0,0,0,0,0,0,0,0
1708794517.89966416,62328392,1572,1573,1583,1583,0,0,0,0,0,0,0,0,0,0
1708794517.99962425,62428352,1573,1574,1585,1584,0,0,0,0,0,0,0,0,0,0
1708794518.09958410,62528312,1573,1574,1584,1584,0,0,0,0,0,0,0,0,0,0
1708794518.19954419,62628272,1574,1574,1583,1583,0,0,0,0,0,0,0,0,0,0
1708794518.29950404,62728232,1575,1575,1582,1582,0,0,0,0,0,0,0,0,0,0
1708794518.39946413,62828192,1578,1577,1581,1581,0,0,0,0,0,0,0,0,0,0
1708794518.50025725,62928985,1578,1578,1579,1579,0,0,0,0,0,0,0,0,0,0
1708794518.60021710,63028945,1580,1580,1579,1579,0,0,0,0,0,0,0,0,0,0
1708794518.70017719,63128905,1580,1580,1577,1577,0,0,0,0,0,0,0,0,0,0
1708794518.80013704,63228865,1581,1581,1577,1577,0,0,0,0,0,0,0,0,0,0
1708794518.90009713,63328825,1580,1581,1576,1576,0,0,0,0,0,0,0,0,0,0
1708794519.00005722,63428785,1582,1581,1577,1577,0,0,0,0,0,0,0,0,0,0
1708794519.10001707,63528745,1581,1581,1577,1577,0,0,0,0,0,0,0,0,0,0
1708794519.19997716,63628705,1581,1581,1578,1578,0,0,0,0,0,0,0,0,0,0
1708794519.29993725,63728665,1423,1509,1607,1613,0,0,0,0,0,0,0,0,0,0
1708794519.39989710,63828625,1515,1491,1618,1627,0,0,0,0,0,0,0,0,0,0
1708794519.49985719,63928585,1591,1518,1631,1644,0,0,0,0,0,0,0,0,0,0
1708794519.59981704,64028545,1847,1630,1622,1622,0,0,0,0,0,0,0,0,0,0
1708794519.69977713,64128505,1753,1679,1587,1576,0,0,0,0,0,0,0,0,0,0
1708794519.79973722,64228465,1657,1702,1558,1549,0,0,0,0,0,0,0,0,0,0
1708794519.89969707,64328425,1600,1710,1559,1556,0,0,0,0,0,0,0,0,0,0
1708794519.99965715,64428385,1588,1703,1579,1580,0,0,0,0,0,0,0,0,0,0
1708794520.09961724,64528345,1594,1674,1594,1593,0,0,0,0,0,0,0,0,0,0
1708794520.19957709,64628305,1598,1626,1597,1594,0,0,0,0,0,0,0,0,0,0
1708794520.29953718,64728265,1595,1578,1595,1592,0,0,0,0,0,0,0,0,0,0
1708794520.39949703,64828225,1588,1546,1594,1594,0,0,0,0,0,0,0,0,0,0
1708794520.49945712,64928185,1576,1534,1595,1597,0,0,0,0,0,0,0,0,0,0
1708794520.60025024,65028978,1563,1537,1598,1597,0,0,0,0,0,0,0,0,0,0
1708794520.70021009,65128938,1551,1546,1604,1590,0,0,0,0,0,0,0,0,0,0
1708794520.80017018,65228898,1544,1554,1597,1587,0,0,0,0,0,0,0,0,0,0
1708794520.90013003,65328858,1544,1562,1585,1584,0,0,0,0,0,0,0,0,0,0
1708794521.00009012,65428818,1552,1568,1572,1577,0,0,0,0,0,0,0,0,0,0
1708794521.10005021,65528778,1562,1569,1559,1567,0,0,0,0,0,0,0,0,0,0
1708794521.20001006,65628738,1573,1572,1552,1558,0,0,0,0,0,0,0,0,0,0
1708794521.29997015,65728698,1581,1575,1547,1550,0,0,0,0,0,0,0,0,0,0
1708794521.39993024,65828658,1587,1579,1545,1545,0,0,0,0,0,0,0,0,0,0
1708794521.49989009,65928618,1588,1582,1544,1542,0,0,0,0,0,0,0,0,0,0
1708794521.59985018,66028578,1588,1584,1544,1541,0,0,0,0,0,0,0,0,0,0
1708794521.69981003,66128538,1586,1585,1545,1543,0,0,0,0,0,0,0,0,0,0
1708794521.79977012,66228498,1583,1585,1546,1544,0,0,0,0,0,0,0,0,0,0
1708794521.89973021,66328458,1580,1584,1547,1546,0,0,0,0,0,0,0,0,0,0
1708794521.99969006,66428418,1579,1582,1548,1548,0,0,0,0,0,0,0,0,0,0
1708794522.09965014,66528378,1579,1581,1549,1550,0,0,0,0,0,0,0,0,0,0
1708794522.19961023,66628338,1579,1580,1549,1550,0,0,0,0,0,0,0,0,0,0
1708794522.29957008,66728298,1579,1580,1549,1549,0,0,0,0,0,0,0,0,0,0
1708794522.39953017,66828258,1581,1581,1548,1548,0,0,0,0,0,0,0,0,0,0
1708794522.49949002,66928218,1583,1583,1547,1546,0,0,0,0,0,0,0,0,0,0
1708794522.59945011,67028178,1584,1585,1544,1544,0,0,0,0,0,0,0,0,0,0
1708794522.70024323,67128971,1586,1586,1541,1542,0,0,0,0,0,0,0,0,0,0
1708794522.80020308,67228931,1589,1589,1541,1542,0,0,0,0,0,0,0,0,0,0
1708794522.90016317,67328891,1590,1589,1540,1542,0,0,0,0,0,0,0,0,0,0
1708794523.00012302,67428851,1591,1591,1543,1544,0,0,0,0,0,0,0,0,0,0
1708794523.10008311,67528811,1589,1589,1545,1546,0,0,0,0,0,0,0,0,0,0
1708794523.20004320,67628771,1587,1586,1549,1551,0,0,0,0,0,0,0,0,0,0
1708794523.30000305,67728731,1583,1580,1555,1559,0,0,0,0,0,0,0,0,0,0
1708794523.39996314,67828691,1576,1573,1563,1566,0,0,0,0,0,0,0,0,0,0
1708794523.49992323,67928651,1568,1564,1574,1576,0,0,0,0,0,0,0,0,0,0
1708794523.59988308,68028611,1557,1554,1583,1584,0,0,0,0,0,0,0,0,0,0
1708794523.69984317,68128571,1548,1546,1593,1593,0,0,0,0,0,0,0,0,0,0
1708794523.79980302,68228531,1542,1542,1603,1602,0,0,0,0,0,0,0,0,0,0
1708794523.89976311,68328491,1538,1538,1608,1607,0,0,0,0,0,0,0,0,0,0
1708794523.99972320,68428451,1535,1536,1609,1608,0,0,0,0,0,0,0,0,0,0
1708794524.09968305,68528411,1537,1539,1609,1609,0,0,0,0,0,0,0,0,0,0
1708794524.19964314,68628371,1541,1543,1606,1606,0,0,0,0,0,0,0,0,0,0
1708794524.29960322,68728331,1547,1548,1601,1601,0,0,0,0,0,0,0,0,0,0
1708794524.39956307,68828291,1555,1556,1595,1596,0,0,0,0,0,0,0,0,0,0
1708794524.49952316,68928251,1562,1563,1589,1589,0,0,0,0,0,0,0,0,0,0
1708794524.59948325,69028211,1570,1569,1584,1583,0,0,0,0,0,0,0,0,0,0
1708794524.69944310,69128171,1575,1574,1577,1577,0,0,0,0,0,0,0,0,0,0
1708794524.80023623,69228964,1580,1579,1574,1573,0,0,0,0,0,0,0,0,0,0
1708794524.90019608,69328924,1583,1582,1570,1569,0,0,0,0,0,0,0,0,0,0
1708794525.00015616,69428884,1584,1583,1568,1568,0,0,0,0,0,0,0,0,0,0
1708794525.10011625,69528844,1584,1583,1568,1568,0,0,0,0,0,0,0,0,0,0
1708794525.20007610,69628804,1584,1583,1570,1570,0,0,0,0,0,0,0,0,0,0
1708794525.30003619,69728764,1583,1582,1572,1572,0,0,0,0,0,0,0,0,0,0
1708794525.39999604,69828724,1580,1580,1574,1574,0,0,0,0,0,0,0,0,0,0
1708794525.49995613,69928684,1578,1579,1576,1576,0,0,0,0,0,0,0,0,0,0
1708794525.59991622,70028644,1577,1577,1579,1579,0,0,0,0,0,0,0,0,0,0
1708794525.69987607,70128604,1575,1575,1580,1580,0,0,0,0,0,0,0,0,0,0
1708794525.79983616,70228564,1575,1575,1582,1583,0,0,0,0,0,0,0,0,0,0
1708794525.89979625,70328524,1573,1574,1583,1582,0,0,0,0,0,0,0,0,0,0
1708794525.99975610,70428484,1574,1574,1583,1583,0,0,0,0,0,0,0,0,0,0
1708794526.09971619,70528444,1574,1574,1583,1582,0,0,0,0,0,0,0,0,0,0
1708794526.19967604,70628404,1575,1576,1582,1582,0,0,0,0,0,0,0,0,0,0
1708794526.29963613,70728364,1576,1576,1581,1581,0,0,0,0,0,0,0,0,0,0
1708794526.39959621,70828324,1577,1577,1580,1580,0,0,0,0,0,0,0,0,0,0
1708794526.49955606,70928284,1579,1579,1580,1580,0,0,0,0,0,0,0,0,0,0
1708794526.59951615,71028244,1580,1580,1579,1579,0,0,0,0,0,0,0,0,0,0
1708794526.69947624,71128204,1581,1580,1578,1578,0,0,0,0,0,0,0,0,0,0
1708794526.79943609,71228164,1581,1581,1578,1578,0,0,0,0,0,0,0,0,0,0
1708794526.90022922,71328957,1580,1580,1576,1577,0,0,0,0,0,0,0,0,0,0
1708794527.00018907,71428917,1581,1581,1577,1577,0,0,0,0,0,0,0,0,0,0
1708794527.10014915,71528877,1581,1581,1578,1578,0,0,0,0,0,0,0,0,0,0
1708794527.20010924,71628837,1580,1580,1578,1578,0,0,0,0,0,0,0,0,0,0
1708794527.30006909,71728797,1580,1580,1578,1579,0,0,0,0,0,0,0,0,0,0
1708794527.40002918,71828757,1581,1581,1581,1581,0,0,0,0,0,0,0,0,0,0
1708794527.49998903,71928717,1580,1581,1581,1581,0,0,0,0,0,0,0,0,0,0
1708794527.59994912,72028677,1579,1580,1580,1580,0,0,0,0,0,0,0,0,0,0
1708794527.69990921,72128637,1580,1580,1581,1581,0,0,0,0,0,0,0,0,0,0
1708794527.79986906,72228597,1580,1580,1581,1581,0,0,0,0,0,0,0,0,0,0
1708794527.89982915,72328557,1580,1579,1581,1581,0,0,0,0,0,0,0,0,0,0
1708794527.99978924,72428517,1579,1579,1580,1580,0,0,0,0,0,0,0,0,0,0
1708794528.09974909,72528477,1581,1581,1582,1582,0,0,0,0,0,0,0,0,0,0
1708794528.19970918,72628437,1580,1581,1581,1581,0,0,0,0,0,0,0,0,0,0
1708794528.29966903,72728397,1580,1581,1581,1581,0,0,0,0,0,0,0,0,0,0
1708794528.39962912,72828357,1580,1580,1580,1580,0,0,0,0,0,0,0,0,0,0
1708794528.49958920,72928317,1580,1580,1580,1580,0,0,0,0,0,0,0,0,0,0
1708794528.59954906,73028277,1581,1581,1581,1580,0,0,0,0,0,0,0,0,0,0
1708794528.69950914,73128237,1581,1581,1581,1581,0,0,0,0,0,0,0,0,0,0
1708794528.79946923,73228197,1581,1581,1580,1580,0,0,0,0,0,0,0,0,0,0
1708794528.89942908,73328157,1581,1581,1580,1580,0,0,0,0,0,0,0,0,0,0
1708794529.00022221,73428950,1581,1581,1580,1581,0,0,0,0,0,0,0,0,0,0
1708794529.10018206,73528910,1581,1582,1587,1574,0,0,0,0,0,0,0,0,0,0
1708794529.20014215,73628870,1580,1583,1586,1573,0,0,0,0,0,0,0,0,0,0
1708794529.30010223,73728830,1579,1582,1578,1573,0,0,0,0,0,0,0,0,0,0
1708794529.40006208,73828790,1577,1580,1568,1571,0,0,0,0,0,0,0,0,0,0
1708794529.50002217,73928750,1577,1579,1561,1568,0,0,0,0,0,0,0,0,0,0
1708794529.59998202,74028710,1578,1578,1556,1564,0,0,0,0,0,0,0,0,0,0
1708794529.69994211,74128670,1579,1579,1555,1559,0,0,0,0,0,0,0,0,0,0
1708794529.79990220,74228630,1580,1579,1555,1556,0,0,0,0,0,0,0,0,0,0
1708794529.89986205,74328590,1579,1579,1556,1554,0,0,0,0,0,0,0,0,0,0
1708794529.99982214,74428550,1579,1578,1556,1553,0,0,0,0,0,0,0,0,0,0
1708794530.09978223,74528510,1578,1578,1557,1554,0,0,0,0,0,0,0,0,0,0
1708794530.19974208,74628470,1576,1577,1555,1553,0,0,0,0,0,0,0,0,0,0
1708794530.29970217,74728430,1575,1577,1554,1554,0,0,0,0,0,0,0,0,0,0
1708794530.39966202,74828390,1575,1577,1553,1553,0,0,0,0,0,0,0,0,0,0
1708794530.49962211,74928350,1575,1577,1552,1553,0,0,0,0,0,0,0,0,0,0
1708794530.59958220,75028310,1577,1578,1550,1551,0,0,0,0,0,0,0,0,0,0
1708794530.69954205,75128270,1579,1579,1549,1549,0,0,0,0,0,0,0,0,0,0
1708794530.79950213,75228230,1580,1581,1546,1545,0,0,0,0,0,0,0,0,0,0
1708794530.89946222,75328190,1583,1584,1544,1543,0,0,0,0,0,0,0,0,0,0
1708794531.00025511,75428983,1585,1586,1541,1540,0,0,0,0,0,0,0,0,0,0
1708794531.10021520,75528943,1588,1589,1539,1540,0,0,0,0,0,0,0,0,0,0
1708794531.20017505,75628903,1590,1591,1537,1537,0,0,0,0,0,0,0,0,0,0
1708794531.30013514,75728863,1592,1592,1536,1537,0,0,0,0,0,0,0,0,0,0
1708794531.40009522,75828823,1593,1593,1536,1538,0,0,0,0,0,0,0,0,0,0
1708794531.50005507,75928783,1593,1593,1538,1540,0,0,0,0,0,0,0,0,0,0
1708794531.60001516,76028743,1591,1591,1540,1544,0,0,0,0,0,0,0,0,0,0
1708794531.69997525,76128703,1588,1586,1546,1549,0,0,0,0,0,0,0,0,0,0
1708794531.79993510,76228663,1583,1580,1554,1557,0,0,0,0,0,0,0,0,0,0
1708794531.89989519,76328623,1575,1570,1564,1566,0,0,0,0,0,0,0,0,0,0
1708794531.99985504,76428583,1566,1561,1576,1578,0,0,0,0,0,0,0,0,0,0
1708794532.09981513,76528543,1555,1551,1588,1589,0,0,0,0,0,0,0,0,0,0
1708794532.19977522,76628503,1545,1544,1599,1599,0,0,0,0,0,0,0,0,0,0
1708794532.29973507,76728463,1538,1537,1607,1607,0,0,0,0,0,0,0,0,0,0
1708794532.39969516,76828423,1533,1534,1612,1611,0,0,0,0,0,0,0,0,0,0
1708794532.49965525,76928383,1531,1533,1613,1612,0,0,0,0,0,0,0,0,0,0
1708794532.59961510,77028343,1535,1537,1612,1612,0,0,0,0,0,0,0,0,0,0
1708794532.69957519,77128303,1540,1542,1608,1607,0,0,0,0,0,0,0,0,0,0
1708794532.79953504,77228263,1547,1549,1602,1602,0,0,0,0,0,0,0,0,0,0
1708794532.89949512,77328223,1556,1556,1596,1595,0,0,0,0,0,0,0,0,0,0
1708794532.99945521,77428183,1565,1564,1588,1588,0,0,0,0,0,0,0,0,0,0
1708794533.10024810,77528976,1571,1570,1581,1580,0,0,0,0,0,0,0,0,0,0
1708794533.20020819,77628936,1578,1577,1576,1575,0,0,0,0,0,0,0,0,0,0
1708794533.30016804,77728896,1583,1582,1572,1571,0,0,0,0,0,0,0,0,0,0
1708794533.40012813,77828856,1585,1585,1568,1569,0,0,0,0,0,0,0,0,0,0
1708794533.50008821,77928816,1588,1586,1568,1568,0,0,0,0,0,0,0,0,0,0
1708794533.60004807,78028776,1586,1585,1567,1567,0,0,0,0,0,0,0,0,0,0
1708794533.70000815,78128736,1585,1584,1569,1569,0,0,0,0,0,0,0,0,0,0
1708794533.79996824,78228696,1584,1583,1572,1572,0,0,0,0,0,0,0,0,0,0
1708794533.89992809,78328656,1581,1581,1575,1574,0,0,0,0,0,0,0,0,0,0
1708794533.99988818,78428616,1579,1578,1577,1577,0,0,0,0,0,0,0,0,0,0
1708794534.09984803,78528576,1576,1576,1579,1579,0,0,0,0,0,0,0,0,0,0
1708794534.19980812,78628536,1574,1575,1582,1582,0,0,0,0,0,0,0,0,0,0
1708794534.29976821,78728496,1573,1574,1583,1583,0,0,0,0,0,0,0,0,0,0
1708794534.39972806,78828456,1573,1573,1584,1583,0,0,0,0,0,0,0,0,0,0
1708794534.49968815,78928416,1573,1573,1583,1583,0,0,0,0,0,0,0,0,0,0
1708794534.59964824,79028376,1573,1574,1582,1583,0,0,0,0,0,0,0,0,0,0
1708794534.69960809,79128336,1574,1574,1581,1581,0,0,0,0,0,0,0,0,0,0
1708794534.79956818,79228296,1575,1575,1580,1580,0,0,0,0,0,0,0,0,0,0
1708794534.89952803,79328256,1578,1577,1580,1580,0,0,0,0,0,0,0,0,0,0
1708794534.99948812,79428216,1579,1579,1579,1579,0,0,0,0,0,0,0,0,0,0
1708794535.09944820,79528176,1580,1579,1578,1578,0,0,0,0,0,0,0,0,0,0
1708794535.20024109,79628969,1580,1580,1577,1578,0,0,0,0,0,0,0,0,0,0
1708794535.30020118,79728929,1580,1580,1577,1577,0,0,0,0,0,0,0,0,0,0
1708794535.40016103,79828889,1581,1581,1577,1577,0,0,0,0,0,0,0,0,0,0
1708794535.50012112,79928849,1582,1582,1579,1578,0,0,0,0,0,0,0,0,0,0
1708794535.60008121,80028809,1582,1582,1578,1578,0,0,0,0,0,0,0,0,0,0
1708794535.70004106,80128769,1581,1580,1578,1578,0,0,0,0,0,0,0,0,0,0
1708794535.80000114,80228729,1580,1581,1579,1579,0,0,0,0,0,0,0,0,0,0
1708794535.89996123,80328689,1580,1580,1579,1579,0,0,0,0,0,0,0,0,0,0
1708794535.99992108,80428649,1580,1580,1580,1580,0,0,0,0,0,0,0,0,0,0
1708794536.09988117,80528609,1580,1580,1580,1581,0,0,0,0,0,0,0,0,0,0
1708794536.19984102,80628569,1579,1579,1581,1580,0,0,0,0,0,0,0,0,0,0
1708794536.29980111,80728529,1580,1580,1581,1581,0,0,0,0,0,0,0,0,0,0
1708794536.39976120,80828489,1580,1580,1581,1582,0,0,0,0,0,0,0,0,0,0
1708794536.49972105,80928449,1580,1581,1582,1582,0,0,0,0,0,0,0,0,0,0
1708794536.59968114,81028409,1581,1581,1582,1582,0,0,0,0,0,0,0,0,0,0
1708794536.69964123,81128369,1580,1580,1581,1581,0,0,0,0,0,0,0,0,0,0
1708794536.79960108,81228329,1582,1582,1582,1582,0,0,0,0,0,0,0,0,0,0
1708794536.89956117,81328289,1582,1582,1582,1582,0,0,0,0,0,0,0,0,0,0
1708794536.99952102,81428249,1582,1581,1583,1579,0,0,0,0,0,0,0,0,0,0
1708794537.09948111,81528209,1582,1583,1588,1573,0,0,0,0,0,0,0,0,0,0
1708794537.19944119,81628169,1581,1581,1584,1575,0,0,0,0,0,0,0,0,0,0
1708794537.30023408,81728962,1579,1578,1577,1577,0,0,0,0,0,0,0,0,0,0
1708794537.40019417,81828922,1576,1575,1571,1577,0,0,0,0,0,0,0,0,0,0
1708794537.50015402,81928882,1572,1571,1567,1574,0,0,0,0,0,0,0,0,0,0
1708794537.60011411,82028842,1569,1569,1565,1571,0,0,0,0,0,0,0,0,0,0
1708794537.70007420,82128802,1567,1567,1565,1568,0,0,0,0,0,0,0,0,0,0
1708794537.80003405,82228762,1566,1566,1566,1566,0,0,0,0,0,0,0,0,0,0
1708794537.89999413,82328722,1566,1565,1567,1565,0,0,0,0,0,0,0,0,0,0
1708794537.99995422,82428682,1564,1564,1566,1563,0,0,0,0,0,0,0,0,0,0
1708794538.09991407,82528642,1564,1564,1566,1563,0,0,0,0,0,0,0,0,0,0
1708794538.19987416,82628602,1564,1564,1566,1564,0,0,0,0,0,0,0,0,0,0
1708794538.29983425,82728562,1563,1562,1563,1563,0,0,0,0,0,0,0,0,0,0
1708794538.39979410,82828522,1562,1562,1563,1563,0,0,0,0,0,0,0,0,0,0
1708794538.49975419,82928482,1562,1563,1563,1563,0,0,0,0,0,0,0,0,0,0
1708794538.59971404,83028442,1561,1561,1561,1562,0,0,0,0,0,0,0,0,0,0
1708794538.69967413,83128402,1561,1561,1561,1562,0,0,0,0,0,0,0,0,0,0
1708794538.79963422,83228362,1561,1561,1561,1560,0,0,0,0,0,0,0,0,0,0
1708794538.89959407,83328322,1560,1560,1560,1559,0,0,0,0,0,0,0,0,0,0
1708794538.99955416,83428282,1558,1559,1559,1558,0,0,0,0,0,0,0,0,0,0
1708794539.09951425,83528242,1558,1558,1558,1557,0,0,0,0,0,0,0,0,0,0
1708794539.19947410,83628202,1557,1557,1557,1557,0,0,0,0,0,0,0,0,0,0
1708794539.29943419,83728162,1558,1558,1558,1558,0,0,0,0,0,0,0,0,0,0
1708794539.40022707,83828955,1557,1557,1558,1556,0,0,0,0,0,0,0,0,0,0
1708794539.50018716,83928915,1558,1558,1558,1557,0,0,0,0,0,0,0,0,0,0
1708794539.60014725,84028875,1558,1558,1559,1557,0,0,0,0,0,0,0,0,0,0
1708794539.70010710,84128835,1557,1558,1559,1557,0,0,0,0,0,0,0,0,0,0
1708794539.80006719,84228795,1558,1557,1559,1557,0,0,0,0,0,0,0,0,0,0
1708794539.90002704,84328755,1559,1559,1558,1560,0,0,0,0,0,0,0,0,0,0
1708794539.99998713,84428715,1559,1559,1557,1562,0,0,0,0,0,0,0,0,0,0
1708794540.09994721,84528675,1560,1560,1557,1563,0,0,0,0,0,0,0,0,0,0
1708794540.19990706,84628635,1559,1559,1557,1561,0,0,0,0,0,0,0,0,0,0
1708794540.29986715,84728595,1560,1560,1559,1562,0,0,0,0,0,0,0,0,0,0
1708794540.39982724,84828555,1559,1558,1558,1559,0,0,0,0,0,0,0,0,0,0
1708794540.49978709,84928515,1555,1555,1555,1556,0,0,0,0,0,0,0,0,0,0
1708794540.59974718,85028475,1551,1550,1551,1550,0,0,0,0,0,0,0,0,0,0
1708794540.69970703,85128435,1544,1544,1544,1544,0,0,0,0,0,0,0,0,0,0
1708794540.79966712,85228395,1537,1537,1537,1537,0,0,0,0,0,0,0,0,0,0
1708794540.89962721,85328355,1530,1530,1530,1530,0,0,0,0,0,0,0,0,0,0
1708794540.99958706,85428315,1523,1523,1523,1523,0,0,0,0,0,0,0,0,0,0
1708794541.09954715,85528275,1521,1521,1521,1522,0,0,0,0,0,0,0,0,0,0
1708794541.19950724,85628235,1520,1520,1520,1520,0,0,0,0,0,0,0,0,0,0
1708794541.29946709,85728195,1520,1520,1520,1521,0,0,0,0,0,0,0,0,0,0
1708794541.39942718,85828155,1524,1524,1524,1524,0,0,0,0,0,0,0,0,0,0
1708794541.50022006,85928948,1528,1528,1528,1529,0,0,0,0,0,0,0,0,0,0
1708794541.60018015,86028908,1532,1532,1532,1533,0,0,0,0,0,0,0,0,0,0
1708794541.70014024,86128868,1538,1538,1538,1538,0,0,0,0,0,0,0,0,0,0
1708794541.80010009,86228828,1541,1541,1541,1541,0,0,0,0,0,0,0,0,0,0
1708794541.90006018,86328788,1542,1542,1542,1542,0,0,0,0,0,0,0,0,0,0
1708794542.00002003,86428748,1543,1543,1544,1543,0,0,0,0,0,0,0,0,0,0
1708794542.09998012,86528708,1545,1545,1545,1545,0,0,0,0,0,0,0,0,0,0
1708794542.19994020,86628668,1546,1546,1546,1545,0,0,0,0,0,0,0,0,0,0
1708794542.29990005,86728628,1545,1545,1545,1545,0,0,0,0,0,0,0,0,0,0
1708794542.39986014,86828588,1546,1547,1546,1547,0,0,0,0,0,0,0,0,0,0
1708794542.49982023,86928548,1547,1546,1546,1547,0,0,0,0,0,0,0,0,0,0
1708794542.59978008,87028508,1547,1547,1547,1546,0,0,0,0,0,0,0,0,0,0
1708794542.69974017,87128468,1546,1546,1547,1546,0,0,0,0,0,0,0,0,0,0
1708794542.79970002,87228428,1547,1547,1547,1547,0,0,0,0,0,0,0,0,0,0
1708794542.89966011,87328388,1545,1545,1545,1545,0,0,0,0,0,0,0,0,0,0
1708794542.99962020,87428348,1545,1546,1546,1546,0,0,0,0,0,0,0,0,0,0
1708794543.09958005,87528308,1546,1545,1546,1545,0,0,0,0,0,0,0,0,0,0
1708794543.19954014,87628268,1546,1545,1546,1545,0,0,0,0,0,0,0,0,0,0
1708794543.29950023,87728228,1545,1545,1545,1544,0,0,0,0,0,0,0,0,0,0
1708794543.39946008,87828188,1544,1544,1544,1544,0,0,0,0,0,0,0,0,0,0
1708794543.50025320,87928981,1543,1544,1544,1544,0,0,0,0,0,0,0,0,0,0
1708794543.60021305,88028941,1544,1544,1544,1544,0,0,0,0,0,0,0,0,0,0
1708794543.70017314,88128901,1543,1544,1544,1544,0,0,0,0,0,0,0,0,0,0
1708794543.80013323,88228861,1544,1544,1544,1544,0,0,0,0,0,0,0,0,0,0
1708794543.90009308,88328821,1544,1544,1544,1544,0,0,0,0,0,0,0,0,0,0
1708794544.00005317,88428781,1544,1545,1545,1544,0,0,0,0,0,0,0,0,0,0
1708794544.10001302,88528741,1544,1544,1544,1544,0,0,0,0,0,0,0,0,0,0
1708794544.19997311,88628701,1544,1544,1544,1543,0,0,0,0,0,0,0,0,0,0
1708794544.29993320,88728661,1545,1544,1545,1545,0,0,0,0,0,0,0,0,0,0
1708794544.39989305,88828621,1544,1544,1544,1544,0,0,0,0,0,0,0,0,0,0
1708794544.49985313,88928581,1544,1544,1544,1544,0,0,0,0,0,0,0,0,0,0
1708794544.59981322,89028541,1544,1544,1544,1544,0,0,0,0,0,0,0,0,0,0
1708794544.69977307,89128501,1543,1544,1544,1544,0,0,0,0,0,0,0,0,0,0
1708794544.79973316,89228461,1544,1545,1544,1545,0,0,0,0,0,0,0,0,0,0
1708794544.89969325,89328421,1545,1544,1545,1545,0,0,0,0,0,0,0,0,0,0
1708794544.99965310,89428381,1543,1543,1544,1543,0,0,0,0,0,0,0,0,0,0
1708794545.09961319,89528341,1544,1543,1543,1544,0,0,0,0,0,0,0,0,0,0
1708794545.19957304,89628301,1544,1544,1544,1544,0,0,0,0,0,0,0,0,0,0
1708794545.29953313,89728261,1545,1544,1544,1544,0,0,0,0,0,0,0,0,0,0
1708794545.39949322,89828221,1544,1543,1544,1543,0,0,0,0,0,0,0,0,0,0
1708794545.49945307,89928181,1543,1544,1544,1544,0,0,0,0,0,0,0,0,0,0
1708794545.60024619,90028974,1544,1544,1544,1544,0,0,0,0,0,0,0,0,0,0
1708794545.70020604,90128934,1544,1544,1545,1544,0,0,0,0,0,0,0,0,0,0
1708794545.80016613,90228894,1543,1544,1544,1543,0,0,0,0,0,0,0,0,0,0
1708794545.90012622,90328854,1543,1543,1543,1543,0,0,0,0,0,0,0,0,0,0
1708794546.00008607,90428814,1544,1544,1544,1544,0,0,0,0,0,0,0,0,0,0
1708794546.10004616,90528774,1544,1543,1544,1544,0,0,0,0,0,0,0,0,0,0
1708794546.20000625,90628734,1545,1544,1544,1545,0,0,0,0,0,0,0,0,0,0
1708794546.29996610,90728694,1546,1545,1545,1546,0,0,0,0,0,0,0,0,0,0
1708794546.39992619,90828654,1545,1544,1544,1545,0,0,0,0,0,0,0,0,0,0
1708794546.49988604,90928614,1545,1545,1545,1545,0,0,0,0,0,0,0,0,0,0
1708794546.59984612,91028574,1545,1545,1545,1545,0,0,0,0,0,0,0,0,0,0
1708794546.69980621,91128534,1545,1545,1545,1545,0,0,0,0,0,0,0,0,0,0
1708794546.79976606,91228494,1544,1544,1544,1544,0,0,0,0,0,0,0,0,0,0
1708794546.89972615,91328454,1546,1545,1545,1546,0,0,0,0,0,0,0,0,0,0
1708794546.99968624,91428414,1544,1544,1544,1544,0,0,0,0,0,0,0,0,0,0
1708794547.09964609,91528374,1545,1545,1545,1545,0,0,0,0,0,0,0,0,0,0
1708794547.19960618,91628334,1545,1545,1545,1545,0,0,0,0,0,0,0,0,0,0
1708794547.29956603,91728294,1545,1545,1545,1545,0,0,0,0,0,0,0,0,0,0
1708794547.39952612,91828254,1545,1545,1545,1545,0,0,0,0,0,0,0,0,0,0
1708794547.49948621,91928214,1544,1544,1544,1544,0,0,0,0,0,0,0,0,0,0
1708794547.59944606,92028174,1544,1543,1543,1544,0,0,0,0,0,0,0,0,0,0
1708794547.70023918,92128967,1544,1544,1543,1544,0,0,0,0,0,0,0,0,0,0
1708794547.80019903,92228927,1543,1543,1543,1543,0,0,0,0,0,0,0,0,0,0
1708794547.90015912,92328887,1544,1544,1545,1544,0,0,0,0,0,0,0,0,0,0
1708794548.00011921,92428847,1544,1544,1544,1543,0,0,0,0,0,0,0,0,0,0
1708794548.10007906,92528807,1543,1543,1543,1543,0,0,0,0,0,0,0,0,0,0
1708794548.20003915,92628767,1543,1544,1544,1544,0,0,0,0,0,0,0,0,0,0
1708794548.29999924,92728727,1544,1543,1544,1544,0,0,0,0,0,0,0,0,0,0
1708794548.39995909,92828687,1545,1544,1545,1544,0,0,0,0,0,0,0,0,0,0
1708794548.49991918,92928647,1545,1545,1545,1545,0,0,0,0,0,0,0,0,0,0
1708794548.59987903,93028607,1545,1545,1545,1545,0,0,0,0,0,0,0,0,0,0
1708794548.69983912,93128567,1544,1544,1544,1544,0,0,0,0,0,0,0,0,0,0
1708794548.79979920,93228527,1544,1545,1544,1544,0,0,0,0,0,0,0,0,0,0
1708794548.89975905,93328487,1545,1545,1545,1545,0,0,0,0,0,0,0,0,0,0
1708794548.99971914,93428447,1545,1545,1545,1545,0,0,0,0,0,0,0,0,0,0
1708794549.09967923,93528407,1545,1545,1545,1545,0,0,0,0,0,0,0,0,0,0
1708794549.19963908,93628367,1544,1545,1545,1544,0,0,0,0,0,0,0,0,0,0
1708794549.29959917,93728327,1545,1544,1545,1545,0,0,0,0,0,0,0,0,0,0
1708794549.39955902,93828287,1544,1544,1544,1544,0,0,0,0,0,0,0,0,0,0
1708794549.49951911,93928247,1545,1544,1544,1545,0,0,0,0,0,0,0,0,0,0
1708794549.59947920,94028207,1544,1544,1544,1544,0,0,0,0,0,0,0,0,0,0
1708794549.69943905,94128167,1545,1545,1545,1545,0,0,0,0,0,0,0,0,0,0
1708794549.80023217,94228960,1544,1545,1544,1544,0,0,0,0,0,0,0,0,0,0
1708794549.90019202,94328920,1544,1544,1544,1544,0,0,0,0,0,0,0,0,0,0
1708794550.00015211,94428880,1543,1544,1544,1543,0,0,0,0,0,0,0,0,0,0
1708794550.10011220,94528840,1544,1544,1544,1544,0,0,0,0,0,0,0,0,0,0
1708794550.20007205,94628800,1545,1544,1544,1544,0,0,0,0,0,0,0,0,0,0
1708794550.30003214,94728760,1544,1544,1544,1544,0,0,0,0,0,0,0,0,0,0
1708794550.39999223,94828720,1544,1545,1544,1544,0,0,0,0,0,0,0,0,0,0
1708794550.49995208,94928680,1545,1545,1544,1545,0,0,0,0,0,0,0,0,0,0
1708794550.59991217,95028640,1543,1543,1543,1544,0,0,0,0,0,0,0,0,0,0
1708794550.69987202,95128600,1544,1544,1544,1544,0,0,0,0,0,0,0,0,0,0
1708794550.79983211,95228560,1410,1409,1410,1410,0,0,0,0,0,0,0,0,0,0
1708794550.89979219,95328520,1273,1269,1270,1272,0,0,0,0,0,0,0,0,0,0
1708794550.99975204,95428480,1220,1217,1218,1219,0,0,0,0,0,0,0,0,0,0
1708794551.09971213,95528440,1199,1196,1197,1198,0,0,0,0,0,0,0,0,0,0
1708794551.19967222,95628400,1162,1160,1161,1162,0,0,0,0,0,0,0,0,0,0
1708794551.29963207,95728360,1153,1150,1150,1152,0,0,0,0,0,0,0,0,0,0
1708794551.39959216,95828320,1152,1150,1151,1151,0,0,0,0,0,0,0,0,0,0
1708794551.49955225,95928280,1183,1150,1150,1183,0,0,0,0,0,0,0,0,0,0
1708794551.59951210,96028240,1174,1150,1150,1174,0,0,0,0,0,0,0,0,0,0
1708794551.69947219,96128200,1171,1150,1151,1170,0,0,0,0,0,0,0,0,0,0
1708794551.79943204,96228160,1171,1150,1151,1171,0,0,0,0,0,0,0,0,0,0
1708794551.90022516,96328953,1173,1150,1151,1173,0,0,0,0,0,0,0,0,0,0
1708794552.00018525,96428913,1175,1150,1151,1174,0,0,0,0,0,0,0,0,0,0
1708794552.10014510,96528873,1177,1150,1151,1176,0,0,0,0,0,0,0,0,0,0
1708794552.20010519,96628833,1177,1150,1151,1177,0,0,0,0,0,0,0,0,0,0
1708794552.30006504,96728793,1164,1150,1151,1164,0,0,0,0,0,0,0,0,0,0
1708794552.40002513,96828753,1166,1150,1151,1165,0,0,0,0,0,0,0,0,0,0
1708794552.49998522,96928713,1167,1150,1151,1166,0,0,0,0,0,0,0,0,0,0
1708794552.59994507,97028673,1168,1150,1151,1167,0,0,0,0,0,0,0,0,0,0
1708794552.69990516,97128633,1168,1150,1151,1167,0,0,0,0,0,0,0,0,0,0
1708794552.79986525,97228593,1000,1000,1000,1000,0,0,0,0,0,0,0,0,0,0
1708794552.89982510,97328553,1000,1000,1000,1000,0,0,0,0,0,0,0,0,0,0
1708794552.99978518,97428513,1000,1000,1000,1000,0,0,0,0,0,0,0,0,0,0
1708794553.09974504,97528473,1000,1000,1000,1000,0,0,0,0,0,0,0,0,0,0
1708794553.19970512,97628433,1000,1000,1000,1000,0,0,0,0,0,0,0,0,0,0
1708794553.29966521,97728393,1000,1000,1000,1000,0,0,0,0,0,0,0,0,0,0
1708794553.39962506,97828353,1000,1000,1000,1000,0,0,0,0,0,0,0,0,0,0
1708794553.49958515,97928313,1000,1000,1000,1000,0,0,0,0,0,0,0,0,0,0
1708794553.59954524,98028273,1000,1000,1000,1000,0,0,0,0,0,0,0,0,0,0
1708794553.69950509,98128233,1000,1000,1000,1000,0,0,0,0,0,0,0,0,0,0
1708794553.79946518,98228193,1000,1000,1000,1000,0,0,0,0,0,0,0,0,0,0
1708794553.90025806,98328986,1000,1000,1000,1000,0,0,0,0,0,0,0,0,0,0
1708794554.00021815,98428946,1000,1000,1000,1000,0,0,0,0,0,0,0,0,0,0
1708794554.10017824,98528906,1000,1000,1000,1000,0,0,0,0,0,0,0,0,0,0
1708794554.20013809,98628866,1000,1000,1000,1000,0,0,0,0,0,0,0,0,0,0
1708794554.30009818,98728826,1000,1000,1000,1000,0,0,0,0,0,0,0,0,0,0
1708794554.40005803,98828786,1000,1000,1000,1000,0,0,0,0,0,0,0,0,0,0
1708794554.50001812,98928746,1000,1000,1000,1000,0,0,0,0,0,0,0,0,0,0
1708794554.59997821,99028706,1000,1000,1000,1000,0,0,0,0,0,0,0,0,0,0
1708794554.69993806,99128666,1000,1000,1000,1000,0,0,0,0,0,0,0,0,0,0
1708794554.79989815,99228626,1000,1000,1000,1000,0,0,0,0,0,0,0,0,0,0
1708794554.89985824,99328586,1000,1000,1000,1000,0,0,0,0,0,0,0,0,0,0
1708794554.99981809,99428546,1000,1000,1000,1000,0,0,0,0,0,0,0,0,0,0
1708794555.09977818,99528506,1000,1000,1000,1000,0,0,0,0,0,0,0,0,0,0
1708794555.19973803,99628466,1000,1000,1000,1000,0,0,0,0,0,0,0,0,0,0
1708794555.29969811,99728426,1000,1000,1000,1000,0,0,0,0,0,0,0,0,0,0
1708794555.39965820,99828386,1000,1000,1000,1000,0,0,0,0,0,0,0,0,0,0
1708794555.49961805,99928346,1000,1000,1000,1000,0,0,0,0,0,0,0,0,0,0
1708794555.59957814,100028306,1000,1000,1000,1000,0,0,0,0,0,0,0,0,0,0
1708794555.69953823,100128266,1000,1000,1000,1000,0,0,0,0,0,0,0,0,0,0
1708794555.79949808,100228226,1000,1000,1000,1000,0,0,0,0,0,0,0,0,0,0
1708794555.89945817,100328186,1000,1000,1000,1000,0,0,0,0,0,0,0,0,0,0
1708794556.00025105,100428979,1000,1000,1000,1000,0,0,0,0,0,0,0,0,0,0
1708794556.10021114,100528939,1000,1000,1000,1000,0,0,0,0,0,0,0,0,0,0
1708794556.20017123,100628899,1000,1000,1000,1000,0,0,0,0,0,0,0,0,0,0
1708794556.30013108,100728859,1000,1000,1000,1000,0,0,0,0,0,0,0,0,0,0
1708794556.40009117,100828819,1000,1000,1000,1000,0,0,0,0,0,0,0,0,0,0
1708794556.50005102,100928779,1000,1000,1000,1000,0,0,0,0,0,0,0,0,0,0
1708794556.60001111,101028739,1000,1000,1000,1000,0,0,0,0,0,0,0,0,0,0
1708794556.69997120,101128699,1000,1000,1000,1000,0,0,0,0,0,0,0,0,0,0
1708794556.79993105,101228659,1000,1000,1000,1000,0,0,0,0,0,0,0,0,0,0
1708794556.89989114,101328619,1000,1000,1000,1000,0,0,0,0,0,0,0,0,0,0
1708794556.99985123,101428579,1000,1000,1000,1000,0,0,0,0,0,0,0,0,0,0
1708794557.09981108,101528539,1000,1000,1000,1000,0,0,0,0,0,0,0,0,0,0
1708794557.19977117,101628499,1000,1000,1000,1000,0,0,0,0,0,0,0,0,0,0
1708794557.29973102,101728459,1000,1000,1000,1000,0,0,0,0,0,0,0,0,0,0
1708794557.39969110,101828419,1000,1000,1000,1000,0,0,0,0,0,0,0,0,0,0
1708794557.49965119,101928379,1000,1000,1000,1000,0,0,0,0,0,0,0,0,0,0
1708794557.59961104,102028339,1000,1000,1000,1000,0,0,0,0,0,0,0,0,0,0
1708794557.69957113,102128299,1000,1000,1000,1000,0,0,0,0,0,0,0,0,0,0
1708794557.79953122,102228259,1000,1000,1000,1000,0,0,0,0,0,0,0,0,0,0
1708794557.89949107,102328219,1000,1000,1000,1000,0,0,0,0,0,0,0,0,0,0
1708794557.99945116,102428179,1000,1000,1000,1000,0,0,0,0,0,0,0,0,0,0
1708794558.10024405,102528972,1000,1000,1000,1000,0,0,0,0,0,0,0,0,0,0
1708794558.20020413,102628932,1000,1000,1000,1000,0,0,0,0,0,0,0,0,0,0
1708794558.30016422,102728892,1000,1000,1000,1000,0,0,0,0,0,0,0,0,0,0
1708794558.40012407,102828852,1000,1000,1000,1000,0,0,0,0,0,0,0,0,0,0
1708794558.50008416,102928812,1000,1000,1000,1000,0,0,0,0,0,0,0,0,0,0
1708794558.60004425,103028772,1000,1000,1000,1000,0,0,0,0,0,0,0,0,0,0
1708794558.70000410,103128732,1000,1000,1000,1000,0,0,0,0,0,0,0,0,0,0
1708794558.79996419,103228692,1000,1000,1000,1000,0,0,0,0,0,0,0,0,0,0
1708794558.89992404,103328652,1000,1000,1000,1000,0,0,0,0,0,0,0,0,0,0
1708794558.99988413,103428612,1000,1000,1000,1000,0,0,0,0,0,0,0,0,0,0
1708794559.09984422,103528572,1000,1000,1000,1000,0,0,0,0,0,0,0,0,0,0
1708794559.19980407,103628532,1000,1000,1000,1000,0,0,0,0,0,0,0,0,0,0
1708794559.29976416,103728492,1000,1000,1000,1000,0,0,0,0,0,0,0,0,0,0
1708794559.39972425,103828452,1000,1000,1000,1000,0,0,0,0,0,0,0,0,0,0
1708794559.49968410,103928412,1000,1000,1000,1000,0,0,0,0,0,0,0,0,0,0
1708794559.59964418,104028372,1000,1000,1000,1000,0,0,0,0,0,0,0,0,0,0
1708794559.69960403,104128332,1000,1000,1000,1000,0,0,0,0,0,0,0,0,0,0
1708794559.79956412,104228292,1000,1000,1000,1000,0,0,0,0,0,0,0,0,0,0
1708794559.89952421,104328252,1000,1000,1000,1000,0,0,0,0,0,0,0,0,0,0
1708794559.99948406,104428212,1000,1000,1000,1000,0,0,0,0,0,0,0,0,0,0
1708794560.09944415,104528172,1000,1000,1000,1000,0,0,0,0,0,0,0,0,0,0
1708794560.20023704,104628965,1000,1000,1000,1000,0,0,0,0,0,0,0,0,0,0
1708794560.30019712,104728925,1000,1000,1000,1000,0,0,0,0,0,0,0,0,0,0
1708794560.40015721,104828885,1000,1000,1000,1000,0,0,0,0,0,0,0,0,0,0
1708794560.50011706,104928845,1000,1000,1000,1000,0,0,0,0,0,0,0,0,0,0
1708794560.60007715,105028805,1000,1000,1000,1000,0,0,0,0,0,0,0,0,0,0
1708794560.70003724,105128765,1000,1000,1000,1000,0,0,0,0,0,0,0,0,0,0
1708794560.79999709,105228725,1000,1000,1000,1000,0,0,0,0,0,0,0,0,0,0
1708794560.89995718,105328685,1000,1000,1000,1000,0,0,0,0,0,0,0,0,0,0
1708794560.99991703,105428645,1000,1000,1000,1000,0,0,0,0,0,0,0,0,0,0
1708794561.09987712,105528605,1000,1000,1000,1000,0,0,0,0,0,0,0,0,0,0
1708794561.19983721,105628565,1000,1000,1000,1000,0,0,0,0,0,0,0,0,0,0
1708794561.29979706,105728525,1000,1000,1000,1000,0,0,0,0,0,0,0,0,0,0
1708794561.39975715,105828485,1000,1000,1000,1000,0,0,0,0,0,0,0,0,0,0
1708794561.49971724,105928445,1000,1000,1000,1000,0,0,0,0,0,0,0,0,0,0
1708794561.59967709,106028405,1000,1000,1000,1000,0,0,0,0,0,0,0,0,0,0
1708794561.69963717,106128365,1000,1000,1000,1000,0,0,0,0,0,0,0,0,0,0
1708794561.79959702,106228325,1000,1000,1000,1000,0,0,0,0,0,0,0,0,0,0
1708794561.89955711,106328285,1000,1000,1000,1000,0,0,0,0,0,0,0,0,0,0
1708794561.99951720,106428245,1000,1000,1000,1000,0,0,0,0,0,0,0,0,0,0
1708794562.09947705,106528205,1000,1000,1000,1000,0,0,0,0,0,0,0,0,0,0
1708794562.19943714,106628165,1000,1000,1000,1000,0,0,0,0,0,0,0,0,0,0
1708794562.30023003,106728958,1000,1000,1000,1000,0,0,0,0,0,0,0,0,0,0
1708794562.40019011,106828918,1000,1000,1000,1000,0,0,0,0,0,0,0,0,0,0
1708794562.50015020,106928878,1000,1000,1000,1000,0,0,0,0,0,0,0,0,0,0
1708794562.60011005,107028838,1000,1000,1000,1000,0,0,0,0,0,0,0,0,0,0
1708794562.70007014,107128798,1000,1000,1000,1000,0,0,0,0,0,0,0,0,0,0
1708794562.80003023,107228758,1000,1000,1000,1000,0,0,0,0,0,0,0,0,0,0
1708794562.89999008,107328718,1000,1000,1000,1000,0,0,0,0,0,0,0,0,0,0
1708794562.99995017,107428678,1000,1000,1000,1000,0,0,0,0,0,0,0,0,0,0
1708794563.09991002,107528638,1000,1000,1000,1000,0,0,0,0,0,0,0,0,0,0
1708794563.19987011,107628598,1000,1000,1000,1000,0,0,0,0,0,0,0,0,0,0
1708794563.29983020,107728558,1000,1000,1000,1000,0,0,0,0,0,0,0,0,0,0
1708794563.39979005,107828518,1000,1000,1000,1000,0,0,0,0,0,0,0,0,0,0
1708794563.49975014,107928478,1000,1000,1000,1000,0,0,0,0,0,0,0,0,0,0
1708794563.59971023,108028438,1000,1000,1000,1000,0,0,0,0,0,0,0,0,0,0
1708794563.69967008,108128398,1000,1000,1000,1000,0,0,0,0,0,0,0,0,0,0
1708794563.79963017,108228358,1000,1000,1000,1000,0,0,0,0,0,0,0,0,0,0
1708794563.89959025,108328318,1000,1000,1000,1000,0,0,0,0,0,0,0,0,0,0
1708794563.99955010,108428278,1000,1000,1000,1000,0,0,0,0,0,0,0,0,0,0
1708794564.09951019,108528238,1000,1000,1000,1000,0,0,0,0,0,0,0,0,0,0
1708794564.19947004,108628198,1000,1000,1000,1000,0,0,0,0,0,0,0,0,0,0
1708794564.29943013,108728158,1000,1000,1000,1000,0,0,0,0,0,0,0,0,0,0
1708794564.40022302,108828951,1000,1000,1000,1000,0,0,0,0,0,0,0,0,0,0
1708794564.50018311,108928911,1000,1000,1000,1000,0,0,0,0,0,0,0,0,0,0
1708794564.60014319,109028871,1000,1000,1000,1000,0,0,0,0,0,0,0,0,0,0
1708794564.70010304,109128831,1000,1000,1000,1000,0,0,0,0,0,0,0,0,0,0
1708794564.80006313,109228791,1000,1000,1000,1000,0,0,0,0,0,0,0,0,0,0
1708794564.90002322,109328751,1000,1000,1000,1000,0,0,0,0,0,0,0,0,0,0
1708794564.99998307,109428711,1000,1000,1000,1000,0,0,0,0,0,0,0,0,0,0
1708794565.09994316,109528671,1000,1000,1000,1000,0,0,0,0,0,0,0,0,0,0
1708794565.19990325,109628631,1000,1000,1000,1000,0,0,0,0,0,0,0,0,0,0
1708794565.29986310,109728591,1000,1000,1000,1000,0,0,0,0,0,0,0,0,0,0
1708794565.39982319,109828551,1000,1000,1000,1000,0,0,0,0,0,0,0,0,0,0
1708794565.49978304,109928511,1000,1000,1000,1000,0,0,0,0,0,0,0,0,0,0
1708794565.59974313,110028471,1000,1000,1000,1000,0,0,0,0,0,0,0,0,0,0
1708794565.69970322,110128431,1000,1000,1000,1000,0,0,0,0,0,0,0,0,0,0
1708794565.79966307,110228391,1000,1000,1000,1000,0,0,0,0,0,0,0,0,0,0
1708794565.89962316,110328351,1000,1000,1000,1000,0,0,0,0,0,0,0,0,0,0
1708794565.99958324,110428311,1000,1000,1000,1000,0,0,0,0,0,0,0,0,0,0
1708794566.09954309,110528271,1000,1000,1000,1000,0,0,0,0,0,0,0,0,0,0
1708794566.19950318,110628231,1000,1000,1000,1000,0,0,0,0,0,0,0,0,0,0
1708794566.29946303,110728191,1000,1000,1000,1000,0,0,0,0,0,0,0,0,0,0
1708794566.40025616,110828984,1000,1000,1000,1000,0,0,0,0,0,0,0,0,0,0
1708794566.50021625,110928944,1000,1000,1000,1000,0,0,0,0,0,0,0,0,0,0
1708794566.60017610,111028904,1000,1000,1000,1000,0,0,0,0,0,0,0,0,0,0
1708794566.70013618,111128864,1000,1000,1000,1000,0,0,0,0,0,0,0,0,0,0
1708794566.80009604,111228824,1000,1000,1000,1000,0,0,0,0,0,0,0,0,0,0
1708794566.90005612,111328784,1000,1000,1000,1000,0,0,0,0,0,0,0,0,0,0
1708794567.00001621,111428744,1000,1000,1000,1000,0,0,0,0,0,0,0,0,0,0
1708794567.09997606,111528704,1000,1000,1000,1000,0,0,0,0,0,0,0,0,0,0
1708794567.19993615,111628664,1000,1000,1000,1000,0,0,0,0,0,0,0,0,0,0
1708794567.29989624,111728624,1000,1000,1000,1000,0,0,0,0,0,0,0,0,0,0
1708794567.39985609,111828584,1000,1000,1000,1000,0,0,0,0,0,0,0,0,0,0
1708794567.49981618,111928544,1000,1000,1000,1000,0,0,0,0,0,0,0,0,0,0
1708794567.59977603,112028504,1000,1000,1000,1000,0,0,0,0,0,0,0,0,0,0
1708794567.69973612,112128464,1000,1000,1000,1000,0,0,0,0,0,0,0,0,0,0
