timestamp,TimeUS,C1,C2,C3,C4,C5,C6,C7,C8,C9,C10,C11,C12,C13,C14
1681745921.00000000,50228234,1000,1000,1000,1000,0,0,0,0,0,0,0,0,0,0
1681745921.09995985,50328194,1000,1000,1000,1000,0,0,0,0,0,0,0,0,0,0
1681745921.19991994,50428154,1000,1000,1000,1000,0,0,0,0,0,0,0,0,0,0
1681745921.30071306,50528947,1000,1000,1000,1000,0,0,0,0,0,0,0,0,0,0
1681745921.40067291,50628907,1000,1000,1000,1000,0,0,0,0,0,0,0,0,0,0
1681745921.50063300,50728867,1000,1000,1000,1000,0,0,0,0,0,0,0,0,0,0
1681745921.60059285,50828827,1000,1000,1000,1000,0,0,0,0,0,0,0,0,0,0
1681745921.70055294,50928787,1000,1000,1000,1000,0,0,0,0,0,0,0,0,0,0
1681745921.80051303,51028747,1000,1000,1000,1000,0,0,0,0,0,0,0,0,0,0
1681745921.90047288,51128707,1000,1000,1000,1000,0,0,0,0,0,0,0,0,0,0
1681745922.00043297,51228667,1000,1000,1000,1000,0,0,0,0,0,0,0,0,0,0
1681745922.10039306,51328627,1000,1000,1000,1000,0,0,0,0,0,0,0,0,0,0
1681745922.20035291,51428587,1000,1000,1000,1000,0,0,0,0,0,0,0,0,0,0
1681745922.30031300,51528547,1000,1000,1000,1000,0,0,0,0,0,0,0,0,0,0
1681745922.40027285,51628507,1000,1000,1000,1000,0,0,0,0,0,0,0,0,0,0
1681745922.50023293,51728467,1000,1000,1000,1000,0,0,0,0,0,0,0,0,0,0
1681745922.60019302,51828427,1000,1000,1000,1000,0,0,0,0,0,0,0,0,0,0
1681745922.70015287,51928387,1000,1000,1000,1000,0,0,0,0,0,0,0,0,0,0
1681745922.80011296,52028347,1000,1000,1000,1000,0,0,0,0,0,0,0,0,0,0
1681745922.90007305,52128307,1000,1000,1000,1000,0,0,0,0,0,0,0,0,0,0
1681745923.00003290,52228267,1023,1023,1023,1023,0,0,0,0,0,0,0,0,0,0
1681745923.09999299,52328227,1053,1053,1053,1053,0,0,0,0,0,0,0,0,0,0
1681745923.19995284,52428187,1083,1083,1083,1083,0,0,0,0,0,0,0,0,0,0
1681745923.30074596,52528980,1113,1113,1113,1113,0,0,0,0,0,0,0,0,0,0
1681745923.40070605,52628940,1143,1143,1143,1143,0,0,0,0,0,0,0,0,0,0
1681745923.50066590,52728900,1352,1346,1346,1352,0,0,0,0,0,0,0,0,0,0
1681745923.60062599,52828860,1542,1538,1538,1542,0,0,0,0,0,0,0,0,0,0
1681745923.70058584,52928820,1695,1691,1691,1695,0,0,0,0,0,0,0,0,0,0
1681745923.80054593,53028780,1826,1823,1823,1827,0,0,0,0,0,0,0,0,0,0
1681745923.90050602,53128740,1882,1878,1879,1883,0,0,0,0,0,0,0,0,0,0
1681745924.00046587,53228700,1836,1834,1834,1836,0,0,0,0,0,0,0,0,0,0
1681745924.10042596,53328660,1704,1704,1704,1703,0,0,0,0,0,0,0,0,0,0
1681745924.20038605,53428620,1626,1627,1627,1626,0,0,0,0,0,0,0,0,0,0
1681745924.30034590,53528580,1613,1614,1614,1613,0,0,0,0,0,0,0,0,0,0
1681745924.40030599,53628540,1623,1625,1625,1623,0,0,0,0,0,0,0,0,0,0
1681745924.50026584,53728500,1630,1631,1631,1630,0,0,0,0,0,0,0,0,0,0
1681745924.60022593,53828460,1628,1628,1628,1627,0,0,0,0,0,0,0,0,0,0
1681745924.70018601,53928420,1613,1612,1610,1615,0,0,0,0,0,0,0,0,0,0
1681745924.80014586,54028380,1601,1600,1593,1608,0,0,0,0,0,0,0,0,0,0
1681745924.90010595,54128340,1598,1598,1592,1603,0,0,0,0,0,0,0,0,0,0
1681745925.00006604,54228300,1600,1600,1598,1601,0,0,0,0,0,0,0,0,0,0
1681745925.10002589,54328260,1605,1605,1607,1604,0,0,0,0,0,0,0,0,0,0
1681745925.19998598,54428220,1612,1612,1616,1608,0,0,0,0,0,0,0,0,0,0
1681745925.29994583,54528180,1616,1617,1621,1612,0,0,0,0,0,0,0,0,0,0
1681745925.40073895,54628973,1605,1605,1612,1598,0,0,0,0,0,0,0,0,0,0
1681745925.50069904,54728933,1580,1580,1593,1568,0,0,0,0,0,0,0,0,0,0
1681745925.60065889,54828893,1568,1568,1575,1562,0,0,0,0,0,0,0,0,0,0
1681745925.70061898,54928853,1557,1557,1553,1561,0,0,0,0,0,0,0,0,0,0
1681745925.80057883,55028813,1548,1548,1537,1559,0,0,0,0,0,0,0,0,0,0
1681745925.90053892,55128773,1541,1540,1529,1551,0,0,0,0,0,0,0,0,0,0
1681745926.00049901,55228733,1534,1534,1526,1541,0,0,0,0,0,0,0,0,0,0
1681745926.10045886,55328693,1529,1528,1525,1531,0,0,0,0,0,0,0,0,0,0
1681745926.20041895,55428653,1528,1528,1529,1528,0,0,0,0,0,0,0,0,0,0
1681745926.30037904,55528613,1529,1529,1531,1527,0,0,0,0,0,0,0,0,0,0
1681745926.40033889,55628573,1532,1532,1536,1528,0,0,0,0,0,0,0,0,0,0
1681745926.50029898,55728533,1535,1535,1539,1531,0,0,0,0,0,0,0,0,0,0
1681745926.60025907,55828493,1539,1539,1541,1536,0,0,0,0,0,0,0,0,0,0
1681745926.70021892,55928453,1542,1542,1544,1541,0,0,0,0,0,0,0,0,0,0
1681745926.80017900,56028413,1545,1546,1545,1546,0,0,0,0,0,0,0,0,0,0
1681745926.90013885,56128373,1549,1549,1548,1551,0,0,0,0,0,0,0,0,0,0
1681745927.00009894,56228333,1551,1551,1549,1553,0,0,0,0,0,0,0,0,0,0
1681745927.10005903,56328293,1550,1549,1556,1560,0,0,0,0,0,0,0,0,0,0
1681745927.20001888,56428253,1552,1551,1561,1564,0,0,0,0,0,0,0,0,0,0
1681745927.29997897,56528213,1555,1556,1564,1565,0,0,0,0,0,0,0,0,0,0
1681745927.39993906,56628173,1559,1560,1565,1564,0,0,0,0,0,0,0,0,0,0
1681745927.50073195,56728966,1563,1564,1566,1564,0,0,0,0,0,0,0,0,0,0
1681745927.60069203,56828926,1566,1566,1565,1564,0,0,0,0,0,0,0,0,0,0
1681745927.70065188,56928886,1569,1570,1566,1565,0,0,0,0,0,0,0,0,0,0
1681745927.80061197,57028846,1571,1571,1565,1565,0,0,0,0,0,0,0,0,0,0
1681745927.90057206,57128806,1572,1571,1565,1565,0,0,0,0,0,0,0,0,0,0
1681745928.00053191,57228766,1572,1572,1566,1566,0,0,0,0,0,0,0,0,0,0
1681745928.10049200,57328726,1573,1572,1567,1567,0,0,0,0,0,0,0,0,0,0
1681745928.20045185,57428686,1573,1573,1568,1569,0,0,0,0,0,0,0,0,0,0
1681745928.30041194,57528646,1573,1573,1570,1570,0,0,0,0,0,0,0,0,0,0
1681745928.40037203,57628606,1574,1574,1573,1572,0,0,0,0,0,0,0,0,0,0
1681745928.50033188,57728566,1573,1573,1574,1573,0,0,0,0,0,0,0,0,0,0
1681745928.60029197,57828526,1573,1574,1576,1574,0,0,0,0,0,0,0,0,0,0
1681745928.70025206,57928486,1573,1574,1576,1575,0,0,0,0,0,0,0,0,0,0
1681745928.80021191,58028446,1574,1575,1577,1576,0,0,0,0,0,0,0,0,0,0
1681745928.90017200,58128406,1575,1575,1577,1577,0,0,0,0,0,0,0,0,0,0
1681745929.00013185,58228366,1575,1575,1577,1577,0,0,0,0,0,0,0,0,0,0
1681745929.10009193,58328326,1575,1575,1577,1577,0,0,0,0,0,0,0,0,0,0
1681745929.20005202,58428286,1575,1575,1576,1576,0,0,0,0,0,0,0,0,0,0
1681745929.30001187,58528246,1575,1576,1576,1576,0,0,0,0,0,0,0,0,0,0
1681745929.39997196,58628206,1576,1576,1576,1576,0,0,0,0,0,0,0,0,0,0
1681745929.49993205,58728166,1577,1577,1577,1577,0,0,0,0,0,0,0,0,0,0
1681745929.60072494,58828959,1577,1577,1576,1576,0,0,0,0,0,0,0,0,0,0
1681745929.70068502,58928919,1576,1576,1575,1575,0,0,0,0,0,0,0,0,0,0
1681745929.80064487,59028879,1577,1577,1576,1576,0,0,0,0,0,0,0,0,0,0
1681745929.90060496,59128839,1579,1578,1578,1578,0,0,0,0,0,0,0,0,0,0
1681745930.00056505,59228799,1578,1577,1577,1577,0,0,0,0,0,0,0,0,0,0
1681745930.10052490,59328759,1577,1577,1577,1577,0,0,0,0,0,0,0,0,0,0
1681745930.20048499,59428719,1578,1578,1578,1578,0,0,0,0,0,0,0,0,0,0
1681745930.30044484,59528679,1577,1577,1577,1577,0,0,0,0,0,0,0,0,0,0
1681745930.40040493,59628639,1577,1578,1578,1578,0,0,0,0,0,0,0,0,0,0
1681745930.50036502,59728599,1577,1577,1578,1578,0,0,0,0,0,0,0,0,0,0
1681745930.60032487,59828559,1578,1578,1578,1579,0,0,0,0,0,0,0,0,0,0
1681745930.70028496,59928519,1578,1578,1578,1578,0,0,0,0,0,0,0,0,0,0
1681745930.80024505,60028479,1577,1577,1578,1578,0,0,0,0,0,0,0,0,0,0
1681745930.90020490,60128439,1578,1578,1578,1578,0,0,0,0,0,0,0,0,0,0
1681745931.00016499,60228399,1578,1577,1578,1578,0,0,0,0,0,0,0,0,0,0
1681745931.10012484,60328359,1578,1578,1578,1578,0,0,0,0,0,0,0,0,0,0
1681745931.20008492,60428319,1578,1578,1578,1578,0,0,0,0,0,0,0,0,0,0
1681745931.30004501,60528279,1578,1578,1578,1579,0,0,0,0,0,0,0,0,0,0
1681745931.40000486,60628239,1579,1579,1579,1579,0,0,0,0,0,0,0,0,0,0
1681745931.49996495,60728199,1579,1579,1579,1579,0,0,0,0,0,0,0,0,0,0
1681745931.59992504,60828159,1580,1580,1579,1579,0,0,0,0,0,0,0,0,0,0
1681745931.70071793,60928952,1580,1580,1580,1579,0,0,0,0,0,0,0,0,0,0
1681745931.80067801,61028912,1580,1580,1580,1580,0,0,0,0,0,0,0,0,0,0
1681745931.90063787,61128872,1580,1580,1579,1580,0,0,0,0,0,0,0,0,0,0
1681745932.00059795,61228832,1581,1581,1580,1581,0,0,0,0,0,0,0,0,0,0
1681745932.10055804,61328792,1581,1580,1580,1581,0,0,0,0,0,0,0,0,0,0
1681745932.20051789,61428752,1580,1580,1580,1580,0,0,0,0,0,0,0,0,0,0
1681745932.30047798,61528712,1579,1580,1580,1580,0,0,0,0,0,0,0,0,0,0
1681745932.40043783,61628672,1580,1580,1580,1580,0,0,0,0,0,0,0,0,0,0
1681745932.50039792,61728632,1580,1579,1580,1579,0,0,0,0,0,0,0,0,0,0
1681745932.60035801,61828592,1579,1579,1580,1580,0,0,0,0,0,0,0,0,0,0
1681745932.70031786,61928552,1580,1580,1580,1581,0,0,0,0,0,0,0,0,0,0
1681745932.80027795,62028512,1580,1580,1580,1581,0,0,0,0,0,0,0,0,0,0
1681745932.90023804,62128472,1581,1580,1581,1581,0,0,0,0,0,0,0,0,0,0
1681745933.00019789,62228432,1581,1582,1582,1581,0,0,0,0,0,0,0,0,0,0
1681745933.10015798,62328392,1582,1582,1583,1582,0,0,0,0,0,0,0,0,0,0
1681745933.20011806,62428352,1581,1581,1581,1581,0,0,0,0,0,0,0,0,0,0
1681745933.30007792,62528312,1581,1582,1585,1578,0,0,0,0,0,0,0,0,0,0
1681745933.40003800,62628272,1582,1583,1588,1574,0,0,0,0,0,0,0,0,0,0
1681745933.49999785,62728232,1579,1582,1581,1573,0,0,0,0,0,0,0,0,0,0
1681745933.59995794,62828192,1578,1581,1573,1573,0,0,0,0,0,0,0,0,0,0
1681745933.70075107,62928985,1577,1579,1564,1571,0,0,0,0,0,0,0,0,0,0
1681745933.80071092,63028945,1577,1579,1559,1566,0,0,0,0,0,0,0,0,0,0
1681745933.90067101,63128905,1578,1578,1556,1561,0,0,0,0,0,0,0,0,0,0
1681745934.00063086,63228865,1579,1577,1555,1557,0,0,0,0,0,0,0,0,0,0
1681745934.10059094,63328825,1580,1577,1556,1555,0,0,0,0,0,0,0,0,0,0
1681745934.20055103,63428785,1579,1578,1557,1554,0,0,0,0,0,0,0,0,0,0
1681745934.30051088,63528745,1578,1578,1557,1554,0,0,0,0,0,0,0,0,0,0
1681745934.40047097,63628705,1576,1578,1556,1554,0,0,0,0,0,0,0,0,0,0
1681745934.50043106,63728665,1576,1577,1556,1555,0,0,0,0,0,0,0,0,0,0
1681745934.60039091,63828625,1575,1577,1554,1554,0,0,0,0,0,0,0,0,0,0
1681745934.70035100,63928585,1575,1576,1552,1553,0,0,0,0,0,0,0,0,0,0
1681745934.80031085,64028545,1575,1577,1551,1551,0,0,0,0,0,0,0,0,0,0
1681745934.90027094,64128505,1577,1578,1549,1549,0,0,0,0,0,0,0,0,0,0
1681745935.00023103,64228465,1579,1581,1547,1547,0,0,0,0,0,0,0,0,0,0
1681745935.10019088,64328425,1582,1583,1545,1545,0,0,0,0,0,0,0,0,0,0
1681745935.20015097,64428385,1585,1586,1542,1542,0,0,0,0,0,0,0,0,0,0
1681745935.30011106,64528345,1588,1588,1539,1539,0,0,0,0,0,0,0,0,0,0
1681745935.40007091,64628305,1591,1592,1537,1537,0,0,0,0,0,0,0,0,0,0
1681745935.50003099,64728265,1593,1593,1535,1536,0,0,0,0,0,0,0,0,0,0
1681745935.59999084,64828225,1595,1595,1535,1536,0,0,0,0,0,0,0,0,0,0
1681745935.69995093,64928185,1595,1594,1535,1537,0,0,0,0,0,0,0,0,0,0
1681745935.80074406,65028978,1594,1594,1538,1540,0,0,0,0,0,0,0,0,0,0
1681745935.90070391,65128938,1591,1591,1541,1544,0,0,0,0,0,0,0,0,0,0
1681745936.00066400,65228898,1587,1586,1547,1550,0,0,0,0,0,0,0,0,0,0
1681745936.10062385,65328858,1580,1578,1555,1559,0,0,0,0,0,0,0,0,0,0
1681745936.20058393,65428818,1572,1568,1566,1569,0,0,0,0,0,0,0,0,0,0
1681745936.30054402,65528778,1561,1556,1578,1579,0,0,0,0,0,0,0,0,0,0
1681745936.40050387,65628738,1550,1547,1590,1591,0,0,0,0,0,0,0,0,0,0
1681745936.50046396,65728698,1540,1538,1601,1601,0,0,0,0,0,0,0,0,0,0
1681745936.60042405,65828658,1533,1533,1610,1609,0,0,0,0,0,0,0,0,0,0
1681745936.70038390,65928618,1529,1530,1614,1613,0,0,0,0,0,0,0,0,0,0
1681745936.80034399,66028578,1530,1532,1616,1615,0,0,0,0,0,0,0,0,0,0
1681745936.90030384,66128538,1533,1536,1613,1612,0,0,0,0,0,0,0,0,0,0
1681745937.00026393,66228498,1539,1541,1607,1607,0,0,0,0,0,0,0,0,0,0
1681745937.10022402,66328458,1548,1549,1601,1601,0,0,0,0,0,0,0,0,0,0
1681745937.20018387,66428418,1557,1558,1594,1594,0,0,0,0,0,0,0,0,0,0
1681745937.30014396,66528378,1565,1565,1586,1585,0,0,0,0,0,0,0,0,0,0
1681745937.40010405,66628338,1572,1572,1579,1578,0,0,0,0,0,0,0,0,0,0
1681745937.50006390,66728298,1579,1578,1573,1572,0,0,0,0,0,0,0,0,0,0
1681745937.60002398,66828258,1584,1583,1569,1569,0,0,0,0,0,0,0,0,0,0
1681745937.69998384,66928218,1586,1584,1565,1565,0,0,0,0,0,0,0,0,0,0
1681745937.79994392,67028178,1588,1587,1566,1566,0,0,0,0,0,0,0,0,0,0
1681745937.90073705,67128971,1586,1584,1565,1565,0,0,0,0,0,0,0,0,0,0
1681745938.00069690,67228931,1585,1584,1568,1568,0,0,0,0,0,0,0,0,0,0
1681745938.10065699,67328891,1582,1582,1571,1571,0,0,0,0,0,0,0,0,0,0
1681745938.20061684,67428851,1580,1580,1575,1575,0,0,0,0,0,0,0,0,0,0
1681745938.30057693,67528811,1579,1580,1270,1538,0,0,0,0,0,0,0,0,0,0
1681745938.40053701,67628771,1626,1629,1444,1496,0,0,0,0,0,0,0,0,0,0
1681745938.50049686,67728731,1664,1673,1573,1525,0,0,0,0,0,0,0,0,0,0
1681745938.60045695,67828691,1600,1620,1600,1488,0,0,0,0,0,0,0,0,0,0
1681745938.70041704,67928651,1589,1619,1600,1520,0,0,0,0,0,0,0,0,0,0
1681745938.80037689,68028611,1606,1638,1600,1548,0,0,0,0,0,0,0,0,0,0
1681745938.90033698,68128571,1612,1638,1600,1570,0,0,0,0,0,0,0,0,0,0
1681745939.00029683,68228531,1580,1605,1600,1584,0,0,0,0,0,0,0,0,0,0
1681745939.10025692,68328491,1517,1519,1600,1598,0,0,0,0,0,0,0,0,0,0
1681745939.20021701,68428451,1487,1435,1600,1614,0,0,0,0,0,0,0,0,0,0
1681745939.30017686,68528411,1492,1424,1600,1618,0,0,0,0,0,0,0,0,0,0
1681745939.40013695,68628371,1487,1433,1600,1615,0,0,0,0,0,0,0,0,0,0
1681745939.50009704,68728331,1477,1448,1600,1612,0,0,0,0,0,0,0,0,0,0
1681745939.60005689,68828291,1461,1471,1600,1615,0,0,0,0,0,0,0,0,0,0
1681745939.70001698,68928251,1492,1509,1600,1618,0,0,0,0,0,0,0,0,0,0
1681745939.79997706,69028211,1517,1530,1600,1617,0,0,0,0,0,0,0,0,0,0
1681745939.89993691,69128171,1532,1541,1600,1611,0,0,0,0,0,0,0,0,0,0
1681745940.00073004,69228964,1545,1550,1600,1601,0,0,0,0,0,0,0,0,0,0
1681745940.10068989,69328924,1558,1563,1600,1598,0,0,0,0,0,0,0,0,0,0
1681745940.20064998,69428884,1581,1587,1600,1605,0,0,0,0,0,0,0,0,0,0
1681745940.30061007,69528844,1625,1632,1600,1605,0,0,0,0,0,0,0,0,0,0
1681745940.40056992,69628804,1658,1663,1600,1601,0,0,0,0,0,0,0,0,0,0
1681745940.50053000,69728764,1678,1677,1600,1602,0,0,0,0,0,0,0,0,0,0
1681745940.60048985,69828724,1682,1680,1600,1598,0,0,0,0,0,0,0,0,0,0
1681745940.70044994,69928684,1679,1677,1600,1595,0,0,0,0,0,0,0,0,0,0
1681745940.80041003,70028644,1667,1671,1600,1585,0,0,0,0,0,0,0,0,0,0
1681745940.90036988,70128604,1660,1667,1600,1587,0,0,0,0,0,0,0,0,0,0
1681745941.00032997,70228564,1655,1662,1600,1595,0,0,0,0,0,0,0,0,0,0
1681745941.10029006,70328524,1648,1653,1600,1602,0,0,0,0,0,0,0,0,0,0
1681745941.20024991,70428484,1640,1641,1600,1606,0,0,0,0,0,0,0,0,0,0
1681745941.30021000,70528444,1647,1649,1600,1630,0,0,0,0,0,0,0,0,0,0
1681745941.40016985,70628404,1644,1637,1600,1621,0,0,0,0,0,0,0,0,0,0
1681745941.50012994,70728364,1629,1616,1600,1596,0,0,0,0,0,0,0,0,0,0
1681745941.60009003,70828324,1617,1608,1600,1589,0,0,0,0,0,0,0,0,0,0
1681745941.70004988,70928284,1611,1608,1600,1600,0,0,0,0,0,0,0,0,0,0
1681745941.80000997,71028244,1597,1596,1600,1592,0,0,0,0,0,0,0,0,0,0
1681745941.89997005,71128204,1588,1591,1600,1591,0,0,0,0,0,0,0,0,0,0
1681745941.99992990,71228164,1584,1590,1600,1595,0,0,0,0,0,0,0,0,0,0
1681745942.10072303,71328957,1582,1587,1600,1599,0,0,0,0,0,0,0,0,0,0
1681745942.20068288,71428917,1582,1585,1600,1602,0,0,0,0,0,0,0,0,0,0
1681745942.30064297,71528877,1583,1583,1600,1603,0,0,0,0,0,0,0,0,0,0
1681745942.40060306,71628837,1582,1581,1600,1603,0,0,0,0,0,0,0,0,0,0
1681745942.50056291,71728797,1583,1580,1600,1601,0,0,0,0,0,0,0,0,0,0
1681745942.60052299,71828757,1582,1580,1600,1600,0,0,0,0,0,0,0,0,0,0
1681745942.70048285,71928717,1575,1576,1600,1583,0,0,0,0,0,0,0,0,0,0
1681745942.80044293,72028677,1578,1587,1600,1586,0,0,0,0,0,0,0,0,0,0
1681745942.90040302,72128637,1565,1576,1583,1576,0,0,0,0,0,0,0,0,0,0
1681745943.00036287,72228597,1548,1557,1559,1560,0,0,0,0,0,0,0,0,0,0
1681745943.10032296,72328557,1538,1541,1538,1546,0,0,0,0,0,0,0,0,0,0
1681745943.20028305,72428517,1536,1532,1524,1534,0,0,0,0,0,0,0,0,0,0
1681745943.30024290,72528477,1536,1529,1516,1524,0,0,0,0,0,0,0,0,0,0
1681745943.40020299,72628437,1540,1534,1513,1517,0,0,0,0,0,0,0,0,0,0
1681745943.50016284,72728397,1545,1541,1513,1514,0,0,0,0,0,0,0,0,0,0
1681745943.60012293,72828357,1550,1550,1515,1512,0,0,0,0,0,0,0,0,0,0
1681745943.70008302,72928317,1557,1559,1516,1514,0,0,0,0,0,0,0,0,0,0
1681745943.80004287,73028277,1564,1566,1518,1515,0,0,0,0,0,0,0,0,0,0
1681745943.90000296,73128237,1570,1573,1520,1518,0,0,0,0,0,0,0,0,0,0
1681745943.99996305,73228197,1576,1578,1521,1520,0,0,0,0,0,0,0,0,0,0
1681745944.09992290,73328157,1582,1582,1522,1523,0,0,0,0,0,0,0,0,0,0
1681745944.20071602,73428950,1588,1587,1525,1527,0,0,0,0,0,0,0,0,0,0
1681745944.30067587,73528910,1591,1590,1528,1530,0,0,0,0,0,0,0,0,0,0
1681745944.40063596,73628870,1593,1592,1532,1533,0,0,0,0,0,0,0,0,0,0
1681745944.50059605,73728830,1592,1591,1537,1538,0,0,0,0,0,0,0,0,0,0
1681745944.60055590,73828790,1590,1590,1542,1544,0,0,0,0,0,0,0,0,0,0
1681745944.70051599,73928750,1587,1588,1548,1550,0,0,0,0,0,0,0,0,0,0
1681745944.80047584,74028710,1583,1583,1554,1556,0,0,0,0,0,0,0,0,0,0
1681745944.90043592,74128670,1579,1578,1561,1563,0,0,0,0,0,0,0,0,0,0
1681745945.00039601,74228630,1575,1574,1569,1571,0,0,0,0,0,0,0,0,0,0
1681745945.10035586,74328590,1570,1568,1576,1578,0,0,0,0,0,0,0,0,0,0
1681745945.20031595,74428550,1564,1562,1583,1584,0,0,0,0,0,0,0,0,0,0
1681745945.30027604,74528510,1561,1559,1591,1590,0,0,0,0,0,0,0,0,0,0
1681745945.40023589,74628470,1558,1557,1597,1596,0,0,0,0,0,0,0,0,0,0
1681745945.50019598,74728430,1552,1552,1600,1597,0,0,0,0,0,0,0,0,0,0
1681745945.60015583,74828390,1547,1548,1600,1597,0,0,0,0,0,0,0,0,0,0
1681745945.70011592,74928350,1546,1547,1600,1598,0,0,0,0,0,0,0,0,0,0
1681745945.80007601,75028310,1548,1549,1600,1599,0,0,0,0,0,0,0,0,0,0
1681745945.90003586,75128270,1551,1552,1600,1600,0,0,0,0,0,0,0,0,0,0
1681745945.99999595,75228230,1556,1556,1600,1601,0,0,0,0,0,0,0,0,0,0
1681745946.09995604,75328190,1561,1560,1600,1601,0,0,0,0,0,0,0,0,0,0
1681745946.20074892,75428983,1566,1565,1600,1599,0,0,0,0,0,0,0,0,0,0
1681745946.30070901,75528943,1571,1570,1600,1599,0,0,0,0,0,0,0,0,0,0
1681745946.40066886,75628903,1572,1572,1596,1595,0,0,0,0,0,0,0,0,0,0
1681745946.50062895,75728863,1571,1570,1590,1590,0,0,0,0,0,0,0,0,0,0
1681745946.60058904,75828823,1570,1570,1585,1585,0,0,0,0,0,0,0,0,0,0
1681745946.70054889,75928783,1570,1570,1581,1581,0,0,0,0,0,0,0,0,0,0
1681745946.80050898,76028743,1571,1571,1577,1578,0,0,0,0,0,0,0,0,0,0
1681745946.90046906,76128703,1572,1571,1573,1574,0,0,0,0,0,0,0,0,0,0
1681745947.00042892,76228663,1573,1572,1571,1572,0,0,0,0,0,0,0,0,0,0
1681745947.10038900,76328623,1574,1574,1569,1570,0,0,0,0,0,0,0,0,0,0
1681745947.20034885,76428583,1576,1575,1568,1568,0,0,0,0,0,0,0,0,0,0
1681745947.30030894,76528543,1576,1576,1567,1567,0,0,0,0,0,0,0,0,0,0
1681745947.40026903,76628503,1578,1579,1568,1568,0,0,0,0,0,0,0,0,0,0
1681745947.50022888,76728463,1580,1580,1569,1569,0,0,0,0,0,0,0,0,0,0
1681745947.60018897,76828423,1579,1579,1569,1569,0,0,0,0,0,0,0,0,0,0
1681745947.70014906,76928383,1580,1580,1571,1570,0,0,0,0,0,0,0,0,0,0
1681745947.80010891,77028343,1580,1580,1572,1572,0,0,0,0,0,0,0,0,0,0
1681745947.90006900,77128303,1580,1580,1574,1574,0,0,0,0,0,0,0,0,0,0
1681745948.00002885,77228263,1580,1579,1576,1576,0,0,0,0,0,0,0,0,0,0
1681745948.09998894,77328223,1580,1580,1578,1578,0,0,0,0,0,0,0,0,0,0
1681745948.19994903,77428183,1579,1579,1579,1578,0,0,0,0,0,0,0,0,0,0
1681745948.30074191,77528976,1578,1578,1580,1580,0,0,0,0,0,0,0,0,0,0
1681745948.40070200,77628936,1577,1578,1581,1581,0,0,0,0,0,0,0,0,0,0
1681745948.50066185,77728896,1577,1577,1581,1581,0,0,0,0,0,0,0,0,0,0
1681745948.60062194,77828856,1576,1577,1581,1581,0,0,0,0,0,0,0,0,0,0
1681745948.70058203,77928816,1577,1578,1582,1582,0,0,0,0,0,0,0,0,0,0
1681745948.80054188,78028776,1578,1578,1582,1582,0,0,0,0,0,0,0,0,0,0
1681745948.90050197,78128736,1579,1579,1582,1582,0,0,0,0,0,0,0,0,0,0
1681745949.00046206,78228696,1579,1578,1582,1581,0,0,0,0,0,0,0,0,0,0
1681745949.10042191,78328656,1579,1579,1581,1581,0,0,0,0,0,0,0,0,0,0
1681745949.20038199,78428616,1579,1579,1580,1581,0,0,0,0,0,0,0,0,0,0
1681745949.30034184,78528576,1580,1580,1580,1581,0,0,0,0,0,0,0,0,0,0
1681745949.40030193,78628536,1579,1580,1580,1580,0,0,0,0,0,0,0,0,0,0
1681745949.50026202,78728496,1582,1581,1580,1581,0,0,0,0,0,0,0,0,0,0
1681745949.60022187,78828456,1581,1580,1579,1579,0,0,0,0,0,0,0,0,0,0
1681745949.70018196,78928416,1581,1581,1579,1579,0,0,0,0,0,0,0,0,0,0
1681745949.80014205,79028376,1581,1581,1580,1580,0,0,0,0,0,0,0,0,0,0
1681745949.90010190,79128336,1581,1581,1579,1580,0,0,0,0,0,0,0,0,0,0
1681745950.00006199,79228296,1580,1580,1579,1579,0,0,0,0,0,0,0,0,0,0
1681745950.10002184,79328256,1581,1581,1580,1580,0,0,0,0,0,0,0,0,0,0
1681745950.19998193,79428216,1581,1581,1580,1579,0,0,0,0,0,0,0,0,0,0
1681745950.29994202,79528176,1580,1580,1580,1580,0,0,0,0,0,0,0,0,0,0
1681745950.40073490,79628969,1581,1581,1581,1581,0,0,0,0,0,0,0,0,0,0
1681745950.50069499,79728929,1580,1580,1580,1580,0,0,0,0,0,0,0,0,0,0
1681745950.60065484,79828889,1580,1580,1580,1580,0,0,0,0,0,0,0,0,0,0
1681745950.70061493,79928849,1580,1580,1581,1581,0,0,0,0,0,0,0,0,0,0
1681745950.80057502,80028809,1580,1581,1584,1578,0,0,0,0,0,0,0,0,0,0
1681745950.90053487,80128769,1581,1583,1587,1574,0,0,0,0,0,0,0,0,0,0
1681745951.00049496,80228729,1579,1583,1582,1574,0,0,0,0,0,0,0,0,0,0
1681745951.10045505,80328689,1576,1580,1575,1573,0,0,0,0,0,0,0,0,0,0
1681745951.20041490,80428649,1576,1579,1568,1572,0,0,0,0,0,0,0,0,0,0
1681745951.30037498,80528609,1575,1576,1561,1567,0,0,0,0,0,0,0,0,0,0
1681745951.40033484,80628569,1577,1576,1557,1563,0,0,0,0,0,0,0,0,0,0
1681745951.50029492,80728529,1579,1576,1555,1559,0,0,0,0,0,0,0,0,0,0
1681745951.60025501,80828489,1579,1577,1554,1555,0,0,0,0,0,0,0,0,0,0
1681745951.70021486,80928449,1579,1578,1554,1553,0,0,0,0,0,0,0,0,0,0
1681745951.80017495,81028409,1579,1579,1554,1552,0,0,0,0,0,0,0,0,0,0
1681745951.90013504,81128369,1578,1579,1553,1552,0,0,0,0,0,0,0,0,0,0
1681745952.00009489,81228329,1577,1578,1553,1551,0,0,0,0,0,0,0,0,0,0
1681745952.10005498,81328289,1577,1579,1552,1552,0,0,0,0,0,0,0,0,0,0
1681745952.20001483,81428249,1577,1578,1551,1551,0,0,0,0,0,0,0,0,0,0
1681745952.29997492,81528209,1578,1579,1551,1551,0,0,0,0,0,0,0,0,0,0
1681745952.39993501,81628169,1579,1580,1550,1549,0,0,0,0,0,0,0,0,0,0
1681745952.50072789,81728962,1580,1581,1548,1548,0,0,0,0,0,0,0,0,0,0
1681745952.60068798,81828922,1581,1582,1546,1545,0,0,0,0,0,0,0,0,0,0
1681745952.70064783,81928882,1584,1585,1544,1544,0,0,0,0,0,0,0,0,0,0
1681745952.80060792,82028842,1587,1588,1543,1542,0,0,0,0,0,0,0,0,0,0
1681745952.90056801,82128802,1589,1589,1540,1540,0,0,0,0,0,0,0,0,0,0
1681745953.00052786,82228762,1591,1592,1539,1540,0,0,0,0,0,0,0,0,0,0
1681745953.10048795,82328722,1593,1593,1538,1539,0,0,0,0,0,0,0,0,0,0
1681745953.20044804,82428682,1593,1594,1537,1539,0,0,0,0,0,0,0,0,0,0
1681745953.30040789,82528642,1595,1594,1539,1543,0,0,0,0,0,0,0,0,0,0
1681745953.40036798,82628602,1592,1590,1542,1546,0,0,0,0,0,0,0,0,0,0
1681745953.50032806,82728562,1589,1585,1549,1553,0,0,0,0,0,0,0,0,0,0
1681745953.60028791,82828522,1581,1577,1558,1561,0,0,0,0,0,0,0,0,0,0
1681745953.70024800,82928482,1572,1568,1569,1572,0,0,0,0,0,0,0,0,0,0
1681745953.80020785,83028442,1561,1559,1581,1583,0,0,0,0,0,0,0,0,0,0
1681745953.90016794,83128402,1551,1549,1593,1594,0,0,0,0,0,0,0,0,0,0
1681745954.00012803,83228362,1538,1538,1600,1597,0,0,0,0,0,0,0,0,0,0
1681745954.10008788,83328322,1525,1526,1600,1595,0,0,0,0,0,0,0,0,0,0
1681745954.20004797,83428282,1521,1523,1600,1595,0,0,0,0,0,0,0,0,0,0
1681745954.30000806,83528242,1524,1526,1600,1597,0,0,0,0,0,0,0,0,0,0
1681745954.39996791,83628202,1533,1533,1600,1600,0,0,0,0,0,0,0,0,0,0
1681745954.49992800,83728162,1541,1542,1600,1600,0,0,0,0,0,0,0,0,0,0
1681745954.60072088,83828955,1551,1551,1600,1599,0,0,0,0,0,0,0,0,0,0
1681745954.70068097,83928915,1562,1561,1600,1599,0,0,0,0,0,0,0,0,0,0
1681745954.80064106,84028875,1572,1572,1600,1599,0,0,0,0,0,0,0,0,0,0
1681745954.90060091,84128835,1582,1582,1600,1600,0,0,0,0,0,0,0,0,0,0
1681745955.00056100,84228795,1592,1592,1600,1600,0,0,0,0,0,0,0,0,0,0
1681745955.10052085,84328755,1602,1601,1600,1600,0,0,0,0,0,0,0,0,0,0
1681745955.20048094,84428715,1610,1609,1600,1601,0,0,0,0,0,0,0,0,0,0
1681745955.30044103,84528675,1616,1615,1600,1601,0,0,0,0,0,0,0,0,0,0
1681745955.40040088,84628635,1610,1609,1593,1592,0,0,0,0,0,0,0,0,0,0
1681745955.50036097,84728595,1595,1595,1580,1579,0,0,0,0,0,0,0,0,0,0
1681745955.60032105,84828555,1584,1584,1571,1572,0,0,0,0,0,0,0,0,0,0
1681745955.70028090,84928515,1576,1576,1566,1568,0,0,0,0,0,0,0,0,0,0
1681745955.80024099,85028475,1569,1570,1562,1565,0,0,0,0,0,0,0,0,0,0
1681745955.90020084,85128435,1565,1565,1561,1563,0,0,0,0,0,0,0,0,0,0
1681745956.00016093,85228395,1562,1562,1562,1563,0,0,0,0,0,0,0,0,0,0
1681745956.10012102,85328355,1561,1561,1563,1564,0,0,0,0,0,0,0,0,0,0
1681745956.20008087,85428315,1562,1562,1566,1566,0,0,0,0,0,0,0,0,0,0
1681745956.30004096,85528275,1563,1563,1568,1567,0,0,0,0,0,0,0,0,0,0
1681745956.40000105,85628235,1564,1565,1570,1569,0,0,0,0,0,0,0,0,0,0
1681745956.49996090,85728195,1566,1567,1572,1571,0,0,0,0,0,0,0,0,0,0
1681745956.59992099,85828155,1569,1569,1574,1573,0,0,0,0,0,0,0,0,0,0
1681745956.70071387,85928948,1571,1571,1575,1575,0,0,0,0,0,0,0,0,0,0
1681745956.80067396,86028908,1574,1574,1576,1576,0,0,0,0,0,0,0,0,0,0
1681745956.90063405,86128868,1576,1576,1577,1577,0,0,0,0,0,0,0,0,0,0
1681745957.00059390,86228828,1578,1578,1578,1578,0,0,0,0,0,0,0,0,0,0
1681745957.10055399,86328788,1579,1579,1579,1578,0,0,0,0,0,0,0,0,0,0
1681745957.20051384,86428748,1579,1580,1579,1579,0,0,0,0,0,0,0,0,0,0
1681745957.30047393,86528708,1581,1581,1579,1580,0,0,0,0,0,0,0,0,0,0
1681745957.40043402,86628668,1582,1582,1580,1580,0,0,0,0,0,0,0,0,0,0
1681745957.50039387,86728628,1582,1581,1580,1580,0,0,0,0,0,0,0,0,0,0
1681745957.60035396,86828588,1582,1582,1580,1581,0,0,0,0,0,0,0,0,0,0
1681745957.70031404,86928548,1581,1581,1581,1580,0,0,0,0,0,0,0,0,0,0
1681745957.80027390,87028508,1582,1582,1582,1581,0,0,0,0,0,0,0,0,0,0
1681745957.90023398,87128468,1581,1581,1581,1580,0,0,0,0,0,0,0,0,0,0
1681745958.00019383,87228428,1582,1582,1582,1582,0,0,0,0,0,0,0,0,0,0
1681745958.10015392,87328388,1581,1582,1582,1582,0,0,0,0,0,0,0,0,0,0
1681745958.20011401,87428348,1581,1581,1582,1582,0,0,0,0,0,0,0,0,0,0
1681745958.30007386,87528308,1581,1581,1582,1582,0,0,0,0,0,0,0,0,0,0
1681745958.40003395,87628268,1580,1580,1581,1581,0,0,0,0,0,0,0,0,0,0
1681745958.49999404,87728228,1580,1580,1581,1581,0,0,0,0,0,0,0,0,0,0
1681745958.59995389,87828188,1581,1581,1582,1581,0,0,0,0,0,0,0,0,0,0
1681745958.70074701,87928981,1581,1581,1583,1579,0,0,0,0,0,0,0,0,0,0
1681745958.80070686,88028941,1582,1582,1587,1573,0,0,0,0,0,0,0,0,0,0
1681745958.90066695,88128901,1579,1579,1584,1574,0,0,0,0,0,0,0,0,0,0
1681745959.00062704,88228861,1576,1576,1578,1576,0,0,0,0,0,0,0,0,0,0
1681745959.10058689,88328821,1572,1573,1573,1576,0,0,0,0,0,0,0,0,0,0
1681745959.20054698,88428781,1569,1569,1568,1574,0,0,0,0,0,0,0,0,0,0
1681745959.30050683,88528741,1567,1567,1566,1572,0,0,0,0,0,0,0,0,0,0
1681745959.40046692,88628701,1566,1566,1565,1569,0,0,0,0,0,0,0,0,0,0
1681745959.50042701,88728661,1564,1564,1564,1566,0,0,0,0,0,0,0,0,0,0
1681745959.60038686,88828621,1565,1565,1564,1564,0,0,0,0,0,0,0,0,0,0
1681745959.70034695,88928581,1565,1564,1564,1563,0,0,0,0,0,0,0,0,0,0
1681745959.80030704,89028541,1565,1564,1564,1562,0,0,0,0,0,0,0,0,0,0
1681745959.90026689,89128501,1565,1564,1563,1562,0,0,0,0,0,0,0,0,0,0
1681745960.00022697,89228461,1563,1564,1563,1562,0,0,0,0,0,0,0,0,0,0
1681745960.10018706,89328421,1563,1563,1562,1562,0,0,0,0,0,0,0,0,0,0
1681745960.20014691,89428381,1563,1563,1562,1561,0,0,0,0,0,0,0,0,0,0
1681745960.30010700,89528341,1562,1561,1561,1561,0,0,0,0,0,0,0,0,0,0
1681745960.40006685,89628301,1561,1561,1561,1560,0,0,0,0,0,0,0,0,0,0
1681745960.50002694,89728261,1560,1560,1561,1560,0,0,0,0,0,0,0,0,0,0
1681745960.59998703,89828221,1559,1559,1560,1559,0,0,0,0,0,0,0,0,0,0
1681745960.69994688,89928181,1558,1559,1559,1559,0,0,0,0,0,0,0,0,0,0
1681745960.80074000,90028974,1558,1558,1559,1558,0,0,0,0,0,0,0,0,0,0
1681745960.90069985,90128934,1559,1559,1559,1559,0,0,0,0,0,0,0,0,0,0
1681745961.00065994,90228894,1558,1557,1559,1557,0,0,0,0,0,0,0,0,0,0
1681745961.10062003,90328854,1558,1558,1559,1557,0,0,0,0,0,0,0,0,0,0
1681745961.20057988,90428814,1558,1558,1559,1557,0,0,0,0,0,0,0,0,0,0
1681745961.30053997,90528774,1558,1558,1559,1558,0,0,0,0,0,0,0,0,0,0
1681745961.40050006,90628734,1559,1559,1560,1557,0,0,0,0,0,0,0,0,0,0
1681745961.50045991,90728694,1558,1558,1559,1557,0,0,0,0,0,0,0,0,0,0
1681745961.60042000,90828654,1559,1559,1558,1560,0,0,0,0,0,0,0,0,0,0
1681745961.70037985,90928614,1560,1560,1558,1563,0,0,0,0,0,0,0,0,0,0
1681745961.80033994,91028574,1561,1561,1558,1564,0,0,0,0,0,0,0,0,0,0
1681745961.90030003,91128534,1561,1561,1558,1563,0,0,0,0,0,0,0,0,0,0
1681745962.00025988,91228494,1561,1561,1559,1561,0,0,0,0,0,0,0,0,0,0
1681745962.10021996,91328454,1560,1560,1559,1561,0,0,0,0,0,0,0,0,0,0
1681745962.20018005,91428414,1557,1557,1557,1558,0,0,0,0,0,0,0,0,0,0
1681745962.30013990,91528374,1552,1552,1553,1553,0,0,0,0,0,0,0,0,0,0
1681745962.40009999,91628334,1546,1547,1549,1548,0,0,0,0,0,0,0,0,0,0
1681745962.50005984,91728294,1540,1540,1543,1542,0,0,0,0,0,0,0,0,0,0
1681745962.60001993,91828254,1534,1533,1537,1536,0,0,0,0,0,0,0,0,0,0
1681745962.69998002,91928214,1526,1526,1529,1529,0,0,0,0,0,0,0,0,0,0
1681745962.79993987,92028174,1521,1521,1524,1524,0,0,0,0,0,0,0,0,0,0
1681745962.90073299,92128967,1520,1520,1521,1523,0,0,0,0,0,0,0,0,0,0
1681745963.00069284,92228927,1520,1521,1520,1522,0,0,0,0,0,0,0,0,0,0
1681745963.10065293,92328887,1523,1523,1520,1523,0,0,0,0,0,0,0,0,0,0
1681745963.20061302,92428847,1527,1527,1522,1525,0,0,0,0,0,0,0,0,0,0
1681745963.30057287,92528807,1531,1531,1526,1527,0,0,0,0,0,0,0,0,0,0
1681745963.40053296,92628767,1535,1535,1530,1530,0,0,0,0,0,0,0,0,0,0
1681745963.50049305,92728727,1539,1539,1534,1533,0,0,0,0,0,0,0,0,0,0
1681745963.60045290,92828687,1543,1543,1538,1537,0,0,0,0,0,0,0,0,0,0
1681745963.70041299,92928647,1543,1543,1540,1539,0,0,0,0,0,0,0,0,0,0
1681745963.80037284,93028607,1543,1543,1542,1540,0,0,0,0,0,0,0,0,0,0
1681745963.90033293,93128567,1544,1544,1544,1543,0,0,0,0,0,0,0,0,0,0
1681745964.00029302,93228527,1545,1545,1547,1546,0,0,0,0,0,0,0,0,0,0
1681745964.10025287,93328487,1544,1544,1547,1547,0,0,0,0,0,0,0,0,0,0
1681745964.20021296,93428447,1544,1544,1547,1548,0,0,0,0,0,0,0,0,0,0
1681745964.30017304,93528407,1544,1544,1548,1548,0,0,0,0,0,0,0,0,0,0
1681745964.40013289,93628367,1545,1544,1548,1547,0,0,0,0,0,0,0,0,0,0
1681745964.50009298,93728327,1545,1544,1548,1547,0,0,0,0,0,0,0,0,0,0
1681745964.60005283,93828287,1545,1545,1547,1547,0,0,0,0,0,0,0,0,0,0
1681745964.70001292,93928247,1545,1545,1547,1546,0,0,0,0,0,0,0,0,0,0
1681745964.79997301,94028207,1544,1544,1545,1545,0,0,0,0,0,0,0,0,0,0
1681745964.89993286,94128167,1544,1544,1545,1545,0,0,0,0,0,0,0,0,0,0
1681745965.00072598,94228960,1544,1544,1544,1544,0,0,0,0,0,0,0,0,0,0
1681745965.10068583,94328920,1545,1545,1544,1544,0,0,0,0,0,0,0,0,0,0
1681745965.20064592,94428880,1543,1544,1543,1543,0,0,0,0,0,0,0,0,0,0
1681745965.30060601,94528840,1545,1546,1544,1544,0,0,0,0,0,0,0,0,0,0
1681745965.40056586,94628800,1545,1545,1543,1543,0,0,0,0,0,0,0,0,0,0
1681745965.50052595,94728760,1544,1544,1543,1543,0,0,0,0,0,0,0,0,0,0
1681745965.60048604,94828720,1544,1544,1543,1543,0,0,0,0,0,0,0,0,0,0
1681745965.70044589,94928680,1544,1544,1543,1543,0,0,0,0,0,0,0,0,0,0
1681745965.80040598,95028640,1543,1544,1543,1543,0,0,0,0,0,0,0,0,0,0
1681745965.90036583,95128600,1544,1543,1543,1543,0,0,0,0,0,0,0,0,0,0
1681745966.00032592,95228560,1544,1545,1544,1544,0,0,0,0,0,0,0,0,0,0
1681745966.10028601,95328520,1543,1544,1544,1544,0,0,0,0,0,0,0,0,0,0
1681745966.20024586,95428480,1543,1543,1544,1544,0,0,0,0,0,0,0,0,0,0
1681745966.30020595,95528440,1544,1544,1544,1545,0,0,0,0,0,0,0,0,0,0
1681745966.40016603,95628400,1544,1543,1544,1544,0,0,0,0,0,0,0,0,0,0
1681745966.50012589,95728360,1544,1544,1544,1544,0,0,0,0,0,0,0,0,0,0
1681745966.60008597,95828320,1544,1544,1545,1544,0,0,0,0,0,0,0,0,0,0
1681745966.70004606,95928280,1544,1544,1544,1544,0,0,0,0,0,0,0,0,0,0
1681745966.80000591,96028240,1544,1544,1544,1544,0,0,0,0,0,0,0,0,0,0
1681745966.89996600,96128200,1545,1544,1545,1545,0,0,0,0,0,0,0,0,0,0
1681745966.99992585,96228160,1545,1544,1545,1544,0,0,0,0,0,0,0,0,0,0
1681745967.10071898,96328953,1544,1544,1544,1544,0,0,0,0,0,0,0,0,0,0
1681745967.20067906,96428913,1545,1545,1544,1544,0,0,0,0,0,0,0,0,0,0
1681745967.30063891,96528873,1544,1544,1544,1544,0,0,0,0,0,0,0,0,0,0
1681745967.40059900,96628833,1544,1544,1544,1544,0,0,0,0,0,0,0,0,0,0
1681745967.50055885,96728793,1544,1544,1544,1544,0,0,0,0,0,0,0,0,0,0
1681745967.60051894,96828753,1543,1544,1544,1544,0,0,0,0,0,0,0,0,0,0
1681745967.70047903,96928713,1543,1543,1543,1544,0,0,0,0,0,0,0,0,0,0
1681745967.80043888,97028673,1544,1544,1544,1544,0,0,0,0,0,0,0,0,0,0
1681745967.90039897,97128633,1544,1544,1544,1544,0,0,0,0,0,0,0,0,0,0
1681745968.00035906,97228593,1544,1545,1544,1544,0,0,0,0,0,0,0,0,0,0
1681745968.10031891,97328553,1544,1544,1544,1544,0,0,0,0,0,0,0,0,0,0
1681745968.20027900,97428513,1544,1544,1544,1543,0,0,0,0,0,0,0,0,0,0
1681745968.30023885,97528473,1545,1545,1544,1545,0,0,0,0,0,0,0,0,0,0
1681745968.40019894,97628433,1544,1545,1544,1545,0,0,0,0,0,0,0,0,0,0
1681745968.50015903,97728393,1544,1544,1544,1544,0,0,0,0,0,0,0,0,0,0
1681745968.60011888,97828353,1543,1543,1544,1544,0,0,0,0,0,0,0,0,0,0
1681745968.70007896,97928313,1544,1544,1544,1544,0,0,0,0,0,0,0,0,0,0
1681745968.80003905,98028273,1545,1544,1544,1545,0,0,0,0,0,0,0,0,0,0
1681745968.89999890,98128233,1544,1544,1544,1544,0,0,0,0,0,0,0,0,0,0
1681745968.99995899,98228193,1544,1544,1544,1544,0,0,0,0,0,0,0,0,0,0
1681745969.10075188,98328986,1544,1545,1545,1545,0,0,0,0,0,0,0,0,0,0
1681745969.20071197,98428946,1545,1544,1545,1544,0,0,0,0,0,0,0,0,0,0
1681745969.30067205,98528906,1545,1544,1545,1545,0,0,0,0,0,0,0,0,0,0
1681745969.40063190,98628866,1544,1544,1544,1544,0,0,0,0,0,0,0,0,0,0
1681745969.50059199,98728826,1544,1544,1544,1544,0,0,0,0,0,0,0,0,0,0
1681745969.60055184,98828786,1544,1544,1544,1544,0,0,0,0,0,0,0,0,0,0
1681745969.70051193,98928746,1544,1544,1544,1544,0,0,0,0,0,0,0,0,0,0
1681745969.80047202,99028706,1545,1544,1545,1544,0,0,0,0,0,0,0,0,0,0
1681745969.90043187,99128666,1545,1544,1544,1545,0,0,0,0,0,0,0,0,0,0
1681745970.00039196,99228626,1544,1545,1545,1544,0,0,0,0,0,0,0,0,0,0
1681745970.10035205,99328586,1545,1545,1545,1545,0,0,0,0,0,0,0,0,0,0
1681745970.20031190,99428546,1545,1545,1545,1544,0,0,0,0,0,0,0,0,0,0
1681745970.30027199,99528506,1545,1544,1544,1545,0,0,0,0,0,0,0,0,0,0
1681745970.40023184,99628466,1544,1544,1544,1544,0,0,0,0,0,0,0,0,0,0
1681745970.50019193,99728426,1544,1544,1544,1544,0,0,0,0,0,0,0,0,0,0
1681745970.60015202,99828386,1544,1544,1544,1544,0,0,0,0,0,0,0,0,0,0
1681745970.70011187,99928346,1544,1544,1545,1545,0,0,0,0,0,0,0,0,0,0
1681745970.80007195,100028306,1545,1545,1545,1545,0,0,0,0,0,0,0,0,0,0
1681745970.90003204,100128266,1544,1543,1544,1544,0,0,0,0,0,0,0,0,0,0
1681745970.99999189,100228226,1544,1544,1544,1545,0,0,0,0,0,0,0,0,0,0
1681745971.09995198,100328186,1544,1544,1544,1544,0,0,0,0,0,0,0,0,0,0
1681745971.20074487,100428979,1545,1545,1545,1545,0,0,0,0,0,0,0,0,0,0
1681745971.30070496,100528939,1544,1544,1544,1544,0,0,0,0,0,0,0,0,0,0
1681745971.40066504,100628899,1545,1544,1545,1545,0,0,0,0,0,0,0,0,0,0
1681745971.50062490,100728859,1544,1544,1544,1544,0,0,0,0,0,0,0,0,0,0
1681745971.60058498,100828819,1544,1544,1544,1544,0,0,0,0,0,0,0,0,0,0
1681745971.70054483,100928779,1544,1544,1544,1544,0,0,0,0,0,0,0,0,0,0
1681745971.80050492,101028739,1544,1545,1544,1545,0,0,0,0,0,0,0,0,0,0
1681745971.90046501,101128699,1544,1544,1544,1544,0,0,0,0,0,0,0,0,0,0
1681745972.00042486,101228659,1545,1545,1545,1545,0,0,0,0,0,0,0,0,0,0
1681745972.10038495,101328619,1544,1544,1544,1544,0,0,0,0,0,0,0,0,0,0
1681745972.20034504,101428579,1545,1545,1545,1545,0,0,0,0,0,0,0,0,0,0
1681745972.30030489,101528539,1544,1544,1544,1544,0,0,0,0,0,0,0,0,0,0
1681745972.40026498,101628499,1544,1544,1544,1544,0,0,0,0,0,0,0,0,0,0
1681745972.50022483,101728459,1529,1529,1534,1529,0,0,0,0,0,0,0,0,0,0
1681745972.60018492,101828419,1340,1339,1414,1338,0,0,0,0,0,0,0,0,0,0
1681745972.70014501,101928379,1244,1242,1361,1242,0,0,0,0,0,0,0,0,0,0
1681745972.80010486,102028339,1213,1212,1345,1212,0,0,0,0,0,0,0,0,0,0
1681745972.90006495,102128299,1189,1187,1333,1188,0,0,0,0,0,0,0,0,0,0
1681745973.00002503,102228259,1150,1150,1316,1150,0,0,0,0,0,0,0,0,0,0
1681745973.09998488,102328219,1204,1203,1130,1150,0,0,0,0,0,0,0,0,0,0
1681745973.19994497,102428179,1190,1190,1059,1150,0,0,0,0,0,0,0,0,0,0
1681745973.30073786,102528972,1190,1190,1059,1150,0,0,0,0,0,0,0,0,0,0
1681745973.40069795,102628932,1190,1190,1059,1150,0,0,0,0,0,0,0,0,0,0
1681745973.50065804,102728892,1192,1179,1065,1150,0,0,0,0,0,0,0,0,0,0
1681745973.60061789,102828852,1191,1183,1062,1150,0,0,0,0,0,0,0,0,0,0
1681745973.70057797,102928812,1191,1185,1061,1150,0,0,0,0,0,0,0,0,0,0
1681745973.80053806,103028772,1191,1186,1061,1150,0,0,0,0,0,0,0,0,0,0
1681745973.90049791,103128732,1191,1185,1061,1150,0,0,0,0,0,0,0,0,0,0
1681745974.00045800,103228692,1191,1185,1061,1150,0,0,0,0,0,0,0,0,0,0
1681745974.10041785,103328652,1191,1185,1061,1150,0,0,0,0,0,0,0,0,0,0
1681745974.20037794,103428612,1191,1185,1062,1150,0,0,0,0,0,0,0,0,0,0
1681745974.30033803,103528572,1187,1186,1063,1150,0,0,0,0,0,0,0,0,0,0
1681745974.40029788,103628532,1187,1186,1063,1150,0,0,0,0,0,0,0,0,0,0
1681745974.50025797,103728492,1188,1186,1063,1150,0,0,0,0,0,0,0,0,0,0
1681745974.60021806,103828452,1188,1186,1063,1150,0,0,0,0,0,0,0,0,0,0
1681745974.70017791,103928412,1179,1178,1014,1150,0,0,0,0,0,0,0,0,0,0
1681745974.80013800,104028372,1000,1000,1000,1000,0,0,0,0,0,0,0,0,0,0
1681745974.90009785,104128332,1000,1000,1000,1000,0,0,0,0,0,0,0,0,0,0
1681745975.00005794,104228292,1000,1000,1000,1000,0,0,0,0,0,0,0,0,0,0
1681745975.10001802,104328252,1000,1000,1000,1000,0,0,0,0,0,0,0,0,0,0
1681745975.19997787,104428212,1000,1000,1000,1000,0,0,0,0,0,0,0,0,0,0
1681745975.29993796,104528172,1000,1000,1000,1000,0,0,0,0,0,0,0,0,0,0
1681745975.40073085,104628965,1000,1000,1000,1000,0,0,0,0,0,0,0,0,0,0
1681745975.50069094,104728925,1000,1000,1000,1000,0,0,0,0,0,0,0,0,0,0
1681745975.60065103,104828885,1000,1000,1000,1000,0,0,0,0,0,0,0,0,0,0
1681745975.70061088,104928845,1000,1000,1000,1000,0,0,0,0,0,0,0,0,0,0
1681745975.80057096,105028805,1000,1000,1000,1000,0,0,0,0,0,0,0,0,0,0
1681745975.90053105,105128765,1000,1000,1000,1000,0,0,0,0,0,0,0,0,0,0
1681745976.00049090,105228725,1000,1000,1000,1000,0,0,0,0,0,0,0,0,0,0
1681745976.10045099,105328685,1000,1000,1000,1000,0,0,0,0,0,0,0,0,0,0
1681745976.20041084,105428645,1000,1000,1000,1000,0,0,0,0,0,0,0,0,0,0
1681745976.30037093,105528605,1000,1000,1000,1000,0,0,0,0,0,0,0,0,0,0
1681745976.40033102,105628565,1000,1000,1000,1000,0,0,0,0,0,0,0,0,0,0
1681745976.50029087,105728525,1000,1000,1000,1000,0,0,0,0,0,0,0,0,0,0
1681745976.60025096,105828485,1000,1000,1000,1000,0,0,0,0,0,0,0,0,0,0
1681745976.70021105,105928445,1000,1000,1000,1000,0,0,0,0,0,0,0,0,0,0
1681745976.80017090,106028405,1000,1000,1000,1000,0,0,0,0,0,0,0,0,0,0
1681745976.90013099,106128365,1000,1000,1000,1000,0,0,0,0,0,0,0,0,0,0
1681745977.00009084,106228325,1000,1000,1000,1000,0,0,0,0,0,0,0,0,0,0
1681745977.10005093,106328285,1000,1000,1000,1000,0,0,0,0,0,0,0,0,0,0
1681745977.20001101,106428245,1000,1000,1000,1000,0,0,0,0,0,0,0,0,0,0
1681745977.29997087,106528205,1000,1000,1000,1000,0,0,0,0,0,0,0,0,0,0
1681745977.39993095,106628165,1000,1000,1000,1000,0,0,0,0,0,0,0,0,0,0
1681745977.50072384,106728958,1000,1000,1000,1000,0,0,0,0,0,0,0,0,0,0
1681745977.60068393,106828918,1000,1000,1000,1000,0,0,0,0,0,0,0,0,0,0
1681745977.70064402,106928878,1000,1000,1000,1000,0,0,0,0,0,0,0,0,0,0
1681745977.80060387,107028838,1000,1000,1000,1000,0,0,0,0,0,0,0,0,0,0
1681745977.90056396,107128798,1000,1000,1000,1000,0,0,0,0,0,0,0,0,0,0
1681745978.00052404,107228758,1000,1000,1000,1000,0,0,0,0,0,0,0,0,0,0
1681745978.10048389,107328718,1000,1000,1000,1000,0,0,0,0,0,0,0,0,0,0
1681745978.20044398,107428678,1000,1000,1000,1000,0,0,0,0,0,0,0,0,0,0
1681745978.30040383,107528638,1000,1000,1000,1000,0,0,0,0,0,0,0,0,0,0
1681745978.40036392,107628598,1000,1000,1000,1000,0,0,0,0,0,0,0,0,0,0
1681745978.50032401,107728558,1000,1000,1000,1000,0,0,0,0,0,0,0,0,0,0
1681745978.60028386,107828518,1000,1000,1000,1000,0,0,0,0,0,0,0,0,0,0
1681745978.70024395,107928478,1000,1000,1000,1000,0,0,0,0,0,0,0,0,0,0
1681745978.80020404,108028438,1000,1000,1000,1000,0,0,0,0,0,0,0,0,0,0
1681745978.90016389,108128398,1000,1000,1000,1000,0,0,0,0,0,0,0,0,0,0
1681745979.00012398,108228358,1000,1000,1000,1000,0,0,0,0,0,0,0,0,0,0
1681745979.10008407,108328318,1000,1000,1000,1000,0,0,0,0,0,0,0,0,0,0
1681745979.20004392,108428278,1000,1000,1000,1000,0,0,0,0,0,0,0,0,0,0
1681745979.30000401,108528238,1000,1000,1000,1000,0,0,0,0,0,0,0,0,0,0
1681745979.39996386,108628198,1000,1000,1000,1000,0,0,0,0,0,0,0,0,0,0
1681745979.49992394,108728158,1000,1000,1000,1000,0,0,0,0,0,0,0,0,0,0
1681745979.60071683,108828951,1000,1000,1000,1000,0,0,0,0,0,0,0,0,0,0
1681745979.70067692,108928911,1000,1000,1000,1000,0,0,0,0,0,0,0,0,0,0
1681745979.80063701,109028871,1000,1000,1000,1000,0,0,0,0,0,0,0,0,0,0
1681745979.90059686,109128831,1000,1000,1000,1000,0,0,0,0,0,0,0,0,0,0
1681745980.00055695,109228791,1000,1000,1000,1000,0,0,0,0,0,0,0,0,0,0
1681745980.10051703,109328751,1000,1000,1000,1000,0,0,0,0,0,0,0,0,0,0
1681745980.20047688,109428711,1000,1000,1000,1000,0,0,0,0,0,0,0,0,0,0
1681745980.30043697,109528671,1000,1000,1000,1000,0,0,0,0,0,0,0,0,0,0
1681745980.40039706,109628631,1000,1000,1000,1000,0,0,0,0,0,0,0,0,0,0
1681745980.50035691,109728591,1000,1000,1000,1000,0,0,0,0,0,0,0,0,0,0
1681745980.60031700,109828551,1000,1000,1000,1000,0,0,0,0,0,0,0,0,0,0
1681745980.70027685,109928511,1000,1000,1000,1000,0,0,0,0,0,0,0,0,0,0
1681745980.80023694,110028471,1000,1000,1000,1000,0,0,0,0,0,0,0,0,0,0
1681745980.90019703,110128431,1000,1000,1000,1000,0,0,0,0,0,0,0,0,0,0
1681745981.00015688,110228391,1000,1000,1000,1000,0,0,0,0,0,0,0,0,0,0
1681745981.10011697,110328351,1000,1000,1000,1000,0,0,0,0,0,0,0,0,0,0
1681745981.20007706,110428311,1000,1000,1000,1000,0,0,0,0,0,0,0,0,0,0
1681745981.30003691,110528271,1000,1000,1000,1000,0,0,0,0,0,0,0,0,0,0
1681745981.39999700,110628231,1000,1000,1000,1000,0,0,0,0,0,0,0,0,0,0
1681745981.49995685,110728191,1000,1000,1000,1000,0,0,0,0,0,0,0,0,0,0
1681745981.60074997,110828984,1000,1000,1000,1000,0,0,0,0,0,0,0,0,0,0
1681745981.70071006,110928944,1000,1000,1000,1000,0,0,0,0,0,0,0,0,0,0
1681745981.80066991,111028904,1000,1000,1000,1000,0,0,0,0,0,0,0,0,0,0
1681745981.90063000,111128864,1000,1000,1000,1000,0,0,0,0,0,0,0,0,0,0
1681745982.00058985,111228824,1000,1000,1000,1000,0,0,0,0,0,0,0,0,0,0
1681745982.10054994,111328784,1000,1000,1000,1000,0,0,0,0,0,0,0,0,0,0
1681745982.20051003,111428744,1000,1000,1000,1000,0,0,0,0,0,0,0,0,0,0
1681745982.30046988,111528704,1000,1000,1000,1000,0,0,0,0,0,0,0,0,0,0
1681745982.40042996,111628664,1000,1000,1000,1000,0,0,0,0,0,0,0,0,0,0
1681745982.50039005,111728624,1000,1000,1000,1000,0,0,0,0,0,0,0,0,0,0
1681745982.60034990,111828584,1000,1000,1000,1000,0,0,0,0,0,0,0,0,0,0
1681745982.70030999,111928544,1000,1000,1000,1000,0,0,0,0,0,0,0,0,0,0
1681745982.80026984,112028504,1000,1000,1000,1000,0,0,0,0,0,0,0,0,0,0
1681745982.90022993,112128464,1000,1000,1000,1000,0,0,0,0,0,0,0,0,0,0
1681745983.00019002,112228424,1000,1000,1000,1000,0,0,0,0,0,0,0,0,0,0
1681745983.10014987,112328384,1000,1000,1000,1000,0,0,0,0,0,0,0,0,0,0
1681745983.20010996,112428344,1000,1000,1000,1000,0,0,0,0,0,0,0,0,0,0
1681745983.30007005,112528304,1000,1000,1000,1000,0,0,0,0,0,0,0,0,0,0
1681745983.40002990,112628264,1000,1000,1000,1000,0,0,0,0,0,0,0,0,0,0
1681745983.49998999,112728224,1000,1000,1000,1000,0,0,0,0,0,0,0,0,0,0
1681745983.59994984,112828184,1000,1000,1000,1000,0,0,0,0,0,0,0,0,0,0
1681745983.70074296,112928977,1000,1000,1000,1000,0,0,0,0,0,0,0,0,0,0
1681745983.80070305,113028937,1000,1000,1000,1000,0,0,0,0,0,0,0,0,0,0
1681745983.90066290,113128897,1000,1000,1000,1000,0,0,0,0,0,0,0,0,0,0
1681745984.00062299,113228857,1000,1000,1000,1000,0,0,0,0,0,0,0,0,0,0
1681745984.10058284,113328817,1000,1000,1000,1000,0,0,0,0,0,0,0,0,0,0
1681745984.20054293,113428777,1000,1000,1000,1000,0,0,0,0,0,0,0,0,0,0
1681745984.30050302,113528737,1000,1000,1000,1000,0,0,0,0,0,0,0,0,0,0
1681745984.40046287,113628697,1000,1000,1000,1000,0,0,0,0,0,0,0,0,0,0
1681745984.50042295,113728657,1000,1000,1000,1000,0,0,0,0,0,0,0,0,0,0
1681745984.60038304,113828617,1000,1000,1000,1000,0,0,0,0,0,0,0,0,0,0
1681745984.70034289,113928577,1000,1000,1000,1000,0,0,0,0,0,0,0,0,0,0
1681745984.80030298,114028537,1000,1000,1000,1000,0,0,0,0,0,0,0,0,0,0
1681745984.90026283,114128497,1000,1000,1000,1000,0,0,0,0,0,0,0,0,0,0
1681745985.00022292,114228457,1000,1000,1000,1000,0,0,0,0,0,0,0,0,0,0
1681745985.10018301,114328417,1000,1000,1000,1000,0,0,0,0,0,0,0,0,0,0
1681745985.20014286,114428377,1000,1000,1000,1000,0,0,0,0,0,0,0,0,0,0
1681745985.30010295,114528337,1000,1000,1000,1000,0,0,0,0,0,0,0,0,0,0
1681745985.40006304,114628297,1000,1000,1000,1000,0,0,0,0,0,0,0,0,0,0
1681745985.50002289,114728257,1000,1000,1000,1000,0,0,0,0,0,0,0,0,0,0
1681745985.59998298,114828217,1000,1000,1000,1000,0,0,0,0,0,0,0,0,0,0
1681745985.69994307,114928177,1000,1000,1000,1000,0,0,0,0,0,0,0,0,0,0
1681745985.80073595,115028970,1000,1000,1000,1000,0,0,0,0,0,0,0,0,0,0
1681745985.90069604,115128930,1000,1000,1000,1000,0,0,0,0,0,0,0,0,0,0
1681745986.00065589,115228890,1000,1000,1000,1000,0,0,0,0,0,0,0,0,0,0
1681745986.10061598,115328850,1000,1000,1000,1000,0,0,0,0,0,0,0,0,0,0
1681745986.20057583,115428810,1000,1000,1000,1000,0,0,0,0,0,0,0,0,0,0
1681745986.30053592,115528770,1000,1000,1000,1000,0,0,0,0,0,0,0,0,0,0
1681745986.40049601,115628730,1000,1000,1000,1000,0,0,0,0,0,0,0,0,0,0
1681745986.50045586,115728690,1000,1000,1000,1000,0,0,0,0,0,0,0,0,0,0
1681745986.60041595,115828650,1000,1000,1000,1000,0,0,0,0,0,0,0,0,0,0
1681745986.70037603,115928610,1000,1000,1000,1000,0,0,0,0,0,0,0,0,0,0
1681745986.80033588,116028570,1000,1000,1000,1000,0,0,0,0,0,0,0,0,0,0
1681745986.90029597,116128530,1000,1000,1000,1000,0,0,0,0,0,0,0,0,0,0
1681745987.00025606,116228490,1000,1000,1000,1000,0,0,0,0,0,0,0,0,0,0
