timestamp,TimeUS,C1,C2,C3,C4,C5,C6,C7,C8,C9,C10,C11,C12,C13,C14
1681389984.10003996,64328425,1000,1000,1000,1000,0,0,0,0,0,0,0,0,0,0
1681389984.20000005,64428385,1000,1000,1000,1000,0,0,0,0,0,0,0,0,0,0
1681389984.29996014,64528345,1000,1000,1000,1000,0,0,0,0,0,0,0,0,0,0
1681389984.39991999,64628305,1000,1000,1000,1000,0,0,0,0,0,0,0,0,0,0
1681389984.49988008,64728265,1000,1000,1000,1000,0,0,0,0,0,0,0,0,0,0
1681389984.59983993,64828225,1000,1000,1000,1000,0,0,0,0,0,0,0,0,0,0
1681389984.69980001,64928185,1000,1000,1000,1000,0,0,0,0,0,0,0,0,0,0
1681389984.80059314,65028978,1000,1000,1000,1000,0,0,0,0,0,0,0,0,0,0
1681389984.90055299,65128938,1000,1000,1000,1000,0,0,0,0,0,0,0,0,0,0
1681389985.00051308,65228898,1000,1000,1000,1000,0,0,0,0,0,0,0,0,0,0
1681389985.10047293,65328858,1000,1000,1000,1000,0,0,0,0,0,0,0,0,0,0
1681389985.20043302,65428818,1000,1000,1000,1000,0,0,0,0,0,0,0,0,0,0
1681389985.30039310,65528778,1000,1000,1000,1000,0,0,0,0,0,0,0,0,0,0
1681389985.40035295,65628738,1000,1000,1000,1000,0,0,0,0,0,0,0,0,0,0
1681389985.50031304,65728698,1000,1000,1000,1000,0,0,0,0,0,0,0,0,0,0
1681389985.60027313,65828658,1000,1000,1000,1000,0,0,0,0,0,0,0,0,0,0
1681389985.70023298,65928618,1000,1000,1000,1000,0,0,0,0,0,0,0,0,0,0
1681389985.80019307,66028578,1000,1000,1000,1000,0,0,0,0,0,0,0,0,0,0
1681389985.90015292,66128538,1000,1000,1000,1000,0,0,0,0,0,0,0,0,0,0
1681389986.00011301,66228498,1000,1000,1000,1000,0,0,0,0,0,0,0,0,0,0
1681389986.10007310,66328458,1025,1025,1025,1025,0,0,0,0,0,0,0,0,0,0
1681389986.20003295,66428418,1055,1055,1055,1055,0,0,0,0,0,0,0,0,0,0
1681389986.29999304,66528378,1085,1085,1085,1085,0,0,0,0,0,0,0,0,0,0
1681389986.39995313,66628338,1115,1115,1115,1115,0,0,0,0,0,0,0,0,0,0
1681389986.49991298,66728298,1145,1145,1145,1145,0,0,0,0,0,0,0,0,0,0
1681389986.59987307,66828258,1368,1361,1362,1369,0,0,0,0,0,0,0,0,0,0
1681389986.69983292,66928218,1555,1549,1549,1556,0,0,0,0,0,0,0,0,0,0
1681389986.79979300,67028178,1706,1701,1701,1707,0,0,0,0,0,0,0,0,0,0
1681389986.90058613,67128971,1836,1831,1831,1837,0,0,0,0,0,0,0,0,0,0
1681389987.00054598,67228931,1869,1863,1863,1869,0,0,0,0,0,0,0,0,0,0
1681389987.10050607,67328891,1821,1819,1819,1821,0,0,0,0,0,0,0,0,0,0
1681389987.20046592,67428851,1692,1694,1694,1692,0,0,0,0,0,0,0,0,0,0
1681389987.30042601,67528811,1622,1624,1624,1623,0,0,0,0,0,0,0,0,0,0
1681389987.40038610,67628771,1615,1617,1617,1615,0,0,0,0,0,0,0,0,0,0
1681389987.50034595,67728731,1628,1629,1629,1628,0,0,0,0,0,0,0,0,0,0
1681389987.60030603,67828691,1637,1631,1630,1637,0,0,0,0,0,0,0,0,0,0
1681389987.70026612,67928651,1623,1623,1617,1630,0,0,0,0,0,0,0,0,0,0
1681389987.80022597,68028611,1615,1616,1611,1620,0,0,0,0,0,0,0,0,0,0
1681389987.90018606,68128571,1611,1612,1610,1613,0,0,0,0,0,0,0,0,0,0
1681389988.00014591,68228531,1611,1612,1613,1610,0,0,0,0,0,0,0,0,0,0
1681389988.10010600,68328491,1614,1614,1617,1611,0,0,0,0,0,0,0,0,0,0
1681389988.20006609,68428451,1617,1617,1621,1613,0,0,0,0,0,0,0,0,0,0
1681389988.30002594,68528411,1620,1619,1623,1616,0,0,0,0,0,0,0,0,0,0
1681389988.39998603,68628371,1608,1608,1612,1604,0,0,0,0,0,0,0,0,0,0
1681389988.49994612,68728331,1584,1585,1594,1575,0,0,0,0,0,0,0,0,0,0
1681389988.59990597,68828291,1570,1571,1575,1566,0,0,0,0,0,0,0,0,0,0
1681389988.69986606,68928251,1560,1560,1559,1561,0,0,0,0,0,0,0,0,0,0
1681389988.79982615,69028211,1551,1551,1543,1560,0,0,0,0,0,0,0,0,0,0
1681389988.89978600,69128171,1544,1543,1533,1553,0,0,0,0,0,0,0,0,0,0
1681389989.00057912,69228964,1537,1536,1529,1544,0,0,0,0,0,0,0,0,0,0
1681389989.10053897,69328924,1532,1531,1528,1535,0,0,0,0,0,0,0,0,0,0
1681389989.20049906,69428884,1529,1529,1528,1528,0,0,0,0,0,0,0,0,0,0
1681389989.30045915,69528844,1529,1529,1531,1527,0,0,0,0,0,0,0,0,0,0
1681389989.40041900,69628804,1530,1530,1533,1527,0,0,0,0,0,0,0,0,0,0
1681389989.50037909,69728764,1534,1534,1537,1531,0,0,0,0,0,0,0,0,0,0
1681389989.60033894,69828724,1537,1537,1540,1535,0,0,0,0,0,0,0,0,0,0
1681389989.70029902,69928684,1541,1541,1543,1539,0,0,0,0,0,0,0,0,0,0
1681389989.80025911,70028644,1543,1543,1544,1542,0,0,0,0,0,0,0,0,0,0
1681389989.90021896,70128604,1547,1546,1547,1547,0,0,0,0,0,0,0,0,0,0
1681389990.00017905,70228564,1550,1550,1549,1551,0,0,0,0,0,0,0,0,0,0
1681389990.10013914,70328524,1553,1553,1551,1554,0,0,0,0,0,0,0,0,0,0
1681389990.20009899,70428484,1554,1555,1553,1557,0,0,0,0,0,0,0,0,0,0
1681389990.30005908,70528444,1556,1556,1557,1559,0,0,0,0,0,0,0,0,0,0
1681389990.40001893,70628404,1557,1557,1560,1561,0,0,0,0,0,0,0,0,0,0
1681389990.49997902,70728364,1559,1559,1563,1563,0,0,0,0,0,0,0,0,0,0
1681389990.59993911,70828324,1561,1561,1565,1565,0,0,0,0,0,0,0,0,0,0
1681389990.69989896,70928284,1563,1563,1567,1566,0,0,0,0,0,0,0,0,0,0
1681389990.79985905,71028244,1565,1566,1568,1567,0,0,0,0,0,0,0,0,0,0
1681389990.89981914,71128204,1567,1567,1568,1568,0,0,0,0,0,0,0,0,0,0
1681389990.99977899,71228164,1569,1570,1569,1569,0,0,0,0,0,0,0,0,0,0
1681389991.10057211,71328957,1570,1570,1569,1568,0,0,0,0,0,0,0,0,0,0
1681389991.20053196,71428917,1571,1571,1569,1569,0,0,0,0,0,0,0,0,0,0
1681389991.30049205,71528877,1572,1571,1569,1569,0,0,0,0,0,0,0,0,0,0
1681389991.40045214,71628837,1573,1573,1570,1570,0,0,0,0,0,0,0,0,0,0
1681389991.50041199,71728797,1575,1574,1572,1572,0,0,0,0,0,0,0,0,0,0
1681389991.60037208,71828757,1574,1574,1573,1571,0,0,0,0,0,0,0,0,0,0
1681389991.70033193,71928717,1575,1576,1574,1573,0,0,0,0,0,0,0,0,0,0
1681389991.80029202,72028677,1575,1576,1575,1574,0,0,0,0,0,0,0,0,0,0
1681389991.90025210,72128637,1575,1575,1575,1574,0,0,0,0,0,0,0,0,0,0
1681389992.00021195,72228597,1577,1576,1576,1576,0,0,0,0,0,0,0,0,0,0
1681389992.10017204,72328557,1577,1577,1577,1577,0,0,0,0,0,0,0,0,0,0
1681389992.20013213,72428517,1576,1577,1577,1577,0,0,0,0,0,0,0,0,0,0
1681389992.30009198,72528477,1576,1576,1577,1577,0,0,0,0,0,0,0,0,0,0
1681389992.40005207,72628437,1576,1577,1577,1577,0,0,0,0,0,0,0,0,0,0
1681389992.50001192,72728397,1577,1576,1577,1577,0,0,0,0,0,0,0,0,0,0
1681389992.59997201,72828357,1577,1577,1577,1577,0,0,0,0,0,0,0,0,0,0
1681389992.69993210,72928317,1577,1577,1578,1577,0,0,0,0,0,0,0,0,0,0
1681389992.79989195,73028277,1577,1577,1578,1577,0,0,0,0,0,0,0,0,0,0
1681389992.89985204,73128237,1578,1578,1578,1578,0,0,0,0,0,0,0,0,0,0
1681389992.99981213,73228197,1577,1577,1577,1577,0,0,0,0,0,0,0,0,0,0
1681389993.09977198,73328157,1577,1577,1577,1577,0,0,0,0,0,0,0,0,0,0
1681389993.20056510,73428950,1578,1577,1578,1578,0,0,0,0,0,0,0,0,0,0
1681389993.30052495,73528910,1578,1578,1578,1578,0,0,0,0,0,0,0,0,0,0
1681389993.40048504,73628870,1578,1579,1578,1578,0,0,0,0,0,0,0,0,0,0
1681389993.50044513,73728830,1579,1579,1579,1579,0,0,0,0,0,0,0,0,0,0
1681389993.60040498,73828790,1578,1579,1579,1579,0,0,0,0,0,0,0,0,0,0
1681389993.70036507,73928750,1579,1579,1578,1579,0,0,0,0,0,0,0,0,0,0
1681389993.80032492,74028710,1579,1578,1579,1579,0,0,0,0,0,0,0,0,0,0
1681389993.90028501,74128670,1580,1579,1579,1579,0,0,0,0,0,0,0,0,0,0
1681389994.00024509,74228630,1579,1579,1579,1579,0,0,0,0,0,0,0,0,0,0
1681389994.10020494,74328590,1580,1580,1580,1580,0,0,0,0,0,0,0,0,0,0
1681389994.20016503,74428550,1580,1580,1580,1580,0,0,0,0,0,0,0,0,0,0
1681389994.30012512,74528510,1579,1579,1579,1579,0,0,0,0,0,0,0,0,0,0
1681389994.40008497,74628470,1579,1580,1580,1580,0,0,0,0,0,0,0,0,0,0
1681389994.50004506,74728430,1579,1579,1579,1580,0,0,0,0,0,0,0,0,0,0
1681389994.60000491,74828390,1579,1579,1579,1579,0,0,0,0,0,0,0,0,0,0
1681389994.69996500,74928350,1580,1580,1580,1580,0,0,0,0,0,0,0,0,0,0
1681389994.79992509,75028310,1580,1581,1581,1581,0,0,0,0,0,0,0,0,0,0
1681389994.89988494,75128270,1580,1580,1580,1580,0,0,0,0,0,0,0,0,0,0
1681389994.99984503,75228230,1579,1579,1579,1579,0,0,0,0,0,0,0,0,0,0
1681389995.09980512,75328190,1580,1580,1580,1580,0,0,0,0,0,0,0,0,0,0
1681389995.20059800,75428983,1580,1580,1580,1580,0,0,0,0,0,0,0,0,0,0
1681389995.30055809,75528943,1580,1580,1580,1580,0,0,0,0,0,0,0,0,0,0
1681389995.40051794,75628903,1580,1580,1580,1580,0,0,0,0,0,0,0,0,0,0
1681389995.50047803,75728863,1581,1581,1581,1581,0,0,0,0,0,0,0,0,0,0
1681389995.60043812,75828823,1580,1581,1580,1581,0,0,0,0,0,0,0,0,0,0
1681389995.70039797,75928783,1580,1580,1580,1580,0,0,0,0,0,0,0,0,0,0
1681389995.80035806,76028743,1580,1580,1580,1580,0,0,0,0,0,0,0,0,0,0
1681389995.90031815,76128703,1580,1580,1580,1580,0,0,0,0,0,0,0,0,0,0
1681389996.00027800,76228663,1581,1581,1581,1581,0,0,0,0,0,0,0,0,0,0
1681389996.10023808,76328623,1581,1581,1581,1581,0,0,0,0,0,0,0,0,0,0
1681389996.20019794,76428583,1581,1581,1581,1581,0,0,0,0,0,0,0,0,0,0
1681389996.30015802,76528543,1580,1581,1581,1580,0,0,0,0,0,0,0,0,0,0
1681389996.40011811,76628503,1581,1581,1585,1577,0,0,0,0,0,0,0,0,0,0
1681389996.50007796,76728463,1580,1582,1587,1573,0,0,0,0,0,0,0,0,0,0
1681389996.60003805,76828423,1579,1582,1581,1573,0,0,0,0,0,0,0,0,0,0
1681389996.69999814,76928383,1577,1580,1572,1573,0,0,0,0,0,0,0,0,0,0
1681389996.79995799,77028343,1576,1579,1564,1569,0,0,0,0,0,0,0,0,0,0
1681389996.89991808,77128303,1577,1579,1559,1565,0,0,0,0,0,0,0,0,0,0
1681389996.99987793,77228263,1579,1580,1557,1562,0,0,0,0,0,0,0,0,0,0
1681389997.09983802,77328223,1579,1578,1555,1557,0,0,0,0,0,0,0,0,0,0
1681389997.19979811,77428183,1580,1578,1556,1555,0,0,0,0,0,0,0,0,0,0
1681389997.30059099,77528976,1578,1578,1555,1553,0,0,0,0,0,0,0,0,0,0
1681389997.40055108,77628936,1578,1577,1556,1553,0,0,0,0,0,0,0,0,0,0
1681389997.50051093,77728896,1576,1577,1555,1554,0,0,0,0,0,0,0,0,0,0
1681389997.60047102,77828856,1576,1577,1555,1554,0,0,0,0,0,0,0,0,0,0
1681389997.70043111,77928816,1575,1577,1554,1554,0,0,0,0,0,0,0,0,0,0
1681389997.80039096,78028776,1575,1577,1553,1553,0,0,0,0,0,0,0,0,0,0
1681389997.90035105,78128736,1576,1577,1551,1551,0,0,0,0,0,0,0,0,0,0
1681389998.00031114,78228696,1577,1579,1549,1549,0,0,0,0,0,0,0,0,0,0
1681389998.10027099,78328656,1580,1580,1546,1547,0,0,0,0,0,0,0,0,0,0
1681389998.20023108,78428616,1582,1582,1543,1543,0,0,0,0,0,0,0,0,0,0
1681389998.30019093,78528576,1586,1587,1542,1541,0,0,0,0,0,0,0,0,0,0
1681389998.40015101,78628536,1589,1590,1539,1539,0,0,0,0,0,0,0,0,0,0
1681389998.50011110,78728496,1592,1593,1537,1537,0,0,0,0,0,0,0,0,0,0
1681389998.60007095,78828456,1593,1594,1534,1534,0,0,0,0,0,0,0,0,0,0
1681389998.70003104,78928416,1595,1594,1535,1535,0,0,0,0,0,0,0,0,0,0
1681389998.79999113,79028376,1594,1594,1535,1536,0,0,0,0,0,0,0,0,0,0
1681389998.89995098,79128336,1594,1594,1538,1541,0,0,0,0,0,0,0,0,0,0
1681389998.99991107,79228296,1591,1591,1542,1545,0,0,0,0,0,0,0,0,0,0
1681389999.09987092,79328256,1586,1584,1547,1551,0,0,0,0,0,0,0,0,0,0
1681389999.19983101,79428216,1580,1576,1557,1559,0,0,0,0,0,0,0,0,0,0
1681389999.29979110,79528176,1571,1567,1569,1572,0,0,0,0,0,0,0,0,0,0
1681389999.40058398,79628969,1559,1555,1581,1582,0,0,0,0,0,0,0,0,0,0
1681389999.50054407,79728929,1548,1545,1593,1594,0,0,0,0,0,0,0,0,0,0
1681389999.60050392,79828889,1538,1537,1603,1603,0,0,0,0,0,0,0,0,0,0
1681389999.70046401,79928849,1532,1532,1611,1610,0,0,0,0,0,0,0,0,0,0
1681389999.80042410,80028809,1528,1529,1614,1613,0,0,0,0,0,0,0,0,0,0
1681389999.90038395,80128769,1529,1531,1615,1614,0,0,0,0,0,0,0,0,0,0
1681390000.00034404,80228729,1533,1536,1612,1611,0,0,0,0,0,0,0,0,0,0
1681390000.10030413,80328689,1540,1542,1606,1606,0,0,0,0,0,0,0,0,0,0
1681390000.20026398,80428649,1548,1550,1599,1600,0,0,0,0,0,0,0,0,0,0
1681390000.30022407,80528609,1558,1559,1592,1592,0,0,0,0,0,0,0,0,0,0
1681390000.40018392,80628569,1567,1567,1585,1584,0,0,0,0,0,0,0,0,0,0
1681390000.50014400,80728529,1574,1574,1578,1577,0,0,0,0,0,0,0,0,0,0
1681390000.60010409,80828489,1581,1580,1573,1572,0,0,0,0,0,0,0,0,0,0
1681390000.70006394,80928449,1586,1583,1569,1568,0,0,0,0,0,0,0,0,0,0
1681390000.80002403,81028409,1588,1586,1567,1566,0,0,0,0,0,0,0,0,0,0
1681390000.89998412,81128369,1589,1587,1567,1566,0,0,0,0,0,0,0,0,0,0
1681390000.99994397,81228329,1587,1586,1567,1568,0,0,0,0,0,0,0,0,0,0
1681390001.09990406,81328289,1585,1585,1569,1570,0,0,0,0,0,0,0,0,0,0
1681390001.19986391,81428249,1582,1581,1571,1572,0,0,0,0,0,0,0,0,0,0
1681390001.29982400,81528209,1580,1579,1575,1575,0,0,0,0,0,0,0,0,0,0
1681390001.39978409,81628169,1576,1576,1578,1577,0,0,0,0,0,0,0,0,0,0
1681390001.50057697,81728962,1574,1575,1581,1580,0,0,0,0,0,0,0,0,0,0
1681390001.60053706,81828922,1573,1574,1584,1582,0,0,0,0,0,0,0,0,0,0
1681390001.70049691,81928882,1573,1574,1584,1584,0,0,0,0,0,0,0,0,0,0
1681390001.80045700,82028842,1572,1573,1584,1584,0,0,0,0,0,0,0,0,0,0
1681390001.90041709,82128802,1539,1541,1822,1660,0,0,0,0,0,0,0,0,0,0
1681390002.00037694,82228762,1512,1526,1619,1673,0,0,0,0,0,0,0,0,0,0
1681390002.10033703,82328722,1550,1570,1560,1679,0,0,0,0,0,0,0,0,0,0
1681390002.20029712,82428682,1591,1609,1560,1661,0,0,0,0,0,0,0,0,0,0
1681390002.30025697,82528642,1609,1619,1560,1614,0,0,0,0,0,0,0,0,0,0
1681390002.40021706,82628602,1617,1619,1560,1565,0,0,0,0,0,0,0,0,0,0
1681390002.50017715,82728562,1620,1613,1560,1535,0,0,0,0,0,0,0,0,0,0
1681390002.60013700,82828522,1622,1607,1560,1527,0,0,0,0,0,0,0,0,0,0
1681390002.70009708,82928482,1624,1603,1560,1534,0,0,0,0,0,0,0,0,0,0
1681390002.80005693,83028442,1619,1595,1560,1546,0,0,0,0,0,0,0,0,0,0
1681390002.90001702,83128402,1606,1587,1560,1558,0,0,0,0,0,0,0,0,0,0
1681390002.99997711,83228362,1599,1588,1560,1565,0,0,0,0,0,0,0,0,0,0
1681390003.09993696,83328322,1588,1586,1560,1567,0,0,0,0,0,0,0,0,0,0
1681390003.19989705,83428282,1571,1576,1560,1565,0,0,0,0,0,0,0,0,0,0
1681390003.29985714,83528242,1555,1564,1560,1560,0,0,0,0,0,0,0,0,0,0
1681390003.39981699,83628202,1544,1554,1560,1556,0,0,0,0,0,0,0,0,0,0
1681390003.49977708,83728162,1538,1546,1560,1554,0,0,0,0,0,0,0,0,0,0
1681390003.60056996,83828955,1537,1542,1560,1554,0,0,0,0,0,0,0,0,0,0
1681390003.70053005,83928915,1540,1541,1560,1554,0,0,0,0,0,0,0,0,0,0
1681390003.80049014,84028875,1544,1544,1560,1556,0,0,0,0,0,0,0,0,0,0
1681390003.90044999,84128835,1548,1547,1560,1558,0,0,0,0,0,0,0,0,0,0
1681390004.00041008,84228795,1551,1551,1560,1559,0,0,0,0,0,0,0,0,0,0
1681390004.10036993,84328755,1577,1578,1598,1585,0,0,0,0,0,0,0,0,0,0
1681390004.20033002,84428715,1600,1601,1620,1610,0,0,0,0,0,0,0,0,0,0
1681390004.30029011,84528675,1614,1615,1624,1623,0,0,0,0,0,0,0,0,0,0
1681390004.40024996,84628635,1621,1620,1623,1625,0,0,0,0,0,0,0,0,0,0
1681390004.50021005,84728595,1625,1623,1624,1620,0,0,0,0,0,0,0,0,0,0
1681390004.60017014,84828555,1625,1623,1613,1616,0,0,0,0,0,0,0,0,0,0
1681390004.70012999,84928515,1621,1622,1603,1609,0,0,0,0,0,0,0,0,0,0
1681390004.80009007,85028475,1617,1618,1594,1600,0,0,0,0,0,0,0,0,0,0
1681390004.90004992,85128435,1613,1615,1590,1592,0,0,0,0,0,0,0,0,0,0
1681390005.00001001,85228395,1609,1611,1587,1585,0,0,0,0,0,0,0,0,0,0
1681390005.09997010,85328355,1606,1606,1583,1579,0,0,0,0,0,0,0,0,0,0
1681390005.19992995,85428315,1600,1599,1576,1573,0,0,0,0,0,0,0,0,0,0
1681390005.29989004,85528275,1595,1594,1570,1568,0,0,0,0,0,0,0,0,0,0
1681390005.39985013,85628235,1589,1589,1566,1565,0,0,0,0,0,0,0,0,0,0
1681390005.49980998,85728195,1584,1584,1562,1562,0,0,0,0,0,0,0,0,0,0
1681390005.59977007,85828155,1579,1581,1560,1559,0,0,0,0,0,0,0,0,0,0
1681390005.70056295,85928948,1578,1580,1560,1558,0,0,0,0,0,0,0,0,0,0
1681390005.80052304,86028908,1578,1580,1560,1559,0,0,0,0,0,0,0,0,0,0
1681390005.90048313,86128868,1579,1582,1560,1560,0,0,0,0,0,0,0,0,0,0
1681390006.00044298,86228828,1582,1584,1560,1560,0,0,0,0,0,0,0,0,0,0
1681390006.10040307,86328788,1587,1588,1560,1560,0,0,0,0,0,0,0,0,0,0
1681390006.20036292,86428748,1592,1594,1560,1560,0,0,0,0,0,0,0,0,0,0
1681390006.30032301,86528708,1600,1601,1560,1559,0,0,0,0,0,0,0,0,0,0
1681390006.40028310,86628668,1608,1610,1560,1559,0,0,0,0,0,0,0,0,0,0
1681390006.50024295,86728628,1619,1619,1560,1559,0,0,0,0,0,0,0,0,0,0
1681390006.60020304,86828588,1630,1630,1560,1559,0,0,0,0,0,0,0,0,0,0
1681390006.70016313,86928548,1608,1607,1560,1560,0,0,0,0,0,0,0,0,0,0
1681390006.80012298,87028508,1586,1585,1560,1561,0,0,0,0,0,0,0,0,0,0
1681390006.90008307,87128468,1585,1583,1560,1563,0,0,0,0,0,0,0,0,0,0
1681390007.00004292,87228428,1584,1583,1560,1563,0,0,0,0,0,0,0,0,0,0
1681390007.10000300,87328388,1585,1583,1560,1563,0,0,0,0,0,0,0,0,0,0
1681390007.19996309,87428348,1585,1582,1560,1563,0,0,0,0,0,0,0,0,0,0
1681390007.29992294,87528308,1585,1583,1560,1563,0,0,0,0,0,0,0,0,0,0
1681390007.39988303,87628268,1585,1582,1560,1564,0,0,0,0,0,0,0,0,0,0
1681390007.49984312,87728228,1585,1581,1560,1565,0,0,0,0,0,0,0,0,0,0
1681390007.59980297,87828188,1584,1581,1560,1565,0,0,0,0,0,0,0,0,0,0
1681390007.70059609,87928981,1585,1582,1560,1565,0,0,0,0,0,0,0,0,0,0
1681390007.80055594,88028941,1584,1583,1560,1563,0,0,0,0,0,0,0,0,0,0
1681390007.90051603,88128901,1560,1559,1560,1561,0,0,0,0,0,0,0,0,0,0
1681390008.00047612,88228861,1533,1531,1560,1559,0,0,0,0,0,0,0,0,0,0
1681390008.10043597,88328821,1508,1508,1560,1558,0,0,0,0,0,0,0,0,0,0
1681390008.20039606,88428781,1488,1488,1560,1558,0,0,0,0,0,0,0,0,0,0
1681390008.30035591,88528741,1470,1470,1560,1558,0,0,0,0,0,0,0,0,0,0
1681390008.40031600,88628701,1457,1459,1560,1558,0,0,0,0,0,0,0,0,0,0
1681390008.50027609,88728661,1456,1459,1560,1559,0,0,0,0,0,0,0,0,0,0
1681390008.60023594,88828621,1466,1470,1560,1560,0,0,0,0,0,0,0,0,0,0
1681390008.70019603,88928581,1485,1488,1560,1559,0,0,0,0,0,0,0,0,0,0
1681390008.80015612,89028541,1508,1511,1560,1558,0,0,0,0,0,0,0,0,0,0
1681390008.90011597,89128501,1532,1534,1560,1558,0,0,0,0,0,0,0,0,0,0
1681390009.00007606,89228461,1555,1555,1560,1559,0,0,0,0,0,0,0,0,0,0
1681390009.10003614,89328421,1573,1572,1560,1559,0,0,0,0,0,0,0,0,0,0
1681390009.19999599,89428381,1585,1583,1560,1559,0,0,0,0,0,0,0,0,0,0
1681390009.29995608,89528341,1592,1590,1561,1560,0,0,0,0,0,0,0,0,0,0
1681390009.39991593,89628301,1607,1605,1582,1577,0,0,0,0,0,0,0,0,0,0
1681390009.49987602,89728261,1613,1611,1590,1588,0,0,0,0,0,0,0,0,0,0
1681390009.59983611,89828221,1615,1612,1591,1594,0,0,0,0,0,0,0,0,0,0
1681390009.69979596,89928181,1612,1611,1591,1596,0,0,0,0,0,0,0,0,0,0
1681390009.80058908,90028974,1609,1609,1593,1598,0,0,0,0,0,0,0,0,0,0
1681390009.90054893,90128934,1604,1605,1594,1596,0,0,0,0,0,0,0,0,0,0
1681390010.00050902,90228894,1598,1600,1592,1593,0,0,0,0,0,0,0,0,0,0
1681390010.10046911,90328854,1594,1596,1593,1592,0,0,0,0,0,0,0,0,0,0
1681390010.20042896,90428814,1592,1593,1594,1592,0,0,0,0,0,0,0,0,0,0
1681390010.30038905,90528774,1588,1588,1592,1590,0,0,0,0,0,0,0,0,0,0
1681390010.40034914,90628734,1585,1585,1589,1588,0,0,0,0,0,0,0,0,0,0
1681390010.50030899,90728694,1582,1582,1587,1587,0,0,0,0,0,0,0,0,0,0
1681390010.60026908,90828654,1580,1580,1585,1585,0,0,0,0,0,0,0,0,0,0
1681390010.70022893,90928614,1578,1578,1583,1584,0,0,0,0,0,0,0,0,0,0
1681390010.80018902,91028574,1578,1578,1583,1583,0,0,0,0,0,0,0,0,0,0
1681390010.90014911,91128534,1577,1578,1581,1581,0,0,0,0,0,0,0,0,0,0
1681390011.00010896,91228494,1578,1578,1581,1580,0,0,0,0,0,0,0,0,0,0
1681390011.10006905,91328454,1578,1578,1579,1579,0,0,0,0,0,0,0,0,0,0
1681390011.20002913,91428414,1579,1579,1580,1579,0,0,0,0,0,0,0,0,0,0
1681390011.29998899,91528374,1581,1580,1580,1580,0,0,0,0,0,0,0,0,0,0
1681390011.39994907,91628334,1580,1580,1579,1578,0,0,0,0,0,0,0,0,0,0
1681390011.49990892,91728294,1581,1581,1579,1578,0,0,0,0,0,0,0,0,0,0
1681390011.59986901,91828254,1581,1581,1578,1578,0,0,0,0,0,0,0,0,0,0
1681390011.69982910,91928214,1581,1580,1578,1578,0,0,0,0,0,0,0,0,0,0
1681390011.79978895,92028174,1581,1580,1578,1578,0,0,0,0,0,0,0,0,0,0
1681390011.90058208,92128967,1579,1579,1577,1577,0,0,0,0,0,0,0,0,0,0
1681390012.00054193,92228927,1580,1580,1579,1578,0,0,0,0,0,0,0,0,0,0
1681390012.10050201,92328887,1579,1579,1579,1579,0,0,0,0,0,0,0,0,0,0
1681390012.20046210,92428847,1579,1579,1580,1579,0,0,0,0,0,0,0,0,0,0
1681390012.30042195,92528807,1579,1579,1580,1580,0,0,0,0,0,0,0,0,0,0
1681390012.40038204,92628767,1579,1579,1579,1580,0,0,0,0,0,0,0,0,0,0
1681390012.50034213,92728727,1579,1579,1580,1580,0,0,0,0,0,0,0,0,0,0
1681390012.60030198,92828687,1579,1580,1580,1580,0,0,0,0,0,0,0,0,0,0
1681390012.70026207,92928647,1580,1579,1580,1580,0,0,0,0,0,0,0,0,0,0
1681390012.80022192,93028607,1581,1580,1581,1581,0,0,0,0,0,0,0,0,0,0
1681390012.90018201,93128567,1582,1582,1582,1582,0,0,0,0,0,0,0,0,0,0
1681390013.00014210,93228527,1582,1581,1581,1582,0,0,0,0,0,0,0,0,0,0
1681390013.10010195,93328487,1582,1582,1581,1582,0,0,0,0,0,0,0,0,0,0
1681390013.20006204,93428447,1581,1582,1580,1581,0,0,0,0,0,0,0,0,0,0
1681390013.30002213,93528407,1582,1582,1582,1581,0,0,0,0,0,0,0,0,0,0
1681390013.39998198,93628367,1582,1582,1581,1581,0,0,0,0,0,0,0,0,0,0
1681390013.49994206,93728327,1583,1582,1582,1582,0,0,0,0,0,0,0,0,0,0
1681390013.59990191,93828287,1581,1581,1588,1576,0,0,0,0,0,0,0,0,0,0
1681390013.69986200,93928247,1580,1581,1585,1572,0,0,0,0,0,0,0,0,0,0
1681390013.79982209,94028207,1580,1581,1574,1572,0,0,0,0,0,0,0,0,0,0
1681390013.89978194,94128167,1579,1580,1563,1569,0,0,0,0,0,0,0,0,0,0
1681390014.00057507,94228960,1580,1581,1560,1566,0,0,0,0,0,0,0,0,0,0
1681390014.10053492,94328920,1581,1583,1560,1563,0,0,0,0,0,0,0,0,0,0
1681390014.20049500,94428880,1582,1583,1560,1560,0,0,0,0,0,0,0,0,0,0
1681390014.30045509,94528840,1582,1582,1560,1558,0,0,0,0,0,0,0,0,0,0
1681390014.40041494,94628800,1582,1581,1560,1557,0,0,0,0,0,0,0,0,0,0
1681390014.50037503,94728760,1582,1580,1560,1558,0,0,0,0,0,0,0,0,0,0
1681390014.60033512,94828720,1580,1580,1560,1559,0,0,0,0,0,0,0,0,0,0
1681390014.70029497,94928680,1580,1581,1560,1561,0,0,0,0,0,0,0,0,0,0
1681390014.80025506,95028640,1580,1582,1560,1561,0,0,0,0,0,0,0,0,0,0
1681390014.90021491,95128600,1581,1583,1560,1561,0,0,0,0,0,0,0,0,0,0
1681390015.00017500,95228560,1583,1585,1560,1560,0,0,0,0,0,0,0,0,0,0
1681390015.10013509,95328520,1586,1587,1560,1560,0,0,0,0,0,0,0,0,0,0
1681390015.20009494,95428480,1589,1591,1560,1560,0,0,0,0,0,0,0,0,0,0
1681390015.30005503,95528440,1594,1595,1560,1559,0,0,0,0,0,0,0,0,0,0
1681390015.40001512,95628400,1599,1600,1560,1560,0,0,0,0,0,0,0,0,0,0
1681390015.49997497,95728360,1604,1604,1560,1559,0,0,0,0,0,0,0,0,0,0
1681390015.59993505,95828320,1609,1609,1560,1560,0,0,0,0,0,0,0,0,0,0
1681390015.69989514,95928280,1613,1612,1560,1560,0,0,0,0,0,0,0,0,0,0
1681390015.79985499,96028240,1614,1614,1560,1561,0,0,0,0,0,0,0,0,0,0
1681390015.89981508,96128200,1597,1597,1560,1562,0,0,0,0,0,0,0,0,0,0
1681390015.99977493,96228160,1584,1585,1560,1563,0,0,0,0,0,0,0,0,0,0
1681390016.10056806,96328953,1584,1584,1560,1563,0,0,0,0,0,0,0,0,0,0
1681390016.20052814,96428913,1584,1584,1560,1562,0,0,0,0,0,0,0,0,0,0
1681390016.30048800,96528873,1585,1583,1560,1562,0,0,0,0,0,0,0,0,0,0
1681390016.40044808,96628833,1586,1582,1560,1562,0,0,0,0,0,0,0,0,0,0
1681390016.50040793,96728793,1586,1582,1560,1563,0,0,0,0,0,0,0,0,0,0
1681390016.60036802,96828753,1572,1569,1560,1562,0,0,0,0,0,0,0,0,0,0
1681390016.70032811,96928713,1547,1543,1560,1562,0,0,0,0,0,0,0,0,0,0
1681390016.80028796,97028673,1520,1519,1560,1562,0,0,0,0,0,0,0,0,0,0
1681390016.90024805,97128633,1498,1497,1560,1561,0,0,0,0,0,0,0,0,0,0
1681390017.00020814,97228593,1482,1483,1560,1560,0,0,0,0,0,0,0,0,0,0
1681390017.10016799,97328553,1475,1477,1560,1559,0,0,0,0,0,0,0,0,0,0
1681390017.20012808,97428513,1478,1480,1560,1558,0,0,0,0,0,0,0,0,0,0
1681390017.30008793,97528473,1487,1490,1560,1559,0,0,0,0,0,0,0,0,0,0
1681390017.40004802,97628433,1502,1503,1560,1558,0,0,0,0,0,0,0,0,0,0
1681390017.50000811,97728393,1519,1520,1560,1557,0,0,0,0,0,0,0,0,0,0
1681390017.59996796,97828353,1536,1536,1560,1557,0,0,0,0,0,0,0,0,0,0
1681390017.69992805,97928313,1552,1551,1560,1558,0,0,0,0,0,0,0,0,0,0
1681390017.79988813,98028273,1572,1571,1572,1567,0,0,0,0,0,0,0,0,0,0
1681390017.89984798,98128233,1594,1592,1588,1583,0,0,0,0,0,0,0,0,0,0
1681390017.99980807,98228193,1607,1605,1594,1592,0,0,0,0,0,0,0,0,0,0
1681390018.10060096,98328986,1613,1611,1594,1597,0,0,0,0,0,0,0,0,0,0
1681390018.20056105,98428946,1615,1614,1593,1599,0,0,0,0,0,0,0,0,0,0
1681390018.30052114,98528906,1613,1612,1592,1597,0,0,0,0,0,0,0,0,0,0
1681390018.40048099,98628866,1610,1610,1595,1598,0,0,0,0,0,0,0,0,0,0
1681390018.50044107,98728826,1606,1606,1596,1596,0,0,0,0,0,0,0,0,0,0
1681390018.60040092,98828786,1600,1601,1596,1595,0,0,0,0,0,0,0,0,0,0
1681390018.70036101,98928746,1595,1596,1596,1594,0,0,0,0,0,0,0,0,0,0
1681390018.80032110,99028706,1590,1591,1594,1593,0,0,0,0,0,0,0,0,0,0
1681390018.90028095,99128666,1586,1587,1593,1592,0,0,0,0,0,0,0,0,0,0
1681390019.00024104,99228626,1583,1583,1591,1591,0,0,0,0,0,0,0,0,0,0
1681390019.10020113,99328586,1580,1580,1588,1588,0,0,0,0,0,0,0,0,0,0
1681390019.20016098,99428546,1579,1579,1586,1586,0,0,0,0,0,0,0,0,0,0
1681390019.30012107,99528506,1578,1578,1584,1585,0,0,0,0,0,0,0,0,0,0
1681390019.40008092,99628466,1578,1578,1582,1583,0,0,0,0,0,0,0,0,0,0
1681390019.50004101,99728426,1578,1578,1581,1581,0,0,0,0,0,0,0,0,0,0
1681390019.60000110,99828386,1578,1579,1580,1579,0,0,0,0,0,0,0,0,0,0
1681390019.69996095,99928346,1579,1579,1579,1578,0,0,0,0,0,0,0,0,0,0
1681390019.79992104,100028306,1581,1581,1580,1579,0,0,0,0,0,0,0,0,0,0
1681390019.89988112,100128266,1581,1581,1578,1579,0,0,0,0,0,0,0,0,0,0
1681390019.99984097,100228226,1581,1581,1578,1578,0,0,0,0,0,0,0,0,0,0
1681390020.09980106,100328186,1581,1581,1578,1578,0,0,0,0,0,0,0,0,0,0
1681390020.20059395,100428979,1580,1580,1578,1578,0,0,0,0,0,0,0,0,0,0
1681390020.30055404,100528939,1580,1580,1578,1578,0,0,0,0,0,0,0,0,0,0
1681390020.40051413,100628899,1581,1581,1580,1580,0,0,0,0,0,0,0,0,0,0
1681390020.50047398,100728859,1580,1580,1579,1580,0,0,0,0,0,0,0,0,0,0
1681390020.60043406,100828819,1579,1580,1579,1580,0,0,0,0,0,0,0,0,0,0
1681390020.70039392,100928779,1579,1579,1580,1580,0,0,0,0,0,0,0,0,0,0
1681390020.80035400,101028739,1579,1580,1580,1580,0,0,0,0,0,0,0,0,0,0
1681390020.90031409,101128699,1579,1579,1580,1580,0,0,0,0,0,0,0,0,0,0
1681390021.00027394,101228659,1580,1580,1580,1581,0,0,0,0,0,0,0,0,0,0
1681390021.10023403,101328619,1580,1580,1580,1580,0,0,0,0,0,0,0,0,0,0
1681390021.20019412,101428579,1580,1580,1581,1580,0,0,0,0,0,0,0,0,0,0
1681390021.30015397,101528539,1581,1580,1581,1581,0,0,0,0,0,0,0,0,0,0
1681390021.40011406,101628499,1580,1580,1580,1580,0,0,0,0,0,0,0,0,0,0
1681390021.50007391,101728459,1581,1581,1581,1581,0,0,0,0,0,0,0,0,0,0
1681390021.60003400,101828419,1580,1581,1588,1576,0,0,0,0,0,0,0,0,0,0
1681390021.69999409,101928379,1580,1580,1587,1574,0,0,0,0,0,0,0,0,0,0
1681390021.79995394,102028339,1579,1578,1577,1574,0,0,0,0,0,0,0,0,0,0
1681390021.89991403,102128299,1577,1576,1569,1575,0,0,0,0,0,0,0,0,0,0
1681390021.99987411,102228259,1574,1574,1566,1573,0,0,0,0,0,0,0,0,0,0
1681390022.09983397,102328219,1572,1571,1566,1570,0,0,0,0,0,0,0,0,0,0
1681390022.19979405,102428179,1569,1570,1568,1569,0,0,0,0,0,0,0,0,0,0
1681390022.30058694,102528972,1568,1568,1569,1568,0,0,0,0,0,0,0,0,0,0
1681390022.40054703,102628932,1567,1567,1569,1567,0,0,0,0,0,0,0,0,0,0
1681390022.50050712,102728892,1567,1567,1570,1568,0,0,0,0,0,0,0,0,0,0
1681390022.60046697,102828852,1564,1566,1568,1566,0,0,0,0,0,0,0,0,0,0
1681390022.70042706,102928812,1564,1565,1567,1566,0,0,0,0,0,0,0,0,0,0
1681390022.80038714,103028772,1563,1563,1564,1564,0,0,0,0,0,0,0,0,0,0
1681390022.90034699,103128732,1562,1562,1562,1563,0,0,0,0,0,0,0,0,0,0
1681390023.00030708,103228692,1562,1562,1564,1563,0,0,0,0,0,0,0,0,0,0
1681390023.10026693,103328652,1561,1561,1561,1561,0,0,0,0,0,0,0,0,0,0
1681390023.20022702,103428612,1561,1561,1562,1561,0,0,0,0,0,0,0,0,0,0
1681390023.30018711,103528572,1561,1561,1561,1561,0,0,0,0,0,0,0,0,0,0
1681390023.40014696,103628532,1560,1561,1560,1560,0,0,0,0,0,0,0,0,0,0
1681390023.50010705,103728492,1560,1560,1560,1560,0,0,0,0,0,0,0,0,0,0
1681390023.60006714,103828452,1560,1560,1560,1560,0,0,0,0,0,0,0,0,0,0
1681390023.70002699,103928412,1560,1560,1560,1560,0,0,0,0,0,0,0,0,0,0
1681390023.79998708,104028372,1560,1560,1560,1559,0,0,0,0,0,0,0,0,0,0
1681390023.89994693,104128332,1560,1559,1560,1559,0,0,0,0,0,0,0,0,0,0
1681390023.99990702,104228292,1559,1559,1560,1558,0,0,0,0,0,0,0,0,0,0
1681390024.09986711,104328252,1559,1559,1560,1559,0,0,0,0,0,0,0,0,0,0
1681390024.19982696,104428212,1559,1558,1560,1558,0,0,0,0,0,0,0,0,0,0
1681390024.29978704,104528172,1559,1558,1560,1557,0,0,0,0,0,0,0,0,0,0
1681390024.40057993,104628965,1560,1560,1560,1560,0,0,0,0,0,0,0,0,0,0
1681390024.50054002,104728925,1562,1562,1560,1565,0,0,0,0,0,0,0,0,0,0
1681390024.60050011,104828885,1563,1563,1560,1566,0,0,0,0,0,0,0,0,0,0
1681390024.70045996,104928845,1563,1563,1560,1566,0,0,0,0,0,0,0,0,0,0
1681390024.80042005,105028805,1562,1562,1560,1564,0,0,0,0,0,0,0,0,0,0
1681390024.90038013,105128765,1560,1560,1560,1560,0,0,0,0,0,0,0,0,0,0
1681390025.00033998,105228725,1559,1559,1560,1557,0,0,0,0,0,0,0,0,0,0
1681390025.10030007,105328685,1560,1560,1560,1560,0,0,0,0,0,0,0,0,0,0
1681390025.20025992,105428645,1562,1562,1560,1563,0,0,0,0,0,0,0,0,0,0
1681390025.30022001,105528605,1562,1562,1560,1563,0,0,0,0,0,0,0,0,0,0
1681390025.40018010,105628565,1561,1561,1560,1561,0,0,0,0,0,0,0,0,0,0
1681390025.50013995,105728525,1551,1551,1560,1552,0,0,0,0,0,0,0,0,0,0
1681390025.60010004,105828485,1518,1519,1560,1530,0,0,0,0,0,0,0,0,0,0
1681390025.70006013,105928445,1491,1491,1560,1520,0,0,0,0,0,0,0,0,0,0
1681390025.80001998,106028405,1472,1472,1560,1523,0,0,0,0,0,0,0,0,0,0
1681390025.89998007,106128365,1470,1473,1560,1543,0,0,0,0,0,0,0,0,0,0
1681390025.99993992,106228325,1499,1506,1560,1594,0,0,0,0,0,0,0,0,0,0
1681390026.09990001,106328285,1551,1564,1560,1662,0,0,0,0,0,0,0,0,0,0
1681390026.19986010,106428245,1587,1605,1560,1685,0,0,0,0,0,0,0,0,0,0
1681390026.29981995,106528205,1578,1593,1560,1636,0,0,0,0,0,0,0,0,0,0
1681390026.39978004,106628165,1593,1600,1560,1549,0,0,0,0,0,0,0,0,0,0
1681390026.50057292,106728958,1618,1611,1560,1481,0,0,0,0,0,0,0,0,0,0
1681390026.60053301,106828918,1621,1601,1560,1469,0,0,0,0,0,0,0,0,0,0
1681390026.70049310,106928878,1611,1579,1560,1494,0,0,0,0,0,0,0,0,0,0
1681390026.80045295,107028838,1586,1551,1560,1531,0,0,0,0,0,0,0,0,0,0
1681390026.90041304,107128798,1557,1533,1560,1544,0,0,0,0,0,0,0,0,0,0
1681390027.00037313,107228758,1511,1504,1560,1535,0,0,0,0,0,0,0,0,0,0
1681390027.10033298,107328718,1476,1481,1560,1531,0,0,0,0,0,0,0,0,0,0
1681390027.20029306,107428678,1452,1467,1560,1533,0,0,0,0,0,0,0,0,0,0
1681390027.30025291,107528638,1446,1469,1560,1548,0,0,0,0,0,0,0,0,0,0
1681390027.40021300,107628598,1496,1533,1560,1626,0,0,0,0,0,0,0,0,0,0
1681390027.50017309,107728558,1543,1593,1560,1677,0,0,0,0,0,0,0,0,0,0
1681390027.60013294,107828518,1551,1595,1560,1659,0,0,0,0,0,0,0,0,0,0
1681390027.70009303,107928478,1562,1581,1560,1629,0,0,0,0,0,0,0,0,0,0
1681390027.80005312,108028438,1582,1565,1560,1596,0,0,0,0,0,0,0,0,0,0
1681390027.90001297,108128398,1620,1584,1560,1526,0,0,0,0,0,0,0,0,0,0
1681390027.99997306,108228358,1649,1610,1560,1491,0,0,0,0,0,0,0,0,0,0
1681390028.09993315,108328318,1664,1625,1560,1493,0,0,0,0,0,0,0,0,0,0
1681390028.19989300,108428278,1668,1632,1560,1512,0,0,0,0,0,0,0,0,0,0
1681390028.29985309,108528238,1658,1628,1560,1534,0,0,0,0,0,0,0,0,0,0
1681390028.39981294,108628198,1634,1615,1560,1553,0,0,0,0,0,0,0,0,0,0
1681390028.49977303,108728158,1612,1607,1560,1564,0,0,0,0,0,0,0,0,0,0
1681390028.60056591,108828951,1592,1603,1560,1568,0,0,0,0,0,0,0,0,0,0
1681390028.70052600,108928911,1583,1604,1560,1563,0,0,0,0,0,0,0,0,0,0
1681390028.80048609,109028871,1576,1601,1560,1558,0,0,0,0,0,0,0,0,0,0
1681390028.90044594,109128831,1570,1593,1560,1553,0,0,0,0,0,0,0,0,0,0
1681390029.00040603,109228791,1567,1583,1560,1551,0,0,0,0,0,0,0,0,0,0
1681390029.10036612,109328751,1554,1563,1560,1551,0,0,0,0,0,0,0,0,0,0
1681390029.20032597,109428711,1530,1533,1560,1535,0,0,0,0,0,0,0,0,0,0
1681390029.30028605,109528671,1505,1505,1560,1529,0,0,0,0,0,0,0,0,0,0
1681390029.40024614,109628631,1491,1488,1560,1536,0,0,0,0,0,0,0,0,0,0
1681390029.50020599,109728591,1484,1481,1560,1549,0,0,0,0,0,0,0,0,0,0
1681390029.60016608,109828551,1548,1548,1560,1639,0,0,0,0,0,0,0,0,0,0
1681390029.70012593,109928511,1570,1576,1560,1659,0,0,0,0,0,0,0,0,0,0
1681390029.80008602,110028471,1570,1577,1560,1634,0,0,0,0,0,0,0,0,0,0
1681390029.90004611,110128431,1560,1566,1560,1589,0,0,0,0,0,0,0,0,0,0
1681390030.00000596,110228391,1548,1550,1560,1538,0,0,0,0,0,0,0,0,0,0
1681390030.09996605,110328351,1541,1538,1560,1504,0,0,0,0,0,0,0,0,0,0
1681390030.19992614,110428311,1536,1529,1560,1497,0,0,0,0,0,0,0,0,0,0
1681390030.29988599,110528271,1521,1514,1560,1501,0,0,0,0,0,0,0,0,0,0
1681390030.39984608,110628231,1513,1506,1560,1519,0,0,0,0,0,0,0,0,0,0
1681390030.49980593,110728191,1499,1494,1560,1533,0,0,0,0,0,0,0,0,0,0
1681390030.60059905,110828984,1498,1497,1560,1556,0,0,0,0,0,0,0,0,0,0
1681390030.70055914,110928944,1510,1514,1560,1588,0,0,0,0,0,0,0,0,0,0
1681390030.80051899,111028904,1524,1533,1560,1614,0,0,0,0,0,0,0,0,0,0
1681390030.90047908,111128864,1540,1554,1560,1633,0,0,0,0,0,0,0,0,0,0
1681390031.00043893,111228824,1546,1564,1560,1626,0,0,0,0,0,0,0,0,0,0
1681390031.10039902,111328784,1576,1592,1560,1626,0,0,0,0,0,0,0,0,0,0
1681390031.20035911,111428744,1665,1668,1560,1552,0,0,0,0,0,0,0,0,0,0
1681390031.30031896,111528704,1704,1688,1560,1501,0,0,0,0,0,0,0,0,0,0
1681390031.40027905,111628664,1698,1670,1560,1491,0,0,0,0,0,0,0,0,0,0
1681390031.50023913,111728624,1676,1641,1560,1509,0,0,0,0,0,0,0,0,0,0
1681390031.60019898,111828584,1640,1607,1560,1536,0,0,0,0,0,0,0,0,0,0
1681390031.70015907,111928544,1574,1555,1560,1561,0,0,0,0,0,0,0,0,0,0
1681390031.80011892,112028504,1526,1527,1560,1542,0,0,0,0,0,0,0,0,0,0
1681390031.90007901,112128464,1488,1501,1560,1533,0,0,0,0,0,0,0,0,0,0
1681390032.00003910,112228424,1463,1481,1560,1531,0,0,0,0,0,0,0,0,0,0
1681390032.09999895,112328384,1455,1475,1560,1543,0,0,0,0,0,0,0,0,0,0
1681390032.19995904,112428344,1478,1499,1560,1586,0,0,0,0,0,0,0,0,0,0
1681390032.29991913,112528304,1549,1573,1560,1670,0,0,0,0,0,0,0,0,0,0
1681390032.39987898,112628264,1565,1590,1560,1669,0,0,0,0,0,0,0,0,0,0
1681390032.49983907,112728224,1562,1581,1560,1634,0,0,0,0,0,0,0,0,0,0
1681390032.59979892,112828184,1566,1571,1560,1594,0,0,0,0,0,0,0,0,0,0
1681390032.70059204,112928977,1597,1587,1560,1517,0,0,0,0,0,0,0,0,0,0
1681390032.80055213,113028937,1621,1598,1560,1476,0,0,0,0,0,0,0,0,0,0
1681390032.90051198,113128897,1629,1595,1560,1480,0,0,0,0,0,0,0,0,0,0
1681390033.00047207,113228857,1622,1583,1560,1507,0,0,0,0,0,0,0,0,0,0
1681390033.10043192,113328817,1595,1563,1560,1539,0,0,0,0,0,0,0,0,0,0
1681390033.20039201,113428777,1568,1554,1560,1559,0,0,0,0,0,0,0,0,0,0
1681390033.30035210,113528737,1550,1554,1560,1564,0,0,0,0,0,0,0,0,0,0
1681390033.40031195,113628697,1540,1558,1560,1571,0,0,0,0,0,0,0,0,0,0
1681390033.50027204,113728657,1530,1553,1560,1568,0,0,0,0,0,0,0,0,0,0
1681390033.60023212,113828617,1497,1518,1560,1543,0,0,0,0,0,0,0,0,0,0
1681390033.70019197,113928577,1478,1494,1560,1535,0,0,0,0,0,0,0,0,0,0
1681390033.80015206,114028537,1467,1477,1560,1536,0,0,0,0,0,0,0,0,0,0
1681390033.90011191,114128497,1461,1468,1560,1543,0,0,0,0,0,0,0,0,0,0
1681390034.00007200,114228457,1473,1482,1560,1570,0,0,0,0,0,0,0,0,0,0
1681390034.10003209,114328417,1552,1568,1560,1665,0,0,0,0,0,0,0,0,0,0
1681390034.19999194,114428377,1573,1593,1560,1668,0,0,0,0,0,0,0,0,0,0
1681390034.29995203,114528337,1578,1589,1560,1635,0,0,0,0,0,0,0,0,0,0
1681390034.39991212,114628297,1597,1589,1560,1579,0,0,0,0,0,0,0,0,0,0
1681390034.49987197,114728257,1629,1609,1560,1505,0,0,0,0,0,0,0,0,0,0
1681390034.59983206,114828217,1643,1615,1560,1484,0,0,0,0,0,0,0,0,0,0
1681390034.69979215,114928177,1646,1614,1560,1496,0,0,0,0,0,0,0,0,0,0
1681390034.80058503,115028970,1633,1599,1560,1521,0,0,0,0,0,0,0,0,0,0
1681390034.90054512,115128930,1606,1580,1560,1548,0,0,0,0,0,0,0,0,0,0
1681390035.00050497,115228890,1578,1568,1560,1567,0,0,0,0,0,0,0,0,0,0
1681390035.10046506,115328850,1559,1566,1560,1566,0,0,0,0,0,0,0,0,0,0
1681390035.20042491,115428810,1546,1566,1560,1565,0,0,0,0,0,0,0,0,0,0
1681390035.30038500,115528770,1541,1564,1560,1564,0,0,0,0,0,0,0,0,0,0
1681390035.40034509,115628730,1542,1563,1560,1564,0,0,0,0,0,0,0,0,0,0
1681390035.50030494,115728690,1520,1535,1560,1542,0,0,0,0,0,0,0,0,0,0
1681390035.60026503,115828650,1499,1505,1560,1530,0,0,0,0,0,0,0,0,0,0
1681390035.70022511,115928610,1561,1432,1560,1490,0,0,0,0,0,0,0,0,0,0
1681390035.80018497,116028570,1574,1491,1560,1599,0,0,0,0,0,0,0,0,0,0
1681390035.90014505,116128530,1560,1504,1560,1601,0,0,0,0,0,0,0,0,0,0
1681390036.00010514,116228490,1553,1522,1560,1592,0,0,0,0,0,0,0,0,0,0
1681390036.10006499,116328450,1555,1531,1560,1582,0,0,0,0,0,0,0,0,0,0
1681390036.20002508,116428410,1561,1529,1560,1578,0,0,0,0,0,0,0,0,0,0
1681390036.29998493,116528370,1566,1522,1560,1579,0,0,0,0,0,0,0,0,0,0
1681390036.39994502,116628330,1568,1517,1560,1582,0,0,0,0,0,0,0,0,0,0
1681390036.49990511,116728290,1570,1514,1560,1584,0,0,0,0,0,0,0,0,0,0
1681390036.59986496,116828250,1570,1513,1560,1584,0,0,0,0,0,0,0,0,0,0
1681390036.69982505,116928210,1571,1512,1560,1584,0,0,0,0,0,0,0,0,0,0
1681390036.79978514,117028170,1572,1512,1560,1583,0,0,0,0,0,0,0,0,0,0
1681390036.90057802,117128963,1574,1510,1560,1583,0,0,0,0,0,0,0,0,0,0
1681390037.00053811,117228923,1574,1509,1560,1583,0,0,0,0,0,0,0,0,0,0
1681390037.10049796,117328883,1576,1507,1560,1583,0,0,0,0,0,0,0,0,0,0
1681390037.20045805,117428843,1577,1506,1560,1583,0,0,0,0,0,0,0,0,0,0
1681390037.30041814,117528803,1578,1505,1560,1583,0,0,0,0,0,0,0,0,0,0
1681390037.40037799,117628763,1579,1504,1560,1583,0,0,0,0,0,0,0,0,0,0
1681390037.50033808,117728723,1580,1503,1560,1583,0,0,0,0,0,0,0,0,0,0
1681390037.60029793,117828683,1581,1502,1560,1583,0,0,0,0,0,0,0,0,0,0
1681390037.70025802,117928643,1583,1500,1560,1583,0,0,0,0,0,0,0,0,0,0
1681390037.80021811,118028603,1584,1499,1560,1583,0,0,0,0,0,0,0,0,0,0
1681390037.90017796,118128563,1585,1497,1560,1583,0,0,0,0,0,0,0,0,0,0
1681390038.00013804,118228523,1586,1497,1560,1583,0,0,0,0,0,0,0,0,0,0
1681390038.10009813,118328483,1587,1495,1560,1583,0,0,0,0,0,0,0,0,0,0
1681390038.20005798,118428443,1588,1494,1560,1583,0,0,0,0,0,0,0,0,0,0
1681390038.30001807,118528403,1590,1493,1560,1583,0,0,0,0,0,0,0,0,0,0
1681390038.39997792,118628363,1591,1491,1560,1583,0,0,0,0,0,0,0,0,0,0
1681390038.49993801,118728323,1592,1490,1560,1583,0,0,0,0,0,0,0,0,0,0
1681390038.59989810,118828283,1593,1489,1560,1583,0,0,0,0,0,0,0,0,0,0
1681390038.69985795,118928243,1594,1487,1560,1583,0,0,0,0,0,0,0,0,0,0
1681390038.79981804,119028203,1595,1486,1560,1583,0,0,0,0,0,0,0,0,0,0
1681390038.89977813,119128163,1597,1485,1560,1583,0,0,0,0,0,0,0,0,0,0
1681390039.00057101,119228956,1597,1484,1560,1583,0,0,0,0,0,0,0,0,0,0
1681390039.10053110,119328916,1599,1482,1560,1583,0,0,0,0,0,0,0,0,0,0
1681390039.20049095,119428876,1600,1481,1560,1582,0,0,0,0,0,0,0,0,0,0
1681390039.30045104,119528836,1601,1480,1560,1583,0,0,0,0,0,0,0,0,0,0
1681390039.40041113,119628796,1602,1479,1560,1582,0,0,0,0,0,0,0,0,0,0
1681390039.50037098,119728756,1603,1477,1560,1582,0,0,0,0,0,0,0,0,0,0
1681390039.60033107,119828716,1604,1476,1560,1583,0,0,0,0,0,0,0,0,0,0
1681390039.70029092,119928676,1605,1475,1560,1583,0,0,0,0,0,0,0,0,0,0
1681390039.80025101,120028636,1606,1474,1560,1582,0,0,0,0,0,0,0,0,0,0
1681390039.90021110,120128596,1608,1472,1560,1582,0,0,0,0,0,0,0,0,0,0
1681390040.00017095,120228556,1608,1471,1560,1582,0,0,0,0,0,0,0,0,0,0
1681390040.10013103,120328516,1610,1470,1560,1583,0,0,0,0,0,0,0,0,0,0
1681390040.20009112,120428476,1611,1469,1560,1582,0,0,0,0,0,0,0,0,0,0
1681390040.30005097,120528436,1612,1467,1560,1582,0,0,0,0,0,0,0,0,0,0
1681390040.40001106,120628396,1612,1466,1560,1582,0,0,0,0,0,0,0,0,0,0
1681390040.49997091,120728356,1614,1465,1560,1582,0,0,0,0,0,0,0,0,0,0
1681390040.59993100,120828316,1614,1464,1560,1582,0,0,0,0,0,0,0,0,0,0
1681390040.69989109,120928276,1616,1463,1560,1582,0,0,0,0,0,0,0,0,0,0
1681390040.79985094,121028236,1617,1461,1560,1582,0,0,0,0,0,0,0,0,0,0
1681390040.89981103,121128196,1618,1460,1560,1582,0,0,0,0,0,0,0,0,0,0
1681390040.99977112,121228156,1618,1459,1560,1582,0,0,0,0,0,0,0,0,0,0
1681390041.10056400,121328949,1620,1458,1560,1582,0,0,0,0,0,0,0,0,0,0
1681390041.20052409,121428909,1620,1457,1560,1582,0,0,0,0,0,0,0,0,0,0
1681390041.30048394,121528869,1622,1455,1560,1582,0,0,0,0,0,0,0,0,0,0
1681390041.40044403,121628829,1622,1454,1560,1582,0,0,0,0,0,0,0,0,0,0
1681390041.50040412,121728789,1624,1453,1560,1582,0,0,0,0,0,0,0,0,0,0
1681390041.60036397,121828749,1625,1452,1560,1582,0,0,0,0,0,0,0,0,0,0
1681390041.70032406,121928709,1625,1451,1560,1582,0,0,0,0,0,0,0,0,0,0
1681390041.80028415,122028669,1626,1450,1560,1582,0,0,0,0,0,0,0,0,0,0
1681390041.90024400,122128629,1627,1448,1560,1582,0,0,0,0,0,0,0,0,0,0
1681390042.00020409,122228589,1628,1447,1560,1582,0,0,0,0,0,0,0,0,0,0
1681390042.10016394,122328549,1629,1446,1560,1582,0,0,0,0,0,0,0,0,0,0
1681390042.20012403,122428509,1630,1445,1560,1582,0,0,0,0,0,0,0,0,0,0
1681390042.30008411,122528469,1631,1444,1560,1582,0,0,0,0,0,0,0,0,0,0
1681390042.40004396,122628429,1632,1443,1560,1582,0,0,0,0,0,0,0,0,0,0
1681390042.50000405,122728389,1633,1441,1560,1582,0,0,0,0,0,0,0,0,0,0
1681390042.59996414,122828349,1634,1440,1560,1582,0,0,0,0,0,0,0,0,0,0
1681390042.69992399,122928309,1635,1439,1560,1582,0,0,0,0,0,0,0,0,0,0
1681390042.79988408,123028269,1636,1438,1560,1582,0,0,0,0,0,0,0,0,0,0
1681390042.89984393,123128229,1637,1437,1560,1582,0,0,0,0,0,0,0,0,0,0
1681390042.99980402,123228189,1637,1436,1560,1582,0,0,0,0,0,0,0,0,0,0
1681390043.10059714,123328982,1638,1434,1560,1582,0,0,0,0,0,0,0,0,0,0
1681390043.20055699,123428942,1639,1434,1560,1582,0,0,0,0,0,0,0,0,0,0
1681390043.30051708,123528902,1640,1432,1560,1582,0,0,0,0,0,0,0,0,0,0
1681390043.40047693,123628862,1641,1431,1560,1582,0,0,0,0,0,0,0,0,0,0
1681390043.50043702,123728822,1642,1430,1560,1582,0,0,0,0,0,0,0,0,0,0
1681390043.60039711,123828782,1642,1429,1560,1582,0,0,0,0,0,0,0,0,0,0
1681390043.70035696,123928742,1643,1428,1560,1582,0,0,0,0,0,0,0,0,0,0
1681390043.80031705,124028702,1644,1427,1560,1582,0,0,0,0,0,0,0,0,0,0
1681390043.90027714,124128662,1645,1426,1560,1582,0,0,0,0,0,0,0,0,0,0
1681390044.00023699,124228622,1000,1000,1000,1000,0,0,0,0,0,0,0,0,0,0
1681390044.10019708,124328582,1000,1000,1000,1000,0,0,0,0,0,0,0,0,0,0
1681390044.20015693,124428542,1000,1000,1000,1000,0,0,0,0,0,0,0,0,0,0
1681390044.30011702,124528502,1000,1000,1000,1000,0,0,0,0,0,0,0,0,0,0
1681390044.40007710,124628462,1000,1000,1000,1000,0,0,0,0,0,0,0,0,0,0
1681390044.50003695,124728422,1000,1000,1000,1000,0,0,0,0,0,0,0,0,0,0
1681390044.59999704,124828382,1000,1000,1000,1000,0,0,0,0,0,0,0,0,0,0
1681390044.69995713,124928342,1000,1000,1000,1000,0,0,0,0,0,0,0,0,0,0
1681390044.79991698,125028302,1000,1000,1000,1000,0,0,0,0,0,0,0,0,0,0
1681390044.89987707,125128262,1000,1000,1000,1000,0,0,0,0,0,0,0,0,0,0
1681390044.99983692,125228222,1000,1000,1000,1000,0,0,0,0,0,0,0,0,0,0
1681390045.09979701,125328182,1000,1000,1000,1000,0,0,0,0,0,0,0,0,0,0
1681390045.20059013,125428975,1000,1000,1000,1000,0,0,0,0,0,0,0,0,0,0
1681390045.30054998,125528935,1000,1000,1000,1000,0,0,0,0,0,0,0,0,0,0
1681390045.40051007,125628895,1000,1000,1000,1000,0,0,0,0,0,0,0,0,0,0
1681390045.50046992,125728855,1000,1000,1000,1000,0,0,0,0,0,0,0,0,0,0
1681390045.60043001,125828815,1000,1000,1000,1000,0,0,0,0,0,0,0,0,0,0
1681390045.70039010,125928775,1000,1000,1000,1000,0,0,0,0,0,0,0,0,0,0
1681390045.80034995,126028735,1000,1000,1000,1000,0,0,0,0,0,0,0,0,0,0
1681390045.90031004,126128695,1000,1000,1000,1000,0,0,0,0,0,0,0,0,0,0
1681390046.00027013,126228655,1000,1000,1000,1000,0,0,0,0,0,0,0,0,0,0
1681390046.10022998,126328615,1000,1000,1000,1000,0,0,0,0,0,0,0,0,0,0
1681390046.20019007,126428575,1000,1000,1000,1000,0,0,0,0,0,0,0,0,0,0
1681390046.30014992,126528535,1000,1000,1000,1000,0,0,0,0,0,0,0,0,0,0
1681390046.40011001,126628495,1000,1000,1000,1000,0,0,0,0,0,0,0,0,0,0
1681390046.50007010,126728455,1000,1000,1000,1000,0,0,0,0,0,0,0,0,0,0
1681390046.60002995,126828415,1000,1000,1000,1000,0,0,0,0,0,0,0,0,0,0
1681390046.69999003,126928375,1000,1000,1000,1000,0,0,0,0,0,0,0,0,0,0
1681390046.79995012,127028335,1000,1000,1000,1000,0,0,0,0,0,0,0,0,0,0
1681390046.89990997,127128295,1000,1000,1000,1000,0,0,0,0,0,0,0,0,0,0
1681390046.99987006,127228255,1000,1000,1000,1000,0,0,0,0,0,0,0,0,0,0
1681390047.09982991,127328215,1000,1000,1000,1000,0,0,0,0,0,0,0,0,0,0
1681390047.19979000,127428175,1000,1000,1000,1000,0,0,0,0,0,0,0,0,0,0
1681390047.30058312,127528968,1000,1000,1000,1000,0,0,0,0,0,0,0,0,0,0
1681390047.40054297,127628928,1000,1000,1000,1000,0,0,0,0,0,0,0,0,0,0
1681390047.50050306,127728888,1000,1000,1000,1000,0,0,0,0,0,0,0,0,0,0
1681390047.60046291,127828848,1000,1000,1000,1000,0,0,0,0,0,0,0,0,0,0
1681390047.70042300,127928808,1000,1000,1000,1000,0,0,0,0,0,0,0,0,0,0
1681390047.80038309,128028768,1000,1000,1000,1000,0,0,0,0,0,0,0,0,0,0
1681390047.90034294,128128728,1000,1000,1000,1000,0,0,0,0,0,0,0,0,0,0
1681390048.00030303,128228688,1000,1000,1000,1000,0,0,0,0,0,0,0,0,0,0
1681390048.10026312,128328648,1000,1000,1000,1000,0,0,0,0,0,0,0,0,0,0
1681390048.20022297,128428608,1000,1000,1000,1000,0,0,0,0,0,0,0,0,0,0
1681390048.30018306,128528568,1000,1000,1000,1000,0,0,0,0,0,0,0,0,0,0
1681390048.40014315,128628528,1000,1000,1000,1000,0,0,0,0,0,0,0,0,0,0
1681390048.50010300,128728488,1000,1000,1000,1000,0,0,0,0,0,0,0,0,0,0
1681390048.60006309,128828448,1000,1000,1000,1000,0,0,0,0,0,0,0,0,0,0
1681390048.70002294,128928408,1000,1000,1000,1000,0,0,0,0,0,0,0,0,0,0
1681390048.79998302,129028368,1000,1000,1000,1000,0,0,0,0,0,0,0,0,0,0
1681390048.89994311,129128328,1000,1000,1000,1000,0,0,0,0,0,0,0,0,0,0
1681390048.99990296,129228288,1000,1000,1000,1000,0,0,0,0,0,0,0,0,0,0
1681390049.09986305,129328248,1000,1000,1000,1000,0,0,0,0,0,0,0,0,0,0
1681390049.19982314,129428208,1000,1000,1000,1000,0,0,0,0,0,0,0,0,0,0
1681390049.29978299,129528168,1000,1000,1000,1000,0,0,0,0,0,0,0,0,0,0
1681390049.40057611,129628961,1000,1000,1000,1000,0,0,0,0,0,0,0,0,0,0
1681390049.50053596,129728921,1000,1000,1000,1000,0,0,0,0,0,0,0,0,0,0
1681390049.60049605,129828881,1000,1000,1000,1000,0,0,0,0,0,0,0,0,0,0
1681390049.70045614,129928841,1000,1000,1000,1000,0,0,0,0,0,0,0,0,0,0
1681390049.80041599,130028801,1000,1000,1000,1000,0,0,0,0,0,0,0,0,0,0
1681390049.90037608,130128761,1000,1000,1000,1000,0,0,0,0,0,0,0,0,0,0
1681390050.00033593,130228721,1000,1000,1000,1000,0,0,0,0,0,0,0,0,0,0
1681390050.10029602,130328681,1000,1000,1000,1000,0,0,0,0,0,0,0,0,0,0
1681390050.20025611,130428641,1000,1000,1000,1000,0,0,0,0,0,0,0,0,0,0
1681390050.30021596,130528601,1000,1000,1000,1000,0,0,0,0,0,0,0,0,0,0
1681390050.40017605,130628561,1000,1000,1000,1000,0,0,0,0,0,0,0,0,0,0
1681390050.50013614,130728521,1000,1000,1000,1000,0,0,0,0,0,0,0,0,0,0
1681390050.60009599,130828481,1000,1000,1000,1000,0,0,0,0,0,0,0,0,0,0
1681390050.70005608,130928441,1000,1000,1000,1000,0,0,0,0,0,0,0,0,0,0
1681390050.80001593,131028401,1000,1000,1000,1000,0,0,0,0,0,0,0,0,0,0
1681390050.89997602,131128361,1000,1000,1000,1000,0,0,0,0,0,0,0,0,0,0
1681390050.99993610,131228321,1000,1000,1000,1000,0,0,0,0,0,0,0,0,0,0
1681390051.09989595,131328281,1000,1000,1000,1000,0,0,0,0,0,0,0,0,0,0
1681390051.19985604,131428241,1000,1000,1000,1000,0,0,0,0,0,0,0,0,0,0
1681390051.29981613,131528201,1000,1000,1000,1000,0,0,0,0,0,0,0,0,0,0
1681390051.39977598,131628161,1000,1000,1000,1000,0,0,0,0,0,0,0,0,0,0
1681390051.50056911,131728954,1000,1000,1000,1000,0,0,0,0,0,0,0,0,0,0
1681390051.60052896,131828914,1000,1000,1000,1000,0,0,0,0,0,0,0,0,0,0
1681390051.70048904,131928874,1000,1000,1000,1000,0,0,0,0,0,0,0,0,0,0
1681390051.80044913,132028834,1000,1000,1000,1000,0,0,0,0,0,0,0,0,0,0
1681390051.90040898,132128794,1000,1000,1000,1000,0,0,0,0,0,0,0,0,0,0
1681390052.00036907,132228754,1000,1000,1000,1000,0,0,0,0,0,0,0,0,0,0
1681390052.10032892,132328714,1000,1000,1000,1000,0,0,0,0,0,0,0,0,0,0
1681390052.20028901,132428674,1000,1000,1000,1000,0,0,0,0,0,0,0,0,0,0
1681390052.30024910,132528634,1000,1000,1000,1000,0,0,0,0,0,0,0,0,0,0
1681390052.40020895,132628594,1000,1000,1000,1000,0,0,0,0,0,0,0,0,0,0
1681390052.50016904,132728554,1000,1000,1000,1000,0,0,0,0,0,0,0,0,0,0
1681390052.60012913,132828514,1000,1000,1000,1000,0,0,0,0,0,0,0,0,0,0
1681390052.70008898,132928474,1000,1000,1000,1000,0,0,0,0,0,0,0,0,0,0
1681390052.80004907,133028434,1000,1000,1000,1000,0,0,0,0,0,0,0,0,0,0
1681390052.90000892,133128394,1000,1000,1000,1000,0,0,0,0,0,0,0,0,0,0
1681390052.99996901,133228354,1000,1000,1000,1000,0,0,0,0,0,0,0,0,0,0
1681390053.09992909,133328314,1000,1000,1000,1000,0,0,0,0,0,0,0,0,0,0
1681390053.19988894,133428274,1000,1000,1000,1000,0,0,0,0,0,0,0,0,0,0
1681390053.29984903,133528234,1000,1000,1000,1000,0,0,0,0,0,0,0,0,0,0
1681390053.39980912,133628194,1000,1000,1000,1000,0,0,0,0,0,0,0,0,0,0
1681390053.49976897,133728154,1000,1000,1000,1000,0,0,0,0,0,0,0,0,0,0
1681390053.60056210,133828947,1000,1000,1000,1000,0,0,0,0,0,0,0,0,0,0
1681390053.70052195,133928907,1000,1000,1000,1000,0,0,0,0,0,0,0,0,0,0
1681390053.80048203,134028867,1000,1000,1000,1000,0,0,0,0,0,0,0,0,0,0
1681390053.90044212,134128827,1000,1000,1000,1000,0,0,0,0,0,0,0,0,0,0
1681390054.00040197,134228787,1000,1000,1000,1000,0,0,0,0,0,0,0,0,0,0
1681390054.10036206,134328747,1000,1000,1000,1000,0,0,0,0,0,0,0,0,0,0
1681390054.20032191,134428707,1000,1000,1000,1000,0,0,0,0,0,0,0,0,0,0
1681390054.30028200,134528667,1000,1000,1000,1000,0,0,0,0,0,0,0,0,0,0
1681390054.40024209,134628627,1000,1000,1000,1000,0,0,0,0,0,0,0,0,0,0
1681390054.50020194,134728587,1000,1000,1000,1000,0,0,0,0,0,0,0,0,0,0
1681390054.60016203,134828547,1000,1000,1000,1000,0,0,0,0,0,0,0,0,0,0
1681390054.70012212,134928507,1000,1000,1000,1000,0,0,0,0,0,0,0,0,0,0
1681390054.80008197,135028467,1000,1000,1000,1000,0,0,0,0,0,0,0,0,0,0
1681390054.90004206,135128427,1000,1000,1000,1000,0,0,0,0,0,0,0,0,0,0
1681390055.00000215,135228387,1000,1000,1000,1000,0,0,0,0,0,0,0,0,0,0
1681390055.09996200,135328347,1000,1000,1000,1000,0,0,0,0,0,0,0,0,0,0
1681390055.19992208,135428307,1000,1000,1000,1000,0,0,0,0,0,0,0,0,0,0
1681390055.29988194,135528267,1000,1000,1000,1000,0,0,0,0,0,0,0,0,0,0
1681390055.39984202,135628227,1000,1000,1000,1000,0,0,0,0,0,0,0,0,0,0
1681390055.49980211,135728187,1000,1000,1000,1000,0,0,0,0,0,0,0,0,0,0
1681390055.60059500,135828980,1000,1000,1000,1000,0,0,0,0,0,0,0,0,0,0
1681390055.70055509,135928940,1000,1000,1000,1000,0,0,0,0,0,0,0,0,0,0
1681390055.80051494,136028900,1000,1000,1000,1000,0,0,0,0,0,0,0,0,0,0
1681390055.90047503,136128860,1000,1000,1000,1000,0,0,0,0,0,0,0,0,0,0
1681390056.00043511,136228820,1000,1000,1000,1000,0,0,0,0,0,0,0,0,0,0
1681390056.10039496,136328780,1000,1000,1000,1000,0,0,0,0,0,0,0,0,0,0
1681390056.20035505,136428740,1000,1000,1000,1000,0,0,0,0,0,0,0,0,0,0
1681390056.30031514,136528700,1000,1000,1000,1000,0,0,0,0,0,0,0,0,0,0
1681390056.40027499,136628660,1000,1000,1000,1000,0,0,0,0,0,0,0,0,0,0
1681390056.50023508,136728620,1000,1000,1000,1000,0,0,0,0,0,0,0,0,0,0
1681390056.60019493,136828580,1000,1000,1000,1000,0,0,0,0,0,0,0,0,0,0
1681390056.70015502,136928540,1000,1000,1000,1000,0,0,0,0,0,0,0,0,0,0
1681390056.80011511,137028500,1000,1000,1000,1000,0,0,0,0,0,0,0,0,0,0
1681390056.90007496,137128460,1000,1000,1000,1000,0,0,0,0,0,0,0,0,0,0
1681390057.00003505,137228420,1000,1000,1000,1000,0,0,0,0,0,0,0,0,0,0
1681390057.09999514,137328380,1000,1000,1000,1000,0,0,0,0,0,0,0,0,0,0
1681390057.19995499,137428340,1000,1000,1000,1000,0,0,0,0,0,0,0,0,0,0
1681390057.29991508,137528300,1000,1000,1000,1000,0,0,0,0,0,0,0,0,0,0
1681390057.39987493,137628260,1000,1000,1000,1000,0,0,0,0,0,0,0,0,0,0
1681390057.49983501,137728220,1000,1000,1000,1000,0,0,0,0,0,0,0,0,0,0
1681390057.59979510,137828180,1000,1000,1000,1000,0,0,0,0,0,0,0,0,0,0
1681390057.70058799,137928973,1000,1000,1000,1000,0,0,0,0,0,0,0,0,0,0
1681390057.80054808,138028933,1000,1000,1000,1000,0,0,0,0,0,0,0,0,0,0
1681390057.90050793,138128893,1000,1000,1000,1000,0,0,0,0,0,0,0,0,0,0
1681390058.00046802,138228853,1000,1000,1000,1000,0,0,0,0,0,0,0,0,0,0
1681390058.10042810,138328813,1000,1000,1000,1000,0,0,0,0,0,0,0,0,0,0
1681390058.20038795,138428773,1000,1000,1000,1000,0,0,0,0,0,0,0,0,0,0
1681390058.30034804,138528733,1000,1000,1000,1000,0,0,0,0,0,0,0,0,0,0
1681390058.40030813,138628693,1000,1000,1000,1000,0,0,0,0,0,0,0,0,0,0
1681390058.50026798,138728653,1000,1000,1000,1000,0,0,0,0,0,0,0,0,0,0
1681390058.60022807,138828613,1000,1000,1000,1000,0,0,0,0,0,0,0,0,0,0
1681390058.70018792,138928573,1000,1000,1000,1000,0,0,0,0,0,0,0,0,0,0
1681390058.80014801,139028533,1000,1000,1000,1000,0,0,0,0,0,0,0,0,0,0
1681390058.90010810,139128493,1000,1000,1000,1000,0,0,0,0,0,0,0,0,0,0
1681390059.00006795,139228453,1000,1000,1000,1000,0,0,0,0,0,0,0,0,0,0
1681390059.10002804,139328413,1000,1000,1000,1000,0,0,0,0,0,0,0,0,0,0
1681390059.19998813,139428373,1000,1000,1000,1000,0,0,0,0,0,0,0,0,0,0
1681390059.29994798,139528333,1000,1000,1000,1000,0,0,0,0,0,0,0,0,0,0
1681390059.39990807,139628293,1000,1000,1000,1000,0,0,0,0,0,0,0,0,0,0
1681390059.49986792,139728253,1000,1000,1000,1000,0,0,0,0,0,0,0,0,0,0
1681390059.59982800,139828213,1000,1000,1000,1000,0,0,0,0,0,0,0,0,0,0
1681390059.69978809,139928173,1000,1000,1000,1000,0,0,0,0,0,0,0,0,0,0
1681390059.80058098,140028966,1000,1000,1000,1000,0,0,0,0,0,0,0,0,0,0
1681390059.90054107,140128926,1000,1000,1000,1000,0,0,0,0,0,0,0,0,0,0
1681390060.00050092,140228886,1000,1000,1000,1000,0,0,0,0,0,0,0,0,0,0
1681390060.10046101,140328846,1000,1000,1000,1000,0,0,0,0,0,0,0,0,0,0
1681390060.20042109,140428806,1000,1000,1000,1000,0,0,0,0,0,0,0,0,0,0
1681390060.30038095,140528766,1000,1000,1000,1000,0,0,0,0,0,0,0,0,0,0
1681390060.40034103,140628726,1000,1000,1000,1000,0,0,0,0,0,0,0,0,0,0
1681390060.50030112,140728686,1000,1000,1000,1000,0,0,0,0,0,0,0,0,0,0
1681390060.60026097,140828646,1000,1000,1000,1000,0,0,0,0,0,0,0,0,0,0
1681390060.70022106,140928606,1000,1000,1000,1000,0,0,0,0,0,0,0,0,0,0
1681390060.80018091,141028566,1000,1000,1000,1000,0,0,0,0,0,0,0,0,0,0
1681390060.90014100,141128526,1000,1000,1000,1000,0,0,0,0,0,0,0,0,0,0
1681390061.00010109,141228486,1000,1000,1000,1000,0,0,0,0,0,0,0,0,0,0
1681390061.10006094,141328446,1000,1000,1000,1000,0,0,0,0,0,0,0,0,0,0
1681390061.20002103,141428406,1000,1000,1000,1000,0,0,0,0,0,0,0,0,0,0
1681390061.29998112,141528366,1000,1000,1000,1000,0,0,0,0,0,0,0,0,0,0
1681390061.39994097,141628326,1000,1000,1000,1000,0,0,0,0,0,0,0,0,0,0
1681390061.49990106,141728286,1000,1000,1000,1000,0,0,0,0,0,0,0,0,0,0
1681390061.59986115,141828246,1000,1000,1000,1000,0,0,0,0,0,0,0,0,0,0
1681390061.69982100,141928206,1000,1000,1000,1000,0,0,0,0,0,0,0,0,0,0
1681390061.79978108,142028166,1000,1000,1000,1000,0,0,0,0,0,0,0,0,0,0
1681390061.90057397,142128959,1000,1000,1000,1000,0,0,0,0,0,0,0,0,0,0
1681390062.00053406,142228919,1000,1000,1000,1000,0,0,0,0,0,0,0,0,0,0
1681390062.10049415,142328879,1000,1000,1000,1000,0,0,0,0,0,0,0,0,0,0
1681390062.20045400,142428839,1000,1000,1000,1000,0,0,0,0,0,0,0,0,0,0
1681390062.30041409,142528799,1000,1000,1000,1000,0,0,0,0,0,0,0,0,0,0
1681390062.40037394,142628759,1000,1000,1000,1000,0,0,0,0,0,0,0,0,0,0
1681390062.50033402,142728719,1000,1000,1000,1000,0,0,0,0,0,0,0,0,0,0
1681390062.60029411,142828679,1000,1000,1000,1000,0,0,0,0,0,0,0,0,0,0
1681390062.70025396,142928639,1000,1000,1000,1000,0,0,0,0,0,0,0,0,0,0
1681390062.80021405,143028599,1000,1000,1000,1000,0,0,0,0,0,0,0,0,0,0
1681390062.90017414,143128559,1000,1000,1000,1000,0,0,0,0,0,0,0,0,0,0
1681390063.00013399,143228519,1000,1000,1000,1000,0,0,0,0,0,0,0,0,0,0
1681390063.10009408,143328479,1000,1000,1000,1000,0,0,0,0,0,0,0,0,0,0
1681390063.20005393,143428439,1000,1000,1000,1000,0,0,0,0,0,0,0,0,0,0
1681390063.30001402,143528399,1000,1000,1000,1000,0,0,0,0,0,0,0,0,0,0
1681390063.39997411,143628359,1000,1000,1000,1000,0,0,0,0,0,0,0,0,0,0
1681390063.49993396,143728319,1000,1000,1000,1000,0,0,0,0,0,0,0,0,0,0
1681390063.59989405,143828279,1000,1000,1000,1000,0,0,0,0,0,0,0,0,0,0
1681390063.69985414,143928239,1000,1000,1000,1000,0,0,0,0,0,0,0,0,0,0
1681390063.79981399,144028199,1000,1000,1000,1000,0,0,0,0,0,0,0,0,0,0
1681390063.89977407,144128159,1000,1000,1000,1000,0,0,0,0,0,0,0,0,0,0
1681390064.00056696,144228952,1000,1000,1000,1000,0,0,0,0,0,0,0,0,0,0
1681390064.10052705,144328912,1000,1000,1000,1000,0,0,0,0,0,0,0,0,0,0
1681390064.20048714,144428872,1000,1000,1000,1000,0,0,0,0,0,0,0,0,0,0
1681390064.30044699,144528832,1000,1000,1000,1000,0,0,0,0,0,0,0,0,0,0
1681390064.40040708,144628792,1000,1000,1000,1000,0,0,0,0,0,0,0,0,0,0
1681390064.50036693,144728752,1000,1000,1000,1000,0,0,0,0,0,0,0,0,0,0
1681390064.60032701,144828712,1000,1000,1000,1000,0,0,0,0,0,0,0,0,0,0
1681390064.70028710,144928672,1000,1000,1000,1000,0,0,0,0,0,0,0,0,0,0
1681390064.80024695,145028632,1000,1000,1000,1000,0,0,0,0,0,0,0,0,0,0
1681390064.90020704,145128592,1000,1000,1000,1000,0,0,0,0,0,0,0,0,0,0
1681390065.00016713,145228552,1000,1000,1000,1000,0,0,0,0,0,0,0,0,0,0
1681390065.10012698,145328512,1000,1000,1000,1000,0,0,0,0,0,0,0,0,0,0
1681390065.20008707,145428472,1000,1000,1000,1000,0,0,0,0,0,0,0,0,0,0
1681390065.30004692,145528432,1000,1000,1000,1000,0,0,0,0,0,0,0,0,0,0
1681390065.40000701,145628392,1000,1000,1000,1000,0,0,0,0,0,0,0,0,0,0
1681390065.49996710,145728352,1000,1000,1000,1000,0,0,0,0,0,0,0,0,0,0
1681390065.59992695,145828312,1000,1000,1000,1000,0,0,0,0,0,0,0,0,0,0
1681390065.69988704,145928272,1000,1000,1000,1000,0,0,0,0,0,0,0,0,0,0
1681390065.79984713,146028232,1000,1000,1000,1000,0,0,0,0,0,0,0,0,0,0
1681390065.89980698,146128192,1000,1000,1000,1000,0,0,0,0,0,0,0,0,0,0
1681390066.00060010,146228985,1000,1000,1000,1000,0,0,0,0,0,0,0,0,0,0
1681390066.10055995,146328945,1000,1000,1000,1000,0,0,0,0,0,0,0,0,0,0
1681390066.20052004,146428905,1000,1000,1000,1000,0,0,0,0,0,0,0,0,0,0
1681390066.30048013,146528865,1000,1000,1000,1000,0,0,0,0,0,0,0,0,0,0
1681390066.40043998,146628825,1000,1000,1000,1000,0,0,0,0,0,0,0,0,0,0
1681390066.50040007,146728785,1000,1000,1000,1000,0,0,0,0,0,0,0,0,0,0
1681390066.60035992,146828745,1000,1000,1000,1000,0,0,0,0,0,0,0,0,0,0
1681390066.70032001,146928705,1000,1000,1000,1000,0,0,0,0,0,0,0,0,0,0
1681390066.80028009,147028665,1000,1000,1000,1000,0,0,0,0,0,0,0,0,0,0
1681390066.90023994,147128625,1000,1000,1000,1000,0,0,0,0,0,0,0,0,0,0
1681390067.00020003,147228585,1000,1000,1000,1000,0,0,0,0,0,0,0,0,0,0
1681390067.10016012,147328545,1000,1000,1000,1000,0,0,0,0,0,0,0,0,0,0
1681390067.20011997,147428505,1000,1000,1000,1000,0,0,0,0,0,0,0,0,0,0
1681390067.30008006,147528465,1000,1000,1000,1000,0,0,0,0,0,0,0,0,0,0
1681390067.40003991,147628425,1000,1000,1000,1000,0,0,0,0,0,0,0,0,0,0
1681390067.50000000,147728385,1000,1000,1000,1000,0,0,0,0,0,0,0,0,0,0
1681390067.59996009,147828345,1000,1000,1000,1000,0,0,0,0,0,0,0,0,0,0
1681390067.69991994,147928305,1000,1000,1000,1000,0,0,0,0,0,0,0,0,0,0
1681390067.79988003,148028265,1000,1000,1000,1000,0,0,0,0,0,0,0,0,0,0
1681390067.89984012,148128225,1000,1000,1000,1000,0,0,0,0,0,0,0,0,0,0
1681390067.99979997,148228185,1000,1000,1000,1000,0,0,0,0,0,0,0,0,0,0
1681390068.10059309,148328978,1000,1000,1000,1000,0,0,0,0,0,0,0,0,0,0
1681390068.20055294,148428938,1000,1000,1000,1000,0,0,0,0,0,0,0,0,0,0
1681390068.30051303,148528898,1000,1000,1000,1000,0,0,0,0,0,0,0,0,0,0
1681390068.40047312,148628858,1000,1000,1000,1000,0,0,0,0,0,0,0,0,0,0
1681390068.50043297,148728818,1000,1000,1000,1000,0,0,0,0,0,0,0,0,0,0
1681390068.60039306,148828778,1000,1000,1000,1000,0,0,0,0,0,0,0,0,0,0
1681390068.70035315,148928738,1000,1000,1000,1000,0,0,0,0,0,0,0,0,0,0
1681390068.80031300,149028698,1000,1000,1000,1000,0,0,0,0,0,0,0,0,0,0
1681390068.90027308,149128658,1000,1000,1000,1000,0,0,0,0,0,0,0,0,0,0
1681390069.00023293,149228618,1000,1000,1000,1000,0,0,0,0,0,0,0,0,0,0
1681390069.10019302,149328578,1000,1000,1000,1000,0,0,0,0,0,0,0,0,0,0
1681390069.20015311,149428538,1000,1000,1000,1000,0,0,0,0,0,0,0,0,0,0
1681390069.30011296,149528498,1000,1000,1000,1000,0,0,0,0,0,0,0,0,0,0
1681390069.40007305,149628458,1000,1000,1000,1000,0,0,0,0,0,0,0,0,0,0
1681390069.50003314,149728418,1000,1000,1000,1000,0,0,0,0,0,0,0,0,0,0
1681390069.59999299,149828378,1000,1000,1000,1000,0,0,0,0,0,0,0,0,0,0
1681390069.69995308,149928338,1000,1000,1000,1000,0,0,0,0,0,0,0,0,0,0
1681390069.79991293,150028298,1000,1000,1000,1000,0,0,0,0,0,0,0,0,0,0
1681390069.89987302,150128258,1000,1000,1000,1000,0,0,0,0,0,0,0,0,0,0
1681390069.99983311,150228218,1000,1000,1000,1000,0,0,0,0,0,0,0,0,0,0
1681390070.09979296,150328178,1000,1000,1000,1000,0,0,0,0,0,0,0,0,0,0
