TimeUS,M1,M2,M3,M4,TimeUS,C1,C2,C3,C4
108025939,1000,1000,1000,1000,108028438,1000,1000,1000,1000
108028438,1000,1000,1000,1000,108128398,1000,1000,1000,1000
108030937,1000,1000,1000,1000,108228358,1000,1000,1000,1000
108033436,1000,1000,1000,1000,108328318,1000,1000,1000,1000
108035935,1000,1000,1000,1000,108428278,1000,1000,1000,1000
108038434,1000,1000,1000,1000,108528238,1000,1000,1000,1000
108040933,1000,1000,1000,1000,108628198,1000,1000,1000,1000
108043432,1000,1000,1000,1000,108728158,1000,1000,1000,1000
108045931,1000,1000,1000,1000,108828951,1000,1000,1000,1000
108048430,1000,1000,1000,1000,108928911,1000,1000,1000,1000
108050929,1000,1000,1000,1000,109028871,1000,1000,1000,1000
108053428,1000,1000,1000,1000,109128831,1000,1000,1000,1000
108055927,1000,1000,1000,1000,109228791,1000,1000,1000,1000
108058426,1000,1000,1000,1000,109328751,1000,1000,1000,1000
108060925,1000,1000,1000,1000,109428711,1000,1000,1000,1000
108063424,1000,1000,1000,1000,109528671,1000,1000,1000,1000
108065923,1000,1000,1000,1000,109628631,1000,1000,1000,1000
108068422,1000,1000,1000,1000,109728591,1000,1000,1000,1000
108070921,1000,1000,1000,1000,109828551,1000,1000,1000,1000
108073420,1000,1000,1000,1000,109928511,1000,1000,1000,1000
108075919,1000,1000,1000,1000,110028471,1000,1000,1000,1000
108078418,1000,1000,1000,1000,110128431,1030,1030,1030,1030
108080917,1000,1000,1000,1000,110228391,1060,1060,1060,1060
108083416,1000,1000,1000,1000,110328351,1090,1090,1090,1090
108085915,1000,1000,1000,1000,110428311,1120,1120,1120,1120
108088414,1000,1000,1000,1000,110528271,1150,1150,1150,1150
108090913,1000,1000,1000,1000,110628231,1408,1395,1396,1409
108093412,1000,1000,1000,1000,110728191,1586,1575,1575,1587
108095911,1000,1000,1000,1000,110828984,1732,1723,1723,1733
108098410,1000,1000,1000,1000,110928944,1860,1849,1850,1860
108100909,1000,1000,1000,1000,111028904,1915,1906,1907,1916
108103408,1000,1000,1000,1000,111128864,1823,1820,1821,1824
108105907,1000,1000,1000,1000,111228824,1696,1697,1695,1700
108108406,1000,1000,1000,1000,111328784,1634,1638,1635,1639
108110905,1000,1000,1000,1000,111428744,1625,1630,1628,1628
108113404,1000,1000,1000,1000,111528704,1632,1635,1636,1632
108115903,1000,1000,1000,1000,111628664,1634,1636,1637,1632
108118402,1000,1000,1000,1000,111728624,1630,1629,1631,1628
108120901,1000,1000,1000,1000,111828584,1625,1622,1624,1623
108123400,1000,1000,1000,1000,111928544,1620,1618,1618,1619
108125899,1000,1000,1000,1000,112028504,1618,1616,1616,1617
108128398,1000,1000,1000,1000,112128464,1617,1617,1617,1617
108130897,1000,1000,1000,1000,112228424,1595,1596,1600,1591
108133396,1000,1000,1000,1000,112328384,1577,1578,1585,1569
108135895,1000,1000,1000,1000,112428344,1565,1567,1570,1562
108138394,1000,1000,1000,1000,112528304,1556,1556,1555,1558
108140893,1000,1000,1000,1000,112628264,1548,1548,1544,1553
108143392,1000,1000,1000,1000,112728224,1543,1542,1534,1551
108145891,1000,1000,1000,1000,112828184,1536,1535,1527,1543
108148390,1000,1000,1000,1000,112928977,1531,1530,1526,1535
108150889,1000,1000,1000,1000,113028937,1527,1527,1526,1528
108153388,1000,1000,1000,1000,113128897,1526,1526,1526,1525
108155887,1000,1000,1000,1000,113228857,1528,1528,1530,1525
108158386,1000,1000,1000,1000,113328817,1531,1530,1534,1528
108160885,1000,1000,1000,1000,113428777,1535,1535,1538,1533
108163384,1000,1000,1000,1000,113528737,1538,1538,1540,1537
108165883,1000,1000,1000,1000,113628697,1542,1542,1543,1542
108168382,1000,1000,1000,1000,113728657,1544,1544,1545,1545
108170881,1000,1000,1000,1000,113828617,1547,1547,1548,1548
108173380,1000,1000,1000,1000,113928577,1551,1551,1551,1551
108175879,1000,1000,1000,1000,114028537,1553,1553,1553,1554
108178378,1000,1000,1000,1000,114128497,1556,1556,1555,1557
108180877,1000,1000,1000,1000,114228457,1560,1560,1556,1558
108183376,1000,1000,1000,1000,114328417,1561,1560,1558,1560
108185875,1000,1000,1000,1000,114428377,1561,1561,1562,1563
108188374,1000,1000,1000,1000,114528337,1562,1562,1566,1566
108190873,1000,1000,1000,1000,114628297,1561,1562,1567,1567
108193372,1000,1000,1000,1000,114728257,1563,1563,1568,1568
108195871,1000,1000,1000,1000,114828217,1564,1564,1568,1568
108198370,1000,1000,1000,1000,114928177,1566,1566,1570,1570
108200869,1000,1000,1000,1000,115028970,1568,1568,1570,1570
108203368,1000,1000,1000,1000,115128930,1570,1570,1570,1570
108205867,1000,1000,1000,1000,115228890,1571,1571,1570,1570
108208366,1000,1000,1000,1000,115328850,1572,1572,1570,1570
108210865,1000,1000,1000,1000,115428810,1573,1573,1570,1570
108213364,1000,1000,1000,1000,115528770,1573,1573,1570,1570
108215863,1000,1000,1000,1000,115628730,1575,1575,1572,1572
108218362,1000,1000,1000,1000,115728690,1576,1576,1574,1573
108220861,1000,1000,1000,1000,115828650,1575,1576,1574,1573
108223360,1000,1000,1000,1000,115928610,1576,1576,1575,1574
108225859,1000,1000,1000,1000,116028570,1577,1576,1576,1575
108228358,1000,1000,1000,1000,116128530,1577,1576,1576,1575
108230857,1000,1000,1000,1000,116228490,1576,1576,1575,1576
108233356,1000,1000,1000,1000,116328450,1576,1576,1577,1577
108235855,1000,1000,1000,1000,116428410,1576,1575,1576,1576
108238354,1000,1000,1000,1000,116528370,1576,1576,1576,1577
108240853,1000,1000,1000,1000,116628330,1576,1576,1577,1577
108243352,1000,1000,1000,1000,116728290,1577,1577,1578,1578
108245851,1000,1000,1000,1000,116828250,1577,1577,1578,1578
108248350,1000,1000,1000,1000,116928210,1577,1577,1578,1578
108250849,1000,1000,1000,1000,117028170,1577,1577,1578,1577
108253348,1000,1000,1000,1000,117128963,1578,1577,1578,1578
108255847,1000,1000,1000,1000,117228923,1578,1577,1578,1577
108258346,1000,1000,1000,1000,117328883,1578,1578,1577,1578
108260845,1000,1000,1000,1000,117428843,1577,1578,1577,1577
108263344,1000,1000,1000,1000,117528803,1579,1579,1579,1579
108265843,1000,1000,1000,1000,117628763,1579,1579,1579,1578
108268342,1000,1000,1000,1000,117728723,1580,1580,1579,1579
108270841,1000,1000,1000,1000,117828683,1578,1578,1578,1578
108273340,1000,1000,1000,1000,117928643,1578,1578,1578,1579
108275839,1000,1000,1000,1000,118028603,1578,1578,1578,1578
108278338,1000,1000,1000,1000,118128563,1578,1578,1578,1579
108280837,1000,1000,1000,1000,118228523,1579,1579,1580,1579
108283336,1000,1000,1000,1000,118328483,1579,1578,1579,1579
108285835,1000,1000,1000,1000,118428443,1579,1579,1579,1579
108288334,1000,1000,1000,1000,118528403,1579,1579,1579,1579
108290833,1000,1000,1000,1000,118628363,1580,1580,1580,1580
108293332,1000,1000,1000,1000,118728323,1581,1581,1581,1581
108295831,1000,1000,1000,1000,118828283,1580,1580,1580,1580
108298330,1000,1000,1000,1000,118928243,1579,1580,1580,1579
108300829,1000,1000,1000,1000,119028203,1579,1580,1580,1580
108303328,1000,1000,1000,1000,119128163,1580,1580,1580,1580
108305827,1000,1000,1000,1000,119228956,1580,1579,1580,1580
108308326,1000,1000,1000,1000,119328916,1580,1580,1580,1580
108310825,1000,1000,1000,1000,119428876,1581,1581,1581,1581
108313324,1000,1000,1000,1000,119528836,1580,1580,1580,1580
108315823,1000,1000,1000,1000,119628796,1579,1580,1580,1579
108318322,1000,1000,1000,1000,119728756,1580,1580,1580,1580
108320821,1000,1000,1000,1000,119828716,1580,1579,1580,1579
108323320,1000,1000,1000,1000,119928676,1580,1579,1579,1579
108325819,1000,1000,1000,1000,120028636,1580,1580,1579,1580
108328318,1000,1000,1000,1000,120128596,1580,1580,1579,1580
108330817,1000,1000,1000,1000,120228556,1581,1580,1581,1581
108333316,1000,1000,1000,1000,120328516,1580,1580,1581,1580
108335815,1000,1000,1000,1000,120428476,1581,1583,1588,1575
108338314,1000,1000,1000,1000,120528436,1580,1584,1587,1574
108340813,1000,1000,1000,1000,120628396,1579,1582,1578,1574
108343312,1000,1000,1000,1000,120728356,1578,1580,1569,1572
108345811,1000,1000,1000,1000,120828316,1578,1580,1563,1569
108348310,1000,1000,1000,1000,120928276,1579,1580,1558,1565
108350809,1000,1000,1000,1000,121028236,1581,1580,1557,1560
108353308,1000,1000,1000,1000,121128196,1581,1579,1555,1556
108355807,1000,1000,1000,1000,121228156,1581,1580,1557,1555
108358306,1000,1000,1000,1000,121328949,1580,1579,1556,1554
108360805,1000,1000,1000,1000,121428909,1578,1579,1556,1554
108363304,1000,1000,1000,1000,121528869,1578,1579,1556,1555
108365803,1000,1000,1000,1000,121628829,1576,1577,1554,1553
108368302,1000,1000,1000,1000,121728789,1575,1577,1552,1553
108370801,1000,1000,1000,1000,121828749,1577,1578,1552,1552
108373300,1000,1000,1000,1000,121928709,1577,1578,1549,1550
108375799,1000,1000,1000,1000,122028669,1579,1580,1547,1547
108378298,1000,1000,1000,1000,122128629,1581,1582,1545,1544
108380797,1000,1000,1000,1000,122228589,1585,1586,1543,1542
108383296,1000,1000,1000,1000,122328549,1589,1589,1541,1540
108385795,1000,1000,1000,1000,122428509,1591,1591,1537,1536
108388294,1000,1000,1000,1000,122528469,1593,1593,1535,1535
108390793,1000,1000,1000,1000,122628429,1595,1595,1534,1535
108393292,1000,1000,1000,1000,122728389,1596,1595,1535,1537
108395791,1000,1000,1000,1000,122828349,1595,1595,1537,1539
108398290,1000,1000,1000,1000,122928309,1593,1592,1540,1543
108400789,1000,1000,1000,1000,123028269,1589,1587,1547,1550
108403288,1000,1000,1000,1000,123128229,1583,1579,1556,1559
108405787,1000,1000,1000,1000,123228189,1572,1569,1566,1568
108408286,1000,1000,1000,1000,123328982,1562,1558,1579,1581
108410785,1000,1000,1000,1000,123428942,1550,1547,1590,1592
108413284,1000,1000,1000,1000,123528902,1539,1537,1601,1601
108415783,1000,1000,1000,1000,123628862,1532,1532,1610,1609
108418282,1000,1000,1000,1000,123728822,1529,1529,1615,1614
108420781,1000,1000,1000,1000,123828782,1529,1531,1617,1615
108423280,1000,1000,1000,1000,123928742,1533,1535,1614,1613
108425779,1000,1000,1000,1000,124028702,1538,1541,1608,1608
108428278,1000,1000,1000,1000,124128662,1546,1547,1600,1601
108430777,1000,1000,1000,1000,124228622,1564,1565,1620,1592
108433276,1000,1000,1000,1000,124328582,1568,1567,1607,1586
108435775,1000,1000,1000,1000,124428542,1574,1573,1594,1585
108438274,1000,1000,1000,1000,124528502,1577,1577,1580,1581
108440773,1000,1000,1000,1000,124628462,1580,1580,1569,1577
108443272,1000,1000,1000,1000,124728422,1583,1582,1563,1572
108445771,1000,1000,1000,1000,124828382,1584,1583,1562,1568
108448270,1000,1000,1000,1000,124928342,1584,1583,1562,1565
108450769,1000,1000,1000,1000,125028302,1584,1583,1566,1565
108453268,1000,1000,1000,1000,125128262,1584,1582,1570,1568
108455767,1000,1000,1000,1000,125228222,1581,1581,1573,1570
108458266,1000,1000,1000,1000,125328182,1579,1579,1576,1574
108460765,1000,1000,1000,1000,125428975,1577,1577,1579,1577
108463264,1000,1000,1000,1000,125528935,1575,1575,1580,1580
108465763,1000,1000,1000,1000,125628895,1573,1574,1581,1582
108468262,1000,1000,1000,1000,125728855,1572,1572,1582,1582
108470761,1000,1000,1000,1000,125828815,1571,1572,1582,1582
108473260,1000,1000,1000,1000,125928775,1572,1573,1582,1583
108475759,1000,1000,1000,1000,126028735,1573,1574,1582,1582
108478258,1000,1000,1000,1000,126128695,1575,1575,1581,1581
108480757,1000,1000,1000,1000,126228655,1577,1576,1581,1580
108483256,1000,1000,1000,1000,126328615,1578,1578,1579,1579
108485755,1000,1000,1000,1000,126428575,1579,1579,1578,1578
108488254,1000,1000,1000,1000,126528535,1580,1580,1577,1577
108490753,1000,1000,1000,1000,126628495,1581,1580,1577,1577
108493252,1000,1000,1000,1000,126728455,1582,1581,1578,1577
108495751,1000,1000,1000,1000,126828415,1581,1581,1577,1577
108498250,1000,1000,1000,1000,126928375,1581,1582,1578,1578
108500749,1000,1000,1000,1000,127028335,1581,1581,1578,1578
108503248,1000,1000,1000,1000,127128295,1581,1581,1579,1579
108505747,1000,1000,1000,1000,127228255,1581,1580,1580,1580
108508246,1000,1000,1000,1000,127328215,1581,1580,1580,1581
108510745,1000,1000,1000,1000,127428175,1580,1580,1581,1581
108513244,1000,1000,1000,1000,127528968,1580,1580,1581,1581
108515743,1000,1000,1000,1000,127628928,1579,1580,1581,1581
108518242,1000,1000,1000,1000,127728888,1579,1579,1581,1581
108520741,1000,1000,1000,1000,127828848,1580,1580,1581,1581
108523240,1000,1000,1000,1000,127928808,1580,1580,1580,1581
108525739,1000,1000,1000,1000,128028768,1580,1580,1581,1581
108528238,1000,1000,1000,1000,128128728,1580,1580,1580,1580
108530737,1000,1000,1000,1000,128228688,1581,1581,1581,1581
108533236,1000,1000,1000,1000,128328648,1581,1581,1581,1580
108535735,1000,1000,1000,1000,128428608,1581,1584,1587,1573
108538234,1000,1000,1000,1000,128528568,1581,1585,1583,1572
108540733,1000,1000,1000,1000,128628528,1581,1584,1574,1571
108543232,1000,1000,1000,1000,128728488,1580,1582,1564,1569
108545731,1000,1000,1000,1000,128828448,1580,1581,1557,1565
108548230,1000,1000,1000,1000,128928408,1582,1581,1554,1560
108550729,1000,1000,1000,1000,129028368,1582,1580,1552,1555
108553228,1000,1000,1000,1000,129128328,1582,1580,1552,1553
108555727,1000,1000,1000,1000,129228288,1581,1580,1553,1551
108558226,1000,1000,1000,1000,129328248,1580,1580,1555,1552
108560725,1000,1000,1000,1000,129428208,1579,1580,1555,1553
108563224,1000,1000,1000,1000,129528168,1577,1579,1554,1553
108565723,1000,1000,1000,1000,129628961,1575,1578,1553,1552
108568222,1000,1000,1000,1000,129728921,1576,1578,1552,1554
108570721,1000,1000,1000,1000,129828881,1577,1578,1552,1552
108573220,1000,1000,1000,1000,129928841,1578,1579,1550,1550
108575719,1000,1000,1000,1000,130028801,1580,1581,1548,1549
108578218,1000,1000,1000,1000,130128761,1582,1583,1547,1546
108580717,1000,1000,1000,1000,130228721,1584,1585,1544,1544
108583216,1000,1000,1000,1000,130328681,1587,1587,1543,1543
108585715,1000,1000,1000,1000,130428641,1588,1590,1540,1541
108588214,1000,1000,1000,1000,130528601,1591,1592,1539,1540
108590713,1000,1000,1000,1000,130628561,1593,1593,1539,1541
108593212,1000,1000,1000,1000,130728521,1594,1593,1543,1545
108595711,1000,1000,1000,1000,130828481,1591,1589,1546,1548
108598210,1000,1000,1000,1000,130928441,1586,1582,1553,1555
108600709,1000,1000,1000,1000,131028401,1579,1576,1563,1565
108603208,1000,1000,1000,1000,131128361,1570,1566,1572,1574
108605707,1000,1000,1000,1000,131228321,1560,1557,1583,1585
108608206,1000,1000,1000,1000,131328281,1551,1549,1594,1594
108610705,1000,1000,1000,1000,131428241,1544,1544,1602,1602
108613204,1000,1000,1000,1000,131528201,1539,1540,1607,1607
108615703,1000,1000,1000,1000,131628161,1538,1539,1610,1609
108618202,1000,1000,1000,1000,131728954,1540,1542,1611,1609
108620701,1000,1000,1000,1000,131828914,1543,1544,1607,1606
108623200,1000,1000,1000,1000,131928874,1550,1551,1603,1603
108625699,1000,1000,1000,1000,132028834,1556,1557,1597,1596
108628198,1000,1000,1000,1000,132128794,1563,1564,1590,1590
108630697,1000,1000,1000,1000,132228754,1571,1571,1584,1584
108633196,1000,1000,1000,1000,132328714,1577,1576,1579,1579
108635695,1000,1000,1000,1000,132428674,1581,1580,1574,1574
108638194,1000,1000,1000,1000,132528634,1584,1583,1571,1571
108640693,1000,1000,1000,1000,132628594,1585,1584,1569,1570
108643192,1000,1000,1000,1000,132728554,1586,1584,1569,1569
108645691,1000,1000,1000,1000,132828514,1585,1584,1571,1571
108648190,1000,1000,1000,1000,132928474,1583,1582,1572,1573
108650689,1000,1000,1000,1000,133028434,1581,1581,1575,1574
108653188,1000,1000,1000,1000,133128394,1579,1580,1578,1578
108655687,1000,1000,1000,1000,133228354,1576,1577,1579,1579
108658186,1000,1000,1000,1000,133328314,1575,1576,1582,1582
108660685,1000,1000,1000,1000,133428274,1574,1574,1582,1582
108663184,1000,1000,1000,1000,133528234,1574,1574,1583,1584
108665683,1000,1000,1000,1000,133628194,1574,1575,1584,1584
108668182,1000,1000,1000,1000,133728154,1576,1576,1585,1585
108670681,1000,1000,1000,1000,133828947,1575,1576,1583,1583
108673180,1000,1000,1000,1000,133928907,1576,1577,1582,1582
108675679,1000,1000,1000,1000,134028867,1578,1579,1582,1582
108678178,1000,1000,1000,1000,134128827,1580,1580,1581,1581
108680677,1000,1000,1000,1000,134228787,1581,1580,1579,1579
108683176,1000,1000,1000,1000,134328747,1581,1581,1579,1579
108685675,1000,1000,1000,1000,134428707,1582,1581,1578,1579
108688174,1000,1000,1000,1000,134528667,1581,1581,1577,1577
108690673,1000,1000,1000,1000,134628627,1581,1581,1578,1578
108693172,1000,1000,1000,1000,134728587,1581,1581,1579,1578
108695671,1000,1000,1000,1000,134828547,1581,1581,1579,1579
108698170,1000,1000,1000,1000,134928507,1580,1580,1579,1579
108700669,1000,1000,1000,1000,135028467,1580,1580,1579,1580
108703168,1000,1000,1000,1000,135128427,1581,1580,1581,1581
108705667,1000,1000,1000,1000,135228387,1580,1580,1581,1581
108708166,1000,1000,1000,1000,135328347,1580,1580,1581,1582
108710665,1000,1000,1000,1000,135428307,1579,1579,1581,1581
108713164,1000,1000,1000,1000,135528267,1579,1579,1580,1581
108715663,1000,1000,1000,1000,135628227,1579,1580,1581,1581
108718162,1000,1000,1000,1000,135728187,1579,1579,1580,1580
108720661,1000,1000,1000,1000,135828980,1580,1580,1581,1580
108723160,1000,1000,1000,1000,135928940,1580,1580,1581,1580
108725659,1000,1000,1000,1000,136028900,1582,1582,1583,1582
108728158,1000,1000,1000,1000,136128860,1581,1582,1581,1581
108730657,1000,1000,1000,1000,136228820,1581,1581,1580,1581
108733156,1000,1000,1000,1000,136328780,1581,1581,1580,1580
108735655,1000,1000,1000,1000,136428740,1582,1583,1583,1580
108738154,1000,1000,1000,1000,136528700,1581,1583,1587,1572
108741486,1000,1000,1000,1000,136628660,1581,1585,1583,1573
108743985,1000,1000,1000,1000,136728620,1579,1582,1573,1572
108746484,1000,1000,1000,1000,136828580,1580,1581,1566,1570
108748983,1000,1000,1000,1000,136928540,1579,1580,1559,1566
108751482,1000,1000,1000,1000,137028500,1580,1580,1555,1561
108753981,1000,1000,1000,1000,137128460,1580,1579,1554,1557
108756480,1000,1000,1000,1000,137228420,1581,1580,1555,1554
108758979,1000,1000,1000,1000,137328380,1580,1579,1555,1553
108761478,1000,1000,1000,1000,137428340,1580,1580,1556,1554
108763977,1000,1000,1000,1000,137528300,1578,1579,1556,1554
108766476,1000,1000,1000,1000,137628260,1576,1578,1555,1554
108768975,1000,1000,1000,1000,137728220,1576,1578,1554,1554
108771474,1000,1000,1000,1000,137828180,1576,1577,1553,1553
108773973,1000,1000,1000,1000,137928973,1577,1577,1551,1552
108776472,1000,1000,1000,1000,138028933,1578,1579,1550,1550
108778971,1000,1000,1000,1000,138128893,1579,1580,1548,1548
108781470,1000,1000,1000,1000,138228853,1582,1582,1546,1545
108783969,1000,1000,1000,1000,138328813,1585,1585,1544,1543
108786468,1000,1000,1000,1000,138428773,1588,1588,1542,1542
108788967,1000,1000,1000,1000,138528733,1590,1590,1541,1541
108791466,1000,1000,1000,1000,138628693,1591,1592,1539,1539
108793965,1000,1000,1000,1000,138728653,1593,1593,1538,1540
108796464,1000,1000,1000,1000,138828613,1592,1593,1538,1540
108798963,1000,1000,1000,1000,138928573,1592,1591,1540,1543
108801462,1000,1000,1000,1000,139028533,1590,1588,1545,1548
108803961,1000,1000,1000,1000,139128493,1585,1582,1553,1555
108806460,1000,1000,1000,1000,139228453,1576,1573,1561,1564
108808959,1000,1000,1000,1000,139328413,1568,1563,1573,1575
108811458,1000,1000,1000,1000,139428373,1558,1555,1586,1586
108813957,1000,1000,1000,1000,139528333,1548,1546,1596,1596
108816456,1000,1000,1000,1000,139628293,1539,1539,1604,1603
108818955,1000,1000,1000,1000,139728253,1535,1536,1610,1609
108821454,1000,1000,1000,1000,139828213,1533,1535,1612,1611
108823953,1000,1000,1000,1000,139928173,1535,1537,1611,1610
108826452,1000,1000,1000,1000,140028966,1541,1543,1608,1608
108828951,1000,1000,1000,1000,140128926,1547,1548,1602,1602
108831450,1000,1000,1000,1000,140228886,1555,1556,1596,1596
108833949,1000,1000,1000,1000,140328846,1563,1563,1589,1589
108836448,1000,1000,1000,1000,140428806,1569,1569,1582,1581
108838947,1000,1000,1000,1000,140528766,1576,1575,1576,1576
108841446,1000,1000,1000,1000,140628726,1581,1580,1571,1571
108843945,1000,1000,1000,1000,140728686,1585,1583,1569,1569
108846444,1000,1000,1000,1000,140828646,1585,1584,1567,1567
108848943,1000,1000,1000,1000,140928606,1586,1585,1568,1568
108851442,1000,1000,1000,1000,141028566,1585,1584,1569,1569
108853941,1000,1000,1000,1000,141128526,1583,1582,1572,1571
108856440,1000,1000,1000,1000,141228486,1581,1581,1574,1574
108858939,1000,1000,1000,1000,141328446,1579,1579,1577,1577
108861438,1000,1000,1000,1000,141428406,1576,1577,1579,1579
108863937,1000,1000,1000,1000,141528366,1575,1575,1582,1581
108866436,1000,1000,1000,1000,141628326,1574,1575,1584,1583
108868935,1000,1000,1000,1000,141728286,1573,1574,1584,1584
108871434,1000,1000,1000,1000,141828246,1573,1574,1583,1584
108873933,1000,1000,1000,1000,141928206,1574,1573,1583,1582
108876432,1000,1000,1000,1000,142028166,1575,1575,1582,1582
108878931,1000,1000,1000,1000,142128959,1576,1576,1581,1581
108881430,1000,1000,1000,1000,142228919,1577,1577,1580,1580
108883929,1000,1000,1000,1000,142328879,1579,1579,1580,1580
108886428,1000,1000,1000,1000,142428839,1580,1580,1579,1579
108888927,1000,1000,1000,1000,142528799,1580,1580,1578,1577
108891426,1000,1000,1000,1000,142628759,1581,1581,1578,1578
108893925,1000,1000,1000,1000,142728719,1581,1581,1578,1578
108896424,1000,1000,1000,1000,142828679,1581,1581,1577,1577
108898923,1000,1000,1000,1000,142928639,1581,1581,1578,1578
108901422,1000,1000,1000,1000,143028599,1581,1580,1578,1578
108903921,1000,1000,1000,1000,143128559,1581,1580,1579,1579
108906420,1000,1000,1000,1000,143228519,1580,1580,1580,1580
108908919,1000,1000,1000,1000,143328479,1580,1579,1580,1580
108911418,1000,1000,1000,1000,143428439,1579,1579,1580,1580
108913917,1000,1000,1000,1000,143528399,1579,1579,1580,1581
108916416,1000,1000,1000,1000,143628359,1578,1579,1580,1580
108918915,1000,1000,1000,1000,143728319,1578,1578,1580,1580
108921414,1000,1000,1000,1000,143828279,1579,1579,1580,1580
108923913,1000,1000,1000,1000,143928239,1579,1579,1580,1581
108926412,1000,1000,1000,1000,144028199,1580,1580,1581,1580
108928911,1000,1000,1000,1000,144128159,1581,1580,1581,1581
108931410,1000,1000,1000,1000,144228952,1580,1580,1580,1580
108933909,1000,1000,1000,1000,144328912,1582,1583,1585,1578
108936408,1000,1000,1000,1000,144428872,1581,1582,1588,1572
108938907,1000,1000,1000,1000,144528832,1581,1581,1583,1575
108941406,1000,1000,1000,1000,144628792,1577,1576,1575,1575
108943905,1000,1000,1000,1000,144728752,1573,1573,1568,1575
108946404,1000,1000,1000,1000,144828712,1571,1571,1566,1573
108948903,1000,1000,1000,1000,144928672,1570,1569,1566,1572
108951402,1000,1000,1000,1000,145028632,1569,1568,1567,1569
108953901,1000,1000,1000,1000,145128592,1568,1567,1567,1567
108956400,1000,1000,1000,1000,145228552,1567,1567,1568,1566
108958899,1000,1000,1000,1000,145328512,1566,1566,1568,1565
108961398,1000,1000,1000,1000,145428472,1565,1566,1567,1565
108963897,1000,1000,1000,1000,145528432,1564,1564,1566,1565
108966396,1000,1000,1000,1000,145628392,1563,1563,1564,1564
108968895,1000,1000,1000,1000,145728352,1563,1563,1563,1564
108971394,1000,1000,1000,1000,145828312,1563,1562,1563,1563
108973893,1000,1000,1000,1000,145928272,1562,1562,1562,1563
108976392,1000,1000,1000,1000,146028232,1562,1562,1562,1562
108978891,1000,1000,1000,1000,146128192,1562,1562,1562,1561
108981390,1000,1000,1000,1000,146228985,1560,1560,1560,1559
108983889,1000,1000,1000,1000,146328945,1560,1559,1560,1559
108986388,1000,1000,1000,1000,146428905,1558,1559,1559,1557
108988887,1000,1000,1000,1000,146528865,1558,1558,1559,1557
108991386,1000,1000,1000,1000,146628825,1557,1557,1557,1556
108993885,1000,1000,1000,1000,146728785,1557,1556,1557,1556
108996384,1000,1000,1000,1000,146828745,1558,1557,1558,1557
108998883,1000,1000,1000,1000,146928705,1558,1558,1559,1557
109001382,1000,1000,1000,1000,147028665,1558,1558,1560,1556
109003881,1000,1000,1000,1000,147128625,1558,1558,1558,1558
109006380,1000,1000,1000,1000,147228585,1559,1559,1557,1561
109008879,1000,1000,1000,1000,147328545,1559,1559,1556,1563
109011378,1000,1000,1000,1000,147428505,1560,1560,1557,1563
109013877,1000,1000,1000,1000,147528465,1562,1562,1560,1564
109016376,1000,1000,1000,1000,147628425,1562,1563,1561,1563
109018875,1000,1000,1000,1000,147728385,1562,1563,1563,1562
109021374,1000,1000,1000,1000,147828345,1561,1562,1563,1559
109023873,1000,1000,1000,1000,147928305,1562,1561,1562,1561
109026372,1000,1000,1000,1000,148028265,1561,1559,1558,1562
109028871,1000,1000,1000,1000,148128225,1556,1556,1553,1558
109031370,1000,1000,1000,1000,148228185,1551,1551,1550,1552
109033869,1000,1000,1000,1000,148328978,1544,1544,1544,1545
109036368,1000,1000,1000,1000,148428938,1537,1538,1539,1537
109038867,1000,1000,1000,1000,148528898,1531,1531,1532,1531
109041366,1000,1000,1000,1000,148628858,1522,1523,1523,1522
109043865,1000,1000,1000,1000,148728818,1519,1519,1520,1519
109046364,1000,1000,1000,1000,148828778,1518,1519,1519,1519
109048863,1000,1000,1000,1000,148928738,1520,1519,1520,1519
109051362,1000,1000,1000,1000,149028698,1522,1522,1522,1522
109053861,1000,1000,1000,1000,149128658,1526,1525,1525,1526
109056360,1000,1000,1000,1000,149228618,1530,1530,1530,1531
109058859,1000,1000,1000,1000,149328578,1535,1536,1535,1536
109061358,1000,1000,1000,1000,149428538,1539,1540,1540,1540
109063857,1000,1000,1000,1000,149528498,1542,1542,1542,1542
109066356,1000,1000,1000,1000,149628458,1543,1543,1543,1543
109068855,1000,1000,1000,1000,149728418,1545,1545,1545,1545
109071354,1000,1000,1000,1000,149828378,1546,1546,1546,1546
109073853,1000,1000,1000,1000,149928338,1546,1546,1546,1546
109076352,1000,1000,1000,1000,150028298,1546,1546,1546,1546
109078851,1000,1000,1000,1000,150128258,1546,1546,1546,1546
109081350,1000,1000,1000,1000,150228218,1546,1546,1546,1546
109083849,1000,1000,1000,1000,150328178,1546,1546,1546,1546
109086348,1000,1000,1000,1000,150428971,1546,1546,1546,1546
109088847,1000,1000,1000,1000,150528931,1545,1545,1545,1545
109091346,1000,1000,1000,1000,150628891,1544,1545,1545,1544
109093845,1000,1000,1000,1000,150728851,1545,1545,1545,1545
109096344,1000,1000,1000,1000,150828811,1544,1544,1544,1544
109098843,1000,1000,1000,1000,150928771,1544,1544,1545,1544
109101342,1000,1000,1000,1000,151028731,1543,1543,1544,1543
109103841,1000,1000,1000,1000,151128691,1543,1543,1543,1543
109106340,1000,1000,1000,1000,151228651,1544,1544,1544,1544
109108839,1000,1000,1000,1000,151328611,1544,1544,1544,1544
109111338,1000,1000,1000,1000,151428571,1544,1544,1544,1544
109113837,1000,1000,1000,1000,151528531,1545,1544,1544,1545
109116336,1000,1000,1000,1000,151628491,1544,1544,1544,1544
109118835,1000,1000,1000,1000,151728451,1544,1543,1543,1544
109121334,1000,1000,1000,1000,151828411,1543,1543,1543,1543
109123833,1000,1000,1000,1000,151928371,1544,1544,1544,1544
109126332,1000,1000,1000,1000,152028331,1544,1544,1543,1544
109128831,1000,1000,1000,1000,152128291,1545,1545,1545,1545
109131330,1000,1000,1000,1000,152228251,1544,1544,1544,1544
109133829,1000,1000,1000,1000,152328211,1544,1544,1544,1544
109136328,1000,1000,1000,1000,152428171,1544,1545,1545,1545
109138827,1000,1000,1000,1000,152528964,1544,1543,1543,1544
109141326,1000,1000,1000,1000,152628924,1543,1543,1543,1543
109143825,1000,1000,1000,1000,152728884,1543,1543,1543,1544
109146324,1000,1000,1000,1000,152828844,1544,1544,1544,1544
109148823,1000,1000,1000,1000,152928804,1544,1544,1544,1544
109151322,1000,1000,1000,1000,153028764,1543,1544,1544,1543
109153821,1000,1000,1000,1000,153128724,1545,1544,1544,1544
109156320,1000,1000,1000,1000,153228684,1544,1544,1544,1545
109158819,1000,1000,1000,1000,153328644,1544,1544,1544,1544
109161318,1000,1000,1000,1000,153428604,1545,1545,1545,1545
109163817,1000,1000,1000,1000,153528564,1544,1544,1544,1544
109166316,1000,1000,1000,1000,153628524,1544,1544,1544,1543
109168815,1000,1000,1000,1000,153728484,1544,1544,1544,1544
109171314,1000,1000,1000,1000,153828444,1544,1544,1544,1544
109173813,1000,1000,1000,1000,153928404,1544,1544,1544,1544
109176312,1000,1000,1000,1000,154028364,1544,1544,1544,1544
109178811,1000,1000,1000,1000,154128324,1544,1544,1544,1544
109181310,1000,1000,1000,1000,154228284,1544,1544,1544,1544
109183809,1000,1000,1000,1000,154328244,1544,1544,1544,1544
109186308,1000,1000,1000,1000,154428204,1543,1543,1543,1543
109188807,1000,1000,1000,1000,154528164,1544,1544,1544,1544
109191306,1000,1000,1000,1000,154628957,1544,1545,1544,1545
109193805,1000,1000,1000,1000,154728917,1544,1544,1544,1544
109196304,1000,1000,1000,1000,154828877,1544,1543,1544,1543
109198803,1000,1000,1000,1000,154928837,1544,1543,1544,1544
109201302,1000,1000,1000,1000,155028797,1543,1544,1543,1544
109203801,1000,1000,1000,1000,155128757,1543,1543,1543,1543
109206300,1000,1000,1000,1000,155228717,1543,1544,1544,1544
109208799,1000,1000,1000,1000,155328677,1545,1544,1544,1544
109211298,1000,1000,1000,1000,155428637,1544,1544,1544,1544
109213797,1000,1000,1000,1000,155528597,1544,1544,1544,1545
109216296,1000,1000,1000,1000,155628557,1544,1544,1544,1544
109218795,1000,1000,1000,1000,155728517,1544,1544,1544,1544
109221294,1000,1000,1000,1000,155828477,1544,1544,1544,1544
109223793,1000,1000,1000,1000,155928437,1544,1544,1544,1544
109226292,1000,1000,1000,1000,156028397,1544,1544,1544,1543
109228791,1000,1000,1000,1000,156128357,1543,1544,1543,1544
109231290,1000,1000,1000,1000,156228317,1543,1544,1544,1543
109233789,1000,1000,1000,1000,156328277,1544,1544,1544,1544
109236288,1000,1000,1000,1000,156428237,1544,1544,1544,1544
109238787,1000,1000,1000,1000,156528197,1544,1544,1544,1545
109241286,1000,1000,1000,1000,156628157,1545,1545,1545,1545
109243785,1000,1000,1000,1000,156728950,1544,1544,1544,1544
109246284,1000,1000,1000,1000,156828910,1544,1545,1545,1544
109248783,1000,1000,1000,1000,156928870,1545,1545,1545,1545
109251282,1000,1000,1000,1000,157028830,1544,1544,1544,1544
109253781,1000,1000,1000,1000,157128790,1545,1544,1545,1545
109256280,1000,1000,1000,1000,157228750,1544,1545,1545,1544
109258779,1000,1000,1000,1000,157328710,1544,1544,1544,1544
109261278,1000,1000,1000,1000,157428670,1544,1543,1544,1544
109263777,1000,1000,1000,1000,157528630,1543,1543,1543,1544
109266276,1000,1000,1000,1000,157628590,1544,1544,1544,1544
109268775,1000,1000,1000,1000,157728550,1545,1544,1544,1544
109271274,1000,1000,1000,1000,157828510,1544,1544,1544,1544
109273773,1000,1000,1000,1000,157928470,1544,1544,1544,1544
109276272,1000,1000,1000,1000,158028430,1544,1544,1544,1543
109278771,1000,1000,1000,1000,158128390,1543,1543,1543,1543
109281270,1000,1000,1000,1000,158228350,1544,1544,1544,1544
109283769,1000,1000,1000,1000,158328310,1543,1543,1543,1544
109286268,1000,1000,1000,1000,158428270,1478,1478,1478,1478
109288767,1000,1000,1000,1000,158528230,1307,1304,1304,1308
109291266,1000,1000,1000,1000,158628190,1230,1228,1228,1231
109293765,1000,1000,1000,1000,158728983,1206,1204,1204,1207
109296264,1000,1000,1000,1000,158828943,1179,1178,1179,1180
109298763,1000,1000,1000,1000,158928903,1152,1150,1150,1153
109301262,1000,1000,1000,1000,159028863,1150,1150,1150,1151
109303761,1000,1000,1000,1000,159128823,1195,1150,1150,1197
109306260,1000,1000,1000,1000,159228783,1194,1150,1150,1196
109308759,1000,1000,1000,1000,159328743,1184,1150,1150,1186
109311258,1000,1000,1000,1000,159428703,1182,1150,1150,1185
109313757,1000,1000,1000,1000,159528663,1185,1150,1150,1188
109316256,1000,1000,1000,1000,159628623,1188,1150,1150,1190
109318755,1000,1000,1000,1000,159728583,1191,1150,1151,1194
109321254,1000,1000,1000,1000,159828543,1193,1150,1151,1196
109323753,1000,1000,1000,1000,159928503,1167,1150,1151,1169
109326252,1000,1000,1000,1000,160028463,1175,1150,1151,1177
109328751,1000,1000,1000,1000,160128423,1176,1150,1151,1178
109331250,1000,1000,1000,1000,160228383,1177,1150,1151,1180
109333749,1000,1000,1000,1000,160328343,1178,1150,1152,1181
109336248,1000,1000,1000,1000,160428303,1000,1000,1000,1000
109338747,1000,1000,1000,1000,160528263,1000,1000,1000,1000
109341246,1000,1000,1000,1000,160628223,1000,1000,1000,1000
109343745,1000,1000,1000,1000,160728183,1000,1000,1000,1000
109346244,1000,1000,1000,1000,160828976,1000,1000,1000,1000
109348743,1000,1000,1000,1000,160928936,1000,1000,1000,1000
109351242,1000,1000,1000,1000,161028896,1000,1000,1000,1000
109353741,1000,1000,1000,1000,161128856,1000,1000,1000,1000
109356240,1000,1000,1000,1000,161228816,1000,1000,1000,1000
109358739,1000,1000,1000,1000,161328776,1000,1000,1000,1000
109361238,1000,1000,1000,1000,161428736,1000,1000,1000,1000
109363737,1000,1000,1000,1000,161528696,1000,1000,1000,1000
109366236,1000,1000,1000,1000,161628656,1000,1000,1000,1000
109368735,1000,1000,1000,1000,161728616,1000,1000,1000,1000
109371234,1000,1000,1000,1000,161828576,1000,1000,1000,1000
109373733,1000,1000,1000,1000,161928536,1000,1000,1000,1000
109376232,1000,1000,1000,1000,162028496,1000,1000,1000,1000
109378731,1000,1000,1000,1000,162128456,1000,1000,1000,1000
109381230,1000,1000,1000,1000,162228416,1000,1000,1000,1000
109383729,1000,1000,1000,1000,162328376,1000,1000,1000,1000
109386228,1000,1000,1000,1000,162428336,1000,1000,1000,1000
109388727,1000,1000,1000,1000,162528296,1000,1000,1000,1000
109391226,1000,1000,1000,1000,162628256,1000,1000,1000,1000
109393725,1000,1000,1000,1000,162728216,1000,1000,1000,1000
109396224,1000,1000,1000,1000,162828176,1000,1000,1000,1000
109398723,1000,1000,1000,1000,162928969,1000,1000,1000,1000
109401222,1000,1000,1000,1000,163028929,1000,1000,1000,1000
109403721,1000,1000,1000,1000,163128889,1000,1000,1000,1000
109406220,1000,1000,1000,1000,163228849,1000,1000,1000,1000
109408719,1000,1000,1000,1000,163328809,1000,1000,1000,1000
109411218,1000,1000,1000,1000,163428769,1000,1000,1000,1000
109413717,1000,1000,1000,1000,163528729,1000,1000,1000,1000
109416216,1000,1000,1000,1000,163628689,1000,1000,1000,1000
109418715,1000,1000,1000,1000,163728649,1000,1000,1000,1000
109421214,1000,1000,1000,1000,163828609,1000,1000,1000,1000
109423713,1000,1000,1000,1000,163928569,1000,1000,1000,1000
109426212,1000,1000,1000,1000,164028529,1000,1000,1000,1000
109428711,1000,1000,1000,1000,164128489,1000,1000,1000,1000
109431210,1000,1000,1000,1000,164228449,1000,1000,1000,1000
109433709,1000,1000,1000,1000,164328409,1000,1000,1000,1000
109436208,1000,1000,1000,1000,164428369,1000,1000,1000,1000
109438707,1000,1000,1000,1000,164528329,1000,1000,1000,1000
109441206,1000,1000,1000,1000,164628289,1000,1000,1000,1000
109443705,1000,1000,1000,1000,164728249,1000,1000,1000,1000
109446204,1000,1000,1000,1000,164828209,1000,1000,1000,1000
109448703,1000,1000,1000,1000,164928169,1000,1000,1000,1000
109451202,1000,1000,1000,1000,165028962,1000,1000,1000,1000
109453701,1000,1000,1000,1000,165128922,1000,1000,1000,1000
109456200,1000,1000,1000,1000,165228882,1000,1000,1000,1000
109458699,1000,1000,1000,1000,165328842,1000,1000,1000,1000
109461198,1000,1000,1000,1000,165428802,1000,1000,1000,1000
109463697,1000,1000,1000,1000,165528762,1000,1000,1000,1000
109466196,1000,1000,1000,1000,165628722,1000,1000,1000,1000
109468695,1000,1000,1000,1000,165728682,1000,1000,1000,1000
109471194,1000,1000,1000,1000,165828642,1000,1000,1000,1000
109473693,1000,1000,1000,1000,165928602,1000,1000,1000,1000
109476192,1000,1000,1000,1000,166028562,1000,1000,1000,1000
109478691,1000,1000,1000,1000,166128522,1000,1000,1000,1000
109481190,1000,1000,1000,1000,166228482,1000,1000,1000,1000
109483689,1000,1000,1000,1000,166328442,1000,1000,1000,1000
109486188,1000,1000,1000,1000,166368426,1000,1000,1000,1000
109488687,1000,1000,1000,1000,166468386,1000,1000,1000,1000
109491186,1000,1000,1000,1000,166568346,1000,1000,1000,1000
109493685,1000,1000,1000,1000,166668306,1000,1000,1000,1000
109496184,1000,1000,1000,1000,166768266,1000,1000,1000,1000
109498683,1000,1000,1000,1000,166868226,1000,1000,1000,1000
109501182,1000,1000,1000,1000,166968186,1000,1000,1000,1000
109503681,1000,1000,1000,1000,167068979,1000,1000,1000,1000
109506180,1000,1000,1000,1000,167168939,1000,1000,1000,1000
109508679,1000,1000,1000,1000,167268899,1000,1000,1000,1000
109511178,1000,1000,1000,1000,167368859,1000,1000,1000,1000
109513677,1000,1000,1000,1000,167468819,1000,1000,1000,1000
109516176,1000,1000,1000,1000,167568779,1000,1000,1000,1000
109518675,1000,1000,1000,1000,167668739,1000,1000,1000,1000
109521174,1000,1000,1000,1000,167768699,1000,1000,1000,1000
109523673,1000,1000,1000,1000,167868659,1000,1000,1000,1000
109526172,1000,1000,1000,1000,167968619,1000,1000,1000,1000
109528671,1000,1000,1000,1000,168068579,1000,1000,1000,1000
109531170,1000,1000,1000,1000,168168539,1000,1000,1000,1000
109533669,1000,1000,1000,1000,168268499,1000,1000,1000,1000
109536168,1000,1000,1000,1000,168368459,1000,1000,1000,1000
109538667,1000,1000,1000,1000,168468419,1000,1000,1000,1000
109541166,1000,1000,1000,1000,168568379,1000,1000,1000,1000
109543665,1000,1000,1000,1000,168668339,1000,1000,1000,1000
109546164,1000,1000,1000,1000,168768299,1000,1000,1000,1000
109548663,1000,1000,1000,1000,168868259,1000,1000,1000,1000
109551162,1000,1000,1000,1000,168968219,1000,1000,1000,1000
109553661,1000,1000,1000,1000,169068179,1000,1000,1000,1000
109556160,1000,1000,1000,1000,169168972,1000,1000,1000,1000
109558659,1000,1000,1000,1000,169268932,1000,1000,1000,1000
109561158,1000,1000,1000,1000,169368892,1000,1000,1000,1000
109563657,1000,1000,1000,1000,169468852,1000,1000,1000,1000
109566156,1000,1000,1000,1000,169568812,1000,1000,1000,1000
109568655,1000,1000,1000,1000,169668772,1000,1000,1000,1000
109571154,1000,1000,1000,1000,169768732,1000,1000,1000,1000
109573653,1000,1000,1000,1000,169868692,1000,1000,1000,1000
109576152,1000,1000,1000,1000,169968652,1000,1000,1000,1000
109578651,1000,1000,1000,1000,170068612,1000,1000,1000,1000
109581150,1000,1000,1000,1000,170168572,1000,1000,1000,1000
109583649,1000,1000,1000,1000,170268532,1000,1000,1000,1000
109586148,1000,1000,1000,1000,170368492,1000,1000,1000,1000
109588647,1000,1000,1000,1000,170468452,1000,1000,1000,1000
109591146,1000,1000,1000,1000,170568412,1000,1000,1000,1000
109593645,1000,1000,1000,1000,170668372,1000,1000,1000,1000
109596144,1000,1000,1000,1000,170768332,1000,1000,1000,1000
109598643,1000,1000,1000,1000,170868292,1000,1000,1000,1000
109601142,1000,1000,1000,1000,170968252,1000,1000,1000,1000
109603641,1000,1000,1000,1000,171068212,1000,1000,1000,1000
109606140,1000,1000,1000,1000,171168172,1000,1000,1000,1000
109608639,1000,1000,1000,1000,171268965,1000,1000,1000,1000
109611138,1000,1000,1000,1000,171368925,1000,1000,1000,1000
109613637,1000,1000,1000,1000,171468885,1000,1000,1000,1000
109616136,1000,1000,1000,1000,171568845,1000,1000,1000,1000
109618635,1000,1000,1000,1000,171668805,1000,1000,1000,1000
109621134,1000,1000,1000,1000,171768765,1000,1000,1000,1000
109623633,1000,1000,1000,1000,171868725,1000,1000,1000,1000
109626132,1000,1000,1000,1000,171968685,1000,1000,1000,1000
109628631,1000,1000,1000,1000,172068645,1000,1000,1000,1000
109631130,1000,1000,1000,1000,172168605,1000,1000,1000,1000
109633629,1000,1000,1000,1000,172268565,1000,1000,1000,1000
109636128,1000,1000,1000,1000,172368525,1000,1000,1000,1000
109638627,1000,1000,1000,1000,172468485,1000,1000,1000,1000
109641126,1000,1000,1000,1000,172568445,1000,1000,1000,1000
109643625,1000,1000,1000,1000,172668405,1000,1000,1000,1000
109646124,1000,1000,1000,1000,172768365,1000,1000,1000,1000
109648623,1000,1000,1000,1000,172868325,1000,1000,1000,1000
109651122,1000,1000,1000,1000,172968285,1000,1000,1000,1000
109653621,1000,1000,1000,1000,173068245,1000,1000,1000,1000
109656120,1000,1000,1000,1000,173168205,1000,1000,1000,1000
109658619,1000,1000,1000,1000,173268165,1000,1000,1000,1000
109661118,1000,1000,1000,1000,173368958,1000,1000,1000,1000
109663617,1000,1000,1000,1000,173468918,1000,1000,1000,1000
109666116,1000,1000,1000,1000,173568878,1000,1000,1000,1000
109668615,1000,1000,1000,1000,173668838,1000,1000,1000,1000
109671114,1000,1000,1000,1000,173768798,1000,1000,1000,1000
109673613,1000,1000,1000,1000,173868758,1000,1000,1000,1000
109676112,1000,1000,1000,1000,173968718,1000,1000,1000,1000
109678611,1000,1000,1000,1000,174068678,1000,1000,1000,1000
109681110,1000,1000,1000,1000,174168638,1000,1000,1000,1000
109683609,1000,1000,1000,1000,174268598,1000,1000,1000,1000
109686108,1000,1000,1000,1000,174368558,1000,1000,1000,1000
109688607,1000,1000,1000,1000,174468518,1000,1000,1000,1000
109691106,1000,1000,1000,1000,174568478,1000,1000,1000,1000
109693605,1000,1000,1000,1000,174668438,1000,1000,1000,1000
109696104,1000,1000,1000,1000,174768398,1000,1000,1000,1000
109698603,1000,1000,1000,1000,174868358,1000,1000,1000,1000
109701102,1000,1000,1000,1000,174968318,1000,1000,1000,1000
109703601,1000,1000,1000,1000,175068278,1000,1000,1000,1000
109706100,1000,1000,1000,1000,175168238,1000,1000,1000,1000
109708599,1000,1000,1000,1000,175268198,1000,1000,1000,1000
109711098,1000,1000,1000,1000,175368158,1000,1000,1000,1000
109713597,1000,1000,1000,1000,,,,,
109716096,1000,1000,1000,1000,,,,,
109718595,1000,1000,1000,1000,,,,,
109721094,1000,1000,1000,1000,,,,,
109723593,1000,1000,1000,1000,,,,,
109726092,1000,1000,1000,1000,,,,,
109728591,1000,1000,1000,1000,,,,,
109731090,1000,1000,1000,1000,,,,,
109733589,1000,1000,1000,1000,,,,,
109736088,1000,1000,1000,1000,,,,,
109738587,1000,1000,1000,1000,,,,,
109741086,1000,1000,1000,1000,,,,,
109743585,1000,1000,1000,1000,,,,,
109746084,1000,1000,1000,1000,,,,,
109748583,1000,1000,1000,1000,,,,,
109751082,1000,1000,1000,1000,,,,,
109753581,1000,1000,1000,1000,,,,,
109756080,1000,1000,1000,1000,,,,,
109758579,1000,1000,1000,1000,,,,,
109761078,1000,1000,1000,1000,,,,,
109763577,1000,1000,1000,1000,,,,,
109766076,1000,1000,1000,1000,,,,,
109768575,1000,1000,1000,1000,,,,,
109771074,1000,1000,1000,1000,,,,,
109773573,1000,1000,1000,1000,,,,,
109776072,1000,1000,1000,1000,,,,,
109778571,1000,1000,1000,1000,,,,,
109781070,1000,1000,1000,1000,,,,,
109783569,1000,1000,1000,1000,,,,,
109786068,1000,1000,1000,1000,,,,,
109788567,1000,1000,1000,1000,,,,,
109791066,1000,1000,1000,1000,,,,,
109793565,1000,1000,1000,1000,,,,,
109796064,1000,1000,1000,1000,,,,,
109798563,1000,1000,1000,1000,,,,,
109801062,1000,1000,1000,1000,,,,,
109803561,1000,1000,1000,1000,,,,,
109806060,1000,1000,1000,1000,,,,,
109808559,1000,1000,1000,1000,,,,,
109811058,1000,1000,1000,1000,,,,,
109813557,1000,1000,1000,1000,,,,,
109816056,1000,1000,1000,1000,,,,,
109818555,1000,1000,1000,1000,,,,,
109821054,1000,1000,1000,1000,,,,,
109823553,1000,1000,1000,1000,,,,,
109826052,1000,1000,1000,1000,,,,,
109828551,1000,1000,1000,1000,,,,,
109831050,1000,1000,1000,1000,,,,,
109833549,1000,1000,1000,1000,,,,,
109836048,1000,1000,1000,1000,,,,,
109838547,1000,1000,1000,1000,,,,,
109841046,1000,1000,1000,1000,,,,,
109843545,1000,1000,1000,1000,,,,,
109846044,1000,1000,1000,1000,,,,,
109848543,1000,1000,1000,1000,,,,,
109851042,1000,1000,1000,1000,,,,,
109853541,1000,1000,1000,1000,,,,,
109856040,1000,1000,1000,1000,,,,,
109858539,1000,1000,1000,1000,,,,,
109861038,1000,1000,1000,1000,,,,,
109863537,1000,1000,1000,1000,,,,,
109866036,1000,1000,1000,1000,,,,,
109868535,1000,1000,1000,1000,,,,,
109871034,1000,1000,1000,1000,,,,,
109873533,1000,1000,1000,1000,,,,,
109876032,1000,1000,1000,1000,,,,,
109878531,1000,1000,1000,1000,,,,,
109881030,1000,1000,1000,1000,,,,,
109883529,1000,1000,1000,1000,,,,,
109886028,1000,1000,1000,1000,,,,,
109888527,1000,1000,1000,1000,,,,,
109891026,1000,1000,1000,1000,,,,,
109893525,1000,1000,1000,1000,,,,,
109896024,1000,1000,1000,1000,,,,,
109898523,1000,1000,1000,1000,,,,,
109901022,1000,1000,1000,1000,,,,,
109903521,1000,1000,1000,1000,,,,,
109906020,1000,1000,1000,1000,,,,,
109908519,1000,1000,1000,1000,,,,,
109911018,1000,1000,1000,1000,,,,,
109913517,1000,1000,1000,1000,,,,,
109916016,1000,1000,1000,1000,,,,,
109918515,1000,1000,1000,1000,,,,,
109921014,1000,1000,1000,1000,,,,,
109923513,1000,1000,1000,1000,,,,,
109926012,1000,1000,1000,1000,,,,,
109928511,1000,1000,1000,1000,,,,,
109931010,1000,1000,1000,1000,,,,,
109933509,1000,1000,1000,1000,,,,,
109936008,1000,1000,1000,1000,,,,,
109938507,1000,1000,1000,1000,,,,,
109941006,1000,1000,1000,1000,,,,,
109943505,1000,1000,1000,1000,,,,,
109946004,1000,1000,1000,1000,,,,,
109948503,1000,1000,1000,1000,,,,,
109951002,1000,1000,1000,1000,,,,,
109953501,1000,1000,1000,1000,,,,,
109956000,1000,1000,1000,1000,,,,,
109958499,1000,1000,1000,1000,,,,,
109960998,1000,1000,1000,1000,,,,,
109963497,1000,1000,1000,1000,,,,,
109965996,1000,1000,1000,1000,,,,,
109968495,1000,1000,1000,1000,,,,,
109970994,1000,1000,1000,1000,,,,,
109973493,1000,1000,1000,1000,,,,,
109975992,1000,1000,1000,1000,,,,,
109978491,1000,1000,1000,1000,,,,,
109980990,1000,1000,1000,1000,,,,,
109983489,1000,1000,1000,1000,,,,,
109985988,1000,1000,1000,1000,,,,,
109988487,1000,1000,1000,1000,,,,,
109990986,1000,1000,1000,1000,,,,,
109993485,1000,1000,1000,1000,,,,,
109995984,1000,1000,1000,1000,,,,,
109998483,1000,1000,1000,1000,,,,,
110000982,1000,1000,1000,1000,,,,,
110003481,1000,1000,1000,1000,,,,,
110005980,1000,1000,1000,1000,,,,,
110008479,1000,1000,1000,1000,,,,,
110010978,1000,1000,1000,1000,,,,,
110013477,1000,1000,1000,1000,,,,,
110015976,1000,1000,1000,1000,,,,,
110018475,1000,1000,1000,1000,,,,,
110020974,1000,1000,1000,1000,,,,,
110023473,1000,1000,1000,1000,,,,,
110025972,1000,1000,1000,1000,,,,,
110028471,1000,1000,1000,1000,,,,,
110030970,1000,1000,1000,1000,,,,,
110033469,1001,1001,1001,1001,,,,,
110035968,1002,1002,1002,1002,,,,,
110038467,1003,1003,1003,1003,,,,,
110040966,1003,1003,1003,1003,,,,,
110043465,1004,1004,1004,1004,,,,,
110045964,1005,1005,1005,1005,,,,,
110048463,1006,1006,1006,1006,,,,,
110050962,1006,1006,1006,1006,,,,,
110053461,1007,1007,1007,1007,,,,,
110055960,1008,1008,1008,1008,,,,,
110058459,1009,1009,1009,1009,,,,,
110060958,1009,1009,1009,1009,,,,,
110063457,1010,1010,1010,1010,,,,,
110065956,1011,1011,1011,1011,,,,,
110068455,1012,1012,1012,1012,,,,,
110070954,1012,1012,1012,1012,,,,,
110073453,1013,1013,1013,1013,,,,,
110075952,1014,1014,1014,1014,,,,,
110078451,1015,1015,1015,1015,,,,,
110080950,1015,1015,1015,1015,,,,,
110083449,1016,1016,1016,1016,,,,,
110085948,1017,1017,1017,1017,,,,,
110088447,1018,1018,1018,1018,,,,,
110090946,1018,1018,1018,1018,,,,,
110093445,1019,1019,1019,1019,,,,,
110095944,1020,1020,1020,1020,,,,,
110098443,1021,1021,1021,1021,,,,,
110100942,1021,1021,1021,1021,,,,,
110103441,1022,1022,1022,1022,,,,,
110105940,1023,1023,1023,1023,,,,,
110108439,1024,1024,1024,1024,,,,,
110110938,1024,1024,1024,1024,,,,,
110113437,1025,1025,1025,1025,,,,,
110115936,1026,1026,1026,1026,,,,,
110118435,1027,1027,1027,1027,,,,,
110120934,1027,1027,1027,1027,,,,,
110123433,1028,1028,1028,1028,,,,,
110125932,1029,1029,1029,1029,,,,,
110128431,1030,1030,1030,1030,,,,,
110130930,1030,1030,1030,1030,,,,,
110133429,1031,1031,1031,1031,,,,,
110135928,1032,1032,1032,1032,,,,,
110138427,1033,1033,1033,1033,,,,,
110140926,1033,1033,1033,1033,,,,,
110143425,1034,1034,1034,1034,,,,,
110145924,1035,1035,1035,1035,,,,,
110148423,1036,1036,1036,1036,,,,,
110150922,1036,1036,1036,1036,,,,,
110153421,1037,1037,1037,1037,,,,,
110155920,1038,1038,1038,1038,,,,,
110158419,1039,1039,1039,1039,,,,,
110160918,1039,1039,1039,1039,,,,,
110163417,1040,1040,1040,1040,,,,,
110165916,1041,1041,1041,1041,,,,,
110168415,1042,1042,1042,1042,,,,,
110170914,1042,1042,1042,1042,,,,,
110173413,1043,1043,1043,1043,,,,,
110175912,1044,1044,1044,1044,,,,,
110178411,1045,1045,1045,1045,,,,,
110180910,1045,1045,1045,1045,,,,,
110183409,1046,1046,1046,1046,,,,,
110185908,1047,1047,1047,1047,,,,,
110188407,1048,1048,1048,1048,,,,,
110190906,1048,1048,1048,1048,,,,,
110193405,1049,1049,1049,1049,,,,,
110195904,1050,1050,1050,1050,,,,,
110198403,1051,1051,1051,1051,,,,,
110200902,1051,1051,1051,1051,,,,,
110203401,1052,1052,1052,1052,,,,,
110205900,1053,1053,1053,1053,,,,,
110208399,1054,1054,1054,1054,,,,,
110210898,1054,1054,1054,1054,,,,,
110213397,1055,1055,1055,1055,,,,,
110215896,1056,1056,1056,1056,,,,,
110218395,1057,1057,1057,1057,,,,,
110220894,1057,1057,1057,1057,,,,,
110223393,1058,1058,1058,1058,,,,,
110225892,1059,1059,1059,1059,,,,,
110228391,1060,1060,1060,1060,,,,,
110230890,1060,1060,1060,1060,,,,,
110233389,1061,1061,1061,1061,,,,,
110235888,1062,1062,1062,1062,,,,,
110238387,1063,1063,1063,1063,,,,,
110240886,1063,1063,1063,1063,,,,,
110243385,1064,1064,1064,1064,,,,,
110245884,1065,1065,1065,1065,,,,,
110248383,1066,1066,1066,1066,,,,,
110250882,1066,1066,1066,1066,,,,,
110253381,1067,1067,1067,1067,,,,,
110255880,1068,1068,1068,1068,,,,,
110258379,1069,1069,1069,1069,,,,,
110260878,1069,1069,1069,1069,,,,,
110263377,1070,1070,1070,1070,,,,,
110265876,1071,1071,1071,1071,,,,,
110268375,1072,1072,1072,1072,,,,,
110270874,1072,1072,1072,1072,,,,,
110273373,1073,1073,1073,1073,,,,,
110275872,1074,1074,1074,1074,,,,,
110278371,1075,1075,1075,1075,,,,,
110280870,1075,1075,1075,1075,,,,,
110283369,1076,1076,1076,1076,,,,,
110285868,1077,1077,1077,1077,,,,,
110288367,1078,1078,1078,1078,,,,,
110290866,1078,1078,1078,1078,,,,,
110293365,1079,1079,1079,1079,,,,,
110295864,1080,1080,1080,1080,,,,,
110298363,1081,1081,1081,1081,,,,,
110300862,1081,1081,1081,1081,,,,,
110303361,1082,1082,1082,1082,,,,,
110305860,1083,1083,1083,1083,,,,,
110308359,1084,1084,1084,1084,,,,,
110310858,1084,1084,1084,1084,,,,,
110313357,1085,1085,1085,1085,,,,,
110315856,1086,1086,1086,1086,,,,,
110318355,1087,1087,1087,1087,,,,,
110320854,1087,1087,1087,1087,,,,,
110323353,1088,1088,1088,1088,,,,,
110325852,1089,1089,1089,1089,,,,,
110328351,1090,1090,1090,1090,,,,,
110330850,1090,1090,1090,1090,,,,,
110333349,1091,1091,1091,1091,,,,,
110335848,1092,1092,1092,1092,,,,,
110338347,1093,1093,1093,1093,,,,,
110340846,1093,1093,1093,1093,,,,,
110343345,1094,1094,1094,1094,,,,,
110345844,1095,1095,1095,1095,,,,,
110348343,1096,1096,1096,1096,,,,,
110350842,1096,1096,1096,1096,,,,,
110353341,1097,1097,1097,1097,,,,,
110355840,1098,1098,1098,1098,,,,,
110358339,1099,1099,1099,1099,,,,,
110360838,1099,1099,1099,1099,,,,,
110363337,1100,1100,1100,1100,,,,,
110365836,1101,1101,1101,1101,,,,,
110368335,1101,1101,1101,1101,,,,,
110370834,1102,1102,1102,1102,,,,,
110373333,1103,1103,1103,1103,,,,,
110375832,1104,1104,1104,1104,,,,,
110378331,1104,1104,1104,1104,,,,,
110380830,1105,1105,1105,1105,,,,,
110383329,1106,1106,1106,1106,,,,,
110385828,1107,1107,1107,1107,,,,,
110388327,1107,1107,1107,1107,,,,,
110390826,1108,1108,1108,1108,,,,,
110393325,1109,1109,1109,1109,,,,,
110395824,1110,1110,1110,1110,,,,,
110398323,1110,1110,1110,1110,,,,,
110400822,1111,1111,1111,1111,,,,,
110403321,1112,1112,1112,1112,,,,,
110405820,1113,1113,1113,1113,,,,,
110408319,1113,1113,1113,1113,,,,,
110410818,1114,1114,1114,1114,,,,,
110413317,1115,1115,1115,1115,,,,,
110415816,1116,1116,1116,1116,,,,,
110418315,1116,1116,1116,1116,,,,,
110420814,1117,1117,1117,1117,,,,,
110423313,1118,1118,1118,1118,,,,,
110425812,1119,1119,1119,1119,,,,,
110428311,1119,1119,1119,1119,,,,,
110430810,1120,1120,1120,1120,,,,,
110433309,1121,1121,1121,1121,,,,,
110435808,1122,1122,1122,1122,,,,,
110438307,1122,1122,1122,1122,,,,,
110440806,1123,1123,1123,1123,,,,,
110443305,1124,1124,1124,1124,,,,,
110445804,1125,1125,1125,1125,,,,,
110448303,1125,1125,1125,1125,,,,,
110450802,1126,1126,1126,1126,,,,,
110453301,1127,1127,1127,1127,,,,,
110455800,1128,1128,1128,1128,,,,,
110458299,1128,1128,1128,1128,,,,,
110460798,1129,1129,1129,1129,,,,,
110463297,1130,1130,1130,1130,,,,,
110465796,1131,1131,1131,1131,,,,,
110468295,1131,1131,1131,1131,,,,,
110470794,1132,1132,1132,1132,,,,,
110473293,1133,1133,1133,1133,,,,,
110475792,1134,1134,1134,1134,,,,,
110478291,1134,1134,1134,1134,,,,,
110480790,1135,1135,1135,1135,,,,,
110483289,1136,1136,1136,1136,,,,,
110485788,1137,1137,1137,1137,,,,,
110488287,1137,1137,1137,1137,,,,,
110490786,1138,1138,1138,1138,,,,,
110493285,1139,1139,1139,1139,,,,,
110495784,1140,1140,1140,1140,,,,,
110498283,1140,1140,1140,1140,,,,,
110500782,1141,1141,1141,1141,,,,,
110503281,1142,1142,1142,1142,,,,,
110505780,1143,1143,1143,1143,,,,,
110508279,1143,1143,1143,1143,,,,,
110510778,1144,1144,1144,1144,,,,,
110513277,1145,1145,1145,1145,,,,,
110515776,1146,1146,1146,1146,,,,,
110518275,1146,1146,1146,1146,,,,,
110520774,1147,1147,1147,1147,,,,,
110523273,1148,1148,1148,1148,,,,,
110525772,1149,1149,1149,1149,,,,,
110528271,1149,1149,1149,1149,,,,,
110530770,1150,1150,1150,1150,,,,,
110533269,1165,1150,1150,1166,,,,,
110535768,1174,1156,1157,1176,,,,,
110538267,1182,1164,1165,1183,,,,,
110540766,1190,1172,1173,1191,,,,,
110543265,1197,1179,1181,1199,,,,,
110545764,1205,1187,1188,1206,,,,,
110548263,1212,1195,1196,1213,,,,,
110550762,1219,1202,1203,1220,,,,,
110553261,1226,1209,1210,1227,,,,,
110555760,1233,1216,1217,1234,,,,,
110558259,1240,1223,1224,1241,,,,,
110560758,1247,1230,1231,1248,,,,,
110563257,1253,1237,1238,1254,,,,,
110565756,1260,1244,1245,1261,,,,,
110568255,1266,1251,1252,1267,,,,,
110570754,1273,1257,1258,1274,,,,,
110573253,1279,1264,1265,1280,,,,,
110575752,1285,1270,1271,1286,,,,,
110578251,1291,1276,1277,1292,,,,,
110580750,1297,1283,1284,1298,,,,,
110583249,1303,1289,1290,1304,,,,,
110585748,1309,1295,1296,1310,,,,,
110588247,1315,1301,1302,1316,,,,,
110590746,1321,1307,1308,1322,,,,,
110593245,1327,1313,1314,1328,,,,,
110595744,1333,1319,1320,1334,,,,,
110598243,1338,1325,1325,1339,,,,,
110600742,1344,1330,1331,1345,,,,,
110603241,1350,1336,1337,1350,,,,,
110605740,1355,1342,1342,1356,,,,,
110608239,1360,1347,1348,1361,,,,,
110610738,1366,1353,1354,1367,,,,,
110613237,1371,1358,1359,1372,,,,,
110615736,1377,1364,1364,1377,,,,,
110618235,1382,1369,1370,1383,,,,,
110620734,1387,1374,1375,1388,,,,,
110623233,1392,1380,1380,1393,,,,,
110625732,1397,1385,1386,1398,,,,,
110628231,1403,1390,1391,1403,,,,,
110630730,1408,1395,1396,1409,,,,,
110633229,1413,1400,1401,1414,,,,,
110635728,1418,1405,1406,1419,,,,,
110638227,1423,1410,1411,1424,,,,,
110640726,1428,1415,1416,1428,,,,,
110643225,1432,1420,1421,1433,,,,,
110645724,1437,1425,1426,1438,,,,,
110648223,1442,1430,1431,1443,,,,,
110650722,1447,1435,1436,1448,,,,,
110653221,1452,1440,1440,1453,,,,,
110655720,1456,1444,1445,1457,,,,,
110658219,1461,1449,1450,1462,,,,,
110660718,1466,1454,1455,1467,,,,,
110663217,1471,1459,1459,1471,,,,,
110665716,1475,1463,1464,1476,,,,,
110668215,1480,1468,1469,1481,,,,,
110670714,1484,1472,1473,1485,,,,,
110673213,1489,1477,1478,1490,,,,,
110675712,1493,1481,1482,1494,,,,,
110678211,1498,1486,1487,1499,,,,,
110680710,1502,1490,1491,1503,,,,,
110683209,1507,1495,1496,1507,,,,,
110685708,1511,1499,1500,1512,,,,,
110688207,1515,1504,1504,1516,,,,,
110690706,1520,1508,1509,1521,,,,,
110693205,1524,1512,1513,1525,,,,,
110695704,1528,1517,1517,1529,,,,,
110698203,1533,1521,1522,1533,,,,,
110700702,1537,1525,1526,1538,,,,,
110703201,1541,1530,1530,1542,,,,,
110705700,1545,1534,1534,1546,,,,,
110708199,1549,1538,1539,1550,,,,,
110710698,1554,1542,1543,1554,,,,,
110713197,1558,1546,1547,1559,,,,,
110715696,1562,1550,1551,1563,,,,,
110718195,1566,1555,1555,1567,,,,,
110720694,1570,1559,1559,1571,,,,,
110723193,1574,1563,1563,1575,,,,,
110725692,1578,1567,1567,1579,,,,,
110728191,1582,1571,1571,1583,,,,,
110730690,1586,1575,1575,1587,,,,,
110733189,1590,1579,1579,1591,,,,,
110735688,1594,1583,1583,1595,,,,,
110738187,1598,1587,1587,1599,,,,,
110740686,1602,1591,1591,1603,,,,,
110743185,1606,1595,1595,1607,,,,,
110745684,1610,1599,1599,1610,,,,,
110748183,1613,1603,1603,1614,,,,,
110750682,1617,1606,1607,1618,,,,,
110753181,1621,1610,1611,1622,,,,,
110755680,1625,1614,1615,1626,,,,,
110758179,1629,1618,1618,1630,,,,,
110760678,1632,1622,1622,1633,,,,,
110763177,1636,1626,1626,1637,,,,,
110765676,1640,1629,1630,1641,,,,,
110768175,1644,1633,1634,1645,,,,,
110770674,1647,1637,1637,1648,,,,,
110773173,1651,1641,1641,1652,,,,,
110775672,1655,1644,1645,1656,,,,,
110778171,1658,1648,1648,1659,,,,,
110780670,1662,1652,1652,1663,,,,,
110783169,1666,1655,1656,1667,,,,,
110785668,1669,1659,1659,1670,,,,,
110788167,1673,1663,1663,1674,,,,,
110790666,1676,1666,1667,1677,,,,,
110793165,1680,1670,1670,1681,,,,,
110795664,1683,1674,1674,1684,,,,,
110798163,1687,1677,1677,1688,,,,,
110800662,1690,1681,1681,1691,,,,,
110803161,1694,1684,1685,1695,,,,,
110805660,1697,1688,1688,1699,,,,,
110808159,1701,1691,1692,1702,,,,,
110810658,1704,1695,1695,1706,,,,,
110813157,1708,1699,1699,1709,,,,,
110815656,1711,1702,1702,1712,,,,,
110818155,1715,1705,1706,1716,,,,,
110820654,1718,1709,1709,1719,,,,,
110823986,1722,1712,1713,1723,,,,,
110826485,1725,1716,1716,1726,,,,,
110828984,1729,1719,1719,1730,,,,,
110831483,1732,1723,1723,1733,,,,,
110833982,1735,1726,1726,1736,,,,,
110836481,1739,1729,1730,1740,,,,,
110838980,1742,1733,1733,1743,,,,,
110841479,1745,1736,1736,1746,,,,,
110843978,1749,1739,1740,1750,,,,,
110846477,1752,1743,1743,1753,,,,,
110848976,1755,1746,1746,1756,,,,,
110851475,1759,1749,1750,1760,,,,,
110853974,1762,1753,1753,1763,,,,,
110856473,1765,1756,1756,1766,,,,,
110858972,1769,1759,1760,1769,,,,,
110861471,1772,1762,1763,1773,,,,,
110863970,1775,1766,1766,1776,,,,,
110866469,1779,1769,1769,1779,,,,,
110868968,1782,1772,1773,1782,,,,,
110871467,1785,1775,1776,1786,,,,,
110873966,1788,1778,1779,1789,,,,,
110876465,1792,1782,1782,1792,,,,,
110878964,1795,1785,1785,1795,,,,,
110881463,1798,1788,1789,1798,,,,,
110883962,1801,1791,1792,1802,,,,,
110886461,1804,1794,1795,1805,,,,,
110888960,1808,1797,1798,1808,,,,,
110891459,1811,1801,1801,1811,,,,,
110893958,1814,1804,1804,1814,,,,,
110896457,1817,1807,1807,1817,,,,,
110898956,1820,1810,1811,1821,,,,,
110901455,1823,1813,1814,1824,,,,,
110903954,1826,1816,1817,1827,,,,,
110906453,1830,1819,1820,1830,,,,,
110908952,1833,1822,1823,1833,,,,,
110911451,1836,1825,1826,1836,,,,,
110913950,1839,1828,1829,1839,,,,,
110916449,1842,1831,1832,1842,,,,,
110918948,1845,1834,1835,1845,,,,,
110921447,1848,1837,1838,1848,,,,,
110923946,1851,1840,1841,1851,,,,,
110926445,1854,1843,1844,1854,,,,,
110928944,1857,1846,1847,1857,,,,,
110931443,1860,1849,1850,1860,,,,,
110933942,1863,1852,1853,1863,,,,,
110936441,1866,1855,1856,1866,,,,,
110938940,1869,1858,1859,1869,,,,,
110941439,1872,1861,1862,1872,,,,,
110943938,1875,1864,1865,1875,,,,,
110946437,1878,1867,1868,1878,,,,,
110948936,1881,1870,1871,1881,,,,,
110951435,1884,1873,1874,1884,,,,,
110953934,1887,1876,1877,1887,,,,,
110956433,1890,1879,1880,1890,,,,,
110958932,1893,1882,1883,1893,,,,,
110961431,1896,1885,1886,1896,,,,,
110963930,1899,1888,1888,1899,,,,,
110966429,1902,1890,1891,1902,,,,,
110968928,1904,1893,1894,1905,,,,,
110971427,1907,1896,1897,1908,,,,,
110973926,1910,1899,1900,1910,,,,,
110976425,1913,1902,1903,1913,,,,,
110978924,1916,1905,1906,1916,,,,,
110981423,1919,1908,1909,1919,,,,,
110983922,1922,1911,1911,1922,,,,,
110986421,1924,1913,1914,1925,,,,,
110988920,1924,1913,1914,1924,,,,,
110991419,1923,1912,1913,1924,,,,,
110993918,1923,1912,1912,1923,,,,,
110996417,1922,1911,1912,1922,,,,,
110998916,1921,1910,1911,1921,,,,,
111001415,1920,1909,1910,1921,,,,,
111003914,1920,1909,1910,1920,,,,,
111006413,1919,1908,1909,1919,,,,,
111008912,1919,1908,1908,1919,,,,,
111011411,1918,1907,1908,1918,,,,,
111013910,1918,1907,1907,1918,,,,,
111016409,1917,1906,1907,1918,,,,,
111018908,1917,1906,1907,1917,,,,,
111021407,1917,1906,1907,1917,,,,,
111023906,1916,1906,1907,1917,,,,,
111026405,1916,1906,1907,1916,,,,,
111028904,1916,1906,1907,1916,,,,,
111031403,1915,1906,1907,1916,,,,,
111033902,1915,1906,1907,1915,,,,,
111036401,1914,1906,1907,1915,,,,,
111038900,1914,1906,1906,1914,,,,,
111041399,1913,1905,1906,1914,,,,,
111043898,1912,1905,1905,1913,,,,,
111046397,1911,1904,1905,1912,,,,,
111048896,1910,1904,1904,1911,,,,,
111051395,1909,1902,1903,1910,,,,,
111053894,1908,1901,1902,1909,,,,,
111056393,1906,1900,1900,1907,,,,,
111058892,1905,1899,1899,1906,,,,,
111061391,1903,1897,1897,1904,,,,,
111063890,1901,1895,1896,1902,,,,,
111066389,1899,1894,1894,1900,,,,,
111068888,1897,1892,1892,1898,,,,,
111071387,1895,1890,1890,1896,,,,,
111073886,1893,1887,1888,1894,,,,,
111076385,1891,1885,1886,1891,,,,,
111078884,1888,1883,1883,1889,,,,,
111081383,1886,1880,1881,1886,,,,,
111083882,1883,1878,1878,1883,,,,,
111086381,1880,1875,1876,1881,,,,,
111088880,1877,1872,1873,1878,,,,,
111091379,1874,1870,1870,1875,,,,,
111093878,1871,1867,1867,1872,,,,,
111096377,1868,1864,1864,1869,,,,,
111098876,1865,1861,1862,1866,,,,,
111101375,1862,1858,1858,1863,,,,,
