timestamp,TimeUS,C1,C2,C3,C4,C5,C6,C7,C8,C9,C10,C11,C12,C13,C14
1681027456.10003996,53328660,1000,1000,1000,1000,0,0,0,0,0,0,0,0,0,0
1681027456.20000005,53428620,1000,1000,1000,1000,0,0,0,0,0,0,0,0,0,0
1681027456.29995990,53528580,1000,1000,1000,1000,0,0,0,0,0,0,0,0,0,0
1681027456.39991999,53628540,1000,1000,1000,1000,0,0,0,0,0,0,0,0,0,0
1681027456.49987984,53728500,1000,1000,1000,1000,0,0,0,0,0,0,0,0,0,0
1681027456.59983993,53828460,1000,1000,1000,1000,0,0,0,0,0,0,0,0,0,0
1681027456.69980001,53928420,1000,1000,1000,1000,0,0,0,0,0,0,0,0,0,0
1681027456.79975986,54028380,1000,1000,1000,1000,0,0,0,0,0,0,0,0,0,0
1681027456.89971995,54128340,1000,1000,1000,1000,0,0,0,0,0,0,0,0,0,0
1681027456.99968004,54228300,1000,1000,1000,1000,0,0,0,0,0,0,0,0,0,0
1681027457.09963989,54328260,1000,1000,1000,1000,0,0,0,0,0,0,0,0,0,0
1681027457.19959998,54428220,1000,1000,1000,1000,0,0,0,0,0,0,0,0,0,0
1681027457.29955983,54528180,1000,1000,1000,1000,0,0,0,0,0,0,0,0,0,0
1681027457.40035295,54628973,1000,1000,1000,1000,0,0,0,0,0,0,0,0,0,0
1681027457.50031304,54728933,1000,1000,1000,1000,0,0,0,0,0,0,0,0,0,0
1681027457.60027289,54828893,1000,1000,1000,1000,0,0,0,0,0,0,0,0,0,0
1681027457.70023298,54928853,1000,1000,1000,1000,0,0,0,0,0,0,0,0,0,0
1681027457.80019283,55028813,1000,1000,1000,1000,0,0,0,0,0,0,0,0,0,0
1681027457.90015292,55128773,1000,1000,1000,1000,0,0,0,0,0,0,0,0,0,0
1681027458.00011301,55228733,1000,1000,1000,1000,0,0,0,0,0,0,0,0,0,0
1681027458.10007286,55328693,1003,1003,1003,1003,0,0,0,0,0,0,0,0,0,0
1681027458.20003295,55428653,1033,1033,1033,1033,0,0,0,0,0,0,0,0,0,0
1681027458.29999304,55528613,1063,1063,1063,1063,0,0,0,0,0,0,0,0,0,0
1681027458.39995289,55628573,1093,1093,1093,1093,0,0,0,0,0,0,0,0,0,0
1681027458.49991298,55728533,1123,1123,1123,1123,0,0,0,0,0,0,0,0,0,0
1681027458.59987307,55828493,1185,1177,1178,1186,0,0,0,0,0,0,0,0,0,0
1681027458.69983292,55928453,1425,1419,1419,1425,0,0,0,0,0,0,0,0,0,0
1681027458.79979300,56028413,1599,1594,1594,1600,0,0,0,0,0,0,0,0,0,0
1681027458.89975286,56128373,1743,1739,1739,1744,0,0,0,0,0,0,0,0,0,0
1681027458.99971294,56228333,1844,1839,1839,1844,0,0,0,0,0,0,0,0,0,0
1681027459.09967303,56328293,1852,1847,1847,1852,0,0,0,0,0,0,0,0,0,0
1681027459.19963288,56428253,1785,1784,1784,1786,0,0,0,0,0,0,0,0,0,0
1681027459.29959297,56528213,1665,1665,1665,1665,0,0,0,0,0,0,0,0,0,0
1681027459.39955306,56628173,1612,1614,1614,1612,0,0,0,0,0,0,0,0,0,0
1681027459.50034595,56728966,1615,1618,1617,1616,0,0,0,0,0,0,0,0,0,0
1681027459.60030603,56828926,1634,1636,1636,1634,0,0,0,0,0,0,0,0,0,0
1681027459.70026588,56928886,1642,1643,1643,1642,0,0,0,0,0,0,0,0,0,0
1681027459.80022597,57028846,1640,1640,1640,1640,0,0,0,0,0,0,0,0,0,0
1681027459.90018606,57128806,1631,1629,1629,1632,0,0,0,0,0,0,0,0,0,0
1681027460.00014591,57228766,1611,1610,1602,1618,0,0,0,0,0,0,0,0,0,0
1681027460.10010600,57328726,1606,1606,1598,1613,0,0,0,0,0,0,0,0,0,0
1681027460.20006585,57428686,1605,1605,1602,1609,0,0,0,0,0,0,0,0,0,0
1681027460.30002594,57528646,1608,1608,1608,1607,0,0,0,0,0,0,0,0,0,0
1681027460.39998603,57628606,1612,1612,1615,1608,0,0,0,0,0,0,0,0,0,0
1681027460.49994588,57728566,1619,1618,1622,1615,0,0,0,0,0,0,0,0,0,0
1681027460.59990597,57828526,1589,1590,1605,1573,0,0,0,0,0,0,0,0,0,0
1681027460.69986606,57928486,1576,1576,1590,1563,0,0,0,0,0,0,0,0,0,0
1681027460.79982591,58028446,1565,1565,1569,1561,0,0,0,0,0,0,0,0,0,0
1681027460.89978600,58128406,1555,1554,1549,1561,0,0,0,0,0,0,0,0,0,0
1681027460.99974585,58228366,1546,1545,1534,1558,0,0,0,0,0,0,0,0,0,0
1681027461.09970593,58328326,1540,1539,1529,1551,0,0,0,0,0,0,0,0,0,0
1681027461.19966602,58428286,1534,1533,1526,1541,0,0,0,0,0,0,0,0,0,0
1681027461.29962587,58528246,1529,1529,1526,1531,0,0,0,0,0,0,0,0,0,0
1681027461.39958596,58628206,1529,1529,1529,1528,0,0,0,0,0,0,0,0,0,0
1681027461.49954605,58728166,1530,1530,1532,1527,0,0,0,0,0,0,0,0,0,0
1681027461.60033894,58828959,1533,1534,1537,1530,0,0,0,0,0,0,0,0,0,0
1681027461.70029902,58928919,1537,1536,1540,1533,0,0,0,0,0,0,0,0,0,0
1681027461.80025887,59028879,1541,1541,1544,1538,0,0,0,0,0,0,0,0,0,0
1681027461.90021896,59128839,1543,1543,1545,1542,0,0,0,0,0,0,0,0,0,0
1681027462.00017905,59228799,1546,1547,1546,1547,0,0,0,0,0,0,0,0,0,0
1681027462.10013890,59328759,1549,1549,1548,1550,0,0,0,0,0,0,0,0,0,0
1681027462.20009899,59428719,1551,1551,1549,1552,0,0,0,0,0,0,0,0,0,0
1681027462.30005884,59528679,1552,1551,1554,1557,0,0,0,0,0,0,0,0,0,0
1681027462.40001893,59628639,1551,1551,1559,1562,0,0,0,0,0,0,0,0,0,0
1681027462.49997902,59728599,1554,1554,1562,1564,0,0,0,0,0,0,0,0,0,0
1681027462.59993887,59828559,1557,1558,1564,1564,0,0,0,0,0,0,0,0,0,0
1681027462.69989896,59928519,1561,1562,1565,1564,0,0,0,0,0,0,0,0,0,0
1681027462.79985905,60028479,1564,1564,1565,1564,0,0,0,0,0,0,0,0,0,0
1681027462.89981890,60128439,1566,1566,1564,1564,0,0,0,0,0,0,0,0,0,0
1681027462.99977899,60228399,1569,1569,1565,1564,0,0,0,0,0,0,0,0,0,0
1681027463.09973884,60328359,1571,1571,1565,1566,0,0,0,0,0,0,0,0,0,0
1681027463.19969893,60428319,1571,1571,1565,1566,0,0,0,0,0,0,0,0,0,0
1681027463.29965901,60528279,1572,1572,1566,1567,0,0,0,0,0,0,0,0,0,0
1681027463.39961886,60628239,1572,1573,1568,1568,0,0,0,0,0,0,0,0,0,0
1681027463.49957895,60728199,1573,1573,1570,1570,0,0,0,0,0,0,0,0,0,0
1681027463.59953904,60828159,1574,1574,1571,1572,0,0,0,0,0,0,0,0,0,0
1681027463.70033193,60928952,1573,1573,1573,1572,0,0,0,0,0,0,0,0,0,0
1681027463.80029202,61028912,1573,1573,1574,1572,0,0,0,0,0,0,0,0,0,0
1681027463.90025187,61128872,1573,1574,1576,1574,0,0,0,0,0,0,0,0,0,0
1681027464.00021195,61228832,1575,1575,1577,1576,0,0,0,0,0,0,0,0,0,0
1681027464.10017204,61328792,1576,1575,1578,1577,0,0,0,0,0,0,0,0,0,0
1681027464.20013189,61428752,1576,1575,1577,1577,0,0,0,0,0,0,0,0,0,0
1681027464.30009198,61528712,1575,1575,1576,1577,0,0,0,0,0,0,0,0,0,0
1681027464.40005183,61628672,1575,1575,1576,1577,0,0,0,0,0,0,0,0,0,0
1681027464.50001192,61728632,1576,1576,1577,1577,0,0,0,0,0,0,0,0,0,0
1681027464.59997201,61828592,1576,1576,1576,1576,0,0,0,0,0,0,0,0,0,0
1681027464.69993186,61928552,1577,1576,1577,1576,0,0,0,0,0,0,0,0,0,0
1681027464.79989195,62028512,1577,1577,1577,1577,0,0,0,0,0,0,0,0,0,0
1681027464.89985204,62128472,1579,1579,1578,1578,0,0,0,0,0,0,0,0,0,0
1681027464.99981189,62228432,1577,1577,1577,1576,0,0,0,0,0,0,0,0,0,0
1681027465.09977198,62328392,1578,1577,1577,1577,0,0,0,0,0,0,0,0,0,0
1681027465.19973207,62428352,1578,1578,1577,1577,0,0,0,0,0,0,0,0,0,0
1681027465.29969192,62528312,1578,1579,1578,1578,0,0,0,0,0,0,0,0,0,0
1681027465.39965200,62628272,1578,1578,1577,1577,0,0,0,0,0,0,0,0,0,0
1681027465.49961185,62728232,1579,1578,1578,1579,0,0,0,0,0,0,0,0,0,0
1681027465.59957194,62828192,1578,1577,1578,1578,0,0,0,0,0,0,0,0,0,0
1681027465.70036507,62928985,1577,1577,1578,1578,0,0,0,0,0,0,0,0,0,0
1681027465.80032492,63028945,1579,1579,1580,1579,0,0,0,0,0,0,0,0,0,0
1681027465.90028501,63128905,1578,1578,1579,1579,0,0,0,0,0,0,0,0,0,0
1681027466.00024486,63228865,1579,1579,1579,1579,0,0,0,0,0,0,0,0,0,0
1681027466.10020494,63328825,1578,1579,1579,1579,0,0,0,0,0,0,0,0,0,0
1681027466.20016503,63428785,1578,1579,1579,1579,0,0,0,0,0,0,0,0,0,0
1681027466.30012488,63528745,1579,1579,1579,1580,0,0,0,0,0,0,0,0,0,0
1681027466.40008497,63628705,1579,1579,1579,1579,0,0,0,0,0,0,0,0,0,0
1681027466.50004506,63728665,1579,1578,1579,1579,0,0,0,0,0,0,0,0,0,0
1681027466.60000491,63828625,1579,1579,1579,1579,0,0,0,0,0,0,0,0,0,0
1681027466.69996500,63928585,1579,1579,1579,1579,0,0,0,0,0,0,0,0,0,0
1681027466.79992485,64028545,1580,1579,1579,1580,0,0,0,0,0,0,0,0,0,0
1681027466.89988494,64128505,1580,1580,1580,1580,0,0,0,0,0,0,0,0,0,0
1681027466.99984503,64228465,1580,1580,1580,1580,0,0,0,0,0,0,0,0,0,0
1681027467.09980488,64328425,1580,1580,1580,1580,0,0,0,0,0,0,0,0,0,0
1681027467.19976497,64428385,1580,1581,1581,1580,0,0,0,0,0,0,0,0,0,0
1681027467.29972506,64528345,1581,1581,1581,1581,0,0,0,0,0,0,0,0,0,0
1681027467.39968491,64628305,1581,1580,1580,1581,0,0,0,0,0,0,0,0,0,0
1681027467.49964499,64728265,1581,1581,1581,1581,0,0,0,0,0,0,0,0,0,0
1681027467.59960485,64828225,1580,1580,1581,1581,0,0,0,0,0,0,0,0,0,0
1681027467.69956493,64928185,1580,1581,1581,1581,0,0,0,0,0,0,0,0,0,0
1681027467.80035806,65028978,1580,1581,1581,1581,0,0,0,0,0,0,0,0,0,0
1681027467.90031791,65128938,1580,1580,1580,1580,0,0,0,0,0,0,0,0,0,0
1681027468.00027800,65228898,1580,1580,1581,1581,0,0,0,0,0,0,0,0,0,0
1681027468.10023785,65328858,1581,1580,1581,1581,0,0,0,0,0,0,0,0,0,0
1681027468.20019794,65428818,1580,1580,1580,1580,0,0,0,0,0,0,0,0,0,0
1681027468.30015802,65528778,1581,1581,1581,1581,0,0,0,0,0,0,0,0,0,0
1681027468.40011787,65628738,1580,1581,1581,1581,0,0,0,0,0,0,0,0,0,0
1681027468.50007796,65728698,1581,1582,1582,1581,0,0,0,0,0,0,0,0,0,0
1681027468.60003805,65828658,1581,1582,1589,1574,0,0,0,0,0,0,0,0,0,0
1681027468.69999790,65928618,1581,1582,1585,1573,0,0,0,0,0,0,0,0,0,0
1681027468.79995799,66028578,1578,1582,1576,1574,0,0,0,0,0,0,0,0,0,0
1681027468.89991784,66128538,1578,1580,1568,1572,0,0,0,0,0,0,0,0,0,0
1681027468.99987793,66228498,1577,1579,1561,1568,0,0,0,0,0,0,0,0,0,0
1681027469.09983802,66328458,1577,1578,1556,1563,0,0,0,0,0,0,0,0,0,0
1681027469.19979787,66428418,1579,1578,1556,1559,0,0,0,0,0,0,0,0,0,0
1681027469.29975796,66528378,1579,1577,1555,1555,0,0,0,0,0,0,0,0,0,0
1681027469.39971805,66628338,1579,1578,1556,1554,0,0,0,0,0,0,0,0,0,0
1681027469.49967790,66728298,1578,1578,1556,1554,0,0,0,0,0,0,0,0,0,0
1681027469.59963799,66828258,1577,1577,1556,1554,0,0,0,0,0,0,0,0,0,0
1681027469.69959784,66928218,1576,1577,1556,1555,0,0,0,0,0,0,0,0,0,0
1681027469.79955792,67028178,1575,1577,1555,1555,0,0,0,0,0,0,0,0,0,0
1681027469.90035105,67128971,1575,1576,1554,1554,0,0,0,0,0,0,0,0,0,0
1681027470.00031090,67228931,1575,1577,1552,1552,0,0,0,0,0,0,0,0,0,0
1681027470.10027099,67328891,1577,1578,1551,1551,0,0,0,0,0,0,0,0,0,0
1681027470.20023084,67428851,1578,1579,1548,1548,0,0,0,0,0,0,0,0,0,0
1681027470.30019093,67528811,1581,1582,1546,1545,0,0,0,0,0,0,0,0,0,0
1681027470.40015101,67628771,1584,1585,1543,1542,0,0,0,0,0,0,0,0,0,0
1681027470.50011086,67728731,1587,1588,1540,1540,0,0,0,0,0,0,0,0,0,0
1681027470.60007095,67828691,1591,1591,1538,1538,0,0,0,0,0,0,0,0,0,0
1681027470.70003104,67928651,1594,1594,1536,1537,0,0,0,0,0,0,0,0,0,0
1681027470.79999089,68028611,1595,1595,1534,1535,0,0,0,0,0,0,0,0,0,0
1681027470.89995098,68128571,1596,1596,1535,1536,0,0,0,0,0,0,0,0,0,0
1681027470.99991083,68228531,1594,1594,1536,1538,0,0,0,0,0,0,0,0,0,0
1681027471.09987092,68328491,1593,1592,1539,1542,0,0,0,0,0,0,0,0,0,0
1681027471.19983101,68428451,1589,1588,1544,1547,0,0,0,0,0,0,0,0,0,0
1681027471.29979086,68528411,1584,1581,1553,1555,0,0,0,0,0,0,0,0,0,0
1681027471.39975095,68628371,1575,1571,1562,1564,0,0,0,0,0,0,0,0,0,0
1681027471.49971104,68728331,1565,1561,1574,1576,0,0,0,0,0,0,0,0,0,0
1681027471.59967089,68828291,1554,1550,1587,1588,0,0,0,0,0,0,0,0,0,0
1681027471.69963098,68928251,1543,1540,1597,1598,0,0,0,0,0,0,0,0,0,0
1681027471.79959106,69028211,1533,1533,1606,1606,0,0,0,0,0,0,0,0,0,0
1681027471.89955091,69128171,1530,1531,1614,1612,0,0,0,0,0,0,0,0,0,0
1681027472.00034404,69228964,1527,1529,1615,1614,0,0,0,0,0,0,0,0,0,0
1681027472.10030389,69328924,1530,1532,1613,1612,0,0,0,0,0,0,0,0,0,0
1681027472.20026398,69428884,1536,1538,1609,1609,0,0,0,0,0,0,0,0,0,0
1681027472.30022407,69528844,1544,1546,1603,1603,0,0,0,0,0,0,0,0,0,0
1681027472.40018392,69628804,1553,1554,1596,1596,0,0,0,0,0,0,0,0,0,0
1681027472.50014400,69728764,1562,1562,1588,1588,0,0,0,0,0,0,0,0,0,0
1681027472.60010386,69828724,1570,1569,1581,1580,0,0,0,0,0,0,0,0,0,0
1681027472.70006394,69928684,1578,1577,1575,1575,0,0,0,0,0,0,0,0,0,0
1681027472.80002403,70028644,1582,1581,1570,1570,0,0,0,0,0,0,0,0,0,0
1681027472.89998388,70128604,1585,1584,1566,1567,0,0,0,0,0,0,0,0,0,0
1681027472.99994397,70228564,1587,1586,1566,1566,0,0,0,0,0,0,0,0,0,0
1681027473.09990406,70328524,1587,1585,1566,1566,0,0,0,0,0,0,0,0,0,0
1681027473.19986391,70428484,1586,1585,1568,1568,0,0,0,0,0,0,0,0,0,0
1681027473.29982400,70528444,1584,1583,1570,1570,0,0,0,0,0,0,0,0,0,0
1681027473.39978385,70628404,1580,1580,1573,1572,0,0,0,0,0,0,0,0,0,0
1681027473.49974394,70728364,1578,1578,1576,1576,0,0,0,0,0,0,0,0,0,0
1681027473.59970403,70828324,1576,1576,1580,1579,0,0,0,0,0,0,0,0,0,0
1681027473.69966388,70928284,1573,1574,1581,1581,0,0,0,0,0,0,0,0,0,0
1681027473.79962397,71028244,1580,1581,1519,1563,0,0,0,0,0,0,0,0,0,0
1681027473.89958405,71128204,1589,1589,1560,1560,0,0,0,0,0,0,0,0,0,0
1681027473.99954391,71228164,1596,1596,1592,1567,0,0,0,0,0,0,0,0,0,0
1681027474.10033703,71328957,1600,1600,1614,1580,0,0,0,0,0,0,0,0,0,0
1681027474.20029688,71428917,1600,1600,1622,1596,0,0,0,0,0,0,0,0,0,0
1681027474.30025697,71528877,1594,1595,1620,1606,0,0,0,0,0,0,0,0,0,0
1681027474.40021706,71628837,1584,1585,1609,1610,0,0,0,0,0,0,0,0,0,0
1681027474.50017691,71728797,1575,1576,1599,1609,0,0,0,0,0,0,0,0,0,0
1681027474.60013700,71828757,1570,1570,1591,1606,0,0,0,0,0,0,0,0,0,0
1681027474.70009685,71928717,1568,1567,1586,1599,0,0,0,0,0,0,0,0,0,0
1681027474.80005693,72028677,1568,1567,1583,1592,0,0,0,0,0,0,0,0,0,0
1681027474.90001702,72128637,1571,1570,1583,1585,0,0,0,0,0,0,0,0,0,0
1681027474.99997687,72228597,1574,1573,1581,1578,0,0,0,0,0,0,0,0,0,0
1681027475.09993696,72328557,1576,1576,1577,1574,0,0,0,0,0,0,0,0,0,0
1681027475.19989705,72428517,1579,1580,1576,1572,0,0,0,0,0,0,0,0,0,0
1681027475.29985690,72528477,1581,1582,1572,1571,0,0,0,0,0,0,0,0,0,0
1681027475.39981699,72628437,1583,1583,1571,1571,0,0,0,0,0,0,0,0,0,0
1681027475.49977684,72728397,1582,1582,1569,1570,0,0,0,0,0,0,0,0,0,0
1681027475.59973693,72828357,1581,1581,1568,1571,0,0,0,0,0,0,0,0,0,0
1681027475.69969702,72928317,1580,1579,1569,1571,0,0,0,0,0,0,0,0,0,0
1681027475.79965687,73028277,1580,1579,1572,1573,0,0,0,0,0,0,0,0,0,0
1681027475.89961696,73128237,1578,1577,1573,1573,0,0,0,0,0,0,0,0,0,0
1681027475.99957705,73228197,1576,1577,1575,1574,0,0,0,0,0,0,0,0,0,0
1681027476.09953690,73328157,1577,1577,1578,1577,0,0,0,0,0,0,0,0,0,0
1681027476.20033002,73428950,1575,1576,1579,1578,0,0,0,0,0,0,0,0,0,0
1681027476.30028987,73528910,1575,1576,1580,1580,0,0,0,0,0,0,0,0,0,0
1681027476.40024996,73628870,1575,1575,1580,1580,0,0,0,0,0,0,0,0,0,0
1681027476.50021005,73728830,1575,1575,1580,1580,0,0,0,0,0,0,0,0,0,0
1681027476.60016990,73828790,1575,1577,1585,1574,0,0,0,0,0,0,0,0,0,0
1681027476.70012999,73928750,1575,1580,1585,1570,0,0,0,0,0,0,0,0,0,0
1681027476.80008984,74028710,1575,1580,1577,1570,0,0,0,0,0,0,0,0,0,0
1681027476.90004992,74128670,1576,1580,1568,1570,0,0,0,0,0,0,0,0,0,0
1681027477.00001001,74228630,1576,1578,1559,1566,0,0,0,0,0,0,0,0,0,0
1681027477.09996986,74328590,1578,1578,1553,1561,0,0,0,0,0,0,0,0,0,0
1681027477.19992995,74428550,1581,1579,1550,1556,0,0,0,0,0,0,0,0,0,0
1681027477.29989004,74528510,1582,1579,1550,1553,0,0,0,0,0,0,0,0,0,0
1681027477.39984989,74628470,1582,1581,1551,1550,0,0,0,0,0,0,0,0,0,0
1681027477.49980998,74728430,1581,1580,1551,1549,0,0,0,0,0,0,0,0,0,0
1681027477.59976983,74828390,1580,1580,1552,1550,0,0,0,0,0,0,0,0,0,0
1681027477.69972992,74928350,1578,1580,1552,1551,0,0,0,0,0,0,0,0,0,0
1681027477.79969001,75028310,1577,1580,1553,1552,0,0,0,0,0,0,0,0,0,0
1681027477.89964986,75128270,1576,1578,1553,1553,0,0,0,0,0,0,0,0,0,0
1681027477.99960995,75228230,1577,1578,1552,1553,0,0,0,0,0,0,0,0,0,0
1681027478.09957004,75328190,1577,1578,1552,1552,0,0,0,0,0,0,0,0,0,0
1681027478.20036292,75428983,1579,1579,1551,1551,0,0,0,0,0,0,0,0,0,0
1681027478.30032301,75528943,1580,1580,1549,1549,0,0,0,0,0,0,0,0,0,0
1681027478.40028286,75628903,1581,1582,1547,1547,0,0,0,0,0,0,0,0,0,0
1681027478.50024295,75728863,1583,1584,1546,1546,0,0,0,0,0,0,0,0,0,0
1681027478.60020304,75828823,1585,1586,1544,1545,0,0,0,0,0,0,0,0,0,0
1681027478.70016289,75928783,1587,1589,1543,1543,0,0,0,0,0,0,0,0,0,0
1681027478.80012298,76028743,1589,1591,1541,1543,0,0,0,0,0,0,0,0,0,0
1681027478.90008307,76128703,1591,1591,1542,1544,0,0,0,0,0,0,0,0,0,0
1681027479.00004292,76228663,1591,1590,1545,1547,0,0,0,0,0,0,0,0,0,0
1681027479.10000300,76328623,1589,1585,1549,1552,0,0,0,0,0,0,0,0,0,0
1681027479.19996285,76428583,1584,1580,1556,1559,0,0,0,0,0,0,0,0,0,0
1681027479.29992294,76528543,1577,1572,1565,1567,0,0,0,0,0,0,0,0,0,0
1681027479.39988303,76628503,1569,1565,1575,1577,0,0,0,0,0,0,0,0,0,0
1681027479.49984288,76728463,1559,1557,1585,1586,0,0,0,0,0,0,0,0,0,0
1681027479.59980297,76828423,1551,1550,1595,1594,0,0,0,0,0,0,0,0,0,0
1681027479.69976306,76928383,1545,1545,1602,1601,0,0,0,0,0,0,0,0,0,0
1681027479.79972291,77028343,1541,1543,1607,1605,0,0,0,0,0,0,0,0,0,0
1681027479.89968300,77128303,1541,1543,1608,1607,0,0,0,0,0,0,0,0,0,0
1681027479.99964285,77228263,1544,1546,1608,1607,0,0,0,0,0,0,0,0,0,0
1681027480.09960294,77328223,1548,1549,1605,1604,0,0,0,0,0,0,0,0,0,0
1681027480.19956303,77428183,1553,1553,1601,1600,0,0,0,0,0,0,0,0,0,0
1681027480.30035591,77528976,1558,1558,1597,1596,0,0,0,0,0,0,0,0,0,0
1681027480.40031600,77628936,1564,1564,1592,1591,0,0,0,0,0,0,0,0,0,0
1681027480.50027585,77728896,1569,1569,1585,1585,0,0,0,0,0,0,0,0,0,0
1681027480.60023594,77828856,1575,1575,1580,1580,0,0,0,0,0,0,0,0,0,0
1681027480.70019603,77928816,1580,1578,1575,1576,0,0,0,0,0,0,0,0,0,0
1681027480.80015588,78028776,1583,1582,1572,1573,0,0,0,0,0,0,0,0,0,0
1681027480.90011597,78128736,1584,1583,1570,1571,0,0,0,0,0,0,0,0,0,0
1681027481.00007606,78228696,1585,1584,1569,1570,0,0,0,0,0,0,0,0,0,0
1681027481.10003591,78328656,1584,1583,1569,1569,0,0,0,0,0,0,0,0,0,0
1681027481.19999599,78428616,1584,1583,1571,1571,0,0,0,0,0,0,0,0,0,0
1681027481.29995584,78528576,1583,1582,1575,1574,0,0,0,0,0,0,0,0,0,0
1681027481.39991593,78628536,1580,1580,1576,1576,0,0,0,0,0,0,0,0,0,0
1681027481.49987602,78728496,1578,1578,1579,1578,0,0,0,0,0,0,0,0,0,0
1681027481.59983587,78828456,1576,1576,1580,1580,0,0,0,0,0,0,0,0,0,0
1681027481.69979596,78928416,1574,1575,1582,1581,0,0,0,0,0,0,0,0,0,0
1681027481.79975605,79028376,1574,1575,1583,1583,0,0,0,0,0,0,0,0,0,0
1681027481.89971590,79128336,1573,1574,1583,1583,0,0,0,0,0,0,0,0,0,0
1681027481.99967599,79228296,1574,1574,1583,1583,0,0,0,0,0,0,0,0,0,0
1681027482.09963584,79328256,1575,1575,1583,1583,0,0,0,0,0,0,0,0,0,0
1681027482.19959593,79428216,1575,1576,1582,1582,0,0,0,0,0,0,0,0,0,0
1681027482.29955602,79528176,1577,1577,1581,1581,0,0,0,0,0,0,0,0,0,0
1681027482.40034890,79628969,1578,1578,1580,1580,0,0,0,0,0,0,0,0,0,0
1681027482.50030899,79728929,1578,1578,1579,1579,0,0,0,0,0,0,0,0,0,0
1681027482.60026884,79828889,1580,1579,1579,1579,0,0,0,0,0,0,0,0,0,0
1681027482.70022893,79928849,1579,1579,1577,1577,0,0,0,0,0,0,0,0,0,0
1681027482.80018902,80028809,1581,1580,1578,1578,0,0,0,0,0,0,0,0,0,0
1681027482.90014887,80128769,1582,1581,1578,1578,0,0,0,0,0,0,0,0,0,0
1681027483.00010896,80228729,1583,1582,1579,1579,0,0,0,0,0,0,0,0,0,0
1681027483.10006905,80328689,1581,1581,1578,1579,0,0,0,0,0,0,0,0,0,0
1681027483.20002890,80428649,1582,1582,1580,1580,0,0,0,0,0,0,0,0,0,0
1681027483.29998899,80528609,1581,1581,1580,1580,0,0,0,0,0,0,0,0,0,0
1681027483.39994884,80628569,1581,1581,1580,1580,0,0,0,0,0,0,0,0,0,0
1681027483.49990892,80728529,1581,1581,1582,1581,0,0,0,0,0,0,0,0,0,0
1681027483.59986901,80828489,1580,1580,1581,1581,0,0,0,0,0,0,0,0,0,0
1681027483.69982886,80928449,1579,1579,1580,1580,0,0,0,0,0,0,0,0,0,0
1681027483.79978895,81028409,1579,1580,1581,1581,0,0,0,0,0,0,0,0,0,0
1681027483.89974904,81128369,1579,1580,1581,1581,0,0,0,0,0,0,0,0,0,0
1681027483.99970889,81228329,1579,1579,1580,1581,0,0,0,0,0,0,0,0,0,0
1681027484.09966898,81328289,1580,1580,1580,1581,0,0,0,0,0,0,0,0,0,0
1681027484.19962883,81428249,1580,1580,1581,1581,0,0,0,0,0,0,0,0,0,0
1681027484.29958892,81528209,1580,1580,1581,1581,0,0,0,0,0,0,0,0,0,0
1681027484.39954901,81628169,1581,1581,1581,1581,0,0,0,0,0,0,0,0,0,0
1681027484.50034189,81728962,1582,1582,1582,1581,0,0,0,0,0,0,0,0,0,0
1681027484.60030198,81828922,1582,1582,1581,1580,0,0,0,0,0,0,0,0,0,0
1681027484.70026183,81928882,1582,1582,1583,1579,0,0,0,0,0,0,0,0,0,0
1681027484.80022192,82028842,1581,1584,1588,1573,0,0,0,0,0,0,0,0,0,0
1681027484.90018201,82128802,1580,1583,1583,1573,0,0,0,0,0,0,0,0,0,0
1681027485.00014186,82228762,1578,1581,1574,1572,0,0,0,0,0,0,0,0,0,0
1681027485.10010195,82328722,1577,1579,1565,1571,0,0,0,0,0,0,0,0,0,0
1681027485.20006204,82428682,1577,1579,1559,1567,0,0,0,0,0,0,0,0,0,0
1681027485.30002189,82528642,1578,1578,1556,1562,0,0,0,0,0,0,0,0,0,0
1681027485.39998198,82628602,1579,1578,1554,1557,0,0,0,0,0,0,0,0,0,0
1681027485.49994206,82728562,1580,1578,1554,1555,0,0,0,0,0,0,0,0,0,0
1681027485.59990191,82828522,1580,1579,1555,1554,0,0,0,0,0,0,0,0,0,0
1681027485.69986200,82928482,1579,1578,1555,1553,0,0,0,0,0,0,0,0,0,0
1681027485.79982185,83028442,1578,1579,1556,1554,0,0,0,0,0,0,0,0,0,0
1681027485.89978194,83128402,1576,1578,1555,1553,0,0,0,0,0,0,0,0,0,0
1681027485.99974203,83228362,1575,1578,1554,1553,0,0,0,0,0,0,0,0,0,0
1681027486.09970188,83328322,1575,1577,1553,1553,0,0,0,0,0,0,0,0,0,0
1681027486.19966197,83428282,1575,1577,1551,1552,0,0,0,0,0,0,0,0,0,0
1681027486.29962206,83528242,1578,1578,1550,1551,0,0,0,0,0,0,0,0,0,0
1681027486.39958191,83628202,1580,1580,1549,1549,0,0,0,0,0,0,0,0,0,0
1681027486.49954200,83728162,1581,1582,1547,1546,0,0,0,0,0,0,0,0,0,0
1681027486.60033488,83828955,1583,1584,1544,1543,0,0,0,0,0,0,0,0,0,0
1681027486.70029497,83928915,1586,1587,1541,1541,0,0,0,0,0,0,0,0,0,0
1681027486.80025506,84028875,1590,1590,1540,1540,0,0,0,0,0,0,0,0,0,0
1681027486.90021491,84128835,1592,1592,1539,1539,0,0,0,0,0,0,0,0,0,0
1681027487.00017500,84228795,1593,1594,1537,1538,0,0,0,0,0,0,0,0,0,0
1681027487.10013485,84328755,1594,1594,1536,1539,0,0,0,0,0,0,0,0,0,0
1681027487.20009494,84428715,1594,1594,1538,1541,0,0,0,0,0,0,0,0,0,0
1681027487.30005503,84528675,1591,1590,1541,1544,0,0,0,0,0,0,0,0,0,0
1681027487.40001488,84628635,1588,1585,1548,1551,0,0,0,0,0,0,0,0,0,0
1681027487.49997497,84728595,1582,1578,1557,1560,0,0,0,0,0,0,0,0,0,0
1681027487.59993505,84828555,1572,1568,1568,1570,0,0,0,0,0,0,0,0,0,0
1681027487.69989491,84928515,1561,1557,1580,1580,0,0,0,0,0,0,0,0,0,0
1681027487.79985499,85028475,1551,1549,1592,1592,0,0,0,0,0,0,0,0,0,0
1681027487.89981484,85128435,1543,1541,1602,1602,0,0,0,0,0,0,0,0,0,0
1681027487.99977493,85228395,1536,1536,1609,1608,0,0,0,0,0,0,0,0,0,0
1681027488.09973502,85328355,1533,1535,1614,1612,0,0,0,0,0,0,0,0,0,0
1681027488.19969487,85428315,1534,1536,1614,1612,0,0,0,0,0,0,0,0,0,0
1681027488.29965496,85528275,1538,1539,1611,1610,0,0,0,0,0,0,0,0,0,0
1681027488.39961505,85628235,1543,1545,1607,1606,0,0,0,0,0,0,0,0,0,0
1681027488.49957490,85728195,1551,1552,1602,1601,0,0,0,0,0,0,0,0,0,0
1681027488.59953499,85828155,1557,1557,1594,1594,0,0,0,0,0,0,0,0,0,0
1681027488.70032787,85928948,1566,1566,1588,1588,0,0,0,0,0,0,0,0,0,0
1681027488.80028796,86028908,1573,1573,1581,1581,0,0,0,0,0,0,0,0,0,0
1681027488.90024805,86128868,1580,1578,1575,1576,0,0,0,0,0,0,0,0,0,0
1681027489.00020790,86228828,1583,1582,1570,1571,0,0,0,0,0,0,0,0,0,0
1681027489.10016799,86328788,1585,1584,1567,1567,0,0,0,0,0,0,0,0,0,0
1681027489.20012784,86428748,1587,1586,1566,1567,0,0,0,0,0,0,0,0,0,0
1681027489.30008793,86528708,1587,1586,1567,1567,0,0,0,0,0,0,0,0,0,0
1681027489.40004802,86628668,1585,1584,1568,1569,0,0,0,0,0,0,0,0,0,0
1681027489.50000787,86728628,1583,1582,1571,1571,0,0,0,0,0,0,0,0,0,0
1681027489.59996796,86828588,1580,1579,1573,1573,0,0,0,0,0,0,0,0,0,0
1681027489.69992805,86928548,1578,1579,1578,1577,0,0,0,0,0,0,0,0,0,0
1681027489.79988790,87028508,1576,1576,1579,1579,0,0,0,0,0,0,0,0,0,0
1681027489.89984798,87128468,1574,1574,1581,1581,0,0,0,0,0,0,0,0,0,0
1681027489.99980783,87228428,1572,1573,1583,1582,0,0,0,0,0,0,0,0,0,0
1681027490.09976792,87328388,1572,1573,1583,1583,0,0,0,0,0,0,0,0,0,0
1681027490.19972801,87428348,1572,1573,1583,1583,0,0,0,0,0,0,0,0,0,0
1681027490.29968786,87528308,1573,1573,1582,1582,0,0,0,0,0,0,0,0,0,0
1681027490.39964795,87628268,1574,1574,1582,1582,0,0,0,0,0,0,0,0,0,0
1681027490.49960804,87728228,1575,1575,1581,1581,0,0,0,0,0,0,0,0,0,0
1681027490.59956789,87828188,1577,1578,1581,1581,0,0,0,0,0,0,0,0,0,0
1681027490.70036101,87928981,1579,1579,1580,1580,0,0,0,0,0,0,0,0,0,0
1681027490.80032086,88028941,1580,1580,1579,1578,0,0,0,0,0,0,0,0,0,0
1681027490.90028095,88128901,1581,1581,1578,1578,0,0,0,0,0,0,0,0,0,0
1681027491.00024104,88228861,1582,1581,1578,1578,0,0,0,0,0,0,0,0,0,0
1681027491.10020089,88328821,1581,1580,1577,1577,0,0,0,0,0,0,0,0,0,0
1681027491.20016098,88428781,1581,1581,1577,1578,0,0,0,0,0,0,0,0,0,0
1681027491.30012083,88528741,1581,1582,1578,1578,0,0,0,0,0,0,0,0,0,0
1681027491.40008092,88628701,1581,1581,1578,1578,0,0,0,0,0,0,0,0,0,0
1681027491.50004101,88728661,1581,1581,1580,1579,0,0,0,0,0,0,0,0,0,0
1681027491.60000086,88828621,1581,1581,1580,1580,0,0,0,0,0,0,0,0,0,0
1681027491.69996095,88928581,1580,1580,1580,1580,0,0,0,0,0,0,0,0,0,0
1681027491.79992104,89028541,1579,1579,1580,1580,0,0,0,0,0,0,0,0,0,0
1681027491.89988089,89128501,1580,1581,1582,1582,0,0,0,0,0,0,0,0,0,0
1681027491.99984097,89228461,1580,1580,1582,1582,0,0,0,0,0,0,0,0,0,0
1681027492.09980106,89328421,1581,1581,1582,1582,0,0,0,0,0,0,0,0,0,0
1681027492.19976091,89428381,1580,1581,1582,1582,0,0,0,0,0,0,0,0,0,0
1681027492.29972100,89528341,1580,1580,1581,1581,0,0,0,0,0,0,0,0,0,0
1681027492.39968085,89628301,1580,1580,1581,1581,0,0,0,0,0,0,0,0,0,0
1681027492.49964094,89728261,1582,1581,1582,1582,0,0,0,0,0,0,0,0,0,0
1681027492.59960103,89828221,1582,1582,1582,1582,0,0,0,0,0,0,0,0,0,0
1681027492.69956088,89928181,1581,1582,1586,1574,0,0,0,0,0,0,0,0,0,0
1681027492.80035400,90028974,1580,1581,1585,1572,0,0,0,0,0,0,0,0,0,0
1681027492.90031385,90128934,1578,1579,1579,1574,0,0,0,0,0,0,0,0,0,0
1681027493.00027394,90228894,1575,1575,1573,1575,0,0,0,0,0,0,0,0,0,0
1681027493.10023403,90328854,1571,1571,1567,1574,0,0,0,0,0,0,0,0,0,0
1681027493.20019388,90428814,1569,1569,1565,1572,0,0,0,0,0,0,0,0,0,0
1681027493.30015397,90528774,1569,1568,1565,1570,0,0,0,0,0,0,0,0,0,0
1681027493.40011406,90628734,1568,1567,1566,1568,0,0,0,0,0,0,0,0,0,0
1681027493.50007391,90728694,1567,1567,1567,1566,0,0,0,0,0,0,0,0,0,0
1681027493.60003400,90828654,1566,1567,1568,1565,0,0,0,0,0,0,0,0,0,0
1681027493.69999385,90928614,1566,1566,1568,1565,0,0,0,0,0,0,0,0,0,0
1681027493.79995394,91028574,1564,1564,1566,1564,0,0,0,0,0,0,0,0,0,0
1681027493.89991403,91128534,1563,1564,1564,1563,0,0,0,0,0,0,0,0,0,0
1681027493.99987388,91228494,1564,1564,1565,1564,0,0,0,0,0,0,0,0,0,0
1681027494.09983397,91328454,1562,1562,1562,1562,0,0,0,0,0,0,0,0,0,0
1681027494.19979405,91428414,1562,1562,1562,1563,0,0,0,0,0,0,0,0,0,0
1681027494.29975390,91528374,1561,1561,1561,1561,0,0,0,0,0,0,0,0,0,0
1681027494.39971399,91628334,1560,1560,1561,1561,0,0,0,0,0,0,0,0,0,0
1681027494.49967384,91728294,1560,1560,1560,1560,0,0,0,0,0,0,0,0,0,0
1681027494.59963393,91828254,1558,1558,1558,1557,0,0,0,0,0,0,0,0,0,0
1681027494.69959402,91928214,1559,1559,1559,1558,0,0,0,0,0,0,0,0,0,0
1681027494.79955387,92028174,1558,1558,1558,1557,0,0,0,0,0,0,0,0,0,0
1681027494.90034699,92128967,1557,1558,1558,1557,0,0,0,0,0,0,0,0,0,0
1681027495.00030684,92228927,1558,1558,1558,1557,0,0,0,0,0,0,0,0,0,0
1681027495.10026693,92328887,1559,1558,1559,1557,0,0,0,0,0,0,0,0,0,0
1681027495.20022702,92428847,1559,1559,1560,1557,0,0,0,0,0,0,0,0,0,0
1681027495.30018687,92528807,1559,1559,1560,1557,0,0,0,0,0,0,0,0,0,0
1681027495.40014696,92628767,1558,1558,1559,1556,0,0,0,0,0,0,0,0,0,0
1681027495.50010705,92728727,1559,1559,1558,1559,0,0,0,0,0,0,0,0,0,0
1681027495.60006690,92828687,1559,1559,1557,1562,0,0,0,0,0,0,0,0,0,0
1681027495.70002699,92928647,1560,1560,1557,1563,0,0,0,0,0,0,0,0,0,0
1681027495.79998684,93028607,1560,1560,1557,1564,0,0,0,0,0,0,0,0,0,0
1681027495.89994693,93128567,1560,1560,1558,1563,0,0,0,0,0,0,0,0,0,0
1681027495.99990702,93228527,1560,1560,1559,1560,0,0,0,0,0,0,0,0,0,0
1681027496.09986687,93328487,1559,1559,1560,1557,0,0,0,0,0,0,0,0,0,0
1681027496.19982696,93428447,1558,1558,1561,1556,0,0,0,0,0,0,0,0,0,0
1681027496.29978704,93528407,1559,1559,1559,1559,0,0,0,0,0,0,0,0,0,0
1681027496.39974689,93628367,1556,1556,1555,1558,0,0,0,0,0,0,0,0,0,0
1681027496.49970698,93728327,1553,1553,1551,1555,0,0,0,0,0,0,0,0,0,0
1681027496.59966683,93828287,1548,1548,1548,1550,0,0,0,0,0,0,0,0,0,0
1681027496.69962692,93928247,1543,1542,1543,1544,0,0,0,0,0,0,0,0,0,0
1681027496.79958701,94028207,1535,1535,1536,1535,0,0,0,0,0,0,0,0,0,0
1681027496.89954686,94128167,1528,1528,1529,1528,0,0,0,0,0,0,0,0,0,0
1681027497.00033998,94228960,1521,1522,1523,1522,0,0,0,0,0,0,0,0,0,0
1681027497.10029984,94328920,1518,1519,1519,1519,0,0,0,0,0,0,0,0,0,0
1681027497.20025992,94428880,1519,1519,1518,1519,0,0,0,0,0,0,0,0,0,0
1681027497.30022001,94528840,1521,1521,1520,1521,0,0,0,0,0,0,0,0,0,0
1681027497.40017986,94628800,1524,1524,1522,1523,0,0,0,0,0,0,0,0,0,0
1681027497.50013995,94728760,1527,1527,1525,1526,0,0,0,0,0,0,0,0,0,0
1681027497.60010004,94828720,1532,1532,1530,1530,0,0,0,0,0,0,0,0,0,0
1681027497.70005989,94928680,1537,1536,1535,1535,0,0,0,0,0,0,0,0,0,0
1681027497.80001998,95028640,1539,1539,1538,1538,0,0,0,0,0,0,0,0,0,0
1681027497.89997983,95128600,1542,1542,1541,1541,0,0,0,0,0,0,0,0,0,0
1681027497.99993992,95228560,1543,1543,1543,1542,0,0,0,0,0,0,0,0,0,0
1681027498.09990001,95328520,1544,1544,1544,1543,0,0,0,0,0,0,0,0,0,0
1681027498.19985986,95428480,1545,1545,1546,1545,0,0,0,0,0,0,0,0,0,0
1681027498.29981995,95528440,1546,1546,1547,1546,0,0,0,0,0,0,0,0,0,0
1681027498.39978004,95628400,1546,1546,1547,1547,0,0,0,0,0,0,0,0,0,0
1681027498.49973989,95728360,1546,1545,1547,1547,0,0,0,0,0,0,0,0,0,0
1681027498.59969997,95828320,1546,1545,1547,1546,0,0,0,0,0,0,0,0,0,0
1681027498.69966006,95928280,1546,1546,1547,1547,0,0,0,0,0,0,0,0,0,0
1681027498.79961991,96028240,1546,1546,1546,1546,0,0,0,0,0,0,0,0,0,0
1681027498.89958000,96128200,1546,1546,1546,1547,0,0,0,0,0,0,0,0,0,0
1681027498.99953985,96228160,1546,1546,1546,1546,0,0,0,0,0,0,0,0,0,0
1681027499.10033298,96328953,1545,1545,1545,1545,0,0,0,0,0,0,0,0,0,0
1681027499.20029306,96428913,1545,1545,1545,1545,0,0,0,0,0,0,0,0,0,0
1681027499.30025291,96528873,1545,1545,1545,1544,0,0,0,0,0,0,0,0,0,0
1681027499.40021300,96628833,1545,1545,1545,1544,0,0,0,0,0,0,0,0,0,0
1681027499.50017285,96728793,1544,1544,1543,1544,0,0,0,0,0,0,0,0,0,0
1681027499.60013294,96828753,1544,1544,1544,1544,0,0,0,0,0,0,0,0,0,0
1681027499.70009303,96928713,1544,1544,1543,1544,0,0,0,0,0,0,0,0,0,0
1681027499.80005288,97028673,1543,1543,1543,1543,0,0,0,0,0,0,0,0,0,0
1681027499.90001297,97128633,1544,1544,1544,1543,0,0,0,0,0,0,0,0,0,0
1681027499.99997306,97228593,1543,1544,1544,1543,0,0,0,0,0,0,0,0,0,0
1681027500.09993291,97328553,1544,1544,1544,1544,0,0,0,0,0,0,0,0,0,0
1681027500.19989300,97428513,1544,1544,1544,1544,0,0,0,0,0,0,0,0,0,0
1681027500.29985285,97528473,1544,1544,1544,1545,0,0,0,0,0,0,0,0,0,0
1681027500.39981294,97628433,1544,1544,1544,1544,0,0,0,0,0,0,0,0,0,0
1681027500.49977303,97728393,1544,1543,1544,1544,0,0,0,0,0,0,0,0,0,0
1681027500.59973288,97828353,1544,1544,1544,1544,0,0,0,0,0,0,0,0,0,0
1681027500.69969296,97928313,1544,1544,1544,1544,0,0,0,0,0,0,0,0,0,0
1681027500.79965305,98028273,1543,1544,1544,1544,0,0,0,0,0,0,0,0,0,0
1681027500.89961290,98128233,1543,1544,1544,1543,0,0,0,0,0,0,0,0,0,0
1681027500.99957299,98228193,1544,1544,1544,1544,0,0,0,0,0,0,0,0,0,0
1681027501.10036588,98328986,1544,1543,1543,1543,0,0,0,0,0,0,0,0,0,0
1681027501.20032597,98428946,1544,1545,1544,1544,0,0,0,0,0,0,0,0,0,0
1681027501.30028605,98528906,1545,1545,1545,1544,0,0,0,0,0,0,0,0,0,0
1681027501.40024590,98628866,1544,1545,1544,1544,0,0,0,0,0,0,0,0,0,0
1681027501.50020599,98728826,1544,1544,1544,1544,0,0,0,0,0,0,0,0,0,0
1681027501.60016584,98828786,1543,1543,1543,1543,0,0,0,0,0,0,0,0,0,0
1681027501.70012593,98928746,1544,1543,1544,1544,0,0,0,0,0,0,0,0,0,0
1681027501.80008602,99028706,1544,1544,1544,1544,0,0,0,0,0,0,0,0,0,0
1681027501.90004587,99128666,1544,1544,1544,1544,0,0,0,0,0,0,0,0,0,0
1681027502.00000596,99228626,1543,1544,1544,1544,0,0,0,0,0,0,0,0,0,0
1681027502.09996605,99328586,1545,1544,1544,1544,0,0,0,0,0,0,0,0,0,0
1681027502.19992590,99428546,1545,1545,1545,1545,0,0,0,0,0,0,0,0,0,0
1681027502.29988599,99528506,1543,1543,1543,1544,0,0,0,0,0,0,0,0,0,0
1681027502.39984584,99628466,1544,1544,1544,1544,0,0,0,0,0,0,0,0,0,0
1681027502.49980593,99728426,1544,1544,1544,1544,0,0,0,0,0,0,0,0,0,0
1681027502.59976602,99828386,1543,1544,1544,1544,0,0,0,0,0,0,0,0,0,0
1681027502.69972587,99928346,1544,1543,1544,1544,0,0,0,0,0,0,0,0,0,0
1681027502.79968596,100028306,1544,1544,1544,1544,0,0,0,0,0,0,0,0,0,0
1681027502.89964604,100128266,1544,1544,1544,1544,0,0,0,0,0,0,0,0,0,0
1681027502.99960589,100228226,1544,1545,1544,1544,0,0,0,0,0,0,0,0,0,0
1681027503.09956598,100328186,1545,1544,1544,1544,0,0,0,0,0,0,0,0,0,0
1681027503.20035887,100428979,1544,1544,1544,1544,0,0,0,0,0,0,0,0,0,0
1681027503.30031896,100528939,1544,1544,1544,1544,0,0,0,0,0,0,0,0,0,0
1681027503.40027905,100628899,1544,1544,1544,1544,0,0,0,0,0,0,0,0,0,0
1681027503.50023890,100728859,1545,1545,1545,1545,0,0,0,0,0,0,0,0,0,0
1681027503.60019898,100828819,1545,1544,1545,1544,0,0,0,0,0,0,0,0,0,0
1681027503.70015883,100928779,1544,1544,1544,1544,0,0,0,0,0,0,0,0,0,0
1681027503.80011892,101028739,1544,1545,1544,1544,0,0,0,0,0,0,0,0,0,0
1681027503.90007901,101128699,1545,1545,1545,1545,0,0,0,0,0,0,0,0,0,0
1681027504.00003886,101228659,1545,1545,1545,1545,0,0,0,0,0,0,0,0,0,0
1681027504.09999895,101328619,1545,1544,1544,1545,0,0,0,0,0,0,0,0,0,0
1681027504.19995904,101428579,1544,1544,1544,1544,0,0,0,0,0,0,0,0,0,0
1681027504.29991889,101528539,1544,1544,1544,1544,0,0,0,0,0,0,0,0,0,0
1681027504.39987898,101628499,1543,1544,1544,1543,0,0,0,0,0,0,0,0,0,0
1681027504.49983883,101728459,1544,1544,1544,1544,0,0,0,0,0,0,0,0,0,0
1681027504.59979892,101828419,1544,1545,1545,1544,0,0,0,0,0,0,0,0,0,0
1681027504.69975901,101928379,1544,1544,1544,1544,0,0,0,0,0,0,0,0,0,0
1681027504.79971886,102028339,1545,1545,1545,1545,0,0,0,0,0,0,0,0,0,0
1681027504.89967895,102128299,1544,1544,1543,1544,0,0,0,0,0,0,0,0,0,0
1681027504.99963903,102228259,1544,1544,1544,1544,0,0,0,0,0,0,0,0,0,0
1681027505.09959888,102328219,1545,1545,1545,1545,0,0,0,0,0,0,0,0,0,0
1681027505.19955897,102428179,1545,1545,1545,1545,0,0,0,0,0,0,0,0,0,0
1681027505.30035186,102528972,1545,1544,1544,1544,0,0,0,0,0,0,0,0,0,0
1681027505.40031195,102628932,1545,1545,1545,1545,0,0,0,0,0,0,0,0,0,0
1681027505.50027204,102728892,1545,1545,1545,1545,0,0,0,0,0,0,0,0,0,0
1681027505.60023189,102828852,1545,1545,1545,1545,0,0,0,0,0,0,0,0,0,0
1681027505.70019197,102928812,1544,1544,1544,1544,0,0,0,0,0,0,0,0,0,0
1681027505.80015206,103028772,1544,1545,1544,1544,0,0,0,0,0,0,0,0,0,0
1681027505.90011191,103128732,1544,1544,1544,1544,0,0,0,0,0,0,0,0,0,0
1681027506.00007200,103228692,1543,1544,1543,1544,0,0,0,0,0,0,0,0,0,0
1681027506.10003185,103328652,1543,1543,1543,1544,0,0,0,0,0,0,0,0,0,0
1681027506.19999194,103428612,1544,1544,1544,1544,0,0,0,0,0,0,0,0,0,0
1681027506.29995203,103528572,1544,1543,1544,1544,0,0,0,0,0,0,0,0,0,0
1681027506.39991188,103628532,1543,1544,1544,1543,0,0,0,0,0,0,0,0,0,0
1681027506.49987197,103728492,1543,1543,1543,1543,0,0,0,0,0,0,0,0,0,0
1681027506.59983206,103828452,1543,1544,1543,1543,0,0,0,0,0,0,0,0,0,0
1681027506.69979191,103928412,1545,1544,1544,1545,0,0,0,0,0,0,0,0,0,0
1681027506.79975200,104028372,1418,1416,1433,1417,0,0,0,0,0,0,0,0,0,0
1681027506.89971185,104128332,1275,1269,1314,1272,0,0,0,0,0,0,0,0,0,0
1681027506.99967194,104228292,1220,1214,1272,1216,0,0,0,0,0,0,0,0,0,0
1681027507.09963202,104328252,1200,1193,1257,1196,0,0,0,0,0,0,0,0,0,0
1681027507.19959188,104428212,1165,1158,1232,1161,0,0,0,0,0,0,0,0,0,0
1681027507.29955196,104528172,1157,1150,1226,1153,0,0,0,0,0,0,0,0,0,0
1681027507.40034485,104628965,1157,1150,1226,1153,0,0,0,0,0,0,0,0,0,0
1681027507.50030494,104728925,1160,1150,1227,1155,0,0,0,0,0,0,0,0,0,0
1681027507.60026503,104828885,1185,1150,1224,1183,0,0,0,0,0,0,0,0,0,0
1681027507.70022488,104928845,1178,1150,1226,1175,0,0,0,0,0,0,0,0,0,0
1681027507.80018497,105028805,1176,1150,1226,1173,0,0,0,0,0,0,0,0,0,0
1681027507.90014505,105128765,1178,1150,1226,1174,0,0,0,0,0,0,0,0,0,0
1681027508.00010490,105228725,1180,1150,1226,1176,0,0,0,0,0,0,0,0,0,0
1681027508.10006499,105328685,1182,1150,1226,1178,0,0,0,0,0,0,0,0,0,0
1681027508.20002484,105428645,1184,1150,1226,1180,0,0,0,0,0,0,0,0,0,0
1681027508.29998493,105528605,1177,1150,1226,1173,0,0,0,0,0,0,0,0,0,0
1681027508.39994502,105628565,1169,1150,1225,1166,0,0,0,0,0,0,0,0,0,0
1681027508.49990487,105728525,1171,1150,1225,1168,0,0,0,0,0,0,0,0,0,0
1681027508.59986496,105828485,1172,1150,1225,1169,0,0,0,0,0,0,0,0,0,0
1681027508.69982505,105928445,1173,1150,1225,1169,0,0,0,0,0,0,0,0,0,0
1681027508.79978490,106028405,1150,1150,1050,1150,0,0,0,0,0,0,0,0,0,0
1681027508.89974499,106128365,1000,1000,1000,1000,0,0,0,0,0,0,0,0,0,0
1681027508.99970484,106228325,1000,1000,1000,1000,0,0,0,0,0,0,0,0,0,0
1681027509.09966493,106328285,1000,1000,1000,1000,0,0,0,0,0,0,0,0,0,0
1681027509.19962502,106428245,1000,1000,1000,1000,0,0,0,0,0,0,0,0,0,0
1681027509.29958487,106528205,1000,1000,1000,1000,0,0,0,0,0,0,0,0,0,0
1681027509.39954495,106628165,1000,1000,1000,1000,0,0,0,0,0,0,0,0,0,0
1681027509.50033784,106728958,1000,1000,1000,1000,0,0,0,0,0,0,0,0,0,0
1681027509.60029793,106828918,1000,1000,1000,1000,0,0,0,0,0,0,0,0,0,0
1681027509.70025802,106928878,1000,1000,1000,1000,0,0,0,0,0,0,0,0,0,0
1681027509.80021787,107028838,1000,1000,1000,1000,0,0,0,0,0,0,0,0,0,0
1681027509.90017796,107128798,1000,1000,1000,1000,0,0,0,0,0,0,0,0,0,0
1681027510.00013804,107228758,1000,1000,1000,1000,0,0,0,0,0,0,0,0,0,0
1681027510.10009789,107328718,1000,1000,1000,1000,0,0,0,0,0,0,0,0,0,0
1681027510.20005798,107428678,1000,1000,1000,1000,0,0,0,0,0,0,0,0,0,0
1681027510.30001783,107528638,1000,1000,1000,1000,0,0,0,0,0,0,0,0,0,0
1681027510.39997792,107628598,1000,1000,1000,1000,0,0,0,0,0,0,0,0,0,0
1681027510.49993801,107728558,1000,1000,1000,1000,0,0,0,0,0,0,0,0,0,0
1681027510.59989786,107828518,1000,1000,1000,1000,0,0,0,0,0,0,0,0,0,0
1681027510.69985795,107928478,1000,1000,1000,1000,0,0,0,0,0,0,0,0,0,0
1681027510.79981804,108028438,1000,1000,1000,1000,0,0,0,0,0,0,0,0,0,0
1681027510.89977789,108128398,1000,1000,1000,1000,0,0,0,0,0,0,0,0,0,0
1681027510.99973798,108228358,1000,1000,1000,1000,0,0,0,0,0,0,0,0,0,0
1681027511.09969807,108328318,1000,1000,1000,1000,0,0,0,0,0,0,0,0,0,0
1681027511.19965792,108428278,1000,1000,1000,1000,0,0,0,0,0,0,0,0,0,0
1681027511.29961801,108528238,1000,1000,1000,1000,0,0,0,0,0,0,0,0,0,0
1681027511.39957786,108628198,1000,1000,1000,1000,0,0,0,0,0,0,0,0,0,0
1681027511.49953794,108728158,1000,1000,1000,1000,0,0,0,0,0,0,0,0,0,0
1681027511.60033083,108828951,1000,1000,1000,1000,0,0,0,0,0,0,0,0,0,0
1681027511.70029092,108928911,1000,1000,1000,1000,0,0,0,0,0,0,0,0,0,0
1681027511.80025101,109028871,1000,1000,1000,1000,0,0,0,0,0,0,0,0,0,0
1681027511.90021086,109128831,1000,1000,1000,1000,0,0,0,0,0,0,0,0,0,0
1681027512.00017095,109228791,1000,1000,1000,1000,0,0,0,0,0,0,0,0,0,0
1681027512.10013103,109328751,1000,1000,1000,1000,0,0,0,0,0,0,0,0,0,0
1681027512.20009089,109428711,1000,1000,1000,1000,0,0,0,0,0,0,0,0,0,0
1681027512.30005097,109528671,1000,1000,1000,1000,0,0,0,0,0,0,0,0,0,0
1681027512.40001106,109628631,1000,1000,1000,1000,0,0,0,0,0,0,0,0,0,0
1681027512.49997091,109728591,1000,1000,1000,1000,0,0,0,0,0,0,0,0,0,0
1681027512.59993100,109828551,1000,1000,1000,1000,0,0,0,0,0,0,0,0,0,0
1681027512.69989085,109928511,1000,1000,1000,1000,0,0,0,0,0,0,0,0,0,0
1681027512.79985094,110028471,1000,1000,1000,1000,0,0,0,0,0,0,0,0,0,0
1681027512.89981103,110128431,1000,1000,1000,1000,0,0,0,0,0,0,0,0,0,0
1681027512.99977088,110228391,1000,1000,1000,1000,0,0,0,0,0,0,0,0,0,0
1681027513.09973097,110328351,1000,1000,1000,1000,0,0,0,0,0,0,0,0,0,0
1681027513.19969106,110428311,1000,1000,1000,1000,0,0,0,0,0,0,0,0,0,0
1681027513.29965091,110528271,1000,1000,1000,1000,0,0,0,0,0,0,0,0,0,0
1681027513.39961100,110628231,1000,1000,1000,1000,0,0,0,0,0,0,0,0,0,0
1681027513.49957085,110728191,1000,1000,1000,1000,0,0,0,0,0,0,0,0,0,0
1681027513.60036397,110828984,1000,1000,1000,1000,0,0,0,0,0,0,0,0,0,0
1681027513.70032406,110928944,1000,1000,1000,1000,0,0,0,0,0,0,0,0,0,0
1681027513.80028391,111028904,1000,1000,1000,1000,0,0,0,0,0,0,0,0,0,0
1681027513.90024400,111128864,1000,1000,1000,1000,0,0,0,0,0,0,0,0,0,0
1681027514.00020385,111228824,1000,1000,1000,1000,0,0,0,0,0,0,0,0,0,0
1681027514.10016394,111328784,1000,1000,1000,1000,0,0,0,0,0,0,0,0,0,0
1681027514.20012403,111428744,1000,1000,1000,1000,0,0,0,0,0,0,0,0,0,0
1681027514.30008388,111528704,1000,1000,1000,1000,0,0,0,0,0,0,0,0,0,0
1681027514.40004396,111628664,1000,1000,1000,1000,0,0,0,0,0,0,0,0,0,0
1681027514.50000405,111728624,1000,1000,1000,1000,0,0,0,0,0,0,0,0,0,0
1681027514.59996390,111828584,1000,1000,1000,1000,0,0,0,0,0,0,0,0,0,0
1681027514.69992399,111928544,1000,1000,1000,1000,0,0,0,0,0,0,0,0,0,0
1681027514.79988384,112028504,1000,1000,1000,1000,0,0,0,0,0,0,0,0,0,0
1681027514.89984393,112128464,1000,1000,1000,1000,0,0,0,0,0,0,0,0,0,0
1681027514.99980402,112228424,1000,1000,1000,1000,0,0,0,0,0,0,0,0,0,0
1681027515.09976387,112328384,1000,1000,1000,1000,0,0,0,0,0,0,0,0,0,0
1681027515.19972396,112428344,1000,1000,1000,1000,0,0,0,0,0,0,0,0,0,0
1681027515.29968405,112528304,1000,1000,1000,1000,0,0,0,0,0,0,0,0,0,0
1681027515.39964390,112628264,1000,1000,1000,1000,0,0,0,0,0,0,0,0,0,0
1681027515.49960399,112728224,1000,1000,1000,1000,0,0,0,0,0,0,0,0,0,0
1681027515.59956384,112828184,1000,1000,1000,1000,0,0,0,0,0,0,0,0,0,0
1681027515.70035696,112928977,1000,1000,1000,1000,0,0,0,0,0,0,0,0,0,0
1681027515.80031705,113028937,1000,1000,1000,1000,0,0,0,0,0,0,0,0,0,0
1681027515.90027690,113128897,1000,1000,1000,1000,0,0,0,0,0,0,0,0,0,0
1681027516.00023699,113228857,1000,1000,1000,1000,0,0,0,0,0,0,0,0,0,0
1681027516.10019684,113328817,1000,1000,1000,1000,0,0,0,0,0,0,0,0,0,0
1681027516.20015693,113428777,1000,1000,1000,1000,0,0,0,0,0,0,0,0,0,0
1681027516.30011702,113528737,1000,1000,1000,1000,0,0,0,0,0,0,0,0,0,0
1681027516.40007687,113628697,1000,1000,1000,1000,0,0,0,0,0,0,0,0,0,0
1681027516.50003695,113728657,1000,1000,1000,1000,0,0,0,0,0,0,0,0,0,0
1681027516.59999704,113828617,1000,1000,1000,1000,0,0,0,0,0,0,0,0,0,0
1681027516.69995689,113928577,1000,1000,1000,1000,0,0,0,0,0,0,0,0,0,0
1681027516.79991698,114028537,1000,1000,1000,1000,0,0,0,0,0,0,0,0,0,0
1681027516.89987683,114128497,1000,1000,1000,1000,0,0,0,0,0,0,0,0,0,0
1681027516.99983692,114228457,1000,1000,1000,1000,0,0,0,0,0,0,0,0,0,0
1681027517.09979701,114328417,1000,1000,1000,1000,0,0,0,0,0,0,0,0,0,0
1681027517.19975686,114428377,1000,1000,1000,1000,0,0,0,0,0,0,0,0,0,0
1681027517.29971695,114528337,1000,1000,1000,1000,0,0,0,0,0,0,0,0,0,0
1681027517.39967704,114628297,1000,1000,1000,1000,0,0,0,0,0,0,0,0,0,0
1681027517.49963689,114728257,1000,1000,1000,1000,0,0,0,0,0,0,0,0,0,0
1681027517.59959698,114828217,1000,1000,1000,1000,0,0,0,0,0,0,0,0,0,0
1681027517.69955707,114928177,1000,1000,1000,1000,0,0,0,0,0,0,0,0,0,0
1681027517.80034995,115028970,1000,1000,1000,1000,0,0,0,0,0,0,0,0,0,0
1681027517.90031004,115128930,1000,1000,1000,1000,0,0,0,0,0,0,0,0,0,0
1681027518.00026989,115228890,1000,1000,1000,1000,0,0,0,0,0,0,0,0,0,0
1681027518.10022998,115328850,1000,1000,1000,1000,0,0,0,0,0,0,0,0,0,0
1681027518.20018983,115428810,1000,1000,1000,1000,0,0,0,0,0,0,0,0,0,0
1681027518.30014992,115528770,1000,1000,1000,1000,0,0,0,0,0,0,0,0,0,0
1681027518.40011001,115628730,1000,1000,1000,1000,0,0,0,0,0,0,0,0,0,0
1681027518.50006986,115728690,1000,1000,1000,1000,0,0,0,0,0,0,0,0,0,0
1681027518.60002995,115828650,1000,1000,1000,1000,0,0,0,0,0,0,0,0,0,0
1681027518.69999003,115928610,1000,1000,1000,1000,0,0,0,0,0,0,0,0,0,0
1681027518.79994988,116028570,1000,1000,1000,1000,0,0,0,0,0,0,0,0,0,0
1681027518.89990997,116128530,1000,1000,1000,1000,0,0,0,0,0,0,0,0,0,0
1681027518.99987006,116228490,1000,1000,1000,1000,0,0,0,0,0,0,0,0,0,0
1681027519.09982991,116328450,1000,1000,1000,1000,0,0,0,0,0,0,0,0,0,0
1681027519.19979000,116428410,1000,1000,1000,1000,0,0,0,0,0,0,0,0,0,0
1681027519.29974985,116528370,1000,1000,1000,1000,0,0,0,0,0,0,0,0,0,0
1681027519.39970994,116628330,1000,1000,1000,1000,0,0,0,0,0,0,0,0,0,0
1681027519.49967003,116728290,1000,1000,1000,1000,0,0,0,0,0,0,0,0,0,0
1681027519.59962988,116828250,1000,1000,1000,1000,0,0,0,0,0,0,0,0,0,0
1681027519.69958997,116928210,1000,1000,1000,1000,0,0,0,0,0,0,0,0,0,0
1681027519.79955006,117028170,1000,1000,1000,1000,0,0,0,0,0,0,0,0,0,0
1681027519.90034294,117128963,1000,1000,1000,1000,0,0,0,0,0,0,0,0,0,0
1681027520.00030303,117228923,1000,1000,1000,1000,0,0,0,0,0,0,0,0,0,0
1681027520.10026288,117328883,1000,1000,1000,1000,0,0,0,0,0,0,0,0,0,0
1681027520.20022297,117428843,1000,1000,1000,1000,0,0,0,0,0,0,0,0,0,0
1681027520.30018306,117528803,1000,1000,1000,1000,0,0,0,0,0,0,0,0,0,0
1681027520.40014291,117628763,1000,1000,1000,1000,0,0,0,0,0,0,0,0,0,0
1681027520.50010300,117728723,1000,1000,1000,1000,0,0,0,0,0,0,0,0,0,0
1681027520.60006285,117828683,1000,1000,1000,1000,0,0,0,0,0,0,0,0,0,0
1681027520.70002294,117928643,1000,1000,1000,1000,0,0,0,0,0,0,0,0,0,0
1681027520.79998302,118028603,1000,1000,1000,1000,0,0,0,0,0,0,0,0,0,0
1681027520.89994287,118128563,1000,1000,1000,1000,0,0,0,0,0,0,0,0,0,0
1681027520.99990296,118228523,1000,1000,1000,1000,0,0,0,0,0,0,0,0,0,0
1681027521.09986305,118328483,1000,1000,1000,1000,0,0,0,0,0,0,0,0,0,0
1681027521.19982290,118428443,1000,1000,1000,1000,0,0,0,0,0,0,0,0,0,0
1681027521.29978299,118528403,1000,1000,1000,1000,0,0,0,0,0,0,0,0,0,0
1681027521.39974284,118628363,1000,1000,1000,1000,0,0,0,0,0,0,0,0,0,0
1681027521.49970293,118728323,1000,1000,1000,1000,0,0,0,0,0,0,0,0,0,0
1681027521.59966302,118828283,1000,1000,1000,1000,0,0,0,0,0,0,0,0,0,0
1681027521.69962287,118928243,1000,1000,1000,1000,0,0,0,0,0,0,0,0,0,0
1681027521.79958296,119028203,1000,1000,1000,1000,0,0,0,0,0,0,0,0,0,0
1681027521.89954305,119128163,1000,1000,1000,1000,0,0,0,0,0,0,0,0,0,0
1681027522.00033593,119228956,1000,1000,1000,1000,0,0,0,0,0,0,0,0,0,0
1681027522.10029602,119328916,1000,1000,1000,1000,0,0,0,0,0,0,0,0,0,0
1681027522.20025587,119428876,1000,1000,1000,1000,0,0,0,0,0,0,0,0,0,0
1681027522.30021596,119528836,1000,1000,1000,1000,0,0,0,0,0,0,0,0,0,0
1681027522.40017605,119628796,1000,1000,1000,1000,0,0,0,0,0,0,0,0,0,0
1681027522.50013590,119728756,1000,1000,1000,1000,0,0,0,0,0,0,0,0,0,0
1681027522.60009599,119828716,1000,1000,1000,1000,0,0,0,0,0,0,0,0,0,0
1681027522.70005584,119928676,1000,1000,1000,1000,0,0,0,0,0,0,0,0,0,0
1681027522.80001593,120028636,1000,1000,1000,1000,0,0,0,0,0,0,0,0,0,0
1681027522.89997602,120128596,1000,1000,1000,1000,0,0,0,0,0,0,0,0,0,0
1681027522.99993587,120228556,1000,1000,1000,1000,0,0,0,0,0,0,0,0,0,0
1681027523.09989595,120328516,1000,1000,1000,1000,0,0,0,0,0,0,0,0,0,0
1681027523.19985604,120428476,1000,1000,1000,1000,0,0,0,0,0,0,0,0,0,0
1681027523.29981589,120528436,1000,1000,1000,1000,0,0,0,0,0,0,0,0,0,0
1681027523.39977598,120628396,1000,1000,1000,1000,0,0,0,0,0,0,0,0,0,0
1681027523.49973583,120728356,1000,1000,1000,1000,0,0,0,0,0,0,0,0,0,0
1681027523.59969592,120828316,1000,1000,1000,1000,0,0,0,0,0,0,0,0,0,0
1681027523.69965601,120928276,1000,1000,1000,1000,0,0,0,0,0,0,0,0,0,0
1681027523.79961586,121028236,1000,1000,1000,1000,0,0,0,0,0,0,0,0,0,0
