TimeUS,M1,M2,M3,M4,TimeUS,C1,C2,C3,C4
55681052,1000,1000,1000,1000,55728533,1000,1000,1000,1000
55683551,1000,1000,1000,1000,55828493,1000,1000,1000,1000
55686050,1000,1000,1000,1000,55928453,1000,1000,1000,1000
55688549,1000,1000,1000,1000,56028413,1000,1000,1000,1000
55691048,1000,1000,1000,1000,56128373,1000,1000,1000,1000
55693547,1000,1000,1000,1000,56228333,1000,1000,1000,1000
55696046,1000,1000,1000,1000,56328293,1000,1000,1000,1000
55698545,1000,1000,1000,1000,56428253,1000,1000,1000,1000
55701044,1000,1000,1000,1000,56528213,1000,1000,1000,1000
55703543,1000,1000,1000,1000,56628173,1000,1000,1000,1000
55706042,1000,1000,1000,1000,56728966,1000,1000,1000,1000
55708541,1000,1000,1000,1000,56828926,1000,1000,1000,1000
55711040,1000,1000,1000,1000,56928886,1000,1000,1000,1000
55713539,1000,1000,1000,1000,57028846,1000,1000,1000,1000
55716038,1000,1000,1000,1000,57128806,1000,1000,1000,1000
55718537,1000,1000,1000,1000,57228766,1000,1000,1000,1000
55721036,1000,1000,1000,1000,57328726,1000,1000,1000,1000
55723535,1000,1000,1000,1000,57428686,1000,1000,1000,1000
55726034,1000,1000,1000,1000,57528646,1000,1000,1000,1000
55728533,1000,1000,1000,1000,57628606,1000,1000,1000,1000
55731032,1000,1000,1000,1000,57728566,1014,1014,1014,1014
55733531,1000,1000,1000,1000,57828526,1044,1044,1044,1044
55736030,1000,1000,1000,1000,57928486,1074,1074,1074,1074
55738529,1000,1000,1000,1000,58028446,1104,1104,1104,1104
55741028,1000,1000,1000,1000,58128406,1134,1134,1134,1134
55743527,1000,1000,1000,1000,58228366,1282,1274,1275,1282
55746026,1000,1000,1000,1000,58328326,1491,1484,1485,1491
55748525,1000,1000,1000,1000,58428286,1652,1647,1648,1652
55751024,1000,1000,1000,1000,58528246,1789,1784,1785,1789
55753523,1000,1000,1000,1000,58628206,1842,1837,1837,1842
55756022,1000,1000,1000,1000,58728166,1857,1854,1854,1857
55758521,1000,1000,1000,1000,58828959,1743,1742,1742,1743
55761020,1000,1000,1000,1000,58928919,1646,1642,1643,1646
55763519,1000,1000,1000,1000,59028879,1613,1615,1610,1617
55766018,1000,1000,1000,1000,59128839,1622,1625,1621,1627
55768517,1000,1000,1000,1000,59228799,1636,1638,1637,1638
55771016,1000,1000,1000,1000,59328759,1641,1642,1643,1640
55773515,1000,1000,1000,1000,59428719,1638,1638,1640,1636
55776014,1000,1000,1000,1000,59528679,1632,1631,1634,1629
55778513,1000,1000,1000,1000,59628639,1629,1627,1630,1626
55781012,1000,1000,1000,1000,59728599,1627,1626,1628,1625
55783511,1000,1000,1000,1000,59828559,1627,1627,1627,1626
55786010,1000,1000,1000,1000,59928519,1613,1613,1614,1612
55788509,1000,1000,1000,1000,60028479,1589,1590,1596,1583
55791008,1000,1000,1000,1000,60128439,1576,1577,1580,1573
55793507,1000,1000,1000,1000,60228399,1565,1565,1564,1565
55796006,1000,1000,1000,1000,60328359,1557,1556,1553,1560
55798505,1000,1000,1000,1000,60428319,1550,1550,1544,1556
55801004,1000,1000,1000,1000,60528279,1544,1543,1535,1552
55803503,1000,1000,1000,1000,60628239,1538,1538,1532,1543
55806002,1000,1000,1000,1000,60728199,1533,1532,1530,1535
55808501,1000,1000,1000,1000,60828159,1528,1528,1529,1528
55811000,1000,1000,1000,1000,60928952,1529,1528,1530,1526
55813499,1000,1000,1000,1000,61028912,1530,1530,1533,1527
55815998,1000,1000,1000,1000,61128872,1533,1532,1535,1530
55818497,1000,1000,1000,1000,61228832,1536,1537,1539,1535
55820996,1000,1000,1000,1000,61328792,1538,1539,1540,1538
55823495,1000,1000,1000,1000,61428752,1542,1542,1543,1542
55825994,1000,1000,1000,1000,61528712,1546,1546,1546,1546
55828493,1000,1000,1000,1000,61628672,1549,1550,1550,1550
55830992,1000,1000,1000,1000,61728632,1552,1552,1552,1553
55833491,1000,1000,1000,1000,61828592,1554,1554,1553,1555
55835990,1000,1000,1000,1000,61928552,1556,1555,1557,1559
55838489,1000,1000,1000,1000,62028512,1555,1555,1560,1562
55840988,1000,1000,1000,1000,62128472,1556,1557,1562,1563
55843487,1000,1000,1000,1000,62228432,1559,1559,1564,1564
55845986,1000,1000,1000,1000,62328392,1561,1561,1565,1564
55848485,1000,1000,1000,1000,62428352,1563,1563,1565,1564
55850984,1000,1000,1000,1000,62528312,1566,1566,1566,1565
55853483,1000,1000,1000,1000,62628272,1568,1568,1567,1566
55855982,1000,1000,1000,1000,62728232,1570,1570,1567,1568
55858481,1000,1000,1000,1000,62828192,1571,1571,1567,1568
55860980,1000,1000,1000,1000,62928985,1572,1571,1568,1568
55863479,1000,1000,1000,1000,63028945,1572,1572,1569,1569
55865978,1000,1000,1000,1000,63128905,1573,1572,1570,1569
55868477,1000,1000,1000,1000,63228865,1573,1573,1571,1570
55870976,1000,1000,1000,1000,63328825,1573,1573,1572,1571
55873475,1000,1000,1000,1000,63428785,1573,1574,1573,1572
55875974,1000,1000,1000,1000,63528745,1575,1575,1575,1574
55878473,1000,1000,1000,1000,63628705,1574,1575,1575,1574
55880972,1000,1000,1000,1000,63728665,1575,1575,1576,1576
55883471,1000,1000,1000,1000,63828625,1575,1575,1576,1576
55885970,1000,1000,1000,1000,63928585,1576,1576,1577,1577
55888469,1000,1000,1000,1000,64028545,1576,1575,1576,1576
55890968,1000,1000,1000,1000,64128505,1576,1575,1576,1576
55893467,1000,1000,1000,1000,64228465,1576,1576,1576,1576
55895966,1000,1000,1000,1000,64328425,1576,1576,1576,1576
55898465,1000,1000,1000,1000,64428385,1577,1578,1578,1577
55900964,1000,1000,1000,1000,64528345,1577,1577,1577,1577
55903463,1000,1000,1000,1000,64628305,1578,1577,1578,1577
55905962,1000,1000,1000,1000,64728265,1578,1578,1578,1578
55908461,1000,1000,1000,1000,64828225,1578,1578,1578,1577
55910960,1000,1000,1000,1000,64928185,1577,1577,1577,1577
55913459,1000,1000,1000,1000,65028978,1577,1577,1577,1576
55915958,1000,1000,1000,1000,65128938,1577,1578,1577,1577
55918457,1000,1000,1000,1000,65228898,1578,1578,1578,1578
55920956,1000,1000,1000,1000,65328858,1579,1579,1579,1579
55923455,1000,1000,1000,1000,65428818,1578,1578,1579,1578
55925954,1000,1000,1000,1000,65528778,1578,1578,1578,1578
55928453,1000,1000,1000,1000,65628738,1578,1578,1578,1578
55930952,1000,1000,1000,1000,65728698,1579,1579,1580,1579
55933451,1000,1000,1000,1000,65828658,1579,1580,1580,1579
55935950,1000,1000,1000,1000,65928618,1578,1579,1579,1579
55938449,1000,1000,1000,1000,66028578,1579,1579,1579,1580
55940948,1000,1000,1000,1000,66128538,1580,1580,1580,1580
55943447,1000,1000,1000,1000,66228498,1580,1579,1580,1579
55945946,1000,1000,1000,1000,66328458,1579,1579,1579,1579
55948445,1000,1000,1000,1000,66428418,1580,1580,1580,1580
55950944,1000,1000,1000,1000,66528378,1580,1580,1580,1580
55953443,1000,1000,1000,1000,66628338,1580,1580,1580,1580
55955942,1000,1000,1000,1000,66728298,1581,1580,1581,1581
55958441,1000,1000,1000,1000,66828258,1579,1580,1580,1579
55960940,1000,1000,1000,1000,66928218,1580,1580,1580,1580
55963439,1000,1000,1000,1000,67028178,1580,1580,1580,1580
55965938,1000,1000,1000,1000,67128971,1579,1580,1580,1580
55968437,1000,1000,1000,1000,67228931,1580,1580,1580,1580
55970936,1000,1000,1000,1000,67328891,1580,1581,1580,1581
55973435,1000,1000,1000,1000,67428851,1581,1581,1581,1581
55975934,1000,1000,1000,1000,67528811,1580,1580,1580,1580
55978433,1000,1000,1000,1000,67628771,1580,1580,1580,1580
55980932,1000,1000,1000,1000,67728731,1580,1581,1581,1581
55983431,1000,1000,1000,1000,67828691,1581,1581,1581,1581
55985930,1000,1000,1000,1000,67928651,1581,1581,1581,1581
55988429,1000,1000,1000,1000,68028611,1582,1581,1582,1581
55990928,1000,1000,1000,1000,68128571,1581,1582,1587,1576
55993427,1000,1000,1000,1000,68228531,1581,1583,1588,1573
55995926,1000,1000,1000,1000,68328491,1579,1583,1580,1574
55998425,1000,1000,1000,1000,68428451,1577,1580,1570,1572
56000924,1000,1000,1000,1000,68528411,1577,1579,1563,1570
56003423,1000,1000,1000,1000,68628371,1577,1578,1558,1565
56005922,1000,1000,1000,1000,68728331,1578,1578,1555,1560
56008421,1000,1000,1000,1000,68828291,1579,1577,1555,1556
56010920,1000,1000,1000,1000,68928251,1579,1578,1555,1554
56013419,1000,1000,1000,1000,69028211,1579,1578,1556,1554
56015918,1000,1000,1000,1000,69128171,1578,1579,1557,1554
56018417,1000,1000,1000,1000,69228964,1576,1577,1556,1554
56020916,1000,1000,1000,1000,69328924,1576,1577,1555,1555
56023415,1000,1000,1000,1000,69428884,1576,1577,1554,1554
56025914,1000,1000,1000,1000,69528844,1576,1577,1552,1553
56028413,1000,1000,1000,1000,69628804,1577,1578,1551,1551
56030912,1000,1000,1000,1000,69728764,1579,1580,1550,1550
56033411,1000,1000,1000,1000,69828724,1580,1581,1547,1546
56035910,1000,1000,1000,1000,69928684,1583,1584,1543,1544
56038409,1000,1000,1000,1000,70028644,1587,1587,1542,1541
56040908,1000,1000,1000,1000,70128604,1589,1590,1538,1538
56043407,1000,1000,1000,1000,70228564,1591,1592,1536,1536
56045906,1000,1000,1000,1000,70328524,1595,1595,1536,1536
56048405,1000,1000,1000,1000,70428484,1594,1594,1534,1535
56050904,1000,1000,1000,1000,70528444,1595,1595,1535,1537
56053403,1000,1000,1000,1000,70628404,1593,1593,1538,1540
56055902,1000,1000,1000,1000,70728364,1590,1589,1542,1545
56058401,1000,1000,1000,1000,70828324,1585,1583,1550,1552
56060900,1000,1000,1000,1000,70928284,1577,1574,1558,1561
56063399,1000,1000,1000,1000,71028244,1568,1564,1570,1572
56065898,1000,1000,1000,1000,71128204,1556,1553,1582,1584
56068397,1000,1000,1000,1000,71228164,1545,1543,1595,1595
56070896,1000,1000,1000,1000,71328957,1536,1534,1604,1604
56073395,1000,1000,1000,1000,71428917,1531,1532,1612,1612
56075894,1000,1000,1000,1000,71528877,1528,1530,1616,1614
56078393,1000,1000,1000,1000,71628837,1530,1532,1615,1614
56080892,1000,1000,1000,1000,71728797,1535,1537,1611,1611
56083391,1000,1000,1000,1000,71828757,1542,1544,1606,1606
56085890,1000,1000,1000,1000,71928717,1550,1552,1598,1598
56088389,1000,1000,1000,1000,72028677,1560,1560,1591,1591
56090888,1000,1000,1000,1000,72128637,1570,1569,1585,1584
56093387,1000,1000,1000,1000,72228597,1577,1577,1579,1578
56095886,1000,1000,1000,1000,72328557,1583,1582,1573,1573
56098385,1000,1000,1000,1000,72428517,1586,1585,1569,1568
56100884,1000,1000,1000,1000,72528477,1589,1587,1568,1567
56103383,1000,1000,1000,1000,72628437,1588,1587,1567,1566
56105882,1000,1000,1000,1000,72728397,1587,1586,1567,1568
56108381,1000,1000,1000,1000,72828357,1584,1584,1569,1569
56110880,1000,1000,1000,1000,72928317,1582,1582,1572,1573
56113379,1000,1000,1000,1000,73028277,1579,1579,1575,1576
56115878,1000,1000,1000,1000,73128237,1576,1576,1578,1578
56118377,1000,1000,1000,1000,73228197,1575,1575,1582,1581
56120876,1000,1000,1000,1000,73328157,1574,1574,1584,1583
56123375,1000,1000,1000,1000,73428950,1575,1575,1457,1565
56125874,1000,1000,1000,1000,73528910,1595,1595,1531,1549
56128373,1000,1000,1000,1000,73628870,1606,1607,1582,1554
56130872,1000,1000,1000,1000,73728830,1617,1619,1622,1575
56133371,1000,1000,1000,1000,73828790,1621,1624,1645,1598
56135870,1000,1000,1000,1000,73928750,1613,1616,1646,1615
56138369,1000,1000,1000,1000,74028710,1598,1600,1633,1624
56140868,1000,1000,1000,1000,74128670,1581,1581,1613,1624
56143367,1000,1000,1000,1000,74228630,1569,1567,1597,1620
56145866,1000,1000,1000,1000,74328590,1564,1560,1588,1612
56148365,1000,1000,1000,1000,74428550,1562,1557,1585,1602
56150864,1000,1000,1000,1000,74528510,1563,1559,1585,1592
56153363,1000,1000,1000,1000,74628470,1565,1564,1585,1584
56155862,1000,1000,1000,1000,74728430,1569,1570,1583,1578
56158361,1000,1000,1000,1000,74828390,1572,1575,1580,1574
56160860,1000,1000,1000,1000,74928350,1575,1579,1576,1572
56163359,1000,1000,1000,1000,75028310,1579,1582,1572,1571
56165858,1000,1000,1000,1000,75128270,1579,1581,1566,1568
56168357,1000,1000,1000,1000,75228230,1581,1581,1564,1567
56170856,1000,1000,1000,1000,75328190,1581,1581,1563,1566
56173355,1000,1000,1000,1000,75428983,1581,1580,1564,1566
56175854,1000,1000,1000,1000,75528943,1580,1578,1565,1566
56178353,1000,1000,1000,1000,75628903,1579,1578,1568,1568
56180852,1000,1000,1000,1000,75728863,1577,1576,1570,1569
56183351,1000,1000,1000,1000,75828823,1576,1576,1573,1571
56185850,1000,1000,1000,1000,75928783,1575,1576,1575,1575
56188349,1000,1000,1000,1000,76028743,1574,1575,1577,1577
56190848,1000,1000,1000,1000,76128703,1572,1574,1581,1573
56193347,1000,1000,1000,1000,76228663,1572,1576,1585,1570
56195846,1000,1000,1000,1000,76328623,1571,1576,1579,1570
56198345,1000,1000,1000,1000,76428583,1571,1576,1570,1570
56200844,1000,1000,1000,1000,76528543,1571,1573,1561,1568
56203343,1000,1000,1000,1000,76628503,1573,1574,1555,1564
56205842,1000,1000,1000,1000,76728463,1576,1575,1552,1558
56208341,1000,1000,1000,1000,76828423,1578,1576,1550,1553
56210840,1000,1000,1000,1000,76928383,1580,1578,1550,1551
56213339,1000,1000,1000,1000,77028343,1582,1580,1552,1550
56215838,1000,1000,1000,1000,77128303,1580,1579,1551,1548
56218337,1000,1000,1000,1000,77228263,1579,1580,1551,1549
56220836,1000,1000,1000,1000,77328223,1578,1580,1552,1551
56223335,1000,1000,1000,1000,77428183,1577,1580,1552,1551
56225834,1000,1000,1000,1000,77528976,1578,1579,1551,1552
56228333,1000,1000,1000,1000,77628936,1578,1579,1550,1551
56230832,1000,1000,1000,1000,77728896,1578,1579,1549,1550
56233331,1000,1000,1000,1000,77828856,1579,1580,1548,1548
56235830,1000,1000,1000,1000,77928816,1581,1581,1547,1548
56238329,1000,1000,1000,1000,78028776,1582,1583,1546,1546
56240828,1000,1000,1000,1000,78128736,1584,1584,1545,1546
56243327,1000,1000,1000,1000,78228696,1586,1587,1545,1546
56245826,1000,1000,1000,1000,78328656,1588,1588,1544,1545
56248325,1000,1000,1000,1000,78428616,1589,1589,1544,1545
56250824,1000,1000,1000,1000,78528576,1589,1589,1545,1548
56253323,1000,1000,1000,1000,78628536,1588,1586,1549,1551
56255822,1000,1000,1000,1000,78728496,1584,1581,1554,1556
56258321,1000,1000,1000,1000,78828456,1578,1575,1562,1563
56260820,1000,1000,1000,1000,78928416,1571,1567,1570,1572
56263319,1000,1000,1000,1000,79028376,1563,1560,1580,1581
56265818,1000,1000,1000,1000,79128336,1555,1554,1590,1589
56268317,1000,1000,1000,1000,79228296,1548,1549,1597,1596
56270816,1000,1000,1000,1000,79328256,1545,1546,1602,1601
56273315,1000,1000,1000,1000,79428216,1544,1546,1605,1603
56275814,1000,1000,1000,1000,79528176,1546,1547,1605,1604
56278313,1000,1000,1000,1000,79628969,1548,1549,1603,1602
56280812,1000,1000,1000,1000,79728929,1552,1553,1601,1600
56283311,1000,1000,1000,1000,79828889,1557,1558,1599,1597
56285810,1000,1000,1000,1000,79928849,1561,1561,1595,1594
56288309,1000,1000,1000,1000,80028809,1565,1565,1590,1589
56290808,1000,1000,1000,1000,80128769,1569,1569,1585,1585
56293307,1000,1000,1000,1000,80228729,1572,1573,1580,1580
56295806,1000,1000,1000,1000,80328689,1577,1577,1575,1576
56298305,1000,1000,1000,1000,80428649,1580,1580,1572,1573
56300804,1000,1000,1000,1000,80528609,1583,1582,1570,1571
56303303,1000,1000,1000,1000,80628569,1584,1583,1569,1570
56305802,1000,1000,1000,1000,80728529,1584,1584,1570,1570
56308301,1000,1000,1000,1000,80828489,1583,1583,1571,1571
56310800,1000,1000,1000,1000,80928449,1581,1580,1572,1572
56313299,1000,1000,1000,1000,81028409,1579,1579,1574,1574
56315798,1000,1000,1000,1000,81128369,1579,1579,1578,1578
56318297,1000,1000,1000,1000,81228329,1577,1578,1580,1580
56320796,1000,1000,1000,1000,81328289,1575,1576,1581,1581
56323295,1000,1000,1000,1000,81428249,1574,1574,1582,1581
56325794,1000,1000,1000,1000,81528209,1573,1573,1582,1582
56328293,1000,1000,1000,1000,81628169,1574,1574,1583,1582
56330792,1000,1000,1000,1000,81728962,1575,1575,1582,1582
56333291,1000,1000,1000,1000,81828922,1576,1576,1582,1582
56335790,1000,1000,1000,1000,81928882,1577,1577,1582,1582
56338289,1000,1000,1000,1000,82028842,1577,1578,1581,1581
56340788,1000,1000,1000,1000,82128802,1579,1579,1581,1580
56343287,1000,1000,1000,1000,82228762,1580,1580,1580,1580
56345786,1000,1000,1000,1000,82328722,1580,1580,1579,1579
56348285,1000,1000,1000,1000,82428682,1581,1581,1579,1579
56350784,1000,1000,1000,1000,82528642,1581,1581,1578,1579
56353283,1000,1000,1000,1000,82628602,1581,1581,1579,1578
56355782,1000,1000,1000,1000,82728562,1582,1582,1579,1579
56358281,1000,1000,1000,1000,82828522,1582,1582,1580,1580
56360780,1000,1000,1000,1000,82928482,1580,1580,1579,1579
56363279,1000,1000,1000,1000,83028442,1580,1581,1580,1580
56365778,1000,1000,1000,1000,83128402,1579,1580,1579,1580
56368277,1000,1000,1000,1000,83228362,1580,1580,1580,1580
56370776,1000,1000,1000,1000,83328322,1579,1579,1580,1580
56373275,1000,1000,1000,1000,83428282,1578,1579,1580,1580
56375774,1000,1000,1000,1000,83528242,1580,1580,1581,1582
56378273,1000,1000,1000,1000,83628202,1580,1580,1581,1581
56380772,1000,1000,1000,1000,83728162,1580,1580,1581,1581
56383271,1000,1000,1000,1000,83828955,1581,1581,1582,1581
56385770,1000,1000,1000,1000,83928915,1580,1581,1581,1581
56388269,1000,1000,1000,1000,84028875,1582,1582,1582,1582
56390768,1000,1000,1000,1000,84128835,1581,1581,1581,1581
56393267,1000,1000,1000,1000,84228795,1582,1582,1582,1582
56395766,1000,1000,1000,1000,84328755,1582,1583,1587,1576
56398265,1000,1000,1000,1000,84428715,1581,1584,1587,1573
56400764,1000,1000,1000,1000,84528675,1579,1583,1580,1572
56403263,1000,1000,1000,1000,84628635,1578,1582,1572,1573
56405762,1000,1000,1000,1000,84728595,1578,1580,1564,1570
56408261,1000,1000,1000,1000,84828555,1578,1579,1559,1566
56410760,1000,1000,1000,1000,84928515,1579,1578,1555,1561
56413259,1000,1000,1000,1000,85028475,1579,1578,1554,1556
56415758,1000,1000,1000,1000,85128435,1579,1577,1553,1553
56418257,1000,1000,1000,1000,85228395,1579,1578,1554,1552
56420756,1000,1000,1000,1000,85328355,1579,1579,1555,1553
56423255,1000,1000,1000,1000,85428315,1576,1578,1554,1552
56425754,1000,1000,1000,1000,85528275,1576,1577,1554,1553
56428253,1000,1000,1000,1000,85628235,1575,1577,1553,1553
56430752,1000,1000,1000,1000,85728195,1574,1577,1551,1551
56433251,1000,1000,1000,1000,85828155,1576,1578,1551,1551
56435750,1000,1000,1000,1000,85928948,1577,1577,1548,1548
56438249,1000,1000,1000,1000,86028908,1580,1581,1548,1548
56440748,1000,1000,1000,1000,86128868,1582,1582,1545,1545
56443247,1000,1000,1000,1000,86228828,1585,1585,1543,1543
56445746,1000,1000,1000,1000,86328788,1588,1588,1541,1542
56448245,1000,1000,1000,1000,86428748,1591,1592,1540,1540
56450744,1000,1000,1000,1000,86528708,1592,1594,1539,1539
56453243,1000,1000,1000,1000,86628668,1594,1595,1537,1539
56455742,1000,1000,1000,1000,86728628,1594,1594,1537,1539
56458241,1000,1000,1000,1000,86828588,1594,1592,1539,1542
56460740,1000,1000,1000,1000,86928548,1591,1588,1545,1548
56463239,1000,1000,1000,1000,87028508,1585,1582,1552,1555
56465738,1000,1000,1000,1000,87128468,1577,1573,1561,1564
56468237,1000,1000,1000,1000,87228428,1567,1564,1573,1575
56470736,1000,1000,1000,1000,87328388,1555,1553,1584,1585
56473235,1000,1000,1000,1000,87428348,1547,1545,1596,1596
56475734,1000,1000,1000,1000,87528308,1538,1538,1605,1603
56478233,1000,1000,1000,1000,87628268,1535,1535,1611,1609
56480732,1000,1000,1000,1000,87728228,1534,1536,1614,1612
56483231,1000,1000,1000,1000,87828188,1537,1539,1614,1612
56485730,1000,1000,1000,1000,87928981,1542,1543,1610,1609
56488229,1000,1000,1000,1000,88028941,1548,1549,1605,1605
56490728,1000,1000,1000,1000,88128901,1554,1555,1599,1599
56493227,1000,1000,1000,1000,88228861,1561,1561,1593,1593
56495726,1000,1000,1000,1000,88328821,1568,1568,1587,1587
56498225,1000,1000,1000,1000,88428781,1574,1574,1579,1580
56500724,1000,1000,1000,1000,88528741,1580,1578,1574,1574
56503223,1000,1000,1000,1000,88628701,1583,1582,1569,1570
56505722,1000,1000,1000,1000,88728661,1586,1585,1567,1568
56508221,1000,1000,1000,1000,88828621,1587,1586,1566,1567
56510720,1000,1000,1000,1000,88928581,1586,1584,1566,1566
56513219,1000,1000,1000,1000,89028541,1584,1583,1567,1568
56515718,1000,1000,1000,1000,89128501,1582,1581,1570,1570
56518217,1000,1000,1000,1000,89228461,1579,1579,1573,1573
56520716,1000,1000,1000,1000,89328421,1578,1578,1577,1577
56523215,1000,1000,1000,1000,89428381,1575,1575,1579,1579
56525714,1000,1000,1000,1000,89528341,1574,1575,1582,1582
56528213,1000,1000,1000,1000,89628301,1574,1574,1584,1584
56530712,1000,1000,1000,1000,89728261,1574,1574,1585,1584
56533211,1000,1000,1000,1000,89828221,1574,1575,1585,1585
56535710,1000,1000,1000,1000,89928181,1573,1574,1584,1584
56538209,1000,1000,1000,1000,90028974,1575,1576,1584,1583
56540708,1000,1000,1000,1000,90128934,1576,1576,1582,1582
56543207,1000,1000,1000,1000,90228894,1577,1577,1580,1580
56545706,1000,1000,1000,1000,90328854,1579,1578,1579,1580
56548205,1000,1000,1000,1000,90428814,1579,1579,1578,1578
56550704,1000,1000,1000,1000,90528774,1581,1581,1578,1578
56553203,1000,1000,1000,1000,90628734,1581,1581,1577,1578
56555702,1000,1000,1000,1000,90728694,1581,1581,1577,1577
56558201,1000,1000,1000,1000,90828654,1580,1580,1576,1576
56560700,1000,1000,1000,1000,90928614,1579,1579,1576,1576
56563199,1000,1000,1000,1000,91028574,1580,1579,1577,1577
56565698,1000,1000,1000,1000,91128534,1580,1580,1578,1578
56568197,1000,1000,1000,1000,91228494,1580,1580,1579,1579
56570696,1000,1000,1000,1000,91328454,1579,1580,1580,1579
56573195,1000,1000,1000,1000,91428414,1579,1580,1580,1580
56575694,1000,1000,1000,1000,91528374,1580,1581,1582,1581
56578193,1000,1000,1000,1000,91628334,1578,1579,1580,1580
56580692,1000,1000,1000,1000,91728294,1579,1579,1581,1581
56583191,1000,1000,1000,1000,91828254,1579,1579,1581,1581
56585690,1000,1000,1000,1000,91928214,1579,1579,1580,1580
56588189,1000,1000,1000,1000,92028174,1581,1581,1582,1582
56590688,1000,1000,1000,1000,92128967,1581,1582,1582,1582
56593187,1000,1000,1000,1000,92228927,1581,1582,1584,1577
56595686,1000,1000,1000,1000,92328887,1582,1583,1588,1573
56598185,1000,1000,1000,1000,92428847,1581,1581,1584,1574
56600684,1000,1000,1000,1000,92528807,1577,1578,1577,1576
56603183,1000,1000,1000,1000,92628767,1573,1574,1570,1576
56605682,1000,1000,1000,1000,92728727,1571,1570,1567,1574
56608181,1000,1000,1000,1000,92828687,1568,1567,1564,1571
56610680,1000,1000,1000,1000,92928647,1567,1566,1565,1568
56613179,1000,1000,1000,1000,93028607,1566,1566,1566,1566
56615678,1000,1000,1000,1000,93128567,1565,1566,1566,1564
56618177,1000,1000,1000,1000,93228527,1566,1566,1567,1565
56620676,1000,1000,1000,1000,93328487,1565,1564,1566,1563
56623175,1000,1000,1000,1000,93428447,1565,1565,1566,1564
56625674,1000,1000,1000,1000,93528407,1564,1564,1564,1563
56628173,1000,1000,1000,1000,93628367,1563,1563,1563,1563
56630672,1000,1000,1000,1000,93728327,1561,1561,1561,1562
56633171,1000,1000,1000,1000,93828287,1560,1561,1561,1561
56635670,1000,1000,1000,1000,93928247,1561,1561,1561,1562
56638169,1000,1000,1000,1000,94028207,1560,1560,1561,1560
56640668,1000,1000,1000,1000,94128167,1560,1560,1560,1560
56643167,1000,1000,1000,1000,94228960,1560,1560,1560,1559
56645666,1000,1000,1000,1000,94328920,1560,1559,1559,1560
56648165,1000,1000,1000,1000,94428880,1559,1559,1559,1558
56650664,1000,1000,1000,1000,94528840,1559,1559,1559,1558
56653163,1000,1000,1000,1000,94628800,1559,1558,1559,1558
56655662,1000,1000,1000,1000,94728760,1559,1558,1559,1557
56658161,1000,1000,1000,1000,94828720,1558,1559,1559,1557
56660660,1000,1000,1000,1000,94928680,1558,1558,1560,1557
56663159,1000,1000,1000,1000,95028640,1559,1558,1560,1558
56665658,1000,1000,1000,1000,95128600,1559,1559,1558,1561
56668157,1000,1000,1000,1000,95228560,1560,1560,1557,1563
56670656,1000,1000,1000,1000,95328520,1560,1561,1557,1564
56673155,1000,1000,1000,1000,95428480,1561,1561,1558,1563
56675654,1000,1000,1000,1000,95528440,1562,1562,1560,1563
56678986,1000,1000,1000,1000,95628400,1561,1561,1561,1560
56681485,1000,1000,1000,1000,95728360,1560,1560,1561,1558
56683984,1000,1000,1000,1000,95828320,1558,1559,1560,1558
56686483,1000,1000,1000,1000,95928280,1558,1558,1557,1560
56688982,1000,1000,1000,1000,96028240,1555,1554,1553,1557
56691481,1000,1000,1000,1000,96128200,1549,1549,1549,1551
56693980,1000,1000,1000,1000,96228160,1544,1543,1545,1545
56696479,1000,1000,1000,1000,96328953,1536,1536,1538,1537
56698978,1000,1000,1000,1000,96428913,1529,1530,1532,1530
56701477,1000,1000,1000,1000,96528873,1522,1522,1524,1523
56703976,1000,1000,1000,1000,96628833,1519,1520,1520,1521
56706475,1000,1000,1000,1000,96728793,1519,1520,1519,1520
56708974,1000,1000,1000,1000,96828753,1520,1520,1519,1520
56711473,1000,1000,1000,1000,96928713,1523,1523,1521,1522
56713972,1000,1000,1000,1000,97028673,1527,1527,1524,1525
56716471,1000,1000,1000,1000,97128633,1532,1531,1528,1529
56718970,1000,1000,1000,1000,97228593,1537,1537,1534,1534
56721469,1000,1000,1000,1000,97328553,1540,1540,1538,1537
56723968,1000,1000,1000,1000,97428513,1541,1542,1540,1539
56726467,1000,1000,1000,1000,97528473,1543,1544,1543,1542
56728966,1000,1000,1000,1000,97628433,1545,1545,1545,1544
56731465,1000,1000,1000,1000,97728393,1545,1545,1546,1545
56733964,1000,1000,1000,1000,97828353,1545,1545,1547,1546
56736463,1000,1000,1000,1000,97928313,1545,1545,1547,1547
56738962,1000,1000,1000,1000,98028273,1546,1546,1548,1548
56741461,1000,1000,1000,1000,98128233,1546,1546,1547,1548
56743960,1000,1000,1000,1000,98228193,1546,1546,1547,1547
56746459,1000,1000,1000,1000,98328986,1546,1545,1547,1546
56748958,1000,1000,1000,1000,98428946,1545,1545,1546,1546
56751457,1000,1000,1000,1000,98528906,1545,1545,1546,1545
56753956,1000,1000,1000,1000,98628866,1544,1545,1545,1544
56756455,1000,1000,1000,1000,98728826,1545,1545,1545,1544
56758954,1000,1000,1000,1000,98828786,1545,1545,1545,1545
56761453,1000,1000,1000,1000,98928746,1545,1544,1544,1544
56763952,1000,1000,1000,1000,99028706,1544,1545,1544,1544
56766451,1000,1000,1000,1000,99128666,1544,1545,1544,1544
56768950,1000,1000,1000,1000,99228626,1545,1545,1544,1544
56771449,1000,1000,1000,1000,99328586,1544,1543,1543,1543
56773948,1000,1000,1000,1000,99428546,1544,1544,1543,1543
56776447,1000,1000,1000,1000,99528506,1544,1544,1543,1544
56778946,1000,1000,1000,1000,99628466,1543,1543,1544,1543
56781445,1000,1000,1000,1000,99728426,1544,1543,1544,1543
56783944,1000,1000,1000,1000,99828386,1544,1544,1544,1544
56786443,1000,1000,1000,1000,99928346,1544,1543,1544,1544
56788942,1000,1000,1000,1000,100028306,1544,1544,1544,1545
56791441,1000,1000,1000,1000,100128266,1545,1545,1545,1545
56793940,1000,1000,1000,1000,100228226,1544,1544,1544,1544
56796439,1000,1000,1000,1000,100328186,1545,1545,1545,1545
56798938,1000,1000,1000,1000,100428979,1544,1545,1545,1544
56801437,1000,1000,1000,1000,100528939,1544,1544,1544,1545
56803936,1000,1000,1000,1000,100628899,1544,1544,1544,1544
56806435,1000,1000,1000,1000,100728859,1545,1544,1544,1545
56808934,1000,1000,1000,1000,100828819,1544,1544,1544,1544
56811433,1000,1000,1000,1000,100928779,1545,1544,1545,1545
56813932,1000,1000,1000,1000,101028739,1544,1544,1544,1543
56816431,1000,1000,1000,1000,101128699,1544,1544,1544,1544
56818930,1000,1000,1000,1000,101228659,1544,1544,1544,1544
56821429,1000,1000,1000,1000,101328619,1544,1544,1544,1545
56823928,1000,1000,1000,1000,101428579,1544,1544,1544,1544
56826427,1000,1000,1000,1000,101528539,1544,1543,1544,1543
56828926,1000,1000,1000,1000,101628499,1544,1544,1544,1544
56831425,1000,1000,1000,1000,101728459,1544,1545,1544,1545
56833924,1000,1000,1000,1000,101828419,1544,1544,1544,1544
56836423,1000,1000,1000,1000,101928379,1544,1543,1544,1544
56838922,1000,1000,1000,1000,102028339,1545,1545,1545,1544
56841421,1000,1000,1000,1000,102128299,1544,1544,1543,1544
56843920,1000,1000,1000,1000,102228259,1544,1544,1544,1544
56846419,1000,1000,1000,1000,102328219,1544,1544,1544,1544
56848918,1000,1000,1000,1000,102428179,1544,1544,1544,1544
56851417,1000,1000,1000,1000,102528972,1544,1544,1544,1544
56853916,1000,1000,1000,1000,102628932,1544,1544,1545,1544
56856415,1000,1000,1000,1000,102728892,1544,1543,1544,1543
56858914,1000,1000,1000,1000,102828852,1544,1544,1544,1544
56861413,1000,1000,1000,1000,102928812,1545,1544,1544,1545
56863912,1000,1000,1000,1000,103028772,1545,1545,1545,1545
56866411,1000,1000,1000,1000,103128732,1545,1545,1544,1545
56868910,1000,1000,1000,1000,103228692,1545,1545,1544,1544
56871409,1000,1000,1000,1000,103328652,1545,1544,1544,1544
56873908,1000,1000,1000,1000,103428612,1545,1544,1544,1544
56876407,1000,1000,1000,1000,103528572,1545,1545,1545,1545
56878906,1000,1000,1000,1000,103628532,1544,1544,1544,1544
56881405,1000,1000,1000,1000,103728492,1544,1544,1544,1544
56883904,1000,1000,1000,1000,103828452,1545,1545,1545,1545
56886403,1000,1000,1000,1000,103928412,1544,1544,1544,1544
56888902,1000,1000,1000,1000,104028372,1543,1544,1544,1543
56891401,1000,1000,1000,1000,104128332,1544,1544,1544,1545
56893900,1000,1000,1000,1000,104228292,1544,1545,1544,1545
56896399,1000,1000,1000,1000,104328252,1544,1544,1544,1544
56898898,1000,1000,1000,1000,104428212,1545,1544,1544,1545
56901397,1000,1000,1000,1000,104528172,1544,1544,1544,1544
56903896,1000,1000,1000,1000,104628965,1544,1544,1544,1544
56906395,1000,1000,1000,1000,104728925,1544,1544,1544,1544
56908894,1000,1000,1000,1000,104828885,1545,1544,1545,1544
56911393,1000,1000,1000,1000,104928845,1545,1544,1545,1544
56913892,1000,1000,1000,1000,105028805,1544,1544,1544,1544
56916391,1000,1000,1000,1000,105128765,1545,1545,1544,1545
56918890,1000,1000,1000,1000,105228725,1544,1545,1545,1545
56921389,1000,1000,1000,1000,105328685,1544,1544,1544,1544
56923888,1000,1000,1000,1000,105428645,1544,1544,1545,1544
56926387,1000,1000,1000,1000,105528605,1544,1544,1544,1544
56928886,1000,1000,1000,1000,105628565,1544,1544,1544,1544
56931385,1000,1000,1000,1000,105728525,1545,1545,1545,1545
56933884,1000,1000,1000,1000,105828485,1544,1544,1544,1544
56936383,1000,1000,1000,1000,105928445,1544,1544,1544,1544
56938882,1000,1000,1000,1000,106028405,1544,1544,1544,1544
56941381,1000,1000,1000,1000,106128365,1545,1544,1544,1545
56943880,1000,1000,1000,1000,106228325,1545,1545,1545,1545
56946379,1000,1000,1000,1000,106328285,1509,1507,1514,1508
56948878,1000,1000,1000,1000,106428245,1328,1325,1371,1325
56951377,1000,1000,1000,1000,106528205,1243,1239,1310,1240
56953876,1000,1000,1000,1000,106628165,1216,1212,1291,1213
56956375,1000,1000,1000,1000,106728958,1190,1185,1273,1187
56958874,1000,1000,1000,1000,106828918,1153,1150,1251,1150
56961373,1000,1000,1000,1000,106928878,1154,1150,1245,1150
56963872,1000,1000,1000,1000,107028838,1154,1150,1246,1150
56966371,1000,1000,1000,1000,107128798,1166,1150,1230,1163
56968870,1000,1000,1000,1000,107228758,1175,1150,1215,1175
56971369,1000,1000,1000,1000,107328718,1168,1150,1225,1168
56973868,1000,1000,1000,1000,107428678,1166,1150,1228,1166
56976367,1000,1000,1000,1000,107528638,1166,1150,1228,1166
56978866,1000,1000,1000,1000,107628598,1166,1150,1227,1167
56981365,1000,1000,1000,1000,107728558,1167,1150,1226,1169
56983864,1000,1000,1000,1000,107828518,1167,1150,1225,1169
56986363,1000,1000,1000,1000,107928478,1150,1161,1238,1155
56988862,1000,1000,1000,1000,108028438,1153,1150,1242,1157
56991361,1000,1000,1000,1000,108128398,1154,1150,1241,1158
56993860,1000,1000,1000,1000,108228358,1155,1150,1240,1159
56996359,1000,1000,1000,1000,108328318,1155,1150,1240,1159
56998858,1000,1000,1000,1000,108428278,1145,1145,995,1145
57001357,1000,1000,1000,1000,108528238,1000,1000,1000,1000
57003856,1000,1000,1000,1000,108628198,1000,1000,1000,1000
57006355,1000,1000,1000,1000,108728158,1000,1000,1000,1000
57008854,1000,1000,1000,1000,108828951,1000,1000,1000,1000
57011353,1000,1000,1000,1000,108928911,1000,1000,1000,1000
57013852,1000,1000,1000,1000,109028871,1000,1000,1000,1000
57016351,1000,1000,1000,1000,109128831,1000,1000,1000,1000
57018850,1000,1000,1000,1000,109228791,1000,1000,1000,1000
57021349,1000,1000,1000,1000,109328751,1000,1000,1000,1000
57023848,1000,1000,1000,1000,109428711,1000,1000,1000,1000
57026347,1000,1000,1000,1000,109528671,1000,1000,1000,1000
57028846,1000,1000,1000,1000,109628631,1000,1000,1000,1000
57031345,1000,1000,1000,1000,109728591,1000,1000,1000,1000
57033844,1000,1000,1000,1000,109828551,1000,1000,1000,1000
57036343,1000,1000,1000,1000,109928511,1000,1000,1000,1000
57038842,1000,1000,1000,1000,110028471,1000,1000,1000,1000
57041341,1000,1000,1000,1000,110128431,1000,1000,1000,1000
57043840,1000,1000,1000,1000,110228391,1000,1000,1000,1000
57046339,1000,1000,1000,1000,110328351,1000,1000,1000,1000
57048838,1000,1000,1000,1000,110428311,1000,1000,1000,1000
57051337,1000,1000,1000,1000,110528271,1000,1000,1000,1000
57053836,1000,1000,1000,1000,110628231,1000,1000,1000,1000
57056335,1000,1000,1000,1000,110728191,1000,1000,1000,1000
57058834,1000,1000,1000,1000,110828984,1000,1000,1000,1000
57061333,1000,1000,1000,1000,110928944,1000,1000,1000,1000
57063832,1000,1000,1000,1000,111028904,1000,1000,1000,1000
57066331,1000,1000,1000,1000,111128864,1000,1000,1000,1000
57068830,1000,1000,1000,1000,111228824,1000,1000,1000,1000
57071329,1000,1000,1000,1000,111328784,1000,1000,1000,1000
57073828,1000,1000,1000,1000,111428744,1000,1000,1000,1000
57076327,1000,1000,1000,1000,111528704,1000,1000,1000,1000
57078826,1000,1000,1000,1000,111628664,1000,1000,1000,1000
57081325,1000,1000,1000,1000,111728624,1000,1000,1000,1000
57083824,1000,1000,1000,1000,111828584,1000,1000,1000,1000
57086323,1000,1000,1000,1000,111928544,1000,1000,1000,1000
57088822,1000,1000,1000,1000,112028504,1000,1000,1000,1000
57091321,1000,1000,1000,1000,112128464,1000,1000,1000,1000
57093820,1000,1000,1000,1000,112228424,1000,1000,1000,1000
57096319,1000,1000,1000,1000,112328384,1000,1000,1000,1000
57098818,1000,1000,1000,1000,112428344,1000,1000,1000,1000
57101317,1000,1000,1000,1000,112528304,1000,1000,1000,1000
57103816,1000,1000,1000,1000,112628264,1000,1000,1000,1000
57106315,1000,1000,1000,1000,112728224,1000,1000,1000,1000
57108814,1000,1000,1000,1000,112828184,1000,1000,1000,1000
57111313,1000,1000,1000,1000,112928977,1000,1000,1000,1000
57113812,1000,1000,1000,1000,113028937,1000,1000,1000,1000
57116311,1000,1000,1000,1000,113128897,1000,1000,1000,1000
57118810,1000,1000,1000,1000,113228857,1000,1000,1000,1000
57121309,1000,1000,1000,1000,113328817,1000,1000,1000,1000
57123808,1000,1000,1000,1000,113428777,1000,1000,1000,1000
57126307,1000,1000,1000,1000,113528737,1000,1000,1000,1000
57128806,1000,1000,1000,1000,113628697,1000,1000,1000,1000
57131305,1000,1000,1000,1000,113728657,1000,1000,1000,1000
57133804,1000,1000,1000,1000,113828617,1000,1000,1000,1000
57136303,1000,1000,1000,1000,113928577,1000,1000,1000,1000
57138802,1000,1000,1000,1000,114028537,1000,1000,1000,1000
57141301,1000,1000,1000,1000,114128497,1000,1000,1000,1000
57143800,1000,1000,1000,1000,114228457,1000,1000,1000,1000
57146299,1000,1000,1000,1000,114328417,1000,1000,1000,1000
57148798,1000,1000,1000,1000,114428377,1000,1000,1000,1000
57151297,1000,1000,1000,1000,114528337,1000,1000,1000,1000
57153796,1000,1000,1000,1000,114628297,1000,1000,1000,1000
57156295,1000,1000,1000,1000,114728257,1000,1000,1000,1000
57158794,1000,1000,1000,1000,114828217,1000,1000,1000,1000
57161293,1000,1000,1000,1000,114928177,1000,1000,1000,1000
57163792,1000,1000,1000,1000,115028970,1000,1000,1000,1000
57166291,1000,1000,1000,1000,115128930,1000,1000,1000,1000
57168790,1000,1000,1000,1000,115228890,1000,1000,1000,1000
57171289,1000,1000,1000,1000,115328850,1000,1000,1000,1000
57173788,1000,1000,1000,1000,115428810,1000,1000,1000,1000
57176287,1000,1000,1000,1000,115528770,1000,1000,1000,1000
57178786,1000,1000,1000,1000,115628730,1000,1000,1000,1000
57181285,1000,1000,1000,1000,115728690,1000,1000,1000,1000
57183784,1000,1000,1000,1000,115828650,1000,1000,1000,1000
57186283,1000,1000,1000,1000,115928610,1000,1000,1000,1000
57188782,1000,1000,1000,1000,116028570,1000,1000,1000,1000
57191281,1000,1000,1000,1000,116128530,1000,1000,1000,1000
57193780,1000,1000,1000,1000,116228490,1000,1000,1000,1000
57196279,1000,1000,1000,1000,116328450,1000,1000,1000,1000
57198778,1000,1000,1000,1000,116428410,1000,1000,1000,1000
57201277,1000,1000,1000,1000,116528370,1000,1000,1000,1000
57203776,1000,1000,1000,1000,116628330,1000,1000,1000,1000
57206275,1000,1000,1000,1000,116728290,1000,1000,1000,1000
57208774,1000,1000,1000,1000,116828250,1000,1000,1000,1000
57211273,1000,1000,1000,1000,116928210,1000,1000,1000,1000
57213772,1000,1000,1000,1000,117028170,1000,1000,1000,1000
57216271,1000,1000,1000,1000,117128963,1000,1000,1000,1000
57218770,1000,1000,1000,1000,117228923,1000,1000,1000,1000
57221269,1000,1000,1000,1000,117328883,1000,1000,1000,1000
57223768,1000,1000,1000,1000,117428843,1000,1000,1000,1000
57226267,1000,1000,1000,1000,117528803,1000,1000,1000,1000
57228766,1000,1000,1000,1000,117628763,1000,1000,1000,1000
57231265,1000,1000,1000,1000,117728723,1000,1000,1000,1000
57233764,1000,1000,1000,1000,117828683,1000,1000,1000,1000
57236263,1000,1000,1000,1000,117928643,1000,1000,1000,1000
57238762,1000,1000,1000,1000,118028603,1000,1000,1000,1000
57241261,1000,1000,1000,1000,118128563,1000,1000,1000,1000
57243760,1000,1000,1000,1000,118228523,1000,1000,1000,1000
57246259,1000,1000,1000,1000,118328483,1000,1000,1000,1000
57248758,1000,1000,1000,1000,118428443,1000,1000,1000,1000
57251257,1000,1000,1000,1000,118528403,1000,1000,1000,1000
57253756,1000,1000,1000,1000,118628363,1000,1000,1000,1000
57256255,1000,1000,1000,1000,118728323,1000,1000,1000,1000
57258754,1000,1000,1000,1000,118828283,1000,1000,1000,1000
57261253,1000,1000,1000,1000,118928243,1000,1000,1000,1000
57263752,1000,1000,1000,1000,119028203,1000,1000,1000,1000
57266251,1000,1000,1000,1000,119128163,1000,1000,1000,1000
57268750,1000,1000,1000,1000,119228956,1000,1000,1000,1000
57271249,1000,1000,1000,1000,119328916,1000,1000,1000,1000
57273748,1000,1000,1000,1000,119428876,1000,1000,1000,1000
57276247,1000,1000,1000,1000,119528836,1000,1000,1000,1000
57278746,1000,1000,1000,1000,119628796,1000,1000,1000,1000
57281245,1000,1000,1000,1000,119728756,1000,1000,1000,1000
57283744,1000,1000,1000,1000,119828716,1000,1000,1000,1000
57286243,1000,1000,1000,1000,119928676,1000,1000,1000,1000
57288742,1000,1000,1000,1000,120028636,1000,1000,1000,1000
57291241,1000,1000,1000,1000,120128596,1000,1000,1000,1000
57293740,1000,1000,1000,1000,120228556,1000,1000,1000,1000
57296239,1000,1000,1000,1000,120328516,1000,1000,1000,1000
57298738,1000,1000,1000,1000,120428476,1000,1000,1000,1000
57301237,1000,1000,1000,1000,120528436,1000,1000,1000,1000
57303736,1000,1000,1000,1000,120628396,1000,1000,1000,1000
57306235,1000,1000,1000,1000,120728356,1000,1000,1000,1000
57308734,1000,1000,1000,1000,120828316,1000,1000,1000,1000
57311233,1000,1000,1000,1000,120928276,1000,1000,1000,1000
57313732,1000,1000,1000,1000,121028236,1000,1000,1000,1000
57316231,1000,1000,1000,1000,121128196,1000,1000,1000,1000
57318730,1000,1000,1000,1000,121228156,1000,1000,1000,1000
57321229,1000,1000,1000,1000,,,,,
57323728,1000,1000,1000,1000,,,,,
57326227,1000,1000,1000,1000,,,,,
57328726,1000,1000,1000,1000,,,,,
57331225,1000,1000,1000,1000,,,,,
57333724,1000,1000,1000,1000,,,,,
57336223,1000,1000,1000,1000,,,,,
57338722,1000,1000,1000,1000,,,,,
57341221,1000,1000,1000,1000,,,,,
57343720,1000,1000,1000,1000,,,,,
57346219,1000,1000,1000,1000,,,,,
57348718,1000,1000,1000,1000,,,,,
57351217,1000,1000,1000,1000,,,,,
57353716,1000,1000,1000,1000,,,,,
57356215,1000,1000,1000,1000,,,,,
57358714,1000,1000,1000,1000,,,,,
57361213,1000,1000,1000,1000,,,,,
57363712,1000,1000,1000,1000,,,,,
57366211,1000,1000,1000,1000,,,,,
57368710,1000,1000,1000,1000,,,,,
57371209,1000,1000,1000,1000,,,,,
57373708,1000,1000,1000,1000,,,,,
57376207,1000,1000,1000,1000,,,,,
57378706,1000,1000,1000,1000,,,,,
57381205,1000,1000,1000,1000,,,,,
57383704,1000,1000,1000,1000,,,,,
57386203,1000,1000,1000,1000,,,,,
57388702,1000,1000,1000,1000,,,,,
57391201,1000,1000,1000,1000,,,,,
57393700,1000,1000,1000,1000,,,,,
57396199,1000,1000,1000,1000,,,,,
57398698,1000,1000,1000,1000,,,,,
57401197,1000,1000,1000,1000,,,,,
57403696,1000,1000,1000,1000,,,,,
57406195,1000,1000,1000,1000,,,,,
57408694,1000,1000,1000,1000,,,,,
57411193,1000,1000,1000,1000,,,,,
57413692,1000,1000,1000,1000,,,,,
57416191,1000,1000,1000,1000,,,,,
57418690,1000,1000,1000,1000,,,,,
57421189,1000,1000,1000,1000,,,,,
57423688,1000,1000,1000,1000,,,,,
57426187,1000,1000,1000,1000,,,,,
57428686,1000,1000,1000,1000,,,,,
57431185,1000,1000,1000,1000,,,,,
57433684,1000,1000,1000,1000,,,,,
57436183,1000,1000,1000,1000,,,,,
57438682,1000,1000,1000,1000,,,,,
57441181,1000,1000,1000,1000,,,,,
57443680,1000,1000,1000,1000,,,,,
57446179,1000,1000,1000,1000,,,,,
57448678,1000,1000,1000,1000,,,,,
57451177,1000,1000,1000,1000,,,,,
57453676,1000,1000,1000,1000,,,,,
57456175,1000,1000,1000,1000,,,,,
57458674,1000,1000,1000,1000,,,,,
57461173,1000,1000,1000,1000,,,,,
57463672,1000,1000,1000,1000,,,,,
57466171,1000,1000,1000,1000,,,,,
57468670,1000,1000,1000,1000,,,,,
57471169,1000,1000,1000,1000,,,,,
57473668,1000,1000,1000,1000,,,,,
57476167,1000,1000,1000,1000,,,,,
57478666,1000,1000,1000,1000,,,,,
57481165,1000,1000,1000,1000,,,,,
57483664,1000,1000,1000,1000,,,,,
57486163,1000,1000,1000,1000,,,,,
57488662,1000,1000,1000,1000,,,,,
57491161,1000,1000,1000,1000,,,,,
57493660,1000,1000,1000,1000,,,,,
57496159,1000,1000,1000,1000,,,,,
57498658,1000,1000,1000,1000,,,,,
57501157,1000,1000,1000,1000,,,,,
57503656,1000,1000,1000,1000,,,,,
57506155,1000,1000,1000,1000,,,,,
57508654,1000,1000,1000,1000,,,,,
57511153,1000,1000,1000,1000,,,,,
57513652,1000,1000,1000,1000,,,,,
57516151,1000,1000,1000,1000,,,,,
57518650,1000,1000,1000,1000,,,,,
57521149,1000,1000,1000,1000,,,,,
57523648,1000,1000,1000,1000,,,,,
57526147,1000,1000,1000,1000,,,,,
57528646,1000,1000,1000,1000,,,,,
57531145,1000,1000,1000,1000,,,,,
57533644,1000,1000,1000,1000,,,,,
57536143,1000,1000,1000,1000,,,,,
57538642,1000,1000,1000,1000,,,,,
57541141,1000,1000,1000,1000,,,,,
57543640,1000,1000,1000,1000,,,,,
57546139,1000,1000,1000,1000,,,,,
57548638,1000,1000,1000,1000,,,,,
57551137,1000,1000,1000,1000,,,,,
57553636,1000,1000,1000,1000,,,,,
57556135,1000,1000,1000,1000,,,,,
57558634,1000,1000,1000,1000,,,,,
57561133,1000,1000,1000,1000,,,,,
57563632,1000,1000,1000,1000,,,,,
57566131,1000,1000,1000,1000,,,,,
57568630,1000,1000,1000,1000,,,,,
57571129,1000,1000,1000,1000,,,,,
57573628,1000,1000,1000,1000,,,,,
57576127,1000,1000,1000,1000,,,,,
57578626,1000,1000,1000,1000,,,,,
57581125,1000,1000,1000,1000,,,,,
57583624,1000,1000,1000,1000,,,,,
57586123,1000,1000,1000,1000,,,,,
57588622,1000,1000,1000,1000,,,,,
57591121,1000,1000,1000,1000,,,,,
57593620,1000,1000,1000,1000,,,,,
57596119,1000,1000,1000,1000,,,,,
57598618,1000,1000,1000,1000,,,,,
57601117,1000,1000,1000,1000,,,,,
57603616,1000,1000,1000,1000,,,,,
57606115,1000,1000,1000,1000,,,,,
57608614,1000,1000,1000,1000,,,,,
57611113,1000,1000,1000,1000,,,,,
57613612,1000,1000,1000,1000,,,,,
57616111,1000,1000,1000,1000,,,,,
57618610,1000,1000,1000,1000,,,,,
57621109,1000,1000,1000,1000,,,,,
57623608,1000,1000,1000,1000,,,,,
57626107,1000,1000,1000,1000,,,,,
57628606,1000,1000,1000,1000,,,,,
57631105,1000,1000,1000,1000,,,,,
57633604,1000,1000,1000,1000,,,,,
57636103,1000,1000,1000,1000,,,,,
57638602,1000,1000,1000,1000,,,,,
57641101,1000,1000,1000,1000,,,,,
57643600,1000,1000,1000,1000,,,,,
57646099,1000,1000,1000,1000,,,,,
57648598,1000,1000,1000,1000,,,,,
57651097,1000,1000,1000,1000,,,,,
57653596,1000,1000,1000,1000,,,,,
57656095,1000,1000,1000,1000,,,,,
57658594,1000,1000,1000,1000,,,,,
57661093,1000,1000,1000,1000,,,,,
57663592,1000,1000,1000,1000,,,,,
57666091,1000,1000,1000,1000,,,,,
57668590,1000,1000,1000,1000,,,,,
57671089,1000,1000,1000,1000,,,,,
57673588,1000,1000,1000,1000,,,,,
57676087,1000,1000,1000,1000,,,,,
57678586,1000,1000,1000,1000,,,,,
57681085,1000,1000,1000,1000,,,,,
57683584,1000,1000,1000,1000,,,,,
57686083,1000,1000,1000,1000,,,,,
57688582,1001,1001,1001,1001,,,,,
57691081,1002,1002,1002,1002,,,,,
57693580,1003,1003,1003,1003,,,,,
57696079,1003,1003,1003,1003,,,,,
57698578,1004,1004,1004,1004,,,,,
57701077,1005,1005,1005,1005,,,,,
57703576,1006,1006,1006,1006,,,,,
57706075,1006,1006,1006,1006,,,,,
57708574,1007,1007,1007,1007,,,,,
57711073,1008,1008,1008,1008,,,,,
57713572,1009,1009,1009,1009,,,,,
57716071,1009,1009,1009,1009,,,,,
57718570,1010,1010,1010,1010,,,,,
57721069,1011,1011,1011,1011,,,,,
57723568,1012,1012,1012,1012,,,,,
57726067,1012,1012,1012,1012,,,,,
57728566,1013,1013,1013,1013,,,,,
57731065,1014,1014,1014,1014,,,,,
57733564,1015,1015,1015,1015,,,,,
57736063,1015,1015,1015,1015,,,,,
57738562,1016,1016,1016,1016,,,,,
57741061,1017,1017,1017,1017,,,,,
57743560,1018,1018,1018,1018,,,,,
57746059,1018,1018,1018,1018,,,,,
57748558,1019,1019,1019,1019,,,,,
57751057,1020,1020,1020,1020,,,,,
57753556,1021,1021,1021,1021,,,,,
57756055,1021,1021,1021,1021,,,,,
57758554,1022,1022,1022,1022,,,,,
57761053,1023,1023,1023,1023,,,,,
57763552,1024,1024,1024,1024,,,,,
57766051,1024,1024,1024,1024,,,,,
57768550,1025,1025,1025,1025,,,,,
57771049,1026,1026,1026,1026,,,,,
57773548,1027,1027,1027,1027,,,,,
57776047,1027,1027,1027,1027,,,,,
57778546,1028,1028,1028,1028,,,,,
57781045,1029,1029,1029,1029,,,,,
57783544,1030,1030,1030,1030,,,,,
57786043,1030,1030,1030,1030,,,,,
57788542,1031,1031,1031,1031,,,,,
57791041,1032,1032,1032,1032,,,,,
57793540,1033,1033,1033,1033,,,,,
57796039,1033,1033,1033,1033,,,,,
57798538,1034,1034,1034,1034,,,,,
57801037,1035,1035,1035,1035,,,,,
57803536,1036,1036,1036,1036,,,,,
57806035,1036,1036,1036,1036,,,,,
57808534,1037,1037,1037,1037,,,,,
57811033,1038,1038,1038,1038,,,,,
57813532,1039,1039,1039,1039,,,,,
57816031,1039,1039,1039,1039,,,,,
57818530,1040,1040,1040,1040,,,,,
57821029,1041,1041,1041,1041,,,,,
57823528,1042,1042,1042,1042,,,,,
57826027,1042,1042,1042,1042,,,,,
57828526,1043,1043,1043,1043,,,,,
57831025,1044,1044,1044,1044,,,,,
57833524,1045,1045,1045,1045,,,,,
57836023,1045,1045,1045,1045,,,,,
57838522,1046,1046,1046,1046,,,,,
57841021,1047,1047,1047,1047,,,,,
57843520,1048,1048,1048,1048,,,,,
57846019,1048,1048,1048,1048,,,,,
57848518,1049,1049,1049,1049,,,,,
57851017,1050,1050,1050,1050,,,,,
57853516,1051,1051,1051,1051,,,,,
57856015,1051,1051,1051,1051,,,,,
57858514,1052,1052,1052,1052,,,,,
57861013,1053,1053,1053,1053,,,,,
57863512,1054,1054,1054,1054,,,,,
57866011,1054,1054,1054,1054,,,,,
57868510,1055,1055,1055,1055,,,,,
57871009,1056,1056,1056,1056,,,,,
57873508,1057,1057,1057,1057,,,,,
57876007,1057,1057,1057,1057,,,,,
57878506,1058,1058,1058,1058,,,,,
57881005,1059,1059,1059,1059,,,,,
57883504,1060,1060,1060,1060,,,,,
57886003,1060,1060,1060,1060,,,,,
57888502,1061,1061,1061,1061,,,,,
57891001,1062,1062,1062,1062,,,,,
57893500,1063,1063,1063,1063,,,,,
57895999,1063,1063,1063,1063,,,,,
57898498,1064,1064,1064,1064,,,,,
57900997,1065,1065,1065,1065,,,,,
57903496,1066,1066,1066,1066,,,,,
57905995,1066,1066,1066,1066,,,,,
57908494,1067,1067,1067,1067,,,,,
57910993,1068,1068,1068,1068,,,,,
57913492,1069,1069,1069,1069,,,,,
57915991,1069,1069,1069,1069,,,,,
57918490,1070,1070,1070,1070,,,,,
57920989,1071,1071,1071,1071,,,,,
57923488,1072,1072,1072,1072,,,,,
57925987,1072,1072,1072,1072,,,,,
57928486,1073,1073,1073,1073,,,,,
57930985,1074,1074,1074,1074,,,,,
57933484,1075,1075,1075,1075,,,,,
57935983,1075,1075,1075,1075,,,,,
57938482,1076,1076,1076,1076,,,,,
57940981,1077,1077,1077,1077,,,,,
57943480,1078,1078,1078,1078,,,,,
57945979,1078,1078,1078,1078,,,,,
57948478,1079,1079,1079,1079,,,,,
57950977,1080,1080,1080,1080,,,,,
57953476,1081,1081,1081,1081,,,,,
57955975,1081,1081,1081,1081,,,,,
57958474,1082,1082,1082,1082,,,,,
57960973,1083,1083,1083,1083,,,,,
57963472,1084,1084,1084,1084,,,,,
57965971,1084,1084,1084,1084,,,,,
57968470,1085,1085,1085,1085,,,,,
57970969,1086,1086,1086,1086,,,,,
57973468,1087,1087,1087,1087,,,,,
57975967,1087,1087,1087,1087,,,,,
57978466,1088,1088,1088,1088,,,,,
57980965,1089,1089,1089,1089,,,,,
57983464,1090,1090,1090,1090,,,,,
57985963,1090,1090,1090,1090,,,,,
57988462,1091,1091,1091,1091,,,,,
57990961,1092,1092,1092,1092,,,,,
57993460,1093,1093,1093,1093,,,,,
57995959,1093,1093,1093,1093,,,,,
57998458,1094,1094,1094,1094,,,,,
58000957,1095,1095,1095,1095,,,,,
58003456,1096,1096,1096,1096,,,,,
58005955,1096,1096,1096,1096,,,,,
58008454,1097,1097,1097,1097,,,,,
58010953,1098,1098,1098,1098,,,,,
58013452,1099,1099,1099,1099,,,,,
58015951,1099,1099,1099,1099,,,,,
58018450,1100,1100,1100,1100,,,,,
58020949,1101,1101,1101,1101,,,,,
58023448,1101,1101,1101,1101,,,,,
58025947,1102,1102,1102,1102,,,,,
58028446,1103,1103,1103,1103,,,,,
58030945,1104,1104,1104,1104,,,,,
58033444,1104,1104,1104,1104,,,,,
58035943,1105,1105,1105,1105,,,,,
58038442,1106,1106,1106,1106,,,,,
58040941,1107,1107,1107,1107,,,,,
58043440,1107,1107,1107,1107,,,,,
58045939,1108,1108,1108,1108,,,,,
58048438,1109,1109,1109,1109,,,,,
58050937,1110,1110,1110,1110,,,,,
58053436,1110,1110,1110,1110,,,,,
58055935,1111,1111,1111,1111,,,,,
58058434,1112,1112,1112,1112,,,,,
58060933,1113,1113,1113,1113,,,,,
58063432,1113,1113,1113,1113,,,,,
58065931,1114,1114,1114,1114,,,,,
58068430,1115,1115,1115,1115,,,,,
58070929,1116,1116,1116,1116,,,,,
58073428,1116,1116,1116,1116,,,,,
58075927,1117,1117,1117,1117,,,,,
58078426,1118,1118,1118,1118,,,,,
58080925,1119,1119,1119,1119,,,,,
58083424,1119,1119,1119,1119,,,,,
58085923,1120,1120,1120,1120,,,,,
58088422,1121,1121,1121,1121,,,,,
58090921,1122,1122,1122,1122,,,,,
58093420,1122,1122,1122,1122,,,,,
58095919,1123,1123,1123,1123,,,,,
58098418,1124,1124,1124,1124,,,,,
58100917,1125,1125,1125,1125,,,,,
58103416,1125,1125,1125,1125,,,,,
58105915,1126,1126,1126,1126,,,,,
58108414,1127,1127,1127,1127,,,,,
58110913,1128,1128,1128,1128,,,,,
58113412,1128,1128,1128,1128,,,,,
58115911,1129,1129,1129,1129,,,,,
58118410,1130,1130,1130,1130,,,,,
58120909,1131,1131,1131,1131,,,,,
58123408,1131,1131,1131,1131,,,,,
58125907,1132,1132,1132,1132,,,,,
58128406,1133,1133,1133,1133,,,,,
58130905,1134,1134,1134,1134,,,,,
58133404,1134,1134,1134,1134,,,,,
58135903,1135,1135,1135,1135,,,,,
58138402,1136,1136,1136,1136,,,,,
58140901,1137,1137,1137,1137,,,,,
58143400,1137,1137,1137,1137,,,,,
58145899,1138,1138,1138,1138,,,,,
58148398,1139,1139,1139,1139,,,,,
58150897,1140,1140,1140,1140,,,,,
58153396,1140,1140,1140,1140,,,,,
58155895,1141,1141,1141,1141,,,,,
58158394,1142,1142,1142,1142,,,,,
58160893,1143,1143,1143,1143,,,,,
58163392,1143,1143,1143,1143,,,,,
58165891,1144,1144,1144,1144,,,,,
58168390,1145,1145,1145,1145,,,,,
58170889,1146,1146,1146,1146,,,,,
58173388,1146,1146,1146,1146,,,,,
58175887,1147,1147,1147,1147,,,,,
58178386,1148,1148,1148,1148,,,,,
58180885,1149,1149,1149,1149,,,,,
58183384,1149,1149,1149,1149,,,,,
58185883,1150,1150,1150,1150,,,,,
58188382,1162,1153,1154,1162,,,,,
58190881,1170,1161,1162,1170,,,,,
58193380,1178,1169,1170,1178,,,,,
58195879,1185,1177,1178,1186,,,,,
58198378,1193,1185,1185,1193,,,,,
58200877,1200,1192,1193,1201,,,,,
58203376,1208,1200,1200,1208,,,,,
58205875,1215,1207,1208,1215,,,,,
58208374,1222,1214,1215,1222,,,,,
58210873,1229,1221,1222,1229,,,,,
58213372,1236,1228,1229,1236,,,,,
58215871,1243,1235,1236,1243,,,,,
58218370,1249,1242,1243,1250,,,,,
58220869,1256,1248,1249,1256,,,,,
58223368,1262,1255,1256,1263,,,,,
58225867,1269,1261,1262,1269,,,,,
58228366,1275,1268,1269,1275,,,,,
58230865,1282,1274,1275,1282,,,,,
58233364,1288,1281,1281,1288,,,,,
58235863,1294,1287,1288,1294,,,,,
58238362,1300,1293,1294,1300,,,,,
58240861,1306,1299,1300,1306,,,,,
58243360,1312,1305,1306,1312,,,,,
58245859,1318,1311,1312,1318,,,,,
58248358,1324,1317,1318,1324,,,,,
58250857,1329,1323,1323,1330,,,,,
58253356,1335,1328,1329,1335,,,,,
58255855,1341,1334,1335,1341,,,,,
58258354,1346,1340,1340,1346,,,,,
58260853,1352,1345,1346,1352,,,,,
58263352,1357,1351,1352,1358,,,,,
58265851,1363,1356,1357,1363,,,,,
58268350,1368,1362,1362,1368,,,,,
58270849,1374,1367,1368,1374,,,,,
58273348,1379,1372,1373,1379,,,,,
58275847,1384,1378,1378,1384,,,,,
58278346,1389,1383,1384,1390,,,,,
58280845,1395,1388,1389,1395,,,,,
58283344,1400,1393,1394,1400,,,,,
58285843,1405,1398,1399,1405,,,,,
58288342,1410,1403,1404,1410,,,,,
58290841,1415,1409,1409,1415,,,,,
58293340,1420,1414,1414,1420,,,,,
58295839,1425,1419,1419,1425,,,,,
58298338,1430,1423,1424,1430,,,,,
58300837,1435,1428,1429,1435,,,,,
58303336,1440,1433,1434,1440,,,,,
58305835,1444,1438,1439,1444,,,,,
58308334,1449,1443,1443,1449,,,,,
58310833,1454,1448,1448,1454,,,,,
58313332,1459,1452,1453,1459,,,,,
58315831,1463,1457,1458,1463,,,,,
58318330,1468,1462,1462,1468,,,,,
58320829,1473,1466,1467,1473,,,,,
58323328,1477,1471,1472,1477,,,,,
58325827,1482,1475,1476,1482,,,,,
58328326,1486,1480,1481,1486,,,,,
58330825,1491,1484,1485,1491,,,,,
58333324,1495,1489,1490,1495,,,,,
58335823,1500,1493,1494,1500,,,,,
58338322,1504,1498,1499,1504,,,,,
58340821,1508,1502,1503,1508,,,,,
58343320,1513,1507,1507,1513,,,,,
58345819,1517,1511,1512,1517,,,,,
58348318,1521,1515,1516,1521,,,,,
58350817,1526,1520,1520,1526,,,,,
58353316,1530,1524,1525,1530,,,,,
58355815,1534,1528,1529,1534,,,,,
58358314,1538,1533,1533,1538,,,,,
58360813,1543,1537,1537,1543,,,,,
58363312,1547,1541,1542,1547,,,,,
58365811,1551,1545,1546,1551,,,,,
58368310,1555,1549,1550,1555,,,,,
58370809,1559,1553,1554,1559,,,,,
58373308,1563,1558,1558,1563,,,,,
58375807,1567,1562,1562,1567,,,,,
58378306,1571,1566,1566,1571,,,,,
58380805,1575,1570,1570,1575,,,,,
58383304,1579,1574,1574,1579,,,,,
58385803,1583,1578,1578,1583,,,,,
58388302,1587,1582,1582,1587,,,,,
58390801,1591,1586,1586,1591,,,,,
58393300,1595,1590,1590,1595,,,,,
58395799,1599,1594,1594,1599,,,,,
58398298,1603,1598,1598,1603,,,,,
58400797,1607,1602,1602,1607,,,,,
58403296,1611,1605,1606,1611,,,,,
58405795,1615,1609,1610,1615,,,,,
58408294,1619,1613,1614,1619,,,,,
58410793,1622,1617,1618,1622,,,,,
58413292,1626,1621,1621,1626,,,,,
58415791,1630,1625,1625,1630,,,,,
58418290,1634,1628,1629,1634,,,,,
58420789,1637,1632,1633,1638,,,,,
58423288,1641,1636,1636,1641,,,,,
58425787,1645,1640,1640,1645,,,,,
58428286,1649,1643,1644,1649,,,,,
58430785,1652,1647,1648,1652,,,,,
58433284,1656,1651,1651,1656,,,,,
58435783,1660,1655,1655,1660,,,,,
58438282,1663,1658,1659,1663,,,,,
58440781,1667,1662,1662,1667,,,,,
58443280,1670,1665,1666,1671,,,,,
58445779,1674,1669,1669,1674,,,,,
58448278,1678,1673,1673,1678,,,,,
58450777,1681,1676,1677,1681,,,,,
58453276,1685,1680,1680,1685,,,,,
58455775,1688,1683,1684,1689,,,,,
58458274,1692,1687,1687,1692,,,,,
58460773,1695,1690,1691,1696,,,,,
58463272,1699,1694,1694,1699,,,,,
58465771,1702,1698,1698,1703,,,,,
58468270,1706,1701,1701,1706,,,,,
58470769,1709,1704,1705,1710,,,,,
58473268,1713,1708,1708,1713,,,,,
58475767,1716,1711,1712,1716,,,,,
58478266,1720,1715,1715,1720,,,,,
58480765,1723,1718,1719,1723,,,,,
58483264,1726,1722,1722,1727,,,,,
58485763,1730,1725,1725,1730,,,,,
58488262,1733,1728,1729,1733,,,,,
58490761,1737,1732,1732,1737,,,,,
58493260,1740,1735,1736,1740,,,,,
58495759,1743,1739,1739,1743,,,,,
58498258,1747,1742,1742,1747,,,,,
58500757,1750,1745,1746,1750,,,,,
58503256,1753,1748,1749,1753,,,,,
58505755,1757,1752,1752,1757,,,,,
58508254,1760,1755,1756,1760,,,,,
58510753,1763,1758,1759,1763,,,,,
58513252,1767,1762,1762,1767,,,,,
58515751,1770,1765,1765,1770,,,,,
58518250,1773,1768,1769,1773,,,,,
58520749,1776,1771,1772,1776,,,,,
58523248,1780,1775,1775,1780,,,,,
58525747,1783,1778,1778,1783,,,,,
58528246,1786,1781,1782,1786,,,,,
58530745,1789,1784,1785,1789,,,,,
58533244,1792,1787,1788,1792,,,,,
58535743,1796,1791,1791,1796,,,,,
58538242,1799,1794,1794,1799,,,,,
58540741,1802,1797,1798,1802,,,,,
58543240,1805,1800,1801,1805,,,,,
58545739,1808,1803,1804,1808,,,,,
58548238,1811,1806,1807,1811,,,,,
58550737,1814,1810,1810,1814,,,,,
58553236,1818,1813,1813,1817,,,,,
58555735,1821,1816,1816,1821,,,,,
58558234,1824,1819,1820,1824,,,,,
58560733,1827,1822,1823,1827,,,,,
58563232,1830,1825,1826,1830,,,,,
58565731,1833,1828,1829,1833,,,,,
58568230,1836,1831,1832,1836,,,,,
58570729,1839,1834,1835,1839,,,,,
58573228,1842,1837,1838,1842,,,,,
58575727,1845,1840,1841,1845,,,,,
58578226,1848,1843,1844,1848,,,,,
58580725,1851,1846,1847,1851,,,,,
58583224,1854,1849,1850,1854,,,,,
58585723,1857,1852,1853,1857,,,,,
58588222,1856,1851,1852,1856,,,,,
58590721,1855,1850,1851,1855,,,,,
58593220,1854,1849,1849,1853,,,,,
58595719,1852,1847,1848,1852,,,,,
58598218,1851,1846,1847,1851,,,,,
58600717,1850,1845,1846,1850,,,,,
58603216,1849,1844,1845,1849,,,,,
58605715,1848,1843,1844,1848,,,,,
58608214,1847,1842,1843,1847,,,,,
58610713,1846,1841,1842,1846,,,,,
58613212,1845,1840,1841,1845,,,,,
58615711,1844,1839,1840,1844,,,,,
58618210,1844,1838,1839,1843,,,,,
58620709,1843,1838,1839,1843,,,,,
58623208,1843,1837,1838,1842,,,,,
58625707,1842,1837,1838,1842,,,,,
58628206,1842,1837,1838,1842,,,,,
58630705,1842,1837,1837,1842,,,,,
58633204,1842,1836,1837,1841,,,,,
58635703,1842,1836,1837,1841,,,,,
58638202,1842,1836,1837,1842,,,,,
58640701,1842,1837,1838,1842,,,,,
58643200,1842,1837,1838,1842,,,,,
58645699,1843,1837,1838,1842,,,,,
58648198,1843,1837,1838,1843,,,,,
58650697,1844,1838,1839,1843,,,,,
58653196,1844,1838,1839,1844,,,,,
58655695,1845,1839,1840,1844,,,,,
58658194,1845,1840,1840,1845,,,,,
58660693,1846,1840,1841,1846,,,,,
58663192,1847,1841,1842,1846,,,,,
58665691,1847,1842,1843,1847,,,,,
58668190,1848,1843,1843,1848,,,,,
58670689,1849,1843,1844,1849,,,,,
58673188,1850,1844,1845,1850,,,,,
58675687,1851,1845,1846,1851,,,,,
58678186,1852,1846,1847,1852,,,,,
58680685,1853,1847,1848,1853,,,,,
58683184,1854,1848,1849,1854,,,,,
58685683,1855,1849,1850,1855,,,,,
58688182,1856,1850,1851,1856,,,,,
58690681,1857,1851,1852,1857,,,,,
58693180,1858,1853,1853,1858,,,,,
58695679,1859,1854,1854,1859,,,,,
58698178,1860,1855,1855,1860,,,,,
58700677,1861,1856,1856,1860,,,,,
58703176,1861,1856,1857,1861,,,,,
58705675,1862,1857,1858,1862,,,,,
58708174,1862,1857,1858,1862,,,,,
58710673,1862,1858,1858,1862,,,,,
58713172,1862,1858,1858,1862,,,,,
58715671,1862,1858,1858,1862,,,,,
58718170,1862,1858,1858,1862,,,,,
58720669,1861,1857,1858,1861,,,,,
58723168,1860,1857,1857,1861,,,,,
58725667,1859,1856,1856,1860,,,,,
58728166,1858,1855,1855,1859,,,,,
58730665,1857,1854,1854,1857,,,,,
58733164,1856,1853,1853,1856,,,,,
58735663,1854,1851,1852,1855,,,,,
58738162,1853,1850,1850,1853,,,,,
58740661,1851,1848,1848,1851,,,,,
58743160,1849,1846,1846,1849,,,,,
58745659,1847,1844,1844,1847,,,,,
58748158,1845,1842,1842,1845,,,,,
58750657,1842,1840,1840,1843,,,,,
58753156,1840,1837,1837,1840,,,,,
58755655,1837,1835,1835,1838,,,,,
58758154,1835,1832,1832,1835,,,,,
58761486,1832,1830,1830,1833,,,,,
58763985,1829,1827,1827,1830,,,,,
58766484,1826,1824,1824,1827,,,,,
58768983,1823,1821,1821,1824,,,,,
58771482,1820,1818,1818,1821,,,,,
58773981,1817,1815,1815,1818,,,,,
58776480,1814,1812,1812,1815,,,,,
58778979,1811,1809,1809,1811,,,,,
58781478,1808,1806,1806,1808,,,,,
58783977,1805,1803,1803,1805,,,,,
58786476,1801,1800,1800,1802,,,,,
58788975,1798,1796,1796,1798,,,,,
58791474,1795,1793,1793,1795,,,,,
58793973,1791,1790,1790,1792,,,,,
58796472,1788,1787,1787,1789,,,,,
58798971,1785,1783,1783,1785,,,,,
58801470,1781,1780,1780,1782,,,,,
58803969,1778,1777,1777,1779,,,,,
58806468,1775,1774,1774,1775,,,,,
58808967,1772,1770,1771,1772,,,,,
58811466,1768,1767,1767,1769,,,,,
58813965,1765,1764,1764,1765,,,,,
58816464,1762,1761,1761,1762,,,,,
58818963,1759,1758,1758,1759,,,,,
58821462,1755,1755,1755,1756,,,,,
58823961,1752,1751,1752,1753,,,,,
58826460,1749,1748,1749,1749,,,,,
58828959,1746,1745,1745,1746,,,,,
58831458,1743,1742,1742,1743,,,,,
58833957,1739,1739,1739,1740,,,,,
58836456,1736,1736,1736,1737,,,,,
58838955,1733,1733,1733,1733,,,,,
58841454,1730,1730,1730,1730,,,,,
58843953,1727,1726,1727,1727,,,,,
58846452,1724,1723,1724,1724,,,,,
58848951,1721,1720,1721,1721,,,,,
58851450,1718,1717,1718,1718,,,,,
58853949,1715,1714,1715,1715,,,,,
58856448,1712,1712,1712,1712,,,,,
58858947,1709,1709,1709,1709,,,,,
58861446,1706,1706,1706,1706,,,,,
58863945,1703,1703,1704,1703,,,,,
58866444,1700,1700,1701,1701,,,,,
58868943,1698,1698,1698,1698,,,,,
58871442,1695,1695,1696,1695,,,,,
58873941,1692,1693,1693,1693,,,,,
58876440,1690,1690,1690,1690,,,,,
58878939,1687,1687,1688,1687,,,,,
58881438,1685,1685,1685,1685,,,,,
58883937,1682,1683,1683,1682,,,,,
58886436,1680,1680,1680,1680,,,,,
58888935,1677,1678,1678,1678,,,,,
58891434,1675,1675,1676,1675,,,,,
58893933,1673,1673,1673,1673,,,,,
58896432,1670,1671,1671,1671,,,,,
58898931,1668,1669,1669,1668,,,,,
58901430,1666,1667,1667,1666,,,,,
58903929,1664,1665,1665,1664,,,,,
58906428,1662,1663,1663,1662,,,,,
58908927,1660,1661,1661,1660,,,,,
58911426,1658,1659,1659,1658,,,,,
58913925,1656,1657,1657,1656,,,,,
