timestamp,TimeUS,C1,C2,C3,C4,C5,C6,C7,C8,C9,C10,C11,C12,C13,C14
1680866531.90003991,99128666,1000,1000,1000,1000,0,0,0,0,0,0,0,0,0,0
1680866532.00000000,99228626,1000,1000,1000,1000,0,0,0,0,0,0,0,0,0,0
1680866532.09996009,99328586,1000,1000,1000,1000,0,0,0,0,0,0,0,0,0,0
1680866532.19991994,99428546,1000,1000,1000,1000,0,0,0,0,0,0,0,0,0,0
1680866532.29988003,99528506,1000,1000,1000,1000,0,0,0,0,0,0,0,0,0,0
1680866532.39983988,99628466,1000,1000,1000,1000,0,0,0,0,0,0,0,0,0,0
1680866532.49979997,99728426,1000,1000,1000,1000,0,0,0,0,0,0,0,0,0,0
1680866532.59976006,99828386,1000,1000,1000,1000,0,0,0,0,0,0,0,0,0,0
1680866532.69971991,99928346,1000,1000,1000,1000,0,0,0,0,0,0,0,0,0,0
1680866532.79967999,100028306,1000,1000,1000,1000,0,0,0,0,0,0,0,0,0,0
1680866532.89964008,100128266,1000,1000,1000,1000,0,0,0,0,0,0,0,0,0,0
1680866532.99959993,100228226,1000,1000,1000,1000,0,0,0,0,0,0,0,0,0,0
1680866533.09956002,100328186,1000,1000,1000,1000,0,0,0,0,0,0,0,0,0,0
1680866533.20035291,100428979,1000,1000,1000,1000,0,0,0,0,0,0,0,0,0,0
1680866533.30031300,100528939,1000,1000,1000,1000,0,0,0,0,0,0,0,0,0,0
1680866533.40027308,100628899,1000,1000,1000,1000,0,0,0,0,0,0,0,0,0,0
1680866533.50023293,100728859,1000,1000,1000,1000,0,0,0,0,0,0,0,0,0,0
1680866533.60019302,100828819,1000,1000,1000,1000,0,0,0,0,0,0,0,0,0,0
1680866533.70015287,100928779,1000,1000,1000,1000,0,0,0,0,0,0,0,0,0,0
1680866533.80011296,101028739,1000,1000,1000,1000,0,0,0,0,0,0,0,0,0,0
1680866533.90007305,101128699,1029,1029,1029,1029,0,0,0,0,0,0,0,0,0,0
1680866534.00003290,101228659,1059,1059,1059,1059,0,0,0,0,0,0,0,0,0,0
1680866534.09999299,101328619,1089,1089,1089,1089,0,0,0,0,0,0,0,0,0,0
1680866534.19995308,101428579,1119,1119,1119,1119,0,0,0,0,0,0,0,0,0,0
1680866534.29991293,101528539,1149,1149,1149,1149,0,0,0,0,0,0,0,0,0,0
1680866534.39987302,101628499,1397,1385,1386,1398,0,0,0,0,0,0,0,0,0,0
1680866534.49983287,101728459,1578,1567,1568,1578,0,0,0,0,0,0,0,0,0,0
1680866534.59979296,101828419,1725,1716,1717,1725,0,0,0,0,0,0,0,0,0,0
1680866534.69975305,101928379,1853,1844,1845,1854,0,0,0,0,0,0,0,0,0,0
1680866534.79971290,102028339,1900,1892,1892,1901,0,0,0,0,0,0,0,0,0,0
1680866534.89967299,102128299,1824,1821,1821,1824,0,0,0,0,0,0,0,0,0,0
1680866534.99963307,102228259,1700,1701,1702,1701,0,0,0,0,0,0,0,0,0,0
1680866535.09959292,102328219,1641,1645,1645,1642,0,0,0,0,0,0,0,0,0,0
1680866535.19955301,102428179,1636,1640,1640,1636,0,0,0,0,0,0,0,0,0,0
1680866535.30034590,102528972,1645,1648,1648,1645,0,0,0,0,0,0,0,0,0,0
1680866535.40030599,102628932,1648,1649,1649,1648,0,0,0,0,0,0,0,0,0,0
1680866535.50026608,102728892,1643,1641,1641,1642,0,0,0,0,0,0,0,0,0,0
1680866535.60022593,102828852,1634,1632,1632,1634,0,0,0,0,0,0,0,0,0,0
1680866535.70018601,102928812,1627,1625,1625,1626,0,0,0,0,0,0,0,0,0,0
1680866535.80014610,103028772,1621,1620,1620,1621,0,0,0,0,0,0,0,0,0,0
1680866535.90010595,103128732,1609,1611,1610,1608,0,0,0,0,0,0,0,0,0,0
1680866536.00006604,103228692,1584,1585,1583,1586,0,0,0,0,0,0,0,0,0,0
1680866536.10002589,103328652,1572,1571,1569,1574,0,0,0,0,0,0,0,0,0,0
1680866536.19998598,103428612,1562,1560,1557,1563,0,0,0,0,0,0,0,0,0,0
1680866536.29994607,103528572,1552,1551,1549,1553,0,0,0,0,0,0,0,0,0,0
1680866536.39990592,103628532,1544,1543,1543,1543,0,0,0,0,0,0,0,0,0,0
1680866536.49986601,103728492,1537,1537,1538,1536,0,0,0,0,0,0,0,0,0,0
1680866536.59982610,103828452,1531,1532,1533,1530,0,0,0,0,0,0,0,0,0,0
1680866536.69978595,103928412,1525,1525,1526,1524,0,0,0,0,0,0,0,0,0,0
1680866536.79974604,104028372,1519,1520,1519,1520,0,0,0,0,0,0,0,0,0,0
1680866536.89970589,104128332,1518,1517,1517,1518,0,0,0,0,0,0,0,0,0,0
1680866536.99966598,104228292,1518,1518,1518,1519,0,0,0,0,0,0,0,0,0,0
1680866537.09962606,104328252,1521,1521,1521,1522,0,0,0,0,0,0,0,0,0,0
1680866537.19958591,104428212,1527,1527,1530,1524,0,0,0,0,0,0,0,0,0,0
1680866537.29954600,104528172,1534,1534,1539,1529,0,0,0,0,0,0,0,0,0,0
1680866537.40033889,104628965,1537,1538,1539,1536,0,0,0,0,0,0,0,0,0,0
1680866537.50029898,104728925,1542,1542,1540,1544,0,0,0,0,0,0,0,0,0,0
1680866537.60025907,104828885,1545,1545,1541,1549,0,0,0,0,0,0,0,0,0,0
1680866537.70021892,104928845,1548,1548,1543,1552,0,0,0,0,0,0,0,0,0,0
1680866537.80017900,105028805,1550,1550,1547,1553,0,0,0,0,0,0,0,0,0,0
1680866537.90013909,105128765,1554,1554,1553,1554,0,0,0,0,0,0,0,0,0,0
1680866538.00009894,105228725,1557,1556,1559,1554,0,0,0,0,0,0,0,0,0,0
1680866538.10005903,105328685,1559,1559,1562,1556,0,0,0,0,0,0,0,0,0,0
1680866538.20001888,105428645,1561,1561,1564,1558,0,0,0,0,0,0,0,0,0,0
1680866538.29997897,105528605,1563,1564,1565,1562,0,0,0,0,0,0,0,0,0,0
1680866538.39993906,105628565,1564,1565,1564,1564,0,0,0,0,0,0,0,0,0,0
1680866538.49989891,105728525,1565,1565,1563,1566,0,0,0,0,0,0,0,0,0,0
1680866538.59985900,105828485,1562,1561,1567,1571,0,0,0,0,0,0,0,0,0,0
1680866538.69981909,105928445,1560,1560,1568,1571,0,0,0,0,0,0,0,0,0,0
1680866538.79977894,106028405,1562,1562,1568,1570,0,0,0,0,0,0,0,0,0,0
1680866538.89973903,106128365,1564,1564,1568,1569,0,0,0,0,0,0,0,0,0,0
1680866538.99969888,106228325,1566,1566,1567,1567,0,0,0,0,0,0,0,0,0,0
1680866539.09965897,106328285,1568,1569,1567,1567,0,0,0,0,0,0,0,0,0,0
1680866539.19961905,106428245,1570,1570,1567,1566,0,0,0,0,0,0,0,0,0,0
1680866539.29957891,106528205,1572,1572,1567,1566,0,0,0,0,0,0,0,0,0,0
1680866539.39953899,106628165,1573,1572,1567,1567,0,0,0,0,0,0,0,0,0,0
1680866539.50033188,106728958,1574,1574,1569,1568,0,0,0,0,0,0,0,0,0,0
1680866539.60029197,106828918,1573,1573,1568,1569,0,0,0,0,0,0,0,0,0,0
1680866539.70025206,106928878,1573,1573,1569,1571,0,0,0,0,0,0,0,0,0,0
1680866539.80021191,107028838,1573,1573,1571,1571,0,0,0,0,0,0,0,0,0,0
1680866539.90017200,107128798,1573,1572,1571,1571,0,0,0,0,0,0,0,0,0,0
1680866540.00013208,107228758,1573,1574,1574,1573,0,0,0,0,0,0,0,0,0,0
1680866540.10009193,107328718,1575,1575,1577,1575,0,0,0,0,0,0,0,0,0,0
1680866540.20005202,107428678,1574,1574,1576,1574,0,0,0,0,0,0,0,0,0,0
1680866540.30001187,107528638,1576,1575,1578,1577,0,0,0,0,0,0,0,0,0,0
1680866540.39997196,107628598,1575,1575,1577,1577,0,0,0,0,0,0,0,0,0,0
1680866540.49993205,107728558,1575,1575,1577,1577,0,0,0,0,0,0,0,0,0,0
1680866540.59989190,107828518,1575,1576,1577,1577,0,0,0,0,0,0,0,0,0,0
1680866540.69985199,107928478,1576,1576,1576,1577,0,0,0,0,0,0,0,0,0,0
1680866540.79981208,108028438,1576,1577,1577,1577,0,0,0,0,0,0,0,0,0,0
1680866540.89977193,108128398,1577,1577,1577,1577,0,0,0,0,0,0,0,0,0,0
1680866540.99973202,108228358,1578,1577,1577,1577,0,0,0,0,0,0,0,0,0,0
1680866541.09969211,108328318,1578,1578,1577,1577,0,0,0,0,0,0,0,0,0,0
1680866541.19965196,108428278,1577,1578,1577,1577,0,0,0,0,0,0,0,0,0,0
1680866541.29961205,108528238,1578,1578,1577,1577,0,0,0,0,0,0,0,0,0,0
1680866541.39957190,108628198,1579,1578,1578,1578,0,0,0,0,0,0,0,0,0,0
1680866541.49953198,108728158,1578,1578,1578,1578,0,0,0,0,0,0,0,0,0,0
1680866541.60032487,108828951,1578,1578,1578,1578,0,0,0,0,0,0,0,0,0,0
1680866541.70028496,108928911,1578,1578,1578,1578,0,0,0,0,0,0,0,0,0,0
1680866541.80024505,109028871,1577,1578,1578,1578,0,0,0,0,0,0,0,0,0,0
1680866541.90020490,109128831,1579,1579,1579,1580,0,0,0,0,0,0,0,0,0,0
1680866542.00016499,109228791,1578,1578,1579,1579,0,0,0,0,0,0,0,0,0,0
1680866542.10012507,109328751,1579,1579,1579,1579,0,0,0,0,0,0,0,0,0,0
1680866542.20008492,109428711,1578,1578,1579,1578,0,0,0,0,0,0,0,0,0,0
1680866542.30004501,109528671,1580,1579,1580,1580,0,0,0,0,0,0,0,0,0,0
1680866542.40000510,109628631,1580,1580,1580,1580,0,0,0,0,0,0,0,0,0,0
1680866542.49996495,109728591,1580,1581,1581,1581,0,0,0,0,0,0,0,0,0,0
1680866542.59992504,109828551,1580,1580,1581,1580,0,0,0,0,0,0,0,0,0,0
1680866542.69988489,109928511,1579,1580,1580,1580,0,0,0,0,0,0,0,0,0,0
1680866542.79984498,110028471,1580,1580,1580,1581,0,0,0,0,0,0,0,0,0,0
1680866542.89980507,110128431,1579,1579,1579,1580,0,0,0,0,0,0,0,0,0,0
1680866542.99976492,110228391,1579,1579,1579,1579,0,0,0,0,0,0,0,0,0,0
1680866543.09972501,110328351,1580,1580,1580,1580,0,0,0,0,0,0,0,0,0,0
1680866543.19968510,110428311,1580,1579,1579,1579,0,0,0,0,0,0,0,0,0,0
1680866543.29964495,110528271,1580,1580,1580,1580,0,0,0,0,0,0,0,0,0,0
1680866543.39960504,110628231,1580,1581,1580,1580,0,0,0,0,0,0,0,0,0,0
1680866543.49956489,110728191,1581,1581,1581,1581,0,0,0,0,0,0,0,0,0,0
1680866543.60035801,110828984,1582,1582,1582,1582,0,0,0,0,0,0,0,0,0,0
1680866543.70031810,110928944,1581,1581,1581,1581,0,0,0,0,0,0,0,0,0,0
1680866543.80027795,111028904,1581,1581,1581,1581,0,0,0,0,0,0,0,0,0,0
1680866543.90023804,111128864,1580,1580,1580,1580,0,0,0,0,0,0,0,0,0,0
1680866544.00019789,111228824,1581,1581,1581,1581,0,0,0,0,0,0,0,0,0,0
1680866544.10015798,111328784,1580,1580,1580,1581,0,0,0,0,0,0,0,0,0,0
1680866544.20011806,111428744,1580,1579,1580,1579,0,0,0,0,0,0,0,0,0,0
1680866544.30007792,111528704,1581,1581,1581,1581,0,0,0,0,0,0,0,0,0,0
1680866544.40003800,111628664,1581,1581,1581,1581,0,0,0,0,0,0,0,0,0,0
1680866544.49999809,111728624,1581,1582,1582,1581,0,0,0,0,0,0,0,0,0,0
1680866544.59995794,111828584,1582,1582,1582,1582,0,0,0,0,0,0,0,0,0,0
1680866544.69991803,111928544,1581,1582,1581,1581,0,0,0,0,0,0,0,0,0,0
1680866544.79987788,112028504,1580,1581,1584,1577,0,0,0,0,0,0,0,0,0,0
1680866544.89983797,112128464,1581,1583,1588,1573,0,0,0,0,0,0,0,0,0,0
1680866544.99979806,112228424,1579,1581,1580,1573,0,0,0,0,0,0,0,0,0,0
1680866545.09975791,112328384,1577,1581,1572,1573,0,0,0,0,0,0,0,0,0,0
1680866545.19971800,112428344,1576,1580,1564,1570,0,0,0,0,0,0,0,0,0,0
1680866545.29967809,112528304,1577,1579,1558,1566,0,0,0,0,0,0,0,0,0,0
1680866545.39963794,112628264,1579,1578,1556,1560,0,0,0,0,0,0,0,0,0,0
1680866545.49959803,112728224,1580,1578,1555,1557,0,0,0,0,0,0,0,0,0,0
1680866545.59955788,112828184,1580,1578,1555,1554,0,0,0,0,0,0,0,0,0,0
1680866545.70035100,112928977,1580,1578,1555,1553,0,0,0,0,0,0,0,0,0,0
1680866545.80031109,113028937,1578,1578,1556,1553,0,0,0,0,0,0,0,0,0,0
1680866545.90027094,113128897,1577,1578,1555,1553,0,0,0,0,0,0,0,0,0,0
1680866546.00023103,113228857,1577,1578,1555,1554,0,0,0,0,0,0,0,0,0,0
1680866546.10019088,113328817,1576,1577,1554,1554,0,0,0,0,0,0,0,0,0,0
1680866546.20015097,113428777,1576,1577,1552,1552,0,0,0,0,0,0,0,0,0,0
1680866546.30011106,113528737,1576,1578,1550,1550,0,0,0,0,0,0,0,0,0,0
1680866546.40007091,113628697,1578,1579,1548,1548,0,0,0,0,0,0,0,0,0,0
1680866546.50003099,113728657,1581,1581,1546,1546,0,0,0,0,0,0,0,0,0,0
1680866546.59999108,113828617,1583,1584,1543,1543,0,0,0,0,0,0,0,0,0,0
1680866546.69995093,113928577,1586,1587,1541,1540,0,0,0,0,0,0,0,0,0,0
1680866546.79991102,114028537,1590,1591,1539,1539,0,0,0,0,0,0,0,0,0,0
1680866546.89987087,114128497,1593,1593,1537,1537,0,0,0,0,0,0,0,0,0,0
1680866546.99983096,114228457,1595,1595,1536,1536,0,0,0,0,0,0,0,0,0,0
1680866547.09979105,114328417,1595,1595,1535,1536,0,0,0,0,0,0,0,0,0,0
1680866547.19975090,114428377,1595,1595,1536,1538,0,0,0,0,0,0,0,0,0,0
1680866547.29971099,114528337,1593,1593,1538,1541,0,0,0,0,0,0,0,0,0,0
1680866547.39967108,114628297,1590,1589,1543,1546,0,0,0,0,0,0,0,0,0,0
1680866547.49963093,114728257,1585,1582,1551,1554,0,0,0,0,0,0,0,0,0,0
1680866547.59959102,114828217,1576,1572,1560,1563,0,0,0,0,0,0,0,0,0,0
1680866547.69955111,114928177,1567,1563,1573,1575,0,0,0,0,0,0,0,0,0,0
1680866547.80034399,115028970,1556,1552,1586,1587,0,0,0,0,0,0,0,0,0,0
1680866547.90030408,115128930,1545,1542,1598,1598,0,0,0,0,0,0,0,0,0,0
1680866548.00026393,115228890,1535,1534,1606,1606,0,0,0,0,0,0,0,0,0,0
1680866548.10022402,115328850,1529,1530,1612,1611,0,0,0,0,0,0,0,0,0,0
1680866548.20018387,115428810,1527,1530,1615,1614,0,0,0,0,0,0,0,0,0,0
1680866548.30014396,115528770,1530,1532,1614,1613,0,0,0,0,0,0,0,0,0,0
1680866548.40010405,115628730,1536,1538,1610,1610,0,0,0,0,0,0,0,0,0,0
1680866548.50006390,115728690,1544,1545,1604,1605,0,0,0,0,0,0,0,0,0,0
1680866548.60002398,115828650,1551,1552,1596,1596,0,0,0,0,0,0,0,0,0,0
1680866548.69998407,115928610,1562,1562,1590,1590,0,0,0,0,0,0,0,0,0,0
1680866548.79994392,116028570,1569,1569,1582,1581,0,0,0,0,0,0,0,0,0,0
1680866548.89990401,116128530,1576,1576,1576,1575,0,0,0,0,0,0,0,0,0,0
1680866548.99986410,116228490,1582,1582,1571,1571,0,0,0,0,0,0,0,0,0,0
1680866549.09982395,116328450,1586,1584,1567,1567,0,0,0,0,0,0,0,0,0,0
1680866549.19978404,116428410,1587,1586,1566,1566,0,0,0,0,0,0,0,0,0,0
1680866549.29974389,116528370,1587,1586,1565,1565,0,0,0,0,0,0,0,0,0,0
1680866549.39970398,116628330,1586,1585,1567,1567,0,0,0,0,0,0,0,0,0,0
1680866549.49966407,116728290,1584,1583,1570,1570,0,0,0,0,0,0,0,0,0,0
1680866549.59962392,116828250,1582,1581,1573,1573,0,0,0,0,0,0,0,0,0,0
1680866549.69958401,116928210,1579,1579,1576,1577,0,0,0,0,0,0,0,0,0,0
1680866549.79954410,117028170,1575,1575,1578,1578,0,0,0,0,0,0,0,0,0,0
1680866549.90033698,117128963,1573,1574,1581,1581,0,0,0,0,0,0,0,0,0,0
1680866550.00029707,117228923,1572,1573,1582,1582,0,0,0,0,0,0,0,0,0,0
1680866550.10025692,117328883,1572,1573,1584,1583,0,0,0,0,0,0,0,0,0,0
1680866550.20021701,117428843,1572,1573,1584,1583,0,0,0,0,0,0,0,0,0,0
1680866550.30017710,117528803,1583,1583,1528,1563,0,0,0,0,0,0,0,0,0,0
1680866550.40013695,117628763,1592,1592,1566,1559,0,0,0,0,0,0,0,0,0,0
1680866550.50009704,117728723,1601,1600,1596,1568,0,0,0,0,0,0,0,0,0,0
1680866550.60005689,117828683,1604,1605,1614,1581,0,0,0,0,0,0,0,0,0,0
1680866550.70001698,117928643,1603,1604,1620,1596,0,0,0,0,0,0,0,0,0,0
1680866550.79997706,118028603,1595,1596,1614,1604,0,0,0,0,0,0,0,0,0,0
1680866550.89993691,118128563,1585,1586,1605,1608,0,0,0,0,0,0,0,0,0,0
1680866550.99989700,118228523,1575,1576,1594,1606,0,0,0,0,0,0,0,0,0,0
1680866551.09985709,118328483,1570,1570,1588,1603,0,0,0,0,0,0,0,0,0,0
1680866551.19981694,118428443,1568,1567,1584,1596,0,0,0,0,0,0,0,0,0,0
1680866551.29977703,118528403,1569,1567,1584,1590,0,0,0,0,0,0,0,0,0,0
1680866551.39973688,118628363,1571,1571,1583,1584,0,0,0,0,0,0,0,0,0,0
1680866551.49969697,118728323,1573,1572,1581,1578,0,0,0,0,0,0,0,0,0,0
1680866551.59965706,118828283,1575,1576,1578,1575,0,0,0,0,0,0,0,0,0,0
1680866551.69961691,118928243,1578,1579,1576,1573,0,0,0,0,0,0,0,0,0,0
1680866551.79957700,119028203,1580,1581,1573,1572,0,0,0,0,0,0,0,0,0,0
1680866551.89953709,119128163,1580,1580,1570,1571,0,0,0,0,0,0,0,0,0,0
1680866552.00032997,119228956,1581,1581,1569,1571,0,0,0,0,0,0,0,0,0,0
1680866552.10029006,119328916,1581,1580,1569,1571,0,0,0,0,0,0,0,0,0,0
1680866552.20024991,119428876,1580,1579,1570,1571,0,0,0,0,0,0,0,0,0,0
1680866552.30021000,119528836,1579,1578,1571,1572,0,0,0,0,0,0,0,0,0,0
1680866552.40017009,119628796,1577,1577,1572,1573,0,0,0,0,0,0,0,0,0,0
1680866552.50012994,119728756,1577,1577,1575,1575,0,0,0,0,0,0,0,0,0,0
1680866552.60009003,119828716,1577,1576,1577,1576,0,0,0,0,0,0,0,0,0,0
1680866552.70004988,119928676,1575,1576,1578,1578,0,0,0,0,0,0,0,0,0,0
1680866552.80000997,120028636,1574,1577,1584,1573,0,0,0,0,0,0,0,0,0,0
1680866552.89997005,120128596,1575,1580,1585,1570,0,0,0,0,0,0,0,0,0,0
1680866552.99992990,120228556,1574,1579,1577,1570,0,0,0,0,0,0,0,0,0,0
1680866553.09988999,120328516,1574,1578,1568,1570,0,0,0,0,0,0,0,0,0,0
1680866553.19985008,120428476,1576,1578,1560,1568,0,0,0,0,0,0,0,0,0,0
1680866553.29980993,120528436,1576,1576,1553,1561,0,0,0,0,0,0,0,0,0,0
1680866553.39977002,120628396,1579,1577,1551,1556,0,0,0,0,0,0,0,0,0,0
1680866553.49972987,120728356,1580,1578,1550,1552,0,0,0,0,0,0,0,0,0,0
1680866553.59968996,120828316,1581,1579,1550,1550,0,0,0,0,0,0,0,0,0,0
1680866553.69965005,120928276,1581,1580,1551,1549,0,0,0,0,0,0,0,0,0,0
1680866553.79960990,121028236,1580,1580,1552,1549,0,0,0,0,0,0,0,0,0,0
1680866553.89956999,121128196,1579,1580,1553,1550,0,0,0,0,0,0,0,0,0,0
1680866553.99953008,121228156,1577,1579,1552,1550,0,0,0,0,0,0,0,0,0,0
1680866554.10032296,121328949,1577,1578,1551,1551,0,0,0,0,0,0,0,0,0,0
1680866554.20028305,121428909,1576,1578,1550,1551,0,0,0,0,0,0,0,0,0,0
1680866554.30024290,121528869,1577,1578,1549,1550,0,0,0,0,0,0,0,0,0,0
1680866554.40020299,121628829,1578,1579,1549,1549,0,0,0,0,0,0,0,0,0,0
1680866554.50016308,121728789,1581,1581,1548,1549,0,0,0,0,0,0,0,0,0,0
1680866554.60012293,121828749,1582,1583,1547,1547,0,0,0,0,0,0,0,0,0,0
1680866554.70008302,121928709,1584,1585,1546,1546,0,0,0,0,0,0,0,0,0,0
1680866554.80004311,122028669,1586,1587,1544,1545,0,0,0,0,0,0,0,0,0,0
1680866554.90000296,122128629,1589,1590,1544,1545,0,0,0,0,0,0,0,0,0,0
1680866554.99996305,122228589,1590,1591,1542,1544,0,0,0,0,0,0,0,0,0,0
1680866555.09992290,122328549,1591,1591,1543,1546,0,0,0,0,0,0,0,0,0,0
1680866555.19988298,122428509,1591,1588,1546,1548,0,0,0,0,0,0,0,0,0,0
1680866555.29984307,122528469,1588,1584,1552,1554,0,0,0,0,0,0,0,0,0,0
1680866555.39980292,122628429,1583,1578,1559,1561,0,0,0,0,0,0,0,0,0,0
1680866555.49976301,122728389,1575,1571,1569,1570,0,0,0,0,0,0,0,0,0,0
1680866555.59972310,122828349,1565,1562,1577,1578,0,0,0,0,0,0,0,0,0,0
1680866555.69968295,122928309,1557,1555,1588,1588,0,0,0,0,0,0,0,0,0,0
1680866555.79964304,123028269,1549,1548,1596,1596,0,0,0,0,0,0,0,0,0,0
1680866555.89960289,123128229,1544,1544,1602,1601,0,0,0,0,0,0,0,0,0,0
1680866555.99956298,123228189,1542,1543,1607,1605,0,0,0,0,0,0,0,0,0,0
1680866556.10035610,123328982,1542,1543,1607,1606,0,0,0,0,0,0,0,0,0,0
1680866556.20031595,123428942,1546,1548,1607,1606,0,0,0,0,0,0,0,0,0,0
1680866556.30027604,123528902,1550,1551,1604,1602,0,0,0,0,0,0,0,0,0,0
1680866556.40023589,123628862,1555,1556,1601,1599,0,0,0,0,0,0,0,0,0,0
1680866556.50019598,123728822,1559,1560,1595,1594,0,0,0,0,0,0,0,0,0,0
1680866556.60015607,123828782,1564,1565,1589,1589,0,0,0,0,0,0,0,0,0,0
1680866556.70011592,123928742,1570,1570,1583,1584,0,0,0,0,0,0,0,0,0,0
1680866556.80007601,124028702,1576,1575,1578,1579,0,0,0,0,0,0,0,0,0,0
1680866556.90003610,124128662,1579,1577,1573,1573,0,0,0,0,0,0,0,0,0,0
1680866556.99999595,124228622,1583,1581,1570,1571,0,0,0,0,0,0,0,0,0,0
1680866557.09995604,124328582,1585,1584,1570,1571,0,0,0,0,0,0,0,0,0,0
1680866557.19991589,124428542,1584,1584,1569,1570,0,0,0,0,0,0,0,0,0,0
1680866557.29987597,124528502,1584,1583,1570,1570,0,0,0,0,0,0,0,0,0,0
1680866557.39983606,124628462,1582,1582,1572,1571,0,0,0,0,0,0,0,0,0,0
1680866557.49979591,124728422,1581,1580,1574,1574,0,0,0,0,0,0,0,0,0,0
1680866557.59975600,124828382,1579,1579,1577,1576,0,0,0,0,0,0,0,0,0,0
1680866557.69971609,124928342,1577,1577,1579,1578,0,0,0,0,0,0,0,0,0,0
1680866557.79967594,125028302,1576,1577,1581,1581,0,0,0,0,0,0,0,0,0,0
1680866557.89963603,125128262,1575,1575,1582,1582,0,0,0,0,0,0,0,0,0,0
1680866557.99959588,125228222,1575,1575,1583,1583,0,0,0,0,0,0,0,0,0,0
1680866558.09955597,125328182,1574,1574,1583,1583,0,0,0,0,0,0,0,0,0,0
1680866558.20034909,125428975,1574,1574,1583,1583,0,0,0,0,0,0,0,0,0,0
1680866558.30030894,125528935,1575,1575,1583,1582,0,0,0,0,0,0,0,0,0,0
1680866558.40026903,125628895,1576,1576,1582,1582,0,0,0,0,0,0,0,0,0,0
1680866558.50022888,125728855,1577,1576,1580,1581,0,0,0,0,0,0,0,0,0,0
1680866558.60018897,125828815,1577,1578,1579,1580,0,0,0,0,0,0,0,0,0,0
1680866558.70014906,125928775,1579,1579,1578,1579,0,0,0,0,0,0,0,0,0,0
1680866558.80010891,126028735,1580,1580,1578,1579,0,0,0,0,0,0,0,0,0,0
1680866558.90006900,126128695,1581,1580,1578,1578,0,0,0,0,0,0,0,0,0,0
1680866559.00002909,126228655,1581,1581,1578,1578,0,0,0,0,0,0,0,0,0,0
1680866559.09998894,126328615,1581,1581,1579,1578,0,0,0,0,0,0,0,0,0,0
1680866559.19994903,126428575,1581,1581,1579,1579,0,0,0,0,0,0,0,0,0,0
1680866559.29990888,126528535,1581,1582,1579,1579,0,0,0,0,0,0,0,0,0,0
1680866559.39986897,126628495,1581,1581,1579,1579,0,0,0,0,0,0,0,0,0,0
1680866559.49982905,126728455,1580,1580,1579,1579,0,0,0,0,0,0,0,0,0,0
1680866559.59978890,126828415,1580,1580,1580,1580,0,0,0,0,0,0,0,0,0,0
1680866559.69974899,126928375,1580,1580,1581,1581,0,0,0,0,0,0,0,0,0,0
1680866559.79970908,127028335,1580,1580,1581,1581,0,0,0,0,0,0,0,0,0,0
1680866559.89966893,127128295,1580,1580,1582,1581,0,0,0,0,0,0,0,0,0,0
1680866559.99962902,127228255,1580,1580,1582,1581,0,0,0,0,0,0,0,0,0,0
1680866560.09958887,127328215,1580,1580,1582,1581,0,0,0,0,0,0,0,0,0,0
1680866560.19954896,127428175,1580,1580,1581,1582,0,0,0,0,0,0,0,0,0,0
1680866560.30034208,127528968,1580,1580,1581,1581,0,0,0,0,0,0,0,0,0,0
1680866560.40030193,127628928,1580,1580,1581,1581,0,0,0,0,0,0,0,0,0,0
1680866560.50026202,127728888,1580,1580,1581,1581,0,0,0,0,0,0,0,0,0,0
1680866560.60022187,127828848,1581,1581,1581,1581,0,0,0,0,0,0,0,0,0,0
1680866560.70018196,127928808,1581,1581,1581,1581,0,0,0,0,0,0,0,0,0,0
1680866560.80014205,128028768,1580,1580,1580,1580,0,0,0,0,0,0,0,0,0,0
1680866560.90010190,128128728,1580,1581,1585,1575,0,0,0,0,0,0,0,0,0,0
1680866561.00006199,128228688,1580,1583,1586,1572,0,0,0,0,0,0,0,0,0,0
1680866561.10002208,128328648,1580,1583,1579,1572,0,0,0,0,0,0,0,0,0,0
1680866561.19998193,128428608,1578,1581,1570,1571,0,0,0,0,0,0,0,0,0,0
1680866561.29994202,128528568,1578,1580,1563,1569,0,0,0,0,0,0,0,0,0,0
1680866561.39990211,128628528,1577,1579,1557,1564,0,0,0,0,0,0,0,0,0,0
1680866561.49986196,128728488,1580,1579,1554,1560,0,0,0,0,0,0,0,0,0,0
1680866561.59982204,128828448,1581,1578,1554,1556,0,0,0,0,0,0,0,0,0,0
1680866561.69978189,128928408,1581,1579,1554,1554,0,0,0,0,0,0,0,0,0,0
1680866561.79974198,129028368,1580,1579,1555,1553,0,0,0,0,0,0,0,0,0,0
1680866561.89970207,129128328,1578,1578,1554,1552,0,0,0,0,0,0,0,0,0,0
1680866561.99966192,129228288,1576,1578,1554,1552,0,0,0,0,0,0,0,0,0,0
1680866562.09962201,129328248,1576,1578,1554,1553,0,0,0,0,0,0,0,0,0,0
1680866562.19958210,129428208,1576,1578,1554,1554,0,0,0,0,0,0,0,0,0,0
1680866562.29954195,129528168,1577,1578,1553,1553,0,0,0,0,0,0,0,0,0,0
1680866562.40033507,129628961,1577,1578,1551,1551,0,0,0,0,0,0,0,0,0,0
1680866562.50029492,129728921,1579,1579,1550,1550,0,0,0,0,0,0,0,0,0,0
1680866562.60025501,129828881,1580,1581,1547,1547,0,0,0,0,0,0,0,0,0,0
1680866562.70021510,129928841,1582,1583,1545,1544,0,0,0,0,0,0,0,0,0,0
1680866562.80017495,130028801,1586,1587,1544,1543,0,0,0,0,0,0,0,0,0,0
1680866562.90013504,130128761,1588,1589,1541,1541,0,0,0,0,0,0,0,0,0,0
1680866563.00009489,130228721,1591,1592,1540,1541,0,0,0,0,0,0,0,0,0,0
1680866563.10005498,130328681,1593,1594,1539,1540,0,0,0,0,0,0,0,0,0,0
1680866563.20001507,130428641,1595,1596,1538,1540,0,0,0,0,0,0,0,0,0,0
1680866563.29997492,130528601,1595,1595,1538,1541,0,0,0,0,0,0,0,0,0,0
1680866563.39993501,130628561,1594,1593,1542,1545,0,0,0,0,0,0,0,0,0,0
1680866563.49989510,130728521,1591,1587,1547,1550,0,0,0,0,0,0,0,0,0,0
1680866563.59985495,130828481,1584,1581,1555,1558,0,0,0,0,0,0,0,0,0,0
1680866563.69981503,130928441,1575,1571,1565,1568,0,0,0,0,0,0,0,0,0,0
1680866563.79977489,131028401,1565,1562,1577,1578,0,0,0,0,0,0,0,0,0,0
1680866563.89973497,131128361,1555,1552,1589,1589,0,0,0,0,0,0,0,0,0,0
1680866563.99969506,131228321,1545,1544,1599,1599,0,0,0,0,0,0,0,0,0,0
1680866564.09965491,131328281,1539,1538,1607,1607,0,0,0,0,0,0,0,0,0,0
1680866564.19961500,131428241,1535,1536,1613,1612,0,0,0,0,0,0,0,0,0,0
1680866564.29957509,131528201,1536,1536,1615,1613,0,0,0,0,0,0,0,0,0,0
1680866564.39953494,131628161,1538,1540,1613,1611,0,0,0,0,0,0,0,0,0,0
1680866564.50032806,131728954,1543,1545,1609,1608,0,0,0,0,0,0,0,0,0,0
1680866564.60028791,131828914,1549,1551,1604,1602,0,0,0,0,0,0,0,0,0,0
1680866564.70024800,131928874,1556,1557,1597,1596,0,0,0,0,0,0,0,0,0,0
1680866564.80020809,132028834,1563,1564,1590,1590,0,0,0,0,0,0,0,0,0,0
1680866564.90016794,132128794,1571,1570,1582,1582,0,0,0,0,0,0,0,0,0,0
1680866565.00012803,132228754,1576,1576,1575,1576,0,0,0,0,0,0,0,0,0,0
1680866565.10008788,132328714,1581,1579,1570,1571,0,0,0,0,0,0,0,0,0,0
1680866565.20004797,132428674,1585,1584,1568,1568,0,0,0,0,0,0,0,0,0,0
1680866565.30000806,132528634,1587,1584,1566,1566,0,0,0,0,0,0,0,0,0,0
1680866565.39996791,132628594,1586,1584,1565,1566,0,0,0,0,0,0,0,0,0,0
1680866565.49992800,132728554,1585,1585,1568,1568,0,0,0,0,0,0,0,0,0,0
1680866565.59988809,132828514,1583,1583,1570,1570,0,0,0,0,0,0,0,0,0,0
1680866565.69984794,132928474,1581,1581,1573,1573,0,0,0,0,0,0,0,0,0,0
1680866565.79980803,133028434,1578,1578,1575,1575,0,0,0,0,0,0,0,0,0,0
1680866565.89976788,133128394,1575,1576,1578,1578,0,0,0,0,0,0,0,0,0,0
1680866565.99972796,133228354,1574,1575,1581,1581,0,0,0,0,0,0,0,0,0,0
1680866566.09968805,133328314,1572,1573,1582,1582,0,0,0,0,0,0,0,0,0,0
1680866566.19964790,133428274,1572,1573,1583,1583,0,0,0,0,0,0,0,0,0,0
1680866566.29960799,133528234,1573,1574,1585,1584,0,0,0,0,0,0,0,0,0,0
1680866566.39956808,133628194,1574,1574,1584,1584,0,0,0,0,0,0,0,0,0,0
1680866566.49952793,133728154,1576,1576,1584,1584,0,0,0,0,0,0,0,0,0,0
1680866566.60032105,133828947,1576,1576,1582,1582,0,0,0,0,0,0,0,0,0,0
1680866566.70028090,133928907,1577,1577,1581,1581,0,0,0,0,0,0,0,0,0,0
1680866566.80024099,134028867,1578,1578,1580,1580,0,0,0,0,0,0,0,0,0,0
1680866566.90020108,134128827,1579,1579,1578,1579,0,0,0,0,0,0,0,0,0,0
1680866567.00016093,134228787,1580,1580,1578,1578,0,0,0,0,0,0,0,0,0,0
1680866567.10012102,134328747,1581,1581,1578,1578,0,0,0,0,0,0,0,0,0,0
1680866567.20008087,134428707,1581,1581,1577,1577,0,0,0,0,0,0,0,0,0,0
1680866567.30004096,134528667,1583,1583,1578,1578,0,0,0,0,0,0,0,0,0,0
1680866567.40000105,134628627,1581,1581,1578,1577,0,0,0,0,0,0,0,0,0,0
1680866567.49996090,134728587,1581,1581,1578,1578,0,0,0,0,0,0,0,0,0,0
1680866567.59992099,134828547,1581,1581,1579,1579,0,0,0,0,0,0,0,0,0,0
1680866567.69988108,134928507,1580,1580,1579,1579,0,0,0,0,0,0,0,0,0,0
1680866567.79984093,135028467,1580,1580,1579,1580,0,0,0,0,0,0,0,0,0,0
1680866567.89980102,135128427,1579,1579,1580,1580,0,0,0,0,0,0,0,0,0,0
1680866567.99976110,135228387,1580,1580,1581,1581,0,0,0,0,0,0,0,0,0,0
1680866568.09972095,135328347,1579,1579,1581,1581,0,0,0,0,0,0,0,0,0,0
1680866568.19968104,135428307,1579,1579,1581,1581,0,0,0,0,0,0,0,0,0,0
1680866568.29964089,135528267,1578,1579,1581,1580,0,0,0,0,0,0,0,0,0,0
1680866568.39960098,135628227,1579,1580,1581,1581,0,0,0,0,0,0,0,0,0,0
1680866568.49956107,135728187,1579,1579,1580,1580,0,0,0,0,0,0,0,0,0,0
1680866568.60035396,135828980,1581,1581,1581,1581,0,0,0,0,0,0,0,0,0,0
1680866568.70031404,135928940,1580,1580,1580,1580,0,0,0,0,0,0,0,0,0,0
1680866568.80027390,136028900,1581,1582,1586,1573,0,0,0,0,0,0,0,0,0,0
1680866568.90023398,136128860,1582,1582,1587,1573,0,0,0,0,0,0,0,0,0,0
1680866569.00019407,136228820,1579,1580,1580,1575,0,0,0,0,0,0,0,0,0,0
1680866569.10015392,136328780,1576,1575,1573,1576,0,0,0,0,0,0,0,0,0,0
1680866569.20011401,136428740,1572,1572,1568,1574,0,0,0,0,0,0,0,0,0,0
1680866569.30007410,136528700,1570,1569,1565,1572,0,0,0,0,0,0,0,0,0,0
1680866569.40003395,136628660,1568,1567,1565,1569,0,0,0,0,0,0,0,0,0,0
1680866569.49999404,136728620,1566,1566,1565,1566,0,0,0,0,0,0,0,0,0,0
1680866569.59995389,136828580,1565,1566,1566,1565,0,0,0,0,0,0,0,0,0,0
1680866569.69991398,136928540,1565,1566,1567,1564,0,0,0,0,0,0,0,0,0,0
1680866569.79987407,137028500,1564,1565,1566,1563,0,0,0,0,0,0,0,0,0,0
1680866569.89983392,137128460,1564,1563,1565,1563,0,0,0,0,0,0,0,0,0,0
1680866569.99979401,137228420,1563,1563,1564,1564,0,0,0,0,0,0,0,0,0,0
1680866570.09975410,137328380,1563,1563,1564,1564,0,0,0,0,0,0,0,0,0,0
1680866570.19971395,137428340,1563,1563,1563,1563,0,0,0,0,0,0,0,0,0,0
1680866570.29967403,137528300,1561,1562,1562,1562,0,0,0,0,0,0,0,0,0,0
1680866570.39963388,137628260,1561,1561,1562,1561,0,0,0,0,0,0,0,0,0,0
1680866570.49959397,137728220,1561,1561,1561,1561,0,0,0,0,0,0,0,0,0,0
1680866570.59955406,137828180,1561,1561,1561,1561,0,0,0,0,0,0,0,0,0,0
1680866570.70034695,137928973,1560,1560,1561,1560,0,0,0,0,0,0,0,0,0,0
1680866570.80030704,138028933,1559,1560,1560,1559,0,0,0,0,0,0,0,0,0,0
1680866570.90026689,138128893,1558,1558,1558,1558,0,0,0,0,0,0,0,0,0,0
1680866571.00022697,138228853,1558,1558,1558,1557,0,0,0,0,0,0,0,0,0,0
1680866571.10018706,138328813,1558,1557,1558,1557,0,0,0,0,0,0,0,0,0,0
1680866571.20014691,138428773,1558,1558,1558,1557,0,0,0,0,0,0,0,0,0,0
1680866571.30010700,138528733,1559,1559,1560,1558,0,0,0,0,0,0,0,0,0,0
1680866571.40006709,138628693,1559,1559,1560,1557,0,0,0,0,0,0,0,0,0,0
1680866571.50002694,138728653,1559,1558,1560,1557,0,0,0,0,0,0,0,0,0,0
1680866571.59998703,138828613,1559,1559,1559,1560,0,0,0,0,0,0,0,0,0,0
1680866571.69994688,138928573,1559,1560,1557,1562,0,0,0,0,0,0,0,0,0,0
1680866571.79990697,139028533,1562,1562,1559,1565,0,0,0,0,0,0,0,0,0,0
1680866571.89986706,139128493,1562,1562,1559,1565,0,0,0,0,0,0,0,0,0,0
1680866571.99982691,139228453,1561,1561,1559,1563,0,0,0,0,0,0,0,0,0,0
1680866572.09978700,139328413,1562,1562,1561,1562,0,0,0,0,0,0,0,0,0,0
1680866572.19974709,139428373,1562,1562,1563,1560,0,0,0,0,0,0,0,0,0,0
1680866572.29970694,139528333,1561,1561,1563,1559,0,0,0,0,0,0,0,0,0,0
1680866572.39966702,139628293,1561,1561,1561,1561,0,0,0,0,0,0,0,0,0,0
1680866572.49962687,139728253,1558,1558,1556,1561,0,0,0,0,0,0,0,0,0,0
1680866572.59958696,139828213,1554,1554,1553,1556,0,0,0,0,0,0,0,0,0,0
1680866572.69954705,139928173,1549,1548,1548,1550,0,0,0,0,0,0,0,0,0,0
1680866572.80033994,140028966,1543,1543,1543,1543,0,0,0,0,0,0,0,0,0,0
1680866572.90030003,140128926,1536,1536,1537,1537,0,0,0,0,0,0,0,0,0,0
1680866573.00025988,140228886,1529,1529,1531,1529,0,0,0,0,0,0,0,0,0,0
1680866573.10021996,140328846,1522,1523,1524,1523,0,0,0,0,0,0,0,0,0,0
1680866573.20018005,140428806,1520,1520,1521,1520,0,0,0,0,0,0,0,0,0,0
1680866573.30013990,140528766,1519,1519,1519,1520,0,0,0,0,0,0,0,0,0,0
1680866573.40009999,140628726,1522,1522,1520,1522,0,0,0,0,0,0,0,0,0,0
1680866573.50006008,140728686,1525,1525,1523,1524,0,0,0,0,0,0,0,0,0,0
1680866573.60001993,140828646,1528,1528,1527,1527,0,0,0,0,0,0,0,0,0,0
1680866573.69998002,140928606,1533,1533,1531,1532,0,0,0,0,0,0,0,0,0,0
1680866573.79993987,141028566,1537,1537,1536,1536,0,0,0,0,0,0,0,0,0,0
1680866573.89989996,141128526,1540,1540,1539,1538,0,0,0,0,0,0,0,0,0,0
1680866573.99986005,141228486,1543,1543,1542,1541,0,0,0,0,0,0,0,0,0,0
1680866574.09981990,141328446,1544,1543,1544,1543,0,0,0,0,0,0,0,0,0,0
1680866574.19977999,141428406,1544,1545,1545,1544,0,0,0,0,0,0,0,0,0,0
1680866574.29974008,141528366,1545,1545,1545,1545,0,0,0,0,0,0,0,0,0,0
1680866574.39969993,141628326,1545,1546,1546,1545,0,0,0,0,0,0,0,0,0,0
1680866574.49966002,141728286,1545,1545,1546,1546,0,0,0,0,0,0,0,0,0,0
1680866574.59962010,141828246,1546,1545,1547,1546,0,0,0,0,0,0,0,0,0,0
1680866574.69957995,141928206,1546,1545,1546,1547,0,0,0,0,0,0,0,0,0,0
1680866574.79954004,142028166,1545,1546,1546,1547,0,0,0,0,0,0,0,0,0,0
1680866574.90033293,142128959,1545,1545,1546,1546,0,0,0,0,0,0,0,0,0,0
1680866575.00029302,142228919,1545,1545,1546,1546,0,0,0,0,0,0,0,0,0,0
1680866575.10025311,142328879,1546,1546,1546,1546,0,0,0,0,0,0,0,0,0,0
1680866575.20021296,142428839,1545,1545,1545,1545,0,0,0,0,0,0,0,0,0,0
1680866575.30017304,142528799,1545,1545,1545,1545,0,0,0,0,0,0,0,0,0,0
1680866575.40013289,142628759,1545,1545,1545,1545,0,0,0,0,0,0,0,0,0,0
1680866575.50009298,142728719,1545,1545,1545,1544,0,0,0,0,0,0,0,0,0,0
1680866575.60005307,142828679,1544,1544,1544,1543,0,0,0,0,0,0,0,0,0,0
1680866575.70001292,142928639,1545,1545,1544,1545,0,0,0,0,0,0,0,0,0,0
1680866575.79997301,143028599,1545,1546,1545,1545,0,0,0,0,0,0,0,0,0,0
1680866575.89993310,143128559,1545,1545,1545,1545,0,0,0,0,0,0,0,0,0,0
1680866575.99989295,143228519,1545,1545,1545,1544,0,0,0,0,0,0,0,0,0,0
1680866576.09985304,143328479,1545,1544,1544,1545,0,0,0,0,0,0,0,0,0,0
1680866576.19981289,143428439,1544,1544,1544,1545,0,0,0,0,0,0,0,0,0,0
1680866576.29977298,143528399,1544,1544,1544,1544,0,0,0,0,0,0,0,0,0,0
1680866576.39973307,143628359,1543,1543,1544,1543,0,0,0,0,0,0,0,0,0,0
1680866576.49969292,143728319,1544,1543,1544,1544,0,0,0,0,0,0,0,0,0,0
1680866576.59965301,143828279,1543,1543,1544,1544,0,0,0,0,0,0,0,0,0,0
1680866576.69961309,143928239,1544,1544,1544,1544,0,0,0,0,0,0,0,0,0,0
1680866576.79957294,144028199,1543,1543,1544,1543,0,0,0,0,0,0,0,0,0,0
1680866576.89953303,144128159,1544,1543,1544,1544,0,0,0,0,0,0,0,0,0,0
1680866577.00032592,144228952,1543,1543,1544,1543,0,0,0,0,0,0,0,0,0,0
1680866577.10028601,144328912,1543,1543,1543,1543,0,0,0,0,0,0,0,0,0,0
1680866577.20024610,144428872,1544,1544,1544,1544,0,0,0,0,0,0,0,0,0,0
1680866577.30020595,144528832,1544,1544,1544,1544,0,0,0,0,0,0,0,0,0,0
1680866577.40016603,144628792,1544,1544,1544,1544,0,0,0,0,0,0,0,0,0,0
1680866577.50012589,144728752,1544,1544,1543,1544,0,0,0,0,0,0,0,0,0,0
1680866577.60008597,144828712,1544,1544,1544,1544,0,0,0,0,0,0,0,0,0,0
1680866577.70004606,144928672,1545,1545,1545,1545,0,0,0,0,0,0,0,0,0,0
1680866577.80000591,145028632,1545,1545,1545,1545,0,0,0,0,0,0,0,0,0,0
1680866577.89996600,145128592,1545,1545,1544,1545,0,0,0,0,0,0,0,0,0,0
1680866577.99992609,145228552,1544,1545,1545,1544,0,0,0,0,0,0,0,0,0,0
1680866578.09988594,145328512,1544,1543,1544,1544,0,0,0,0,0,0,0,0,0,0
1680866578.19984603,145428472,1543,1543,1543,1544,0,0,0,0,0,0,0,0,0,0
1680866578.29980588,145528432,1545,1545,1545,1545,0,0,0,0,0,0,0,0,0,0
1680866578.39976597,145628392,1543,1544,1544,1543,0,0,0,0,0,0,0,0,0,0
1680866578.49972606,145728352,1545,1544,1544,1544,0,0,0,0,0,0,0,0,0,0
1680866578.59968591,145828312,1544,1545,1545,1545,0,0,0,0,0,0,0,0,0,0
1680866578.69964600,145928272,1544,1544,1544,1545,0,0,0,0,0,0,0,0,0,0
1680866578.79960608,146028232,1544,1544,1544,1544,0,0,0,0,0,0,0,0,0,0
1680866578.89956594,146128192,1544,1543,1544,1543,0,0,0,0,0,0,0,0,0,0
1680866579.00035906,146228985,1543,1544,1544,1544,0,0,0,0,0,0,0,0,0,0
1680866579.10031891,146328945,1544,1544,1544,1544,0,0,0,0,0,0,0,0,0,0
1680866579.20027900,146428905,1544,1544,1545,1544,0,0,0,0,0,0,0,0,0,0
1680866579.30023909,146528865,1544,1544,1544,1544,0,0,0,0,0,0,0,0,0,0
1680866579.40019894,146628825,1543,1544,1544,1544,0,0,0,0,0,0,0,0,0,0
1680866579.50015903,146728785,1544,1544,1544,1544,0,0,0,0,0,0,0,0,0,0
1680866579.60011888,146828745,1545,1545,1544,1545,0,0,0,0,0,0,0,0,0,0
1680866579.70007896,146928705,1544,1544,1544,1544,0,0,0,0,0,0,0,0,0,0
1680866579.80003905,147028665,1544,1544,1544,1544,0,0,0,0,0,0,0,0,0,0
1680866579.89999890,147128625,1544,1544,1544,1544,0,0,0,0,0,0,0,0,0,0
1680866579.99995899,147228585,1544,1544,1544,1544,0,0,0,0,0,0,0,0,0,0
1680866580.09991908,147328545,1545,1544,1544,1545,0,0,0,0,0,0,0,0,0,0
1680866580.19987893,147428505,1544,1544,1544,1544,0,0,0,0,0,0,0,0,0,0
1680866580.29983902,147528465,1544,1543,1543,1544,0,0,0,0,0,0,0,0,0,0
1680866580.39979887,147628425,1544,1544,1544,1544,0,0,0,0,0,0,0,0,0,0
1680866580.49975896,147728385,1544,1544,1544,1544,0,0,0,0,0,0,0,0,0,0
1680866580.59971905,147828345,1545,1545,1545,1545,0,0,0,0,0,0,0,0,0,0
1680866580.69967890,147928305,1544,1544,1544,1544,0,0,0,0,0,0,0,0,0,0
1680866580.79963899,148028265,1544,1544,1544,1544,0,0,0,0,0,0,0,0,0,0
1680866580.89959908,148128225,1544,1544,1544,1544,0,0,0,0,0,0,0,0,0,0
1680866580.99955893,148228185,1545,1545,1545,1544,0,0,0,0,0,0,0,0,0,0
1680866581.10035205,148328978,1544,1544,1544,1544,0,0,0,0,0,0,0,0,0,0
1680866581.20031190,148428938,1545,1545,1545,1545,0,0,0,0,0,0,0,0,0,0
1680866581.30027199,148528898,1544,1544,1545,1544,0,0,0,0,0,0,0,0,0,0
1680866581.40023208,148628858,1545,1544,1544,1545,0,0,0,0,0,0,0,0,0,0
1680866581.50019193,148728818,1544,1544,1544,1544,0,0,0,0,0,0,0,0,0,0
1680866581.60015202,148828778,1545,1545,1545,1545,0,0,0,0,0,0,0,0,0,0
1680866581.70011210,148928738,1545,1545,1545,1545,0,0,0,0,0,0,0,0,0,0
1680866581.80007195,149028698,1544,1544,1544,1544,0,0,0,0,0,0,0,0,0,0
1680866581.90003204,149128658,1544,1544,1544,1544,0,0,0,0,0,0,0,0,0,0
1680866581.99999189,149228618,1544,1545,1545,1544,0,0,0,0,0,0,0,0,0,0
1680866582.09995198,149328578,1544,1544,1544,1545,0,0,0,0,0,0,0,0,0,0
1680866582.19991207,149428538,1545,1545,1545,1545,0,0,0,0,0,0,0,0,0,0
1680866582.29987192,149528498,1544,1544,1544,1544,0,0,0,0,0,0,0,0,0,0
1680866582.39983201,149628458,1544,1544,1544,1544,0,0,0,0,0,0,0,0,0,0
1680866582.49979210,149728418,1546,1545,1545,1546,0,0,0,0,0,0,0,0,0,0
1680866582.59975195,149828378,1544,1544,1544,1544,0,0,0,0,0,0,0,0,0,0
1680866582.69971204,149928338,1545,1544,1545,1545,0,0,0,0,0,0,0,0,0,0
1680866582.79967189,150028298,1544,1545,1544,1544,0,0,0,0,0,0,0,0,0,0
1680866582.89963198,150128258,1536,1535,1537,1535,0,0,0,0,0,0,0,0,0,0
1680866582.99959207,150228218,1346,1348,1376,1347,0,0,0,0,0,0,0,0,0,0
1680866583.09955192,150328178,1246,1247,1295,1247,0,0,0,0,0,0,0,0,0,0
1680866583.20034504,150428971,1213,1215,1271,1213,0,0,0,0,0,0,0,0,0,0
1680866583.30030489,150528931,1191,1191,1253,1191,0,0,0,0,0,0,0,0,0,0
1680866583.40026498,150628891,1150,1151,1225,1150,0,0,0,0,0,0,0,0,0,0
1680866583.50022507,150728851,1150,1150,1225,1150,0,0,0,0,0,0,0,0,0,0
1680866583.60018492,150828811,1150,1152,1226,1150,0,0,0,0,0,0,0,0,0,0
1680866583.70014501,150928771,1191,1150,1223,1192,0,0,0,0,0,0,0,0,0,0
1680866583.80010509,151028731,1189,1150,1223,1191,0,0,0,0,0,0,0,0,0,0
1680866583.90006495,151128691,1179,1150,1224,1181,0,0,0,0,0,0,0,0,0,0
1680866584.00002503,151228651,1178,1150,1224,1179,0,0,0,0,0,0,0,0,0,0
1680866584.09998488,151328611,1181,1150,1224,1182,0,0,0,0,0,0,0,0,0,0
1680866584.19994497,151428571,1183,1150,1224,1184,0,0,0,0,0,0,0,0,0,0
1680866584.29990506,151528531,1186,1150,1224,1188,0,0,0,0,0,0,0,0,0,0
1680866584.39986491,151628491,1189,1150,1224,1190,0,0,0,0,0,0,0,0,0,0
1680866584.49982500,151728451,1164,1150,1224,1165,0,0,0,0,0,0,0,0,0,0
1680866584.59978509,151828411,1171,1150,1224,1172,0,0,0,0,0,0,0,0,0,0
1680866584.69974494,151928371,1173,1150,1224,1174,0,0,0,0,0,0,0,0,0,0
1680866584.79970503,152028331,1174,1150,1224,1175,0,0,0,0,0,0,0,0,0,0
1680866584.89966488,152128291,1175,1150,1224,1176,0,0,0,0,0,0,0,0,0,0
1680866584.99962497,152228251,1000,1000,1000,1000,0,0,0,0,0,0,0,0,0,0
1680866585.09958506,152328211,1000,1000,1000,1000,0,0,0,0,0,0,0,0,0,0
1680866585.19954491,152428171,1000,1000,1000,1000,0,0,0,0,0,0,0,0,0,0
1680866585.30033803,152528964,1000,1000,1000,1000,0,0,0,0,0,0,0,0,0,0
1680866585.40029788,152628924,1000,1000,1000,1000,0,0,0,0,0,0,0,0,0,0
1680866585.50025797,152728884,1000,1000,1000,1000,0,0,0,0,0,0,0,0,0,0
1680866585.60021806,152828844,1000,1000,1000,1000,0,0,0,0,0,0,0,0,0,0
1680866585.70017791,152928804,1000,1000,1000,1000,0,0,0,0,0,0,0,0,0,0
1680866585.80013800,153028764,1000,1000,1000,1000,0,0,0,0,0,0,0,0,0,0
1680866585.90009809,153128724,1000,1000,1000,1000,0,0,0,0,0,0,0,0,0,0
1680866586.00005794,153228684,1000,1000,1000,1000,0,0,0,0,0,0,0,0,0,0
1680866586.10001802,153328644,1000,1000,1000,1000,0,0,0,0,0,0,0,0,0,0
1680866586.19997787,153428604,1000,1000,1000,1000,0,0,0,0,0,0,0,0,0,0
1680866586.29993796,153528564,1000,1000,1000,1000,0,0,0,0,0,0,0,0,0,0
1680866586.39989805,153628524,1000,1000,1000,1000,0,0,0,0,0,0,0,0,0,0
1680866586.49985790,153728484,1000,1000,1000,1000,0,0,0,0,0,0,0,0,0,0
1680866586.59981799,153828444,1000,1000,1000,1000,0,0,0,0,0,0,0,0,0,0
1680866586.69977808,153928404,1000,1000,1000,1000,0,0,0,0,0,0,0,0,0,0
1680866586.79973793,154028364,1000,1000,1000,1000,0,0,0,0,0,0,0,0,0,0
1680866586.89969802,154128324,1000,1000,1000,1000,0,0,0,0,0,0,0,0,0,0
1680866586.99965787,154228284,1000,1000,1000,1000,0,0,0,0,0,0,0,0,0,0
1680866587.09961796,154328244,1000,1000,1000,1000,0,0,0,0,0,0,0,0,0,0
1680866587.19957805,154428204,1000,1000,1000,1000,0,0,0,0,0,0,0,0,0,0
1680866587.29953790,154528164,1000,1000,1000,1000,0,0,0,0,0,0,0,0,0,0
1680866587.40033102,154628957,1000,1000,1000,1000,0,0,0,0,0,0,0,0,0,0
1680866587.50029087,154728917,1000,1000,1000,1000,0,0,0,0,0,0,0,0,0,0
1680866587.60025096,154828877,1000,1000,1000,1000,0,0,0,0,0,0,0,0,0,0
1680866587.70021105,154928837,1000,1000,1000,1000,0,0,0,0,0,0,0,0,0,0
1680866587.80017090,155028797,1000,1000,1000,1000,0,0,0,0,0,0,0,0,0,0
1680866587.90013099,155128757,1000,1000,1000,1000,0,0,0,0,0,0,0,0,0,0
1680866588.00009108,155228717,1000,1000,1000,1000,0,0,0,0,0,0,0,0,0,0
1680866588.10005093,155328677,1000,1000,1000,1000,0,0,0,0,0,0,0,0,0,0
1680866588.20001101,155428637,1000,1000,1000,1000,0,0,0,0,0,0,0,0,0,0
1680866588.29997110,155528597,1000,1000,1000,1000,0,0,0,0,0,0,0,0,0,0
1680866588.39993095,155628557,1000,1000,1000,1000,0,0,0,0,0,0,0,0,0,0
1680866588.49989104,155728517,1000,1000,1000,1000,0,0,0,0,0,0,0,0,0,0
1680866588.59985089,155828477,1000,1000,1000,1000,0,0,0,0,0,0,0,0,0,0
1680866588.69981098,155928437,1000,1000,1000,1000,0,0,0,0,0,0,0,0,0,0
1680866588.79977107,156028397,1000,1000,1000,1000,0,0,0,0,0,0,0,0,0,0
1680866588.89973092,156128357,1000,1000,1000,1000,0,0,0,0,0,0,0,0,0,0
1680866588.99969101,156228317,1000,1000,1000,1000,0,0,0,0,0,0,0,0,0,0
1680866589.09965110,156328277,1000,1000,1000,1000,0,0,0,0,0,0,0,0,0,0
1680866589.19961095,156428237,1000,1000,1000,1000,0,0,0,0,0,0,0,0,0,0
1680866589.29957104,156528197,1000,1000,1000,1000,0,0,0,0,0,0,0,0,0,0
1680866589.39953089,156628157,1000,1000,1000,1000,0,0,0,0,0,0,0,0,0,0
1680866589.50032401,156728950,1000,1000,1000,1000,0,0,0,0,0,0,0,0,0,0
1680866589.60028410,156828910,1000,1000,1000,1000,0,0,0,0,0,0,0,0,0,0
1680866589.70024395,156928870,1000,1000,1000,1000,0,0,0,0,0,0,0,0,0,0
1680866589.80020404,157028830,1000,1000,1000,1000,0,0,0,0,0,0,0,0,0,0
1680866589.90016389,157128790,1000,1000,1000,1000,0,0,0,0,0,0,0,0,0,0
1680866590.00012398,157228750,1000,1000,1000,1000,0,0,0,0,0,0,0,0,0,0
1680866590.10008407,157328710,1000,1000,1000,1000,0,0,0,0,0,0,0,0,0,0
1680866590.20004392,157428670,1000,1000,1000,1000,0,0,0,0,0,0,0,0,0,0
1680866590.30000401,157528630,1000,1000,1000,1000,0,0,0,0,0,0,0,0,0,0
1680866590.39996409,157628590,1000,1000,1000,1000,0,0,0,0,0,0,0,0,0,0
1680866590.49992394,157728550,1000,1000,1000,1000,0,0,0,0,0,0,0,0,0,0
1680866590.59988403,157828510,1000,1000,1000,1000,0,0,0,0,0,0,0,0,0,0
1680866590.69984388,157928470,1000,1000,1000,1000,0,0,0,0,0,0,0,0,0,0
1680866590.79980397,158028430,1000,1000,1000,1000,0,0,0,0,0,0,0,0,0,0
1680866590.89976406,158128390,1000,1000,1000,1000,0,0,0,0,0,0,0,0,0,0
1680866590.99972391,158228350,1000,1000,1000,1000,0,0,0,0,0,0,0,0,0,0
1680866591.09968400,158328310,1000,1000,1000,1000,0,0,0,0,0,0,0,0,0,0
1680866591.19964409,158428270,1000,1000,1000,1000,0,0,0,0,0,0,0,0,0,0
1680866591.29960394,158528230,1000,1000,1000,1000,0,0,0,0,0,0,0,0,0,0
1680866591.39956403,158628190,1000,1000,1000,1000,0,0,0,0,0,0,0,0,0,0
1680866591.50035691,158728983,1000,1000,1000,1000,0,0,0,0,0,0,0,0,0,0
1680866591.60031700,158828943,1000,1000,1000,1000,0,0,0,0,0,0,0,0,0,0
1680866591.70027709,158928903,1000,1000,1000,1000,0,0,0,0,0,0,0,0,0,0
1680866591.80023694,159028863,1000,1000,1000,1000,0,0,0,0,0,0,0,0,0,0
1680866591.90019703,159128823,1000,1000,1000,1000,0,0,0,0,0,0,0,0,0,0
1680866592.00015688,159228783,1000,1000,1000,1000,0,0,0,0,0,0,0,0,0,0
1680866592.10011697,159328743,1000,1000,1000,1000,0,0,0,0,0,0,0,0,0,0
1680866592.20007706,159428703,1000,1000,1000,1000,0,0,0,0,0,0,0,0,0,0
1680866592.30003691,159528663,1000,1000,1000,1000,0,0,0,0,0,0,0,0,0,0
1680866592.39999700,159628623,1000,1000,1000,1000,0,0,0,0,0,0,0,0,0,0
1680866592.49995708,159728583,1000,1000,1000,1000,0,0,0,0,0,0,0,0,0,0
1680866592.59991693,159828543,1000,1000,1000,1000,0,0,0,0,0,0,0,0,0,0
1680866592.69987702,159928503,1000,1000,1000,1000,0,0,0,0,0,0,0,0,0,0
1680866592.79983687,160028463,1000,1000,1000,1000,0,0,0,0,0,0,0,0,0,0
1680866592.89979696,160128423,1000,1000,1000,1000,0,0,0,0,0,0,0,0,0,0
1680866592.99975705,160228383,1000,1000,1000,1000,0,0,0,0,0,0,0,0,0,0
1680866593.09971690,160328343,1000,1000,1000,1000,0,0,0,0,0,0,0,0,0,0
1680866593.19967699,160428303,1000,1000,1000,1000,0,0,0,0,0,0,0,0,0,0
1680866593.29963708,160528263,1000,1000,1000,1000,0,0,0,0,0,0,0,0,0,0
1680866593.39959693,160628223,1000,1000,1000,1000,0,0,0,0,0,0,0,0,0,0
1680866593.49955702,160728183,1000,1000,1000,1000,0,0,0,0,0,0,0,0,0,0
1680866593.60034990,160828976,1000,1000,1000,1000,0,0,0,0,0,0,0,0,0,0
1680866593.70030999,160928936,1000,1000,1000,1000,0,0,0,0,0,0,0,0,0,0
1680866593.80027008,161028896,1000,1000,1000,1000,0,0,0,0,0,0,0,0,0,0
1680866593.90022993,161128856,1000,1000,1000,1000,0,0,0,0,0,0,0,0,0,0
1680866594.00019002,161228816,1000,1000,1000,1000,0,0,0,0,0,0,0,0,0,0
1680866594.10014987,161328776,1000,1000,1000,1000,0,0,0,0,0,0,0,0,0,0
1680866594.20010996,161428736,1000,1000,1000,1000,0,0,0,0,0,0,0,0,0,0
1680866594.30007005,161528696,1000,1000,1000,1000,0,0,0,0,0,0,0,0,0,0
1680866594.40002990,161628656,1000,1000,1000,1000,0,0,0,0,0,0,0,0,0,0
1680866594.49998999,161728616,1000,1000,1000,1000,0,0,0,0,0,0,0,0,0,0
1680866594.59995008,161828576,1000,1000,1000,1000,0,0,0,0,0,0,0,0,0,0
1680866594.69990993,161928536,1000,1000,1000,1000,0,0,0,0,0,0,0,0,0,0
1680866594.79987001,162028496,1000,1000,1000,1000,0,0,0,0,0,0,0,0,0,0
1680866594.89983010,162128456,1000,1000,1000,1000,0,0,0,0,0,0,0,0,0,0
1680866594.99978995,162228416,1000,1000,1000,1000,0,0,0,0,0,0,0,0,0,0
1680866595.09975004,162328376,1000,1000,1000,1000,0,0,0,0,0,0,0,0,0,0
1680866595.19970989,162428336,1000,1000,1000,1000,0,0,0,0,0,0,0,0,0,0
1680866595.29966998,162528296,1000,1000,1000,1000,0,0,0,0,0,0,0,0,0,0
1680866595.39963007,162628256,1000,1000,1000,1000,0,0,0,0,0,0,0,0,0,0
1680866595.49958992,162728216,1000,1000,1000,1000,0,0,0,0,0,0,0,0,0,0
1680866595.59955001,162828176,1000,1000,1000,1000,0,0,0,0,0,0,0,0,0,0
1680866595.70034289,162928969,1000,1000,1000,1000,0,0,0,0,0,0,0,0,0,0
1680866595.80030298,163028929,1000,1000,1000,1000,0,0,0,0,0,0,0,0,0,0
1680866595.90026307,163128889,1000,1000,1000,1000,0,0,0,0,0,0,0,0,0,0
1680866596.00022292,163228849,1000,1000,1000,1000,0,0,0,0,0,0,0,0,0,0
1680866596.10018301,163328809,1000,1000,1000,1000,0,0,0,0,0,0,0,0,0,0
1680866596.20014310,163428769,1000,1000,1000,1000,0,0,0,0,0,0,0,0,0,0
1680866596.30010295,163528729,1000,1000,1000,1000,0,0,0,0,0,0,0,0,0,0
1680866596.40006304,163628689,1000,1000,1000,1000,0,0,0,0,0,0,0,0,0,0
1680866596.50002289,163728649,1000,1000,1000,1000,0,0,0,0,0,0,0,0,0,0
1680866596.59998298,163828609,1000,1000,1000,1000,0,0,0,0,0,0,0,0,0,0
1680866596.69994307,163928569,1000,1000,1000,1000,0,0,0,0,0,0,0,0,0,0
1680866596.79990292,164028529,1000,1000,1000,1000,0,0,0,0,0,0,0,0,0,0
1680866596.89986300,164128489,1000,1000,1000,1000,0,0,0,0,0,0,0,0,0,0
1680866596.99982309,164228449,1000,1000,1000,1000,0,0,0,0,0,0,0,0,0,0
1680866597.09978294,164328409,1000,1000,1000,1000,0,0,0,0,0,0,0,0,0,0
1680866597.19974303,164428369,1000,1000,1000,1000,0,0,0,0,0,0,0,0,0,0
1680866597.29970288,164528329,1000,1000,1000,1000,0,0,0,0,0,0,0,0,0,0
1680866597.39966297,164628289,1000,1000,1000,1000,0,0,0,0,0,0,0,0,0,0
1680866597.49962306,164728249,1000,1000,1000,1000,0,0,0,0,0,0,0,0,0,0
1680866597.59958291,164828209,1000,1000,1000,1000,0,0,0,0,0,0,0,0,0,0
1680866597.69954300,164928169,1000,1000,1000,1000,0,0,0,0,0,0,0,0,0,0
1680866597.80033588,165028962,1000,1000,1000,1000,0,0,0,0,0,0,0,0,0,0
1680866597.90029597,165128922,1000,1000,1000,1000,0,0,0,0,0,0,0,0,0,0
1680866598.00025606,165228882,1000,1000,1000,1000,0,0,0,0,0,0,0,0,0,0
1680866598.10021591,165328842,1000,1000,1000,1000,0,0,0,0,0,0,0,0,0,0
1680866598.20017600,165428802,1000,1000,1000,1000,0,0,0,0,0,0,0,0,0,0
1680866598.30013609,165528762,1000,1000,1000,1000,0,0,0,0,0,0,0,0,0,0
1680866598.40009594,165628722,1000,1000,1000,1000,0,0,0,0,0,0,0,0,0,0
1680866598.50005603,165728682,1000,1000,1000,1000,0,0,0,0,0,0,0,0,0,0
