timestamp,TimeUS,C1,C2,C3,C4,C5,C6,C7,C8,C9,C10,C11,C12,C13,C14
1681460906.40000010,44828728,1000,1000,1000,1000,0,0,0,0,0,0,0,0,0,0
1681460906.49996018,44928688,1000,1000,1000,1000,0,0,0,0,0,0,0,0,0,0
1681460906.59992003,45028648,1000,1000,1000,1000,0,0,0,0,0,0,0,0,0,0
1681460906.69988012,45128608,1000,1000,1000,1000,0,0,0,0,0,0,0,0,0,0
1681460906.79984021,45228568,1000,1000,1000,1000,0,0,0,0,0,0,0,0,0,0
1681460906.89980006,45328528,1000,1000,1000,1000,0,0,0,0,0,0,0,0,0,0
1681460906.99976015,45428488,1000,1000,1000,1000,0,0,0,0,0,0,0,0,0,0
1681460907.09972024,45528448,1000,1000,1000,1000,0,0,0,0,0,0,0,0,0,0
1681460907.19968009,45628408,1000,1000,1000,1000,0,0,0,0,0,0,0,0,0,0
1681460907.29964018,45728368,1000,1000,1000,1000,0,0,0,0,0,0,0,0,0,0
1681460907.39960003,45828328,1000,1000,1000,1000,0,0,0,0,0,0,0,0,0,0
1681460907.49956012,45928288,1000,1000,1000,1000,0,0,0,0,0,0,0,0,0,0
1681460907.59952021,46028248,1000,1000,1000,1000,0,0,0,0,0,0,0,0,0,0
1681460907.69948006,46128208,1000,1000,1000,1000,0,0,0,0,0,0,0,0,0,0
1681460907.79944015,46228168,1000,1000,1000,1000,0,0,0,0,0,0,0,0,0,0
1681460907.90023303,46328961,1000,1000,1000,1000,0,0,0,0,0,0,0,0,0,0
1681460908.00019312,46428921,1000,1000,1000,1000,0,0,0,0,0,0,0,0,0,0
1681460908.10015321,46528881,1000,1000,1000,1000,0,0,0,0,0,0,0,0,0,0
1681460908.20011306,46628841,1000,1000,1000,1000,0,0,0,0,0,0,0,0,0,0
1681460908.30007315,46728801,1000,1000,1000,1000,0,0,0,0,0,0,0,0,0,0
1681460908.40003324,46828761,1012,1012,1012,1012,0,0,0,0,0,0,0,0,0,0
1681460908.49999309,46928721,1042,1042,1042,1042,0,0,0,0,0,0,0,0,0,0
1681460908.59995317,47028681,1072,1072,1072,1072,0,0,0,0,0,0,0,0,0,0
1681460908.69991302,47128641,1102,1102,1102,1102,0,0,0,0,0,0,0,0,0,0
1681460908.79987311,47228601,1132,1132,1132,1132,0,0,0,0,0,0,0,0,0,0
1681460908.89983320,47328561,1268,1262,1263,1268,0,0,0,0,0,0,0,0,0,0
1681460908.99979305,47428521,1481,1477,1477,1481,0,0,0,0,0,0,0,0,0,0
1681460909.09975314,47528481,1644,1640,1640,1645,0,0,0,0,0,0,0,0,0,0
1681460909.19971323,47628441,1782,1779,1779,1782,0,0,0,0,0,0,0,0,0,0
1681460909.29967308,47728401,1904,1900,1901,1903,0,0,0,0,0,0,0,0,0,0
1681460909.39963317,47828361,1900,1898,1898,1900,0,0,0,0,0,0,0,0,0,0
1681460909.49959302,47928321,1771,1771,1771,1771,0,0,0,0,0,0,0,0,0,0
1681460909.59955311,48028281,1670,1671,1671,1671,0,0,0,0,0,0,0,0,0,0
1681460909.69951320,48128241,1636,1638,1638,1637,0,0,0,0,0,0,0,0,0,0
1681460909.79947305,48228201,1637,1639,1639,1637,0,0,0,0,0,0,0,0,0,0
1681460909.89943314,48328161,1641,1642,1642,1641,0,0,0,0,0,0,0,0,0,0
1681460910.00022602,48428954,1638,1638,1638,1638,0,0,0,0,0,0,0,0,0,0
1681460910.10018611,48528914,1631,1630,1630,1630,0,0,0,0,0,0,0,0,0,0
1681460910.20014620,48628874,1622,1621,1620,1621,0,0,0,0,0,0,0,0,0,0
1681460910.30010605,48728834,1615,1615,1614,1616,0,0,0,0,0,0,0,0,0,0
1681460910.40006614,48828794,1613,1613,1613,1613,0,0,0,0,0,0,0,0,0,0
1681460910.50002623,48928754,1613,1613,1613,1613,0,0,0,0,0,0,0,0,0,0
1681460910.59998608,49028714,1614,1614,1614,1613,0,0,0,0,0,0,0,0,0,0
1681460910.69994617,49128674,1612,1615,1613,1613,0,0,0,0,0,0,0,0,0,0
1681460910.79990625,49228634,1582,1583,1583,1582,0,0,0,0,0,0,0,0,0,0
1681460910.89986610,49328594,1571,1570,1570,1571,0,0,0,0,0,0,0,0,0,0
1681460910.99982619,49428554,1561,1560,1560,1561,0,0,0,0,0,0,0,0,0,0
1681460911.09978604,49528514,1552,1551,1550,1553,0,0,0,0,0,0,0,0,0,0
1681460911.19974613,49628474,1542,1543,1542,1543,0,0,0,0,0,0,0,0,0,0
1681460911.29970622,49728434,1534,1534,1534,1535,0,0,0,0,0,0,0,0,0,0
1681460911.39966607,49828394,1526,1527,1526,1527,0,0,0,0,0,0,0,0,0,0
1681460911.49962616,49928354,1517,1518,1517,1519,0,0,0,0,0,0,0,0,0,0
1681460911.59958625,50028314,1511,1512,1511,1512,0,0,0,0,0,0,0,0,0,0
1681460911.69954610,50128274,1509,1509,1509,1510,0,0,0,0,0,0,0,0,0,0
1681460911.79950619,50228234,1509,1509,1509,1509,0,0,0,0,0,0,0,0,0,0
1681460911.89946604,50328194,1509,1509,1509,1509,0,0,0,0,0,0,0,0,0,0
1681460911.99942613,50428154,1507,1507,1507,1508,0,0,0,0,0,0,0,0,0,0
1681460912.10021925,50528947,1508,1508,1508,1508,0,0,0,0,0,0,0,0,0,0
1681460912.20017910,50628907,1508,1508,1508,1508,0,0,0,0,0,0,0,0,0,0
1681460912.30013919,50728867,1508,1509,1508,1509,0,0,0,0,0,0,0,0,0,0
1681460912.40009904,50828827,1510,1510,1510,1510,0,0,0,0,0,0,0,0,0,0
1681460912.50005913,50928787,1536,1536,1542,1530,0,0,0,0,0,0,0,0,0,0
1681460912.60001922,51028747,1547,1547,1552,1542,0,0,0,0,0,0,0,0,0,0
1681460912.69997907,51128707,1554,1554,1554,1553,0,0,0,0,0,0,0,0,0,0
1681460912.79993916,51228667,1559,1559,1555,1562,0,0,0,0,0,0,0,0,0,0
1681460912.89989924,51328627,1562,1562,1557,1566,0,0,0,0,0,0,0,0,0,0
1681460912.99985909,51428587,1563,1564,1559,1568,0,0,0,0,0,0,0,0,0,0
1681460913.09981918,51528547,1566,1566,1563,1568,0,0,0,0,0,0,0,0,0,0
1681460913.19977903,51628507,1568,1568,1569,1568,0,0,0,0,0,0,0,0,0,0
1681460913.29973912,51728467,1570,1570,1573,1567,0,0,0,0,0,0,0,0,0,0
1681460913.39969921,51828427,1571,1571,1574,1568,0,0,0,0,0,0,0,0,0,0
1681460913.49965906,51928387,1571,1571,1573,1569,0,0,0,0,0,0,0,0,0,0
1681460913.59961915,52028347,1572,1572,1573,1571,0,0,0,0,0,0,0,0,0,0
1681460913.69957924,52128307,1571,1571,1570,1571,0,0,0,0,0,0,0,0,0,0
1681460913.79953909,52228267,1565,1566,1573,1577,0,0,0,0,0,0,0,0,0,0
1681460913.89949918,52328227,1563,1563,1573,1577,0,0,0,0,0,0,0,0,0,0
1681460913.99945903,52428187,1563,1564,1572,1574,0,0,0,0,0,0,0,0,0,0
1681460914.10025215,52528980,1565,1566,1570,1571,0,0,0,0,0,0,0,0,0,0
1681460914.20021224,52628940,1568,1568,1569,1569,0,0,0,0,0,0,0,0,0,0
1681460914.30017209,52728900,1570,1570,1568,1567,0,0,0,0,0,0,0,0,0,0
1681460914.40013218,52828860,1571,1571,1567,1566,0,0,0,0,0,0,0,0,0,0
1681460914.50009203,52928820,1572,1572,1566,1565,0,0,0,0,0,0,0,0,0,0
1681460914.60005212,53028780,1573,1573,1566,1566,0,0,0,0,0,0,0,0,0,0
1681460914.70001221,53128740,1574,1574,1567,1567,0,0,0,0,0,0,0,0,0,0
1681460914.79997206,53228700,1573,1573,1567,1567,0,0,0,0,0,0,0,0,0,0
1681460914.89993215,53328660,1574,1573,1568,1569,0,0,0,0,0,0,0,0,0,0
1681460914.99989223,53428620,1573,1573,1570,1571,0,0,0,0,0,0,0,0,0,0
1681460915.09985209,53528580,1574,1574,1573,1573,0,0,0,0,0,0,0,0,0,0
1681460915.19981217,53628540,1574,1574,1575,1574,0,0,0,0,0,0,0,0,0,0
1681460915.29977202,53728500,1574,1574,1576,1575,0,0,0,0,0,0,0,0,0,0
1681460915.39973211,53828460,1574,1574,1577,1576,0,0,0,0,0,0,0,0,0,0
1681460915.49969220,53928420,1575,1574,1578,1577,0,0,0,0,0,0,0,0,0,0
1681460915.59965205,54028380,1574,1575,1578,1577,0,0,0,0,0,0,0,0,0,0
1681460915.69961214,54128340,1575,1576,1578,1578,0,0,0,0,0,0,0,0,0,0
1681460915.79957223,54228300,1575,1576,1577,1578,0,0,0,0,0,0,0,0,0,0
1681460915.89953208,54328260,1577,1577,1578,1579,0,0,0,0,0,0,0,0,0,0
1681460915.99949217,54428220,1577,1576,1577,1577,0,0,0,0,0,0,0,0,0,0
1681460916.09945202,54528180,1578,1578,1578,1578,0,0,0,0,0,0,0,0,0,0
1681460916.20024514,54628973,1578,1578,1577,1577,0,0,0,0,0,0,0,0,0,0
1681460916.30020523,54728933,1579,1578,1578,1577,0,0,0,0,0,0,0,0,0,0
1681460916.40016508,54828893,1578,1579,1577,1577,0,0,0,0,0,0,0,0,0,0
1681460916.50012517,54928853,1579,1579,1578,1578,0,0,0,0,0,0,0,0,0,0
1681460916.60008502,55028813,1579,1579,1578,1577,0,0,0,0,0,0,0,0,0,0
1681460916.70004511,55128773,1578,1578,1578,1578,0,0,0,0,0,0,0,0,0,0
1681460916.80000520,55228733,1579,1580,1579,1579,0,0,0,0,0,0,0,0,0,0
1681460916.89996505,55328693,1578,1577,1577,1577,0,0,0,0,0,0,0,0,0,0
1681460916.99992514,55428653,1578,1578,1578,1578,0,0,0,0,0,0,0,0,0,0
1681460917.09988523,55528613,1578,1578,1578,1578,0,0,0,0,0,0,0,0,0,0
1681460917.19984508,55628573,1578,1578,1579,1579,0,0,0,0,0,0,0,0,0,0
1681460917.29980516,55728533,1578,1578,1579,1578,0,0,0,0,0,0,0,0,0,0
1681460917.39976525,55828493,1578,1579,1579,1579,0,0,0,0,0,0,0,0,0,0
1681460917.49972510,55928453,1578,1579,1578,1579,0,0,0,0,0,0,0,0,0,0
1681460917.59968519,56028413,1578,1579,1579,1579,0,0,0,0,0,0,0,0,0,0
1681460917.69964504,56128373,1579,1579,1579,1579,0,0,0,0,0,0,0,0,0,0
1681460917.79960513,56228333,1581,1580,1580,1580,0,0,0,0,0,0,0,0,0,0
1681460917.89956522,56328293,1582,1581,1581,1581,0,0,0,0,0,0,0,0,0,0
1681460917.99952507,56428253,1580,1580,1580,1580,0,0,0,0,0,0,0,0,0,0
1681460918.09948516,56528213,1580,1580,1580,1580,0,0,0,0,0,0,0,0,0,0
1681460918.19944525,56628173,1579,1580,1580,1580,0,0,0,0,0,0,0,0,0,0
1681460918.30023813,56728966,1579,1580,1580,1580,0,0,0,0,0,0,0,0,0,0
1681460918.40019822,56828926,1579,1579,1579,1579,0,0,0,0,0,0,0,0,0,0
1681460918.50015807,56928886,1580,1580,1580,1580,0,0,0,0,0,0,0,0,0,0
1681460918.60011816,57028846,1580,1580,1580,1580,0,0,0,0,0,0,0,0,0,0
1681460918.70007825,57128806,1580,1579,1579,1579,0,0,0,0,0,0,0,0,0,0
1681460918.80003810,57228766,1580,1580,1580,1580,0,0,0,0,0,0,0,0,0,0
1681460918.89999819,57328726,1580,1580,1580,1580,0,0,0,0,0,0,0,0,0,0
1681460918.99995804,57428686,1579,1580,1580,1579,0,0,0,0,0,0,0,0,0,0
1681460919.09991813,57528646,1579,1579,1579,1579,0,0,0,0,0,0,0,0,0,0
1681460919.19987822,57628606,1581,1581,1581,1581,0,0,0,0,0,0,0,0,0,0
1681460919.29983807,57728566,1581,1580,1581,1580,0,0,0,0,0,0,0,0,0,0
1681460919.39979815,57828526,1581,1581,1580,1581,0,0,0,0,0,0,0,0,0,0
1681460919.49975824,57928486,1580,1580,1580,1580,0,0,0,0,0,0,0,0,0,0
1681460919.59971809,58028446,1581,1581,1581,1581,0,0,0,0,0,0,0,0,0,0
1681460919.69967818,58128406,1581,1581,1581,1581,0,0,0,0,0,0,0,0,0,0
1681460919.79963803,58228366,1582,1581,1582,1582,0,0,0,0,0,0,0,0,0,0
1681460919.89959812,58328326,1580,1581,1581,1581,0,0,0,0,0,0,0,0,0,0
1681460919.99955821,58428286,1581,1581,1583,1579,0,0,0,0,0,0,0,0,0,0
1681460920.09951806,58528246,1580,1581,1587,1573,0,0,0,0,0,0,0,0,0,0
1681460920.19947815,58628206,1578,1581,1582,1572,0,0,0,0,0,0,0,0,0,0
1681460920.29943824,58728166,1578,1581,1574,1573,0,0,0,0,0,0,0,0,0,0
1681460920.40023112,58828959,1577,1580,1566,1571,0,0,0,0,0,0,0,0,0,0
1681460920.50019121,58928919,1577,1579,1560,1567,0,0,0,0,0,0,0,0,0,0
1681460920.60015106,59028879,1578,1578,1557,1562,0,0,0,0,0,0,0,0,0,0
1681460920.70011115,59128839,1578,1578,1555,1558,0,0,0,0,0,0,0,0,0,0
1681460920.80007124,59228799,1579,1577,1555,1555,0,0,0,0,0,0,0,0,0,0
1681460920.90003109,59328759,1578,1577,1555,1553,0,0,0,0,0,0,0,0,0,0
1681460920.99999118,59428719,1579,1578,1557,1554,0,0,0,0,0,0,0,0,0,0
1681460921.09995103,59528679,1577,1578,1556,1554,0,0,0,0,0,0,0,0,0,0
1681460921.19991112,59628639,1575,1577,1555,1554,0,0,0,0,0,0,0,0,0,0
1681460921.29987121,59728599,1575,1576,1554,1554,0,0,0,0,0,0,0,0,0,0
1681460921.39983106,59828559,1575,1577,1553,1554,0,0,0,0,0,0,0,0,0,0
1681460921.49979115,59928519,1575,1577,1551,1552,0,0,0,0,0,0,0,0,0,0
1681460921.59975123,60028479,1577,1578,1550,1550,0,0,0,0,0,0,0,0,0,0
1681460921.69971108,60128439,1579,1580,1548,1548,0,0,0,0,0,0,0,0,0,0
1681460921.79967117,60228399,1581,1582,1545,1544,0,0,0,0,0,0,0,0,0,0
1681460921.89963102,60328359,1584,1585,1542,1542,0,0,0,0,0,0,0,0,0,0
1681460921.99959111,60428319,1587,1587,1539,1538,0,0,0,0,0,0,0,0,0,0
1681460922.09955120,60528279,1590,1591,1537,1537,0,0,0,0,0,0,0,0,0,0
1681460922.19951105,60628239,1592,1593,1535,1535,0,0,0,0,0,0,0,0,0,0
1681460922.29947114,60728199,1593,1594,1534,1535,0,0,0,0,0,0,0,0,0,0
1681460922.39943123,60828159,1593,1594,1534,1536,0,0,0,0,0,0,0,0,0,0
1681460922.50022411,60928952,1593,1592,1535,1538,0,0,0,0,0,0,0,0,0,0
1681460922.60018420,61028912,1592,1591,1539,1542,0,0,0,0,0,0,0,0,0,0
1681460922.70014405,61128872,1589,1586,1546,1549,0,0,0,0,0,0,0,0,0,0
1681460922.80010414,61228832,1582,1578,1554,1557,0,0,0,0,0,0,0,0,0,0
1681460922.90006423,61328792,1573,1569,1565,1567,0,0,0,0,0,0,0,0,0,0
1681460923.00002408,61428752,1563,1559,1576,1579,0,0,0,0,0,0,0,0,0,0
1681460923.09998417,61528712,1552,1549,1589,1590,0,0,0,0,0,0,0,0,0,0
1681460923.19994402,61628672,1541,1540,1600,1600,0,0,0,0,0,0,0,0,0,0
1681460923.29990411,61728632,1532,1532,1607,1606,0,0,0,0,0,0,0,0,0,0
1681460923.39986420,61828592,1530,1530,1613,1612,0,0,0,0,0,0,0,0,0,0
1681460923.49982405,61928552,1529,1530,1615,1614,0,0,0,0,0,0,0,0,0,0
1681460923.59978414,62028512,1532,1534,1612,1612,0,0,0,0,0,0,0,0,0,0
1681460923.69974422,62128472,1538,1540,1608,1608,0,0,0,0,0,0,0,0,0,0
1681460923.79970407,62228432,1545,1547,1601,1601,0,0,0,0,0,0,0,0,0,0
1681460923.89966416,62328392,1554,1555,1593,1594,0,0,0,0,0,0,0,0,0,0
1681460923.99962425,62428352,1563,1564,1587,1586,0,0,0,0,0,0,0,0,0,0
1681460924.09958410,62528312,1571,1571,1580,1579,0,0,0,0,0,0,0,0,0,0
1681460924.19954419,62628272,1579,1578,1574,1574,0,0,0,0,0,0,0,0,0,0
1681460924.29950404,62728232,1584,1582,1570,1570,0,0,0,0,0,0,0,0,0,0
1681460924.39946413,62828192,1587,1586,1568,1568,0,0,0,0,0,0,0,0,0,0
1681460924.50025725,62928985,1588,1587,1567,1567,0,0,0,0,0,0,0,0,0,0
1681460924.60021710,63028945,1588,1586,1567,1567,0,0,0,0,0,0,0,0,0,0
1681460924.70017719,63128905,1586,1585,1568,1569,0,0,0,0,0,0,0,0,0,0
1681460924.80013704,63228865,1583,1582,1571,1571,0,0,0,0,0,0,0,0,0,0
1681460924.90009713,63328825,1580,1580,1574,1574,0,0,0,0,0,0,0,0,0,0
1681460925.00005722,63428785,1577,1578,1577,1577,0,0,0,0,0,0,0,0,0,0
1681460925.10001707,63528745,1575,1576,1580,1579,0,0,0,0,0,0,0,0,0,0
1681460925.19997716,63628705,1574,1575,1582,1582,0,0,0,0,0,0,0,0,0,0
1681460925.29993725,63728665,1572,1573,1583,1583,0,0,0,0,0,0,0,0,0,0
1681460925.39989710,63828625,1572,1573,1584,1583,0,0,0,0,0,0,0,0,0,0
1681460925.49985719,63928585,1573,1573,1584,1584,0,0,0,0,0,0,0,0,0,0
1681460925.59981704,64028545,1575,1574,1584,1584,0,0,0,0,0,0,0,0,0,0
1681460925.69977713,64128505,1575,1575,1582,1582,0,0,0,0,0,0,0,0,0,0
1681460925.79973722,64228465,1576,1576,1580,1581,0,0,0,0,0,0,0,0,0,0
1681460925.89969707,64328425,1577,1578,1580,1580,0,0,0,0,0,0,0,0,0,0
1681460925.99965715,64428385,1582,1582,1311,1552,0,0,0,0,0,0,0,0,0,0
1681460926.09961724,64528345,1586,1585,1606,1578,0,0,0,0,0,0,0,0,0,0
1681460926.19957709,64628305,1583,1583,1597,1583,0,0,0,0,0,0,0,0,0,0
1681460926.29953718,64728265,1581,1581,1587,1586,0,0,0,0,0,0,0,0,0,0
1681460926.39949703,64828225,1578,1578,1578,1586,0,0,0,0,0,0,0,0,0,0
1681460926.49945712,64928185,1577,1577,1574,1584,0,0,0,0,0,0,0,0,0,0
1681460926.60025024,65028978,1576,1576,1571,1580,0,0,0,0,0,0,0,0,0,0
1681460926.70021009,65128938,1577,1577,1573,1577,0,0,0,0,0,0,0,0,0,0
1681460926.80017018,65228898,1578,1578,1575,1575,0,0,0,0,0,0,0,0,0,0
1681460926.90013003,65328858,1580,1580,1578,1575,0,0,0,0,0,0,0,0,0,0
1681460927.00009012,65428818,1580,1581,1579,1575,0,0,0,0,0,0,0,0,0,0
1681460927.10005021,65528778,1581,1581,1580,1577,0,0,0,0,0,0,0,0,0,0
1681460927.20001006,65628738,1581,1581,1579,1578,0,0,0,0,0,0,0,0,0,0
1681460927.29997015,65728698,1581,1581,1580,1579,0,0,0,0,0,0,0,0,0,0
1681460927.39993024,65828658,1582,1581,1580,1581,0,0,0,0,0,0,0,0,0,0
1681460927.49989009,65928618,1580,1580,1580,1580,0,0,0,0,0,0,0,0,0,0
1681460927.59985018,66028578,1580,1580,1580,1581,0,0,0,0,0,0,0,0,0,0
1681460927.69981003,66128538,1580,1580,1580,1581,0,0,0,0,0,0,0,0,0,0
1681460927.79977012,66228498,1581,1581,1582,1582,0,0,0,0,0,0,0,0,0,0
1681460927.89973021,66328458,1581,1581,1582,1582,0,0,0,0,0,0,0,0,0,0
1681460927.99969006,66428418,1582,1582,1584,1583,0,0,0,0,0,0,0,0,0,0
1681460928.09965014,66528378,1580,1583,1589,1574,0,0,0,0,0,0,0,0,0,0
1681460928.19961023,66628338,1579,1583,1584,1572,0,0,0,0,0,0,0,0,0,0
1681460928.29957008,66728298,1580,1583,1575,1572,0,0,0,0,0,0,0,0,0,0
1681460928.39953017,66828258,1578,1580,1564,1569,0,0,0,0,0,0,0,0,0,0
1681460928.49949002,66928218,1579,1580,1558,1565,0,0,0,0,0,0,0,0,0,0
1681460928.59945011,67028178,1580,1580,1554,1560,0,0,0,0,0,0,0,0,0,0
1681460928.70024323,67128971,1580,1579,1552,1555,0,0,0,0,0,0,0,0,0,0
1681460928.80020308,67228931,1581,1580,1553,1553,0,0,0,0,0,0,0,0,0,0
1681460928.90016317,67328891,1580,1580,1553,1551,0,0,0,0,0,0,0,0,0,0
1681460929.00012302,67428851,1580,1580,1554,1551,0,0,0,0,0,0,0,0,0,0
1681460929.10008311,67528811,1578,1578,1554,1551,0,0,0,0,0,0,0,0,0,0
1681460929.20004320,67628771,1577,1578,1553,1552,0,0,0,0,0,0,0,0,0,0
1681460929.30000305,67728731,1576,1578,1553,1553,0,0,0,0,0,0,0,0,0,0
1681460929.39996314,67828691,1575,1578,1552,1552,0,0,0,0,0,0,0,0,0,0
1681460929.49992323,67928651,1577,1578,1551,1552,0,0,0,0,0,0,0,0,0,0
1681460929.59988308,68028611,1577,1579,1550,1550,0,0,0,0,0,0,0,0,0,0
1681460929.69984317,68128571,1579,1580,1548,1548,0,0,0,0,0,0,0,0,0,0
1681460929.79980302,68228531,1582,1583,1546,1546,0,0,0,0,0,0,0,0,0,0
1681460929.89976311,68328491,1585,1584,1544,1544,0,0,0,0,0,0,0,0,0,0
1681460929.99972320,68428451,1587,1587,1543,1542,0,0,0,0,0,0,0,0,0,0
1681460930.09968305,68528411,1588,1589,1540,1541,0,0,0,0,0,0,0,0,0,0
1681460930.19964314,68628371,1590,1591,1539,1540,0,0,0,0,0,0,0,0,0,0
1681460930.29960322,68728331,1592,1592,1538,1540,0,0,0,0,0,0,0,0,0,0
1681460930.39956307,68828291,1592,1592,1539,1541,0,0,0,0,0,0,0,0,0,0
1681460930.49952316,68928251,1591,1589,1542,1545,0,0,0,0,0,0,0,0,0,0
1681460930.59948325,69028211,1587,1584,1548,1551,0,0,0,0,0,0,0,0,0,0
1681460930.69944310,69128171,1581,1577,1557,1559,0,0,0,0,0,0,0,0,0,0
1681460930.80023623,69228964,1573,1569,1568,1570,0,0,0,0,0,0,0,0,0,0
1681460930.90019608,69328924,1564,1560,1580,1581,0,0,0,0,0,0,0,0,0,0
1681460931.00015616,69428884,1553,1550,1589,1590,0,0,0,0,0,0,0,0,0,0
1681460931.10011625,69528844,1544,1543,1598,1598,0,0,0,0,0,0,0,0,0,0
1681460931.20007610,69628804,1537,1538,1605,1604,0,0,0,0,0,0,0,0,0,0
1681460931.30003619,69728764,1536,1537,1610,1609,0,0,0,0,0,0,0,0,0,0
1681460931.39999604,69828724,1536,1538,1610,1610,0,0,0,0,0,0,0,0,0,0
1681460931.49995613,69928684,1539,1541,1609,1608,0,0,0,0,0,0,0,0,0,0
1681460931.59991622,70028644,1544,1545,1604,1603,0,0,0,0,0,0,0,0,0,0
1681460931.69987607,70128604,1551,1552,1598,1598,0,0,0,0,0,0,0,0,0,0
1681460931.79983616,70228564,1559,1560,1592,1592,0,0,0,0,0,0,0,0,0,0
1681460931.89979625,70328524,1567,1567,1586,1585,0,0,0,0,0,0,0,0,0,0
1681460931.99975610,70428484,1574,1574,1580,1580,0,0,0,0,0,0,0,0,0,0
1681460932.09971619,70528444,1579,1578,1575,1575,0,0,0,0,0,0,0,0,0,0
1681460932.19967604,70628404,1584,1583,1572,1572,0,0,0,0,0,0,0,0,0,0
1681460932.29963613,70728364,1585,1584,1569,1569,0,0,0,0,0,0,0,0,0,0
1681460932.39959621,70828324,1586,1585,1568,1569,0,0,0,0,0,0,0,0,0,0
1681460932.49955606,70928284,1585,1584,1569,1569,0,0,0,0,0,0,0,0,0,0
1681460932.59951615,71028244,1584,1584,1571,1572,0,0,0,0,0,0,0,0,0,0
1681460932.69947624,71128204,1581,1581,1573,1572,0,0,0,0,0,0,0,0,0,0
1681460932.79943609,71228164,1579,1579,1575,1575,0,0,0,0,0,0,0,0,0,0
1681460932.90022922,71328957,1577,1577,1578,1577,0,0,0,0,0,0,0,0,0,0
1681460933.00018907,71428917,1576,1576,1580,1580,0,0,0,0,0,0,0,0,0,0
1681460933.10014915,71528877,1574,1574,1582,1582,0,0,0,0,0,0,0,0,0,0
1681460933.20010924,71628837,1574,1574,1583,1583,0,0,0,0,0,0,0,0,0,0
1681460933.30006909,71728797,1573,1574,1584,1583,0,0,0,0,0,0,0,0,0,0
1681460933.40002918,71828757,1574,1574,1583,1583,0,0,0,0,0,0,0,0,0,0
1681460933.49998903,71928717,1575,1575,1583,1583,0,0,0,0,0,0,0,0,0,0
1681460933.59994912,72028677,1576,1576,1583,1583,0,0,0,0,0,0,0,0,0,0
1681460933.69990921,72128637,1576,1577,1581,1581,0,0,0,0,0,0,0,0,0,0
1681460933.79986906,72228597,1578,1578,1580,1580,0,0,0,0,0,0,0,0,0,0
1681460933.89982915,72328557,1580,1579,1580,1579,0,0,0,0,0,0,0,0,0,0
1681460933.99978924,72428517,1580,1580,1578,1578,0,0,0,0,0,0,0,0,0,0
1681460934.09974909,72528477,1580,1580,1578,1578,0,0,0,0,0,0,0,0,0,0
1681460934.19970918,72628437,1581,1581,1577,1577,0,0,0,0,0,0,0,0,0,0
1681460934.29966903,72728397,1581,1582,1578,1578,0,0,0,0,0,0,0,0,0,0
1681460934.39962912,72828357,1582,1582,1579,1579,0,0,0,0,0,0,0,0,0,0
1681460934.49958920,72928317,1582,1582,1579,1579,0,0,0,0,0,0,0,0,0,0
1681460934.59954906,73028277,1581,1581,1579,1579,0,0,0,0,0,0,0,0,0,0
1681460934.69950914,73128237,1581,1580,1580,1580,0,0,0,0,0,0,0,0,0,0
1681460934.79946923,73228197,1580,1581,1580,1580,0,0,0,0,0,0,0,0,0,0
1681460934.89942908,73328157,1581,1581,1581,1581,0,0,0,0,0,0,0,0,0,0
1681460935.00022221,73428950,1580,1580,1580,1581,0,0,0,0,0,0,0,0,0,0
1681460935.10018206,73528910,1579,1579,1580,1580,0,0,0,0,0,0,0,0,0,0
1681460935.20014215,73628870,1580,1580,1581,1581,0,0,0,0,0,0,0,0,0,0
1681460935.30010223,73728830,1580,1580,1581,1580,0,0,0,0,0,0,0,0,0,0
1681460935.40006208,73828790,1579,1579,1580,1580,0,0,0,0,0,0,0,0,0,0
1681460935.50002217,73928750,1580,1579,1580,1580,0,0,0,0,0,0,0,0,0,0
1681460935.59998202,74028710,1580,1580,1581,1581,0,0,0,0,0,0,0,0,0,0
1681460935.69994211,74128670,1580,1580,1581,1580,0,0,0,0,0,0,0,0,0,0
1681460935.79990220,74228630,1581,1581,1580,1581,0,0,0,0,0,0,0,0,0,0
1681460935.89986205,74328590,1581,1581,1580,1581,0,0,0,0,0,0,0,0,0,0
1681460935.99982214,74428550,1580,1581,1580,1580,0,0,0,0,0,0,0,0,0,0
1681460936.09978223,74528510,1582,1581,1581,1581,0,0,0,0,0,0,0,0,0,0
1681460936.19974208,74628470,1581,1582,1585,1577,0,0,0,0,0,0,0,0,0,0
1681460936.29970217,74728430,1581,1584,1587,1573,0,0,0,0,0,0,0,0,0,0
1681460936.39966202,74828390,1580,1583,1581,1573,0,0,0,0,0,0,0,0,0,0
1681460936.49962211,74928350,1579,1582,1572,1573,0,0,0,0,0,0,0,0,0,0
1681460936.59958220,75028310,1578,1579,1563,1569,0,0,0,0,0,0,0,0,0,0
1681460936.69954205,75128270,1578,1579,1558,1566,0,0,0,0,0,0,0,0,0,0
1681460936.79950213,75228230,1579,1578,1555,1560,0,0,0,0,0,0,0,0,0,0
1681460936.89946222,75328190,1580,1579,1556,1557,0,0,0,0,0,0,0,0,0,0
1681460937.00025511,75428983,1580,1578,1555,1554,0,0,0,0,0,0,0,0,0,0
1681460937.10021520,75528943,1580,1579,1556,1554,0,0,0,0,0,0,0,0,0,0
1681460937.20017505,75628903,1578,1578,1556,1554,0,0,0,0,0,0,0,0,0,0
1681460937.30013514,75728863,1577,1577,1555,1554,0,0,0,0,0,0,0,0,0,0
1681460937.40009522,75828823,1576,1577,1555,1554,0,0,0,0,0,0,0,0,0,0
1681460937.50005507,75928783,1575,1577,1554,1554,0,0,0,0,0,0,0,0,0,0
1681460937.60001516,76028743,1575,1577,1553,1553,0,0,0,0,0,0,0,0,0,0
1681460937.69997525,76128703,1576,1577,1551,1551,0,0,0,0,0,0,0,0,0,0
1681460937.79993510,76228663,1577,1578,1549,1549,0,0,0,0,0,0,0,0,0,0
1681460937.89989519,76328623,1579,1580,1548,1548,0,0,0,0,0,0,0,0,0,0
1681460937.99985504,76428583,1581,1583,1545,1545,0,0,0,0,0,0,0,0,0,0
1681460938.09981513,76528543,1585,1585,1543,1543,0,0,0,0,0,0,0,0,0,0
1681460938.19977522,76628503,1587,1587,1540,1540,0,0,0,0,0,0,0,0,0,0
1681460938.29973507,76728463,1589,1590,1539,1539,0,0,0,0,0,0,0,0,0,0
1681460938.39969516,76828423,1592,1592,1538,1538,0,0,0,0,0,0,0,0,0,0
1681460938.49965525,76928383,1593,1593,1537,1538,0,0,0,0,0,0,0,0,0,0
1681460938.59961510,77028343,1593,1593,1537,1539,0,0,0,0,0,0,0,0,0,0
1681460938.69957519,77128303,1592,1592,1539,1542,0,0,0,0,0,0,0,0,0,0
1681460938.79953504,77228263,1590,1589,1544,1547,0,0,0,0,0,0,0,0,0,0
1681460938.89949512,77328223,1586,1583,1551,1554,0,0,0,0,0,0,0,0,0,0
1681460938.99945521,77428183,1578,1574,1559,1561,0,0,0,0,0,0,0,0,0,0
1681460939.10024810,77528976,1569,1565,1570,1572,0,0,0,0,0,0,0,0,0,0
1681460939.20020819,77628936,1558,1554,1581,1583,0,0,0,0,0,0,0,0,0,0
1681460939.30016804,77728896,1549,1546,1593,1594,0,0,0,0,0,0,0,0,0,0
1681460939.40012813,77828856,1540,1540,1603,1602,0,0,0,0,0,0,0,0,0,0
1681460939.50008821,77928816,1535,1535,1610,1609,0,0,0,0,0,0,0,0,0,0
1681460939.60004807,78028776,1533,1535,1613,1612,0,0,0,0,0,0,0,0,0,0
1681460939.70000815,78128736,1534,1536,1612,1612,0,0,0,0,0,0,0,0,0,0
1681460939.79996824,78228696,1539,1540,1609,1609,0,0,0,0,0,0,0,0,0,0
1681460939.89992809,78328656,1545,1546,1603,1603,0,0,0,0,0,0,0,0,0,0
1681460939.99988818,78428616,1553,1554,1598,1597,0,0,0,0,0,0,0,0,0,0
1681460940.09984803,78528576,1561,1562,1592,1590,0,0,0,0,0,0,0,0,0,0
1681460940.19980812,78628536,1568,1569,1584,1583,0,0,0,0,0,0,0,0,0,0
1681460940.29976821,78728496,1576,1575,1579,1578,0,0,0,0,0,0,0,0,0,0
1681460940.39972806,78828456,1582,1580,1574,1574,0,0,0,0,0,0,0,0,0,0
1681460940.49968815,78928416,1585,1583,1570,1570,0,0,0,0,0,0,0,0,0,0
1681460940.59964824,79028376,1586,1585,1568,1568,0,0,0,0,0,0,0,0,0,0
1681460940.69960809,79128336,1587,1585,1568,1568,0,0,0,0,0,0,0,0,0,0
1681460940.79956818,79228296,1586,1585,1570,1570,0,0,0,0,0,0,0,0,0,0
1681460940.89952803,79328256,1585,1584,1572,1572,0,0,0,0,0,0,0,0,0,0
1681460940.99948812,79428216,1582,1582,1574,1574,0,0,0,0,0,0,0,0,0,0
1681460941.09944820,79528176,1579,1579,1576,1576,0,0,0,0,0,0,0,0,0,0
1681460941.20024109,79628969,1576,1577,1579,1578,0,0,0,0,0,0,0,0,0,0
1681460941.30020118,79728929,1575,1575,1581,1581,0,0,0,0,0,0,0,0,0,0
1681460941.40016103,79828889,1574,1574,1583,1582,0,0,0,0,0,0,0,0,0,0
1681460941.50012112,79928849,1572,1573,1583,1583,0,0,0,0,0,0,0,0,0,0
1681460941.60008121,80028809,1573,1574,1583,1584,0,0,0,0,0,0,0,0,0,0
1681460941.70004106,80128769,1573,1573,1582,1582,0,0,0,0,0,0,0,0,0,0
1681460941.80000114,80228729,1574,1574,1581,1582,0,0,0,0,0,0,0,0,0,0
1681460941.89996123,80328689,1575,1575,1581,1581,0,0,0,0,0,0,0,0,0,0
1681460941.99992108,80428649,1578,1577,1581,1581,0,0,0,0,0,0,0,0,0,0
1681460942.09988117,80528609,1578,1579,1580,1579,0,0,0,0,0,0,0,0,0,0
1681460942.19984102,80628569,1580,1580,1579,1579,0,0,0,0,0,0,0,0,0,0
1681460942.29980111,80728529,1581,1581,1579,1579,0,0,0,0,0,0,0,0,0,0
1681460942.39976120,80828489,1581,1581,1578,1578,0,0,0,0,0,0,0,0,0,0
1681460942.49972105,80928449,1582,1581,1578,1578,0,0,0,0,0,0,0,0,0,0
1681460942.59968114,81028409,1582,1582,1578,1578,0,0,0,0,0,0,0,0,0,0
1681460942.69964123,81128369,1581,1581,1577,1577,0,0,0,0,0,0,0,0,0,0
1681460942.79960108,81228329,1581,1581,1579,1579,0,0,0,0,0,0,0,0,0,0
1681460942.89956117,81328289,1581,1581,1579,1579,0,0,0,0,0,0,0,0,0,0
1681460942.99952102,81428249,1580,1581,1580,1580,0,0,0,0,0,0,0,0,0,0
1681460943.09948111,81528209,1580,1580,1580,1580,0,0,0,0,0,0,0,0,0,0
1681460943.19944119,81628169,1579,1578,1580,1580,0,0,0,0,0,0,0,0,0,0
1681460943.30023408,81728962,1580,1579,1581,1581,0,0,0,0,0,0,0,0,0,0
1681460943.40019417,81828922,1580,1580,1582,1581,0,0,0,0,0,0,0,0,0,0
1681460943.50015402,81928882,1579,1580,1581,1581,0,0,0,0,0,0,0,0,0,0
1681460943.60011411,82028842,1579,1579,1580,1580,0,0,0,0,0,0,0,0,0,0
1681460943.70007420,82128802,1580,1580,1581,1581,0,0,0,0,0,0,0,0,0,0
1681460943.80003405,82228762,1581,1581,1582,1582,0,0,0,0,0,0,0,0,0,0
1681460943.89999413,82328722,1581,1580,1581,1581,0,0,0,0,0,0,0,0,0,0
1681460943.99995422,82428682,1581,1581,1581,1581,0,0,0,0,0,0,0,0,0,0
1681460944.09991407,82528642,1580,1580,1580,1580,0,0,0,0,0,0,0,0,0,0
1681460944.19987416,82628602,1580,1580,1586,1573,0,0,0,0,0,0,0,0,0,0
1681460944.29983425,82728562,1581,1581,1585,1572,0,0,0,0,0,0,0,0,0,0
1681460944.39979410,82828522,1578,1579,1579,1574,0,0,0,0,0,0,0,0,0,0
1681460944.49975419,82928482,1575,1575,1572,1575,0,0,0,0,0,0,0,0,0,0
1681460944.59971404,83028442,1572,1571,1567,1574,0,0,0,0,0,0,0,0,0,0
1681460944.69967413,83128402,1569,1569,1565,1572,0,0,0,0,0,0,0,0,0,0
1681460944.79963422,83228362,1567,1567,1565,1569,0,0,0,0,0,0,0,0,0,0
1681460944.89959407,83328322,1567,1567,1566,1567,0,0,0,0,0,0,0,0,0,0
1681460944.99955416,83428282,1566,1566,1567,1565,0,0,0,0,0,0,0,0,0,0
1681460945.09951425,83528242,1565,1565,1566,1564,0,0,0,0,0,0,0,0,0,0
1681460945.19947410,83628202,1565,1565,1567,1564,0,0,0,0,0,0,0,0,0,0
1681460945.29943419,83728162,1565,1565,1566,1565,0,0,0,0,0,0,0,0,0,0
1681460945.40022707,83828955,1563,1563,1564,1564,0,0,0,0,0,0,0,0,0,0
1681460945.50018716,83928915,1562,1562,1563,1563,0,0,0,0,0,0,0,0,0,0
1681460945.60014725,84028875,1562,1562,1563,1563,0,0,0,0,0,0,0,0,0,0
1681460945.70010710,84128835,1562,1562,1562,1562,0,0,0,0,0,0,0,0,0,0
1681460945.80006719,84228795,1561,1561,1561,1561,0,0,0,0,0,0,0,0,0,0
1681460945.90002704,84328755,1561,1561,1561,1561,0,0,0,0,0,0,0,0,0,0
1681460945.99998713,84428715,1561,1561,1561,1560,0,0,0,0,0,0,0,0,0,0
1681460946.09994721,84528675,1560,1560,1560,1559,0,0,0,0,0,0,0,0,0,0
1681460946.19990706,84628635,1558,1558,1558,1558,0,0,0,0,0,0,0,0,0,0
1681460946.29986715,84728595,1558,1558,1557,1557,0,0,0,0,0,0,0,0,0,0
1681460946.39982724,84828555,1557,1556,1557,1555,0,0,0,0,0,0,0,0,0,0
1681460946.49978709,84928515,1555,1556,1556,1555,0,0,0,0,0,0,0,0,0,0
1681460946.59974718,85028475,1556,1557,1557,1555,0,0,0,0,0,0,0,0,0,0
1681460946.69970703,85128435,1556,1556,1557,1555,0,0,0,0,0,0,0,0,0,0
1681460946.79966712,85228395,1558,1557,1559,1556,0,0,0,0,0,0,0,0,0,0
1681460946.89962721,85328355,1558,1557,1559,1556,0,0,0,0,0,0,0,0,0,0
1681460946.99958706,85428315,1558,1558,1558,1558,0,0,0,0,0,0,0,0,0,0
1681460947.09954715,85528275,1559,1559,1557,1561,0,0,0,0,0,0,0,0,0,0
1681460947.19950724,85628235,1560,1560,1557,1563,0,0,0,0,0,0,0,0,0,0
1681460947.29946709,85728195,1561,1561,1558,1564,0,0,0,0,0,0,0,0,0,0
1681460947.39942718,85828155,1562,1563,1561,1565,0,0,0,0,0,0,0,0,0,0
1681460947.50022006,85928948,1563,1563,1562,1564,0,0,0,0,0,0,0,0,0,0
1681460947.60018015,86028908,1563,1563,1564,1562,0,0,0,0,0,0,0,0,0,0
1681460947.70014024,86128868,1563,1562,1564,1560,0,0,0,0,0,0,0,0,0,0
1681460947.80010009,86228828,1562,1561,1564,1559,0,0,0,0,0,0,0,0,0,0
1681460947.90006018,86328788,1561,1560,1558,1562,0,0,0,0,0,0,0,0,0,0
1681460948.00002003,86428748,1557,1557,1553,1561,0,0,0,0,0,0,0,0,0,0
1681460948.09998012,86528708,1553,1553,1550,1556,0,0,0,0,0,0,0,0,0,0
1681460948.19994020,86628668,1548,1548,1547,1549,0,0,0,0,0,0,0,0,0,0
1681460948.29990005,86728628,1542,1543,1543,1542,0,0,0,0,0,0,0,0,0,0
1681460948.39986014,86828588,1535,1535,1536,1534,0,0,0,0,0,0,0,0,0,0
1681460948.49982023,86928548,1529,1528,1530,1527,0,0,0,0,0,0,0,0,0,0
1681460948.59978008,87028508,1522,1522,1523,1521,0,0,0,0,0,0,0,0,0,0
1681460948.69974017,87128468,1519,1519,1519,1519,0,0,0,0,0,0,0,0,0,0
1681460948.79970002,87228428,1519,1519,1519,1519,0,0,0,0,0,0,0,0,0,0
1681460948.89966011,87328388,1521,1521,1521,1522,0,0,0,0,0,0,0,0,0,0
1681460948.99962020,87428348,1524,1524,1523,1524,0,0,0,0,0,0,0,0,0,0
1681460949.09958005,87528308,1528,1528,1528,1529,0,0,0,0,0,0,0,0,0,0
1681460949.19954014,87628268,1532,1533,1533,1533,0,0,0,0,0,0,0,0,0,0
1681460949.29950023,87728228,1537,1537,1537,1537,0,0,0,0,0,0,0,0,0,0
1681460949.39946008,87828188,1539,1539,1540,1539,0,0,0,0,0,0,0,0,0,0
1681460949.50025320,87928981,1542,1542,1542,1542,0,0,0,0,0,0,0,0,0,0
1681460949.60021305,88028941,1543,1542,1543,1542,0,0,0,0,0,0,0,0,0,0
1681460949.70017314,88128901,1544,1544,1544,1544,0,0,0,0,0,0,0,0,0,0
1681460949.80013323,88228861,1545,1545,1545,1545,0,0,0,0,0,0,0,0,0,0
1681460949.90009308,88328821,1546,1546,1546,1546,0,0,0,0,0,0,0,0,0,0
1681460950.00005317,88428781,1545,1546,1545,1545,0,0,0,0,0,0,0,0,0,0
1681460950.10001302,88528741,1546,1546,1546,1545,0,0,0,0,0,0,0,0,0,0
1681460950.19997311,88628701,1546,1546,1546,1546,0,0,0,0,0,0,0,0,0,0
1681460950.29993320,88728661,1545,1545,1545,1545,0,0,0,0,0,0,0,0,0,0
1681460950.39989305,88828621,1546,1545,1546,1545,0,0,0,0,0,0,0,0,0,0
1681460950.49985313,88928581,1545,1545,1545,1545,0,0,0,0,0,0,0,0,0,0
1681460950.59981322,89028541,1545,1546,1545,1545,0,0,0,0,0,0,0,0,0,0
1681460950.69977307,89128501,1545,1545,1545,1545,0,0,0,0,0,0,0,0,0,0
1681460950.79973316,89228461,1545,1545,1545,1545,0,0,0,0,0,0,0,0,0,0
1681460950.89969325,89328421,1545,1544,1545,1544,0,0,0,0,0,0,0,0,0,0
1681460950.99965310,89428381,1544,1545,1545,1545,0,0,0,0,0,0,0,0,0,0
1681460951.09961319,89528341,1545,1545,1545,1545,0,0,0,0,0,0,0,0,0,0
1681460951.19957304,89628301,1544,1544,1544,1544,0,0,0,0,0,0,0,0,0,0
1681460951.29953313,89728261,1545,1544,1544,1544,0,0,0,0,0,0,0,0,0,0
1681460951.39949322,89828221,1544,1544,1544,1544,0,0,0,0,0,0,0,0,0,0
1681460951.49945307,89928181,1545,1544,1544,1544,0,0,0,0,0,0,0,0,0,0
1681460951.60024619,90028974,1544,1544,1544,1544,0,0,0,0,0,0,0,0,0,0
1681460951.70020604,90128934,1545,1545,1545,1545,0,0,0,0,0,0,0,0,0,0
1681460951.80016613,90228894,1545,1545,1545,1545,0,0,0,0,0,0,0,0,0,0
1681460951.90012622,90328854,1545,1544,1545,1544,0,0,0,0,0,0,0,0,0,0
1681460952.00008607,90428814,1544,1544,1544,1545,0,0,0,0,0,0,0,0,0,0
1681460952.10004616,90528774,1544,1544,1544,1545,0,0,0,0,0,0,0,0,0,0
1681460952.20000625,90628734,1544,1544,1544,1544,0,0,0,0,0,0,0,0,0,0
1681460952.29996610,90728694,1544,1544,1544,1544,0,0,0,0,0,0,0,0,0,0
1681460952.39992619,90828654,1545,1545,1545,1544,0,0,0,0,0,0,0,0,0,0
1681460952.49988604,90928614,1545,1545,1545,1544,0,0,0,0,0,0,0,0,0,0
1681460952.59984612,91028574,1545,1545,1544,1545,0,0,0,0,0,0,0,0,0,0
1681460952.69980621,91128534,1545,1545,1545,1545,0,0,0,0,0,0,0,0,0,0
1681460952.79976606,91228494,1545,1545,1545,1545,0,0,0,0,0,0,0,0,0,0
1681460952.89972615,91328454,1544,1543,1543,1544,0,0,0,0,0,0,0,0,0,0
1681460952.99968624,91428414,1544,1544,1545,1544,0,0,0,0,0,0,0,0,0,0
1681460953.09964609,91528374,1545,1544,1545,1545,0,0,0,0,0,0,0,0,0,0
1681460953.19960618,91628334,1545,1545,1545,1545,0,0,0,0,0,0,0,0,0,0
1681460953.29956603,91728294,1545,1545,1545,1545,0,0,0,0,0,0,0,0,0,0
1681460953.39952612,91828254,1544,1544,1544,1544,0,0,0,0,0,0,0,0,0,0
1681460953.49948621,91928214,1545,1545,1545,1544,0,0,0,0,0,0,0,0,0,0
1681460953.59944606,92028174,1544,1544,1544,1544,0,0,0,0,0,0,0,0,0,0
1681460953.70023918,92128967,1544,1543,1543,1544,0,0,0,0,0,0,0,0,0,0
1681460953.80019903,92228927,1544,1544,1544,1544,0,0,0,0,0,0,0,0,0,0
1681460953.90015912,92328887,1544,1544,1544,1544,0,0,0,0,0,0,0,0,0,0
1681460954.00011921,92428847,1544,1545,1544,1544,0,0,0,0,0,0,0,0,0,0
1681460954.10007906,92528807,1544,1544,1544,1544,0,0,0,0,0,0,0,0,0,0
1681460954.20003915,92628767,1544,1545,1545,1544,0,0,0,0,0,0,0,0,0,0
1681460954.29999924,92728727,1544,1544,1544,1544,0,0,0,0,0,0,0,0,0,0
1681460954.39995909,92828687,1543,1543,1543,1543,0,0,0,0,0,0,0,0,0,0
1681460954.49991918,92928647,1545,1544,1544,1545,0,0,0,0,0,0,0,0,0,0
1681460954.59987903,93028607,1544,1544,1544,1544,0,0,0,0,0,0,0,0,0,0
1681460954.69983912,93128567,1544,1544,1544,1545,0,0,0,0,0,0,0,0,0,0
1681460954.79979920,93228527,1544,1544,1544,1544,0,0,0,0,0,0,0,0,0,0
1681460954.89975905,93328487,1543,1543,1543,1543,0,0,0,0,0,0,0,0,0,0
1681460954.99971914,93428447,1544,1544,1544,1543,0,0,0,0,0,0,0,0,0,0
1681460955.09967923,93528407,1544,1544,1544,1545,0,0,0,0,0,0,0,0,0,0
1681460955.19963908,93628367,1545,1544,1545,1545,0,0,0,0,0,0,0,0,0,0
1681460955.29959917,93728327,1545,1545,1545,1545,0,0,0,0,0,0,0,0,0,0
1681460955.39955902,93828287,1545,1545,1545,1545,0,0,0,0,0,0,0,0,0,0
1681460955.49951911,93928247,1544,1544,1543,1544,0,0,0,0,0,0,0,0,0,0
1681460955.59947920,94028207,1544,1544,1544,1544,0,0,0,0,0,0,0,0,0,0
1681460955.69943905,94128167,1544,1544,1544,1544,0,0,0,0,0,0,0,0,0,0
1681460955.80023217,94228960,1544,1544,1544,1544,0,0,0,0,0,0,0,0,0,0
1681460955.90019202,94328920,1545,1544,1544,1544,0,0,0,0,0,0,0,0,0,0
1681460956.00015211,94428880,1544,1544,1544,1544,0,0,0,0,0,0,0,0,0,0
1681460956.10011220,94528840,1545,1545,1545,1545,0,0,0,0,0,0,0,0,0,0
1681460956.20007205,94628800,1545,1545,1545,1545,0,0,0,0,0,0,0,0,0,0
1681460956.30003214,94728760,1546,1545,1546,1546,0,0,0,0,0,0,0,0,0,0
1681460956.39999223,94828720,1545,1545,1545,1545,0,0,0,0,0,0,0,0,0,0
1681460956.49995208,94928680,1544,1545,1544,1545,0,0,0,0,0,0,0,0,0,0
1681460956.59991217,95028640,1545,1545,1545,1545,0,0,0,0,0,0,0,0,0,0
1681460956.69987202,95128600,1544,1544,1544,1544,0,0,0,0,0,0,0,0,0,0
1681460956.79983211,95228560,1545,1545,1545,1545,0,0,0,0,0,0,0,0,0,0
1681460956.89979219,95328520,1545,1544,1545,1545,0,0,0,0,0,0,0,0,0,0
1681460956.99975204,95428480,1545,1545,1545,1545,0,0,0,0,0,0,0,0,0,0
1681460957.09971213,95528440,1545,1545,1545,1545,0,0,0,0,0,0,0,0,0,0
1681460957.19967222,95628400,1544,1545,1545,1545,0,0,0,0,0,0,0,0,0,0
1681460957.29963207,95728360,1544,1544,1544,1544,0,0,0,0,0,0,0,0,0,0
1681460957.39959216,95828320,1544,1545,1544,1544,0,0,0,0,0,0,0,0,0,0
1681460957.49955225,95928280,1545,1544,1544,1545,0,0,0,0,0,0,0,0,0,0
1681460957.59951210,96028240,1544,1544,1544,1544,0,0,0,0,0,0,0,0,0,0
1681460957.69947219,96128200,1545,1544,1544,1545,0,0,0,0,0,0,0,0,0,0
1681460957.79943204,96228160,1545,1545,1545,1545,0,0,0,0,0,0,0,0,0,0
1681460957.90022516,96328953,1545,1544,1544,1544,0,0,0,0,0,0,0,0,0,0
1681460958.00018525,96428913,1544,1545,1545,1544,0,0,0,0,0,0,0,0,0,0
1681460958.10014510,96528873,1543,1543,1543,1543,0,0,0,0,0,0,0,0,0,0
1681460958.20010519,96628833,1544,1544,1544,1544,0,0,0,0,0,0,0,0,0,0
1681460958.30006504,96728793,1544,1544,1545,1544,0,0,0,0,0,0,0,0,0,0
1681460958.40002513,96828753,1432,1432,1431,1432,0,0,0,0,0,0,0,0,0,0
1681460958.49998522,96928713,1284,1283,1280,1284,0,0,0,0,0,0,0,0,0,0
1681460958.59994507,97028673,1225,1224,1220,1225,0,0,0,0,0,0,0,0,0,0
1681460958.69990516,97128633,1205,1203,1199,1205,0,0,0,0,0,0,0,0,0,0
1681460958.79986525,97228593,1172,1171,1166,1172,0,0,0,0,0,0,0,0,0,0
1681460958.89982510,97328553,1162,1160,1156,1162,0,0,0,0,0,0,0,0,0,0
1681460958.99978518,97428513,1162,1160,1156,1161,0,0,0,0,0,0,0,0,0,0
1681460959.09974504,97528473,1192,1161,1156,1192,0,0,0,0,0,0,0,0,0,0
1681460959.19970512,97628433,1183,1161,1156,1183,0,0,0,0,0,0,0,0,0,0
1681460959.29966521,97728393,1180,1161,1156,1180,0,0,0,0,0,0,0,0,0,0
1681460959.39962506,97828353,1180,1161,1156,1180,0,0,0,0,0,0,0,0,0,0
1681460959.49958515,97928313,1181,1160,1156,1181,0,0,0,0,0,0,0,0,0,0
1681460959.59954524,98028273,1183,1160,1156,1183,0,0,0,0,0,0,0,0,0,0
1681460959.69950509,98128233,1185,1160,1156,1185,0,0,0,0,0,0,0,0,0,0
1681460959.79946518,98228193,1186,1160,1156,1186,0,0,0,0,0,0,0,0,0,0
1681460959.90025806,98328986,1173,1160,1156,1173,0,0,0,0,0,0,0,0,0,0
1681460960.00021815,98428946,1175,1160,1156,1175,0,0,0,0,0,0,0,0,0,0
1681460960.10017824,98528906,1176,1160,1156,1176,0,0,0,0,0,0,0,0,0,0
1681460960.20013809,98628866,1176,1160,1156,1176,0,0,0,0,0,0,0,0,0,0
1681460960.30009818,98728826,1177,1160,1156,1177,0,0,0,0,0,0,0,0,0,0
1681460960.40005803,98828786,1000,1000,1000,1000,0,0,0,0,0,0,0,0,0,0
1681460960.50001812,98928746,1000,1000,1000,1000,0,0,0,0,0,0,0,0,0,0
1681460960.59997821,99028706,1000,1000,1000,1000,0,0,0,0,0,0,0,0,0,0
1681460960.69993806,99128666,1000,1000,1000,1000,0,0,0,0,0,0,0,0,0,0
1681460960.79989815,99228626,1000,1000,1000,1000,0,0,0,0,0,0,0,0,0,0
1681460960.89985824,99328586,1000,1000,1000,1000,0,0,0,0,0,0,0,0,0,0
1681460960.99981809,99428546,1000,1000,1000,1000,0,0,0,0,0,0,0,0,0,0
1681460961.09977818,99528506,1000,1000,1000,1000,0,0,0,0,0,0,0,0,0,0
1681460961.19973803,99628466,1000,1000,1000,1000,0,0,0,0,0,0,0,0,0,0
1681460961.29969811,99728426,1000,1000,1000,1000,0,0,0,0,0,0,0,0,0,0
1681460961.39965820,99828386,1000,1000,1000,1000,0,0,0,0,0,0,0,0,0,0
1681460961.49961805,99928346,1000,1000,1000,1000,0,0,0,0,0,0,0,0,0,0
1681460961.59957814,100028306,1000,1000,1000,1000,0,0,0,0,0,0,0,0,0,0
1681460961.69953823,100128266,1000,1000,1000,1000,0,0,0,0,0,0,0,0,0,0
1681460961.79949808,100228226,1000,1000,1000,1000,0,0,0,0,0,0,0,0,0,0
1681460961.89945817,100328186,1000,1000,1000,1000,0,0,0,0,0,0,0,0,0,0
1681460962.00025105,100428979,1000,1000,1000,1000,0,0,0,0,0,0,0,0,0,0
1681460962.10021114,100528939,1000,1000,1000,1000,0,0,0,0,0,0,0,0,0,0
1681460962.20017123,100628899,1000,1000,1000,1000,0,0,0,0,0,0,0,0,0,0
1681460962.30013108,100728859,1000,1000,1000,1000,0,0,0,0,0,0,0,0,0,0
1681460962.40009117,100828819,1000,1000,1000,1000,0,0,0,0,0,0,0,0,0,0
1681460962.50005102,100928779,1000,1000,1000,1000,0,0,0,0,0,0,0,0,0,0
1681460962.60001111,101028739,1000,1000,1000,1000,0,0,0,0,0,0,0,0,0,0
1681460962.69997120,101128699,1000,1000,1000,1000,0,0,0,0,0,0,0,0,0,0
1681460962.79993105,101228659,1000,1000,1000,1000,0,0,0,0,0,0,0,0,0,0
1681460962.89989114,101328619,1000,1000,1000,1000,0,0,0,0,0,0,0,0,0,0
1681460962.99985123,101428579,1000,1000,1000,1000,0,0,0,0,0,0,0,0,0,0
1681460963.09981108,101528539,1000,1000,1000,1000,0,0,0,0,0,0,0,0,0,0
1681460963.19977117,101628499,1000,1000,1000,1000,0,0,0,0,0,0,0,0,0,0
1681460963.29973102,101728459,1000,1000,1000,1000,0,0,0,0,0,0,0,0,0,0
1681460963.39969110,101828419,1000,1000,1000,1000,0,0,0,0,0,0,0,0,0,0
1681460963.49965119,101928379,1000,1000,1000,1000,0,0,0,0,0,0,0,0,0,0
1681460963.59961104,102028339,1000,1000,1000,1000,0,0,0,0,0,0,0,0,0,0
1681460963.69957113,102128299,1000,1000,1000,1000,0,0,0,0,0,0,0,0,0,0
1681460963.79953122,102228259,1000,1000,1000,1000,0,0,0,0,0,0,0,0,0,0
1681460963.89949107,102328219,1000,1000,1000,1000,0,0,0,0,0,0,0,0,0,0
1681460963.99945116,102428179,1000,1000,1000,1000,0,0,0,0,0,0,0,0,0,0
1681460964.10024405,102528972,1000,1000,1000,1000,0,0,0,0,0,0,0,0,0,0
1681460964.20020413,102628932,1000,1000,1000,1000,0,0,0,0,0,0,0,0,0,0
1681460964.30016422,102728892,1000,1000,1000,1000,0,0,0,0,0,0,0,0,0,0
1681460964.40012407,102828852,1000,1000,1000,1000,0,0,0,0,0,0,0,0,0,0
1681460964.50008416,102928812,1000,1000,1000,1000,0,0,0,0,0,0,0,0,0,0
1681460964.60004425,103028772,1000,1000,1000,1000,0,0,0,0,0,0,0,0,0,0
1681460964.70000410,103128732,1000,1000,1000,1000,0,0,0,0,0,0,0,0,0,0
1681460964.79996419,103228692,1000,1000,1000,1000,0,0,0,0,0,0,0,0,0,0
1681460964.89992404,103328652,1000,1000,1000,1000,0,0,0,0,0,0,0,0,0,0
1681460964.99988413,103428612,1000,1000,1000,1000,0,0,0,0,0,0,0,0,0,0
1681460965.09984422,103528572,1000,1000,1000,1000,0,0,0,0,0,0,0,0,0,0
1681460965.19980407,103628532,1000,1000,1000,1000,0,0,0,0,0,0,0,0,0,0
1681460965.29976416,103728492,1000,1000,1000,1000,0,0,0,0,0,0,0,0,0,0
1681460965.39972425,103828452,1000,1000,1000,1000,0,0,0,0,0,0,0,0,0,0
1681460965.49968410,103928412,1000,1000,1000,1000,0,0,0,0,0,0,0,0,0,0
1681460965.59964418,104028372,1000,1000,1000,1000,0,0,0,0,0,0,0,0,0,0
1681460965.69960403,104128332,1000,1000,1000,1000,0,0,0,0,0,0,0,0,0,0
1681460965.79956412,104228292,1000,1000,1000,1000,0,0,0,0,0,0,0,0,0,0
1681460965.89952421,104328252,1000,1000,1000,1000,0,0,0,0,0,0,0,0,0,0
1681460965.99948406,104428212,1000,1000,1000,1000,0,0,0,0,0,0,0,0,0,0
1681460966.09944415,104528172,1000,1000,1000,1000,0,0,0,0,0,0,0,0,0,0
1681460966.20023704,104628965,1000,1000,1000,1000,0,0,0,0,0,0,0,0,0,0
1681460966.30019712,104728925,1000,1000,1000,1000,0,0,0,0,0,0,0,0,0,0
1681460966.40015721,104828885,1000,1000,1000,1000,0,0,0,0,0,0,0,0,0,0
1681460966.50011706,104928845,1000,1000,1000,1000,0,0,0,0,0,0,0,0,0,0
1681460966.60007715,105028805,1000,1000,1000,1000,0,0,0,0,0,0,0,0,0,0
1681460966.70003724,105128765,1000,1000,1000,1000,0,0,0,0,0,0,0,0,0,0
1681460966.79999709,105228725,1000,1000,1000,1000,0,0,0,0,0,0,0,0,0,0
1681460966.89995718,105328685,1000,1000,1000,1000,0,0,0,0,0,0,0,0,0,0
1681460966.99991703,105428645,1000,1000,1000,1000,0,0,0,0,0,0,0,0,0,0
1681460967.09987712,105528605,1000,1000,1000,1000,0,0,0,0,0,0,0,0,0,0
1681460967.19983721,105628565,1000,1000,1000,1000,0,0,0,0,0,0,0,0,0,0
1681460967.29979706,105728525,1000,1000,1000,1000,0,0,0,0,0,0,0,0,0,0
1681460967.39975715,105828485,1000,1000,1000,1000,0,0,0,0,0,0,0,0,0,0
1681460967.49971724,105928445,1000,1000,1000,1000,0,0,0,0,0,0,0,0,0,0
1681460967.59967709,106028405,1000,1000,1000,1000,0,0,0,0,0,0,0,0,0,0
1681460967.69963717,106128365,1000,1000,1000,1000,0,0,0,0,0,0,0,0,0,0
1681460967.79959702,106228325,1000,1000,1000,1000,0,0,0,0,0,0,0,0,0,0
1681460967.89955711,106328285,1000,1000,1000,1000,0,0,0,0,0,0,0,0,0,0
1681460967.99951720,106428245,1000,1000,1000,1000,0,0,0,0,0,0,0,0,0,0
1681460968.09947705,106528205,1000,1000,1000,1000,0,0,0,0,0,0,0,0,0,0
1681460968.19943714,106628165,1000,1000,1000,1000,0,0,0,0,0,0,0,0,0,0
1681460968.30023003,106728958,1000,1000,1000,1000,0,0,0,0,0,0,0,0,0,0
1681460968.40019011,106828918,1000,1000,1000,1000,0,0,0,0,0,0,0,0,0,0
1681460968.50015020,106928878,1000,1000,1000,1000,0,0,0,0,0,0,0,0,0,0
1681460968.60011005,107028838,1000,1000,1000,1000,0,0,0,0,0,0,0,0,0,0
1681460968.70007014,107128798,1000,1000,1000,1000,0,0,0,0,0,0,0,0,0,0
1681460968.80003023,107228758,1000,1000,1000,1000,0,0,0,0,0,0,0,0,0,0
1681460968.89999008,107328718,1000,1000,1000,1000,0,0,0,0,0,0,0,0,0,0
1681460968.99995017,107428678,1000,1000,1000,1000,0,0,0,0,0,0,0,0,0,0
1681460969.09991002,107528638,1000,1000,1000,1000,0,0,0,0,0,0,0,0,0,0
1681460969.19987011,107628598,1000,1000,1000,1000,0,0,0,0,0,0,0,0,0,0
1681460969.29983020,107728558,1000,1000,1000,1000,0,0,0,0,0,0,0,0,0,0
1681460969.39979005,107828518,1000,1000,1000,1000,0,0,0,0,0,0,0,0,0,0
1681460969.49975014,107928478,1000,1000,1000,1000,0,0,0,0,0,0,0,0,0,0
1681460969.59971023,108028438,1000,1000,1000,1000,0,0,0,0,0,0,0,0,0,0
1681460969.69967008,108128398,1000,1000,1000,1000,0,0,0,0,0,0,0,0,0,0
1681460969.79963017,108228358,1000,1000,1000,1000,0,0,0,0,0,0,0,0,0,0
1681460969.89959025,108328318,1000,1000,1000,1000,0,0,0,0,0,0,0,0,0,0
1681460969.99955010,108428278,1000,1000,1000,1000,0,0,0,0,0,0,0,0,0,0
1681460970.09951019,108528238,1000,1000,1000,1000,0,0,0,0,0,0,0,0,0,0
1681460970.19947004,108628198,1000,1000,1000,1000,0,0,0,0,0,0,0,0,0,0
1681460970.29943013,108728158,1000,1000,1000,1000,0,0,0,0,0,0,0,0,0,0
1681460970.40022302,108828951,1000,1000,1000,1000,0,0,0,0,0,0,0,0,0,0
1681460970.50018311,108928911,1000,1000,1000,1000,0,0,0,0,0,0,0,0,0,0
1681460970.60014319,109028871,1000,1000,1000,1000,0,0,0,0,0,0,0,0,0,0
1681460970.70010304,109128831,1000,1000,1000,1000,0,0,0,0,0,0,0,0,0,0
1681460970.80006313,109228791,1000,1000,1000,1000,0,0,0,0,0,0,0,0,0,0
1681460970.90002322,109328751,1000,1000,1000,1000,0,0,0,0,0,0,0,0,0,0
1681460970.99998307,109428711,1000,1000,1000,1000,0,0,0,0,0,0,0,0,0,0
1681460971.09994316,109528671,1000,1000,1000,1000,0,0,0,0,0,0,0,0,0,0
1681460971.19990325,109628631,1000,1000,1000,1000,0,0,0,0,0,0,0,0,0,0
1681460971.29986310,109728591,1000,1000,1000,1000,0,0,0,0,0,0,0,0,0,0
1681460971.39982319,109828551,1000,1000,1000,1000,0,0,0,0,0,0,0,0,0,0
1681460971.49978304,109928511,1000,1000,1000,1000,0,0,0,0,0,0,0,0,0,0
1681460971.59974313,110028471,1000,1000,1000,1000,0,0,0,0,0,0,0,0,0,0
1681460971.69970322,110128431,1000,1000,1000,1000,0,0,0,0,0,0,0,0,0,0
1681460971.79966307,110228391,1000,1000,1000,1000,0,0,0,0,0,0,0,0,0,0
1681460971.89962316,110328351,1000,1000,1000,1000,0,0,0,0,0,0,0,0,0,0
1681460971.99958324,110428311,1000,1000,1000,1000,0,0,0,0,0,0,0,0,0,0
1681460972.09954309,110528271,1000,1000,1000,1000,0,0,0,0,0,0,0,0,0,0
1681460972.19950318,110628231,1000,1000,1000,1000,0,0,0,0,0,0,0,0,0,0
1681460972.29946303,110728191,1000,1000,1000,1000,0,0,0,0,0,0,0,0,0,0
1681460972.40025616,110828984,1000,1000,1000,1000,0,0,0,0,0,0,0,0,0,0
1681460972.50021625,110928944,1000,1000,1000,1000,0,0,0,0,0,0,0,0,0,0
1681460972.60017610,111028904,1000,1000,1000,1000,0,0,0,0,0,0,0,0,0,0
1681460972.70013618,111128864,1000,1000,1000,1000,0,0,0,0,0,0,0,0,0,0
1681460972.80009604,111228824,1000,1000,1000,1000,0,0,0,0,0,0,0,0,0,0
1681460972.90005612,111328784,1000,1000,1000,1000,0,0,0,0,0,0,0,0,0,0
1681460973.00001621,111428744,1000,1000,1000,1000,0,0,0,0,0,0,0,0,0,0
1681460973.09997606,111528704,1000,1000,1000,1000,0,0,0,0,0,0,0,0,0,0
1681460973.19993615,111628664,1000,1000,1000,1000,0,0,0,0,0,0,0,0,0,0
1681460973.29989624,111728624,1000,1000,1000,1000,0,0,0,0,0,0,0,0,0,0
1681460973.39985609,111828584,1000,1000,1000,1000,0,0,0,0,0,0,0,0,0,0
1681460973.49981618,111928544,1000,1000,1000,1000,0,0,0,0,0,0,0,0,0,0
1681460973.59977603,112028504,1000,1000,1000,1000,0,0,0,0,0,0,0,0,0,0
1681460973.69973612,112128464,1000,1000,1000,1000,0,0,0,0,0,0,0,0,0,0
1681460973.79969621,112228424,1000,1000,1000,1000,0,0,0,0,0,0,0,0,0,0
1681460973.89965606,112328384,1000,1000,1000,1000,0,0,0,0,0,0,0,0,0,0
1681460973.99961615,112428344,1000,1000,1000,1000,0,0,0,0,0,0,0,0,0,0
1681460974.09957623,112528304,1000,1000,1000,1000,0,0,0,0,0,0,0,0,0,0
1681460974.19953609,112628264,1000,1000,1000,1000,0,0,0,0,0,0,0,0,0,0
1681460974.29949617,112728224,1000,1000,1000,1000,0,0,0,0,0,0,0,0,0,0
1681460974.39945602,112828184,1000,1000,1000,1000,0,0,0,0,0,0,0,0,0,0
1681460974.50024915,112928977,1000,1000,1000,1000,0,0,0,0,0,0,0,0,0,0
1681460974.60020924,113028937,1000,1000,1000,1000,0,0,0,0,0,0,0,0,0,0
1681460974.70016909,113128897,1000,1000,1000,1000,0,0,0,0,0,0,0,0,0,0
1681460974.80012918,113228857,1000,1000,1000,1000,0,0,0,0,0,0,0,0,0,0
1681460974.90008903,113328817,1000,1000,1000,1000,0,0,0,0,0,0,0,0,0,0
1681460975.00004911,113428777,1000,1000,1000,1000,0,0,0,0,0,0,0,0,0,0
1681460975.10000920,113528737,1000,1000,1000,1000,0,0,0,0,0,0,0,0,0,0
1681460975.19996905,113628697,1000,1000,1000,1000,0,0,0,0,0,0,0,0,0,0
1681460975.29992914,113728657,1000,1000,1000,1000,0,0,0,0,0,0,0,0,0,0
