TimeUS,M1,M2,M3,M4,TimeUS,C1,C2,C3,C4
127486485,1000,1000,700,1000,127528968,1000,1000,1000,1000
127488984,1000,1000,700,1000,127628928,1000,1000,1000,1000
127491483,1000,1000,700,1000,127728888,1000,1000,1000,1000
127493982,1000,1000,700,1000,127828848,1000,1000,1000,1000
127496481,1000,1000,700,1000,127928808,1000,1000,1000,1000
127498980,1000,1000,700,1000,128028768,1000,1000,1000,1000
127501479,1000,1000,700,1000,128128728,1000,1000,1000,1000
127503978,1000,1000,700,1000,128228688,1000,1000,1000,1000
127506477,1000,1000,700,1000,128328648,1000,1000,1000,1000
127508976,1000,1000,700,1000,128428608,1000,1000,1000,1000
127511475,1000,1000,700,1000,128528568,1000,1000,1000,1000
127513974,1000,1000,700,1000,128628528,1000,1000,1000,1000
127516473,1000,1000,700,1000,128728488,1000,1000,1000,1000
127518972,1000,1000,700,1000,128828448,1000,1000,1000,1000
127521471,1000,1000,700,1000,128928408,1000,1000,1000,1000
127523970,1000,1000,700,1000,129028368,1000,1000,1000,1000
127526469,1000,1000,700,1000,129128328,1000,1000,1000,1000
127528968,1000,1000,700,1000,129228288,1000,1000,1000,1000
127531467,1000,1000,700,1000,129328248,1000,1000,1000,1000
127533966,1000,1000,700,1000,129428208,1000,1000,1000,1000
127536465,1000,1000,700,1000,129528168,1012,1012,1012,1012
127538964,1000,1000,700,1000,129628961,1042,1042,1042,1042
127541463,1000,1000,700,1000,129728921,1072,1072,1072,1072
127543962,1000,1000,700,1000,129828881,1102,1102,1102,1102
127546461,1000,1000,700,1000,129928841,1132,1132,1132,1132
127548960,1000,1000,700,1000,130028801,1273,1257,1257,1274
127551459,1000,1000,700,1000,130128761,1485,1471,1472,1486
127553958,1000,1000,700,1000,130228721,1648,1636,1637,1649
127556457,1000,1000,700,1000,130328681,1786,1774,1774,1787
127558956,1000,1000,700,1000,130428641,1894,1883,1883,1895
127561455,1000,1000,700,1000,130528601,1876,1869,1869,1877
127563954,1000,1000,700,1000,130628561,1752,1750,1751,1752
127566453,1000,1000,700,1000,130728521,1651,1654,1655,1651
127568952,1000,1000,700,1000,130828481,1618,1624,1625,1618
127571451,1000,1000,700,1000,130928441,1626,1630,1630,1626
127573950,1000,1000,700,1000,131028401,1636,1640,1639,1637
127576449,1000,1000,700,1000,131128361,1637,1637,1636,1637
127578948,1000,1000,700,1000,131228321,1631,1630,1629,1631
127581447,1000,1000,700,1000,131328281,1625,1622,1622,1625
127583946,1000,1000,700,1000,131428241,1620,1618,1618,1619
127586445,1000,1000,700,1000,131528201,1617,1615,1615,1617
127588944,1000,1000,700,1000,131628161,1616,1616,1616,1616
127591443,1000,1000,700,1000,131728954,1618,1618,1618,1617
127593942,1000,1000,700,1000,131828914,1619,1619,1619,1619
127596441,1000,1000,700,1000,131928874,1620,1620,1620,1620
127598940,1000,1000,700,1000,132028834,1620,1621,1621,1621
127601439,1000,1000,700,1000,132128794,1622,1622,1622,1622
127603938,1000,1000,700,1000,132228754,1624,1624,1623,1624
127606437,1000,1000,700,1000,132328714,1608,1609,1609,1608
127608936,1000,1000,700,1000,132428674,1589,1588,1588,1589
127611435,1000,1000,700,1000,132528634,1577,1575,1575,1578
127613934,1000,1000,700,1000,132628594,1568,1566,1567,1568
127616433,1000,1000,700,1000,132728554,1560,1559,1559,1560
127618932,1000,1000,700,1000,132828514,1552,1551,1552,1551
127621431,1000,1000,700,1000,132928474,1545,1546,1546,1545
127623930,1000,1000,700,1000,133028434,1540,1541,1541,1540
127626429,1000,1000,700,1000,133128394,1534,1535,1534,1534
127628928,1000,1000,700,1000,133228354,1527,1527,1527,1527
127631427,1000,1000,700,1000,133328314,1522,1522,1521,1523
127633926,1000,1000,700,1000,133428274,1519,1519,1518,1520
127636425,1000,1000,700,1000,133528234,1516,1516,1515,1517
127638924,1000,1000,700,1000,133628194,1514,1514,1514,1514
127641423,1000,1000,700,1000,133728154,1510,1510,1510,1510
127643922,1000,1000,700,1000,133828947,1508,1508,1508,1507
127646421,1000,1000,700,1000,133928907,1505,1505,1505,1505
127648920,1000,1000,700,1000,134028867,1503,1504,1504,1504
127651419,1000,1000,700,1000,134128827,1502,1502,1502,1502
127653918,1000,1000,700,1000,134228787,1500,1500,1500,1500
127656417,1000,1000,700,1000,134328747,1498,1498,1498,1498
127658916,1000,1000,700,1000,134428707,1496,1495,1495,1496
127661415,1000,1000,700,1000,134528667,1495,1495,1495,1496
127663914,1000,1000,700,1000,134628627,1493,1493,1493,1493
127666413,1000,1000,700,1000,134728587,1496,1495,1496,1495
127668912,1000,1000,700,1000,134828547,1504,1504,1505,1503
127671411,1000,1000,700,1000,134928507,1544,1544,1549,1539
127673910,1000,1000,700,1000,135028467,1557,1557,1560,1554
127676409,1000,1000,700,1000,135128427,1567,1566,1565,1567
127678908,1000,1000,700,1000,135228387,1572,1572,1568,1576
127681407,1000,1000,700,1000,135328347,1576,1575,1571,1580
127683906,1000,1000,700,1000,135428307,1578,1577,1574,1581
127686405,1000,1000,700,1000,135528267,1579,1579,1577,1580
127688904,1000,1000,700,1000,135628227,1580,1580,1581,1579
127691403,1000,1000,700,1000,135728187,1580,1580,1583,1578
127693902,1000,1000,700,1000,135828980,1579,1580,1583,1576
127696401,1000,1000,700,1000,135928940,1578,1578,1580,1576
127698900,1000,1000,700,1000,136028900,1576,1577,1577,1576
127701399,1000,1000,700,1000,136128860,1574,1574,1573,1575
127703898,1000,1000,700,1000,136228820,1573,1573,1571,1575
127706397,1000,1000,700,1000,136328780,1573,1573,1569,1573
127708896,1000,1000,700,1000,136428740,1570,1570,1568,1570
127711395,1000,1000,700,1000,136528700,1569,1569,1569,1570
127713894,1000,1000,700,1000,136628660,1568,1568,1570,1569
127716393,1000,1000,700,1000,136728620,1569,1568,1572,1571
127718892,1000,1000,700,1000,136828580,1569,1570,1573,1572
127721391,1000,1000,700,1000,136928540,1568,1568,1571,1571
127723890,1000,1000,700,1000,137028500,1569,1569,1571,1571
127726389,1000,1000,700,1000,137128460,1570,1569,1571,1572
127728888,1000,1000,700,1000,137228420,1569,1570,1571,1571
127731387,1000,1000,700,1000,137328380,1571,1571,1572,1572
127733886,1000,1000,700,1000,137428340,1571,1572,1571,1571
127736385,1000,1000,700,1000,137528300,1573,1573,1572,1573
127738884,1000,1000,700,1000,137628260,1575,1574,1573,1573
127741383,1000,1000,700,1000,137728220,1575,1574,1573,1573
127743882,1000,1000,700,1000,137828180,1576,1576,1575,1573
127746381,1000,1000,700,1000,137928973,1576,1576,1575,1574
127748880,1000,1000,700,1000,138028933,1576,1577,1576,1575
127751379,1000,1000,700,1000,138128893,1577,1577,1576,1576
127753878,1000,1000,700,1000,138228853,1577,1577,1576,1576
127756377,1000,1000,700,1000,138328813,1577,1576,1576,1577
127758876,1000,1000,700,1000,138428773,1577,1577,1577,1577
127761375,1000,1000,700,1000,138528733,1576,1576,1576,1576
127763874,1000,1000,700,1000,138628693,1576,1576,1577,1576
127766373,1000,1000,700,1000,138728653,1577,1577,1577,1578
127768872,1000,1000,700,1000,138828613,1577,1577,1578,1578
127771371,1000,1000,700,1000,138928573,1578,1578,1579,1579
127773870,1000,1000,700,1000,139028533,1578,1579,1579,1579
127776369,1000,1000,700,1000,139128493,1578,1578,1579,1579
127778868,1000,1000,700,1000,139228453,1579,1578,1579,1579
127781367,1000,1000,700,1000,139328413,1579,1579,1579,1578
127783866,1000,1000,700,1000,139428373,1579,1580,1579,1579
127786365,1000,1000,700,1000,139528333,1580,1580,1579,1579
127788864,1000,1000,700,1000,139628293,1580,1581,1580,1580
127791363,1000,1000,700,1000,139728253,1580,1580,1579,1580
127793862,1000,1000,700,1000,139828213,1580,1579,1579,1579
127796361,1000,1000,700,1000,139928173,1580,1579,1578,1579
127798860,1000,1000,700,1000,140028966,1580,1580,1580,1580
127801359,1000,1000,700,1000,140128926,1580,1580,1580,1580
127803858,1000,1000,700,1000,140228886,1579,1580,1579,1579
127806357,1000,1000,700,1000,140328846,1579,1579,1580,1580
127808856,1000,1000,700,1000,140428806,1579,1579,1580,1579
127811355,1000,1000,700,1000,140528766,1580,1580,1580,1581
127813854,1000,1000,700,1000,140628726,1580,1580,1581,1581
127816353,1000,1000,700,1000,140728686,1580,1580,1580,1580
127818852,1000,1000,700,1000,140828646,1580,1580,1581,1580
127821351,1000,1000,700,1000,140928606,1581,1581,1581,1581
127823850,1000,1000,700,1000,141028566,1581,1581,1581,1581
127826349,1000,1000,700,1000,141128526,1581,1581,1581,1581
127828848,1000,1000,700,1000,141228486,1582,1582,1582,1582
127831347,1000,1000,700,1000,141328446,1580,1580,1580,1580
127833846,1000,1000,700,1000,141428406,1581,1581,1581,1581
127836345,1000,1000,700,1000,141528366,1582,1582,1582,1582
127838844,1000,1000,700,1000,141628326,1582,1581,1581,1581
127841343,1000,1000,700,1000,141728286,1580,1581,1580,1580
127843842,1000,1000,700,1000,141828246,1581,1581,1581,1581
127846341,1000,1000,700,1000,141928206,1582,1582,1582,1582
127848840,1000,1000,700,1000,142028166,1582,1582,1582,1582
127851339,1000,1000,700,1000,142128959,1581,1581,1581,1581
127853838,1000,1000,700,1000,142228919,1581,1581,1582,1581
127856337,1000,1000,700,1000,142328879,1581,1581,1581,1581
127858836,1000,1000,700,1000,142428839,1581,1581,1581,1581
127861335,1000,1000,700,1000,142528799,1580,1581,1585,1575
127863834,1000,1000,700,1000,142628759,1580,1582,1586,1572
127866333,1000,1000,700,1000,142728719,1579,1582,1580,1573
127868832,1000,1000,700,1000,142828679,1577,1580,1571,1572
127871331,1000,1000,700,1000,142928639,1578,1579,1563,1570
127873830,1000,1000,700,1000,143028599,1578,1579,1558,1565
127876329,1000,1000,700,1000,143128559,1580,1579,1555,1561
127878828,1000,1000,700,1000,143228519,1580,1579,1555,1556
127881327,1000,1000,700,1000,143328479,1581,1580,1556,1555
127883826,1000,1000,700,1000,143428439,1579,1580,1556,1553
127886325,1000,1000,700,1000,143528399,1580,1580,1556,1554
127888824,1000,1000,700,1000,143628359,1578,1579,1555,1554
127891323,1000,1000,700,1000,143728319,1577,1578,1554,1554
127893822,1000,1000,700,1000,143828279,1576,1577,1553,1552
127896321,1000,1000,700,1000,143928239,1577,1577,1551,1552
127898820,1000,1000,700,1000,144028199,1578,1579,1550,1550
127901319,1000,1000,700,1000,144128159,1579,1581,1548,1548
127903818,1000,1000,700,1000,144228952,1582,1583,1546,1546
127906317,1000,1000,700,1000,144328912,1585,1585,1543,1543
127908816,1000,1000,700,1000,144428872,1588,1588,1540,1540
127911315,1000,1000,700,1000,144528832,1591,1592,1537,1538
127913814,1000,1000,700,1000,144628792,1593,1594,1535,1535
127916313,1000,1000,700,1000,144728752,1595,1595,1535,1535
127918812,1000,1000,700,1000,144828712,1596,1595,1535,1535
127921311,1000,1000,700,1000,144928672,1595,1594,1537,1539
127923810,1000,1000,700,1000,145028632,1592,1591,1539,1542
127926309,1000,1000,700,1000,145128592,1589,1587,1546,1550
127928808,1000,1000,700,1000,145228552,1582,1580,1554,1558
127931307,1000,1000,700,1000,145328512,1573,1569,1565,1568
127933806,1000,1000,700,1000,145428472,1563,1560,1579,1580
127936305,1000,1000,700,1000,145528432,1551,1547,1590,1591
127938804,1000,1000,700,1000,145628392,1541,1539,1601,1601
127941303,1000,1000,700,1000,145728352,1533,1532,1610,1609
127943802,1000,1000,700,1000,145828312,1529,1530,1615,1614
127946301,1000,1000,700,1000,145928272,1529,1530,1616,1615
127948800,1000,1000,700,1000,146028232,1532,1534,1614,1613
127951299,1000,1000,700,1000,146128192,1538,1540,1609,1608
127953798,1000,1000,700,1000,146228985,1545,1547,1601,1602
127956297,1000,1000,700,1000,146328945,1554,1555,1594,1594
127958796,1000,1000,700,1000,146428905,1564,1564,1587,1586
127961295,1000,1000,700,1000,146528865,1574,1573,1581,1580
127963794,1000,1000,700,1000,146628825,1579,1578,1574,1573
127966293,1000,1000,700,1000,146728785,1585,1583,1570,1570
127968792,1000,1000,700,1000,146828745,1587,1586,1567,1566
127971291,1000,1000,700,1000,146928705,1588,1586,1565,1566
127973790,1000,1000,700,1000,147028665,1587,1586,1566,1566
127976289,1000,1000,700,1000,147128625,1585,1586,1569,1569
127978788,1000,1000,700,1000,147228585,1583,1583,1571,1571
127981287,1000,1000,700,1000,147328545,1580,1580,1574,1574
127983786,1000,1000,700,1000,147428505,1578,1578,1578,1578
127986285,1000,1000,700,1000,147528465,1575,1575,1580,1580
127988784,1000,1000,700,1000,147628425,1574,1574,1582,1582
127991283,1000,1000,700,1000,147728385,1572,1572,1583,1583
127993782,1000,1000,700,1000,147828345,1571,1572,1583,1583
127996281,1000,1000,700,1000,147928305,1572,1573,1583,1584
127998780,1000,1000,700,1000,148028265,1573,1574,1583,1583
128001279,1000,1000,700,1000,148128225,1575,1575,1583,1583
128003778,1000,1000,700,1000,148228185,1576,1576,1580,1581
128006277,1000,1000,700,1000,148328978,1578,1578,1580,1580
128008776,1000,1000,700,1000,148428938,1579,1578,1579,1579
128011275,1000,1000,700,1000,148528898,1580,1580,1578,1578
128013774,1000,1000,700,1000,148628858,1581,1581,1577,1577
128016273,1000,1000,700,1000,148728818,1581,1581,1576,1576
128018772,1000,1000,700,1000,148828778,1583,1583,1306,1550
128021271,1000,1000,700,1000,148928738,1625,1625,1460,1505
128023770,1000,1000,700,1000,149028698,1656,1661,1569,1526
128026269,1000,1000,700,1000,149128658,1668,1679,1650,1555
128028768,1000,1000,700,1000,149228618,1626,1646,1650,1563
128031267,1000,1000,700,1000,149328578,1627,1649,1650,1596
128033766,1000,1000,700,1000,149428538,1628,1644,1650,1624
128036265,1000,1000,700,1000,149528498,1615,1618,1650,1649
128038764,1000,1000,700,1000,149628458,1584,1582,1650,1673
128041263,1000,1000,700,1000,149728418,1554,1537,1650,1681
128043762,1000,1000,700,1000,149828378,1535,1500,1650,1676
128046261,1000,1000,700,1000,149928338,1532,1492,1650,1668
128048760,1000,1000,700,1000,150028298,1550,1519,1650,1660
128051259,1000,1000,700,1000,150128258,1586,1572,1650,1656
128053758,1000,1000,700,1000,150228218,1619,1623,1650,1650
128056257,1000,1000,700,1000,150328178,1625,1644,1634,1629
128058756,1000,1000,700,1000,150428971,1611,1637,1604,1600
128061255,1000,1000,700,1000,150528931,1602,1632,1584,1572
128063754,1000,1000,700,1000,150628891,1597,1622,1560,1556
128066253,1000,1000,700,1000,150728851,1592,1605,1539,1547
128068752,1000,1000,700,1000,150828811,1587,1585,1526,1540
128071251,1000,1000,700,1000,150928771,1581,1571,1520,1532
128073750,1000,1000,700,1000,151028731,1577,1563,1519,1525
128076249,1000,1000,700,1000,151128691,1572,1562,1522,1522
128078748,1000,1000,700,1000,151228651,1569,1564,1526,1521
128081247,1000,1000,700,1000,151328611,1566,1567,1530,1523
128083746,1000,1000,700,1000,151428571,1563,1568,1533,1527
128086245,1000,1000,700,1000,151528531,1562,1568,1535,1533
128088744,1000,1000,700,1000,151628491,1562,1567,1538,1538
128091243,1000,1000,700,1000,151728451,1564,1565,1540,1541
128093742,1000,1000,700,1000,151828411,1565,1565,1542,1544
128096241,1000,1000,700,1000,151928371,1567,1566,1544,1545
128098740,1000,1000,700,1000,152028331,1570,1569,1546,1546
128101239,1000,1000,700,1000,152128291,1573,1572,1547,1546
128103738,1000,1000,700,1000,152228251,1576,1576,1547,1546
128106237,1000,1000,700,1000,152328211,1579,1580,1547,1546
128108736,1000,1000,700,1000,152428171,1582,1583,1547,1546
128111235,1000,1000,700,1000,152528964,1584,1585,1545,1545
128113734,1000,1000,700,1000,152628924,1587,1587,1545,1546
128116233,1000,1000,700,1000,152728884,1588,1587,1544,1546
128118732,1000,1000,700,1000,152828844,1588,1586,1545,1547
128121231,1000,1000,700,1000,152928804,1586,1584,1548,1550
128123730,1000,1000,700,1000,153028764,1583,1581,1551,1553
128126229,1000,1000,700,1000,153128724,1578,1577,1556,1558
128128728,1000,1000,700,1000,153228684,1573,1572,1561,1563
128131227,1000,1000,700,1000,153328644,1569,1567,1567,1569
128133726,1000,1000,700,1000,153428604,1564,1562,1574,1575
128136225,1000,1000,700,1000,153528564,1559,1558,1581,1581
128138724,1000,1000,700,1000,153628524,1554,1554,1586,1585
128141223,1000,1000,700,1000,153728484,1551,1550,1591,1589
128143722,1000,1000,700,1000,153828444,1551,1551,1595,1594
128146221,1000,1000,700,1000,153928404,1550,1550,1597,1595
128148720,1000,1000,700,1000,154028364,1550,1550,1597,1597
128151219,1000,1000,700,1000,154128324,1550,1551,1597,1596
128153718,1000,1000,700,1000,154228284,1553,1553,1596,1596
128156217,1000,1000,700,1000,154328244,1555,1555,1594,1595
128158716,1000,1000,700,1000,154428204,1557,1556,1591,1592
128161215,1000,1000,700,1000,154528164,1559,1559,1588,1589
128163714,1000,1000,700,1000,154628957,1562,1562,1587,1587
128166213,1000,1000,700,1000,154728917,1565,1565,1585,1585
128168712,1000,1000,700,1000,154828877,1567,1568,1583,1582
128171211,1000,1000,700,1000,154928837,1570,1570,1580,1579
128173710,1000,1000,700,1000,155028797,1572,1573,1578,1577
128176209,1000,1000,700,1000,155128757,1575,1575,1576,1576
128178708,1000,1000,700,1000,155228717,1576,1576,1573,1574
128181207,1000,1000,700,1000,155328677,1578,1577,1572,1573
128183706,1000,1000,700,1000,155428637,1580,1579,1572,1573
128186205,1000,1000,700,1000,155528597,1580,1580,1571,1571
128188704,1000,1000,700,1000,155628557,1581,1580,1571,1571
128191203,1000,1000,700,1000,155728517,1581,1581,1572,1572
128193702,1000,1000,700,1000,155828477,1582,1581,1573,1573
128196201,1000,1000,700,1000,155928437,1582,1581,1574,1574
128198700,1000,1000,700,1000,156028397,1581,1581,1575,1575
128201199,1000,1000,700,1000,156128357,1579,1580,1576,1576
128203698,1000,1000,700,1000,156228317,1580,1580,1578,1578
128206197,1000,1000,700,1000,156328277,1578,1578,1579,1578
128208696,1000,1000,700,1000,156428237,1578,1578,1580,1579
128211195,1000,1000,700,1000,156528197,1577,1578,1581,1580
128213694,1000,1000,700,1000,156628157,1577,1577,1581,1581
128216193,1000,1000,700,1000,156728950,1577,1577,1581,1581
128218692,1000,1000,700,1000,156828910,1577,1577,1581,1581
128221191,1000,1000,700,1000,156928870,1578,1578,1582,1582
128223690,1000,1000,700,1000,157028830,1579,1579,1582,1582
128226189,1000,1000,700,1000,157128790,1579,1579,1582,1582
128228688,1000,1000,700,1000,157228750,1580,1580,1582,1582
128231187,1000,1000,700,1000,157328710,1579,1579,1580,1581
128233686,1000,1000,700,1000,157428670,1579,1579,1580,1580
128236185,1000,1000,700,1000,157528630,1580,1580,1580,1580
128238684,1000,1000,700,1000,157628590,1580,1580,1579,1580
128241183,1000,1000,700,1000,157728550,1581,1581,1580,1580
128243682,1000,1000,700,1000,157828510,1581,1581,1580,1580
128246181,1000,1000,700,1000,157928470,1582,1581,1580,1580
128248680,1000,1000,700,1000,158028430,1581,1581,1580,1579
128251179,1000,1000,700,1000,158128390,1581,1581,1580,1579
128253678,1000,1000,700,1000,158228350,1581,1581,1580,1580
128256177,1000,1000,700,1000,158328310,1581,1581,1580,1580
128258676,1000,1000,700,1000,158428270,1581,1581,1581,1581
128261175,1000,1000,700,1000,158528230,1582,1582,1582,1582
128263674,1000,1000,700,1000,158628190,1581,1581,1582,1581
128266173,1000,1000,700,1000,158728983,1582,1582,1583,1582
128268672,1000,1000,700,1000,158828943,1581,1581,1582,1582
128271171,1000,1000,700,1000,158928903,1580,1580,1581,1581
128273670,1000,1000,700,1000,159028863,1581,1582,1584,1578
128276169,1000,1000,700,1000,159128823,1579,1583,1586,1572
128278668,1000,1000,700,1000,159228783,1578,1584,1582,1574
128281167,1000,1000,700,1000,159328743,1578,1582,1575,1574
128283666,1000,1000,700,1000,159428703,1577,1579,1567,1571
128286165,1000,1000,700,1000,159528663,1577,1578,1560,1567
128288664,1000,1000,700,1000,159628623,1579,1577,1556,1563
128291163,1000,1000,700,1000,159728583,1581,1578,1554,1559
128293662,1000,1000,700,1000,159828543,1582,1579,1554,1555
128296161,1000,1000,700,1000,159928503,1582,1580,1554,1554
128298660,1000,1000,700,1000,160028463,1580,1580,1555,1552
128301159,1000,1000,700,1000,160128423,1580,1581,1555,1553
128303658,1000,1000,700,1000,160228383,1578,1580,1554,1552
128306157,1000,1000,700,1000,160328343,1577,1579,1554,1553
128308656,1000,1000,700,1000,160428303,1577,1579,1553,1553
128311155,1000,1000,700,1000,160528263,1577,1579,1552,1552
128313654,1000,1000,700,1000,160628223,1579,1580,1551,1551
128316153,1000,1000,700,1000,160728183,1580,1580,1548,1549
128318652,1000,1000,700,1000,160828976,1583,1584,1548,1547
128321151,1000,1000,700,1000,160928936,1585,1586,1545,1545
128323650,1000,1000,700,1000,161028896,1588,1589,1544,1544
128326149,1000,1000,700,1000,161128856,1591,1591,1541,1542
128328648,1000,1000,700,1000,161228816,1593,1594,1539,1540
128331147,1000,1000,700,1000,161328776,1595,1596,1538,1539
128333646,1000,1000,700,1000,161428736,1597,1597,1538,1540
128336145,1000,1000,700,1000,161528696,1598,1596,1541,1544
128338644,1000,1000,700,1000,161628656,1594,1591,1544,1548
128341143,1000,1000,700,1000,161728616,1588,1584,1552,1555
128343642,1000,1000,700,1000,161828576,1580,1576,1561,1565
128346141,1000,1000,700,1000,161928536,1570,1566,1573,1575
128348640,1000,1000,700,1000,162028496,1558,1556,1585,1586
128351139,1000,1000,700,1000,162128456,1548,1547,1597,1596
128353638,1000,1000,700,1000,162228416,1542,1543,1607,1604
128356137,1000,1000,700,1000,162328376,1539,1540,1612,1608
128358636,1000,1000,700,1000,162428336,1539,1541,1615,1611
128361135,1000,1000,700,1000,162528296,1542,1543,1614,1611
128363634,1000,1000,700,1000,162628256,1546,1547,1612,1610
128366133,1000,1000,700,1000,162728216,1550,1550,1607,1607
128368632,1000,1000,700,1000,162828176,1553,1554,1602,1602
128371131,1000,1000,700,1000,162928969,1558,1558,1597,1597
128373630,1000,1000,700,1000,163028929,1562,1563,1591,1592
128376129,1000,1000,700,1000,163128889,1567,1567,1585,1586
128378628,1000,1000,700,1000,163228849,1571,1571,1579,1580
128381127,1000,1000,700,1000,163328809,1576,1575,1573,1574
128383626,1000,1000,700,1000,163428769,1581,1580,1569,1570
128386125,1000,1000,700,1000,163528729,1584,1583,1566,1567
128388624,1000,1000,700,1000,163628689,1585,1584,1563,1564
128391123,1000,1000,700,1000,163728649,1586,1584,1564,1564
128393622,1000,1000,700,1000,163828609,1584,1583,1564,1565
128396121,1000,1000,700,1000,163928569,1582,1582,1567,1567
128398620,1000,1000,700,1000,164028529,1580,1580,1570,1570
128401119,1000,1000,700,1000,164128489,1579,1579,1574,1574
128403618,1000,1000,700,1000,164228449,1577,1577,1577,1576
128406117,1000,1000,700,1000,164328409,1575,1575,1580,1580
128408616,1000,1000,700,1000,164428369,1573,1574,1582,1581
128411115,1000,1000,700,1000,164528329,1573,1573,1584,1583
128413614,1000,1000,700,1000,164628289,1573,1574,1585,1584
128416113,1000,1000,700,1000,164728249,1573,1574,1585,1585
128418612,1000,1000,700,1000,164828209,1573,1574,1583,1584
128421111,1000,1000,700,1000,164928169,1576,1576,1583,1584
128423610,1000,1000,700,1000,165028962,1577,1577,1582,1582
128426109,1000,1000,700,1000,165128922,1578,1578,1581,1581
128428608,1000,1000,700,1000,165228882,1579,1579,1579,1580
128431107,1000,1000,700,1000,165328842,1580,1579,1578,1579
128433606,1000,1000,700,1000,165428802,1581,1580,1578,1578
128436105,1000,1000,700,1000,165528762,1581,1581,1577,1578
128438604,1000,1000,700,1000,165628722,1581,1580,1577,1577
128441103,1000,1000,700,1000,165728682,1582,1581,1577,1578
128443602,1000,1000,700,1000,165828642,1581,1581,1577,1577
128446101,1000,1000,700,1000,165928602,1581,1581,1578,1578
128448600,1000,1000,700,1000,166028562,1581,1580,1579,1578
128451099,1000,1000,700,1000,166128522,1581,1581,1580,1580
128453598,1000,1000,700,1000,166228482,1580,1580,1580,1580
128456097,1000,1000,700,1000,166328442,1580,1580,1581,1580
128458596,1000,1000,700,1000,166368426,1579,1580,1581,1581
128461095,1000,1000,700,1000,166468386,1579,1579,1581,1581
128463594,1000,1000,700,1000,166568346,1579,1579,1581,1581
128466093,1000,1000,700,1000,166668306,1580,1580,1582,1582
128468592,1000,1000,700,1000,166768266,1579,1580,1581,1581
128471091,1000,1000,700,1000,166868226,1580,1581,1583,1580
128473590,1000,1000,700,1000,166968186,1580,1581,1586,1572
128476089,1000,1000,700,1000,167068979,1579,1580,1584,1573
128478588,1000,1000,700,1000,167168939,1576,1577,1578,1575
128481087,1000,1000,700,1000,167268899,1573,1572,1571,1576
128483586,1000,1000,700,1000,167368859,1570,1569,1567,1575
128486085,1000,1000,700,1000,167468819,1567,1567,1564,1571
128488584,1000,1000,700,1000,167568779,1567,1566,1564,1569
128491083,1000,1000,700,1000,167668739,1567,1567,1565,1567
128493582,1000,1000,700,1000,167768699,1567,1566,1566,1565
128496081,1000,1000,700,1000,167868659,1567,1567,1567,1564
128498580,1000,1000,700,1000,167968619,1566,1566,1566,1563
128501079,1000,1000,700,1000,168068579,1565,1565,1566,1563
128503578,1000,1000,700,1000,168168539,1565,1564,1565,1564
128506077,1000,1000,700,1000,168268499,1564,1564,1564,1564
128508576,1000,1000,700,1000,168368459,1563,1562,1563,1563
128511075,1000,1000,700,1000,168468419,1562,1562,1562,1563
128513574,1000,1000,700,1000,168568379,1562,1562,1562,1562
128516073,1000,1000,700,1000,168668339,1560,1561,1561,1561
128518572,1000,1000,700,1000,168768299,1560,1560,1561,1560
128521071,1000,1000,700,1000,168868259,1560,1560,1561,1561
128523570,1000,1000,700,1000,168968219,1559,1559,1560,1559
128526069,1000,1000,700,1000,169068179,1558,1559,1560,1559
128528568,1000,1000,700,1000,169168972,1558,1558,1559,1558
128531067,1000,1000,700,1000,169268932,1559,1558,1559,1557
128533566,1000,1000,700,1000,169368892,1558,1558,1559,1557
128536065,1000,1000,700,1000,169468852,1559,1559,1560,1558
128538564,1000,1000,700,1000,169568812,1560,1560,1561,1557
128541063,1000,1000,700,1000,169668772,1560,1560,1560,1559
128543562,1000,1000,700,1000,169768732,1559,1559,1558,1561
128546061,1000,1000,700,1000,169868692,1561,1561,1558,1564
128548560,1000,1000,700,1000,169968652,1562,1562,1558,1565
128551059,1000,1000,700,1000,170068612,1562,1562,1559,1564
128553558,1000,1000,700,1000,170168572,1562,1562,1560,1562
128556057,1000,1000,700,1000,170268532,1562,1561,1561,1560
128558556,1000,1000,700,1000,170368492,1561,1561,1562,1558
128561055,1000,1000,700,1000,170468452,1560,1560,1562,1557
128563554,1000,1000,700,1000,170568412,1560,1560,1559,1561
128566053,1000,1000,700,1000,170668372,1557,1556,1555,1561
128568552,1000,1000,700,1000,170768332,1552,1551,1551,1556
128571051,1000,1000,700,1000,170868292,1547,1547,1548,1550
128573550,1000,1000,700,1000,170968252,1541,1541,1543,1543
128576049,1000,1000,700,1000,171068212,1533,1534,1537,1535
128578548,1000,1000,700,1000,171168172,1526,1526,1530,1528
128581047,1000,1000,700,1000,171268965,1520,1521,1523,1523
128583546,1000,1000,700,1000,171368925,1519,1519,1520,1521
128586045,1000,1000,700,1000,171468885,1519,1520,1519,1521
128588544,1000,1000,700,1000,171568845,1521,1521,1519,1521
128591043,1000,1000,700,1000,171668805,1525,1525,1521,1523
128593542,1000,1000,700,1000,171768765,1530,1529,1524,1526
128596041,1000,1000,700,1000,171868725,1534,1534,1529,1529
128598540,1000,1000,700,1000,171968685,1538,1539,1534,1533
128601039,1000,1000,700,1000,172068645,1541,1541,1537,1536
128603538,1000,1000,700,1000,172168605,1543,1543,1541,1539
128606037,1000,1000,700,1000,172268565,1544,1544,1543,1541
128608536,1000,1000,700,1000,172368525,1544,1544,1545,1543
128611035,1000,1000,700,1000,172468485,1545,1545,1547,1546
128613534,1000,1000,700,1000,172568445,1545,1545,1547,1547
128616033,1000,1000,700,1000,172668405,1544,1544,1547,1547
128618532,1000,1000,700,1000,172768365,1544,1545,1548,1548
128621031,1000,1000,700,1000,172868325,1544,1544,1547,1548
128623530,1000,1000,700,1000,172968285,1545,1545,1548,1547
128626029,1000,1000,700,1000,173068245,1546,1546,1548,1548
128628528,1000,1000,700,1000,173168205,1545,1545,1547,1547
128631027,1000,1000,700,1000,173268165,1546,1546,1546,1546
128633526,1000,1000,700,1000,173368958,1545,1546,1546,1546
128636025,1000,1000,700,1000,173468918,1545,1545,1545,1544
128638524,1000,1000,700,1000,173568878,1544,1545,1544,1543
128641023,1000,1000,700,1000,173668838,1545,1545,1544,1544
128643522,1000,1000,700,1000,173768798,1545,1544,1543,1543
128646021,1000,1000,700,1000,173868758,1545,1545,1543,1544
128648520,1000,1000,700,1000,173968718,1544,1545,1543,1543
128651019,1000,1000,700,1000,174068678,1544,1545,1543,1543
128653518,1000,1000,700,1000,174168638,1543,1544,1543,1543
128656017,1000,1000,700,1000,174268598,1544,1544,1544,1544
128658516,1000,1000,700,1000,174368558,1543,1543,1543,1543
128661015,1000,1000,700,1000,174468518,1544,1543,1543,1544
128663514,1000,1000,700,1000,174568478,1544,1544,1544,1544
128666013,1000,1000,700,1000,174668438,1543,1543,1544,1544
128668512,1000,1000,700,1000,174768398,1544,1544,1544,1544
128671011,1000,1000,700,1000,174868358,1544,1543,1544,1544
128673510,1000,1000,700,1000,174968318,1543,1544,1545,1544
128676009,1000,1000,700,1000,175068278,1544,1544,1545,1545
128678508,1000,1000,700,1000,175168238,1544,1544,1545,1545
128681007,1000,1000,700,1000,175268198,1545,1545,1545,1545
128683506,1000,1000,700,1000,175368158,1545,1544,1545,1545
128686005,1000,1000,700,1000,175468951,1544,1544,1544,1544
128688504,1000,1000,700,1000,175568911,1544,1545,1544,1544
128691003,1000,1000,700,1000,175668871,1544,1544,1544,1544
128693502,1000,1000,700,1000,175768831,1543,1544,1544,1543
128696001,1000,1000,700,1000,175868791,1544,1544,1544,1544
128698500,1000,1000,700,1000,175968751,1545,1545,1544,1544
128700999,1000,1000,700,1000,176068711,1545,1544,1544,1544
128703498,1000,1000,700,1000,176168671,1545,1545,1544,1545
128705997,1000,1000,700,1000,176268631,1545,1544,1544,1544
128708496,1000,1000,700,1000,176368591,1544,1544,1544,1544
128710995,1000,1000,700,1000,176468551,1544,1545,1545,1544
128713494,1000,1000,700,1000,176568511,1545,1545,1545,1545
128715993,1000,1000,700,1000,176668471,1545,1544,1545,1545
128718492,1000,1000,700,1000,176768431,1544,1544,1544,1544
128720991,1000,1000,700,1000,176868391,1545,1545,1545,1545
128723490,1000,1000,700,1000,176968351,1544,1544,1544,1544
128725989,1000,1000,700,1000,177068311,1545,1545,1545,1545
128728488,1000,1000,700,1000,177168271,1545,1545,1545,1545
128730987,1000,1000,700,1000,177268231,1545,1545,1545,1545
128733486,1000,1000,700,1000,177368191,1543,1543,1544,1544
128735985,1000,1000,700,1000,177468984,1544,1543,1544,1544
128738484,1000,1000,700,1000,177568944,1544,1544,1544,1544
128740983,1000,1000,700,1000,177668904,1544,1544,1544,1544
128743482,1000,1000,700,1000,177768864,1544,1544,1544,1543
128745981,1000,1000,700,1000,177868824,1543,1544,1544,1544
128748480,1000,1000,700,1000,177968784,1544,1544,1544,1544
128750979,1000,1000,700,1000,178068744,1544,1544,1544,1544
128753478,1000,1000,700,1000,178168704,1543,1544,1544,1543
128755977,1000,1000,700,1000,178268664,1544,1544,1544,1544
128758476,1000,1000,700,1000,178368624,1544,1544,1544,1544
128760975,1000,1000,700,1000,178468584,1545,1545,1545,1545
128763474,1000,1000,700,1000,178568544,1545,1545,1545,1545
128765973,1000,1000,700,1000,178668504,1544,1544,1544,1544
128768472,1000,1000,700,1000,178768464,1544,1545,1544,1544
128770971,1000,1000,700,1000,178868424,1544,1544,1545,1545
128773470,1000,1000,700,1000,178968384,1545,1545,1545,1545
128775969,1000,1000,700,1000,179068344,1544,1544,1544,1545
128778468,1000,1000,700,1000,179168304,1544,1544,1544,1544
128780967,1000,1000,700,1000,179268264,1544,1544,1544,1544
128783466,1000,1000,700,1000,179368224,1543,1543,1544,1543
128785965,1000,1000,700,1000,179468184,1543,1543,1544,1543
128788464,1000,1000,700,1000,179568977,1543,1542,1543,1543
128790963,1000,1000,700,1000,179668937,1543,1543,1543,1544
128793462,1000,1000,700,1000,179768897,1545,1545,1544,1545
128795961,1000,1000,700,1000,179868857,1544,1545,1544,1544
128798460,1000,1000,700,1000,179968817,1544,1544,1544,1543
128800959,1000,1000,700,1000,180068777,1544,1544,1544,1543
128803458,1000,1000,700,1000,180168737,1543,1544,1544,1544
128805957,1000,1000,700,1000,180268697,1544,1544,1544,1544
128808456,1000,1000,700,1000,180368657,1545,1544,1544,1544
128810955,1000,1000,700,1000,180468617,1544,1544,1544,1544
128813454,1000,1000,700,1000,180568577,1544,1544,1544,1544
128815953,1000,1000,700,1000,180668537,1544,1544,1544,1544
128818452,1000,1000,700,1000,180768497,1544,1544,1544,1544
128820951,1000,1000,700,1000,180868457,1544,1544,1544,1544
128823450,1000,1000,700,1000,180968417,1544,1544,1544,1545
128825949,1000,1000,700,1000,181068377,1469,1470,1492,1469
128828448,1000,1000,700,1000,181168337,1300,1301,1383,1301
128830947,1000,1000,700,1000,181268297,1225,1228,1342,1227
128833446,1000,1000,700,1000,181368257,1205,1207,1331,1207
128835945,1000,1000,700,1000,181468217,1177,1180,1317,1179
128838444,1000,1000,700,1000,181568177,1159,1162,1284,1150
128840943,1000,1000,700,1000,181668970,1165,1167,1111,1150
128843442,1000,1000,700,1000,181768930,1165,1167,1111,1150
128845941,1000,1000,700,1000,181868890,1165,1167,1111,1150
128848440,1000,1000,700,1000,181968850,1173,1150,1112,1157
128850939,1000,1000,700,1000,182068810,1174,1150,1110,1159
128853438,1000,1000,700,1000,182168770,1165,1150,1122,1150
128855937,1000,1000,700,1000,182268730,1164,1151,1121,1150
128858436,1000,1000,700,1000,182368690,1164,1150,1122,1150
128860935,1000,1000,700,1000,182468650,1163,1150,1122,1150
128863434,1000,1000,700,1000,182568610,1164,1150,1121,1152
128865933,1000,1000,700,1000,182668570,1165,1150,1120,1153
128868432,1000,1000,700,1000,182768530,1161,1165,1115,1150
128870931,1000,1000,700,1000,182868490,1161,1159,1119,1150
128873430,1000,1000,700,1000,182968450,1161,1158,1119,1150
128875929,1000,1000,700,1000,183068410,1161,1158,1120,1150
128878428,1000,1000,700,1000,183168370,1161,1157,1120,1150
128880927,1000,1000,700,1000,183268330,1000,1000,1000,1000
128883426,1000,1000,700,1000,183368290,1000,1000,1000,1000
128885925,1000,1000,700,1000,183468250,1000,1000,1000,1000
128888424,1000,1000,700,1000,183568210,1000,1000,1000,1000
128890923,1000,1000,700,1000,183668170,1000,1000,1000,1000
128893422,1000,1000,700,1000,183768963,1000,1000,1000,1000
128895921,1000,1000,700,1000,183868923,1000,1000,1000,1000
128898420,1000,1000,700,1000,183968883,1000,1000,1000,1000
128900919,1000,1000,700,1000,184068843,1000,1000,1000,1000
128903418,1000,1000,700,1000,184168803,1000,1000,1000,1000
128905917,1000,1000,700,1000,184268763,1000,1000,1000,1000
128908416,1000,1000,700,1000,184368723,1000,1000,1000,1000
128910915,1000,1000,700,1000,184468683,1000,1000,1000,1000
128913414,1000,1000,700,1000,184568643,1000,1000,1000,1000
128915913,1000,1000,700,1000,184668603,1000,1000,1000,1000
128918412,1000,1000,700,1000,184768563,1000,1000,1000,1000
128920911,1000,1000,700,1000,184868523,1000,1000,1000,1000
128923410,1000,1000,700,1000,184968483,1000,1000,1000,1000
128925909,1000,1000,700,1000,185068443,1000,1000,1000,1000
128928408,1000,1000,700,1000,185168403,1000,1000,1000,1000
128930907,1000,1000,700,1000,185268363,1000,1000,1000,1000
128933406,1000,1000,700,1000,185368323,1000,1000,1000,1000
128935905,1000,1000,700,1000,185468283,1000,1000,1000,1000
128938404,1000,1000,700,1000,185568243,1000,1000,1000,1000
128940903,1000,1000,700,1000,185668203,1000,1000,1000,1000
128943402,1000,1000,700,1000,185768163,1000,1000,1000,1000
128945901,1000,1000,700,1000,185868956,1000,1000,1000,1000
128948400,1000,1000,700,1000,185968916,1000,1000,1000,1000
128950899,1000,1000,700,1000,186068876,1000,1000,1000,1000
128953398,1000,1000,700,1000,186168836,1000,1000,1000,1000
128955897,1000,1000,700,1000,186268796,1000,1000,1000,1000
128958396,1000,1000,700,1000,186368756,1000,1000,1000,1000
128960895,1000,1000,700,1000,186468716,1000,1000,1000,1000
128963394,1000,1000,700,1000,186568676,1000,1000,1000,1000
128965893,1000,1000,700,1000,186668636,1000,1000,1000,1000
128968392,1000,1000,700,1000,186768596,1000,1000,1000,1000
128970891,1000,1000,700,1000,186868556,1000,1000,1000,1000
128973390,1000,1000,700,1000,186968516,1000,1000,1000,1000
128975889,1000,1000,700,1000,187068476,1000,1000,1000,1000
128978388,1000,1000,700,1000,187168436,1000,1000,1000,1000
128980887,1000,1000,700,1000,187268396,1000,1000,1000,1000
128983386,1000,1000,700,1000,187368356,1000,1000,1000,1000
128985885,1000,1000,700,1000,187468316,1000,1000,1000,1000
128988384,1000,1000,700,1000,187568276,1000,1000,1000,1000
128990883,1000,1000,700,1000,187668236,1000,1000,1000,1000
128993382,1000,1000,700,1000,187768196,1000,1000,1000,1000
128995881,1000,1000,700,1000,187868156,1000,1000,1000,1000
128998380,1000,1000,700,1000,187968949,1000,1000,1000,1000
129000879,1000,1000,700,1000,188068909,1000,1000,1000,1000
129003378,1000,1000,700,1000,188168869,1000,1000,1000,1000
129005877,1000,1000,700,1000,188268829,1000,1000,1000,1000
129008376,1000,1000,700,1000,188368789,1000,1000,1000,1000
129010875,1000,1000,700,1000,188468749,1000,1000,1000,1000
129013374,1000,1000,700,1000,188568709,1000,1000,1000,1000
129015873,1000,1000,700,1000,188668669,1000,1000,1000,1000
129018372,1000,1000,700,1000,188768629,1000,1000,1000,1000
129020871,1000,1000,700,1000,188868589,1000,1000,1000,1000
129023370,1000,1000,700,1000,188968549,1000,1000,1000,1000
129025869,1000,1000,700,1000,189068509,1000,1000,1000,1000
129028368,1000,1000,700,1000,189168469,1000,1000,1000,1000
129030867,1000,1000,700,1000,189268429,1000,1000,1000,1000
129033366,1000,1000,700,1000,189368389,1000,1000,1000,1000
129035865,1000,1000,700,1000,189468349,1000,1000,1000,1000
129038364,1000,1000,700,1000,189568309,1000,1000,1000,1000
129040863,1000,1000,700,1000,189668269,1000,1000,1000,1000
129043362,1000,1000,700,1000,189768229,1000,1000,1000,1000
129045861,1000,1000,700,1000,189868189,1000,1000,1000,1000
129048360,1000,1000,700,1000,189968982,1000,1000,1000,1000
129050859,1000,1000,700,1000,190068942,1000,1000,1000,1000
129053358,1000,1000,700,1000,190168902,1000,1000,1000,1000
129055857,1000,1000,700,1000,190268862,1000,1000,1000,1000
129058356,1000,1000,700,1000,190368822,1000,1000,1000,1000
129060855,1000,1000,700,1000,190468782,1000,1000,1000,1000
129063354,1000,1000,700,1000,190568742,1000,1000,1000,1000
129065853,1000,1000,700,1000,190668702,1000,1000,1000,1000
129068352,1000,1000,700,1000,190768662,1000,1000,1000,1000
129070851,1000,1000,700,1000,190868622,1000,1000,1000,1000
129073350,1000,1000,700,1000,190968582,1000,1000,1000,1000
129075849,1000,1000,700,1000,191068542,1000,1000,1000,1000
129078348,1000,1000,700,1000,191168502,1000,1000,1000,1000
129080847,1000,1000,700,1000,191268462,1000,1000,1000,1000
129083346,1000,1000,700,1000,191368422,1000,1000,1000,1000
129085845,1000,1000,700,1000,191468382,1000,1000,1000,1000
129088344,1000,1000,700,1000,191568342,1000,1000,1000,1000
129090843,1000,1000,700,1000,191668302,1000,1000,1000,1000
129093342,1000,1000,700,1000,191768262,1000,1000,1000,1000
129095841,1000,1000,700,1000,191868222,1000,1000,1000,1000
129098340,1000,1000,700,1000,191968182,1000,1000,1000,1000
129100839,1000,1000,700,1000,192068975,1000,1000,1000,1000
129103338,1000,1000,700,1000,192168935,1000,1000,1000,1000
129105837,1000,1000,700,1000,192268895,1000,1000,1000,1000
129108336,1000,1000,700,1000,192368855,1000,1000,1000,1000
129110835,1000,1000,700,1000,192468815,1000,1000,1000,1000
129113334,1000,1000,700,1000,192568775,1000,1000,1000,1000
129115833,1000,1000,700,1000,192668735,1000,1000,1000,1000
129118332,1000,1000,700,1000,192768695,1000,1000,1000,1000
129120831,1000,1000,700,1000,192868655,1000,1000,1000,1000
129123330,1000,1000,700,1000,192968615,1000,1000,1000,1000
129125829,1000,1000,700,1000,193068575,1000,1000,1000,1000
129128328,1000,1000,700,1000,193168535,1000,1000,1000,1000
129130827,1000,1000,700,1000,193268495,1000,1000,1000,1000
129133326,1000,1000,700,1000,193368455,1000,1000,1000,1000
129135825,1000,1000,700,1000,193468415,1000,1000,1000,1000
129138324,1000,1000,700,1000,193568375,1000,1000,1000,1000
129140823,1000,1000,700,1000,193668335,1000,1000,1000,1000
129143322,1000,1000,700,1000,193768295,1000,1000,1000,1000
129145821,1000,1000,700,1000,193868255,1000,1000,1000,1000
129148320,1000,1000,700,1000,193968215,1000,1000,1000,1000
129150819,1000,1000,700,1000,194068175,1000,1000,1000,1000
129153318,1000,1000,700,1000,194168968,1000,1000,1000,1000
129155817,1000,1000,700,1000,194268928,1000,1000,1000,1000
129158316,1000,1000,700,1000,194368888,1000,1000,1000,1000
129160815,1000,1000,700,1000,194468848,1000,1000,1000,1000
129163314,1000,1000,700,1000,194568808,1000,1000,1000,1000
129165813,1000,1000,700,1000,194668768,1000,1000,1000,1000
129168312,1000,1000,700,1000,194768728,1000,1000,1000,1000
129170811,1000,1000,700,1000,194868688,1000,1000,1000,1000
129173310,1000,1000,700,1000,194968648,1000,1000,1000,1000
129175809,1000,1000,700,1000,195068608,1000,1000,1000,1000
129178308,1000,1000,700,1000,195168568,1000,1000,1000,1000
129180807,1000,1000,700,1000,195268528,1000,1000,1000,1000
129183306,1000,1000,700,1000,195368488,1000,1000,1000,1000
129185805,1000,1000,700,1000,195468448,1000,1000,1000,1000
129188304,1000,1000,700,1000,195568408,1000,1000,1000,1000
129190803,1000,1000,700,1000,195668368,1000,1000,1000,1000
129193302,1000,1000,700,1000,195768328,1000,1000,1000,1000
129195801,1000,1000,700,1000,195868288,1000,1000,1000,1000
129198300,1000,1000,700,1000,195968248,1000,1000,1000,1000
129200799,1000,1000,700,1000,196068208,1000,1000,1000,1000
129203298,1000,1000,700,1000,196168168,1000,1000,1000,1000
129205797,1000,1000,700,1000,196268961,1000,1000,1000,1000
129208296,1000,1000,700,1000,196368921,1000,1000,1000,1000
129210795,1000,1000,700,1000,196468881,1000,1000,1000,1000
129213294,1000,1000,700,1000,196568841,1000,1000,1000,1000
129215793,1000,1000,700,1000,196668801,1000,1000,1000,1000
129218292,1000,1000,700,1000,196768761,1000,1000,1000,1000
129220791,1000,1000,700,1000,196868721,1000,1000,1000,1000
129223290,1000,1000,700,1000,196968681,1000,1000,1000,1000
129225789,1000,1000,700,1000,197068641,1000,1000,1000,1000
129228288,1000,1000,700,1000,197168601,1000,1000,1000,1000
129230787,1000,1000,700,1000,197268561,1000,1000,1000,1000
129233286,1000,1000,700,1000,197368521,1000,1000,1000,1000
129235785,1000,1000,700,1000,197468481,1000,1000,1000,1000
129238284,1000,1000,700,1000,197568441,1000,1000,1000,1000
129240783,1000,1000,700,1000,197668401,1000,1000,1000,1000
129243282,1000,1000,700,1000,197768361,1000,1000,1000,1000
129245781,1000,1000,700,1000,197868321,1000,1000,1000,1000
129248280,1000,1000,700,1000,197968281,1000,1000,1000,1000
129250779,1000,1000,700,1000,198068241,1000,1000,1000,1000
129253278,1000,1000,700,1000,198168201,1000,1000,1000,1000
129255777,1000,1000,700,1000,,,,,
129258276,1000,1000,700,1000,,,,,
129260775,1000,1000,700,1000,,,,,
129263274,1000,1000,700,1000,,,,,
129265773,1000,1000,700,1000,,,,,
129268272,1000,1000,700,1000,,,,,
129270771,1000,1000,700,1000,,,,,
129273270,1000,1000,700,1000,,,,,
129275769,1000,1000,700,1000,,,,,
129278268,1000,1000,700,1000,,,,,
129280767,1000,1000,700,1000,,,,,
129283266,1000,1000,700,1000,,,,,
129285765,1000,1000,700,1000,,,,,
129288264,1000,1000,700,1000,,,,,
129290763,1000,1000,700,1000,,,,,
129293262,1000,1000,700,1000,,,,,
129295761,1000,1000,700,1000,,,,,
129298260,1000,1000,700,1000,,,,,
129300759,1000,1000,700,1000,,,,,
129303258,1000,1000,700,1000,,,,,
129305757,1000,1000,700,1000,,,,,
129308256,1000,1000,700,1000,,,,,
129310755,1000,1000,700,1000,,,,,
129313254,1000,1000,700,1000,,,,,
129315753,1000,1000,700,1000,,,,,
129318252,1000,1000,700,1000,,,,,
129320751,1000,1000,700,1000,,,,,
129323250,1000,1000,700,1000,,,,,
129325749,1000,1000,700,1000,,,,,
129328248,1000,1000,700,1000,,,,,
129330747,1000,1000,700,1000,,,,,
129333246,1000,1000,700,1000,,,,,
129335745,1000,1000,700,1000,,,,,
129338244,1000,1000,700,1000,,,,,
129340743,1000,1000,700,1000,,,,,
129343242,1000,1000,700,1000,,,,,
129345741,1000,1000,700,1000,,,,,
129348240,1000,1000,700,1000,,,,,
129350739,1000,1000,700,1000,,,,,
129353238,1000,1000,700,1000,,,,,
129355737,1000,1000,700,1000,,,,,
129358236,1000,1000,700,1000,,,,,
129360735,1000,1000,700,1000,,,,,
129363234,1000,1000,700,1000,,,,,
129365733,1000,1000,700,1000,,,,,
129368232,1000,1000,700,1000,,,,,
129370731,1000,1000,700,1000,,,,,
129373230,1000,1000,700,1000,,,,,
129375729,1000,1000,700,1000,,,,,
129378228,1000,1000,700,1000,,,,,
129380727,1000,1000,700,1000,,,,,
129383226,1000,1000,700,1000,,,,,
129385725,1000,1000,700,1000,,,,,
129388224,1000,1000,700,1000,,,,,
129390723,1000,1000,700,1000,,,,,
129393222,1000,1000,700,1000,,,,,
129395721,1000,1000,700,1000,,,,,
129398220,1000,1000,700,1000,,,,,
129400719,1000,1000,700,1000,,,,,
129403218,1000,1000,700,1000,,,,,
129405717,1000,1000,700,1000,,,,,
129408216,1000,1000,700,1000,,,,,
129410715,1000,1000,700,1000,,,,,
129413214,1000,1000,700,1000,,,,,
129415713,1000,1000,700,1000,,,,,
129418212,1000,1000,700,1000,,,,,
129420711,1000,1000,700,1000,,,,,
129423210,1000,1000,700,1000,,,,,
129425709,1000,1000,700,1000,,,,,
129428208,1000,1000,700,1000,,,,,
129430707,1000,1000,700,1000,,,,,
129433206,1000,1000,700,1000,,,,,
129435705,1000,1000,700,1000,,,,,
129438204,1000,1000,700,1000,,,,,
129440703,1000,1000,700,1000,,,,,
129443202,1000,1000,700,1000,,,,,
129445701,1000,1000,700,1000,,,,,
129448200,1000,1000,700,1000,,,,,
129450699,1000,1000,700,1000,,,,,
129453198,1000,1000,700,1000,,,,,
129455697,1000,1000,700,1000,,,,,
129458196,1000,1000,700,1000,,,,,
129460695,1000,1000,700,1000,,,,,
129463194,1000,1000,700,1000,,,,,
129465693,1000,1000,700,1000,,,,,
129468192,1000,1000,700,1000,,,,,
129470691,1000,1000,700,1000,,,,,
129473190,1000,1000,700,1000,,,,,
129475689,1000,1000,700,1000,,,,,
129478188,1000,1000,700,1000,,,,,
129480687,1000,1000,700,1000,,,,,
129483186,1000,1000,700,1000,,,,,
129485685,1000,1000,700,1000,,,,,
129488184,1000,1000,700,1000,,,,,
129490683,1000,1000,700,1000,,,,,
129493182,1001,1001,701,1001,,,,,
129495681,1002,1002,702,1002,,,,,
129498180,1003,1003,703,1003,,,,,
129500679,1003,1003,703,1003,,,,,
129503178,1004,1004,704,1004,,,,,
129505677,1005,1005,705,1005,,,,,
129508176,1006,1006,706,1006,,,,,
129510675,1006,1006,706,1006,,,,,
129513174,1007,1007,707,1007,,,,,
129515673,1008,1008,708,1008,,,,,
129518172,1009,1009,709,1009,,,,,
129520671,1009,1009,709,1009,,,,,
129523170,1010,1010,710,1010,,,,,
129525669,1011,1011,711,1011,,,,,
129528168,1012,1012,712,1012,,,,,
129530667,1012,1012,712,1012,,,,,
129533166,1013,1013,713,1013,,,,,
129535665,1014,1014,714,1014,,,,,
129538164,1015,1015,715,1015,,,,,
129540663,1015,1015,715,1015,,,,,
129543162,1016,1016,716,1016,,,,,
129545661,1017,1017,717,1017,,,,,
129548160,1018,1018,718,1018,,,,,
129550659,1018,1018,718,1018,,,,,
129553158,1019,1019,719,1019,,,,,
129555657,1020,1020,720,1020,,,,,
129558156,1021,1021,721,1021,,,,,
129560655,1021,1021,721,1021,,,,,
129563154,1022,1022,722,1022,,,,,
129566486,1023,1023,723,1023,,,,,
129568985,1024,1024,724,1024,,,,,
129571484,1024,1024,724,1024,,,,,
129573983,1025,1025,725,1025,,,,,
129576482,1026,1026,726,1026,,,,,
129578981,1027,1027,727,1027,,,,,
129581480,1027,1027,727,1027,,,,,
129583979,1028,1028,728,1028,,,,,
129586478,1029,1029,729,1029,,,,,
129588977,1030,1030,730,1030,,,,,
129591476,1030,1030,730,1030,,,,,
129593975,1031,1031,731,1031,,,,,
129596474,1032,1032,732,1032,,,,,
129598973,1033,1033,733,1033,,,,,
129601472,1033,1033,733,1033,,,,,
129603971,1034,1034,734,1034,,,,,
129606470,1035,1035,735,1035,,,,,
129608969,1036,1036,736,1036,,,,,
129611468,1036,1036,736,1036,,,,,
129613967,1037,1037,737,1037,,,,,
129616466,1038,1038,738,1038,,,,,
129618965,1039,1039,739,1039,,,,,
129621464,1039,1039,739,1039,,,,,
129623963,1040,1040,740,1040,,,,,
129626462,1041,1041,741,1041,,,,,
129628961,1042,1042,742,1042,,,,,
129631460,1042,1042,742,1042,,,,,
129633959,1043,1043,743,1043,,,,,
129636458,1044,1044,744,1044,,,,,
129638957,1045,1045,745,1045,,,,,
129641456,1045,1045,745,1045,,,,,
129643955,1046,1046,746,1046,,,,,
129646454,1047,1047,747,1047,,,,,
129648953,1048,1048,748,1048,,,,,
129651452,1048,1048,748,1048,,,,,
129653951,1049,1049,749,1049,,,,,
129656450,1050,1050,750,1050,,,,,
129658949,1051,1051,751,1051,,,,,
129661448,1051,1051,751,1051,,,,,
129663947,1052,1052,752,1052,,,,,
129666446,1053,1053,753,1053,,,,,
129668945,1054,1054,754,1054,,,,,
129671444,1054,1054,754,1054,,,,,
129673943,1055,1055,755,1055,,,,,
129676442,1056,1056,756,1056,,,,,
129678941,1057,1057,757,1057,,,,,
129681440,1057,1057,757,1057,,,,,
129683939,1058,1058,758,1058,,,,,
129686438,1059,1059,759,1059,,,,,
129688937,1060,1060,760,1060,,,,,
129691436,1060,1060,760,1060,,,,,
129693935,1061,1061,761,1061,,,,,
129696434,1062,1062,762,1062,,,,,
129698933,1063,1063,763,1063,,,,,
129701432,1063,1063,763,1063,,,,,
129703931,1064,1064,764,1064,,,,,
129706430,1065,1065,765,1065,,,,,
129708929,1066,1066,765,1066,,,,,
129711428,1066,1066,766,1066,,,,,
129713927,1067,1067,767,1067,,,,,
129716426,1068,1068,768,1068,,,,,
129718925,1069,1069,769,1069,,,,,
129721424,1069,1069,769,1069,,,,,
129723923,1070,1070,770,1070,,,,,
129726422,1071,1071,771,1071,,,,,
129728921,1072,1072,771,1072,,,,,
129731420,1072,1072,772,1072,,,,,
129733919,1073,1073,773,1073,,,,,
129736418,1074,1074,774,1074,,,,,
129738917,1075,1075,774,1075,,,,,
129741416,1075,1075,775,1075,,,,,
129743915,1076,1076,776,1076,,,,,
129746414,1077,1077,777,1077,,,,,
129748913,1078,1078,777,1078,,,,,
129751412,1078,1078,778,1078,,,,,
129753911,1079,1079,779,1079,,,,,
129756410,1080,1080,780,1080,,,,,
129758909,1081,1081,780,1081,,,,,
129761408,1081,1081,781,1081,,,,,
129763907,1082,1082,782,1082,,,,,
129766406,1083,1083,783,1083,,,,,
129768905,1084,1084,783,1084,,,,,
129771404,1084,1084,784,1084,,,,,
129773903,1085,1085,785,1085,,,,,
129776402,1086,1086,786,1086,,,,,
129778901,1087,1087,786,1087,,,,,
129781400,1087,1087,787,1087,,,,,
129783899,1088,1088,788,1088,,,,,
129786398,1089,1089,789,1089,,,,,
129788897,1090,1090,789,1090,,,,,
129791396,1090,1090,790,1090,,,,,
129793895,1091,1091,791,1091,,,,,
129796394,1092,1092,792,1092,,,,,
129798893,1093,1093,792,1093,,,,,
129801392,1093,1093,793,1093,,,,,
129803891,1094,1094,794,1094,,,,,
129806390,1095,1095,795,1095,,,,,
129808889,1096,1096,795,1096,,,,,
129811388,1096,1096,796,1096,,,,,
129813887,1097,1097,797,1097,,,,,
129816386,1098,1098,798,1098,,,,,
129818885,1099,1099,798,1099,,,,,
129821384,1099,1099,799,1099,,,,,
129823883,1100,1100,800,1100,,,,,
129826382,1101,1101,801,1101,,,,,
129828881,1101,1101,801,1101,,,,,
129831380,1102,1102,802,1102,,,,,
129833879,1103,1103,803,1103,,,,,
129836378,1104,1104,804,1104,,,,,
129838877,1104,1104,804,1104,,,,,
129841376,1105,1105,805,1105,,,,,
129843875,1106,1106,806,1106,,,,,
129846374,1107,1107,807,1107,,,,,
129848873,1107,1107,807,1107,,,,,
129851372,1108,1108,808,1108,,,,,
129853871,1109,1109,809,1109,,,,,
129856370,1110,1110,810,1110,,,,,
129858869,1110,1110,810,1110,,,,,
129861368,1111,1111,811,1111,,,,,
129863867,1112,1112,812,1112,,,,,
129866366,1113,1113,813,1113,,,,,
129868865,1113,1113,813,1113,,,,,
129871364,1114,1114,814,1114,,,,,
129873863,1115,1115,815,1115,,,,,
129876362,1116,1116,816,1116,,,,,
129878861,1116,1116,816,1116,,,,,
129881360,1117,1117,817,1117,,,,,
129883859,1118,1118,818,1118,,,,,
129886358,1119,1119,819,1119,,,,,
129888857,1119,1119,819,1119,,,,,
129891356,1120,1120,820,1120,,,,,
129893855,1121,1121,821,1121,,,,,
129896354,1122,1122,822,1122,,,,,
129898853,1122,1122,822,1122,,,,,
129901352,1123,1123,823,1123,,,,,
129903851,1124,1124,824,1124,,,,,
129906350,1125,1125,825,1125,,,,,
129908849,1125,1125,825,1125,,,,,
129911348,1126,1126,826,1126,,,,,
129913847,1127,1127,827,1127,,,,,
129916346,1128,1128,828,1128,,,,,
129918845,1128,1128,828,1128,,,,,
129921344,1129,1129,829,1129,,,,,
129923843,1130,1130,830,1130,,,,,
129926342,1131,1131,831,1131,,,,,
129928841,1131,1131,831,1131,,,,,
129931340,1132,1132,832,1132,,,,,
129933839,1133,1133,833,1133,,,,,
129936338,1134,1134,834,1134,,,,,
129938837,1134,1134,834,1134,,,,,
129941336,1135,1135,835,1135,,,,,
129943835,1136,1136,836,1136,,,,,
129946334,1137,1137,837,1137,,,,,
129948833,1137,1137,837,1137,,,,,
129951332,1138,1138,838,1138,,,,,
129953831,1139,1139,839,1139,,,,,
129956330,1140,1140,840,1140,,,,,
129958829,1140,1140,840,1140,,,,,
129961328,1141,1141,841,1141,,,,,
129963827,1142,1142,842,1142,,,,,
129966326,1143,1143,843,1143,,,,,
129968825,1143,1143,843,1143,,,,,
129971324,1144,1144,844,1144,,,,,
129973823,1145,1145,845,1145,,,,,
129976322,1146,1146,846,1146,,,,,
129978821,1146,1146,846,1146,,,,,
129981320,1147,1147,847,1147,,,,,
129983819,1148,1148,848,1148,,,,,
129986318,1149,1149,849,1149,,,,,
129988817,1149,1149,849,1149,,,,,
129991316,1150,1150,850,1150,,,,,
129993815,1165,1150,850,1166,,,,,
129996314,1175,1155,856,1176,,,,,
129998813,1183,1163,864,1184,,,,,
130001312,1191,1171,872,1192,,,,,
130003811,1198,1179,880,1199,,,,,
130006310,1205,1186,887,1207,,,,,
130008809,1213,1194,895,1214,,,,,
130011308,1220,1201,902,1221,,,,,
130013807,1227,1209,910,1228,,,,,
130016306,1234,1216,917,1235,,,,,
130018805,1240,1223,924,1242,,,,,
130021304,1247,1230,931,1248,,,,,
130023803,1254,1237,937,1255,,,,,
130026302,1260,1243,944,1262,,,,,
130028801,1267,1250,951,1268,,,,,
130031300,1273,1257,957,1274,,,,,
130033799,1280,1263,964,1281,,,,,
130036298,1286,1269,970,1287,,,,,
130038797,1292,1276,977,1293,,,,,
130041296,1298,1282,983,1299,,,,,
130043795,1304,1288,989,1305,,,,,
130046294,1310,1294,995,1311,,,,,
130048793,1316,1300,1001,1317,,,,,
130051292,1322,1306,1007,1323,,,,,
130053791,1328,1312,1013,1329,,,,,
130056290,1333,1318,1019,1334,,,,,
130058789,1339,1324,1025,1340,,,,,
130061288,1345,1329,1030,1346,,,,,
130063787,1350,1335,1036,1351,,,,,
130066286,1356,1341,1042,1357,,,,,
130068785,1361,1346,1047,1362,,,,,
130071284,1367,1352,1053,1368,,,,,
130073783,1372,1357,1058,1373,,,,,
130076282,1378,1363,1063,1378,,,,,
130078781,1383,1368,1069,1384,,,,,
130081280,1388,1373,1074,1389,,,,,
130083779,1393,1379,1079,1394,,,,,
130086278,1398,1384,1085,1399,,,,,
130088777,1404,1389,1090,1404,,,,,
130091276,1409,1394,1095,1409,,,,,
130093775,1414,1399,1100,1415,,,,,
130096274,1419,1404,1105,1420,,,,,
130098773,1424,1409,1110,1424,,,,,
130101272,1429,1414,1115,1429,,,,,
130103771,1434,1419,1120,1434,,,,,
130106270,1438,1424,1125,1439,,,,,
130108769,1443,1429,1130,1444,,,,,
130111268,1448,1434,1135,1449,,,,,
130113767,1453,1439,1139,1454,,,,,
130116266,1458,1443,1144,1458,,,,,
130118765,1462,1448,1149,1463,,,,,
130121264,1467,1453,1154,1468,,,,,
130123763,1471,1458,1158,1472,,,,,
130126262,1476,1462,1163,1477,,,,,
130128761,1481,1467,1168,1481,,,,,
130131260,1485,1471,1172,1486,,,,,
130133759,1490,1476,1177,1491,,,,,
130136258,1494,1481,1181,1495,,,,,
130138757,1499,1485,1186,1499,,,,,
130141256,1503,1490,1190,1504,,,,,
130143755,1508,1494,1195,1508,,,,,
130146254,1512,1498,1199,1513,,,,,
130148753,1516,1503,1203,1517,,,,,
130151252,1521,1507,1208,1521,,,,,
130153751,1525,1512,1212,1526,,,,,
130156250,1529,1516,1217,1530,,,,,
130158749,1533,1520,1221,1534,,,,,
130161248,1538,1525,1225,1538,,,,,
130163747,1542,1529,1229,1543,,,,,
130166246,1546,1533,1234,1547,,,,,
130168745,1550,1537,1238,1551,,,,,
130171244,1554,1541,1242,1555,,,,,
130173743,1558,1546,1246,1559,,,,,
130176242,1562,1550,1250,1563,,,,,
130178741,1567,1554,1255,1567,,,,,
130181240,1571,1558,1259,1571,,,,,
130183739,1575,1562,1263,1575,,,,,
130186238,1579,1566,1267,1579,,,,,
130188737,1583,1570,1271,1583,,,,,
130191236,1587,1574,1275,1587,,,,,
130193735,1591,1578,1279,1591,,,,,
130196234,1595,1582,1283,1595,,,,,
130198733,1599,1586,1287,1599,,,,,
130201232,1602,1590,1291,1603,,,,,
130203731,1606,1594,1295,1607,,,,,
130206230,1610,1598,1299,1611,,,,,
130208729,1614,1602,1303,1615,,,,,
130211228,1618,1606,1306,1619,,,,,
130213727,1622,1610,1310,1622,,,,,
130216226,1626,1613,1314,1626,,,,,
130218725,1629,1617,1318,1630,,,,,
130221224,1633,1621,1322,1634,,,,,
130223723,1637,1625,1326,1637,,,,,
130226222,1641,1629,1329,1641,,,,,
130228721,1644,1632,1333,1645,,,,,
130231220,1648,1636,1337,1649,,,,,
130233719,1652,1640,1341,1652,,,,,
130236218,1656,1643,1344,1656,,,,,
130238717,1659,1647,1348,1660,,,,,
130241216,1663,1651,1352,1663,,,,,
130243715,1667,1654,1355,1667,,,,,
130246214,1670,1658,1359,1671,,,,,
130248713,1674,1662,1362,1674,,,,,
130251212,1678,1665,1366,1678,,,,,
130253711,1681,1669,1370,1681,,,,,
130256210,1685,1672,1373,1685,,,,,
130258709,1688,1676,1377,1689,,,,,
130261208,1692,1679,1380,1692,,,,,
130263707,1695,1683,1384,1696,,,,,
130266206,1699,1686,1387,1699,,,,,
130268705,1702,1690,1391,1703,,,,,
130271204,1706,1694,1394,1706,,,,,
130273703,1709,1697,1398,1710,,,,,
130276202,1713,1700,1401,1713,,,,,
130278701,1716,1704,1405,1717,,,,,
130281200,1720,1707,1408,1720,,,,,
130283699,1723,1711,1412,1724,,,,,
130286198,1727,1714,1415,1727,,,,,
130288697,1730,1718,1418,1730,,,,,
130291196,1733,1721,1422,1734,,,,,
130293695,1737,1725,1425,1737,,,,,
130296194,1740,1728,1429,1741,,,,,
130298693,1744,1731,1432,1744,,,,,
130301192,1747,1735,1435,1747,,,,,
130303691,1750,1738,1439,1751,,,,,
130306190,1754,1741,1442,1754,,,,,
130308689,1757,1745,1445,1757,,,,,
130311188,1760,1748,1448,1761,,,,,
130313687,1763,1751,1452,1764,,,,,
130316186,1767,1755,1455,1767,,,,,
130318685,1770,1758,1458,1771,,,,,
130321184,1773,1761,1462,1774,,,,,
130323683,1776,1764,1465,1777,,,,,
130326182,1780,1768,1468,1781,,,,,
130328681,1783,1771,1471,1784,,,,,
130331180,1786,1774,1474,1787,,,,,
130333679,1789,1777,1478,1790,,,,,
130336178,1793,1781,1481,1793,,,,,
130338677,1796,1784,1484,1797,,,,,
130341176,1799,1787,1487,1800,,,,,
130343675,1802,1790,1490,1803,,,,,
130346174,1805,1793,1494,1806,,,,,
130348673,1808,1797,1497,1809,,,,,
130351172,1812,1800,1500,1812,,,,,
130353671,1815,1803,1503,1816,,,,,
130356170,1818,1806,1506,1819,,,,,
130358669,1821,1809,1509,1822,,,,,
130361168,1824,1812,1512,1825,,,,,
130363667,1827,1815,1516,1828,,,,,
130366166,1830,1818,1519,1831,,,,,
130368665,1833,1821,1522,1834,,,,,
130371164,1836,1825,1525,1837,,,,,
130373663,1839,1828,1528,1840,,,,,
130376162,1842,1831,1531,1843,,,,,
130378661,1846,1834,1534,1846,,,,,
130381160,1849,1837,1537,1849,,,,,
130383659,1852,1840,1540,1852,,,,,
130386158,1855,1843,1543,1855,,,,,
130388657,1858,1846,1546,1858,,,,,
130391156,1861,1849,1549,1861,,,,,
130393655,1864,1852,1552,1864,,,,,
130396154,1867,1855,1555,1867,,,,,
130398653,1869,1858,1558,1870,,,,,
130401152,1872,1861,1561,1873,,,,,
130403651,1875,1864,1564,1876,,,,,
130406150,1878,1867,1567,1879,,,,,
130408649,1881,1870,1570,1882,,,,,
130411148,1884,1873,1573,1885,,,,,
130413647,1887,1876,1576,1888,,,,,
130416146,1890,1879,1579,1891,,,,,
130418645,1893,1882,1582,1894,,,,,
130421144,1896,1885,1585,1897,,,,,
130423643,1897,1886,1586,1898,,,,,
130426142,1896,1885,1585,1897,,,,,
130428641,1895,1884,1584,1896,,,,,
130431140,1894,1883,1583,1895,,,,,
130433639,1893,1882,1582,1894,,,,,
130436138,1892,1881,1581,1893,,,,,
130438637,1891,1880,1580,1892,,,,,
130441136,1890,1879,1579,1891,,,,,
130443635,1890,1878,1579,1890,,,,,
130446134,1889,1878,1578,1890,,,,,
130448633,1888,1877,1577,1889,,,,,
130451132,1888,1876,1577,1888,,,,,
130453631,1887,1876,1576,1888,,,,,
130456130,1887,1875,1576,1888,,,,,
130458629,1887,1875,1575,1887,,,,,
130461128,1886,1875,1575,1887,,,,,
130463627,1886,1874,1575,1887,,,,,
130466126,1886,1874,1575,1887,,,,,
130468625,1886,1874,1575,1887,,,,,
130471124,1886,1874,1575,1887,,,,,
130473623,1886,1874,1575,1887,,,,,
130476122,1887,1875,1575,1887,,,,,
130478621,1887,1875,1576,1888,,,,,
130481120,1887,1875,1576,1888,,,,,
130483619,1888,1876,1577,1888,,,,,
130486118,1888,1876,1577,1889,,,,,
130488617,1888,1877,1578,1889,,,,,
130491116,1889,1878,1578,1889,,,,,
130493615,1889,1878,1579,1889,,,,,
130496114,1889,1879,1579,1889,,,,,
130498613,1889,1879,1580,1889,,,,,
130501112,1889,1879,1580,1889,,,,,
130503611,1888,1879,1580,1889,,,,,
130506110,1888,1879,1580,1889,,,,,
130508609,1888,1879,1580,1888,,,,,
130511108,1887,1879,1579,1888,,,,,
130513607,1886,1878,1579,1887,,,,,
130516106,1885,1877,1578,1886,,,,,
130518605,1884,1876,1577,1885,,,,,
130521104,1883,1875,1575,1883,,,,,
130523603,1881,1874,1574,1882,,,,,
130526102,1880,1872,1573,1880,,,,,
130528601,1878,1871,1571,1879,,,,,
130531100,1876,1869,1569,1877,,,,,
130533599,1874,1867,1567,1875,,,,,
130536098,1872,1865,1565,1873,,,,,
130538597,1869,1863,1563,1870,,,,,
130541096,1867,1860,1561,1868,,,,,
130543595,1864,1858,1558,1865,,,,,
130546094,1862,1856,1556,1863,,,,,
130548593,1859,1853,1553,1860,,,,,
130551092,1857,1850,1551,1857,,,,,
130553591,1854,1848,1548,1854,,,,,
130556090,1851,1845,1545,1852,,,,,
130558589,1848,1842,1543,1849,,,,,
130561088,1845,1839,1540,1846,,,,,
130563587,1842,1836,1537,1843,,,,,
130566086,1839,1833,1534,1840,,,,,
130568585,1835,1831,1531,1836,,,,,
130571084,1832,1827,1528,1833,,,,,
130573583,1829,1824,1525,1830,,,,,
