TimeUS,M1,M2,M3,M4,TimeUS,C1,C2,C3,C4
1058378979,1000,1000,1000,1000,1058468943,1000,1000,1000,1000
1058381478,1000,1000,1000,1000,1058568903,1000,1000,1000,1000
1058383977,1000,1000,1000,1000,1058668863,1000,1000,1000,1000
1058386476,1000,1000,1000,1000,1058768823,1000,1000,1000,1000
1058388975,1000,1000,1000,1000,1058868783,1000,1000,1000,1000
1058391474,1000,1000,1000,1000,1058968743,1000,1000,1000,1000
1058393973,1000,1000,1000,1000,1059068703,1000,1000,1000,1000
1058396472,1000,1000,1000,1000,1059168663,1000,1000,1000,1000
1058398971,1000,1000,1000,1000,1059268623,1000,1000,1000,1000
1058401470,1000,1000,1000,1000,1059368583,1000,1000,1000,1000
1058403969,1000,1000,1000,1000,1059468543,1000,1000,1000,1000
1058406468,1000,1000,1000,1000,1059568503,1000,1000,1000,1000
1058408967,1000,1000,1000,1000,1059668463,1000,1000,1000,1000
1058411466,1000,1000,1000,1000,1059768423,1000,1000,1000,1000
1058413965,1000,1000,1000,1000,1059868383,1000,1000,1000,1000
1058416464,1000,1000,1000,1000,1059968343,1000,1000,1000,1000
1058418963,1000,1000,1000,1000,1060068303,1000,1000,1000,1000
1058421462,1000,1000,1000,1000,1060168263,1000,1000,1000,1000
1058423961,1000,1000,1000,1000,1060268223,1000,1000,1000,1000
1058426460,1000,1000,1000,1000,1060368183,1000,1000,1000,1000
1058428959,1000,1000,1000,1000,1060468976,1027,1027,1027,1027
1058431458,1000,1000,1000,1000,1060568936,1057,1057,1057,1057
1058433957,1000,1000,1000,1000,1060668896,1087,1087,1087,1087
1058436456,1000,1000,1000,1000,1060768856,1116,1116,1116,1116
1058438955,1000,1000,1000,1000,1060868816,1146,1146,1146,1146
1058441454,1000,1000,1000,1000,1060968776,1371,1382,1380,1370
1058443953,1000,1000,1000,1000,1061068736,1557,1566,1564,1556
1058446452,1000,1000,1000,1000,1061168696,1707,1715,1714,1706
1058448951,1000,1000,1000,1000,1061268656,1836,1845,1843,1836
1058451450,1000,1000,1000,1000,1061368616,1836,1844,1843,1835
1058453949,1000,1000,1000,1000,1061468576,1815,1818,1817,1813
1058456448,1000,1000,1000,1000,1061568536,1689,1688,1688,1687
1058458947,1000,1000,1000,1000,1061668496,1621,1619,1617,1621
1058461446,1000,1000,1000,1000,1061768456,1616,1613,1612,1616
1058463945,1000,1000,1000,1000,1061868416,1634,1632,1631,1635
1058466444,1000,1000,1000,1000,1061968376,1645,1643,1643,1645
1058468943,1000,1000,1000,1000,1062068336,1643,1642,1643,1643
1058471442,1000,1000,1000,1000,1062168296,1635,1636,1637,1635
1058473941,1000,1000,1000,1000,1062268256,1616,1618,1615,1621
1058476440,1000,1000,1000,1000,1062368216,1605,1606,1599,1614
1058478939,1000,1000,1000,1000,1062468176,1603,1603,1599,1609
1058481438,1000,1000,1000,1000,1062568969,1603,1604,1603,1606
1058483937,1000,1000,1000,1000,1062668929,1608,1608,1610,1606
1058486436,1000,1000,1000,1000,1062768889,1614,1613,1617,1610
1058488935,1000,1000,1000,1000,1062868849,1591,1590,1605,1576
1058491434,1000,1000,1000,1000,1062968809,1578,1577,1593,1560
1058493933,1000,1000,1000,1000,1063068769,1567,1567,1573,1559
1058496432,1000,1000,1000,1000,1063168729,1555,1556,1550,1559
1058498931,1000,1000,1000,1000,1063268689,1546,1547,1534,1557
1058501430,1000,1000,1000,1000,1063368649,1539,1539,1527,1551
1058503929,1000,1000,1000,1000,1063468609,1534,1533,1525,1542
1058506428,1000,1000,1000,1000,1063568569,1529,1529,1526,1532
1058508927,1000,1000,1000,1000,1063668529,1528,1528,1529,1528
1058511426,1000,1000,1000,1000,1063768489,1529,1529,1532,1528
1058513925,1000,1000,1000,1000,1063868449,1532,1532,1536,1530
1058516424,1000,1000,1000,1000,1063968409,1535,1536,1540,1532
1058518923,1000,1000,1000,1000,1064068369,1540,1540,1543,1537
1058521422,1000,1000,1000,1000,1064168329,1543,1543,1545,1542
1058523921,1000,1000,1000,1000,1064268289,1547,1547,1547,1547
1058526420,1000,1000,1000,1000,1064368249,1548,1548,1546,1549
1058528919,1000,1000,1000,1000,1064468209,1549,1544,1554,1557
1058531418,1000,1000,1000,1000,1064568169,1538,1538,1569,1573
1058533917,1000,1000,1000,1000,1064668962,1543,1545,1569,1571
1058536416,1000,1000,1000,1000,1064768922,1551,1554,1566,1566
1058538915,1000,1000,1000,1000,1064868882,1560,1562,1563,1562
1058541414,1000,1000,1000,1000,1064968842,1567,1568,1558,1557
1058543913,1000,1000,1000,1000,1065068802,1573,1572,1556,1556
1058546412,1000,1000,1000,1000,1065168762,1577,1575,1556,1556
1058548911,1000,1000,1000,1000,1065268722,1578,1576,1556,1556
1058551410,1000,1000,1000,1000,1065368682,1578,1577,1558,1558
1058553909,1000,1000,1000,1000,1065468642,1578,1577,1562,1563
1058556408,1000,1000,1000,1000,1065568602,1577,1576,1566,1566
1058558907,1000,1000,1000,1000,1065668562,1574,1574,1569,1570
1058561406,1000,1000,1000,1000,1065768522,1573,1573,1573,1573
1058563905,1000,1000,1000,1000,1065868482,1570,1571,1575,1574
1058566404,1000,1000,1000,1000,1065968442,1571,1571,1579,1577
1058568903,1000,1000,1000,1000,1066068402,1570,1570,1580,1578
1058571402,1000,1000,1000,1000,1066168362,1570,1570,1580,1579
1058573901,1000,1000,1000,1000,1066268322,1570,1571,1580,1579
1058576400,1000,1000,1000,1000,1066368282,1572,1572,1579,1579
1058578899,1000,1000,1000,1000,1066468242,1573,1573,1578,1579
1058581398,1000,1000,1000,1000,1066568202,1573,1574,1576,1577
1058583897,1000,1000,1000,1000,1066668162,1575,1575,1576,1576
1058586396,1000,1000,1000,1000,1066768955,1576,1576,1575,1575
1058588895,1000,1000,1000,1000,1066868915,1577,1577,1575,1575
1058591394,1000,1000,1000,1000,1066968875,1579,1579,1576,1575
1058593893,1000,1000,1000,1000,1067068835,1579,1579,1575,1575
1058596392,1000,1000,1000,1000,1067168795,1580,1579,1576,1576
1058598891,1000,1000,1000,1000,1067268755,1579,1579,1576,1576
1058601390,1000,1000,1000,1000,1067368715,1579,1578,1576,1576
1058603889,1000,1000,1000,1000,1067468675,1578,1578,1577,1576
1058606388,1000,1000,1000,1000,1067568635,1578,1578,1577,1577
1058608887,1000,1000,1000,1000,1067668595,1577,1577,1577,1577
1058611386,1000,1000,1000,1000,1067768555,1577,1577,1577,1578
1058613885,1000,1000,1000,1000,1067868515,1577,1577,1579,1579
1058616384,1000,1000,1000,1000,1067968475,1578,1577,1579,1579
1058618883,1000,1000,1000,1000,1068068435,1577,1578,1579,1579
1058621382,1000,1000,1000,1000,1068168395,1578,1578,1579,1579
1058623881,1000,1000,1000,1000,1068268355,1579,1579,1581,1580
1058626380,1000,1000,1000,1000,1068368315,1579,1579,1579,1579
1058628879,1000,1000,1000,1000,1068468275,1579,1579,1579,1579
1058631378,1000,1000,1000,1000,1068568235,1579,1579,1579,1579
1058633877,1000,1000,1000,1000,1068668195,1580,1579,1579,1579
1058636376,1000,1000,1000,1000,1068768155,1580,1580,1579,1579
1058638875,1000,1000,1000,1000,1068868948,1580,1580,1580,1579
1058641374,1000,1000,1000,1000,1068968908,1580,1580,1580,1579
1058643873,1000,1000,1000,1000,1069068868,1580,1580,1579,1579
1058646372,1000,1000,1000,1000,1069168828,1579,1579,1578,1578
1058648871,1000,1000,1000,1000,1069268788,1580,1581,1580,1580
1058651370,1000,1000,1000,1000,1069368748,1580,1581,1580,1580
1058653869,1000,1000,1000,1000,1069468708,1580,1580,1580,1580
1058656368,1000,1000,1000,1000,1069568668,1581,1580,1580,1580
1058658867,1000,1000,1000,1000,1069668628,1580,1580,1580,1580
1058661366,1000,1000,1000,1000,1069768588,1580,1580,1580,1580
1058663865,1000,1000,1000,1000,1069868548,1580,1579,1580,1580
1058666364,1000,1000,1000,1000,1069968508,1580,1580,1581,1580
1058668863,1000,1000,1000,1000,1070068468,1580,1580,1580,1580
1058671362,1000,1000,1000,1000,1070168428,1580,1580,1581,1580
1058673861,1000,1000,1000,1000,1070268388,1580,1580,1580,1580
1058676360,1000,1000,1000,1000,1070368348,1580,1581,1580,1581
1058678859,1000,1000,1000,1000,1070468308,1581,1581,1581,1581
1058681358,1000,1000,1000,1000,1070568268,1581,1581,1581,1581
1058683857,1000,1000,1000,1000,1070668228,1581,1581,1580,1580
1058686356,1000,1000,1000,1000,1070768188,1582,1581,1586,1576
1058688855,1000,1000,1000,1000,1070868981,1580,1581,1587,1572
1058691354,1000,1000,1000,1000,1070968941,1579,1581,1580,1573
1058693853,1000,1000,1000,1000,1071068901,1577,1580,1571,1573
1058696352,1000,1000,1000,1000,1071168861,1575,1577,1563,1569
1058698851,1000,1000,1000,1000,1071268821,1575,1576,1558,1565
1058701350,1000,1000,1000,1000,1071368781,1577,1576,1557,1562
1058703849,1000,1000,1000,1000,1071468741,1577,1575,1556,1558
1058706348,1000,1000,1000,1000,1071568701,1575,1575,1556,1555
1058708847,1000,1000,1000,1000,1071668661,1575,1575,1557,1555
1058711346,1000,1000,1000,1000,1071768621,1574,1574,1557,1554
1058713845,1000,1000,1000,1000,1071868581,1573,1574,1557,1555
1058716344,1000,1000,1000,1000,1071968541,1572,1574,1556,1555
1058718843,1000,1000,1000,1000,1072068501,1572,1573,1555,1555
1058721342,1000,1000,1000,1000,1072168461,1572,1574,1554,1554
1058723841,1000,1000,1000,1000,1072268421,1573,1574,1552,1552
1058726340,1000,1000,1000,1000,1072368381,1574,1575,1550,1550
1058728839,1000,1000,1000,1000,1072468341,1576,1578,1548,1548
1058731338,1000,1000,1000,1000,1072568301,1578,1580,1546,1545
1058733837,1000,1000,1000,1000,1072668261,1581,1583,1543,1543
1058736336,1000,1000,1000,1000,1072768221,1584,1585,1540,1539
1058738835,1000,1000,1000,1000,1072868181,1587,1588,1537,1537
1058741334,1000,1000,1000,1000,1072968974,1591,1591,1535,1535
1058743833,1000,1000,1000,1000,1073068934,1593,1592,1534,1534
1058746332,1000,1000,1000,1000,1073168894,1594,1594,1534,1535
1058748831,1000,1000,1000,1000,1073268854,1593,1593,1534,1536
1058751330,1000,1000,1000,1000,1073368814,1592,1592,1536,1539
1058753829,1000,1000,1000,1000,1073468774,1590,1589,1541,1544
1058756328,1000,1000,1000,1000,1073568734,1585,1584,1547,1550
1058758827,1000,1000,1000,1000,1073668694,1578,1576,1555,1558
1058761326,1000,1000,1000,1000,1073768654,1571,1567,1565,1568
1058763825,1000,1000,1000,1000,1073868614,1561,1557,1577,1579
1058766324,1000,1000,1000,1000,1073968574,1550,1547,1589,1590
1058768823,1000,1000,1000,1000,1074068534,1540,1538,1599,1599
1058771322,1000,1000,1000,1000,1074168494,1533,1532,1607,1606
1058773821,1000,1000,1000,1000,1074268454,1530,1530,1612,1611
1058776320,1000,1000,1000,1000,1074368414,1530,1532,1614,1613
1058778819,1000,1000,1000,1000,1074468374,1534,1535,1612,1611
1058781318,1000,1000,1000,1000,1074568334,1540,1542,1608,1608
1058783817,1000,1000,1000,1000,1074668294,1547,1548,1601,1601
1058786316,1000,1000,1000,1000,1074768254,1555,1556,1593,1594
1058788815,1000,1000,1000,1000,1074868214,1565,1565,1587,1587
1058791314,1000,1000,1000,1000,1074968174,1572,1572,1580,1580
1058793813,1000,1000,1000,1000,1075068967,1579,1578,1576,1574
1058796312,1000,1000,1000,1000,1075168927,1584,1583,1571,1570
1058798811,1000,1000,1000,1000,1075268887,1587,1585,1569,1568
1058801310,1000,1000,1000,1000,1075368847,1588,1586,1567,1567
1058803809,1000,1000,1000,1000,1075468807,1586,1586,1567,1568
1058806308,1000,1000,1000,1000,1075568767,1585,1584,1569,1569
1058808807,1000,1000,1000,1000,1075668727,1583,1583,1572,1572
1058811306,1000,1000,1000,1000,1075768687,1580,1580,1574,1574
1058813805,1000,1000,1000,1000,1075868647,1578,1578,1577,1577
1058816304,1000,1000,1000,1000,1075968607,1575,1575,1579,1579
1058818803,1000,1000,1000,1000,1076068567,1574,1575,1582,1581
1058821302,1000,1000,1000,1000,1076168527,1573,1573,1583,1582
1058823801,1000,1000,1000,1000,1076268487,1573,1574,1584,1584
1058826300,1000,1000,1000,1000,1076368447,1572,1573,1583,1583
1058828799,1000,1000,1000,1000,1076468407,1573,1574,1582,1583
1058831298,1000,1000,1000,1000,1076568367,1575,1576,1582,1582
1058833797,1000,1000,1000,1000,1076668327,1576,1576,1581,1581
1058836296,1000,1000,1000,1000,1076768287,1579,1579,1581,1581
1058838795,1000,1000,1000,1000,1076868247,1580,1580,1580,1580
1058841294,1000,1000,1000,1000,1076968207,1582,1582,1580,1580
1058843793,1000,1000,1000,1000,1077068167,1582,1582,1579,1579
1058846292,1000,1000,1000,1000,1077168960,1584,1583,1580,1579
1058848791,1000,1000,1000,1000,1077268920,1583,1583,1579,1578
1058851290,1000,1000,1000,1000,1077368880,1583,1583,1579,1579
1058853789,1000,1000,1000,1000,1077468840,1582,1581,1578,1578
1058856288,1000,1000,1000,1000,1077568800,1581,1581,1579,1579
1058858787,1000,1000,1000,1000,1077668760,1581,1581,1580,1580
1058861286,1000,1000,1000,1000,1077768720,1585,1585,1464,1554
1058863785,1000,1000,1000,1000,1077868680,1604,1604,1533,1546
1058866284,1000,1000,1000,1000,1077968640,1616,1616,1585,1554
1058868783,1000,1000,1000,1000,1078068600,1627,1629,1626,1578
1058871282,1000,1000,1000,1000,1078168560,1628,1631,1647,1601
1058873781,1000,1000,1000,1000,1078268520,1617,1621,1648,1619
1058876280,1000,1000,1000,1000,1078368480,1599,1603,1633,1627
1058878779,1000,1000,1000,1000,1078468440,1583,1583,1616,1628
1058881278,1000,1000,1000,1000,1078568400,1570,1567,1600,1623
1058883777,1000,1000,1000,1000,1078668360,1563,1559,1591,1614
1058886276,1000,1000,1000,1000,1078768320,1560,1556,1588,1603
1058888775,1000,1000,1000,1000,1078868280,1562,1558,1587,1594
1058891274,1000,1000,1000,1000,1078968240,1565,1564,1593,1578
1058893773,1000,1000,1000,1000,1079068200,1567,1572,1589,1569
1058896272,1000,1000,1000,1000,1079168160,1569,1577,1577,1566
1058898771,1000,1000,1000,1000,1079268953,1572,1579,1564,1564
1058901270,1000,1000,1000,1000,1079368913,1574,1579,1552,1560
1058903769,1000,1000,1000,1000,1079468873,1578,1579,1544,1554
1058906268,1000,1000,1000,1000,1079568833,1582,1579,1539,1547
1058908767,1000,1000,1000,1000,1079668793,1584,1580,1538,1542
1058911266,1000,1000,1000,1000,1079768753,1584,1580,1538,1539
1058913765,1000,1000,1000,1000,1079868713,1583,1581,1540,1538
1058916264,1000,1000,1000,1000,1079968673,1581,1582,1543,1540
1058918763,1000,1000,1000,1000,1080068633,1579,1580,1545,1542
1058921262,1000,1000,1000,1000,1080168593,1576,1578,1545,1544
1058923761,1000,1000,1000,1000,1080268553,1575,1577,1547,1547
1058926260,1000,1000,1000,1000,1080368513,1574,1576,1547,1547
1058928759,1000,1000,1000,1000,1080468473,1575,1576,1547,1548
1058931258,1000,1000,1000,1000,1080568433,1576,1577,1546,1547
1058933757,1000,1000,1000,1000,1080668393,1578,1579,1546,1546
1058936256,1000,1000,1000,1000,1080768353,1580,1581,1543,1543
1058938755,1000,1000,1000,1000,1080868313,1584,1583,1542,1542
1058941254,1000,1000,1000,1000,1080968273,1585,1585,1540,1540
1058943753,1000,1000,1000,1000,1081068233,1587,1587,1539,1540
1058946252,1000,1000,1000,1000,1081168193,1587,1587,1539,1541
1058948751,1000,1000,1000,1000,1081268986,1588,1588,1541,1544
1058951250,1000,1000,1000,1000,1081368946,1587,1587,1544,1548
1058953749,1000,1000,1000,1000,1081468906,1584,1582,1549,1551
1058956248,1000,1000,1000,1000,1081568866,1579,1576,1556,1558
1058958747,1000,1000,1000,1000,1081668826,1571,1567,1564,1566
1058961246,1000,1000,1000,1000,1081768786,1563,1559,1575,1576
1058963745,1000,1000,1000,1000,1081868746,1553,1550,1585,1585
1058966244,1000,1000,1000,1000,1081968706,1546,1544,1594,1594
1058968743,1000,1000,1000,1000,1082068666,1541,1540,1601,1599
1058971242,1000,1000,1000,1000,1082168626,1539,1540,1605,1603
1058973741,1000,1000,1000,1000,1082268586,1539,1541,1606,1604
1058976240,1000,1000,1000,1000,1082368546,1542,1544,1606,1605
1058978739,1000,1000,1000,1000,1082468506,1546,1547,1603,1603
1058981238,1000,1000,1000,1000,1082568466,1550,1551,1599,1600
1058983737,1000,1000,1000,1000,1082668426,1554,1555,1595,1595
1058986236,1000,1000,1000,1000,1082768386,1560,1560,1592,1592
1058988735,1000,1000,1000,1000,1082868346,1564,1565,1587,1587
1058991234,1000,1000,1000,1000,1082968306,1569,1568,1582,1582
1058993733,1000,1000,1000,1000,1083068266,1572,1572,1577,1577
1058996232,1000,1000,1000,1000,1083168226,1577,1577,1573,1574
1058998731,1000,1000,1000,1000,1083268186,1581,1580,1570,1571
1059001230,1000,1000,1000,1000,1083368979,1584,1582,1568,1568
1059003729,1000,1000,1000,1000,1083468939,1584,1583,1566,1567
1059006228,1000,1000,1000,1000,1083568899,1584,1583,1567,1567
1059008727,1000,1000,1000,1000,1083668859,1583,1583,1568,1569
1059011226,1000,1000,1000,1000,1083768819,1583,1581,1571,1571
1059013725,1000,1000,1000,1000,1083868779,1580,1580,1573,1573
1059016224,1000,1000,1000,1000,1083968739,1578,1578,1576,1576
1059018723,1000,1000,1000,1000,1084068699,1577,1577,1579,1578
1059021222,1000,1000,1000,1000,1084168659,1575,1575,1580,1580
1059023721,1000,1000,1000,1000,1084268619,1574,1575,1582,1582
1059026220,1000,1000,1000,1000,1084368579,1574,1575,1583,1583
1059028719,1000,1000,1000,1000,1084468539,1573,1574,1583,1583
1059031218,1000,1000,1000,1000,1084568499,1574,1574,1582,1582
1059033717,1000,1000,1000,1000,1084668459,1575,1575,1581,1582
1059036216,1000,1000,1000,1000,1084768419,1577,1576,1581,1581
1059038715,1000,1000,1000,1000,1084868379,1578,1578,1580,1580
1059041214,1000,1000,1000,1000,1084968339,1579,1579,1580,1580
1059043713,1000,1000,1000,1000,1085068299,1580,1580,1579,1579
1059046212,1000,1000,1000,1000,1085168259,1581,1581,1579,1579
1059048711,1000,1000,1000,1000,1085268219,1581,1581,1578,1578
1059051210,1000,1000,1000,1000,1085368179,1581,1581,1578,1578
1059053709,1000,1000,1000,1000,1085468972,1581,1581,1577,1577
1059056208,1000,1000,1000,1000,1085568932,1580,1580,1577,1577
1059058707,1000,1000,1000,1000,1085668892,1580,1581,1578,1578
1059061206,1000,1000,1000,1000,1085768852,1580,1581,1579,1579
1059063705,1000,1000,1000,1000,1085868812,1580,1580,1579,1579
1059066204,1000,1000,1000,1000,1085968772,1580,1580,1579,1580
1059068703,1000,1000,1000,1000,1086068732,1579,1579,1579,1579
1059071202,1000,1000,1000,1000,1086168692,1578,1578,1579,1579
1059073701,1000,1000,1000,1000,1086268652,1579,1579,1581,1580
1059076200,1000,1000,1000,1000,1086368612,1579,1580,1581,1581
1059078699,1000,1000,1000,1000,1086468572,1579,1579,1581,1581
1059081198,1000,1000,1000,1000,1086568532,1580,1579,1581,1580
1059083697,1000,1000,1000,1000,1086668492,1580,1580,1581,1581
1059086196,1000,1000,1000,1000,1086768452,1580,1580,1580,1580
1059088695,1000,1000,1000,1000,1086868412,1579,1580,1580,1580
1059091194,1000,1000,1000,1000,1086968372,1580,1580,1580,1580
1059093693,1000,1000,1000,1000,1087068332,1581,1581,1580,1580
1059096192,1000,1000,1000,1000,1087168292,1581,1581,1581,1580
1059098691,1000,1000,1000,1000,1087268252,1582,1581,1583,1577
1059101190,1000,1000,1000,1000,1087368212,1580,1581,1586,1572
1059103689,1000,1000,1000,1000,1087468172,1577,1581,1581,1573
1059106188,1000,1000,1000,1000,1087568965,1576,1579,1573,1573
1059108687,1000,1000,1000,1000,1087668925,1574,1577,1566,1571
1059111186,1000,1000,1000,1000,1087768885,1575,1577,1561,1568
1059113685,1000,1000,1000,1000,1087868845,1575,1575,1556,1563
1059116184,1000,1000,1000,1000,1087968805,1576,1574,1555,1559
1059118683,1000,1000,1000,1000,1088068765,1577,1575,1556,1556
1059121182,1000,1000,1000,1000,1088168725,1578,1576,1557,1555
1059123681,1000,1000,1000,1000,1088268685,1576,1576,1557,1554
1059126180,1000,1000,1000,1000,1088368645,1575,1576,1557,1555
1059128679,1000,1000,1000,1000,1088468605,1574,1576,1556,1554
1059131178,1000,1000,1000,1000,1088568565,1572,1575,1554,1553
1059133677,1000,1000,1000,1000,1088668525,1573,1574,1553,1553
1059136176,1000,1000,1000,1000,1088768485,1574,1575,1552,1552
1059138675,1000,1000,1000,1000,1088868445,1575,1576,1550,1551
1059141174,1000,1000,1000,1000,1088968405,1577,1577,1548,1549
1059143673,1000,1000,1000,1000,1089068365,1578,1580,1546,1545
1059146172,1000,1000,1000,1000,1089168325,1582,1583,1544,1543
1059148671,1000,1000,1000,1000,1089268285,1584,1584,1540,1539
1059151170,1000,1000,1000,1000,1089368245,1587,1588,1537,1537
1059153669,1000,1000,1000,1000,1089468205,1590,1590,1534,1535
1059156168,1000,1000,1000,1000,1089568165,1592,1592,1533,1533
1059158667,1000,1000,1000,1000,1089668958,1594,1593,1533,1534
1059161166,1000,1000,1000,1000,1089768918,1594,1594,1534,1536
1059163665,1000,1000,1000,1000,1089868878,1592,1592,1535,1538
1059166164,1000,1000,1000,1000,1089968838,1590,1590,1540,1543
1059168663,1000,1000,1000,1000,1090068798,1586,1584,1546,1549
1059171162,1000,1000,1000,1000,1090168758,1580,1577,1555,1558
1059173661,1000,1000,1000,1000,1090268718,1571,1567,1565,1568
1059176160,1000,1000,1000,1000,1090368678,1561,1557,1577,1579
1059178659,1000,1000,1000,1000,1090468638,1550,1547,1590,1590
1059181158,1000,1000,1000,1000,1090568598,1541,1539,1601,1600
1059183657,1000,1000,1000,1000,1090668558,1533,1533,1609,1607
1059186156,1000,1000,1000,1000,1090768518,1531,1532,1613,1611
1059188655,1000,1000,1000,1000,1090868478,1531,1533,1613,1611
1059191154,1000,1000,1000,1000,1090968438,1535,1537,1612,1610
1059193653,1000,1000,1000,1000,1091068398,1541,1542,1608,1607
1059196152,1000,1000,1000,1000,1091168358,1547,1548,1602,1602
1059198651,1000,1000,1000,1000,1091268318,1554,1554,1596,1597
1059201150,1000,1000,1000,1000,1091368278,1561,1561,1590,1591
1059203649,1000,1000,1000,1000,1091468238,1568,1568,1584,1584
1059206148,1000,1000,1000,1000,1091568198,1574,1574,1577,1577
1059208647,1000,1000,1000,1000,1091668158,1580,1580,1571,1571
1059211146,1000,1000,1000,1000,1091768951,1584,1583,1568,1568
1059213645,1000,1000,1000,1000,1091868911,1587,1586,1566,1567
1059216144,1000,1000,1000,1000,1091968871,1588,1586,1565,1565
1059218643,1000,1000,1000,1000,1092068831,1587,1585,1566,1567
1059221142,1000,1000,1000,1000,1092168791,1586,1585,1569,1569
1059223641,1000,1000,1000,1000,1092268751,1582,1581,1570,1570
1059226140,1000,1000,1000,1000,1092368711,1580,1580,1574,1574
1059228639,1000,1000,1000,1000,1092468671,1577,1577,1577,1577
1059231138,1000,1000,1000,1000,1092568631,1574,1575,1579,1579
1059233637,1000,1000,1000,1000,1092668591,1573,1574,1582,1581
1059236136,1000,1000,1000,1000,1092768551,1572,1573,1583,1583
1059238635,1000,1000,1000,1000,1092868511,1573,1573,1584,1584
1059241134,1000,1000,1000,1000,1092968471,1573,1574,1584,1584
1059243633,1000,1000,1000,1000,1093068431,1574,1574,1583,1583
1059246132,1000,1000,1000,1000,1093168391,1576,1575,1583,1583
1059248631,1000,1000,1000,1000,1093268351,1576,1576,1581,1581
1059251130,1000,1000,1000,1000,1093368311,1577,1578,1580,1580
1059253629,1000,1000,1000,1000,1093468271,1579,1579,1579,1580
1059256128,1000,1000,1000,1000,1093568231,1580,1580,1578,1578
1059258627,1000,1000,1000,1000,1093668191,1581,1581,1578,1577
1059261126,1000,1000,1000,1000,1093768984,1582,1581,1577,1577
1059263625,1000,1000,1000,1000,1093868944,1582,1581,1577,1577
1059266124,1000,1000,1000,1000,1093968904,1581,1580,1576,1577
1059268623,1000,1000,1000,1000,1094068864,1582,1581,1578,1578
1059271122,1000,1000,1000,1000,1094168824,1582,1582,1579,1579
1059273621,1000,1000,1000,1000,1094268784,1580,1581,1579,1579
1059276120,1000,1000,1000,1000,1094368744,1580,1580,1580,1579
1059278619,1000,1000,1000,1000,1094468704,1580,1580,1580,1580
1059281118,1000,1000,1000,1000,1094568664,1580,1580,1581,1581
1059283617,1000,1000,1000,1000,1094668624,1579,1579,1581,1581
1059286116,1000,1000,1000,1000,1094768584,1580,1580,1581,1581
1059288615,1000,1000,1000,1000,1094868544,1580,1580,1581,1582
1059291114,1000,1000,1000,1000,1094968504,1580,1579,1581,1581
1059293613,1000,1000,1000,1000,1095068464,1580,1580,1581,1581
1059296112,1000,1000,1000,1000,1095168424,1580,1579,1580,1580
1059298611,1000,1000,1000,1000,1095268384,1582,1581,1581,1581
1059301110,1000,1000,1000,1000,1095368344,1581,1581,1581,1581
1059303609,1000,1000,1000,1000,1095468304,1581,1581,1586,1573
1059306108,1000,1000,1000,1000,1095568264,1580,1581,1585,1571
1059308607,1000,1000,1000,1000,1095668224,1578,1579,1579,1574
1059311106,1000,1000,1000,1000,1095768184,1574,1574,1572,1575
1059313605,1000,1000,1000,1000,1095868977,1571,1571,1567,1574
1059316104,1000,1000,1000,1000,1095968937,1568,1567,1564,1572
1059318603,1000,1000,1000,1000,1096068897,1567,1566,1564,1570
1059321102,1000,1000,1000,1000,1096168857,1566,1565,1565,1567
1059323601,1000,1000,1000,1000,1096268817,1565,1564,1565,1564
1059326100,1000,1000,1000,1000,1096368777,1565,1565,1566,1563
1059328599,1000,1000,1000,1000,1096468737,1565,1565,1566,1563
1059331098,1000,1000,1000,1000,1096568697,1563,1564,1565,1563
1059333597,1000,1000,1000,1000,1096668657,1564,1564,1564,1563
1059336096,1000,1000,1000,1000,1096768617,1563,1562,1563,1563
1059338595,1000,1000,1000,1000,1096868577,1562,1562,1562,1562
1059341094,1000,1000,1000,1000,1096968537,1562,1561,1561,1562
1059343593,1000,1000,1000,1000,1097068497,1561,1560,1561,1561
1059346092,1000,1000,1000,1000,1097168457,1560,1560,1560,1559
1059348591,1000,1000,1000,1000,1097268417,1560,1560,1560,1560
1059351090,1000,1000,1000,1000,1097368377,1559,1559,1559,1558
1059353589,1000,1000,1000,1000,1097468337,1558,1558,1558,1558
1059356088,1000,1000,1000,1000,1097568297,1558,1558,1558,1557
1059358587,1000,1000,1000,1000,1097668257,1558,1558,1558,1558
1059361086,1000,1000,1000,1000,1097768217,1559,1559,1559,1559
1059363585,1000,1000,1000,1000,1097868177,1559,1559,1559,1558
1059366084,1000,1000,1000,1000,1097968970,1558,1559,1559,1557
1059368583,1000,1000,1000,1000,1098068930,1559,1559,1559,1557
1059371082,1000,1000,1000,1000,1098168890,1558,1558,1559,1557
1059373581,1000,1000,1000,1000,1098268850,1558,1559,1559,1557
1059376080,1000,1000,1000,1000,1098368810,1559,1559,1559,1560
1059378579,1000,1000,1000,1000,1098468770,1560,1559,1557,1562
1059381078,1000,1000,1000,1000,1098568730,1559,1558,1557,1562
1059383577,1000,1000,1000,1000,1098668690,1557,1556,1556,1559
1059386076,1000,1000,1000,1000,1098768650,1557,1557,1556,1559
1059388575,1000,1000,1000,1000,1098868610,1556,1556,1555,1559
1059391074,1000,1000,1000,1000,1098968570,1554,1554,1553,1556
1059393573,1000,1000,1000,1000,1099068530,1549,1549,1549,1550
1059396072,1000,1000,1000,1000,1099168490,1544,1544,1545,1544
1059398571,1000,1000,1000,1000,1099268450,1538,1538,1540,1538
1059401070,1000,1000,1000,1000,1099368410,1530,1531,1532,1531
1059403569,1000,1000,1000,1000,1099468370,1523,1523,1525,1524
1059406068,1000,1000,1000,1000,1099568330,1520,1520,1521,1522
1059408567,1000,1000,1000,1000,1099668290,1520,1520,1519,1521
1059411066,1000,1000,1000,1000,1099768250,1521,1521,1520,1522
1059413565,1000,1000,1000,1000,1099868210,1523,1523,1521,1523
1059416064,1000,1000,1000,1000,1099968170,1528,1528,1525,1527
1059418563,1000,1000,1000,1000,1100068963,1532,1531,1529,1529
1059421062,1000,1000,1000,1000,1100168923,1537,1536,1534,1534
1059423561,1000,1000,1000,1000,1100268883,1540,1540,1539,1537
1059426060,1000,1000,1000,1000,1100368843,1542,1542,1541,1540
1059428559,1000,1000,1000,1000,1100468803,1544,1544,1543,1543
1059431058,1000,1000,1000,1000,1100568763,1545,1545,1545,1544
1059433557,1000,1000,1000,1000,1100668723,1545,1545,1546,1546
1059436056,1000,1000,1000,1000,1100768683,1546,1546,1546,1547
1059438555,1000,1000,1000,1000,1100868643,1546,1547,1548,1548
1059441054,1000,1000,1000,1000,1100968603,1547,1546,1548,1548
1059443553,1000,1000,1000,1000,1101068563,1546,1546,1547,1548
1059446052,1000,1000,1000,1000,1101168523,1545,1545,1547,1547
1059448551,1000,1000,1000,1000,1101268483,1545,1545,1546,1546
1059451050,1000,1000,1000,1000,1101368443,1546,1546,1547,1546
1059453549,1000,1000,1000,1000,1101468403,1546,1545,1546,1546
1059456048,1000,1000,1000,1000,1101568363,1546,1545,1546,1546
1059458547,1000,1000,1000,1000,1101668323,1546,1546,1546,1545
1059461046,1000,1000,1000,1000,1101768283,1546,1546,1545,1545
1059463545,1000,1000,1000,1000,1101868243,1546,1546,1545,1545
1059466044,1000,1000,1000,1000,1101968203,1546,1546,1545,1546
1059468543,1000,1000,1000,1000,1102068163,1546,1546,1545,1545
1059471042,1000,1000,1000,1000,1102168956,1545,1545,1544,1545
1059473541,1000,1000,1000,1000,1102268916,1544,1544,1544,1543
1059476040,1000,1000,1000,1000,1102368876,1545,1544,1545,1544
1059478539,1000,1000,1000,1000,1102468836,1545,1545,1545,1545
1059481038,1000,1000,1000,1000,1102568796,1544,1545,1545,1545
1059483537,1000,1000,1000,1000,1102668756,1544,1544,1544,1544
1059486036,1000,1000,1000,1000,1102768716,1544,1545,1545,1545
1059488535,1000,1000,1000,1000,1102868676,1545,1545,1545,1545
1059491034,1000,1000,1000,1000,1102968636,1544,1544,1544,1545
1059493533,1000,1000,1000,1000,1103068596,1544,1543,1544,1544
1059496032,1000,1000,1000,1000,1103168556,1545,1544,1544,1544
1059498531,1000,1000,1000,1000,1103268516,1544,1544,1544,1544
1059501030,1000,1000,1000,1000,1103368476,1545,1545,1545,1545
1059503529,1000,1000,1000,1000,1103468436,1544,1544,1544,1544
1059506028,1000,1000,1000,1000,1103568396,1544,1544,1544,1544
1059508527,1000,1000,1000,1000,1103668356,1545,1545,1545,1544
1059511026,1000,1000,1000,1000,1103768316,1545,1545,1545,1545
1059513525,1000,1000,1000,1000,1103868276,1546,1546,1546,1546
1059516024,1000,1000,1000,1000,1103968236,1544,1544,1544,1544
1059518523,1000,1000,1000,1000,1104068196,1544,1544,1544,1544
1059521022,1000,1000,1000,1000,1104168156,1545,1544,1544,1545
1059523521,1000,1000,1000,1000,1104268949,1545,1545,1545,1545
1059526020,1000,1000,1000,1000,1104368909,1545,1544,1545,1544
1059528519,1000,1000,1000,1000,1104468869,1543,1544,1544,1543
1059531018,1000,1000,1000,1000,1104568829,1544,1545,1544,1544
1059533517,1000,1000,1000,1000,1104668789,1544,1544,1544,1544
1059536016,1000,1000,1000,1000,1104768749,1545,1544,1544,1544
1059538515,1000,1000,1000,1000,1104868709,1543,1543,1543,1543
1059541014,1000,1000,1000,1000,1104968669,1544,1544,1543,1544
1059543513,1000,1000,1000,1000,1105068629,1544,1544,1544,1543
1059546012,1000,1000,1000,1000,1105168589,1544,1544,1544,1544
1059548511,1000,1000,1000,1000,1105268549,1544,1544,1544,1544
1059551010,1000,1000,1000,1000,1105368509,1544,1544,1544,1544
1059553509,1000,1000,1000,1000,1105468469,1544,1544,1544,1543
1059556008,1000,1000,1000,1000,1105568429,1544,1545,1544,1544
1059558507,1000,1000,1000,1000,1105668389,1544,1544,1544,1544
1059561006,1000,1000,1000,1000,1105768349,1544,1544,1544,1544
1059563505,1000,1000,1000,1000,1105868309,1544,1545,1544,1544
1059566004,1000,1000,1000,1000,1105968269,1544,1544,1544,1544
1059568503,1000,1000,1000,1000,1106068229,1543,1544,1544,1544
1059571002,1000,1000,1000,1000,1106168189,1544,1544,1544,1544
1059573501,1000,1000,1000,1000,1106268982,1544,1544,1544,1544
1059576000,1000,1000,1000,1000,1106368942,1545,1543,1544,1544
1059578499,1000,1000,1000,1000,1106468902,1545,1544,1545,1545
1059580998,1000,1000,1000,1000,1106568862,1544,1544,1544,1544
1059583497,1000,1000,1000,1000,1106668822,1544,1544,1544,1545
1059585996,1000,1000,1000,1000,1106768782,1544,1544,1544,1544
1059588495,1000,1000,1000,1000,1106868742,1544,1545,1545,1544
1059590994,1000,1000,1000,1000,1106968702,1545,1545,1545,1544
1059593493,1000,1000,1000,1000,1107068662,1545,1544,1544,1545
1059595992,1000,1000,1000,1000,1107168622,1544,1544,1544,1545
1059598491,1000,1000,1000,1000,1107268582,1545,1544,1544,1545
1059600990,1000,1000,1000,1000,1107368542,1545,1545,1545,1545
1059603489,1000,1000,1000,1000,1107468502,1543,1544,1544,1544
1059605988,1000,1000,1000,1000,1107568462,1544,1544,1544,1544
1059608487,1000,1000,1000,1000,1107668422,1544,1544,1544,1544
1059610986,1000,1000,1000,1000,1107768382,1545,1544,1544,1545
1059613485,1000,1000,1000,1000,1107868342,1544,1543,1543,1544
1059615984,1000,1000,1000,1000,1107968302,1545,1544,1544,1544
1059618483,1000,1000,1000,1000,1108068262,1544,1544,1544,1544
1059620982,1000,1000,1000,1000,1108168222,1544,1544,1543,1544
1059623481,1000,1000,1000,1000,1108268182,1544,1544,1544,1544
1059625980,1000,1000,1000,1000,1108368975,1544,1544,1544,1543
1059628479,1000,1000,1000,1000,1108468935,1544,1544,1544,1544
1059630978,1000,1000,1000,1000,1108568895,1544,1543,1543,1544
1059633477,1000,1000,1000,1000,1108668855,1544,1544,1544,1543
1059635976,1000,1000,1000,1000,1108768815,1544,1543,1543,1544
1059638475,1000,1000,1000,1000,1108868775,1544,1545,1544,1544
1059640974,1000,1000,1000,1000,1108968735,1544,1544,1544,1544
1059643473,1000,1000,1000,1000,1109068695,1544,1544,1544,1544
1059645972,1000,1000,1000,1000,1109168655,1540,1538,1540,1539
1059648471,1000,1000,1000,1000,1109268615,1350,1348,1388,1348
1059650970,1000,1000,1000,1000,1109368575,1244,1242,1311,1240
1059653469,1000,1000,1000,1000,1109468535,1209,1207,1287,1205
1059655968,1000,1000,1000,1000,1109568495,1188,1186,1273,1184
1059658467,1000,1000,1000,1000,1109668455,1154,1151,1251,1150
1059660966,1000,1000,1000,1000,1109768415,1155,1152,1252,1150
1059663465,1000,1000,1000,1000,1109868375,1155,1152,1249,1150
1059665964,1000,1000,1000,1000,1109968335,1155,1158,1246,1150
1059668463,1000,1000,1000,1000,1110068295,1152,1189,1226,1150
1059670962,1000,1000,1000,1000,1110168255,1153,1176,1235,1150
1059673461,1000,1000,1000,1000,1110268215,1154,1172,1237,1150
1059675960,1000,1000,1000,1000,1110368175,1154,1172,1237,1150
1059678459,1000,1000,1000,1000,1110468968,1154,1173,1236,1150
1059680958,1000,1000,1000,1000,1110568928,1154,1173,1236,1150
1059683457,1000,1000,1000,1000,1110668888,1154,1174,1235,1150
1059685956,1000,1000,1000,1000,1110768848,1161,1150,1241,1158
1059688455,1000,1000,1000,1000,1110868808,1153,1155,1248,1150
1059690954,1000,1000,1000,1000,1110968768,1154,1157,1247,1150
1059693453,1000,1000,1000,1000,1111068728,1154,1158,1246,1150
1059695952,1000,1000,1000,1000,1111168688,1154,1159,1246,1150
1059698451,1000,1000,1000,1000,1111268648,1149,1149,999,1149
1059700950,1000,1000,1000,1000,1111368608,1000,1000,1000,1000
1059703449,1000,1000,1000,1000,1111468568,1000,1000,1000,1000
1059705948,1000,1000,1000,1000,1111568528,1000,1000,1000,1000
1059708447,1000,1000,1000,1000,1111668488,1000,1000,1000,1000
1059710946,1000,1000,1000,1000,1111768448,1000,1000,1000,1000
1059713445,1000,1000,1000,1000,1111868408,1000,1000,1000,1000
1059715944,1000,1000,1000,1000,1111968368,1000,1000,1000,1000
1059718443,1000,1000,1000,1000,1112068328,1000,1000,1000,1000
1059720942,1000,1000,1000,1000,1112168288,1000,1000,1000,1000
1059723441,1000,1000,1000,1000,1112268248,1000,1000,1000,1000
1059725940,1000,1000,1000,1000,1112368208,1000,1000,1000,1000
1059728439,1000,1000,1000,1000,1112468168,1000,1000,1000,1000
1059730938,1000,1000,1000,1000,1112568961,1000,1000,1000,1000
1059733437,1000,1000,1000,1000,1112668921,1000,1000,1000,1000
1059735936,1000,1000,1000,1000,1112768881,1000,1000,1000,1000
1059738435,1000,1000,1000,1000,1112868841,1000,1000,1000,1000
1059740934,1000,1000,1000,1000,1112968801,1000,1000,1000,1000
1059743433,1000,1000,1000,1000,1113068761,1000,1000,1000,1000
1059745932,1000,1000,1000,1000,1113168721,1000,1000,1000,1000
1059748431,1000,1000,1000,1000,1113268681,1000,1000,1000,1000
1059750930,1000,1000,1000,1000,1113368641,1000,1000,1000,1000
1059753429,1000,1000,1000,1000,1113468601,1000,1000,1000,1000
1059755928,1000,1000,1000,1000,1113568561,1000,1000,1000,1000
1059758427,1000,1000,1000,1000,1113668521,1000,1000,1000,1000
1059760926,1000,1000,1000,1000,1113768481,1000,1000,1000,1000
1059763425,1000,1000,1000,1000,1113868441,1000,1000,1000,1000
1059765924,1000,1000,1000,1000,1113968401,1000,1000,1000,1000
1059768423,1000,1000,1000,1000,1114068361,1000,1000,1000,1000
1059770922,1000,1000,1000,1000,1114168321,1000,1000,1000,1000
1059773421,1000,1000,1000,1000,1114268281,1000,1000,1000,1000
1059775920,1000,1000,1000,1000,1114368241,1000,1000,1000,1000
1059778419,1000,1000,1000,1000,1114468201,1000,1000,1000,1000
1059780918,1000,1000,1000,1000,1114568161,1000,1000,1000,1000
1059783417,1000,1000,1000,1000,1114668954,1000,1000,1000,1000
1059785916,1000,1000,1000,1000,1114768914,1000,1000,1000,1000
1059788415,1000,1000,1000,1000,1114868874,1000,1000,1000,1000
1059790914,1000,1000,1000,1000,1114968834,1000,1000,1000,1000
1059793413,1000,1000,1000,1000,1115068794,1000,1000,1000,1000
1059795912,1000,1000,1000,1000,1115168754,1000,1000,1000,1000
1059798411,1000,1000,1000,1000,1115268714,1000,1000,1000,1000
1059800910,1000,1000,1000,1000,1115368674,1000,1000,1000,1000
1059803409,1000,1000,1000,1000,1115468634,1000,1000,1000,1000
1059805908,1000,1000,1000,1000,1115568594,1000,1000,1000,1000
1059808407,1000,1000,1000,1000,1115668554,1000,1000,1000,1000
1059810906,1000,1000,1000,1000,1115768514,1000,1000,1000,1000
1059813405,1000,1000,1000,1000,1115868474,1000,1000,1000,1000
1059815904,1000,1000,1000,1000,1115968434,1000,1000,1000,1000
1059818403,1000,1000,1000,1000,1116068394,1000,1000,1000,1000
1059820902,1000,1000,1000,1000,1116168354,1000,1000,1000,1000
1059823401,1000,1000,1000,1000,1116268314,1000,1000,1000,1000
1059825900,1000,1000,1000,1000,1116368274,1000,1000,1000,1000
1059828399,1000,1000,1000,1000,1116468234,1000,1000,1000,1000
1059830898,1000,1000,1000,1000,1116568194,1000,1000,1000,1000
1059833397,1000,1000,1000,1000,1116668154,1000,1000,1000,1000
1059835896,1000,1000,1000,1000,1116768947,1000,1000,1000,1000
1059838395,1000,1000,1000,1000,1116868907,1000,1000,1000,1000
1059840894,1000,1000,1000,1000,1116968867,1000,1000,1000,1000
1059843393,1000,1000,1000,1000,1117068827,1000,1000,1000,1000
1059845892,1000,1000,1000,1000,1117168787,1000,1000,1000,1000
1059848391,1000,1000,1000,1000,1117268747,1000,1000,1000,1000
1059850890,1000,1000,1000,1000,1117368707,1000,1000,1000,1000
1059853389,1000,1000,1000,1000,1117468667,1000,1000,1000,1000
1059855888,1000,1000,1000,1000,1117568627,1000,1000,1000,1000
1059858387,1000,1000,1000,1000,1117668587,1000,1000,1000,1000
1059860886,1000,1000,1000,1000,1117768547,1000,1000,1000,1000
1059863385,1000,1000,1000,1000,1117868507,1000,1000,1000,1000
1059865884,1000,1000,1000,1000,1117968467,1000,1000,1000,1000
1059868383,1000,1000,1000,1000,1118068427,1000,1000,1000,1000
1059870882,1000,1000,1000,1000,1118168387,1000,1000,1000,1000
1059873381,1000,1000,1000,1000,1118268347,1000,1000,1000,1000
1059875880,1000,1000,1000,1000,1118368307,1000,1000,1000,1000
1059878379,1000,1000,1000,1000,1118468267,1000,1000,1000,1000
1059880878,1000,1000,1000,1000,1118568227,1000,1000,1000,1000
1059883377,1000,1000,1000,1000,1118668187,1000,1000,1000,1000
1059885876,1000,1000,1000,1000,1118768980,1000,1000,1000,1000
1059888375,1000,1000,1000,1000,1118868940,1000,1000,1000,1000
1059890874,1000,1000,1000,1000,1118968900,1000,1000,1000,1000
1059893373,1000,1000,1000,1000,1119068860,1000,1000,1000,1000
1059895872,1000,1000,1000,1000,1119168820,1000,1000,1000,1000
1059898371,1000,1000,1000,1000,1119268780,1000,1000,1000,1000
1059900870,1000,1000,1000,1000,1119368740,1000,1000,1000,1000
1059903369,1000,1000,1000,1000,1119468700,1000,1000,1000,1000
1059905868,1000,1000,1000,1000,1119568660,1000,1000,1000,1000
1059908367,1000,1000,1000,1000,1119668620,1000,1000,1000,1000
1059910866,1000,1000,1000,1000,1119768580,1000,1000,1000,1000
1059913365,1000,1000,1000,1000,1119868540,1000,1000,1000,1000
1059915864,1000,1000,1000,1000,1119968500,1000,1000,1000,1000
1059918363,1000,1000,1000,1000,1120068460,1000,1000,1000,1000
1059920862,1000,1000,1000,1000,1120168420,1000,1000,1000,1000
1059923361,1000,1000,1000,1000,1120268380,1000,1000,1000,1000
1059925860,1000,1000,1000,1000,1120368340,1000,1000,1000,1000
1059928359,1000,1000,1000,1000,1120468300,1000,1000,1000,1000
1059930858,1000,1000,1000,1000,1120568260,1000,1000,1000,1000
1059933357,1000,1000,1000,1000,1120668220,1000,1000,1000,1000
1059935856,1000,1000,1000,1000,1120768180,1000,1000,1000,1000
1059938355,1000,1000,1000,1000,1120868973,1000,1000,1000,1000
1059940854,1000,1000,1000,1000,1120968933,1000,1000,1000,1000
1059943353,1000,1000,1000,1000,1121068893,1000,1000,1000,1000
1059945852,1000,1000,1000,1000,1121168853,1000,1000,1000,1000
1059948351,1000,1000,1000,1000,1121268813,1000,1000,1000,1000
1059950850,1000,1000,1000,1000,1121368773,1000,1000,1000,1000
1059953349,1000,1000,1000,1000,1121468733,1000,1000,1000,1000
1059955848,1000,1000,1000,1000,1121568693,1000,1000,1000,1000
1059958347,1000,1000,1000,1000,1121668653,1000,1000,1000,1000
1059960846,1000,1000,1000,1000,1121768613,1000,1000,1000,1000
1059963345,1000,1000,1000,1000,1121868573,1000,1000,1000,1000
1059965844,1000,1000,1000,1000,1121968533,1000,1000,1000,1000
1059968343,1000,1000,1000,1000,1122068493,1000,1000,1000,1000
1059970842,1000,1000,1000,1000,1122168453,1000,1000,1000,1000
1059973341,1000,1000,1000,1000,1122268413,1000,1000,1000,1000
1059975840,1000,1000,1000,1000,1122368373,1000,1000,1000,1000
1059978339,1000,1000,1000,1000,1122468333,1000,1000,1000,1000
1059980838,1000,1000,1000,1000,1122568293,1000,1000,1000,1000
1059983337,1000,1000,1000,1000,1122668253,1000,1000,1000,1000
1059985836,1000,1000,1000,1000,1122768213,1000,1000,1000,1000
1059988335,1000,1000,1000,1000,1122868173,1000,1000,1000,1000
1059990834,1000,1000,1000,1000,1122968966,1000,1000,1000,1000
1059993333,1000,1000,1000,1000,1123068926,1000,1000,1000,1000
1059995832,1000,1000,1000,1000,1123168886,1000,1000,1000,1000
1059998331,1000,1000,1000,1000,1123268846,1000,1000,1000,1000
1060000830,1000,1000,1000,1000,1123368806,1000,1000,1000,1000
1060003329,1000,1000,1000,1000,1123468766,1000,1000,1000,1000
1060005828,1000,1000,1000,1000,1123568726,1000,1000,1000,1000
1060008327,1000,1000,1000,1000,1123668686,1000,1000,1000,1000
1060010826,1000,1000,1000,1000,1123768646,1000,1000,1000,1000
1060013325,1000,1000,1000,1000,1123868606,1000,1000,1000,1000
1060015824,1000,1000,1000,1000,1123968566,1000,1000,1000,1000
1060018323,1000,1000,1000,1000,1124068526,1000,1000,1000,1000
1060020822,1000,1000,1000,1000,1124168486,1000,1000,1000,1000
1060023321,1000,1000,1000,1000,1124268446,1000,1000,1000,1000
1060025820,1000,1000,1000,1000,1124368406,1000,1000,1000,1000
1060028319,1000,1000,1000,1000,1124468366,1000,1000,1000,1000
1060030818,1000,1000,1000,1000,1124568326,1000,1000,1000,1000
1060033317,1000,1000,1000,1000,1124668286,1000,1000,1000,1000
1060035816,1000,1000,1000,1000,1124768246,1000,1000,1000,1000
1060038315,1000,1000,1000,1000,1124868206,1000,1000,1000,1000
1060040814,1000,1000,1000,1000,1124968166,1000,1000,1000,1000
1060043313,1000,1000,1000,1000,1125068959,1000,1000,1000,1000
1060045812,1000,1000,1000,1000,1125168919,1000,1000,1000,1000
1060048311,1000,1000,1000,1000,1125268879,1000,1000,1000,1000
1060050810,1000,1000,1000,1000,1125368839,1000,1000,1000,1000
1060053309,1000,1000,1000,1000,1125468799,1000,1000,1000,1000
1060055808,1000,1000,1000,1000,1125568759,1000,1000,1000,1000
1060058307,1000,1000,1000,1000,1125668719,1000,1000,1000,1000
1060060806,1000,1000,1000,1000,1125768679,1000,1000,1000,1000
1060063305,1000,1000,1000,1000,1125868639,1000,1000,1000,1000
1060065804,1000,1000,1000,1000,1125968599,1000,1000,1000,1000
1060068303,1000,1000,1000,1000,1126068559,1000,1000,1000,1000
1060070802,1000,1000,1000,1000,1126168519,1000,1000,1000,1000
1060073301,1000,1000,1000,1000,,,,,
1060075800,1000,1000,1000,1000,,,,,
1060078299,1000,1000,1000,1000,,,,,
1060080798,1000,1000,1000,1000,,,,,
1060083297,1000,1000,1000,1000,,,,,
1060085796,1000,1000,1000,1000,,,,,
1060088295,1000,1000,1000,1000,,,,,
1060090794,1000,1000,1000,1000,,,,,
1060093293,1000,1000,1000,1000,,,,,
1060095792,1000,1000,1000,1000,,,,,
1060098291,1000,1000,1000,1000,,,,,
1060100790,1000,1000,1000,1000,,,,,
1060103289,1000,1000,1000,1000,,,,,
1060105788,1000,1000,1000,1000,,,,,
1060108287,1000,1000,1000,1000,,,,,
1060110786,1000,1000,1000,1000,,,,,
1060113285,1000,1000,1000,1000,,,,,
1060115784,1000,1000,1000,1000,,,,,
1060118283,1000,1000,1000,1000,,,,,
1060120782,1000,1000,1000,1000,,,,,
1060123281,1000,1000,1000,1000,,,,,
1060125780,1000,1000,1000,1000,,,,,
1060128279,1000,1000,1000,1000,,,,,
1060130778,1000,1000,1000,1000,,,,,
1060133277,1000,1000,1000,1000,,,,,
1060135776,1000,1000,1000,1000,,,,,
1060138275,1000,1000,1000,1000,,,,,
1060140774,1000,1000,1000,1000,,,,,
1060143273,1000,1000,1000,1000,,,,,
1060145772,1000,1000,1000,1000,,,,,
1060148271,1000,1000,1000,1000,,,,,
1060150770,1000,1000,1000,1000,,,,,
1060153269,1000,1000,1000,1000,,,,,
1060155768,1000,1000,1000,1000,,,,,
1060158267,1000,1000,1000,1000,,,,,
1060160766,1000,1000,1000,1000,,,,,
1060163265,1000,1000,1000,1000,,,,,
1060165764,1000,1000,1000,1000,,,,,
1060168263,1000,1000,1000,1000,,,,,
1060170762,1000,1000,1000,1000,,,,,
1060173261,1000,1000,1000,1000,,,,,
1060175760,1000,1000,1000,1000,,,,,
1060178259,1000,1000,1000,1000,,,,,
1060180758,1000,1000,1000,1000,,,,,
1060183257,1000,1000,1000,1000,,,,,
1060185756,1000,1000,1000,1000,,,,,
1060188255,1000,1000,1000,1000,,,,,
1060190754,1000,1000,1000,1000,,,,,
1060193253,1000,1000,1000,1000,,,,,
1060195752,1000,1000,1000,1000,,,,,
1060198251,1000,1000,1000,1000,,,,,
1060200750,1000,1000,1000,1000,,,,,
1060203249,1000,1000,1000,1000,,,,,
1060205748,1000,1000,1000,1000,,,,,
1060208247,1000,1000,1000,1000,,,,,
1060210746,1000,1000,1000,1000,,,,,
1060213245,1000,1000,1000,1000,,,,,
1060215744,1000,1000,1000,1000,,,,,
1060218243,1000,1000,1000,1000,,,,,
1060220742,1000,1000,1000,1000,,,,,
1060223241,1000,1000,1000,1000,,,,,
1060225740,1000,1000,1000,1000,,,,,
1060228239,1000,1000,1000,1000,,,,,
1060230738,1000,1000,1000,1000,,,,,
1060233237,1000,1000,1000,1000,,,,,
1060235736,1000,1000,1000,1000,,,,,
1060238235,1000,1000,1000,1000,,,,,
1060240734,1000,1000,1000,1000,,,,,
1060243233,1000,1000,1000,1000,,,,,
1060245732,1000,1000,1000,1000,,,,,
1060248231,1000,1000,1000,1000,,,,,
1060250730,1000,1000,1000,1000,,,,,
1060253229,1000,1000,1000,1000,,,,,
1060255728,1000,1000,1000,1000,,,,,
1060258227,1000,1000,1000,1000,,,,,
1060260726,1000,1000,1000,1000,,,,,
1060263225,1000,1000,1000,1000,,,,,
1060265724,1000,1000,1000,1000,,,,,
1060268223,1000,1000,1000,1000,,,,,
1060270722,1000,1000,1000,1000,,,,,
1060273221,1000,1000,1000,1000,,,,,
1060275720,1000,1000,1000,1000,,,,,
1060278219,1000,1000,1000,1000,,,,,
1060280718,1000,1000,1000,1000,,,,,
1060283217,1000,1000,1000,1000,,,,,
1060285716,1000,1000,1000,1000,,,,,
1060288215,1000,1000,1000,1000,,,,,
1060290714,1000,1000,1000,1000,,,,,
1060293213,1000,1000,1000,1000,,,,,
1060295712,1000,1000,1000,1000,,,,,
1060298211,1000,1000,1000,1000,,,,,
1060300710,1000,1000,1000,1000,,,,,
1060303209,1000,1000,1000,1000,,,,,
1060305708,1000,1000,1000,1000,,,,,
1060308207,1000,1000,1000,1000,,,,,
1060310706,1000,1000,1000,1000,,,,,
1060313205,1000,1000,1000,1000,,,,,
1060315704,1000,1000,1000,1000,,,,,
1060318203,1000,1000,1000,1000,,,,,
1060320702,1000,1000,1000,1000,,,,,
1060323201,1000,1000,1000,1000,,,,,
1060325700,1000,1000,1000,1000,,,,,
1060328199,1000,1000,1000,1000,,,,,
1060330698,1000,1000,1000,1000,,,,,
1060333197,1000,1000,1000,1000,,,,,
1060335696,1000,1000,1000,1000,,,,,
1060338195,1000,1000,1000,1000,,,,,
1060340694,1000,1000,1000,1000,,,,,
1060343193,1000,1000,1000,1000,,,,,
1060345692,1000,1000,1000,1000,,,,,
1060348191,1000,1000,1000,1000,,,,,
1060350690,1000,1000,1000,1000,,,,,
1060353189,1000,1000,1000,1000,,,,,
1060355688,1000,1000,1000,1000,,,,,
1060358187,1000,1000,1000,1000,,,,,
1060360686,1000,1000,1000,1000,,,,,
1060363185,1000,1000,1000,1000,,,,,
1060365684,1000,1000,1000,1000,,,,,
1060368183,1000,1000,1000,1000,,,,,
1060370682,1000,1000,1000,1000,,,,,
1060373181,1000,1000,1000,1000,,,,,
1060375680,1000,1000,1000,1000,,,,,
1060378179,1000,1000,1000,1000,,,,,
1060380678,1000,1000,1000,1000,,,,,
1060383177,1000,1000,1000,1000,,,,,
1060385676,1001,1001,1001,1001,,,,,
1060388175,1002,1002,1002,1002,,,,,
1060390674,1003,1003,1003,1003,,,,,
1060393173,1003,1003,1003,1003,,,,,
1060395672,1004,1004,1004,1004,,,,,
1060398171,1005,1005,1005,1005,,,,,
1060400670,1006,1006,1006,1006,,,,,
1060403169,1006,1006,1006,1006,,,,,
1060405668,1007,1007,1007,1007,,,,,
1060408167,1008,1008,1008,1008,,,,,
1060410666,1009,1009,1009,1009,,,,,
1060413165,1009,1009,1009,1009,,,,,
1060415664,1010,1010,1010,1010,,,,,
1060418163,1011,1011,1011,1011,,,,,
1060420662,1012,1012,1012,1012,,,,,
1060423161,1012,1012,1012,1012,,,,,
1060425660,1013,1013,1013,1013,,,,,
1060428159,1014,1014,1014,1014,,,,,
1060430658,1015,1015,1015,1015,,,,,
1060433157,1015,1015,1015,1015,,,,,
1060435656,1016,1016,1016,1016,,,,,
1060438155,1017,1017,1017,1017,,,,,
1060440654,1018,1018,1018,1018,,,,,
1060443986,1018,1018,1018,1018,,,,,
1060446485,1019,1019,1019,1019,,,,,
1060448984,1020,1020,1020,1020,,,,,
1060451483,1021,1021,1021,1021,,,,,
1060453982,1021,1021,1021,1021,,,,,
1060456481,1022,1022,1022,1022,,,,,
1060458980,1023,1023,1023,1023,,,,,
1060461479,1024,1024,1024,1024,,,,,
1060463978,1024,1024,1024,1024,,,,,
1060466477,1025,1025,1025,1025,,,,,
1060468976,1026,1026,1026,1026,,,,,
1060471475,1027,1027,1027,1027,,,,,
1060473974,1027,1027,1027,1027,,,,,
1060476473,1028,1028,1028,1028,,,,,
1060478972,1029,1029,1029,1029,,,,,
1060481471,1030,1030,1030,1030,,,,,
1060483970,1030,1030,1030,1030,,,,,
1060486469,1031,1031,1031,1031,,,,,
1060488968,1032,1032,1032,1032,,,,,
1060491467,1033,1033,1033,1033,,,,,
1060493966,1033,1033,1033,1033,,,,,
1060496465,1034,1034,1034,1034,,,,,
1060498964,1035,1035,1035,1035,,,,,
1060501463,1036,1036,1036,1036,,,,,
1060503962,1036,1036,1036,1036,,,,,
1060506461,1037,1037,1037,1037,,,,,
1060508960,1038,1038,1038,1038,,,,,
1060511459,1039,1039,1039,1039,,,,,
1060513958,1039,1039,1039,1039,,,,,
1060516457,1040,1040,1040,1040,,,,,
1060518956,1041,1041,1041,1041,,,,,
1060521455,1042,1042,1042,1042,,,,,
1060523954,1042,1042,1042,1042,,,,,
1060526453,1043,1043,1043,1043,,,,,
1060528952,1044,1044,1044,1044,,,,,
1060531451,1045,1045,1045,1045,,,,,
1060533950,1045,1045,1045,1045,,,,,
1060536449,1046,1046,1046,1046,,,,,
1060538948,1047,1047,1047,1047,,,,,
1060541447,1048,1048,1048,1048,,,,,
1060543946,1048,1048,1048,1048,,,,,
1060546445,1049,1049,1049,1049,,,,,
1060548944,1050,1050,1050,1050,,,,,
1060551443,1051,1051,1051,1051,,,,,
1060553942,1051,1051,1051,1051,,,,,
1060556441,1052,1052,1052,1052,,,,,
1060558940,1053,1053,1053,1053,,,,,
1060561439,1054,1054,1054,1054,,,,,
1060563938,1054,1054,1054,1054,,,,,
1060566437,1055,1055,1055,1055,,,,,
1060568936,1056,1056,1056,1056,,,,,
1060571435,1057,1057,1057,1057,,,,,
1060573934,1057,1057,1057,1057,,,,,
1060576433,1058,1058,1058,1058,,,,,
1060578932,1059,1059,1059,1059,,,,,
1060581431,1060,1060,1060,1060,,,,,
1060583930,1060,1060,1060,1060,,,,,
1060586429,1061,1061,1061,1061,,,,,
1060588928,1062,1062,1062,1062,,,,,
1060591427,1063,1063,1063,1063,,,,,
1060593926,1063,1063,1063,1063,,,,,
1060596425,1064,1064,1064,1064,,,,,
1060598924,1065,1065,1065,1065,,,,,
1060601423,1066,1066,1066,1066,,,,,
1060603922,1066,1066,1066,1066,,,,,
1060606421,1067,1067,1067,1067,,,,,
1060608920,1068,1068,1068,1068,,,,,
1060611419,1069,1069,1069,1069,,,,,
1060613918,1069,1069,1069,1069,,,,,
1060616417,1070,1070,1070,1070,,,,,
1060618916,1071,1071,1071,1071,,,,,
1060621415,1072,1072,1072,1072,,,,,
1060623914,1072,1072,1072,1072,,,,,
1060626413,1073,1073,1073,1073,,,,,
1060628912,1074,1074,1074,1074,,,,,
1060631411,1075,1075,1075,1075,,,,,
1060633910,1075,1075,1075,1075,,,,,
1060636409,1076,1076,1076,1076,,,,,
1060638908,1077,1077,1077,1077,,,,,
1060641407,1078,1078,1078,1078,,,,,
1060643906,1078,1078,1078,1078,,,,,
1060646405,1079,1079,1079,1079,,,,,
1060648904,1080,1080,1080,1080,,,,,
1060651403,1081,1081,1081,1081,,,,,
1060653902,1081,1081,1081,1081,,,,,
1060656401,1082,1082,1082,1082,,,,,
1060658900,1083,1083,1083,1083,,,,,
1060661399,1084,1084,1084,1084,,,,,
1060663898,1084,1084,1084,1084,,,,,
1060666397,1085,1085,1085,1085,,,,,
1060668896,1086,1086,1086,1086,,,,,
1060671395,1087,1087,1087,1087,,,,,
1060673894,1087,1087,1087,1087,,,,,
1060676393,1088,1088,1088,1088,,,,,
1060678892,1089,1089,1089,1089,,,,,
1060681391,1090,1090,1090,1090,,,,,
1060683890,1090,1090,1090,1090,,,,,
1060686389,1091,1091,1091,1091,,,,,
1060688888,1092,1092,1092,1092,,,,,
1060691387,1093,1093,1093,1093,,,,,
1060693886,1093,1093,1093,1093,,,,,
1060696385,1094,1094,1094,1094,,,,,
1060698884,1095,1095,1095,1095,,,,,
1060701383,1096,1096,1096,1096,,,,,
1060703882,1096,1096,1096,1096,,,,,
1060706381,1097,1097,1097,1097,,,,,
1060708880,1098,1098,1098,1098,,,,,
1060711379,1099,1099,1099,1099,,,,,
1060713878,1099,1099,1099,1099,,,,,
1060716377,1100,1100,1100,1100,,,,,
1060718876,1101,1101,1101,1101,,,,,
1060721375,1101,1101,1101,1101,,,,,
1060723874,1102,1102,1102,1102,,,,,
1060726373,1103,1103,1103,1103,,,,,
1060728872,1104,1104,1104,1104,,,,,
1060731371,1104,1104,1104,1104,,,,,
1060733870,1105,1105,1105,1105,,,,,
1060736369,1106,1106,1106,1106,,,,,
1060738868,1107,1107,1107,1107,,,,,
1060741367,1107,1107,1107,1107,,,,,
1060743866,1108,1108,1108,1108,,,,,
1060746365,1109,1109,1109,1109,,,,,
1060748864,1110,1110,1110,1110,,,,,
1060751363,1110,1110,1110,1110,,,,,
1060753862,1111,1111,1111,1111,,,,,
1060756361,1112,1112,1112,1112,,,,,
1060758860,1113,1113,1113,1113,,,,,
1060761359,1113,1113,1113,1113,,,,,
1060763858,1114,1114,1114,1114,,,,,
1060766357,1115,1115,1115,1115,,,,,
1060768856,1116,1116,1116,1116,,,,,
1060771355,1116,1116,1116,1116,,,,,
1060773854,1117,1117,1117,1117,,,,,
1060776353,1118,1118,1118,1118,,,,,
1060778852,1119,1119,1119,1119,,,,,
1060781351,1119,1119,1119,1119,,,,,
1060783850,1120,1120,1120,1120,,,,,
1060786349,1121,1121,1121,1121,,,,,
1060788848,1122,1122,1122,1122,,,,,
1060791347,1122,1122,1122,1122,,,,,
1060793846,1123,1123,1123,1123,,,,,
1060796345,1124,1124,1124,1124,,,,,
1060798844,1125,1125,1125,1125,,,,,
1060801343,1125,1125,1125,1125,,,,,
1060803842,1126,1126,1126,1126,,,,,
1060806341,1127,1127,1127,1127,,,,,
1060808840,1128,1128,1128,1128,,,,,
1060811339,1128,1128,1128,1128,,,,,
1060813838,1129,1129,1129,1129,,,,,
1060816337,1130,1130,1130,1130,,,,,
1060818836,1131,1131,1131,1131,,,,,
1060821335,1131,1131,1131,1131,,,,,
1060823834,1132,1132,1132,1132,,,,,
1060826333,1133,1133,1133,1133,,,,,
1060828832,1134,1134,1134,1134,,,,,
1060831331,1134,1134,1134,1134,,,,,
1060833830,1135,1135,1135,1135,,,,,
1060836329,1136,1136,1136,1136,,,,,
1060838828,1137,1137,1137,1137,,,,,
1060841327,1137,1137,1137,1137,,,,,
1060843826,1138,1138,1138,1138,,,,,
1060846325,1139,1139,1139,1139,,,,,
1060848824,1140,1140,1140,1140,,,,,
1060851323,1140,1140,1140,1140,,,,,
1060853822,1141,1141,1141,1141,,,,,
1060856321,1142,1142,1142,1142,,,,,
1060858820,1143,1143,1143,1143,,,,,
1060861319,1143,1143,1143,1143,,,,,
1060863818,1144,1144,1144,1144,,,,,
1060866317,1145,1145,1145,1145,,,,,
1060868816,1146,1146,1146,1146,,,,,
1060871315,1146,1146,1146,1146,,,,,
1060873814,1147,1147,1147,1147,,,,,
1060876313,1148,1148,1148,1148,,,,,
1060878812,1149,1149,1149,1149,,,,,
1060881311,1149,1149,1149,1149,,,,,
1060883810,1150,1150,1150,1150,,,,,
1060886309,1151,1166,1164,1150,,,,,
1060888808,1159,1174,1172,1158,,,,,
1060891307,1167,1182,1180,1166,,,,,
1060893806,1175,1190,1187,1173,,,,,
1060896305,1183,1197,1195,1181,,,,,
1060898804,1190,1204,1202,1189,,,,,
1060901303,1198,1212,1210,1196,,,,,
1060903802,1205,1219,1217,1204,,,,,
1060906301,1212,1226,1224,1211,,,,,
1060908800,1219,1233,1231,1218,,,,,
1060911299,1226,1240,1238,1225,,,,,
1060913798,1233,1247,1244,1232,,,,,
1060916297,1240,1253,1251,1239,,,,,
1060918796,1247,1260,1258,1245,,,,,
1060921295,1253,1266,1264,1252,,,,,
1060923794,1260,1273,1271,1259,,,,,
1060926293,1266,1279,1277,1265,,,,,
1060928792,1273,1285,1283,1271,,,,,
1060931291,1279,1291,1289,1278,,,,,
1060933790,1285,1297,1296,1284,,,,,
1060936289,1291,1304,1302,1290,,,,,
1060938788,1297,1310,1308,1296,,,,,
1060941287,1303,1315,1314,1302,,,,,
1060943786,1309,1321,1319,1308,,,,,
1060946285,1315,1327,1325,1314,,,,,
1060948784,1321,1333,1331,1320,,,,,
1060951283,1327,1338,1337,1326,,,,,
1060953782,1333,1344,1342,1331,,,,,
1060956281,1338,1350,1348,1337,,,,,
1060958780,1344,1355,1353,1343,,,,,
1060961279,1349,1361,1359,1348,,,,,
1060963778,1355,1366,1364,1354,,,,,
1060966277,1360,1371,1370,1359,,,,,
1060968776,1366,1377,1375,1365,,,,,
1060971275,1371,1382,1380,1370,,,,,
1060973774,1377,1387,1385,1375,,,,,
1060976273,1382,1392,1391,1381,,,,,
1060978772,1387,1398,1396,1386,,,,,
1060981271,1392,1403,1401,1391,,,,,
1060983770,1397,1408,1406,1396,,,,,
1060986269,1402,1413,1411,1401,,,,,
1060988768,1407,1418,1416,1406,,,,,
1060991267,1412,1423,1421,1411,,,,,
1060993766,1417,1428,1426,1416,,,,,
1060996265,1422,1433,1431,1421,,,,,
1060998764,1427,1437,1436,1426,,,,,
1061001263,1432,1442,1441,1431,,,,,
1061003762,1437,1447,1445,1436,,,,,
1061006261,1442,1452,1450,1441,,,,,
1061008760,1447,1456,1455,1446,,,,,
1061011259,1451,1461,1460,1450,,,,,
1061013758,1456,1466,1464,1455,,,,,
1061016257,1461,1470,1469,1460,,,,,
1061018756,1465,1475,1473,1464,,,,,
1061021255,1470,1480,1478,1469,,,,,
1061023754,1475,1484,1483,1474,,,,,
1061026253,1479,1489,1487,1478,,,,,
1061028752,1484,1493,1492,1483,,,,,
1061031251,1488,1498,1496,1487,,,,,
1061033750,1493,1502,1501,1492,,,,,
1061036249,1497,1507,1505,1496,,,,,
1061038748,1501,1511,1509,1500,,,,,
1061041247,1506,1515,1514,1505,,,,,
1061043746,1510,1520,1518,1509,,,,,
1061046245,1514,1524,1522,1514,,,,,
1061048744,1519,1528,1527,1518,,,,,
1061051243,1523,1532,1531,1522,,,,,
1061053742,1527,1537,1535,1526,,,,,
1061056241,1532,1541,1539,1531,,,,,
1061058740,1536,1545,1544,1535,,,,,
1061061239,1540,1549,1548,1539,,,,,
1061063738,1544,1553,1552,1543,,,,,
1061066237,1548,1558,1556,1548,,,,,
1061068736,1552,1562,1560,1552,,,,,
1061071235,1557,1566,1564,1556,,,,,
1061073734,1561,1570,1568,1560,,,,,
1061076233,1565,1574,1572,1564,,,,,
1061078732,1569,1578,1576,1568,,,,,
1061081231,1573,1582,1581,1572,,,,,
1061083730,1577,1586,1585,1576,,,,,
1061086229,1581,1590,1588,1580,,,,,
1061088728,1585,1594,1592,1584,,,,,
1061091227,1589,1598,1596,1588,,,,,
1061093726,1593,1602,1600,1592,,,,,
1061096225,1596,1606,1604,1596,,,,,
1061098724,1600,1610,1608,1600,,,,,
1061101223,1604,1613,1612,1604,,,,,
1061103722,1608,1617,1616,1607,,,,,
1061106221,1612,1621,1620,1611,,,,,
1061108720,1616,1625,1623,1615,,,,,
1061111219,1620,1629,1627,1619,,,,,
1061113718,1623,1633,1631,1623,,,,,
1061116217,1627,1636,1635,1627,,,,,
1061118716,1631,1640,1639,1630,,,,,
1061121215,1635,1644,1642,1634,,,,,
1061123714,1638,1648,1646,1638,,,,,
1061126213,1642,1651,1650,1641,,,,,
1061128712,1646,1655,1653,1645,,,,,
1061131211,1650,1659,1657,1649,,,,,
1061133710,1653,1662,1661,1653,,,,,
1061136209,1657,1666,1664,1656,,,,,
1061138708,1661,1669,1668,1660,,,,,
1061141207,1664,1673,1672,1664,,,,,
1061143706,1668,1677,1675,1667,,,,,
1061146205,1671,1680,1679,1671,,,,,
1061148704,1675,1684,1682,1674,,,,,
1061151203,1679,1687,1686,1678,,,,,
1061153702,1682,1691,1689,1681,,,,,
1061156201,1686,1694,1693,1685,,,,,
1061158700,1689,1698,1696,1689,,,,,
1061161199,1693,1701,1700,1692,,,,,
1061163698,1696,1705,1703,1696,,,,,
1061166197,1700,1708,1707,1699,,,,,
1061168696,1703,1712,1710,1703,,,,,
1061171195,1707,1715,1714,1706,,,,,
1061173694,1710,1719,1717,1710,,,,,
1061176193,1714,1722,1721,1713,,,,,
1061178692,1717,1726,1724,1716,,,,,
1061181191,1720,1729,1728,1720,,,,,
1061183690,1724,1732,1731,1723,,,,,
1061186189,1727,1736,1734,1727,,,,,
1061188688,1730,1739,1738,1730,,,,,
1061191187,1734,1743,1741,1733,,,,,
1061193686,1737,1746,1744,1737,,,,,
1061196185,1741,1749,1748,1740,,,,,
1061198684,1744,1753,1751,1743,,,,,
1061201183,1747,1756,1754,1747,,,,,
1061203682,1751,1759,1758,1750,,,,,
1061206181,1754,1763,1761,1753,,,,,
1061208680,1757,1766,1764,1757,,,,,
1061211179,1760,1769,1768,1760,,,,,
1061213678,1764,1772,1771,1763,,,,,
1061216177,1767,1776,1774,1766,,,,,
1061218676,1770,1779,1777,1770,,,,,
1061221175,1773,1782,1781,1773,,,,,
1061223674,1777,1785,1784,1776,,,,,
1061226173,1780,1789,1787,1779,,,,,
1061228672,1783,1792,1790,1783,,,,,
1061231171,1786,1795,1793,1786,,,,,
1061233670,1789,1798,1797,1789,,,,,
1061236169,1793,1801,1800,1792,,,,,
1061238668,1796,1804,1803,1795,,,,,
1061241167,1799,1808,1806,1798,,,,,
1061243666,1802,1811,1809,1802,,,,,
1061246165,1805,1814,1812,1805,,,,,
1061248664,1808,1817,1815,1808,,,,,
1061251163,1811,1820,1819,1811,,,,,
1061253662,1815,1823,1822,1814,,,,,
1061256161,1818,1826,1825,1817,,,,,
1061258660,1821,1829,1828,1820,,,,,
1061261159,1824,1832,1831,1823,,,,,
1061263658,1827,1836,1834,1826,,,,,
1061266157,1830,1839,1837,1830,,,,,
1061268656,1833,1842,1840,1833,,,,,
1061271155,1836,1845,1843,1836,,,,,
1061273654,1839,1848,1846,1839,,,,,
1061276153,1842,1851,1849,1842,,,,,
1061278652,1842,1850,1849,1841,,,,,
1061281151,1840,1849,1848,1840,,,,,
1061283650,1839,1848,1846,1839,,,,,
1061286149,1838,1846,1845,1837,,,,,
1061288648,1837,1845,1844,1836,,,,,
1061291147,1835,1844,1843,1835,,,,,
1061293646,1834,1843,1842,1834,,,,,
1061296145,1833,1842,1840,1833,,,,,
1061298644,1832,1841,1839,1831,,,,,
1061301143,1831,1840,1839,1831,,,,,
1061303642,1830,1839,1838,1830,,,,,
1061306141,1830,1838,1837,1829,,,,,
1061308640,1829,1838,1836,1828,,,,,
1061311139,1828,1837,1836,1827,,,,,
1061313638,1828,1836,1835,1827,,,,,
