timestamp,TimeUS,C1,C2,C3,C4,C5,C6,C7,C8,C9,C10,C11,C12,C13,C14
1681118212.79999995,46628841,1000,1000,1000,1000,0,0,0,0,0,0,0,0,0,0
1681118212.89996004,46728801,1000,1000,1000,1000,0,0,0,0,0,0,0,0,0,0
1681118212.99992013,46828761,1000,1000,1000,1000,0,0,0,0,0,0,0,0,0,0
1681118213.09987998,46928721,1000,1000,1000,1000,0,0,0,0,0,0,0,0,0,0
1681118213.19984007,47028681,1000,1000,1000,1000,0,0,0,0,0,0,0,0,0,0
1681118213.29979992,47128641,1000,1000,1000,1000,0,0,0,0,0,0,0,0,0,0
1681118213.39976001,47228601,1000,1000,1000,1000,0,0,0,0,0,0,0,0,0,0
1681118213.49972010,47328561,1000,1000,1000,1000,0,0,0,0,0,0,0,0,0,0
1681118213.59967995,47428521,1000,1000,1000,1000,0,0,0,0,0,0,0,0,0,0
1681118213.69964004,47528481,1000,1000,1000,1000,0,0,0,0,0,0,0,0,0,0
1681118213.79960012,47628441,1000,1000,1000,1000,0,0,0,0,0,0,0,0,0,0
1681118213.89955997,47728401,1000,1000,1000,1000,0,0,0,0,0,0,0,0,0,0
1681118213.99952006,47828361,1000,1000,1000,1000,0,0,0,0,0,0,0,0,0,0
1681118214.09947991,47928321,1000,1000,1000,1000,0,0,0,0,0,0,0,0,0,0
1681118214.19944000,48028281,1000,1000,1000,1000,0,0,0,0,0,0,0,0,0,0
1681118214.29940009,48128241,1000,1000,1000,1000,0,0,0,0,0,0,0,0,0,0
1681118214.39935994,48228201,1000,1000,1000,1000,0,0,0,0,0,0,0,0,0,0
1681118214.49932003,48328161,1000,1000,1000,1000,0,0,0,0,0,0,0,0,0,0
1681118214.60011292,48428954,1000,1000,1000,1000,0,0,0,0,0,0,0,0,0,0
1681118214.70007300,48528914,1000,1000,1000,1000,0,0,0,0,0,0,0,0,0,0
1681118214.80003309,48628874,1003,1003,1003,1003,0,0,0,0,0,0,0,0,0,0
1681118214.89999294,48728834,1033,1033,1033,1033,0,0,0,0,0,0,0,0,0,0
1681118214.99995303,48828794,1063,1063,1063,1063,0,0,0,0,0,0,0,0,0,0
1681118215.09991312,48928754,1093,1093,1093,1093,0,0,0,0,0,0,0,0,0,0
1681118215.19987297,49028714,1122,1122,1122,1122,0,0,0,0,0,0,0,0,0,0
1681118215.29983306,49128674,1177,1170,1170,1177,0,0,0,0,0,0,0,0,0,0
1681118215.39979315,49228634,1419,1415,1415,1419,0,0,0,0,0,0,0,0,0,0
1681118215.49975300,49328594,1595,1591,1591,1595,0,0,0,0,0,0,0,0,0,0
1681118215.59971309,49428554,1740,1736,1736,1740,0,0,0,0,0,0,0,0,0,0
1681118215.69967294,49528514,1866,1862,1862,1866,0,0,0,0,0,0,0,0,0,0
1681118215.79963303,49628474,1891,1887,1888,1890,0,0,0,0,0,0,0,0,0,0
1681118215.89959311,49728434,1798,1797,1797,1798,0,0,0,0,0,0,0,0,0,0
1681118215.99955297,49828394,1681,1682,1682,1682,0,0,0,0,0,0,0,0,0,0
1681118216.09951305,49928354,1631,1633,1633,1631,0,0,0,0,0,0,0,0,0,0
1681118216.19947314,50028314,1629,1630,1630,1629,0,0,0,0,0,0,0,0,0,0
1681118216.29943299,50128274,1633,1633,1628,1637,0,0,0,0,0,0,0,0,0,0
1681118216.39939308,50228234,1632,1634,1627,1639,0,0,0,0,0,0,0,0,0,0
1681118216.49935293,50328194,1626,1628,1624,1630,0,0,0,0,0,0,0,0,0,0
1681118216.59931302,50428154,1621,1622,1622,1621,0,0,0,0,0,0,0,0,0,0
1681118216.70010614,50528947,1617,1617,1620,1614,0,0,0,0,0,0,0,0,0,0
1681118216.80006599,50628907,1617,1616,1621,1612,0,0,0,0,0,0,0,0,0,0
1681118216.90002608,50728867,1618,1617,1621,1614,0,0,0,0,0,0,0,0,0,0
1681118216.99998593,50828827,1619,1619,1621,1616,0,0,0,0,0,0,0,0,0,0
1681118217.09994602,50928787,1589,1589,1598,1580,0,0,0,0,0,0,0,0,0,0
1681118217.19990611,51028747,1573,1574,1580,1567,0,0,0,0,0,0,0,0,0,0
1681118217.29986596,51128707,1563,1562,1563,1563,0,0,0,0,0,0,0,0,0,0
1681118217.39982605,51228667,1553,1554,1549,1558,0,0,0,0,0,0,0,0,0,0
1681118217.49978614,51328627,1545,1545,1536,1555,0,0,0,0,0,0,0,0,0,0
1681118217.59974599,51428587,1539,1539,1529,1549,0,0,0,0,0,0,0,0,0,0
1681118217.69970608,51528547,1533,1533,1527,1539,0,0,0,0,0,0,0,0,0,0
1681118217.79966593,51628507,1528,1528,1526,1530,0,0,0,0,0,0,0,0,0,0
1681118217.89962602,51728467,1527,1527,1528,1526,0,0,0,0,0,0,0,0,0,0
1681118217.99958611,51828427,1527,1527,1529,1525,0,0,0,0,0,0,0,0,0,0
1681118218.09954596,51928387,1530,1530,1533,1527,0,0,0,0,0,0,0,0,0,0
1681118218.19950604,52028347,1533,1533,1536,1530,0,0,0,0,0,0,0,0,0,0
1681118218.29946613,52128307,1537,1537,1540,1535,0,0,0,0,0,0,0,0,0,0
1681118218.39942598,52228267,1542,1542,1543,1540,0,0,0,0,0,0,0,0,0,0
1681118218.49938607,52328227,1545,1544,1545,1544,0,0,0,0,0,0,0,0,0,0
1681118218.59934592,52428187,1548,1547,1547,1548,0,0,0,0,0,0,0,0,0,0
1681118218.70013905,52528980,1549,1549,1549,1550,0,0,0,0,0,0,0,0,0,0
1681118218.80009913,52628940,1552,1552,1551,1553,0,0,0,0,0,0,0,0,0,0
1681118218.90005898,52728900,1554,1553,1556,1558,0,0,0,0,0,0,0,0,0,0
1681118219.00001907,52828860,1552,1553,1559,1561,0,0,0,0,0,0,0,0,0,0
1681118219.09997892,52928820,1555,1555,1561,1563,0,0,0,0,0,0,0,0,0,0
1681118219.19993901,53028780,1558,1558,1563,1563,0,0,0,0,0,0,0,0,0,0
1681118219.29989910,53128740,1561,1561,1565,1564,0,0,0,0,0,0,0,0,0,0
1681118219.39985895,53228700,1564,1564,1566,1565,0,0,0,0,0,0,0,0,0,0
1681118219.49981904,53328660,1567,1566,1566,1565,0,0,0,0,0,0,0,0,0,0
1681118219.59977913,53428620,1568,1569,1566,1566,0,0,0,0,0,0,0,0,0,0
1681118219.69973898,53528580,1571,1571,1567,1567,0,0,0,0,0,0,0,0,0,0
1681118219.79969907,53628540,1572,1572,1567,1568,0,0,0,0,0,0,0,0,0,0
1681118219.89965892,53728500,1571,1571,1567,1567,0,0,0,0,0,0,0,0,0,0
1681118219.99961901,53828460,1572,1572,1568,1568,0,0,0,0,0,0,0,0,0,0
1681118220.09957910,53928420,1572,1572,1569,1569,0,0,0,0,0,0,0,0,0,0
1681118220.19953895,54028380,1574,1573,1571,1571,0,0,0,0,0,0,0,0,0,0
1681118220.29949903,54128340,1573,1574,1573,1572,0,0,0,0,0,0,0,0,0,0
1681118220.39945912,54228300,1574,1574,1574,1573,0,0,0,0,0,0,0,0,0,0
1681118220.49941897,54328260,1574,1574,1575,1574,0,0,0,0,0,0,0,0,0,0
1681118220.59937906,54428220,1574,1574,1576,1575,0,0,0,0,0,0,0,0,0,0
1681118220.69933891,54528180,1574,1574,1576,1575,0,0,0,0,0,0,0,0,0,0
1681118220.80013204,54628973,1574,1575,1576,1576,0,0,0,0,0,0,0,0,0,0
1681118220.90009212,54728933,1575,1576,1577,1577,0,0,0,0,0,0,0,0,0,0
1681118221.00005198,54828893,1575,1575,1576,1576,0,0,0,0,0,0,0,0,0,0
1681118221.10001206,54928853,1575,1575,1576,1577,0,0,0,0,0,0,0,0,0,0
1681118221.19997191,55028813,1576,1576,1576,1576,0,0,0,0,0,0,0,0,0,0
1681118221.29993200,55128773,1576,1576,1577,1577,0,0,0,0,0,0,0,0,0,0
1681118221.39989209,55228733,1577,1577,1577,1577,0,0,0,0,0,0,0,0,0,0
1681118221.49985194,55328693,1578,1577,1578,1577,0,0,0,0,0,0,0,0,0,0
1681118221.59981203,55428653,1578,1578,1578,1577,0,0,0,0,0,0,0,0,0,0
1681118221.69977212,55528613,1579,1579,1578,1578,0,0,0,0,0,0,0,0,0,0
1681118221.79973197,55628573,1579,1580,1579,1579,0,0,0,0,0,0,0,0,0,0
1681118221.89969206,55728533,1579,1578,1578,1578,0,0,0,0,0,0,0,0,0,0
1681118221.99965215,55828493,1579,1579,1578,1579,0,0,0,0,0,0,0,0,0,0
1681118222.09961200,55928453,1578,1578,1577,1578,0,0,0,0,0,0,0,0,0,0
1681118222.19957209,56028413,1577,1577,1577,1577,0,0,0,0,0,0,0,0,0,0
1681118222.29953194,56128373,1578,1578,1578,1579,0,0,0,0,0,0,0,0,0,0
1681118222.39949203,56228333,1578,1578,1578,1578,0,0,0,0,0,0,0,0,0,0
1681118222.49945211,56328293,1579,1578,1579,1578,0,0,0,0,0,0,0,0,0,0
1681118222.59941196,56428253,1579,1579,1580,1579,0,0,0,0,0,0,0,0,0,0
1681118222.69937205,56528213,1579,1579,1579,1580,0,0,0,0,0,0,0,0,0,0
1681118222.79933214,56628173,1579,1579,1579,1579,0,0,0,0,0,0,0,0,0,0
1681118222.90012503,56728966,1578,1578,1579,1578,0,0,0,0,0,0,0,0,0,0
1681118223.00008512,56828926,1578,1579,1579,1579,0,0,0,0,0,0,0,0,0,0
1681118223.10004497,56928886,1579,1579,1579,1580,0,0,0,0,0,0,0,0,0,0
1681118223.20000505,57028846,1579,1579,1579,1579,0,0,0,0,0,0,0,0,0,0
1681118223.29996514,57128806,1580,1579,1580,1580,0,0,0,0,0,0,0,0,0,0
1681118223.39992499,57228766,1579,1579,1579,1579,0,0,0,0,0,0,0,0,0,0
1681118223.49988508,57328726,1579,1580,1580,1580,0,0,0,0,0,0,0,0,0,0
1681118223.59984493,57428686,1578,1579,1579,1579,0,0,0,0,0,0,0,0,0,0
1681118223.69980502,57528646,1580,1581,1580,1581,0,0,0,0,0,0,0,0,0,0
1681118223.79976511,57628606,1580,1580,1581,1580,0,0,0,0,0,0,0,0,0,0
1681118223.89972496,57728566,1581,1580,1581,1581,0,0,0,0,0,0,0,0,0,0
1681118223.99968505,57828526,1581,1580,1580,1580,0,0,0,0,0,0,0,0,0,0
1681118224.09964514,57928486,1581,1581,1581,1581,0,0,0,0,0,0,0,0,0,0
1681118224.19960499,58028446,1580,1580,1580,1580,0,0,0,0,0,0,0,0,0,0
1681118224.29956508,58128406,1580,1580,1579,1580,0,0,0,0,0,0,0,0,0,0
1681118224.39952493,58228366,1580,1580,1580,1580,0,0,0,0,0,0,0,0,0,0
1681118224.49948502,58328326,1580,1580,1579,1580,0,0,0,0,0,0,0,0,0,0
1681118224.59944510,58428286,1580,1580,1580,1580,0,0,0,0,0,0,0,0,0,0
1681118224.69940495,58528246,1580,1580,1580,1580,0,0,0,0,0,0,0,0,0,0
1681118224.79936504,58628206,1580,1580,1580,1580,0,0,0,0,0,0,0,0,0,0
1681118224.89932513,58728166,1580,1581,1580,1580,0,0,0,0,0,0,0,0,0,0
1681118225.00011802,58828959,1580,1581,1581,1580,0,0,0,0,0,0,0,0,0,0
1681118225.10007811,58928919,1581,1582,1585,1578,0,0,0,0,0,0,0,0,0,0
1681118225.20003796,59028879,1580,1581,1587,1573,0,0,0,0,0,0,0,0,0,0
1681118225.29999804,59128839,1579,1581,1581,1573,0,0,0,0,0,0,0,0,0,0
1681118225.39995813,59228799,1577,1580,1572,1572,0,0,0,0,0,0,0,0,0,0
1681118225.49991798,59328759,1576,1578,1564,1570,0,0,0,0,0,0,0,0,0,0
1681118225.59987807,59428719,1577,1578,1559,1566,0,0,0,0,0,0,0,0,0,0
1681118225.69983792,59528679,1578,1578,1556,1561,0,0,0,0,0,0,0,0,0,0
1681118225.79979801,59628639,1579,1577,1555,1557,0,0,0,0,0,0,0,0,0,0
1681118225.89975810,59728599,1579,1578,1555,1555,0,0,0,0,0,0,0,0,0,0
1681118225.99971795,59828559,1579,1578,1557,1554,0,0,0,0,0,0,0,0,0,0
1681118226.09967804,59928519,1577,1577,1556,1554,0,0,0,0,0,0,0,0,0,0
1681118226.19963813,60028479,1576,1577,1556,1554,0,0,0,0,0,0,0,0,0,0
1681118226.29959798,60128439,1575,1577,1555,1554,0,0,0,0,0,0,0,0,0,0
1681118226.39955807,60228399,1575,1577,1554,1554,0,0,0,0,0,0,0,0,0,0
1681118226.49951792,60328359,1575,1577,1553,1554,0,0,0,0,0,0,0,0,0,0
1681118226.59947801,60428319,1575,1577,1551,1551,0,0,0,0,0,0,0,0,0,0
1681118226.69943810,60528279,1577,1579,1550,1550,0,0,0,0,0,0,0,0,0,0
1681118226.79939795,60628239,1581,1582,1549,1548,0,0,0,0,0,0,0,0,0,0
1681118226.89935803,60728199,1583,1583,1545,1545,0,0,0,0,0,0,0,0,0,0
1681118226.99931812,60828159,1585,1586,1542,1542,0,0,0,0,0,0,0,0,0,0
1681118227.10011101,60928952,1588,1589,1539,1539,0,0,0,0,0,0,0,0,0,0
1681118227.20007110,61028912,1591,1591,1536,1536,0,0,0,0,0,0,0,0,0,0
1681118227.30003095,61128872,1594,1593,1535,1535,0,0,0,0,0,0,0,0,0,0
1681118227.39999104,61228832,1595,1594,1534,1534,0,0,0,0,0,0,0,0,0,0
1681118227.49995112,61328792,1595,1595,1535,1537,0,0,0,0,0,0,0,0,0,0
1681118227.59991097,61428752,1594,1594,1537,1540,0,0,0,0,0,0,0,0,0,0
1681118227.69987106,61528712,1592,1591,1541,1544,0,0,0,0,0,0,0,0,0,0
1681118227.79983091,61628672,1588,1586,1547,1550,0,0,0,0,0,0,0,0,0,0
1681118227.89979100,61728632,1582,1578,1556,1559,0,0,0,0,0,0,0,0,0,0
1681118227.99975109,61828592,1572,1568,1567,1569,0,0,0,0,0,0,0,0,0,0
1681118228.09971094,61928552,1561,1557,1579,1581,0,0,0,0,0,0,0,0,0,0
1681118228.19967103,62028512,1550,1547,1591,1592,0,0,0,0,0,0,0,0,0,0
1681118228.29963112,62128472,1540,1538,1603,1602,0,0,0,0,0,0,0,0,0,0
1681118228.39959097,62228432,1532,1532,1610,1609,0,0,0,0,0,0,0,0,0,0
1681118228.49955106,62328392,1529,1530,1615,1614,0,0,0,0,0,0,0,0,0,0
1681118228.59951115,62428352,1529,1531,1616,1615,0,0,0,0,0,0,0,0,0,0
1681118228.69947100,62528312,1533,1536,1614,1613,0,0,0,0,0,0,0,0,0,0
1681118228.79943109,62628272,1539,1541,1608,1607,0,0,0,0,0,0,0,0,0,0
1681118228.89939094,62728232,1547,1548,1601,1601,0,0,0,0,0,0,0,0,0,0
1681118228.99935102,62828192,1557,1558,1594,1594,0,0,0,0,0,0,0,0,0,0
1681118229.10014415,62928985,1565,1565,1586,1586,0,0,0,0,0,0,0,0,0,0
1681118229.20010400,63028945,1573,1572,1578,1578,0,0,0,0,0,0,0,0,0,0
1681118229.30006409,63128905,1579,1578,1573,1572,0,0,0,0,0,0,0,0,0,0
1681118229.40002394,63228865,1585,1583,1569,1568,0,0,0,0,0,0,0,0,0,0
1681118229.49998403,63328825,1587,1585,1566,1566,0,0,0,0,0,0,0,0,0,0
1681118229.59994411,63428785,1588,1587,1566,1566,0,0,0,0,0,0,0,0,0,0
1681118229.69990396,63528745,1587,1586,1566,1566,0,0,0,0,0,0,0,0,0,0
1681118229.79986405,63628705,1585,1584,1568,1569,0,0,0,0,0,0,0,0,0,0
1681118229.89982414,63728665,1583,1583,1572,1572,0,0,0,0,0,0,0,0,0,0
1681118229.99978399,63828625,1579,1580,1574,1575,0,0,0,0,0,0,0,0,0,0
1681118230.09974408,63928585,1577,1577,1577,1577,0,0,0,0,0,0,0,0,0,0
1681118230.19970393,64028545,1574,1574,1579,1579,0,0,0,0,0,0,0,0,0,0
1681118230.29966402,64128505,1573,1574,1582,1582,0,0,0,0,0,0,0,0,0,0
1681118230.39962411,64228465,1571,1572,1582,1583,0,0,0,0,0,0,0,0,0,0
1681118230.49958396,64328425,1572,1572,1583,1584,0,0,0,0,0,0,0,0,0,0
1681118230.59954405,64428385,1572,1572,1583,1583,0,0,0,0,0,0,0,0,0,0
1681118230.69950414,64528345,1573,1574,1583,1583,0,0,0,0,0,0,0,0,0,0
1681118230.79946399,64628305,1575,1575,1582,1582,0,0,0,0,0,0,0,0,0,0
1681118230.89942408,64728265,1577,1577,1582,1581,0,0,0,0,0,0,0,0,0,0
1681118230.99938393,64828225,1578,1578,1580,1580,0,0,0,0,0,0,0,0,0,0
1681118231.09934402,64928185,1579,1579,1578,1579,0,0,0,0,0,0,0,0,0,0
1681118231.20013714,65028978,1580,1579,1577,1577,0,0,0,0,0,0,0,0,0,0
1681118231.30009699,65128938,1581,1581,1577,1577,0,0,0,0,0,0,0,0,0,0
1681118231.40005708,65228898,1582,1581,1577,1577,0,0,0,0,0,0,0,0,0,0
1681118231.50001693,65328858,1581,1581,1577,1576,0,0,0,0,0,0,0,0,0,0
1681118231.59997702,65428818,1581,1582,1577,1578,0,0,0,0,0,0,0,0,0,0
1681118231.69993711,65528778,1581,1581,1577,1577,0,0,0,0,0,0,0,0,0,0
1681118231.79989696,65628738,1581,1580,1578,1578,0,0,0,0,0,0,0,0,0,0
1681118231.89985704,65728698,1580,1580,1579,1579,0,0,0,0,0,0,0,0,0,0
1681118231.99981713,65828658,1580,1580,1580,1580,0,0,0,0,0,0,0,0,0,0
1681118232.09977698,65928618,1580,1579,1580,1580,0,0,0,0,0,0,0,0,0,0
1681118232.19973707,66028578,1580,1580,1581,1581,0,0,0,0,0,0,0,0,0,0
1681118232.29969692,66128538,1579,1579,1581,1580,0,0,0,0,0,0,0,0,0,0
1681118232.39965701,66228498,1579,1579,1581,1581,0,0,0,0,0,0,0,0,0,0
1681118232.49961710,66328458,1578,1579,1581,1581,0,0,0,0,0,0,0,0,0,0
1681118232.59957695,66428418,1579,1580,1581,1581,0,0,0,0,0,0,0,0,0,0
1681118232.69953704,66528378,1580,1580,1581,1581,0,0,0,0,0,0,0,0,0,0
1681118232.79949713,66628338,1581,1580,1581,1581,0,0,0,0,0,0,0,0,0,0
1681118232.89945698,66728298,1580,1580,1580,1581,0,0,0,0,0,0,0,0,0,0
1681118232.99941707,66828258,1580,1580,1580,1580,0,0,0,0,0,0,0,0,0,0
1681118233.09937692,66928218,1582,1583,1313,1550,0,0,0,0,0,0,0,0,0,0
1681118233.19933701,67028178,1624,1627,1468,1499,0,0,0,0,0,0,0,0,0,0
1681118233.30013013,67128971,1655,1664,1572,1517,0,0,0,0,0,0,0,0,0,0
1681118233.40008998,67228931,1673,1690,1650,1556,0,0,0,0,0,0,0,0,0,0
1681118233.50005007,67328891,1638,1663,1650,1571,0,0,0,0,0,0,0,0,0,0
1681118233.60000992,67428851,1637,1662,1650,1604,0,0,0,0,0,0,0,0,0,0
1681118233.69997001,67528811,1635,1652,1650,1632,0,0,0,0,0,0,0,0,0,0
1681118233.79993010,67628771,1623,1624,1650,1658,0,0,0,0,0,0,0,0,0,0
1681118233.89988995,67728731,1604,1598,1650,1680,0,0,0,0,0,0,0,0,0,0
1681118233.99985003,67828691,1593,1573,1650,1684,0,0,0,0,0,0,0,0,0,0
1681118234.09981012,67928651,1591,1557,1650,1674,0,0,0,0,0,0,0,0,0,0
1681118234.19976997,68028611,1590,1555,1640,1650,0,0,0,0,0,0,0,0,0,0
1681118234.29973006,68128571,1588,1564,1618,1614,0,0,0,0,0,0,0,0,0,0
1681118234.39968991,68228531,1586,1580,1591,1580,0,0,0,0,0,0,0,0,0,0
1681118234.49965000,68328491,1585,1594,1562,1551,0,0,0,0,0,0,0,0,0,0
1681118234.59961009,68428451,1586,1607,1534,1530,0,0,0,0,0,0,0,0,0,0
1681118234.69956994,68528411,1592,1615,1508,1514,0,0,0,0,0,0,0,0,0,0
1681118234.79953003,68628371,1602,1622,1489,1503,0,0,0,0,0,0,0,0,0,0
1681118234.89949012,68728331,1615,1626,1478,1495,0,0,0,0,0,0,0,0,0,0
1681118234.99944997,68828291,1626,1626,1475,1492,0,0,0,0,0,0,0,0,0,0
1681118235.09941006,68928251,1633,1623,1482,1494,0,0,0,0,0,0,0,0,0,0
1681118235.19937015,69028211,1634,1619,1495,1501,0,0,0,0,0,0,0,0,0,0
1681118235.29933000,69128171,1625,1609,1512,1515,0,0,0,0,0,0,0,0,0,0
1681118235.40012312,69228964,1604,1591,1539,1541,0,0,0,0,0,0,0,0,0,0
1681118235.50008297,69328924,1574,1565,1571,1571,0,0,0,0,0,0,0,0,0,0
1681118235.60004306,69428884,1548,1545,1602,1596,0,0,0,0,0,0,0,0,0,0
1681118235.70000315,69528844,1532,1533,1626,1615,0,0,0,0,0,0,0,0,0,0
1681118235.79996300,69628804,1525,1531,1642,1627,0,0,0,0,0,0,0,0,0,0
1681118235.89992309,69728764,1525,1532,1649,1633,0,0,0,0,0,0,0,0,0,0
1681118235.99988294,69828724,1526,1534,1647,1635,0,0,0,0,0,0,0,0,0,0
1681118236.09984303,69928684,1522,1529,1646,1640,0,0,0,0,0,0,0,0,0,0
1681118236.19980311,70028644,1518,1520,1640,1642,0,0,0,0,0,0,0,0,0,0
1681118236.29976296,70128604,1521,1519,1632,1638,0,0,0,0,0,0,0,0,0,0
1681118236.39972305,70228564,1531,1526,1619,1627,0,0,0,0,0,0,0,0,0,0
1681118236.49968314,70328524,1544,1539,1603,1610,0,0,0,0,0,0,0,0,0,0
1681118236.59964299,70428484,1555,1553,1589,1594,0,0,0,0,0,0,0,0,0,0
1681118236.69960308,70528444,1564,1564,1580,1583,0,0,0,0,0,0,0,0,0,0
1681118236.79956293,70628404,1569,1571,1572,1574,0,0,0,0,0,0,0,0,0,0
1681118236.89952302,70728364,1574,1576,1567,1569,0,0,0,0,0,0,0,0,0,0
1681118236.99948311,70828324,1577,1580,1564,1565,0,0,0,0,0,0,0,0,0,0
1681118237.09944296,70928284,1581,1582,1562,1563,0,0,0,0,0,0,0,0,0,0
1681118237.19940305,71028244,1584,1585,1561,1562,0,0,0,0,0,0,0,0,0,0
1681118237.29936314,71128204,1587,1586,1561,1561,0,0,0,0,0,0,0,0,0,0
1681118237.39932299,71228164,1589,1588,1562,1561,0,0,0,0,0,0,0,0,0,0
1681118237.50011611,71328957,1590,1588,1563,1562,0,0,0,0,0,0,0,0,0,0
1681118237.60007596,71428917,1590,1589,1565,1564,0,0,0,0,0,0,0,0,0,0
1681118237.70003605,71528877,1589,1588,1566,1566,0,0,0,0,0,0,0,0,0,0
1681118237.79999614,71628837,1587,1586,1569,1568,0,0,0,0,0,0,0,0,0,0
1681118237.89995599,71728797,1585,1586,1572,1571,0,0,0,0,0,0,0,0,0,0
1681118237.99991608,71828757,1583,1583,1574,1574,0,0,0,0,0,0,0,0,0,0
1681118238.09987593,71928717,1582,1582,1577,1577,0,0,0,0,0,0,0,0,0,0
1681118238.19983602,72028677,1580,1580,1579,1579,0,0,0,0,0,0,0,0,0,0
1681118238.29979610,72128637,1578,1579,1581,1581,0,0,0,0,0,0,0,0,0,0
1681118238.39975595,72228597,1577,1578,1582,1582,0,0,0,0,0,0,0,0,0,0
1681118238.49971604,72328557,1577,1578,1584,1583,0,0,0,0,0,0,0,0,0,0
1681118238.59967613,72428517,1578,1577,1585,1584,0,0,0,0,0,0,0,0,0,0
1681118238.69963598,72528477,1577,1577,1585,1585,0,0,0,0,0,0,0,0,0,0
1681118238.79959607,72628437,1577,1578,1585,1585,0,0,0,0,0,0,0,0,0,0
1681118238.89955592,72728397,1578,1578,1585,1585,0,0,0,0,0,0,0,0,0,0
1681118238.99951601,72828357,1579,1579,1585,1584,0,0,0,0,0,0,0,0,0,0
1681118239.09947610,72928317,1579,1580,1584,1584,0,0,0,0,0,0,0,0,0,0
1681118239.19943595,73028277,1581,1580,1584,1584,0,0,0,0,0,0,0,0,0,0
1681118239.29939604,73128237,1580,1580,1583,1583,0,0,0,0,0,0,0,0,0,0
1681118239.39935613,73228197,1580,1580,1582,1581,0,0,0,0,0,0,0,0,0,0
1681118239.49931598,73328157,1581,1581,1581,1581,0,0,0,0,0,0,0,0,0,0
1681118239.60010910,73428950,1581,1581,1580,1581,0,0,0,0,0,0,0,0,0,0
1681118239.70006895,73528910,1583,1582,1581,1582,0,0,0,0,0,0,0,0,0,0
1681118239.80002904,73628870,1582,1582,1581,1581,0,0,0,0,0,0,0,0,0,0
1681118239.89998913,73728830,1583,1583,1581,1581,0,0,0,0,0,0,0,0,0,0
1681118239.99994898,73828790,1583,1583,1581,1581,0,0,0,0,0,0,0,0,0,0
1681118240.09990907,73928750,1582,1582,1580,1580,0,0,0,0,0,0,0,0,0,0
1681118240.19986892,74028710,1582,1581,1580,1579,0,0,0,0,0,0,0,0,0,0
1681118240.29982901,74128670,1582,1581,1580,1580,0,0,0,0,0,0,0,0,0,0
1681118240.39978909,74228630,1582,1582,1580,1580,0,0,0,0,0,0,0,0,0,0
1681118240.49974895,74328590,1582,1583,1581,1582,0,0,0,0,0,0,0,0,0,0
1681118240.59970903,74428550,1582,1583,1587,1575,0,0,0,0,0,0,0,0,0,0
1681118240.69966912,74528510,1580,1584,1587,1574,0,0,0,0,0,0,0,0,0,0
1681118240.79962897,74628470,1578,1582,1582,1576,0,0,0,0,0,0,0,0,0,0
1681118240.89958906,74728430,1576,1580,1574,1576,0,0,0,0,0,0,0,0,0,0
1681118240.99954891,74828390,1573,1576,1567,1572,0,0,0,0,0,0,0,0,0,0
1681118241.09950900,74928350,1575,1575,1561,1569,0,0,0,0,0,0,0,0,0,0
1681118241.19946909,75028310,1576,1574,1558,1564,0,0,0,0,0,0,0,0,0,0
1681118241.29942894,75128270,1577,1574,1557,1560,0,0,0,0,0,0,0,0,0,0
1681118241.39938903,75228230,1577,1575,1556,1556,0,0,0,0,0,0,0,0,0,0
1681118241.49934912,75328190,1578,1577,1557,1555,0,0,0,0,0,0,0,0,0,0
1681118241.60014200,75428983,1578,1578,1557,1555,0,0,0,0,0,0,0,0,0,0
1681118241.70010209,75528943,1577,1578,1557,1554,0,0,0,0,0,0,0,0,0,0
1681118241.80006194,75628903,1576,1579,1557,1555,0,0,0,0,0,0,0,0,0,0
1681118241.90002203,75728863,1576,1578,1556,1555,0,0,0,0,0,0,0,0,0,0
1681118241.99998212,75828823,1576,1578,1555,1555,0,0,0,0,0,0,0,0,0,0
1681118242.09994197,75928783,1577,1578,1554,1555,0,0,0,0,0,0,0,0,0,0
1681118242.19990206,76028743,1578,1579,1553,1553,0,0,0,0,0,0,0,0,0,0
1681118242.29986215,76128703,1578,1579,1551,1550,0,0,0,0,0,0,0,0,0,0
1681118242.39982200,76228663,1580,1580,1549,1548,0,0,0,0,0,0,0,0,0,0
1681118242.49978209,76328623,1583,1584,1548,1547,0,0,0,0,0,0,0,0,0,0
1681118242.59974194,76428583,1584,1585,1544,1544,0,0,0,0,0,0,0,0,0,0
1681118242.69970202,76528543,1587,1588,1542,1541,0,0,0,0,0,0,0,0,0,0
1681118242.79966211,76628503,1589,1590,1539,1539,0,0,0,0,0,0,0,0,0,0
1681118242.89962196,76728463,1591,1592,1536,1537,0,0,0,0,0,0,0,0,0,0
1681118242.99958205,76828423,1594,1595,1536,1538,0,0,0,0,0,0,0,0,0,0
1681118243.09954214,76928383,1596,1596,1535,1537,0,0,0,0,0,0,0,0,0,0
1681118243.19950199,77028343,1595,1595,1536,1538,0,0,0,0,0,0,0,0,0,0
1681118243.29946208,77128303,1595,1593,1540,1543,0,0,0,0,0,0,0,0,0,0
1681118243.39942193,77228263,1591,1587,1546,1549,0,0,0,0,0,0,0,0,0,0
1681118243.49938202,77328223,1584,1580,1554,1558,0,0,0,0,0,0,0,0,0,0
1681118243.59934211,77428183,1574,1571,1565,1568,0,0,0,0,0,0,0,0,0,0
1681118243.70013499,77528976,1564,1560,1578,1579,0,0,0,0,0,0,0,0,0,0
1681118243.80009508,77628936,1553,1551,1591,1591,0,0,0,0,0,0,0,0,0,0
1681118243.90005493,77728896,1544,1544,1601,1599,0,0,0,0,0,0,0,0,0,0
1681118244.00001502,77828856,1542,1543,1610,1607,0,0,0,0,0,0,0,0,0,0
1681118244.09997511,77928816,1540,1542,1614,1610,0,0,0,0,0,0,0,0,0,0
1681118244.19993496,78028776,1541,1543,1615,1611,0,0,0,0,0,0,0,0,0,0
1681118244.29989505,78128736,1542,1544,1612,1610,0,0,0,0,0,0,0,0,0,0
1681118244.39985514,78228696,1546,1547,1609,1608,0,0,0,0,0,0,0,0,0,0
1681118244.49981499,78328656,1549,1549,1604,1604,0,0,0,0,0,0,0,0,0,0
1681118244.59977508,78428616,1553,1553,1599,1600,0,0,0,0,0,0,0,0,0,0
1681118244.69973493,78528576,1558,1557,1595,1595,0,0,0,0,0,0,0,0,0,0
1681118244.79969501,78628536,1562,1563,1590,1591,0,0,0,0,0,0,0,0,0,0
1681118244.89965510,78728496,1567,1567,1585,1586,0,0,0,0,0,0,0,0,0,0
1681118244.99961495,78828456,1570,1571,1580,1581,0,0,0,0,0,0,0,0,0,0
1681118245.09957504,78928416,1575,1574,1575,1576,0,0,0,0,0,0,0,0,0,0
1681118245.19953513,79028376,1578,1577,1570,1570,0,0,0,0,0,0,0,0,0,0
1681118245.29949498,79128336,1582,1582,1567,1568,0,0,0,0,0,0,0,0,0,0
1681118245.39945507,79228296,1585,1584,1564,1565,0,0,0,0,0,0,0,0,0,0
1681118245.49941492,79328256,1586,1585,1564,1565,0,0,0,0,0,0,0,0,0,0
1681118245.59937501,79428216,1586,1585,1565,1566,0,0,0,0,0,0,0,0,0,0
1681118245.69933510,79528176,1584,1583,1566,1566,0,0,0,0,0,0,0,0,0,0
1681118245.80012798,79628969,1582,1581,1568,1568,0,0,0,0,0,0,0,0,0,0
1681118245.90008807,79728929,1580,1580,1572,1572,0,0,0,0,0,0,0,0,0,0
1681118246.00004792,79828889,1579,1579,1576,1576,0,0,0,0,0,0,0,0,0,0
1681118246.10000801,79928849,1577,1578,1580,1579,0,0,0,0,0,0,0,0,0,0
1681118246.19996810,80028809,1575,1576,1582,1581,0,0,0,0,0,0,0,0,0,0
1681118246.29992795,80128769,1573,1574,1584,1582,0,0,0,0,0,0,0,0,0,0
1681118246.39988804,80228729,1573,1574,1585,1584,0,0,0,0,0,0,0,0,0,0
1681118246.49984813,80328689,1574,1574,1585,1585,0,0,0,0,0,0,0,0,0,0
1681118246.59980798,80428649,1576,1576,1586,1586,0,0,0,0,0,0,0,0,0,0
1681118246.69976807,80528609,1576,1575,1585,1585,0,0,0,0,0,0,0,0,0,0
1681118246.79972792,80628569,1577,1577,1584,1584,0,0,0,0,0,0,0,0,0,0
1681118246.89968801,80728529,1577,1577,1582,1582,0,0,0,0,0,0,0,0,0,0
1681118246.99964809,80828489,1578,1578,1580,1580,0,0,0,0,0,0,0,0,0,0
1681118247.09960794,80928449,1580,1580,1579,1580,0,0,0,0,0,0,0,0,0,0
1681118247.19956803,81028409,1580,1580,1578,1578,0,0,0,0,0,0,0,0,0,0
1681118247.29952812,81128369,1581,1581,1577,1577,0,0,0,0,0,0,0,0,0,0
1681118247.39948797,81228329,1581,1582,1577,1577,0,0,0,0,0,0,0,0,0,0
1681118247.49944806,81328289,1582,1582,1577,1578,0,0,0,0,0,0,0,0,0,0
1681118247.59940791,81428249,1582,1581,1577,1577,0,0,0,0,0,0,0,0,0,0
1681118247.69936800,81528209,1582,1582,1577,1578,0,0,0,0,0,0,0,0,0,0
1681118247.79932809,81628169,1581,1581,1578,1578,0,0,0,0,0,0,0,0,0,0
1681118247.90012097,81728962,1580,1580,1579,1578,0,0,0,0,0,0,0,0,0,0
1681118248.00008106,81828922,1581,1581,1580,1580,0,0,0,0,0,0,0,0,0,0
1681118248.10004091,81928882,1581,1581,1581,1581,0,0,0,0,0,0,0,0,0,0
1681118248.20000100,82028842,1579,1579,1580,1580,0,0,0,0,0,0,0,0,0,0
1681118248.29996109,82128802,1580,1580,1581,1581,0,0,0,0,0,0,0,0,0,0
1681118248.39992094,82228762,1579,1579,1581,1582,0,0,0,0,0,0,0,0,0,0
1681118248.49988103,82328722,1579,1579,1582,1582,0,0,0,0,0,0,0,0,0,0
1681118248.59984112,82428682,1579,1580,1582,1579,0,0,0,0,0,0,0,0,0,0
1681118248.69980097,82528642,1579,1580,1587,1572,0,0,0,0,0,0,0,0,0,0
1681118248.79976106,82628602,1578,1580,1584,1573,0,0,0,0,0,0,0,0,0,0
1681118248.89972115,82728562,1576,1577,1578,1575,0,0,0,0,0,0,0,0,0,0
1681118248.99968100,82828522,1573,1573,1572,1576,0,0,0,0,0,0,0,0,0,0
1681118249.09964108,82928482,1569,1568,1566,1574,0,0,0,0,0,0,0,0,0,0
1681118249.19960093,83028442,1567,1565,1564,1571,0,0,0,0,0,0,0,0,0,0
1681118249.29956102,83128402,1566,1565,1563,1569,0,0,0,0,0,0,0,0,0,0
1681118249.39952111,83228362,1566,1565,1564,1566,0,0,0,0,0,0,0,0,0,0
1681118249.49948096,83328322,1565,1565,1564,1563,0,0,0,0,0,0,0,0,0,0
1681118249.59944105,83428282,1566,1567,1566,1563,0,0,0,0,0,0,0,0,0,0
1681118249.69940114,83528242,1566,1566,1566,1563,0,0,0,0,0,0,0,0,0,0
1681118249.79936099,83628202,1565,1565,1565,1562,0,0,0,0,0,0,0,0,0,0
1681118249.89932108,83728162,1564,1564,1563,1563,0,0,0,0,0,0,0,0,0,0
1681118250.00011396,83828955,1563,1563,1562,1563,0,0,0,0,0,0,0,0,0,0
1681118250.10007405,83928915,1562,1562,1562,1562,0,0,0,0,0,0,0,0,0,0
1681118250.20003414,84028875,1561,1561,1561,1562,0,0,0,0,0,0,0,0,0,0
1681118250.29999399,84128835,1561,1561,1561,1562,0,0,0,0,0,0,0,0,0,0
1681118250.39995408,84228795,1561,1561,1562,1562,0,0,0,0,0,0,0,0,0,0
1681118250.49991393,84328755,1560,1560,1561,1560,0,0,0,0,0,0,0,0,0,0
1681118250.59987402,84428715,1558,1558,1560,1558,0,0,0,0,0,0,0,0,0,0
1681118250.69983411,84528675,1558,1558,1559,1558,0,0,0,0,0,0,0,0,0,0
1681118250.79979396,84628635,1558,1558,1559,1558,0,0,0,0,0,0,0,0,0,0
1681118250.89975405,84728595,1558,1558,1559,1558,0,0,0,0,0,0,0,0,0,0
1681118250.99971414,84828555,1557,1557,1558,1557,0,0,0,0,0,0,0,0,0,0
1681118251.09967399,84928515,1557,1557,1558,1556,0,0,0,0,0,0,0,0,0,0
1681118251.19963408,85028475,1557,1558,1558,1557,0,0,0,0,0,0,0,0,0,0
1681118251.29959393,85128435,1558,1558,1558,1556,0,0,0,0,0,0,0,0,0,0
1681118251.39955401,85228395,1558,1558,1558,1557,0,0,0,0,0,0,0,0,0,0
1681118251.49951410,85328355,1558,1559,1557,1559,0,0,0,0,0,0,0,0,0,0
1681118251.59947395,85428315,1560,1560,1557,1562,0,0,0,0,0,0,0,0,0,0
1681118251.69943404,85528275,1561,1560,1557,1563,0,0,0,0,0,0,0,0,0,0
1681118251.79939413,85628235,1560,1560,1557,1562,0,0,0,0,0,0,0,0,0,0
1681118251.89935398,85728195,1561,1560,1558,1562,0,0,0,0,0,0,0,0,0,0
1681118251.99931407,85828155,1561,1561,1560,1560,0,0,0,0,0,0,0,0,0,0
1681118252.10010695,85928948,1560,1560,1561,1558,0,0,0,0,0,0,0,0,0,0
1681118252.20006704,86028908,1559,1560,1561,1557,0,0,0,0,0,0,0,0,0,0
1681118252.30002713,86128868,1558,1559,1558,1560,0,0,0,0,0,0,0,0,0,0
1681118252.39998698,86228828,1555,1555,1555,1558,0,0,0,0,0,0,0,0,0,0
1681118252.49994707,86328788,1551,1551,1552,1555,0,0,0,0,0,0,0,0,0,0
1681118252.59990692,86428748,1545,1545,1547,1548,0,0,0,0,0,0,0,0,0,0
1681118252.69986701,86528708,1539,1539,1541,1541,0,0,0,0,0,0,0,0,0,0
1681118252.79982710,86628668,1532,1532,1535,1534,0,0,0,0,0,0,0,0,0,0
1681118252.89978695,86728628,1525,1524,1528,1527,0,0,0,0,0,0,0,0,0,0
1681118252.99974704,86828588,1521,1521,1523,1523,0,0,0,0,0,0,0,0,0,0
1681118253.09970713,86928548,1521,1520,1521,1522,0,0,0,0,0,0,0,0,0,0
1681118253.19966698,87028508,1520,1521,1520,1521,0,0,0,0,0,0,0,0,0,0
1681118253.29962707,87128468,1522,1523,1520,1521,0,0,0,0,0,0,0,0,0,0
1681118253.39958692,87228428,1526,1526,1522,1524,0,0,0,0,0,0,0,0,0,0
1681118253.49954700,87328388,1531,1531,1526,1527,0,0,0,0,0,0,0,0,0,0
1681118253.59950709,87428348,1536,1536,1531,1531,0,0,0,0,0,0,0,0,0,0
1681118253.69946694,87528308,1540,1539,1535,1534,0,0,0,0,0,0,0,0,0,0
1681118253.79942703,87628268,1542,1542,1539,1537,0,0,0,0,0,0,0,0,0,0
1681118253.89938712,87728228,1543,1543,1541,1540,0,0,0,0,0,0,0,0,0,0
1681118253.99934697,87828188,1545,1545,1544,1542,0,0,0,0,0,0,0,0,0,0
1681118254.10014009,87928981,1544,1544,1545,1544,0,0,0,0,0,0,0,0,0,0
1681118254.20009995,88028941,1545,1545,1546,1546,0,0,0,0,0,0,0,0,0,0
1681118254.30006003,88128901,1545,1545,1548,1547,0,0,0,0,0,0,0,0,0,0
1681118254.40002012,88228861,1545,1546,1548,1548,0,0,0,0,0,0,0,0,0,0
1681118254.49997997,88328821,1545,1544,1548,1548,0,0,0,0,0,0,0,0,0,0
1681118254.59994006,88428781,1545,1544,1548,1548,0,0,0,0,0,0,0,0,0,0
1681118254.69989991,88528741,1544,1544,1547,1547,0,0,0,0,0,0,0,0,0,0
1681118254.79986000,88628701,1545,1545,1547,1547,0,0,0,0,0,0,0,0,0,0
1681118254.89982009,88728661,1544,1544,1546,1546,0,0,0,0,0,0,0,0,0,0
1681118254.99977994,88828621,1545,1546,1546,1546,0,0,0,0,0,0,0,0,0,0
1681118255.09974003,88928581,1545,1545,1545,1545,0,0,0,0,0,0,0,0,0,0
1681118255.19970012,89028541,1544,1545,1545,1544,0,0,0,0,0,0,0,0,0,0
1681118255.29965997,89128501,1545,1545,1544,1544,0,0,0,0,0,0,0,0,0,0
1681118255.39962006,89228461,1545,1545,1544,1544,0,0,0,0,0,0,0,0,0,0
1681118255.49958014,89328421,1545,1545,1544,1544,0,0,0,0,0,0,0,0,0,0
1681118255.59954000,89428381,1545,1546,1544,1544,0,0,0,0,0,0,0,0,0,0
1681118255.69950008,89528341,1545,1545,1543,1544,0,0,0,0,0,0,0,0,0,0
1681118255.79945993,89628301,1545,1545,1543,1544,0,0,0,0,0,0,0,0,0,0
1681118255.89942002,89728261,1544,1544,1544,1543,0,0,0,0,0,0,0,0,0,0
1681118255.99938011,89828221,1544,1544,1544,1543,0,0,0,0,0,0,0,0,0,0
1681118256.09933996,89928181,1545,1545,1545,1545,0,0,0,0,0,0,0,0,0,0
1681118256.20013309,90028974,1544,1544,1544,1544,0,0,0,0,0,0,0,0,0,0
1681118256.30009294,90128934,1545,1545,1545,1546,0,0,0,0,0,0,0,0,0,0
1681118256.40005302,90228894,1544,1545,1545,1545,0,0,0,0,0,0,0,0,0,0
1681118256.50001311,90328854,1544,1544,1545,1545,0,0,0,0,0,0,0,0,0,0
1681118256.59997296,90428814,1543,1544,1544,1544,0,0,0,0,0,0,0,0,0,0
1681118256.69993305,90528774,1545,1544,1545,1546,0,0,0,0,0,0,0,0,0,0
1681118256.79989314,90628734,1545,1544,1545,1545,0,0,0,0,0,0,0,0,0,0
1681118256.89985299,90728694,1544,1544,1544,1545,0,0,0,0,0,0,0,0,0,0
1681118256.99981308,90828654,1544,1544,1544,1544,0,0,0,0,0,0,0,0,0,0
1681118257.09977293,90928614,1544,1544,1544,1544,0,0,0,0,0,0,0,0,0,0
1681118257.19973302,91028574,1544,1544,1544,1544,0,0,0,0,0,0,0,0,0,0
1681118257.29969311,91128534,1544,1544,1544,1544,0,0,0,0,0,0,0,0,0,0
1681118257.39965296,91228494,1544,1544,1544,1544,0,0,0,0,0,0,0,0,0,0
1681118257.49961305,91328454,1544,1544,1544,1544,0,0,0,0,0,0,0,0,0,0
1681118257.59957314,91428414,1544,1545,1544,1545,0,0,0,0,0,0,0,0,0,0
1681118257.69953299,91528374,1544,1544,1544,1544,0,0,0,0,0,0,0,0,0,0
1681118257.79949307,91628334,1545,1545,1545,1545,0,0,0,0,0,0,0,0,0,0
1681118257.89945292,91728294,1545,1545,1545,1545,0,0,0,0,0,0,0,0,0,0
1681118257.99941301,91828254,1545,1545,1545,1545,0,0,0,0,0,0,0,0,0,0
1681118258.09937310,91928214,1545,1545,1545,1545,0,0,0,0,0,0,0,0,0,0
1681118258.19933295,92028174,1545,1545,1545,1545,0,0,0,0,0,0,0,0,0,0
1681118258.30012608,92128967,1545,1544,1545,1545,0,0,0,0,0,0,0,0,0,0
1681118258.40008593,92228927,1543,1544,1544,1544,0,0,0,0,0,0,0,0,0,0
1681118258.50004601,92328887,1544,1544,1544,1544,0,0,0,0,0,0,0,0,0,0
1681118258.60000610,92428847,1544,1544,1544,1544,0,0,0,0,0,0,0,0,0,0
1681118258.69996595,92528807,1543,1543,1544,1544,0,0,0,0,0,0,0,0,0,0
1681118258.79992604,92628767,1544,1545,1544,1545,0,0,0,0,0,0,0,0,0,0
1681118258.89988613,92728727,1544,1544,1544,1544,0,0,0,0,0,0,0,0,0,0
1681118258.99984598,92828687,1544,1544,1544,1544,0,0,0,0,0,0,0,0,0,0
1681118259.09980607,92928647,1545,1545,1544,1545,0,0,0,0,0,0,0,0,0,0
1681118259.19976592,93028607,1544,1544,1544,1544,0,0,0,0,0,0,0,0,0,0
1681118259.29972601,93128567,1545,1544,1544,1544,0,0,0,0,0,0,0,0,0,0
1681118259.39968610,93228527,1545,1545,1545,1544,0,0,0,0,0,0,0,0,0,0
1681118259.49964595,93328487,1544,1544,1544,1544,0,0,0,0,0,0,0,0,0,0
1681118259.59960604,93428447,1545,1545,1545,1545,0,0,0,0,0,0,0,0,0,0
1681118259.69956613,93528407,1544,1545,1544,1545,0,0,0,0,0,0,0,0,0,0
1681118259.79952598,93628367,1544,1544,1544,1544,0,0,0,0,0,0,0,0,0,0
1681118259.89948606,93728327,1545,1545,1545,1545,0,0,0,0,0,0,0,0,0,0
1681118259.99944592,93828287,1543,1544,1544,1544,0,0,0,0,0,0,0,0,0,0
1681118260.09940600,93928247,1544,1544,1544,1544,0,0,0,0,0,0,0,0,0,0
1681118260.19936609,94028207,1545,1544,1545,1545,0,0,0,0,0,0,0,0,0,0
1681118260.29932594,94128167,1544,1544,1544,1544,0,0,0,0,0,0,0,0,0,0
1681118260.40011907,94228960,1543,1543,1544,1544,0,0,0,0,0,0,0,0,0,0
1681118260.50007892,94328920,1543,1544,1543,1544,0,0,0,0,0,0,0,0,0,0
1681118260.60003901,94428880,1543,1543,1543,1544,0,0,0,0,0,0,0,0,0,0
1681118260.69999909,94528840,1544,1543,1543,1544,0,0,0,0,0,0,0,0,0,0
1681118260.79995894,94628800,1544,1544,1544,1544,0,0,0,0,0,0,0,0,0,0
1681118260.89991903,94728760,1544,1544,1544,1544,0,0,0,0,0,0,0,0,0,0
1681118260.99987912,94828720,1544,1544,1544,1544,0,0,0,0,0,0,0,0,0,0
1681118261.09983897,94928680,1545,1545,1545,1544,0,0,0,0,0,0,0,0,0,0
1681118261.19979906,95028640,1543,1543,1544,1543,0,0,0,0,0,0,0,0,0,0
1681118261.29975891,95128600,1544,1544,1544,1544,0,0,0,0,0,0,0,0,0,0
1681118261.39971900,95228560,1544,1544,1544,1544,0,0,0,0,0,0,0,0,0,0
1681118261.49967909,95328520,1544,1544,1544,1544,0,0,0,0,0,0,0,0,0,0
1681118261.59963894,95428480,1544,1544,1544,1545,0,0,0,0,0,0,0,0,0,0
1681118261.69959903,95528440,1544,1544,1544,1544,0,0,0,0,0,0,0,0,0,0
1681118261.79955912,95628400,1544,1544,1544,1544,0,0,0,0,0,0,0,0,0,0
1681118261.89951897,95728360,1544,1544,1544,1544,0,0,0,0,0,0,0,0,0,0
1681118261.99947906,95828320,1544,1545,1544,1544,0,0,0,0,0,0,0,0,0,0
1681118262.09943914,95928280,1545,1545,1545,1545,0,0,0,0,0,0,0,0,0,0
1681118262.19939899,96028240,1545,1545,1545,1545,0,0,0,0,0,0,0,0,0,0
1681118262.29935908,96128200,1544,1544,1544,1544,0,0,0,0,0,0,0,0,0,0
1681118262.39931893,96228160,1543,1544,1544,1544,0,0,0,0,0,0,0,0,0,0
1681118262.50011206,96328953,1544,1544,1544,1544,0,0,0,0,0,0,0,0,0,0
1681118262.60007215,96428913,1544,1544,1544,1544,0,0,0,0,0,0,0,0,0,0
1681118262.70003200,96528873,1544,1544,1544,1544,0,0,0,0,0,0,0,0,0,0
1681118262.79999208,96628833,1373,1373,1428,1372,0,0,0,0,0,0,0,0,0,0
1681118262.89995193,96728793,1256,1256,1358,1256,0,0,0,0,0,0,0,0,0,0
1681118262.99991202,96828753,1216,1216,1336,1216,0,0,0,0,0,0,0,0,0,0
1681118263.09987211,96928713,1196,1194,1325,1195,0,0,0,0,0,0,0,0,0,0
1681118263.19983196,97028673,1151,1151,1304,1150,0,0,0,0,0,0,0,0,0,0
1681118263.29979205,97128633,1173,1172,1178,1150,0,0,0,0,0,0,0,0,0,0
1681118263.39975214,97228593,1168,1167,1119,1150,0,0,0,0,0,0,0,0,0,0
1681118263.49971199,97328553,1168,1167,1119,1150,0,0,0,0,0,0,0,0,0,0
1681118263.59967208,97428513,1168,1168,1119,1150,0,0,0,0,0,0,0,0,0,0
1681118263.69963193,97528473,1167,1151,1129,1150,0,0,0,0,0,0,0,0,0,0
1681118263.79959202,97628433,1167,1158,1126,1150,0,0,0,0,0,0,0,0,0,0
1681118263.89955211,97728393,1167,1160,1125,1150,0,0,0,0,0,0,0,0,0,0
1681118263.99951196,97828353,1167,1160,1125,1150,0,0,0,0,0,0,0,0,0,0
1681118264.09947205,97928313,1166,1159,1125,1150,0,0,0,0,0,0,0,0,0,0
1681118264.19943213,98028273,1166,1159,1125,1150,0,0,0,0,0,0,0,0,0,0
1681118264.29939198,98128233,1166,1158,1126,1150,0,0,0,0,0,0,0,0,0,0
1681118264.39935207,98228193,1166,1158,1127,1150,0,0,0,0,0,0,0,0,0,0
1681118264.50014496,98328986,1165,1164,1123,1150,0,0,0,0,0,0,0,0,0,0
1681118264.60010505,98428946,1165,1163,1124,1150,0,0,0,0,0,0,0,0,0,0
1681118264.70006514,98528906,1165,1163,1124,1150,0,0,0,0,0,0,0,0,0,0
1681118264.80002499,98628866,1165,1163,1124,1150,0,0,0,0,0,0,0,0,0,0
1681118264.89998507,98728826,1156,1155,982,1150,0,0,0,0,0,0,0,0,0,0
1681118264.99994493,98828786,1000,1000,1000,1000,0,0,0,0,0,0,0,0,0,0
1681118265.09990501,98928746,1000,1000,1000,1000,0,0,0,0,0,0,0,0,0,0
1681118265.19986510,99028706,1000,1000,1000,1000,0,0,0,0,0,0,0,0,0,0
1681118265.29982495,99128666,1000,1000,1000,1000,0,0,0,0,0,0,0,0,0,0
1681118265.39978504,99228626,1000,1000,1000,1000,0,0,0,0,0,0,0,0,0,0
1681118265.49974513,99328586,1000,1000,1000,1000,0,0,0,0,0,0,0,0,0,0
1681118265.59970498,99428546,1000,1000,1000,1000,0,0,0,0,0,0,0,0,0,0
1681118265.69966507,99528506,1000,1000,1000,1000,0,0,0,0,0,0,0,0,0,0
1681118265.79962492,99628466,1000,1000,1000,1000,0,0,0,0,0,0,0,0,0,0
1681118265.89958501,99728426,1000,1000,1000,1000,0,0,0,0,0,0,0,0,0,0
1681118265.99954510,99828386,1000,1000,1000,1000,0,0,0,0,0,0,0,0,0,0
1681118266.09950495,99928346,1000,1000,1000,1000,0,0,0,0,0,0,0,0,0,0
1681118266.19946504,100028306,1000,1000,1000,1000,0,0,0,0,0,0,0,0,0,0
1681118266.29942513,100128266,1000,1000,1000,1000,0,0,0,0,0,0,0,0,0,0
1681118266.39938498,100228226,1000,1000,1000,1000,0,0,0,0,0,0,0,0,0,0
1681118266.49934506,100328186,1000,1000,1000,1000,0,0,0,0,0,0,0,0,0,0
1681118266.60013795,100428979,1000,1000,1000,1000,0,0,0,0,0,0,0,0,0,0
1681118266.70009804,100528939,1000,1000,1000,1000,0,0,0,0,0,0,0,0,0,0
1681118266.80005813,100628899,1000,1000,1000,1000,0,0,0,0,0,0,0,0,0,0
1681118266.90001798,100728859,1000,1000,1000,1000,0,0,0,0,0,0,0,0,0,0
1681118266.99997807,100828819,1000,1000,1000,1000,0,0,0,0,0,0,0,0,0,0
1681118267.09993792,100928779,1000,1000,1000,1000,0,0,0,0,0,0,0,0,0,0
1681118267.19989800,101028739,1000,1000,1000,1000,0,0,0,0,0,0,0,0,0,0
1681118267.29985809,101128699,1000,1000,1000,1000,0,0,0,0,0,0,0,0,0,0
1681118267.39981794,101228659,1000,1000,1000,1000,0,0,0,0,0,0,0,0,0,0
1681118267.49977803,101328619,1000,1000,1000,1000,0,0,0,0,0,0,0,0,0,0
1681118267.59973812,101428579,1000,1000,1000,1000,0,0,0,0,0,0,0,0,0,0
1681118267.69969797,101528539,1000,1000,1000,1000,0,0,0,0,0,0,0,0,0,0
1681118267.79965806,101628499,1000,1000,1000,1000,0,0,0,0,0,0,0,0,0,0
1681118267.89961791,101728459,1000,1000,1000,1000,0,0,0,0,0,0,0,0,0,0
1681118267.99957800,101828419,1000,1000,1000,1000,0,0,0,0,0,0,0,0,0,0
1681118268.09953809,101928379,1000,1000,1000,1000,0,0,0,0,0,0,0,0,0,0
1681118268.19949794,102028339,1000,1000,1000,1000,0,0,0,0,0,0,0,0,0,0
1681118268.29945803,102128299,1000,1000,1000,1000,0,0,0,0,0,0,0,0,0,0
1681118268.39941812,102228259,1000,1000,1000,1000,0,0,0,0,0,0,0,0,0,0
1681118268.49937797,102328219,1000,1000,1000,1000,0,0,0,0,0,0,0,0,0,0
1681118268.59933805,102428179,1000,1000,1000,1000,0,0,0,0,0,0,0,0,0,0
1681118268.70013094,102528972,1000,1000,1000,1000,0,0,0,0,0,0,0,0,0,0
1681118268.80009103,102628932,1000,1000,1000,1000,0,0,0,0,0,0,0,0,0,0
1681118268.90005112,102728892,1000,1000,1000,1000,0,0,0,0,0,0,0,0,0,0
1681118269.00001097,102828852,1000,1000,1000,1000,0,0,0,0,0,0,0,0,0,0
1681118269.09997106,102928812,1000,1000,1000,1000,0,0,0,0,0,0,0,0,0,0
1681118269.19993114,103028772,1000,1000,1000,1000,0,0,0,0,0,0,0,0,0,0
1681118269.29989100,103128732,1000,1000,1000,1000,0,0,0,0,0,0,0,0,0,0
1681118269.39985108,103228692,1000,1000,1000,1000,0,0,0,0,0,0,0,0,0,0
1681118269.49981093,103328652,1000,1000,1000,1000,0,0,0,0,0,0,0,0,0,0
1681118269.59977102,103428612,1000,1000,1000,1000,0,0,0,0,0,0,0,0,0,0
1681118269.69973111,103528572,1000,1000,1000,1000,0,0,0,0,0,0,0,0,0,0
1681118269.79969096,103628532,1000,1000,1000,1000,0,0,0,0,0,0,0,0,0,0
1681118269.89965105,103728492,1000,1000,1000,1000,0,0,0,0,0,0,0,0,0,0
1681118269.99961114,103828452,1000,1000,1000,1000,0,0,0,0,0,0,0,0,0,0
1681118270.09957099,103928412,1000,1000,1000,1000,0,0,0,0,0,0,0,0,0,0
1681118270.19953108,104028372,1000,1000,1000,1000,0,0,0,0,0,0,0,0,0,0
1681118270.29949093,104128332,1000,1000,1000,1000,0,0,0,0,0,0,0,0,0,0
1681118270.39945102,104228292,1000,1000,1000,1000,0,0,0,0,0,0,0,0,0,0
1681118270.49941111,104328252,1000,1000,1000,1000,0,0,0,0,0,0,0,0,0,0
1681118270.59937096,104428212,1000,1000,1000,1000,0,0,0,0,0,0,0,0,0,0
1681118270.69933105,104528172,1000,1000,1000,1000,0,0,0,0,0,0,0,0,0,0
1681118270.80012393,104628965,1000,1000,1000,1000,0,0,0,0,0,0,0,0,0,0
1681118270.90008402,104728925,1000,1000,1000,1000,0,0,0,0,0,0,0,0,0,0
1681118271.00004411,104828885,1000,1000,1000,1000,0,0,0,0,0,0,0,0,0,0
1681118271.10000396,104928845,1000,1000,1000,1000,0,0,0,0,0,0,0,0,0,0
1681118271.19996405,105028805,1000,1000,1000,1000,0,0,0,0,0,0,0,0,0,0
1681118271.29992414,105128765,1000,1000,1000,1000,0,0,0,0,0,0,0,0,0,0
1681118271.39988399,105228725,1000,1000,1000,1000,0,0,0,0,0,0,0,0,0,0
1681118271.49984407,105328685,1000,1000,1000,1000,0,0,0,0,0,0,0,0,0,0
1681118271.59980392,105428645,1000,1000,1000,1000,0,0,0,0,0,0,0,0,0,0
1681118271.69976401,105528605,1000,1000,1000,1000,0,0,0,0,0,0,0,0,0,0
1681118271.79972410,105628565,1000,1000,1000,1000,0,0,0,0,0,0,0,0,0,0
1681118271.89968395,105728525,1000,1000,1000,1000,0,0,0,0,0,0,0,0,0,0
1681118271.99964404,105828485,1000,1000,1000,1000,0,0,0,0,0,0,0,0,0,0
1681118272.09960413,105928445,1000,1000,1000,1000,0,0,0,0,0,0,0,0,0,0
1681118272.19956398,106028405,1000,1000,1000,1000,0,0,0,0,0,0,0,0,0,0
1681118272.29952407,106128365,1000,1000,1000,1000,0,0,0,0,0,0,0,0,0,0
1681118272.39948392,106228325,1000,1000,1000,1000,0,0,0,0,0,0,0,0,0,0
1681118272.49944401,106328285,1000,1000,1000,1000,0,0,0,0,0,0,0,0,0,0
1681118272.59940410,106428245,1000,1000,1000,1000,0,0,0,0,0,0,0,0,0,0
1681118272.69936395,106528205,1000,1000,1000,1000,0,0,0,0,0,0,0,0,0,0
1681118272.79932404,106628165,1000,1000,1000,1000,0,0,0,0,0,0,0,0,0,0
1681118272.90011692,106728958,1000,1000,1000,1000,0,0,0,0,0,0,0,0,0,0
1681118273.00007701,106828918,1000,1000,1000,1000,0,0,0,0,0,0,0,0,0,0
1681118273.10003710,106928878,1000,1000,1000,1000,0,0,0,0,0,0,0,0,0,0
1681118273.19999695,107028838,1000,1000,1000,1000,0,0,0,0,0,0,0,0,0,0
1681118273.29995704,107128798,1000,1000,1000,1000,0,0,0,0,0,0,0,0,0,0
1681118273.39991713,107228758,1000,1000,1000,1000,0,0,0,0,0,0,0,0,0,0
1681118273.49987698,107328718,1000,1000,1000,1000,0,0,0,0,0,0,0,0,0,0
1681118273.59983706,107428678,1000,1000,1000,1000,0,0,0,0,0,0,0,0,0,0
1681118273.69979692,107528638,1000,1000,1000,1000,0,0,0,0,0,0,0,0,0,0
1681118273.79975700,107628598,1000,1000,1000,1000,0,0,0,0,0,0,0,0,0,0
1681118273.89971709,107728558,1000,1000,1000,1000,0,0,0,0,0,0,0,0,0,0
1681118273.99967694,107828518,1000,1000,1000,1000,0,0,0,0,0,0,0,0,0,0
1681118274.09963703,107928478,1000,1000,1000,1000,0,0,0,0,0,0,0,0,0,0
1681118274.19959712,108028438,1000,1000,1000,1000,0,0,0,0,0,0,0,0,0,0
1681118274.29955697,108128398,1000,1000,1000,1000,0,0,0,0,0,0,0,0,0,0
1681118274.39951706,108228358,1000,1000,1000,1000,0,0,0,0,0,0,0,0,0,0
1681118274.49947715,108328318,1000,1000,1000,1000,0,0,0,0,0,0,0,0,0,0
1681118274.59943700,108428278,1000,1000,1000,1000,0,0,0,0,0,0,0,0,0,0
1681118274.69939709,108528238,1000,1000,1000,1000,0,0,0,0,0,0,0,0,0,0
1681118274.79935694,108628198,1000,1000,1000,1000,0,0,0,0,0,0,0,0,0,0
1681118274.89931703,108728158,1000,1000,1000,1000,0,0,0,0,0,0,0,0,0,0
1681118275.00010991,108828951,1000,1000,1000,1000,0,0,0,0,0,0,0,0,0,0
1681118275.10007000,108928911,1000,1000,1000,1000,0,0,0,0,0,0,0,0,0,0
1681118275.20003009,109028871,1000,1000,1000,1000,0,0,0,0,0,0,0,0,0,0
1681118275.29998994,109128831,1000,1000,1000,1000,0,0,0,0,0,0,0,0,0,0
1681118275.39995003,109228791,1000,1000,1000,1000,0,0,0,0,0,0,0,0,0,0
1681118275.49991012,109328751,1000,1000,1000,1000,0,0,0,0,0,0,0,0,0,0
1681118275.59986997,109428711,1000,1000,1000,1000,0,0,0,0,0,0,0,0,0,0
1681118275.69983006,109528671,1000,1000,1000,1000,0,0,0,0,0,0,0,0,0,0
1681118275.79979014,109628631,1000,1000,1000,1000,0,0,0,0,0,0,0,0,0,0
1681118275.89974999,109728591,1000,1000,1000,1000,0,0,0,0,0,0,0,0,0,0
1681118275.99971008,109828551,1000,1000,1000,1000,0,0,0,0,0,0,0,0,0,0
1681118276.09966993,109928511,1000,1000,1000,1000,0,0,0,0,0,0,0,0,0,0
1681118276.19963002,110028471,1000,1000,1000,1000,0,0,0,0,0,0,0,0,0,0
1681118276.29959011,110128431,1000,1000,1000,1000,0,0,0,0,0,0,0,0,0,0
1681118276.39954996,110228391,1000,1000,1000,1000,0,0,0,0,0,0,0,0,0,0
1681118276.49951005,110328351,1000,1000,1000,1000,0,0,0,0,0,0,0,0,0,0
1681118276.59947014,110428311,1000,1000,1000,1000,0,0,0,0,0,0,0,0,0,0
1681118276.69942999,110528271,1000,1000,1000,1000,0,0,0,0,0,0,0,0,0,0
1681118276.79939008,110628231,1000,1000,1000,1000,0,0,0,0,0,0,0,0,0,0
1681118276.89934993,110728191,1000,1000,1000,1000,0,0,0,0,0,0,0,0,0,0
1681118277.00014305,110828984,1000,1000,1000,1000,0,0,0,0,0,0,0,0,0,0
1681118277.10010314,110928944,1000,1000,1000,1000,0,0,0,0,0,0,0,0,0,0
1681118277.20006299,111028904,1000,1000,1000,1000,0,0,0,0,0,0,0,0,0,0
1681118277.30002308,111128864,1000,1000,1000,1000,0,0,0,0,0,0,0,0,0,0
1681118277.39998293,111228824,1000,1000,1000,1000,0,0,0,0,0,0,0,0,0,0
1681118277.49994302,111328784,1000,1000,1000,1000,0,0,0,0,0,0,0,0,0,0
1681118277.59990311,111428744,1000,1000,1000,1000,0,0,0,0,0,0,0,0,0,0
1681118277.69986296,111528704,1000,1000,1000,1000,0,0,0,0,0,0,0,0,0,0
1681118277.79982305,111628664,1000,1000,1000,1000,0,0,0,0,0,0,0,0,0,0
1681118277.89978313,111728624,1000,1000,1000,1000,0,0,0,0,0,0,0,0,0,0
1681118277.99974298,111828584,1000,1000,1000,1000,0,0,0,0,0,0,0,0,0,0
1681118278.09970307,111928544,1000,1000,1000,1000,0,0,0,0,0,0,0,0,0,0
1681118278.19966292,112028504,1000,1000,1000,1000,0,0,0,0,0,0,0,0,0,0
1681118278.29962301,112128464,1000,1000,1000,1000,0,0,0,0,0,0,0,0,0,0
1681118278.39958310,112228424,1000,1000,1000,1000,0,0,0,0,0,0,0,0,0,0
1681118278.49954295,112328384,1000,1000,1000,1000,0,0,0,0,0,0,0,0,0,0
1681118278.59950304,112428344,1000,1000,1000,1000,0,0,0,0,0,0,0,0,0,0
1681118278.69946313,112528304,1000,1000,1000,1000,0,0,0,0,0,0,0,0,0,0
1681118278.79942298,112628264,1000,1000,1000,1000,0,0,0,0,0,0,0,0,0,0
1681118278.89938307,112728224,1000,1000,1000,1000,0,0,0,0,0,0,0,0,0,0
1681118278.99934292,112828184,1000,1000,1000,1000,0,0,0,0,0,0,0,0,0,0
1681118279.10013604,112928977,1000,1000,1000,1000,0,0,0,0,0,0,0,0,0,0
1681118279.20009613,113028937,1000,1000,1000,1000,0,0,0,0,0,0,0,0,0,0
1681118279.30005598,113128897,1000,1000,1000,1000,0,0,0,0,0,0,0,0,0,0
1681118279.40001607,113228857,1000,1000,1000,1000,0,0,0,0,0,0,0,0,0,0
1681118279.49997592,113328817,1000,1000,1000,1000,0,0,0,0,0,0,0,0,0,0
1681118279.59993601,113428777,1000,1000,1000,1000,0,0,0,0,0,0,0,0,0,0
1681118279.69989610,113528737,1000,1000,1000,1000,0,0,0,0,0,0,0,0,0,0
1681118279.79985595,113628697,1000,1000,1000,1000,0,0,0,0,0,0,0,0,0,0
1681118279.89981604,113728657,1000,1000,1000,1000,0,0,0,0,0,0,0,0,0,0
