timestamp,TimeUS,C1,C2,C3,C4,C5,C6,C7,C8,C9,C10,C11,C12,C13,C14
1681385132.79999995,76828423,1000,1000,1000,1000,0,0,0,0,0,0,0,0,0,0
1681385132.89996004,76928383,1000,1000,1000,1000,0,0,0,0,0,0,0,0,0,0
1681385132.99991989,77028343,1000,1000,1000,1000,0,0,0,0,0,0,0,0,0,0
1681385133.09987998,77128303,1000,1000,1000,1000,0,0,0,0,0,0,0,0,0,0
1681385133.19983983,77228263,1000,1000,1000,1000,0,0,0,0,0,0,0,0,0,0
1681385133.29979992,77328223,1000,1000,1000,1000,0,0,0,0,0,0,0,0,0,0
1681385133.39976001,77428183,1000,1000,1000,1000,0,0,0,0,0,0,0,0,0,0
1681385133.50055289,77528976,1000,1000,1000,1000,0,0,0,0,0,0,0,0,0,0
1681385133.60051298,77628936,1000,1000,1000,1000,0,0,0,0,0,0,0,0,0,0
1681385133.70047283,77728896,1000,1000,1000,1000,0,0,0,0,0,0,0,0,0,0
1681385133.80043292,77828856,1000,1000,1000,1000,0,0,0,0,0,0,0,0,0,0
1681385133.90039301,77928816,1000,1000,1000,1000,0,0,0,0,0,0,0,0,0,0
1681385134.00035286,78028776,1000,1000,1000,1000,0,0,0,0,0,0,0,0,0,0
1681385134.10031295,78128736,1000,1000,1000,1000,0,0,0,0,0,0,0,0,0,0
1681385134.20027304,78228696,1000,1000,1000,1000,0,0,0,0,0,0,0,0,0,0
1681385134.30023289,78328656,1000,1000,1000,1000,0,0,0,0,0,0,0,0,0,0
1681385134.40019298,78428616,1000,1000,1000,1000,0,0,0,0,0,0,0,0,0,0
1681385134.50015283,78528576,1000,1000,1000,1000,0,0,0,0,0,0,0,0,0,0
1681385134.60011292,78628536,1000,1000,1000,1000,0,0,0,0,0,0,0,0,0,0
1681385134.70007300,78728496,1000,1000,1000,1000,0,0,0,0,0,0,0,0,0,0
1681385134.80003285,78828456,1009,1009,1009,1009,0,0,0,0,0,0,0,0,0,0
1681385134.89999294,78928416,1039,1039,1039,1039,0,0,0,0,0,0,0,0,0,0
1681385134.99995303,79028376,1069,1069,1069,1069,0,0,0,0,0,0,0,0,0,0
1681385135.09991288,79128336,1099,1099,1099,1099,0,0,0,0,0,0,0,0,0,0
1681385135.19987297,79228296,1128,1128,1128,1128,0,0,0,0,0,0,0,0,0,0
1681385135.29983282,79328256,1238,1226,1227,1238,0,0,0,0,0,0,0,0,0,0
1681385135.39979291,79428216,1459,1451,1452,1460,0,0,0,0,0,0,0,0,0,0
1681385135.49975300,79528176,1627,1620,1620,1627,0,0,0,0,0,0,0,0,0,0
1681385135.60054588,79628969,1768,1760,1761,1768,0,0,0,0,0,0,0,0,0,0
1681385135.70050597,79728929,1891,1884,1885,1891,0,0,0,0,0,0,0,0,0,0
1681385135.80046582,79828889,1895,1892,1893,1895,0,0,0,0,0,0,0,0,0,0
1681385135.90042591,79928849,1768,1767,1765,1770,0,0,0,0,0,0,0,0,0,0
1681385136.00038600,80028809,1657,1658,1656,1659,0,0,0,0,0,0,0,0,0,0
1681385136.10034585,80128769,1614,1616,1616,1616,0,0,0,0,0,0,0,0,0,0
1681385136.20030594,80228729,1613,1615,1615,1613,0,0,0,0,0,0,0,0,0,0
1681385136.30026603,80328689,1619,1621,1622,1619,0,0,0,0,0,0,0,0,0,0
1681385136.40022588,80428649,1621,1622,1623,1620,0,0,0,0,0,0,0,0,0,0
1681385136.50018597,80528609,1617,1616,1617,1616,0,0,0,0,0,0,0,0,0,0
1681385136.60014582,80628569,1612,1611,1611,1611,0,0,0,0,0,0,0,0,0,0
1681385136.70010591,80728529,1611,1609,1609,1611,0,0,0,0,0,0,0,0,0,0
1681385136.80006599,80828489,1613,1611,1611,1612,0,0,0,0,0,0,0,0,0,0
1681385136.90002584,80928449,1614,1615,1614,1614,0,0,0,0,0,0,0,0,0,0
1681385136.99998593,81028409,1617,1617,1617,1616,0,0,0,0,0,0,0,0,0,0
1681385137.09994602,81128369,1619,1619,1620,1617,0,0,0,0,0,0,0,0,0,0
1681385137.19990587,81228329,1588,1589,1595,1581,0,0,0,0,0,0,0,0,0,0
1681385137.29986596,81328289,1573,1574,1579,1568,0,0,0,0,0,0,0,0,0,0
1681385137.39982581,81428249,1562,1562,1563,1561,0,0,0,0,0,0,0,0,0,0
1681385137.49978590,81528209,1554,1553,1549,1558,0,0,0,0,0,0,0,0,0,0
1681385137.59974599,81628169,1545,1544,1536,1553,0,0,0,0,0,0,0,0,0,0
1681385137.70053887,81728962,1539,1538,1530,1546,0,0,0,0,0,0,0,0,0,0
1681385137.80049896,81828922,1533,1532,1528,1537,0,0,0,0,0,0,0,0,0,0
1681385137.90045881,81928882,1528,1529,1527,1529,0,0,0,0,0,0,0,0,0,0
1681385138.00041890,82028842,1528,1528,1529,1527,0,0,0,0,0,0,0,0,0,0
1681385138.10037899,82128802,1530,1530,1532,1528,0,0,0,0,0,0,0,0,0,0
1681385138.20033884,82228762,1532,1532,1535,1529,0,0,0,0,0,0,0,0,0,0
1681385138.30029893,82328722,1536,1536,1539,1533,0,0,0,0,0,0,0,0,0,0
1681385138.40025902,82428682,1538,1539,1541,1537,0,0,0,0,0,0,0,0,0,0
1681385138.50021887,82528642,1542,1542,1543,1541,0,0,0,0,0,0,0,0,0,0
1681385138.60017896,82628602,1545,1546,1546,1546,0,0,0,0,0,0,0,0,0,0
1681385138.70013905,82728562,1548,1547,1547,1548,0,0,0,0,0,0,0,0,0,0
1681385138.80009890,82828522,1550,1550,1550,1551,0,0,0,0,0,0,0,0,0,0
1681385138.90005898,82928482,1553,1553,1552,1555,0,0,0,0,0,0,0,0,0,0
1681385139.00001884,83028442,1554,1554,1555,1557,0,0,0,0,0,0,0,0,0,0
1681385139.09997892,83128402,1556,1556,1560,1562,0,0,0,0,0,0,0,0,0,0
1681385139.19993901,83228362,1558,1559,1563,1564,0,0,0,0,0,0,0,0,0,0
1681385139.29989886,83328322,1560,1559,1563,1564,0,0,0,0,0,0,0,0,0,0
1681385139.39985895,83428282,1562,1562,1565,1564,0,0,0,0,0,0,0,0,0,0
1681385139.49981904,83528242,1565,1565,1566,1566,0,0,0,0,0,0,0,0,0,0
1681385139.59977889,83628202,1566,1566,1566,1566,0,0,0,0,0,0,0,0,0,0
1681385139.69973898,83728162,1568,1568,1567,1567,0,0,0,0,0,0,0,0,0,0
1681385139.80053186,83828955,1569,1569,1567,1567,0,0,0,0,0,0,0,0,0,0
1681385139.90049195,83928915,1570,1570,1567,1567,0,0,0,0,0,0,0,0,0,0
1681385140.00045204,84028875,1571,1571,1568,1568,0,0,0,0,0,0,0,0,0,0
1681385140.10041189,84128835,1572,1572,1569,1569,0,0,0,0,0,0,0,0,0,0
1681385140.20037198,84228795,1573,1573,1571,1571,0,0,0,0,0,0,0,0,0,0
1681385140.30033183,84328755,1573,1573,1571,1571,0,0,0,0,0,0,0,0,0,0
1681385140.40029192,84428715,1574,1574,1572,1571,0,0,0,0,0,0,0,0,0,0
1681385140.50025201,84528675,1575,1574,1574,1573,0,0,0,0,0,0,0,0,0,0
1681385140.60021186,84628635,1576,1576,1576,1575,0,0,0,0,0,0,0,0,0,0
1681385140.70017195,84728595,1575,1575,1575,1574,0,0,0,0,0,0,0,0,0,0
1681385140.80013204,84828555,1575,1575,1576,1575,0,0,0,0,0,0,0,0,0,0
1681385140.90009189,84928515,1576,1576,1577,1577,0,0,0,0,0,0,0,0,0,0
1681385141.00005198,85028475,1577,1577,1577,1578,0,0,0,0,0,0,0,0,0,0
1681385141.10001183,85128435,1575,1575,1576,1577,0,0,0,0,0,0,0,0,0,0
1681385141.19997191,85228395,1575,1576,1576,1577,0,0,0,0,0,0,0,0,0,0
1681385141.29993200,85328355,1576,1576,1576,1576,0,0,0,0,0,0,0,0,0,0
1681385141.39989185,85428315,1576,1576,1577,1576,0,0,0,0,0,0,0,0,0,0
1681385141.49985194,85528275,1577,1576,1576,1576,0,0,0,0,0,0,0,0,0,0
1681385141.59981203,85628235,1578,1578,1578,1578,0,0,0,0,0,0,0,0,0,0
1681385141.69977188,85728195,1578,1577,1577,1577,0,0,0,0,0,0,0,0,0,0
1681385141.79973197,85828155,1579,1579,1578,1578,0,0,0,0,0,0,0,0,0,0
1681385141.90052485,85928948,1579,1579,1578,1579,0,0,0,0,0,0,0,0,0,0
1681385142.00048494,86028908,1579,1579,1579,1579,0,0,0,0,0,0,0,0,0,0
1681385142.10044503,86128868,1578,1578,1578,1578,0,0,0,0,0,0,0,0,0,0
1681385142.20040488,86228828,1578,1578,1578,1578,0,0,0,0,0,0,0,0,0,0
1681385142.30036497,86328788,1578,1579,1578,1579,0,0,0,0,0,0,0,0,0,0
1681385142.40032482,86428748,1578,1578,1578,1578,0,0,0,0,0,0,0,0,0,0
1681385142.50028491,86528708,1579,1579,1579,1579,0,0,0,0,0,0,0,0,0,0
1681385142.60024500,86628668,1578,1578,1578,1578,0,0,0,0,0,0,0,0,0,0
1681385142.70020485,86728628,1579,1579,1579,1580,0,0,0,0,0,0,0,0,0,0
1681385142.80016494,86828588,1580,1579,1580,1579,0,0,0,0,0,0,0,0,0,0
1681385142.90012503,86928548,1580,1579,1580,1580,0,0,0,0,0,0,0,0,0,0
1681385143.00008488,87028508,1578,1578,1579,1579,0,0,0,0,0,0,0,0,0,0
1681385143.10004497,87128468,1579,1579,1579,1580,0,0,0,0,0,0,0,0,0,0
1681385143.20000482,87228428,1579,1578,1579,1579,0,0,0,0,0,0,0,0,0,0
1681385143.29996490,87328388,1579,1579,1579,1580,0,0,0,0,0,0,0,0,0,0
1681385143.39992499,87428348,1579,1579,1579,1579,0,0,0,0,0,0,0,0,0,0
1681385143.49988484,87528308,1580,1580,1580,1580,0,0,0,0,0,0,0,0,0,0
1681385143.59984493,87628268,1580,1580,1580,1580,0,0,0,0,0,0,0,0,0,0
1681385143.69980502,87728228,1580,1580,1580,1580,0,0,0,0,0,0,0,0,0,0
1681385143.79976487,87828188,1580,1581,1581,1580,0,0,0,0,0,0,0,0,0,0
1681385143.90055799,87928981,1581,1580,1580,1580,0,0,0,0,0,0,0,0,0,0
1681385144.00051785,88028941,1580,1580,1580,1579,0,0,0,0,0,0,0,0,0,0
1681385144.10047793,88128901,1580,1580,1580,1580,0,0,0,0,0,0,0,0,0,0
1681385144.20043802,88228861,1580,1581,1581,1581,0,0,0,0,0,0,0,0,0,0
1681385144.30039787,88328821,1580,1581,1581,1581,0,0,0,0,0,0,0,0,0,0
1681385144.40035796,88428781,1580,1580,1580,1580,0,0,0,0,0,0,0,0,0,0
1681385144.50031781,88528741,1581,1581,1581,1581,0,0,0,0,0,0,0,0,0,0
1681385144.60027790,88628701,1581,1581,1582,1582,0,0,0,0,0,0,0,0,0,0
1681385144.70023799,88728661,1581,1581,1582,1582,0,0,0,0,0,0,0,0,0,0
1681385144.80019784,88828621,1581,1581,1581,1581,0,0,0,0,0,0,0,0,0,0
1681385144.90015793,88928581,1581,1582,1582,1582,0,0,0,0,0,0,0,0,0,0
1681385145.00011802,89028541,1581,1581,1581,1581,0,0,0,0,0,0,0,0,0,0
1681385145.10007787,89128501,1581,1580,1581,1581,0,0,0,0,0,0,0,0,0,0
1681385145.20003796,89228461,1581,1581,1586,1575,0,0,0,0,0,0,0,0,0,0
1681385145.29999804,89328421,1579,1581,1586,1572,0,0,0,0,0,0,0,0,0,0
1681385145.39995790,89428381,1579,1582,1580,1573,0,0,0,0,0,0,0,0,0,0
1681385145.49991798,89528341,1577,1580,1570,1572,0,0,0,0,0,0,0,0,0,0
1681385145.59987783,89628301,1577,1579,1563,1569,0,0,0,0,0,0,0,0,0,0
1681385145.69983792,89728261,1578,1579,1558,1565,0,0,0,0,0,0,0,0,0,0
1681385145.79979801,89828221,1579,1577,1555,1559,0,0,0,0,0,0,0,0,0,0
1681385145.89975786,89928181,1579,1577,1554,1556,0,0,0,0,0,0,0,0,0,0
1681385146.00055099,90028974,1579,1578,1555,1554,0,0,0,0,0,0,0,0,0,0
1681385146.10051084,90128934,1579,1578,1556,1553,0,0,0,0,0,0,0,0,0,0
1681385146.20047092,90228894,1578,1578,1556,1553,0,0,0,0,0,0,0,0,0,0
1681385146.30043101,90328854,1576,1578,1555,1554,0,0,0,0,0,0,0,0,0,0
1681385146.40039086,90428814,1575,1577,1554,1553,0,0,0,0,0,0,0,0,0,0
1681385146.50035095,90528774,1575,1577,1554,1554,0,0,0,0,0,0,0,0,0,0
1681385146.60031104,90628734,1576,1578,1553,1553,0,0,0,0,0,0,0,0,0,0
1681385146.70027089,90728694,1576,1578,1551,1550,0,0,0,0,0,0,0,0,0,0
1681385146.80023098,90828654,1578,1579,1549,1548,0,0,0,0,0,0,0,0,0,0
1681385146.90019083,90928614,1581,1581,1546,1546,0,0,0,0,0,0,0,0,0,0
1681385147.00015092,91028574,1584,1584,1544,1544,0,0,0,0,0,0,0,0,0,0
1681385147.10011101,91128534,1586,1587,1541,1540,0,0,0,0,0,0,0,0,0,0
1681385147.20007086,91228494,1589,1590,1538,1538,0,0,0,0,0,0,0,0,0,0
1681385147.30003095,91328454,1591,1592,1535,1535,0,0,0,0,0,0,0,0,0,0
1681385147.39999104,91428414,1594,1594,1534,1535,0,0,0,0,0,0,0,0,0,0
1681385147.49995089,91528374,1594,1594,1534,1534,0,0,0,0,0,0,0,0,0,0
1681385147.59991097,91628334,1594,1594,1535,1537,0,0,0,0,0,0,0,0,0,0
1681385147.69987082,91728294,1592,1592,1538,1540,0,0,0,0,0,0,0,0,0,0
1681385147.79983091,91828254,1589,1588,1543,1546,0,0,0,0,0,0,0,0,0,0
1681385147.89979100,91928214,1584,1581,1550,1553,0,0,0,0,0,0,0,0,0,0
1681385147.99975085,92028174,1575,1573,1560,1562,0,0,0,0,0,0,0,0,0,0
1681385148.10054398,92128967,1566,1562,1572,1573,0,0,0,0,0,0,0,0,0,0
1681385148.20050383,92228927,1555,1551,1584,1585,0,0,0,0,0,0,0,0,0,0
1681385148.30046391,92328887,1544,1542,1596,1596,0,0,0,0,0,0,0,0,0,0
1681385148.40042400,92428847,1535,1534,1605,1605,0,0,0,0,0,0,0,0,0,0
1681385148.50038385,92528807,1530,1530,1612,1611,0,0,0,0,0,0,0,0,0,0
1681385148.60034394,92628767,1528,1530,1615,1614,0,0,0,0,0,0,0,0,0,0
1681385148.70030403,92728727,1530,1533,1614,1613,0,0,0,0,0,0,0,0,0,0
1681385148.80026388,92828687,1535,1538,1610,1610,0,0,0,0,0,0,0,0,0,0
1681385148.90022397,92928647,1543,1544,1604,1604,0,0,0,0,0,0,0,0,0,0
1681385149.00018382,93028607,1551,1553,1597,1597,0,0,0,0,0,0,0,0,0,0
1681385149.10014391,93128567,1561,1562,1591,1590,0,0,0,0,0,0,0,0,0,0
1681385149.20010400,93228527,1570,1570,1583,1583,0,0,0,0,0,0,0,0,0,0
1681385149.30006385,93328487,1577,1576,1577,1576,0,0,0,0,0,0,0,0,0,0
1681385149.40002394,93428447,1583,1582,1572,1572,0,0,0,0,0,0,0,0,0,0
1681385149.49998403,93528407,1587,1585,1569,1569,0,0,0,0,0,0,0,0,0,0
1681385149.59994388,93628367,1588,1587,1566,1566,0,0,0,0,0,0,0,0,0,0
1681385149.69990396,93728327,1588,1587,1567,1567,0,0,0,0,0,0,0,0,0,0
1681385149.79986382,93828287,1587,1586,1568,1568,0,0,0,0,0,0,0,0,0,0
1681385149.89982390,93928247,1585,1584,1571,1571,0,0,0,0,0,0,0,0,0,0
1681385149.99978399,94028207,1582,1582,1574,1574,0,0,0,0,0,0,0,0,0,0
1681385150.09974384,94128167,1579,1579,1577,1577,0,0,0,0,0,0,0,0,0,0
1681385150.20053697,94228960,1577,1578,1580,1580,0,0,0,0,0,0,0,0,0,0
1681385150.30049682,94328920,1574,1575,1581,1581,0,0,0,0,0,0,0,0,0,0
1681385150.40045691,94428880,1574,1574,1584,1584,0,0,0,0,0,0,0,0,0,0
1681385150.50041699,94528840,1572,1573,1583,1584,0,0,0,0,0,0,0,0,0,0
1681385150.60037684,94628800,1572,1573,1583,1583,0,0,0,0,0,0,0,0,0,0
1681385150.70033693,94728760,1573,1574,1583,1583,0,0,0,0,0,0,0,0,0,0
1681385150.80029702,94828720,1574,1575,1583,1583,0,0,0,0,0,0,0,0,0,0
1681385150.90025687,94928680,1576,1576,1582,1582,0,0,0,0,0,0,0,0,0,0
1681385151.00021696,95028640,1578,1578,1581,1581,0,0,0,0,0,0,0,0,0,0
1681385151.10017681,95128600,1579,1579,1580,1580,0,0,0,0,0,0,0,0,0,0
1681385151.20013690,95228560,1580,1580,1579,1578,0,0,0,0,0,0,0,0,0,0
1681385151.30009699,95328520,1581,1581,1578,1578,0,0,0,0,0,0,0,0,0,0
1681385151.40005684,95428480,1590,1589,1639,1530,0,0,0,0,0,0,0,0,0,0
1681385151.50001693,95528440,1586,1586,1601,1576,0,0,0,0,0,0,0,0,0,0
1681385151.59997702,95628400,1584,1584,1595,1582,0,0,0,0,0,0,0,0,0,0
1681385151.69993687,95728360,1582,1581,1587,1586,0,0,0,0,0,0,0,0,0,0
1681385151.79989696,95828320,1578,1578,1580,1587,0,0,0,0,0,0,0,0,0,0
1681385151.89985704,95928280,1576,1576,1576,1585,0,0,0,0,0,0,0,0,0,0
1681385151.99981689,96028240,1574,1575,1575,1582,0,0,0,0,0,0,0,0,0,0
1681385152.09977698,96128200,1575,1575,1575,1580,0,0,0,0,0,0,0,0,0,0
1681385152.19973683,96228160,1576,1576,1577,1577,0,0,0,0,0,0,0,0,0,0
1681385152.30052996,96328953,1579,1579,1579,1577,0,0,0,0,0,0,0,0,0,0
1681385152.40049005,96428913,1580,1580,1580,1577,0,0,0,0,0,0,0,0,0,0
1681385152.50044990,96528873,1581,1580,1580,1577,0,0,0,0,0,0,0,0,0,0
1681385152.60040998,96628833,1582,1582,1580,1579,0,0,0,0,0,0,0,0,0,0
1681385152.70036983,96728793,1582,1582,1580,1579,0,0,0,0,0,0,0,0,0,0
1681385152.80032992,96828753,1581,1581,1578,1579,0,0,0,0,0,0,0,0,0,0
1681385152.90029001,96928713,1581,1581,1579,1580,0,0,0,0,0,0,0,0,0,0
1681385153.00024986,97028673,1581,1581,1580,1580,0,0,0,0,0,0,0,0,0,0
1681385153.10020995,97128633,1581,1581,1580,1580,0,0,0,0,0,0,0,0,0,0
1681385153.20017004,97228593,1580,1582,1586,1575,0,0,0,0,0,0,0,0,0,0
1681385153.30012989,97328553,1581,1585,1587,1573,0,0,0,0,0,0,0,0,0,0
1681385153.40008998,97428513,1580,1584,1579,1573,0,0,0,0,0,0,0,0,0,0
1681385153.50004983,97528473,1580,1582,1570,1571,0,0,0,0,0,0,0,0,0,0
1681385153.60000992,97628433,1579,1581,1561,1567,0,0,0,0,0,0,0,0,0,0
1681385153.69997001,97728393,1580,1581,1557,1564,0,0,0,0,0,0,0,0,0,0
1681385153.79992986,97828353,1581,1580,1554,1558,0,0,0,0,0,0,0,0,0,0
1681385153.89988995,97928313,1581,1579,1553,1554,0,0,0,0,0,0,0,0,0,0
1681385153.99985003,98028273,1581,1580,1554,1553,0,0,0,0,0,0,0,0,0,0
1681385154.09980989,98128233,1580,1580,1554,1552,0,0,0,0,0,0,0,0,0,0
1681385154.19976997,98228193,1579,1580,1554,1552,0,0,0,0,0,0,0,0,0,0
1681385154.30056286,98328986,1578,1579,1554,1553,0,0,0,0,0,0,0,0,0,0
1681385154.40052295,98428946,1577,1579,1554,1553,0,0,0,0,0,0,0,0,0,0
1681385154.50048304,98528906,1575,1578,1553,1552,0,0,0,0,0,0,0,0,0,0
1681385154.60044289,98628866,1577,1578,1552,1552,0,0,0,0,0,0,0,0,0,0
1681385154.70040298,98728826,1578,1578,1550,1550,0,0,0,0,0,0,0,0,0,0
1681385154.80036283,98828786,1578,1579,1548,1548,0,0,0,0,0,0,0,0,0,0
1681385154.90032291,98928746,1581,1581,1547,1547,0,0,0,0,0,0,0,0,0,0
1681385155.00028300,99028706,1583,1584,1545,1545,0,0,0,0,0,0,0,0,0,0
1681385155.10024285,99128666,1586,1586,1544,1544,0,0,0,0,0,0,0,0,0,0
1681385155.20020294,99228626,1588,1589,1542,1543,0,0,0,0,0,0,0,0,0,0
1681385155.30016303,99328586,1591,1591,1541,1542,0,0,0,0,0,0,0,0,0,0
1681385155.40012288,99428546,1592,1593,1540,1541,0,0,0,0,0,0,0,0,0,0
1681385155.50008297,99528506,1593,1593,1540,1541,0,0,0,0,0,0,0,0,0,0
1681385155.60004282,99628466,1592,1591,1543,1545,0,0,0,0,0,0,0,0,0,0
1681385155.70000291,99728426,1589,1586,1547,1550,0,0,0,0,0,0,0,0,0,0
1681385155.79996300,99828386,1584,1581,1556,1558,0,0,0,0,0,0,0,0,0,0
1681385155.89992285,99928346,1576,1572,1565,1567,0,0,0,0,0,0,0,0,0,0
1681385155.99988294,100028306,1566,1562,1575,1577,0,0,0,0,0,0,0,0,0,0
1681385156.09984303,100128266,1558,1554,1587,1588,0,0,0,0,0,0,0,0,0,0
1681385156.19980288,100228226,1548,1546,1596,1596,0,0,0,0,0,0,0,0,0,0
1681385156.29976296,100328186,1540,1540,1603,1603,0,0,0,0,0,0,0,0,0,0
1681385156.40055585,100428979,1537,1539,1609,1608,0,0,0,0,0,0,0,0,0,0
1681385156.50051594,100528939,1536,1538,1610,1609,0,0,0,0,0,0,0,0,0,0
1681385156.60047603,100628899,1539,1541,1609,1609,0,0,0,0,0,0,0,0,0,0
1681385156.70043588,100728859,1544,1545,1606,1605,0,0,0,0,0,0,0,0,0,0
1681385156.80039597,100828819,1551,1552,1602,1600,0,0,0,0,0,0,0,0,0,0
1681385156.90035582,100928779,1558,1558,1595,1594,0,0,0,0,0,0,0,0,0,0
1681385157.00031590,101028739,1565,1565,1588,1587,0,0,0,0,0,0,0,0,0,0
1681385157.10027599,101128699,1572,1571,1582,1581,0,0,0,0,0,0,0,0,0,0
1681385157.20023584,101228659,1578,1577,1577,1577,0,0,0,0,0,0,0,0,0,0
1681385157.30019593,101328619,1582,1581,1572,1573,0,0,0,0,0,0,0,0,0,0
1681385157.40015602,101428579,1585,1583,1570,1570,0,0,0,0,0,0,0,0,0,0
1681385157.50011587,101528539,1586,1585,1569,1570,0,0,0,0,0,0,0,0,0,0
1681385157.60007596,101628499,1584,1584,1568,1568,0,0,0,0,0,0,0,0,0,0
1681385157.70003581,101728459,1584,1583,1570,1571,0,0,0,0,0,0,0,0,0,0
1681385157.79999590,101828419,1584,1583,1574,1574,0,0,0,0,0,0,0,0,0,0
1681385157.89995599,101928379,1580,1580,1575,1575,0,0,0,0,0,0,0,0,0,0
1681385157.99991584,102028339,1577,1578,1577,1577,0,0,0,0,0,0,0,0,0,0
1681385158.09987593,102128299,1576,1577,1580,1580,0,0,0,0,0,0,0,0,0,0
1681385158.19983602,102228259,1574,1575,1581,1581,0,0,0,0,0,0,0,0,0,0
1681385158.29979587,102328219,1574,1574,1583,1583,0,0,0,0,0,0,0,0,0,0
1681385158.39975595,102428179,1573,1574,1583,1583,0,0,0,0,0,0,0,0,0,0
1681385158.50054884,102528972,1574,1574,1584,1584,0,0,0,0,0,0,0,0,0,0
1681385158.60050893,102628932,1575,1575,1583,1583,0,0,0,0,0,0,0,0,0,0
1681385158.70046902,102728892,1576,1575,1582,1582,0,0,0,0,0,0,0,0,0,0
1681385158.80042887,102828852,1576,1576,1581,1581,0,0,0,0,0,0,0,0,0,0
1681385158.90038896,102928812,1578,1578,1580,1580,0,0,0,0,0,0,0,0,0,0
1681385159.00034904,103028772,1578,1578,1578,1578,0,0,0,0,0,0,0,0,0,0
1681385159.10030890,103128732,1580,1579,1578,1578,0,0,0,0,0,0,0,0,0,0
1681385159.20026898,103228692,1580,1580,1577,1577,0,0,0,0,0,0,0,0,0,0
1681385159.30022883,103328652,1580,1580,1577,1577,0,0,0,0,0,0,0,0,0,0
1681385159.40018892,103428612,1580,1580,1577,1577,0,0,0,0,0,0,0,0,0,0
1681385159.50014901,103528572,1581,1581,1578,1578,0,0,0,0,0,0,0,0,0,0
1681385159.60010886,103628532,1581,1581,1578,1578,0,0,0,0,0,0,0,0,0,0
1681385159.70006895,103728492,1579,1580,1578,1578,0,0,0,0,0,0,0,0,0,0
1681385159.80002904,103828452,1580,1580,1579,1579,0,0,0,0,0,0,0,0,0,0
1681385159.89998889,103928412,1579,1579,1579,1579,0,0,0,0,0,0,0,0,0,0
1681385159.99994898,104028372,1579,1579,1580,1580,0,0,0,0,0,0,0,0,0,0
1681385160.09990883,104128332,1579,1579,1580,1580,0,0,0,0,0,0,0,0,0,0
1681385160.19986892,104228292,1580,1580,1581,1581,0,0,0,0,0,0,0,0,0,0
1681385160.29982901,104328252,1580,1579,1581,1581,0,0,0,0,0,0,0,0,0,0
1681385160.39978886,104428212,1579,1579,1581,1581,0,0,0,0,0,0,0,0,0,0
1681385160.49974895,104528172,1580,1580,1581,1582,0,0,0,0,0,0,0,0,0,0
1681385160.60054183,104628965,1581,1581,1582,1582,0,0,0,0,0,0,0,0,0,0
1681385160.70050192,104728925,1580,1580,1581,1581,0,0,0,0,0,0,0,0,0,0
1681385160.80046201,104828885,1581,1582,1582,1581,0,0,0,0,0,0,0,0,0,0
1681385160.90042186,104928845,1582,1581,1581,1581,0,0,0,0,0,0,0,0,0,0
1681385161.00038195,105028805,1582,1582,1581,1581,0,0,0,0,0,0,0,0,0,0
1681385161.10034204,105128765,1582,1581,1580,1581,0,0,0,0,0,0,0,0,0,0
1681385161.20030189,105228725,1582,1581,1580,1581,0,0,0,0,0,0,0,0,0,0
1681385161.30026197,105328685,1581,1582,1584,1577,0,0,0,0,0,0,0,0,0,0
1681385161.40022182,105428645,1581,1583,1587,1572,0,0,0,0,0,0,0,0,0,0
1681385161.50018191,105528605,1579,1583,1580,1572,0,0,0,0,0,0,0,0,0,0
1681385161.60014200,105628565,1578,1581,1571,1571,0,0,0,0,0,0,0,0,0,0
1681385161.70010185,105728525,1578,1580,1563,1569,0,0,0,0,0,0,0,0,0,0
1681385161.80006194,105828485,1577,1579,1557,1564,0,0,0,0,0,0,0,0,0,0
1681385161.90002203,105928445,1580,1579,1555,1561,0,0,0,0,0,0,0,0,0,0
1681385161.99998188,106028405,1581,1579,1555,1557,0,0,0,0,0,0,0,0,0,0
1681385162.09994197,106128365,1581,1579,1556,1554,0,0,0,0,0,0,0,0,0,0
1681385162.19990182,106228325,1579,1578,1556,1553,0,0,0,0,0,0,0,0,0,0
1681385162.29986191,106328285,1578,1578,1555,1553,0,0,0,0,0,0,0,0,0,0
1681385162.39982200,106428245,1576,1578,1555,1553,0,0,0,0,0,0,0,0,0,0
1681385162.49978185,106528205,1576,1577,1555,1555,0,0,0,0,0,0,0,0,0,0
1681385162.59974194,106628165,1575,1577,1554,1554,0,0,0,0,0,0,0,0,0,0
1681385162.70053482,106728958,1575,1577,1552,1553,0,0,0,0,0,0,0,0,0,0
1681385162.80049491,106828918,1576,1578,1551,1552,0,0,0,0,0,0,0,0,0,0
1681385162.90045500,106928878,1578,1579,1550,1550,0,0,0,0,0,0,0,0,0,0
1681385163.00041485,107028838,1579,1580,1547,1547,0,0,0,0,0,0,0,0,0,0
1681385163.10037494,107128798,1582,1583,1546,1545,0,0,0,0,0,0,0,0,0,0
1681385163.20033503,107228758,1585,1586,1543,1543,0,0,0,0,0,0,0,0,0,0
1681385163.30029488,107328718,1587,1588,1542,1541,0,0,0,0,0,0,0,0,0,0
1681385163.40025496,107428678,1589,1590,1539,1540,0,0,0,0,0,0,0,0,0,0
1681385163.50021482,107528638,1591,1591,1537,1538,0,0,0,0,0,0,0,0,0,0
1681385163.60017490,107628598,1593,1594,1537,1538,0,0,0,0,0,0,0,0,0,0
1681385163.70013499,107728558,1594,1594,1538,1540,0,0,0,0,0,0,0,0,0,0
1681385163.80009484,107828518,1593,1593,1541,1544,0,0,0,0,0,0,0,0,0,0
1681385163.90005493,107928478,1591,1588,1546,1549,0,0,0,0,0,0,0,0,0,0
1681385164.00001502,108028438,1585,1581,1553,1555,0,0,0,0,0,0,0,0,0,0
1681385164.09997487,108128398,1577,1573,1563,1565,0,0,0,0,0,0,0,0,0,0
1681385164.19993496,108228358,1567,1563,1574,1576,0,0,0,0,0,0,0,0,0,0
1681385164.29989505,108328318,1557,1553,1586,1587,0,0,0,0,0,0,0,0,0,0
1681385164.39985490,108428278,1547,1545,1597,1597,0,0,0,0,0,0,0,0,0,0
1681385164.49981499,108528238,1539,1539,1606,1605,0,0,0,0,0,0,0,0,0,0
1681385164.59977484,108628198,1533,1534,1610,1609,0,0,0,0,0,0,0,0,0,0
1681385164.69973493,108728158,1532,1534,1612,1612,0,0,0,0,0,0,0,0,0,0
1681385164.80052781,108828951,1535,1537,1612,1611,0,0,0,0,0,0,0,0,0,0
1681385164.90048790,108928911,1540,1542,1608,1607,0,0,0,0,0,0,0,0,0,0
1681385165.00044799,109028871,1547,1549,1603,1602,0,0,0,0,0,0,0,0,0,0
1681385165.10040784,109128831,1555,1556,1596,1595,0,0,0,0,0,0,0,0,0,0
1681385165.20036793,109228791,1563,1563,1589,1588,0,0,0,0,0,0,0,0,0,0
1681385165.30032802,109328751,1571,1571,1582,1582,0,0,0,0,0,0,0,0,0,0
1681385165.40028787,109428711,1578,1577,1576,1577,0,0,0,0,0,0,0,0,0,0
1681385165.50024796,109528671,1582,1581,1572,1572,0,0,0,0,0,0,0,0,0,0
1681385165.60020804,109628631,1585,1584,1568,1569,0,0,0,0,0,0,0,0,0,0
1681385165.70016789,109728591,1587,1585,1567,1568,0,0,0,0,0,0,0,0,0,0
1681385165.80012798,109828551,1587,1585,1568,1568,0,0,0,0,0,0,0,0,0,0
1681385165.90008783,109928511,1586,1585,1569,1570,0,0,0,0,0,0,0,0,0,0
1681385166.00004792,110028471,1583,1583,1571,1572,0,0,0,0,0,0,0,0,0,0
1681385166.10000801,110128431,1580,1580,1574,1574,0,0,0,0,0,0,0,0,0,0
1681385166.19996786,110228391,1577,1577,1576,1576,0,0,0,0,0,0,0,0,0,0
1681385166.29992795,110328351,1576,1576,1579,1579,0,0,0,0,0,0,0,0,0,0
1681385166.39988804,110428311,1573,1574,1580,1581,0,0,0,0,0,0,0,0,0,0
1681385166.49984789,110528271,1573,1574,1582,1582,0,0,0,0,0,0,0,0,0,0
1681385166.59980798,110628231,1572,1573,1583,1583,0,0,0,0,0,0,0,0,0,0
1681385166.69976783,110728191,1572,1572,1582,1582,0,0,0,0,0,0,0,0,0,0
1681385166.80056095,110828984,1573,1573,1582,1583,0,0,0,0,0,0,0,0,0,0
1681385166.90052104,110928944,1574,1574,1581,1582,0,0,0,0,0,0,0,0,0,0
1681385167.00048089,111028904,1575,1576,1581,1580,0,0,0,0,0,0,0,0,0,0
1681385167.10044098,111128864,1577,1577,1579,1580,0,0,0,0,0,0,0,0,0,0
1681385167.20040083,111228824,1579,1579,1579,1579,0,0,0,0,0,0,0,0,0,0
1681385167.30036092,111328784,1580,1579,1578,1578,0,0,0,0,0,0,0,0,0,0
1681385167.40032101,111428744,1580,1580,1578,1577,0,0,0,0,0,0,0,0,0,0
1681385167.50028086,111528704,1580,1580,1577,1577,0,0,0,0,0,0,0,0,0,0
1681385167.60024095,111628664,1581,1581,1577,1578,0,0,0,0,0,0,0,0,0,0
1681385167.70020103,111728624,1582,1582,1578,1578,0,0,0,0,0,0,0,0,0,0
1681385167.80016088,111828584,1581,1582,1578,1579,0,0,0,0,0,0,0,0,0,0
1681385167.90012097,111928544,1581,1581,1579,1579,0,0,0,0,0,0,0,0,0,0
1681385168.00008082,112028504,1580,1581,1579,1579,0,0,0,0,0,0,0,0,0,0
1681385168.10004091,112128464,1581,1581,1580,1580,0,0,0,0,0,0,0,0,0,0
1681385168.20000100,112228424,1581,1581,1581,1581,0,0,0,0,0,0,0,0,0,0
1681385168.29996085,112328384,1580,1580,1581,1581,0,0,0,0,0,0,0,0,0,0
1681385168.39992094,112428344,1579,1580,1581,1581,0,0,0,0,0,0,0,0,0,0
1681385168.49988103,112528304,1580,1580,1582,1581,0,0,0,0,0,0,0,0,0,0
1681385168.59984088,112628264,1579,1580,1581,1581,0,0,0,0,0,0,0,0,0,0
1681385168.69980097,112728224,1579,1579,1581,1581,0,0,0,0,0,0,0,0,0,0
1681385168.79976082,112828184,1580,1579,1581,1581,0,0,0,0,0,0,0,0,0,0
1681385168.90055394,112928977,1580,1580,1581,1581,0,0,0,0,0,0,0,0,0,0
1681385169.00051403,113028937,1581,1582,1582,1582,0,0,0,0,0,0,0,0,0,0
1681385169.10047388,113128897,1580,1580,1580,1580,0,0,0,0,0,0,0,0,0,0
1681385169.20043397,113228857,1581,1582,1584,1577,0,0,0,0,0,0,0,0,0,0
1681385169.30039382,113328817,1581,1582,1587,1572,0,0,0,0,0,0,0,0,0,0
1681385169.40035391,113428777,1579,1579,1581,1573,0,0,0,0,0,0,0,0,0,0
1681385169.50031400,113528737,1577,1576,1574,1574,0,0,0,0,0,0,0,0,0,0
1681385169.60027385,113628697,1574,1573,1569,1574,0,0,0,0,0,0,0,0,0,0
1681385169.70023394,113728657,1571,1570,1565,1573,0,0,0,0,0,0,0,0,0,0
1681385169.80019403,113828617,1569,1569,1565,1571,0,0,0,0,0,0,0,0,0,0
1681385169.90015388,113928577,1568,1567,1565,1569,0,0,0,0,0,0,0,0,0,0
1681385170.00011396,114028537,1566,1567,1567,1566,0,0,0,0,0,0,0,0,0,0
1681385170.10007381,114128497,1566,1566,1568,1565,0,0,0,0,0,0,0,0,0,0
1681385170.20003390,114228457,1564,1565,1567,1564,0,0,0,0,0,0,0,0,0,0
1681385170.29999399,114328417,1565,1565,1566,1564,0,0,0,0,0,0,0,0,0,0
1681385170.39995384,114428377,1566,1566,1568,1566,0,0,0,0,0,0,0,0,0,0
1681385170.49991393,114528337,1563,1564,1564,1564,0,0,0,0,0,0,0,0,0,0
1681385170.59987402,114628297,1563,1562,1563,1564,0,0,0,0,0,0,0,0,0,0
1681385170.69983387,114728257,1562,1562,1562,1563,0,0,0,0,0,0,0,0,0,0
1681385170.79979396,114828217,1561,1562,1562,1562,0,0,0,0,0,0,0,0,0,0
1681385170.89975405,114928177,1561,1561,1561,1561,0,0,0,0,0,0,0,0,0,0
1681385171.00054693,115028970,1561,1561,1561,1560,0,0,0,0,0,0,0,0,0,0
1681385171.10050702,115128930,1561,1560,1560,1560,0,0,0,0,0,0,0,0,0,0
1681385171.20046687,115228890,1559,1559,1559,1558,0,0,0,0,0,0,0,0,0,0
1681385171.30042696,115328850,1558,1558,1558,1557,0,0,0,0,0,0,0,0,0,0
1681385171.40038681,115428810,1557,1558,1558,1557,0,0,0,0,0,0,0,0,0,0
1681385171.50034690,115528770,1558,1557,1558,1557,0,0,0,0,0,0,0,0,0,0
1681385171.60030699,115628730,1558,1557,1558,1557,0,0,0,0,0,0,0,0,0,0
1681385171.70026684,115728690,1558,1557,1558,1557,0,0,0,0,0,0,0,0,0,0
1681385171.80022693,115828650,1558,1558,1559,1557,0,0,0,0,0,0,0,0,0,0
1681385171.90018702,115928610,1558,1557,1559,1556,0,0,0,0,0,0,0,0,0,0
1681385172.00014687,116028570,1558,1558,1558,1557,0,0,0,0,0,0,0,0,0,0
1681385172.10010695,116128530,1559,1559,1557,1561,0,0,0,0,0,0,0,0,0,0
1681385172.20006704,116228490,1559,1560,1557,1562,0,0,0,0,0,0,0,0,0,0
1681385172.30002689,116328450,1559,1560,1557,1563,0,0,0,0,0,0,0,0,0,0
1681385172.39998698,116428410,1561,1561,1558,1563,0,0,0,0,0,0,0,0,0,0
1681385172.49994683,116528370,1564,1563,1561,1565,0,0,0,0,0,0,0,0,0,0
1681385172.59990692,116628330,1564,1563,1564,1562,0,0,0,0,0,0,0,0,0,0
1681385172.69986701,116728290,1563,1563,1564,1561,0,0,0,0,0,0,0,0,0,0
1681385172.79982686,116828250,1561,1562,1562,1561,0,0,0,0,0,0,0,0,0,0
1681385172.89978695,116928210,1559,1559,1557,1561,0,0,0,0,0,0,0,0,0,0
1681385172.99974704,117028170,1556,1556,1554,1558,0,0,0,0,0,0,0,0,0,0
1681385173.10053992,117128963,1550,1551,1549,1552,0,0,0,0,0,0,0,0,0,0
1681385173.20050001,117228923,1544,1544,1544,1545,0,0,0,0,0,0,0,0,0,0
1681385173.30045986,117328883,1538,1538,1538,1538,0,0,0,0,0,0,0,0,0,0
1681385173.40041995,117428843,1530,1529,1530,1529,0,0,0,0,0,0,0,0,0,0
1681385173.50038004,117528803,1523,1523,1523,1522,0,0,0,0,0,0,0,0,0,0
1681385173.60033989,117628763,1519,1520,1520,1519,0,0,0,0,0,0,0,0,0,0
1681385173.70029998,117728723,1518,1519,1519,1519,0,0,0,0,0,0,0,0,0,0
1681385173.80025983,117828683,1520,1520,1520,1520,0,0,0,0,0,0,0,0,0,0
1681385173.90021992,117928643,1523,1524,1523,1524,0,0,0,0,0,0,0,0,0,0
1681385174.00018001,118028603,1527,1527,1527,1528,0,0,0,0,0,0,0,0,0,0
1681385174.10013986,118128563,1531,1531,1531,1531,0,0,0,0,0,0,0,0,0,0
1681385174.20009995,118228523,1536,1536,1536,1536,0,0,0,0,0,0,0,0,0,0
1681385174.30006003,118328483,1539,1539,1540,1539,0,0,0,0,0,0,0,0,0,0
1681385174.40001988,118428443,1542,1542,1542,1542,0,0,0,0,0,0,0,0,0,0
1681385174.49997997,118528403,1543,1543,1543,1543,0,0,0,0,0,0,0,0,0,0
1681385174.59993982,118628363,1544,1544,1544,1544,0,0,0,0,0,0,0,0,0,0
1681385174.69989991,118728323,1545,1546,1545,1545,0,0,0,0,0,0,0,0,0,0
1681385174.79986000,118828283,1546,1546,1546,1546,0,0,0,0,0,0,0,0,0,0
1681385174.89981985,118928243,1546,1546,1546,1546,0,0,0,0,0,0,0,0,0,0
1681385174.99977994,119028203,1546,1546,1546,1546,0,0,0,0,0,0,0,0,0,0
1681385175.09974003,119128163,1546,1546,1546,1545,0,0,0,0,0,0,0,0,0,0
1681385175.20053291,119228956,1546,1546,1546,1546,0,0,0,0,0,0,0,0,0,0
1681385175.30049300,119328916,1545,1546,1546,1545,0,0,0,0,0,0,0,0,0,0
1681385175.40045285,119428876,1546,1546,1546,1545,0,0,0,0,0,0,0,0,0,0
1681385175.50041294,119528836,1545,1545,1546,1545,0,0,0,0,0,0,0,0,0,0
1681385175.60037303,119628796,1546,1546,1546,1546,0,0,0,0,0,0,0,0,0,0
1681385175.70033288,119728756,1546,1545,1545,1545,0,0,0,0,0,0,0,0,0,0
1681385175.80029297,119828716,1544,1545,1545,1545,0,0,0,0,0,0,0,0,0,0
1681385175.90025282,119928676,1544,1544,1544,1545,0,0,0,0,0,0,0,0,0,0
1681385176.00021291,120028636,1543,1544,1544,1544,0,0,0,0,0,0,0,0,0,0
1681385176.10017300,120128596,1544,1544,1544,1544,0,0,0,0,0,0,0,0,0,0
1681385176.20013285,120228556,1544,1544,1545,1544,0,0,0,0,0,0,0,0,0,0
1681385176.30009294,120328516,1544,1543,1544,1544,0,0,0,0,0,0,0,0,0,0
1681385176.40005302,120428476,1544,1545,1544,1544,0,0,0,0,0,0,0,0,0,0
1681385176.50001287,120528436,1544,1544,1544,1544,0,0,0,0,0,0,0,0,0,0
1681385176.59997296,120628396,1544,1544,1544,1543,0,0,0,0,0,0,0,0,0,0
1681385176.69993281,120728356,1544,1544,1543,1544,0,0,0,0,0,0,0,0,0,0
1681385176.79989290,120828316,1543,1544,1543,1543,0,0,0,0,0,0,0,0,0,0
1681385176.89985299,120928276,1544,1543,1543,1544,0,0,0,0,0,0,0,0,0,0
1681385176.99981284,121028236,1543,1544,1544,1544,0,0,0,0,0,0,0,0,0,0
1681385177.09977293,121128196,1544,1544,1544,1545,0,0,0,0,0,0,0,0,0,0
1681385177.19973302,121228156,1545,1544,1545,1545,0,0,0,0,0,0,0,0,0,0
1681385177.30052590,121328949,1544,1543,1544,1544,0,0,0,0,0,0,0,0,0,0
1681385177.40048599,121428909,1543,1543,1543,1543,0,0,0,0,0,0,0,0,0,0
1681385177.50044584,121528869,1544,1544,1544,1544,0,0,0,0,0,0,0,0,0,0
1681385177.60040593,121628829,1544,1544,1544,1544,0,0,0,0,0,0,0,0,0,0
1681385177.70036602,121728789,1545,1543,1544,1544,0,0,0,0,0,0,0,0,0,0
1681385177.80032587,121828749,1544,1545,1545,1544,0,0,0,0,0,0,0,0,0,0
1681385177.90028596,121928709,1543,1543,1543,1543,0,0,0,0,0,0,0,0,0,0
1681385178.00024605,122028669,1544,1545,1544,1545,0,0,0,0,0,0,0,0,0,0
1681385178.10020590,122128629,1545,1544,1544,1544,0,0,0,0,0,0,0,0,0,0
1681385178.20016599,122228589,1544,1544,1544,1544,0,0,0,0,0,0,0,0,0,0
1681385178.30012584,122328549,1544,1543,1544,1544,0,0,0,0,0,0,0,0,0,0
1681385178.40008593,122428509,1544,1544,1544,1544,0,0,0,0,0,0,0,0,0,0
1681385178.50004601,122528469,1544,1544,1544,1544,0,0,0,0,0,0,0,0,0,0
1681385178.60000587,122628429,1544,1544,1544,1544,0,0,0,0,0,0,0,0,0,0
1681385178.69996595,122728389,1545,1544,1544,1545,0,0,0,0,0,0,0,0,0,0
1681385178.79992604,122828349,1544,1545,1544,1545,0,0,0,0,0,0,0,0,0,0
1681385178.89988589,122928309,1544,1544,1544,1544,0,0,0,0,0,0,0,0,0,0
1681385178.99984598,123028269,1544,1544,1544,1544,0,0,0,0,0,0,0,0,0,0
1681385179.09980583,123128229,1543,1543,1543,1543,0,0,0,0,0,0,0,0,0,0
1681385179.19976592,123228189,1544,1544,1545,1544,0,0,0,0,0,0,0,0,0,0
1681385179.30055904,123328982,1544,1545,1545,1545,0,0,0,0,0,0,0,0,0,0
1681385179.40051889,123428942,1544,1544,1544,1544,0,0,0,0,0,0,0,0,0,0
1681385179.50047898,123528902,1545,1545,1544,1545,0,0,0,0,0,0,0,0,0,0
1681385179.60043883,123628862,1544,1543,1544,1544,0,0,0,0,0,0,0,0,0,0
1681385179.70039892,123728822,1544,1543,1543,1543,0,0,0,0,0,0,0,0,0,0
1681385179.80035901,123828782,1545,1545,1545,1544,0,0,0,0,0,0,0,0,0,0
1681385179.90031886,123928742,1544,1543,1544,1544,0,0,0,0,0,0,0,0,0,0
1681385180.00027895,124028702,1544,1544,1544,1544,0,0,0,0,0,0,0,0,0,0
1681385180.10023904,124128662,1545,1544,1545,1545,0,0,0,0,0,0,0,0,0,0
1681385180.20019889,124228622,1544,1544,1544,1544,0,0,0,0,0,0,0,0,0,0
1681385180.30015898,124328582,1544,1544,1544,1544,0,0,0,0,0,0,0,0,0,0
1681385180.40011883,124428542,1544,1545,1545,1544,0,0,0,0,0,0,0,0,0,0
1681385180.50007892,124528502,1544,1545,1544,1545,0,0,0,0,0,0,0,0,0,0
1681385180.60003901,124628462,1544,1544,1544,1544,0,0,0,0,0,0,0,0,0,0
1681385180.69999886,124728422,1544,1544,1544,1545,0,0,0,0,0,0,0,0,0,0
1681385180.79995894,124828382,1544,1544,1544,1544,0,0,0,0,0,0,0,0,0,0
1681385180.89991903,124928342,1544,1543,1544,1544,0,0,0,0,0,0,0,0,0,0
1681385180.99987888,125028302,1544,1544,1544,1544,0,0,0,0,0,0,0,0,0,0
1681385181.09983897,125128262,1545,1545,1545,1545,0,0,0,0,0,0,0,0,0,0
1681385181.19979882,125228222,1545,1545,1545,1545,0,0,0,0,0,0,0,0,0,0
1681385181.29975891,125328182,1545,1544,1544,1545,0,0,0,0,0,0,0,0,0,0
1681385181.40055203,125428975,1544,1544,1544,1544,0,0,0,0,0,0,0,0,0,0
1681385181.50051188,125528935,1544,1544,1544,1544,0,0,0,0,0,0,0,0,0,0
1681385181.60047197,125628895,1544,1544,1544,1544,0,0,0,0,0,0,0,0,0,0
1681385181.70043182,125728855,1544,1544,1544,1544,0,0,0,0,0,0,0,0,0,0
1681385181.80039191,125828815,1545,1545,1545,1545,0,0,0,0,0,0,0,0,0,0
1681385181.90035200,125928775,1545,1544,1545,1545,0,0,0,0,0,0,0,0,0,0
1681385182.00031185,126028735,1544,1545,1545,1544,0,0,0,0,0,0,0,0,0,0
1681385182.10027194,126128695,1545,1544,1544,1545,0,0,0,0,0,0,0,0,0,0
1681385182.20023203,126228655,1544,1544,1544,1544,0,0,0,0,0,0,0,0,0,0
1681385182.30019188,126328615,1544,1544,1544,1544,0,0,0,0,0,0,0,0,0,0
1681385182.40015197,126428575,1544,1544,1544,1544,0,0,0,0,0,0,0,0,0,0
1681385182.50011182,126528535,1545,1545,1544,1545,0,0,0,0,0,0,0,0,0,0
1681385182.60007191,126628495,1544,1544,1544,1544,0,0,0,0,0,0,0,0,0,0
1681385182.70003200,126728455,1544,1544,1544,1544,0,0,0,0,0,0,0,0,0,0
1681385182.79999185,126828415,1545,1545,1545,1545,0,0,0,0,0,0,0,0,0,0
1681385182.89995193,126928375,1545,1544,1544,1544,0,0,0,0,0,0,0,0,0,0
1681385182.99991202,127028335,1544,1544,1544,1544,0,0,0,0,0,0,0,0,0,0
1681385183.09987187,127128295,1544,1544,1543,1544,0,0,0,0,0,0,0,0,0,0
1681385183.19983196,127228255,1544,1544,1545,1544,0,0,0,0,0,0,0,0,0,0
1681385183.29979181,127328215,1394,1395,1395,1395,0,0,0,0,0,0,0,0,0,0
1681385183.39975190,127428175,1264,1267,1266,1265,0,0,0,0,0,0,0,0,0,0
1681385183.50054502,127528968,1219,1220,1220,1220,0,0,0,0,0,0,0,0,0,0
1681385183.60050488,127628928,1200,1202,1201,1201,0,0,0,0,0,0,0,0,0,0
1681385183.70046496,127728888,1159,1161,1160,1161,0,0,0,0,0,0,0,0,0,0
1681385183.80042481,127828848,1150,1153,1152,1151,0,0,0,0,0,0,0,0,0,0
1681385183.90038490,127928808,1150,1152,1151,1152,0,0,0,0,0,0,0,0,0,0
1681385184.00034499,128028768,1192,1150,1150,1193,0,0,0,0,0,0,0,0,0,0
1681385184.10030484,128128728,1178,1150,1150,1180,0,0,0,0,0,0,0,0,0,0
1681385184.20026493,128228688,1172,1150,1150,1175,0,0,0,0,0,0,0,0,0,0
1681385184.30022502,128328648,1173,1150,1150,1176,0,0,0,0,0,0,0,0,0,0
1681385184.40018487,128428608,1175,1150,1150,1177,0,0,0,0,0,0,0,0,0,0
1681385184.50014496,128528568,1178,1150,1150,1180,0,0,0,0,0,0,0,0,0,0
1681385184.60010505,128628528,1180,1150,1150,1183,0,0,0,0,0,0,0,0,0,0
1681385184.70006490,128728488,1183,1150,1150,1185,0,0,0,0,0,0,0,0,0,0
1681385184.80002499,128828448,1166,1150,1150,1167,0,0,0,0,0,0,0,0,0,0
1681385184.89998484,128928408,1168,1150,1150,1169,0,0,0,0,0,0,0,0,0,0
1681385184.99994493,129028368,1169,1150,1150,1171,0,0,0,0,0,0,0,0,0,0
1681385185.09990501,129128328,1169,1150,1150,1171,0,0,0,0,0,0,0,0,0,0
1681385185.19986486,129228288,1170,1150,1150,1172,0,0,0,0,0,0,0,0,0,0
1681385185.29982495,129328248,1000,1000,1000,1000,0,0,0,0,0,0,0,0,0,0
1681385185.39978504,129428208,1000,1000,1000,1000,0,0,0,0,0,0,0,0,0,0
1681385185.49974489,129528168,1000,1000,1000,1000,0,0,0,0,0,0,0,0,0,0
1681385185.60053802,129628961,1000,1000,1000,1000,0,0,0,0,0,0,0,0,0,0
1681385185.70049787,129728921,1000,1000,1000,1000,0,0,0,0,0,0,0,0,0,0
1681385185.80045795,129828881,1000,1000,1000,1000,0,0,0,0,0,0,0,0,0,0
1681385185.90041804,129928841,1000,1000,1000,1000,0,0,0,0,0,0,0,0,0,0
1681385186.00037789,130028801,1000,1000,1000,1000,0,0,0,0,0,0,0,0,0,0
1681385186.10033798,130128761,1000,1000,1000,1000,0,0,0,0,0,0,0,0,0,0
1681385186.20029783,130228721,1000,1000,1000,1000,0,0,0,0,0,0,0,0,0,0
1681385186.30025792,130328681,1000,1000,1000,1000,0,0,0,0,0,0,0,0,0,0
1681385186.40021801,130428641,1000,1000,1000,1000,0,0,0,0,0,0,0,0,0,0
1681385186.50017786,130528601,1000,1000,1000,1000,0,0,0,0,0,0,0,0,0,0
1681385186.60013795,130628561,1000,1000,1000,1000,0,0,0,0,0,0,0,0,0,0
1681385186.70009804,130728521,1000,1000,1000,1000,0,0,0,0,0,0,0,0,0,0
1681385186.80005789,130828481,1000,1000,1000,1000,0,0,0,0,0,0,0,0,0,0
1681385186.90001798,130928441,1000,1000,1000,1000,0,0,0,0,0,0,0,0,0,0
1681385186.99997783,131028401,1000,1000,1000,1000,0,0,0,0,0,0,0,0,0,0
1681385187.09993792,131128361,1000,1000,1000,1000,0,0,0,0,0,0,0,0,0,0
1681385187.19989800,131228321,1000,1000,1000,1000,0,0,0,0,0,0,0,0,0,0
1681385187.29985785,131328281,1000,1000,1000,1000,0,0,0,0,0,0,0,0,0,0
1681385187.39981794,131428241,1000,1000,1000,1000,0,0,0,0,0,0,0,0,0,0
1681385187.49977803,131528201,1000,1000,1000,1000,0,0,0,0,0,0,0,0,0,0
1681385187.59973788,131628161,1000,1000,1000,1000,0,0,0,0,0,0,0,0,0,0
1681385187.70053101,131728954,1000,1000,1000,1000,0,0,0,0,0,0,0,0,0,0
1681385187.80049086,131828914,1000,1000,1000,1000,0,0,0,0,0,0,0,0,0,0
1681385187.90045094,131928874,1000,1000,1000,1000,0,0,0,0,0,0,0,0,0,0
1681385188.00041103,132028834,1000,1000,1000,1000,0,0,0,0,0,0,0,0,0,0
1681385188.10037088,132128794,1000,1000,1000,1000,0,0,0,0,0,0,0,0,0,0
1681385188.20033097,132228754,1000,1000,1000,1000,0,0,0,0,0,0,0,0,0,0
1681385188.30029082,132328714,1000,1000,1000,1000,0,0,0,0,0,0,0,0,0,0
1681385188.40025091,132428674,1000,1000,1000,1000,0,0,0,0,0,0,0,0,0,0
1681385188.50021100,132528634,1000,1000,1000,1000,0,0,0,0,0,0,0,0,0,0
1681385188.60017085,132628594,1000,1000,1000,1000,0,0,0,0,0,0,0,0,0,0
1681385188.70013094,132728554,1000,1000,1000,1000,0,0,0,0,0,0,0,0,0,0
1681385188.80009103,132828514,1000,1000,1000,1000,0,0,0,0,0,0,0,0,0,0
1681385188.90005088,132928474,1000,1000,1000,1000,0,0,0,0,0,0,0,0,0,0
1681385189.00001097,133028434,1000,1000,1000,1000,0,0,0,0,0,0,0,0,0,0
1681385189.09997082,133128394,1000,1000,1000,1000,0,0,0,0,0,0,0,0,0,0
1681385189.19993091,133228354,1000,1000,1000,1000,0,0,0,0,0,0,0,0,0,0
1681385189.29989100,133328314,1000,1000,1000,1000,0,0,0,0,0,0,0,0,0,0
1681385189.39985085,133428274,1000,1000,1000,1000,0,0,0,0,0,0,0,0,0,0
1681385189.49981093,133528234,1000,1000,1000,1000,0,0,0,0,0,0,0,0,0,0
1681385189.59977102,133628194,1000,1000,1000,1000,0,0,0,0,0,0,0,0,0,0
1681385189.69973087,133728154,1000,1000,1000,1000,0,0,0,0,0,0,0,0,0,0
1681385189.80052400,133828947,1000,1000,1000,1000,0,0,0,0,0,0,0,0,0,0
1681385189.90048385,133928907,1000,1000,1000,1000,0,0,0,0,0,0,0,0,0,0
1681385190.00044394,134028867,1000,1000,1000,1000,0,0,0,0,0,0,0,0,0,0
1681385190.10040402,134128827,1000,1000,1000,1000,0,0,0,0,0,0,0,0,0,0
1681385190.20036387,134228787,1000,1000,1000,1000,0,0,0,0,0,0,0,0,0,0
1681385190.30032396,134328747,1000,1000,1000,1000,0,0,0,0,0,0,0,0,0,0
1681385190.40028381,134428707,1000,1000,1000,1000,0,0,0,0,0,0,0,0,0,0
1681385190.50024390,134528667,1000,1000,1000,1000,0,0,0,0,0,0,0,0,0,0
1681385190.60020399,134628627,1000,1000,1000,1000,0,0,0,0,0,0,0,0,0,0
1681385190.70016384,134728587,1000,1000,1000,1000,0,0,0,0,0,0,0,0,0,0
1681385190.80012393,134828547,1000,1000,1000,1000,0,0,0,0,0,0,0,0,0,0
1681385190.90008402,134928507,1000,1000,1000,1000,0,0,0,0,0,0,0,0,0,0
1681385191.00004387,135028467,1000,1000,1000,1000,0,0,0,0,0,0,0,0,0,0
1681385191.10000396,135128427,1000,1000,1000,1000,0,0,0,0,0,0,0,0,0,0
1681385191.19996405,135228387,1000,1000,1000,1000,0,0,0,0,0,0,0,0,0,0
1681385191.29992390,135328347,1000,1000,1000,1000,0,0,0,0,0,0,0,0,0,0
1681385191.39988399,135428307,1000,1000,1000,1000,0,0,0,0,0,0,0,0,0,0
1681385191.49984384,135528267,1000,1000,1000,1000,0,0,0,0,0,0,0,0,0,0
1681385191.59980392,135628227,1000,1000,1000,1000,0,0,0,0,0,0,0,0,0,0
1681385191.69976401,135728187,1000,1000,1000,1000,0,0,0,0,0,0,0,0,0,0
1681385191.80055690,135828980,1000,1000,1000,1000,0,0,0,0,0,0,0,0,0,0
1681385191.90051699,135928940,1000,1000,1000,1000,0,0,0,0,0,0,0,0,0,0
1681385192.00047684,136028900,1000,1000,1000,1000,0,0,0,0,0,0,0,0,0,0
1681385192.10043693,136128860,1000,1000,1000,1000,0,0,0,0,0,0,0,0,0,0
1681385192.20039701,136228820,1000,1000,1000,1000,0,0,0,0,0,0,0,0,0,0
1681385192.30035686,136328780,1000,1000,1000,1000,0,0,0,0,0,0,0,0,0,0
1681385192.40031695,136428740,1000,1000,1000,1000,0,0,0,0,0,0,0,0,0,0
1681385192.50027704,136528700,1000,1000,1000,1000,0,0,0,0,0,0,0,0,0,0
1681385192.60023689,136628660,1000,1000,1000,1000,0,0,0,0,0,0,0,0,0,0
1681385192.70019698,136728620,1000,1000,1000,1000,0,0,0,0,0,0,0,0,0,0
1681385192.80015683,136828580,1000,1000,1000,1000,0,0,0,0,0,0,0,0,0,0
1681385192.90011692,136928540,1000,1000,1000,1000,0,0,0,0,0,0,0,0,0,0
1681385193.00007701,137028500,1000,1000,1000,1000,0,0,0,0,0,0,0,0,0,0
1681385193.10003686,137128460,1000,1000,1000,1000,0,0,0,0,0,0,0,0,0,0
1681385193.19999695,137228420,1000,1000,1000,1000,0,0,0,0,0,0,0,0,0,0
1681385193.29995704,137328380,1000,1000,1000,1000,0,0,0,0,0,0,0,0,0,0
1681385193.39991689,137428340,1000,1000,1000,1000,0,0,0,0,0,0,0,0,0,0
1681385193.49987698,137528300,1000,1000,1000,1000,0,0,0,0,0,0,0,0,0,0
1681385193.59983683,137628260,1000,1000,1000,1000,0,0,0,0,0,0,0,0,0,0
1681385193.69979692,137728220,1000,1000,1000,1000,0,0,0,0,0,0,0,0,0,0
1681385193.79975700,137828180,1000,1000,1000,1000,0,0,0,0,0,0,0,0,0,0
1681385193.90054989,137928973,1000,1000,1000,1000,0,0,0,0,0,0,0,0,0,0
1681385194.00050998,138028933,1000,1000,1000,1000,0,0,0,0,0,0,0,0,0,0
1681385194.10046983,138128893,1000,1000,1000,1000,0,0,0,0,0,0,0,0,0,0
1681385194.20042992,138228853,1000,1000,1000,1000,0,0,0,0,0,0,0,0,0,0
1681385194.30039001,138328813,1000,1000,1000,1000,0,0,0,0,0,0,0,0,0,0
1681385194.40034986,138428773,1000,1000,1000,1000,0,0,0,0,0,0,0,0,0,0
1681385194.50030994,138528733,1000,1000,1000,1000,0,0,0,0,0,0,0,0,0,0
1681385194.60027003,138628693,1000,1000,1000,1000,0,0,0,0,0,0,0,0,0,0
1681385194.70022988,138728653,1000,1000,1000,1000,0,0,0,0,0,0,0,0,0,0
1681385194.80018997,138828613,1000,1000,1000,1000,0,0,0,0,0,0,0,0,0,0
1681385194.90014982,138928573,1000,1000,1000,1000,0,0,0,0,0,0,0,0,0,0
1681385195.00010991,139028533,1000,1000,1000,1000,0,0,0,0,0,0,0,0,0,0
1681385195.10007000,139128493,1000,1000,1000,1000,0,0,0,0,0,0,0,0,0,0
1681385195.20002985,139228453,1000,1000,1000,1000,0,0,0,0,0,0,0,0,0,0
1681385195.29998994,139328413,1000,1000,1000,1000,0,0,0,0,0,0,0,0,0,0
1681385195.39995003,139428373,1000,1000,1000,1000,0,0,0,0,0,0,0,0,0,0
1681385195.49990988,139528333,1000,1000,1000,1000,0,0,0,0,0,0,0,0,0,0
1681385195.59986997,139628293,1000,1000,1000,1000,0,0,0,0,0,0,0,0,0,0
1681385195.69982982,139728253,1000,1000,1000,1000,0,0,0,0,0,0,0,0,0,0
1681385195.79978991,139828213,1000,1000,1000,1000,0,0,0,0,0,0,0,0,0,0
1681385195.89974999,139928173,1000,1000,1000,1000,0,0,0,0,0,0,0,0,0,0
1681385196.00054288,140028966,1000,1000,1000,1000,0,0,0,0,0,0,0,0,0,0
1681385196.10050297,140128926,1000,1000,1000,1000,0,0,0,0,0,0,0,0,0,0
1681385196.20046282,140228886,1000,1000,1000,1000,0,0,0,0,0,0,0,0,0,0
1681385196.30042291,140328846,1000,1000,1000,1000,0,0,0,0,0,0,0,0,0,0
1681385196.40038300,140428806,1000,1000,1000,1000,0,0,0,0,0,0,0,0,0,0
1681385196.50034285,140528766,1000,1000,1000,1000,0,0,0,0,0,0,0,0,0,0
1681385196.60030293,140628726,1000,1000,1000,1000,0,0,0,0,0,0,0,0,0,0
1681385196.70026302,140728686,1000,1000,1000,1000,0,0,0,0,0,0,0,0,0,0
1681385196.80022287,140828646,1000,1000,1000,1000,0,0,0,0,0,0,0,0,0,0
1681385196.90018296,140928606,1000,1000,1000,1000,0,0,0,0,0,0,0,0,0,0
1681385197.00014281,141028566,1000,1000,1000,1000,0,0,0,0,0,0,0,0,0,0
1681385197.10010290,141128526,1000,1000,1000,1000,0,0,0,0,0,0,0,0,0,0
1681385197.20006299,141228486,1000,1000,1000,1000,0,0,0,0,0,0,0,0,0,0
1681385197.30002284,141328446,1000,1000,1000,1000,0,0,0,0,0,0,0,0,0,0
1681385197.39998293,141428406,1000,1000,1000,1000,0,0,0,0,0,0,0,0,0,0
1681385197.49994302,141528366,1000,1000,1000,1000,0,0,0,0,0,0,0,0,0,0
1681385197.59990287,141628326,1000,1000,1000,1000,0,0,0,0,0,0,0,0,0,0
1681385197.69986296,141728286,1000,1000,1000,1000,0,0,0,0,0,0,0,0,0,0
1681385197.79982305,141828246,1000,1000,1000,1000,0,0,0,0,0,0,0,0,0,0
1681385197.89978290,141928206,1000,1000,1000,1000,0,0,0,0,0,0,0,0,0,0
1681385197.99974298,142028166,1000,1000,1000,1000,0,0,0,0,0,0,0,0,0,0
1681385198.10053587,142128959,1000,1000,1000,1000,0,0,0,0,0,0,0,0,0,0
1681385198.20049596,142228919,1000,1000,1000,1000,0,0,0,0,0,0,0,0,0,0
1681385198.30045605,142328879,1000,1000,1000,1000,0,0,0,0,0,0,0,0,0,0
1681385198.40041590,142428839,1000,1000,1000,1000,0,0,0,0,0,0,0,0,0,0
1681385198.50037599,142528799,1000,1000,1000,1000,0,0,0,0,0,0,0,0,0,0
1681385198.60033584,142628759,1000,1000,1000,1000,0,0,0,0,0,0,0,0,0,0
1681385198.70029593,142728719,1000,1000,1000,1000,0,0,0,0,0,0,0,0,0,0
1681385198.80025601,142828679,1000,1000,1000,1000,0,0,0,0,0,0,0,0,0,0
1681385198.90021586,142928639,1000,1000,1000,1000,0,0,0,0,0,0,0,0,0,0
1681385199.00017595,143028599,1000,1000,1000,1000,0,0,0,0,0,0,0,0,0,0
1681385199.10013604,143128559,1000,1000,1000,1000,0,0,0,0,0,0,0,0,0,0
1681385199.20009589,143228519,1000,1000,1000,1000,0,0,0,0,0,0,0,0,0,0
1681385199.30005598,143328479,1000,1000,1000,1000,0,0,0,0,0,0,0,0,0,0
1681385199.40001583,143428439,1000,1000,1000,1000,0,0,0,0,0,0,0,0,0,0
1681385199.49997592,143528399,1000,1000,1000,1000,0,0,0,0,0,0,0,0,0,0
1681385199.59993601,143628359,1000,1000,1000,1000,0,0,0,0,0,0,0,0,0,0
1681385199.69989586,143728319,1000,1000,1000,1000,0,0,0,0,0,0,0,0,0,0
1681385199.79985595,143828279,1000,1000,1000,1000,0,0,0,0,0,0,0,0,0,0
1681385199.89981604,143928239,1000,1000,1000,1000,0,0,0,0,0,0,0,0,0,0
1681385199.99977589,144028199,1000,1000,1000,1000,0,0,0,0,0,0,0,0,0,0
1681385200.09973598,144128159,1000,1000,1000,1000,0,0,0,0,0,0,0,0,0,0
1681385200.20052886,144228952,1000,1000,1000,1000,0,0,0,0,0,0,0,0,0,0
