timestamp,TimeUS,C1,C2,C3,C4,C5,C6,C7,C8,C9,C10,C11,C12,C13,C14
1680795165.20000005,73428950,1000,1000,1000,1000,0,0,0,0,0,0,0,0,0,0
1680795165.29995990,73528910,1000,1000,1000,1000,0,0,0,0,0,0,0,0,0,0
1680795165.39991999,73628870,1000,1000,1000,1000,0,0,0,0,0,0,0,0,0,0
1680795165.49988008,73728830,1000,1000,1000,1000,0,0,0,0,0,0,0,0,0,0
1680795165.59983993,73828790,1000,1000,1000,1000,0,0,0,0,0,0,0,0,0,0
1680795165.69980001,73928750,1000,1000,1000,1000,0,0,0,0,0,0,0,0,0,0
1680795165.79975986,74028710,1000,1000,1000,1000,0,0,0,0,0,0,0,0,0,0
1680795165.89971995,74128670,1000,1000,1000,1000,0,0,0,0,0,0,0,0,0,0
1680795165.99968004,74228630,1000,1000,1000,1000,0,0,0,0,0,0,0,0,0,0
1680795166.09963989,74328590,1000,1000,1000,1000,0,0,0,0,0,0,0,0,0,0
1680795166.19959998,74428550,1000,1000,1000,1000,0,0,0,0,0,0,0,0,0,0
1680795166.29956007,74528510,1000,1000,1000,1000,0,0,0,0,0,0,0,0,0,0
1680795166.39951992,74628470,1000,1000,1000,1000,0,0,0,0,0,0,0,0,0,0
1680795166.49948001,74728430,1000,1000,1000,1000,0,0,0,0,0,0,0,0,0,0
1680795166.59943986,74828390,1000,1000,1000,1000,0,0,0,0,0,0,0,0,0,0
1680795166.69939995,74928350,1000,1000,1000,1000,0,0,0,0,0,0,0,0,0,0
1680795166.79936004,75028310,1000,1000,1000,1000,0,0,0,0,0,0,0,0,0,0
1680795166.89931989,75128270,1000,1000,1000,1000,0,0,0,0,0,0,0,0,0,0
1680795166.99927998,75228230,1000,1000,1000,1000,0,0,0,0,0,0,0,0,0,0
1680795167.09924006,75328190,1000,1000,1000,1000,0,0,0,0,0,0,0,0,0,0
1680795167.20003295,75428983,1016,1016,1016,1016,0,0,0,0,0,0,0,0,0,0
1680795167.29999304,75528943,1046,1046,1046,1046,0,0,0,0,0,0,0,0,0,0
1680795167.39995289,75628903,1076,1076,1076,1076,0,0,0,0,0,0,0,0,0,0
1680795167.49991298,75728863,1106,1106,1106,1106,0,0,0,0,0,0,0,0,0,0
1680795167.59987307,75828823,1136,1136,1136,1136,0,0,0,0,0,0,0,0,0,0
1680795167.69983292,75928783,1301,1292,1292,1301,0,0,0,0,0,0,0,0,0,0
1680795167.79979300,76028743,1505,1497,1498,1505,0,0,0,0,0,0,0,0,0,0
1680795167.89975309,76128703,1664,1657,1658,1664,0,0,0,0,0,0,0,0,0,0
1680795167.99971294,76228663,1800,1793,1794,1799,0,0,0,0,0,0,0,0,0,0
1680795168.09967303,76328623,1847,1840,1840,1847,0,0,0,0,0,0,0,0,0,0
1680795168.19963288,76428583,1852,1849,1849,1853,0,0,0,0,0,0,0,0,0,0
1680795168.29959297,76528543,1730,1729,1729,1730,0,0,0,0,0,0,0,0,0,0
1680795168.39955306,76628503,1635,1637,1637,1635,0,0,0,0,0,0,0,0,0,0
1680795168.49951291,76728463,1612,1615,1615,1612,0,0,0,0,0,0,0,0,0,0
1680795168.59947300,76828423,1626,1629,1628,1626,0,0,0,0,0,0,0,0,0,0
1680795168.69943309,76928383,1642,1633,1632,1642,0,0,0,0,0,0,0,0,0,0
1680795168.79939294,77028343,1631,1632,1626,1637,0,0,0,0,0,0,0,0,0,0
1680795168.89935303,77128303,1624,1626,1621,1629,0,0,0,0,0,0,0,0,0,0
1680795168.99931288,77228263,1619,1620,1618,1620,0,0,0,0,0,0,0,0,0,0
1680795169.09927297,77328223,1617,1617,1619,1616,0,0,0,0,0,0,0,0,0,0
1680795169.19923306,77428183,1619,1618,1621,1616,0,0,0,0,0,0,0,0,0,0
1680795169.30002594,77528976,1621,1620,1624,1616,0,0,0,0,0,0,0,0,0,0
1680795169.39998603,77628936,1622,1622,1625,1619,0,0,0,0,0,0,0,0,0,0
1680795169.49994588,77728896,1610,1610,1614,1606,0,0,0,0,0,0,0,0,0,0
1680795169.59990597,77828856,1585,1586,1595,1576,0,0,0,0,0,0,0,0,0,0
1680795169.69986606,77928816,1572,1573,1577,1568,0,0,0,0,0,0,0,0,0,0
1680795169.79982591,78028776,1562,1562,1561,1564,0,0,0,0,0,0,0,0,0,0
1680795169.89978600,78128736,1553,1553,1546,1560,0,0,0,0,0,0,0,0,0,0
1680795169.99974608,78228696,1545,1545,1535,1556,0,0,0,0,0,0,0,0,0,0
1680795170.09970593,78328656,1539,1538,1530,1547,0,0,0,0,0,0,0,0,0,0
1680795170.19966602,78428616,1533,1533,1528,1537,0,0,0,0,0,0,0,0,0,0
1680795170.29962587,78528576,1529,1529,1528,1529,0,0,0,0,0,0,0,0,0,0
1680795170.39958596,78628536,1528,1528,1530,1526,0,0,0,0,0,0,0,0,0,0
1680795170.49954605,78728496,1529,1529,1532,1527,0,0,0,0,0,0,0,0,0,0
1680795170.59950590,78828456,1531,1531,1535,1528,0,0,0,0,0,0,0,0,0,0
1680795170.69946599,78928416,1535,1535,1538,1533,0,0,0,0,0,0,0,0,0,0
1680795170.79942608,79028376,1539,1539,1541,1537,0,0,0,0,0,0,0,0,0,0
1680795170.89938593,79128336,1542,1542,1543,1541,0,0,0,0,0,0,0,0,0,0
1680795170.99934602,79228296,1546,1546,1546,1546,0,0,0,0,0,0,0,0,0,0
1680795171.09930587,79328256,1549,1548,1548,1549,0,0,0,0,0,0,0,0,0,0
1680795171.19926596,79428216,1552,1552,1552,1553,0,0,0,0,0,0,0,0,0,0
1680795171.29922605,79528176,1553,1553,1552,1555,0,0,0,0,0,0,0,0,0,0
1680795171.40001893,79628969,1557,1557,1554,1556,0,0,0,0,0,0,0,0,0,0
1680795171.49997902,79728929,1559,1559,1557,1559,0,0,0,0,0,0,0,0,0,0
1680795171.59993887,79828889,1560,1560,1561,1562,0,0,0,0,0,0,0,0,0,0
1680795171.69989896,79928849,1560,1560,1564,1564,0,0,0,0,0,0,0,0,0,0
1680795171.79985905,80028809,1561,1562,1567,1566,0,0,0,0,0,0,0,0,0,0
1680795171.89981890,80128769,1563,1563,1569,1568,0,0,0,0,0,0,0,0,0,0
1680795171.99977899,80228729,1564,1564,1568,1568,0,0,0,0,0,0,0,0,0,0
1680795172.09973907,80328689,1565,1565,1569,1569,0,0,0,0,0,0,0,0,0,0
1680795172.19969893,80428649,1567,1568,1569,1569,0,0,0,0,0,0,0,0,0,0
1680795172.29965901,80528609,1570,1570,1570,1570,0,0,0,0,0,0,0,0,0,0
1680795172.39961886,80628569,1572,1571,1570,1570,0,0,0,0,0,0,0,0,0,0
1680795172.49957895,80728529,1573,1573,1570,1570,0,0,0,0,0,0,0,0,0,0
1680795172.59953904,80828489,1573,1574,1570,1571,0,0,0,0,0,0,0,0,0,0
1680795172.69949889,80928449,1575,1574,1571,1571,0,0,0,0,0,0,0,0,0,0
1680795172.79945898,81028409,1575,1575,1572,1571,0,0,0,0,0,0,0,0,0,0
1680795172.89941907,81128369,1576,1575,1573,1572,0,0,0,0,0,0,0,0,0,0
1680795172.99937892,81228329,1576,1575,1574,1573,0,0,0,0,0,0,0,0,0,0
1680795173.09933901,81328289,1576,1576,1575,1574,0,0,0,0,0,0,0,0,0,0
1680795173.19929886,81428249,1577,1576,1576,1575,0,0,0,0,0,0,0,0,0,0
1680795173.29925895,81528209,1576,1576,1576,1576,0,0,0,0,0,0,0,0,0,0
1680795173.39921904,81628169,1576,1577,1577,1577,0,0,0,0,0,0,0,0,0,0
1680795173.50001192,81728962,1576,1576,1577,1577,0,0,0,0,0,0,0,0,0,0
1680795173.59997201,81828922,1577,1577,1578,1578,0,0,0,0,0,0,0,0,0,0
1680795173.69993186,81928882,1576,1576,1577,1578,0,0,0,0,0,0,0,0,0,0
1680795173.79989195,82028842,1576,1577,1577,1577,0,0,0,0,0,0,0,0,0,0
1680795173.89985204,82128802,1576,1576,1577,1577,0,0,0,0,0,0,0,0,0,0
1680795173.99981189,82228762,1578,1578,1578,1578,0,0,0,0,0,0,0,0,0,0
1680795174.09977198,82328722,1578,1577,1578,1578,0,0,0,0,0,0,0,0,0,0
1680795174.19973207,82428682,1577,1577,1578,1577,0,0,0,0,0,0,0,0,0,0
1680795174.29969192,82528642,1579,1579,1579,1579,0,0,0,0,0,0,0,0,0,0
1680795174.39965200,82628602,1579,1579,1579,1579,0,0,0,0,0,0,0,0,0,0
1680795174.49961209,82728562,1577,1577,1577,1577,0,0,0,0,0,0,0,0,0,0
1680795174.59957194,82828522,1577,1577,1577,1578,0,0,0,0,0,0,0,0,0,0
1680795174.69953203,82928482,1577,1577,1576,1576,0,0,0,0,0,0,0,0,0,0
1680795174.79949188,83028442,1578,1579,1578,1578,0,0,0,0,0,0,0,0,0,0
1680795174.89945197,83128402,1579,1578,1578,1578,0,0,0,0,0,0,0,0,0,0
1680795174.99941206,83228362,1578,1578,1578,1578,0,0,0,0,0,0,0,0,0,0
1680795175.09937191,83328322,1579,1579,1579,1579,0,0,0,0,0,0,0,0,0,0
1680795175.19933200,83428282,1579,1580,1580,1580,0,0,0,0,0,0,0,0,0,0
1680795175.29929209,83528242,1579,1579,1579,1579,0,0,0,0,0,0,0,0,0,0
1680795175.39925194,83628202,1580,1579,1580,1580,0,0,0,0,0,0,0,0,0,0
1680795175.49921203,83728162,1579,1580,1580,1580,0,0,0,0,0,0,0,0,0,0
1680795175.60000491,83828955,1579,1580,1580,1580,0,0,0,0,0,0,0,0,0,0
1680795175.69996500,83928915,1580,1580,1580,1580,0,0,0,0,0,0,0,0,0,0
1680795175.79992509,84028875,1580,1580,1580,1580,0,0,0,0,0,0,0,0,0,0
1680795175.89988494,84128835,1580,1579,1579,1579,0,0,0,0,0,0,0,0,0,0
1680795175.99984503,84228795,1580,1580,1580,1580,0,0,0,0,0,0,0,0,0,0
1680795176.09980488,84328755,1579,1580,1580,1580,0,0,0,0,0,0,0,0,0,0
1680795176.19976497,84428715,1580,1580,1580,1580,0,0,0,0,0,0,0,0,0,0
1680795176.29972506,84528675,1580,1579,1580,1579,0,0,0,0,0,0,0,0,0,0
1680795176.39968491,84628635,1580,1579,1579,1579,0,0,0,0,0,0,0,0,0,0
1680795176.49964499,84728595,1580,1580,1580,1580,0,0,0,0,0,0,0,0,0,0
1680795176.59960508,84828555,1580,1580,1580,1580,0,0,0,0,0,0,0,0,0,0
1680795176.69956493,84928515,1580,1580,1580,1580,0,0,0,0,0,0,0,0,0,0
1680795176.79952502,85028475,1580,1580,1580,1580,0,0,0,0,0,0,0,0,0,0
1680795176.89948487,85128435,1581,1580,1580,1580,0,0,0,0,0,0,0,0,0,0
1680795176.99944496,85228395,1580,1580,1580,1580,0,0,0,0,0,0,0,0,0,0
1680795177.09940505,85328355,1581,1581,1580,1581,0,0,0,0,0,0,0,0,0,0
1680795177.19936490,85428315,1581,1581,1581,1581,0,0,0,0,0,0,0,0,0,0
1680795177.29932499,85528275,1582,1582,1582,1582,0,0,0,0,0,0,0,0,0,0
1680795177.39928508,85628235,1582,1582,1582,1582,0,0,0,0,0,0,0,0,0,0
1680795177.49924493,85728195,1581,1581,1581,1581,0,0,0,0,0,0,0,0,0,0
1680795177.59920502,85828155,1581,1582,1587,1576,0,0,0,0,0,0,0,0,0,0
1680795177.69999790,85928948,1581,1582,1587,1573,0,0,0,0,0,0,0,0,0,0
1680795177.79995799,86028908,1580,1582,1581,1574,0,0,0,0,0,0,0,0,0,0
1680795177.89991808,86128868,1578,1581,1571,1573,0,0,0,0,0,0,0,0,0,0
1680795177.99987793,86228828,1576,1579,1563,1569,0,0,0,0,0,0,0,0,0,0
1680795178.09983802,86328788,1577,1578,1558,1565,0,0,0,0,0,0,0,0,0,0
1680795178.19979787,86428748,1578,1577,1554,1559,0,0,0,0,0,0,0,0,0,0
1680795178.29975796,86528708,1579,1577,1555,1556,0,0,0,0,0,0,0,0,0,0
1680795178.39971805,86628668,1578,1577,1555,1553,0,0,0,0,0,0,0,0,0,0
1680795178.49967790,86728628,1578,1577,1555,1553,0,0,0,0,0,0,0,0,0,0
1680795178.59963799,86828588,1577,1577,1556,1553,0,0,0,0,0,0,0,0,0,0
1680795178.69959807,86928548,1576,1576,1555,1553,0,0,0,0,0,0,0,0,0,0
1680795178.79955792,87028508,1574,1576,1554,1553,0,0,0,0,0,0,0,0,0,0
1680795178.89951801,87128468,1575,1576,1553,1553,0,0,0,0,0,0,0,0,0,0
1680795178.99947786,87228428,1575,1577,1553,1552,0,0,0,0,0,0,0,0,0,0
1680795179.09943795,87328388,1576,1578,1550,1551,0,0,0,0,0,0,0,0,0,0
1680795179.19939804,87428348,1578,1579,1548,1548,0,0,0,0,0,0,0,0,0,0
1680795179.29935789,87528308,1581,1582,1547,1547,0,0,0,0,0,0,0,0,0,0
1680795179.39931798,87628268,1584,1584,1544,1543,0,0,0,0,0,0,0,0,0,0
1680795179.49927807,87728228,1587,1588,1541,1541,0,0,0,0,0,0,0,0,0,0
1680795179.59923792,87828188,1590,1591,1538,1538,0,0,0,0,0,0,0,0,0,0
1680795179.70003104,87928981,1593,1593,1536,1536,0,0,0,0,0,0,0,0,0,0
1680795179.79999089,88028941,1595,1595,1535,1535,0,0,0,0,0,0,0,0,0,0
1680795179.89995098,88128901,1595,1595,1534,1536,0,0,0,0,0,0,0,0,0,0
1680795179.99991107,88228861,1594,1595,1534,1536,0,0,0,0,0,0,0,0,0,0
1680795180.09987092,88328821,1593,1592,1537,1540,0,0,0,0,0,0,0,0,0,0
1680795180.19983101,88428781,1590,1589,1542,1545,0,0,0,0,0,0,0,0,0,0
1680795180.29979086,88528741,1585,1582,1550,1552,0,0,0,0,0,0,0,0,0,0
1680795180.39975095,88628701,1576,1573,1559,1562,0,0,0,0,0,0,0,0,0,0
1680795180.49971104,88728661,1566,1562,1571,1573,0,0,0,0,0,0,0,0,0,0
1680795180.59967089,88828621,1554,1551,1583,1585,0,0,0,0,0,0,0,0,0,0
1680795180.69963098,88928581,1544,1541,1596,1596,0,0,0,0,0,0,0,0,0,0
1680795180.79959106,89028541,1535,1534,1606,1605,0,0,0,0,0,0,0,0,0,0
1680795180.89955091,89128501,1529,1529,1612,1611,0,0,0,0,0,0,0,0,0,0
1680795180.99951100,89228461,1527,1529,1615,1614,0,0,0,0,0,0,0,0,0,0
1680795181.09947109,89328421,1529,1531,1614,1613,0,0,0,0,0,0,0,0,0,0
1680795181.19943094,89428381,1534,1536,1610,1610,0,0,0,0,0,0,0,0,0,0
1680795181.29939103,89528341,1542,1543,1604,1605,0,0,0,0,0,0,0,0,0,0
1680795181.39935088,89628301,1551,1552,1597,1598,0,0,0,0,0,0,0,0,0,0
1680795181.49931097,89728261,1561,1561,1590,1590,0,0,0,0,0,0,0,0,0,0
1680795181.59927106,89828221,1569,1569,1583,1582,0,0,0,0,0,0,0,0,0,0
1680795181.69923091,89928181,1576,1576,1576,1575,0,0,0,0,0,0,0,0,0,0
1680795181.80002403,90028974,1582,1580,1571,1570,0,0,0,0,0,0,0,0,0,0
1680795181.89998388,90128934,1586,1584,1567,1567,0,0,0,0,0,0,0,0,0,0
1680795181.99994397,90228894,1589,1587,1566,1567,0,0,0,0,0,0,0,0,0,0
1680795182.09990406,90328854,1588,1586,1565,1566,0,0,0,0,0,0,0,0,0,0
1680795182.19986391,90428814,1586,1585,1566,1567,0,0,0,0,0,0,0,0,0,0
1680795182.29982400,90528774,1584,1583,1569,1570,0,0,0,0,0,0,0,0,0,0
1680795182.39978409,90628734,1582,1582,1573,1573,0,0,0,0,0,0,0,0,0,0
1680795182.49974394,90728694,1579,1579,1577,1576,0,0,0,0,0,0,0,0,0,0
1680795182.59970403,90828654,1576,1577,1579,1579,0,0,0,0,0,0,0,0,0,0
1680795182.69966388,90928614,1573,1574,1581,1580,0,0,0,0,0,0,0,0,0,0
1680795182.79962397,91028574,1572,1573,1582,1582,0,0,0,0,0,0,0,0,0,0
1680795182.89958405,91128534,1572,1573,1584,1584,0,0,0,0,0,0,0,0,0,0
1680795182.99954391,91228494,1573,1574,1585,1585,0,0,0,0,0,0,0,0,0,0
1680795183.09950399,91328454,1574,1575,1585,1585,0,0,0,0,0,0,0,0,0,0
1680795183.19946408,91428414,1575,1575,1583,1583,0,0,0,0,0,0,0,0,0,0
1680795183.29942393,91528374,1575,1576,1582,1582,0,0,0,0,0,0,0,0,0,0
1680795183.39938402,91628334,1576,1576,1580,1579,0,0,0,0,0,0,0,0,0,0
1680795183.49934387,91728294,1579,1579,1580,1580,0,0,0,0,0,0,0,0,0,0
1680795183.59930396,91828254,1580,1580,1579,1578,0,0,0,0,0,0,0,0,0,0
1680795183.69926405,91928214,1580,1580,1577,1577,0,0,0,0,0,0,0,0,0,0
1680795183.79922390,92028174,1581,1581,1577,1577,0,0,0,0,0,0,0,0,0,0
1680795183.90001702,92128967,1582,1581,1577,1577,0,0,0,0,0,0,0,0,0,0
1680795183.99997687,92228927,1582,1582,1578,1578,0,0,0,0,0,0,0,0,0,0
1680795184.09993696,92328887,1581,1581,1577,1578,0,0,0,0,0,0,0,0,0,0
1680795184.19989705,92428847,1581,1581,1578,1578,0,0,0,0,0,0,0,0,0,0
1680795184.29985690,92528807,1580,1580,1578,1578,0,0,0,0,0,0,0,0,0,0
1680795184.39981699,92628767,1580,1580,1580,1580,0,0,0,0,0,0,0,0,0,0
1680795184.49977708,92728727,1580,1580,1580,1580,0,0,0,0,0,0,0,0,0,0
1680795184.59973693,92828687,1580,1580,1581,1581,0,0,0,0,0,0,0,0,0,0
1680795184.69969702,92928647,1581,1581,1582,1582,0,0,0,0,0,0,0,0,0,0
1680795184.79965687,93028607,1580,1580,1582,1581,0,0,0,0,0,0,0,0,0,0
1680795184.89961696,93128567,1579,1579,1581,1581,0,0,0,0,0,0,0,0,0,0
1680795184.99957705,93228527,1580,1580,1582,1581,0,0,0,0,0,0,0,0,0,0
1680795185.09953690,93328487,1579,1580,1581,1581,0,0,0,0,0,0,0,0,0,0
1680795185.19949698,93428447,1579,1580,1580,1581,0,0,0,0,0,0,0,0,0,0
1680795185.29945707,93528407,1580,1580,1581,1581,0,0,0,0,0,0,0,0,0,0
1680795185.39941692,93628367,1580,1580,1580,1580,0,0,0,0,0,0,0,0,0,0
1680795185.49937701,93728327,1581,1580,1580,1580,0,0,0,0,0,0,0,0,0,0
1680795185.59933686,93828287,1580,1581,1583,1575,0,0,0,0,0,0,0,0,0,0
1680795185.69929695,93928247,1580,1584,1586,1571,0,0,0,0,0,0,0,0,0,0
1680795185.79925704,94028207,1581,1585,1579,1571,0,0,0,0,0,0,0,0,0,0
1680795185.89921689,94128167,1580,1583,1570,1570,0,0,0,0,0,0,0,0,0,0
1680795186.00001001,94228960,1579,1581,1561,1567,0,0,0,0,0,0,0,0,0,0
1680795186.09996986,94328920,1579,1580,1555,1563,0,0,0,0,0,0,0,0,0,0
1680795186.19992995,94428880,1580,1580,1553,1558,0,0,0,0,0,0,0,0,0,0
1680795186.29989004,94528840,1582,1580,1553,1555,0,0,0,0,0,0,0,0,0,0
1680795186.39984989,94628800,1582,1580,1554,1553,0,0,0,0,0,0,0,0,0,0
1680795186.49980998,94728760,1583,1582,1497,1539,0,0,0,0,0,0,0,0,0,0
1680795186.59977007,94828720,1590,1590,1531,1534,0,0,0,0,0,0,0,0,0,0
1680795186.69972992,94928680,1589,1591,1553,1534,0,0,0,0,0,0,0,0,0,0
1680795186.79969001,95028640,1587,1590,1567,1543,0,0,0,0,0,0,0,0,0,0
1680795186.89964986,95128600,1584,1588,1574,1555,0,0,0,0,0,0,0,0,0,0
1680795186.99960995,95228560,1580,1583,1573,1563,0,0,0,0,0,0,0,0,0,0
1680795187.09957004,95328520,1577,1579,1568,1569,0,0,0,0,0,0,0,0,0,0
1680795187.19952989,95428480,1575,1577,1562,1569,0,0,0,0,0,0,0,0,0,0
1680795187.29948997,95528440,1577,1577,1555,1565,0,0,0,0,0,0,0,0,0,0
1680795187.39945006,95628400,1580,1579,1550,1557,0,0,0,0,0,0,0,0,0,0
1680795187.49940991,95728360,1585,1585,1546,1550,0,0,0,0,0,0,0,0,0,0
1680795187.59937000,95828320,1591,1592,1541,1543,0,0,0,0,0,0,0,0,0,0
1680795187.69933009,95928280,1597,1597,1538,1537,0,0,0,0,0,0,0,0,0,0
1680795187.79928994,96028240,1599,1600,1534,1533,0,0,0,0,0,0,0,0,0,0
1680795187.89925003,96128200,1603,1602,1535,1536,0,0,0,0,0,0,0,0,0,0
1680795187.99920988,96228160,1602,1600,1538,1540,0,0,0,0,0,0,0,0,0,0
1680795188.10000300,96328953,1597,1593,1544,1548,0,0,0,0,0,0,0,0,0,0
1680795188.19996309,96428913,1588,1583,1553,1558,0,0,0,0,0,0,0,0,0,0
1680795188.29992294,96528873,1578,1572,1567,1571,0,0,0,0,0,0,0,0,0,0
1680795188.39988303,96628833,1564,1559,1582,1584,0,0,0,0,0,0,0,0,0,0
1680795188.49984288,96728793,1551,1548,1596,1597,0,0,0,0,0,0,0,0,0,0
1680795188.59980297,96828753,1540,1538,1608,1607,0,0,0,0,0,0,0,0,0,0
1680795188.69976306,96928713,1533,1533,1617,1614,0,0,0,0,0,0,0,0,0,0
1680795188.79972291,97028673,1530,1532,1620,1617,0,0,0,0,0,0,0,0,0,0
1680795188.89968300,97128633,1533,1535,1619,1617,0,0,0,0,0,0,0,0,0,0
1680795188.99964309,97228593,1537,1540,1616,1614,0,0,0,0,0,0,0,0,0,0
1680795189.09960294,97328553,1542,1544,1610,1609,0,0,0,0,0,0,0,0,0,0
1680795189.19956303,97428513,1549,1551,1603,1603,0,0,0,0,0,0,0,0,0,0
1680795189.29952288,97528473,1555,1556,1596,1596,0,0,0,0,0,0,0,0,0,0
1680795189.39948297,97628433,1562,1562,1589,1589,0,0,0,0,0,0,0,0,0,0
1680795189.49944305,97728393,1570,1569,1582,1583,0,0,0,0,0,0,0,0,0,0
1680795189.59940290,97828353,1577,1576,1574,1575,0,0,0,0,0,0,0,0,0,0
1680795189.69936299,97928313,1582,1581,1568,1569,0,0,0,0,0,0,0,0,0,0
1680795189.79932308,98028273,1586,1585,1565,1565,0,0,0,0,0,0,0,0,0,0
1680795189.89928293,98128233,1588,1586,1562,1562,0,0,0,0,0,0,0,0,0,0
1680795189.99924302,98228193,1588,1586,1562,1562,0,0,0,0,0,0,0,0,0,0
1680795190.10003591,98328986,1587,1585,1564,1563,0,0,0,0,0,0,0,0,0,0
1680795190.19999599,98428946,1585,1584,1567,1567,0,0,0,0,0,0,0,0,0,0
1680795190.29995608,98528906,1581,1581,1570,1570,0,0,0,0,0,0,0,0,0,0
1680795190.39991593,98628866,1579,1579,1574,1574,0,0,0,0,0,0,0,0,0,0
1680795190.49987602,98728826,1576,1576,1577,1578,0,0,0,0,0,0,0,0,0,0
1680795190.59983587,98828786,1574,1574,1581,1580,0,0,0,0,0,0,0,0,0,0
1680795190.69979596,98928746,1571,1572,1582,1582,0,0,0,0,0,0,0,0,0,0
1680795190.79975605,99028706,1571,1572,1584,1584,0,0,0,0,0,0,0,0,0,0
1680795190.89971590,99128666,1572,1573,1585,1585,0,0,0,0,0,0,0,0,0,0
1680795190.99967599,99228626,1572,1573,1585,1584,0,0,0,0,0,0,0,0,0,0
1680795191.09963608,99328586,1573,1574,1583,1583,0,0,0,0,0,0,0,0,0,0
1680795191.19959593,99428546,1574,1574,1581,1581,0,0,0,0,0,0,0,0,0,0
1680795191.29955602,99528506,1576,1576,1580,1581,0,0,0,0,0,0,0,0,0,0
1680795191.39951587,99628466,1578,1578,1579,1579,0,0,0,0,0,0,0,0,0,0
1680795191.49947596,99728426,1579,1580,1579,1578,0,0,0,0,0,0,0,0,0,0
1680795191.59943604,99828386,1581,1581,1578,1578,0,0,0,0,0,0,0,0,0,0
1680795191.69939590,99928346,1582,1581,1578,1577,0,0,0,0,0,0,0,0,0,0
1680795191.79935598,100028306,1583,1583,1578,1578,0,0,0,0,0,0,0,0,0,0
1680795191.89931607,100128266,1582,1582,1577,1577,0,0,0,0,0,0,0,0,0,0
1680795191.99927592,100228226,1582,1582,1578,1578,0,0,0,0,0,0,0,0,0,0
1680795192.09923601,100328186,1581,1581,1577,1578,0,0,0,0,0,0,0,0,0,0
1680795192.20002890,100428979,1581,1582,1579,1579,0,0,0,0,0,0,0,0,0,0
1680795192.29998899,100528939,1581,1581,1579,1579,0,0,0,0,0,0,0,0,0,0
1680795192.39994907,100628899,1580,1580,1580,1580,0,0,0,0,0,0,0,0,0,0
1680795192.49990892,100728859,1581,1581,1581,1581,0,0,0,0,0,0,0,0,0,0
1680795192.59986901,100828819,1580,1580,1582,1581,0,0,0,0,0,0,0,0,0,0
1680795192.69982886,100928779,1580,1580,1582,1582,0,0,0,0,0,0,0,0,0,0
1680795192.79978895,101028739,1581,1581,1583,1583,0,0,0,0,0,0,0,0,0,0
1680795192.89974904,101128699,1580,1581,1582,1582,0,0,0,0,0,0,0,0,0,0
1680795192.99970889,101228659,1580,1581,1582,1582,0,0,0,0,0,0,0,0,0,0
1680795193.09966898,101328619,1581,1582,1583,1583,0,0,0,0,0,0,0,0,0,0
1680795193.19962907,101428579,1582,1582,1583,1582,0,0,0,0,0,0,0,0,0,0
1680795193.29958892,101528539,1582,1581,1581,1582,0,0,0,0,0,0,0,0,0,0
1680795193.39954901,101628499,1581,1581,1581,1581,0,0,0,0,0,0,0,0,0,0
1680795193.49950886,101728459,1582,1581,1581,1581,0,0,0,0,0,0,0,0,0,0
1680795193.59946895,101828419,1581,1582,1581,1581,0,0,0,0,0,0,0,0,0,0
1680795193.69942904,101928379,1582,1584,1588,1575,0,0,0,0,0,0,0,0,0,0
1680795193.79938889,102028339,1581,1585,1586,1573,0,0,0,0,0,0,0,0,0,0
1680795193.89934897,102128299,1580,1584,1579,1574,0,0,0,0,0,0,0,0,0,0
1680795193.99930906,102228259,1579,1581,1570,1572,0,0,0,0,0,0,0,0,0,0
1680795194.09926891,102328219,1576,1578,1561,1568,0,0,0,0,0,0,0,0,0,0
1680795194.19922900,102428179,1578,1579,1558,1565,0,0,0,0,0,0,0,0,0,0
1680795194.30002189,102528972,1579,1578,1555,1559,0,0,0,0,0,0,0,0,0,0
1680795194.39998198,102628932,1579,1577,1554,1555,0,0,0,0,0,0,0,0,0,0
1680795194.49994206,102728892,1580,1578,1555,1554,0,0,0,0,0,0,0,0,0,0
1680795194.59990191,102828852,1580,1579,1556,1554,0,0,0,0,0,0,0,0,0,0
1680795194.69986200,102928812,1578,1579,1556,1554,0,0,0,0,0,0,0,0,0,0
1680795194.79982209,103028772,1576,1578,1556,1554,0,0,0,0,0,0,0,0,0,0
1680795194.89978194,103128732,1576,1577,1555,1554,0,0,0,0,0,0,0,0,0,0
1680795194.99974203,103228692,1575,1577,1554,1554,0,0,0,0,0,0,0,0,0,0
1680795195.09970188,103328652,1576,1577,1552,1553,0,0,0,0,0,0,0,0,0,0
1680795195.19966197,103428612,1576,1578,1551,1551,0,0,0,0,0,0,0,0,0,0
1680795195.29962206,103528572,1579,1579,1550,1550,0,0,0,0,0,0,0,0,0,0
1680795195.39958191,103628532,1580,1582,1548,1547,0,0,0,0,0,0,0,0,0,0
1680795195.49954200,103728492,1582,1583,1545,1544,0,0,0,0,0,0,0,0,0,0
1680795195.59950209,103828452,1586,1586,1543,1543,0,0,0,0,0,0,0,0,0,0
1680795195.69946194,103928412,1588,1589,1541,1541,0,0,0,0,0,0,0,0,0,0
1680795195.79942203,104028372,1591,1591,1540,1540,0,0,0,0,0,0,0,0,0,0
1680795195.89938188,104128332,1593,1594,1539,1539,0,0,0,0,0,0,0,0,0,0
1680795195.99934196,104228292,1594,1595,1538,1539,0,0,0,0,0,0,0,0,0,0
1680795196.09930205,104328252,1594,1594,1538,1540,0,0,0,0,0,0,0,0,0,0
1680795196.19926190,104428212,1593,1593,1540,1543,0,0,0,0,0,0,0,0,0,0
1680795196.29922199,104528172,1590,1588,1545,1548,0,0,0,0,0,0,0,0,0,0
1680795196.40001488,104628965,1584,1581,1552,1555,0,0,0,0,0,0,0,0,0,0
1680795196.49997497,104728925,1577,1572,1562,1565,0,0,0,0,0,0,0,0,0,0
1680795196.59993505,104828885,1567,1563,1574,1576,0,0,0,0,0,0,0,0,0,0
1680795196.69989491,104928845,1556,1553,1586,1586,0,0,0,0,0,0,0,0,0,0
1680795196.79985499,105028805,1547,1545,1597,1597,0,0,0,0,0,0,0,0,0,0
1680795196.89981508,105128765,1538,1538,1606,1605,0,0,0,0,0,0,0,0,0,0
1680795196.99977493,105228725,1534,1535,1612,1611,0,0,0,0,0,0,0,0,0,0
1680795197.09973502,105328685,1534,1535,1615,1613,0,0,0,0,0,0,0,0,0,0
1680795197.19969487,105428645,1536,1539,1613,1612,0,0,0,0,0,0,0,0,0,0
1680795197.29965496,105528605,1541,1543,1609,1608,0,0,0,0,0,0,0,0,0,0
1680795197.39961505,105628565,1548,1549,1604,1604,0,0,0,0,0,0,0,0,0,0
1680795197.49957490,105728525,1554,1554,1597,1597,0,0,0,0,0,0,0,0,0,0
1680795197.59953499,105828485,1562,1562,1590,1590,0,0,0,0,0,0,0,0,0,0
1680795197.69949508,105928445,1569,1569,1583,1583,0,0,0,0,0,0,0,0,0,0
1680795197.79945493,106028405,1576,1576,1577,1577,0,0,0,0,0,0,0,0,0,0
1680795197.89941502,106128365,1581,1580,1572,1572,0,0,0,0,0,0,0,0,0,0
1680795197.99937487,106228325,1585,1584,1569,1569,0,0,0,0,0,0,0,0,0,0
1680795198.09933496,106328285,1588,1586,1567,1568,0,0,0,0,0,0,0,0,0,0
1680795198.19929504,106428245,1586,1585,1566,1566,0,0,0,0,0,0,0,0,0,0
1680795198.29925489,106528205,1586,1585,1568,1568,0,0,0,0,0,0,0,0,0,0
1680795198.39921498,106628165,1584,1584,1570,1570,0,0,0,0,0,0,0,0,0,0
1680795198.50000787,106728958,1581,1581,1573,1573,0,0,0,0,0,0,0,0,0,0
1680795198.59996796,106828918,1578,1579,1575,1575,0,0,0,0,0,0,0,0,0,0
1680795198.69992805,106928878,1576,1576,1578,1578,0,0,0,0,0,0,0,0,0,0
1680795198.79988790,107028838,1574,1575,1581,1580,0,0,0,0,0,0,0,0,0,0
1680795198.89984798,107128798,1572,1573,1581,1581,0,0,0,0,0,0,0,0,0,0
1680795198.99980807,107228758,1572,1573,1583,1583,0,0,0,0,0,0,0,0,0,0
1680795199.09976792,107328718,1573,1574,1584,1585,0,0,0,0,0,0,0,0,0,0
1680795199.19972801,107428678,1573,1573,1583,1583,0,0,0,0,0,0,0,0,0,0
1680795199.29968786,107528638,1574,1574,1582,1582,0,0,0,0,0,0,0,0,0,0
1680795199.39964795,107628598,1575,1575,1582,1581,0,0,0,0,0,0,0,0,0,0
1680795199.49960804,107728558,1577,1577,1581,1580,0,0,0,0,0,0,0,0,0,0
1680795199.59956789,107828518,1578,1578,1580,1580,0,0,0,0,0,0,0,0,0,0
1680795199.69952798,107928478,1579,1579,1578,1579,0,0,0,0,0,0,0,0,0,0
1680795199.79948807,108028438,1580,1581,1578,1578,0,0,0,0,0,0,0,0,0,0
1680795199.89944792,108128398,1581,1581,1577,1578,0,0,0,0,0,0,0,0,0,0
1680795199.99940801,108228358,1582,1581,1578,1578,0,0,0,0,0,0,0,0,0,0
1680795200.09936810,108328318,1581,1581,1577,1577,0,0,0,0,0,0,0,0,0,0
1680795200.19932795,108428278,1580,1580,1577,1577,0,0,0,0,0,0,0,0,0,0
1680795200.29928803,108528238,1581,1581,1578,1578,0,0,0,0,0,0,0,0,0,0
1680795200.39924788,108628198,1581,1581,1579,1579,0,0,0,0,0,0,0,0,0,0
1680795200.49920797,108728158,1581,1581,1580,1580,0,0,0,0,0,0,0,0,0,0
1680795200.60000086,108828951,1580,1580,1580,1580,0,0,0,0,0,0,0,0,0,0
1680795200.69996095,108928911,1580,1580,1581,1581,0,0,0,0,0,0,0,0,0,0
1680795200.79992104,109028871,1579,1579,1580,1580,0,0,0,0,0,0,0,0,0,0
1680795200.89988089,109128831,1579,1580,1581,1581,0,0,0,0,0,0,0,0,0,0
1680795200.99984097,109228791,1579,1579,1581,1581,0,0,0,0,0,0,0,0,0,0
1680795201.09980106,109328751,1578,1579,1580,1581,0,0,0,0,0,0,0,0,0,0
1680795201.19976091,109428711,1580,1580,1581,1581,0,0,0,0,0,0,0,0,0,0
1680795201.29972100,109528671,1580,1580,1581,1581,0,0,0,0,0,0,0,0,0,0
1680795201.39968109,109628631,1581,1580,1581,1581,0,0,0,0,0,0,0,0,0,0
1680795201.49964094,109728591,1582,1581,1582,1581,0,0,0,0,0,0,0,0,0,0
1680795201.59960103,109828551,1582,1583,1585,1577,0,0,0,0,0,0,0,0,0,0
1680795201.69956088,109928511,1582,1583,1588,1572,0,0,0,0,0,0,0,0,0,0
1680795201.79952097,110028471,1579,1580,1582,1574,0,0,0,0,0,0,0,0,0,0
1680795201.89948106,110128431,1577,1577,1575,1575,0,0,0,0,0,0,0,0,0,0
1680795201.99944091,110228391,1573,1573,1568,1575,0,0,0,0,0,0,0,0,0,0
1680795202.09940100,110328351,1571,1570,1565,1574,0,0,0,0,0,0,0,0,0,0
1680795202.19936109,110428311,1568,1567,1564,1570,0,0,0,0,0,0,0,0,0,0
1680795202.29932094,110528271,1566,1566,1564,1567,0,0,0,0,0,0,0,0,0,0
1680795202.39928102,110628231,1566,1566,1566,1565,0,0,0,0,0,0,0,0,0,0
1680795202.49924088,110728191,1566,1566,1567,1565,0,0,0,0,0,0,0,0,0,0
1680795202.60003400,110828984,1564,1565,1566,1563,0,0,0,0,0,0,0,0,0,0
1680795202.69999409,110928944,1564,1564,1566,1563,0,0,0,0,0,0,0,0,0,0
1680795202.79995394,111028904,1564,1564,1565,1564,0,0,0,0,0,0,0,0,0,0
1680795202.89991403,111128864,1563,1563,1564,1563,0,0,0,0,0,0,0,0,0,0
1680795202.99987388,111228824,1562,1563,1563,1563,0,0,0,0,0,0,0,0,0,0
1680795203.09983397,111328784,1562,1562,1562,1563,0,0,0,0,0,0,0,0,0,0
1680795203.19979405,111428744,1562,1562,1562,1562,0,0,0,0,0,0,0,0,0,0
1680795203.29975390,111528704,1561,1561,1561,1561,0,0,0,0,0,0,0,0,0,0
1680795203.39971399,111628664,1560,1560,1561,1560,0,0,0,0,0,0,0,0,0,0
1680795203.49967408,111728624,1560,1560,1560,1560,0,0,0,0,0,0,0,0,0,0
1680795203.59963393,111828584,1560,1559,1560,1559,0,0,0,0,0,0,0,0,0,0
1680795203.69959402,111928544,1559,1559,1559,1558,0,0,0,0,0,0,0,0,0,0
1680795203.79955387,112028504,1559,1559,1559,1558,0,0,0,0,0,0,0,0,0,0
1680795203.89951396,112128464,1559,1558,1558,1558,0,0,0,0,0,0,0,0,0,0
1680795203.99947405,112228424,1558,1558,1558,1557,0,0,0,0,0,0,0,0,0,0
1680795204.09943390,112328384,1559,1558,1559,1558,0,0,0,0,0,0,0,0,0,0
1680795204.19939399,112428344,1559,1558,1560,1557,0,0,0,0,0,0,0,0,0,0
1680795204.29935408,112528304,1559,1559,1560,1557,0,0,0,0,0,0,0,0,0,0
1680795204.39931393,112628264,1558,1558,1559,1558,0,0,0,0,0,0,0,0,0,0
1680795204.49927402,112728224,1559,1559,1557,1561,0,0,0,0,0,0,0,0,0,0
1680795204.59923387,112828184,1560,1559,1557,1563,0,0,0,0,0,0,0,0,0,0
1680795204.70002699,112928977,1561,1561,1557,1565,0,0,0,0,0,0,0,0,0,0
1680795204.79998708,113028937,1562,1562,1559,1564,0,0,0,0,0,0,0,0,0,0
1680795204.89994693,113128897,1562,1562,1561,1563,0,0,0,0,0,0,0,0,0,0
1680795204.99990702,113228857,1563,1563,1563,1562,0,0,0,0,0,0,0,0,0,0
1680795205.09986687,113328817,1562,1562,1563,1559,0,0,0,0,0,0,0,0,0,0
1680795205.19982696,113428777,1562,1562,1564,1560,0,0,0,0,0,0,0,0,0,0
1680795205.29978704,113528737,1561,1561,1560,1562,0,0,0,0,0,0,0,0,0,0
1680795205.39974689,113628697,1559,1559,1556,1563,0,0,0,0,0,0,0,0,0,0
1680795205.49970698,113728657,1554,1555,1552,1558,0,0,0,0,0,0,0,0,0,0
1680795205.59966707,113828617,1551,1550,1549,1552,0,0,0,0,0,0,0,0,0,0
1680795205.69962692,113928577,1543,1543,1544,1544,0,0,0,0,0,0,0,0,0,0
1680795205.79958701,114028537,1536,1536,1538,1536,0,0,0,0,0,0,0,0,0,0
1680795205.89954686,114128497,1529,1529,1531,1528,0,0,0,0,0,0,0,0,0,0
1680795205.99950695,114228457,1522,1522,1524,1522,0,0,0,0,0,0,0,0,0,0
1680795206.09946704,114328417,1519,1519,1520,1519,0,0,0,0,0,0,0,0,0,0
1680795206.19942689,114428377,1519,1520,1519,1520,0,0,0,0,0,0,0,0,0,0
1680795206.29938698,114528337,1521,1521,1520,1521,0,0,0,0,0,0,0,0,0,0
1680795206.39934707,114628297,1523,1522,1521,1522,0,0,0,0,0,0,0,0,0,0
1680795206.49930692,114728257,1527,1527,1525,1527,0,0,0,0,0,0,0,0,0,0
1680795206.59926701,114828217,1531,1532,1530,1530,0,0,0,0,0,0,0,0,0,0
1680795206.69922709,114928177,1536,1536,1535,1535,0,0,0,0,0,0,0,0,0,0
1680795206.80001998,115028970,1539,1538,1538,1537,0,0,0,0,0,0,0,0,0,0
1680795206.89998007,115128930,1542,1542,1541,1541,0,0,0,0,0,0,0,0,0,0
1680795206.99993992,115228890,1543,1543,1543,1542,0,0,0,0,0,0,0,0,0,0
1680795207.09990001,115328850,1544,1544,1544,1544,0,0,0,0,0,0,0,0,0,0
1680795207.19985986,115428810,1544,1545,1545,1545,0,0,0,0,0,0,0,0,0,0
1680795207.29981995,115528770,1545,1545,1546,1545,0,0,0,0,0,0,0,0,0,0
1680795207.39978004,115628730,1545,1545,1546,1546,0,0,0,0,0,0,0,0,0,0
1680795207.49973989,115728690,1546,1545,1547,1546,0,0,0,0,0,0,0,0,0,0
1680795207.59969997,115828650,1546,1546,1547,1547,0,0,0,0,0,0,0,0,0,0
1680795207.69966006,115928610,1546,1546,1547,1546,0,0,0,0,0,0,0,0,0,0
1680795207.79961991,116028570,1546,1546,1546,1546,0,0,0,0,0,0,0,0,0,0
1680795207.89958000,116128530,1545,1544,1545,1545,0,0,0,0,0,0,0,0,0,0
1680795207.99954009,116228490,1545,1546,1546,1546,0,0,0,0,0,0,0,0,0,0
1680795208.09949994,116328450,1545,1545,1545,1545,0,0,0,0,0,0,0,0,0,0
1680795208.19946003,116428410,1544,1544,1544,1544,0,0,0,0,0,0,0,0,0,0
1680795208.29941988,116528370,1544,1544,1543,1544,0,0,0,0,0,0,0,0,0,0
1680795208.39937997,116628330,1544,1545,1544,1544,0,0,0,0,0,0,0,0,0,0
1680795208.49934006,116728290,1544,1544,1543,1544,0,0,0,0,0,0,0,0,0,0
1680795208.59929991,116828250,1544,1544,1544,1543,0,0,0,0,0,0,0,0,0,0
1680795208.69926000,116928210,1545,1544,1544,1544,0,0,0,0,0,0,0,0,0,0
1680795208.79922009,117028170,1544,1544,1544,1543,0,0,0,0,0,0,0,0,0,0
1680795208.90001297,117128963,1544,1543,1543,1543,0,0,0,0,0,0,0,0,0,0
1680795208.99997306,117228923,1544,1544,1544,1544,0,0,0,0,0,0,0,0,0,0
1680795209.09993291,117328883,1545,1545,1545,1545,0,0,0,0,0,0,0,0,0,0
1680795209.19989300,117428843,1543,1544,1543,1544,0,0,0,0,0,0,0,0,0,0
1680795209.29985309,117528803,1543,1543,1543,1543,0,0,0,0,0,0,0,0,0,0
1680795209.39981294,117628763,1544,1544,1544,1544,0,0,0,0,0,0,0,0,0,0
1680795209.49977303,117728723,1545,1544,1545,1545,0,0,0,0,0,0,0,0,0,0
1680795209.59973288,117828683,1544,1544,1544,1544,0,0,0,0,0,0,0,0,0,0
1680795209.69969296,117928643,1544,1544,1544,1544,0,0,0,0,0,0,0,0,0,0
1680795209.79965305,118028603,1543,1544,1543,1544,0,0,0,0,0,0,0,0,0,0
1680795209.89961290,118128563,1544,1544,1544,1544,0,0,0,0,0,0,0,0,0,0
1680795209.99957299,118228523,1544,1544,1544,1543,0,0,0,0,0,0,0,0,0,0
1680795210.09953308,118328483,1543,1543,1543,1543,0,0,0,0,0,0,0,0,0,0
1680795210.19949293,118428443,1544,1544,1544,1544,0,0,0,0,0,0,0,0,0,0
1680795210.29945302,118528403,1543,1543,1543,1543,0,0,0,0,0,0,0,0,0,0
1680795210.39941287,118628363,1544,1543,1543,1543,0,0,0,0,0,0,0,0,0,0
1680795210.49937296,118728323,1544,1544,1544,1544,0,0,0,0,0,0,0,0,0,0
1680795210.59933305,118828283,1544,1544,1544,1544,0,0,0,0,0,0,0,0,0,0
1680795210.69929290,118928243,1544,1544,1544,1544,0,0,0,0,0,0,0,0,0,0
1680795210.79925299,119028203,1544,1544,1544,1544,0,0,0,0,0,0,0,0,0,0
1680795210.89921308,119128163,1544,1544,1544,1544,0,0,0,0,0,0,0,0,0,0
1680795211.00000596,119228956,1544,1544,1544,1544,0,0,0,0,0,0,0,0,0,0
1680795211.09996605,119328916,1543,1544,1543,1544,0,0,0,0,0,0,0,0,0,0
1680795211.19992590,119428876,1544,1544,1544,1544,0,0,0,0,0,0,0,0,0,0
1680795211.29988599,119528836,1545,1544,1545,1545,0,0,0,0,0,0,0,0,0,0
1680795211.39984608,119628796,1545,1545,1545,1545,0,0,0,0,0,0,0,0,0,0
1680795211.49980593,119728756,1544,1544,1544,1544,0,0,0,0,0,0,0,0,0,0
1680795211.59976602,119828716,1544,1545,1544,1544,0,0,0,0,0,0,0,0,0,0
1680795211.69972587,119928676,1545,1545,1545,1545,0,0,0,0,0,0,0,0,0,0
1680795211.79968596,120028636,1545,1545,1545,1544,0,0,0,0,0,0,0,0,0,0
1680795211.89964604,120128596,1544,1544,1544,1544,0,0,0,0,0,0,0,0,0,0
1680795211.99960589,120228556,1544,1544,1544,1543,0,0,0,0,0,0,0,0,0,0
1680795212.09956598,120328516,1544,1544,1544,1544,0,0,0,0,0,0,0,0,0,0
1680795212.19952607,120428476,1543,1543,1543,1543,0,0,0,0,0,0,0,0,0,0
1680795212.29948592,120528436,1544,1543,1543,1544,0,0,0,0,0,0,0,0,0,0
1680795212.39944601,120628396,1544,1544,1544,1543,0,0,0,0,0,0,0,0,0,0
1680795212.49940586,120728356,1544,1543,1543,1544,0,0,0,0,0,0,0,0,0,0
1680795212.59936595,120828316,1544,1544,1544,1544,0,0,0,0,0,0,0,0,0,0
1680795212.69932604,120928276,1544,1544,1544,1544,0,0,0,0,0,0,0,0,0,0
1680795212.79928589,121028236,1544,1545,1544,1544,0,0,0,0,0,0,0,0,0,0
1680795212.89924598,121128196,1545,1545,1544,1545,0,0,0,0,0,0,0,0,0,0
1680795212.99920607,121228156,1544,1544,1544,1544,0,0,0,0,0,0,0,0,0,0
1680795213.09999895,121328949,1544,1544,1544,1544,0,0,0,0,0,0,0,0,0,0
1680795213.19995904,121428909,1545,1544,1545,1545,0,0,0,0,0,0,0,0,0,0
1680795213.29991889,121528869,1545,1544,1544,1545,0,0,0,0,0,0,0,0,0,0
1680795213.39987898,121628829,1544,1544,1544,1544,0,0,0,0,0,0,0,0,0,0
1680795213.49983907,121728789,1544,1544,1544,1544,0,0,0,0,0,0,0,0,0,0
1680795213.59979892,121828749,1544,1545,1545,1544,0,0,0,0,0,0,0,0,0,0
1680795213.69975901,121928709,1545,1544,1544,1545,0,0,0,0,0,0,0,0,0,0
1680795213.79971910,122028669,1544,1545,1545,1545,0,0,0,0,0,0,0,0,0,0
1680795213.89967895,122128629,1545,1545,1545,1545,0,0,0,0,0,0,0,0,0,0
1680795213.99963903,122228589,1544,1545,1545,1544,0,0,0,0,0,0,0,0,0,0
1680795214.09959888,122328549,1544,1544,1544,1544,0,0,0,0,0,0,0,0,0,0
1680795214.19955897,122428509,1545,1545,1545,1544,0,0,0,0,0,0,0,0,0,0
1680795214.29951906,122528469,1544,1543,1544,1544,0,0,0,0,0,0,0,0,0,0
1680795214.39947891,122628429,1544,1544,1544,1544,0,0,0,0,0,0,0,0,0,0
1680795214.49943900,122728389,1544,1544,1544,1544,0,0,0,0,0,0,0,0,0,0
1680795214.59939909,122828349,1543,1543,1543,1543,0,0,0,0,0,0,0,0,0,0
1680795214.69935894,122928309,1544,1543,1543,1544,0,0,0,0,0,0,0,0,0,0
1680795214.79931903,123028269,1543,1543,1543,1544,0,0,0,0,0,0,0,0,0,0
1680795214.89927888,123128229,1543,1543,1543,1543,0,0,0,0,0,0,0,0,0,0
1680795214.99923897,123228189,1543,1543,1543,1543,0,0,0,0,0,0,0,0,0,0
1680795215.10003209,123328982,1544,1544,1544,1544,0,0,0,0,0,0,0,0,0,0
1680795215.19999194,123428942,1544,1544,1544,1544,0,0,0,0,0,0,0,0,0,0
1680795215.29995203,123528902,1544,1544,1544,1544,0,0,0,0,0,0,0,0,0,0
1680795215.39991188,123628862,1543,1544,1544,1544,0,0,0,0,0,0,0,0,0,0
1680795215.49987197,123728822,1544,1544,1544,1544,0,0,0,0,0,0,0,0,0,0
1680795215.59983206,123828782,1544,1543,1543,1544,0,0,0,0,0,0,0,0,0,0
1680795215.69979191,123928742,1544,1543,1543,1544,0,0,0,0,0,0,0,0,0,0
1680795215.79975200,124028702,1533,1534,1535,1533,0,0,0,0,0,0,0,0,0,0
1680795215.89971209,124128662,1342,1344,1365,1344,0,0,0,0,0,0,0,0,0,0
1680795215.99967194,124228622,1240,1245,1281,1242,0,0,0,0,0,0,0,0,0,0
1680795216.09963202,124328582,1209,1213,1256,1212,0,0,0,0,0,0,0,0,0,0
1680795216.19959188,124428542,1190,1194,1241,1192,0,0,0,0,0,0,0,0,0,0
1680795216.29955196,124528502,1150,1153,1210,1152,0,0,0,0,0,0,0,0,0,0
1680795216.39951205,124628462,1150,1155,1211,1152,0,0,0,0,0,0,0,0,0,0
1680795216.49947190,124728422,1150,1154,1210,1152,0,0,0,0,0,0,0,0,0,0
1680795216.59943199,124828382,1187,1150,1207,1189,0,0,0,0,0,0,0,0,0,0
1680795216.69939208,124928342,1179,1150,1207,1181,0,0,0,0,0,0,0,0,0,0
1680795216.79935193,125028302,1170,1150,1207,1173,0,0,0,0,0,0,0,0,0,0
1680795216.89931202,125128262,1170,1150,1207,1173,0,0,0,0,0,0,0,0,0,0
1680795216.99927187,125228222,1172,1150,1207,1175,0,0,0,0,0,0,0,0,0,0
1680795217.09923196,125328182,1174,1150,1207,1177,0,0,0,0,0,0,0,0,0,0
1680795217.20002508,125428975,1176,1150,1207,1179,0,0,0,0,0,0,0,0,0,0
1680795217.29998493,125528935,1179,1150,1207,1182,0,0,0,0,0,0,0,0,0,0
1680795217.39994502,125628895,1162,1150,1208,1164,0,0,0,0,0,0,0,0,0,0
1680795217.49990487,125728855,1165,1150,1208,1168,0,0,0,0,0,0,0,0,0,0
1680795217.59986496,125828815,1166,1150,1208,1169,0,0,0,0,0,0,0,0,0,0
1680795217.69982505,125928775,1167,1150,1208,1170,0,0,0,0,0,0,0,0,0,0
1680795217.79978490,126028735,1168,1150,1208,1170,0,0,0,0,0,0,0,0,0,0
1680795217.89974499,126128695,1000,1000,1000,1000,0,0,0,0,0,0,0,0,0,0
1680795217.99970508,126228655,1000,1000,1000,1000,0,0,0,0,0,0,0,0,0,0
1680795218.09966493,126328615,1000,1000,1000,1000,0,0,0,0,0,0,0,0,0,0
1680795218.19962502,126428575,1000,1000,1000,1000,0,0,0,0,0,0,0,0,0,0
1680795218.29958487,126528535,1000,1000,1000,1000,0,0,0,0,0,0,0,0,0,0
1680795218.39954495,126628495,1000,1000,1000,1000,0,0,0,0,0,0,0,0,0,0
1680795218.49950504,126728455,1000,1000,1000,1000,0,0,0,0,0,0,0,0,0,0
1680795218.59946489,126828415,1000,1000,1000,1000,0,0,0,0,0,0,0,0,0,0
1680795218.69942498,126928375,1000,1000,1000,1000,0,0,0,0,0,0,0,0,0,0
1680795218.79938507,127028335,1000,1000,1000,1000,0,0,0,0,0,0,0,0,0,0
1680795218.89934492,127128295,1000,1000,1000,1000,0,0,0,0,0,0,0,0,0,0
1680795218.99930501,127228255,1000,1000,1000,1000,0,0,0,0,0,0,0,0,0,0
1680795219.09926486,127328215,1000,1000,1000,1000,0,0,0,0,0,0,0,0,0,0
1680795219.19922495,127428175,1000,1000,1000,1000,0,0,0,0,0,0,0,0,0,0
1680795219.30001807,127528968,1000,1000,1000,1000,0,0,0,0,0,0,0,0,0,0
1680795219.39997792,127628928,1000,1000,1000,1000,0,0,0,0,0,0,0,0,0,0
1680795219.49993801,127728888,1000,1000,1000,1000,0,0,0,0,0,0,0,0,0,0
1680795219.59989786,127828848,1000,1000,1000,1000,0,0,0,0,0,0,0,0,0,0
1680795219.69985795,127928808,1000,1000,1000,1000,0,0,0,0,0,0,0,0,0,0
1680795219.79981804,128028768,1000,1000,1000,1000,0,0,0,0,0,0,0,0,0,0
1680795219.89977789,128128728,1000,1000,1000,1000,0,0,0,0,0,0,0,0,0,0
1680795219.99973798,128228688,1000,1000,1000,1000,0,0,0,0,0,0,0,0,0,0
1680795220.09969807,128328648,1000,1000,1000,1000,0,0,0,0,0,0,0,0,0,0
1680795220.19965792,128428608,1000,1000,1000,1000,0,0,0,0,0,0,0,0,0,0
1680795220.29961801,128528568,1000,1000,1000,1000,0,0,0,0,0,0,0,0,0,0
1680795220.39957809,128628528,1000,1000,1000,1000,0,0,0,0,0,0,0,0,0,0
1680795220.49953794,128728488,1000,1000,1000,1000,0,0,0,0,0,0,0,0,0,0
1680795220.59949803,128828448,1000,1000,1000,1000,0,0,0,0,0,0,0,0,0,0
1680795220.69945788,128928408,1000,1000,1000,1000,0,0,0,0,0,0,0,0,0,0
1680795220.79941797,129028368,1000,1000,1000,1000,0,0,0,0,0,0,0,0,0,0
1680795220.89937806,129128328,1000,1000,1000,1000,0,0,0,0,0,0,0,0,0,0
1680795220.99933791,129228288,1000,1000,1000,1000,0,0,0,0,0,0,0,0,0,0
1680795221.09929800,129328248,1000,1000,1000,1000,0,0,0,0,0,0,0,0,0,0
1680795221.19925809,129428208,1000,1000,1000,1000,0,0,0,0,0,0,0,0,0,0
1680795221.29921794,129528168,1000,1000,1000,1000,0,0,0,0,0,0,0,0,0,0
1680795221.40001106,129628961,1000,1000,1000,1000,0,0,0,0,0,0,0,0,0,0
1680795221.49997091,129728921,1000,1000,1000,1000,0,0,0,0,0,0,0,0,0,0
1680795221.59993100,129828881,1000,1000,1000,1000,0,0,0,0,0,0,0,0,0,0
1680795221.69989109,129928841,1000,1000,1000,1000,0,0,0,0,0,0,0,0,0,0
1680795221.79985094,130028801,1000,1000,1000,1000,0,0,0,0,0,0,0,0,0,0
1680795221.89981103,130128761,1000,1000,1000,1000,0,0,0,0,0,0,0,0,0,0
1680795221.99977088,130228721,1000,1000,1000,1000,0,0,0,0,0,0,0,0,0,0
1680795222.09973097,130328681,1000,1000,1000,1000,0,0,0,0,0,0,0,0,0,0
1680795222.19969106,130428641,1000,1000,1000,1000,0,0,0,0,0,0,0,0,0,0
1680795222.29965091,130528601,1000,1000,1000,1000,0,0,0,0,0,0,0,0,0,0
1680795222.39961100,130628561,1000,1000,1000,1000,0,0,0,0,0,0,0,0,0,0
1680795222.49957108,130728521,1000,1000,1000,1000,0,0,0,0,0,0,0,0,0,0
1680795222.59953094,130828481,1000,1000,1000,1000,0,0,0,0,0,0,0,0,0,0
1680795222.69949102,130928441,1000,1000,1000,1000,0,0,0,0,0,0,0,0,0,0
1680795222.79945087,131028401,1000,1000,1000,1000,0,0,0,0,0,0,0,0,0,0
1680795222.89941096,131128361,1000,1000,1000,1000,0,0,0,0,0,0,0,0,0,0
1680795222.99937105,131228321,1000,1000,1000,1000,0,0,0,0,0,0,0,0,0,0
1680795223.09933090,131328281,1000,1000,1000,1000,0,0,0,0,0,0,0,0,0,0
1680795223.19929099,131428241,1000,1000,1000,1000,0,0,0,0,0,0,0,0,0,0
1680795223.29925108,131528201,1000,1000,1000,1000,0,0,0,0,0,0,0,0,0,0
1680795223.39921093,131628161,1000,1000,1000,1000,0,0,0,0,0,0,0,0,0,0
1680795223.50000405,131728954,1000,1000,1000,1000,0,0,0,0,0,0,0,0,0,0
1680795223.59996390,131828914,1000,1000,1000,1000,0,0,0,0,0,0,0,0,0,0
1680795223.69992399,131928874,1000,1000,1000,1000,0,0,0,0,0,0,0,0,0,0
1680795223.79988408,132028834,1000,1000,1000,1000,0,0,0,0,0,0,0,0,0,0
1680795223.89984393,132128794,1000,1000,1000,1000,0,0,0,0,0,0,0,0,0,0
1680795223.99980402,132228754,1000,1000,1000,1000,0,0,0,0,0,0,0,0,0,0
1680795224.09976387,132328714,1000,1000,1000,1000,0,0,0,0,0,0,0,0,0,0
1680795224.19972396,132428674,1000,1000,1000,1000,0,0,0,0,0,0,0,0,0,0
1680795224.29968405,132528634,1000,1000,1000,1000,0,0,0,0,0,0,0,0,0,0
1680795224.39964390,132628594,1000,1000,1000,1000,0,0,0,0,0,0,0,0,0,0
1680795224.49960399,132728554,1000,1000,1000,1000,0,0,0,0,0,0,0,0,0,0
1680795224.59956408,132828514,1000,1000,1000,1000,0,0,0,0,0,0,0,0,0,0
1680795224.69952393,132928474,1000,1000,1000,1000,0,0,0,0,0,0,0,0,0,0
1680795224.79948401,133028434,1000,1000,1000,1000,0,0,0,0,0,0,0,0,0,0
1680795224.89944386,133128394,1000,1000,1000,1000,0,0,0,0,0,0,0,0,0,0
1680795224.99940395,133228354,1000,1000,1000,1000,0,0,0,0,0,0,0,0,0,0
1680795225.09936404,133328314,1000,1000,1000,1000,0,0,0,0,0,0,0,0,0,0
1680795225.19932389,133428274,1000,1000,1000,1000,0,0,0,0,0,0,0,0,0,0
1680795225.29928398,133528234,1000,1000,1000,1000,0,0,0,0,0,0,0,0,0,0
1680795225.39924407,133628194,1000,1000,1000,1000,0,0,0,0,0,0,0,0,0,0
1680795225.49920392,133728154,1000,1000,1000,1000,0,0,0,0,0,0,0,0,0,0
1680795225.59999704,133828947,1000,1000,1000,1000,0,0,0,0,0,0,0,0,0,0
1680795225.69995689,133928907,1000,1000,1000,1000,0,0,0,0,0,0,0,0,0,0
1680795225.79991698,134028867,1000,1000,1000,1000,0,0,0,0,0,0,0,0,0,0
1680795225.89987707,134128827,1000,1000,1000,1000,0,0,0,0,0,0,0,0,0,0
1680795225.99983692,134228787,1000,1000,1000,1000,0,0,0,0,0,0,0,0,0,0
1680795226.09979701,134328747,1000,1000,1000,1000,0,0,0,0,0,0,0,0,0,0
1680795226.19975686,134428707,1000,1000,1000,1000,0,0,0,0,0,0,0,0,0,0
1680795226.29971695,134528667,1000,1000,1000,1000,0,0,0,0,0,0,0,0,0,0
1680795226.39967704,134628627,1000,1000,1000,1000,0,0,0,0,0,0,0,0,0,0
1680795226.49963689,134728587,1000,1000,1000,1000,0,0,0,0,0,0,0,0,0,0
1680795226.59959698,134828547,1000,1000,1000,1000,0,0,0,0,0,0,0,0,0,0
1680795226.69955707,134928507,1000,1000,1000,1000,0,0,0,0,0,0,0,0,0,0
1680795226.79951692,135028467,1000,1000,1000,1000,0,0,0,0,0,0,0,0,0,0
1680795226.89947701,135128427,1000,1000,1000,1000,0,0,0,0,0,0,0,0,0,0
1680795226.99943709,135228387,1000,1000,1000,1000,0,0,0,0,0,0,0,0,0,0
1680795227.09939694,135328347,1000,1000,1000,1000,0,0,0,0,0,0,0,0,0,0
1680795227.19935703,135428307,1000,1000,1000,1000,0,0,0,0,0,0,0,0,0,0
1680795227.29931688,135528267,1000,1000,1000,1000,0,0,0,0,0,0,0,0,0,0
1680795227.39927697,135628227,1000,1000,1000,1000,0,0,0,0,0,0,0,0,0,0
1680795227.49923706,135728187,1000,1000,1000,1000,0,0,0,0,0,0,0,0,0,0
1680795227.60002995,135828980,1000,1000,1000,1000,0,0,0,0,0,0,0,0,0,0
1680795227.69999003,135928940,1000,1000,1000,1000,0,0,0,0,0,0,0,0,0,0
1680795227.79994988,136028900,1000,1000,1000,1000,0,0,0,0,0,0,0,0,0,0
1680795227.89990997,136128860,1000,1000,1000,1000,0,0,0,0,0,0,0,0,0,0
1680795227.99987006,136228820,1000,1000,1000,1000,0,0,0,0,0,0,0,0,0,0
1680795228.09982991,136328780,1000,1000,1000,1000,0,0,0,0,0,0,0,0,0,0
1680795228.19979000,136428740,1000,1000,1000,1000,0,0,0,0,0,0,0,0,0,0
1680795228.29975009,136528700,1000,1000,1000,1000,0,0,0,0,0,0,0,0,0,0
1680795228.39970994,136628660,1000,1000,1000,1000,0,0,0,0,0,0,0,0,0,0
1680795228.49967003,136728620,1000,1000,1000,1000,0,0,0,0,0,0,0,0,0,0
1680795228.59962988,136828580,1000,1000,1000,1000,0,0,0,0,0,0,0,0,0,0
1680795228.69958997,136928540,1000,1000,1000,1000,0,0,0,0,0,0,0,0,0,0
