timestamp,TimeUS,C1,C2,C3,C4,C5,C6,C7,C8,C9,C10,C11,C12,C13,C14
1681045481.70004010,55528613,1000,1000,1000,1000,0,0,0,0,0,0,0,0,0,0
1681045481.79999995,55628573,1000,1000,1000,1000,0,0,0,0,0,0,0,0,0,0
1681045481.89996004,55728533,1000,1000,1000,1000,0,0,0,0,0,0,0,0,0,0
1681045481.99992013,55828493,1000,1000,1000,1000,0,0,0,0,0,0,0,0,0,0
1681045482.09987998,55928453,1000,1000,1000,1000,0,0,0,0,0,0,0,0,0,0
1681045482.19984007,56028413,1000,1000,1000,1000,0,0,0,0,0,0,0,0,0,0
1681045482.29979992,56128373,1000,1000,1000,1000,0,0,0,0,0,0,0,0,0,0
1681045482.39976001,56228333,1000,1000,1000,1000,0,0,0,0,0,0,0,0,0,0
1681045482.49972010,56328293,1000,1000,1000,1000,0,0,0,0,0,0,0,0,0,0
1681045482.59967995,56428253,1000,1000,1000,1000,0,0,0,0,0,0,0,0,0,0
1681045482.69964004,56528213,1000,1000,1000,1000,0,0,0,0,0,0,0,0,0,0
1681045482.79960012,56628173,1000,1000,1000,1000,0,0,0,0,0,0,0,0,0,0
1681045482.90039301,56728966,1000,1000,1000,1000,0,0,0,0,0,0,0,0,0,0
1681045483.00035310,56828926,1000,1000,1000,1000,0,0,0,0,0,0,0,0,0,0
1681045483.10031295,56928886,1000,1000,1000,1000,0,0,0,0,0,0,0,0,0,0
1681045483.20027304,57028846,1000,1000,1000,1000,0,0,0,0,0,0,0,0,0,0
1681045483.30023313,57128806,1000,1000,1000,1000,0,0,0,0,0,0,0,0,0,0
1681045483.40019298,57228766,1000,1000,1000,1000,0,0,0,0,0,0,0,0,0,0
1681045483.50015306,57328726,1000,1000,1000,1000,0,0,0,0,0,0,0,0,0,0
1681045483.60011292,57428686,1000,1000,1000,1000,0,0,0,0,0,0,0,0,0,0
1681045483.70007300,57528646,1004,1004,1004,1004,0,0,0,0,0,0,0,0,0,0
1681045483.80003309,57628606,1034,1034,1034,1034,0,0,0,0,0,0,0,0,0,0
1681045483.89999294,57728566,1064,1064,1064,1064,0,0,0,0,0,0,0,0,0,0
1681045483.99995303,57828526,1094,1094,1094,1094,0,0,0,0,0,0,0,0,0,0
1681045484.09991312,57928486,1124,1124,1124,1124,0,0,0,0,0,0,0,0,0,0
1681045484.19987297,58028446,1193,1185,1186,1193,0,0,0,0,0,0,0,0,0,0
1681045484.29983306,58128406,1430,1424,1424,1430,0,0,0,0,0,0,0,0,0,0
1681045484.39979291,58228366,1603,1598,1598,1603,0,0,0,0,0,0,0,0,0,0
1681045484.49975300,58328326,1747,1742,1742,1747,0,0,0,0,0,0,0,0,0,0
1681045484.59971309,58428286,1872,1868,1868,1872,0,0,0,0,0,0,0,0,0,0
1681045484.69967294,58528246,1871,1867,1868,1872,0,0,0,0,0,0,0,0,0,0
1681045484.79963303,58628206,1787,1785,1786,1787,0,0,0,0,0,0,0,0,0,0
1681045484.89959311,58728166,1670,1671,1671,1670,0,0,0,0,0,0,0,0,0,0
1681045485.00038600,58828959,1621,1624,1624,1622,0,0,0,0,0,0,0,0,0,0
1681045485.10034609,58928919,1624,1626,1626,1624,0,0,0,0,0,0,0,0,0,0
1681045485.20030594,59028879,1634,1634,1631,1636,0,0,0,0,0,0,0,0,0,0
1681045485.30026603,59128839,1634,1635,1628,1641,0,0,0,0,0,0,0,0,0,0
1681045485.40022612,59228799,1630,1631,1626,1634,0,0,0,0,0,0,0,0,0,0
1681045485.50018597,59328759,1624,1624,1623,1625,0,0,0,0,0,0,0,0,0,0
1681045485.60014606,59428719,1621,1621,1623,1619,0,0,0,0,0,0,0,0,0,0
1681045485.70010591,59528679,1620,1620,1625,1616,0,0,0,0,0,0,0,0,0,0
1681045485.80006599,59628639,1622,1621,1626,1617,0,0,0,0,0,0,0,0,0,0
1681045485.90002608,59728599,1624,1624,1627,1621,0,0,0,0,0,0,0,0,0,0
1681045485.99998593,59828559,1598,1598,1606,1590,0,0,0,0,0,0,0,0,0,0
1681045486.09994602,59928519,1581,1581,1589,1573,0,0,0,0,0,0,0,0,0,0
1681045486.19990611,60028479,1569,1569,1571,1567,0,0,0,0,0,0,0,0,0,0
1681045486.29986596,60128439,1559,1559,1556,1563,0,0,0,0,0,0,0,0,0,0
1681045486.39982605,60228399,1551,1550,1543,1558,0,0,0,0,0,0,0,0,0,0
1681045486.49978590,60328359,1544,1543,1533,1553,0,0,0,0,0,0,0,0,0,0
1681045486.59974599,60428319,1537,1537,1530,1544,0,0,0,0,0,0,0,0,0,0
1681045486.69970608,60528279,1532,1531,1528,1534,0,0,0,0,0,0,0,0,0,0
1681045486.79966593,60628239,1526,1527,1526,1526,0,0,0,0,0,0,0,0,0,0
1681045486.89962602,60728199,1528,1527,1529,1526,0,0,0,0,0,0,0,0,0,0
1681045486.99958611,60828159,1528,1529,1531,1525,0,0,0,0,0,0,0,0,0,0
1681045487.10037899,60928952,1532,1533,1536,1530,0,0,0,0,0,0,0,0,0,0
1681045487.20033908,61028912,1536,1535,1538,1533,0,0,0,0,0,0,0,0,0,0
1681045487.30029893,61128872,1539,1539,1541,1537,0,0,0,0,0,0,0,0,0,0
1681045487.40025902,61228832,1541,1541,1543,1541,0,0,0,0,0,0,0,0,0,0
1681045487.50021911,61328792,1546,1546,1546,1546,0,0,0,0,0,0,0,0,0,0
1681045487.60017896,61428752,1548,1549,1548,1549,0,0,0,0,0,0,0,0,0,0
1681045487.70013905,61528712,1551,1552,1551,1552,0,0,0,0,0,0,0,0,0,0
1681045487.80009890,61628672,1554,1554,1553,1556,0,0,0,0,0,0,0,0,0,0
1681045487.90005898,61728632,1555,1555,1557,1559,0,0,0,0,0,0,0,0,0,0
1681045488.00001907,61828592,1556,1556,1560,1561,0,0,0,0,0,0,0,0,0,0
1681045488.09997892,61928552,1558,1558,1562,1563,0,0,0,0,0,0,0,0,0,0
1681045488.19993901,62028512,1560,1560,1564,1565,0,0,0,0,0,0,0,0,0,0
1681045488.29989910,62128472,1562,1562,1566,1565,0,0,0,0,0,0,0,0,0,0
1681045488.39985895,62228432,1564,1564,1566,1565,0,0,0,0,0,0,0,0,0,0
1681045488.49981904,62328392,1567,1566,1567,1566,0,0,0,0,0,0,0,0,0,0
1681045488.59977913,62428352,1567,1568,1566,1567,0,0,0,0,0,0,0,0,0,0
1681045488.69973898,62528312,1569,1569,1566,1567,0,0,0,0,0,0,0,0,0,0
1681045488.79969907,62628272,1570,1570,1567,1567,0,0,0,0,0,0,0,0,0,0
1681045488.89965892,62728232,1572,1572,1568,1569,0,0,0,0,0,0,0,0,0,0
1681045488.99961901,62828192,1573,1573,1569,1569,0,0,0,0,0,0,0,0,0,0
1681045489.10041213,62928985,1573,1572,1569,1570,0,0,0,0,0,0,0,0,0,0
1681045489.20037198,63028945,1573,1573,1571,1570,0,0,0,0,0,0,0,0,0,0
1681045489.30033207,63128905,1575,1574,1574,1572,0,0,0,0,0,0,0,0,0,0
1681045489.40029192,63228865,1575,1575,1575,1573,0,0,0,0,0,0,0,0,0,0
1681045489.50025201,63328825,1576,1575,1576,1575,0,0,0,0,0,0,0,0,0,0
1681045489.60021210,63428785,1575,1575,1576,1575,0,0,0,0,0,0,0,0,0,0
1681045489.70017195,63528745,1576,1576,1576,1576,0,0,0,0,0,0,0,0,0,0
1681045489.80013204,63628705,1575,1576,1577,1577,0,0,0,0,0,0,0,0,0,0
1681045489.90009212,63728665,1575,1576,1576,1576,0,0,0,0,0,0,0,0,0,0
1681045490.00005198,63828625,1576,1576,1577,1577,0,0,0,0,0,0,0,0,0,0
1681045490.10001206,63928585,1577,1577,1577,1577,0,0,0,0,0,0,0,0,0,0
1681045490.19997191,64028545,1577,1577,1577,1577,0,0,0,0,0,0,0,0,0,0
1681045490.29993200,64128505,1577,1577,1578,1577,0,0,0,0,0,0,0,0,0,0
1681045490.39989209,64228465,1577,1577,1578,1577,0,0,0,0,0,0,0,0,0,0
1681045490.49985194,64328425,1577,1577,1577,1577,0,0,0,0,0,0,0,0,0,0
1681045490.59981203,64428385,1578,1578,1577,1577,0,0,0,0,0,0,0,0,0,0
1681045490.69977212,64528345,1577,1577,1577,1577,0,0,0,0,0,0,0,0,0,0
1681045490.79973197,64628305,1578,1578,1577,1577,0,0,0,0,0,0,0,0,0,0
1681045490.89969206,64728265,1578,1578,1578,1577,0,0,0,0,0,0,0,0,0,0
1681045490.99965191,64828225,1577,1577,1577,1577,0,0,0,0,0,0,0,0,0,0
1681045491.09961200,64928185,1578,1578,1578,1578,0,0,0,0,0,0,0,0,0,0
1681045491.20040512,65028978,1578,1579,1578,1578,0,0,0,0,0,0,0,0,0,0
1681045491.30036497,65128938,1579,1578,1579,1578,0,0,0,0,0,0,0,0,0,0
1681045491.40032506,65228898,1579,1579,1579,1579,0,0,0,0,0,0,0,0,0,0
1681045491.50028491,65328858,1579,1579,1579,1579,0,0,0,0,0,0,0,0,0,0
1681045491.60024500,65428818,1579,1579,1579,1579,0,0,0,0,0,0,0,0,0,0
1681045491.70020509,65528778,1579,1578,1579,1579,0,0,0,0,0,0,0,0,0,0
1681045491.80016494,65628738,1579,1579,1579,1579,0,0,0,0,0,0,0,0,0,0
1681045491.90012503,65728698,1578,1578,1578,1578,0,0,0,0,0,0,0,0,0,0
1681045492.00008512,65828658,1578,1579,1578,1579,0,0,0,0,0,0,0,0,0,0
1681045492.10004497,65928618,1578,1579,1579,1579,0,0,0,0,0,0,0,0,0,0
1681045492.20000505,66028578,1580,1580,1580,1580,0,0,0,0,0,0,0,0,0,0
1681045492.29996490,66128538,1579,1579,1579,1579,0,0,0,0,0,0,0,0,0,0
1681045492.39992499,66228498,1579,1579,1579,1579,0,0,0,0,0,0,0,0,0,0
1681045492.49988508,66328458,1580,1580,1580,1580,0,0,0,0,0,0,0,0,0,0
1681045492.59984493,66428418,1580,1580,1580,1580,0,0,0,0,0,0,0,0,0,0
1681045492.69980502,66528378,1579,1579,1579,1579,0,0,0,0,0,0,0,0,0,0
1681045492.79976511,66628338,1580,1579,1579,1580,0,0,0,0,0,0,0,0,0,0
1681045492.89972496,66728298,1580,1580,1580,1580,0,0,0,0,0,0,0,0,0,0
1681045492.99968505,66828258,1579,1579,1579,1579,0,0,0,0,0,0,0,0,0,0
1681045493.09964490,66928218,1579,1580,1580,1580,0,0,0,0,0,0,0,0,0,0
1681045493.19960499,67028178,1580,1580,1580,1580,0,0,0,0,0,0,0,0,0,0
1681045493.30039811,67128971,1580,1580,1580,1580,0,0,0,0,0,0,0,0,0,0
1681045493.40035796,67228931,1582,1581,1582,1581,0,0,0,0,0,0,0,0,0,0
1681045493.50031805,67328891,1582,1581,1582,1582,0,0,0,0,0,0,0,0,0,0
1681045493.60027790,67428851,1581,1581,1581,1582,0,0,0,0,0,0,0,0,0,0
1681045493.70023799,67528811,1580,1581,1581,1581,0,0,0,0,0,0,0,0,0,0
1681045493.80019808,67628771,1581,1581,1581,1581,0,0,0,0,0,0,0,0,0,0
1681045493.90015793,67728731,1581,1581,1581,1581,0,0,0,0,0,0,0,0,0,0
1681045494.00011802,67828691,1581,1581,1581,1581,0,0,0,0,0,0,0,0,0,0
1681045494.10007811,67928651,1582,1582,1588,1574,0,0,0,0,0,0,0,0,0,0
1681045494.20003796,68028611,1581,1583,1586,1573,0,0,0,0,0,0,0,0,0,0
1681045494.29999804,68128571,1579,1582,1578,1573,0,0,0,0,0,0,0,0,0,0
1681045494.39995790,68228531,1577,1580,1569,1572,0,0,0,0,0,0,0,0,0,0
1681045494.49991798,68328491,1577,1579,1562,1569,0,0,0,0,0,0,0,0,0,0
1681045494.59987807,68428451,1577,1578,1557,1564,0,0,0,0,0,0,0,0,0,0
1681045494.69983792,68528411,1578,1578,1555,1559,0,0,0,0,0,0,0,0,0,0
1681045494.79979801,68628371,1579,1578,1555,1556,0,0,0,0,0,0,0,0,0,0
1681045494.89975810,68728331,1579,1578,1556,1554,0,0,0,0,0,0,0,0,0,0
1681045494.99971795,68828291,1579,1579,1557,1555,0,0,0,0,0,0,0,0,0,0
1681045495.09967804,68928251,1578,1578,1556,1554,0,0,0,0,0,0,0,0,0,0
1681045495.19963813,69028211,1576,1577,1555,1554,0,0,0,0,0,0,0,0,0,0
1681045495.29959798,69128171,1576,1577,1555,1555,0,0,0,0,0,0,0,0,0,0
1681045495.40039110,69228964,1575,1576,1554,1554,0,0,0,0,0,0,0,0,0,0
1681045495.50035095,69328924,1575,1577,1552,1552,0,0,0,0,0,0,0,0,0,0
1681045495.60031104,69428884,1576,1578,1550,1551,0,0,0,0,0,0,0,0,0,0
1681045495.70027113,69528844,1578,1579,1548,1548,0,0,0,0,0,0,0,0,0,0
1681045495.80023098,69628804,1580,1582,1546,1545,0,0,0,0,0,0,0,0,0,0
1681045495.90019107,69728764,1583,1584,1543,1543,0,0,0,0,0,0,0,0,0,0
1681045496.00015092,69828724,1587,1587,1541,1540,0,0,0,0,0,0,0,0,0,0
1681045496.10011101,69928684,1590,1590,1538,1539,0,0,0,0,0,0,0,0,0,0
1681045496.20007110,70028644,1593,1593,1537,1537,0,0,0,0,0,0,0,0,0,0
1681045496.30003095,70128604,1594,1594,1535,1535,0,0,0,0,0,0,0,0,0,0
1681045496.39999104,70228564,1595,1596,1536,1536,0,0,0,0,0,0,0,0,0,0
1681045496.49995112,70328524,1594,1594,1536,1538,0,0,0,0,0,0,0,0,0,0
1681045496.59991097,70428484,1593,1592,1538,1541,0,0,0,0,0,0,0,0,0,0
1681045496.69987106,70528444,1589,1588,1543,1546,0,0,0,0,0,0,0,0,0,0
1681045496.79983091,70628404,1584,1582,1551,1554,0,0,0,0,0,0,0,0,0,0
1681045496.89979100,70728364,1576,1572,1560,1562,0,0,0,0,0,0,0,0,0,0
1681045496.99975109,70828324,1566,1563,1573,1574,0,0,0,0,0,0,0,0,0,0
1681045497.09971094,70928284,1556,1552,1586,1586,0,0,0,0,0,0,0,0,0,0
1681045497.19967103,71028244,1545,1543,1597,1597,0,0,0,0,0,0,0,0,0,0
1681045497.29963112,71128204,1536,1534,1606,1606,0,0,0,0,0,0,0,0,0,0
1681045497.39959097,71228164,1530,1531,1613,1612,0,0,0,0,0,0,0,0,0,0
1681045497.50038409,71328957,1529,1530,1615,1614,0,0,0,0,0,0,0,0,0,0
1681045497.60034394,71428917,1530,1533,1614,1613,0,0,0,0,0,0,0,0,0,0
1681045497.70030403,71528877,1536,1539,1610,1611,0,0,0,0,0,0,0,0,0,0
1681045497.80026412,71628837,1543,1545,1604,1605,0,0,0,0,0,0,0,0,0,0
1681045497.90022397,71728797,1552,1553,1597,1597,0,0,0,0,0,0,0,0,0,0
1681045498.00018406,71828757,1561,1561,1589,1589,0,0,0,0,0,0,0,0,0,0
1681045498.10014391,71928717,1569,1569,1582,1581,0,0,0,0,0,0,0,0,0,0
1681045498.20010400,72028677,1577,1576,1577,1575,0,0,0,0,0,0,0,0,0,0
1681045498.30006409,72128637,1583,1582,1572,1571,0,0,0,0,0,0,0,0,0,0
1681045498.40002394,72228597,1586,1584,1567,1567,0,0,0,0,0,0,0,0,0,0
1681045498.49998403,72328557,1588,1587,1566,1567,0,0,0,0,0,0,0,0,0,0
1681045498.59994411,72428517,1588,1587,1567,1567,0,0,0,0,0,0,0,0,0,0
1681045498.69990396,72528477,1587,1586,1568,1569,0,0,0,0,0,0,0,0,0,0
1681045498.79986405,72628437,1585,1584,1571,1571,0,0,0,0,0,0,0,0,0,0
1681045498.89982390,72728397,1582,1581,1574,1574,0,0,0,0,0,0,0,0,0,0
1681045498.99978399,72828357,1578,1578,1576,1576,0,0,0,0,0,0,0,0,0,0
1681045499.09974408,72928317,1576,1577,1580,1580,0,0,0,0,0,0,0,0,0,0
1681045499.19970393,73028277,1574,1574,1581,1581,0,0,0,0,0,0,0,0,0,0
1681045499.29966402,73128237,1573,1574,1584,1583,0,0,0,0,0,0,0,0,0,0
1681045499.39962411,73228197,1572,1572,1583,1583,0,0,0,0,0,0,0,0,0,0
1681045499.49958396,73328157,1572,1573,1583,1584,0,0,0,0,0,0,0,0,0,0
1681045499.60037708,73428950,1573,1574,1583,1583,0,0,0,0,0,0,0,0,0,0
1681045499.70033693,73528910,1575,1575,1583,1583,0,0,0,0,0,0,0,0,0,0
1681045499.80029702,73628870,1575,1576,1581,1581,0,0,0,0,0,0,0,0,0,0
1681045499.90025711,73728830,1577,1577,1579,1580,0,0,0,0,0,0,0,0,0,0
1681045500.00021696,73828790,1578,1577,1578,1578,0,0,0,0,0,0,0,0,0,0
1681045500.10017705,73928750,1579,1579,1578,1577,0,0,0,0,0,0,0,0,0,0
1681045500.20013690,74028710,1580,1580,1577,1577,0,0,0,0,0,0,0,0,0,0
1681045500.30009699,74128670,1592,1591,1482,1546,0,0,0,0,0,0,0,0,0,0
1681045500.40005708,74228630,1608,1607,1543,1542,0,0,0,0,0,0,0,0,0,0
1681045500.50001693,74328590,1619,1619,1592,1555,0,0,0,0,0,0,0,0,0,0
1681045500.59997702,74428550,1627,1628,1628,1579,0,0,0,0,0,0,0,0,0,0
1681045500.69993711,74528510,1626,1629,1645,1603,0,0,0,0,0,0,0,0,0,0
1681045500.79989696,74628470,1612,1615,1641,1618,0,0,0,0,0,0,0,0,0,0
1681045500.89985704,74728430,1593,1596,1627,1625,0,0,0,0,0,0,0,0,0,0
1681045500.99981689,74828390,1578,1577,1609,1626,0,0,0,0,0,0,0,0,0,0
1681045501.09977698,74928350,1566,1563,1596,1620,0,0,0,0,0,0,0,0,0,0
1681045501.19973707,75028310,1561,1556,1589,1610,0,0,0,0,0,0,0,0,0,0
1681045501.29969692,75128270,1560,1555,1588,1601,0,0,0,0,0,0,0,0,0,0
1681045501.39965701,75228230,1562,1559,1588,1591,0,0,0,0,0,0,0,0,0,0
1681045501.49961710,75328190,1566,1565,1587,1585,0,0,0,0,0,0,0,0,0,0
1681045501.60040998,75428983,1569,1571,1585,1579,0,0,0,0,0,0,0,0,0,0
1681045501.70037007,75528943,1573,1576,1581,1576,0,0,0,0,0,0,0,0,0,0
1681045501.80032992,75628903,1575,1578,1575,1572,0,0,0,0,0,0,0,0,0,0
1681045501.90029001,75728863,1578,1580,1570,1570,0,0,0,0,0,0,0,0,0,0
1681045502.00025010,75828823,1580,1581,1566,1569,0,0,0,0,0,0,0,0,0,0
1681045502.10020995,75928783,1581,1582,1568,1561,0,0,0,0,0,0,0,0,0,0
1681045502.20017004,76028743,1581,1584,1568,1555,0,0,0,0,0,0,0,0,0,0
1681045502.30013013,76128703,1580,1583,1560,1555,0,0,0,0,0,0,0,0,0,0
1681045502.40008998,76228663,1579,1582,1554,1557,0,0,0,0,0,0,0,0,0,0
1681045502.50005007,76328623,1579,1580,1549,1556,0,0,0,0,0,0,0,0,0,0
1681045502.60000992,76428583,1578,1578,1546,1553,0,0,0,0,0,0,0,0,0,0
1681045502.69997001,76528543,1579,1576,1546,1551,0,0,0,0,0,0,0,0,0,0
1681045502.79993010,76628503,1578,1576,1548,1549,0,0,0,0,0,0,0,0,0,0
1681045502.89988995,76728463,1577,1575,1550,1549,0,0,0,0,0,0,0,0,0,0
1681045502.99985003,76828423,1576,1575,1552,1550,0,0,0,0,0,0,0,0,0,0
1681045503.09981012,76928383,1575,1575,1554,1552,0,0,0,0,0,0,0,0,0,0
1681045503.19976997,77028343,1574,1576,1555,1553,0,0,0,0,0,0,0,0,0,0
1681045503.29973006,77128303,1573,1575,1554,1553,0,0,0,0,0,0,0,0,0,0
1681045503.39968991,77228263,1573,1574,1553,1553,0,0,0,0,0,0,0,0,0,0
1681045503.49965000,77328223,1574,1575,1551,1552,0,0,0,0,0,0,0,0,0,0
1681045503.59961009,77428183,1576,1577,1550,1550,0,0,0,0,0,0,0,0,0,0
1681045503.70040298,77528976,1578,1580,1548,1549,0,0,0,0,0,0,0,0,0,0
1681045503.80036306,77628936,1581,1582,1547,1547,0,0,0,0,0,0,0,0,0,0
1681045503.90032291,77728896,1585,1584,1545,1546,0,0,0,0,0,0,0,0,0,0
1681045504.00028300,77828856,1586,1586,1544,1544,0,0,0,0,0,0,0,0,0,0
1681045504.10024309,77928816,1587,1587,1542,1542,0,0,0,0,0,0,0,0,0,0
1681045504.20020294,78028776,1589,1590,1543,1543,0,0,0,0,0,0,0,0,0,0
1681045504.30016303,78128736,1589,1590,1541,1543,0,0,0,0,0,0,0,0,0,0
1681045504.40012312,78228696,1589,1589,1543,1545,0,0,0,0,0,0,0,0,0,0
1681045504.50008297,78328656,1589,1587,1547,1549,0,0,0,0,0,0,0,0,0,0
1681045504.60004306,78428616,1585,1582,1552,1555,0,0,0,0,0,0,0,0,0,0
1681045504.70000291,78528576,1579,1576,1560,1562,0,0,0,0,0,0,0,0,0,0
1681045504.79996300,78628536,1572,1569,1568,1570,0,0,0,0,0,0,0,0,0,0
1681045504.89992309,78728496,1565,1562,1579,1580,0,0,0,0,0,0,0,0,0,0
1681045504.99988294,78828456,1556,1553,1587,1587,0,0,0,0,0,0,0,0,0,0
1681045505.09984303,78928416,1549,1548,1596,1595,0,0,0,0,0,0,0,0,0,0
1681045505.19980311,79028376,1545,1546,1602,1600,0,0,0,0,0,0,0,0,0,0
1681045505.29976296,79128336,1544,1545,1605,1603,0,0,0,0,0,0,0,0,0,0
1681045505.39972305,79228296,1544,1546,1605,1604,0,0,0,0,0,0,0,0,0,0
1681045505.49968290,79328256,1547,1549,1604,1604,0,0,0,0,0,0,0,0,0,0
1681045505.59964299,79428216,1550,1551,1601,1601,0,0,0,0,0,0,0,0,0,0
1681045505.69960308,79528176,1555,1555,1599,1599,0,0,0,0,0,0,0,0,0,0
1681045505.80039597,79628969,1559,1559,1595,1594,0,0,0,0,0,0,0,0,0,0
1681045505.90035605,79728929,1563,1563,1591,1590,0,0,0,0,0,0,0,0,0,0
1681045506.00031590,79828889,1567,1568,1587,1586,0,0,0,0,0,0,0,0,0,0
1681045506.10027599,79928849,1571,1571,1582,1582,0,0,0,0,0,0,0,0,0,0
1681045506.20023608,80028809,1576,1576,1578,1579,0,0,0,0,0,0,0,0,0,0
1681045506.30019593,80128769,1578,1578,1573,1573,0,0,0,0,0,0,0,0,0,0
1681045506.40015602,80228729,1582,1581,1571,1571,0,0,0,0,0,0,0,0,0,0
1681045506.50011611,80328689,1583,1582,1569,1569,0,0,0,0,0,0,0,0,0,0
1681045506.60007596,80428649,1583,1582,1568,1569,0,0,0,0,0,0,0,0,0,0
1681045506.70003605,80528609,1582,1581,1569,1569,0,0,0,0,0,0,0,0,0,0
1681045506.79999590,80628569,1581,1580,1570,1570,0,0,0,0,0,0,0,0,0,0
1681045506.89995599,80728529,1580,1580,1573,1573,0,0,0,0,0,0,0,0,0,0
1681045506.99991608,80828489,1578,1578,1575,1575,0,0,0,0,0,0,0,0,0,0
1681045507.09987593,80928449,1577,1578,1578,1578,0,0,0,0,0,0,0,0,0,0
1681045507.19983602,81028409,1576,1577,1581,1580,0,0,0,0,0,0,0,0,0,0
1681045507.29979610,81128369,1575,1575,1581,1581,0,0,0,0,0,0,0,0,0,0
1681045507.39975595,81228329,1574,1575,1582,1582,0,0,0,0,0,0,0,0,0,0
1681045507.49971604,81328289,1574,1574,1582,1582,0,0,0,0,0,0,0,0,0,0
1681045507.59967589,81428249,1575,1575,1584,1583,0,0,0,0,0,0,0,0,0,0
1681045507.69963598,81528209,1575,1575,1583,1582,0,0,0,0,0,0,0,0,0,0
1681045507.79959607,81628169,1575,1576,1582,1582,0,0,0,0,0,0,0,0,0,0
1681045507.90038896,81728962,1577,1578,1581,1582,0,0,0,0,0,0,0,0,0,0
1681045508.00034904,81828922,1579,1579,1581,1581,0,0,0,0,0,0,0,0,0,0
1681045508.10030890,81928882,1579,1579,1579,1579,0,0,0,0,0,0,0,0,0,0
1681045508.20026898,82028842,1579,1579,1578,1579,0,0,0,0,0,0,0,0,0,0
1681045508.30022907,82128802,1580,1579,1577,1578,0,0,0,0,0,0,0,0,0,0
1681045508.40018892,82228762,1580,1579,1577,1577,0,0,0,0,0,0,0,0,0,0
1681045508.50014901,82328722,1581,1581,1578,1578,0,0,0,0,0,0,0,0,0,0
1681045508.60010910,82428682,1581,1581,1578,1578,0,0,0,0,0,0,0,0,0,0
1681045508.70006895,82528642,1582,1581,1579,1579,0,0,0,0,0,0,0,0,0,0
1681045508.80002904,82628602,1581,1581,1580,1579,0,0,0,0,0,0,0,0,0,0
1681045508.89998913,82728562,1580,1581,1580,1579,0,0,0,0,0,0,0,0,0,0
1681045508.99994898,82828522,1581,1580,1580,1580,0,0,0,0,0,0,0,0,0,0
1681045509.09990907,82928482,1579,1579,1579,1579,0,0,0,0,0,0,0,0,0,0
1681045509.19986892,83028442,1580,1580,1580,1580,0,0,0,0,0,0,0,0,0,0
1681045509.29982901,83128402,1580,1580,1581,1581,0,0,0,0,0,0,0,0,0,0
1681045509.39978909,83228362,1580,1580,1582,1581,0,0,0,0,0,0,0,0,0,0
1681045509.49974895,83328322,1579,1579,1581,1581,0,0,0,0,0,0,0,0,0,0
1681045509.59970903,83428282,1579,1580,1581,1581,0,0,0,0,0,0,0,0,0,0
1681045509.69966912,83528242,1580,1579,1581,1581,0,0,0,0,0,0,0,0,0,0
1681045509.79962897,83628202,1580,1580,1581,1581,0,0,0,0,0,0,0,0,0,0
1681045509.89958906,83728162,1579,1580,1580,1580,0,0,0,0,0,0,0,0,0,0
1681045510.00038195,83828955,1580,1581,1580,1580,0,0,0,0,0,0,0,0,0,0
1681045510.10034204,83928915,1581,1581,1581,1581,0,0,0,0,0,0,0,0,0,0
1681045510.20030212,84028875,1582,1582,1582,1581,0,0,0,0,0,0,0,0,0,0
1681045510.30026197,84128835,1582,1582,1587,1574,0,0,0,0,0,0,0,0,0,0
1681045510.40022206,84228795,1581,1583,1586,1572,0,0,0,0,0,0,0,0,0,0
1681045510.50018191,84328755,1579,1582,1578,1573,0,0,0,0,0,0,0,0,0,0
1681045510.60014200,84428715,1577,1580,1569,1572,0,0,0,0,0,0,0,0,0,0
1681045510.70010209,84528675,1576,1578,1562,1569,0,0,0,0,0,0,0,0,0,0
1681045510.80006194,84628635,1576,1578,1557,1564,0,0,0,0,0,0,0,0,0,0
1681045510.90002203,84728595,1579,1578,1555,1560,0,0,0,0,0,0,0,0,0,0
1681045510.99998212,84828555,1581,1579,1555,1557,0,0,0,0,0,0,0,0,0,0
1681045511.09994197,84928515,1580,1578,1554,1554,0,0,0,0,0,0,0,0,0,0
1681045511.19990206,85028475,1580,1579,1556,1553,0,0,0,0,0,0,0,0,0,0
1681045511.29986191,85128435,1579,1579,1556,1553,0,0,0,0,0,0,0,0,0,0
1681045511.39982200,85228395,1578,1579,1556,1554,0,0,0,0,0,0,0,0,0,0
1681045511.49978209,85328355,1576,1578,1554,1553,0,0,0,0,0,0,0,0,0,0
1681045511.59974194,85428315,1575,1578,1553,1553,0,0,0,0,0,0,0,0,0,0
1681045511.69970202,85528275,1575,1577,1552,1552,0,0,0,0,0,0,0,0,0,0
1681045511.79966211,85628235,1577,1578,1550,1551,0,0,0,0,0,0,0,0,0,0
1681045511.89962196,85728195,1579,1580,1550,1550,0,0,0,0,0,0,0,0,0,0
1681045511.99958205,85828155,1581,1582,1548,1548,0,0,0,0,0,0,0,0,0,0
1681045512.10037494,85928948,1584,1585,1546,1545,0,0,0,0,0,0,0,0,0,0
1681045512.20033503,86028908,1586,1587,1544,1543,0,0,0,0,0,0,0,0,0,0
1681045512.30029511,86128868,1589,1589,1541,1541,0,0,0,0,0,0,0,0,0,0
1681045512.40025496,86228828,1591,1591,1539,1539,0,0,0,0,0,0,0,0,0,0
1681045512.50021505,86328788,1592,1593,1537,1538,0,0,0,0,0,0,0,0,0,0
1681045512.60017490,86428748,1594,1595,1537,1539,0,0,0,0,0,0,0,0,0,0
1681045512.70013499,86528708,1594,1594,1537,1539,0,0,0,0,0,0,0,0,0,0
1681045512.80009508,86628668,1592,1592,1539,1542,0,0,0,0,0,0,0,0,0,0
1681045512.90005493,86728628,1590,1588,1545,1548,0,0,0,0,0,0,0,0,0,0
1681045513.00001502,86828588,1584,1581,1552,1556,0,0,0,0,0,0,0,0,0,0
1681045513.09997511,86928548,1576,1572,1562,1565,0,0,0,0,0,0,0,0,0,0
1681045513.19993496,87028508,1568,1563,1575,1577,0,0,0,0,0,0,0,0,0,0
1681045513.29989505,87128468,1556,1552,1587,1587,0,0,0,0,0,0,0,0,0,0
1681045513.39985490,87228428,1546,1544,1598,1597,0,0,0,0,0,0,0,0,0,0
1681045513.49981499,87328388,1539,1540,1609,1607,0,0,0,0,0,0,0,0,0,0
1681045513.59977508,87428348,1535,1537,1614,1612,0,0,0,0,0,0,0,0,0,0
1681045513.69973493,87528308,1535,1536,1615,1613,0,0,0,0,0,0,0,0,0,0
1681045513.79969501,87628268,1538,1540,1614,1613,0,0,0,0,0,0,0,0,0,0
1681045513.89965510,87728228,1543,1544,1610,1610,0,0,0,0,0,0,0,0,0,0
1681045513.99961495,87828188,1549,1550,1606,1605,0,0,0,0,0,0,0,0,0,0
1681045514.10040808,87928981,1554,1555,1599,1599,0,0,0,0,0,0,0,0,0,0
1681045514.20036793,88028941,1561,1561,1593,1593,0,0,0,0,0,0,0,0,0,0
1681045514.30032802,88128901,1568,1568,1586,1586,0,0,0,0,0,0,0,0,0,0
1681045514.40028811,88228861,1575,1574,1579,1580,0,0,0,0,0,0,0,0,0,0
1681045514.50024796,88328821,1580,1579,1573,1574,0,0,0,0,0,0,0,0,0,0
1681045514.60020804,88428781,1584,1583,1568,1569,0,0,0,0,0,0,0,0,0,0
1681045514.70016789,88528741,1587,1585,1567,1567,0,0,0,0,0,0,0,0,0,0
1681045514.80012798,88628701,1587,1586,1566,1566,0,0,0,0,0,0,0,0,0,0
1681045514.90008807,88728661,1587,1585,1566,1567,0,0,0,0,0,0,0,0,0,0
1681045515.00004792,88828621,1584,1584,1567,1568,0,0,0,0,0,0,0,0,0,0
1681045515.10000801,88928581,1582,1581,1570,1570,0,0,0,0,0,0,0,0,0,0
1681045515.19996810,89028541,1579,1580,1573,1574,0,0,0,0,0,0,0,0,0,0
1681045515.29992795,89128501,1577,1577,1577,1577,0,0,0,0,0,0,0,0,0,0
1681045515.39988804,89228461,1576,1576,1580,1580,0,0,0,0,0,0,0,0,0,0
1681045515.49984813,89328421,1574,1574,1582,1581,0,0,0,0,0,0,0,0,0,0
1681045515.59980798,89428381,1573,1574,1584,1583,0,0,0,0,0,0,0,0,0,0
1681045515.69976807,89528341,1572,1573,1584,1584,0,0,0,0,0,0,0,0,0,0
1681045515.79972792,89628301,1573,1573,1584,1584,0,0,0,0,0,0,0,0,0,0
1681045515.89968801,89728261,1574,1574,1584,1584,0,0,0,0,0,0,0,0,0,0
1681045515.99964809,89828221,1575,1575,1583,1583,0,0,0,0,0,0,0,0,0,0
1681045516.09960794,89928181,1577,1577,1582,1582,0,0,0,0,0,0,0,0,0,0
1681045516.20040107,90028974,1578,1578,1581,1581,0,0,0,0,0,0,0,0,0,0
1681045516.30036092,90128934,1579,1579,1580,1580,0,0,0,0,0,0,0,0,0,0
1681045516.40032101,90228894,1579,1579,1578,1578,0,0,0,0,0,0,0,0,0,0
1681045516.50028110,90328854,1581,1581,1577,1578,0,0,0,0,0,0,0,0,0,0
1681045516.60024095,90428814,1582,1581,1577,1578,0,0,0,0,0,0,0,0,0,0
1681045516.70020103,90528774,1581,1581,1577,1577,0,0,0,0,0,0,0,0,0,0
1681045516.80016112,90628734,1581,1581,1577,1577,0,0,0,0,0,0,0,0,0,0
1681045516.90012097,90728694,1581,1581,1577,1577,0,0,0,0,0,0,0,0,0,0
1681045517.00008106,90828654,1581,1582,1579,1578,0,0,0,0,0,0,0,0,0,0
1681045517.10004091,90928614,1581,1581,1579,1579,0,0,0,0,0,0,0,0,0,0
1681045517.20000100,91028574,1580,1580,1579,1579,0,0,0,0,0,0,0,0,0,0
1681045517.29996109,91128534,1580,1579,1580,1580,0,0,0,0,0,0,0,0,0,0
1681045517.39992094,91228494,1580,1580,1581,1581,0,0,0,0,0,0,0,0,0,0
1681045517.49988103,91328454,1579,1579,1580,1581,0,0,0,0,0,0,0,0,0,0
1681045517.59984112,91428414,1580,1580,1581,1581,0,0,0,0,0,0,0,0,0,0
1681045517.69980097,91528374,1580,1580,1581,1582,0,0,0,0,0,0,0,0,0,0
1681045517.79976106,91628334,1579,1579,1581,1581,0,0,0,0,0,0,0,0,0,0
1681045517.89972091,91728294,1580,1580,1581,1581,0,0,0,0,0,0,0,0,0,0
1681045517.99968100,91828254,1579,1580,1581,1581,0,0,0,0,0,0,0,0,0,0
1681045518.09964108,91928214,1579,1580,1580,1580,0,0,0,0,0,0,0,0,0,0
1681045518.19960093,92028174,1580,1580,1583,1576,0,0,0,0,0,0,0,0,0,0
1681045518.30039406,92128967,1581,1582,1587,1572,0,0,0,0,0,0,0,0,0,0
1681045518.40035391,92228927,1579,1580,1581,1573,0,0,0,0,0,0,0,0,0,0
1681045518.50031400,92328887,1576,1576,1575,1575,0,0,0,0,0,0,0,0,0,0
1681045518.60027409,92428847,1573,1573,1569,1575,0,0,0,0,0,0,0,0,0,0
1681045518.70023394,92528807,1571,1570,1566,1574,0,0,0,0,0,0,0,0,0,0
1681045518.80019403,92628767,1569,1568,1565,1571,0,0,0,0,0,0,0,0,0,0
1681045518.90015411,92728727,1567,1566,1565,1568,0,0,0,0,0,0,0,0,0,0
1681045519.00011396,92828687,1566,1566,1565,1566,0,0,0,0,0,0,0,0,0,0
1681045519.10007405,92928647,1566,1566,1566,1565,0,0,0,0,0,0,0,0,0,0
1681045519.20003390,93028607,1566,1566,1567,1564,0,0,0,0,0,0,0,0,0,0
1681045519.29999399,93128567,1564,1564,1566,1563,0,0,0,0,0,0,0,0,0,0
1681045519.39995408,93228527,1563,1564,1565,1563,0,0,0,0,0,0,0,0,0,0
1681045519.49991393,93328487,1564,1564,1564,1564,0,0,0,0,0,0,0,0,0,0
1681045519.59987402,93428447,1562,1562,1563,1563,0,0,0,0,0,0,0,0,0,0
1681045519.69983411,93528407,1561,1561,1562,1562,0,0,0,0,0,0,0,0,0,0
1681045519.79979396,93628367,1561,1561,1562,1562,0,0,0,0,0,0,0,0,0,0
1681045519.89975405,93728327,1561,1561,1561,1561,0,0,0,0,0,0,0,0,0,0
1681045519.99971390,93828287,1561,1561,1561,1561,0,0,0,0,0,0,0,0,0,0
1681045520.09967399,93928247,1560,1560,1560,1560,0,0,0,0,0,0,0,0,0,0
1681045520.19963408,94028207,1559,1560,1560,1559,0,0,0,0,0,0,0,0,0,0
1681045520.29959393,94128167,1559,1559,1559,1558,0,0,0,0,0,0,0,0,0,0
1681045520.40038705,94228960,1558,1558,1559,1558,0,0,0,0,0,0,0,0,0,0
1681045520.50034690,94328920,1559,1558,1559,1558,0,0,0,0,0,0,0,0,0,0
1681045520.60030699,94428880,1558,1558,1559,1558,0,0,0,0,0,0,0,0,0,0
1681045520.70026708,94528840,1559,1558,1559,1557,0,0,0,0,0,0,0,0,0,0
1681045520.80022693,94628800,1558,1558,1559,1556,0,0,0,0,0,0,0,0,0,0
1681045520.90018702,94728760,1558,1558,1559,1556,0,0,0,0,0,0,0,0,0,0
1681045521.00014710,94828720,1558,1558,1559,1557,0,0,0,0,0,0,0,0,0,0
1681045521.10010695,94928680,1559,1559,1557,1560,0,0,0,0,0,0,0,0,0,0
1681045521.20006704,95028640,1559,1560,1557,1562,0,0,0,0,0,0,0,0,0,0
1681045521.30002689,95128600,1561,1561,1557,1564,0,0,0,0,0,0,0,0,0,0
1681045521.39998698,95228560,1562,1561,1559,1564,0,0,0,0,0,0,0,0,0,0
1681045521.49994707,95328520,1561,1562,1559,1563,0,0,0,0,0,0,0,0,0,0
1681045521.59990692,95428480,1562,1562,1562,1562,0,0,0,0,0,0,0,0,0,0
1681045521.69986701,95528440,1562,1561,1563,1560,0,0,0,0,0,0,0,0,0,0
1681045521.79982710,95628400,1561,1561,1564,1559,0,0,0,0,0,0,0,0,0,0
1681045521.89978695,95728360,1560,1560,1559,1561,0,0,0,0,0,0,0,0,0,0
1681045521.99974704,95828320,1557,1557,1555,1560,0,0,0,0,0,0,0,0,0,0
1681045522.09970713,95928280,1553,1553,1552,1556,0,0,0,0,0,0,0,0,0,0
1681045522.19966698,96028240,1546,1546,1547,1548,0,0,0,0,0,0,0,0,0,0
1681045522.29962707,96128200,1540,1540,1541,1541,0,0,0,0,0,0,0,0,0,0
1681045522.39958692,96228160,1533,1533,1535,1533,0,0,0,0,0,0,0,0,0,0
1681045522.50038004,96328953,1525,1525,1527,1526,0,0,0,0,0,0,0,0,0,0
1681045522.60034013,96428913,1520,1520,1522,1521,0,0,0,0,0,0,0,0,0,0
1681045522.70029998,96528873,1518,1518,1518,1519,0,0,0,0,0,0,0,0,0,0
1681045522.80026007,96628833,1519,1519,1518,1520,0,0,0,0,0,0,0,0,0,0
1681045522.90021992,96728793,1522,1522,1520,1522,0,0,0,0,0,0,0,0,0,0
1681045523.00018001,96828753,1525,1525,1523,1524,0,0,0,0,0,0,0,0,0,0
1681045523.10014009,96928713,1529,1529,1526,1527,0,0,0,0,0,0,0,0,0,0
1681045523.20009995,97028673,1534,1534,1532,1531,0,0,0,0,0,0,0,0,0,0
1681045523.30006003,97128633,1539,1539,1537,1535,0,0,0,0,0,0,0,0,0,0
1681045523.40002012,97228593,1541,1541,1540,1538,0,0,0,0,0,0,0,0,0,0
1681045523.49997997,97328553,1543,1543,1542,1541,0,0,0,0,0,0,0,0,0,0
1681045523.59994006,97428513,1544,1544,1544,1543,0,0,0,0,0,0,0,0,0,0
1681045523.69989991,97528473,1545,1545,1545,1545,0,0,0,0,0,0,0,0,0,0
1681045523.79986000,97628433,1545,1545,1546,1546,0,0,0,0,0,0,0,0,0,0
1681045523.89982009,97728393,1546,1546,1547,1547,0,0,0,0,0,0,0,0,0,0
1681045523.99977994,97828353,1546,1546,1548,1547,0,0,0,0,0,0,0,0,0,0
1681045524.09974003,97928313,1546,1546,1548,1548,0,0,0,0,0,0,0,0,0,0
1681045524.19970012,98028273,1545,1546,1547,1547,0,0,0,0,0,0,0,0,0,0
1681045524.29965997,98128233,1545,1545,1547,1546,0,0,0,0,0,0,0,0,0,0
1681045524.39962006,98228193,1545,1545,1546,1546,0,0,0,0,0,0,0,0,0,0
1681045524.50041294,98328986,1546,1545,1546,1546,0,0,0,0,0,0,0,0,0,0
1681045524.60037303,98428946,1545,1545,1545,1545,0,0,0,0,0,0,0,0,0,0
1681045524.70033312,98528906,1545,1545,1545,1545,0,0,0,0,0,0,0,0,0,0
1681045524.80029297,98628866,1545,1545,1544,1545,0,0,0,0,0,0,0,0,0,0
1681045524.90025306,98728826,1545,1545,1545,1544,0,0,0,0,0,0,0,0,0,0
1681045525.00021291,98828786,1545,1545,1544,1544,0,0,0,0,0,0,0,0,0,0
1681045525.10017300,98928746,1545,1544,1544,1544,0,0,0,0,0,0,0,0,0,0
1681045525.20013309,99028706,1545,1545,1544,1544,0,0,0,0,0,0,0,0,0,0
1681045525.30009294,99128666,1545,1545,1544,1544,0,0,0,0,0,0,0,0,0,0
1681045525.40005302,99228626,1544,1544,1544,1544,0,0,0,0,0,0,0,0,0,0
1681045525.50001311,99328586,1544,1544,1544,1544,0,0,0,0,0,0,0,0,0,0
1681045525.59997296,99428546,1544,1545,1545,1544,0,0,0,0,0,0,0,0,0,0
1681045525.69993305,99528506,1544,1544,1544,1544,0,0,0,0,0,0,0,0,0,0
1681045525.79989290,99628466,1544,1543,1544,1544,0,0,0,0,0,0,0,0,0,0
1681045525.89985299,99728426,1544,1543,1543,1544,0,0,0,0,0,0,0,0,0,0
1681045525.99981308,99828386,1543,1543,1544,1544,0,0,0,0,0,0,0,0,0,0
1681045526.09977293,99928346,1544,1544,1544,1544,0,0,0,0,0,0,0,0,0,0
1681045526.19973302,100028306,1543,1543,1543,1544,0,0,0,0,0,0,0,0,0,0
1681045526.29969311,100128266,1544,1544,1544,1544,0,0,0,0,0,0,0,0,0,0
1681045526.39965296,100228226,1544,1543,1544,1544,0,0,0,0,0,0,0,0,0,0
1681045526.49961305,100328186,1543,1543,1543,1543,0,0,0,0,0,0,0,0,0,0
1681045526.60040593,100428979,1544,1544,1544,1544,0,0,0,0,0,0,0,0,0,0
1681045526.70036602,100528939,1545,1544,1544,1544,0,0,0,0,0,0,0,0,0,0
1681045526.80032611,100628899,1543,1543,1543,1543,0,0,0,0,0,0,0,0,0,0
1681045526.90028596,100728859,1544,1544,1544,1544,0,0,0,0,0,0,0,0,0,0
1681045527.00024605,100828819,1544,1544,1544,1544,0,0,0,0,0,0,0,0,0,0
1681045527.10020590,100928779,1544,1544,1544,1544,0,0,0,0,0,0,0,0,0,0
1681045527.20016599,101028739,1544,1544,1544,1544,0,0,0,0,0,0,0,0,0,0
1681045527.30012608,101128699,1545,1544,1545,1545,0,0,0,0,0,0,0,0,0,0
1681045527.40008593,101228659,1544,1545,1544,1545,0,0,0,0,0,0,0,0,0,0
1681045527.50004601,101328619,1544,1544,1543,1544,0,0,0,0,0,0,0,0,0,0
1681045527.60000610,101428579,1544,1545,1545,1545,0,0,0,0,0,0,0,0,0,0
1681045527.69996595,101528539,1545,1545,1545,1545,0,0,0,0,0,0,0,0,0,0
1681045527.79992604,101628499,1544,1544,1545,1543,0,0,0,0,0,0,0,0,0,0
1681045527.89988589,101728459,1545,1545,1545,1545,0,0,0,0,0,0,0,0,0,0
1681045527.99984598,101828419,1545,1545,1545,1545,0,0,0,0,0,0,0,0,0,0
1681045528.09980607,101928379,1543,1543,1543,1544,0,0,0,0,0,0,0,0,0,0
1681045528.19976592,102028339,1544,1544,1544,1544,0,0,0,0,0,0,0,0,0,0
1681045528.29972601,102128299,1543,1543,1543,1543,0,0,0,0,0,0,0,0,0,0
1681045528.39968610,102228259,1543,1544,1544,1543,0,0,0,0,0,0,0,0,0,0
1681045528.49964595,102328219,1544,1544,1544,1545,0,0,0,0,0,0,0,0,0,0
1681045528.59960604,102428179,1544,1545,1544,1544,0,0,0,0,0,0,0,0,0,0
1681045528.70039892,102528972,1545,1544,1544,1544,0,0,0,0,0,0,0,0,0,0
1681045528.80035901,102628932,1545,1545,1545,1545,0,0,0,0,0,0,0,0,0,0
1681045528.90031910,102728892,1545,1545,1545,1545,0,0,0,0,0,0,0,0,0,0
1681045529.00027895,102828852,1545,1545,1545,1545,0,0,0,0,0,0,0,0,0,0
1681045529.10023904,102928812,1544,1544,1544,1544,0,0,0,0,0,0,0,0,0,0
1681045529.20019913,103028772,1544,1544,1544,1544,0,0,0,0,0,0,0,0,0,0
1681045529.30015898,103128732,1544,1544,1544,1545,0,0,0,0,0,0,0,0,0,0
1681045529.40011907,103228692,1545,1545,1545,1545,0,0,0,0,0,0,0,0,0,0
1681045529.50007892,103328652,1545,1545,1545,1545,0,0,0,0,0,0,0,0,0,0
1681045529.60003901,103428612,1544,1544,1544,1544,0,0,0,0,0,0,0,0,0,0
1681045529.69999909,103528572,1544,1544,1544,1544,0,0,0,0,0,0,0,0,0,0
1681045529.79995894,103628532,1544,1544,1544,1544,0,0,0,0,0,0,0,0,0,0
1681045529.89991903,103728492,1544,1544,1544,1544,0,0,0,0,0,0,0,0,0,0
1681045529.99987912,103828452,1545,1545,1545,1545,0,0,0,0,0,0,0,0,0,0
1681045530.09983897,103928412,1545,1544,1544,1545,0,0,0,0,0,0,0,0,0,0
1681045530.19979906,104028372,1544,1544,1544,1544,0,0,0,0,0,0,0,0,0,0
1681045530.29975891,104128332,1545,1545,1545,1545,0,0,0,0,0,0,0,0,0,0
1681045530.39971900,104228292,1544,1544,1544,1544,0,0,0,0,0,0,0,0,0,0
1681045530.49967909,104328252,1544,1545,1544,1545,0,0,0,0,0,0,0,0,0,0
1681045530.59963894,104428212,1544,1545,1545,1544,0,0,0,0,0,0,0,0,0,0
1681045530.69959903,104528172,1544,1544,1544,1544,0,0,0,0,0,0,0,0,0,0
1681045530.80039191,104628965,1544,1544,1544,1544,0,0,0,0,0,0,0,0,0,0
1681045530.90035200,104728925,1545,1544,1544,1544,0,0,0,0,0,0,0,0,0,0
1681045531.00031209,104828885,1544,1544,1544,1544,0,0,0,0,0,0,0,0,0,0
1681045531.10027194,104928845,1544,1543,1544,1544,0,0,0,0,0,0,0,0,0,0
1681045531.20023203,105028805,1544,1545,1545,1544,0,0,0,0,0,0,0,0,0,0
1681045531.30019212,105128765,1545,1544,1544,1545,0,0,0,0,0,0,0,0,0,0
1681045531.40015197,105228725,1544,1545,1545,1544,0,0,0,0,0,0,0,0,0,0
1681045531.50011206,105328685,1544,1544,1544,1544,0,0,0,0,0,0,0,0,0,0
1681045531.60007191,105428645,1544,1544,1545,1544,0,0,0,0,0,0,0,0,0,0
1681045531.70003200,105528605,1545,1544,1544,1545,0,0,0,0,0,0,0,0,0,0
1681045531.79999208,105628565,1544,1544,1544,1544,0,0,0,0,0,0,0,0,0,0
1681045531.89995193,105728525,1544,1544,1544,1544,0,0,0,0,0,0,0,0,0,0
1681045531.99991202,105828485,1544,1543,1544,1543,0,0,0,0,0,0,0,0,0,0
1681045532.09987211,105928445,1545,1544,1544,1545,0,0,0,0,0,0,0,0,0,0
1681045532.19983196,106028405,1545,1545,1545,1545,0,0,0,0,0,0,0,0,0,0
1681045532.29979205,106128365,1545,1545,1545,1545,0,0,0,0,0,0,0,0,0,0
1681045532.39975190,106228325,1389,1387,1418,1387,0,0,0,0,0,0,0,0,0,0
1681045532.49971199,106328285,1265,1262,1325,1262,0,0,0,0,0,0,0,0,0,0
1681045532.59967208,106428245,1221,1218,1295,1218,0,0,0,0,0,0,0,0,0,0
1681045532.69963193,106528205,1201,1198,1281,1198,0,0,0,0,0,0,0,0,0,0
1681045532.79959202,106628165,1160,1158,1256,1157,0,0,0,0,0,0,0,0,0,0
1681045532.90038490,106728958,1153,1150,1251,1150,0,0,0,0,0,0,0,0,0,0
1681045533.00034499,106828918,1153,1150,1252,1150,0,0,0,0,0,0,0,0,0,0
1681045533.10030508,106928878,1154,1150,1251,1150,0,0,0,0,0,0,0,0,0,0
1681045533.20026493,107028838,1182,1150,1228,1181,0,0,0,0,0,0,0,0,0,0
1681045533.30022502,107128798,1172,1150,1241,1171,0,0,0,0,0,0,0,0,0,0
1681045533.40018511,107228758,1167,1150,1247,1167,0,0,0,0,0,0,0,0,0,0
1681045533.50014496,107328718,1167,1150,1247,1167,0,0,0,0,0,0,0,0,0,0
1681045533.60010505,107428678,1167,1150,1247,1167,0,0,0,0,0,0,0,0,0,0
1681045533.70006490,107528638,1168,1150,1245,1169,0,0,0,0,0,0,0,0,0,0
1681045533.80002499,107628598,1168,1150,1245,1169,0,0,0,0,0,0,0,0,0,0
1681045533.89998507,107728558,1169,1150,1243,1171,0,0,0,0,0,0,0,0,0,0
1681045533.99994493,107828518,1152,1150,1245,1156,0,0,0,0,0,0,0,0,0,0
1681045534.09990501,107928478,1154,1150,1246,1158,0,0,0,0,0,0,0,0,0,0
1681045534.19986510,108028438,1155,1150,1246,1159,0,0,0,0,0,0,0,0,0,0
1681045534.29982495,108128398,1156,1150,1246,1159,0,0,0,0,0,0,0,0,0,0
1681045534.39978504,108228358,1156,1150,1241,1160,0,0,0,0,0,0,0,0,0,0
1681045534.49974513,108328318,1000,1000,1000,1000,0,0,0,0,0,0,0,0,0,0
1681045534.59970498,108428278,1000,1000,1000,1000,0,0,0,0,0,0,0,0,0,0
1681045534.69966507,108528238,1000,1000,1000,1000,0,0,0,0,0,0,0,0,0,0
1681045534.79962492,108628198,1000,1000,1000,1000,0,0,0,0,0,0,0,0,0,0
1681045534.89958501,108728158,1000,1000,1000,1000,0,0,0,0,0,0,0,0,0,0
1681045535.00037789,108828951,1000,1000,1000,1000,0,0,0,0,0,0,0,0,0,0
1681045535.10033798,108928911,1000,1000,1000,1000,0,0,0,0,0,0,0,0,0,0
1681045535.20029807,109028871,1000,1000,1000,1000,0,0,0,0,0,0,0,0,0,0
1681045535.30025792,109128831,1000,1000,1000,1000,0,0,0,0,0,0,0,0,0,0
1681045535.40021801,109228791,1000,1000,1000,1000,0,0,0,0,0,0,0,0,0,0
1681045535.50017810,109328751,1000,1000,1000,1000,0,0,0,0,0,0,0,0,0,0
1681045535.60013795,109428711,1000,1000,1000,1000,0,0,0,0,0,0,0,0,0,0
1681045535.70009804,109528671,1000,1000,1000,1000,0,0,0,0,0,0,0,0,0,0
1681045535.80005813,109628631,1000,1000,1000,1000,0,0,0,0,0,0,0,0,0,0
1681045535.90001798,109728591,1000,1000,1000,1000,0,0,0,0,0,0,0,0,0,0
1681045535.99997807,109828551,1000,1000,1000,1000,0,0,0,0,0,0,0,0,0,0
1681045536.09993792,109928511,1000,1000,1000,1000,0,0,0,0,0,0,0,0,0,0
1681045536.19989800,110028471,1000,1000,1000,1000,0,0,0,0,0,0,0,0,0,0
1681045536.29985809,110128431,1000,1000,1000,1000,0,0,0,0,0,0,0,0,0,0
1681045536.39981794,110228391,1000,1000,1000,1000,0,0,0,0,0,0,0,0,0,0
1681045536.49977803,110328351,1000,1000,1000,1000,0,0,0,0,0,0,0,0,0,0
1681045536.59973812,110428311,1000,1000,1000,1000,0,0,0,0,0,0,0,0,0,0
1681045536.69969797,110528271,1000,1000,1000,1000,0,0,0,0,0,0,0,0,0,0
1681045536.79965806,110628231,1000,1000,1000,1000,0,0,0,0,0,0,0,0,0,0
1681045536.89961791,110728191,1000,1000,1000,1000,0,0,0,0,0,0,0,0,0,0
1681045537.00041103,110828984,1000,1000,1000,1000,0,0,0,0,0,0,0,0,0,0
1681045537.10037112,110928944,1000,1000,1000,1000,0,0,0,0,0,0,0,0,0,0
1681045537.20033097,111028904,1000,1000,1000,1000,0,0,0,0,0,0,0,0,0,0
1681045537.30029106,111128864,1000,1000,1000,1000,0,0,0,0,0,0,0,0,0,0
1681045537.40025091,111228824,1000,1000,1000,1000,0,0,0,0,0,0,0,0,0,0
1681045537.50021100,111328784,1000,1000,1000,1000,0,0,0,0,0,0,0,0,0,0
1681045537.60017109,111428744,1000,1000,1000,1000,0,0,0,0,0,0,0,0,0,0
1681045537.70013094,111528704,1000,1000,1000,1000,0,0,0,0,0,0,0,0,0,0
1681045537.80009103,111628664,1000,1000,1000,1000,0,0,0,0,0,0,0,0,0,0
1681045537.90005112,111728624,1000,1000,1000,1000,0,0,0,0,0,0,0,0,0,0
1681045538.00001097,111828584,1000,1000,1000,1000,0,0,0,0,0,0,0,0,0,0
1681045538.09997106,111928544,1000,1000,1000,1000,0,0,0,0,0,0,0,0,0,0
1681045538.19993091,112028504,1000,1000,1000,1000,0,0,0,0,0,0,0,0,0,0
1681045538.29989100,112128464,1000,1000,1000,1000,0,0,0,0,0,0,0,0,0,0
1681045538.39985108,112228424,1000,1000,1000,1000,0,0,0,0,0,0,0,0,0,0
1681045538.49981093,112328384,1000,1000,1000,1000,0,0,0,0,0,0,0,0,0,0
1681045538.59977102,112428344,1000,1000,1000,1000,0,0,0,0,0,0,0,0,0,0
1681045538.69973111,112528304,1000,1000,1000,1000,0,0,0,0,0,0,0,0,0,0
1681045538.79969096,112628264,1000,1000,1000,1000,0,0,0,0,0,0,0,0,0,0
1681045538.89965105,112728224,1000,1000,1000,1000,0,0,0,0,0,0,0,0,0,0
1681045538.99961090,112828184,1000,1000,1000,1000,0,0,0,0,0,0,0,0,0,0
1681045539.10040402,112928977,1000,1000,1000,1000,0,0,0,0,0,0,0,0,0,0
1681045539.20036411,113028937,1000,1000,1000,1000,0,0,0,0,0,0,0,0,0,0
1681045539.30032396,113128897,1000,1000,1000,1000,0,0,0,0,0,0,0,0,0,0
1681045539.40028405,113228857,1000,1000,1000,1000,0,0,0,0,0,0,0,0,0,0
1681045539.50024390,113328817,1000,1000,1000,1000,0,0,0,0,0,0,0,0,0,0
1681045539.60020399,113428777,1000,1000,1000,1000,0,0,0,0,0,0,0,0,0,0
1681045539.70016408,113528737,1000,1000,1000,1000,0,0,0,0,0,0,0,0,0,0
1681045539.80012393,113628697,1000,1000,1000,1000,0,0,0,0,0,0,0,0,0,0
1681045539.90008402,113728657,1000,1000,1000,1000,0,0,0,0,0,0,0,0,0,0
1681045540.00004411,113828617,1000,1000,1000,1000,0,0,0,0,0,0,0,0,0,0
1681045540.10000396,113928577,1000,1000,1000,1000,0,0,0,0,0,0,0,0,0,0
1681045540.19996405,114028537,1000,1000,1000,1000,0,0,0,0,0,0,0,0,0,0
1681045540.29992390,114128497,1000,1000,1000,1000,0,0,0,0,0,0,0,0,0,0
1681045540.39988399,114228457,1000,1000,1000,1000,0,0,0,0,0,0,0,0,0,0
1681045540.49984407,114328417,1000,1000,1000,1000,0,0,0,0,0,0,0,0,0,0
1681045540.59980392,114428377,1000,1000,1000,1000,0,0,0,0,0,0,0,0,0,0
1681045540.69976401,114528337,1000,1000,1000,1000,0,0,0,0,0,0,0,0,0,0
1681045540.79972410,114628297,1000,1000,1000,1000,0,0,0,0,0,0,0,0,0,0
1681045540.89968395,114728257,1000,1000,1000,1000,0,0,0,0,0,0,0,0,0,0
1681045540.99964404,114828217,1000,1000,1000,1000,0,0,0,0,0,0,0,0,0,0
1681045541.09960413,114928177,1000,1000,1000,1000,0,0,0,0,0,0,0,0,0,0
1681045541.20039701,115028970,1000,1000,1000,1000,0,0,0,0,0,0,0,0,0,0
1681045541.30035710,115128930,1000,1000,1000,1000,0,0,0,0,0,0,0,0,0,0
1681045541.40031695,115228890,1000,1000,1000,1000,0,0,0,0,0,0,0,0,0,0
1681045541.50027704,115328850,1000,1000,1000,1000,0,0,0,0,0,0,0,0,0,0
1681045541.60023689,115428810,1000,1000,1000,1000,0,0,0,0,0,0,0,0,0,0
1681045541.70019698,115528770,1000,1000,1000,1000,0,0,0,0,0,0,0,0,0,0
1681045541.80015707,115628730,1000,1000,1000,1000,0,0,0,0,0,0,0,0,0,0
1681045541.90011692,115728690,1000,1000,1000,1000,0,0,0,0,0,0,0,0,0,0
1681045542.00007701,115828650,1000,1000,1000,1000,0,0,0,0,0,0,0,0,0,0
1681045542.10003710,115928610,1000,1000,1000,1000,0,0,0,0,0,0,0,0,0,0
1681045542.19999695,116028570,1000,1000,1000,1000,0,0,0,0,0,0,0,0,0,0
1681045542.29995704,116128530,1000,1000,1000,1000,0,0,0,0,0,0,0,0,0,0
1681045542.39991713,116228490,1000,1000,1000,1000,0,0,0,0,0,0,0,0,0,0
1681045542.49987698,116328450,1000,1000,1000,1000,0,0,0,0,0,0,0,0,0,0
1681045542.59983706,116428410,1000,1000,1000,1000,0,0,0,0,0,0,0,0,0,0
1681045542.69979692,116528370,1000,1000,1000,1000,0,0,0,0,0,0,0,0,0,0
1681045542.79975700,116628330,1000,1000,1000,1000,0,0,0,0,0,0,0,0,0,0
1681045542.89971709,116728290,1000,1000,1000,1000,0,0,0,0,0,0,0,0,0,0
1681045542.99967694,116828250,1000,1000,1000,1000,0,0,0,0,0,0,0,0,0,0
1681045543.09963703,116928210,1000,1000,1000,1000,0,0,0,0,0,0,0,0,0,0
1681045543.19959712,117028170,1000,1000,1000,1000,0,0,0,0,0,0,0,0,0,0
1681045543.30039001,117128963,1000,1000,1000,1000,0,0,0,0,0,0,0,0,0,0
1681045543.40035009,117228923,1000,1000,1000,1000,0,0,0,0,0,0,0,0,0,0
1681045543.50030994,117328883,1000,1000,1000,1000,0,0,0,0,0,0,0,0,0,0
1681045543.60027003,117428843,1000,1000,1000,1000,0,0,0,0,0,0,0,0,0,0
1681045543.70023012,117528803,1000,1000,1000,1000,0,0,0,0,0,0,0,0,0,0
1681045543.80018997,117628763,1000,1000,1000,1000,0,0,0,0,0,0,0,0,0,0
1681045543.90015006,117728723,1000,1000,1000,1000,0,0,0,0,0,0,0,0,0,0
1681045544.00010991,117828683,1000,1000,1000,1000,0,0,0,0,0,0,0,0,0,0
