TimeUS,M1,M2,M3,M4,TimeUS,C1,C2,C3,C4
77105812,1000,1000,1000,1000,77128303,1000,1000,1000,1000
77108311,1000,1000,1000,1000,77228263,1000,1000,1000,1000
77110810,1000,1000,1000,1000,77328223,1000,1000,1000,1000
77113309,1000,1000,1000,1000,77428183,1000,1000,1000,1000
77115808,1000,1000,1000,1000,77528976,1000,1000,1000,1000
77118307,1000,1000,1000,1000,77628936,1000,1000,1000,1000
77120806,1000,1000,1000,1000,77728896,1000,1000,1000,1000
77123305,1000,1000,1000,1000,77828856,1000,1000,1000,1000
77125804,1000,1000,1000,1000,77928816,1000,1000,1000,1000
77128303,1000,1000,1000,1000,78028776,1000,1000,1000,1000
77130802,1000,1000,1000,1000,78128736,1000,1000,1000,1000
77133301,1000,1000,1000,1000,78228696,1000,1000,1000,1000
77135800,1000,1000,1000,1000,78328656,1000,1000,1000,1000
77138299,1000,1000,1000,1000,78428616,1000,1000,1000,1000
77140798,1000,1000,1000,1000,78528576,1000,1000,1000,1000
77143297,1000,1000,1000,1000,78628536,1000,1000,1000,1000
77145796,1000,1000,1000,1000,78728496,1000,1000,1000,1000
77148295,1000,1000,1000,1000,78828456,1000,1000,1000,1000
77150794,1000,1000,1000,1000,78928416,1000,1000,1000,1000
77153293,1000,1000,1000,1000,79028376,1000,1000,1000,1000
77155792,1000,1000,1000,1000,79128336,1006,1006,1006,1006
77158291,1000,1000,1000,1000,79228296,1036,1036,1036,1036
77160790,1000,1000,1000,1000,79328256,1066,1066,1066,1066
77163289,1000,1000,1000,1000,79428216,1096,1096,1096,1096
77165788,1000,1000,1000,1000,79528176,1126,1126,1126,1126
77168287,1000,1000,1000,1000,79628969,1216,1206,1206,1217
77170786,1000,1000,1000,1000,79728929,1445,1437,1438,1446
77173285,1000,1000,1000,1000,79828889,1615,1609,1609,1616
77175784,1000,1000,1000,1000,79928849,1758,1751,1751,1758
77178283,1000,1000,1000,1000,80028809,1849,1843,1843,1850
77180782,1000,1000,1000,1000,80128769,1859,1854,1854,1860
77183281,1000,1000,1000,1000,80228729,1769,1767,1767,1769
77185780,1000,1000,1000,1000,80328689,1650,1651,1651,1650
77188279,1000,1000,1000,1000,80428649,1605,1608,1608,1605
77190778,1000,1000,1000,1000,80528609,1612,1614,1614,1612
77193277,1000,1000,1000,1000,80628569,1628,1630,1630,1628
77195776,1000,1000,1000,1000,80728529,1635,1636,1636,1635
77198275,1000,1000,1000,1000,80828489,1632,1632,1632,1632
77200774,1000,1000,1000,1000,80928449,1626,1624,1624,1625
77203273,1000,1000,1000,1000,81028409,1615,1616,1615,1616
77205772,1000,1000,1000,1000,81128369,1600,1599,1591,1608
77208271,1000,1000,1000,1000,81228329,1598,1597,1590,1604
77210770,1000,1000,1000,1000,81328289,1600,1598,1596,1602
77213269,1000,1000,1000,1000,81428249,1603,1603,1603,1602
77215768,1000,1000,1000,1000,81528209,1608,1609,1612,1605
77218267,1000,1000,1000,1000,81628169,1615,1615,1619,1612
77220766,1000,1000,1000,1000,81728962,1585,1587,1602,1570
77223265,1000,1000,1000,1000,81828922,1572,1574,1588,1559
77225764,1000,1000,1000,1000,81928882,1562,1562,1566,1559
77228263,1000,1000,1000,1000,82028842,1551,1551,1544,1560
77230762,1000,1000,1000,1000,82128802,1544,1542,1531,1556
77233261,1000,1000,1000,1000,82228762,1537,1537,1527,1548
77235760,1000,1000,1000,1000,82328722,1531,1530,1524,1537
77238259,1000,1000,1000,1000,82428682,1529,1528,1527,1530
77240758,1000,1000,1000,1000,82528642,1530,1530,1531,1529
77243257,1000,1000,1000,1000,82628602,1533,1533,1536,1529
77245756,1000,1000,1000,1000,82728562,1536,1536,1540,1531
77248255,1000,1000,1000,1000,82828522,1538,1539,1543,1535
77250754,1000,1000,1000,1000,82928482,1542,1543,1544,1540
77253253,1000,1000,1000,1000,83028442,1545,1546,1546,1545
77255752,1000,1000,1000,1000,83128402,1549,1549,1548,1549
77258251,1000,1000,1000,1000,83228362,1550,1550,1549,1551
77260750,1000,1000,1000,1000,83328322,1553,1551,1552,1555
77263249,1000,1000,1000,1000,83428282,1551,1551,1557,1560
77265748,1000,1000,1000,1000,83528242,1553,1553,1559,1562
77268247,1000,1000,1000,1000,83628202,1556,1557,1562,1562
77270746,1000,1000,1000,1000,83728162,1559,1560,1564,1563
77273245,1000,1000,1000,1000,83828955,1562,1563,1564,1563
77275744,1000,1000,1000,1000,83928915,1565,1565,1565,1564
77278243,1000,1000,1000,1000,84028875,1568,1568,1566,1565
77280742,1000,1000,1000,1000,84128835,1569,1569,1565,1565
77283241,1000,1000,1000,1000,84228795,1570,1570,1565,1565
77285740,1000,1000,1000,1000,84328755,1572,1571,1566,1568
77288239,1000,1000,1000,1000,84428715,1572,1572,1568,1568
77290738,1000,1000,1000,1000,84528675,1573,1572,1569,1570
77293237,1000,1000,1000,1000,84628635,1573,1573,1571,1571
77295736,1000,1000,1000,1000,84728595,1574,1574,1573,1572
77298235,1000,1000,1000,1000,84828555,1574,1575,1575,1573
77300734,1000,1000,1000,1000,84928515,1574,1575,1576,1574
77303233,1000,1000,1000,1000,85028475,1574,1574,1576,1575
77305732,1000,1000,1000,1000,85128435,1575,1575,1576,1576
77308231,1000,1000,1000,1000,85228395,1575,1575,1576,1576
77310730,1000,1000,1000,1000,85328355,1575,1575,1576,1576
77313229,1000,1000,1000,1000,85428315,1575,1575,1576,1576
77315728,1000,1000,1000,1000,85528275,1576,1576,1576,1577
77318227,1000,1000,1000,1000,85628235,1576,1577,1577,1577
77320726,1000,1000,1000,1000,85728195,1577,1577,1577,1577
77323225,1000,1000,1000,1000,85828155,1577,1577,1577,1576
77325724,1000,1000,1000,1000,85928948,1577,1577,1577,1576
77328223,1000,1000,1000,1000,86028908,1578,1578,1577,1577
77330722,1000,1000,1000,1000,86128868,1578,1577,1577,1577
77333221,1000,1000,1000,1000,86228828,1579,1578,1578,1578
77335720,1000,1000,1000,1000,86328788,1578,1578,1577,1578
77338219,1000,1000,1000,1000,86428748,1578,1578,1578,1578
77340718,1000,1000,1000,1000,86528708,1578,1578,1578,1578
77343217,1000,1000,1000,1000,86628668,1579,1579,1579,1579
77345716,1000,1000,1000,1000,86728628,1578,1578,1579,1578
77348215,1000,1000,1000,1000,86828588,1578,1578,1579,1578
77350714,1000,1000,1000,1000,86928548,1579,1579,1579,1579
77353213,1000,1000,1000,1000,87028508,1578,1578,1578,1579
77355712,1000,1000,1000,1000,87128468,1578,1578,1578,1578
77358211,1000,1000,1000,1000,87228428,1579,1578,1579,1579
77360710,1000,1000,1000,1000,87328388,1577,1578,1578,1578
77363209,1000,1000,1000,1000,87428348,1579,1579,1579,1579
77365708,1000,1000,1000,1000,87528308,1579,1579,1579,1579
77368207,1000,1000,1000,1000,87628268,1579,1579,1579,1579
77370706,1000,1000,1000,1000,87728228,1580,1580,1580,1580
77373205,1000,1000,1000,1000,87828188,1580,1580,1580,1580
77375704,1000,1000,1000,1000,87928981,1580,1579,1579,1580
77378203,1000,1000,1000,1000,88028941,1580,1580,1580,1580
77380702,1000,1000,1000,1000,88128901,1581,1580,1580,1580
77383201,1000,1000,1000,1000,88228861,1579,1579,1579,1579
77385700,1000,1000,1000,1000,88328821,1579,1579,1579,1580
77388199,1000,1000,1000,1000,88428781,1580,1580,1580,1580
77390698,1000,1000,1000,1000,88528741,1581,1580,1581,1580
77393197,1000,1000,1000,1000,88628701,1580,1580,1580,1580
77395696,1000,1000,1000,1000,88728661,1580,1580,1580,1580
77398195,1000,1000,1000,1000,88828621,1580,1580,1581,1580
77400694,1000,1000,1000,1000,88928581,1581,1581,1581,1581
77403193,1000,1000,1000,1000,89028541,1580,1581,1580,1581
77405692,1000,1000,1000,1000,89128501,1580,1580,1580,1580
77408191,1000,1000,1000,1000,89228461,1580,1580,1580,1581
77410690,1000,1000,1000,1000,89328421,1581,1581,1581,1582
77413189,1000,1000,1000,1000,89428381,1581,1581,1582,1581
77415688,1000,1000,1000,1000,89528341,1582,1581,1582,1582
77418187,1000,1000,1000,1000,89628301,1581,1582,1588,1575
77420686,1000,1000,1000,1000,89728261,1582,1584,1587,1574
77423185,1000,1000,1000,1000,89828221,1579,1582,1579,1574
77425684,1000,1000,1000,1000,89928181,1578,1581,1569,1573
77428183,1000,1000,1000,1000,90028974,1577,1580,1562,1569
77430682,1000,1000,1000,1000,90128934,1577,1577,1556,1563
77433181,1000,1000,1000,1000,90228894,1579,1578,1556,1560
77435680,1000,1000,1000,1000,90328854,1580,1578,1555,1557
77438179,1000,1000,1000,1000,90428814,1580,1579,1556,1555
77440678,1000,1000,1000,1000,90528774,1579,1578,1556,1554
77443177,1000,1000,1000,1000,90628734,1577,1578,1556,1554
77445676,1000,1000,1000,1000,90728694,1576,1577,1555,1554
77448175,1000,1000,1000,1000,90828654,1575,1577,1555,1554
77450674,1000,1000,1000,1000,90928614,1575,1576,1553,1553
77453173,1000,1000,1000,1000,91028574,1575,1577,1551,1552
77455672,1000,1000,1000,1000,91128534,1577,1578,1550,1550
77458171,1000,1000,1000,1000,91228494,1578,1579,1548,1547
77460670,1000,1000,1000,1000,91328454,1581,1582,1546,1546
77463169,1000,1000,1000,1000,91428414,1584,1585,1543,1542
77465668,1000,1000,1000,1000,91528374,1587,1587,1540,1540
77468167,1000,1000,1000,1000,91628334,1590,1591,1538,1537
77470666,1000,1000,1000,1000,91728294,1593,1593,1536,1536
77473165,1000,1000,1000,1000,91828254,1594,1594,1534,1535
77475664,1000,1000,1000,1000,91928214,1595,1594,1535,1536
77478163,1000,1000,1000,1000,92028174,1594,1595,1536,1538
77480662,1000,1000,1000,1000,92128967,1593,1592,1540,1542
77483161,1000,1000,1000,1000,92228927,1589,1588,1544,1548
77485660,1000,1000,1000,1000,92328887,1584,1580,1552,1555
77488159,1000,1000,1000,1000,92428847,1577,1573,1564,1566
77490658,1000,1000,1000,1000,92528807,1566,1562,1575,1577
77493157,1000,1000,1000,1000,92628767,1554,1552,1587,1588
77495656,1000,1000,1000,1000,92728727,1544,1541,1598,1598
77498155,1000,1000,1000,1000,92828687,1535,1534,1607,1606
77500654,1000,1000,1000,1000,92928647,1531,1532,1615,1613
77503986,1000,1000,1000,1000,93028607,1530,1531,1617,1615
77506485,1000,1000,1000,1000,93128567,1531,1534,1614,1613
77508984,1000,1000,1000,1000,93228527,1537,1539,1610,1610
77511483,1000,1000,1000,1000,93328487,1544,1546,1603,1604
77513982,1000,1000,1000,1000,93428447,1552,1553,1596,1596
77516481,1000,1000,1000,1000,93528407,1561,1561,1588,1587
77518980,1000,1000,1000,1000,93628367,1570,1569,1581,1580
77521479,1000,1000,1000,1000,93728327,1577,1576,1574,1574
77523978,1000,1000,1000,1000,93828287,1583,1583,1572,1571
77526477,1000,1000,1000,1000,93928247,1587,1585,1568,1568
77528976,1000,1000,1000,1000,94028207,1588,1586,1566,1566
77531475,1000,1000,1000,1000,94128167,1589,1587,1568,1567
77533974,1000,1000,1000,1000,94228960,1586,1585,1568,1568
77536473,1000,1000,1000,1000,94328920,1584,1584,1571,1572
77538972,1000,1000,1000,1000,94428880,1580,1581,1573,1574
77541471,1000,1000,1000,1000,94528840,1577,1578,1576,1576
77543970,1000,1000,1000,1000,94628800,1575,1576,1579,1579
77546469,1000,1000,1000,1000,94728760,1573,1574,1581,1581
77548968,1000,1000,1000,1000,94828720,1572,1573,1582,1582
77551467,1000,1000,1000,1000,94928680,1572,1572,1583,1583
77553966,1000,1000,1000,1000,95028640,1572,1573,1583,1583
77556465,1000,1000,1000,1000,95128600,1573,1573,1583,1583
77558964,1000,1000,1000,1000,95228560,1574,1575,1582,1582
77561463,1000,1000,1000,1000,95328520,1576,1576,1581,1581
77563962,1000,1000,1000,1000,95428480,1578,1578,1580,1581
77566461,1000,1000,1000,1000,95528440,1579,1579,1579,1579
77568960,1000,1000,1000,1000,95628400,1580,1579,1578,1578
77571459,1000,1000,1000,1000,95728360,1581,1581,1578,1578
77573958,1000,1000,1000,1000,95828320,1581,1581,1577,1577
77576457,1000,1000,1000,1000,95928280,1581,1581,1577,1577
77578956,1000,1000,1000,1000,96028240,1581,1580,1577,1577
77581455,1000,1000,1000,1000,96128200,1582,1582,1579,1578
77583954,1000,1000,1000,1000,96228160,1581,1581,1579,1578
77586453,1000,1000,1000,1000,96328953,1580,1580,1579,1579
77588952,1000,1000,1000,1000,96428913,1580,1580,1580,1580
77591451,1000,1000,1000,1000,96528873,1580,1580,1581,1580
77593950,1000,1000,1000,1000,96628833,1579,1579,1580,1580
77596449,1000,1000,1000,1000,96728793,1579,1579,1580,1581
77598948,1000,1000,1000,1000,96828753,1580,1580,1581,1582
77601447,1000,1000,1000,1000,96928713,1580,1579,1581,1581
77603946,1000,1000,1000,1000,97028673,1580,1580,1581,1582
77606445,1000,1000,1000,1000,97128633,1580,1580,1581,1581
77608944,1000,1000,1000,1000,97228593,1580,1580,1580,1580
77611443,1000,1000,1000,1000,97328553,1582,1582,1582,1582
77613942,1000,1000,1000,1000,97428513,1581,1581,1581,1580
77616441,1000,1000,1000,1000,97528473,1582,1582,1581,1581
77618940,1000,1000,1000,1000,97628433,1581,1583,1587,1573
77621439,1000,1000,1000,1000,97728393,1580,1584,1583,1570
77623938,1000,1000,1000,1000,97828353,1606,1609,1395,1506
77626437,1000,1000,1000,1000,97928313,1633,1638,1498,1496
77628936,1000,1000,1000,1000,98028273,1658,1669,1589,1526
77631435,1000,1000,1000,1000,98128233,1662,1679,1650,1561
77633934,1000,1000,1000,1000,98228193,1636,1658,1650,1586
77636433,1000,1000,1000,1000,98328986,1633,1652,1650,1615
77638932,1000,1000,1000,1000,98428946,1628,1637,1650,1641
77641431,1000,1000,1000,1000,98528906,1616,1611,1650,1667
77643930,1000,1000,1000,1000,98628866,1597,1586,1638,1668
77646429,1000,1000,1000,1000,98728826,1581,1558,1626,1653
77648928,1000,1000,1000,1000,98828786,1581,1552,1616,1635
77651427,1000,1000,1000,1000,98928746,1587,1561,1603,1608
77653926,1000,1000,1000,1000,99028706,1590,1577,1586,1579
77656425,1000,1000,1000,1000,99128666,1591,1592,1565,1554
77658924,1000,1000,1000,1000,99228626,1594,1607,1543,1535
77661423,1000,1000,1000,1000,99328586,1598,1616,1521,1523
77663922,1000,1000,1000,1000,99428546,1605,1624,1505,1515
77666421,1000,1000,1000,1000,99528506,1614,1624,1496,1514
77668920,1000,1000,1000,1000,99628466,1621,1620,1495,1513
77671419,1000,1000,1000,1000,99728426,1628,1617,1501,1515
77673918,1000,1000,1000,1000,99828386,1628,1612,1513,1522
77676417,1000,1000,1000,1000,99928346,1613,1596,1535,1541
77678916,1000,1000,1000,1000,100028306,1587,1574,1565,1564
77681415,1000,1000,1000,1000,100128266,1561,1555,1594,1589
77683914,1000,1000,1000,1000,100228226,1542,1542,1619,1607
77686413,1000,1000,1000,1000,100328186,1533,1536,1637,1621
77688912,1000,1000,1000,1000,100428979,1529,1536,1645,1629
77691411,1000,1000,1000,1000,100528939,1529,1537,1645,1632
77693910,1000,1000,1000,1000,100628899,1528,1536,1638,1632
77696409,1000,1000,1000,1000,100728859,1523,1528,1633,1635
77698908,1000,1000,1000,1000,100828819,1523,1522,1625,1632
77701407,1000,1000,1000,1000,100928779,1530,1526,1617,1625
77703906,1000,1000,1000,1000,101028739,1539,1534,1603,1610
77706405,1000,1000,1000,1000,101128699,1550,1547,1591,1595
77708904,1000,1000,1000,1000,101228659,1558,1557,1581,1584
77711403,1000,1000,1000,1000,101328619,1564,1565,1574,1577
77713902,1000,1000,1000,1000,101428579,1569,1572,1569,1571
77716401,1000,1000,1000,1000,101528539,1573,1575,1565,1567
77718900,1000,1000,1000,1000,101628499,1577,1579,1564,1565
77721399,1000,1000,1000,1000,101728459,1581,1582,1562,1563
77723898,1000,1000,1000,1000,101828419,1584,1584,1562,1562
77726397,1000,1000,1000,1000,101928379,1586,1585,1562,1562
77728896,1000,1000,1000,1000,102028339,1588,1587,1563,1563
77731395,1000,1000,1000,1000,102128299,1588,1587,1564,1563
77733894,1000,1000,1000,1000,102228259,1588,1587,1566,1565
77736393,1000,1000,1000,1000,102328219,1587,1586,1567,1566
77738892,1000,1000,1000,1000,102428179,1586,1586,1570,1569
77741391,1000,1000,1000,1000,102528972,1585,1586,1573,1572
77743890,1000,1000,1000,1000,102628932,1583,1583,1574,1574
77746389,1000,1000,1000,1000,102728892,1581,1581,1576,1576
77748888,1000,1000,1000,1000,102828852,1581,1581,1579,1580
77751387,1000,1000,1000,1000,102928812,1579,1579,1581,1581
77753886,1000,1000,1000,1000,103028772,1578,1578,1582,1582
77756385,1000,1000,1000,1000,103128732,1578,1578,1583,1583
77758884,1000,1000,1000,1000,103228692,1578,1579,1585,1585
77761383,1000,1000,1000,1000,103328652,1577,1577,1584,1584
77763882,1000,1000,1000,1000,103428612,1578,1578,1585,1584
77766381,1000,1000,1000,1000,103528572,1578,1578,1584,1584
77768880,1000,1000,1000,1000,103628532,1579,1580,1585,1585
77771379,1000,1000,1000,1000,103728492,1578,1579,1583,1583
77773878,1000,1000,1000,1000,103828452,1579,1579,1583,1583
77776377,1000,1000,1000,1000,103928412,1581,1580,1582,1583
77778876,1000,1000,1000,1000,104028372,1580,1580,1582,1581
77781375,1000,1000,1000,1000,104128332,1581,1581,1581,1581
77783874,1000,1000,1000,1000,104228292,1580,1580,1580,1580
77786373,1000,1000,1000,1000,104328252,1581,1581,1580,1580
77788872,1000,1000,1000,1000,104428212,1581,1581,1580,1580
77791371,1000,1000,1000,1000,104528172,1583,1583,1581,1580
77793870,1000,1000,1000,1000,104628965,1583,1582,1580,1581
77796369,1000,1000,1000,1000,104728925,1583,1582,1580,1581
77798868,1000,1000,1000,1000,104828885,1582,1582,1580,1580
77801367,1000,1000,1000,1000,104928845,1583,1583,1581,1582
77803866,1000,1000,1000,1000,105028805,1582,1582,1581,1581
77806365,1000,1000,1000,1000,105128765,1582,1584,1587,1575
77808864,1000,1000,1000,1000,105228725,1579,1584,1586,1573
77811363,1000,1000,1000,1000,105328685,1577,1583,1581,1575
77813862,1000,1000,1000,1000,105428645,1576,1581,1574,1575
77816361,1000,1000,1000,1000,105528605,1575,1577,1567,1573
77818860,1000,1000,1000,1000,105628565,1575,1575,1561,1568
77821359,1000,1000,1000,1000,105728525,1577,1574,1559,1565
77823858,1000,1000,1000,1000,105828485,1578,1575,1557,1560
77826357,1000,1000,1000,1000,105928445,1579,1576,1557,1557
77828856,1000,1000,1000,1000,106028405,1578,1578,1556,1555
77831355,1000,1000,1000,1000,106128365,1578,1579,1557,1555
77833854,1000,1000,1000,1000,106228325,1578,1579,1557,1554
77836353,1000,1000,1000,1000,106328285,1577,1578,1556,1555
77838852,1000,1000,1000,1000,106428245,1577,1579,1556,1555
77841351,1000,1000,1000,1000,106528205,1577,1578,1555,1555
77843850,1000,1000,1000,1000,106628165,1577,1578,1554,1554
77846349,1000,1000,1000,1000,106728958,1578,1578,1552,1553
77848848,1000,1000,1000,1000,106828918,1579,1580,1551,1551
77851347,1000,1000,1000,1000,106928878,1581,1581,1549,1549
77853846,1000,1000,1000,1000,107028838,1583,1584,1547,1546
77856345,1000,1000,1000,1000,107128798,1585,1586,1545,1544
77858844,1000,1000,1000,1000,107228758,1587,1588,1542,1541
77861343,1000,1000,1000,1000,107328718,1590,1591,1540,1540
77863842,1000,1000,1000,1000,107428678,1591,1592,1537,1538
77866341,1000,1000,1000,1000,107528638,1594,1595,1535,1537
77868840,1000,1000,1000,1000,107628598,1596,1596,1535,1537
77871339,1000,1000,1000,1000,107728558,1596,1595,1537,1540
77873838,1000,1000,1000,1000,107828518,1594,1591,1540,1543
77876337,1000,1000,1000,1000,107928478,1588,1584,1546,1550
77878836,1000,1000,1000,1000,108028438,1581,1577,1555,1559
77881335,1000,1000,1000,1000,108128398,1572,1568,1567,1570
77883834,1000,1000,1000,1000,108228358,1560,1558,1580,1581
77886333,1000,1000,1000,1000,108328318,1551,1549,1593,1592
77888832,1000,1000,1000,1000,108428278,1544,1544,1603,1601
77891331,1000,1000,1000,1000,108528238,1541,1542,1610,1606
77893830,1000,1000,1000,1000,108628198,1540,1541,1613,1609
77896329,1000,1000,1000,1000,108728158,1542,1544,1614,1611
77898828,1000,1000,1000,1000,108828951,1544,1546,1612,1610
77901327,1000,1000,1000,1000,108928911,1548,1549,1609,1608
77903826,1000,1000,1000,1000,109028871,1551,1552,1604,1604
77906325,1000,1000,1000,1000,109128831,1555,1555,1599,1600
77908824,1000,1000,1000,1000,109228791,1560,1560,1594,1595
77911323,1000,1000,1000,1000,109328751,1564,1564,1590,1590
77913822,1000,1000,1000,1000,109428711,1568,1568,1584,1586
77916321,1000,1000,1000,1000,109528671,1572,1571,1579,1580
77918820,1000,1000,1000,1000,109628631,1576,1576,1575,1576
77921319,1000,1000,1000,1000,109728591,1579,1578,1570,1571
77923818,1000,1000,1000,1000,109828551,1583,1581,1567,1567
77926317,1000,1000,1000,1000,109928511,1585,1584,1565,1565
77928816,1000,1000,1000,1000,110028471,1585,1583,1563,1564
77931315,1000,1000,1000,1000,110128431,1585,1584,1565,1566
77933814,1000,1000,1000,1000,110228391,1584,1583,1567,1567
77936313,1000,1000,1000,1000,110328351,1581,1581,1569,1569
77938812,1000,1000,1000,1000,110428311,1579,1580,1573,1573
77941311,1000,1000,1000,1000,110528271,1578,1579,1577,1576
77943810,1000,1000,1000,1000,110628231,1576,1576,1579,1579
77946309,1000,1000,1000,1000,110728191,1575,1576,1582,1582
77948808,1000,1000,1000,1000,110828984,1573,1574,1583,1582
77951307,1000,1000,1000,1000,110928944,1573,1573,1584,1584
77953806,1000,1000,1000,1000,111028904,1573,1574,1585,1584
77956305,1000,1000,1000,1000,111128864,1574,1575,1584,1584
77958804,1000,1000,1000,1000,111228824,1575,1576,1584,1584
77961303,1000,1000,1000,1000,111328784,1574,1575,1582,1581
77963802,1000,1000,1000,1000,111428744,1578,1578,1581,1582
77966301,1000,1000,1000,1000,111528704,1577,1577,1579,1579
77968800,1000,1000,1000,1000,111628664,1579,1580,1579,1579
77971299,1000,1000,1000,1000,111728624,1580,1580,1577,1578
77973798,1000,1000,1000,1000,111828584,1581,1580,1576,1577
77976297,1000,1000,1000,1000,111928544,1582,1581,1577,1577
77978796,1000,1000,1000,1000,112028504,1581,1580,1576,1576
77981295,1000,1000,1000,1000,112128464,1581,1581,1577,1577
77983794,1000,1000,1000,1000,112228424,1580,1581,1577,1577
77986293,1000,1000,1000,1000,112328384,1581,1581,1578,1579
77988792,1000,1000,1000,1000,112428344,1581,1582,1580,1580
77991291,1000,1000,1000,1000,112528304,1581,1581,1581,1580
77993790,1000,1000,1000,1000,112628264,1581,1581,1582,1581
77996289,1000,1000,1000,1000,112728224,1580,1580,1581,1581
77998788,1000,1000,1000,1000,112828184,1580,1580,1582,1582
78001287,1000,1000,1000,1000,112928977,1581,1581,1582,1583
78003786,1000,1000,1000,1000,113028937,1579,1580,1582,1581
78006285,1000,1000,1000,1000,113128897,1581,1582,1586,1576
78008784,1000,1000,1000,1000,113228857,1580,1581,1587,1572
78011283,1000,1000,1000,1000,113328817,1579,1580,1583,1575
78013782,1000,1000,1000,1000,113428777,1575,1576,1576,1577
78016281,1000,1000,1000,1000,113528737,1571,1571,1570,1575
78018780,1000,1000,1000,1000,113628697,1568,1568,1566,1573
78021279,1000,1000,1000,1000,113728657,1568,1566,1565,1571
78023778,1000,1000,1000,1000,113828617,1566,1565,1564,1567
78026277,1000,1000,1000,1000,113928577,1565,1565,1564,1565
78028776,1000,1000,1000,1000,114028537,1565,1565,1565,1564
78031275,1000,1000,1000,1000,114128497,1565,1565,1565,1562
78033774,1000,1000,1000,1000,114228457,1564,1564,1564,1561
78036273,1000,1000,1000,1000,114328417,1564,1564,1564,1562
78038772,1000,1000,1000,1000,114428377,1564,1564,1564,1562
78041271,1000,1000,1000,1000,114528337,1562,1562,1562,1562
78043770,1000,1000,1000,1000,114628297,1562,1562,1562,1562
78046269,1000,1000,1000,1000,114728257,1561,1562,1561,1562
78048768,1000,1000,1000,1000,114828217,1562,1561,1562,1562
78051267,1000,1000,1000,1000,114928177,1561,1561,1561,1561
78053766,1000,1000,1000,1000,115028970,1560,1560,1561,1560
78056265,1000,1000,1000,1000,115128930,1559,1558,1560,1559
78058764,1000,1000,1000,1000,115228890,1558,1558,1559,1558
78061263,1000,1000,1000,1000,115328850,1559,1559,1560,1559
78063762,1000,1000,1000,1000,115428810,1558,1558,1559,1558
78066261,1000,1000,1000,1000,115528770,1558,1558,1559,1557
78068760,1000,1000,1000,1000,115628730,1557,1557,1558,1556
78071259,1000,1000,1000,1000,115728690,1558,1559,1559,1557
78073758,1000,1000,1000,1000,115828650,1559,1559,1560,1558
78076257,1000,1000,1000,1000,115928610,1560,1560,1559,1560
78078756,1000,1000,1000,1000,116028570,1560,1560,1558,1561
78081255,1000,1000,1000,1000,116128530,1560,1560,1557,1563
78083754,1000,1000,1000,1000,116228490,1562,1562,1558,1564
78086253,1000,1000,1000,1000,116328450,1563,1562,1560,1564
78088752,1000,1000,1000,1000,116428410,1562,1561,1560,1562
78091251,1000,1000,1000,1000,116528370,1562,1562,1562,1561
78093750,1000,1000,1000,1000,116628330,1561,1561,1563,1558
78096249,1000,1000,1000,1000,116728290,1560,1560,1561,1559
78098748,1000,1000,1000,1000,116828250,1557,1558,1557,1561
78101247,1000,1000,1000,1000,116928210,1553,1553,1553,1557
78103746,1000,1000,1000,1000,117028170,1548,1548,1549,1552
78106245,1000,1000,1000,1000,117128963,1543,1542,1545,1545
78108744,1000,1000,1000,1000,117228923,1536,1535,1539,1538
78111243,1000,1000,1000,1000,117328883,1528,1527,1531,1530
78113742,1000,1000,1000,1000,117428843,1521,1522,1525,1524
78116241,1000,1000,1000,1000,117528803,1519,1519,1520,1521
78118740,1000,1000,1000,1000,117628763,1519,1519,1519,1520
78121239,1000,1000,1000,1000,117728723,1520,1521,1518,1521
78123738,1000,1000,1000,1000,117828683,1524,1523,1520,1522
78126237,1000,1000,1000,1000,117928643,1528,1528,1523,1524
78128736,1000,1000,1000,1000,118028603,1532,1532,1527,1528
78131235,1000,1000,1000,1000,118128563,1537,1537,1532,1532
78133734,1000,1000,1000,1000,118228523,1541,1540,1537,1535
78136233,1000,1000,1000,1000,118328483,1543,1543,1540,1538
78138732,1000,1000,1000,1000,118428443,1544,1545,1543,1541
78141231,1000,1000,1000,1000,118528403,1545,1545,1545,1543
78143730,1000,1000,1000,1000,118628363,1545,1545,1546,1546
78146229,1000,1000,1000,1000,118728323,1546,1546,1547,1547
78148728,1000,1000,1000,1000,118828283,1546,1546,1548,1548
78151227,1000,1000,1000,1000,118928243,1545,1545,1549,1549
78153726,1000,1000,1000,1000,119028203,1545,1545,1548,1548
78156225,1000,1000,1000,1000,119128163,1546,1546,1549,1549
78158724,1000,1000,1000,1000,119228956,1545,1545,1548,1548
78161223,1000,1000,1000,1000,119328916,1545,1545,1547,1548
78163722,1000,1000,1000,1000,119428876,1545,1546,1547,1547
78166221,1000,1000,1000,1000,119528836,1545,1545,1545,1545
78168720,1000,1000,1000,1000,119628796,1545,1546,1545,1545
78171219,1000,1000,1000,1000,119728756,1546,1546,1545,1545
78173718,1000,1000,1000,1000,119828716,1545,1545,1544,1544
78176217,1000,1000,1000,1000,119928676,1546,1545,1544,1544
78178716,1000,1000,1000,1000,120028636,1545,1545,1544,1544
78181215,1000,1000,1000,1000,120128596,1545,1545,1544,1544
78183714,1000,1000,1000,1000,120228556,1545,1545,1544,1544
78186213,1000,1000,1000,1000,120328516,1545,1545,1544,1544
78188712,1000,1000,1000,1000,120428476,1543,1543,1543,1543
78191211,1000,1000,1000,1000,120528436,1544,1544,1544,1544
78193710,1000,1000,1000,1000,120628396,1544,1544,1544,1544
78196209,1000,1000,1000,1000,120728356,1544,1544,1544,1544
78198708,1000,1000,1000,1000,120828316,1543,1543,1544,1543
78201207,1000,1000,1000,1000,120928276,1543,1543,1544,1544
78203706,1000,1000,1000,1000,121028236,1543,1543,1544,1544
78206205,1000,1000,1000,1000,121128196,1544,1544,1544,1544
78208704,1000,1000,1000,1000,121228156,1543,1543,1543,1544
78211203,1000,1000,1000,1000,121328949,1544,1543,1544,1544
78213702,1000,1000,1000,1000,121428909,1545,1545,1545,1545
78216201,1000,1000,1000,1000,121528869,1545,1544,1544,1544
78218700,1000,1000,1000,1000,121628829,1544,1544,1544,1544
78221199,1000,1000,1000,1000,121728789,1544,1544,1544,1544
78223698,1000,1000,1000,1000,121828749,1543,1544,1544,1543
78226197,1000,1000,1000,1000,121928709,1544,1544,1544,1544
78228696,1000,1000,1000,1000,122028669,1543,1544,1543,1544
78231195,1000,1000,1000,1000,122128629,1545,1544,1544,1545
78233694,1000,1000,1000,1000,122228589,1544,1544,1544,1544
78236193,1000,1000,1000,1000,122328549,1544,1544,1544,1544
78238692,1000,1000,1000,1000,122428509,1544,1544,1544,1544
78241191,1000,1000,1000,1000,122528469,1544,1544,1544,1544
78243690,1000,1000,1000,1000,122628429,1544,1544,1544,1544
78246189,1000,1000,1000,1000,122728389,1544,1544,1544,1544
78248688,1000,1000,1000,1000,122828349,1544,1544,1544,1544
78251187,1000,1000,1000,1000,122928309,1544,1544,1544,1544
78253686,1000,1000,1000,1000,123028269,1543,1543,1544,1543
78256185,1000,1000,1000,1000,123128229,1543,1543,1543,1543
78258684,1000,1000,1000,1000,123228189,1543,1543,1543,1543
78261183,1000,1000,1000,1000,123328982,1543,1543,1543,1544
78263682,1000,1000,1000,1000,123428942,1543,1543,1543,1543
78266181,1000,1000,1000,1000,123528902,1545,1544,1544,1545
78268680,1000,1000,1000,1000,123628862,1545,1545,1545,1544
78271179,1000,1000,1000,1000,123728822,1544,1544,1544,1544
78273678,1000,1000,1000,1000,123828782,1544,1544,1545,1544
78276177,1000,1000,1000,1000,123928742,1545,1545,1545,1545
78278676,1000,1000,1000,1000,124028702,1544,1544,1544,1544
78281175,1000,1000,1000,1000,124128662,1545,1545,1545,1545
78283674,1000,1000,1000,1000,124228622,1544,1544,1545,1544
78286173,1000,1000,1000,1000,124328582,1545,1544,1545,1545
78288672,1000,1000,1000,1000,124428542,1545,1545,1545,1545
78291171,1000,1000,1000,1000,124528502,1545,1545,1545,1545
78293670,1000,1000,1000,1000,124628462,1544,1544,1544,1544
78296169,1000,1000,1000,1000,124728422,1544,1543,1544,1544
78298668,1000,1000,1000,1000,124828382,1544,1544,1544,1544
78301167,1000,1000,1000,1000,124928342,1544,1544,1544,1544
78303666,1000,1000,1000,1000,125028302,1543,1544,1544,1544
78306165,1000,1000,1000,1000,125128262,1544,1544,1544,1544
78308664,1000,1000,1000,1000,125228222,1545,1545,1545,1545
78311163,1000,1000,1000,1000,125328182,1545,1545,1544,1545
78313662,1000,1000,1000,1000,125428975,1545,1545,1544,1544
78316161,1000,1000,1000,1000,125528935,1545,1544,1545,1545
78318660,1000,1000,1000,1000,125628895,1545,1544,1544,1544
78321159,1000,1000,1000,1000,125728855,1544,1544,1544,1544
78323658,1000,1000,1000,1000,125828815,1544,1545,1545,1545
78326157,1000,1000,1000,1000,125928775,1545,1545,1545,1545
78328656,1000,1000,1000,1000,126028735,1545,1544,1545,1544
78331155,1000,1000,1000,1000,126128695,1544,1544,1544,1545
78333654,1000,1000,1000,1000,126228655,1545,1544,1544,1545
78336153,1000,1000,1000,1000,126328615,1545,1544,1545,1544
78338652,1000,1000,1000,1000,126428575,1544,1545,1544,1544
78341151,1000,1000,1000,1000,126528535,1544,1544,1544,1545
78343650,1000,1000,1000,1000,126628495,1544,1544,1544,1544
78346149,1000,1000,1000,1000,126728455,1544,1544,1544,1544
78348648,1000,1000,1000,1000,126828415,1545,1544,1545,1544
78351147,1000,1000,1000,1000,126928375,1544,1544,1544,1544
78353646,1000,1000,1000,1000,127028335,1544,1545,1545,1545
78356145,1000,1000,1000,1000,127128295,1544,1544,1544,1544
78358644,1000,1000,1000,1000,127228255,1537,1537,1539,1536
78361143,1000,1000,1000,1000,127328215,1349,1351,1413,1350
78363642,1000,1000,1000,1000,127428175,1245,1250,1353,1247
78366141,1000,1000,1000,1000,127528968,1213,1217,1335,1215
78368640,1000,1000,1000,1000,127628928,1194,1197,1326,1195
78371139,1000,1000,1000,1000,127728888,1150,1152,1304,1151
78373638,1000,1000,1000,1000,127828848,1169,1172,1159,1150
78376137,1000,1000,1000,1000,127928808,1165,1167,1109,1150
78378636,1000,1000,1000,1000,128028768,1165,1168,1109,1150
78381135,1000,1000,1000,1000,128128728,1165,1167,1109,1150
78383634,1000,1000,1000,1000,128228688,1171,1150,1113,1154
78386133,1000,1000,1000,1000,128328648,1166,1154,1117,1150
78388632,1000,1000,1000,1000,128428608,1165,1157,1116,1150
78391131,1000,1000,1000,1000,128528568,1165,1157,1116,1150
78393630,1000,1000,1000,1000,128628528,1164,1156,1117,1150
78396129,1000,1000,1000,1000,128728488,1164,1155,1117,1150
78398628,1000,1000,1000,1000,128828448,1164,1154,1118,1150
78401127,1000,1000,1000,1000,128928408,1163,1153,1119,1150
78403626,1000,1000,1000,1000,129028368,1163,1162,1114,1150
78406125,1000,1000,1000,1000,129128328,1163,1161,1114,1150
78408624,1000,1000,1000,1000,129228288,1163,1161,1114,1150
78411123,1000,1000,1000,1000,129328248,1163,1161,1115,1150
78413622,1000,1000,1000,1000,129428208,1153,1152,934,1150
78416121,1000,1000,1000,1000,129528168,1000,1000,1000,1000
78418620,1000,1000,1000,1000,129628961,1000,1000,1000,1000
78421119,1000,1000,1000,1000,129728921,1000,1000,1000,1000
78423618,1000,1000,1000,1000,129828881,1000,1000,1000,1000
78426117,1000,1000,1000,1000,129928841,1000,1000,1000,1000
78428616,1000,1000,1000,1000,130028801,1000,1000,1000,1000
78431115,1000,1000,1000,1000,130128761,1000,1000,1000,1000
78433614,1000,1000,1000,1000,130228721,1000,1000,1000,1000
78436113,1000,1000,1000,1000,130328681,1000,1000,1000,1000
78438612,1000,1000,1000,1000,130428641,1000,1000,1000,1000
78441111,1000,1000,1000,1000,130528601,1000,1000,1000,1000
78443610,1000,1000,1000,1000,130628561,1000,1000,1000,1000
78446109,1000,1000,1000,1000,130728521,1000,1000,1000,1000
78448608,1000,1000,1000,1000,130828481,1000,1000,1000,1000
78451107,1000,1000,1000,1000,130928441,1000,1000,1000,1000
78453606,1000,1000,1000,1000,131028401,1000,1000,1000,1000
78456105,1000,1000,1000,1000,131128361,1000,1000,1000,1000
78458604,1000,1000,1000,1000,131228321,1000,1000,1000,1000
78461103,1000,1000,1000,1000,131328281,1000,1000,1000,1000
78463602,1000,1000,1000,1000,131428241,1000,1000,1000,1000
78466101,1000,1000,1000,1000,131528201,1000,1000,1000,1000
78468600,1000,1000,1000,1000,131628161,1000,1000,1000,1000
78471099,1000,1000,1000,1000,131728954,1000,1000,1000,1000
78473598,1000,1000,1000,1000,131828914,1000,1000,1000,1000
78476097,1000,1000,1000,1000,131928874,1000,1000,1000,1000
78478596,1000,1000,1000,1000,132028834,1000,1000,1000,1000
78481095,1000,1000,1000,1000,132128794,1000,1000,1000,1000
78483594,1000,1000,1000,1000,132228754,1000,1000,1000,1000
78486093,1000,1000,1000,1000,132328714,1000,1000,1000,1000
78488592,1000,1000,1000,1000,132428674,1000,1000,1000,1000
78491091,1000,1000,1000,1000,132528634,1000,1000,1000,1000
78493590,1000,1000,1000,1000,132628594,1000,1000,1000,1000
78496089,1000,1000,1000,1000,132728554,1000,1000,1000,1000
78498588,1000,1000,1000,1000,132828514,1000,1000,1000,1000
78501087,1000,1000,1000,1000,132928474,1000,1000,1000,1000
78503586,1000,1000,1000,1000,133028434,1000,1000,1000,1000
78506085,1000,1000,1000,1000,133128394,1000,1000,1000,1000
78508584,1000,1000,1000,1000,133228354,1000,1000,1000,1000
78511083,1000,1000,1000,1000,133328314,1000,1000,1000,1000
78513582,1000,1000,1000,1000,133428274,1000,1000,1000,1000
78516081,1000,1000,1000,1000,133528234,1000,1000,1000,1000
78518580,1000,1000,1000,1000,133628194,1000,1000,1000,1000
78521079,1000,1000,1000,1000,133728154,1000,1000,1000,1000
78523578,1000,1000,1000,1000,133828947,1000,1000,1000,1000
78526077,1000,1000,1000,1000,133928907,1000,1000,1000,1000
78528576,1000,1000,1000,1000,134028867,1000,1000,1000,1000
78531075,1000,1000,1000,1000,134128827,1000,1000,1000,1000
78533574,1000,1000,1000,1000,134228787,1000,1000,1000,1000
78536073,1000,1000,1000,1000,134328747,1000,1000,1000,1000
78538572,1000,1000,1000,1000,134428707,1000,1000,1000,1000
78541071,1000,1000,1000,1000,134528667,1000,1000,1000,1000
78543570,1000,1000,1000,1000,134628627,1000,1000,1000,1000
78546069,1000,1000,1000,1000,134728587,1000,1000,1000,1000
78548568,1000,1000,1000,1000,134828547,1000,1000,1000,1000
78551067,1000,1000,1000,1000,134928507,1000,1000,1000,1000
78553566,1000,1000,1000,1000,135028467,1000,1000,1000,1000
78556065,1000,1000,1000,1000,135128427,1000,1000,1000,1000
78558564,1000,1000,1000,1000,135228387,1000,1000,1000,1000
78561063,1000,1000,1000,1000,135328347,1000,1000,1000,1000
78563562,1000,1000,1000,1000,135428307,1000,1000,1000,1000
78566061,1000,1000,1000,1000,135528267,1000,1000,1000,1000
78568560,1000,1000,1000,1000,135628227,1000,1000,1000,1000
78571059,1000,1000,1000,1000,135728187,1000,1000,1000,1000
78573558,1000,1000,1000,1000,135828980,1000,1000,1000,1000
78576057,1000,1000,1000,1000,135928940,1000,1000,1000,1000
78578556,1000,1000,1000,1000,136028900,1000,1000,1000,1000
78581055,1000,1000,1000,1000,136128860,1000,1000,1000,1000
78583554,1000,1000,1000,1000,136228820,1000,1000,1000,1000
78586053,1000,1000,1000,1000,136328780,1000,1000,1000,1000
78588552,1000,1000,1000,1000,136428740,1000,1000,1000,1000
78591051,1000,1000,1000,1000,136528700,1000,1000,1000,1000
78593550,1000,1000,1000,1000,136628660,1000,1000,1000,1000
78596049,1000,1000,1000,1000,136728620,1000,1000,1000,1000
78598548,1000,1000,1000,1000,136828580,1000,1000,1000,1000
78601047,1000,1000,1000,1000,136928540,1000,1000,1000,1000
78603546,1000,1000,1000,1000,137028500,1000,1000,1000,1000
78606045,1000,1000,1000,1000,137128460,1000,1000,1000,1000
78608544,1000,1000,1000,1000,137228420,1000,1000,1000,1000
78611043,1000,1000,1000,1000,137328380,1000,1000,1000,1000
78613542,1000,1000,1000,1000,137428340,1000,1000,1000,1000
78616041,1000,1000,1000,1000,137528300,1000,1000,1000,1000
78618540,1000,1000,1000,1000,137628260,1000,1000,1000,1000
78621039,1000,1000,1000,1000,137728220,1000,1000,1000,1000
78623538,1000,1000,1000,1000,137828180,1000,1000,1000,1000
78626037,1000,1000,1000,1000,137928973,1000,1000,1000,1000
78628536,1000,1000,1000,1000,138028933,1000,1000,1000,1000
78631035,1000,1000,1000,1000,138128893,1000,1000,1000,1000
78633534,1000,1000,1000,1000,138228853,1000,1000,1000,1000
78636033,1000,1000,1000,1000,138328813,1000,1000,1000,1000
78638532,1000,1000,1000,1000,138428773,1000,1000,1000,1000
78641031,1000,1000,1000,1000,138528733,1000,1000,1000,1000
78643530,1000,1000,1000,1000,138628693,1000,1000,1000,1000
78646029,1000,1000,1000,1000,138728653,1000,1000,1000,1000
78648528,1000,1000,1000,1000,138828613,1000,1000,1000,1000
78651027,1000,1000,1000,1000,138928573,1000,1000,1000,1000
78653526,1000,1000,1000,1000,139028533,1000,1000,1000,1000
78656025,1000,1000,1000,1000,139128493,1000,1000,1000,1000
78658524,1000,1000,1000,1000,139228453,1000,1000,1000,1000
78661023,1000,1000,1000,1000,139328413,1000,1000,1000,1000
78663522,1000,1000,1000,1000,139428373,1000,1000,1000,1000
78666021,1000,1000,1000,1000,139528333,1000,1000,1000,1000
78668520,1000,1000,1000,1000,139628293,1000,1000,1000,1000
78671019,1000,1000,1000,1000,139728253,1000,1000,1000,1000
78673518,1000,1000,1000,1000,139828213,1000,1000,1000,1000
78676017,1000,1000,1000,1000,139928173,1000,1000,1000,1000
78678516,1000,1000,1000,1000,140028966,1000,1000,1000,1000
78681015,1000,1000,1000,1000,140128926,1000,1000,1000,1000
78683514,1000,1000,1000,1000,140228886,1000,1000,1000,1000
78686013,1000,1000,1000,1000,140328846,1000,1000,1000,1000
78688512,1000,1000,1000,1000,140428806,1000,1000,1000,1000
78691011,1000,1000,1000,1000,140528766,1000,1000,1000,1000
78693510,1000,1000,1000,1000,140628726,1000,1000,1000,1000
78696009,1000,1000,1000,1000,140728686,1000,1000,1000,1000
78698508,1000,1000,1000,1000,140828646,1000,1000,1000,1000
78701007,1000,1000,1000,1000,140928606,1000,1000,1000,1000
78703506,1000,1000,1000,1000,141028566,1000,1000,1000,1000
78706005,1000,1000,1000,1000,141128526,1000,1000,1000,1000
78708504,1000,1000,1000,1000,141228486,1000,1000,1000,1000
78711003,1000,1000,1000,1000,141328446,1000,1000,1000,1000
78713502,1000,1000,1000,1000,141428406,1000,1000,1000,1000
78716001,1000,1000,1000,1000,141528366,1000,1000,1000,1000
78718500,1000,1000,1000,1000,141628326,1000,1000,1000,1000
78720999,1000,1000,1000,1000,141728286,1000,1000,1000,1000
78723498,1000,1000,1000,1000,141828246,1000,1000,1000,1000
78725997,1000,1000,1000,1000,141928206,1000,1000,1000,1000
78728496,1000,1000,1000,1000,142028166,1000,1000,1000,1000
78730995,1000,1000,1000,1000,142128959,1000,1000,1000,1000
78733494,1000,1000,1000,1000,142228919,1000,1000,1000,1000
78735993,1000,1000,1000,1000,142328879,1000,1000,1000,1000
78738492,1000,1000,1000,1000,142428839,1000,1000,1000,1000
78740991,1000,1000,1000,1000,142528799,1000,1000,1000,1000
78743490,1000,1000,1000,1000,142628759,1000,1000,1000,1000
78745989,1000,1000,1000,1000,142728719,1000,1000,1000,1000
78748488,1000,1000,1000,1000,142828679,1000,1000,1000,1000
78750987,1000,1000,1000,1000,142928639,1000,1000,1000,1000
78753486,1000,1000,1000,1000,143028599,1000,1000,1000,1000
78755985,1000,1000,1000,1000,143128559,1000,1000,1000,1000
78758484,1000,1000,1000,1000,143228519,1000,1000,1000,1000
78760983,1000,1000,1000,1000,143328479,1000,1000,1000,1000
78763482,1000,1000,1000,1000,143428439,1000,1000,1000,1000
78765981,1000,1000,1000,1000,143528399,1000,1000,1000,1000
78768480,1000,1000,1000,1000,143628359,1000,1000,1000,1000
78770979,1000,1000,1000,1000,143728319,1000,1000,1000,1000
78773478,1000,1000,1000,1000,143828279,1000,1000,1000,1000
78775977,1000,1000,1000,1000,143928239,1000,1000,1000,1000
78778476,1000,1000,1000,1000,144028199,1000,1000,1000,1000
78780975,1000,1000,1000,1000,144128159,1000,1000,1000,1000
78783474,1000,1000,1000,1000,144228952,1000,1000,1000,1000
78785973,1000,1000,1000,1000,144328912,1000,1000,1000,1000
78788472,1000,1000,1000,1000,144428872,1000,1000,1000,1000
78790971,1000,1000,1000,1000,,,,,
78793470,1000,1000,1000,1000,,,,,
78795969,1000,1000,1000,1000,,,,,
78798468,1000,1000,1000,1000,,,,,
78800967,1000,1000,1000,1000,,,,,
78803466,1000,1000,1000,1000,,,,,
78805965,1000,1000,1000,1000,,,,,
78808464,1000,1000,1000,1000,,,,,
78810963,1000,1000,1000,1000,,,,,
78813462,1000,1000,1000,1000,,,,,
78815961,1000,1000,1000,1000,,,,,
78818460,1000,1000,1000,1000,,,,,
78820959,1000,1000,1000,1000,,,,,
78823458,1000,1000,1000,1000,,,,,
78825957,1000,1000,1000,1000,,,,,
78828456,1000,1000,1000,1000,,,,,
78830955,1000,1000,1000,1000,,,,,
78833454,1000,1000,1000,1000,,,,,
78835953,1000,1000,1000,1000,,,,,
78838452,1000,1000,1000,1000,,,,,
78840951,1000,1000,1000,1000,,,,,
78843450,1000,1000,1000,1000,,,,,
78845949,1000,1000,1000,1000,,,,,
78848448,1000,1000,1000,1000,,,,,
78850947,1000,1000,1000,1000,,,,,
78853446,1000,1000,1000,1000,,,,,
78855945,1000,1000,1000,1000,,,,,
78858444,1000,1000,1000,1000,,,,,
78860943,1000,1000,1000,1000,,,,,
78863442,1000,1000,1000,1000,,,,,
78865941,1000,1000,1000,1000,,,,,
78868440,1000,1000,1000,1000,,,,,
78870939,1000,1000,1000,1000,,,,,
78873438,1000,1000,1000,1000,,,,,
78875937,1000,1000,1000,1000,,,,,
78878436,1000,1000,1000,1000,,,,,
78880935,1000,1000,1000,1000,,,,,
78883434,1000,1000,1000,1000,,,,,
78885933,1000,1000,1000,1000,,,,,
78888432,1000,1000,1000,1000,,,,,
78890931,1000,1000,1000,1000,,,,,
78893430,1000,1000,1000,1000,,,,,
78895929,1000,1000,1000,1000,,,,,
78898428,1000,1000,1000,1000,,,,,
78900927,1000,1000,1000,1000,,,,,
78903426,1000,1000,1000,1000,,,,,
78905925,1000,1000,1000,1000,,,,,
78908424,1000,1000,1000,1000,,,,,
78910923,1000,1000,1000,1000,,,,,
78913422,1000,1000,1000,1000,,,,,
78915921,1000,1000,1000,1000,,,,,
78918420,1000,1000,1000,1000,,,,,
78920919,1000,1000,1000,1000,,,,,
78923418,1000,1000,1000,1000,,,,,
78925917,1000,1000,1000,1000,,,,,
78928416,1000,1000,1000,1000,,,,,
78930915,1000,1000,1000,1000,,,,,
78933414,1000,1000,1000,1000,,,,,
78935913,1000,1000,1000,1000,,,,,
78938412,1000,1000,1000,1000,,,,,
78940911,1000,1000,1000,1000,,,,,
78943410,1000,1000,1000,1000,,,,,
78945909,1000,1000,1000,1000,,,,,
78948408,1000,1000,1000,1000,,,,,
78950907,1000,1000,1000,1000,,,,,
78953406,1000,1000,1000,1000,,,,,
78955905,1000,1000,1000,1000,,,,,
78958404,1000,1000,1000,1000,,,,,
78960903,1000,1000,1000,1000,,,,,
78963402,1000,1000,1000,1000,,,,,
78965901,1000,1000,1000,1000,,,,,
78968400,1000,1000,1000,1000,,,,,
78970899,1000,1000,1000,1000,,,,,
78973398,1000,1000,1000,1000,,,,,
78975897,1000,1000,1000,1000,,,,,
78978396,1000,1000,1000,1000,,,,,
78980895,1000,1000,1000,1000,,,,,
78983394,1000,1000,1000,1000,,,,,
78985893,1000,1000,1000,1000,,,,,
78988392,1000,1000,1000,1000,,,,,
78990891,1000,1000,1000,1000,,,,,
78993390,1000,1000,1000,1000,,,,,
78995889,1000,1000,1000,1000,,,,,
78998388,1000,1000,1000,1000,,,,,
79000887,1000,1000,1000,1000,,,,,
79003386,1000,1000,1000,1000,,,,,
79005885,1000,1000,1000,1000,,,,,
79008384,1000,1000,1000,1000,,,,,
79010883,1000,1000,1000,1000,,,,,
79013382,1000,1000,1000,1000,,,,,
79015881,1000,1000,1000,1000,,,,,
79018380,1000,1000,1000,1000,,,,,
79020879,1000,1000,1000,1000,,,,,
79023378,1000,1000,1000,1000,,,,,
79025877,1000,1000,1000,1000,,,,,
79028376,1000,1000,1000,1000,,,,,
79030875,1000,1000,1000,1000,,,,,
79033374,1000,1000,1000,1000,,,,,
79035873,1000,1000,1000,1000,,,,,
79038372,1000,1000,1000,1000,,,,,
79040871,1000,1000,1000,1000,,,,,
79043370,1000,1000,1000,1000,,,,,
79045869,1000,1000,1000,1000,,,,,
79048368,1000,1000,1000,1000,,,,,
79050867,1000,1000,1000,1000,,,,,
79053366,1000,1000,1000,1000,,,,,
79055865,1000,1000,1000,1000,,,,,
79058364,1000,1000,1000,1000,,,,,
79060863,1000,1000,1000,1000,,,,,
79063362,1000,1000,1000,1000,,,,,
79065861,1000,1000,1000,1000,,,,,
79068360,1000,1000,1000,1000,,,,,
79070859,1000,1000,1000,1000,,,,,
79073358,1000,1000,1000,1000,,,,,
79075857,1000,1000,1000,1000,,,,,
79078356,1000,1000,1000,1000,,,,,
79080855,1000,1000,1000,1000,,,,,
79083354,1000,1000,1000,1000,,,,,
79085853,1000,1000,1000,1000,,,,,
79088352,1000,1000,1000,1000,,,,,
79090851,1000,1000,1000,1000,,,,,
79093350,1000,1000,1000,1000,,,,,
79095849,1000,1000,1000,1000,,,,,
79098348,1000,1000,1000,1000,,,,,
79100847,1000,1000,1000,1000,,,,,
79103346,1000,1000,1000,1000,,,,,
79105845,1000,1000,1000,1000,,,,,
79108344,1000,1000,1000,1000,,,,,
79110843,1000,1000,1000,1000,,,,,
79113342,1001,1001,1001,1001,,,,,
79115841,1002,1002,1002,1002,,,,,
79118340,1003,1003,1003,1003,,,,,
79120839,1003,1003,1003,1003,,,,,
79123338,1004,1004,1004,1004,,,,,
79125837,1005,1005,1005,1005,,,,,
79128336,1006,1006,1006,1006,,,,,
79130835,1006,1006,1006,1006,,,,,
79133334,1007,1007,1007,1007,,,,,
79135833,1008,1008,1008,1008,,,,,
79138332,1009,1009,1009,1009,,,,,
79140831,1009,1009,1009,1009,,,,,
79143330,1010,1010,1010,1010,,,,,
79145829,1011,1011,1011,1011,,,,,
79148328,1012,1012,1012,1012,,,,,
79150827,1012,1012,1012,1012,,,,,
79153326,1013,1013,1013,1013,,,,,
79155825,1014,1014,1014,1014,,,,,
79158324,1015,1015,1015,1015,,,,,
79160823,1015,1015,1015,1015,,,,,
79163322,1016,1016,1016,1016,,,,,
79165821,1017,1017,1017,1017,,,,,
79168320,1018,1018,1018,1018,,,,,
79170819,1018,1018,1018,1018,,,,,
79173318,1019,1019,1019,1019,,,,,
79175817,1020,1020,1020,1020,,,,,
79178316,1021,1021,1021,1021,,,,,
79180815,1021,1021,1021,1021,,,,,
79183314,1022,1022,1022,1022,,,,,
79185813,1023,1023,1023,1023,,,,,
79188312,1024,1024,1024,1024,,,,,
79190811,1024,1024,1024,1024,,,,,
79193310,1025,1025,1025,1025,,,,,
79195809,1026,1026,1026,1026,,,,,
79198308,1027,1027,1027,1027,,,,,
79200807,1027,1027,1027,1027,,,,,
79203306,1028,1028,1028,1028,,,,,
79205805,1029,1029,1029,1029,,,,,
79208304,1030,1030,1030,1030,,,,,
79210803,1030,1030,1030,1030,,,,,
79213302,1031,1031,1031,1031,,,,,
79215801,1032,1032,1032,1032,,,,,
79218300,1033,1033,1033,1033,,,,,
79220799,1033,1033,1033,1033,,,,,
79223298,1034,1034,1034,1034,,,,,
79225797,1035,1035,1035,1035,,,,,
79228296,1036,1036,1036,1036,,,,,
79230795,1036,1036,1036,1036,,,,,
79233294,1037,1037,1037,1037,,,,,
79235793,1038,1038,1038,1038,,,,,
79238292,1039,1039,1039,1039,,,,,
79240791,1039,1039,1039,1039,,,,,
79243290,1040,1040,1040,1040,,,,,
79245789,1041,1041,1041,1041,,,,,
79248288,1042,1042,1042,1042,,,,,
79250787,1042,1042,1042,1042,,,,,
79253286,1043,1043,1043,1043,,,,,
79255785,1044,1044,1044,1044,,,,,
79258284,1045,1045,1045,1045,,,,,
79260783,1045,1045,1045,1045,,,,,
79263282,1046,1046,1046,1046,,,,,
79265781,1047,1047,1047,1047,,,,,
79268280,1048,1048,1048,1048,,,,,
79270779,1048,1048,1048,1048,,,,,
79273278,1049,1049,1049,1049,,,,,
79275777,1050,1050,1050,1050,,,,,
79278276,1051,1051,1051,1051,,,,,
79280775,1051,1051,1051,1051,,,,,
79283274,1052,1052,1052,1052,,,,,
79285773,1053,1053,1053,1053,,,,,
79288272,1054,1054,1054,1054,,,,,
79290771,1054,1054,1054,1054,,,,,
79293270,1055,1055,1055,1055,,,,,
79295769,1056,1056,1056,1056,,,,,
79298268,1057,1057,1057,1057,,,,,
79300767,1057,1057,1057,1057,,,,,
79303266,1058,1058,1058,1058,,,,,
79305765,1059,1059,1059,1059,,,,,
79308264,1060,1060,1060,1060,,,,,
79310763,1060,1060,1060,1060,,,,,
79313262,1061,1061,1061,1061,,,,,
79315761,1062,1062,1062,1062,,,,,
79318260,1063,1063,1063,1063,,,,,
79320759,1063,1063,1063,1063,,,,,
79323258,1064,1064,1064,1064,,,,,
79325757,1065,1065,1065,1065,,,,,
79328256,1066,1066,1066,1066,,,,,
79330755,1066,1066,1066,1066,,,,,
79333254,1067,1067,1067,1067,,,,,
79335753,1068,1068,1068,1068,,,,,
79338252,1069,1069,1069,1069,,,,,
79340751,1069,1069,1069,1069,,,,,
79343250,1070,1070,1070,1070,,,,,
79345749,1071,1071,1071,1071,,,,,
79348248,1072,1072,1072,1072,,,,,
79350747,1072,1072,1072,1072,,,,,
79353246,1073,1073,1073,1073,,,,,
79355745,1074,1074,1074,1074,,,,,
79358244,1075,1075,1075,1075,,,,,
79360743,1075,1075,1075,1075,,,,,
79363242,1076,1076,1076,1076,,,,,
79365741,1077,1077,1077,1077,,,,,
79368240,1078,1078,1078,1078,,,,,
79370739,1078,1078,1078,1078,,,,,
79373238,1079,1079,1079,1079,,,,,
79375737,1080,1080,1080,1080,,,,,
79378236,1081,1081,1081,1081,,,,,
79380735,1081,1081,1081,1081,,,,,
79383234,1082,1082,1082,1082,,,,,
79385733,1083,1083,1083,1083,,,,,
79388232,1084,1084,1084,1084,,,,,
79390731,1084,1084,1084,1084,,,,,
79393230,1085,1085,1085,1085,,,,,
79395729,1086,1086,1086,1086,,,,,
79398228,1087,1087,1087,1087,,,,,
79400727,1087,1087,1087,1087,,,,,
79403226,1088,1088,1088,1088,,,,,
79405725,1089,1089,1089,1089,,,,,
79408224,1090,1090,1090,1090,,,,,
79410723,1090,1090,1090,1090,,,,,
79413222,1091,1091,1091,1091,,,,,
79415721,1092,1092,1092,1092,,,,,
79418220,1093,1093,1093,1093,,,,,
79420719,1093,1093,1093,1093,,,,,
79423218,1094,1094,1094,1094,,,,,
79425717,1095,1095,1095,1095,,,,,
79428216,1096,1096,1096,1096,,,,,
79430715,1096,1096,1096,1096,,,,,
79433214,1097,1097,1097,1097,,,,,
79435713,1098,1098,1098,1098,,,,,
79438212,1099,1099,1099,1099,,,,,
79440711,1099,1099,1099,1099,,,,,
79443210,1100,1100,1100,1100,,,,,
79445709,1101,1101,1101,1101,,,,,
79448208,1101,1101,1101,1101,,,,,
79450707,1102,1102,1102,1102,,,,,
79453206,1103,1103,1103,1103,,,,,
79455705,1104,1104,1104,1104,,,,,
79458204,1104,1104,1104,1104,,,,,
79460703,1105,1105,1105,1105,,,,,
79463202,1106,1106,1106,1106,,,,,
79465701,1107,1107,1107,1107,,,,,
79468200,1107,1107,1107,1107,,,,,
79470699,1108,1108,1108,1108,,,,,
79473198,1109,1109,1109,1109,,,,,
79475697,1110,1110,1110,1110,,,,,
79478196,1110,1110,1110,1110,,,,,
79480695,1111,1111,1111,1111,,,,,
79483194,1112,1112,1112,1112,,,,,
79485693,1113,1113,1113,1113,,,,,
79488192,1113,1113,1113,1113,,,,,
79490691,1114,1114,1114,1114,,,,,
79493190,1115,1115,1115,1115,,,,,
79495689,1116,1116,1116,1116,,,,,
79498188,1116,1116,1116,1116,,,,,
79500687,1117,1117,1117,1117,,,,,
79503186,1118,1118,1118,1118,,,,,
79505685,1119,1119,1119,1119,,,,,
79508184,1119,1119,1119,1119,,,,,
79510683,1120,1120,1120,1120,,,,,
79513182,1121,1121,1121,1121,,,,,
79515681,1122,1122,1122,1122,,,,,
79518180,1122,1122,1122,1122,,,,,
79520679,1123,1123,1123,1123,,,,,
79523178,1124,1124,1124,1124,,,,,
79525677,1125,1125,1125,1125,,,,,
79528176,1125,1125,1125,1125,,,,,
79530675,1126,1126,1126,1126,,,,,
79533174,1127,1127,1127,1127,,,,,
79535673,1128,1128,1128,1128,,,,,
79538172,1128,1128,1128,1128,,,,,
79540671,1129,1129,1129,1129,,,,,
79543170,1130,1130,1130,1130,,,,,
79545669,1131,1131,1131,1131,,,,,
79548168,1131,1131,1131,1131,,,,,
79550667,1132,1132,1132,1132,,,,,
79553166,1133,1133,1133,1133,,,,,
79555665,1134,1134,1134,1134,,,,,
79558164,1134,1134,1134,1134,,,,,
79560663,1135,1135,1135,1135,,,,,
79563162,1136,1136,1136,1136,,,,,
79565661,1137,1137,1137,1137,,,,,
79568160,1137,1137,1137,1137,,,,,
79570659,1138,1138,1138,1138,,,,,
79573158,1139,1139,1139,1139,,,,,
79575657,1140,1140,1140,1140,,,,,
79578156,1140,1140,1140,1140,,,,,
79580655,1141,1141,1141,1141,,,,,
79583154,1142,1142,1142,1142,,,,,
79586486,1143,1143,1143,1143,,,,,
79588985,1143,1143,1143,1143,,,,,
79591484,1144,1144,1144,1144,,,,,
79593983,1145,1145,1145,1145,,,,,
79596482,1146,1146,1146,1146,,,,,
79598981,1146,1146,1146,1146,,,,,
79601480,1147,1147,1147,1147,,,,,
79603979,1148,1148,1148,1148,,,,,
79606478,1149,1149,1149,1149,,,,,
79608977,1149,1149,1149,1149,,,,,
79611476,1150,1150,1150,1150,,,,,
79613975,1163,1152,1152,1164,,,,,
79616474,1171,1160,1160,1172,,,,,
79618973,1179,1168,1168,1180,,,,,
79621472,1187,1176,1176,1187,,,,,
79623971,1194,1183,1184,1195,,,,,
79626470,1202,1191,1191,1202,,,,,
79628969,1209,1198,1199,1209,,,,,
79631468,1216,1206,1206,1217,,,,,
79633967,1223,1213,1213,1224,,,,,
79636466,1230,1220,1220,1231,,,,,
79638965,1237,1227,1227,1238,,,,,
79641464,1244,1234,1234,1244,,,,,
79643963,1250,1241,1241,1251,,,,,
79646462,1257,1247,1248,1258,,,,,
79648961,1264,1254,1254,1264,,,,,
79651460,1270,1260,1261,1270,,,,,
79653959,1276,1267,1267,1277,,,,,
79656458,1283,1273,1274,1283,,,,,
79658957,1289,1280,1280,1289,,,,,
79661456,1295,1286,1286,1295,,,,,
79663955,1301,1292,1292,1302,,,,,
79666454,1307,1298,1298,1308,,,,,
79668953,1313,1304,1304,1313,,,,,
79671452,1319,1310,1310,1319,,,,,
79673951,1325,1316,1316,1325,,,,,
79676450,1330,1322,1322,1331,,,,,
79678949,1336,1327,1328,1337,,,,,
79681448,1342,1333,1333,1342,,,,,
79683947,1347,1339,1339,1348,,,,,
79686446,1353,1344,1345,1353,,,,,
79688945,1358,1350,1350,1359,,,,,
79691444,1364,1355,1356,1364,,,,,
79693943,1369,1361,1361,1370,,,,,
79696442,1375,1366,1367,1375,,,,,
79698941,1380,1371,1372,1380,,,,,
79701440,1385,1377,1377,1386,,,,,
79703939,1390,1382,1382,1391,,,,,
79706438,1396,1387,1388,1396,,,,,
79708937,1401,1392,1393,1401,,,,,
79711436,1406,1397,1398,1406,,,,,
79713935,1411,1402,1403,1411,,,,,
79716434,1416,1408,1408,1416,,,,,
79718933,1421,1413,1413,1421,,,,,
79721432,1426,1417,1418,1426,,,,,
79723931,1431,1422,1423,1431,,,,,
79726430,1436,1427,1428,1436,,,,,
79728929,1440,1432,1433,1441,,,,,
79731428,1445,1437,1438,1446,,,,,
79733927,1450,1442,1442,1450,,,,,
79736426,1455,1447,1447,1455,,,,,
79738925,1459,1451,1452,1460,,,,,
79741424,1464,1456,1456,1464,,,,,
79743923,1469,1461,1461,1469,,,,,
79746422,1473,1465,1466,1474,,,,,
79748921,1478,1470,1470,1478,,,,,
79751420,1482,1475,1475,1483,,,,,
79753919,1487,1479,1479,1487,,,,,
79756418,1491,1484,1484,1492,,,,,
79758917,1496,1488,1488,1496,,,,,
79761416,1500,1493,1493,1501,,,,,
79763915,1505,1497,1497,1505,,,,,
79766414,1509,1502,1502,1510,,,,,
79768913,1513,1506,1506,1514,,,,,
79771412,1518,1510,1511,1518,,,,,
79773911,1522,1515,1515,1523,,,,,
79776410,1526,1519,1519,1527,,,,,
79778909,1531,1524,1524,1531,,,,,
79781408,1535,1528,1528,1535,,,,,
79783907,1539,1532,1532,1540,,,,,
79786406,1543,1536,1536,1544,,,,,
79788905,1547,1541,1540,1548,,,,,
79791404,1551,1545,1545,1552,,,,,
79793903,1556,1549,1549,1556,,,,,
79796402,1560,1553,1553,1560,,,,,
79798901,1564,1557,1557,1564,,,,,
79801400,1568,1561,1561,1569,,,,,
79803899,1572,1565,1565,1573,,,,,
79806398,1576,1569,1569,1577,,,,,
79808897,1580,1573,1573,1581,,,,,
79811396,1584,1577,1577,1585,,,,,
79813895,1588,1581,1581,1589,,,,,
79816394,1592,1585,1585,1592,,,,,
79818893,1596,1589,1589,1596,,,,,
79821392,1600,1593,1593,1600,,,,,
79823891,1604,1597,1597,1604,,,,,
79826390,1607,1601,1601,1608,,,,,
79828889,1611,1605,1605,1612,,,,,
79831388,1615,1609,1609,1616,,,,,
79833887,1619,1613,1613,1620,,,,,
79836386,1623,1617,1617,1623,,,,,
79838885,1627,1620,1620,1627,,,,,
79841384,1630,1624,1624,1631,,,,,
79843883,1634,1628,1628,1635,,,,,
79846382,1638,1632,1632,1639,,,,,
79848881,1642,1635,1635,1642,,,,,
79851380,1645,1639,1639,1646,,,,,
79853879,1649,1643,1643,1650,,,,,
79856378,1653,1647,1647,1653,,,,,
79858877,1657,1650,1650,1657,,,,,
79861376,1660,1654,1654,1661,,,,,
79863875,1664,1657,1658,1664,,,,,
79866374,1667,1661,1661,1668,,,,,
79868873,1671,1665,1665,1672,,,,,
79871372,1675,1668,1668,1675,,,,,
79873871,1678,1672,1672,1679,,,,,
79876370,1682,1675,1676,1682,,,,,
79878869,1686,1679,1679,1686,,,,,
79881368,1689,1683,1683,1690,,,,,
79883867,1693,1686,1686,1693,,,,,
79886366,1696,1690,1690,1697,,,,,
79888865,1700,1693,1693,1700,,,,,
79891364,1703,1697,1697,1704,,,,,
79893863,1707,1700,1700,1707,,,,,
79896362,1710,1703,1704,1711,,,,,
79898861,1714,1707,1707,1714,,,,,
79901360,1717,1710,1711,1718,,,,,
79903859,1721,1714,1714,1721,,,,,
79906358,1724,1717,1717,1724,,,,,
79908857,1728,1721,1721,1728,,,,,
79911356,1731,1724,1724,1731,,,,,
79913855,1734,1727,1728,1735,,,,,
79916354,1738,1731,1731,1738,,,,,
79918853,1741,1734,1734,1741,,,,,
79921352,1744,1737,1738,1745,,,,,
79923851,1748,1741,1741,1748,,,,,
79926350,1751,1744,1744,1751,,,,,
79928849,1754,1747,1748,1755,,,,,
79931348,1758,1751,1751,1758,,,,,
79933847,1761,1754,1754,1761,,,,,
79936346,1764,1757,1758,1764,,,,,
79938845,1768,1761,1761,1768,,,,,
79941344,1771,1764,1764,1771,,,,,
79943843,1774,1767,1768,1774,,,,,
79946342,1777,1770,1771,1777,,,,,
79948841,1781,1774,1774,1781,,,,,
79951340,1784,1777,1777,1784,,,,,
79953839,1787,1780,1781,1787,,,,,
79956338,1790,1783,1784,1790,,,,,
79958837,1793,1787,1787,1793,,,,,
79961336,1797,1790,1790,1797,,,,,
79963835,1800,1793,1793,1800,,,,,
79966334,1803,1796,1796,1803,,,,,
79968833,1806,1799,1800,1806,,,,,
79971332,1809,1802,1803,1809,,,,,
79973831,1812,1806,1806,1812,,,,,
79976330,1815,1809,1809,1816,,,,,
79978829,1818,1812,1812,1819,,,,,
79981328,1822,1815,1815,1822,,,,,
79983827,1825,1818,1818,1825,,,,,
79986326,1828,1821,1821,1828,,,,,
79988825,1831,1824,1825,1831,,,,,
79991324,1834,1827,1828,1834,,,,,
79993823,1837,1831,1831,1837,,,,,
79996322,1840,1834,1834,1840,,,,,
79998821,1843,1837,1837,1843,,,,,
80001320,1846,1840,1840,1846,,,,,
80003819,1849,1843,1843,1849,,,,,
80006318,1852,1846,1846,1852,,,,,
80008817,1855,1849,1849,1855,,,,,
80011316,1858,1852,1852,1858,,,,,
80013815,1857,1852,1851,1858,,,,,
80016314,1856,1850,1850,1857,,,,,
80018813,1855,1849,1849,1856,,,,,
80021312,1854,1848,1848,1854,,,,,
80023811,1853,1847,1846,1853,,,,,
80026310,1851,1845,1845,1852,,,,,
80028809,1850,1844,1844,1851,,,,,
80031308,1849,1843,1843,1850,,,,,
80033807,1848,1842,1842,1849,,,,,
80036306,1847,1841,1841,1848,,,,,
80038805,1846,1840,1840,1847,,,,,
80041304,1846,1840,1839,1846,,,,,
80043803,1845,1839,1839,1846,,,,,
80046302,1844,1838,1838,1845,,,,,
80048801,1844,1838,1838,1845,,,,,
80051300,1844,1837,1837,1844,,,,,
80053799,1843,1837,1837,1844,,,,,
80056298,1843,1837,1837,1844,,,,,
80058797,1843,1837,1837,1844,,,,,
80061296,1843,1837,1837,1844,,,,,
80063795,1843,1837,1837,1844,,,,,
80066294,1843,1837,1837,1844,,,,,
80068793,1843,1837,1837,1844,,,,,
80071292,1843,1837,1837,1844,,,,,
80073791,1844,1837,1837,1844,,,,,
80076290,1844,1837,1837,1845,,,,,
80078789,1844,1838,1838,1845,,,,,
80081288,1845,1838,1838,1845,,,,,
80083787,1845,1838,1838,1846,,,,,
80086286,1846,1839,1839,1846,,,,,
80088785,1846,1839,1839,1847,,,,,
80091284,1847,1840,1840,1847,,,,,
80093783,1847,1840,1840,1848,,,,,
80096282,1848,1841,1841,1849,,,,,
80098781,1849,1842,1842,1849,,,,,
80101280,1850,1842,1843,1850,,,,,
80103779,1850,1843,1843,1851,,,,,
80106278,1851,1844,1844,1852,,,,,
80108777,1852,1845,1845,1853,,,,,
80111276,1853,1846,1846,1854,,,,,
80113775,1854,1847,1847,1855,,,,,
80116274,1855,1848,1848,1856,,,,,
80118773,1856,1849,1849,1857,,,,,
80121272,1857,1850,1850,1857,,,,,
80123771,1858,1851,1851,1858,,,,,
80126270,1858,1852,1852,1859,,,,,
80128769,1859,1853,1853,1859,,,,,
80131268,1859,1854,1854,1860,,,,,
80133767,1859,1854,1854,1860,,,,,
80136266,1860,1854,1855,1860,,,,,
80138765,1859,1855,1855,1860,,,,,
80141264,1859,1855,1855,1860,,,,,
80143763,1859,1854,1855,1859,,,,,
80146262,1858,1854,1854,1859,,,,,
80148761,1858,1853,1854,1858,,,,,
80151260,1857,1852,1853,1857,,,,,
80153759,1855,1851,1852,1856,,,,,
80156258,1854,1850,1850,1855,,,,,
80158757,1853,1849,1849,1853,,,,,
80161256,1851,1847,1847,1851,,,,,
80163755,1849,1846,1846,1850,,,,,
80166254,1847,1844,1844,1848,,,,,
80168753,1845,1842,1842,1846,,,,,
80171252,1843,1840,1840,1843,,,,,
80173751,1841,1837,1838,1841,,,,,
80176250,1838,1835,1835,1839,,,,,
80178749,1836,1833,1833,1836,,,,,
80181248,1833,1830,1830,1833,,,,,
80183747,1830,1827,1828,1831,,,,,
80186246,1827,1825,1825,1828,,,,,
80188745,1825,1822,1822,1825,,,,,
80191244,1822,1819,1819,1822,,,,,
80193743,1819,1816,1816,1819,,,,,
80196242,1815,1813,1813,1816,,,,,
80198741,1812,1810,1810,1813,,,,,
80201240,1809,1807,1807,1810,,,,,
80203739,1806,1804,1804,1806,,,,,
80206238,1803,1800,1801,1803,,,,,
80208737,1799,1797,1798,1800,,,,,
80211236,1796,1794,1794,1796,,,,,
80213735,1793,1791,1791,1793,,,,,
80216234,1789,1787,1788,1789,,,,,
80218733,1786,1784,1784,1786,,,,,
80221232,1782,1781,1781,1783,,,,,
80223731,1779,1777,1778,1779,,,,,
80226230,1775,1774,1774,1776,,,,,
80228729,1772,1770,1771,1772,,,,,
80231228,1769,1767,1767,1769,,,,,
80233727,1765,1764,1764,1765,,,,,
80236226,1762,1760,1761,1762,,,,,
80238725,1758,1757,1758,1758,,,,,
80241224,1755,1754,1754,1755,,,,,
80243723,1752,1750,1751,1752,,,,,
80246222,1748,1747,1747,1748,,,,,
80248721,1745,1744,1744,1745,,,,,
80251220,1741,1740,1741,1741,,,,,
80253719,1738,1737,1737,1738,,,,,
80256218,1734,1733,1734,1734,,,,,
80258717,1731,1730,1731,1731,,,,,
80261216,1728,1727,1727,1727,,,,,
80263715,1724,1723,1724,1724,,,,,
80266214,1721,1720,1721,1721,,,,,
80268713,1718,1717,1718,1717,,,,,
80271212,1714,1714,1714,1714,,,,,
80273711,1711,1710,1711,1711,,,,,
80276210,1708,1707,1708,1708,,,,,
80278709,1705,1704,1705,1705,,,,,
80281208,1702,1701,1702,1701,,,,,
80283707,1699,1698,1699,1698,,,,,
80286206,1696,1695,1696,1695,,,,,
80288705,1693,1692,1693,1693,,,,,
