timestamp,TimeUS,C1,C2,C3,C4,C5,C6,C7,C8,C9,C10,C11,C12,C13,C14
1681183661.50003982,56528213,1000,1000,1000,1000,0,0,0,0,0,0,0,0,0,0
1681183661.59999990,56628173,1000,1000,1000,1000,0,0,0,0,0,0,0,0,0,0
1681183661.70079279,56728966,1000,1000,1000,1000,0,0,0,0,0,0,0,0,0,0
1681183661.80075288,56828926,1000,1000,1000,1000,0,0,0,0,0,0,0,0,0,0
1681183661.90071273,56928886,1000,1000,1000,1000,0,0,0,0,0,0,0,0,0,0
1681183662.00067282,57028846,1000,1000,1000,1000,0,0,0,0,0,0,0,0,0,0
1681183662.10063291,57128806,1000,1000,1000,1000,0,0,0,0,0,0,0,0,0,0
1681183662.20059276,57228766,1000,1000,1000,1000,0,0,0,0,0,0,0,0,0,0
1681183662.30055285,57328726,1000,1000,1000,1000,0,0,0,0,0,0,0,0,0,0
1681183662.40051270,57428686,1000,1000,1000,1000,0,0,0,0,0,0,0,0,0,0
1681183662.50047278,57528646,1000,1000,1000,1000,0,0,0,0,0,0,0,0,0,0
1681183662.60043287,57628606,1000,1000,1000,1000,0,0,0,0,0,0,0,0,0,0
1681183662.70039272,57728566,1000,1000,1000,1000,0,0,0,0,0,0,0,0,0,0
1681183662.80035281,57828526,1000,1000,1000,1000,0,0,0,0,0,0,0,0,0,0
1681183662.90031290,57928486,1000,1000,1000,1000,0,0,0,0,0,0,0,0,0,0
1681183663.00027275,58028446,1000,1000,1000,1000,0,0,0,0,0,0,0,0,0,0
1681183663.10023284,58128406,1000,1000,1000,1000,0,0,0,0,0,0,0,0,0,0
1681183663.20019269,58228366,1000,1000,1000,1000,0,0,0,0,0,0,0,0,0,0
1681183663.30015278,58328326,1000,1000,1000,1000,0,0,0,0,0,0,0,0,0,0
1681183663.40011287,58428286,1000,1000,1000,1000,0,0,0,0,0,0,0,0,0,0
1681183663.50007272,58528246,1014,1014,1014,1014,0,0,0,0,0,0,0,0,0,0
1681183663.60003281,58628206,1044,1044,1044,1044,0,0,0,0,0,0,0,0,0,0
1681183663.69999290,58728166,1074,1074,1074,1074,0,0,0,0,0,0,0,0,0,0
1681183663.80078578,58828959,1104,1104,1104,1104,0,0,0,0,0,0,0,0,0,0
1681183663.90074587,58928919,1134,1134,1134,1134,0,0,0,0,0,0,0,0,0,0
1681183664.00070572,59028879,1281,1274,1275,1282,0,0,0,0,0,0,0,0,0,0
1681183664.10066581,59128839,1490,1485,1485,1491,0,0,0,0,0,0,0,0,0,0
1681183664.20062590,59228799,1652,1647,1648,1652,0,0,0,0,0,0,0,0,0,0
1681183664.30058575,59328759,1789,1784,1785,1789,0,0,0,0,0,0,0,0,0,0
1681183664.40054584,59428719,1881,1875,1876,1880,0,0,0,0,0,0,0,0,0,0
1681183664.50050569,59528679,1868,1865,1865,1868,0,0,0,0,0,0,0,0,0,0
1681183664.60046577,59628639,1744,1744,1744,1745,0,0,0,0,0,0,0,0,0,0
1681183664.70042586,59728599,1648,1649,1649,1648,0,0,0,0,0,0,0,0,0,0
1681183664.80038571,59828559,1620,1622,1622,1620,0,0,0,0,0,0,0,0,0,0
1681183664.90034580,59928519,1629,1630,1631,1628,0,0,0,0,0,0,0,0,0,0
1681183665.00030589,60028479,1639,1640,1641,1638,0,0,0,0,0,0,0,0,0,0
1681183665.10026574,60128439,1638,1639,1639,1638,0,0,0,0,0,0,0,0,0,0
1681183665.20022583,60228399,1632,1631,1631,1632,0,0,0,0,0,0,0,0,0,0
1681183665.30018568,60328359,1625,1623,1623,1624,0,0,0,0,0,0,0,0,0,0
1681183665.40014577,60428319,1603,1602,1594,1611,0,0,0,0,0,0,0,0,0,0
1681183665.50010586,60528279,1597,1596,1587,1605,0,0,0,0,0,0,0,0,0,0
1681183665.60006571,60628239,1596,1595,1591,1599,0,0,0,0,0,0,0,0,0,0
1681183665.70002580,60728199,1598,1598,1598,1597,0,0,0,0,0,0,0,0,0,0
1681183665.79998589,60828159,1603,1603,1606,1599,0,0,0,0,0,0,0,0,0,0
1681183665.90077877,60928952,1595,1595,1603,1587,0,0,0,0,0,0,0,0,0,0
1681183666.00073886,61028912,1574,1575,1594,1555,0,0,0,0,0,0,0,0,0,0
1681183666.10069871,61128872,1564,1565,1578,1552,0,0,0,0,0,0,0,0,0,0
1681183666.20065880,61228832,1554,1555,1554,1556,0,0,0,0,0,0,0,0,0,0
1681183666.30061889,61328792,1545,1545,1535,1556,0,0,0,0,0,0,0,0,0,0
1681183666.40057874,61428752,1538,1537,1525,1551,0,0,0,0,0,0,0,0,0,0
1681183666.50053883,61528712,1532,1531,1521,1542,0,0,0,0,0,0,0,0,0,0
1681183666.60049868,61628672,1528,1528,1523,1533,0,0,0,0,0,0,0,0,0,0
1681183666.70045877,61728632,1528,1528,1527,1528,0,0,0,0,0,0,0,0,0,0
1681183666.80041885,61828592,1530,1531,1532,1528,0,0,0,0,0,0,0,0,0,0
1681183666.90037870,61928552,1533,1533,1536,1529,0,0,0,0,0,0,0,0,0,0
1681183667.00033879,62028512,1536,1537,1541,1532,0,0,0,0,0,0,0,0,0,0
1681183667.10029888,62128472,1540,1540,1543,1537,0,0,0,0,0,0,0,0,0,0
1681183667.20025873,62228432,1543,1543,1545,1541,0,0,0,0,0,0,0,0,0,0
1681183667.30021882,62328392,1547,1547,1547,1546,0,0,0,0,0,0,0,0,0,0
1681183667.40017891,62428352,1548,1548,1548,1549,0,0,0,0,0,0,0,0,0,0
1681183667.50013876,62528312,1552,1552,1550,1554,0,0,0,0,0,0,0,0,0,0
1681183667.60009885,62628272,1551,1550,1555,1559,0,0,0,0,0,0,0,0,0,0
1681183667.70005870,62728232,1551,1552,1560,1563,0,0,0,0,0,0,0,0,0,0
1681183667.80001879,62828192,1554,1555,1562,1563,0,0,0,0,0,0,0,0,0,0
1681183667.90081191,62928985,1558,1558,1563,1564,0,0,0,0,0,0,0,0,0,0
1681183668.00077176,63028945,1562,1562,1565,1563,0,0,0,0,0,0,0,0,0,0
1681183668.10073185,63128905,1565,1565,1565,1564,0,0,0,0,0,0,0,0,0,0
1681183668.20069170,63228865,1568,1568,1566,1565,0,0,0,0,0,0,0,0,0,0
1681183668.30065179,63328825,1570,1570,1565,1566,0,0,0,0,0,0,0,0,0,0
1681183668.40061188,63428785,1571,1571,1565,1566,0,0,0,0,0,0,0,0,0,0
1681183668.50057173,63528745,1573,1572,1566,1567,0,0,0,0,0,0,0,0,0,0
1681183668.60053182,63628705,1573,1573,1567,1568,0,0,0,0,0,0,0,0,0,0
1681183668.70049191,63728665,1573,1573,1568,1569,0,0,0,0,0,0,0,0,0,0
1681183668.80045176,63828625,1573,1573,1570,1570,0,0,0,0,0,0,0,0,0,0
1681183668.90041184,63928585,1573,1573,1572,1572,0,0,0,0,0,0,0,0,0,0
1681183669.00037169,64028545,1573,1574,1574,1573,0,0,0,0,0,0,0,0,0,0
1681183669.10033178,64128505,1573,1573,1575,1573,0,0,0,0,0,0,0,0,0,0
1681183669.20029187,64228465,1574,1574,1576,1575,0,0,0,0,0,0,0,0,0,0
1681183669.30025172,64328425,1574,1574,1577,1576,0,0,0,0,0,0,0,0,0,0
1681183669.40021181,64428385,1575,1575,1577,1576,0,0,0,0,0,0,0,0,0,0
1681183669.50017190,64528345,1575,1575,1577,1577,0,0,0,0,0,0,0,0,0,0
1681183669.60013175,64628305,1575,1575,1576,1576,0,0,0,0,0,0,0,0,0,0
1681183669.70009184,64728265,1576,1575,1576,1577,0,0,0,0,0,0,0,0,0,0
1681183669.80005169,64828225,1576,1576,1577,1577,0,0,0,0,0,0,0,0,0,0
1681183669.90001178,64928185,1577,1576,1577,1577,0,0,0,0,0,0,0,0,0,0
1681183670.00080490,65028978,1577,1577,1576,1576,0,0,0,0,0,0,0,0,0,0
1681183670.10076475,65128938,1576,1577,1576,1576,0,0,0,0,0,0,0,0,0,0
1681183670.20072484,65228898,1578,1578,1577,1577,0,0,0,0,0,0,0,0,0,0
1681183670.30068469,65328858,1577,1578,1577,1576,0,0,0,0,0,0,0,0,0,0
1681183670.40064478,65428818,1578,1578,1578,1577,0,0,0,0,0,0,0,0,0,0
1681183670.50060487,65528778,1578,1578,1578,1578,0,0,0,0,0,0,0,0,0,0
1681183670.60056472,65628738,1578,1578,1577,1578,0,0,0,0,0,0,0,0,0,0
1681183670.70052481,65728698,1578,1578,1577,1577,0,0,0,0,0,0,0,0,0,0
1681183670.80048490,65828658,1578,1578,1578,1578,0,0,0,0,0,0,0,0,0,0
1681183670.90044475,65928618,1578,1578,1578,1578,0,0,0,0,0,0,0,0,0,0
1681183671.00040483,66028578,1578,1579,1579,1579,0,0,0,0,0,0,0,0,0,0
1681183671.10036469,66128538,1579,1579,1579,1579,0,0,0,0,0,0,0,0,0,0
1681183671.20032477,66228498,1579,1579,1579,1579,0,0,0,0,0,0,0,0,0,0
1681183671.30028486,66328458,1578,1578,1579,1579,0,0,0,0,0,0,0,0,0,0
1681183671.40024471,66428418,1579,1579,1579,1579,0,0,0,0,0,0,0,0,0,0
1681183671.50020480,66528378,1578,1578,1579,1579,0,0,0,0,0,0,0,0,0,0
1681183671.60016489,66628338,1579,1579,1579,1580,0,0,0,0,0,0,0,0,0,0
1681183671.70012474,66728298,1579,1579,1579,1578,0,0,0,0,0,0,0,0,0,0
1681183671.80008483,66828258,1580,1580,1580,1580,0,0,0,0,0,0,0,0,0,0
1681183671.90004468,66928218,1579,1579,1579,1579,0,0,0,0,0,0,0,0,0,0
1681183672.00000477,67028178,1579,1579,1579,1579,0,0,0,0,0,0,0,0,0,0
1681183672.10079789,67128971,1579,1579,1579,1579,0,0,0,0,0,0,0,0,0,0
1681183672.20075774,67228931,1580,1579,1579,1579,0,0,0,0,0,0,0,0,0,0
1681183672.30071783,67328891,1580,1580,1580,1580,0,0,0,0,0,0,0,0,0,0
1681183672.40067768,67428851,1579,1579,1579,1579,0,0,0,0,0,0,0,0,0,0
1681183672.50063777,67528811,1580,1580,1580,1580,0,0,0,0,0,0,0,0,0,0
1681183672.60059786,67628771,1580,1580,1580,1581,0,0,0,0,0,0,0,0,0,0
1681183672.70055771,67728731,1580,1580,1580,1580,0,0,0,0,0,0,0,0,0,0
1681183672.80051780,67828691,1580,1581,1581,1581,0,0,0,0,0,0,0,0,0,0
1681183672.90047789,67928651,1580,1580,1580,1581,0,0,0,0,0,0,0,0,0,0
1681183673.00043774,68028611,1580,1580,1580,1580,0,0,0,0,0,0,0,0,0,0
1681183673.10039783,68128571,1580,1580,1580,1580,0,0,0,0,0,0,0,0,0,0
1681183673.20035768,68228531,1580,1580,1580,1580,0,0,0,0,0,0,0,0,0,0
1681183673.30031776,68328491,1581,1580,1581,1581,0,0,0,0,0,0,0,0,0,0
1681183673.40027785,68428451,1580,1580,1580,1580,0,0,0,0,0,0,0,0,0,0
1681183673.50023770,68528411,1581,1581,1581,1581,0,0,0,0,0,0,0,0,0,0
1681183673.60019779,68628371,1581,1581,1581,1581,0,0,0,0,0,0,0,0,0,0
1681183673.70015788,68728331,1581,1581,1581,1581,0,0,0,0,0,0,0,0,0,0
1681183673.80011773,68828291,1581,1581,1583,1579,0,0,0,0,0,0,0,0,0,0
1681183673.90007782,68928251,1581,1582,1588,1573,0,0,0,0,0,0,0,0,0,0
1681183674.00003791,69028211,1579,1582,1582,1572,0,0,0,0,0,0,0,0,0,0
1681183674.09999776,69128171,1578,1581,1574,1573,0,0,0,0,0,0,0,0,0,0
1681183674.20079088,69228964,1577,1579,1565,1571,0,0,0,0,0,0,0,0,0,0
1681183674.30075073,69328924,1576,1578,1559,1566,0,0,0,0,0,0,0,0,0,0
1681183674.40071082,69428884,1578,1578,1556,1562,0,0,0,0,0,0,0,0,0,0
1681183674.50067091,69528844,1579,1578,1555,1558,0,0,0,0,0,0,0,0,0,0
1681183674.60063076,69628804,1579,1577,1555,1555,0,0,0,0,0,0,0,0,0,0
1681183674.70059085,69728764,1579,1578,1557,1554,0,0,0,0,0,0,0,0,0,0
1681183674.80055070,69828724,1578,1578,1557,1554,0,0,0,0,0,0,0,0,0,0
1681183674.90051079,69928684,1577,1578,1557,1555,0,0,0,0,0,0,0,0,0,0
1681183675.00047088,70028644,1575,1577,1555,1554,0,0,0,0,0,0,0,0,0,0
1681183675.10043073,70128604,1575,1576,1554,1555,0,0,0,0,0,0,0,0,0,0
1681183675.20039082,70228564,1575,1576,1553,1553,0,0,0,0,0,0,0,0,0,0
1681183675.30035090,70328524,1576,1577,1551,1552,0,0,0,0,0,0,0,0,0,0
1681183675.40031075,70428484,1577,1578,1550,1550,0,0,0,0,0,0,0,0,0,0
1681183675.50027084,70528444,1579,1580,1547,1547,0,0,0,0,0,0,0,0,0,0
1681183675.60023069,70628404,1581,1583,1545,1544,0,0,0,0,0,0,0,0,0,0
1681183675.70019078,70728364,1584,1585,1542,1541,0,0,0,0,0,0,0,0,0,0
1681183675.80015087,70828324,1587,1588,1539,1539,0,0,0,0,0,0,0,0,0,0
1681183675.90011072,70928284,1590,1590,1536,1536,0,0,0,0,0,0,0,0,0,0
1681183676.00007081,71028244,1593,1593,1534,1535,0,0,0,0,0,0,0,0,0,0
1681183676.10003090,71128204,1595,1594,1534,1535,0,0,0,0,0,0,0,0,0,0
1681183676.19999075,71228164,1595,1595,1535,1536,0,0,0,0,0,0,0,0,0,0
1681183676.30078387,71328957,1594,1594,1536,1539,0,0,0,0,0,0,0,0,0,0
1681183676.40074372,71428917,1592,1592,1541,1544,0,0,0,0,0,0,0,0,0,0
1681183676.50070381,71528877,1588,1585,1546,1549,0,0,0,0,0,0,0,0,0,0
1681183676.60066390,71628837,1581,1578,1553,1557,0,0,0,0,0,0,0,0,0,0
1681183676.70062375,71728797,1572,1568,1564,1567,0,0,0,0,0,0,0,0,0,0
1681183676.80058384,71828757,1561,1558,1577,1578,0,0,0,0,0,0,0,0,0,0
1681183676.90054369,71928717,1550,1547,1588,1589,0,0,0,0,0,0,0,0,0,0
1681183677.00050378,72028677,1541,1539,1600,1600,0,0,0,0,0,0,0,0,0,0
1681183677.10046387,72128637,1534,1533,1609,1608,0,0,0,0,0,0,0,0,0,0
1681183677.20042372,72228597,1529,1530,1614,1612,0,0,0,0,0,0,0,0,0,0
1681183677.30038381,72328557,1529,1530,1615,1614,0,0,0,0,0,0,0,0,0,0
1681183677.40034389,72428517,1532,1535,1613,1612,0,0,0,0,0,0,0,0,0,0
1681183677.50030375,72528477,1538,1540,1608,1608,0,0,0,0,0,0,0,0,0,0
1681183677.60026383,72628437,1546,1547,1601,1602,0,0,0,0,0,0,0,0,0,0
1681183677.70022368,72728397,1555,1556,1594,1595,0,0,0,0,0,0,0,0,0,0
1681183677.80018377,72828357,1564,1564,1587,1587,0,0,0,0,0,0,0,0,0,0
1681183677.90014386,72928317,1573,1572,1581,1580,0,0,0,0,0,0,0,0,0,0
1681183678.00010371,73028277,1579,1578,1574,1573,0,0,0,0,0,0,0,0,0,0
1681183678.10006380,73128237,1583,1583,1570,1569,0,0,0,0,0,0,0,0,0,0
1681183678.20002389,73228197,1587,1586,1568,1567,0,0,0,0,0,0,0,0,0,0
1681183678.29998374,73328157,1588,1587,1566,1567,0,0,0,0,0,0,0,0,0,0
1681183678.40077686,73428950,1587,1586,1567,1567,0,0,0,0,0,0,0,0,0,0
1681183678.50073671,73528910,1586,1585,1569,1569,0,0,0,0,0,0,0,0,0,0
1681183678.60069680,73628870,1583,1582,1571,1571,0,0,0,0,0,0,0,0,0,0
1681183678.70065689,73728830,1580,1580,1574,1574,0,0,0,0,0,0,0,0,0,0
1681183678.80061674,73828790,1578,1578,1578,1578,0,0,0,0,0,0,0,0,0,0
1681183678.90057683,73928750,1575,1575,1580,1579,0,0,0,0,0,0,0,0,0,0
1681183679.00053668,74028710,1573,1573,1581,1581,0,0,0,0,0,0,0,0,0,0
1681183679.10049677,74128670,1573,1573,1583,1583,0,0,0,0,0,0,0,0,0,0
1681183679.20045686,74228630,1573,1573,1584,1584,0,0,0,0,0,0,0,0,0,0
1681183679.30041671,74328590,1573,1573,1584,1584,0,0,0,0,0,0,0,0,0,0
1681183679.40037680,74428550,1573,1574,1583,1583,0,0,0,0,0,0,0,0,0,0
1681183679.50033689,74528510,1574,1575,1582,1582,0,0,0,0,0,0,0,0,0,0
1681183679.60029674,74628470,1576,1577,1581,1581,0,0,0,0,0,0,0,0,0,0
1681183679.70025682,74728430,1578,1578,1580,1580,0,0,0,0,0,0,0,0,0,0
1681183679.80021667,74828390,1580,1580,1580,1579,0,0,0,0,0,0,0,0,0,0
1681183679.90017676,74928350,1581,1580,1579,1579,0,0,0,0,0,0,0,0,0,0
1681183680.00013685,75028310,1582,1581,1577,1577,0,0,0,0,0,0,0,0,0,0
1681183680.10009670,75128270,1582,1582,1577,1578,0,0,0,0,0,0,0,0,0,0
1681183680.20005679,75228230,1617,1617,1426,1510,0,0,0,0,0,0,0,0,0,0
1681183680.30001688,75328190,1646,1650,1537,1515,0,0,0,0,0,0,0,0,0,0
1681183680.40080976,75428983,1686,1696,1644,1567,0,0,0,0,0,0,0,0,0,0
1681183680.50076985,75528943,1632,1651,1650,1554,0,0,0,0,0,0,0,0,0,0
1681183680.60072970,75628903,1627,1649,1650,1587,0,0,0,0,0,0,0,0,0,0
1681183680.70068979,75728863,1630,1648,1650,1616,0,0,0,0,0,0,0,0,0,0
1681183680.80064988,75828823,1621,1628,1650,1642,0,0,0,0,0,0,0,0,0,0
1681183680.90060973,75928783,1598,1589,1650,1667,0,0,0,0,0,0,0,0,0,0
1681183681.00056982,76028743,1563,1551,1650,1681,0,0,0,0,0,0,0,0,0,0
1681183681.10052991,76128703,1539,1509,1650,1679,0,0,0,0,0,0,0,0,0,0
1681183681.20048976,76228663,1531,1491,1650,1670,0,0,0,0,0,0,0,0,0,0
1681183681.30044985,76328623,1544,1508,1650,1662,0,0,0,0,0,0,0,0,0,0
1681183681.40040970,76428583,1575,1555,1650,1657,0,0,0,0,0,0,0,0,0,0
1681183681.50036979,76528543,1610,1608,1650,1652,0,0,0,0,0,0,0,0,0,0
1681183681.60032988,76628503,1637,1652,1650,1649,0,0,0,0,0,0,0,0,0,0
1681183681.70028973,76728463,1619,1643,1618,1613,0,0,0,0,0,0,0,0,0,0
1681183681.80024981,76828423,1608,1633,1592,1591,0,0,0,0,0,0,0,0,0,0
1681183681.90020990,76928383,1599,1622,1574,1566,0,0,0,0,0,0,0,0,0,0
1681183682.00016975,77028343,1593,1609,1554,1552,0,0,0,0,0,0,0,0,0,0
1681183682.10012984,77128303,1587,1593,1537,1544,0,0,0,0,0,0,0,0,0,0
1681183682.20008969,77228263,1582,1577,1526,1536,0,0,0,0,0,0,0,0,0,0
1681183682.30004978,77328223,1575,1566,1520,1529,0,0,0,0,0,0,0,0,0,0
1681183682.40000987,77428183,1571,1560,1520,1524,0,0,0,0,0,0,0,0,0,0
1681183682.50080276,77528976,1567,1560,1522,1522,0,0,0,0,0,0,0,0,0,0
1681183682.60076284,77628936,1564,1561,1526,1522,0,0,0,0,0,0,0,0,0,0
1681183682.70072269,77728896,1562,1564,1530,1525,0,0,0,0,0,0,0,0,0,0
1681183682.80068278,77828856,1561,1565,1533,1529,0,0,0,0,0,0,0,0,0,0
1681183682.90064287,77928816,1561,1565,1536,1535,0,0,0,0,0,0,0,0,0,0
1681183683.00060272,78028776,1562,1565,1539,1539,0,0,0,0,0,0,0,0,0,0
1681183683.10056281,78128736,1564,1566,1543,1543,0,0,0,0,0,0,0,0,0,0
1681183683.20052290,78228696,1565,1566,1544,1545,0,0,0,0,0,0,0,0,0,0
1681183683.30048275,78328656,1568,1567,1546,1547,0,0,0,0,0,0,0,0,0,0
1681183683.40044284,78428616,1570,1569,1547,1547,0,0,0,0,0,0,0,0,0,0
1681183683.50040269,78528576,1573,1573,1547,1547,0,0,0,0,0,0,0,0,0,0
1681183683.60036278,78628536,1575,1576,1547,1546,0,0,0,0,0,0,0,0,0,0
1681183683.70032287,78728496,1579,1580,1546,1545,0,0,0,0,0,0,0,0,0,0
1681183683.80028272,78828456,1581,1583,1544,1544,0,0,0,0,0,0,0,0,0,0
1681183683.90024281,78928416,1585,1585,1542,1543,0,0,0,0,0,0,0,0,0,0
1681183684.00020289,79028376,1588,1588,1542,1542,0,0,0,0,0,0,0,0,0,0
1681183684.10016274,79128336,1590,1589,1541,1542,0,0,0,0,0,0,0,0,0,0
1681183684.20012283,79228296,1590,1588,1541,1543,0,0,0,0,0,0,0,0,0,0
1681183684.30008268,79328256,1589,1587,1543,1545,0,0,0,0,0,0,0,0,0,0
1681183684.40004277,79428216,1586,1584,1547,1550,0,0,0,0,0,0,0,0,0,0
1681183684.50000286,79528176,1582,1579,1553,1555,0,0,0,0,0,0,0,0,0,0
1681183684.60079575,79628969,1576,1575,1559,1561,0,0,0,0,0,0,0,0,0,0
1681183684.70075583,79728929,1570,1569,1566,1567,0,0,0,0,0,0,0,0,0,0
1681183684.80071568,79828889,1563,1563,1573,1574,0,0,0,0,0,0,0,0,0,0
1681183684.90067577,79928849,1558,1558,1579,1580,0,0,0,0,0,0,0,0,0,0
1681183685.00063586,80028809,1555,1554,1586,1585,0,0,0,0,0,0,0,0,0,0
1681183685.10059571,80128769,1551,1550,1590,1589,0,0,0,0,0,0,0,0,0,0
1681183685.20055580,80228729,1549,1547,1594,1592,0,0,0,0,0,0,0,0,0,0
1681183685.30051589,80328689,1548,1547,1596,1595,0,0,0,0,0,0,0,0,0,0
1681183685.40047574,80428649,1548,1548,1597,1596,0,0,0,0,0,0,0,0,0,0
1681183685.50043583,80528609,1549,1549,1598,1597,0,0,0,0,0,0,0,0,0,0
1681183685.60039568,80628569,1550,1550,1596,1595,0,0,0,0,0,0,0,0,0,0
1681183685.70035577,80728529,1552,1553,1595,1595,0,0,0,0,0,0,0,0,0,0
1681183685.80031586,80828489,1555,1556,1592,1594,0,0,0,0,0,0,0,0,0,0
1681183685.90027571,80928449,1557,1557,1589,1590,0,0,0,0,0,0,0,0,0,0
1681183686.00023580,81028409,1560,1560,1587,1587,0,0,0,0,0,0,0,0,0,0
1681183686.10019588,81128369,1562,1562,1584,1584,0,0,0,0,0,0,0,0,0,0
1681183686.20015574,81228329,1565,1565,1582,1582,0,0,0,0,0,0,0,0,0,0
1681183686.30011582,81328289,1567,1568,1579,1579,0,0,0,0,0,0,0,0,0,0
1681183686.40007567,81428249,1570,1571,1577,1577,0,0,0,0,0,0,0,0,0,0
1681183686.50003576,81528209,1572,1572,1575,1574,0,0,0,0,0,0,0,0,0,0
1681183686.59999585,81628169,1576,1576,1574,1574,0,0,0,0,0,0,0,0,0,0
1681183686.70078874,81728962,1579,1578,1573,1573,0,0,0,0,0,0,0,0,0,0
1681183686.80074883,81828922,1579,1579,1571,1572,0,0,0,0,0,0,0,0,0,0
1681183686.90070868,81928882,1580,1580,1571,1571,0,0,0,0,0,0,0,0,0,0
1681183687.00066876,82028842,1580,1579,1570,1570,0,0,0,0,0,0,0,0,0,0
1681183687.10062885,82128802,1581,1580,1571,1571,0,0,0,0,0,0,0,0,0,0
1681183687.20058870,82228762,1582,1581,1572,1572,0,0,0,0,0,0,0,0,0,0
1681183687.30054879,82328722,1581,1581,1573,1572,0,0,0,0,0,0,0,0,0,0
1681183687.40050888,82428682,1581,1581,1574,1574,0,0,0,0,0,0,0,0,0,0
1681183687.50046873,82528642,1579,1579,1575,1574,0,0,0,0,0,0,0,0,0,0
1681183687.60042882,82628602,1578,1579,1576,1576,0,0,0,0,0,0,0,0,0,0
1681183687.70038891,82728562,1578,1578,1578,1578,0,0,0,0,0,0,0,0,0,0
1681183687.80034876,82828522,1577,1578,1579,1579,0,0,0,0,0,0,0,0,0,0
1681183687.90030885,82928482,1577,1577,1580,1579,0,0,0,0,0,0,0,0,0,0
1681183688.00026870,83028442,1577,1577,1581,1580,0,0,0,0,0,0,0,0,0,0
1681183688.10022879,83128402,1576,1576,1580,1580,0,0,0,0,0,0,0,0,0,0
1681183688.20018888,83228362,1577,1577,1581,1581,0,0,0,0,0,0,0,0,0,0
1681183688.30014873,83328322,1578,1577,1582,1582,0,0,0,0,0,0,0,0,0,0
1681183688.40010881,83428282,1579,1579,1582,1582,0,0,0,0,0,0,0,0,0,0
1681183688.50006890,83528242,1579,1579,1582,1582,0,0,0,0,0,0,0,0,0,0
1681183688.60002875,83628202,1579,1579,1581,1581,0,0,0,0,0,0,0,0,0,0
1681183688.69998884,83728162,1579,1579,1581,1580,0,0,0,0,0,0,0,0,0,0
1681183688.80078173,83828955,1579,1579,1580,1580,0,0,0,0,0,0,0,0,0,0
1681183688.90074182,83928915,1580,1580,1580,1580,0,0,0,0,0,0,0,0,0,0
1681183689.00070190,84028875,1580,1580,1580,1580,0,0,0,0,0,0,0,0,0,0
1681183689.10066175,84128835,1581,1581,1580,1581,0,0,0,0,0,0,0,0,0,0
1681183689.20062184,84228795,1581,1581,1580,1580,0,0,0,0,0,0,0,0,0,0
1681183689.30058169,84328755,1582,1581,1580,1580,0,0,0,0,0,0,0,0,0,0
1681183689.40054178,84428715,1582,1582,1580,1580,0,0,0,0,0,0,0,0,0,0
1681183689.50050187,84528675,1582,1582,1580,1580,0,0,0,0,0,0,0,0,0,0
1681183689.60046172,84628635,1582,1582,1581,1580,0,0,0,0,0,0,0,0,0,0
1681183689.70042181,84728595,1583,1583,1582,1582,0,0,0,0,0,0,0,0,0,0
1681183689.80038190,84828555,1581,1582,1581,1581,0,0,0,0,0,0,0,0,0,0
1681183689.90034175,84928515,1580,1581,1581,1580,0,0,0,0,0,0,0,0,0,0
1681183690.00030184,85028475,1580,1580,1580,1581,0,0,0,0,0,0,0,0,0,0
1681183690.10026169,85128435,1580,1581,1581,1581,0,0,0,0,0,0,0,0,0,0
1681183690.20022178,85228395,1581,1580,1581,1581,0,0,0,0,0,0,0,0,0,0
1681183690.30018187,85328355,1581,1581,1581,1582,0,0,0,0,0,0,0,0,0,0
1681183690.40014172,85428315,1581,1581,1581,1581,0,0,0,0,0,0,0,0,0,0
1681183690.50010180,85528275,1581,1581,1583,1579,0,0,0,0,0,0,0,0,0,0
1681183690.60006189,85628235,1580,1583,1587,1572,0,0,0,0,0,0,0,0,0,0
1681183690.70002174,85728195,1579,1583,1583,1573,0,0,0,0,0,0,0,0,0,0
1681183690.79998183,85828155,1577,1581,1576,1573,0,0,0,0,0,0,0,0,0,0
1681183690.90077472,85928948,1577,1580,1569,1573,0,0,0,0,0,0,0,0,0,0
1681183691.00073481,86028908,1575,1577,1561,1568,0,0,0,0,0,0,0,0,0,0
1681183691.10069489,86128868,1578,1577,1557,1565,0,0,0,0,0,0,0,0,0,0
1681183691.20065475,86228828,1579,1576,1554,1559,0,0,0,0,0,0,0,0,0,0
1681183691.30061483,86328788,1581,1577,1554,1556,0,0,0,0,0,0,0,0,0,0
1681183691.40057468,86428748,1580,1578,1555,1553,0,0,0,0,0,0,0,0,0,0
1681183691.50053477,86528708,1579,1579,1555,1553,0,0,0,0,0,0,0,0,0,0
1681183691.60049486,86628668,1578,1579,1555,1552,0,0,0,0,0,0,0,0,0,0
1681183691.70045471,86728628,1577,1579,1555,1553,0,0,0,0,0,0,0,0,0,0
1681183691.80041480,86828588,1577,1579,1554,1553,0,0,0,0,0,0,0,0,0,0
1681183691.90037489,86928548,1577,1578,1554,1554,0,0,0,0,0,0,0,0,0,0
1681183692.00033474,87028508,1576,1578,1552,1552,0,0,0,0,0,0,0,0,0,0
1681183692.10029483,87128468,1578,1579,1551,1551,0,0,0,0,0,0,0,0,0,0
1681183692.20025468,87228428,1579,1580,1549,1549,0,0,0,0,0,0,0,0,0,0
1681183692.30021477,87328388,1581,1582,1547,1547,0,0,0,0,0,0,0,0,0,0
1681183692.40017486,87428348,1583,1584,1545,1544,0,0,0,0,0,0,0,0,0,0
1681183692.50013471,87528308,1586,1586,1542,1542,0,0,0,0,0,0,0,0,0,0
1681183692.60009480,87628268,1589,1589,1540,1540,0,0,0,0,0,0,0,0,0,0
1681183692.70005488,87728228,1592,1592,1539,1540,0,0,0,0,0,0,0,0,0,0
1681183692.80001473,87828188,1594,1594,1538,1538,0,0,0,0,0,0,0,0,0,0
1681183692.90080786,87928981,1595,1595,1537,1538,0,0,0,0,0,0,0,0,0,0
1681183693.00076771,88028941,1596,1595,1538,1540,0,0,0,0,0,0,0,0,0,0
1681183693.10072780,88128901,1594,1592,1540,1543,0,0,0,0,0,0,0,0,0,0
1681183693.20068789,88228861,1590,1587,1545,1548,0,0,0,0,0,0,0,0,0,0
1681183693.30064774,88328821,1584,1580,1553,1556,0,0,0,0,0,0,0,0,0,0
1681183693.40060782,88428781,1575,1571,1563,1566,0,0,0,0,0,0,0,0,0,0
1681183693.50056767,88528741,1564,1561,1575,1577,0,0,0,0,0,0,0,0,0,0
1681183693.60052776,88628701,1554,1552,1588,1588,0,0,0,0,0,0,0,0,0,0
1681183693.70048785,88728661,1546,1545,1600,1599,0,0,0,0,0,0,0,0,0,0
1681183693.80044770,88828621,1541,1542,1609,1606,0,0,0,0,0,0,0,0,0,0
1681183693.90040779,88928581,1538,1540,1614,1610,0,0,0,0,0,0,0,0,0,0
1681183694.00036788,89028541,1538,1541,1615,1611,0,0,0,0,0,0,0,0,0,0
1681183694.10032773,89128501,1542,1543,1613,1611,0,0,0,0,0,0,0,0,0,0
1681183694.20028782,89228461,1546,1547,1611,1609,0,0,0,0,0,0,0,0,0,0
1681183694.30024791,89328421,1550,1551,1606,1606,0,0,0,0,0,0,0,0,0,0
1681183694.40020776,89428381,1555,1555,1601,1601,0,0,0,0,0,0,0,0,0,0
1681183694.50016785,89528341,1560,1559,1596,1596,0,0,0,0,0,0,0,0,0,0
1681183694.60012770,89628301,1563,1563,1589,1589,0,0,0,0,0,0,0,0,0,0
1681183694.70008779,89728261,1568,1568,1584,1584,0,0,0,0,0,0,0,0,0,0
1681183694.80004787,89828221,1573,1573,1578,1579,0,0,0,0,0,0,0,0,0,0
1681183694.90000772,89928181,1578,1576,1572,1573,0,0,0,0,0,0,0,0,0,0
1681183695.00080085,90028974,1581,1580,1567,1568,0,0,0,0,0,0,0,0,0,0
1681183695.10076070,90128934,1584,1582,1564,1565,0,0,0,0,0,0,0,0,0,0
1681183695.20072079,90228894,1585,1584,1563,1564,0,0,0,0,0,0,0,0,0,0
1681183695.30068088,90328854,1586,1585,1564,1564,0,0,0,0,0,0,0,0,0,0
1681183695.40064073,90428814,1584,1583,1565,1566,0,0,0,0,0,0,0,0,0,0
1681183695.50060081,90528774,1583,1582,1568,1568,0,0,0,0,0,0,0,0,0,0
1681183695.60056090,90628734,1582,1581,1572,1572,0,0,0,0,0,0,0,0,0,0
1681183695.70052075,90728694,1579,1578,1575,1575,0,0,0,0,0,0,0,0,0,0
1681183695.80048084,90828654,1575,1576,1577,1577,0,0,0,0,0,0,0,0,0,0
1681183695.90044069,90928614,1574,1575,1581,1580,0,0,0,0,0,0,0,0,0,0
1681183696.00040078,91028574,1573,1575,1583,1582,0,0,0,0,0,0,0,0,0,0
1681183696.10036087,91128534,1573,1574,1584,1584,0,0,0,0,0,0,0,0,0,0
1681183696.20032072,91228494,1573,1573,1585,1584,0,0,0,0,0,0,0,0,0,0
1681183696.30028081,91328454,1574,1574,1585,1585,0,0,0,0,0,0,0,0,0,0
1681183696.40024090,91428414,1575,1575,1584,1584,0,0,0,0,0,0,0,0,0,0
1681183696.50020075,91528374,1576,1575,1583,1583,0,0,0,0,0,0,0,0,0,0
1681183696.60016084,91628334,1578,1578,1582,1583,0,0,0,0,0,0,0,0,0,0
1681183696.70012069,91728294,1578,1579,1581,1581,0,0,0,0,0,0,0,0,0,0
1681183696.80008078,91828254,1579,1579,1579,1579,0,0,0,0,0,0,0,0,0,0
1681183696.90004086,91928214,1580,1580,1578,1578,0,0,0,0,0,0,0,0,0,0
1681183697.00000072,92028174,1580,1580,1577,1577,0,0,0,0,0,0,0,0,0,0
1681183697.10079384,92128967,1581,1580,1576,1577,0,0,0,0,0,0,0,0,0,0
1681183697.20075369,92228927,1581,1581,1576,1577,0,0,0,0,0,0,0,0,0,0
1681183697.30071378,92328887,1581,1581,1576,1577,0,0,0,0,0,0,0,0,0,0
1681183697.40067387,92428847,1581,1581,1577,1577,0,0,0,0,0,0,0,0,0,0
1681183697.50063372,92528807,1581,1581,1578,1577,0,0,0,0,0,0,0,0,0,0
1681183697.60059381,92628767,1580,1580,1579,1578,0,0,0,0,0,0,0,0,0,0
1681183697.70055389,92728727,1581,1581,1580,1580,0,0,0,0,0,0,0,0,0,0
1681183697.80051374,92828687,1579,1580,1580,1580,0,0,0,0,0,0,0,0,0,0
1681183697.90047383,92928647,1579,1579,1580,1580,0,0,0,0,0,0,0,0,0,0
1681183698.00043368,93028607,1579,1580,1581,1581,0,0,0,0,0,0,0,0,0,0
1681183698.10039377,93128567,1580,1579,1581,1581,0,0,0,0,0,0,0,0,0,0
1681183698.20035386,93228527,1580,1580,1582,1582,0,0,0,0,0,0,0,0,0,0
1681183698.30031371,93328487,1580,1580,1582,1583,0,0,0,0,0,0,0,0,0,0
1681183698.40027380,93428447,1580,1580,1581,1582,0,0,0,0,0,0,0,0,0,0
1681183698.50023389,93528407,1581,1582,1587,1575,0,0,0,0,0,0,0,0,0,0
1681183698.60019374,93628367,1581,1582,1587,1573,0,0,0,0,0,0,0,0,0,0
1681183698.70015383,93728327,1578,1578,1581,1575,0,0,0,0,0,0,0,0,0,0
1681183698.80011368,93828287,1574,1574,1574,1575,0,0,0,0,0,0,0,0,0,0
1681183698.90007377,93928247,1571,1570,1568,1575,0,0,0,0,0,0,0,0,0,0
1681183699.00003386,94028207,1568,1568,1565,1573,0,0,0,0,0,0,0,0,0,0
1681183699.09999371,94128167,1568,1566,1564,1570,0,0,0,0,0,0,0,0,0,0
1681183699.20078683,94228960,1566,1566,1564,1567,0,0,0,0,0,0,0,0,0,0
1681183699.30074668,94328920,1566,1565,1565,1564,0,0,0,0,0,0,0,0,0,0
1681183699.40070677,94428880,1565,1565,1565,1563,0,0,0,0,0,0,0,0,0,0
1681183699.50066686,94528840,1565,1566,1565,1562,0,0,0,0,0,0,0,0,0,0
1681183699.60062671,94628800,1565,1566,1566,1563,0,0,0,0,0,0,0,0,0,0
1681183699.70058680,94728760,1564,1564,1564,1562,0,0,0,0,0,0,0,0,0,0
1681183699.80054688,94828720,1563,1563,1563,1562,0,0,0,0,0,0,0,0,0,0
1681183699.90050673,94928680,1563,1562,1562,1563,0,0,0,0,0,0,0,0,0,0
1681183700.00046682,95028640,1561,1561,1561,1561,0,0,0,0,0,0,0,0,0,0
1681183700.10042667,95128600,1561,1561,1561,1562,0,0,0,0,0,0,0,0,0,0
1681183700.20038676,95228560,1561,1561,1561,1561,0,0,0,0,0,0,0,0,0,0
1681183700.30034685,95328520,1561,1561,1562,1561,0,0,0,0,0,0,0,0,0,0
1681183700.40030670,95428480,1560,1560,1561,1560,0,0,0,0,0,0,0,0,0,0
1681183700.50026679,95528440,1559,1559,1560,1559,0,0,0,0,0,0,0,0,0,0
1681183700.60022688,95628400,1559,1559,1560,1559,0,0,0,0,0,0,0,0,0,0
1681183700.70018673,95728360,1559,1559,1559,1559,0,0,0,0,0,0,0,0,0,0
1681183700.80014682,95828320,1558,1558,1559,1558,0,0,0,0,0,0,0,0,0,0
1681183700.90010691,95928280,1558,1559,1559,1558,0,0,0,0,0,0,0,0,0,0
1681183701.00006676,96028240,1559,1558,1560,1558,0,0,0,0,0,0,0,0,0,0
1681183701.10002685,96128200,1559,1559,1560,1558,0,0,0,0,0,0,0,0,0,0
1681183701.19998670,96228160,1559,1559,1560,1557,0,0,0,0,0,0,0,0,0,0
1681183701.30077982,96328953,1559,1559,1559,1559,0,0,0,0,0,0,0,0,0,0
1681183701.40073991,96428913,1560,1560,1558,1562,0,0,0,0,0,0,0,0,0,0
1681183701.50069976,96528873,1560,1559,1557,1563,0,0,0,0,0,0,0,0,0,0
1681183701.60065985,96628833,1561,1561,1558,1564,0,0,0,0,0,0,0,0,0,0
1681183701.70061970,96728793,1561,1562,1559,1563,0,0,0,0,0,0,0,0,0,0
1681183701.80057979,96828753,1562,1561,1560,1562,0,0,0,0,0,0,0,0,0,0
1681183701.90053988,96928713,1560,1561,1561,1559,0,0,0,0,0,0,0,0,0,0
1681183702.00049973,97028673,1561,1561,1562,1557,0,0,0,0,0,0,0,0,0,0
1681183702.10045981,97128633,1560,1560,1562,1558,0,0,0,0,0,0,0,0,0,0
1681183702.20041990,97228593,1559,1559,1558,1561,0,0,0,0,0,0,0,0,0,0
1681183702.30037975,97328553,1556,1556,1554,1561,0,0,0,0,0,0,0,0,0,0
1681183702.40033984,97428513,1552,1552,1552,1556,0,0,0,0,0,0,0,0,0,0
1681183702.50029969,97528473,1546,1546,1547,1549,0,0,0,0,0,0,0,0,0,0
1681183702.60025978,97628433,1539,1539,1542,1541,0,0,0,0,0,0,0,0,0,0
1681183702.70021987,97728393,1532,1532,1536,1534,0,0,0,0,0,0,0,0,0,0
1681183702.80017972,97828353,1524,1524,1528,1526,0,0,0,0,0,0,0,0,0,0
1681183702.90013981,97928313,1519,1519,1522,1521,0,0,0,0,0,0,0,0,0,0
1681183703.00009990,98028273,1519,1519,1520,1521,0,0,0,0,0,0,0,0,0,0
1681183703.10005975,98128233,1518,1519,1517,1520,0,0,0,0,0,0,0,0,0,0
1681183703.20001984,98228193,1521,1521,1518,1520,0,0,0,0,0,0,0,0,0,0
1681183703.30081272,98328986,1525,1525,1521,1522,0,0,0,0,0,0,0,0,0,0
1681183703.40077281,98428946,1530,1530,1525,1526,0,0,0,0,0,0,0,0,0,0
1681183703.50073290,98528906,1535,1535,1530,1530,0,0,0,0,0,0,0,0,0,0
1681183703.60069275,98628866,1538,1538,1534,1533,0,0,0,0,0,0,0,0,0,0
1681183703.70065284,98728826,1541,1541,1538,1536,0,0,0,0,0,0,0,0,0,0
1681183703.80061269,98828786,1543,1543,1541,1539,0,0,0,0,0,0,0,0,0,0
1681183703.90057278,98928746,1544,1544,1543,1542,0,0,0,0,0,0,0,0,0,0
1681183704.00053287,99028706,1543,1544,1544,1543,0,0,0,0,0,0,0,0,0,0
1681183704.10049272,99128666,1544,1545,1546,1545,0,0,0,0,0,0,0,0,0,0
1681183704.20045280,99228626,1544,1544,1547,1546,0,0,0,0,0,0,0,0,0,0
1681183704.30041289,99328586,1545,1545,1548,1548,0,0,0,0,0,0,0,0,0,0
1681183704.40037274,99428546,1546,1546,1549,1549,0,0,0,0,0,0,0,0,0,0
1681183704.50033283,99528506,1545,1545,1548,1548,0,0,0,0,0,0,0,0,0,0
1681183704.60029268,99628466,1545,1545,1548,1548,0,0,0,0,0,0,0,0,0,0
1681183704.70025277,99728426,1545,1545,1547,1547,0,0,0,0,0,0,0,0,0,0
1681183704.80021286,99828386,1544,1545,1546,1546,0,0,0,0,0,0,0,0,0,0
1681183704.90017271,99928346,1545,1545,1546,1545,0,0,0,0,0,0,0,0,0,0
1681183705.00013280,100028306,1544,1544,1544,1545,0,0,0,0,0,0,0,0,0,0
1681183705.10009289,100128266,1545,1545,1545,1545,0,0,0,0,0,0,0,0,0,0
1681183705.20005274,100228226,1545,1546,1545,1544,0,0,0,0,0,0,0,0,0,0
1681183705.30001283,100328186,1545,1545,1544,1544,0,0,0,0,0,0,0,0,0,0
1681183705.40080571,100428979,1544,1544,1543,1543,0,0,0,0,0,0,0,0,0,0
1681183705.50076580,100528939,1545,1545,1543,1544,0,0,0,0,0,0,0,0,0,0
1681183705.60072589,100628899,1545,1545,1544,1543,0,0,0,0,0,0,0,0,0,0
1681183705.70068574,100728859,1544,1544,1543,1543,0,0,0,0,0,0,0,0,0,0
1681183705.80064583,100828819,1545,1544,1543,1544,0,0,0,0,0,0,0,0,0,0
1681183705.90060568,100928779,1544,1544,1544,1544,0,0,0,0,0,0,0,0,0,0
1681183706.00056577,101028739,1543,1544,1544,1544,0,0,0,0,0,0,0,0,0,0
1681183706.10052586,101128699,1544,1543,1544,1544,0,0,0,0,0,0,0,0,0,0
1681183706.20048571,101228659,1544,1544,1544,1544,0,0,0,0,0,0,0,0,0,0
1681183706.30044580,101328619,1544,1544,1544,1544,0,0,0,0,0,0,0,0,0,0
1681183706.40040588,101428579,1544,1543,1544,1544,0,0,0,0,0,0,0,0,0,0
1681183706.50036573,101528539,1544,1543,1544,1544,0,0,0,0,0,0,0,0,0,0
1681183706.60032582,101628499,1543,1544,1544,1544,0,0,0,0,0,0,0,0,0,0
1681183706.70028567,101728459,1543,1543,1543,1543,0,0,0,0,0,0,0,0,0,0
1681183706.80024576,101828419,1543,1544,1544,1544,0,0,0,0,0,0,0,0,0,0
1681183706.90020585,101928379,1543,1543,1543,1543,0,0,0,0,0,0,0,0,0,0
1681183707.00016570,102028339,1543,1543,1543,1543,0,0,0,0,0,0,0,0,0,0
1681183707.10012579,102128299,1543,1543,1543,1543,0,0,0,0,0,0,0,0,0,0
1681183707.20008588,102228259,1543,1543,1543,1543,0,0,0,0,0,0,0,0,0,0
1681183707.30004573,102328219,1545,1545,1544,1545,0,0,0,0,0,0,0,0,0,0
1681183707.40000582,102428179,1544,1545,1544,1544,0,0,0,0,0,0,0,0,0,0
1681183707.50079870,102528972,1544,1544,1544,1543,0,0,0,0,0,0,0,0,0,0
1681183707.60075879,102628932,1544,1544,1544,1544,0,0,0,0,0,0,0,0,0,0
1681183707.70071888,102728892,1544,1544,1544,1544,0,0,0,0,0,0,0,0,0,0
1681183707.80067873,102828852,1545,1545,1545,1545,0,0,0,0,0,0,0,0,0,0
1681183707.90063882,102928812,1545,1545,1545,1545,0,0,0,0,0,0,0,0,0,0
1681183708.00059891,103028772,1545,1545,1545,1545,0,0,0,0,0,0,0,0,0,0
1681183708.10055876,103128732,1544,1543,1544,1544,0,0,0,0,0,0,0,0,0,0
1681183708.20051885,103228692,1544,1544,1544,1544,0,0,0,0,0,0,0,0,0,0
1681183708.30047870,103328652,1545,1545,1545,1545,0,0,0,0,0,0,0,0,0,0
1681183708.40043879,103428612,1544,1544,1545,1544,0,0,0,0,0,0,0,0,0,0
1681183708.50039887,103528572,1545,1544,1544,1544,0,0,0,0,0,0,0,0,0,0
1681183708.60035872,103628532,1545,1545,1545,1545,0,0,0,0,0,0,0,0,0,0
1681183708.70031881,103728492,1545,1545,1545,1545,0,0,0,0,0,0,0,0,0,0
1681183708.80027890,103828452,1545,1545,1545,1545,0,0,0,0,0,0,0,0,0,0
1681183708.90023875,103928412,1544,1544,1544,1544,0,0,0,0,0,0,0,0,0,0
1681183709.00019884,104028372,1544,1544,1544,1544,0,0,0,0,0,0,0,0,0,0
1681183709.10015869,104128332,1544,1543,1544,1544,0,0,0,0,0,0,0,0,0,0
1681183709.20011878,104228292,1544,1544,1544,1544,0,0,0,0,0,0,0,0,0,0
1681183709.30007887,104328252,1544,1544,1544,1544,0,0,0,0,0,0,0,0,0,0
1681183709.40003872,104428212,1545,1544,1544,1544,0,0,0,0,0,0,0,0,0,0
1681183709.49999881,104528172,1544,1544,1543,1544,0,0,0,0,0,0,0,0,0,0
1681183709.60079169,104628965,1543,1543,1544,1543,0,0,0,0,0,0,0,0,0,0
1681183709.70075178,104728925,1544,1544,1544,1544,0,0,0,0,0,0,0,0,0,0
1681183709.80071187,104828885,1545,1545,1545,1545,0,0,0,0,0,0,0,0,0,0
1681183709.90067172,104928845,1544,1544,1544,1544,0,0,0,0,0,0,0,0,0,0
1681183710.00063181,105028805,1544,1544,1544,1544,0,0,0,0,0,0,0,0,0,0
1681183710.10059190,105128765,1544,1544,1544,1544,0,0,0,0,0,0,0,0,0,0
1681183710.20055175,105228725,1544,1544,1544,1544,0,0,0,0,0,0,0,0,0,0
1681183710.30051184,105328685,1544,1544,1544,1544,0,0,0,0,0,0,0,0,0,0
1681183710.40047169,105428645,1543,1544,1544,1544,0,0,0,0,0,0,0,0,0,0
1681183710.50043178,105528605,1544,1544,1544,1544,0,0,0,0,0,0,0,0,0,0
1681183710.60039186,105628565,1544,1545,1544,1544,0,0,0,0,0,0,0,0,0,0
1681183710.70035172,105728525,1545,1544,1544,1545,0,0,0,0,0,0,0,0,0,0
1681183710.80031180,105828485,1544,1544,1544,1544,0,0,0,0,0,0,0,0,0,0
1681183710.90027189,105928445,1544,1543,1544,1544,0,0,0,0,0,0,0,0,0,0
1681183711.00023174,106028405,1545,1545,1545,1544,0,0,0,0,0,0,0,0,0,0
1681183711.10019183,106128365,1545,1544,1544,1544,0,0,0,0,0,0,0,0,0,0
1681183711.20015168,106228325,1545,1545,1545,1545,0,0,0,0,0,0,0,0,0,0
1681183711.30011177,106328285,1544,1544,1544,1544,0,0,0,0,0,0,0,0,0,0
1681183711.40007186,106428245,1545,1544,1545,1544,0,0,0,0,0,0,0,0,0,0
1681183711.50003171,106528205,1545,1544,1544,1544,0,0,0,0,0,0,0,0,0,0
1681183711.59999180,106628165,1544,1545,1545,1545,0,0,0,0,0,0,0,0,0,0
1681183711.70078468,106728958,1544,1544,1544,1544,0,0,0,0,0,0,0,0,0,0
1681183711.80074477,106828918,1545,1545,1545,1545,0,0,0,0,0,0,0,0,0,0
1681183711.90070486,106928878,1545,1545,1545,1545,0,0,0,0,0,0,0,0,0,0
1681183712.00066471,107028838,1544,1544,1544,1544,0,0,0,0,0,0,0,0,0,0
1681183712.10062480,107128798,1544,1544,1544,1544,0,0,0,0,0,0,0,0,0,0
1681183712.20058489,107228758,1544,1544,1544,1544,0,0,0,0,0,0,0,0,0,0
1681183712.30054474,107328718,1544,1543,1544,1544,0,0,0,0,0,0,0,0,0,0
1681183712.40050483,107428678,1544,1544,1544,1544,0,0,0,0,0,0,0,0,0,0
1681183712.50046468,107528638,1544,1544,1544,1544,0,0,0,0,0,0,0,0,0,0
1681183712.60042477,107628598,1544,1544,1544,1543,0,0,0,0,0,0,0,0,0,0
1681183712.70038486,107728558,1375,1374,1428,1375,0,0,0,0,0,0,0,0,0,0
1681183712.80034471,107828518,1258,1257,1358,1258,0,0,0,0,0,0,0,0,0,0
1681183712.90030479,107928478,1219,1217,1337,1219,0,0,0,0,0,0,0,0,0,0
1681183713.00026488,108028438,1201,1199,1327,1200,0,0,0,0,0,0,0,0,0,0
1681183713.10022473,108128398,1158,1155,1306,1157,0,0,0,0,0,0,0,0,0,0
1681183713.20018482,108228358,1173,1172,1190,1150,0,0,0,0,0,0,0,0,0,0
1681183713.30014491,108328318,1167,1166,1114,1150,0,0,0,0,0,0,0,0,0,0
1681183713.40010476,108428278,1167,1166,1114,1150,0,0,0,0,0,0,0,0,0,0
1681183713.50006485,108528238,1167,1166,1114,1150,0,0,0,0,0,0,0,0,0,0
1681183713.60002470,108628198,1168,1150,1122,1151,0,0,0,0,0,0,0,0,0,0
1681183713.69998479,108728158,1166,1155,1121,1150,0,0,0,0,0,0,0,0,0,0
1681183713.80077767,108828951,1166,1158,1119,1150,0,0,0,0,0,0,0,0,0,0
1681183713.90073776,108928911,1166,1157,1120,1150,0,0,0,0,0,0,0,0,0,0
1681183714.00069785,109028871,1165,1157,1120,1150,0,0,0,0,0,0,0,0,0,0
1681183714.10065770,109128831,1165,1156,1121,1150,0,0,0,0,0,0,0,0,0,0
1681183714.20061779,109228791,1165,1156,1121,1150,0,0,0,0,0,0,0,0,0,0
1681183714.30057788,109328751,1164,1155,1122,1150,0,0,0,0,0,0,0,0,0,0
1681183714.40053773,109428711,1164,1163,1118,1150,0,0,0,0,0,0,0,0,0,0
1681183714.50049782,109528671,1164,1162,1118,1150,0,0,0,0,0,0,0,0,0,0
1681183714.60045791,109628631,1164,1162,1118,1150,0,0,0,0,0,0,0,0,0,0
1681183714.70041776,109728591,1164,1161,1119,1150,0,0,0,0,0,0,0,0,0,0
1681183714.80037785,109828551,1160,1159,1068,1150,0,0,0,0,0,0,0,0,0,0
1681183714.90033770,109928511,1000,1000,1000,1000,0,0,0,0,0,0,0,0,0,0
1681183715.00029778,110028471,1000,1000,1000,1000,0,0,0,0,0,0,0,0,0,0
1681183715.10025787,110128431,1000,1000,1000,1000,0,0,0,0,0,0,0,0,0,0
1681183715.20021772,110228391,1000,1000,1000,1000,0,0,0,0,0,0,0,0,0,0
1681183715.30017781,110328351,1000,1000,1000,1000,0,0,0,0,0,0,0,0,0,0
1681183715.40013790,110428311,1000,1000,1000,1000,0,0,0,0,0,0,0,0,0,0
1681183715.50009775,110528271,1000,1000,1000,1000,0,0,0,0,0,0,0,0,0,0
1681183715.60005784,110628231,1000,1000,1000,1000,0,0,0,0,0,0,0,0,0,0
1681183715.70001769,110728191,1000,1000,1000,1000,0,0,0,0,0,0,0,0,0,0
1681183715.80081081,110828984,1000,1000,1000,1000,0,0,0,0,0,0,0,0,0,0
1681183715.90077090,110928944,1000,1000,1000,1000,0,0,0,0,0,0,0,0,0,0
1681183716.00073075,111028904,1000,1000,1000,1000,0,0,0,0,0,0,0,0,0,0
1681183716.10069084,111128864,1000,1000,1000,1000,0,0,0,0,0,0,0,0,0,0
1681183716.20065069,111228824,1000,1000,1000,1000,0,0,0,0,0,0,0,0,0,0
1681183716.30061078,111328784,1000,1000,1000,1000,0,0,0,0,0,0,0,0,0,0
1681183716.40057087,111428744,1000,1000,1000,1000,0,0,0,0,0,0,0,0,0,0
1681183716.50053072,111528704,1000,1000,1000,1000,0,0,0,0,0,0,0,0,0,0
1681183716.60049081,111628664,1000,1000,1000,1000,0,0,0,0,0,0,0,0,0,0
1681183716.70045090,111728624,1000,1000,1000,1000,0,0,0,0,0,0,0,0,0,0
1681183716.80041075,111828584,1000,1000,1000,1000,0,0,0,0,0,0,0,0,0,0
1681183716.90037084,111928544,1000,1000,1000,1000,0,0,0,0,0,0,0,0,0,0
1681183717.00033069,112028504,1000,1000,1000,1000,0,0,0,0,0,0,0,0,0,0
1681183717.10029078,112128464,1000,1000,1000,1000,0,0,0,0,0,0,0,0,0,0
1681183717.20025086,112228424,1000,1000,1000,1000,0,0,0,0,0,0,0,0,0,0
1681183717.30021071,112328384,1000,1000,1000,1000,0,0,0,0,0,0,0,0,0,0
1681183717.40017080,112428344,1000,1000,1000,1000,0,0,0,0,0,0,0,0,0,0
1681183717.50013089,112528304,1000,1000,1000,1000,0,0,0,0,0,0,0,0,0,0
1681183717.60009074,112628264,1000,1000,1000,1000,0,0,0,0,0,0,0,0,0,0
1681183717.70005083,112728224,1000,1000,1000,1000,0,0,0,0,0,0,0,0,0,0
1681183717.80001068,112828184,1000,1000,1000,1000,0,0,0,0,0,0,0,0,0,0
1681183717.90080380,112928977,1000,1000,1000,1000,0,0,0,0,0,0,0,0,0,0
1681183718.00076389,113028937,1000,1000,1000,1000,0,0,0,0,0,0,0,0,0,0
1681183718.10072374,113128897,1000,1000,1000,1000,0,0,0,0,0,0,0,0,0,0
1681183718.20068383,113228857,1000,1000,1000,1000,0,0,0,0,0,0,0,0,0,0
1681183718.30064368,113328817,1000,1000,1000,1000,0,0,0,0,0,0,0,0,0,0
1681183718.40060377,113428777,1000,1000,1000,1000,0,0,0,0,0,0,0,0,0,0
1681183718.50056386,113528737,1000,1000,1000,1000,0,0,0,0,0,0,0,0,0,0
1681183718.60052371,113628697,1000,1000,1000,1000,0,0,0,0,0,0,0,0,0,0
1681183718.70048380,113728657,1000,1000,1000,1000,0,0,0,0,0,0,0,0,0,0
1681183718.80044389,113828617,1000,1000,1000,1000,0,0,0,0,0,0,0,0,0,0
1681183718.90040374,113928577,1000,1000,1000,1000,0,0,0,0,0,0,0,0,0,0
1681183719.00036383,114028537,1000,1000,1000,1000,0,0,0,0,0,0,0,0,0,0
1681183719.10032368,114128497,1000,1000,1000,1000,0,0,0,0,0,0,0,0,0,0
1681183719.20028377,114228457,1000,1000,1000,1000,0,0,0,0,0,0,0,0,0,0
1681183719.30024385,114328417,1000,1000,1000,1000,0,0,0,0,0,0,0,0,0,0
1681183719.40020370,114428377,1000,1000,1000,1000,0,0,0,0,0,0,0,0,0,0
1681183719.50016379,114528337,1000,1000,1000,1000,0,0,0,0,0,0,0,0,0,0
1681183719.60012388,114628297,1000,1000,1000,1000,0,0,0,0,0,0,0,0,0,0
1681183719.70008373,114728257,1000,1000,1000,1000,0,0,0,0,0,0,0,0,0,0
1681183719.80004382,114828217,1000,1000,1000,1000,0,0,0,0,0,0,0,0,0,0
1681183719.90000391,114928177,1000,1000,1000,1000,0,0,0,0,0,0,0,0,0,0
1681183720.00079679,115028970,1000,1000,1000,1000,0,0,0,0,0,0,0,0,0,0
1681183720.10075688,115128930,1000,1000,1000,1000,0,0,0,0,0,0,0,0,0,0
1681183720.20071673,115228890,1000,1000,1000,1000,0,0,0,0,0,0,0,0,0,0
1681183720.30067682,115328850,1000,1000,1000,1000,0,0,0,0,0,0,0,0,0,0
1681183720.40063667,115428810,1000,1000,1000,1000,0,0,0,0,0,0,0,0,0,0
1681183720.50059676,115528770,1000,1000,1000,1000,0,0,0,0,0,0,0,0,0,0
1681183720.60055685,115628730,1000,1000,1000,1000,0,0,0,0,0,0,0,0,0,0
1681183720.70051670,115728690,1000,1000,1000,1000,0,0,0,0,0,0,0,0,0,0
1681183720.80047679,115828650,1000,1000,1000,1000,0,0,0,0,0,0,0,0,0,0
1681183720.90043688,115928610,1000,1000,1000,1000,0,0,0,0,0,0,0,0,0,0
1681183721.00039673,116028570,1000,1000,1000,1000,0,0,0,0,0,0,0,0,0,0
1681183721.10035682,116128530,1000,1000,1000,1000,0,0,0,0,0,0,0,0,0,0
1681183721.20031691,116228490,1000,1000,1000,1000,0,0,0,0,0,0,0,0,0,0
1681183721.30027676,116328450,1000,1000,1000,1000,0,0,0,0,0,0,0,0,0,0
1681183721.40023685,116428410,1000,1000,1000,1000,0,0,0,0,0,0,0,0,0,0
1681183721.50019670,116528370,1000,1000,1000,1000,0,0,0,0,0,0,0,0,0,0
1681183721.60015678,116628330,1000,1000,1000,1000,0,0,0,0,0,0,0,0,0,0
1681183721.70011687,116728290,1000,1000,1000,1000,0,0,0,0,0,0,0,0,0,0
1681183721.80007672,116828250,1000,1000,1000,1000,0,0,0,0,0,0,0,0,0,0
1681183721.90003681,116928210,1000,1000,1000,1000,0,0,0,0,0,0,0,0,0,0
1681183721.99999690,117028170,1000,1000,1000,1000,0,0,0,0,0,0,0,0,0,0
1681183722.10078979,117128963,1000,1000,1000,1000,0,0,0,0,0,0,0,0,0,0
1681183722.20074987,117228923,1000,1000,1000,1000,0,0,0,0,0,0,0,0,0,0
1681183722.30070972,117328883,1000,1000,1000,1000,0,0,0,0,0,0,0,0,0,0
1681183722.40066981,117428843,1000,1000,1000,1000,0,0,0,0,0,0,0,0,0,0
1681183722.50062990,117528803,1000,1000,1000,1000,0,0,0,0,0,0,0,0,0,0
1681183722.60058975,117628763,1000,1000,1000,1000,0,0,0,0,0,0,0,0,0,0
1681183722.70054984,117728723,1000,1000,1000,1000,0,0,0,0,0,0,0,0,0,0
1681183722.80050969,117828683,1000,1000,1000,1000,0,0,0,0,0,0,0,0,0,0
1681183722.90046978,117928643,1000,1000,1000,1000,0,0,0,0,0,0,0,0,0,0
1681183723.00042987,118028603,1000,1000,1000,1000,0,0,0,0,0,0,0,0,0,0
1681183723.10038972,118128563,1000,1000,1000,1000,0,0,0,0,0,0,0,0,0,0
1681183723.20034981,118228523,1000,1000,1000,1000,0,0,0,0,0,0,0,0,0,0
1681183723.30030990,118328483,1000,1000,1000,1000,0,0,0,0,0,0,0,0,0,0
1681183723.40026975,118428443,1000,1000,1000,1000,0,0,0,0,0,0,0,0,0,0
1681183723.50022984,118528403,1000,1000,1000,1000,0,0,0,0,0,0,0,0,0,0
