timestamp,TimeUS,C1,C2,C3,C4,C5,C6,C7,C8,C9,C10,C11,C12,C13,C14
1681044246.40000010,61428752,1000,1000,1000,1000,0,0,0,0,0,0,0,0,0,0
1681044246.49996018,61528712,1000,1000,1000,1000,0,0,0,0,0,0,0,0,0,0
1681044246.59992003,61628672,1000,1000,1000,1000,0,0,0,0,0,0,0,0,0,0
1681044246.69988012,61728632,1000,1000,1000,1000,0,0,0,0,0,0,0,0,0,0
1681044246.79984021,61828592,1000,1000,1000,1000,0,0,0,0,0,0,0,0,0,0
1681044246.89980006,61928552,1000,1000,1000,1000,0,0,0,0,0,0,0,0,0,0
1681044246.99976015,62028512,1000,1000,1000,1000,0,0,0,0,0,0,0,0,0,0
1681044247.09972024,62128472,1000,1000,1000,1000,0,0,0,0,0,0,0,0,0,0
1681044247.19968009,62228432,1000,1000,1000,1000,0,0,0,0,0,0,0,0,0,0
1681044247.29964018,62328392,1000,1000,1000,1000,0,0,0,0,0,0,0,0,0,0
1681044247.39960027,62428352,1000,1000,1000,1000,0,0,0,0,0,0,0,0,0,0
1681044247.49956012,62528312,1000,1000,1000,1000,0,0,0,0,0,0,0,0,0,0
1681044247.59952021,62628272,1000,1000,1000,1000,0,0,0,0,0,0,0,0,0,0
1681044247.69948006,62728232,1000,1000,1000,1000,0,0,0,0,0,0,0,0,0,0
1681044247.79944015,62828192,1000,1000,1000,1000,0,0,0,0,0,0,0,0,0,0
1681044247.90023327,62928985,1000,1000,1000,1000,0,0,0,0,0,0,0,0,0,0
1681044248.00019312,63028945,1000,1000,1000,1000,0,0,0,0,0,0,0,0,0,0
1681044248.10015321,63128905,1000,1000,1000,1000,0,0,0,0,0,0,0,0,0,0
1681044248.20011306,63228865,1000,1000,1000,1000,0,0,0,0,0,0,0,0,0,0
1681044248.30007315,63328825,1000,1000,1000,1000,0,0,0,0,0,0,0,0,0,0
1681044248.40003324,63428785,1005,1005,1005,1005,0,0,0,0,0,0,0,0,0,0
1681044248.49999309,63528745,1035,1035,1035,1035,0,0,0,0,0,0,0,0,0,0
1681044248.59995317,63628705,1065,1065,1065,1065,0,0,0,0,0,0,0,0,0,0
1681044248.69991326,63728665,1095,1095,1095,1095,0,0,0,0,0,0,0,0,0,0
1681044248.79987311,63828625,1125,1125,1125,1125,0,0,0,0,0,0,0,0,0,0
1681044248.89983320,63928585,1201,1192,1192,1202,0,0,0,0,0,0,0,0,0,0
1681044248.99979305,64028545,1434,1429,1429,1435,0,0,0,0,0,0,0,0,0,0
1681044249.09975314,64128505,1607,1602,1601,1608,0,0,0,0,0,0,0,0,0,0
1681044249.19971323,64228465,1750,1745,1745,1751,0,0,0,0,0,0,0,0,0,0
1681044249.29967308,64328425,1857,1853,1853,1858,0,0,0,0,0,0,0,0,0,0
1681044249.39963317,64428385,1863,1859,1858,1864,0,0,0,0,0,0,0,0,0,0
1681044249.49959326,64528345,1780,1778,1779,1780,0,0,0,0,0,0,0,0,0,0
1681044249.59955311,64628305,1663,1664,1664,1663,0,0,0,0,0,0,0,0,0,0
1681044249.69951320,64728265,1617,1619,1619,1617,0,0,0,0,0,0,0,0,0,0
1681044249.79947305,64828225,1616,1618,1613,1621,0,0,0,0,0,0,0,0,0,0
1681044249.89943314,64928185,1628,1631,1626,1634,0,0,0,0,0,0,0,0,0,0
1681044250.00022626,65028978,1635,1638,1635,1638,0,0,0,0,0,0,0,0,0,0
1681044250.10018611,65128938,1634,1635,1636,1634,0,0,0,0,0,0,0,0,0,0
1681044250.20014620,65228898,1629,1629,1631,1626,0,0,0,0,0,0,0,0,0,0
1681044250.30010605,65328858,1625,1624,1628,1621,0,0,0,0,0,0,0,0,0,0
1681044250.40006614,65428818,1624,1622,1626,1620,0,0,0,0,0,0,0,0,0,0
1681044250.50002623,65528778,1623,1622,1624,1621,0,0,0,0,0,0,0,0,0,0
1681044250.59998608,65628738,1624,1623,1623,1624,0,0,0,0,0,0,0,0,0,0
1681044250.69994617,65728698,1603,1602,1605,1599,0,0,0,0,0,0,0,0,0,0
1681044250.79990625,65828658,1584,1584,1590,1577,0,0,0,0,0,0,0,0,0,0
1681044250.89986610,65928618,1570,1571,1573,1568,0,0,0,0,0,0,0,0,0,0
1681044250.99982619,66028578,1561,1561,1559,1562,0,0,0,0,0,0,0,0,0,0
1681044251.09978604,66128538,1552,1552,1548,1557,0,0,0,0,0,0,0,0,0,0
1681044251.19974613,66228498,1546,1546,1537,1554,0,0,0,0,0,0,0,0,0,0
1681044251.29970622,66328458,1539,1538,1531,1546,0,0,0,0,0,0,0,0,0,0
1681044251.39966607,66428418,1535,1534,1530,1538,0,0,0,0,0,0,0,0,0,0
1681044251.49962616,66528378,1529,1529,1528,1530,0,0,0,0,0,0,0,0,0,0
1681044251.59958625,66628338,1528,1528,1529,1527,0,0,0,0,0,0,0,0,0,0
1681044251.69954610,66728298,1530,1530,1533,1528,0,0,0,0,0,0,0,0,0,0
1681044251.79950619,66828258,1531,1531,1534,1528,0,0,0,0,0,0,0,0,0,0
1681044251.89946604,66928218,1535,1535,1538,1533,0,0,0,0,0,0,0,0,0,0
1681044251.99942613,67028178,1538,1539,1540,1537,0,0,0,0,0,0,0,0,0,0
1681044252.10021925,67128971,1541,1542,1543,1541,0,0,0,0,0,0,0,0,0,0
1681044252.20017910,67228931,1545,1545,1545,1545,0,0,0,0,0,0,0,0,0,0
1681044252.30013919,67328891,1547,1547,1547,1548,0,0,0,0,0,0,0,0,0,0
1681044252.40009904,67428851,1551,1550,1550,1551,0,0,0,0,0,0,0,0,0,0
1681044252.50005913,67528811,1554,1554,1553,1555,0,0,0,0,0,0,0,0,0,0
1681044252.60001922,67628771,1555,1555,1554,1557,0,0,0,0,0,0,0,0,0,0
1681044252.69997907,67728731,1556,1556,1558,1560,0,0,0,0,0,0,0,0,0,0
1681044252.79993916,67828691,1557,1557,1561,1561,0,0,0,0,0,0,0,0,0,0
1681044252.89989924,67928651,1558,1559,1563,1563,0,0,0,0,0,0,0,0,0,0
1681044252.99985909,68028611,1561,1561,1566,1565,0,0,0,0,0,0,0,0,0,0
1681044253.09981918,68128571,1563,1563,1567,1566,0,0,0,0,0,0,0,0,0,0
1681044253.19977903,68228531,1566,1566,1568,1567,0,0,0,0,0,0,0,0,0,0
1681044253.29973912,68328491,1567,1567,1568,1568,0,0,0,0,0,0,0,0,0,0
1681044253.39969921,68428451,1569,1569,1568,1568,0,0,0,0,0,0,0,0,0,0
1681044253.49965906,68528411,1570,1569,1568,1568,0,0,0,0,0,0,0,0,0,0
1681044253.59961915,68628371,1571,1572,1569,1569,0,0,0,0,0,0,0,0,0,0
1681044253.69957924,68728331,1571,1572,1569,1569,0,0,0,0,0,0,0,0,0,0
1681044253.79953909,68828291,1572,1573,1570,1569,0,0,0,0,0,0,0,0,0,0
1681044253.89949918,68928251,1574,1573,1571,1570,0,0,0,0,0,0,0,0,0,0
1681044253.99945927,69028211,1575,1575,1573,1572,0,0,0,0,0,0,0,0,0,0
1681044254.09941912,69128171,1577,1576,1575,1574,0,0,0,0,0,0,0,0,0,0
1681044254.20021224,69228964,1575,1575,1575,1573,0,0,0,0,0,0,0,0,0,0
1681044254.30017209,69328924,1574,1574,1574,1574,0,0,0,0,0,0,0,0,0,0
1681044254.40013218,69428884,1574,1575,1575,1575,0,0,0,0,0,0,0,0,0,0
1681044254.50009227,69528844,1576,1576,1576,1576,0,0,0,0,0,0,0,0,0,0
1681044254.60005212,69628804,1576,1575,1576,1576,0,0,0,0,0,0,0,0,0,0
1681044254.70001221,69728764,1575,1575,1576,1576,0,0,0,0,0,0,0,0,0,0
1681044254.79997206,69828724,1576,1577,1577,1578,0,0,0,0,0,0,0,0,0,0
1681044254.89993215,69928684,1576,1576,1577,1577,0,0,0,0,0,0,0,0,0,0
1681044254.99989223,70028644,1576,1576,1577,1576,0,0,0,0,0,0,0,0,0,0
1681044255.09985209,70128604,1577,1577,1577,1577,0,0,0,0,0,0,0,0,0,0
1681044255.19981217,70228564,1576,1576,1576,1576,0,0,0,0,0,0,0,0,0,0
1681044255.29977226,70328524,1576,1576,1576,1576,0,0,0,0,0,0,0,0,0,0
1681044255.39973211,70428484,1577,1577,1577,1577,0,0,0,0,0,0,0,0,0,0
1681044255.49969220,70528444,1578,1577,1577,1577,0,0,0,0,0,0,0,0,0,0
1681044255.59965205,70628404,1578,1578,1578,1577,0,0,0,0,0,0,0,0,0,0
1681044255.69961214,70728364,1578,1578,1578,1578,0,0,0,0,0,0,0,0,0,0
1681044255.79957223,70828324,1579,1579,1578,1578,0,0,0,0,0,0,0,0,0,0
1681044255.89953208,70928284,1578,1578,1578,1578,0,0,0,0,0,0,0,0,0,0
1681044255.99949217,71028244,1578,1578,1578,1578,0,0,0,0,0,0,0,0,0,0
1681044256.09945226,71128204,1579,1578,1578,1579,0,0,0,0,0,0,0,0,0,0
1681044256.19941211,71228164,1579,1579,1579,1579,0,0,0,0,0,0,0,0,0,0
1681044256.30020523,71328957,1579,1579,1579,1579,0,0,0,0,0,0,0,0,0,0
1681044256.40016508,71428917,1579,1579,1579,1579,0,0,0,0,0,0,0,0,0,0
1681044256.50012517,71528877,1579,1579,1579,1579,0,0,0,0,0,0,0,0,0,0
1681044256.60008526,71628837,1579,1579,1579,1579,0,0,0,0,0,0,0,0,0,0
1681044256.70004511,71728797,1579,1579,1580,1579,0,0,0,0,0,0,0,0,0,0
1681044256.80000520,71828757,1579,1579,1580,1579,0,0,0,0,0,0,0,0,0,0
1681044256.89996505,71928717,1579,1579,1579,1580,0,0,0,0,0,0,0,0,0,0
1681044256.99992514,72028677,1580,1580,1580,1580,0,0,0,0,0,0,0,0,0,0
1681044257.09988523,72128637,1580,1580,1580,1580,0,0,0,0,0,0,0,0,0,0
1681044257.19984508,72228597,1580,1580,1580,1580,0,0,0,0,0,0,0,0,0,0
1681044257.29980516,72328557,1580,1580,1580,1580,0,0,0,0,0,0,0,0,0,0
1681044257.39976525,72428517,1579,1580,1579,1580,0,0,0,0,0,0,0,0,0,0
1681044257.49972510,72528477,1580,1580,1580,1580,0,0,0,0,0,0,0,0,0,0
1681044257.59968519,72628437,1580,1580,1580,1580,0,0,0,0,0,0,0,0,0,0
1681044257.69964504,72728397,1581,1580,1580,1580,0,0,0,0,0,0,0,0,0,0
1681044257.79960513,72828357,1580,1580,1580,1580,0,0,0,0,0,0,0,0,0,0
1681044257.89956522,72928317,1580,1580,1579,1580,0,0,0,0,0,0,0,0,0,0
1681044257.99952507,73028277,1580,1580,1580,1580,0,0,0,0,0,0,0,0,0,0
1681044258.09948516,73128237,1580,1580,1580,1580,0,0,0,0,0,0,0,0,0,0
1681044258.19944525,73228197,1581,1581,1580,1581,0,0,0,0,0,0,0,0,0,0
1681044258.29940510,73328157,1580,1580,1580,1580,0,0,0,0,0,0,0,0,0,0
1681044258.40019822,73428950,1581,1581,1581,1581,0,0,0,0,0,0,0,0,0,0
1681044258.50015807,73528910,1581,1581,1581,1582,0,0,0,0,0,0,0,0,0,0
1681044258.60011816,73628870,1581,1581,1582,1581,0,0,0,0,0,0,0,0,0,0
1681044258.70007825,73728830,1581,1581,1581,1582,0,0,0,0,0,0,0,0,0,0
1681044258.80003810,73828790,1581,1581,1585,1577,0,0,0,0,0,0,0,0,0,0
1681044258.89999819,73928750,1581,1583,1588,1573,0,0,0,0,0,0,0,0,0,0
1681044258.99995804,74028710,1580,1583,1583,1574,0,0,0,0,0,0,0,0,0,0
1681044259.09991813,74128670,1578,1581,1572,1573,0,0,0,0,0,0,0,0,0,0
1681044259.19987822,74228630,1577,1580,1565,1571,0,0,0,0,0,0,0,0,0,0
1681044259.29983807,74328590,1577,1579,1559,1566,0,0,0,0,0,0,0,0,0,0
1681044259.39979815,74428550,1579,1579,1556,1562,0,0,0,0,0,0,0,0,0,0
1681044259.49975824,74528510,1579,1578,1555,1557,0,0,0,0,0,0,0,0,0,0
1681044259.59971809,74628470,1580,1578,1555,1554,0,0,0,0,0,0,0,0,0,0
1681044259.69967818,74728430,1578,1577,1555,1553,0,0,0,0,0,0,0,0,0,0
1681044259.79963803,74828390,1578,1578,1556,1553,0,0,0,0,0,0,0,0,0,0
1681044259.89959812,74928350,1576,1576,1555,1553,0,0,0,0,0,0,0,0,0,0
1681044259.99955821,75028310,1575,1577,1555,1553,0,0,0,0,0,0,0,0,0,0
1681044260.09951806,75128270,1575,1577,1554,1554,0,0,0,0,0,0,0,0,0,0
1681044260.19947815,75228230,1575,1577,1552,1553,0,0,0,0,0,0,0,0,0,0
1681044260.29943824,75328190,1576,1577,1550,1551,0,0,0,0,0,0,0,0,0,0
1681044260.40023112,75428983,1577,1579,1549,1549,0,0,0,0,0,0,0,0,0,0
1681044260.50019121,75528943,1579,1580,1546,1546,0,0,0,0,0,0,0,0,0,0
1681044260.60015106,75628903,1582,1583,1544,1543,0,0,0,0,0,0,0,0,0,0
1681044260.70011115,75728863,1586,1587,1542,1542,0,0,0,0,0,0,0,0,0,0
1681044260.80007124,75828823,1589,1589,1540,1538,0,0,0,0,0,0,0,0,0,0
1681044260.90003109,75928783,1592,1592,1537,1537,0,0,0,0,0,0,0,0,0,0
1681044260.99999118,76028743,1593,1593,1534,1535,0,0,0,0,0,0,0,0,0,0
1681044261.09995127,76128703,1595,1594,1534,1536,0,0,0,0,0,0,0,0,0,0
1681044261.19991112,76228663,1594,1595,1535,1537,0,0,0,0,0,0,0,0,0,0
1681044261.29987121,76328623,1594,1594,1537,1540,0,0,0,0,0,0,0,0,0,0
1681044261.39983106,76428583,1592,1591,1542,1545,0,0,0,0,0,0,0,0,0,0
1681044261.49979115,76528543,1586,1584,1548,1551,0,0,0,0,0,0,0,0,0,0
1681044261.59975123,76628503,1579,1576,1557,1560,0,0,0,0,0,0,0,0,0,0
1681044261.69971108,76728463,1570,1565,1568,1570,0,0,0,0,0,0,0,0,0,0
1681044261.79967117,76828423,1558,1554,1580,1581,0,0,0,0,0,0,0,0,0,0
1681044261.89963126,76928383,1548,1545,1594,1594,0,0,0,0,0,0,0,0,0,0
1681044261.99959111,77028343,1537,1536,1603,1603,0,0,0,0,0,0,0,0,0,0
1681044262.09955120,77128303,1531,1531,1612,1611,0,0,0,0,0,0,0,0,0,0
1681044262.19951105,77228263,1527,1529,1615,1614,0,0,0,0,0,0,0,0,0,0
1681044262.29947114,77328223,1529,1531,1616,1614,0,0,0,0,0,0,0,0,0,0
1681044262.39943123,77428183,1533,1536,1611,1611,0,0,0,0,0,0,0,0,0,0
1681044262.50022411,77528976,1540,1543,1606,1607,0,0,0,0,0,0,0,0,0,0
1681044262.60018420,77628936,1549,1550,1599,1599,0,0,0,0,0,0,0,0,0,0
1681044262.70014405,77728896,1557,1558,1591,1591,0,0,0,0,0,0,0,0,0,0
1681044262.80010414,77828856,1566,1567,1584,1583,0,0,0,0,0,0,0,0,0,0
1681044262.90006423,77928816,1576,1575,1578,1578,0,0,0,0,0,0,0,0,0,0
1681044263.00002408,78028776,1580,1580,1572,1571,0,0,0,0,0,0,0,0,0,0
1681044263.09998417,78128736,1585,1583,1567,1567,0,0,0,0,0,0,0,0,0,0
1681044263.19994426,78228696,1587,1586,1566,1566,0,0,0,0,0,0,0,0,0,0
1681044263.29990411,78328656,1588,1586,1566,1566,0,0,0,0,0,0,0,0,0,0
1681044263.39986420,78428616,1587,1585,1566,1566,0,0,0,0,0,0,0,0,0,0
1681044263.49982405,78528576,1585,1584,1569,1570,0,0,0,0,0,0,0,0,0,0
1681044263.59978414,78628536,1583,1583,1573,1573,0,0,0,0,0,0,0,0,0,0
1681044263.69974422,78728496,1580,1580,1576,1576,0,0,0,0,0,0,0,0,0,0
1681044263.79970407,78828456,1577,1577,1578,1578,0,0,0,0,0,0,0,0,0,0
1681044263.89966416,78928416,1575,1575,1581,1581,0,0,0,0,0,0,0,0,0,0
1681044263.99962425,79028376,1572,1573,1582,1582,0,0,0,0,0,0,0,0,0,0
1681044264.09958410,79128336,1573,1573,1584,1584,0,0,0,0,0,0,0,0,0,0
1681044264.19954419,79228296,1572,1573,1584,1584,0,0,0,0,0,0,0,0,0,0
1681044264.29950404,79328256,1573,1573,1584,1584,0,0,0,0,0,0,0,0,0,0
1681044264.39946413,79428216,1574,1574,1583,1583,0,0,0,0,0,0,0,0,0,0
1681044264.49942422,79528176,1574,1574,1581,1581,0,0,0,0,0,0,0,0,0,0
1681044264.60021710,79628969,1577,1577,1580,1581,0,0,0,0,0,0,0,0,0,0
1681044264.70017719,79728929,1578,1578,1580,1579,0,0,0,0,0,0,0,0,0,0
1681044264.80013704,79828889,1579,1579,1578,1578,0,0,0,0,0,0,0,0,0,0
1681044264.90009713,79928849,1581,1581,1578,1578,0,0,0,0,0,0,0,0,0,0
1681044265.00005722,80028809,1580,1580,1576,1576,0,0,0,0,0,0,0,0,0,0
1681044265.10001707,80128769,1582,1581,1577,1577,0,0,0,0,0,0,0,0,0,0
1681044265.19997716,80228729,1582,1582,1578,1578,0,0,0,0,0,0,0,0,0,0
1681044265.29993725,80328689,1582,1581,1577,1577,0,0,0,0,0,0,0,0,0,0
1681044265.39989710,80428649,1580,1581,1577,1578,0,0,0,0,0,0,0,0,0,0
1681044265.49985719,80528609,1580,1580,1578,1578,0,0,0,0,0,0,0,0,0,0
1681044265.59981704,80628569,1580,1579,1579,1578,0,0,0,0,0,0,0,0,0,0
1681044265.69977713,80728529,1580,1580,1580,1580,0,0,0,0,0,0,0,0,0,0
1681044265.79973722,80828489,1580,1580,1581,1581,0,0,0,0,0,0,0,0,0,0
1681044265.89969707,80928449,1579,1579,1580,1581,0,0,0,0,0,0,0,0,0,0
1681044265.99965715,81028409,1579,1579,1581,1581,0,0,0,0,0,0,0,0,0,0
1681044266.09961724,81128369,1579,1579,1581,1581,0,0,0,0,0,0,0,0,0,0
1681044266.19957709,81228329,1579,1579,1581,1580,0,0,0,0,0,0,0,0,0,0
1681044266.29953718,81328289,1580,1580,1581,1581,0,0,0,0,0,0,0,0,0,0
1681044266.39949703,81428249,1580,1580,1581,1581,0,0,0,0,0,0,0,0,0,0
1681044266.49945712,81528209,1580,1580,1580,1580,0,0,0,0,0,0,0,0,0,0
1681044266.59941721,81628169,1581,1580,1580,1580,0,0,0,0,0,0,0,0,0,0
1681044266.70021009,81728962,1581,1581,1580,1580,0,0,0,0,0,0,0,0,0,0
1681044266.80017018,81828922,1580,1581,1583,1576,0,0,0,0,0,0,0,0,0,0
1681044266.90013003,81928882,1580,1584,1586,1571,0,0,0,0,0,0,0,0,0,0
1681044267.00009012,82028842,1580,1584,1579,1570,0,0,0,0,0,0,0,0,0,0
1681044267.10005021,82128802,1579,1582,1569,1570,0,0,0,0,0,0,0,0,0,0
1681044267.20001006,82228762,1578,1581,1560,1567,0,0,0,0,0,0,0,0,0,0
1681044267.29997015,82328722,1580,1580,1556,1563,0,0,0,0,0,0,0,0,0,0
1681044267.39993024,82428682,1580,1580,1553,1558,0,0,0,0,0,0,0,0,0,0
1681044267.49989009,82528642,1581,1580,1553,1555,0,0,0,0,0,0,0,0,0,0
1681044267.59985018,82628602,1582,1580,1554,1553,0,0,0,0,0,0,0,0,0,0
1681044267.69981027,82728562,1581,1580,1554,1552,0,0,0,0,0,0,0,0,0,0
1681044267.79977012,82828522,1579,1579,1554,1552,0,0,0,0,0,0,0,0,0,0
1681044267.89973021,82928482,1578,1579,1555,1553,0,0,0,0,0,0,0,0,0,0
1681044267.99969006,83028442,1576,1578,1554,1553,0,0,0,0,0,0,0,0,0,0
1681044268.09965014,83128402,1578,1580,1432,1529,0,0,0,0,0,0,0,0,0,0
1681044268.19961023,83228362,1595,1598,1499,1513,0,0,0,0,0,0,0,0,0,0
1681044268.29957008,83328322,1599,1605,1543,1514,0,0,0,0,0,0,0,0,0,0
1681044268.39953017,83428282,1603,1609,1575,1532,0,0,0,0,0,0,0,0,0,0
1681044268.49949026,83528242,1601,1606,1591,1553,0,0,0,0,0,0,0,0,0,0
1681044268.59945011,83628202,1592,1598,1591,1568,0,0,0,0,0,0,0,0,0,0
1681044268.69941020,83728162,1586,1589,1582,1578,0,0,0,0,0,0,0,0,0,0
1681044268.80020308,83828955,1584,1585,1569,1580,0,0,0,0,0,0,0,0,0,0
1681044268.90016317,83928915,1587,1585,1557,1575,0,0,0,0,0,0,0,0,0,0
1681044269.00012326,84028875,1595,1591,1548,1565,0,0,0,0,0,0,0,0,0,0
1681044269.10008311,84128835,1602,1597,1543,1556,0,0,0,0,0,0,0,0,0,0
1681044269.20004320,84228795,1606,1601,1542,1549,0,0,0,0,0,0,0,0,0,0
1681044269.30000305,84328755,1607,1601,1546,1549,0,0,0,0,0,0,0,0,0,0
1681044269.39996314,84428715,1601,1596,1553,1555,0,0,0,0,0,0,0,0,0,0
1681044269.49992323,84528675,1590,1585,1564,1565,0,0,0,0,0,0,0,0,0,0
1681044269.59988308,84628635,1576,1571,1578,1580,0,0,0,0,0,0,0,0,0,0
1681044269.69984317,84728595,1560,1556,1593,1594,0,0,0,0,0,0,0,0,0,0
1681044269.79980326,84828555,1547,1544,1607,1605,0,0,0,0,0,0,0,0,0,0
1681044269.89976311,84928515,1539,1536,1617,1614,0,0,0,0,0,0,0,0,0,0
1681044269.99972320,85028475,1535,1534,1623,1618,0,0,0,0,0,0,0,0,0,0
1681044270.09968305,85128435,1534,1534,1623,1619,0,0,0,0,0,0,0,0,0,0
1681044270.19964314,85228395,1535,1537,1621,1617,0,0,0,0,0,0,0,0,0,0
1681044270.29960322,85328355,1539,1542,1617,1614,0,0,0,0,0,0,0,0,0,0
1681044270.39956307,85428315,1541,1544,1608,1608,0,0,0,0,0,0,0,0,0,0
1681044270.49952316,85528275,1547,1548,1601,1603,0,0,0,0,0,0,0,0,0,0
1681044270.59948325,85628235,1552,1553,1593,1597,0,0,0,0,0,0,0,0,0,0
1681044270.69944310,85728195,1558,1558,1587,1591,0,0,0,0,0,0,0,0,0,0
1681044270.79940319,85828155,1563,1563,1581,1584,0,0,0,0,0,0,0,0,0,0
1681044270.90019608,85928948,1569,1568,1576,1578,0,0,0,0,0,0,0,0,0,0
1681044271.00015616,86028908,1573,1572,1571,1571,0,0,0,0,0,0,0,0,0,0
1681044271.10011625,86128868,1579,1578,1568,1567,0,0,0,0,0,0,0,0,0,0
1681044271.20007610,86228828,1583,1582,1564,1563,0,0,0,0,0,0,0,0,0,0
1681044271.30003619,86328788,1586,1586,1561,1560,0,0,0,0,0,0,0,0,0,0
1681044271.39999604,86428748,1588,1587,1560,1560,0,0,0,0,0,0,0,0,0,0
1681044271.49995613,86528708,1588,1587,1560,1560,0,0,0,0,0,0,0,0,0,0
1681044271.59991622,86628668,1586,1585,1561,1562,0,0,0,0,0,0,0,0,0,0
1681044271.69987607,86728628,1583,1582,1563,1564,0,0,0,0,0,0,0,0,0,0
1681044271.79983616,86828588,1580,1580,1568,1568,0,0,0,0,0,0,0,0,0,0
1681044271.89979625,86928548,1577,1577,1572,1572,0,0,0,0,0,0,0,0,0,0
1681044271.99975610,87028508,1576,1577,1577,1577,0,0,0,0,0,0,0,0,0,0
1681044272.09971619,87128468,1573,1574,1580,1579,0,0,0,0,0,0,0,0,0,0
1681044272.19967604,87228428,1573,1574,1583,1582,0,0,0,0,0,0,0,0,0,0
1681044272.29963613,87328388,1572,1573,1584,1584,0,0,0,0,0,0,0,0,0,0
1681044272.39959621,87428348,1572,1573,1585,1585,0,0,0,0,0,0,0,0,0,0
1681044272.49955606,87528308,1573,1574,1585,1585,0,0,0,0,0,0,0,0,0,0
1681044272.59951615,87628268,1574,1575,1584,1584,0,0,0,0,0,0,0,0,0,0
1681044272.69947624,87728228,1575,1575,1582,1582,0,0,0,0,0,0,0,0,0,0
1681044272.79943609,87828188,1577,1577,1581,1582,0,0,0,0,0,0,0,0,0,0
1681044272.90022922,87928981,1579,1579,1580,1580,0,0,0,0,0,0,0,0,0,0
1681044273.00018907,88028941,1580,1581,1579,1579,0,0,0,0,0,0,0,0,0,0
1681044273.10014915,88128901,1581,1580,1578,1578,0,0,0,0,0,0,0,0,0,0
1681044273.20010924,88228861,1582,1581,1577,1577,0,0,0,0,0,0,0,0,0,0
1681044273.30006909,88328821,1582,1582,1577,1577,0,0,0,0,0,0,0,0,0,0
1681044273.40002918,88428781,1582,1582,1577,1577,0,0,0,0,0,0,0,0,0,0
1681044273.49998903,88528741,1582,1581,1577,1577,0,0,0,0,0,0,0,0,0,0
1681044273.59994912,88628701,1582,1582,1578,1578,0,0,0,0,0,0,0,0,0,0
1681044273.69990921,88728661,1581,1580,1578,1578,0,0,0,0,0,0,0,0,0,0
1681044273.79986906,88828621,1580,1580,1579,1578,0,0,0,0,0,0,0,0,0,0
1681044273.89982915,88928581,1580,1581,1580,1579,0,0,0,0,0,0,0,0,0,0
1681044273.99978924,89028541,1580,1580,1580,1580,0,0,0,0,0,0,0,0,0,0
1681044274.09974909,89128501,1580,1580,1581,1581,0,0,0,0,0,0,0,0,0,0
1681044274.19970918,89228461,1579,1578,1580,1580,0,0,0,0,0,0,0,0,0,0
1681044274.29966927,89328421,1579,1580,1581,1582,0,0,0,0,0,0,0,0,0,0
1681044274.39962912,89428381,1580,1580,1582,1582,0,0,0,0,0,0,0,0,0,0
1681044274.49958920,89528341,1581,1581,1583,1583,0,0,0,0,0,0,0,0,0,0
1681044274.59954906,89628301,1581,1581,1583,1583,0,0,0,0,0,0,0,0,0,0
1681044274.69950914,89728261,1582,1582,1583,1583,0,0,0,0,0,0,0,0,0,0
1681044274.79946923,89828221,1583,1582,1584,1581,0,0,0,0,0,0,0,0,0,0
1681044274.89942908,89928181,1582,1584,1588,1574,0,0,0,0,0,0,0,0,0,0
1681044275.00022221,90028974,1581,1585,1585,1574,0,0,0,0,0,0,0,0,0,0
1681044275.10018206,90128934,1579,1583,1576,1575,0,0,0,0,0,0,0,0,0,0
1681044275.20014215,90228894,1577,1580,1567,1572,0,0,0,0,0,0,0,0,0,0
1681044275.30010223,90328854,1576,1578,1561,1568,0,0,0,0,0,0,0,0,0,0
1681044275.40006208,90428814,1577,1577,1556,1563,0,0,0,0,0,0,0,0,0,0
1681044275.50002217,90528774,1580,1577,1555,1559,0,0,0,0,0,0,0,0,0,0
1681044275.59998226,90628734,1580,1578,1555,1556,0,0,0,0,0,0,0,0,0,0
1681044275.69994211,90728694,1580,1578,1555,1554,0,0,0,0,0,0,0,0,0,0
1681044275.79990220,90828654,1578,1578,1555,1552,0,0,0,0,0,0,0,0,0,0
1681044275.89986205,90928614,1578,1578,1556,1554,0,0,0,0,0,0,0,0,0,0
1681044275.99982214,91028574,1576,1577,1556,1554,0,0,0,0,0,0,0,0,0,0
1681044276.09978223,91128534,1575,1577,1556,1554,0,0,0,0,0,0,0,0,0,0
1681044276.19974208,91228494,1575,1576,1554,1554,0,0,0,0,0,0,0,0,0,0
1681044276.29970217,91328454,1576,1577,1553,1554,0,0,0,0,0,0,0,0,0,0
1681044276.39966226,91428414,1576,1577,1551,1552,0,0,0,0,0,0,0,0,0,0
1681044276.49962211,91528374,1578,1579,1550,1550,0,0,0,0,0,0,0,0,0,0
1681044276.59958220,91628334,1579,1580,1548,1548,0,0,0,0,0,0,0,0,0,0
1681044276.69954205,91728294,1583,1583,1546,1545,0,0,0,0,0,0,0,0,0,0
1681044276.79950213,91828254,1585,1586,1543,1543,0,0,0,0,0,0,0,0,0,0
1681044276.89946222,91928214,1588,1589,1542,1541,0,0,0,0,0,0,0,0,0,0
1681044276.99942207,92028174,1591,1592,1539,1540,0,0,0,0,0,0,0,0,0,0
1681044277.10021520,92128967,1592,1593,1537,1539,0,0,0,0,0,0,0,0,0,0
1681044277.20017505,92228927,1593,1593,1535,1536,0,0,0,0,0,0,0,0,0,0
1681044277.30013514,92328887,1595,1595,1536,1539,0,0,0,0,0,0,0,0,0,0
1681044277.40009522,92428847,1594,1592,1537,1540,0,0,0,0,0,0,0,0,0,0
1681044277.50005507,92528807,1591,1589,1542,1545,0,0,0,0,0,0,0,0,0,0
1681044277.60001516,92628767,1586,1583,1549,1552,0,0,0,0,0,0,0,0,0,0
1681044277.69997525,92728727,1579,1574,1559,1562,0,0,0,0,0,0,0,0,0,0
1681044277.79993510,92828687,1569,1566,1571,1573,0,0,0,0,0,0,0,0,0,0
1681044277.89989519,92928647,1559,1556,1584,1585,0,0,0,0,0,0,0,0,0,0
1681044277.99985504,93028607,1548,1546,1595,1595,0,0,0,0,0,0,0,0,0,0
1681044278.09981513,93128567,1540,1539,1606,1604,0,0,0,0,0,0,0,0,0,0
1681044278.19977522,93228527,1535,1537,1612,1610,0,0,0,0,0,0,0,0,0,0
1681044278.29973507,93328487,1535,1537,1614,1612,0,0,0,0,0,0,0,0,0,0
1681044278.39969516,93428447,1537,1539,1614,1612,0,0,0,0,0,0,0,0,0,0
1681044278.49965525,93528407,1542,1543,1611,1610,0,0,0,0,0,0,0,0,0,0
1681044278.59961510,93628367,1546,1547,1605,1605,0,0,0,0,0,0,0,0,0,0
1681044278.69957519,93728327,1552,1552,1600,1600,0,0,0,0,0,0,0,0,0,0
1681044278.79953504,93828287,1559,1559,1595,1595,0,0,0,0,0,0,0,0,0,0
1681044278.89949512,93928247,1565,1565,1589,1589,0,0,0,0,0,0,0,0,0,0
1681044278.99945521,94028207,1571,1571,1582,1583,0,0,0,0,0,0,0,0,0,0
1681044279.09941506,94128167,1578,1577,1577,1577,0,0,0,0,0,0,0,0,0,0
1681044279.20020819,94228960,1582,1581,1571,1571,0,0,0,0,0,0,0,0,0,0
1681044279.30016804,94328920,1585,1584,1567,1568,0,0,0,0,0,0,0,0,0,0
1681044279.40012813,94428880,1586,1584,1564,1565,0,0,0,0,0,0,0,0,0,0
1681044279.50008821,94528840,1587,1585,1565,1566,0,0,0,0,0,0,0,0,0,0
1681044279.60004807,94628800,1585,1584,1566,1567,0,0,0,0,0,0,0,0,0,0
1681044279.70000815,94728760,1583,1582,1569,1569,0,0,0,0,0,0,0,0,0,0
1681044279.79996824,94828720,1580,1580,1571,1571,0,0,0,0,0,0,0,0,0,0
1681044279.89992809,94928680,1579,1579,1575,1575,0,0,0,0,0,0,0,0,0,0
1681044279.99988818,95028640,1577,1577,1579,1578,0,0,0,0,0,0,0,0,0,0
1681044280.09984803,95128600,1575,1575,1581,1580,0,0,0,0,0,0,0,0,0,0
1681044280.19980812,95228560,1573,1574,1583,1582,0,0,0,0,0,0,0,0,0,0
1681044280.29976821,95328520,1572,1572,1583,1583,0,0,0,0,0,0,0,0,0,0
1681044280.39972806,95428480,1572,1573,1584,1584,0,0,0,0,0,0,0,0,0,0
1681044280.49968815,95528440,1573,1573,1583,1583,0,0,0,0,0,0,0,0,0,0
1681044280.59964824,95628400,1574,1574,1583,1583,0,0,0,0,0,0,0,0,0,0
1681044280.69960809,95728360,1576,1576,1582,1582,0,0,0,0,0,0,0,0,0,0
1681044280.79956818,95828320,1577,1577,1581,1581,0,0,0,0,0,0,0,0,0,0
1681044280.89952826,95928280,1579,1579,1580,1580,0,0,0,0,0,0,0,0,0,0
1681044280.99948812,96028240,1579,1579,1579,1579,0,0,0,0,0,0,0,0,0,0
1681044281.09944820,96128200,1580,1580,1578,1579,0,0,0,0,0,0,0,0,0,0
1681044281.19940805,96228160,1580,1580,1577,1577,0,0,0,0,0,0,0,0,0,0
1681044281.30020118,96328953,1582,1581,1577,1577,0,0,0,0,0,0,0,0,0,0
1681044281.40016127,96428913,1582,1582,1578,1577,0,0,0,0,0,0,0,0,0,0
1681044281.50012112,96528873,1582,1582,1578,1578,0,0,0,0,0,0,0,0,0,0
1681044281.60008121,96628833,1582,1581,1578,1578,0,0,0,0,0,0,0,0,0,0
1681044281.70004106,96728793,1581,1581,1578,1579,0,0,0,0,0,0,0,0,0,0
1681044281.80000114,96828753,1579,1580,1578,1578,0,0,0,0,0,0,0,0,0,0
1681044281.89996123,96928713,1580,1580,1580,1580,0,0,0,0,0,0,0,0,0,0
1681044281.99992108,97028673,1580,1580,1580,1580,0,0,0,0,0,0,0,0,0,0
1681044282.09988117,97128633,1579,1579,1581,1580,0,0,0,0,0,0,0,0,0,0
1681044282.19984126,97228593,1579,1579,1581,1581,0,0,0,0,0,0,0,0,0,0
1681044282.29980111,97328553,1579,1579,1581,1581,0,0,0,0,0,0,0,0,0,0
1681044282.39976120,97428513,1578,1579,1580,1580,0,0,0,0,0,0,0,0,0,0
1681044282.49972105,97528473,1579,1579,1580,1581,0,0,0,0,0,0,0,0,0,0
1681044282.59968114,97628433,1580,1580,1582,1581,0,0,0,0,0,0,0,0,0,0
1681044282.69964123,97728393,1581,1581,1581,1581,0,0,0,0,0,0,0,0,0,0
1681044282.79960108,97828353,1581,1581,1584,1577,0,0,0,0,0,0,0,0,0,0
1681044282.89956117,97928313,1581,1582,1587,1572,0,0,0,0,0,0,0,0,0,0
1681044282.99952126,98028273,1579,1580,1582,1573,0,0,0,0,0,0,0,0,0,0
1681044283.09948111,98128233,1576,1576,1575,1575,0,0,0,0,0,0,0,0,0,0
1681044283.19944119,98228193,1572,1572,1569,1574,0,0,0,0,0,0,0,0,0,0
1681044283.30023408,98328986,1569,1568,1565,1572,0,0,0,0,0,0,0,0,0,0
1681044283.40019417,98428946,1569,1569,1565,1572,0,0,0,0,0,0,0,0,0,0
1681044283.50015426,98528906,1567,1566,1564,1568,0,0,0,0,0,0,0,0,0,0
1681044283.60011411,98628866,1565,1565,1565,1565,0,0,0,0,0,0,0,0,0,0
1681044283.70007420,98728826,1566,1565,1566,1564,0,0,0,0,0,0,0,0,0,0
1681044283.80003405,98828786,1565,1565,1566,1563,0,0,0,0,0,0,0,0,0,0
1681044283.89999413,98928746,1564,1565,1565,1563,0,0,0,0,0,0,0,0,0,0
1681044283.99995422,99028706,1564,1564,1565,1563,0,0,0,0,0,0,0,0,0,0
1681044284.09991407,99128666,1563,1563,1564,1563,0,0,0,0,0,0,0,0,0,0
1681044284.19987416,99228626,1563,1563,1564,1564,0,0,0,0,0,0,0,0,0,0
1681044284.29983425,99328586,1562,1562,1562,1562,0,0,0,0,0,0,0,0,0,0
1681044284.39979410,99428546,1562,1561,1562,1562,0,0,0,0,0,0,0,0,0,0
1681044284.49975419,99528506,1562,1562,1562,1562,0,0,0,0,0,0,0,0,0,0
1681044284.59971404,99628466,1560,1560,1561,1560,0,0,0,0,0,0,0,0,0,0
1681044284.69967413,99728426,1560,1560,1560,1559,0,0,0,0,0,0,0,0,0,0
1681044284.79963422,99828386,1559,1559,1559,1559,0,0,0,0,0,0,0,0,0,0
1681044284.89959407,99928346,1560,1559,1559,1559,0,0,0,0,0,0,0,0,0,0
1681044284.99955416,100028306,1559,1559,1559,1558,0,0,0,0,0,0,0,0,0,0
1681044285.09951425,100128266,1559,1559,1560,1558,0,0,0,0,0,0,0,0,0,0
1681044285.19947410,100228226,1559,1559,1559,1558,0,0,0,0,0,0,0,0,0,0
1681044285.29943419,100328186,1558,1559,1560,1558,0,0,0,0,0,0,0,0,0,0
1681044285.40022707,100428979,1559,1559,1560,1558,0,0,0,0,0,0,0,0,0,0
1681044285.50018716,100528939,1559,1559,1560,1558,0,0,0,0,0,0,0,0,0,0
1681044285.60014725,100628899,1560,1559,1560,1559,0,0,0,0,0,0,0,0,0,0
1681044285.70010710,100728859,1559,1559,1558,1561,0,0,0,0,0,0,0,0,0,0
1681044285.80006719,100828819,1561,1560,1558,1564,0,0,0,0,0,0,0,0,0,0
1681044285.90002704,100928779,1561,1561,1558,1565,0,0,0,0,0,0,0,0,0,0
1681044285.99998713,101028739,1561,1561,1559,1564,0,0,0,0,0,0,0,0,0,0
1681044286.09994721,101128699,1560,1560,1559,1561,0,0,0,0,0,0,0,0,0,0
1681044286.19990706,101228659,1559,1559,1560,1557,0,0,0,0,0,0,0,0,0,0
1681044286.29986715,101328619,1559,1559,1558,1559,0,0,0,0,0,0,0,0,0,0
1681044286.39982724,101428579,1556,1556,1555,1557,0,0,0,0,0,0,0,0,0,0
1681044286.49978709,101528539,1551,1551,1551,1552,0,0,0,0,0,0,0,0,0,0
1681044286.59974718,101628499,1546,1546,1547,1547,0,0,0,0,0,0,0,0,0,0
1681044286.69970703,101728459,1540,1540,1541,1541,0,0,0,0,0,0,0,0,0,0
1681044286.79966712,101828419,1533,1533,1534,1534,0,0,0,0,0,0,0,0,0,0
1681044286.89962721,101928379,1526,1525,1527,1527,0,0,0,0,0,0,0,0,0,0
1681044286.99958706,102028339,1520,1520,1522,1522,0,0,0,0,0,0,0,0,0,0
1681044287.09954715,102128299,1519,1519,1519,1520,0,0,0,0,0,0,0,0,0,0
1681044287.19950724,102228259,1519,1520,1519,1520,0,0,0,0,0,0,0,0,0,0
1681044287.29946709,102328219,1521,1521,1520,1521,0,0,0,0,0,0,0,0,0,0
1681044287.39942718,102428179,1526,1526,1523,1525,0,0,0,0,0,0,0,0,0,0
1681044287.50022006,102528972,1529,1529,1527,1527,0,0,0,0,0,0,0,0,0,0
1681044287.60018015,102628932,1534,1535,1532,1532,0,0,0,0,0,0,0,0,0,0
1681044287.70014024,102728892,1539,1539,1537,1537,0,0,0,0,0,0,0,0,0,0
1681044287.80010009,102828852,1541,1540,1539,1538,0,0,0,0,0,0,0,0,0,0
1681044287.90006018,102928812,1543,1543,1542,1541,0,0,0,0,0,0,0,0,0,0
1681044288.00002027,103028772,1544,1544,1544,1543,0,0,0,0,0,0,0,0,0,0
1681044288.09998012,103128732,1545,1545,1545,1545,0,0,0,0,0,0,0,0,0,0
1681044288.19994020,103228692,1545,1545,1546,1546,0,0,0,0,0,0,0,0,0,0
1681044288.29990005,103328652,1545,1545,1546,1546,0,0,0,0,0,0,0,0,0,0
1681044288.39986014,103428612,1545,1546,1547,1547,0,0,0,0,0,0,0,0,0,0
1681044288.49982023,103528572,1545,1545,1547,1547,0,0,0,0,0,0,0,0,0,0
1681044288.59978008,103628532,1546,1546,1548,1547,0,0,0,0,0,0,0,0,0,0
1681044288.69974017,103728492,1546,1546,1547,1547,0,0,0,0,0,0,0,0,0,0
1681044288.79970026,103828452,1546,1545,1547,1546,0,0,0,0,0,0,0,0,0,0
1681044288.89966011,103928412,1546,1546,1546,1547,0,0,0,0,0,0,0,0,0,0
1681044288.99962020,104028372,1546,1546,1546,1546,0,0,0,0,0,0,0,0,0,0
1681044289.09958005,104128332,1546,1546,1546,1546,0,0,0,0,0,0,0,0,0,0
1681044289.19954014,104228292,1545,1545,1545,1545,0,0,0,0,0,0,0,0,0,0
1681044289.29950023,104328252,1545,1545,1545,1544,0,0,0,0,0,0,0,0,0,0
1681044289.39946008,104428212,1544,1544,1544,1544,0,0,0,0,0,0,0,0,0,0
1681044289.49942017,104528172,1545,1545,1544,1544,0,0,0,0,0,0,0,0,0,0
1681044289.60021305,104628965,1545,1545,1545,1545,0,0,0,0,0,0,0,0,0,0
1681044289.70017314,104728925,1545,1544,1544,1544,0,0,0,0,0,0,0,0,0,0
1681044289.80013323,104828885,1545,1545,1545,1544,0,0,0,0,0,0,0,0,0,0
1681044289.90009308,104928845,1544,1544,1544,1544,0,0,0,0,0,0,0,0,0,0
1681044290.00005317,105028805,1544,1544,1544,1544,0,0,0,0,0,0,0,0,0,0
1681044290.10001326,105128765,1545,1544,1545,1544,0,0,0,0,0,0,0,0,0,0
1681044290.19997311,105228725,1545,1544,1545,1544,0,0,0,0,0,0,0,0,0,0
1681044290.29993320,105328685,1544,1544,1544,1544,0,0,0,0,0,0,0,0,0,0
1681044290.39989305,105428645,1543,1544,1543,1544,0,0,0,0,0,0,0,0,0,0
1681044290.49985313,105528605,1543,1544,1543,1544,0,0,0,0,0,0,0,0,0,0
1681044290.59981322,105628565,1544,1544,1544,1544,0,0,0,0,0,0,0,0,0,0
1681044290.69977307,105728525,1544,1544,1544,1544,0,0,0,0,0,0,0,0,0,0
1681044290.79973316,105828485,1545,1545,1545,1545,0,0,0,0,0,0,0,0,0,0
1681044290.89969325,105928445,1546,1545,1545,1545,0,0,0,0,0,0,0,0,0,0
1681044290.99965310,106028405,1544,1545,1545,1544,0,0,0,0,0,0,0,0,0,0
1681044291.09961319,106128365,1545,1544,1545,1544,0,0,0,0,0,0,0,0,0,0
1681044291.19957304,106228325,1544,1544,1544,1544,0,0,0,0,0,0,0,0,0,0
1681044291.29953313,106328285,1544,1544,1544,1544,0,0,0,0,0,0,0,0,0,0
1681044291.39949322,106428245,1543,1544,1544,1543,0,0,0,0,0,0,0,0,0,0
1681044291.49945307,106528205,1544,1544,1544,1544,0,0,0,0,0,0,0,0,0,0
1681044291.59941316,106628165,1544,1544,1544,1544,0,0,0,0,0,0,0,0,0,0
1681044291.70020604,106728958,1544,1544,1544,1544,0,0,0,0,0,0,0,0,0,0
1681044291.80016613,106828918,1544,1544,1544,1544,0,0,0,0,0,0,0,0,0,0
1681044291.90012622,106928878,1545,1544,1544,1545,0,0,0,0,0,0,0,0,0,0
1681044292.00008607,107028838,1544,1544,1544,1544,0,0,0,0,0,0,0,0,0,0
1681044292.10004616,107128798,1545,1544,1544,1545,0,0,0,0,0,0,0,0,0,0
1681044292.20000625,107228758,1544,1544,1544,1544,0,0,0,0,0,0,0,0,0,0
1681044292.29996610,107328718,1545,1545,1545,1545,0,0,0,0,0,0,0,0,0,0
1681044292.39992619,107428678,1544,1545,1545,1544,0,0,0,0,0,0,0,0,0,0
1681044292.49988604,107528638,1545,1544,1544,1545,0,0,0,0,0,0,0,0,0,0
1681044292.59984612,107628598,1543,1544,1544,1544,0,0,0,0,0,0,0,0,0,0
1681044292.69980621,107728558,1544,1543,1544,1544,0,0,0,0,0,0,0,0,0,0
1681044292.79976606,107828518,1544,1544,1544,1544,0,0,0,0,0,0,0,0,0,0
1681044292.89972615,107928478,1544,1544,1544,1544,0,0,0,0,0,0,0,0,0,0
1681044292.99968624,108028438,1543,1544,1544,1543,0,0,0,0,0,0,0,0,0,0
1681044293.09964609,108128398,1544,1544,1544,1544,0,0,0,0,0,0,0,0,0,0
1681044293.19960618,108228358,1543,1544,1543,1543,0,0,0,0,0,0,0,0,0,0
1681044293.29956627,108328318,1544,1544,1543,1544,0,0,0,0,0,0,0,0,0,0
1681044293.39952612,108428278,1544,1543,1544,1544,0,0,0,0,0,0,0,0,0,0
1681044293.49948621,108528238,1544,1543,1544,1544,0,0,0,0,0,0,0,0,0,0
1681044293.59944606,108628198,1544,1544,1544,1545,0,0,0,0,0,0,0,0,0,0
1681044293.69940615,108728158,1545,1545,1545,1544,0,0,0,0,0,0,0,0,0,0
1681044293.80019903,108828951,1544,1544,1544,1544,0,0,0,0,0,0,0,0,0,0
1681044293.90015912,108928911,1545,1544,1545,1544,0,0,0,0,0,0,0,0,0,0
1681044294.00011921,109028871,1544,1544,1544,1544,0,0,0,0,0,0,0,0,0,0
1681044294.10007906,109128831,1545,1545,1544,1545,0,0,0,0,0,0,0,0,0,0
1681044294.20003915,109228791,1544,1544,1544,1544,0,0,0,0,0,0,0,0,0,0
1681044294.29999924,109328751,1543,1543,1544,1543,0,0,0,0,0,0,0,0,0,0
1681044294.39995909,109428711,1544,1544,1544,1544,0,0,0,0,0,0,0,0,0,0
1681044294.49991918,109528671,1545,1544,1544,1545,0,0,0,0,0,0,0,0,0,0
1681044294.59987926,109628631,1544,1544,1544,1544,0,0,0,0,0,0,0,0,0,0
1681044294.69983912,109728591,1544,1545,1544,1545,0,0,0,0,0,0,0,0,0,0
1681044294.79979920,109828551,1544,1545,1545,1545,0,0,0,0,0,0,0,0,0,0
1681044294.89975905,109928511,1544,1544,1544,1544,0,0,0,0,0,0,0,0,0,0
1681044294.99971914,110028471,1544,1544,1544,1544,0,0,0,0,0,0,0,0,0,0
1681044295.09967923,110128431,1545,1545,1545,1545,0,0,0,0,0,0,0,0,0,0
1681044295.19963908,110228391,1546,1545,1545,1545,0,0,0,0,0,0,0,0,0,0
1681044295.29959917,110328351,1545,1545,1545,1545,0,0,0,0,0,0,0,0,0,0
1681044295.39955926,110428311,1545,1545,1544,1544,0,0,0,0,0,0,0,0,0,0
1681044295.49951911,110528271,1545,1544,1545,1545,0,0,0,0,0,0,0,0,0,0
1681044295.59947920,110628231,1545,1545,1545,1545,0,0,0,0,0,0,0,0,0,0
1681044295.69943905,110728191,1544,1544,1544,1544,0,0,0,0,0,0,0,0,0,0
1681044295.80023217,110828984,1544,1545,1545,1544,0,0,0,0,0,0,0,0,0,0
1681044295.90019226,110928944,1545,1544,1544,1545,0,0,0,0,0,0,0,0,0,0
1681044296.00015211,111028904,1544,1544,1544,1544,0,0,0,0,0,0,0,0,0,0
1681044296.10011220,111128864,1544,1544,1544,1544,0,0,0,0,0,0,0,0,0,0
1681044296.20007205,111228824,1544,1545,1544,1545,0,0,0,0,0,0,0,0,0,0
1681044296.30003214,111328784,1545,1544,1545,1545,0,0,0,0,0,0,0,0,0,0
1681044296.39999223,111428744,1544,1544,1544,1544,0,0,0,0,0,0,0,0,0,0
1681044296.49995208,111528704,1545,1545,1545,1545,0,0,0,0,0,0,0,0,0,0
1681044296.59991217,111628664,1544,1544,1544,1544,0,0,0,0,0,0,0,0,0,0
1681044296.69987226,111728624,1544,1544,1544,1544,0,0,0,0,0,0,0,0,0,0
1681044296.79983211,111828584,1381,1380,1412,1381,0,0,0,0,0,0,0,0,0,0
1681044296.89979219,111928544,1261,1258,1322,1260,0,0,0,0,0,0,0,0,0,0
1681044296.99975204,112028504,1220,1216,1294,1218,0,0,0,0,0,0,0,0,0,0
1681044297.09971213,112128464,1200,1195,1279,1198,0,0,0,0,0,0,0,0,0,0
1681044297.19967222,112228424,1157,1153,1252,1156,0,0,0,0,0,0,0,0,0,0
1681044297.29963207,112328384,1155,1150,1250,1153,0,0,0,0,0,0,0,0,0,0
1681044297.39959216,112428344,1155,1150,1251,1152,0,0,0,0,0,0,0,0,0,0
1681044297.49955225,112528304,1156,1150,1251,1153,0,0,0,0,0,0,0,0,0,0
1681044297.59951210,112628264,1182,1150,1222,1183,0,0,0,0,0,0,0,0,0,0
1681044297.69947219,112728224,1173,1150,1234,1174,0,0,0,0,0,0,0,0,0,0
1681044297.79943204,112828184,1169,1150,1240,1170,0,0,0,0,0,0,0,0,0,0
1681044297.90022516,112928977,1168,1150,1240,1170,0,0,0,0,0,0,0,0,0,0
1681044298.00018525,113028937,1168,1150,1239,1171,0,0,0,0,0,0,0,0,0,0
1681044298.10014510,113128897,1170,1150,1237,1172,0,0,0,0,0,0,0,0,0,0
1681044298.20010519,113228857,1169,1150,1237,1173,0,0,0,0,0,0,0,0,0,0
1681044298.30006504,113328817,1170,1150,1236,1174,0,0,0,0,0,0,0,0,0,0
1681044298.40002513,113428777,1153,1150,1245,1159,0,0,0,0,0,0,0,0,0,0
1681044298.49998522,113528737,1155,1150,1245,1161,0,0,0,0,0,0,0,0,0,0
1681044298.59994507,113628697,1156,1150,1245,1162,0,0,0,0,0,0,0,0,0,0
1681044298.69990516,113728657,1157,1150,1245,1163,0,0,0,0,0,0,0,0,0,0
1681044298.79986525,113828617,1155,1150,1199,1160,0,0,0,0,0,0,0,0,0,0
1681044298.89982510,113928577,1000,1000,1000,1000,0,0,0,0,0,0,0,0,0,0
1681044298.99978518,114028537,1000,1000,1000,1000,0,0,0,0,0,0,0,0,0,0
1681044299.09974504,114128497,1000,1000,1000,1000,0,0,0,0,0,0,0,0,0,0
1681044299.19970512,114228457,1000,1000,1000,1000,0,0,0,0,0,0,0,0,0,0
1681044299.29966521,114328417,1000,1000,1000,1000,0,0,0,0,0,0,0,0,0,0
1681044299.39962506,114428377,1000,1000,1000,1000,0,0,0,0,0,0,0,0,0,0
1681044299.49958515,114528337,1000,1000,1000,1000,0,0,0,0,0,0,0,0,0,0
1681044299.59954524,114628297,1000,1000,1000,1000,0,0,0,0,0,0,0,0,0,0
1681044299.69950509,114728257,1000,1000,1000,1000,0,0,0,0,0,0,0,0,0,0
1681044299.79946518,114828217,1000,1000,1000,1000,0,0,0,0,0,0,0,0,0,0
1681044299.89942527,114928177,1000,1000,1000,1000,0,0,0,0,0,0,0,0,0,0
1681044300.00021815,115028970,1000,1000,1000,1000,0,0,0,0,0,0,0,0,0,0
1681044300.10017824,115128930,1000,1000,1000,1000,0,0,0,0,0,0,0,0,0,0
1681044300.20013809,115228890,1000,1000,1000,1000,0,0,0,0,0,0,0,0,0,0
1681044300.30009818,115328850,1000,1000,1000,1000,0,0,0,0,0,0,0,0,0,0
1681044300.40005803,115428810,1000,1000,1000,1000,0,0,0,0,0,0,0,0,0,0
1681044300.50001812,115528770,1000,1000,1000,1000,0,0,0,0,0,0,0,0,0,0
1681044300.59997821,115628730,1000,1000,1000,1000,0,0,0,0,0,0,0,0,0,0
1681044300.69993806,115728690,1000,1000,1000,1000,0,0,0,0,0,0,0,0,0,0
1681044300.79989815,115828650,1000,1000,1000,1000,0,0,0,0,0,0,0,0,0,0
1681044300.89985824,115928610,1000,1000,1000,1000,0,0,0,0,0,0,0,0,0,0
1681044300.99981809,116028570,1000,1000,1000,1000,0,0,0,0,0,0,0,0,0,0
1681044301.09977818,116128530,1000,1000,1000,1000,0,0,0,0,0,0,0,0,0,0
1681044301.19973826,116228490,1000,1000,1000,1000,0,0,0,0,0,0,0,0,0,0
1681044301.29969811,116328450,1000,1000,1000,1000,0,0,0,0,0,0,0,0,0,0
1681044301.39965820,116428410,1000,1000,1000,1000,0,0,0,0,0,0,0,0,0,0
1681044301.49961805,116528370,1000,1000,1000,1000,0,0,0,0,0,0,0,0,0,0
1681044301.59957814,116628330,1000,1000,1000,1000,0,0,0,0,0,0,0,0,0,0
1681044301.69953823,116728290,1000,1000,1000,1000,0,0,0,0,0,0,0,0,0,0
1681044301.79949808,116828250,1000,1000,1000,1000,0,0,0,0,0,0,0,0,0,0
1681044301.89945817,116928210,1000,1000,1000,1000,0,0,0,0,0,0,0,0,0,0
1681044301.99941826,117028170,1000,1000,1000,1000,0,0,0,0,0,0,0,0,0,0
1681044302.10021114,117128963,1000,1000,1000,1000,0,0,0,0,0,0,0,0,0,0
1681044302.20017123,117228923,1000,1000,1000,1000,0,0,0,0,0,0,0,0,0,0
1681044302.30013108,117328883,1000,1000,1000,1000,0,0,0,0,0,0,0,0,0,0
1681044302.40009117,117428843,1000,1000,1000,1000,0,0,0,0,0,0,0,0,0,0
1681044302.50005126,117528803,1000,1000,1000,1000,0,0,0,0,0,0,0,0,0,0
1681044302.60001111,117628763,1000,1000,1000,1000,0,0,0,0,0,0,0,0,0,0
1681044302.69997120,117728723,1000,1000,1000,1000,0,0,0,0,0,0,0,0,0,0
1681044302.79993105,117828683,1000,1000,1000,1000,0,0,0,0,0,0,0,0,0,0
1681044302.89989114,117928643,1000,1000,1000,1000,0,0,0,0,0,0,0,0,0,0
1681044302.99985123,118028603,1000,1000,1000,1000,0,0,0,0,0,0,0,0,0,0
1681044303.09981108,118128563,1000,1000,1000,1000,0,0,0,0,0,0,0,0,0,0
1681044303.19977117,118228523,1000,1000,1000,1000,0,0,0,0,0,0,0,0,0,0
1681044303.29973125,118328483,1000,1000,1000,1000,0,0,0,0,0,0,0,0,0,0
1681044303.39969110,118428443,1000,1000,1000,1000,0,0,0,0,0,0,0,0,0,0
1681044303.49965119,118528403,1000,1000,1000,1000,0,0,0,0,0,0,0,0,0,0
1681044303.59961104,118628363,1000,1000,1000,1000,0,0,0,0,0,0,0,0,0,0
1681044303.69957113,118728323,1000,1000,1000,1000,0,0,0,0,0,0,0,0,0,0
1681044303.79953122,118828283,1000,1000,1000,1000,0,0,0,0,0,0,0,0,0,0
1681044303.89949107,118928243,1000,1000,1000,1000,0,0,0,0,0,0,0,0,0,0
1681044303.99945116,119028203,1000,1000,1000,1000,0,0,0,0,0,0,0,0,0,0
1681044304.09941125,119128163,1000,1000,1000,1000,0,0,0,0,0,0,0,0,0,0
1681044304.20020413,119228956,1000,1000,1000,1000,0,0,0,0,0,0,0,0,0,0
1681044304.30016422,119328916,1000,1000,1000,1000,0,0,0,0,0,0,0,0,0,0
1681044304.40012407,119428876,1000,1000,1000,1000,0,0,0,0,0,0,0,0,0,0
1681044304.50008416,119528836,1000,1000,1000,1000,0,0,0,0,0,0,0,0,0,0
1681044304.60004425,119628796,1000,1000,1000,1000,0,0,0,0,0,0,0,0,0,0
1681044304.70000410,119728756,1000,1000,1000,1000,0,0,0,0,0,0,0,0,0,0
1681044304.79996419,119828716,1000,1000,1000,1000,0,0,0,0,0,0,0,0,0,0
1681044304.89992404,119928676,1000,1000,1000,1000,0,0,0,0,0,0,0,0,0,0
1681044304.99988413,120028636,1000,1000,1000,1000,0,0,0,0,0,0,0,0,0,0
1681044305.09984422,120128596,1000,1000,1000,1000,0,0,0,0,0,0,0,0,0,0
1681044305.19980407,120228556,1000,1000,1000,1000,0,0,0,0,0,0,0,0,0,0
1681044305.29976416,120328516,1000,1000,1000,1000,0,0,0,0,0,0,0,0,0,0
1681044305.39972425,120428476,1000,1000,1000,1000,0,0,0,0,0,0,0,0,0,0
1681044305.49968410,120528436,1000,1000,1000,1000,0,0,0,0,0,0,0,0,0,0
1681044305.59964418,120628396,1000,1000,1000,1000,0,0,0,0,0,0,0,0,0,0
1681044305.69960403,120728356,1000,1000,1000,1000,0,0,0,0,0,0,0,0,0,0
1681044305.79956412,120828316,1000,1000,1000,1000,0,0,0,0,0,0,0,0,0,0
1681044305.89952421,120928276,1000,1000,1000,1000,0,0,0,0,0,0,0,0,0,0
1681044305.99948406,121028236,1000,1000,1000,1000,0,0,0,0,0,0,0,0,0,0
1681044306.09944415,121128196,1000,1000,1000,1000,0,0,0,0,0,0,0,0,0,0
1681044306.19940424,121228156,1000,1000,1000,1000,0,0,0,0,0,0,0,0,0,0
1681044306.30019712,121328949,1000,1000,1000,1000,0,0,0,0,0,0,0,0,0,0
1681044306.40015721,121428909,1000,1000,1000,1000,0,0,0,0,0,0,0,0,0,0
1681044306.50011706,121528869,1000,1000,1000,1000,0,0,0,0,0,0,0,0,0,0
1681044306.60007715,121628829,1000,1000,1000,1000,0,0,0,0,0,0,0,0,0,0
1681044306.70003724,121728789,1000,1000,1000,1000,0,0,0,0,0,0,0,0,0,0
1681044306.79999709,121828749,1000,1000,1000,1000,0,0,0,0,0,0,0,0,0,0
1681044306.89995718,121928709,1000,1000,1000,1000,0,0,0,0,0,0,0,0,0,0
1681044306.99991727,122028669,1000,1000,1000,1000,0,0,0,0,0,0,0,0,0,0
1681044307.09987712,122128629,1000,1000,1000,1000,0,0,0,0,0,0,0,0,0,0
1681044307.19983721,122228589,1000,1000,1000,1000,0,0,0,0,0,0,0,0,0,0
1681044307.29979706,122328549,1000,1000,1000,1000,0,0,0,0,0,0,0,0,0,0
1681044307.39975715,122428509,1000,1000,1000,1000,0,0,0,0,0,0,0,0,0,0
1681044307.49971724,122528469,1000,1000,1000,1000,0,0,0,0,0,0,0,0,0,0
1681044307.59967709,122628429,1000,1000,1000,1000,0,0,0,0,0,0,0,0,0,0
1681044307.69963717,122728389,1000,1000,1000,1000,0,0,0,0,0,0,0,0,0,0
1681044307.79959726,122828349,1000,1000,1000,1000,0,0,0,0,0,0,0,0,0,0
1681044307.89955711,122928309,1000,1000,1000,1000,0,0,0,0,0,0,0,0,0,0
1681044307.99951720,123028269,1000,1000,1000,1000,0,0,0,0,0,0,0,0,0,0
1681044308.09947705,123128229,1000,1000,1000,1000,0,0,0,0,0,0,0,0,0,0
1681044308.19943714,123228189,1000,1000,1000,1000,0,0,0,0,0,0,0,0,0,0
1681044308.30023026,123328982,1000,1000,1000,1000,0,0,0,0,0,0,0,0,0,0
1681044308.40019011,123428942,1000,1000,1000,1000,0,0,0,0,0,0,0,0,0,0
1681044308.50015020,123528902,1000,1000,1000,1000,0,0,0,0,0,0,0,0,0,0
1681044308.60011005,123628862,1000,1000,1000,1000,0,0,0,0,0,0,0,0,0,0
1681044308.70007014,123728822,1000,1000,1000,1000,0,0,0,0,0,0,0,0,0,0
1681044308.80003023,123828782,1000,1000,1000,1000,0,0,0,0,0,0,0,0,0,0
1681044308.89999008,123928742,1000,1000,1000,1000,0,0,0,0,0,0,0,0,0,0
1681044308.99995017,124028702,1000,1000,1000,1000,0,0,0,0,0,0,0,0,0,0
1681044309.09991026,124128662,1000,1000,1000,1000,0,0,0,0,0,0,0,0,0,0
1681044309.19987011,124228622,1000,1000,1000,1000,0,0,0,0,0,0,0,0,0,0
1681044309.29983020,124328582,1000,1000,1000,1000,0,0,0,0,0,0,0,0,0,0
1681044309.39979005,124428542,1000,1000,1000,1000,0,0,0,0,0,0,0,0,0,0
1681044309.49975014,124528502,1000,1000,1000,1000,0,0,0,0,0,0,0,0,0,0
1681044309.59971023,124628462,1000,1000,1000,1000,0,0,0,0,0,0,0,0,0,0
1681044309.69967008,124728422,1000,1000,1000,1000,0,0,0,0,0,0,0,0,0,0
1681044309.79963017,124828382,1000,1000,1000,1000,0,0,0,0,0,0,0,0,0,0
1681044309.89959025,124928342,1000,1000,1000,1000,0,0,0,0,0,0,0,0,0,0
1681044309.99955010,125028302,1000,1000,1000,1000,0,0,0,0,0,0,0,0,0,0
1681044310.09951019,125128262,1000,1000,1000,1000,0,0,0,0,0,0,0,0,0,0
1681044310.19947004,125228222,1000,1000,1000,1000,0,0,0,0,0,0,0,0,0,0
1681044310.29943013,125328182,1000,1000,1000,1000,0,0,0,0,0,0,0,0,0,0
1681044310.40022326,125428975,1000,1000,1000,1000,0,0,0,0,0,0,0,0,0,0
1681044310.50018311,125528935,1000,1000,1000,1000,0,0,0,0,0,0,0,0,0,0
1681044310.60014319,125628895,1000,1000,1000,1000,0,0,0,0,0,0,0,0,0,0
1681044310.70010304,125728855,1000,1000,1000,1000,0,0,0,0,0,0,0,0,0,0
1681044310.80006313,125828815,1000,1000,1000,1000,0,0,0,0,0,0,0,0,0,0
1681044310.90002322,125928775,1000,1000,1000,1000,0,0,0,0,0,0,0,0,0,0
1681044310.99998307,126028735,1000,1000,1000,1000,0,0,0,0,0,0,0,0,0,0
1681044311.09994316,126128695,1000,1000,1000,1000,0,0,0,0,0,0,0,0,0,0
1681044311.19990325,126228655,1000,1000,1000,1000,0,0,0,0,0,0,0,0,0,0
1681044311.29986310,126328615,1000,1000,1000,1000,0,0,0,0,0,0,0,0,0,0
1681044311.39982319,126428575,1000,1000,1000,1000,0,0,0,0,0,0,0,0,0,0
1681044311.49978304,126528535,1000,1000,1000,1000,0,0,0,0,0,0,0,0,0,0
1681044311.59974313,126628495,1000,1000,1000,1000,0,0,0,0,0,0,0,0,0,0
1681044311.69970322,126728455,1000,1000,1000,1000,0,0,0,0,0,0,0,0,0,0
1681044311.79966307,126828415,1000,1000,1000,1000,0,0,0,0,0,0,0,0,0,0
1681044311.89962316,126928375,1000,1000,1000,1000,0,0,0,0,0,0,0,0,0,0
1681044311.99958324,127028335,1000,1000,1000,1000,0,0,0,0,0,0,0,0,0,0
1681044312.09954309,127128295,1000,1000,1000,1000,0,0,0,0,0,0,0,0,0,0
1681044312.19950318,127228255,1000,1000,1000,1000,0,0,0,0,0,0,0,0,0,0
1681044312.29946303,127328215,1000,1000,1000,1000,0,0,0,0,0,0,0,0,0,0
1681044312.39942312,127428175,1000,1000,1000,1000,0,0,0,0,0,0,0,0,0,0
1681044312.50021625,127528968,1000,1000,1000,1000,0,0,0,0,0,0,0,0,0,0
1681044312.60017610,127628928,1000,1000,1000,1000,0,0,0,0,0,0,0,0,0,0
1681044312.70013618,127728888,1000,1000,1000,1000,0,0,0,0,0,0,0,0,0,0
1681044312.80009604,127828848,1000,1000,1000,1000,0,0,0,0,0,0,0,0,0,0
1681044312.90005612,127928808,1000,1000,1000,1000,0,0,0,0,0,0,0,0,0,0
1681044313.00001621,128028768,1000,1000,1000,1000,0,0,0,0,0,0,0,0,0,0
1681044313.09997606,128128728,1000,1000,1000,1000,0,0,0,0,0,0,0,0,0,0
1681044313.19993615,128228688,1000,1000,1000,1000,0,0,0,0,0,0,0,0,0,0
1681044313.29989624,128328648,1000,1000,1000,1000,0,0,0,0,0,0,0,0,0,0
1681044313.39985609,128428608,1000,1000,1000,1000,0,0,0,0,0,0,0,0,0,0
1681044313.49981618,128528568,1000,1000,1000,1000,0,0,0,0,0,0,0,0,0,0
1681044313.59977627,128628528,1000,1000,1000,1000,0,0,0,0,0,0,0,0,0,0
1681044313.69973612,128728488,1000,1000,1000,1000,0,0,0,0,0,0,0,0,0,0
1681044313.79969621,128828448,1000,1000,1000,1000,0,0,0,0,0,0,0,0,0,0
