timestamp,TimeUS,C1,C2,C3,C4,C5,C6,C7,C8,C9,C10,C11,C12,C13,C14
1681031320.10003996,55728533,1000,1000,1000,1000,0,0,0,0,0,0,0,0,0,0
1681031320.20000005,55828493,1000,1000,1000,1000,0,0,0,0,0,0,0,0,0,0
1681031320.29995990,55928453,1000,1000,1000,1000,0,0,0,0,0,0,0,0,0,0
1681031320.39991999,56028413,1000,1000,1000,1000,0,0,0,0,0,0,0,0,0,0
1681031320.49987984,56128373,1000,1000,1000,1000,0,0,0,0,0,0,0,0,0,0
1681031320.59983993,56228333,1000,1000,1000,1000,0,0,0,0,0,0,0,0,0,0
1681031320.69980001,56328293,1000,1000,1000,1000,0,0,0,0,0,0,0,0,0,0
1681031320.79975986,56428253,1000,1000,1000,1000,0,0,0,0,0,0,0,0,0,0
1681031320.89971995,56528213,1000,1000,1000,1000,0,0,0,0,0,0,0,0,0,0
1681031320.99968004,56628173,1000,1000,1000,1000,0,0,0,0,0,0,0,0,0,0
1681031321.10047293,56728966,1000,1000,1000,1000,0,0,0,0,0,0,0,0,0,0
1681031321.20043302,56828926,1000,1000,1000,1000,0,0,0,0,0,0,0,0,0,0
1681031321.30039287,56928886,1000,1000,1000,1000,0,0,0,0,0,0,0,0,0,0
1681031321.40035295,57028846,1000,1000,1000,1000,0,0,0,0,0,0,0,0,0,0
1681031321.50031304,57128806,1000,1000,1000,1000,0,0,0,0,0,0,0,0,0,0
1681031321.60027289,57228766,1000,1000,1000,1000,0,0,0,0,0,0,0,0,0,0
1681031321.70023298,57328726,1000,1000,1000,1000,0,0,0,0,0,0,0,0,0,0
1681031321.80019283,57428686,1000,1000,1000,1000,0,0,0,0,0,0,0,0,0,0
1681031321.90015292,57528646,1000,1000,1000,1000,0,0,0,0,0,0,0,0,0,0
1681031322.00011301,57628606,1000,1000,1000,1000,0,0,0,0,0,0,0,0,0,0
1681031322.10007286,57728566,1014,1014,1014,1014,0,0,0,0,0,0,0,0,0,0
1681031322.20003295,57828526,1044,1044,1044,1044,0,0,0,0,0,0,0,0,0,0
1681031322.29999304,57928486,1074,1074,1074,1074,0,0,0,0,0,0,0,0,0,0
1681031322.39995289,58028446,1104,1104,1104,1104,0,0,0,0,0,0,0,0,0,0
1681031322.49991298,58128406,1134,1134,1134,1134,0,0,0,0,0,0,0,0,0,0
1681031322.59987283,58228366,1282,1274,1275,1282,0,0,0,0,0,0,0,0,0,0
1681031322.69983292,58328326,1491,1484,1485,1491,0,0,0,0,0,0,0,0,0,0
1681031322.79979300,58428286,1652,1647,1648,1652,0,0,0,0,0,0,0,0,0,0
1681031322.89975286,58528246,1789,1784,1785,1789,0,0,0,0,0,0,0,0,0,0
1681031322.99971294,58628206,1842,1837,1837,1842,0,0,0,0,0,0,0,0,0,0
1681031323.09967303,58728166,1857,1854,1854,1857,0,0,0,0,0,0,0,0,0,0
1681031323.20046592,58828959,1743,1742,1742,1743,0,0,0,0,0,0,0,0,0,0
1681031323.30042601,58928919,1646,1642,1643,1646,0,0,0,0,0,0,0,0,0,0
1681031323.40038586,59028879,1613,1615,1610,1617,0,0,0,0,0,0,0,0,0,0
1681031323.50034595,59128839,1622,1625,1621,1627,0,0,0,0,0,0,0,0,0,0
1681031323.60030603,59228799,1636,1638,1637,1638,0,0,0,0,0,0,0,0,0,0
1681031323.70026588,59328759,1641,1642,1643,1640,0,0,0,0,0,0,0,0,0,0
1681031323.80022597,59428719,1638,1638,1640,1636,0,0,0,0,0,0,0,0,0,0
1681031323.90018582,59528679,1632,1631,1634,1629,0,0,0,0,0,0,0,0,0,0
1681031324.00014591,59628639,1629,1627,1630,1626,0,0,0,0,0,0,0,0,0,0
1681031324.10010600,59728599,1627,1626,1628,1625,0,0,0,0,0,0,0,0,0,0
1681031324.20006585,59828559,1627,1627,1627,1626,0,0,0,0,0,0,0,0,0,0
1681031324.30002594,59928519,1613,1613,1614,1612,0,0,0,0,0,0,0,0,0,0
1681031324.39998603,60028479,1589,1590,1596,1583,0,0,0,0,0,0,0,0,0,0
1681031324.49994588,60128439,1576,1577,1580,1573,0,0,0,0,0,0,0,0,0,0
1681031324.59990597,60228399,1565,1565,1564,1565,0,0,0,0,0,0,0,0,0,0
1681031324.69986582,60328359,1557,1556,1553,1560,0,0,0,0,0,0,0,0,0,0
1681031324.79982591,60428319,1550,1550,1544,1556,0,0,0,0,0,0,0,0,0,0
1681031324.89978600,60528279,1544,1543,1535,1552,0,0,0,0,0,0,0,0,0,0
1681031324.99974585,60628239,1538,1538,1532,1543,0,0,0,0,0,0,0,0,0,0
1681031325.09970593,60728199,1533,1532,1530,1535,0,0,0,0,0,0,0,0,0,0
1681031325.19966602,60828159,1528,1528,1529,1528,0,0,0,0,0,0,0,0,0,0
1681031325.30045891,60928952,1529,1528,1530,1526,0,0,0,0,0,0,0,0,0,0
1681031325.40041900,61028912,1530,1530,1533,1527,0,0,0,0,0,0,0,0,0,0
1681031325.50037885,61128872,1533,1532,1535,1530,0,0,0,0,0,0,0,0,0,0
1681031325.60033894,61228832,1536,1537,1539,1535,0,0,0,0,0,0,0,0,0,0
1681031325.70029902,61328792,1538,1539,1540,1538,0,0,0,0,0,0,0,0,0,0
1681031325.80025887,61428752,1542,1542,1543,1542,0,0,0,0,0,0,0,0,0,0
1681031325.90021896,61528712,1546,1546,1546,1546,0,0,0,0,0,0,0,0,0,0
1681031326.00017881,61628672,1549,1550,1550,1550,0,0,0,0,0,0,0,0,0,0
1681031326.10013890,61728632,1552,1552,1552,1553,0,0,0,0,0,0,0,0,0,0
1681031326.20009899,61828592,1554,1554,1553,1555,0,0,0,0,0,0,0,0,0,0
1681031326.30005884,61928552,1556,1555,1557,1559,0,0,0,0,0,0,0,0,0,0
1681031326.40001893,62028512,1555,1555,1560,1562,0,0,0,0,0,0,0,0,0,0
1681031326.49997902,62128472,1556,1557,1562,1563,0,0,0,0,0,0,0,0,0,0
1681031326.59993887,62228432,1559,1559,1564,1564,0,0,0,0,0,0,0,0,0,0
1681031326.69989896,62328392,1561,1561,1565,1564,0,0,0,0,0,0,0,0,0,0
1681031326.79985905,62428352,1563,1563,1565,1564,0,0,0,0,0,0,0,0,0,0
1681031326.89981890,62528312,1566,1566,1566,1565,0,0,0,0,0,0,0,0,0,0
1681031326.99977899,62628272,1568,1568,1567,1566,0,0,0,0,0,0,0,0,0,0
1681031327.09973884,62728232,1570,1570,1567,1568,0,0,0,0,0,0,0,0,0,0
1681031327.19969893,62828192,1571,1571,1567,1568,0,0,0,0,0,0,0,0,0,0
1681031327.30049205,62928985,1572,1571,1568,1568,0,0,0,0,0,0,0,0,0,0
1681031327.40045190,63028945,1572,1572,1569,1569,0,0,0,0,0,0,0,0,0,0
1681031327.50041199,63128905,1573,1572,1570,1569,0,0,0,0,0,0,0,0,0,0
1681031327.60037184,63228865,1573,1573,1571,1570,0,0,0,0,0,0,0,0,0,0
1681031327.70033193,63328825,1573,1573,1572,1571,0,0,0,0,0,0,0,0,0,0
1681031327.80029202,63428785,1573,1574,1573,1572,0,0,0,0,0,0,0,0,0,0
1681031327.90025187,63528745,1575,1575,1575,1574,0,0,0,0,0,0,0,0,0,0
1681031328.00021195,63628705,1574,1575,1575,1574,0,0,0,0,0,0,0,0,0,0
1681031328.10017204,63728665,1575,1575,1576,1576,0,0,0,0,0,0,0,0,0,0
1681031328.20013189,63828625,1575,1575,1576,1576,0,0,0,0,0,0,0,0,0,0
1681031328.30009198,63928585,1576,1576,1577,1577,0,0,0,0,0,0,0,0,0,0
1681031328.40005183,64028545,1576,1575,1576,1576,0,0,0,0,0,0,0,0,0,0
1681031328.50001192,64128505,1576,1575,1576,1576,0,0,0,0,0,0,0,0,0,0
1681031328.59997201,64228465,1576,1576,1576,1576,0,0,0,0,0,0,0,0,0,0
1681031328.69993186,64328425,1576,1576,1576,1576,0,0,0,0,0,0,0,0,0,0
1681031328.79989195,64428385,1577,1578,1578,1577,0,0,0,0,0,0,0,0,0,0
1681031328.89985204,64528345,1577,1577,1577,1577,0,0,0,0,0,0,0,0,0,0
1681031328.99981189,64628305,1578,1577,1578,1577,0,0,0,0,0,0,0,0,0,0
1681031329.09977198,64728265,1578,1578,1578,1578,0,0,0,0,0,0,0,0,0,0
1681031329.19973183,64828225,1578,1578,1578,1577,0,0,0,0,0,0,0,0,0,0
1681031329.29969192,64928185,1577,1577,1577,1577,0,0,0,0,0,0,0,0,0,0
1681031329.40048504,65028978,1577,1577,1577,1576,0,0,0,0,0,0,0,0,0,0
1681031329.50044489,65128938,1577,1578,1577,1577,0,0,0,0,0,0,0,0,0,0
1681031329.60040498,65228898,1578,1578,1578,1578,0,0,0,0,0,0,0,0,0,0
1681031329.70036483,65328858,1579,1579,1579,1579,0,0,0,0,0,0,0,0,0,0
1681031329.80032492,65428818,1578,1578,1579,1578,0,0,0,0,0,0,0,0,0,0
1681031329.90028501,65528778,1578,1578,1578,1578,0,0,0,0,0,0,0,0,0,0
1681031330.00024486,65628738,1578,1578,1578,1578,0,0,0,0,0,0,0,0,0,0
1681031330.10020494,65728698,1579,1579,1580,1579,0,0,0,0,0,0,0,0,0,0
1681031330.20016503,65828658,1579,1580,1580,1579,0,0,0,0,0,0,0,0,0,0
1681031330.30012488,65928618,1578,1579,1579,1579,0,0,0,0,0,0,0,0,0,0
1681031330.40008497,66028578,1579,1579,1579,1580,0,0,0,0,0,0,0,0,0,0
1681031330.50004482,66128538,1580,1580,1580,1580,0,0,0,0,0,0,0,0,0,0
1681031330.60000491,66228498,1580,1579,1580,1579,0,0,0,0,0,0,0,0,0,0
1681031330.69996500,66328458,1579,1579,1579,1579,0,0,0,0,0,0,0,0,0,0
1681031330.79992485,66428418,1580,1580,1580,1580,0,0,0,0,0,0,0,0,0,0
1681031330.89988494,66528378,1580,1580,1580,1580,0,0,0,0,0,0,0,0,0,0
1681031330.99984503,66628338,1580,1580,1580,1580,0,0,0,0,0,0,0,0,0,0
1681031331.09980488,66728298,1581,1580,1581,1581,0,0,0,0,0,0,0,0,0,0
1681031331.19976497,66828258,1579,1580,1580,1579,0,0,0,0,0,0,0,0,0,0
1681031331.29972482,66928218,1580,1580,1580,1580,0,0,0,0,0,0,0,0,0,0
1681031331.39968491,67028178,1580,1580,1580,1580,0,0,0,0,0,0,0,0,0,0
1681031331.50047803,67128971,1579,1580,1580,1580,0,0,0,0,0,0,0,0,0,0
1681031331.60043788,67228931,1580,1580,1580,1580,0,0,0,0,0,0,0,0,0,0
1681031331.70039797,67328891,1580,1581,1580,1581,0,0,0,0,0,0,0,0,0,0
1681031331.80035782,67428851,1581,1581,1581,1581,0,0,0,0,0,0,0,0,0,0
1681031331.90031791,67528811,1580,1580,1580,1580,0,0,0,0,0,0,0,0,0,0
1681031332.00027800,67628771,1580,1580,1580,1580,0,0,0,0,0,0,0,0,0,0
1681031332.10023785,67728731,1580,1581,1581,1581,0,0,0,0,0,0,0,0,0,0
1681031332.20019794,67828691,1581,1581,1581,1581,0,0,0,0,0,0,0,0,0,0
1681031332.30015802,67928651,1581,1581,1581,1581,0,0,0,0,0,0,0,0,0,0
1681031332.40011787,68028611,1582,1581,1582,1581,0,0,0,0,0,0,0,0,0,0
1681031332.50007796,68128571,1581,1582,1587,1576,0,0,0,0,0,0,0,0,0,0
1681031332.60003781,68228531,1581,1583,1588,1573,0,0,0,0,0,0,0,0,0,0
1681031332.69999790,68328491,1579,1583,1580,1574,0,0,0,0,0,0,0,0,0,0
1681031332.79995799,68428451,1577,1580,1570,1572,0,0,0,0,0,0,0,0,0,0
1681031332.89991784,68528411,1577,1579,1563,1570,0,0,0,0,0,0,0,0,0,0
1681031332.99987793,68628371,1577,1578,1558,1565,0,0,0,0,0,0,0,0,0,0
1681031333.09983802,68728331,1578,1578,1555,1560,0,0,0,0,0,0,0,0,0,0
1681031333.19979787,68828291,1579,1577,1555,1556,0,0,0,0,0,0,0,0,0,0
1681031333.29975796,68928251,1579,1578,1555,1554,0,0,0,0,0,0,0,0,0,0
1681031333.39971805,69028211,1579,1578,1556,1554,0,0,0,0,0,0,0,0,0,0
1681031333.49967790,69128171,1578,1579,1557,1554,0,0,0,0,0,0,0,0,0,0
1681031333.60047102,69228964,1576,1577,1556,1554,0,0,0,0,0,0,0,0,0,0
1681031333.70043087,69328924,1576,1577,1555,1555,0,0,0,0,0,0,0,0,0,0
1681031333.80039096,69428884,1576,1577,1554,1554,0,0,0,0,0,0,0,0,0,0
1681031333.90035105,69528844,1576,1577,1552,1553,0,0,0,0,0,0,0,0,0,0
1681031334.00031090,69628804,1577,1578,1551,1551,0,0,0,0,0,0,0,0,0,0
1681031334.10027099,69728764,1579,1580,1550,1550,0,0,0,0,0,0,0,0,0,0
1681031334.20023084,69828724,1580,1581,1547,1546,0,0,0,0,0,0,0,0,0,0
1681031334.30019093,69928684,1583,1584,1543,1544,0,0,0,0,0,0,0,0,0,0
1681031334.40015101,70028644,1587,1587,1542,1541,0,0,0,0,0,0,0,0,0,0
1681031334.50011086,70128604,1589,1590,1538,1538,0,0,0,0,0,0,0,0,0,0
1681031334.60007095,70228564,1591,1592,1536,1536,0,0,0,0,0,0,0,0,0,0
1681031334.70003104,70328524,1595,1595,1536,1536,0,0,0,0,0,0,0,0,0,0
1681031334.79999089,70428484,1594,1594,1534,1535,0,0,0,0,0,0,0,0,0,0
1681031334.89995098,70528444,1595,1595,1535,1537,0,0,0,0,0,0,0,0,0,0
1681031334.99991083,70628404,1593,1593,1538,1540,0,0,0,0,0,0,0,0,0,0
1681031335.09987092,70728364,1590,1589,1542,1545,0,0,0,0,0,0,0,0,0,0
1681031335.19983101,70828324,1585,1583,1550,1552,0,0,0,0,0,0,0,0,0,0
1681031335.29979086,70928284,1577,1574,1558,1561,0,0,0,0,0,0,0,0,0,0
1681031335.39975095,71028244,1568,1564,1570,1572,0,0,0,0,0,0,0,0,0,0
1681031335.49971104,71128204,1556,1553,1582,1584,0,0,0,0,0,0,0,0,0,0
1681031335.59967089,71228164,1545,1543,1595,1595,0,0,0,0,0,0,0,0,0,0
1681031335.70046401,71328957,1536,1534,1604,1604,0,0,0,0,0,0,0,0,0,0
1681031335.80042386,71428917,1531,1532,1612,1612,0,0,0,0,0,0,0,0,0,0
1681031335.90038395,71528877,1528,1530,1616,1614,0,0,0,0,0,0,0,0,0,0
1681031336.00034404,71628837,1530,1532,1615,1614,0,0,0,0,0,0,0,0,0,0
1681031336.10030389,71728797,1535,1537,1611,1611,0,0,0,0,0,0,0,0,0,0
1681031336.20026398,71828757,1542,1544,1606,1606,0,0,0,0,0,0,0,0,0,0
1681031336.30022383,71928717,1550,1552,1598,1598,0,0,0,0,0,0,0,0,0,0
1681031336.40018392,72028677,1560,1560,1591,1591,0,0,0,0,0,0,0,0,0,0
1681031336.50014400,72128637,1570,1569,1585,1584,0,0,0,0,0,0,0,0,0,0
1681031336.60010386,72228597,1577,1577,1579,1578,0,0,0,0,0,0,0,0,0,0
1681031336.70006394,72328557,1583,1582,1573,1573,0,0,0,0,0,0,0,0,0,0
1681031336.80002403,72428517,1586,1585,1569,1568,0,0,0,0,0,0,0,0,0,0
1681031336.89998388,72528477,1589,1587,1568,1567,0,0,0,0,0,0,0,0,0,0
1681031336.99994397,72628437,1588,1587,1567,1566,0,0,0,0,0,0,0,0,0,0
1681031337.09990382,72728397,1587,1586,1567,1568,0,0,0,0,0,0,0,0,0,0
1681031337.19986391,72828357,1584,1584,1569,1569,0,0,0,0,0,0,0,0,0,0
1681031337.29982400,72928317,1582,1582,1572,1573,0,0,0,0,0,0,0,0,0,0
1681031337.39978385,73028277,1579,1579,1575,1576,0,0,0,0,0,0,0,0,0,0
1681031337.49974394,73128237,1576,1576,1578,1578,0,0,0,0,0,0,0,0,0,0
1681031337.59970403,73228197,1575,1575,1582,1581,0,0,0,0,0,0,0,0,0,0
1681031337.69966388,73328157,1574,1574,1584,1583,0,0,0,0,0,0,0,0,0,0
1681031337.80045700,73428950,1575,1575,1457,1565,0,0,0,0,0,0,0,0,0,0
1681031337.90041685,73528910,1595,1595,1531,1549,0,0,0,0,0,0,0,0,0,0
1681031338.00037694,73628870,1606,1607,1582,1554,0,0,0,0,0,0,0,0,0,0
1681031338.10033703,73728830,1617,1619,1622,1575,0,0,0,0,0,0,0,0,0,0
1681031338.20029688,73828790,1621,1624,1645,1598,0,0,0,0,0,0,0,0,0,0
1681031338.30025697,73928750,1613,1616,1646,1615,0,0,0,0,0,0,0,0,0,0
1681031338.40021682,74028710,1598,1600,1633,1624,0,0,0,0,0,0,0,0,0,0
1681031338.50017691,74128670,1581,1581,1613,1624,0,0,0,0,0,0,0,0,0,0
1681031338.60013700,74228630,1569,1567,1597,1620,0,0,0,0,0,0,0,0,0,0
1681031338.70009685,74328590,1564,1560,1588,1612,0,0,0,0,0,0,0,0,0,0
1681031338.80005693,74428550,1562,1557,1585,1602,0,0,0,0,0,0,0,0,0,0
1681031338.90001702,74528510,1563,1559,1585,1592,0,0,0,0,0,0,0,0,0,0
1681031338.99997687,74628470,1565,1564,1585,1584,0,0,0,0,0,0,0,0,0,0
1681031339.09993696,74728430,1569,1570,1583,1578,0,0,0,0,0,0,0,0,0,0
1681031339.19989681,74828390,1572,1575,1580,1574,0,0,0,0,0,0,0,0,0,0
1681031339.29985690,74928350,1575,1579,1576,1572,0,0,0,0,0,0,0,0,0,0
1681031339.39981699,75028310,1579,1582,1572,1571,0,0,0,0,0,0,0,0,0,0
1681031339.49977684,75128270,1579,1581,1566,1568,0,0,0,0,0,0,0,0,0,0
1681031339.59973693,75228230,1581,1581,1564,1567,0,0,0,0,0,0,0,0,0,0
1681031339.69969702,75328190,1581,1581,1563,1566,0,0,0,0,0,0,0,0,0,0
1681031339.80048990,75428983,1581,1580,1564,1566,0,0,0,0,0,0,0,0,0,0
1681031339.90044999,75528943,1580,1578,1565,1566,0,0,0,0,0,0,0,0,0,0
1681031340.00040984,75628903,1579,1578,1568,1568,0,0,0,0,0,0,0,0,0,0
1681031340.10036993,75728863,1577,1576,1570,1569,0,0,0,0,0,0,0,0,0,0
1681031340.20033002,75828823,1576,1576,1573,1571,0,0,0,0,0,0,0,0,0,0
1681031340.30028987,75928783,1575,1576,1575,1575,0,0,0,0,0,0,0,0,0,0
1681031340.40024996,76028743,1574,1575,1577,1577,0,0,0,0,0,0,0,0,0,0
1681031340.50021005,76128703,1572,1574,1581,1573,0,0,0,0,0,0,0,0,0,0
1681031340.60016990,76228663,1572,1576,1585,1570,0,0,0,0,0,0,0,0,0,0
1681031340.70012999,76328623,1571,1576,1579,1570,0,0,0,0,0,0,0,0,0,0
1681031340.80008984,76428583,1571,1576,1570,1570,0,0,0,0,0,0,0,0,0,0
1681031340.90004992,76528543,1571,1573,1561,1568,0,0,0,0,0,0,0,0,0,0
1681031341.00001001,76628503,1573,1574,1555,1564,0,0,0,0,0,0,0,0,0,0
1681031341.09996986,76728463,1576,1575,1552,1558,0,0,0,0,0,0,0,0,0,0
1681031341.19992995,76828423,1578,1576,1550,1553,0,0,0,0,0,0,0,0,0,0
1681031341.29989004,76928383,1580,1578,1550,1551,0,0,0,0,0,0,0,0,0,0
1681031341.39984989,77028343,1582,1580,1552,1550,0,0,0,0,0,0,0,0,0,0
1681031341.49980998,77128303,1580,1579,1551,1548,0,0,0,0,0,0,0,0,0,0
1681031341.59976983,77228263,1579,1580,1551,1549,0,0,0,0,0,0,0,0,0,0
1681031341.69972992,77328223,1578,1580,1552,1551,0,0,0,0,0,0,0,0,0,0
1681031341.79969001,77428183,1577,1580,1552,1551,0,0,0,0,0,0,0,0,0,0
1681031341.90048289,77528976,1578,1579,1551,1552,0,0,0,0,0,0,0,0,0,0
1681031342.00044298,77628936,1578,1579,1550,1551,0,0,0,0,0,0,0,0,0,0
1681031342.10040283,77728896,1578,1579,1549,1550,0,0,0,0,0,0,0,0,0,0
1681031342.20036292,77828856,1579,1580,1548,1548,0,0,0,0,0,0,0,0,0,0
1681031342.30032301,77928816,1581,1581,1547,1548,0,0,0,0,0,0,0,0,0,0
1681031342.40028286,78028776,1582,1583,1546,1546,0,0,0,0,0,0,0,0,0,0
1681031342.50024295,78128736,1584,1584,1545,1546,0,0,0,0,0,0,0,0,0,0
1681031342.60020304,78228696,1586,1587,1545,1546,0,0,0,0,0,0,0,0,0,0
1681031342.70016289,78328656,1588,1588,1544,1545,0,0,0,0,0,0,0,0,0,0
1681031342.80012298,78428616,1589,1589,1544,1545,0,0,0,0,0,0,0,0,0,0
1681031342.90008283,78528576,1589,1589,1545,1548,0,0,0,0,0,0,0,0,0,0
1681031343.00004292,78628536,1588,1586,1549,1551,0,0,0,0,0,0,0,0,0,0
1681031343.10000300,78728496,1584,1581,1554,1556,0,0,0,0,0,0,0,0,0,0
1681031343.19996285,78828456,1578,1575,1562,1563,0,0,0,0,0,0,0,0,0,0
1681031343.29992294,78928416,1571,1567,1570,1572,0,0,0,0,0,0,0,0,0,0
1681031343.39988303,79028376,1563,1560,1580,1581,0,0,0,0,0,0,0,0,0,0
1681031343.49984288,79128336,1555,1554,1590,1589,0,0,0,0,0,0,0,0,0,0
1681031343.59980297,79228296,1548,1549,1597,1596,0,0,0,0,0,0,0,0,0,0
1681031343.69976282,79328256,1545,1546,1602,1601,0,0,0,0,0,0,0,0,0,0
1681031343.79972291,79428216,1544,1546,1605,1603,0,0,0,0,0,0,0,0,0,0
1681031343.89968300,79528176,1546,1547,1605,1604,0,0,0,0,0,0,0,0,0,0
1681031344.00047588,79628969,1548,1549,1603,1602,0,0,0,0,0,0,0,0,0,0
1681031344.10043597,79728929,1552,1553,1601,1600,0,0,0,0,0,0,0,0,0,0
1681031344.20039582,79828889,1557,1558,1599,1597,0,0,0,0,0,0,0,0,0,0
1681031344.30035591,79928849,1561,1561,1595,1594,0,0,0,0,0,0,0,0,0,0
1681031344.40031600,80028809,1565,1565,1590,1589,0,0,0,0,0,0,0,0,0,0
1681031344.50027585,80128769,1569,1569,1585,1585,0,0,0,0,0,0,0,0,0,0
1681031344.60023594,80228729,1572,1573,1580,1580,0,0,0,0,0,0,0,0,0,0
1681031344.70019603,80328689,1577,1577,1575,1576,0,0,0,0,0,0,0,0,0,0
1681031344.80015588,80428649,1580,1580,1572,1573,0,0,0,0,0,0,0,0,0,0
1681031344.90011597,80528609,1583,1582,1570,1571,0,0,0,0,0,0,0,0,0,0
1681031345.00007582,80628569,1584,1583,1569,1570,0,0,0,0,0,0,0,0,0,0
1681031345.10003591,80728529,1584,1584,1570,1570,0,0,0,0,0,0,0,0,0,0
1681031345.19999599,80828489,1583,1583,1571,1571,0,0,0,0,0,0,0,0,0,0
1681031345.29995584,80928449,1581,1580,1572,1572,0,0,0,0,0,0,0,0,0,0
1681031345.39991593,81028409,1579,1579,1574,1574,0,0,0,0,0,0,0,0,0,0
1681031345.49987602,81128369,1579,1579,1578,1578,0,0,0,0,0,0,0,0,0,0
1681031345.59983587,81228329,1577,1578,1580,1580,0,0,0,0,0,0,0,0,0,0
1681031345.69979596,81328289,1575,1576,1581,1581,0,0,0,0,0,0,0,0,0,0
1681031345.79975581,81428249,1574,1574,1582,1581,0,0,0,0,0,0,0,0,0,0
1681031345.89971590,81528209,1573,1573,1582,1582,0,0,0,0,0,0,0,0,0,0
1681031345.99967599,81628169,1574,1574,1583,1582,0,0,0,0,0,0,0,0,0,0
1681031346.10046887,81728962,1575,1575,1582,1582,0,0,0,0,0,0,0,0,0,0
1681031346.20042896,81828922,1576,1576,1582,1582,0,0,0,0,0,0,0,0,0,0
1681031346.30038881,81928882,1577,1577,1582,1582,0,0,0,0,0,0,0,0,0,0
1681031346.40034890,82028842,1577,1578,1581,1581,0,0,0,0,0,0,0,0,0,0
1681031346.50030899,82128802,1579,1579,1581,1580,0,0,0,0,0,0,0,0,0,0
1681031346.60026884,82228762,1580,1580,1580,1580,0,0,0,0,0,0,0,0,0,0
1681031346.70022893,82328722,1580,1580,1579,1579,0,0,0,0,0,0,0,0,0,0
1681031346.80018902,82428682,1581,1581,1579,1579,0,0,0,0,0,0,0,0,0,0
1681031346.90014887,82528642,1581,1581,1578,1579,0,0,0,0,0,0,0,0,0,0
1681031347.00010896,82628602,1581,1581,1579,1578,0,0,0,0,0,0,0,0,0,0
1681031347.10006905,82728562,1582,1582,1579,1579,0,0,0,0,0,0,0,0,0,0
1681031347.20002890,82828522,1582,1582,1580,1580,0,0,0,0,0,0,0,0,0,0
1681031347.29998899,82928482,1580,1580,1579,1579,0,0,0,0,0,0,0,0,0,0
1681031347.39994884,83028442,1580,1581,1580,1580,0,0,0,0,0,0,0,0,0,0
1681031347.49990892,83128402,1579,1580,1579,1580,0,0,0,0,0,0,0,0,0,0
1681031347.59986901,83228362,1580,1580,1580,1580,0,0,0,0,0,0,0,0,0,0
1681031347.69982886,83328322,1579,1579,1580,1580,0,0,0,0,0,0,0,0,0,0
1681031347.79978895,83428282,1578,1579,1580,1580,0,0,0,0,0,0,0,0,0,0
1681031347.89974904,83528242,1580,1580,1581,1582,0,0,0,0,0,0,0,0,0,0
1681031347.99970889,83628202,1580,1580,1581,1581,0,0,0,0,0,0,0,0,0,0
1681031348.09966898,83728162,1580,1580,1581,1581,0,0,0,0,0,0,0,0,0,0
1681031348.20046186,83828955,1581,1581,1582,1581,0,0,0,0,0,0,0,0,0,0
1681031348.30042195,83928915,1580,1581,1581,1581,0,0,0,0,0,0,0,0,0,0
1681031348.40038204,84028875,1582,1582,1582,1582,0,0,0,0,0,0,0,0,0,0
1681031348.50034189,84128835,1581,1581,1581,1581,0,0,0,0,0,0,0,0,0,0
1681031348.60030198,84228795,1582,1582,1582,1582,0,0,0,0,0,0,0,0,0,0
1681031348.70026183,84328755,1582,1583,1587,1576,0,0,0,0,0,0,0,0,0,0
1681031348.80022192,84428715,1581,1584,1587,1573,0,0,0,0,0,0,0,0,0,0
1681031348.90018201,84528675,1579,1583,1580,1572,0,0,0,0,0,0,0,0,0,0
1681031349.00014186,84628635,1578,1582,1572,1573,0,0,0,0,0,0,0,0,0,0
1681031349.10010195,84728595,1578,1580,1564,1570,0,0,0,0,0,0,0,0,0,0
1681031349.20006204,84828555,1578,1579,1559,1566,0,0,0,0,0,0,0,0,0,0
1681031349.30002189,84928515,1579,1578,1555,1561,0,0,0,0,0,0,0,0,0,0
1681031349.39998198,85028475,1579,1578,1554,1556,0,0,0,0,0,0,0,0,0,0
1681031349.49994183,85128435,1579,1577,1553,1553,0,0,0,0,0,0,0,0,0,0
1681031349.59990191,85228395,1579,1578,1554,1552,0,0,0,0,0,0,0,0,0,0
1681031349.69986200,85328355,1579,1579,1555,1553,0,0,0,0,0,0,0,0,0,0
1681031349.79982185,85428315,1576,1578,1554,1552,0,0,0,0,0,0,0,0,0,0
1681031349.89978194,85528275,1576,1577,1554,1553,0,0,0,0,0,0,0,0,0,0
1681031349.99974203,85628235,1575,1577,1553,1553,0,0,0,0,0,0,0,0,0,0
1681031350.09970188,85728195,1574,1577,1551,1551,0,0,0,0,0,0,0,0,0,0
1681031350.19966197,85828155,1576,1578,1551,1551,0,0,0,0,0,0,0,0,0,0
1681031350.30045485,85928948,1577,1577,1548,1548,0,0,0,0,0,0,0,0,0,0
1681031350.40041494,86028908,1580,1581,1548,1548,0,0,0,0,0,0,0,0,0,0
1681031350.50037503,86128868,1582,1582,1545,1545,0,0,0,0,0,0,0,0,0,0
1681031350.60033488,86228828,1585,1585,1543,1543,0,0,0,0,0,0,0,0,0,0
1681031350.70029497,86328788,1588,1588,1541,1542,0,0,0,0,0,0,0,0,0,0
1681031350.80025482,86428748,1591,1592,1540,1540,0,0,0,0,0,0,0,0,0,0
1681031350.90021491,86528708,1592,1594,1539,1539,0,0,0,0,0,0,0,0,0,0
1681031351.00017500,86628668,1594,1595,1537,1539,0,0,0,0,0,0,0,0,0,0
1681031351.10013485,86728628,1594,1594,1537,1539,0,0,0,0,0,0,0,0,0,0
1681031351.20009494,86828588,1594,1592,1539,1542,0,0,0,0,0,0,0,0,0,0
1681031351.30005503,86928548,1591,1588,1545,1548,0,0,0,0,0,0,0,0,0,0
1681031351.40001488,87028508,1585,1582,1552,1555,0,0,0,0,0,0,0,0,0,0
1681031351.49997497,87128468,1577,1573,1561,1564,0,0,0,0,0,0,0,0,0,0
1681031351.59993482,87228428,1567,1564,1573,1575,0,0,0,0,0,0,0,0,0,0
1681031351.69989491,87328388,1555,1553,1584,1585,0,0,0,0,0,0,0,0,0,0
1681031351.79985499,87428348,1547,1545,1596,1596,0,0,0,0,0,0,0,0,0,0
1681031351.89981484,87528308,1538,1538,1605,1603,0,0,0,0,0,0,0,0,0,0
1681031351.99977493,87628268,1535,1535,1611,1609,0,0,0,0,0,0,0,0,0,0
1681031352.09973502,87728228,1534,1536,1614,1612,0,0,0,0,0,0,0,0,0,0
1681031352.19969487,87828188,1537,1539,1614,1612,0,0,0,0,0,0,0,0,0,0
1681031352.30048800,87928981,1542,1543,1610,1609,0,0,0,0,0,0,0,0,0,0
1681031352.40044785,88028941,1548,1549,1605,1605,0,0,0,0,0,0,0,0,0,0
1681031352.50040793,88128901,1554,1555,1599,1599,0,0,0,0,0,0,0,0,0,0
1681031352.60036802,88228861,1561,1561,1593,1593,0,0,0,0,0,0,0,0,0,0
1681031352.70032787,88328821,1568,1568,1587,1587,0,0,0,0,0,0,0,0,0,0
1681031352.80028796,88428781,1574,1574,1579,1580,0,0,0,0,0,0,0,0,0,0
1681031352.90024781,88528741,1580,1578,1574,1574,0,0,0,0,0,0,0,0,0,0
1681031353.00020790,88628701,1583,1582,1569,1570,0,0,0,0,0,0,0,0,0,0
1681031353.10016799,88728661,1586,1585,1567,1568,0,0,0,0,0,0,0,0,0,0
1681031353.20012784,88828621,1587,1586,1566,1567,0,0,0,0,0,0,0,0,0,0
1681031353.30008793,88928581,1586,1584,1566,1566,0,0,0,0,0,0,0,0,0,0
1681031353.40004802,89028541,1584,1583,1567,1568,0,0,0,0,0,0,0,0,0,0
1681031353.50000787,89128501,1582,1581,1570,1570,0,0,0,0,0,0,0,0,0,0
1681031353.59996796,89228461,1579,1579,1573,1573,0,0,0,0,0,0,0,0,0,0
1681031353.69992805,89328421,1578,1578,1577,1577,0,0,0,0,0,0,0,0,0,0
1681031353.79988790,89428381,1575,1575,1579,1579,0,0,0,0,0,0,0,0,0,0
1681031353.89984798,89528341,1574,1575,1582,1582,0,0,0,0,0,0,0,0,0,0
1681031353.99980783,89628301,1574,1574,1584,1584,0,0,0,0,0,0,0,0,0,0
1681031354.09976792,89728261,1574,1574,1585,1584,0,0,0,0,0,0,0,0,0,0
1681031354.19972801,89828221,1574,1575,1585,1585,0,0,0,0,0,0,0,0,0,0
1681031354.29968786,89928181,1573,1574,1584,1584,0,0,0,0,0,0,0,0,0,0
1681031354.40048099,90028974,1575,1576,1584,1583,0,0,0,0,0,0,0,0,0,0
1681031354.50044084,90128934,1576,1576,1582,1582,0,0,0,0,0,0,0,0,0,0
1681031354.60040092,90228894,1577,1577,1580,1580,0,0,0,0,0,0,0,0,0,0
1681031354.70036101,90328854,1579,1578,1579,1580,0,0,0,0,0,0,0,0,0,0
1681031354.80032086,90428814,1579,1579,1578,1578,0,0,0,0,0,0,0,0,0,0
1681031354.90028095,90528774,1581,1581,1578,1578,0,0,0,0,0,0,0,0,0,0
1681031355.00024104,90628734,1581,1581,1577,1578,0,0,0,0,0,0,0,0,0,0
1681031355.10020089,90728694,1581,1581,1577,1577,0,0,0,0,0,0,0,0,0,0
1681031355.20016098,90828654,1580,1580,1576,1576,0,0,0,0,0,0,0,0,0,0
1681031355.30012083,90928614,1579,1579,1576,1576,0,0,0,0,0,0,0,0,0,0
1681031355.40008092,91028574,1580,1579,1577,1577,0,0,0,0,0,0,0,0,0,0
1681031355.50004101,91128534,1580,1580,1578,1578,0,0,0,0,0,0,0,0,0,0
1681031355.60000086,91228494,1580,1580,1579,1579,0,0,0,0,0,0,0,0,0,0
1681031355.69996095,91328454,1579,1580,1580,1579,0,0,0,0,0,0,0,0,0,0
1681031355.79992104,91428414,1579,1580,1580,1580,0,0,0,0,0,0,0,0,0,0
1681031355.89988089,91528374,1580,1581,1582,1581,0,0,0,0,0,0,0,0,0,0
1681031355.99984097,91628334,1578,1579,1580,1580,0,0,0,0,0,0,0,0,0,0
1681031356.09980083,91728294,1579,1579,1581,1581,0,0,0,0,0,0,0,0,0,0
1681031356.19976091,91828254,1579,1579,1581,1581,0,0,0,0,0,0,0,0,0,0
1681031356.29972100,91928214,1579,1579,1580,1580,0,0,0,0,0,0,0,0,0,0
1681031356.39968085,92028174,1581,1581,1582,1582,0,0,0,0,0,0,0,0,0,0
1681031356.50047398,92128967,1581,1582,1582,1582,0,0,0,0,0,0,0,0,0,0
1681031356.60043383,92228927,1581,1582,1584,1577,0,0,0,0,0,0,0,0,0,0
1681031356.70039392,92328887,1582,1583,1588,1573,0,0,0,0,0,0,0,0,0,0
1681031356.80035400,92428847,1581,1581,1584,1574,0,0,0,0,0,0,0,0,0,0
1681031356.90031385,92528807,1577,1578,1577,1576,0,0,0,0,0,0,0,0,0,0
1681031357.00027394,92628767,1573,1574,1570,1576,0,0,0,0,0,0,0,0,0,0
1681031357.10023403,92728727,1571,1570,1567,1574,0,0,0,0,0,0,0,0,0,0
1681031357.20019388,92828687,1568,1567,1564,1571,0,0,0,0,0,0,0,0,0,0
1681031357.30015397,92928647,1567,1566,1565,1568,0,0,0,0,0,0,0,0,0,0
1681031357.40011382,93028607,1566,1566,1566,1566,0,0,0,0,0,0,0,0,0,0
1681031357.50007391,93128567,1565,1566,1566,1564,0,0,0,0,0,0,0,0,0,0
1681031357.60003400,93228527,1566,1566,1567,1565,0,0,0,0,0,0,0,0,0,0
1681031357.69999385,93328487,1565,1564,1566,1563,0,0,0,0,0,0,0,0,0,0
1681031357.79995394,93428447,1565,1565,1566,1564,0,0,0,0,0,0,0,0,0,0
1681031357.89991403,93528407,1564,1564,1564,1563,0,0,0,0,0,0,0,0,0,0
1681031357.99987388,93628367,1563,1563,1563,1563,0,0,0,0,0,0,0,0,0,0
1681031358.09983397,93728327,1561,1561,1561,1562,0,0,0,0,0,0,0,0,0,0
1681031358.19979382,93828287,1560,1561,1561,1561,0,0,0,0,0,0,0,0,0,0
1681031358.29975390,93928247,1561,1561,1561,1562,0,0,0,0,0,0,0,0,0,0
1681031358.39971399,94028207,1560,1560,1561,1560,0,0,0,0,0,0,0,0,0,0
1681031358.49967384,94128167,1560,1560,1560,1560,0,0,0,0,0,0,0,0,0,0
1681031358.60046697,94228960,1560,1560,1560,1559,0,0,0,0,0,0,0,0,0,0
1681031358.70042682,94328920,1560,1559,1559,1560,0,0,0,0,0,0,0,0,0,0
1681031358.80038691,94428880,1559,1559,1559,1558,0,0,0,0,0,0,0,0,0,0
1681031358.90034699,94528840,1559,1559,1559,1558,0,0,0,0,0,0,0,0,0,0
1681031359.00030684,94628800,1559,1558,1559,1558,0,0,0,0,0,0,0,0,0,0
1681031359.10026693,94728760,1559,1558,1559,1557,0,0,0,0,0,0,0,0,0,0
1681031359.20022702,94828720,1558,1559,1559,1557,0,0,0,0,0,0,0,0,0,0
1681031359.30018687,94928680,1558,1558,1560,1557,0,0,0,0,0,0,0,0,0,0
1681031359.40014696,95028640,1559,1558,1560,1558,0,0,0,0,0,0,0,0,0,0
1681031359.50010681,95128600,1559,1559,1558,1561,0,0,0,0,0,0,0,0,0,0
1681031359.60006690,95228560,1560,1560,1557,1563,0,0,0,0,0,0,0,0,0,0
1681031359.70002699,95328520,1560,1561,1557,1564,0,0,0,0,0,0,0,0,0,0
1681031359.79998684,95428480,1561,1561,1558,1563,0,0,0,0,0,0,0,0,0,0
1681031359.89994693,95528440,1562,1562,1560,1563,0,0,0,0,0,0,0,0,0,0
1681031359.99990702,95628400,1561,1561,1561,1560,0,0,0,0,0,0,0,0,0,0
1681031360.09986687,95728360,1560,1560,1561,1558,0,0,0,0,0,0,0,0,0,0
1681031360.19982696,95828320,1558,1559,1560,1558,0,0,0,0,0,0,0,0,0,0
1681031360.29978704,95928280,1558,1558,1557,1560,0,0,0,0,0,0,0,0,0,0
1681031360.39974689,96028240,1555,1554,1553,1557,0,0,0,0,0,0,0,0,0,0
1681031360.49970698,96128200,1549,1549,1549,1551,0,0,0,0,0,0,0,0,0,0
1681031360.59966683,96228160,1544,1543,1545,1545,0,0,0,0,0,0,0,0,0,0
1681031360.70045996,96328953,1536,1536,1538,1537,0,0,0,0,0,0,0,0,0,0
1681031360.80042005,96428913,1529,1530,1532,1530,0,0,0,0,0,0,0,0,0,0
1681031360.90037990,96528873,1522,1522,1524,1523,0,0,0,0,0,0,0,0,0,0
1681031361.00033998,96628833,1519,1520,1520,1521,0,0,0,0,0,0,0,0,0,0
1681031361.10029984,96728793,1519,1520,1519,1520,0,0,0,0,0,0,0,0,0,0
1681031361.20025992,96828753,1520,1520,1519,1520,0,0,0,0,0,0,0,0,0,0
1681031361.30022001,96928713,1523,1523,1521,1522,0,0,0,0,0,0,0,0,0,0
1681031361.40017986,97028673,1527,1527,1524,1525,0,0,0,0,0,0,0,0,0,0
1681031361.50013995,97128633,1532,1531,1528,1529,0,0,0,0,0,0,0,0,0,0
1681031361.60010004,97228593,1537,1537,1534,1534,0,0,0,0,0,0,0,0,0,0
1681031361.70005989,97328553,1540,1540,1538,1537,0,0,0,0,0,0,0,0,0,0
1681031361.80001998,97428513,1541,1542,1540,1539,0,0,0,0,0,0,0,0,0,0
1681031361.89997983,97528473,1543,1544,1543,1542,0,0,0,0,0,0,0,0,0,0
1681031361.99993992,97628433,1545,1545,1545,1544,0,0,0,0,0,0,0,0,0,0
1681031362.09990001,97728393,1545,1545,1546,1545,0,0,0,0,0,0,0,0,0,0
1681031362.19985986,97828353,1545,1545,1547,1546,0,0,0,0,0,0,0,0,0,0
1681031362.29981995,97928313,1545,1545,1547,1547,0,0,0,0,0,0,0,0,0,0
1681031362.39978004,98028273,1546,1546,1548,1548,0,0,0,0,0,0,0,0,0,0
1681031362.49973989,98128233,1546,1546,1547,1548,0,0,0,0,0,0,0,0,0,0
1681031362.59969997,98228193,1546,1546,1547,1547,0,0,0,0,0,0,0,0,0,0
1681031362.70049286,98328986,1546,1545,1547,1546,0,0,0,0,0,0,0,0,0,0
1681031362.80045295,98428946,1545,1545,1546,1546,0,0,0,0,0,0,0,0,0,0
1681031362.90041304,98528906,1545,1545,1546,1545,0,0,0,0,0,0,0,0,0,0
1681031363.00037289,98628866,1544,1545,1545,1544,0,0,0,0,0,0,0,0,0,0
1681031363.10033298,98728826,1545,1545,1545,1544,0,0,0,0,0,0,0,0,0,0
1681031363.20029283,98828786,1545,1545,1545,1545,0,0,0,0,0,0,0,0,0,0
1681031363.30025291,98928746,1545,1544,1544,1544,0,0,0,0,0,0,0,0,0,0
1681031363.40021300,99028706,1544,1545,1544,1544,0,0,0,0,0,0,0,0,0,0
1681031363.50017285,99128666,1544,1545,1544,1544,0,0,0,0,0,0,0,0,0,0
1681031363.60013294,99228626,1545,1545,1544,1544,0,0,0,0,0,0,0,0,0,0
1681031363.70009303,99328586,1544,1543,1543,1543,0,0,0,0,0,0,0,0,0,0
1681031363.80005288,99428546,1544,1544,1543,1543,0,0,0,0,0,0,0,0,0,0
1681031363.90001297,99528506,1544,1544,1543,1544,0,0,0,0,0,0,0,0,0,0
1681031363.99997282,99628466,1543,1543,1544,1543,0,0,0,0,0,0,0,0,0,0
1681031364.09993291,99728426,1544,1543,1544,1543,0,0,0,0,0,0,0,0,0,0
1681031364.19989300,99828386,1544,1544,1544,1544,0,0,0,0,0,0,0,0,0,0
1681031364.29985285,99928346,1544,1543,1544,1544,0,0,0,0,0,0,0,0,0,0
1681031364.39981294,100028306,1544,1544,1544,1545,0,0,0,0,0,0,0,0,0,0
1681031364.49977303,100128266,1545,1545,1545,1545,0,0,0,0,0,0,0,0,0,0
1681031364.59973288,100228226,1544,1544,1544,1544,0,0,0,0,0,0,0,0,0,0
1681031364.69969296,100328186,1545,1545,1545,1545,0,0,0,0,0,0,0,0,0,0
1681031364.80048585,100428979,1544,1545,1545,1544,0,0,0,0,0,0,0,0,0,0
1681031364.90044594,100528939,1544,1544,1544,1545,0,0,0,0,0,0,0,0,0,0
1681031365.00040603,100628899,1544,1544,1544,1544,0,0,0,0,0,0,0,0,0,0
1681031365.10036588,100728859,1545,1544,1544,1545,0,0,0,0,0,0,0,0,0,0
1681031365.20032597,100828819,1544,1544,1544,1544,0,0,0,0,0,0,0,0,0,0
1681031365.30028582,100928779,1545,1544,1545,1545,0,0,0,0,0,0,0,0,0,0
1681031365.40024590,101028739,1544,1544,1544,1543,0,0,0,0,0,0,0,0,0,0
1681031365.50020599,101128699,1544,1544,1544,1544,0,0,0,0,0,0,0,0,0,0
1681031365.60016584,101228659,1544,1544,1544,1544,0,0,0,0,0,0,0,0,0,0
1681031365.70012593,101328619,1544,1544,1544,1545,0,0,0,0,0,0,0,0,0,0
1681031365.80008602,101428579,1544,1544,1544,1544,0,0,0,0,0,0,0,0,0,0
1681031365.90004587,101528539,1544,1543,1544,1543,0,0,0,0,0,0,0,0,0,0
1681031366.00000596,101628499,1544,1544,1544,1544,0,0,0,0,0,0,0,0,0,0
1681031366.09996581,101728459,1544,1545,1544,1545,0,0,0,0,0,0,0,0,0,0
1681031366.19992590,101828419,1544,1544,1544,1544,0,0,0,0,0,0,0,0,0,0
1681031366.29988599,101928379,1544,1543,1544,1544,0,0,0,0,0,0,0,0,0,0
1681031366.39984584,102028339,1545,1545,1545,1544,0,0,0,0,0,0,0,0,0,0
1681031366.49980593,102128299,1544,1544,1543,1544,0,0,0,0,0,0,0,0,0,0
1681031366.59976602,102228259,1544,1544,1544,1544,0,0,0,0,0,0,0,0,0,0
1681031366.69972587,102328219,1544,1544,1544,1544,0,0,0,0,0,0,0,0,0,0
1681031366.79968596,102428179,1544,1544,1544,1544,0,0,0,0,0,0,0,0,0,0
1681031366.90047884,102528972,1544,1544,1544,1544,0,0,0,0,0,0,0,0,0,0
1681031367.00043893,102628932,1544,1544,1545,1544,0,0,0,0,0,0,0,0,0,0
1681031367.10039902,102728892,1544,1543,1544,1543,0,0,0,0,0,0,0,0,0,0
1681031367.20035887,102828852,1544,1544,1544,1544,0,0,0,0,0,0,0,0,0,0
1681031367.30031896,102928812,1545,1544,1544,1545,0,0,0,0,0,0,0,0,0,0
1681031367.40027905,103028772,1545,1545,1545,1545,0,0,0,0,0,0,0,0,0,0
1681031367.50023890,103128732,1545,1545,1544,1545,0,0,0,0,0,0,0,0,0,0
1681031367.60019898,103228692,1545,1545,1544,1544,0,0,0,0,0,0,0,0,0,0
1681031367.70015883,103328652,1545,1544,1544,1544,0,0,0,0,0,0,0,0,0,0
1681031367.80011892,103428612,1545,1544,1544,1544,0,0,0,0,0,0,0,0,0,0
1681031367.90007901,103528572,1545,1545,1545,1545,0,0,0,0,0,0,0,0,0,0
1681031368.00003886,103628532,1544,1544,1544,1544,0,0,0,0,0,0,0,0,0,0
1681031368.09999895,103728492,1544,1544,1544,1544,0,0,0,0,0,0,0,0,0,0
1681031368.19995904,103828452,1545,1545,1545,1545,0,0,0,0,0,0,0,0,0,0
1681031368.29991889,103928412,1544,1544,1544,1544,0,0,0,0,0,0,0,0,0,0
1681031368.39987898,104028372,1543,1544,1544,1543,0,0,0,0,0,0,0,0,0,0
1681031368.49983883,104128332,1544,1544,1544,1545,0,0,0,0,0,0,0,0,0,0
1681031368.59979892,104228292,1544,1545,1544,1545,0,0,0,0,0,0,0,0,0,0
1681031368.69975901,104328252,1544,1544,1544,1544,0,0,0,0,0,0,0,0,0,0
1681031368.79971886,104428212,1545,1544,1544,1545,0,0,0,0,0,0,0,0,0,0
1681031368.89967895,104528172,1544,1544,1544,1544,0,0,0,0,0,0,0,0,0,0
1681031369.00047183,104628965,1544,1544,1544,1544,0,0,0,0,0,0,0,0,0,0
1681031369.10043192,104728925,1544,1544,1544,1544,0,0,0,0,0,0,0,0,0,0
1681031369.20039201,104828885,1545,1544,1545,1544,0,0,0,0,0,0,0,0,0,0
1681031369.30035186,104928845,1545,1544,1545,1544,0,0,0,0,0,0,0,0,0,0
1681031369.40031195,105028805,1544,1544,1544,1544,0,0,0,0,0,0,0,0,0,0
1681031369.50027204,105128765,1545,1545,1544,1545,0,0,0,0,0,0,0,0,0,0
1681031369.60023189,105228725,1544,1545,1545,1545,0,0,0,0,0,0,0,0,0,0
1681031369.70019197,105328685,1544,1544,1544,1544,0,0,0,0,0,0,0,0,0,0
1681031369.80015182,105428645,1544,1544,1545,1544,0,0,0,0,0,0,0,0,0,0
1681031369.90011191,105528605,1544,1544,1544,1544,0,0,0,0,0,0,0,0,0,0
1681031370.00007200,105628565,1544,1544,1544,1544,0,0,0,0,0,0,0,0,0,0
1681031370.10003185,105728525,1545,1545,1545,1545,0,0,0,0,0,0,0,0,0,0
1681031370.19999194,105828485,1544,1544,1544,1544,0,0,0,0,0,0,0,0,0,0
1681031370.29995203,105928445,1544,1544,1544,1544,0,0,0,0,0,0,0,0,0,0
1681031370.39991188,106028405,1544,1544,1544,1544,0,0,0,0,0,0,0,0,0,0
1681031370.49987197,106128365,1545,1544,1544,1545,0,0,0,0,0,0,0,0,0,0
1681031370.59983182,106228325,1545,1545,1545,1545,0,0,0,0,0,0,0,0,0,0
1681031370.69979191,106328285,1509,1507,1514,1508,0,0,0,0,0,0,0,0,0,0
1681031370.79975200,106428245,1328,1325,1371,1325,0,0,0,0,0,0,0,0,0,0
1681031370.89971185,106528205,1243,1239,1310,1240,0,0,0,0,0,0,0,0,0,0
1681031370.99967194,106628165,1216,1212,1291,1213,0,0,0,0,0,0,0,0,0,0
1681031371.10046482,106728958,1190,1185,1273,1187,0,0,0,0,0,0,0,0,0,0
1681031371.20042491,106828918,1153,1150,1251,1150,0,0,0,0,0,0,0,0,0,0
1681031371.30038500,106928878,1154,1150,1245,1150,0,0,0,0,0,0,0,0,0,0
1681031371.40034485,107028838,1154,1150,1246,1150,0,0,0,0,0,0,0,0,0,0
1681031371.50030494,107128798,1166,1150,1230,1163,0,0,0,0,0,0,0,0,0,0
1681031371.60026503,107228758,1175,1150,1215,1175,0,0,0,0,0,0,0,0,0,0
1681031371.70022488,107328718,1168,1150,1225,1168,0,0,0,0,0,0,0,0,0,0
1681031371.80018497,107428678,1166,1150,1228,1166,0,0,0,0,0,0,0,0,0,0
1681031371.90014482,107528638,1166,1150,1228,1166,0,0,0,0,0,0,0,0,0,0
1681031372.00010490,107628598,1166,1150,1227,1167,0,0,0,0,0,0,0,0,0,0
1681031372.10006499,107728558,1167,1150,1226,1169,0,0,0,0,0,0,0,0,0,0
1681031372.20002484,107828518,1167,1150,1225,1169,0,0,0,0,0,0,0,0,0,0
1681031372.29998493,107928478,1150,1161,1238,1155,0,0,0,0,0,0,0,0,0,0
1681031372.39994502,108028438,1153,1150,1242,1157,0,0,0,0,0,0,0,0,0,0
1681031372.49990487,108128398,1154,1150,1241,1158,0,0,0,0,0,0,0,0,0,0
1681031372.59986496,108228358,1155,1150,1240,1159,0,0,0,0,0,0,0,0,0,0
1681031372.69982505,108328318,1155,1150,1240,1159,0,0,0,0,0,0,0,0,0,0
1681031372.79978490,108428278,1145,1145,995,1145,0,0,0,0,0,0,0,0,0,0
1681031372.89974499,108528238,1000,1000,1000,1000,0,0,0,0,0,0,0,0,0,0
1681031372.99970484,108628198,1000,1000,1000,1000,0,0,0,0,0,0,0,0,0,0
1681031373.09966493,108728158,1000,1000,1000,1000,0,0,0,0,0,0,0,0,0,0
1681031373.20045781,108828951,1000,1000,1000,1000,0,0,0,0,0,0,0,0,0,0
1681031373.30041790,108928911,1000,1000,1000,1000,0,0,0,0,0,0,0,0,0,0
1681031373.40037799,109028871,1000,1000,1000,1000,0,0,0,0,0,0,0,0,0,0
1681031373.50033784,109128831,1000,1000,1000,1000,0,0,0,0,0,0,0,0,0,0
1681031373.60029793,109228791,1000,1000,1000,1000,0,0,0,0,0,0,0,0,0,0
1681031373.70025802,109328751,1000,1000,1000,1000,0,0,0,0,0,0,0,0,0,0
1681031373.80021787,109428711,1000,1000,1000,1000,0,0,0,0,0,0,0,0,0,0
1681031373.90017796,109528671,1000,1000,1000,1000,0,0,0,0,0,0,0,0,0,0
1681031374.00013804,109628631,1000,1000,1000,1000,0,0,0,0,0,0,0,0,0,0
1681031374.10009789,109728591,1000,1000,1000,1000,0,0,0,0,0,0,0,0,0,0
1681031374.20005798,109828551,1000,1000,1000,1000,0,0,0,0,0,0,0,0,0,0
1681031374.30001783,109928511,1000,1000,1000,1000,0,0,0,0,0,0,0,0,0,0
1681031374.39997792,110028471,1000,1000,1000,1000,0,0,0,0,0,0,0,0,0,0
1681031374.49993801,110128431,1000,1000,1000,1000,0,0,0,0,0,0,0,0,0,0
1681031374.59989786,110228391,1000,1000,1000,1000,0,0,0,0,0,0,0,0,0,0
1681031374.69985795,110328351,1000,1000,1000,1000,0,0,0,0,0,0,0,0,0,0
1681031374.79981804,110428311,1000,1000,1000,1000,0,0,0,0,0,0,0,0,0,0
1681031374.89977789,110528271,1000,1000,1000,1000,0,0,0,0,0,0,0,0,0,0
1681031374.99973798,110628231,1000,1000,1000,1000,0,0,0,0,0,0,0,0,0,0
1681031375.09969783,110728191,1000,1000,1000,1000,0,0,0,0,0,0,0,0,0,0
1681031375.20049095,110828984,1000,1000,1000,1000,0,0,0,0,0,0,0,0,0,0
1681031375.30045104,110928944,1000,1000,1000,1000,0,0,0,0,0,0,0,0,0,0
1681031375.40041089,111028904,1000,1000,1000,1000,0,0,0,0,0,0,0,0,0,0
1681031375.50037098,111128864,1000,1000,1000,1000,0,0,0,0,0,0,0,0,0,0
1681031375.60033083,111228824,1000,1000,1000,1000,0,0,0,0,0,0,0,0,0,0
1681031375.70029092,111328784,1000,1000,1000,1000,0,0,0,0,0,0,0,0,0,0
1681031375.80025101,111428744,1000,1000,1000,1000,0,0,0,0,0,0,0,0,0,0
1681031375.90021086,111528704,1000,1000,1000,1000,0,0,0,0,0,0,0,0,0,0
1681031376.00017095,111628664,1000,1000,1000,1000,0,0,0,0,0,0,0,0,0,0
1681031376.10013103,111728624,1000,1000,1000,1000,0,0,0,0,0,0,0,0,0,0
1681031376.20009089,111828584,1000,1000,1000,1000,0,0,0,0,0,0,0,0,0,0
1681031376.30005097,111928544,1000,1000,1000,1000,0,0,0,0,0,0,0,0,0,0
1681031376.40001082,112028504,1000,1000,1000,1000,0,0,0,0,0,0,0,0,0,0
1681031376.49997091,112128464,1000,1000,1000,1000,0,0,0,0,0,0,0,0,0,0
1681031376.59993100,112228424,1000,1000,1000,1000,0,0,0,0,0,0,0,0,0,0
1681031376.69989085,112328384,1000,1000,1000,1000,0,0,0,0,0,0,0,0,0,0
1681031376.79985094,112428344,1000,1000,1000,1000,0,0,0,0,0,0,0,0,0,0
1681031376.89981103,112528304,1000,1000,1000,1000,0,0,0,0,0,0,0,0,0,0
1681031376.99977088,112628264,1000,1000,1000,1000,0,0,0,0,0,0,0,0,0,0
1681031377.09973097,112728224,1000,1000,1000,1000,0,0,0,0,0,0,0,0,0,0
1681031377.19969082,112828184,1000,1000,1000,1000,0,0,0,0,0,0,0,0,0,0
1681031377.30048394,112928977,1000,1000,1000,1000,0,0,0,0,0,0,0,0,0,0
1681031377.40044403,113028937,1000,1000,1000,1000,0,0,0,0,0,0,0,0,0,0
1681031377.50040388,113128897,1000,1000,1000,1000,0,0,0,0,0,0,0,0,0,0
1681031377.60036397,113228857,1000,1000,1000,1000,0,0,0,0,0,0,0,0,0,0
1681031377.70032382,113328817,1000,1000,1000,1000,0,0,0,0,0,0,0,0,0,0
1681031377.80028391,113428777,1000,1000,1000,1000,0,0,0,0,0,0,0,0,0,0
1681031377.90024400,113528737,1000,1000,1000,1000,0,0,0,0,0,0,0,0,0,0
1681031378.00020385,113628697,1000,1000,1000,1000,0,0,0,0,0,0,0,0,0,0
1681031378.10016394,113728657,1000,1000,1000,1000,0,0,0,0,0,0,0,0,0,0
1681031378.20012403,113828617,1000,1000,1000,1000,0,0,0,0,0,0,0,0,0,0
1681031378.30008388,113928577,1000,1000,1000,1000,0,0,0,0,0,0,0,0,0,0
1681031378.40004396,114028537,1000,1000,1000,1000,0,0,0,0,0,0,0,0,0,0
1681031378.50000381,114128497,1000,1000,1000,1000,0,0,0,0,0,0,0,0,0,0
1681031378.59996390,114228457,1000,1000,1000,1000,0,0,0,0,0,0,0,0,0,0
1681031378.69992399,114328417,1000,1000,1000,1000,0,0,0,0,0,0,0,0,0,0
1681031378.79988384,114428377,1000,1000,1000,1000,0,0,0,0,0,0,0,0,0,0
1681031378.89984393,114528337,1000,1000,1000,1000,0,0,0,0,0,0,0,0,0,0
1681031378.99980402,114628297,1000,1000,1000,1000,0,0,0,0,0,0,0,0,0,0
1681031379.09976387,114728257,1000,1000,1000,1000,0,0,0,0,0,0,0,0,0,0
1681031379.19972396,114828217,1000,1000,1000,1000,0,0,0,0,0,0,0,0,0,0
1681031379.29968405,114928177,1000,1000,1000,1000,0,0,0,0,0,0,0,0,0,0
1681031379.40047693,115028970,1000,1000,1000,1000,0,0,0,0,0,0,0,0,0,0
1681031379.50043702,115128930,1000,1000,1000,1000,0,0,0,0,0,0,0,0,0,0
1681031379.60039687,115228890,1000,1000,1000,1000,0,0,0,0,0,0,0,0,0,0
1681031379.70035696,115328850,1000,1000,1000,1000,0,0,0,0,0,0,0,0,0,0
1681031379.80031681,115428810,1000,1000,1000,1000,0,0,0,0,0,0,0,0,0,0
1681031379.90027690,115528770,1000,1000,1000,1000,0,0,0,0,0,0,0,0,0,0
1681031380.00023699,115628730,1000,1000,1000,1000,0,0,0,0,0,0,0,0,0,0
1681031380.10019684,115728690,1000,1000,1000,1000,0,0,0,0,0,0,0,0,0,0
1681031380.20015693,115828650,1000,1000,1000,1000,0,0,0,0,0,0,0,0,0,0
1681031380.30011702,115928610,1000,1000,1000,1000,0,0,0,0,0,0,0,0,0,0
1681031380.40007687,116028570,1000,1000,1000,1000,0,0,0,0,0,0,0,0,0,0
1681031380.50003695,116128530,1000,1000,1000,1000,0,0,0,0,0,0,0,0,0,0
1681031380.59999704,116228490,1000,1000,1000,1000,0,0,0,0,0,0,0,0,0,0
1681031380.69995689,116328450,1000,1000,1000,1000,0,0,0,0,0,0,0,0,0,0
1681031380.79991698,116428410,1000,1000,1000,1000,0,0,0,0,0,0,0,0,0,0
1681031380.89987683,116528370,1000,1000,1000,1000,0,0,0,0,0,0,0,0,0,0
1681031380.99983692,116628330,1000,1000,1000,1000,0,0,0,0,0,0,0,0,0,0
1681031381.09979701,116728290,1000,1000,1000,1000,0,0,0,0,0,0,0,0,0,0
1681031381.19975686,116828250,1000,1000,1000,1000,0,0,0,0,0,0,0,0,0,0
1681031381.29971695,116928210,1000,1000,1000,1000,0,0,0,0,0,0,0,0,0,0
1681031381.39967704,117028170,1000,1000,1000,1000,0,0,0,0,0,0,0,0,0,0
1681031381.50046992,117128963,1000,1000,1000,1000,0,0,0,0,0,0,0,0,0,0
1681031381.60043001,117228923,1000,1000,1000,1000,0,0,0,0,0,0,0,0,0,0
1681031381.70038986,117328883,1000,1000,1000,1000,0,0,0,0,0,0,0,0,0,0
1681031381.80034995,117428843,1000,1000,1000,1000,0,0,0,0,0,0,0,0,0,0
1681031381.90031004,117528803,1000,1000,1000,1000,0,0,0,0,0,0,0,0,0,0
1681031382.00026989,117628763,1000,1000,1000,1000,0,0,0,0,0,0,0,0,0,0
1681031382.10022998,117728723,1000,1000,1000,1000,0,0,0,0,0,0,0,0,0,0
1681031382.20018983,117828683,1000,1000,1000,1000,0,0,0,0,0,0,0,0,0,0
1681031382.30014992,117928643,1000,1000,1000,1000,0,0,0,0,0,0,0,0,0,0
1681031382.40011001,118028603,1000,1000,1000,1000,0,0,0,0,0,0,0,0,0,0
1681031382.50006986,118128563,1000,1000,1000,1000,0,0,0,0,0,0,0,0,0,0
1681031382.60002995,118228523,1000,1000,1000,1000,0,0,0,0,0,0,0,0,0,0
1681031382.69999003,118328483,1000,1000,1000,1000,0,0,0,0,0,0,0,0,0,0
1681031382.79994988,118428443,1000,1000,1000,1000,0,0,0,0,0,0,0,0,0,0
1681031382.89990997,118528403,1000,1000,1000,1000,0,0,0,0,0,0,0,0,0,0
1681031382.99986982,118628363,1000,1000,1000,1000,0,0,0,0,0,0,0,0,0,0
1681031383.09982991,118728323,1000,1000,1000,1000,0,0,0,0,0,0,0,0,0,0
1681031383.19979000,118828283,1000,1000,1000,1000,0,0,0,0,0,0,0,0,0,0
1681031383.29974985,118928243,1000,1000,1000,1000,0,0,0,0,0,0,0,0,0,0
1681031383.39970994,119028203,1000,1000,1000,1000,0,0,0,0,0,0,0,0,0,0
1681031383.49967003,119128163,1000,1000,1000,1000,0,0,0,0,0,0,0,0,0,0
1681031383.60046291,119228956,1000,1000,1000,1000,0,0,0,0,0,0,0,0,0,0
1681031383.70042300,119328916,1000,1000,1000,1000,0,0,0,0,0,0,0,0,0,0
1681031383.80038285,119428876,1000,1000,1000,1000,0,0,0,0,0,0,0,0,0,0
1681031383.90034294,119528836,1000,1000,1000,1000,0,0,0,0,0,0,0,0,0,0
1681031384.00030303,119628796,1000,1000,1000,1000,0,0,0,0,0,0,0,0,0,0
1681031384.10026288,119728756,1000,1000,1000,1000,0,0,0,0,0,0,0,0,0,0
1681031384.20022297,119828716,1000,1000,1000,1000,0,0,0,0,0,0,0,0,0,0
1681031384.30018282,119928676,1000,1000,1000,1000,0,0,0,0,0,0,0,0,0,0
1681031384.40014291,120028636,1000,1000,1000,1000,0,0,0,0,0,0,0,0,0,0
1681031384.50010300,120128596,1000,1000,1000,1000,0,0,0,0,0,0,0,0,0,0
1681031384.60006285,120228556,1000,1000,1000,1000,0,0,0,0,0,0,0,0,0,0
1681031384.70002294,120328516,1000,1000,1000,1000,0,0,0,0,0,0,0,0,0,0
1681031384.79998302,120428476,1000,1000,1000,1000,0,0,0,0,0,0,0,0,0,0
1681031384.89994287,120528436,1000,1000,1000,1000,0,0,0,0,0,0,0,0,0,0
1681031384.99990296,120628396,1000,1000,1000,1000,0,0,0,0,0,0,0,0,0,0
1681031385.09986281,120728356,1000,1000,1000,1000,0,0,0,0,0,0,0,0,0,0
1681031385.19982290,120828316,1000,1000,1000,1000,0,0,0,0,0,0,0,0,0,0
1681031385.29978299,120928276,1000,1000,1000,1000,0,0,0,0,0,0,0,0,0,0
1681031385.39974284,121028236,1000,1000,1000,1000,0,0,0,0,0,0,0,0,0,0
1681031385.49970293,121128196,1000,1000,1000,1000,0,0,0,0,0,0,0,0,0,0
1681031385.59966302,121228156,1000,1000,1000,1000,0,0,0,0,0,0,0,0,0,0
