timestamp,TimeUS,C1,C2,C3,C4,C5,C6,C7,C8,C9,C10,C11,C12,C13,C14
1681633428.40000010,74628470,1000,1000,1000,1000,0,0,0,0,0,0,0,0,0,0
1681633428.49996018,74728430,1000,1000,1000,1000,0,0,0,0,0,0,0,0,0,0
1681633428.59992003,74828390,1000,1000,1000,1000,0,0,0,0,0,0,0,0,0,0
1681633428.69988012,74928350,1000,1000,1000,1000,0,0,0,0,0,0,0,0,0,0
1681633428.79984021,75028310,1000,1000,1000,1000,0,0,0,0,0,0,0,0,0,0
1681633428.89980006,75128270,1000,1000,1000,1000,0,0,0,0,0,0,0,0,0,0
1681633428.99976015,75228230,1000,1000,1000,1000,0,0,0,0,0,0,0,0,0,0
1681633429.09972024,75328190,1000,1000,1000,1000,0,0,0,0,0,0,0,0,0,0
1681633429.20051312,75428983,1000,1000,1000,1000,0,0,0,0,0,0,0,0,0,0
1681633429.30047321,75528943,1000,1000,1000,1000,0,0,0,0,0,0,0,0,0,0
1681633429.40043306,75628903,1000,1000,1000,1000,0,0,0,0,0,0,0,0,0,0
1681633429.50039315,75728863,1000,1000,1000,1000,0,0,0,0,0,0,0,0,0,0
1681633429.60035324,75828823,1000,1000,1000,1000,0,0,0,0,0,0,0,0,0,0
1681633429.70031309,75928783,1000,1000,1000,1000,0,0,0,0,0,0,0,0,0,0
1681633429.80027318,76028743,1000,1000,1000,1000,0,0,0,0,0,0,0,0,0,0
1681633429.90023327,76128703,1000,1000,1000,1000,0,0,0,0,0,0,0,0,0,0
1681633430.00019312,76228663,1000,1000,1000,1000,0,0,0,0,0,0,0,0,0,0
1681633430.10015321,76328623,1000,1000,1000,1000,0,0,0,0,0,0,0,0,0,0
1681633430.20011306,76428583,1000,1000,1000,1000,0,0,0,0,0,0,0,0,0,0
1681633430.30007315,76528543,1000,1000,1000,1000,0,0,0,0,0,0,0,0,0,0
1681633430.40003324,76628503,1006,1006,1006,1006,0,0,0,0,0,0,0,0,0,0
1681633430.49999309,76728463,1036,1036,1036,1036,0,0,0,0,0,0,0,0,0,0
1681633430.59995317,76828423,1066,1066,1066,1066,0,0,0,0,0,0,0,0,0,0
1681633430.69991326,76928383,1096,1096,1096,1096,0,0,0,0,0,0,0,0,0,0
1681633430.79987311,77028343,1126,1126,1126,1126,0,0,0,0,0,0,0,0,0,0
1681633430.89983320,77128303,1216,1205,1206,1217,0,0,0,0,0,0,0,0,0,0
1681633430.99979305,77228263,1445,1437,1438,1446,0,0,0,0,0,0,0,0,0,0
1681633431.09975314,77328223,1616,1608,1609,1616,0,0,0,0,0,0,0,0,0,0
1681633431.19971323,77428183,1757,1751,1751,1758,0,0,0,0,0,0,0,0,0,0
1681633431.30050611,77528976,1882,1875,1876,1882,0,0,0,0,0,0,0,0,0,0
1681633431.40046620,77628936,1889,1885,1885,1890,0,0,0,0,0,0,0,0,0,0
1681633431.50042605,77728896,1782,1780,1780,1782,0,0,0,0,0,0,0,0,0,0
1681633431.60038614,77828856,1670,1672,1672,1671,0,0,0,0,0,0,0,0,0,0
1681633431.70034623,77928816,1626,1628,1629,1626,0,0,0,0,0,0,0,0,0,0
1681633431.80030608,78028776,1628,1631,1631,1628,0,0,0,0,0,0,0,0,0,0
1681633431.90026617,78128736,1638,1639,1639,1638,0,0,0,0,0,0,0,0,0,0
1681633432.00022626,78228696,1634,1633,1629,1637,0,0,0,0,0,0,0,0,0,0
1681633432.10018611,78328656,1622,1623,1615,1630,0,0,0,0,0,0,0,0,0,0
1681633432.20014620,78428616,1614,1616,1610,1619,0,0,0,0,0,0,0,0,0,0
1681633432.30010605,78528576,1610,1611,1610,1611,0,0,0,0,0,0,0,0,0,0
1681633432.40006614,78628536,1612,1612,1614,1609,0,0,0,0,0,0,0,0,0,0
1681633432.50002623,78728496,1615,1614,1619,1611,0,0,0,0,0,0,0,0,0,0
1681633432.59998608,78828456,1617,1617,1621,1613,0,0,0,0,0,0,0,0,0,0
1681633432.69994617,78928416,1597,1597,1606,1589,0,0,0,0,0,0,0,0,0,0
1681633432.79990625,79028376,1579,1580,1592,1567,0,0,0,0,0,0,0,0,0,0
1681633432.89986610,79128336,1568,1568,1573,1564,0,0,0,0,0,0,0,0,0,0
1681633432.99982619,79228296,1557,1557,1555,1560,0,0,0,0,0,0,0,0,0,0
1681633433.09978604,79328256,1549,1548,1539,1558,0,0,0,0,0,0,0,0,0,0
1681633433.19974613,79428216,1542,1542,1530,1553,0,0,0,0,0,0,0,0,0,0
1681633433.29970622,79528176,1536,1535,1527,1544,0,0,0,0,0,0,0,0,0,0
1681633433.40049911,79628969,1530,1529,1525,1533,0,0,0,0,0,0,0,0,0,0
1681633433.50045919,79728929,1527,1526,1526,1526,0,0,0,0,0,0,0,0,0,0
1681633433.60041904,79828889,1528,1527,1529,1525,0,0,0,0,0,0,0,0,0,0
1681633433.70037913,79928849,1530,1530,1533,1526,0,0,0,0,0,0,0,0,0,0
1681633433.80033922,80028809,1533,1533,1536,1529,0,0,0,0,0,0,0,0,0,0
1681633433.90029907,80128769,1537,1537,1540,1534,0,0,0,0,0,0,0,0,0,0
1681633434.00025916,80228729,1540,1540,1542,1539,0,0,0,0,0,0,0,0,0,0
1681633434.10021925,80328689,1544,1544,1545,1544,0,0,0,0,0,0,0,0,0,0
1681633434.20017910,80428649,1546,1546,1546,1547,0,0,0,0,0,0,0,0,0,0
1681633434.30013919,80528609,1550,1550,1549,1551,0,0,0,0,0,0,0,0,0,0
1681633434.40009904,80628569,1552,1553,1551,1554,0,0,0,0,0,0,0,0,0,0
1681633434.50005913,80728529,1554,1555,1553,1556,0,0,0,0,0,0,0,0,0,0
1681633434.60001922,80828489,1558,1557,1553,1556,0,0,0,0,0,0,0,0,0,0
1681633434.69997907,80928449,1559,1558,1558,1559,0,0,0,0,0,0,0,0,0,0
1681633434.79993916,81028409,1559,1559,1562,1562,0,0,0,0,0,0,0,0,0,0
1681633434.89989924,81128369,1560,1560,1565,1564,0,0,0,0,0,0,0,0,0,0
1681633434.99985909,81228329,1561,1561,1567,1566,0,0,0,0,0,0,0,0,0,0
1681633435.09981918,81328289,1563,1563,1569,1568,0,0,0,0,0,0,0,0,0,0
1681633435.19977903,81428249,1564,1565,1569,1569,0,0,0,0,0,0,0,0,0,0
1681633435.29973912,81528209,1566,1567,1570,1569,0,0,0,0,0,0,0,0,0,0
1681633435.39969921,81628169,1568,1569,1570,1570,0,0,0,0,0,0,0,0,0,0
1681633435.50049210,81728962,1570,1570,1570,1570,0,0,0,0,0,0,0,0,0,0
1681633435.60045218,81828922,1573,1572,1570,1571,0,0,0,0,0,0,0,0,0,0
1681633435.70041203,81928882,1573,1573,1570,1570,0,0,0,0,0,0,0,0,0,0
1681633435.80037212,82028842,1574,1574,1571,1571,0,0,0,0,0,0,0,0,0,0
1681633435.90033221,82128802,1576,1575,1572,1572,0,0,0,0,0,0,0,0,0,0
1681633436.00029206,82228762,1577,1576,1574,1572,0,0,0,0,0,0,0,0,0,0
1681633436.10025215,82328722,1577,1577,1575,1573,0,0,0,0,0,0,0,0,0,0
1681633436.20021224,82428682,1576,1577,1575,1574,0,0,0,0,0,0,0,0,0,0
1681633436.30017209,82528642,1576,1576,1575,1574,0,0,0,0,0,0,0,0,0,0
1681633436.40013218,82628602,1576,1576,1575,1575,0,0,0,0,0,0,0,0,0,0
1681633436.50009227,82728562,1576,1576,1576,1576,0,0,0,0,0,0,0,0,0,0
1681633436.60005212,82828522,1575,1576,1576,1576,0,0,0,0,0,0,0,0,0,0
1681633436.70001221,82928482,1575,1575,1576,1576,0,0,0,0,0,0,0,0,0,0
1681633436.79997206,83028442,1575,1575,1577,1576,0,0,0,0,0,0,0,0,0,0
1681633436.89993215,83128402,1576,1576,1577,1577,0,0,0,0,0,0,0,0,0,0
1681633436.99989223,83228362,1576,1576,1577,1577,0,0,0,0,0,0,0,0,0,0
1681633437.09985209,83328322,1576,1576,1577,1577,0,0,0,0,0,0,0,0,0,0
1681633437.19981217,83428282,1576,1577,1577,1576,0,0,0,0,0,0,0,0,0,0
1681633437.29977226,83528242,1578,1578,1578,1578,0,0,0,0,0,0,0,0,0,0
1681633437.39973211,83628202,1577,1577,1577,1577,0,0,0,0,0,0,0,0,0,0
1681633437.49969220,83728162,1578,1578,1578,1578,0,0,0,0,0,0,0,0,0,0
1681633437.60048509,83828955,1578,1578,1578,1578,0,0,0,0,0,0,0,0,0,0
1681633437.70044518,83928915,1579,1578,1578,1578,0,0,0,0,0,0,0,0,0,0
1681633437.80040526,84028875,1579,1579,1578,1578,0,0,0,0,0,0,0,0,0,0
1681633437.90036511,84128835,1578,1579,1578,1578,0,0,0,0,0,0,0,0,0,0
1681633438.00032520,84228795,1578,1579,1578,1578,0,0,0,0,0,0,0,0,0,0
1681633438.10028505,84328755,1578,1578,1578,1579,0,0,0,0,0,0,0,0,0,0
1681633438.20024514,84428715,1578,1578,1578,1579,0,0,0,0,0,0,0,0,0,0
1681633438.30020523,84528675,1579,1578,1579,1579,0,0,0,0,0,0,0,0,0,0
1681633438.40016508,84628635,1578,1578,1579,1578,0,0,0,0,0,0,0,0,0,0
1681633438.50012517,84728595,1579,1579,1579,1579,0,0,0,0,0,0,0,0,0,0
1681633438.60008526,84828555,1580,1579,1580,1580,0,0,0,0,0,0,0,0,0,0
1681633438.70004511,84928515,1579,1579,1579,1579,0,0,0,0,0,0,0,0,0,0
1681633438.80000520,85028475,1579,1579,1579,1579,0,0,0,0,0,0,0,0,0,0
1681633438.89996505,85128435,1580,1579,1580,1580,0,0,0,0,0,0,0,0,0,0
1681633438.99992514,85228395,1579,1579,1579,1579,0,0,0,0,0,0,0,0,0,0
1681633439.09988523,85328355,1579,1579,1580,1579,0,0,0,0,0,0,0,0,0,0
1681633439.19984508,85428315,1579,1579,1579,1579,0,0,0,0,0,0,0,0,0,0
1681633439.29980516,85528275,1580,1580,1580,1580,0,0,0,0,0,0,0,0,0,0
1681633439.39976525,85628235,1580,1580,1580,1580,0,0,0,0,0,0,0,0,0,0
1681633439.49972510,85728195,1580,1579,1580,1580,0,0,0,0,0,0,0,0,0,0
1681633439.59968519,85828155,1580,1580,1580,1580,0,0,0,0,0,0,0,0,0,0
1681633439.70047808,85928948,1579,1579,1579,1579,0,0,0,0,0,0,0,0,0,0
1681633439.80043817,86028908,1579,1580,1580,1580,0,0,0,0,0,0,0,0,0,0
1681633439.90039825,86128868,1580,1580,1580,1580,0,0,0,0,0,0,0,0,0,0
1681633440.00035810,86228828,1580,1580,1580,1580,0,0,0,0,0,0,0,0,0,0
1681633440.10031819,86328788,1580,1579,1580,1580,0,0,0,0,0,0,0,0,0,0
1681633440.20027804,86428748,1579,1580,1580,1580,0,0,0,0,0,0,0,0,0,0
1681633440.30023813,86528708,1580,1580,1580,1580,0,0,0,0,0,0,0,0,0,0
1681633440.40019822,86628668,1581,1581,1581,1581,0,0,0,0,0,0,0,0,0,0
1681633440.50015807,86728628,1581,1581,1581,1581,0,0,0,0,0,0,0,0,0,0
1681633440.60011816,86828588,1582,1582,1582,1582,0,0,0,0,0,0,0,0,0,0
1681633440.70007825,86928548,1582,1582,1583,1580,0,0,0,0,0,0,0,0,0,0
1681633440.80003810,87028508,1581,1583,1589,1573,0,0,0,0,0,0,0,0,0,0
1681633440.89999819,87128468,1580,1582,1583,1573,0,0,0,0,0,0,0,0,0,0
1681633440.99995804,87228428,1579,1581,1574,1574,0,0,0,0,0,0,0,0,0,0
1681633441.09991813,87328388,1577,1580,1566,1571,0,0,0,0,0,0,0,0,0,0
1681633441.19987822,87428348,1576,1578,1559,1566,0,0,0,0,0,0,0,0,0,0
1681633441.29983807,87528308,1578,1578,1556,1562,0,0,0,0,0,0,0,0,0,0
1681633441.39979815,87628268,1580,1578,1556,1558,0,0,0,0,0,0,0,0,0,0
1681633441.49975824,87728228,1580,1578,1555,1555,0,0,0,0,0,0,0,0,0,0
1681633441.59971809,87828188,1579,1578,1556,1554,0,0,0,0,0,0,0,0,0,0
1681633441.70051122,87928981,1578,1578,1556,1553,0,0,0,0,0,0,0,0,0,0
1681633441.80047107,88028941,1576,1577,1555,1553,0,0,0,0,0,0,0,0,0,0
1681633441.90043116,88128901,1576,1577,1555,1554,0,0,0,0,0,0,0,0,0,0
1681633442.00039124,88228861,1575,1576,1553,1554,0,0,0,0,0,0,0,0,0,0
1681633442.10035110,88328821,1574,1576,1552,1552,0,0,0,0,0,0,0,0,0,0
1681633442.20031118,88428781,1576,1577,1551,1551,0,0,0,0,0,0,0,0,0,0
1681633442.30027103,88528741,1576,1577,1548,1549,0,0,0,0,0,0,0,0,0,0
1681633442.40023112,88628701,1578,1580,1546,1546,0,0,0,0,0,0,0,0,0,0
1681633442.50019121,88728661,1582,1582,1544,1544,0,0,0,0,0,0,0,0,0,0
1681633442.60015106,88828621,1584,1585,1541,1541,0,0,0,0,0,0,0,0,0,0
1681633442.70011115,88928581,1588,1589,1539,1539,0,0,0,0,0,0,0,0,0,0
1681633442.80007124,89028541,1592,1592,1537,1537,0,0,0,0,0,0,0,0,0,0
1681633442.90003109,89128501,1593,1594,1535,1535,0,0,0,0,0,0,0,0,0,0
1681633442.99999118,89228461,1595,1595,1535,1535,0,0,0,0,0,0,0,0,0,0
1681633443.09995127,89328421,1595,1595,1535,1536,0,0,0,0,0,0,0,0,0,0
1681633443.19991112,89428381,1594,1595,1537,1540,0,0,0,0,0,0,0,0,0,0
1681633443.29987121,89528341,1593,1591,1541,1545,0,0,0,0,0,0,0,0,0,0
1681633443.39983106,89628301,1589,1586,1548,1550,0,0,0,0,0,0,0,0,0,0
1681633443.49979115,89728261,1580,1577,1555,1558,0,0,0,0,0,0,0,0,0,0
1681633443.59975123,89828221,1571,1568,1566,1569,0,0,0,0,0,0,0,0,0,0
1681633443.69971108,89928181,1561,1557,1579,1581,0,0,0,0,0,0,0,0,0,0
1681633443.80050421,90028974,1551,1547,1593,1593,0,0,0,0,0,0,0,0,0,0
1681633443.90046406,90128934,1539,1537,1603,1602,0,0,0,0,0,0,0,0,0,0
1681633444.00042415,90228894,1531,1532,1611,1609,0,0,0,0,0,0,0,0,0,0
1681633444.10038424,90328854,1527,1529,1615,1614,0,0,0,0,0,0,0,0,0,0
1681633444.20034409,90428814,1528,1530,1615,1614,0,0,0,0,0,0,0,0,0,0
1681633444.30030417,90528774,1532,1534,1612,1611,0,0,0,0,0,0,0,0,0,0
1681633444.40026426,90628734,1539,1541,1606,1607,0,0,0,0,0,0,0,0,0,0
1681633444.50022411,90728694,1548,1549,1600,1601,0,0,0,0,0,0,0,0,0,0
1681633444.60018420,90828654,1557,1558,1593,1593,0,0,0,0,0,0,0,0,0,0
1681633444.70014405,90928614,1566,1566,1586,1585,0,0,0,0,0,0,0,0,0,0
1681633444.80010414,91028574,1574,1574,1579,1579,0,0,0,0,0,0,0,0,0,0
1681633444.90006423,91128534,1581,1580,1574,1573,0,0,0,0,0,0,0,0,0,0
1681633445.00002408,91228494,1585,1584,1569,1569,0,0,0,0,0,0,0,0,0,0
1681633445.09998417,91328454,1588,1586,1567,1567,0,0,0,0,0,0,0,0,0,0
1681633445.19994426,91428414,1588,1587,1566,1566,0,0,0,0,0,0,0,0,0,0
1681633445.29990411,91528374,1587,1586,1566,1567,0,0,0,0,0,0,0,0,0,0
1681633445.39986420,91628334,1585,1584,1569,1569,0,0,0,0,0,0,0,0,0,0
1681633445.49982405,91728294,1583,1583,1573,1572,0,0,0,0,0,0,0,0,0,0
1681633445.59978414,91828254,1579,1579,1575,1574,0,0,0,0,0,0,0,0,0,0
1681633445.69974422,91928214,1577,1578,1578,1578,0,0,0,0,0,0,0,0,0,0
1681633445.79970407,92028174,1576,1576,1581,1581,0,0,0,0,0,0,0,0,0,0
1681633445.90049720,92128967,1573,1574,1583,1582,0,0,0,0,0,0,0,0,0,0
1681633446.00045705,92228927,1574,1574,1585,1584,0,0,0,0,0,0,0,0,0,0
1681633446.10041714,92328887,1573,1574,1585,1585,0,0,0,0,0,0,0,0,0,0
1681633446.20037723,92428847,1573,1574,1584,1584,0,0,0,0,0,0,0,0,0,0
1681633446.30033708,92528807,1574,1574,1583,1583,0,0,0,0,0,0,0,0,0,0
1681633446.40029716,92628767,1575,1575,1582,1582,0,0,0,0,0,0,0,0,0,0
1681633446.50025725,92728727,1577,1576,1580,1581,0,0,0,0,0,0,0,0,0,0
1681633446.60021710,92828687,1578,1577,1579,1579,0,0,0,0,0,0,0,0,0,0
1681633446.70017719,92928647,1578,1578,1578,1578,0,0,0,0,0,0,0,0,0,0
1681633446.80013704,93028607,1580,1580,1578,1577,0,0,0,0,0,0,0,0,0,0
1681633446.90009713,93128567,1581,1581,1577,1577,0,0,0,0,0,0,0,0,0,0
1681633447.00005722,93228527,1581,1581,1577,1576,0,0,0,0,0,0,0,0,0,0
1681633447.10001707,93328487,1581,1581,1577,1576,0,0,0,0,0,0,0,0,0,0
1681633447.19997716,93428447,1582,1581,1578,1577,0,0,0,0,0,0,0,0,0,0
1681633447.29993725,93528407,1580,1580,1577,1577,0,0,0,0,0,0,0,0,0,0
1681633447.39989710,93628367,1580,1581,1578,1578,0,0,0,0,0,0,0,0,0,0
1681633447.49985719,93728327,1580,1580,1579,1579,0,0,0,0,0,0,0,0,0,0
1681633447.59981704,93828287,1579,1579,1579,1579,0,0,0,0,0,0,0,0,0,0
1681633447.69977713,93928247,1579,1580,1580,1580,0,0,0,0,0,0,0,0,0,0
1681633447.79973722,94028207,1579,1579,1581,1581,0,0,0,0,0,0,0,0,0,0
1681633447.89969707,94128167,1580,1580,1581,1582,0,0,0,0,0,0,0,0,0,0
1681633448.00049019,94228960,1580,1580,1581,1581,0,0,0,0,0,0,0,0,0,0
1681633448.10045004,94328920,1579,1579,1581,1580,0,0,0,0,0,0,0,0,0,0
1681633448.20041013,94428880,1554,1555,1751,1634,0,0,0,0,0,0,0,0,0,0
1681633448.30037022,94528840,1535,1542,1617,1647,0,0,0,0,0,0,0,0,0,0
1681633448.40033007,94628800,1537,1548,1538,1633,0,0,0,0,0,0,0,0,0,0
1681633448.50029016,94728760,1548,1558,1513,1598,0,0,0,0,0,0,0,0,0,0
1681633448.60025024,94828720,1560,1566,1513,1555,0,0,0,0,0,0,0,0,0,0
1681633448.70021009,94928680,1572,1574,1528,1524,0,0,0,0,0,0,0,0,0,0
1681633448.80017018,95028640,1584,1580,1547,1510,0,0,0,0,0,0,0,0,0,0
1681633448.90013003,95128600,1597,1586,1555,1520,0,0,0,0,0,0,0,0,0,0
1681633449.00009012,95228560,1606,1590,1555,1534,0,0,0,0,0,0,0,0,0,0
1681633449.10005021,95328520,1608,1592,1552,1546,0,0,0,0,0,0,0,0,0,0
1681633449.20001006,95428480,1603,1593,1551,1554,0,0,0,0,0,0,0,0,0,0
1681633449.29997015,95528440,1596,1593,1553,1560,0,0,0,0,0,0,0,0,0,0
1681633449.39993024,95628400,1587,1591,1557,1562,0,0,0,0,0,0,0,0,0,0
1681633449.49989009,95728360,1580,1588,1563,1563,0,0,0,0,0,0,0,0,0,0
1681633449.59985018,95828320,1577,1585,1567,1564,0,0,0,0,0,0,0,0,0,0
1681633449.69981027,95928280,1577,1583,1570,1566,0,0,0,0,0,0,0,0,0,0
1681633449.79977012,96028240,1577,1580,1570,1565,0,0,0,0,0,0,0,0,0,0
1681633449.89973021,96128200,1578,1578,1569,1566,0,0,0,0,0,0,0,0,0,0
1681633449.99969006,96228160,1578,1578,1567,1565,0,0,0,0,0,0,0,0,0,0
1681633450.10048318,96328953,1578,1579,1566,1565,0,0,0,0,0,0,0,0,0,0
1681633450.20044327,96428913,1578,1578,1562,1562,0,0,0,0,0,0,0,0,0,0
1681633450.30040312,96528873,1578,1579,1559,1560,0,0,0,0,0,0,0,0,0,0
1681633450.40036321,96628833,1579,1581,1557,1557,0,0,0,0,0,0,0,0,0,0
1681633450.50032306,96728793,1580,1582,1554,1554,0,0,0,0,0,0,0,0,0,0
1681633450.60028315,96828753,1581,1583,1551,1550,0,0,0,0,0,0,0,0,0,0
1681633450.70024323,96928713,1582,1584,1547,1546,0,0,0,0,0,0,0,0,0,0
1681633450.80020308,97028673,1584,1586,1544,1543,0,0,0,0,0,0,0,0,0,0
1681633450.90016317,97128633,1587,1589,1541,1540,0,0,0,0,0,0,0,0,0,0
1681633451.00012326,97228593,1591,1593,1537,1537,0,0,0,0,0,0,0,0,0,0
1681633451.10008311,97328553,1593,1595,1534,1534,0,0,0,0,0,0,0,0,0,0
1681633451.20004320,97428513,1595,1596,1533,1533,0,0,0,0,0,0,0,0,0,0
1681633451.30000305,97528473,1596,1595,1536,1537,0,0,0,0,0,0,0,0,0,0
1681633451.39996314,97628433,1595,1592,1540,1541,0,0,0,0,0,0,0,0,0,0
1681633451.49992323,97728393,1590,1587,1544,1548,0,0,0,0,0,0,0,0,0,0
1681633451.59988308,97828353,1584,1580,1552,1556,0,0,0,0,0,0,0,0,0,0
1681633451.69984317,97928313,1577,1573,1563,1568,0,0,0,0,0,0,0,0,0,0
1681633451.79980326,98028273,1567,1563,1573,1578,0,0,0,0,0,0,0,0,0,0
1681633451.89976311,98128233,1556,1552,1585,1588,0,0,0,0,0,0,0,0,0,0
1681633451.99972320,98228193,1543,1542,1595,1597,0,0,0,0,0,0,0,0,0,0
1681633452.10051608,98328986,1534,1534,1607,1607,0,0,0,0,0,0,0,0,0,0
1681633452.20047617,98428946,1528,1528,1614,1614,0,0,0,0,0,0,0,0,0,0
1681633452.30043626,98528906,1525,1527,1615,1616,0,0,0,0,0,0,0,0,0,0
1681633452.40039611,98628866,1529,1532,1615,1615,0,0,0,0,0,0,0,0,0,0
1681633452.50035620,98728826,1535,1538,1610,1610,0,0,0,0,0,0,0,0,0,0
1681633452.60031605,98828786,1544,1547,1603,1603,0,0,0,0,0,0,0,0,0,0
1681633452.70027614,98928746,1555,1557,1595,1594,0,0,0,0,0,0,0,0,0,0
1681633452.80023623,99028706,1567,1567,1588,1586,0,0,0,0,0,0,0,0,0,0
1681633452.90019608,99128666,1577,1576,1580,1579,0,0,0,0,0,0,0,0,0,0
1681633453.00015616,99228626,1585,1583,1575,1573,0,0,0,0,0,0,0,0,0,0
1681633453.10011625,99328586,1590,1588,1571,1570,0,0,0,0,0,0,0,0,0,0
1681633453.20007610,99428546,1593,1591,1570,1569,0,0,0,0,0,0,0,0,0,0
1681633453.30003619,99528506,1594,1592,1571,1570,0,0,0,0,0,0,0,0,0,0
1681633453.39999604,99628466,1592,1590,1572,1571,0,0,0,0,0,0,0,0,0,0
1681633453.49995613,99728426,1589,1589,1575,1574,0,0,0,0,0,0,0,0,0,0
1681633453.59991622,99828386,1585,1585,1576,1576,0,0,0,0,0,0,0,0,0,0
1681633453.69987607,99928346,1582,1582,1578,1578,0,0,0,0,0,0,0,0,0,0
1681633453.79983616,100028306,1579,1580,1581,1581,0,0,0,0,0,0,0,0,0,0
1681633453.89979625,100128266,1576,1576,1581,1582,0,0,0,0,0,0,0,0,0,0
1681633453.99975610,100228226,1575,1575,1584,1584,0,0,0,0,0,0,0,0,0,0
1681633454.09971619,100328186,1574,1574,1584,1585,0,0,0,0,0,0,0,0,0,0
1681633454.20050907,100428979,1573,1574,1585,1585,0,0,0,0,0,0,0,0,0,0
1681633454.30046916,100528939,1573,1574,1584,1584,0,0,0,0,0,0,0,0,0,0
1681633454.40042925,100628899,1574,1574,1583,1583,0,0,0,0,0,0,0,0,0,0
1681633454.50038910,100728859,1576,1576,1583,1583,0,0,0,0,0,0,0,0,0,0
1681633454.60034919,100828819,1578,1578,1582,1581,0,0,0,0,0,0,0,0,0,0
1681633454.70030904,100928779,1580,1580,1581,1581,0,0,0,0,0,0,0,0,0,0
1681633454.80026913,101028739,1581,1580,1580,1580,0,0,0,0,0,0,0,0,0,0
1681633454.90022922,101128699,1582,1582,1579,1579,0,0,0,0,0,0,0,0,0,0
1681633455.00018907,101228659,1583,1583,1580,1579,0,0,0,0,0,0,0,0,0,0
1681633455.10014915,101328619,1583,1583,1579,1578,0,0,0,0,0,0,0,0,0,0
1681633455.20010924,101428579,1583,1582,1579,1579,0,0,0,0,0,0,0,0,0,0
1681633455.30006909,101528539,1583,1583,1579,1579,0,0,0,0,0,0,0,0,0,0
1681633455.40002918,101628499,1583,1583,1581,1581,0,0,0,0,0,0,0,0,0,0
1681633455.49998903,101728459,1581,1581,1579,1580,0,0,0,0,0,0,0,0,0,0
1681633455.59994912,101828419,1581,1581,1581,1581,0,0,0,0,0,0,0,0,0,0
1681633455.69990921,101928379,1580,1581,1580,1581,0,0,0,0,0,0,0,0,0,0
1681633455.79986906,102028339,1580,1581,1581,1582,0,0,0,0,0,0,0,0,0,0
1681633455.89982915,102128299,1580,1580,1582,1582,0,0,0,0,0,0,0,0,0,0
1681633455.99978924,102228259,1580,1580,1581,1582,0,0,0,0,0,0,0,0,0,0
1681633456.09974909,102328219,1579,1579,1581,1581,0,0,0,0,0,0,0,0,0,0
1681633456.19970918,102428179,1579,1580,1581,1581,0,0,0,0,0,0,0,0,0,0
1681633456.30050206,102528972,1580,1581,1582,1581,0,0,0,0,0,0,0,0,0,0
1681633456.40046215,102628932,1581,1581,1582,1581,0,0,0,0,0,0,0,0,0,0
1681633456.50042224,102728892,1580,1580,1579,1580,0,0,0,0,0,0,0,0,0,0
1681633456.60038209,102828852,1581,1582,1582,1581,0,0,0,0,0,0,0,0,0,0
1681633456.70034218,102928812,1583,1582,1582,1582,0,0,0,0,0,0,0,0,0,0
1681633456.80030227,103028772,1581,1582,1583,1579,0,0,0,0,0,0,0,0,0,0
1681633456.90026212,103128732,1582,1584,1589,1574,0,0,0,0,0,0,0,0,0,0
1681633457.00022221,103228692,1581,1584,1580,1572,0,0,0,0,0,0,0,0,0,0
1681633457.10018206,103328652,1582,1584,1570,1572,0,0,0,0,0,0,0,0,0,0
1681633457.20014215,103428612,1582,1584,1562,1568,0,0,0,0,0,0,0,0,0,0
1681633457.30010223,103528572,1582,1583,1558,1564,0,0,0,0,0,0,0,0,0,0
1681633457.40006208,103628532,1583,1583,1556,1560,0,0,0,0,0,0,0,0,0,0
1681633457.50002217,103728492,1582,1581,1556,1556,0,0,0,0,0,0,0,0,0,0
1681633457.59998226,103828452,1582,1581,1558,1555,0,0,0,0,0,0,0,0,0,0
1681633457.69994211,103928412,1580,1579,1557,1555,0,0,0,0,0,0,0,0,0,0
1681633457.79990220,104028372,1578,1579,1558,1556,0,0,0,0,0,0,0,0,0,0
1681633457.89986205,104128332,1577,1577,1557,1556,0,0,0,0,0,0,0,0,0,0
1681633457.99982214,104228292,1576,1576,1556,1557,0,0,0,0,0,0,0,0,0,0
1681633458.09978223,104328252,1575,1576,1555,1556,0,0,0,0,0,0,0,0,0,0
1681633458.19974208,104428212,1575,1577,1555,1555,0,0,0,0,0,0,0,0,0,0
1681633458.29970217,104528172,1576,1577,1553,1553,0,0,0,0,0,0,0,0,0,0
1681633458.40049505,104628965,1578,1579,1551,1551,0,0,0,0,0,0,0,0,0,0
1681633458.50045514,104728925,1579,1580,1547,1548,0,0,0,0,0,0,0,0,0,0
1681633458.60041523,104828885,1582,1583,1546,1546,0,0,0,0,0,0,0,0,0,0
1681633458.70037508,104928845,1585,1586,1545,1545,0,0,0,0,0,0,0,0,0,0
1681633458.80033517,105028805,1587,1587,1542,1541,0,0,0,0,0,0,0,0,0,0
1681633458.90029526,105128765,1589,1589,1542,1541,0,0,0,0,0,0,0,0,0,0
1681633459.00025511,105228725,1590,1591,1541,1541,0,0,0,0,0,0,0,0,0,0
1681633459.10021520,105328685,1591,1592,1540,1541,0,0,0,0,0,0,0,0,0,0
1681633459.20017505,105428645,1592,1592,1541,1543,0,0,0,0,0,0,0,0,0,0
1681633459.30013514,105528605,1591,1591,1543,1546,0,0,0,0,0,0,0,0,0,0
1681633459.40009522,105628565,1588,1587,1548,1550,0,0,0,0,0,0,0,0,0,0
1681633459.50005507,105728525,1584,1581,1556,1557,0,0,0,0,0,0,0,0,0,0
1681633459.60001516,105828485,1577,1574,1566,1567,0,0,0,0,0,0,0,0,0,0
1681633459.69997525,105928445,1568,1564,1575,1576,0,0,0,0,0,0,0,0,0,0
1681633459.79993510,106028405,1558,1554,1584,1586,0,0,0,0,0,0,0,0,0,0
1681633459.89989519,106128365,1549,1546,1593,1595,0,0,0,0,0,0,0,0,0,0
1681633459.99985504,106228325,1541,1540,1600,1602,0,0,0,0,0,0,0,0,0,0
1681633460.09981513,106328285,1535,1536,1603,1605,0,0,0,0,0,0,0,0,0,0
1681633460.19977522,106428245,1535,1536,1607,1608,0,0,0,0,0,0,0,0,0,0
1681633460.29973507,106528205,1536,1539,1606,1606,0,0,0,0,0,0,0,0,0,0
1681633460.39969516,106628165,1541,1543,1602,1603,0,0,0,0,0,0,0,0,0,0
1681633460.50048804,106728958,1548,1549,1597,1597,0,0,0,0,0,0,0,0,0,0
1681633460.60044813,106828918,1557,1557,1594,1592,0,0,0,0,0,0,0,0,0,0
1681633460.70040822,106928878,1565,1565,1588,1586,0,0,0,0,0,0,0,0,0,0
1681633460.80036807,107028838,1572,1572,1582,1581,0,0,0,0,0,0,0,0,0,0
1681633460.90032816,107128798,1578,1577,1578,1576,0,0,0,0,0,0,0,0,0,0
1681633461.00028825,107228758,1582,1581,1574,1573,0,0,0,0,0,0,0,0,0,0
1681633461.10024810,107328718,1586,1584,1572,1572,0,0,0,0,0,0,0,0,0,0
1681633461.20020819,107428678,1588,1586,1573,1572,0,0,0,0,0,0,0,0,0,0
1681633461.30016804,107528638,1587,1586,1573,1572,0,0,0,0,0,0,0,0,0,0
1681633461.40012813,107628598,1585,1585,1574,1573,0,0,0,0,0,0,0,0,0,0
1681633461.50008821,107728558,1583,1584,1577,1576,0,0,0,0,0,0,0,0,0,0
1681633461.60004807,107828518,1581,1581,1578,1578,0,0,0,0,0,0,0,0,0,0
1681633461.70000815,107928478,1578,1578,1579,1579,0,0,0,0,0,0,0,0,0,0
1681633461.79996824,108028438,1576,1577,1581,1582,0,0,0,0,0,0,0,0,0,0
1681633461.89992809,108128398,1575,1575,1582,1582,0,0,0,0,0,0,0,0,0,0
1681633461.99988818,108228358,1574,1575,1583,1583,0,0,0,0,0,0,0,0,0,0
1681633462.09984827,108328318,1574,1574,1583,1582,0,0,0,0,0,0,0,0,0,0
1681633462.19980812,108428278,1575,1575,1583,1583,0,0,0,0,0,0,0,0,0,0
1681633462.29976821,108528238,1575,1576,1582,1582,0,0,0,0,0,0,0,0,0,0
1681633462.39972806,108628198,1576,1576,1581,1581,0,0,0,0,0,0,0,0,0,0
1681633462.49968815,108728158,1578,1578,1581,1581,0,0,0,0,0,0,0,0,0,0
1681633462.60048103,108828951,1579,1579,1580,1580,0,0,0,0,0,0,0,0,0,0
1681633462.70044112,108928911,1579,1579,1579,1578,0,0,0,0,0,0,0,0,0,0
1681633462.80040121,109028871,1581,1580,1579,1578,0,0,0,0,0,0,0,0,0,0
1681633462.90036106,109128831,1581,1580,1578,1578,0,0,0,0,0,0,0,0,0,0
1681633463.00032115,109228791,1581,1580,1577,1578,0,0,0,0,0,0,0,0,0,0
1681633463.10028124,109328751,1581,1581,1579,1578,0,0,0,0,0,0,0,0,0,0
1681633463.20024109,109428711,1581,1581,1579,1579,0,0,0,0,0,0,0,0,0,0
1681633463.30020118,109528671,1581,1581,1579,1580,0,0,0,0,0,0,0,0,0,0
1681633463.40016127,109628631,1581,1581,1580,1580,0,0,0,0,0,0,0,0,0,0
1681633463.50012112,109728591,1580,1580,1580,1580,0,0,0,0,0,0,0,0,0,0
1681633463.60008121,109828551,1580,1580,1580,1580,0,0,0,0,0,0,0,0,0,0
1681633463.70004106,109928511,1579,1579,1580,1580,0,0,0,0,0,0,0,0,0,0
1681633463.80000114,110028471,1580,1580,1582,1581,0,0,0,0,0,0,0,0,0,0
1681633463.89996123,110128431,1580,1580,1581,1581,0,0,0,0,0,0,0,0,0,0
1681633463.99992108,110228391,1580,1580,1581,1581,0,0,0,0,0,0,0,0,0,0
1681633464.09988117,110328351,1581,1580,1581,1581,0,0,0,0,0,0,0,0,0,0
1681633464.19984126,110428311,1580,1580,1580,1581,0,0,0,0,0,0,0,0,0,0
1681633464.29980111,110528271,1581,1581,1581,1581,0,0,0,0,0,0,0,0,0,0
1681633464.39976120,110628231,1582,1582,1582,1581,0,0,0,0,0,0,0,0,0,0
1681633464.49972105,110728191,1581,1581,1581,1581,0,0,0,0,0,0,0,0,0,0
1681633464.60051417,110828984,1582,1581,1581,1581,0,0,0,0,0,0,0,0,0,0
1681633464.70047426,110928944,1581,1582,1583,1579,0,0,0,0,0,0,0,0,0,0
1681633464.80043411,111028904,1580,1581,1589,1572,0,0,0,0,0,0,0,0,0,0
1681633464.90039420,111128864,1581,1580,1583,1575,0,0,0,0,0,0,0,0,0,0
1681633465.00035405,111228824,1577,1577,1572,1575,0,0,0,0,0,0,0,0,0,0
1681633465.10031414,111328784,1575,1574,1568,1574,0,0,0,0,0,0,0,0,0,0
1681633465.20027423,111428744,1573,1573,1567,1573,0,0,0,0,0,0,0,0,0,0
1681633465.30023408,111528704,1570,1570,1566,1570,0,0,0,0,0,0,0,0,0,0
1681633465.40019417,111628664,1567,1568,1567,1568,0,0,0,0,0,0,0,0,0,0
1681633465.50015426,111728624,1566,1567,1568,1567,0,0,0,0,0,0,0,0,0,0
1681633465.60011411,111828584,1566,1566,1569,1567,0,0,0,0,0,0,0,0,0,0
1681633465.70007420,111928544,1564,1564,1567,1565,0,0,0,0,0,0,0,0,0,0
1681633465.80003405,112028504,1565,1565,1567,1566,0,0,0,0,0,0,0,0,0,0
1681633465.89999413,112128464,1563,1563,1564,1564,0,0,0,0,0,0,0,0,0,0
1681633465.99995422,112228424,1562,1562,1563,1564,0,0,0,0,0,0,0,0,0,0
1681633466.09991407,112328384,1563,1563,1564,1563,0,0,0,0,0,0,0,0,0,0
1681633466.19987416,112428344,1562,1563,1564,1563,0,0,0,0,0,0,0,0,0,0
1681633466.29983425,112528304,1561,1562,1562,1562,0,0,0,0,0,0,0,0,0,0
1681633466.39979410,112628264,1562,1562,1563,1562,0,0,0,0,0,0,0,0,0,0
1681633466.49975419,112728224,1561,1561,1560,1561,0,0,0,0,0,0,0,0,0,0
1681633466.59971404,112828184,1561,1560,1560,1560,0,0,0,0,0,0,0,0,0,0
1681633466.70050716,112928977,1560,1559,1559,1558,0,0,0,0,0,0,0,0,0,0
1681633466.80046725,113028937,1558,1558,1558,1557,0,0,0,0,0,0,0,0,0,0
1681633466.90042710,113128897,1557,1557,1557,1556,0,0,0,0,0,0,0,0,0,0
1681633467.00038719,113228857,1557,1557,1558,1556,0,0,0,0,0,0,0,0,0,0
1681633467.10034704,113328817,1557,1557,1558,1556,0,0,0,0,0,0,0,0,0,0
1681633467.20030713,113428777,1557,1557,1558,1557,0,0,0,0,0,0,0,0,0,0
1681633467.30026722,113528737,1557,1557,1558,1557,0,0,0,0,0,0,0,0,0,0
1681633467.40022707,113628697,1558,1557,1560,1557,0,0,0,0,0,0,0,0,0,0
1681633467.50018716,113728657,1559,1558,1561,1558,0,0,0,0,0,0,0,0,0,0
1681633467.60014725,113828617,1560,1559,1558,1561,0,0,0,0,0,0,0,0,0,0
1681633467.70010710,113928577,1560,1561,1557,1563,0,0,0,0,0,0,0,0,0,0
1681633467.80006719,114028537,1561,1561,1557,1564,0,0,0,0,0,0,0,0,0,0
1681633467.90002704,114128497,1562,1562,1559,1564,0,0,0,0,0,0,0,0,0,0
1681633467.99998713,114228457,1563,1563,1562,1564,0,0,0,0,0,0,0,0,0,0
1681633468.09994721,114328417,1564,1564,1564,1564,0,0,0,0,0,0,0,0,0,0
1681633468.19990706,114428377,1563,1563,1565,1562,0,0,0,0,0,0,0,0,0,0
1681633468.29986715,114528337,1563,1564,1565,1562,0,0,0,0,0,0,0,0,0,0
1681633468.39982724,114628297,1564,1563,1563,1563,0,0,0,0,0,0,0,0,0,0
1681633468.49978709,114728257,1562,1561,1555,1564,0,0,0,0,0,0,0,0,0,0
1681633468.59974718,114828217,1556,1556,1551,1557,0,0,0,0,0,0,0,0,0,0
1681633468.69970727,114928177,1551,1551,1547,1550,0,0,0,0,0,0,0,0,0,0
1681633468.80050015,115028970,1545,1546,1544,1542,0,0,0,0,0,0,0,0,0,0
1681633468.90046024,115128930,1538,1538,1537,1535,0,0,0,0,0,0,0,0,0,0
1681633469.00042009,115228890,1531,1531,1529,1527,0,0,0,0,0,0,0,0,0,0
1681633469.10038018,115328850,1523,1523,1521,1520,0,0,0,0,0,0,0,0,0,0
1681633469.20034003,115428810,1520,1519,1520,1517,0,0,0,0,0,0,0,0,0,0
1681633469.30030012,115528770,1518,1517,1519,1518,0,0,0,0,0,0,0,0,0,0
1681633469.40026021,115628730,1519,1519,1522,1521,0,0,0,0,0,0,0,0,0,0
1681633469.50022006,115728690,1521,1521,1525,1525,0,0,0,0,0,0,0,0,0,0
1681633469.60018015,115828650,1524,1524,1529,1529,0,0,0,0,0,0,0,0,0,0
1681633469.70014024,115928610,1529,1529,1534,1535,0,0,0,0,0,0,0,0,0,0
1681633469.80010009,116028570,1534,1534,1538,1539,0,0,0,0,0,0,0,0,0,0
1681633469.90006018,116128530,1537,1537,1540,1542,0,0,0,0,0,0,0,0,0,0
1681633470.00002027,116228490,1540,1540,1541,1543,0,0,0,0,0,0,0,0,0,0
1681633470.09998012,116328450,1543,1543,1544,1544,0,0,0,0,0,0,0,0,0,0
1681633470.19994020,116428410,1544,1544,1543,1543,0,0,0,0,0,0,0,0,0,0
1681633470.29990005,116528370,1546,1545,1543,1543,0,0,0,0,0,0,0,0,0,0
1681633470.39986014,116628330,1547,1547,1545,1544,0,0,0,0,0,0,0,0,0,0
1681633470.49982023,116728290,1548,1548,1545,1544,0,0,0,0,0,0,0,0,0,0
1681633470.59978008,116828250,1547,1548,1544,1544,0,0,0,0,0,0,0,0,0,0
1681633470.69974017,116928210,1548,1547,1545,1545,0,0,0,0,0,0,0,0,0,0
1681633470.79970026,117028170,1546,1546,1544,1544,0,0,0,0,0,0,0,0,0,0
1681633470.90049314,117128963,1546,1546,1545,1545,0,0,0,0,0,0,0,0,0,0
1681633471.00045323,117228923,1545,1546,1545,1545,0,0,0,0,0,0,0,0,0,0
1681633471.10041308,117328883,1546,1546,1546,1545,0,0,0,0,0,0,0,0,0,0
1681633471.20037317,117428843,1543,1544,1544,1544,0,0,0,0,0,0,0,0,0,0
1681633471.30033326,117528803,1545,1545,1546,1546,0,0,0,0,0,0,0,0,0,0
1681633471.40029311,117628763,1544,1544,1545,1545,0,0,0,0,0,0,0,0,0,0
1681633471.50025320,117728723,1544,1544,1545,1545,0,0,0,0,0,0,0,0,0,0
1681633471.60021305,117828683,1544,1545,1545,1546,0,0,0,0,0,0,0,0,0,0
1681633471.70017314,117928643,1543,1543,1544,1544,0,0,0,0,0,0,0,0,0,0
1681633471.80013323,118028603,1544,1544,1545,1545,0,0,0,0,0,0,0,0,0,0
1681633471.90009308,118128563,1544,1544,1545,1544,0,0,0,0,0,0,0,0,0,0
1681633472.00005317,118228523,1544,1543,1544,1543,0,0,0,0,0,0,0,0,0,0
1681633472.10001326,118328483,1543,1543,1542,1543,0,0,0,0,0,0,0,0,0,0
1681633472.19997311,118428443,1544,1545,1545,1544,0,0,0,0,0,0,0,0,0,0
1681633472.29993320,118528403,1545,1545,1544,1544,0,0,0,0,0,0,0,0,0,0
1681633472.39989305,118628363,1544,1544,1544,1544,0,0,0,0,0,0,0,0,0,0
1681633472.49985313,118728323,1544,1544,1543,1544,0,0,0,0,0,0,0,0,0,0
1681633472.59981322,118828283,1544,1544,1544,1544,0,0,0,0,0,0,0,0,0,0
1681633472.69977307,118928243,1544,1544,1544,1543,0,0,0,0,0,0,0,0,0,0
1681633472.79973316,119028203,1544,1544,1544,1544,0,0,0,0,0,0,0,0,0,0
1681633472.89969325,119128163,1545,1545,1545,1545,0,0,0,0,0,0,0,0,0,0
1681633473.00048614,119228956,1544,1544,1543,1544,0,0,0,0,0,0,0,0,0,0
1681633473.10044622,119328916,1544,1544,1543,1544,0,0,0,0,0,0,0,0,0,0
1681633473.20040607,119428876,1543,1543,1543,1543,0,0,0,0,0,0,0,0,0,0
1681633473.30036616,119528836,1544,1544,1545,1544,0,0,0,0,0,0,0,0,0,0
1681633473.40032625,119628796,1543,1543,1544,1543,0,0,0,0,0,0,0,0,0,0
1681633473.50028610,119728756,1544,1544,1545,1544,0,0,0,0,0,0,0,0,0,0
1681633473.60024619,119828716,1544,1544,1545,1544,0,0,0,0,0,0,0,0,0,0
1681633473.70020604,119928676,1544,1544,1544,1544,0,0,0,0,0,0,0,0,0,0
1681633473.80016613,120028636,1545,1544,1545,1545,0,0,0,0,0,0,0,0,0,0
1681633473.90012622,120128596,1545,1545,1545,1545,0,0,0,0,0,0,0,0,0,0
1681633474.00008607,120228556,1544,1545,1544,1544,0,0,0,0,0,0,0,0,0,0
1681633474.10004616,120328516,1545,1545,1545,1544,0,0,0,0,0,0,0,0,0,0
1681633474.20000625,120428476,1544,1544,1543,1543,0,0,0,0,0,0,0,0,0,0
1681633474.29996610,120528436,1544,1544,1544,1544,0,0,0,0,0,0,0,0,0,0
1681633474.39992619,120628396,1544,1544,1544,1544,0,0,0,0,0,0,0,0,0,0
1681633474.49988604,120728356,1544,1545,1545,1544,0,0,0,0,0,0,0,0,0,0
1681633474.59984612,120828316,1545,1545,1545,1545,0,0,0,0,0,0,0,0,0,0
1681633474.69980621,120928276,1545,1544,1544,1545,0,0,0,0,0,0,0,0,0,0
1681633474.79976606,121028236,1545,1544,1545,1544,0,0,0,0,0,0,0,0,0,0
1681633474.89972615,121128196,1545,1544,1544,1544,0,0,0,0,0,0,0,0,0,0
1681633474.99968624,121228156,1545,1545,1545,1545,0,0,0,0,0,0,0,0,0,0
1681633475.10047913,121328949,1544,1545,1544,1545,0,0,0,0,0,0,0,0,0,0
1681633475.20043921,121428909,1545,1545,1545,1545,0,0,0,0,0,0,0,0,0,0
1681633475.30039907,121528869,1545,1544,1544,1545,0,0,0,0,0,0,0,0,0,0
1681633475.40035915,121628829,1545,1544,1545,1544,0,0,0,0,0,0,0,0,0,0
1681633475.50031924,121728789,1544,1544,1544,1544,0,0,0,0,0,0,0,0,0,0
1681633475.60027909,121828749,1544,1544,1545,1544,0,0,0,0,0,0,0,0,0,0
1681633475.70023918,121928709,1544,1544,1544,1544,0,0,0,0,0,0,0,0,0,0
1681633475.80019927,122028669,1545,1545,1545,1545,0,0,0,0,0,0,0,0,0,0
1681633475.90015912,122128629,1544,1544,1544,1544,0,0,0,0,0,0,0,0,0,0
1681633476.00011921,122228589,1544,1544,1543,1545,0,0,0,0,0,0,0,0,0,0
1681633476.10007906,122328549,1545,1545,1545,1545,0,0,0,0,0,0,0,0,0,0
1681633476.20003915,122428509,1544,1544,1544,1544,0,0,0,0,0,0,0,0,0,0
1681633476.29999924,122528469,1544,1544,1544,1544,0,0,0,0,0,0,0,0,0,0
1681633476.39995909,122628429,1544,1544,1544,1543,0,0,0,0,0,0,0,0,0,0
1681633476.49991918,122728389,1546,1545,1545,1546,0,0,0,0,0,0,0,0,0,0
1681633476.59987926,122828349,1545,1545,1546,1545,0,0,0,0,0,0,0,0,0,0
1681633476.69983912,122928309,1545,1545,1546,1545,0,0,0,0,0,0,0,0,0,0
1681633476.79979920,123028269,1544,1545,1544,1544,0,0,0,0,0,0,0,0,0,0
1681633476.89975905,123128229,1544,1544,1544,1544,0,0,0,0,0,0,0,0,0,0
1681633476.99971914,123228189,1545,1544,1544,1545,0,0,0,0,0,0,0,0,0,0
1681633477.10051227,123328982,1545,1544,1544,1545,0,0,0,0,0,0,0,0,0,0
1681633477.20047212,123428942,1544,1544,1544,1544,0,0,0,0,0,0,0,0,0,0
1681633477.30043221,123528902,1544,1544,1543,1544,0,0,0,0,0,0,0,0,0,0
1681633477.40039206,123628862,1543,1543,1542,1543,0,0,0,0,0,0,0,0,0,0
1681633477.50035214,123728822,1543,1543,1543,1543,0,0,0,0,0,0,0,0,0,0
1681633477.60031223,123828782,1543,1544,1544,1543,0,0,0,0,0,0,0,0,0,0
1681633477.70027208,123928742,1545,1544,1545,1545,0,0,0,0,0,0,0,0,0,0
1681633477.80023217,124028702,1544,1544,1544,1544,0,0,0,0,0,0,0,0,0,0
1681633477.90019226,124128662,1545,1544,1544,1545,0,0,0,0,0,0,0,0,0,0
1681633478.00015211,124228622,1544,1544,1544,1544,0,0,0,0,0,0,0,0,0,0
1681633478.10011220,124328582,1545,1544,1544,1545,0,0,0,0,0,0,0,0,0,0
1681633478.20007205,124428542,1544,1544,1543,1544,0,0,0,0,0,0,0,0,0,0
1681633478.30003214,124528502,1544,1544,1544,1545,0,0,0,0,0,0,0,0,0,0
1681633478.39999223,124628462,1543,1544,1544,1543,0,0,0,0,0,0,0,0,0,0
1681633478.49995208,124728422,1544,1544,1544,1544,0,0,0,0,0,0,0,0,0,0
1681633478.59991217,124828382,1544,1544,1545,1544,0,0,0,0,0,0,0,0,0,0
1681633478.69987226,124928342,1544,1544,1544,1545,0,0,0,0,0,0,0,0,0,0
1681633478.79983211,125028302,1544,1544,1544,1544,0,0,0,0,0,0,0,0,0,0
1681633478.89979219,125128262,1506,1506,1481,1506,0,0,0,0,0,0,0,0,0,0
1681633478.99975204,125228222,1456,1457,1439,1456,0,0,0,0,0,0,0,0,0,0
1681633479.09971213,125328182,1424,1425,1439,1424,0,0,0,0,0,0,0,0,0,0
1681633479.20050526,125428975,1386,1386,1439,1386,0,0,0,0,0,0,0,0,0,0
1681633479.30046511,125528935,1345,1345,1439,1345,0,0,0,0,0,0,0,0,0,0
1681633479.40042520,125628895,1300,1300,1439,1300,0,0,0,0,0,0,0,0,0,0
1681633479.50038505,125728855,1261,1261,1439,1261,0,0,0,0,0,0,0,0,0,0
1681633479.60034513,125828815,1261,1261,1439,1261,0,0,0,0,0,0,0,0,0,0
1681633479.70030522,125928775,1264,1255,1439,1264,0,0,0,0,0,0,0,0,0,0
1681633479.80026507,126028735,1263,1257,1439,1263,0,0,0,0,0,0,0,0,0,0
1681633479.90022516,126128695,1262,1258,1439,1262,0,0,0,0,0,0,0,0,0,0
1681633480.00018525,126228655,1262,1259,1439,1262,0,0,0,0,0,0,0,0,0,0
1681633480.10014510,126328615,1262,1259,1439,1262,0,0,0,0,0,0,0,0,0,0
1681633480.20010519,126428575,1262,1258,1439,1262,0,0,0,0,0,0,0,0,0,0
1681633480.30006504,126528535,1262,1258,1439,1262,0,0,0,0,0,0,0,0,0,0
1681633480.40002513,126628495,1262,1258,1439,1262,0,0,0,0,0,0,0,0,0,0
1681633480.49998522,126728455,1261,1261,1439,1261,0,0,0,0,0,0,0,0,0,0
1681633480.59994507,126828415,1261,1261,1439,1261,0,0,0,0,0,0,0,0,0,0
1681633480.69990516,126928375,1261,1261,1439,1261,0,0,0,0,0,0,0,0,0,0
1681633480.79986525,127028335,1261,1261,1439,1261,0,0,0,0,0,0,0,0,0,0
1681633480.89982510,127128295,1261,1260,1439,1261,0,0,0,0,0,0,0,0,0,0
1681633480.99978518,127228255,1000,1000,1000,1000,0,0,0,0,0,0,0,0,0,0
1681633481.09974504,127328215,1000,1000,1000,1000,0,0,0,0,0,0,0,0,0,0
1681633481.19970512,127428175,1000,1000,1000,1000,0,0,0,0,0,0,0,0,0,0
1681633481.30049825,127528968,1000,1000,1000,1000,0,0,0,0,0,0,0,0,0,0
1681633481.40045810,127628928,1000,1000,1000,1000,0,0,0,0,0,0,0,0,0,0
1681633481.50041819,127728888,1000,1000,1000,1000,0,0,0,0,0,0,0,0,0,0
1681633481.60037804,127828848,1000,1000,1000,1000,0,0,0,0,0,0,0,0,0,0
1681633481.70033813,127928808,1000,1000,1000,1000,0,0,0,0,0,0,0,0,0,0
1681633481.80029821,128028768,1000,1000,1000,1000,0,0,0,0,0,0,0,0,0,0
1681633481.90025806,128128728,1000,1000,1000,1000,0,0,0,0,0,0,0,0,0,0
1681633482.00021815,128228688,1000,1000,1000,1000,0,0,0,0,0,0,0,0,0,0
1681633482.10017824,128328648,1000,1000,1000,1000,0,0,0,0,0,0,0,0,0,0
1681633482.20013809,128428608,1000,1000,1000,1000,0,0,0,0,0,0,0,0,0,0
1681633482.30009818,128528568,1000,1000,1000,1000,0,0,0,0,0,0,0,0,0,0
1681633482.40005827,128628528,1000,1000,1000,1000,0,0,0,0,0,0,0,0,0,0
1681633482.50001812,128728488,1000,1000,1000,1000,0,0,0,0,0,0,0,0,0,0
1681633482.59997821,128828448,1000,1000,1000,1000,0,0,0,0,0,0,0,0,0,0
1681633482.69993806,128928408,1000,1000,1000,1000,0,0,0,0,0,0,0,0,0,0
1681633482.79989815,129028368,1000,1000,1000,1000,0,0,0,0,0,0,0,0,0,0
1681633482.89985824,129128328,1000,1000,1000,1000,0,0,0,0,0,0,0,0,0,0
1681633482.99981809,129228288,1000,1000,1000,1000,0,0,0,0,0,0,0,0,0,0
1681633483.09977818,129328248,1000,1000,1000,1000,0,0,0,0,0,0,0,0,0,0
1681633483.19973826,129428208,1000,1000,1000,1000,0,0,0,0,0,0,0,0,0,0
1681633483.29969811,129528168,1000,1000,1000,1000,0,0,0,0,0,0,0,0,0,0
1681633483.40049124,129628961,1000,1000,1000,1000,0,0,0,0,0,0,0,0,0,0
1681633483.50045109,129728921,1000,1000,1000,1000,0,0,0,0,0,0,0,0,0,0
1681633483.60041118,129828881,1000,1000,1000,1000,0,0,0,0,0,0,0,0,0,0
1681633483.70037127,129928841,1000,1000,1000,1000,0,0,0,0,0,0,0,0,0,0
1681633483.80033112,130028801,1000,1000,1000,1000,0,0,0,0,0,0,0,0,0,0
1681633483.90029120,130128761,1000,1000,1000,1000,0,0,0,0,0,0,0,0,0,0
1681633484.00025105,130228721,1000,1000,1000,1000,0,0,0,0,0,0,0,0,0,0
1681633484.10021114,130328681,1000,1000,1000,1000,0,0,0,0,0,0,0,0,0,0
1681633484.20017123,130428641,1000,1000,1000,1000,0,0,0,0,0,0,0,0,0,0
1681633484.30013108,130528601,1000,1000,1000,1000,0,0,0,0,0,0,0,0,0,0
1681633484.40009117,130628561,1000,1000,1000,1000,0,0,0,0,0,0,0,0,0,0
1681633484.50005126,130728521,1000,1000,1000,1000,0,0,0,0,0,0,0,0,0,0
1681633484.60001111,130828481,1000,1000,1000,1000,0,0,0,0,0,0,0,0,0,0
1681633484.69997120,130928441,1000,1000,1000,1000,0,0,0,0,0,0,0,0,0,0
1681633484.79993105,131028401,1000,1000,1000,1000,0,0,0,0,0,0,0,0,0,0
1681633484.89989114,131128361,1000,1000,1000,1000,0,0,0,0,0,0,0,0,0,0
1681633484.99985123,131228321,1000,1000,1000,1000,0,0,0,0,0,0,0,0,0,0
1681633485.09981108,131328281,1000,1000,1000,1000,0,0,0,0,0,0,0,0,0,0
1681633485.19977117,131428241,1000,1000,1000,1000,0,0,0,0,0,0,0,0,0,0
1681633485.29973125,131528201,1000,1000,1000,1000,0,0,0,0,0,0,0,0,0,0
1681633485.39969110,131628161,1000,1000,1000,1000,0,0,0,0,0,0,0,0,0,0
1681633485.50048423,131728954,1000,1000,1000,1000,0,0,0,0,0,0,0,0,0,0
1681633485.60044408,131828914,1000,1000,1000,1000,0,0,0,0,0,0,0,0,0,0
1681633485.70040417,131928874,1000,1000,1000,1000,0,0,0,0,0,0,0,0,0,0
1681633485.80036426,132028834,1000,1000,1000,1000,0,0,0,0,0,0,0,0,0,0
1681633485.90032411,132128794,1000,1000,1000,1000,0,0,0,0,0,0,0,0,0,0
1681633486.00028419,132228754,1000,1000,1000,1000,0,0,0,0,0,0,0,0,0,0
1681633486.10024405,132328714,1000,1000,1000,1000,0,0,0,0,0,0,0,0,0,0
1681633486.20020413,132428674,1000,1000,1000,1000,0,0,0,0,0,0,0,0,0,0
1681633486.30016422,132528634,1000,1000,1000,1000,0,0,0,0,0,0,0,0,0,0
1681633486.40012407,132628594,1000,1000,1000,1000,0,0,0,0,0,0,0,0,0,0
1681633486.50008416,132728554,1000,1000,1000,1000,0,0,0,0,0,0,0,0,0,0
1681633486.60004425,132828514,1000,1000,1000,1000,0,0,0,0,0,0,0,0,0,0
1681633486.70000410,132928474,1000,1000,1000,1000,0,0,0,0,0,0,0,0,0,0
1681633486.79996419,133028434,1000,1000,1000,1000,0,0,0,0,0,0,0,0,0,0
1681633486.89992404,133128394,1000,1000,1000,1000,0,0,0,0,0,0,0,0,0,0
1681633486.99988413,133228354,1000,1000,1000,1000,0,0,0,0,0,0,0,0,0,0
1681633487.09984422,133328314,1000,1000,1000,1000,0,0,0,0,0,0,0,0,0,0
1681633487.19980407,133428274,1000,1000,1000,1000,0,0,0,0,0,0,0,0,0,0
1681633487.29976416,133528234,1000,1000,1000,1000,0,0,0,0,0,0,0,0,0,0
1681633487.39972425,133628194,1000,1000,1000,1000,0,0,0,0,0,0,0,0,0,0
1681633487.49968410,133728154,1000,1000,1000,1000,0,0,0,0,0,0,0,0,0,0
1681633487.60047722,133828947,1000,1000,1000,1000,0,0,0,0,0,0,0,0,0,0
1681633487.70043707,133928907,1000,1000,1000,1000,0,0,0,0,0,0,0,0,0,0
1681633487.80039716,134028867,1000,1000,1000,1000,0,0,0,0,0,0,0,0,0,0
1681633487.90035725,134128827,1000,1000,1000,1000,0,0,0,0,0,0,0,0,0,0
1681633488.00031710,134228787,1000,1000,1000,1000,0,0,0,0,0,0,0,0,0,0
1681633488.10027719,134328747,1000,1000,1000,1000,0,0,0,0,0,0,0,0,0,0
1681633488.20023704,134428707,1000,1000,1000,1000,0,0,0,0,0,0,0,0,0,0
1681633488.30019712,134528667,1000,1000,1000,1000,0,0,0,0,0,0,0,0,0,0
1681633488.40015721,134628627,1000,1000,1000,1000,0,0,0,0,0,0,0,0,0,0
1681633488.50011706,134728587,1000,1000,1000,1000,0,0,0,0,0,0,0,0,0,0
1681633488.60007715,134828547,1000,1000,1000,1000,0,0,0,0,0,0,0,0,0,0
1681633488.70003724,134928507,1000,1000,1000,1000,0,0,0,0,0,0,0,0,0,0
1681633488.79999709,135028467,1000,1000,1000,1000,0,0,0,0,0,0,0,0,0,0
1681633488.89995718,135128427,1000,1000,1000,1000,0,0,0,0,0,0,0,0,0,0
1681633488.99991727,135228387,1000,1000,1000,1000,0,0,0,0,0,0,0,0,0,0
1681633489.09987712,135328347,1000,1000,1000,1000,0,0,0,0,0,0,0,0,0,0
1681633489.19983721,135428307,1000,1000,1000,1000,0,0,0,0,0,0,0,0,0,0
1681633489.29979706,135528267,1000,1000,1000,1000,0,0,0,0,0,0,0,0,0,0
1681633489.39975715,135628227,1000,1000,1000,1000,0,0,0,0,0,0,0,0,0,0
1681633489.49971724,135728187,1000,1000,1000,1000,0,0,0,0,0,0,0,0,0,0
1681633489.60051012,135828980,1000,1000,1000,1000,0,0,0,0,0,0,0,0,0,0
1681633489.70047021,135928940,1000,1000,1000,1000,0,0,0,0,0,0,0,0,0,0
1681633489.80043006,136028900,1000,1000,1000,1000,0,0,0,0,0,0,0,0,0,0
1681633489.90039015,136128860,1000,1000,1000,1000,0,0,0,0,0,0,0,0,0,0
1681633490.00035024,136228820,1000,1000,1000,1000,0,0,0,0,0,0,0,0,0,0
1681633490.10031009,136328780,1000,1000,1000,1000,0,0,0,0,0,0,0,0,0,0
1681633490.20027018,136428740,1000,1000,1000,1000,0,0,0,0,0,0,0,0,0,0
1681633490.30023026,136528700,1000,1000,1000,1000,0,0,0,0,0,0,0,0,0,0
1681633490.40019011,136628660,1000,1000,1000,1000,0,0,0,0,0,0,0,0,0,0
1681633490.50015020,136728620,1000,1000,1000,1000,0,0,0,0,0,0,0,0,0,0
1681633490.60011005,136828580,1000,1000,1000,1000,0,0,0,0,0,0,0,0,0,0
1681633490.70007014,136928540,1000,1000,1000,1000,0,0,0,0,0,0,0,0,0,0
1681633490.80003023,137028500,1000,1000,1000,1000,0,0,0,0,0,0,0,0,0,0
1681633490.89999008,137128460,1000,1000,1000,1000,0,0,0,0,0,0,0,0,0,0
1681633490.99995017,137228420,1000,1000,1000,1000,0,0,0,0,0,0,0,0,0,0
1681633491.09991026,137328380,1000,1000,1000,1000,0,0,0,0,0,0,0,0,0,0
1681633491.19987011,137428340,1000,1000,1000,1000,0,0,0,0,0,0,0,0,0,0
1681633491.29983020,137528300,1000,1000,1000,1000,0,0,0,0,0,0,0,0,0,0
1681633491.39979005,137628260,1000,1000,1000,1000,0,0,0,0,0,0,0,0,0,0
1681633491.49975014,137728220,1000,1000,1000,1000,0,0,0,0,0,0,0,0,0,0
1681633491.59971023,137828180,1000,1000,1000,1000,0,0,0,0,0,0,0,0,0,0
1681633491.70050311,137928973,1000,1000,1000,1000,0,0,0,0,0,0,0,0,0,0
