timestamp,TimeUS,C1,C2,C3,C4,C5,C6,C7,C8,C9,C10,C11,C12,C13,C14
1681115288.10004020,54728933,1000,1000,1000,1000,0,0,0,0,0,0,0,0,0,0
1681115288.20000005,54828893,1000,1000,1000,1000,0,0,0,0,0,0,0,0,0,0
1681115288.29996014,54928853,1000,1000,1000,1000,0,0,0,0,0,0,0,0,0,0
1681115288.39991999,55028813,1000,1000,1000,1000,0,0,0,0,0,0,0,0,0,0
1681115288.49988008,55128773,1000,1000,1000,1000,0,0,0,0,0,0,0,0,0,0
1681115288.59984016,55228733,1000,1000,1000,1000,0,0,0,0,0,0,0,0,0,0
1681115288.69980001,55328693,1000,1000,1000,1000,0,0,0,0,0,0,0,0,0,0
1681115288.79976010,55428653,1000,1000,1000,1000,0,0,0,0,0,0,0,0,0,0
1681115288.89972019,55528613,1000,1000,1000,1000,0,0,0,0,0,0,0,0,0,0
1681115288.99968004,55628573,1000,1000,1000,1000,0,0,0,0,0,0,0,0,0,0
1681115289.09964013,55728533,1000,1000,1000,1000,0,0,0,0,0,0,0,0,0,0
1681115289.19960022,55828493,1000,1000,1000,1000,0,0,0,0,0,0,0,0,0,0
1681115289.29956007,55928453,1000,1000,1000,1000,0,0,0,0,0,0,0,0,0,0
1681115289.39952016,56028413,1000,1000,1000,1000,0,0,0,0,0,0,0,0,0,0
1681115289.49948001,56128373,1000,1000,1000,1000,0,0,0,0,0,0,0,0,0,0
1681115289.59944010,56228333,1000,1000,1000,1000,0,0,0,0,0,0,0,0,0,0
1681115289.69940019,56328293,1000,1000,1000,1000,0,0,0,0,0,0,0,0,0,0
1681115289.79936004,56428253,1000,1000,1000,1000,0,0,0,0,0,0,0,0,0,0
1681115289.89932013,56528213,1000,1000,1000,1000,0,0,0,0,0,0,0,0,0,0
1681115289.99928021,56628173,1000,1000,1000,1000,0,0,0,0,0,0,0,0,0,0
1681115290.10007310,56728966,1024,1024,1024,1024,0,0,0,0,0,0,0,0,0,0
1681115290.20003319,56828926,1054,1054,1054,1054,0,0,0,0,0,0,0,0,0,0
1681115290.29999304,56928886,1084,1084,1084,1084,0,0,0,0,0,0,0,0,0,0
1681115290.39995313,57028846,1113,1113,1113,1113,0,0,0,0,0,0,0,0,0,0
1681115290.49991322,57128806,1143,1143,1143,1143,0,0,0,0,0,0,0,0,0,0
1681115290.59987307,57228766,1357,1351,1352,1357,0,0,0,0,0,0,0,0,0,0
1681115290.69983315,57328726,1547,1541,1542,1547,0,0,0,0,0,0,0,0,0,0
1681115290.79979300,57428686,1699,1694,1694,1699,0,0,0,0,0,0,0,0,0,0
1681115290.89975309,57528646,1830,1825,1826,1830,0,0,0,0,0,0,0,0,0,0
1681115290.99971318,57628606,1884,1879,1880,1884,0,0,0,0,0,0,0,0,0,0
1681115291.09967303,57728566,1835,1834,1834,1836,0,0,0,0,0,0,0,0,0,0
1681115291.19963312,57828526,1706,1706,1705,1707,0,0,0,0,0,0,0,0,0,0
1681115291.29959321,57928486,1631,1633,1629,1635,0,0,0,0,0,0,0,0,0,0
1681115291.39955306,58028446,1615,1618,1615,1619,0,0,0,0,0,0,0,0,0,0
1681115291.49951315,58128406,1625,1626,1626,1626,0,0,0,0,0,0,0,0,0,0
1681115291.59947300,58228366,1632,1632,1633,1631,0,0,0,0,0,0,0,0,0,0
1681115291.69943309,58328326,1631,1631,1632,1629,0,0,0,0,0,0,0,0,0,0
1681115291.79939318,58428286,1626,1625,1627,1624,0,0,0,0,0,0,0,0,0,0
1681115291.89935303,58528246,1621,1620,1622,1619,0,0,0,0,0,0,0,0,0,0
1681115291.99931312,58628206,1618,1617,1618,1617,0,0,0,0,0,0,0,0,0,0
1681115292.09927320,58728166,1619,1618,1618,1618,0,0,0,0,0,0,0,0,0,0
1681115292.20006609,58828959,1620,1620,1620,1619,0,0,0,0,0,0,0,0,0,0
1681115292.30002618,58928919,1598,1598,1601,1594,0,0,0,0,0,0,0,0,0,0
1681115292.39998603,59028879,1579,1580,1586,1573,0,0,0,0,0,0,0,0,0,0
1681115292.49994612,59128839,1567,1569,1571,1565,0,0,0,0,0,0,0,0,0,0
1681115292.59990621,59228799,1558,1559,1557,1559,0,0,0,0,0,0,0,0,0,0
1681115292.69986606,59328759,1550,1550,1545,1555,0,0,0,0,0,0,0,0,0,0
1681115292.79982615,59428719,1544,1544,1535,1553,0,0,0,0,0,0,0,0,0,0
1681115292.89978600,59528679,1538,1537,1530,1544,0,0,0,0,0,0,0,0,0,0
1681115292.99974608,59628639,1532,1532,1528,1536,0,0,0,0,0,0,0,0,0,0
1681115293.09970617,59728599,1528,1527,1526,1528,0,0,0,0,0,0,0,0,0,0
1681115293.19966602,59828559,1528,1528,1529,1526,0,0,0,0,0,0,0,0,0,0
1681115293.29962611,59928519,1529,1529,1532,1527,0,0,0,0,0,0,0,0,0,0
1681115293.39958620,60028479,1532,1533,1536,1530,0,0,0,0,0,0,0,0,0,0
1681115293.49954605,60128439,1535,1536,1538,1533,0,0,0,0,0,0,0,0,0,0
1681115293.59950614,60228399,1539,1540,1541,1538,0,0,0,0,0,0,0,0,0,0
1681115293.69946599,60328359,1543,1542,1544,1542,0,0,0,0,0,0,0,0,0,0
1681115293.79942608,60428319,1545,1545,1545,1545,0,0,0,0,0,0,0,0,0,0
1681115293.89938617,60528279,1549,1548,1548,1549,0,0,0,0,0,0,0,0,0,0
1681115293.99934602,60628239,1552,1551,1551,1552,0,0,0,0,0,0,0,0,0,0
1681115294.09930611,60728199,1554,1554,1553,1555,0,0,0,0,0,0,0,0,0,0
1681115294.19926620,60828159,1554,1554,1557,1559,0,0,0,0,0,0,0,0,0,0
1681115294.30005908,60928952,1555,1554,1562,1564,0,0,0,0,0,0,0,0,0,0
1681115294.40001917,61028912,1557,1557,1564,1565,0,0,0,0,0,0,0,0,0,0
1681115294.49997902,61128872,1559,1560,1565,1565,0,0,0,0,0,0,0,0,0,0
1681115294.59993911,61228832,1561,1562,1565,1564,0,0,0,0,0,0,0,0,0,0
1681115294.69989920,61328792,1565,1565,1565,1565,0,0,0,0,0,0,0,0,0,0
1681115294.79985905,61428752,1567,1567,1565,1565,0,0,0,0,0,0,0,0,0,0
1681115294.89981914,61528712,1569,1569,1565,1565,0,0,0,0,0,0,0,0,0,0
1681115294.99977899,61628672,1571,1570,1565,1565,0,0,0,0,0,0,0,0,0,0
1681115295.09973907,61728632,1572,1571,1566,1567,0,0,0,0,0,0,0,0,0,0
1681115295.19969916,61828592,1573,1573,1568,1568,0,0,0,0,0,0,0,0,0,0
1681115295.29965901,61928552,1573,1573,1569,1569,0,0,0,0,0,0,0,0,0,0
1681115295.39961910,62028512,1573,1573,1570,1570,0,0,0,0,0,0,0,0,0,0
1681115295.49957919,62128472,1573,1573,1571,1572,0,0,0,0,0,0,0,0,0,0
1681115295.59953904,62228432,1573,1574,1573,1573,0,0,0,0,0,0,0,0,0,0
1681115295.69949913,62328392,1574,1574,1575,1574,0,0,0,0,0,0,0,0,0,0
1681115295.79945922,62428352,1575,1575,1576,1575,0,0,0,0,0,0,0,0,0,0
1681115295.89941907,62528312,1576,1575,1577,1576,0,0,0,0,0,0,0,0,0,0
1681115295.99937916,62628272,1575,1575,1577,1576,0,0,0,0,0,0,0,0,0,0
1681115296.09933901,62728232,1575,1575,1576,1576,0,0,0,0,0,0,0,0,0,0
1681115296.19929910,62828192,1574,1575,1576,1576,0,0,0,0,0,0,0,0,0,0
1681115296.30009222,62928985,1574,1574,1575,1576,0,0,0,0,0,0,0,0,0,0
1681115296.40005207,63028945,1576,1576,1577,1576,0,0,0,0,0,0,0,0,0,0
1681115296.50001216,63128905,1577,1577,1577,1577,0,0,0,0,0,0,0,0,0,0
1681115296.59997201,63228865,1576,1576,1576,1576,0,0,0,0,0,0,0,0,0,0
1681115296.69993210,63328825,1578,1578,1577,1577,0,0,0,0,0,0,0,0,0,0
1681115296.79989219,63428785,1577,1577,1577,1577,0,0,0,0,0,0,0,0,0,0
1681115296.89985204,63528745,1578,1578,1577,1577,0,0,0,0,0,0,0,0,0,0
1681115296.99981213,63628705,1579,1578,1578,1578,0,0,0,0,0,0,0,0,0,0
1681115297.09977221,63728665,1579,1579,1579,1578,0,0,0,0,0,0,0,0,0,0
1681115297.19973207,63828625,1578,1579,1578,1578,0,0,0,0,0,0,0,0,0,0
1681115297.29969215,63928585,1578,1578,1578,1578,0,0,0,0,0,0,0,0,0,0
1681115297.39965200,64028545,1579,1579,1579,1579,0,0,0,0,0,0,0,0,0,0
1681115297.49961209,64128505,1578,1578,1578,1578,0,0,0,0,0,0,0,0,0,0
1681115297.59957218,64228465,1578,1578,1578,1578,0,0,0,0,0,0,0,0,0,0
1681115297.69953203,64328425,1578,1577,1578,1578,0,0,0,0,0,0,0,0,0,0
1681115297.79949212,64428385,1578,1579,1579,1578,0,0,0,0,0,0,0,0,0,0
1681115297.89945221,64528345,1579,1579,1579,1579,0,0,0,0,0,0,0,0,0,0
1681115297.99941206,64628305,1579,1579,1579,1579,0,0,0,0,0,0,0,0,0,0
1681115298.09937215,64728265,1578,1578,1578,1578,0,0,0,0,0,0,0,0,0,0
1681115298.19933200,64828225,1579,1579,1579,1579,0,0,0,0,0,0,0,0,0,0
1681115298.29929209,64928185,1579,1578,1579,1579,0,0,0,0,0,0,0,0,0,0
1681115298.40008521,65028978,1579,1579,1580,1580,0,0,0,0,0,0,0,0,0,0
1681115298.50004506,65128938,1579,1579,1580,1580,0,0,0,0,0,0,0,0,0,0
1681115298.60000515,65228898,1580,1579,1580,1579,0,0,0,0,0,0,0,0,0,0
1681115298.69996500,65328858,1579,1580,1580,1579,0,0,0,0,0,0,0,0,0,0
1681115298.79992509,65428818,1580,1580,1580,1580,0,0,0,0,0,0,0,0,0,0
1681115298.89988518,65528778,1580,1580,1580,1580,0,0,0,0,0,0,0,0,0,0
1681115298.99984503,65628738,1581,1581,1581,1580,0,0,0,0,0,0,0,0,0,0
1681115299.09980512,65728698,1580,1580,1580,1580,0,0,0,0,0,0,0,0,0,0
1681115299.19976521,65828658,1581,1581,1580,1580,0,0,0,0,0,0,0,0,0,0
1681115299.29972506,65928618,1581,1581,1581,1581,0,0,0,0,0,0,0,0,0,0
1681115299.39968514,66028578,1581,1581,1581,1581,0,0,0,0,0,0,0,0,0,0
1681115299.49964499,66128538,1581,1580,1580,1580,0,0,0,0,0,0,0,0,0,0
1681115299.59960508,66228498,1580,1580,1580,1580,0,0,0,0,0,0,0,0,0,0
1681115299.69956517,66328458,1579,1580,1580,1580,0,0,0,0,0,0,0,0,0,0
1681115299.79952502,66428418,1580,1580,1580,1580,0,0,0,0,0,0,0,0,0,0
1681115299.89948511,66528378,1580,1580,1580,1581,0,0,0,0,0,0,0,0,0,0
1681115299.99944520,66628338,1579,1580,1580,1580,0,0,0,0,0,0,0,0,0,0
1681115300.09940505,66728298,1580,1581,1580,1581,0,0,0,0,0,0,0,0,0,0
1681115300.19936514,66828258,1581,1581,1581,1581,0,0,0,0,0,0,0,0,0,0
1681115300.29932499,66928218,1580,1580,1581,1580,0,0,0,0,0,0,0,0,0,0
1681115300.39928508,67028178,1581,1581,1585,1577,0,0,0,0,0,0,0,0,0,0
1681115300.50007820,67128971,1581,1582,1588,1573,0,0,0,0,0,0,0,0,0,0
1681115300.60003805,67228931,1580,1582,1582,1574,0,0,0,0,0,0,0,0,0,0
1681115300.69999814,67328891,1578,1581,1573,1573,0,0,0,0,0,0,0,0,0,0
1681115300.79995799,67428851,1577,1579,1564,1570,0,0,0,0,0,0,0,0,0,0
1681115300.89991808,67528811,1577,1579,1559,1566,0,0,0,0,0,0,0,0,0,0
1681115300.99987817,67628771,1578,1578,1556,1561,0,0,0,0,0,0,0,0,0,0
1681115301.09983802,67728731,1579,1577,1554,1557,0,0,0,0,0,0,0,0,0,0
1681115301.19979811,67828691,1580,1578,1556,1555,0,0,0,0,0,0,0,0,0,0
1681115301.29975820,67928651,1578,1577,1556,1553,0,0,0,0,0,0,0,0,0,0
1681115301.39971805,68028611,1578,1578,1557,1554,0,0,0,0,0,0,0,0,0,0
1681115301.49967813,68128571,1577,1578,1557,1554,0,0,0,0,0,0,0,0,0,0
1681115301.59963799,68228531,1576,1578,1556,1555,0,0,0,0,0,0,0,0,0,0
1681115301.69959807,68328491,1575,1577,1554,1554,0,0,0,0,0,0,0,0,0,0
1681115301.79955816,68428451,1574,1575,1552,1552,0,0,0,0,0,0,0,0,0,0
1681115301.89951801,68528411,1576,1577,1551,1551,0,0,0,0,0,0,0,0,0,0
1681115301.99947810,68628371,1577,1578,1548,1549,0,0,0,0,0,0,0,0,0,0
1681115302.09943819,68728331,1579,1580,1547,1546,0,0,0,0,0,0,0,0,0,0
1681115302.19939804,68828291,1582,1583,1545,1544,0,0,0,0,0,0,0,0,0,0
1681115302.29935813,68928251,1586,1587,1542,1542,0,0,0,0,0,0,0,0,0,0
1681115302.39931822,69028211,1588,1589,1539,1538,0,0,0,0,0,0,0,0,0,0
1681115302.49927807,69128171,1592,1592,1537,1537,0,0,0,0,0,0,0,0,0,0
1681115302.60007119,69228964,1594,1594,1535,1535,0,0,0,0,0,0,0,0,0,0
1681115302.70003104,69328924,1595,1595,1534,1536,0,0,0,0,0,0,0,0,0,0
1681115302.79999113,69428884,1595,1595,1535,1536,0,0,0,0,0,0,0,0,0,0
1681115302.89995122,69528844,1594,1594,1537,1539,0,0,0,0,0,0,0,0,0,0
1681115302.99991107,69628804,1592,1591,1541,1544,0,0,0,0,0,0,0,0,0,0
1681115303.09987116,69728764,1587,1585,1548,1550,0,0,0,0,0,0,0,0,0,0
1681115303.19983101,69828724,1581,1578,1557,1560,0,0,0,0,0,0,0,0,0,0
1681115303.29979110,69928684,1571,1567,1568,1570,0,0,0,0,0,0,0,0,0,0
1681115303.39975119,70028644,1560,1556,1579,1581,0,0,0,0,0,0,0,0,0,0
1681115303.49971104,70128604,1549,1545,1591,1592,0,0,0,0,0,0,0,0,0,0
1681115303.59967113,70228564,1539,1537,1603,1603,0,0,0,0,0,0,0,0,0,0
1681115303.69963121,70328524,1533,1532,1612,1611,0,0,0,0,0,0,0,0,0,0
1681115303.79959106,70428484,1528,1530,1616,1614,0,0,0,0,0,0,0,0,0,0
1681115303.89955115,70528444,1529,1532,1616,1615,0,0,0,0,0,0,0,0,0,0
1681115303.99951100,70628404,1534,1536,1614,1613,0,0,0,0,0,0,0,0,0,0
1681115304.09947109,70728364,1540,1542,1608,1608,0,0,0,0,0,0,0,0,0,0
1681115304.19943118,70828324,1548,1549,1600,1601,0,0,0,0,0,0,0,0,0,0
1681115304.29939103,70928284,1557,1558,1594,1593,0,0,0,0,0,0,0,0,0,0
1681115304.39935112,71028244,1566,1566,1586,1585,0,0,0,0,0,0,0,0,0,0
1681115304.49931121,71128204,1574,1573,1578,1577,0,0,0,0,0,0,0,0,0,0
1681115304.59927106,71228164,1580,1579,1572,1572,0,0,0,0,0,0,0,0,0,0
1681115304.70006418,71328957,1585,1584,1569,1569,0,0,0,0,0,0,0,0,0,0
1681115304.80002403,71428917,1588,1587,1567,1567,0,0,0,0,0,0,0,0,0,0
1681115304.89998412,71528877,1588,1586,1565,1565,0,0,0,0,0,0,0,0,0,0
1681115304.99994421,71628837,1587,1586,1566,1567,0,0,0,0,0,0,0,0,0,0
1681115305.09990406,71728797,1585,1585,1569,1569,0,0,0,0,0,0,0,0,0,0
1681115305.19986415,71828757,1583,1583,1572,1572,0,0,0,0,0,0,0,0,0,0
1681115305.29982400,71928717,1580,1580,1575,1575,0,0,0,0,0,0,0,0,0,0
1681115305.39978409,72028677,1577,1577,1578,1578,0,0,0,0,0,0,0,0,0,0
1681115305.49974418,72128637,1574,1575,1580,1580,0,0,0,0,0,0,0,0,0,0
1681115305.59970403,72228597,1572,1572,1581,1581,0,0,0,0,0,0,0,0,0,0
1681115305.69966412,72328557,1571,1572,1582,1582,0,0,0,0,0,0,0,0,0,0
1681115305.79962420,72428517,1571,1572,1583,1583,0,0,0,0,0,0,0,0,0,0
1681115305.89958405,72528477,1572,1573,1583,1583,0,0,0,0,0,0,0,0,0,0
1681115305.99954414,72628437,1574,1574,1584,1582,0,0,0,0,0,0,0,0,0,0
1681115306.09950399,72728397,1575,1576,1583,1582,0,0,0,0,0,0,0,0,0,0
1681115306.19946408,72828357,1577,1577,1581,1581,0,0,0,0,0,0,0,0,0,0
1681115306.29942417,72928317,1578,1578,1580,1580,0,0,0,0,0,0,0,0,0,0
1681115306.39938402,73028277,1580,1580,1579,1579,0,0,0,0,0,0,0,0,0,0
1681115306.49934411,73128237,1581,1581,1578,1578,0,0,0,0,0,0,0,0,0,0
1681115306.59930420,73228197,1581,1581,1578,1577,0,0,0,0,0,0,0,0,0,0
1681115306.69926405,73328157,1604,1603,1386,1513,0,0,0,0,0,0,0,0,0,0
1681115306.80005717,73428950,1636,1638,1502,1507,0,0,0,0,0,0,0,0,0,0
1681115306.90001702,73528910,1673,1679,1611,1547,0,0,0,0,0,0,0,0,0,0
1681115306.99997711,73628870,1644,1658,1650,1543,0,0,0,0,0,0,0,0,0,0
1681115307.09993720,73728830,1625,1647,1650,1576,0,0,0,0,0,0,0,0,0,0
1681115307.19989705,73828790,1630,1650,1650,1607,0,0,0,0,0,0,0,0,0,0
1681115307.29985714,73928750,1626,1638,1650,1633,0,0,0,0,0,0,0,0,0,0
1681115307.39981699,74028710,1608,1605,1650,1659,0,0,0,0,0,0,0,0,0,0
1681115307.49977708,74128670,1574,1568,1650,1679,0,0,0,0,0,0,0,0,0,0
1681115307.59973717,74228630,1548,1524,1650,1682,0,0,0,0,0,0,0,0,0,0
1681115307.69969702,74328590,1533,1494,1650,1673,0,0,0,0,0,0,0,0,0,0
1681115307.79965711,74428550,1536,1498,1650,1663,0,0,0,0,0,0,0,0,0,0
1681115307.89961720,74528510,1562,1536,1650,1658,0,0,0,0,0,0,0,0,0,0
1681115307.99957705,74628470,1598,1590,1650,1653,0,0,0,0,0,0,0,0,0,0
1681115308.09953713,74728430,1628,1638,1650,1651,0,0,0,0,0,0,0,0,0,0
1681115308.19949698,74828390,1619,1640,1624,1618,0,0,0,0,0,0,0,0,0,0
1681115308.29945707,74928350,1606,1632,1596,1594,0,0,0,0,0,0,0,0,0,0
1681115308.39941716,75028310,1599,1621,1576,1577,0,0,0,0,0,0,0,0,0,0
1681115308.49937701,75128270,1593,1609,1562,1556,0,0,0,0,0,0,0,0,0,0
1681115308.59933710,75228230,1587,1596,1545,1545,0,0,0,0,0,0,0,0,0,0
1681115308.69929719,75328190,1581,1583,1531,1538,0,0,0,0,0,0,0,0,0,0
1681115308.80009007,75428983,1577,1571,1523,1532,0,0,0,0,0,0,0,0,0,0
1681115308.90005016,75528943,1574,1565,1522,1528,0,0,0,0,0,0,0,0,0,0
1681115309.00001001,75628903,1570,1562,1523,1525,0,0,0,0,0,0,0,0,0,0
1681115309.09997010,75728863,1568,1564,1527,1525,0,0,0,0,0,0,0,0,0,0
1681115309.19993019,75828823,1564,1564,1529,1526,0,0,0,0,0,0,0,0,0,0
1681115309.29989004,75928783,1564,1566,1534,1530,0,0,0,0,0,0,0,0,0,0
1681115309.39985013,76028743,1562,1566,1537,1534,0,0,0,0,0,0,0,0,0,0
1681115309.49981022,76128703,1562,1565,1539,1538,0,0,0,0,0,0,0,0,0,0
1681115309.59977007,76228663,1563,1565,1542,1542,0,0,0,0,0,0,0,0,0,0
1681115309.69973016,76328623,1564,1566,1544,1545,0,0,0,0,0,0,0,0,0,0
1681115309.79969001,76428583,1565,1566,1545,1546,0,0,0,0,0,0,0,0,0,0
1681115309.89965010,76528543,1568,1568,1547,1548,0,0,0,0,0,0,0,0,0,0
1681115309.99961019,76628503,1570,1570,1548,1547,0,0,0,0,0,0,0,0,0,0
1681115310.09957004,76728463,1573,1573,1548,1547,0,0,0,0,0,0,0,0,0,0
1681115310.19953012,76828423,1576,1577,1547,1546,0,0,0,0,0,0,0,0,0,0
1681115310.29949021,76928383,1579,1580,1545,1545,0,0,0,0,0,0,0,0,0,0
1681115310.39945006,77028343,1582,1584,1544,1544,0,0,0,0,0,0,0,0,0,0
1681115310.49941015,77128303,1587,1586,1543,1543,0,0,0,0,0,0,0,0,0,0
1681115310.59937000,77228263,1589,1589,1541,1542,0,0,0,0,0,0,0,0,0,0
1681115310.69933009,77328223,1591,1590,1540,1542,0,0,0,0,0,0,0,0,0,0
1681115310.79929018,77428183,1590,1589,1540,1542,0,0,0,0,0,0,0,0,0,0
1681115310.90008307,77528976,1589,1587,1543,1545,0,0,0,0,0,0,0,0,0,0
1681115311.00004315,77628936,1586,1584,1547,1549,0,0,0,0,0,0,0,0,0,0
1681115311.10000300,77728896,1581,1579,1553,1554,0,0,0,0,0,0,0,0,0,0
1681115311.19996309,77828856,1576,1574,1559,1561,0,0,0,0,0,0,0,0,0,0
1681115311.29992318,77928816,1569,1567,1566,1568,0,0,0,0,0,0,0,0,0,0
1681115311.39988303,78028776,1562,1561,1572,1574,0,0,0,0,0,0,0,0,0,0
1681115311.49984312,78128736,1557,1556,1580,1580,0,0,0,0,0,0,0,0,0,0
1681115311.59980321,78228696,1553,1552,1586,1585,0,0,0,0,0,0,0,0,0,0
1681115311.69976306,78328656,1550,1549,1592,1590,0,0,0,0,0,0,0,0,0,0
1681115311.79972315,78428616,1547,1547,1595,1593,0,0,0,0,0,0,0,0,0,0
1681115311.89968300,78528576,1547,1548,1598,1596,0,0,0,0,0,0,0,0,0,0
1681115311.99964309,78628536,1547,1548,1598,1597,0,0,0,0,0,0,0,0,0,0
1681115312.09960318,78728496,1548,1548,1597,1597,0,0,0,0,0,0,0,0,0,0
1681115312.19956303,78828456,1551,1551,1597,1597,0,0,0,0,0,0,0,0,0,0
1681115312.29952312,78928416,1553,1553,1594,1595,0,0,0,0,0,0,0,0,0,0
1681115312.39948320,79028376,1555,1555,1592,1593,0,0,0,0,0,0,0,0,0,0
1681115312.49944305,79128336,1558,1558,1589,1591,0,0,0,0,0,0,0,0,0,0
1681115312.59940314,79228296,1561,1561,1588,1587,0,0,0,0,0,0,0,0,0,0
1681115312.69936299,79328256,1564,1564,1586,1585,0,0,0,0,0,0,0,0,0,0
1681115312.79932308,79428216,1566,1567,1583,1582,0,0,0,0,0,0,0,0,0,0
1681115312.89928317,79528176,1569,1570,1581,1580,0,0,0,0,0,0,0,0,0,0
1681115313.00007606,79628969,1571,1572,1578,1577,0,0,0,0,0,0,0,0,0,0
1681115313.10003614,79728929,1574,1574,1576,1576,0,0,0,0,0,0,0,0,0,0
1681115313.19999599,79828889,1576,1576,1574,1574,0,0,0,0,0,0,0,0,0,0
1681115313.29995608,79928849,1579,1578,1573,1574,0,0,0,0,0,0,0,0,0,0
1681115313.39991617,80028809,1579,1578,1571,1572,0,0,0,0,0,0,0,0,0,0
1681115313.49987602,80128769,1581,1580,1571,1571,0,0,0,0,0,0,0,0,0,0
1681115313.59983611,80228729,1582,1582,1571,1572,0,0,0,0,0,0,0,0,0,0
1681115313.69979620,80328689,1582,1581,1571,1571,0,0,0,0,0,0,0,0,0,0
1681115313.79975605,80428649,1582,1582,1572,1573,0,0,0,0,0,0,0,0,0,0
1681115313.89971614,80528609,1581,1581,1573,1573,0,0,0,0,0,0,0,0,0,0
1681115313.99967599,80628569,1581,1581,1575,1574,0,0,0,0,0,0,0,0,0,0
1681115314.09963608,80728529,1580,1581,1577,1576,0,0,0,0,0,0,0,0,0,0
1681115314.19959617,80828489,1579,1579,1577,1577,0,0,0,0,0,0,0,0,0,0
1681115314.29955602,80928449,1579,1578,1579,1578,0,0,0,0,0,0,0,0,0,0
1681115314.39951611,81028409,1578,1577,1579,1579,0,0,0,0,0,0,0,0,0,0
1681115314.49947619,81128369,1577,1577,1580,1580,0,0,0,0,0,0,0,0,0,0
1681115314.59943604,81228329,1578,1579,1582,1582,0,0,0,0,0,0,0,0,0,0
1681115314.69939613,81328289,1578,1578,1582,1582,0,0,0,0,0,0,0,0,0,0
1681115314.79935598,81428249,1577,1577,1582,1581,0,0,0,0,0,0,0,0,0,0
1681115314.89931607,81528209,1577,1578,1582,1581,0,0,0,0,0,0,0,0,0,0
1681115314.99927616,81628169,1578,1578,1582,1582,0,0,0,0,0,0,0,0,0,0
1681115315.10006905,81728962,1578,1578,1581,1581,0,0,0,0,0,0,0,0,0,0
1681115315.20002913,81828922,1578,1578,1580,1581,0,0,0,0,0,0,0,0,0,0
1681115315.29998899,81928882,1578,1579,1580,1581,0,0,0,0,0,0,0,0,0,0
1681115315.39994907,82028842,1579,1579,1579,1580,0,0,0,0,0,0,0,0,0,0
1681115315.49990916,82128802,1580,1580,1580,1580,0,0,0,0,0,0,0,0,0,0
1681115315.59986901,82228762,1580,1580,1580,1579,0,0,0,0,0,0,0,0,0,0
1681115315.69982910,82328722,1580,1579,1579,1578,0,0,0,0,0,0,0,0,0,0
1681115315.79978919,82428682,1580,1580,1578,1578,0,0,0,0,0,0,0,0,0,0
1681115315.89974904,82528642,1581,1581,1579,1579,0,0,0,0,0,0,0,0,0,0
1681115315.99970913,82628602,1581,1580,1579,1579,0,0,0,0,0,0,0,0,0,0
1681115316.09966922,82728562,1580,1581,1579,1579,0,0,0,0,0,0,0,0,0,0
1681115316.19962907,82828522,1581,1581,1580,1580,0,0,0,0,0,0,0,0,0,0
1681115316.29958916,82928482,1581,1581,1580,1580,0,0,0,0,0,0,0,0,0,0
1681115316.39954901,83028442,1581,1581,1581,1581,0,0,0,0,0,0,0,0,0,0
1681115316.49950910,83128402,1580,1580,1580,1580,0,0,0,0,0,0,0,0,0,0
1681115316.59946918,83228362,1581,1580,1581,1581,0,0,0,0,0,0,0,0,0,0
1681115316.69942904,83328322,1581,1581,1581,1581,0,0,0,0,0,0,0,0,0,0
1681115316.79938912,83428282,1580,1580,1581,1581,0,0,0,0,0,0,0,0,0,0
1681115316.89934921,83528242,1580,1580,1581,1581,0,0,0,0,0,0,0,0,0,0
1681115316.99930906,83628202,1580,1580,1581,1581,0,0,0,0,0,0,0,0,0,0
1681115317.09926915,83728162,1581,1581,1583,1579,0,0,0,0,0,0,0,0,0,0
1681115317.20006204,83828955,1580,1582,1587,1573,0,0,0,0,0,0,0,0,0,0
1681115317.30002213,83928915,1579,1584,1584,1574,0,0,0,0,0,0,0,0,0,0
1681115317.39998221,84028875,1577,1582,1576,1574,0,0,0,0,0,0,0,0,0,0
1681115317.49994206,84128835,1577,1579,1568,1573,0,0,0,0,0,0,0,0,0,0
1681115317.59990215,84228795,1577,1578,1562,1569,0,0,0,0,0,0,0,0,0,0
1681115317.69986200,84328755,1577,1577,1557,1564,0,0,0,0,0,0,0,0,0,0
1681115317.79982209,84428715,1579,1576,1554,1559,0,0,0,0,0,0,0,0,0,0
1681115317.89978218,84528675,1579,1576,1553,1555,0,0,0,0,0,0,0,0,0,0
1681115317.99974203,84628635,1580,1577,1553,1553,0,0,0,0,0,0,0,0,0,0
1681115318.09970212,84728595,1579,1579,1554,1552,0,0,0,0,0,0,0,0,0,0
1681115318.19966221,84828555,1578,1579,1555,1552,0,0,0,0,0,0,0,0,0,0
1681115318.29962206,84928515,1577,1579,1554,1553,0,0,0,0,0,0,0,0,0,0
1681115318.39958215,85028475,1576,1578,1554,1552,0,0,0,0,0,0,0,0,0,0
1681115318.49954200,85128435,1575,1578,1553,1553,0,0,0,0,0,0,0,0,0,0
1681115318.59950209,85228395,1576,1577,1552,1552,0,0,0,0,0,0,0,0,0,0
1681115318.69946218,85328355,1578,1579,1551,1552,0,0,0,0,0,0,0,0,0,0
1681115318.79942203,85428315,1579,1580,1549,1549,0,0,0,0,0,0,0,0,0,0
1681115318.89938211,85528275,1581,1582,1547,1547,0,0,0,0,0,0,0,0,0,0
1681115318.99934220,85628235,1584,1585,1546,1545,0,0,0,0,0,0,0,0,0,0
1681115319.09930205,85728195,1587,1587,1543,1543,0,0,0,0,0,0,0,0,0,0
1681115319.19926214,85828155,1590,1590,1542,1541,0,0,0,0,0,0,0,0,0,0
1681115319.30005503,85928948,1591,1591,1539,1539,0,0,0,0,0,0,0,0,0,0
1681115319.40001512,86028908,1593,1595,1537,1539,0,0,0,0,0,0,0,0,0,0
1681115319.49997520,86128868,1594,1596,1536,1538,0,0,0,0,0,0,0,0,0,0
1681115319.59993505,86228828,1595,1595,1537,1539,0,0,0,0,0,0,0,0,0,0
1681115319.69989514,86328788,1594,1592,1539,1543,0,0,0,0,0,0,0,0,0,0
1681115319.79985499,86428748,1591,1587,1545,1549,0,0,0,0,0,0,0,0,0,0
1681115319.89981508,86528708,1585,1580,1553,1557,0,0,0,0,0,0,0,0,0,0
1681115319.99977517,86628668,1576,1572,1564,1567,0,0,0,0,0,0,0,0,0,0
1681115320.09973502,86728628,1565,1561,1576,1578,0,0,0,0,0,0,0,0,0,0
1681115320.19969511,86828588,1554,1552,1589,1589,0,0,0,0,0,0,0,0,0,0
1681115320.29965520,86928548,1545,1544,1601,1599,0,0,0,0,0,0,0,0,0,0
1681115320.39961505,87028508,1539,1540,1609,1606,0,0,0,0,0,0,0,0,0,0
1681115320.49957514,87128468,1538,1540,1614,1611,0,0,0,0,0,0,0,0,0,0
1681115320.59953499,87228428,1539,1541,1615,1612,0,0,0,0,0,0,0,0,0,0
1681115320.69949508,87328388,1541,1543,1613,1611,0,0,0,0,0,0,0,0,0,0
1681115320.79945517,87428348,1545,1546,1610,1609,0,0,0,0,0,0,0,0,0,0
1681115320.89941502,87528308,1550,1551,1606,1605,0,0,0,0,0,0,0,0,0,0
1681115320.99937510,87628268,1554,1555,1600,1601,0,0,0,0,0,0,0,0,0,0
1681115321.09933519,87728228,1559,1559,1595,1595,0,0,0,0,0,0,0,0,0,0
1681115321.19929504,87828188,1564,1564,1589,1590,0,0,0,0,0,0,0,0,0,0
1681115321.30008817,87928981,1569,1569,1583,1584,0,0,0,0,0,0,0,0,0,0
1681115321.40004802,88028941,1573,1573,1577,1578,0,0,0,0,0,0,0,0,0,0
1681115321.50000811,88128901,1578,1578,1572,1573,0,0,0,0,0,0,0,0,0,0
1681115321.59996819,88228861,1583,1582,1568,1569,0,0,0,0,0,0,0,0,0,0
1681115321.69992805,88328821,1586,1585,1565,1567,0,0,0,0,0,0,0,0,0,0
1681115321.79988813,88428781,1586,1584,1563,1564,0,0,0,0,0,0,0,0,0,0
1681115321.89984798,88528741,1586,1585,1564,1565,0,0,0,0,0,0,0,0,0,0
1681115321.99980807,88628701,1584,1583,1565,1566,0,0,0,0,0,0,0,0,0,0
1681115322.09976816,88728661,1583,1582,1569,1569,0,0,0,0,0,0,0,0,0,0
1681115322.19972801,88828621,1580,1580,1572,1571,0,0,0,0,0,0,0,0,0,0
1681115322.29968810,88928581,1577,1578,1575,1575,0,0,0,0,0,0,0,0,0,0
1681115322.39964819,89028541,1575,1575,1577,1577,0,0,0,0,0,0,0,0,0,0
1681115322.49960804,89128501,1574,1574,1581,1580,0,0,0,0,0,0,0,0,0,0
1681115322.59956813,89228461,1573,1574,1583,1583,0,0,0,0,0,0,0,0,0,0
1681115322.69952822,89328421,1572,1573,1584,1583,0,0,0,0,0,0,0,0,0,0
1681115322.79948807,89428381,1572,1573,1585,1584,0,0,0,0,0,0,0,0,0,0
1681115322.89944816,89528341,1573,1573,1584,1583,0,0,0,0,0,0,0,0,0,0
1681115322.99940801,89628301,1573,1574,1583,1583,0,0,0,0,0,0,0,0,0,0
1681115323.09936810,89728261,1576,1576,1583,1583,0,0,0,0,0,0,0,0,0,0
1681115323.19932818,89828221,1577,1577,1581,1582,0,0,0,0,0,0,0,0,0,0
1681115323.29928803,89928181,1578,1578,1580,1580,0,0,0,0,0,0,0,0,0,0
1681115323.40008116,90028974,1580,1580,1579,1580,0,0,0,0,0,0,0,0,0,0
1681115323.50004101,90128934,1581,1580,1578,1579,0,0,0,0,0,0,0,0,0,0
1681115323.60000110,90228894,1581,1580,1577,1577,0,0,0,0,0,0,0,0,0,0
1681115323.69996119,90328854,1581,1581,1577,1577,0,0,0,0,0,0,0,0,0,0
1681115323.79992104,90428814,1582,1582,1577,1577,0,0,0,0,0,0,0,0,0,0
1681115323.89988112,90528774,1582,1582,1578,1578,0,0,0,0,0,0,0,0,0,0
1681115323.99984121,90628734,1582,1581,1578,1578,0,0,0,0,0,0,0,0,0,0
1681115324.09980106,90728694,1581,1581,1578,1578,0,0,0,0,0,0,0,0,0,0
1681115324.19976115,90828654,1581,1582,1580,1580,0,0,0,0,0,0,0,0,0,0
1681115324.29972100,90928614,1581,1581,1580,1580,0,0,0,0,0,0,0,0,0,0
1681115324.39968109,91028574,1579,1579,1580,1580,0,0,0,0,0,0,0,0,0,0
1681115324.49964118,91128534,1580,1580,1581,1581,0,0,0,0,0,0,0,0,0,0
1681115324.59960103,91228494,1580,1580,1581,1582,0,0,0,0,0,0,0,0,0,0
1681115324.69956112,91328454,1580,1580,1582,1582,0,0,0,0,0,0,0,0,0,0
1681115324.79952121,91428414,1580,1580,1582,1582,0,0,0,0,0,0,0,0,0,0
1681115324.89948106,91528374,1580,1580,1582,1582,0,0,0,0,0,0,0,0,0,0
1681115324.99944115,91628334,1580,1580,1582,1581,0,0,0,0,0,0,0,0,0,0
1681115325.09940100,91728294,1581,1582,1587,1573,0,0,0,0,0,0,0,0,0,0
1681115325.19936109,91828254,1580,1581,1585,1573,0,0,0,0,0,0,0,0,0,0
1681115325.29932117,91928214,1577,1577,1579,1575,0,0,0,0,0,0,0,0,0,0
1681115325.39928102,92028174,1574,1574,1573,1576,0,0,0,0,0,0,0,0,0,0
1681115325.50007415,92128967,1571,1570,1568,1575,0,0,0,0,0,0,0,0,0,0
1681115325.60003400,92228927,1568,1567,1565,1572,0,0,0,0,0,0,0,0,0,0
1681115325.69999409,92328887,1567,1566,1564,1570,0,0,0,0,0,0,0,0,0,0
1681115325.79995418,92428847,1566,1565,1564,1567,0,0,0,0,0,0,0,0,0,0
1681115325.89991403,92528807,1566,1565,1565,1564,0,0,0,0,0,0,0,0,0,0
1681115325.99987411,92628767,1566,1566,1566,1564,0,0,0,0,0,0,0,0,0,0
1681115326.09983420,92728727,1567,1567,1567,1564,0,0,0,0,0,0,0,0,0,0
1681115326.19979405,92828687,1565,1566,1566,1563,0,0,0,0,0,0,0,0,0,0
1681115326.29975414,92928647,1565,1565,1565,1563,0,0,0,0,0,0,0,0,0,0
1681115326.39971399,93028607,1564,1564,1564,1564,0,0,0,0,0,0,0,0,0,0
1681115326.49967408,93128567,1563,1563,1563,1563,0,0,0,0,0,0,0,0,0,0
1681115326.59963417,93228527,1563,1562,1563,1563,0,0,0,0,0,0,0,0,0,0
1681115326.69959402,93328487,1562,1561,1562,1563,0,0,0,0,0,0,0,0,0,0
1681115326.79955411,93428447,1561,1560,1562,1561,0,0,0,0,0,0,0,0,0,0
1681115326.89951420,93528407,1560,1560,1561,1561,0,0,0,0,0,0,0,0,0,0
1681115326.99947405,93628367,1559,1559,1561,1560,0,0,0,0,0,0,0,0,0,0
1681115327.09943414,93728327,1559,1559,1560,1559,0,0,0,0,0,0,0,0,0,0
1681115327.19939399,93828287,1558,1558,1559,1558,0,0,0,0,0,0,0,0,0,0
1681115327.29935408,93928247,1559,1559,1559,1558,0,0,0,0,0,0,0,0,0,0
1681115327.39931417,94028207,1558,1558,1559,1557,0,0,0,0,0,0,0,0,0,0
1681115327.49927402,94128167,1559,1559,1559,1558,0,0,0,0,0,0,0,0,0,0
1681115327.60006714,94228960,1558,1558,1559,1557,0,0,0,0,0,0,0,0,0,0
1681115327.70002699,94328920,1558,1558,1559,1557,0,0,0,0,0,0,0,0,0,0
1681115327.79998708,94428880,1559,1559,1560,1557,0,0,0,0,0,0,0,0,0,0
1681115327.89994717,94528840,1560,1560,1559,1560,0,0,0,0,0,0,0,0,0,0
1681115327.99990702,94628800,1560,1560,1558,1562,0,0,0,0,0,0,0,0,0,0
1681115328.09986711,94728760,1560,1560,1556,1563,0,0,0,0,0,0,0,0,0,0
1681115328.19982719,94828720,1560,1560,1557,1563,0,0,0,0,0,0,0,0,0,0
1681115328.29978704,94928680,1561,1561,1558,1563,0,0,0,0,0,0,0,0,0,0
1681115328.39974713,95028640,1561,1561,1560,1561,0,0,0,0,0,0,0,0,0,0
1681115328.49970698,95128600,1561,1561,1561,1559,0,0,0,0,0,0,0,0,0,0
1681115328.59966707,95228560,1560,1561,1561,1559,0,0,0,0,0,0,0,0,0,0
1681115328.69962716,95328520,1557,1557,1557,1558,0,0,0,0,0,0,0,0,0,0
1681115328.79958701,95428480,1554,1553,1554,1556,0,0,0,0,0,0,0,0,0,0
1681115328.89954710,95528440,1549,1549,1550,1551,0,0,0,0,0,0,0,0,0,0
1681115328.99950719,95628400,1544,1544,1546,1546,0,0,0,0,0,0,0,0,0,0
1681115329.09946704,95728360,1536,1536,1539,1539,0,0,0,0,0,0,0,0,0,0
1681115329.19942713,95828320,1528,1528,1532,1531,0,0,0,0,0,0,0,0,0,0
1681115329.29938722,95928280,1521,1521,1524,1524,0,0,0,0,0,0,0,0,0,0
1681115329.39934707,96028240,1518,1518,1520,1521,0,0,0,0,0,0,0,0,0,0
1681115329.49930716,96128200,1519,1518,1518,1520,0,0,0,0,0,0,0,0,0,0
1681115329.59926701,96228160,1521,1521,1518,1520,0,0,0,0,0,0,0,0,0,0
1681115329.70006013,96328953,1524,1524,1520,1522,0,0,0,0,0,0,0,0,0,0
1681115329.80002022,96428913,1528,1528,1523,1524,0,0,0,0,0,0,0,0,0,0
1681115329.89998007,96528873,1533,1533,1528,1528,0,0,0,0,0,0,0,0,0,0
1681115329.99994016,96628833,1538,1538,1533,1532,0,0,0,0,0,0,0,0,0,0
1681115330.09990001,96728793,1541,1541,1537,1535,0,0,0,0,0,0,0,0,0,0
1681115330.19986010,96828753,1543,1543,1540,1538,0,0,0,0,0,0,0,0,0,0
1681115330.29982018,96928713,1544,1544,1543,1541,0,0,0,0,0,0,0,0,0,0
1681115330.39978004,97028673,1545,1545,1545,1544,0,0,0,0,0,0,0,0,0,0
1681115330.49974012,97128633,1545,1545,1546,1546,0,0,0,0,0,0,0,0,0,0
1681115330.59970021,97228593,1545,1546,1547,1547,0,0,0,0,0,0,0,0,0,0
1681115330.69966006,97328553,1546,1546,1548,1548,0,0,0,0,0,0,0,0,0,0
1681115330.79962015,97428513,1544,1545,1548,1548,0,0,0,0,0,0,0,0,0,0
1681115330.89958000,97528473,1545,1544,1548,1547,0,0,0,0,0,0,0,0,0,0
1681115330.99954009,97628433,1545,1544,1548,1548,0,0,0,0,0,0,0,0,0,0
1681115331.09950018,97728393,1545,1545,1548,1548,0,0,0,0,0,0,0,0,0,0
1681115331.19946003,97828353,1545,1545,1547,1547,0,0,0,0,0,0,0,0,0,0
1681115331.29942012,97928313,1544,1544,1546,1546,0,0,0,0,0,0,0,0,0,0
1681115331.39938021,98028273,1545,1545,1545,1545,0,0,0,0,0,0,0,0,0,0
1681115331.49934006,98128233,1545,1545,1545,1544,0,0,0,0,0,0,0,0,0,0
1681115331.59930015,98228193,1544,1544,1544,1543,0,0,0,0,0,0,0,0,0,0
1681115331.70009303,98328986,1545,1545,1544,1544,0,0,0,0,0,0,0,0,0,0
1681115331.80005312,98428946,1543,1544,1543,1542,0,0,0,0,0,0,0,0,0,0
1681115331.90001321,98528906,1544,1545,1543,1543,0,0,0,0,0,0,0,0,0,0
1681115331.99997306,98628866,1545,1545,1544,1544,0,0,0,0,0,0,0,0,0,0
1681115332.09993315,98728826,1545,1544,1543,1544,0,0,0,0,0,0,0,0,0,0
1681115332.19989300,98828786,1544,1544,1543,1543,0,0,0,0,0,0,0,0,0,0
1681115332.29985309,98928746,1544,1544,1543,1543,0,0,0,0,0,0,0,0,0,0
1681115332.39981318,99028706,1544,1543,1544,1543,0,0,0,0,0,0,0,0,0,0
1681115332.49977303,99128666,1544,1544,1544,1544,0,0,0,0,0,0,0,0,0,0
1681115332.59973311,99228626,1544,1543,1544,1544,0,0,0,0,0,0,0,0,0,0
1681115332.69969320,99328586,1543,1543,1543,1544,0,0,0,0,0,0,0,0,0,0
1681115332.79965305,99428546,1544,1544,1544,1544,0,0,0,0,0,0,0,0,0,0
1681115332.89961314,99528506,1543,1544,1544,1544,0,0,0,0,0,0,0,0,0,0
1681115332.99957299,99628466,1544,1544,1544,1544,0,0,0,0,0,0,0,0,0,0
1681115333.09953308,99728426,1544,1544,1544,1544,0,0,0,0,0,0,0,0,0,0
1681115333.19949317,99828386,1544,1545,1545,1545,0,0,0,0,0,0,0,0,0,0
1681115333.29945302,99928346,1544,1544,1544,1544,0,0,0,0,0,0,0,0,0,0
1681115333.39941311,100028306,1544,1544,1544,1544,0,0,0,0,0,0,0,0,0,0
1681115333.49937320,100128266,1545,1544,1544,1544,0,0,0,0,0,0,0,0,0,0
1681115333.59933305,100228226,1544,1544,1544,1544,0,0,0,0,0,0,0,0,0,0
1681115333.69929314,100328186,1544,1544,1544,1544,0,0,0,0,0,0,0,0,0,0
1681115333.80008602,100428979,1544,1545,1544,1544,0,0,0,0,0,0,0,0,0,0
1681115333.90004611,100528939,1543,1543,1544,1544,0,0,0,0,0,0,0,0,0,0
1681115334.00000620,100628899,1544,1544,1544,1544,0,0,0,0,0,0,0,0,0,0
1681115334.09996605,100728859,1543,1543,1543,1543,0,0,0,0,0,0,0,0,0,0
1681115334.19992614,100828819,1543,1543,1543,1543,0,0,0,0,0,0,0,0,0,0
1681115334.29988599,100928779,1544,1544,1544,1544,0,0,0,0,0,0,0,0,0,0
1681115334.39984608,101028739,1544,1544,1544,1544,0,0,0,0,0,0,0,0,0,0
1681115334.49980617,101128699,1543,1543,1543,1543,0,0,0,0,0,0,0,0,0,0
1681115334.59976602,101228659,1543,1543,1543,1543,0,0,0,0,0,0,0,0,0,0
1681115334.69972610,101328619,1545,1544,1544,1544,0,0,0,0,0,0,0,0,0,0
1681115334.79968619,101428579,1544,1545,1544,1544,0,0,0,0,0,0,0,0,0,0
1681115334.89964604,101528539,1545,1545,1544,1545,0,0,0,0,0,0,0,0,0,0
1681115334.99960613,101628499,1544,1544,1544,1544,0,0,0,0,0,0,0,0,0,0
1681115335.09956598,101728459,1544,1544,1545,1544,0,0,0,0,0,0,0,0,0,0
1681115335.19952607,101828419,1545,1545,1545,1545,0,0,0,0,0,0,0,0,0,0
1681115335.29948616,101928379,1545,1545,1545,1545,0,0,0,0,0,0,0,0,0,0
1681115335.39944601,102028339,1544,1544,1544,1544,0,0,0,0,0,0,0,0,0,0
1681115335.49940610,102128299,1545,1544,1545,1545,0,0,0,0,0,0,0,0,0,0
1681115335.59936619,102228259,1543,1543,1544,1543,0,0,0,0,0,0,0,0,0,0
1681115335.69932604,102328219,1544,1544,1544,1545,0,0,0,0,0,0,0,0,0,0
1681115335.79928613,102428179,1545,1544,1545,1545,0,0,0,0,0,0,0,0,0,0
1681115335.90007901,102528972,1544,1544,1544,1544,0,0,0,0,0,0,0,0,0,0
1681115336.00003910,102628932,1543,1544,1544,1544,0,0,0,0,0,0,0,0,0,0
1681115336.09999919,102728892,1544,1543,1544,1544,0,0,0,0,0,0,0,0,0,0
1681115336.19995904,102828852,1544,1544,1544,1544,0,0,0,0,0,0,0,0,0,0
1681115336.29991913,102928812,1544,1544,1544,1544,0,0,0,0,0,0,0,0,0,0
1681115336.39987922,103028772,1545,1545,1544,1545,0,0,0,0,0,0,0,0,0,0
1681115336.49983907,103128732,1544,1544,1543,1544,0,0,0,0,0,0,0,0,0,0
1681115336.59979916,103228692,1544,1544,1544,1544,0,0,0,0,0,0,0,0,0,0
1681115336.69975901,103328652,1544,1544,1544,1544,0,0,0,0,0,0,0,0,0,0
1681115336.79971910,103428612,1544,1544,1544,1544,0,0,0,0,0,0,0,0,0,0
1681115336.89967918,103528572,1544,1544,1544,1544,0,0,0,0,0,0,0,0,0,0
1681115336.99963903,103628532,1545,1545,1545,1545,0,0,0,0,0,0,0,0,0,0
1681115337.09959912,103728492,1545,1544,1544,1545,0,0,0,0,0,0,0,0,0,0
1681115337.19955921,103828452,1544,1544,1544,1544,0,0,0,0,0,0,0,0,0,0
1681115337.29951906,103928412,1544,1544,1544,1544,0,0,0,0,0,0,0,0,0,0
1681115337.39947915,104028372,1544,1545,1545,1544,0,0,0,0,0,0,0,0,0,0
1681115337.49943900,104128332,1543,1543,1544,1544,0,0,0,0,0,0,0,0,0,0
1681115337.59939909,104228292,1544,1544,1544,1544,0,0,0,0,0,0,0,0,0,0
1681115337.69935918,104328252,1543,1543,1543,1544,0,0,0,0,0,0,0,0,0,0
1681115337.79931903,104428212,1544,1544,1544,1544,0,0,0,0,0,0,0,0,0,0
1681115337.89927912,104528172,1544,1544,1544,1545,0,0,0,0,0,0,0,0,0,0
1681115338.00007200,104628965,1544,1544,1543,1544,0,0,0,0,0,0,0,0,0,0
1681115338.10003209,104728925,1544,1544,1544,1544,0,0,0,0,0,0,0,0,0,0
1681115338.19999218,104828885,1545,1544,1544,1543,0,0,0,0,0,0,0,0,0,0
1681115338.29995203,104928845,1544,1543,1544,1543,0,0,0,0,0,0,0,0,0,0
1681115338.39991212,105028805,1545,1544,1544,1544,0,0,0,0,0,0,0,0,0,0
1681115338.49987221,105128765,1544,1544,1544,1544,0,0,0,0,0,0,0,0,0,0
1681115338.59983206,105228725,1544,1545,1544,1545,0,0,0,0,0,0,0,0,0,0
1681115338.69979215,105328685,1543,1543,1543,1543,0,0,0,0,0,0,0,0,0,0
1681115338.79975200,105428645,1543,1544,1544,1544,0,0,0,0,0,0,0,0,0,0
1681115338.89971209,105528605,1544,1544,1543,1544,0,0,0,0,0,0,0,0,0,0
1681115338.99967217,105628565,1544,1544,1544,1544,0,0,0,0,0,0,0,0,0,0
1681115339.09963202,105728525,1531,1532,1535,1532,0,0,0,0,0,0,0,0,0,0
1681115339.19959211,105828485,1343,1341,1407,1343,0,0,0,0,0,0,0,0,0,0
1681115339.29955220,105928445,1246,1242,1350,1245,0,0,0,0,0,0,0,0,0,0
1681115339.39951205,106028405,1214,1212,1333,1214,0,0,0,0,0,0,0,0,0,0
1681115339.49947214,106128365,1191,1188,1321,1191,0,0,0,0,0,0,0,0,0,0
1681115339.59943199,106228325,1151,1150,1302,1151,0,0,0,0,0,0,0,0,0,0
1681115339.69939208,106328285,1168,1166,1134,1150,0,0,0,0,0,0,0,0,0,0
1681115339.79935217,106428245,1166,1165,1114,1150,0,0,0,0,0,0,0,0,0,0
1681115339.89931202,106528205,1166,1165,1114,1150,0,0,0,0,0,0,0,0,0,0
1681115339.99927211,106628165,1166,1163,1115,1150,0,0,0,0,0,0,0,0,0,0
1681115340.10006499,106728958,1167,1150,1123,1150,0,0,0,0,0,0,0,0,0,0
1681115340.20002508,106828918,1166,1156,1120,1150,0,0,0,0,0,0,0,0,0,0
1681115340.29998517,106928878,1165,1157,1120,1150,0,0,0,0,0,0,0,0,0,0
1681115340.39994502,107028838,1165,1157,1120,1150,0,0,0,0,0,0,0,0,0,0
1681115340.49990511,107128798,1165,1156,1121,1150,0,0,0,0,0,0,0,0,0,0
1681115340.59986520,107228758,1164,1156,1121,1150,0,0,0,0,0,0,0,0,0,0
1681115340.69982505,107328718,1164,1155,1122,1150,0,0,0,0,0,0,0,0,0,0
1681115340.79978514,107428678,1163,1169,1114,1150,0,0,0,0,0,0,0,0,0,0
1681115340.89974499,107528638,1163,1162,1118,1150,0,0,0,0,0,0,0,0,0,0
1681115340.99970508,107628598,1163,1161,1118,1150,0,0,0,0,0,0,0,0,0,0
1681115341.09966516,107728558,1163,1161,1118,1150,0,0,0,0,0,0,0,0,0,0
1681115341.19962502,107828518,1163,1161,1119,1150,0,0,0,0,0,0,0,0,0,0
1681115341.29958510,107928478,1148,1148,848,1148,0,0,0,0,0,0,0,0,0,0
1681115341.39954519,108028438,1000,1000,1000,1000,0,0,0,0,0,0,0,0,0,0
1681115341.49950504,108128398,1000,1000,1000,1000,0,0,0,0,0,0,0,0,0,0
1681115341.59946513,108228358,1000,1000,1000,1000,0,0,0,0,0,0,0,0,0,0
1681115341.69942522,108328318,1000,1000,1000,1000,0,0,0,0,0,0,0,0,0,0
1681115341.79938507,108428278,1000,1000,1000,1000,0,0,0,0,0,0,0,0,0,0
1681115341.89934516,108528238,1000,1000,1000,1000,0,0,0,0,0,0,0,0,0,0
1681115341.99930501,108628198,1000,1000,1000,1000,0,0,0,0,0,0,0,0,0,0
1681115342.09926510,108728158,1000,1000,1000,1000,0,0,0,0,0,0,0,0,0,0
1681115342.20005798,108828951,1000,1000,1000,1000,0,0,0,0,0,0,0,0,0,0
1681115342.30001807,108928911,1000,1000,1000,1000,0,0,0,0,0,0,0,0,0,0
1681115342.39997816,109028871,1000,1000,1000,1000,0,0,0,0,0,0,0,0,0,0
1681115342.49993801,109128831,1000,1000,1000,1000,0,0,0,0,0,0,0,0,0,0
1681115342.59989810,109228791,1000,1000,1000,1000,0,0,0,0,0,0,0,0,0,0
1681115342.69985819,109328751,1000,1000,1000,1000,0,0,0,0,0,0,0,0,0,0
1681115342.79981804,109428711,1000,1000,1000,1000,0,0,0,0,0,0,0,0,0,0
1681115342.89977813,109528671,1000,1000,1000,1000,0,0,0,0,0,0,0,0,0,0
1681115342.99973822,109628631,1000,1000,1000,1000,0,0,0,0,0,0,0,0,0,0
1681115343.09969807,109728591,1000,1000,1000,1000,0,0,0,0,0,0,0,0,0,0
1681115343.19965816,109828551,1000,1000,1000,1000,0,0,0,0,0,0,0,0,0,0
1681115343.29961801,109928511,1000,1000,1000,1000,0,0,0,0,0,0,0,0,0,0
1681115343.39957809,110028471,1000,1000,1000,1000,0,0,0,0,0,0,0,0,0,0
1681115343.49953818,110128431,1000,1000,1000,1000,0,0,0,0,0,0,0,0,0,0
1681115343.59949803,110228391,1000,1000,1000,1000,0,0,0,0,0,0,0,0,0,0
1681115343.69945812,110328351,1000,1000,1000,1000,0,0,0,0,0,0,0,0,0,0
1681115343.79941821,110428311,1000,1000,1000,1000,0,0,0,0,0,0,0,0,0,0
1681115343.89937806,110528271,1000,1000,1000,1000,0,0,0,0,0,0,0,0,0,0
1681115343.99933815,110628231,1000,1000,1000,1000,0,0,0,0,0,0,0,0,0,0
1681115344.09929800,110728191,1000,1000,1000,1000,0,0,0,0,0,0,0,0,0,0
1681115344.20009112,110828984,1000,1000,1000,1000,0,0,0,0,0,0,0,0,0,0
1681115344.30005121,110928944,1000,1000,1000,1000,0,0,0,0,0,0,0,0,0,0
1681115344.40001106,111028904,1000,1000,1000,1000,0,0,0,0,0,0,0,0,0,0
1681115344.49997115,111128864,1000,1000,1000,1000,0,0,0,0,0,0,0,0,0,0
1681115344.59993100,111228824,1000,1000,1000,1000,0,0,0,0,0,0,0,0,0,0
1681115344.69989109,111328784,1000,1000,1000,1000,0,0,0,0,0,0,0,0,0,0
1681115344.79985118,111428744,1000,1000,1000,1000,0,0,0,0,0,0,0,0,0,0
1681115344.89981103,111528704,1000,1000,1000,1000,0,0,0,0,0,0,0,0,0,0
1681115344.99977112,111628664,1000,1000,1000,1000,0,0,0,0,0,0,0,0,0,0
1681115345.09973121,111728624,1000,1000,1000,1000,0,0,0,0,0,0,0,0,0,0
1681115345.19969106,111828584,1000,1000,1000,1000,0,0,0,0,0,0,0,0,0,0
1681115345.29965115,111928544,1000,1000,1000,1000,0,0,0,0,0,0,0,0,0,0
1681115345.39961100,112028504,1000,1000,1000,1000,0,0,0,0,0,0,0,0,0,0
1681115345.49957108,112128464,1000,1000,1000,1000,0,0,0,0,0,0,0,0,0,0
1681115345.59953117,112228424,1000,1000,1000,1000,0,0,0,0,0,0,0,0,0,0
1681115345.69949102,112328384,1000,1000,1000,1000,0,0,0,0,0,0,0,0,0,0
1681115345.79945111,112428344,1000,1000,1000,1000,0,0,0,0,0,0,0,0,0,0
1681115345.89941120,112528304,1000,1000,1000,1000,0,0,0,0,0,0,0,0,0,0
1681115345.99937105,112628264,1000,1000,1000,1000,0,0,0,0,0,0,0,0,0,0
1681115346.09933114,112728224,1000,1000,1000,1000,0,0,0,0,0,0,0,0,0,0
1681115346.19929099,112828184,1000,1000,1000,1000,0,0,0,0,0,0,0,0,0,0
1681115346.30008411,112928977,1000,1000,1000,1000,0,0,0,0,0,0,0,0,0,0
1681115346.40004420,113028937,1000,1000,1000,1000,0,0,0,0,0,0,0,0,0,0
1681115346.50000405,113128897,1000,1000,1000,1000,0,0,0,0,0,0,0,0,0,0
1681115346.59996414,113228857,1000,1000,1000,1000,0,0,0,0,0,0,0,0,0,0
1681115346.69992399,113328817,1000,1000,1000,1000,0,0,0,0,0,0,0,0,0,0
1681115346.79988408,113428777,1000,1000,1000,1000,0,0,0,0,0,0,0,0,0,0
1681115346.89984417,113528737,1000,1000,1000,1000,0,0,0,0,0,0,0,0,0,0
1681115346.99980402,113628697,1000,1000,1000,1000,0,0,0,0,0,0,0,0,0,0
1681115347.09976411,113728657,1000,1000,1000,1000,0,0,0,0,0,0,0,0,0,0
1681115347.19972420,113828617,1000,1000,1000,1000,0,0,0,0,0,0,0,0,0,0
1681115347.29968405,113928577,1000,1000,1000,1000,0,0,0,0,0,0,0,0,0,0
1681115347.39964414,114028537,1000,1000,1000,1000,0,0,0,0,0,0,0,0,0,0
1681115347.49960399,114128497,1000,1000,1000,1000,0,0,0,0,0,0,0,0,0,0
1681115347.59956408,114228457,1000,1000,1000,1000,0,0,0,0,0,0,0,0,0,0
1681115347.69952416,114328417,1000,1000,1000,1000,0,0,0,0,0,0,0,0,0,0
1681115347.79948401,114428377,1000,1000,1000,1000,0,0,0,0,0,0,0,0,0,0
1681115347.89944410,114528337,1000,1000,1000,1000,0,0,0,0,0,0,0,0,0,0
1681115347.99940419,114628297,1000,1000,1000,1000,0,0,0,0,0,0,0,0,0,0
1681115348.09936404,114728257,1000,1000,1000,1000,0,0,0,0,0,0,0,0,0,0
1681115348.19932413,114828217,1000,1000,1000,1000,0,0,0,0,0,0,0,0,0,0
1681115348.29928422,114928177,1000,1000,1000,1000,0,0,0,0,0,0,0,0,0,0
1681115348.40007710,115028970,1000,1000,1000,1000,0,0,0,0,0,0,0,0,0,0
1681115348.50003719,115128930,1000,1000,1000,1000,0,0,0,0,0,0,0,0,0,0
1681115348.59999704,115228890,1000,1000,1000,1000,0,0,0,0,0,0,0,0,0,0
1681115348.69995713,115328850,1000,1000,1000,1000,0,0,0,0,0,0,0,0,0,0
1681115348.79991698,115428810,1000,1000,1000,1000,0,0,0,0,0,0,0,0,0,0
1681115348.89987707,115528770,1000,1000,1000,1000,0,0,0,0,0,0,0,0,0,0
1681115348.99983716,115628730,1000,1000,1000,1000,0,0,0,0,0,0,0,0,0,0
1681115349.09979701,115728690,1000,1000,1000,1000,0,0,0,0,0,0,0,0,0,0
1681115349.19975710,115828650,1000,1000,1000,1000,0,0,0,0,0,0,0,0,0,0
1681115349.29971719,115928610,1000,1000,1000,1000,0,0,0,0,0,0,0,0,0,0
1681115349.39967704,116028570,1000,1000,1000,1000,0,0,0,0,0,0,0,0,0,0
1681115349.49963713,116128530,1000,1000,1000,1000,0,0,0,0,0,0,0,0,0,0
1681115349.59959722,116228490,1000,1000,1000,1000,0,0,0,0,0,0,0,0,0,0
1681115349.69955707,116328450,1000,1000,1000,1000,0,0,0,0,0,0,0,0,0,0
1681115349.79951715,116428410,1000,1000,1000,1000,0,0,0,0,0,0,0,0,0,0
1681115349.89947701,116528370,1000,1000,1000,1000,0,0,0,0,0,0,0,0,0,0
1681115349.99943709,116628330,1000,1000,1000,1000,0,0,0,0,0,0,0,0,0,0
1681115350.09939718,116728290,1000,1000,1000,1000,0,0,0,0,0,0,0,0,0,0
1681115350.19935703,116828250,1000,1000,1000,1000,0,0,0,0,0,0,0,0,0,0
1681115350.29931712,116928210,1000,1000,1000,1000,0,0,0,0,0,0,0,0,0,0
1681115350.39927721,117028170,1000,1000,1000,1000,0,0,0,0,0,0,0,0,0,0
1681115350.50007010,117128963,1000,1000,1000,1000,0,0,0,0,0,0,0,0,0,0
1681115350.60003018,117228923,1000,1000,1000,1000,0,0,0,0,0,0,0,0,0,0
1681115350.69999003,117328883,1000,1000,1000,1000,0,0,0,0,0,0,0,0,0,0
1681115350.79995012,117428843,1000,1000,1000,1000,0,0,0,0,0,0,0,0,0,0
1681115350.89991021,117528803,1000,1000,1000,1000,0,0,0,0,0,0,0,0,0,0
1681115350.99987006,117628763,1000,1000,1000,1000,0,0,0,0,0,0,0,0,0,0
1681115351.09983015,117728723,1000,1000,1000,1000,0,0,0,0,0,0,0,0,0,0
1681115351.19979000,117828683,1000,1000,1000,1000,0,0,0,0,0,0,0,0,0,0
1681115351.29975009,117928643,1000,1000,1000,1000,0,0,0,0,0,0,0,0,0,0
1681115351.39971018,118028603,1000,1000,1000,1000,0,0,0,0,0,0,0,0,0,0
1681115351.49967003,118128563,1000,1000,1000,1000,0,0,0,0,0,0,0,0,0,0
1681115351.59963012,118228523,1000,1000,1000,1000,0,0,0,0,0,0,0,0,0,0
1681115351.69959021,118328483,1000,1000,1000,1000,0,0,0,0,0,0,0,0,0,0
1681115351.79955006,118428443,1000,1000,1000,1000,0,0,0,0,0,0,0,0,0,0
1681115351.89951015,118528403,1000,1000,1000,1000,0,0,0,0,0,0,0,0,0,0
1681115351.99947000,118628363,1000,1000,1000,1000,0,0,0,0,0,0,0,0,0,0
1681115352.09943008,118728323,1000,1000,1000,1000,0,0,0,0,0,0,0,0,0,0
1681115352.19939017,118828283,1000,1000,1000,1000,0,0,0,0,0,0,0,0,0,0
1681115352.29935002,118928243,1000,1000,1000,1000,0,0,0,0,0,0,0,0,0,0
1681115352.39931011,119028203,1000,1000,1000,1000,0,0,0,0,0,0,0,0,0,0
1681115352.49927020,119128163,1000,1000,1000,1000,0,0,0,0,0,0,0,0,0,0
1681115352.60006309,119228956,1000,1000,1000,1000,0,0,0,0,0,0,0,0,0,0
1681115352.70002317,119328916,1000,1000,1000,1000,0,0,0,0,0,0,0,0,0,0
1681115352.79998302,119428876,1000,1000,1000,1000,0,0,0,0,0,0,0,0,0,0
1681115352.89994311,119528836,1000,1000,1000,1000,0,0,0,0,0,0,0,0,0,0
1681115352.99990320,119628796,1000,1000,1000,1000,0,0,0,0,0,0,0,0,0,0
1681115353.09986305,119728756,1000,1000,1000,1000,0,0,0,0,0,0,0,0,0,0
1681115353.19982314,119828716,1000,1000,1000,1000,0,0,0,0,0,0,0,0,0,0
1681115353.29978299,119928676,1000,1000,1000,1000,0,0,0,0,0,0,0,0,0,0
1681115353.39974308,120028636,1000,1000,1000,1000,0,0,0,0,0,0,0,0,0,0
1681115353.49970317,120128596,1000,1000,1000,1000,0,0,0,0,0,0,0,0,0,0
1681115353.59966302,120228556,1000,1000,1000,1000,0,0,0,0,0,0,0,0,0,0
1681115353.69962311,120328516,1000,1000,1000,1000,0,0,0,0,0,0,0,0,0,0
1681115353.79958320,120428476,1000,1000,1000,1000,0,0,0,0,0,0,0,0,0,0
1681115353.89954305,120528436,1000,1000,1000,1000,0,0,0,0,0,0,0,0,0,0
1681115353.99950314,120628396,1000,1000,1000,1000,0,0,0,0,0,0,0,0,0,0
1681115354.09946299,120728356,1000,1000,1000,1000,0,0,0,0,0,0,0,0,0,0
1681115354.19942307,120828316,1000,1000,1000,1000,0,0,0,0,0,0,0,0,0,0
1681115354.29938316,120928276,1000,1000,1000,1000,0,0,0,0,0,0,0,0,0,0
1681115354.39934301,121028236,1000,1000,1000,1000,0,0,0,0,0,0,0,0,0,0
1681115354.49930310,121128196,1000,1000,1000,1000,0,0,0,0,0,0,0,0,0,0
1681115354.59926319,121228156,1000,1000,1000,1000,0,0,0,0,0,0,0,0,0,0
1681115354.70005608,121328949,1000,1000,1000,1000,0,0,0,0,0,0,0,0,0,0
1681115354.80001616,121428909,1000,1000,1000,1000,0,0,0,0,0,0,0,0,0,0
1681115354.89997602,121528869,1000,1000,1000,1000,0,0,0,0,0,0,0,0,0,0
1681115354.99993610,121628829,1000,1000,1000,1000,0,0,0,0,0,0,0,0,0,0
1681115355.09989619,121728789,1000,1000,1000,1000,0,0,0,0,0,0,0,0,0,0
1681115355.19985604,121828749,1000,1000,1000,1000,0,0,0,0,0,0,0,0,0,0
1681115355.29981613,121928709,1000,1000,1000,1000,0,0,0,0,0,0,0,0,0,0
1681115355.39977622,122028669,1000,1000,1000,1000,0,0,0,0,0,0,0,0,0,0
1681115355.49973607,122128629,1000,1000,1000,1000,0,0,0,0,0,0,0,0,0,0
1681115355.59969616,122228589,1000,1000,1000,1000,0,0,0,0,0,0,0,0,0,0
1681115355.69965601,122328549,1000,1000,1000,1000,0,0,0,0,0,0,0,0,0,0
1681115355.79961610,122428509,1000,1000,1000,1000,0,0,0,0,0,0,0,0,0,0
1681115355.89957619,122528469,1000,1000,1000,1000,0,0,0,0,0,0,0,0,0,0
1681115355.99953604,122628429,1000,1000,1000,1000,0,0,0,0,0,0,0,0,0,0
1681115356.09949613,122728389,1000,1000,1000,1000,0,0,0,0,0,0,0,0,0,0
1681115356.19945621,122828349,1000,1000,1000,1000,0,0,0,0,0,0,0,0,0,0
