timestamp,TimeUS,C1,C2,C3,C4,C5,C6,C7,C8,C9,C10,C11,C12,C13,C14
1681142917.20000005,114828217,1000,1000,1000,1000,0,0,0,0,0,0,0,0,0,0
1681142917.29996014,114928177,1000,1000,1000,1000,0,0,0,0,0,0,0,0,0,0
1681142917.40075302,115028970,1000,1000,1000,1000,0,0,0,0,0,0,0,0,0,0
1681142917.50071311,115128930,1000,1000,1000,1000,0,0,0,0,0,0,0,0,0,0
1681142917.60067296,115228890,1000,1000,1000,1000,0,0,0,0,0,0,0,0,0,0
1681142917.70063305,115328850,1000,1000,1000,1000,0,0,0,0,0,0,0,0,0,0
1681142917.80059290,115428810,1000,1000,1000,1000,0,0,0,0,0,0,0,0,0,0
1681142917.90055299,115528770,1000,1000,1000,1000,0,0,0,0,0,0,0,0,0,0
1681142918.00051308,115628730,1000,1000,1000,1000,0,0,0,0,0,0,0,0,0,0
1681142918.10047293,115728690,1000,1000,1000,1000,0,0,0,0,0,0,0,0,0,0
1681142918.20043302,115828650,1000,1000,1000,1000,0,0,0,0,0,0,0,0,0,0
1681142918.30039310,115928610,1000,1000,1000,1000,0,0,0,0,0,0,0,0,0,0
1681142918.40035295,116028570,1000,1000,1000,1000,0,0,0,0,0,0,0,0,0,0
1681142918.50031304,116128530,1000,1000,1000,1000,0,0,0,0,0,0,0,0,0,0
1681142918.60027313,116228490,1000,1000,1000,1000,0,0,0,0,0,0,0,0,0,0
1681142918.70023298,116328450,1000,1000,1000,1000,0,0,0,0,0,0,0,0,0,0
1681142918.80019307,116428410,1000,1000,1000,1000,0,0,0,0,0,0,0,0,0,0
1681142918.90015292,116528370,1000,1000,1000,1000,0,0,0,0,0,0,0,0,0,0
1681142919.00011301,116628330,1000,1000,1000,1000,0,0,0,0,0,0,0,0,0,0
1681142919.10007310,116728290,1000,1000,1000,1000,0,0,0,0,0,0,0,0,0,0
1681142919.20003295,116828250,1001,1001,1001,1001,0,0,0,0,0,0,0,0,0,0
1681142919.29999304,116928210,1031,1031,1031,1031,0,0,0,0,0,0,0,0,0,0
1681142919.39995313,117028170,1061,1061,1061,1061,0,0,0,0,0,0,0,0,0,0
1681142919.50074601,117128963,1091,1091,1091,1091,0,0,0,0,0,0,0,0,0,0
1681142919.60070610,117228923,1121,1121,1121,1121,0,0,0,0,0,0,0,0,0,0
1681142919.70066595,117328883,1165,1150,1150,1166,0,0,0,0,0,0,0,0,0,0
1681142919.80062604,117428843,1413,1400,1401,1414,0,0,0,0,0,0,0,0,0,0
1681142919.90058613,117528803,1590,1579,1579,1591,0,0,0,0,0,0,0,0,0,0
1681142920.00054598,117628763,1736,1725,1726,1736,0,0,0,0,0,0,0,0,0,0
1681142920.10050607,117728723,1863,1852,1853,1863,0,0,0,0,0,0,0,0,0,0
1681142920.20046592,117828683,1897,1887,1887,1897,0,0,0,0,0,0,0,0,0,0
1681142920.30042601,117928643,1810,1807,1807,1811,0,0,0,0,0,0,0,0,0,0
1681142920.40038610,118028603,1689,1691,1692,1690,0,0,0,0,0,0,0,0,0,0
1681142920.50034595,118128563,1634,1638,1639,1634,0,0,0,0,0,0,0,0,0,0
1681142920.60030603,118228523,1632,1636,1636,1632,0,0,0,0,0,0,0,0,0,0
1681142920.70026612,118328483,1641,1644,1644,1641,0,0,0,0,0,0,0,0,0,0
1681142920.80022597,118428443,1644,1645,1645,1644,0,0,0,0,0,0,0,0,0,0
1681142920.90018606,118528403,1639,1638,1638,1639,0,0,0,0,0,0,0,0,0,0
1681142921.00014591,118628363,1630,1629,1628,1630,0,0,0,0,0,0,0,0,0,0
1681142921.10010600,118728323,1624,1623,1622,1624,0,0,0,0,0,0,0,0,0,0
1681142921.20006609,118828283,1604,1605,1605,1604,0,0,0,0,0,0,0,0,0,0
1681142921.30002594,118928243,1581,1580,1579,1581,0,0,0,0,0,0,0,0,0,0
1681142921.39998603,119028203,1568,1567,1567,1568,0,0,0,0,0,0,0,0,0,0
1681142921.49994612,119128163,1558,1557,1557,1558,0,0,0,0,0,0,0,0,0,0
1681142921.60073900,119228956,1553,1552,1549,1556,0,0,0,0,0,0,0,0,0,0
1681142921.70069909,119328916,1549,1548,1542,1555,0,0,0,0,0,0,0,0,0,0
1681142921.80065894,119428876,1548,1548,1543,1552,0,0,0,0,0,0,0,0,0,0
1681142921.90061903,119528836,1548,1548,1545,1549,0,0,0,0,0,0,0,0,0,0
1681142922.00057912,119628796,1548,1548,1549,1547,0,0,0,0,0,0,0,0,0,0
1681142922.10053897,119728756,1549,1549,1552,1546,0,0,0,0,0,0,0,0,0,0
1681142922.20049906,119828716,1551,1552,1556,1548,0,0,0,0,0,0,0,0,0,0
1681142922.30045891,119928676,1551,1552,1556,1549,0,0,0,0,0,0,0,0,0,0
1681142922.40041900,120028636,1541,1542,1552,1533,0,0,0,0,0,0,0,0,0,0
1681142922.50037909,120128596,1541,1541,1546,1537,0,0,0,0,0,0,0,0,0,0
1681142922.60033894,120228556,1539,1539,1538,1542,0,0,0,0,0,0,0,0,0,0
1681142922.70029902,120328516,1540,1539,1533,1546,0,0,0,0,0,0,0,0,0,0
1681142922.80025911,120428476,1540,1539,1533,1547,0,0,0,0,0,0,0,0,0,0
1681142922.90021896,120528436,1541,1541,1535,1547,0,0,0,0,0,0,0,0,0,0
1681142923.00017905,120628396,1543,1543,1541,1546,0,0,0,0,0,0,0,0,0,0
1681142923.10013890,120728356,1547,1547,1548,1545,0,0,0,0,0,0,0,0,0,0
1681142923.20009899,120828316,1549,1550,1553,1546,0,0,0,0,0,0,0,0,0,0
1681142923.30005908,120928276,1553,1553,1556,1549,0,0,0,0,0,0,0,0,0,0
1681142923.40001893,121028236,1556,1557,1559,1553,0,0,0,0,0,0,0,0,0,0
1681142923.49997902,121128196,1558,1558,1559,1557,0,0,0,0,0,0,0,0,0,0
1681142923.59993911,121228156,1560,1559,1558,1560,0,0,0,0,0,0,0,0,0,0
1681142923.70073199,121328949,1558,1558,1561,1565,0,0,0,0,0,0,0,0,0,0
1681142923.80069208,121428909,1558,1558,1563,1567,0,0,0,0,0,0,0,0,0,0
1681142923.90065193,121528869,1559,1560,1565,1568,0,0,0,0,0,0,0,0,0,0
1681142924.00061202,121628829,1561,1562,1565,1566,0,0,0,0,0,0,0,0,0,0
1681142924.10057211,121728789,1563,1564,1566,1566,0,0,0,0,0,0,0,0,0,0
1681142924.20053196,121828749,1566,1566,1567,1565,0,0,0,0,0,0,0,0,0,0
1681142924.30049205,121928709,1568,1568,1568,1566,0,0,0,0,0,0,0,0,0,0
1681142924.40045214,122028669,1570,1570,1568,1567,0,0,0,0,0,0,0,0,0,0
1681142924.50041199,122128629,1571,1572,1568,1567,0,0,0,0,0,0,0,0,0,0
1681142924.60037208,122228589,1572,1573,1567,1568,0,0,0,0,0,0,0,0,0,0
1681142924.70033193,122328549,1573,1572,1567,1569,0,0,0,0,0,0,0,0,0,0
1681142924.80029202,122428509,1573,1573,1569,1569,0,0,0,0,0,0,0,0,0,0
1681142924.90025210,122528469,1573,1572,1569,1570,0,0,0,0,0,0,0,0,0,0
1681142925.00021195,122628429,1574,1573,1571,1571,0,0,0,0,0,0,0,0,0,0
1681142925.10017204,122728389,1575,1575,1574,1573,0,0,0,0,0,0,0,0,0,0
1681142925.20013213,122828349,1575,1575,1576,1574,0,0,0,0,0,0,0,0,0,0
1681142925.30009198,122928309,1574,1575,1576,1574,0,0,0,0,0,0,0,0,0,0
1681142925.40005207,123028269,1574,1575,1577,1575,0,0,0,0,0,0,0,0,0,0
1681142925.50001192,123128229,1576,1576,1577,1577,0,0,0,0,0,0,0,0,0,0
1681142925.59997201,123228189,1576,1576,1577,1577,0,0,0,0,0,0,0,0,0,0
1681142925.70076513,123328982,1576,1575,1577,1577,0,0,0,0,0,0,0,0,0,0
1681142925.80072498,123428942,1576,1577,1578,1578,0,0,0,0,0,0,0,0,0,0
1681142925.90068507,123528902,1576,1576,1577,1577,0,0,0,0,0,0,0,0,0,0
1681142926.00064492,123628862,1576,1577,1577,1577,0,0,0,0,0,0,0,0,0,0
1681142926.10060501,123728822,1577,1577,1577,1577,0,0,0,0,0,0,0,0,0,0
1681142926.20056510,123828782,1577,1576,1577,1576,0,0,0,0,0,0,0,0,0,0
1681142926.30052495,123928742,1578,1578,1578,1578,0,0,0,0,0,0,0,0,0,0
1681142926.40048504,124028702,1579,1579,1578,1578,0,0,0,0,0,0,0,0,0,0
1681142926.50044513,124128662,1577,1578,1577,1577,0,0,0,0,0,0,0,0,0,0
1681142926.60040498,124228622,1578,1579,1578,1578,0,0,0,0,0,0,0,0,0,0
1681142926.70036507,124328582,1579,1579,1578,1579,0,0,0,0,0,0,0,0,0,0
1681142926.80032492,124428542,1579,1579,1579,1579,0,0,0,0,0,0,0,0,0,0
1681142926.90028501,124528502,1578,1578,1578,1578,0,0,0,0,0,0,0,0,0,0
1681142927.00024509,124628462,1579,1579,1579,1579,0,0,0,0,0,0,0,0,0,0
1681142927.10020494,124728422,1579,1578,1579,1579,0,0,0,0,0,0,0,0,0,0
1681142927.20016503,124828382,1579,1579,1579,1579,0,0,0,0,0,0,0,0,0,0
1681142927.30012512,124928342,1577,1577,1577,1577,0,0,0,0,0,0,0,0,0,0
1681142927.40008497,125028302,1577,1578,1578,1578,0,0,0,0,0,0,0,0,0,0
1681142927.50004506,125128262,1578,1578,1578,1579,0,0,0,0,0,0,0,0,0,0
1681142927.60000491,125228222,1579,1579,1579,1580,0,0,0,0,0,0,0,0,0,0
1681142927.69996500,125328182,1578,1578,1579,1578,0,0,0,0,0,0,0,0,0,0
1681142927.80075812,125428975,1580,1579,1580,1579,0,0,0,0,0,0,0,0,0,0
1681142927.90071797,125528935,1579,1579,1579,1579,0,0,0,0,0,0,0,0,0,0
1681142928.00067806,125628895,1578,1579,1579,1578,0,0,0,0,0,0,0,0,0,0
1681142928.10063791,125728855,1580,1579,1580,1580,0,0,0,0,0,0,0,0,0,0
1681142928.20059800,125828815,1580,1580,1580,1580,0,0,0,0,0,0,0,0,0,0
1681142928.30055809,125928775,1580,1580,1580,1580,0,0,0,0,0,0,0,0,0,0
1681142928.40051794,126028735,1580,1580,1580,1580,0,0,0,0,0,0,0,0,0,0
1681142928.50047803,126128695,1580,1581,1580,1580,0,0,0,0,0,0,0,0,0,0
1681142928.60043812,126228655,1580,1580,1580,1580,0,0,0,0,0,0,0,0,0,0
1681142928.70039797,126328615,1581,1580,1580,1580,0,0,0,0,0,0,0,0,0,0
1681142928.80035806,126428575,1580,1580,1580,1580,0,0,0,0,0,0,0,0,0,0
1681142928.90031791,126528535,1580,1581,1581,1581,0,0,0,0,0,0,0,0,0,0
1681142929.00027800,126628495,1581,1581,1581,1581,0,0,0,0,0,0,0,0,0,0
1681142929.10023808,126728455,1581,1580,1581,1580,0,0,0,0,0,0,0,0,0,0
1681142929.20019794,126828415,1581,1581,1582,1581,0,0,0,0,0,0,0,0,0,0
1681142929.30015802,126928375,1581,1581,1581,1581,0,0,0,0,0,0,0,0,0,0
1681142929.40011811,127028335,1581,1581,1581,1581,0,0,0,0,0,0,0,0,0,0
1681142929.50007796,127128295,1580,1580,1580,1580,0,0,0,0,0,0,0,0,0,0
1681142929.60003805,127228255,1580,1580,1581,1580,0,0,0,0,0,0,0,0,0,0
1681142929.69999790,127328215,1580,1580,1580,1580,0,0,0,0,0,0,0,0,0,0
1681142929.79995799,127428175,1581,1581,1581,1581,0,0,0,0,0,0,0,0,0,0
1681142929.90075111,127528968,1581,1581,1581,1580,0,0,0,0,0,0,0,0,0,0
1681142930.00071096,127628928,1580,1582,1588,1573,0,0,0,0,0,0,0,0,0,0
1681142930.10067105,127728888,1580,1582,1584,1572,0,0,0,0,0,0,0,0,0,0
1681142930.20063090,127828848,1579,1582,1576,1573,0,0,0,0,0,0,0,0,0,0
1681142930.30059099,127928808,1577,1580,1567,1571,0,0,0,0,0,0,0,0,0,0
1681142930.40055108,128028768,1576,1578,1559,1566,0,0,0,0,0,0,0,0,0,0
1681142930.50051093,128128728,1577,1578,1555,1562,0,0,0,0,0,0,0,0,0,0
1681142930.60047102,128228688,1578,1578,1553,1557,0,0,0,0,0,0,0,0,0,0
1681142930.70043111,128328648,1580,1578,1554,1554,0,0,0,0,0,0,0,0,0,0
1681142930.80039096,128428608,1580,1579,1555,1553,0,0,0,0,0,0,0,0,0,0
1681142930.90035105,128528568,1579,1578,1555,1553,0,0,0,0,0,0,0,0,0,0
1681142931.00031114,128628528,1578,1578,1555,1553,0,0,0,0,0,0,0,0,0,0
1681142931.10027099,128728488,1577,1578,1555,1554,0,0,0,0,0,0,0,0,0,0
1681142931.20023108,128828448,1576,1578,1554,1553,0,0,0,0,0,0,0,0,0,0
1681142931.30019093,128928408,1576,1578,1553,1553,0,0,0,0,0,0,0,0,0,0
1681142931.40015101,129028368,1576,1578,1551,1551,0,0,0,0,0,0,0,0,0,0
1681142931.50011110,129128328,1578,1580,1550,1550,0,0,0,0,0,0,0,0,0,0
1681142931.60007095,129228288,1580,1581,1547,1547,0,0,0,0,0,0,0,0,0,0
1681142931.70003104,129328248,1583,1583,1544,1545,0,0,0,0,0,0,0,0,0,0
1681142931.79999113,129428208,1585,1586,1542,1541,0,0,0,0,0,0,0,0,0,0
1681142931.89995098,129528168,1589,1589,1539,1540,0,0,0,0,0,0,0,0,0,0
1681142932.00074410,129628961,1592,1593,1538,1538,0,0,0,0,0,0,0,0,0,0
1681142932.10070395,129728921,1593,1593,1535,1536,0,0,0,0,0,0,0,0,0,0
1681142932.20066404,129828881,1595,1595,1536,1536,0,0,0,0,0,0,0,0,0,0
1681142932.30062413,129928841,1595,1595,1536,1538,0,0,0,0,0,0,0,0,0,0
1681142932.40058398,130028801,1594,1594,1538,1541,0,0,0,0,0,0,0,0,0,0
1681142932.50054407,130128761,1592,1591,1542,1545,0,0,0,0,0,0,0,0,0,0
1681142932.60050392,130228721,1586,1583,1548,1551,0,0,0,0,0,0,0,0,0,0
1681142932.70046401,130328681,1580,1575,1559,1561,0,0,0,0,0,0,0,0,0,0
1681142932.80042410,130428641,1570,1566,1570,1572,0,0,0,0,0,0,0,0,0,0
1681142932.90038395,130528601,1558,1554,1582,1584,0,0,0,0,0,0,0,0,0,0
1681142933.00034404,130628561,1548,1546,1595,1596,0,0,0,0,0,0,0,0,0,0
1681142933.10030413,130728521,1538,1536,1605,1604,0,0,0,0,0,0,0,0,0,0
1681142933.20026398,130828481,1530,1531,1611,1610,0,0,0,0,0,0,0,0,0,0
1681142933.30022407,130928441,1528,1529,1614,1613,0,0,0,0,0,0,0,0,0,0
1681142933.40018392,131028401,1529,1531,1614,1613,0,0,0,0,0,0,0,0,0,0
1681142933.50014400,131128361,1534,1535,1610,1610,0,0,0,0,0,0,0,0,0,0
1681142933.60010409,131228321,1542,1543,1606,1606,0,0,0,0,0,0,0,0,0,0
1681142933.70006394,131328281,1550,1551,1599,1599,0,0,0,0,0,0,0,0,0,0
1681142933.80002403,131428241,1560,1561,1592,1592,0,0,0,0,0,0,0,0,0,0
1681142933.89998412,131528201,1568,1569,1585,1584,0,0,0,0,0,0,0,0,0,0
1681142933.99994397,131628161,1575,1575,1578,1577,0,0,0,0,0,0,0,0,0,0
1681142934.10073709,131728954,1581,1580,1572,1571,0,0,0,0,0,0,0,0,0,0
1681142934.20069695,131828914,1584,1583,1567,1567,0,0,0,0,0,0,0,0,0,0
1681142934.30065703,131928874,1587,1585,1565,1566,0,0,0,0,0,0,0,0,0,0
1681142934.40061712,132028834,1587,1586,1565,1566,0,0,0,0,0,0,0,0,0,0
1681142934.50057697,132128794,1587,1586,1567,1567,0,0,0,0,0,0,0,0,0,0
1681142934.60053706,132228754,1585,1584,1570,1570,0,0,0,0,0,0,0,0,0,0
1681142934.70049691,132328714,1582,1581,1573,1572,0,0,0,0,0,0,0,0,0,0
1681142934.80045700,132428674,1579,1579,1575,1575,0,0,0,0,0,0,0,0,0,0
1681142934.90041709,132528634,1576,1576,1578,1578,0,0,0,0,0,0,0,0,0,0
1681142935.00037694,132628594,1573,1574,1580,1580,0,0,0,0,0,0,0,0,0,0
1681142935.10033703,132728554,1572,1572,1582,1581,0,0,0,0,0,0,0,0,0,0
1681142935.20029712,132828514,1572,1573,1584,1583,0,0,0,0,0,0,0,0,0,0
1681142935.30025697,132928474,1571,1572,1583,1583,0,0,0,0,0,0,0,0,0,0
1681142935.40021706,133028434,1573,1573,1583,1583,0,0,0,0,0,0,0,0,0,0
1681142935.50017691,133128394,1574,1574,1582,1582,0,0,0,0,0,0,0,0,0,0
1681142935.60013700,133228354,1575,1575,1582,1582,0,0,0,0,0,0,0,0,0,0
1681142935.70009708,133328314,1577,1577,1581,1581,0,0,0,0,0,0,0,0,0,0
1681142935.80005693,133428274,1578,1578,1580,1580,0,0,0,0,0,0,0,0,0,0
1681142935.90001702,133528234,1580,1580,1579,1579,0,0,0,0,0,0,0,0,0,0
1681142935.99997711,133628194,1581,1581,1578,1578,0,0,0,0,0,0,0,0,0,0
1681142936.09993696,133728154,1582,1581,1577,1577,0,0,0,0,0,0,0,0,0,0
1681142936.20073009,133828947,1583,1582,1578,1578,0,0,0,0,0,0,0,0,0,0
1681142936.30068994,133928907,1582,1581,1578,1577,0,0,0,0,0,0,0,0,0,0
1681142936.40065002,134028867,1582,1582,1578,1578,0,0,0,0,0,0,0,0,0,0
1681142936.50061011,134128827,1581,1582,1579,1579,0,0,0,0,0,0,0,0,0,0
1681142936.60056996,134228787,1581,1581,1579,1579,0,0,0,0,0,0,0,0,0,0
1681142936.70053005,134328747,1581,1581,1580,1580,0,0,0,0,0,0,0,0,0,0
1681142936.80048990,134428707,1580,1581,1581,1580,0,0,0,0,0,0,0,0,0,0
1681142936.90044999,134528667,1596,1596,1375,1518,0,0,0,0,0,0,0,0,0,0
1681142937.00041008,134628627,1631,1633,1494,1510,0,0,0,0,0,0,0,0,0,0
1681142937.10036993,134728587,1666,1672,1602,1543,0,0,0,0,0,0,0,0,0,0
1681142937.20033002,134828547,1645,1659,1650,1545,0,0,0,0,0,0,0,0,0,0
1681142937.30029011,134928507,1623,1644,1650,1573,0,0,0,0,0,0,0,0,0,0
1681142937.40024996,135028467,1629,1649,1650,1605,0,0,0,0,0,0,0,0,0,0
1681142937.50021005,135128427,1626,1638,1650,1631,0,0,0,0,0,0,0,0,0,0
1681142937.60017014,135228387,1609,1608,1650,1656,0,0,0,0,0,0,0,0,0,0
1681142937.70012999,135328347,1575,1570,1650,1676,0,0,0,0,0,0,0,0,0,0
1681142937.80009007,135428307,1548,1526,1650,1681,0,0,0,0,0,0,0,0,0,0
1681142937.90004992,135528267,1531,1497,1650,1669,0,0,0,0,0,0,0,0,0,0
1681142938.00001001,135628227,1542,1515,1650,1657,0,0,0,0,0,0,0,0,0,0
1681142938.09997010,135728187,1583,1566,1650,1657,0,0,0,0,0,0,0,0,0,0
1681142938.20076299,135828980,1625,1623,1650,1656,0,0,0,0,0,0,0,0,0,0
1681142938.30072308,135928940,1645,1655,1641,1643,0,0,0,0,0,0,0,0,0,0
1681142938.40068293,136028900,1621,1640,1602,1598,0,0,0,0,0,0,0,0,0,0
1681142938.50064301,136128860,1608,1629,1573,1572,0,0,0,0,0,0,0,0,0,0
1681142938.60060310,136228820,1599,1614,1551,1554,0,0,0,0,0,0,0,0,0,0
1681142938.70056295,136328780,1591,1597,1534,1541,0,0,0,0,0,0,0,0,0,0
1681142938.80052304,136428740,1585,1584,1524,1531,0,0,0,0,0,0,0,0,0,0
1681142938.90048313,136528700,1578,1573,1517,1522,0,0,0,0,0,0,0,0,0,0
1681142939.00044298,136628660,1574,1569,1514,1516,0,0,0,0,0,0,0,0,0,0
1681142939.10040307,136728620,1572,1569,1514,1513,0,0,0,0,0,0,0,0,0,0
1681142939.20036292,136828580,1570,1569,1514,1512,0,0,0,0,0,0,0,0,0,0
1681142939.30032301,136928540,1568,1571,1515,1513,0,0,0,0,0,0,0,0,0,0
1681142939.40028310,137028500,1570,1572,1517,1516,0,0,0,0,0,0,0,0,0,0
1681142939.50024295,137128460,1570,1572,1519,1519,0,0,0,0,0,0,0,0,0,0
1681142939.60020304,137228420,1572,1573,1522,1523,0,0,0,0,0,0,0,0,0,0
1681142939.70016313,137328380,1574,1573,1526,1527,0,0,0,0,0,0,0,0,0,0
1681142939.80012298,137428340,1576,1575,1531,1532,0,0,0,0,0,0,0,0,0,0
1681142939.90008307,137528300,1578,1576,1536,1537,0,0,0,0,0,0,0,0,0,0
1681142940.00004292,137628260,1578,1576,1541,1541,0,0,0,0,0,0,0,0,0,0
1681142940.10000300,137728220,1577,1575,1547,1548,0,0,0,0,0,0,0,0,0,0
1681142940.19996309,137828180,1575,1573,1553,1553,0,0,0,0,0,0,0,0,0,0
1681142940.30075598,137928973,1573,1573,1560,1560,0,0,0,0,0,0,0,0,0,0
1681142940.40071607,138028933,1570,1570,1565,1565,0,0,0,0,0,0,0,0,0,0
1681142940.50067592,138128893,1568,1567,1570,1572,0,0,0,0,0,0,0,0,0,0
1681142940.60063601,138228853,1564,1563,1575,1576,0,0,0,0,0,0,0,0,0,0
1681142940.70059609,138328813,1561,1559,1581,1581,0,0,0,0,0,0,0,0,0,0
1681142940.80055594,138428773,1558,1556,1586,1585,0,0,0,0,0,0,0,0,0,0
1681142940.90051603,138528733,1555,1553,1589,1589,0,0,0,0,0,0,0,0,0,0
1681142941.00047612,138628693,1553,1552,1593,1592,0,0,0,0,0,0,0,0,0,0
1681142941.10043597,138728653,1551,1551,1594,1593,0,0,0,0,0,0,0,0,0,0
1681142941.20039606,138828613,1551,1551,1595,1594,0,0,0,0,0,0,0,0,0,0
1681142941.30035591,138928573,1551,1551,1595,1594,0,0,0,0,0,0,0,0,0,0
1681142941.40031600,139028533,1553,1553,1594,1594,0,0,0,0,0,0,0,0,0,0
1681142941.50027609,139128493,1554,1555,1593,1593,0,0,0,0,0,0,0,0,0,0
1681142941.60023594,139228453,1557,1558,1592,1593,0,0,0,0,0,0,0,0,0,0
1681142941.70019603,139328413,1558,1558,1589,1590,0,0,0,0,0,0,0,0,0,0
1681142941.80015612,139428373,1561,1561,1587,1587,0,0,0,0,0,0,0,0,0,0
1681142941.90011597,139528333,1563,1564,1585,1585,0,0,0,0,0,0,0,0,0,0
1681142942.00007606,139628293,1567,1568,1584,1584,0,0,0,0,0,0,0,0,0,0
1681142942.10003591,139728253,1568,1568,1581,1580,0,0,0,0,0,0,0,0,0,0
1681142942.19999599,139828213,1572,1573,1580,1580,0,0,0,0,0,0,0,0,0,0
1681142942.29995608,139928173,1573,1573,1577,1577,0,0,0,0,0,0,0,0,0,0
1681142942.40074897,140028966,1575,1575,1575,1576,0,0,0,0,0,0,0,0,0,0
1681142942.50070906,140128926,1577,1576,1574,1574,0,0,0,0,0,0,0,0,0,0
1681142942.60066891,140228886,1579,1578,1573,1574,0,0,0,0,0,0,0,0,0,0
1681142942.70062900,140328846,1579,1579,1573,1573,0,0,0,0,0,0,0,0,0,0
1681142942.80058908,140428806,1580,1580,1572,1572,0,0,0,0,0,0,0,0,0,0
1681142942.90054893,140528766,1581,1580,1573,1572,0,0,0,0,0,0,0,0,0,0
1681142943.00050902,140628726,1581,1581,1573,1573,0,0,0,0,0,0,0,0,0,0
1681142943.10046911,140728686,1580,1581,1573,1573,0,0,0,0,0,0,0,0,0,0
1681142943.20042896,140828646,1580,1580,1574,1574,0,0,0,0,0,0,0,0,0,0
1681142943.30038905,140928606,1581,1580,1575,1575,0,0,0,0,0,0,0,0,0,0
1681142943.40034890,141028566,1580,1579,1576,1575,0,0,0,0,0,0,0,0,0,0
1681142943.50030899,141128526,1579,1579,1577,1577,0,0,0,0,0,0,0,0,0,0
1681142943.60026908,141228486,1579,1580,1579,1578,0,0,0,0,0,0,0,0,0,0
1681142943.70022893,141328446,1578,1579,1580,1579,0,0,0,0,0,0,0,0,0,0
1681142943.80018902,141428406,1578,1578,1580,1579,0,0,0,0,0,0,0,0,0,0
1681142943.90014911,141528366,1578,1578,1580,1580,0,0,0,0,0,0,0,0,0,0
1681142944.00010896,141628326,1579,1579,1582,1582,0,0,0,0,0,0,0,0,0,0
1681142944.10006905,141728286,1579,1579,1582,1582,0,0,0,0,0,0,0,0,0,0
1681142944.20002913,141828246,1578,1578,1582,1581,0,0,0,0,0,0,0,0,0,0
1681142944.29998899,141928206,1579,1579,1582,1582,0,0,0,0,0,0,0,0,0,0
1681142944.39994907,142028166,1579,1580,1582,1582,0,0,0,0,0,0,0,0,0,0
1681142944.50074196,142128959,1579,1580,1581,1582,0,0,0,0,0,0,0,0,0,0
1681142944.60070205,142228919,1579,1579,1580,1581,0,0,0,0,0,0,0,0,0,0
1681142944.70066214,142328879,1580,1580,1581,1581,0,0,0,0,0,0,0,0,0,0
1681142944.80062199,142428839,1580,1580,1581,1581,0,0,0,0,0,0,0,0,0,0
1681142944.90058208,142528799,1580,1580,1580,1579,0,0,0,0,0,0,0,0,0,0
1681142945.00054193,142628759,1581,1580,1580,1580,0,0,0,0,0,0,0,0,0,0
1681142945.10050201,142728719,1581,1581,1580,1580,0,0,0,0,0,0,0,0,0,0
1681142945.20046210,142828679,1582,1581,1580,1581,0,0,0,0,0,0,0,0,0,0
1681142945.30042195,142928639,1581,1581,1580,1580,0,0,0,0,0,0,0,0,0,0
1681142945.40038204,143028599,1581,1581,1580,1580,0,0,0,0,0,0,0,0,0,0
1681142945.50034213,143128559,1581,1581,1580,1580,0,0,0,0,0,0,0,0,0,0
1681142945.60030198,143228519,1581,1581,1580,1580,0,0,0,0,0,0,0,0,0,0
1681142945.70026207,143328479,1582,1582,1582,1582,0,0,0,0,0,0,0,0,0,0
1681142945.80022192,143428439,1583,1583,1582,1582,0,0,0,0,0,0,0,0,0,0
1681142945.90018201,143528399,1582,1582,1582,1582,0,0,0,0,0,0,0,0,0,0
1681142946.00014210,143628359,1581,1582,1582,1581,0,0,0,0,0,0,0,0,0,0
1681142946.10010195,143728319,1583,1582,1582,1583,0,0,0,0,0,0,0,0,0,0
1681142946.20006204,143828279,1581,1583,1587,1575,0,0,0,0,0,0,0,0,0,0
1681142946.30002213,143928239,1580,1584,1586,1574,0,0,0,0,0,0,0,0,0,0
1681142946.39998198,144028199,1578,1582,1579,1574,0,0,0,0,0,0,0,0,0,0
1681142946.49994206,144128159,1576,1580,1572,1573,0,0,0,0,0,0,0,0,0,0
1681142946.60073495,144228952,1576,1578,1565,1570,0,0,0,0,0,0,0,0,0,0
1681142946.70069504,144328912,1577,1577,1559,1566,0,0,0,0,0,0,0,0,0,0
1681142946.80065513,144428872,1579,1577,1555,1561,0,0,0,0,0,0,0,0,0,0
1681142946.90061498,144528832,1581,1578,1554,1558,0,0,0,0,0,0,0,0,0,0
1681142947.00057507,144628792,1581,1579,1554,1555,0,0,0,0,0,0,0,0,0,0
1681142947.10053492,144728752,1581,1580,1555,1553,0,0,0,0,0,0,0,0,0,0
1681142947.20049500,144828712,1579,1580,1555,1552,0,0,0,0,0,0,0,0,0,0
1681142947.30045509,144928672,1579,1581,1555,1554,0,0,0,0,0,0,0,0,0,0
1681142947.40041494,145028632,1578,1580,1555,1553,0,0,0,0,0,0,0,0,0,0
1681142947.50037503,145128592,1578,1580,1554,1554,0,0,0,0,0,0,0,0,0,0
1681142947.60033512,145228552,1578,1579,1554,1553,0,0,0,0,0,0,0,0,0,0
1681142947.70029497,145328512,1578,1579,1552,1552,0,0,0,0,0,0,0,0,0,0
1681142947.80025506,145428472,1579,1581,1551,1551,0,0,0,0,0,0,0,0,0,0
1681142947.90021491,145528432,1582,1582,1549,1549,0,0,0,0,0,0,0,0,0,0
1681142948.00017500,145628392,1583,1584,1547,1546,0,0,0,0,0,0,0,0,0,0
1681142948.10013509,145728352,1585,1586,1544,1544,0,0,0,0,0,0,0,0,0,0
1681142948.20009494,145828312,1588,1589,1542,1542,0,0,0,0,0,0,0,0,0,0
1681142948.30005503,145928272,1591,1591,1540,1540,0,0,0,0,0,0,0,0,0,0
1681142948.40001512,146028232,1593,1594,1538,1539,0,0,0,0,0,0,0,0,0,0
1681142948.49997497,146128192,1595,1596,1537,1539,0,0,0,0,0,0,0,0,0,0
1681142948.60076809,146228985,1596,1596,1536,1539,0,0,0,0,0,0,0,0,0,0
1681142948.70072794,146328945,1595,1593,1539,1542,0,0,0,0,0,0,0,0,0,0
1681142948.80068803,146428905,1592,1589,1544,1547,0,0,0,0,0,0,0,0,0,0
1681142948.90064812,146528865,1586,1582,1552,1555,0,0,0,0,0,0,0,0,0,0
1681142949.00060797,146628825,1578,1575,1562,1566,0,0,0,0,0,0,0,0,0,0
1681142949.10056806,146728785,1568,1564,1574,1576,0,0,0,0,0,0,0,0,0,0
1681142949.20052791,146828745,1557,1555,1587,1587,0,0,0,0,0,0,0,0,0,0
1681142949.30048800,146928705,1548,1547,1599,1598,0,0,0,0,0,0,0,0,0,0
1681142949.40044808,147028665,1542,1543,1608,1605,0,0,0,0,0,0,0,0,0,0
1681142949.50040793,147128625,1540,1541,1613,1609,0,0,0,0,0,0,0,0,0,0
1681142949.60036802,147228585,1540,1541,1614,1610,0,0,0,0,0,0,0,0,0,0
1681142949.70032811,147328545,1542,1544,1613,1611,0,0,0,0,0,0,0,0,0,0
1681142949.80028796,147428505,1546,1547,1611,1609,0,0,0,0,0,0,0,0,0,0
1681142949.90024805,147528465,1549,1550,1606,1606,0,0,0,0,0,0,0,0,0,0
1681142950.00020790,147628425,1554,1554,1602,1602,0,0,0,0,0,0,0,0,0,0
1681142950.10016799,147728385,1558,1558,1596,1596,0,0,0,0,0,0,0,0,0,0
1681142950.20012808,147828345,1562,1562,1590,1591,0,0,0,0,0,0,0,0,0,0
1681142950.30008793,147928305,1568,1567,1586,1587,0,0,0,0,0,0,0,0,0,0
1681142950.40004802,148028265,1572,1572,1580,1581,0,0,0,0,0,0,0,0,0,0
1681142950.50000811,148128225,1577,1576,1575,1576,0,0,0,0,0,0,0,0,0,0
1681142950.59996796,148228185,1580,1580,1570,1571,0,0,0,0,0,0,0,0,0,0
1681142950.70076108,148328978,1584,1583,1567,1567,0,0,0,0,0,0,0,0,0,0
1681142950.80072093,148428938,1586,1585,1565,1565,0,0,0,0,0,0,0,0,0,0
1681142950.90068102,148528898,1586,1585,1564,1565,0,0,0,0,0,0,0,0,0,0
1681142951.00064111,148628858,1585,1584,1566,1566,0,0,0,0,0,0,0,0,0,0
1681142951.10060096,148728818,1584,1583,1568,1569,0,0,0,0,0,0,0,0,0,0
1681142951.20056105,148828778,1582,1581,1571,1571,0,0,0,0,0,0,0,0,0,0
1681142951.30052114,148928738,1578,1578,1573,1573,0,0,0,0,0,0,0,0,0,0
1681142951.40048099,149028698,1576,1577,1576,1576,0,0,0,0,0,0,0,0,0,0
1681142951.50044107,149128658,1575,1575,1580,1579,0,0,0,0,0,0,0,0,0,0
1681142951.60040092,149228618,1573,1575,1582,1581,0,0,0,0,0,0,0,0,0,0
1681142951.70036101,149328578,1574,1574,1584,1583,0,0,0,0,0,0,0,0,0,0
1681142951.80032110,149428538,1573,1574,1585,1584,0,0,0,0,0,0,0,0,0,0
1681142951.90028095,149528498,1573,1573,1584,1584,0,0,0,0,0,0,0,0,0,0
1681142952.00024104,149628458,1574,1574,1584,1583,0,0,0,0,0,0,0,0,0,0
1681142952.10020113,149728418,1575,1575,1583,1583,0,0,0,0,0,0,0,0,0,0
1681142952.20016098,149828378,1575,1576,1581,1582,0,0,0,0,0,0,0,0,0,0
1681142952.30012107,149928338,1577,1577,1580,1581,0,0,0,0,0,0,0,0,0,0
1681142952.40008092,150028298,1578,1579,1580,1580,0,0,0,0,0,0,0,0,0,0
1681142952.50004101,150128258,1580,1580,1579,1579,0,0,0,0,0,0,0,0,0,0
1681142952.60000110,150228218,1580,1580,1578,1578,0,0,0,0,0,0,0,0,0,0
1681142952.69996095,150328178,1581,1581,1577,1577,0,0,0,0,0,0,0,0,0,0
1681142952.80075407,150428971,1582,1581,1577,1577,0,0,0,0,0,0,0,0,0,0
1681142952.90071392,150528931,1581,1581,1577,1577,0,0,0,0,0,0,0,0,0,0
1681142953.00067401,150628891,1582,1581,1578,1577,0,0,0,0,0,0,0,0,0,0
1681142953.10063410,150728851,1582,1581,1578,1578,0,0,0,0,0,0,0,0,0,0
1681142953.20059395,150828811,1580,1581,1578,1578,0,0,0,0,0,0,0,0,0,0
1681142953.30055404,150928771,1580,1580,1579,1579,0,0,0,0,0,0,0,0,0,0
1681142953.40051413,151028731,1580,1580,1580,1580,0,0,0,0,0,0,0,0,0,0
1681142953.50047398,151128691,1579,1579,1580,1580,0,0,0,0,0,0,0,0,0,0
1681142953.60043406,151228651,1580,1580,1581,1581,0,0,0,0,0,0,0,0,0,0
1681142953.70039392,151328611,1580,1580,1581,1581,0,0,0,0,0,0,0,0,0,0
1681142953.80035400,151428571,1579,1579,1581,1581,0,0,0,0,0,0,0,0,0,0
1681142953.90031409,151528531,1580,1580,1582,1582,0,0,0,0,0,0,0,0,0,0
1681142954.00027394,151628491,1580,1580,1582,1581,0,0,0,0,0,0,0,0,0,0
1681142954.10023403,151728451,1580,1581,1587,1573,0,0,0,0,0,0,0,0,0,0
1681142954.20019412,151828411,1580,1581,1585,1573,0,0,0,0,0,0,0,0,0,0
1681142954.30015397,151928371,1577,1578,1579,1575,0,0,0,0,0,0,0,0,0,0
1681142954.40011406,152028331,1573,1573,1573,1575,0,0,0,0,0,0,0,0,0,0
1681142954.50007391,152128291,1571,1571,1569,1576,0,0,0,0,0,0,0,0,0,0
1681142954.60003400,152228251,1568,1567,1565,1572,0,0,0,0,0,0,0,0,0,0
1681142954.69999409,152328211,1566,1565,1563,1569,0,0,0,0,0,0,0,0,0,0
1681142954.79995394,152428171,1566,1565,1564,1566,0,0,0,0,0,0,0,0,0,0
1681142954.90074706,152528964,1566,1566,1565,1565,0,0,0,0,0,0,0,0,0,0
1681142955.00070691,152628924,1565,1566,1565,1563,0,0,0,0,0,0,0,0,0,0
1681142955.10066700,152728884,1565,1565,1565,1563,0,0,0,0,0,0,0,0,0,0
1681142955.20062709,152828844,1565,1565,1565,1563,0,0,0,0,0,0,0,0,0,0
1681142955.30058694,152928804,1564,1565,1564,1563,0,0,0,0,0,0,0,0,0,0
1681142955.40054703,153028764,1563,1563,1563,1562,0,0,0,0,0,0,0,0,0,0
1681142955.50050712,153128724,1563,1563,1563,1563,0,0,0,0,0,0,0,0,0,0
1681142955.60046697,153228684,1563,1562,1563,1563,0,0,0,0,0,0,0,0,0,0
1681142955.70042706,153328644,1562,1562,1562,1563,0,0,0,0,0,0,0,0,0,0
1681142955.80038691,153428604,1561,1561,1562,1561,0,0,0,0,0,0,0,0,0,0
1681142955.90034699,153528564,1560,1560,1561,1561,0,0,0,0,0,0,0,0,0,0
1681142956.00030708,153628524,1560,1559,1561,1560,0,0,0,0,0,0,0,0,0,0
1681142956.10026693,153728484,1558,1559,1560,1559,0,0,0,0,0,0,0,0,0,0
1681142956.20022702,153828444,1558,1559,1559,1558,0,0,0,0,0,0,0,0,0,0
1681142956.30018711,153928404,1559,1559,1560,1558,0,0,0,0,0,0,0,0,0,0
1681142956.40014696,154028364,1558,1558,1559,1558,0,0,0,0,0,0,0,0,0,0
1681142956.50010705,154128324,1559,1559,1559,1559,0,0,0,0,0,0,0,0,0,0
1681142956.60006690,154228284,1559,1558,1559,1557,0,0,0,0,0,0,0,0,0,0
1681142956.70002699,154328244,1559,1558,1559,1557,0,0,0,0,0,0,0,0,0,0
1681142956.79998708,154428204,1559,1559,1560,1557,0,0,0,0,0,0,0,0,0,0
1681142956.89994693,154528164,1559,1559,1558,1560,0,0,0,0,0,0,0,0,0,0
1681142957.00074005,154628957,1560,1560,1557,1562,0,0,0,0,0,0,0,0,0,0
1681142957.10069990,154728917,1560,1560,1557,1564,0,0,0,0,0,0,0,0,0,0
1681142957.20065999,154828877,1561,1561,1558,1564,0,0,0,0,0,0,0,0,0,0
1681142957.30062008,154928837,1562,1562,1559,1563,0,0,0,0,0,0,0,0,0,0
1681142957.40057993,155028797,1562,1562,1561,1561,0,0,0,0,0,0,0,0,0,0
1681142957.50054002,155128757,1562,1561,1562,1559,0,0,0,0,0,0,0,0,0,0
1681142957.60050011,155228717,1558,1558,1559,1558,0,0,0,0,0,0,0,0,0,0
1681142957.70045996,155328677,1555,1554,1555,1556,0,0,0,0,0,0,0,0,0,0
1681142957.80042005,155428637,1549,1550,1551,1551,0,0,0,0,0,0,0,0,0,0
1681142957.90038013,155528597,1543,1543,1545,1546,0,0,0,0,0,0,0,0,0,0
1681142958.00033998,155628557,1537,1537,1540,1539,0,0,0,0,0,0,0,0,0,0
1681142958.10030007,155728517,1528,1529,1532,1532,0,0,0,0,0,0,0,0,0,0
1681142958.20025992,155828477,1521,1521,1525,1525,0,0,0,0,0,0,0,0,0,0
1681142958.30022001,155928437,1519,1519,1520,1522,0,0,0,0,0,0,0,0,0,0
1681142958.40018010,156028397,1519,1519,1519,1521,0,0,0,0,0,0,0,0,0,0
1681142958.50013995,156128357,1520,1520,1518,1520,0,0,0,0,0,0,0,0,0,0
1681142958.60010004,156228317,1524,1524,1521,1522,0,0,0,0,0,0,0,0,0,0
1681142958.70006013,156328277,1528,1529,1524,1525,0,0,0,0,0,0,0,0,0,0
1681142958.80001998,156428237,1533,1533,1528,1528,0,0,0,0,0,0,0,0,0,0
1681142958.89998007,156528197,1538,1538,1533,1533,0,0,0,0,0,0,0,0,0,0
1681142958.99993992,156628157,1541,1541,1537,1536,0,0,0,0,0,0,0,0,0,0
1681142959.10073304,156728950,1542,1542,1539,1538,0,0,0,0,0,0,0,0,0,0
1681142959.20069313,156828910,1544,1543,1542,1540,0,0,0,0,0,0,0,0,0,0
1681142959.30065298,156928870,1545,1545,1545,1543,0,0,0,0,0,0,0,0,0,0
1681142959.40061307,157028830,1544,1544,1545,1544,0,0,0,0,0,0,0,0,0,0
1681142959.50057292,157128790,1544,1545,1547,1546,0,0,0,0,0,0,0,0,0,0
1681142959.60053301,157228750,1545,1545,1548,1547,0,0,0,0,0,0,0,0,0,0
1681142959.70049310,157328710,1545,1545,1547,1548,0,0,0,0,0,0,0,0,0,0
1681142959.80045295,157428670,1543,1543,1547,1547,0,0,0,0,0,0,0,0,0,0
1681142959.90041304,157528630,1544,1544,1547,1548,0,0,0,0,0,0,0,0,0,0
1681142960.00037313,157628590,1544,1544,1547,1547,0,0,0,0,0,0,0,0,0,0
1681142960.10033298,157728550,1544,1544,1546,1546,0,0,0,0,0,0,0,0,0,0
1681142960.20029306,157828510,1544,1544,1546,1545,0,0,0,0,0,0,0,0,0,0
1681142960.30025291,157928470,1545,1545,1545,1545,0,0,0,0,0,0,0,0,0,0
1681142960.40021300,158028430,1544,1544,1544,1544,0,0,0,0,0,0,0,0,0,0
1681142960.50017309,158128390,1546,1545,1544,1544,0,0,0,0,0,0,0,0,0,0
1681142960.60013294,158228350,1545,1545,1544,1544,0,0,0,0,0,0,0,0,0,0
1681142960.70009303,158328310,1545,1545,1544,1544,0,0,0,0,0,0,0,0,0,0
1681142960.80005312,158428270,1545,1545,1544,1544,0,0,0,0,0,0,0,0,0,0
1681142960.90001297,158528230,1545,1545,1544,1544,0,0,0,0,0,0,0,0,0,0
1681142960.99997306,158628190,1544,1545,1543,1543,0,0,0,0,0,0,0,0,0,0
1681142961.10076594,158728983,1545,1544,1544,1544,0,0,0,0,0,0,0,0,0,0
1681142961.20072603,158828943,1544,1544,1544,1544,0,0,0,0,0,0,0,0,0,0
1681142961.30068612,158928903,1544,1544,1544,1544,0,0,0,0,0,0,0,0,0,0
1681142961.40064597,159028863,1544,1544,1544,1544,0,0,0,0,0,0,0,0,0,0
1681142961.50060606,159128823,1545,1543,1544,1544,0,0,0,0,0,0,0,0,0,0
1681142961.60056591,159228783,1544,1544,1544,1544,0,0,0,0,0,0,0,0,0,0
1681142961.70052600,159328743,1544,1543,1544,1544,0,0,0,0,0,0,0,0,0,0
1681142961.80048609,159428703,1543,1544,1545,1544,0,0,0,0,0,0,0,0,0,0
1681142961.90044594,159528663,1544,1544,1545,1544,0,0,0,0,0,0,0,0,0,0
1681142962.00040603,159628623,1543,1543,1544,1544,0,0,0,0,0,0,0,0,0,0
1681142962.10036612,159728583,1544,1544,1544,1544,0,0,0,0,0,0,0,0,0,0
1681142962.20032597,159828543,1544,1544,1545,1544,0,0,0,0,0,0,0,0,0,0
1681142962.30028605,159928503,1544,1544,1544,1544,0,0,0,0,0,0,0,0,0,0
1681142962.40024590,160028463,1544,1544,1544,1544,0,0,0,0,0,0,0,0,0,0
1681142962.50020599,160128423,1545,1545,1545,1545,0,0,0,0,0,0,0,0,0,0
1681142962.60016608,160228383,1544,1545,1544,1545,0,0,0,0,0,0,0,0,0,0
1681142962.70012593,160328343,1545,1544,1544,1545,0,0,0,0,0,0,0,0,0,0
1681142962.80008602,160428303,1545,1545,1545,1545,0,0,0,0,0,0,0,0,0,0
1681142962.90004611,160528263,1545,1544,1545,1544,0,0,0,0,0,0,0,0,0,0
1681142963.00000596,160628223,1545,1545,1545,1545,0,0,0,0,0,0,0,0,0,0
1681142963.09996605,160728183,1544,1544,1544,1545,0,0,0,0,0,0,0,0,0,0
1681142963.20075893,160828976,1544,1545,1544,1544,0,0,0,0,0,0,0,0,0,0
1681142963.30071902,160928936,1544,1543,1543,1544,0,0,0,0,0,0,0,0,0,0
1681142963.40067911,161028896,1544,1544,1544,1544,0,0,0,0,0,0,0,0,0,0
1681142963.50063896,161128856,1544,1544,1544,1544,0,0,0,0,0,0,0,0,0,0
1681142963.60059905,161228816,1544,1544,1544,1543,0,0,0,0,0,0,0,0,0,0
1681142963.70055890,161328776,1544,1543,1544,1544,0,0,0,0,0,0,0,0,0,0
1681142963.80051899,161428736,1544,1545,1545,1544,0,0,0,0,0,0,0,0,0,0
1681142963.90047908,161528696,1544,1544,1544,1544,0,0,0,0,0,0,0,0,0,0
1681142964.00043893,161628656,1544,1544,1544,1545,0,0,0,0,0,0,0,0,0,0
1681142964.10039902,161728616,1545,1545,1545,1545,0,0,0,0,0,0,0,0,0,0
1681142964.20035911,161828576,1544,1544,1544,1544,0,0,0,0,0,0,0,0,0,0
1681142964.30031896,161928536,1545,1544,1544,1545,0,0,0,0,0,0,0,0,0,0
1681142964.40027905,162028496,1545,1545,1545,1545,0,0,0,0,0,0,0,0,0,0
1681142964.50023913,162128456,1546,1546,1546,1546,0,0,0,0,0,0,0,0,0,0
1681142964.60019898,162228416,1544,1544,1544,1544,0,0,0,0,0,0,0,0,0,0
1681142964.70015907,162328376,1545,1545,1545,1545,0,0,0,0,0,0,0,0,0,0
1681142964.80011892,162428336,1544,1544,1545,1544,0,0,0,0,0,0,0,0,0,0
1681142964.90007901,162528296,1545,1544,1545,1545,0,0,0,0,0,0,0,0,0,0
1681142965.00003910,162628256,1544,1544,1544,1544,0,0,0,0,0,0,0,0,0,0
1681142965.09999895,162728216,1544,1544,1544,1545,0,0,0,0,0,0,0,0,0,0
1681142965.19995904,162828176,1543,1544,1543,1544,0,0,0,0,0,0,0,0,0,0
1681142965.30075192,162928969,1544,1543,1543,1544,0,0,0,0,0,0,0,0,0,0
1681142965.40071201,163028929,1544,1544,1544,1544,0,0,0,0,0,0,0,0,0,0
1681142965.50067210,163128889,1544,1544,1544,1544,0,0,0,0,0,0,0,0,0,0
1681142965.60063195,163228849,1543,1544,1544,1543,0,0,0,0,0,0,0,0,0,0
1681142965.70059204,163328809,1544,1544,1544,1544,0,0,0,0,0,0,0,0,0,0
1681142965.80055213,163428769,1545,1545,1545,1545,0,0,0,0,0,0,0,0,0,0
1681142965.90051198,163528729,1545,1544,1544,1545,0,0,0,0,0,0,0,0,0,0
1681142966.00047207,163628689,1544,1544,1544,1544,0,0,0,0,0,0,0,0,0,0
1681142966.10043192,163728649,1545,1544,1544,1545,0,0,0,0,0,0,0,0,0,0
1681142966.20039201,163828609,1545,1545,1545,1544,0,0,0,0,0,0,0,0,0,0
1681142966.30035210,163928569,1544,1544,1544,1544,0,0,0,0,0,0,0,0,0,0
1681142966.40031195,164028529,1544,1544,1544,1545,0,0,0,0,0,0,0,0,0,0
1681142966.50027204,164128489,1544,1544,1544,1544,0,0,0,0,0,0,0,0,0,0
1681142966.60023212,164228449,1544,1545,1545,1544,0,0,0,0,0,0,0,0,0,0
1681142966.70019197,164328409,1545,1545,1545,1545,0,0,0,0,0,0,0,0,0,0
1681142966.80015206,164428369,1544,1544,1544,1544,0,0,0,0,0,0,0,0,0,0
1681142966.90011191,164528329,1545,1544,1545,1545,0,0,0,0,0,0,0,0,0,0
1681142967.00007200,164628289,1544,1544,1545,1544,0,0,0,0,0,0,0,0,0,0
1681142967.10003209,164728249,1545,1545,1545,1545,0,0,0,0,0,0,0,0,0,0
1681142967.19999194,164828209,1545,1545,1545,1545,0,0,0,0,0,0,0,0,0,0
1681142967.29995203,164928169,1544,1544,1544,1545,0,0,0,0,0,0,0,0,0,0
1681142967.40074492,165028962,1544,1544,1544,1544,0,0,0,0,0,0,0,0,0,0
1681142967.50070500,165128922,1544,1543,1544,1544,0,0,0,0,0,0,0,0,0,0
1681142967.60066509,165228882,1544,1544,1544,1544,0,0,0,0,0,0,0,0,0,0
1681142967.70062494,165328842,1545,1545,1544,1544,0,0,0,0,0,0,0,0,0,0
1681142967.80058503,165428802,1545,1545,1545,1545,0,0,0,0,0,0,0,0,0,0
1681142967.90054512,165528762,1545,1545,1545,1545,0,0,0,0,0,0,0,0,0,0
1681142968.00050497,165628722,1543,1544,1544,1544,0,0,0,0,0,0,0,0,0,0
1681142968.10046506,165728682,1367,1365,1422,1367,0,0,0,0,0,0,0,0,0,0
1681142968.20042491,165828642,1256,1253,1356,1256,0,0,0,0,0,0,0,0,0,0
1681142968.30038500,165928602,1221,1217,1336,1221,0,0,0,0,0,0,0,0,0,0
1681142968.40034509,166028562,1201,1200,1327,1202,0,0,0,0,0,0,0,0,0,0
1681142968.50030494,166128522,1157,1154,1305,1158,0,0,0,0,0,0,0,0,0,0
1681142968.60026503,166228482,1172,1171,1183,1150,0,0,0,0,0,0,0,0,0,0
1681142968.70022511,166328442,1166,1165,1111,1150,0,0,0,0,0,0,0,0,0,0
1681142968.74020910,166368426,1166,1165,1111,1150,0,0,0,0,0,0,0,0,0,0
1681142968.84016895,166468386,1166,1165,1111,1150,0,0,0,0,0,0,0,0,0,0
1681142968.94012904,166568346,1167,1152,1119,1150,0,0,0,0,0,0,0,0,0,0
1681142969.04008913,166668306,1174,1150,1110,1158,0,0,0,0,0,0,0,0,0,0
1681142969.14004898,166768266,1165,1150,1121,1150,0,0,0,0,0,0,0,0,0,0
1681142969.24000907,166868226,1164,1151,1121,1150,0,0,0,0,0,0,0,0,0,0
1681142969.33996892,166968186,1164,1150,1121,1150,0,0,0,0,0,0,0,0,0,0
1681142969.44076204,167068979,1164,1150,1122,1150,0,0,0,0,0,0,0,0,0,0
1681142969.54072213,167168939,1164,1150,1121,1151,0,0,0,0,0,0,0,0,0,0
1681142969.64068198,167268899,1164,1150,1120,1152,0,0,0,0,0,0,0,0,0,0
1681142969.74064207,167368859,1161,1170,1112,1150,0,0,0,0,0,0,0,0,0,0
1681142969.84060192,167468819,1161,1159,1118,1150,0,0,0,0,0,0,0,0,0,0
1681142969.94056201,167568779,1161,1158,1118,1150,0,0,0,0,0,0,0,0,0,0
1681142970.04052210,167668739,1161,1158,1119,1150,0,0,0,0,0,0,0,0,0,0
1681142970.14048195,167768699,1161,1158,1119,1150,0,0,0,0,0,0,0,0,0,0
1681142970.24044204,167868659,1144,1144,844,1144,0,0,0,0,0,0,0,0,0,0
1681142970.34040213,167968619,1000,1000,1000,1000,0,0,0,0,0,0,0,0,0,0
1681142970.44036198,168068579,1000,1000,1000,1000,0,0,0,0,0,0,0,0,0,0
1681142970.54032207,168168539,1000,1000,1000,1000,0,0,0,0,0,0,0,0,0,0
1681142970.64028192,168268499,1000,1000,1000,1000,0,0,0,0,0,0,0,0,0,0
1681142970.74024200,168368459,1000,1000,1000,1000,0,0,0,0,0,0,0,0,0,0
1681142970.84020209,168468419,1000,1000,1000,1000,0,0,0,0,0,0,0,0,0,0
1681142970.94016194,168568379,1000,1000,1000,1000,0,0,0,0,0,0,0,0,0,0
1681142971.04012203,168668339,1000,1000,1000,1000,0,0,0,0,0,0,0,0,0,0
1681142971.14008212,168768299,1000,1000,1000,1000,0,0,0,0,0,0,0,0,0,0
1681142971.24004197,168868259,1000,1000,1000,1000,0,0,0,0,0,0,0,0,0,0
1681142971.34000206,168968219,1000,1000,1000,1000,0,0,0,0,0,0,0,0,0,0
1681142971.43996191,169068179,1000,1000,1000,1000,0,0,0,0,0,0,0,0,0,0
1681142971.54075503,169168972,1000,1000,1000,1000,0,0,0,0,0,0,0,0,0,0
1681142971.64071512,169268932,1000,1000,1000,1000,0,0,0,0,0,0,0,0,0,0
1681142971.74067497,169368892,1000,1000,1000,1000,0,0,0,0,0,0,0,0,0,0
1681142971.84063506,169468852,1000,1000,1000,1000,0,0,0,0,0,0,0,0,0,0
1681142971.94059491,169568812,1000,1000,1000,1000,0,0,0,0,0,0,0,0,0,0
1681142972.04055500,169668772,1000,1000,1000,1000,0,0,0,0,0,0,0,0,0,0
1681142972.14051509,169768732,1000,1000,1000,1000,0,0,0,0,0,0,0,0,0,0
1681142972.24047494,169868692,1000,1000,1000,1000,0,0,0,0,0,0,0,0,0,0
1681142972.34043503,169968652,1000,1000,1000,1000,0,0,0,0,0,0,0,0,0,0
1681142972.44039512,170068612,1000,1000,1000,1000,0,0,0,0,0,0,0,0,0,0
1681142972.54035497,170168572,1000,1000,1000,1000,0,0,0,0,0,0,0,0,0,0
1681142972.64031506,170268532,1000,1000,1000,1000,0,0,0,0,0,0,0,0,0,0
1681142972.74027491,170368492,1000,1000,1000,1000,0,0,0,0,0,0,0,0,0,0
1681142972.84023499,170468452,1000,1000,1000,1000,0,0,0,0,0,0,0,0,0,0
1681142972.94019508,170568412,1000,1000,1000,1000,0,0,0,0,0,0,0,0,0,0
1681142973.04015493,170668372,1000,1000,1000,1000,0,0,0,0,0,0,0,0,0,0
1681142973.14011502,170768332,1000,1000,1000,1000,0,0,0,0,0,0,0,0,0,0
1681142973.24007511,170868292,1000,1000,1000,1000,0,0,0,0,0,0,0,0,0,0
1681142973.34003496,170968252,1000,1000,1000,1000,0,0,0,0,0,0,0,0,0,0
1681142973.43999505,171068212,1000,1000,1000,1000,0,0,0,0,0,0,0,0,0,0
1681142973.53995490,171168172,1000,1000,1000,1000,0,0,0,0,0,0,0,0,0,0
1681142973.64074802,171268965,1000,1000,1000,1000,0,0,0,0,0,0,0,0,0,0
1681142973.74070811,171368925,1000,1000,1000,1000,0,0,0,0,0,0,0,0,0,0
1681142973.84066796,171468885,1000,1000,1000,1000,0,0,0,0,0,0,0,0,0,0
1681142973.94062805,171568845,1000,1000,1000,1000,0,0,0,0,0,0,0,0,0,0
1681142974.04058790,171668805,1000,1000,1000,1000,0,0,0,0,0,0,0,0,0,0
1681142974.14054799,171768765,1000,1000,1000,1000,0,0,0,0,0,0,0,0,0,0
1681142974.24050808,171868725,1000,1000,1000,1000,0,0,0,0,0,0,0,0,0,0
1681142974.34046793,171968685,1000,1000,1000,1000,0,0,0,0,0,0,0,0,0,0
1681142974.44042802,172068645,1000,1000,1000,1000,0,0,0,0,0,0,0,0,0,0
1681142974.54038811,172168605,1000,1000,1000,1000,0,0,0,0,0,0,0,0,0,0
1681142974.64034796,172268565,1000,1000,1000,1000,0,0,0,0,0,0,0,0,0,0
1681142974.74030805,172368525,1000,1000,1000,1000,0,0,0,0,0,0,0,0,0,0
1681142974.84026814,172468485,1000,1000,1000,1000,0,0,0,0,0,0,0,0,0,0
1681142974.94022799,172568445,1000,1000,1000,1000,0,0,0,0,0,0,0,0,0,0
1681142975.04018807,172668405,1000,1000,1000,1000,0,0,0,0,0,0,0,0,0,0
1681142975.14014792,172768365,1000,1000,1000,1000,0,0,0,0,0,0,0,0,0,0
1681142975.24010801,172868325,1000,1000,1000,1000,0,0,0,0,0,0,0,0,0,0
1681142975.34006810,172968285,1000,1000,1000,1000,0,0,0,0,0,0,0,0,0,0
1681142975.44002795,173068245,1000,1000,1000,1000,0,0,0,0,0,0,0,0,0,0
1681142975.53998804,173168205,1000,1000,1000,1000,0,0,0,0,0,0,0,0,0,0
1681142975.63994813,173268165,1000,1000,1000,1000,0,0,0,0,0,0,0,0,0,0
1681142975.74074101,173368958,1000,1000,1000,1000,0,0,0,0,0,0,0,0,0,0
1681142975.84070110,173468918,1000,1000,1000,1000,0,0,0,0,0,0,0,0,0,0
1681142975.94066095,173568878,1000,1000,1000,1000,0,0,0,0,0,0,0,0,0,0
1681142976.04062104,173668838,1000,1000,1000,1000,0,0,0,0,0,0,0,0,0,0
1681142976.14058113,173768798,1000,1000,1000,1000,0,0,0,0,0,0,0,0,0,0
1681142976.24054098,173868758,1000,1000,1000,1000,0,0,0,0,0,0,0,0,0,0
1681142976.34050107,173968718,1000,1000,1000,1000,0,0,0,0,0,0,0,0,0,0
1681142976.44046092,174068678,1000,1000,1000,1000,0,0,0,0,0,0,0,0,0,0
1681142976.54042101,174168638,1000,1000,1000,1000,0,0,0,0,0,0,0,0,0,0
1681142976.64038110,174268598,1000,1000,1000,1000,0,0,0,0,0,0,0,0,0,0
1681142976.74034095,174368558,1000,1000,1000,1000,0,0,0,0,0,0,0,0,0,0
1681142976.84030104,174468518,1000,1000,1000,1000,0,0,0,0,0,0,0,0,0,0
1681142976.94026113,174568478,1000,1000,1000,1000,0,0,0,0,0,0,0,0,0,0
1681142977.04022098,174668438,1000,1000,1000,1000,0,0,0,0,0,0,0,0,0,0
1681142977.14018106,174768398,1000,1000,1000,1000,0,0,0,0,0,0,0,0,0,0
1681142977.24014091,174868358,1000,1000,1000,1000,0,0,0,0,0,0,0,0,0,0
1681142977.34010100,174968318,1000,1000,1000,1000,0,0,0,0,0,0,0,0,0,0
1681142977.44006109,175068278,1000,1000,1000,1000,0,0,0,0,0,0,0,0,0,0
1681142977.54002094,175168238,1000,1000,1000,1000,0,0,0,0,0,0,0,0,0,0
1681142977.63998103,175268198,1000,1000,1000,1000,0,0,0,0,0,0,0,0,0,0
1681142977.73994112,175368158,1000,1000,1000,1000,0,0,0,0,0,0,0,0,0,0
1681142977.84073400,175468951,1000,1000,1000,1000,0,0,0,0,0,0,0,0,0,0
1681142977.94069409,175568911,1000,1000,1000,1000,0,0,0,0,0,0,0,0,0,0
1681142978.04065394,175668871,1000,1000,1000,1000,0,0,0,0,0,0,0,0,0,0
1681142978.14061403,175768831,1000,1000,1000,1000,0,0,0,0,0,0,0,0,0,0
1681142978.24057412,175868791,1000,1000,1000,1000,0,0,0,0,0,0,0,0,0,0
1681142978.34053397,175968751,1000,1000,1000,1000,0,0,0,0,0,0,0,0,0,0
1681142978.44049406,176068711,1000,1000,1000,1000,0,0,0,0,0,0,0,0,0,0
1681142978.54045391,176168671,1000,1000,1000,1000,0,0,0,0,0,0,0,0,0,0
1681142978.64041400,176268631,1000,1000,1000,1000,0,0,0,0,0,0,0,0,0,0
1681142978.74037409,176368591,1000,1000,1000,1000,0,0,0,0,0,0,0,0,0,0
1681142978.84033394,176468551,1000,1000,1000,1000,0,0,0,0,0,0,0,0,0,0
1681142978.94029403,176568511,1000,1000,1000,1000,0,0,0,0,0,0,0,0,0,0
1681142979.04025412,176668471,1000,1000,1000,1000,0,0,0,0,0,0,0,0,0,0
1681142979.14021397,176768431,1000,1000,1000,1000,0,0,0,0,0,0,0,0,0,0
1681142979.24017406,176868391,1000,1000,1000,1000,0,0,0,0,0,0,0,0,0,0
1681142979.34013391,176968351,1000,1000,1000,1000,0,0,0,0,0,0,0,0,0,0
1681142979.44009399,177068311,1000,1000,1000,1000,0,0,0,0,0,0,0,0,0,0
1681142979.54005408,177168271,1000,1000,1000,1000,0,0,0,0,0,0,0,0,0,0
1681142979.64001393,177268231,1000,1000,1000,1000,0,0,0,0,0,0,0,0,0,0
1681142979.73997402,177368191,1000,1000,1000,1000,0,0,0,0,0,0,0,0,0,0
1681142979.84076691,177468984,1000,1000,1000,1000,0,0,0,0,0,0,0,0,0,0
1681142979.94072700,177568944,1000,1000,1000,1000,0,0,0,0,0,0,0,0,0,0
1681142980.04068708,177668904,1000,1000,1000,1000,0,0,0,0,0,0,0,0,0,0
1681142980.14064693,177768864,1000,1000,1000,1000,0,0,0,0,0,0,0,0,0,0
1681142980.24060702,177868824,1000,1000,1000,1000,0,0,0,0,0,0,0,0,0,0
1681142980.34056711,177968784,1000,1000,1000,1000,0,0,0,0,0,0,0,0,0,0
1681142980.44052696,178068744,1000,1000,1000,1000,0,0,0,0,0,0,0,0,0,0
1681142980.54048705,178168704,1000,1000,1000,1000,0,0,0,0,0,0,0,0,0,0
1681142980.64044690,178268664,1000,1000,1000,1000,0,0,0,0,0,0,0,0,0,0
1681142980.74040699,178368624,1000,1000,1000,1000,0,0,0,0,0,0,0,0,0,0
1681142980.84036708,178468584,1000,1000,1000,1000,0,0,0,0,0,0,0,0,0,0
1681142980.94032693,178568544,1000,1000,1000,1000,0,0,0,0,0,0,0,0,0,0
1681142981.04028702,178668504,1000,1000,1000,1000,0,0,0,0,0,0,0,0,0,0
1681142981.14024711,178768464,1000,1000,1000,1000,0,0,0,0,0,0,0,0,0,0
1681142981.24020696,178868424,1000,1000,1000,1000,0,0,0,0,0,0,0,0,0,0
1681142981.34016705,178968384,1000,1000,1000,1000,0,0,0,0,0,0,0,0,0,0
1681142981.44012713,179068344,1000,1000,1000,1000,0,0,0,0,0,0,0,0,0,0
1681142981.54008698,179168304,1000,1000,1000,1000,0,0,0,0,0,0,0,0,0,0
1681142981.64004707,179268264,1000,1000,1000,1000,0,0,0,0,0,0,0,0,0,0
1681142981.74000692,179368224,1000,1000,1000,1000,0,0,0,0,0,0,0,0,0,0
1681142981.83996701,179468184,1000,1000,1000,1000,0,0,0,0,0,0,0,0,0,0
1681142981.94076014,179568977,1000,1000,1000,1000,0,0,0,0,0,0,0,0,0,0
1681142982.04071999,179668937,1000,1000,1000,1000,0,0,0,0,0,0,0,0,0,0
1681142982.14068007,179768897,1000,1000,1000,1000,0,0,0,0,0,0,0,0,0,0
1681142982.24063993,179868857,1000,1000,1000,1000,0,0,0,0,0,0,0,0,0,0
1681142982.34060001,179968817,1000,1000,1000,1000,0,0,0,0,0,0,0,0,0,0
1681142982.44056010,180068777,1000,1000,1000,1000,0,0,0,0,0,0,0,0,0,0
1681142982.54051995,180168737,1000,1000,1000,1000,0,0,0,0,0,0,0,0,0,0
1681142982.64048004,180268697,1000,1000,1000,1000,0,0,0,0,0,0,0,0,0,0
1681142982.74044013,180368657,1000,1000,1000,1000,0,0,0,0,0,0,0,0,0,0
1681142982.84039998,180468617,1000,1000,1000,1000,0,0,0,0,0,0,0,0,0,0
1681142982.94036007,180568577,1000,1000,1000,1000,0,0,0,0,0,0,0,0,0,0
1681142983.04031992,180668537,1000,1000,1000,1000,0,0,0,0,0,0,0,0,0,0
1681142983.14028001,180768497,1000,1000,1000,1000,0,0,0,0,0,0,0,0,0,0
1681142983.24024010,180868457,1000,1000,1000,1000,0,0,0,0,0,0,0,0,0,0
1681142983.34019995,180968417,1000,1000,1000,1000,0,0,0,0,0,0,0,0,0,0
1681142983.44016004,181068377,1000,1000,1000,1000,0,0,0,0,0,0,0,0,0,0
1681142983.54012012,181168337,1000,1000,1000,1000,0,0,0,0,0,0,0,0,0,0
1681142983.64007998,181268297,1000,1000,1000,1000,0,0,0,0,0,0,0,0,0,0
1681142983.74004006,181368257,1000,1000,1000,1000,0,0,0,0,0,0,0,0,0,0
1681142983.83999991,181468217,1000,1000,1000,1000,0,0,0,0,0,0,0,0,0,0
1681142983.93996000,181568177,1000,1000,1000,1000,0,0,0,0,0,0,0,0,0,0
1681142984.04075313,181668970,1000,1000,1000,1000,0,0,0,0,0,0,0,0,0,0
1681142984.14071298,181768930,1000,1000,1000,1000,0,0,0,0,0,0,0,0,0,0
1681142984.24067307,181868890,1000,1000,1000,1000,0,0,0,0,0,0,0,0,0,0
1681142984.34063292,181968850,1000,1000,1000,1000,0,0,0,0,0,0,0,0,0,0
1681142984.44059300,182068810,1000,1000,1000,1000,0,0,0,0,0,0,0,0,0,0
1681142984.54055309,182168770,1000,1000,1000,1000,0,0,0,0,0,0,0,0,0,0
1681142984.64051294,182268730,1000,1000,1000,1000,0,0,0,0,0,0,0,0,0,0
1681142984.74047303,182368690,1000,1000,1000,1000,0,0,0,0,0,0,0,0,0,0
1681142984.84043312,182468650,1000,1000,1000,1000,0,0,0,0,0,0,0,0,0,0
1681142984.94039297,182568610,1000,1000,1000,1000,0,0,0,0,0,0,0,0,0,0
1681142985.04035306,182668570,1000,1000,1000,1000,0,0,0,0,0,0,0,0,0,0
1681142985.14031291,182768530,1000,1000,1000,1000,0,0,0,0,0,0,0,0,0,0
