timestamp,TimeUS,C1,C2,C3,C4,C5,C6,C7,C8,C9,C10,C11,C12,C13,C14
1681546025.40000010,47628441,1000,1000,1000,1000,0,0,0,0,0,0,0,0,0,0
1681546025.49995995,47728401,1000,1000,1000,1000,0,0,0,0,0,0,0,0,0,0
1681546025.59992003,47828361,1000,1000,1000,1000,0,0,0,0,0,0,0,0,0,0
1681546025.69987988,47928321,1000,1000,1000,1000,0,0,0,0,0,0,0,0,0,0
1681546025.79983997,48028281,1000,1000,1000,1000,0,0,0,0,0,0,0,0,0,0
1681546025.89980006,48128241,1000,1000,1000,1000,0,0,0,0,0,0,0,0,0,0
1681546025.99975991,48228201,1000,1000,1000,1000,0,0,0,0,0,0,0,0,0,0
1681546026.09972000,48328161,1000,1000,1000,1000,0,0,0,0,0,0,0,0,0,0
1681546026.20051289,48428954,1000,1000,1000,1000,0,0,0,0,0,0,0,0,0,0
1681546026.30047297,48528914,1000,1000,1000,1000,0,0,0,0,0,0,0,0,0,0
1681546026.40043306,48628874,1000,1000,1000,1000,0,0,0,0,0,0,0,0,0,0
1681546026.50039291,48728834,1000,1000,1000,1000,0,0,0,0,0,0,0,0,0,0
1681546026.60035300,48828794,1000,1000,1000,1000,0,0,0,0,0,0,0,0,0,0
1681546026.70031309,48928754,1000,1000,1000,1000,0,0,0,0,0,0,0,0,0,0
1681546026.80027294,49028714,1000,1000,1000,1000,0,0,0,0,0,0,0,0,0,0
1681546026.90023303,49128674,1000,1000,1000,1000,0,0,0,0,0,0,0,0,0,0
1681546027.00019312,49228634,1000,1000,1000,1000,0,0,0,0,0,0,0,0,0,0
1681546027.10015297,49328594,1000,1000,1000,1000,0,0,0,0,0,0,0,0,0,0
1681546027.20011306,49428554,1000,1000,1000,1000,0,0,0,0,0,0,0,0,0,0
1681546027.30007291,49528514,1000,1000,1000,1000,0,0,0,0,0,0,0,0,0,0
1681546027.40003300,49628474,1023,1023,1023,1023,0,0,0,0,0,0,0,0,0,0
1681546027.49999309,49728434,1053,1053,1053,1053,0,0,0,0,0,0,0,0,0,0
1681546027.59995294,49828394,1083,1083,1083,1083,0,0,0,0,0,0,0,0,0,0
1681546027.69991302,49928354,1113,1113,1113,1113,0,0,0,0,0,0,0,0,0,0
1681546027.79987311,50028314,1143,1143,1143,1143,0,0,0,0,0,0,0,0,0,0
1681546027.89983296,50128274,1351,1346,1346,1352,0,0,0,0,0,0,0,0,0,0
1681546027.99979305,50228234,1542,1537,1538,1542,0,0,0,0,0,0,0,0,0,0
1681546028.09975290,50328194,1695,1691,1691,1695,0,0,0,0,0,0,0,0,0,0
1681546028.19971299,50428154,1827,1822,1823,1827,0,0,0,0,0,0,0,0,0,0
1681546028.30050611,50528947,1881,1876,1877,1881,0,0,0,0,0,0,0,0,0,0
1681546028.40046597,50628907,1837,1835,1836,1837,0,0,0,0,0,0,0,0,0,0
1681546028.50042605,50728867,1710,1710,1710,1710,0,0,0,0,0,0,0,0,0,0
1681546028.60038590,50828827,1637,1639,1639,1637,0,0,0,0,0,0,0,0,0,0
1681546028.70034599,50928787,1628,1621,1621,1628,0,0,0,0,0,0,0,0,0,0
1681546028.80030608,51028747,1629,1631,1625,1635,0,0,0,0,0,0,0,0,0,0
1681546028.90026593,51128707,1634,1636,1630,1640,0,0,0,0,0,0,0,0,0,0
1681546029.00022602,51228667,1632,1634,1632,1634,0,0,0,0,0,0,0,0,0,0
1681546029.10018611,51328627,1627,1628,1629,1626,0,0,0,0,0,0,0,0,0,0
1681546029.20014596,51428587,1622,1622,1626,1618,0,0,0,0,0,0,0,0,0,0
1681546029.30010605,51528547,1621,1619,1623,1616,0,0,0,0,0,0,0,0,0,0
1681546029.40006590,51628507,1619,1618,1621,1616,0,0,0,0,0,0,0,0,0,0
1681546029.50002599,51728467,1620,1619,1620,1618,0,0,0,0,0,0,0,0,0,0
1681546029.59998608,51828427,1598,1598,1602,1595,0,0,0,0,0,0,0,0,0,0
1681546029.69994593,51928387,1580,1580,1587,1573,0,0,0,0,0,0,0,0,0,0
1681546029.79990602,52028347,1567,1568,1570,1565,0,0,0,0,0,0,0,0,0,0
1681546029.89986610,52128307,1557,1558,1556,1560,0,0,0,0,0,0,0,0,0,0
1681546029.99982595,52228267,1548,1549,1543,1554,0,0,0,0,0,0,0,0,0,0
1681546030.09978604,52328227,1542,1541,1532,1551,0,0,0,0,0,0,0,0,0,0
1681546030.19974589,52428187,1536,1535,1528,1542,0,0,0,0,0,0,0,0,0,0
1681546030.30053902,52528980,1530,1530,1526,1534,0,0,0,0,0,0,0,0,0,0
1681546030.40049911,52628940,1527,1527,1526,1527,0,0,0,0,0,0,0,0,0,0
1681546030.50045896,52728900,1527,1526,1528,1525,0,0,0,0,0,0,0,0,0,0
1681546030.60041904,52828860,1529,1529,1532,1526,0,0,0,0,0,0,0,0,0,0
1681546030.70037889,52928820,1531,1531,1534,1529,0,0,0,0,0,0,0,0,0,0
1681546030.80033898,53028780,1535,1535,1537,1533,0,0,0,0,0,0,0,0,0,0
1681546030.90029907,53128740,1539,1540,1542,1538,0,0,0,0,0,0,0,0,0,0
1681546031.00025892,53228700,1542,1542,1544,1541,0,0,0,0,0,0,0,0,0,0
1681546031.10021901,53328660,1545,1545,1545,1545,0,0,0,0,0,0,0,0,0,0
1681546031.20017910,53428620,1547,1547,1547,1548,0,0,0,0,0,0,0,0,0,0
1681546031.30013895,53528580,1551,1551,1550,1552,0,0,0,0,0,0,0,0,0,0
1681546031.40009904,53628540,1554,1554,1552,1555,0,0,0,0,0,0,0,0,0,0
1681546031.50005889,53728500,1555,1555,1557,1559,0,0,0,0,0,0,0,0,0,0
1681546031.60001898,53828460,1555,1556,1560,1561,0,0,0,0,0,0,0,0,0,0
1681546031.69997907,53928420,1557,1558,1562,1563,0,0,0,0,0,0,0,0,0,0
1681546031.79993892,54028380,1559,1560,1564,1564,0,0,0,0,0,0,0,0,0,0
1681546031.89989901,54128340,1561,1561,1565,1564,0,0,0,0,0,0,0,0,0,0
1681546031.99985909,54228300,1564,1564,1566,1565,0,0,0,0,0,0,0,0,0,0
1681546032.09981894,54328260,1566,1566,1566,1566,0,0,0,0,0,0,0,0,0,0
1681546032.19977903,54428220,1568,1568,1567,1567,0,0,0,0,0,0,0,0,0,0
1681546032.29973888,54528180,1570,1570,1567,1568,0,0,0,0,0,0,0,0,0,0
1681546032.40053201,54628973,1571,1571,1567,1567,0,0,0,0,0,0,0,0,0,0
1681546032.50049210,54728933,1572,1572,1568,1569,0,0,0,0,0,0,0,0,0,0
1681546032.60045195,54828893,1573,1573,1570,1570,0,0,0,0,0,0,0,0,0,0
1681546032.70041203,54928853,1574,1573,1570,1571,0,0,0,0,0,0,0,0,0,0
1681546032.80037189,55028813,1574,1574,1572,1572,0,0,0,0,0,0,0,0,0,0
1681546032.90033197,55128773,1575,1575,1574,1573,0,0,0,0,0,0,0,0,0,0
1681546033.00029206,55228733,1575,1575,1575,1573,0,0,0,0,0,0,0,0,0,0
1681546033.10025191,55328693,1574,1575,1575,1574,0,0,0,0,0,0,0,0,0,0
1681546033.20021200,55428653,1576,1576,1577,1576,0,0,0,0,0,0,0,0,0,0
1681546033.30017209,55528613,1575,1575,1576,1576,0,0,0,0,0,0,0,0,0,0
1681546033.40013194,55628573,1575,1575,1576,1576,0,0,0,0,0,0,0,0,0,0
1681546033.50009203,55728533,1575,1576,1577,1577,0,0,0,0,0,0,0,0,0,0
1681546033.60005212,55828493,1575,1575,1576,1576,0,0,0,0,0,0,0,0,0,0
1681546033.70001197,55928453,1577,1576,1577,1577,0,0,0,0,0,0,0,0,0,0
1681546033.79997206,56028413,1576,1575,1576,1576,0,0,0,0,0,0,0,0,0,0
1681546033.89993191,56128373,1577,1577,1577,1577,0,0,0,0,0,0,0,0,0,0
1681546033.99989200,56228333,1577,1577,1577,1577,0,0,0,0,0,0,0,0,0,0
1681546034.09985209,56328293,1578,1578,1578,1577,0,0,0,0,0,0,0,0,0,0
1681546034.19981194,56428253,1578,1578,1577,1577,0,0,0,0,0,0,0,0,0,0
1681546034.29977202,56528213,1578,1578,1578,1578,0,0,0,0,0,0,0,0,0,0
1681546034.39973211,56628173,1578,1578,1578,1578,0,0,0,0,0,0,0,0,0,0
1681546034.50052500,56728966,1579,1578,1578,1578,0,0,0,0,0,0,0,0,0,0
1681546034.60048509,56828926,1578,1578,1578,1577,0,0,0,0,0,0,0,0,0,0
1681546034.70044494,56928886,1578,1577,1577,1578,0,0,0,0,0,0,0,0,0,0
1681546034.80040503,57028846,1579,1578,1578,1579,0,0,0,0,0,0,0,0,0,0
1681546034.90036511,57128806,1579,1579,1579,1579,0,0,0,0,0,0,0,0,0,0
1681546035.00032496,57228766,1578,1579,1579,1578,0,0,0,0,0,0,0,0,0,0
1681546035.10028505,57328726,1579,1579,1579,1579,0,0,0,0,0,0,0,0,0,0
1681546035.20024490,57428686,1579,1579,1579,1579,0,0,0,0,0,0,0,0,0,0
1681546035.30020499,57528646,1579,1579,1579,1579,0,0,0,0,0,0,0,0,0,0
1681546035.40016508,57628606,1579,1579,1579,1579,0,0,0,0,0,0,0,0,0,0
1681546035.50012493,57728566,1578,1578,1578,1579,0,0,0,0,0,0,0,0,0,0
1681546035.60008502,57828526,1579,1579,1579,1580,0,0,0,0,0,0,0,0,0,0
1681546035.70004511,57928486,1580,1580,1580,1580,0,0,0,0,0,0,0,0,0,0
1681546035.80000496,58028446,1580,1580,1580,1580,0,0,0,0,0,0,0,0,0,0
1681546035.89996505,58128406,1580,1581,1580,1580,0,0,0,0,0,0,0,0,0,0
1681546035.99992490,58228366,1579,1579,1579,1578,0,0,0,0,0,0,0,0,0,0
1681546036.09988499,58328326,1580,1579,1579,1579,0,0,0,0,0,0,0,0,0,0
1681546036.19984508,58428286,1580,1580,1580,1580,0,0,0,0,0,0,0,0,0,0
1681546036.29980493,58528246,1580,1580,1580,1580,0,0,0,0,0,0,0,0,0,0
1681546036.39976501,58628206,1579,1579,1579,1579,0,0,0,0,0,0,0,0,0,0
1681546036.49972510,58728166,1579,1578,1578,1579,0,0,0,0,0,0,0,0,0,0
1681546036.60051799,58828959,1580,1579,1579,1580,0,0,0,0,0,0,0,0,0,0
1681546036.70047808,58928919,1580,1580,1580,1580,0,0,0,0,0,0,0,0,0,0
1681546036.80043793,59028879,1581,1581,1581,1581,0,0,0,0,0,0,0,0,0,0
1681546036.90039802,59128839,1580,1580,1580,1580,0,0,0,0,0,0,0,0,0,0
1681546037.00035810,59228799,1581,1581,1581,1581,0,0,0,0,0,0,0,0,0,0
1681546037.10031796,59328759,1581,1581,1582,1582,0,0,0,0,0,0,0,0,0,0
1681546037.20027804,59428719,1580,1581,1581,1581,0,0,0,0,0,0,0,0,0,0
1681546037.30023789,59528679,1581,1582,1582,1582,0,0,0,0,0,0,0,0,0,0
1681546037.40019798,59628639,1581,1582,1582,1582,0,0,0,0,0,0,0,0,0,0
1681546037.50015807,59728599,1580,1581,1581,1581,0,0,0,0,0,0,0,0,0,0
1681546037.60011792,59828559,1581,1580,1581,1581,0,0,0,0,0,0,0,0,0,0
1681546037.70007801,59928519,1581,1581,1587,1574,0,0,0,0,0,0,0,0,0,0
1681546037.80003810,60028479,1581,1582,1586,1573,0,0,0,0,0,0,0,0,0,0
1681546037.89999795,60128439,1579,1582,1578,1573,0,0,0,0,0,0,0,0,0,0
1681546037.99995804,60228399,1577,1580,1569,1572,0,0,0,0,0,0,0,0,0,0
1681546038.09991789,60328359,1576,1579,1561,1568,0,0,0,0,0,0,0,0,0,0
1681546038.19987798,60428319,1577,1578,1557,1563,0,0,0,0,0,0,0,0,0,0
1681546038.29983807,60528279,1578,1578,1555,1559,0,0,0,0,0,0,0,0,0,0
1681546038.39979792,60628239,1578,1577,1554,1556,0,0,0,0,0,0,0,0,0,0
1681546038.49975801,60728199,1578,1577,1555,1554,0,0,0,0,0,0,0,0,0,0
1681546038.59971809,60828159,1578,1577,1556,1554,0,0,0,0,0,0,0,0,0,0
1681546038.70051098,60928952,1577,1577,1555,1554,0,0,0,0,0,0,0,0,0,0
1681546038.80047107,61028912,1575,1576,1555,1554,0,0,0,0,0,0,0,0,0,0
1681546038.90043092,61128872,1574,1576,1554,1553,0,0,0,0,0,0,0,0,0,0
1681546039.00039101,61228832,1574,1575,1553,1553,0,0,0,0,0,0,0,0,0,0
1681546039.10035110,61328792,1575,1577,1552,1552,0,0,0,0,0,0,0,0,0,0
1681546039.20031095,61428752,1576,1578,1550,1551,0,0,0,0,0,0,0,0,0,0
1681546039.30027103,61528712,1578,1579,1548,1548,0,0,0,0,0,0,0,0,0,0
1681546039.40023088,61628672,1579,1580,1545,1544,0,0,0,0,0,0,0,0,0,0
1681546039.50019097,61728632,1583,1583,1543,1543,0,0,0,0,0,0,0,0,0,0
1681546039.60015106,61828592,1586,1587,1540,1540,0,0,0,0,0,0,0,0,0,0
1681546039.70011091,61928552,1590,1590,1538,1538,0,0,0,0,0,0,0,0,0,0
1681546039.80007100,62028512,1592,1592,1535,1535,0,0,0,0,0,0,0,0,0,0
1681546039.90003109,62128472,1594,1594,1534,1535,0,0,0,0,0,0,0,0,0,0
1681546039.99999094,62228432,1595,1595,1535,1536,0,0,0,0,0,0,0,0,0,0
1681546040.09995103,62328392,1594,1594,1535,1537,0,0,0,0,0,0,0,0,0,0
1681546040.19991112,62428352,1592,1592,1539,1541,0,0,0,0,0,0,0,0,0,0
1681546040.29987097,62528312,1589,1588,1543,1547,0,0,0,0,0,0,0,0,0,0
1681546040.39983106,62628272,1584,1582,1551,1555,0,0,0,0,0,0,0,0,0,0
1681546040.49979091,62728232,1576,1573,1561,1563,0,0,0,0,0,0,0,0,0,0
1681546040.59975100,62828192,1566,1563,1572,1573,0,0,0,0,0,0,0,0,0,0
1681546040.70054412,62928985,1555,1552,1584,1585,0,0,0,0,0,0,0,0,0,0
1681546040.80050397,63028945,1545,1542,1595,1595,0,0,0,0,0,0,0,0,0,0
1681546040.90046406,63128905,1536,1535,1605,1605,0,0,0,0,0,0,0,0,0,0
1681546041.00042391,63228865,1530,1530,1611,1610,0,0,0,0,0,0,0,0,0,0
1681546041.10038400,63328825,1528,1530,1614,1613,0,0,0,0,0,0,0,0,0,0
1681546041.20034409,63428785,1531,1533,1614,1613,0,0,0,0,0,0,0,0,0,0
1681546041.30030394,63528745,1536,1538,1610,1610,0,0,0,0,0,0,0,0,0,0
1681546041.40026402,63628705,1543,1545,1604,1604,0,0,0,0,0,0,0,0,0,0
1681546041.50022411,63728665,1551,1552,1596,1597,0,0,0,0,0,0,0,0,0,0
1681546041.60018396,63828625,1559,1560,1589,1589,0,0,0,0,0,0,0,0,0,0
1681546041.70014405,63928585,1569,1569,1583,1582,0,0,0,0,0,0,0,0,0,0
1681546041.80010390,64028545,1577,1576,1577,1576,0,0,0,0,0,0,0,0,0,0
1681546041.90006399,64128505,1581,1580,1571,1570,0,0,0,0,0,0,0,0,0,0
1681546042.00002408,64228465,1585,1584,1568,1567,0,0,0,0,0,0,0,0,0,0
1681546042.09998393,64328425,1587,1585,1566,1566,0,0,0,0,0,0,0,0,0,0
1681546042.19994402,64428385,1588,1586,1566,1566,0,0,0,0,0,0,0,0,0,0
1681546042.29990411,64528345,1587,1585,1568,1568,0,0,0,0,0,0,0,0,0,0
1681546042.39986396,64628305,1585,1584,1571,1571,0,0,0,0,0,0,0,0,0,0
1681546042.49982405,64728265,1582,1582,1574,1575,0,0,0,0,0,0,0,0,0,0
1681546042.59978390,64828225,1580,1580,1577,1578,0,0,0,0,0,0,0,0,0,0
1681546042.69974399,64928185,1576,1577,1579,1579,0,0,0,0,0,0,0,0,0,0
1681546042.80053711,65028978,1575,1576,1583,1582,0,0,0,0,0,0,0,0,0,0
1681546042.90049696,65128938,1573,1574,1583,1583,0,0,0,0,0,0,0,0,0,0
1681546043.00045705,65228898,1573,1574,1585,1585,0,0,0,0,0,0,0,0,0,0
1681546043.10041690,65328858,1573,1573,1584,1584,0,0,0,0,0,0,0,0,0,0
1681546043.20037699,65428818,1573,1574,1583,1583,0,0,0,0,0,0,0,0,0,0
1681546043.30033708,65528778,1574,1575,1582,1582,0,0,0,0,0,0,0,0,0,0
1681546043.40029693,65628738,1576,1576,1581,1582,0,0,0,0,0,0,0,0,0,0
1681546043.50025702,65728698,1606,1605,1484,1531,0,0,0,0,0,0,0,0,0,0
1681546043.60021710,65828658,1626,1627,1562,1534,0,0,0,0,0,0,0,0,0,0
1681546043.70017695,65928618,1649,1652,1631,1567,0,0,0,0,0,0,0,0,0,0
1681546043.80013704,66028578,1662,1668,1676,1605,0,0,0,0,0,0,0,0,0,0
1681546043.90009689,66128538,1654,1663,1688,1633,0,0,0,0,0,0,0,0,0,0
1681546044.00005698,66228498,1627,1635,1670,1644,0,0,0,0,0,0,0,0,0,0
1681546044.10001707,66328458,1598,1600,1639,1646,0,0,0,0,0,0,0,0,0,0
1681546044.19997692,66428418,1572,1567,1609,1640,0,0,0,0,0,0,0,0,0,0
1681546044.29993701,66528378,1560,1549,1593,1630,0,0,0,0,0,0,0,0,0,0
1681546044.39989710,66628338,1555,1541,1588,1618,0,0,0,0,0,0,0,0,0,0
1681546044.49985695,66728298,1553,1541,1588,1604,0,0,0,0,0,0,0,0,0,0
1681546044.59981704,66828258,1555,1547,1590,1592,0,0,0,0,0,0,0,0,0,0
1681546044.69977689,66928218,1558,1557,1590,1583,0,0,0,0,0,0,0,0,0,0
1681546044.79973698,67028178,1561,1567,1587,1576,0,0,0,0,0,0,0,0,0,0
1681546044.90053010,67128971,1566,1575,1581,1574,0,0,0,0,0,0,0,0,0,0
1681546045.00048995,67228931,1569,1578,1574,1573,0,0,0,0,0,0,0,0,0,0
1681546045.10045004,67328891,1572,1578,1567,1571,0,0,0,0,0,0,0,0,0,0
1681546045.20040989,67428851,1574,1576,1563,1568,0,0,0,0,0,0,0,0,0,0
1681546045.30036998,67528811,1576,1575,1560,1566,0,0,0,0,0,0,0,0,0,0
1681546045.40033007,67628771,1577,1575,1560,1564,0,0,0,0,0,0,0,0,0,0
1681546045.50028992,67728731,1578,1575,1561,1562,0,0,0,0,0,0,0,0,0,0
1681546045.60025001,67828691,1579,1577,1562,1561,0,0,0,0,0,0,0,0,0,0
1681546045.70021009,67928651,1580,1580,1570,1557,0,0,0,0,0,0,0,0,0,0
1681546045.80016994,68028611,1579,1584,1572,1554,0,0,0,0,0,0,0,0,0,0
1681546045.90013003,68128571,1578,1585,1567,1558,0,0,0,0,0,0,0,0,0,0
1681546046.00008988,68228531,1576,1582,1560,1561,0,0,0,0,0,0,0,0,0,0
1681546046.10004997,68328491,1574,1578,1554,1561,0,0,0,0,0,0,0,0,0,0
1681546046.20001006,68428451,1574,1575,1550,1559,0,0,0,0,0,0,0,0,0,0
1681546046.29996991,68528411,1575,1572,1549,1556,0,0,0,0,0,0,0,0,0,0
1681546046.39993000,68628371,1576,1572,1549,1553,0,0,0,0,0,0,0,0,0,0
1681546046.49989009,68728331,1576,1573,1552,1551,0,0,0,0,0,0,0,0,0,0
1681546046.59984994,68828291,1576,1575,1554,1551,0,0,0,0,0,0,0,0,0,0
1681546046.69981003,68928251,1574,1575,1554,1550,0,0,0,0,0,0,0,0,0,0
1681546046.79977012,69028211,1575,1577,1555,1552,0,0,0,0,0,0,0,0,0,0
1681546046.89972997,69128171,1574,1576,1554,1552,0,0,0,0,0,0,0,0,0,0
1681546047.00052309,69228964,1574,1576,1552,1552,0,0,0,0,0,0,0,0,0,0
1681546047.10048294,69328924,1575,1576,1550,1551,0,0,0,0,0,0,0,0,0,0
1681546047.20044303,69428884,1576,1577,1549,1550,0,0,0,0,0,0,0,0,0,0
1681546047.30040312,69528844,1579,1580,1548,1549,0,0,0,0,0,0,0,0,0,0
1681546047.40036297,69628804,1581,1581,1546,1547,0,0,0,0,0,0,0,0,0,0
1681546047.50032306,69728764,1584,1584,1545,1546,0,0,0,0,0,0,0,0,0,0
1681546047.60028291,69828724,1585,1585,1544,1544,0,0,0,0,0,0,0,0,0,0
1681546047.70024300,69928684,1587,1586,1544,1543,0,0,0,0,0,0,0,0,0,0
1681546047.80020308,70028644,1586,1586,1542,1543,0,0,0,0,0,0,0,0,0,0
1681546047.90016294,70128604,1588,1587,1544,1545,0,0,0,0,0,0,0,0,0,0
1681546048.00012302,70228564,1587,1587,1545,1547,0,0,0,0,0,0,0,0,0,0
1681546048.10008311,70328524,1585,1585,1546,1549,0,0,0,0,0,0,0,0,0,0
1681546048.20004296,70428484,1583,1583,1550,1553,0,0,0,0,0,0,0,0,0,0
1681546048.30000305,70528444,1580,1578,1556,1558,0,0,0,0,0,0,0,0,0,0
1681546048.39996290,70628404,1575,1573,1563,1565,0,0,0,0,0,0,0,0,0,0
1681546048.49992299,70728364,1568,1565,1571,1572,0,0,0,0,0,0,0,0,0,0
1681546048.59988308,70828324,1562,1559,1580,1580,0,0,0,0,0,0,0,0,0,0
1681546048.69984293,70928284,1557,1554,1588,1587,0,0,0,0,0,0,0,0,0,0
1681546048.79980302,71028244,1553,1552,1595,1593,0,0,0,0,0,0,0,0,0,0
1681546048.89976311,71128204,1549,1549,1599,1597,0,0,0,0,0,0,0,0,0,0
1681546048.99972296,71228164,1548,1549,1601,1599,0,0,0,0,0,0,0,0,0,0
1681546049.10051608,71328957,1549,1549,1601,1600,0,0,0,0,0,0,0,0,0,0
1681546049.20047593,71428917,1550,1551,1600,1600,0,0,0,0,0,0,0,0,0,0
1681546049.30043602,71528877,1553,1553,1598,1599,0,0,0,0,0,0,0,0,0,0
1681546049.40039611,71628837,1555,1556,1596,1596,0,0,0,0,0,0,0,0,0,0
1681546049.50035596,71728797,1559,1559,1594,1594,0,0,0,0,0,0,0,0,0,0
1681546049.60031605,71828757,1561,1562,1591,1590,0,0,0,0,0,0,0,0,0,0
1681546049.70027590,71928717,1565,1565,1587,1587,0,0,0,0,0,0,0,0,0,0
1681546049.80023599,72028677,1568,1568,1584,1584,0,0,0,0,0,0,0,0,0,0
1681546049.90019608,72128637,1572,1571,1581,1580,0,0,0,0,0,0,0,0,0,0
1681546050.00015593,72228597,1574,1574,1577,1578,0,0,0,0,0,0,0,0,0,0
1681546050.10011601,72328557,1576,1576,1574,1575,0,0,0,0,0,0,0,0,0,0
1681546050.20007610,72428517,1579,1579,1572,1572,0,0,0,0,0,0,0,0,0,0
1681546050.30003595,72528477,1582,1581,1571,1571,0,0,0,0,0,0,0,0,0,0
1681546050.39999604,72628437,1582,1581,1569,1569,0,0,0,0,0,0,0,0,0,0
1681546050.49995589,72728397,1583,1582,1569,1570,0,0,0,0,0,0,0,0,0,0
1681546050.59991598,72828357,1581,1580,1569,1569,0,0,0,0,0,0,0,0,0,0
1681546050.69987607,72928317,1580,1580,1571,1571,0,0,0,0,0,0,0,0,0,0
1681546050.79983592,73028277,1579,1579,1573,1573,0,0,0,0,0,0,0,0,0,0
1681546050.89979601,73128237,1578,1579,1576,1576,0,0,0,0,0,0,0,0,0,0
1681546050.99975610,73228197,1576,1576,1577,1577,0,0,0,0,0,0,0,0,0,0
1681546051.09971595,73328157,1576,1576,1580,1579,0,0,0,0,0,0,0,0,0,0
1681546051.20050907,73428950,1576,1576,1582,1581,0,0,0,0,0,0,0,0,0,0
1681546051.30046892,73528910,1575,1575,1582,1582,0,0,0,0,0,0,0,0,0,0
1681546051.40042901,73628870,1575,1576,1583,1583,0,0,0,0,0,0,0,0,0,0
1681546051.50038910,73728830,1575,1576,1583,1582,0,0,0,0,0,0,0,0,0,0
1681546051.60034895,73828790,1577,1577,1583,1583,0,0,0,0,0,0,0,0,0,0
1681546051.70030904,73928750,1577,1578,1582,1582,0,0,0,0,0,0,0,0,0,0
1681546051.80026889,74028710,1578,1578,1582,1582,0,0,0,0,0,0,0,0,0,0
1681546051.90022898,74128670,1579,1579,1581,1580,0,0,0,0,0,0,0,0,0,0
1681546052.00018907,74228630,1579,1579,1580,1579,0,0,0,0,0,0,0,0,0,0
1681546052.10014892,74328590,1579,1579,1578,1578,0,0,0,0,0,0,0,0,0,0
1681546052.20010900,74428550,1580,1580,1578,1579,0,0,0,0,0,0,0,0,0,0
1681546052.30006909,74528510,1580,1580,1577,1578,0,0,0,0,0,0,0,0,0,0
1681546052.40002894,74628470,1581,1581,1578,1578,0,0,0,0,0,0,0,0,0,0
1681546052.49998903,74728430,1581,1581,1578,1578,0,0,0,0,0,0,0,0,0,0
1681546052.59994888,74828390,1582,1582,1579,1579,0,0,0,0,0,0,0,0,0,0
1681546052.69990897,74928350,1581,1581,1579,1579,0,0,0,0,0,0,0,0,0,0
1681546052.79986906,75028310,1580,1580,1579,1579,0,0,0,0,0,0,0,0,0,0
1681546052.89982891,75128270,1581,1581,1581,1580,0,0,0,0,0,0,0,0,0,0
1681546052.99978900,75228230,1581,1581,1581,1581,0,0,0,0,0,0,0,0,0,0
1681546053.09974909,75328190,1580,1580,1582,1581,0,0,0,0,0,0,0,0,0,0
1681546053.20054197,75428983,1581,1581,1582,1582,0,0,0,0,0,0,0,0,0,0
1681546053.30050206,75528943,1581,1581,1582,1582,0,0,0,0,0,0,0,0,0,0
1681546053.40046191,75628903,1581,1582,1583,1583,0,0,0,0,0,0,0,0,0,0
1681546053.50042200,75728863,1581,1581,1582,1582,0,0,0,0,0,0,0,0,0,0
1681546053.60038209,75828823,1580,1580,1581,1581,0,0,0,0,0,0,0,0,0,0
1681546053.70034194,75928783,1580,1580,1581,1581,0,0,0,0,0,0,0,0,0,0
1681546053.80030203,76028743,1581,1580,1581,1581,0,0,0,0,0,0,0,0,0,0
1681546053.90026212,76128703,1580,1580,1580,1580,0,0,0,0,0,0,0,0,0,0
1681546054.00022197,76228663,1580,1580,1583,1576,0,0,0,0,0,0,0,0,0,0
1681546054.10018206,76328623,1580,1582,1586,1571,0,0,0,0,0,0,0,0,0,0
1681546054.20014191,76428583,1580,1584,1582,1573,0,0,0,0,0,0,0,0,0,0
1681546054.30010200,76528543,1577,1581,1573,1572,0,0,0,0,0,0,0,0,0,0
1681546054.40006208,76628503,1576,1579,1565,1571,0,0,0,0,0,0,0,0,0,0
1681546054.50002193,76728463,1577,1578,1559,1567,0,0,0,0,0,0,0,0,0,0
1681546054.59998202,76828423,1578,1577,1556,1562,0,0,0,0,0,0,0,0,0,0
1681546054.69994211,76928383,1580,1577,1554,1558,0,0,0,0,0,0,0,0,0,0
1681546054.79990196,77028343,1580,1577,1554,1554,0,0,0,0,0,0,0,0,0,0
1681546054.89986205,77128303,1579,1577,1553,1552,0,0,0,0,0,0,0,0,0,0
1681546054.99982190,77228263,1578,1578,1555,1552,0,0,0,0,0,0,0,0,0,0
1681546055.09978199,77328223,1576,1577,1554,1552,0,0,0,0,0,0,0,0,0,0
1681546055.19974208,77428183,1576,1578,1554,1553,0,0,0,0,0,0,0,0,0,0
1681546055.30053496,77528976,1575,1577,1554,1553,0,0,0,0,0,0,0,0,0,0
1681546055.40049505,77628936,1575,1576,1552,1552,0,0,0,0,0,0,0,0,0,0
1681546055.50045490,77728896,1576,1577,1551,1552,0,0,0,0,0,0,0,0,0,0
1681546055.60041499,77828856,1577,1578,1550,1550,0,0,0,0,0,0,0,0,0,0
1681546055.70037508,77928816,1580,1580,1549,1549,0,0,0,0,0,0,0,0,0,0
1681546055.80033493,78028776,1581,1582,1546,1546,0,0,0,0,0,0,0,0,0,0
1681546055.90029502,78128736,1585,1585,1545,1544,0,0,0,0,0,0,0,0,0,0
1681546056.00025511,78228696,1588,1589,1542,1542,0,0,0,0,0,0,0,0,0,0
1681546056.10021496,78328656,1590,1591,1540,1540,0,0,0,0,0,0,0,0,0,0
1681546056.20017505,78428616,1592,1592,1538,1538,0,0,0,0,0,0,0,0,0,0
1681546056.30013490,78528576,1593,1593,1536,1537,0,0,0,0,0,0,0,0,0,0
1681546056.40009499,78628536,1594,1595,1536,1538,0,0,0,0,0,0,0,0,0,0
1681546056.50005507,78728496,1593,1593,1537,1539,0,0,0,0,0,0,0,0,0,0
1681546056.60001493,78828456,1592,1591,1541,1544,0,0,0,0,0,0,0,0,0,0
1681546056.69997501,78928416,1588,1585,1546,1550,0,0,0,0,0,0,0,0,0,0
1681546056.79993510,79028376,1582,1578,1556,1559,0,0,0,0,0,0,0,0,0,0
1681546056.89989495,79128336,1573,1568,1567,1569,0,0,0,0,0,0,0,0,0,0
1681546056.99985504,79228296,1562,1558,1579,1580,0,0,0,0,0,0,0,0,0,0
1681546057.09981489,79328256,1551,1549,1591,1592,0,0,0,0,0,0,0,0,0,0
1681546057.19977498,79428216,1541,1541,1602,1601,0,0,0,0,0,0,0,0,0,0
1681546057.29973507,79528176,1536,1537,1610,1608,0,0,0,0,0,0,0,0,0,0
1681546057.40052795,79628969,1535,1536,1614,1611,0,0,0,0,0,0,0,0,0,0
1681546057.50048804,79728929,1536,1538,1615,1612,0,0,0,0,0,0,0,0,0,0
1681546057.60044789,79828889,1540,1542,1613,1610,0,0,0,0,0,0,0,0,0,0
1681546057.70040798,79928849,1545,1547,1609,1608,0,0,0,0,0,0,0,0,0,0
1681546057.80036807,80028809,1551,1551,1603,1604,0,0,0,0,0,0,0,0,0,0
1681546057.90032792,80128769,1556,1556,1597,1598,0,0,0,0,0,0,0,0,0,0
1681546058.00028801,80228729,1563,1563,1592,1592,0,0,0,0,0,0,0,0,0,0
1681546058.10024810,80328689,1567,1567,1584,1585,0,0,0,0,0,0,0,0,0,0
1681546058.20020795,80428649,1574,1573,1578,1579,0,0,0,0,0,0,0,0,0,0
1681546058.30016804,80528609,1578,1578,1572,1572,0,0,0,0,0,0,0,0,0,0
1681546058.40012789,80628569,1583,1582,1568,1568,0,0,0,0,0,0,0,0,0,0
1681546058.50008798,80728529,1586,1585,1565,1566,0,0,0,0,0,0,0,0,0,0
1681546058.60004807,80828489,1586,1585,1564,1565,0,0,0,0,0,0,0,0,0,0
1681546058.70000792,80928449,1585,1584,1564,1565,0,0,0,0,0,0,0,0,0,0
1681546058.79996800,81028409,1585,1583,1567,1567,0,0,0,0,0,0,0,0,0,0
1681546058.89992809,81128369,1583,1582,1570,1570,0,0,0,0,0,0,0,0,0,0
1681546058.99988794,81228329,1579,1579,1572,1572,0,0,0,0,0,0,0,0,0,0
1681546059.09984803,81328289,1578,1578,1576,1576,0,0,0,0,0,0,0,0,0,0
1681546059.19980788,81428249,1577,1577,1580,1580,0,0,0,0,0,0,0,0,0,0
1681546059.29976797,81528209,1574,1574,1582,1581,0,0,0,0,0,0,0,0,0,0
1681546059.39972806,81628169,1573,1574,1583,1583,0,0,0,0,0,0,0,0,0,0
1681546059.50052094,81728962,1573,1573,1585,1584,0,0,0,0,0,0,0,0,0,0
1681546059.60048103,81828922,1573,1574,1585,1585,0,0,0,0,0,0,0,0,0,0
1681546059.70044088,81928882,1574,1575,1585,1585,0,0,0,0,0,0,0,0,0,0
1681546059.80040097,82028842,1575,1576,1584,1584,0,0,0,0,0,0,0,0,0,0
1681546059.90036106,82128802,1576,1576,1582,1582,0,0,0,0,0,0,0,0,0,0
1681546060.00032091,82228762,1577,1577,1581,1581,0,0,0,0,0,0,0,0,0,0
1681546060.10028100,82328722,1578,1578,1580,1579,0,0,0,0,0,0,0,0,0,0
1681546060.20024109,82428682,1579,1579,1578,1578,0,0,0,0,0,0,0,0,0,0
1681546060.30020094,82528642,1581,1580,1577,1578,0,0,0,0,0,0,0,0,0,0
1681546060.40016103,82628602,1581,1581,1577,1577,0,0,0,0,0,0,0,0,0,0
1681546060.50012112,82728562,1582,1582,1577,1578,0,0,0,0,0,0,0,0,0,0
1681546060.60008097,82828522,1582,1582,1577,1578,0,0,0,0,0,0,0,0,0,0
1681546060.70004106,82928482,1582,1582,1578,1578,0,0,0,0,0,0,0,0,0,0
1681546060.80000091,83028442,1581,1581,1578,1578,0,0,0,0,0,0,0,0,0,0
1681546060.89996099,83128402,1581,1581,1579,1579,0,0,0,0,0,0,0,0,0,0
1681546060.99992108,83228362,1581,1581,1580,1579,0,0,0,0,0,0,0,0,0,0
1681546061.09988093,83328322,1580,1581,1580,1581,0,0,0,0,0,0,0,0,0,0
1681546061.19984102,83428282,1581,1581,1582,1582,0,0,0,0,0,0,0,0,0,0
1681546061.29980111,83528242,1580,1580,1581,1581,0,0,0,0,0,0,0,0,0,0
1681546061.39976096,83628202,1580,1580,1582,1581,0,0,0,0,0,0,0,0,0,0
1681546061.49972105,83728162,1580,1579,1582,1581,0,0,0,0,0,0,0,0,0,0
1681546061.60051394,83828955,1580,1581,1582,1582,0,0,0,0,0,0,0,0,0,0
1681546061.70047402,83928915,1581,1581,1582,1582,0,0,0,0,0,0,0,0,0,0
1681546061.80043411,84028875,1579,1579,1581,1581,0,0,0,0,0,0,0,0,0,0
1681546061.90039396,84128835,1580,1579,1581,1581,0,0,0,0,0,0,0,0,0,0
1681546062.00035405,84228795,1580,1581,1586,1574,0,0,0,0,0,0,0,0,0,0
1681546062.10031390,84328755,1580,1581,1585,1572,0,0,0,0,0,0,0,0,0,0
1681546062.20027399,84428715,1578,1578,1580,1574,0,0,0,0,0,0,0,0,0,0
1681546062.30023408,84528675,1575,1575,1573,1576,0,0,0,0,0,0,0,0,0,0
1681546062.40019393,84628635,1571,1571,1568,1575,0,0,0,0,0,0,0,0,0,0
1681546062.50015402,84728595,1569,1568,1565,1572,0,0,0,0,0,0,0,0,0,0
1681546062.60011411,84828555,1567,1567,1565,1570,0,0,0,0,0,0,0,0,0,0
1681546062.70007396,84928515,1568,1567,1566,1568,0,0,0,0,0,0,0,0,0,0
1681546062.80003405,85028475,1566,1566,1566,1565,0,0,0,0,0,0,0,0,0,0
1681546062.89999390,85128435,1567,1566,1567,1564,0,0,0,0,0,0,0,0,0,0
1681546062.99995399,85228395,1566,1566,1566,1564,0,0,0,0,0,0,0,0,0,0
1681546063.09991407,85328355,1564,1566,1566,1564,0,0,0,0,0,0,0,0,0,0
1681546063.19987392,85428315,1563,1564,1564,1563,0,0,0,0,0,0,0,0,0,0
1681546063.29983401,85528275,1563,1563,1564,1564,0,0,0,0,0,0,0,0,0,0
1681546063.39979410,85628235,1563,1563,1563,1564,0,0,0,0,0,0,0,0,0,0
1681546063.49975395,85728195,1563,1562,1563,1564,0,0,0,0,0,0,0,0,0,0
1681546063.59971404,85828155,1562,1561,1562,1562,0,0,0,0,0,0,0,0,0,0
1681546063.70050693,85928948,1561,1560,1561,1561,0,0,0,0,0,0,0,0,0,0
1681546063.80046701,86028908,1560,1560,1561,1560,0,0,0,0,0,0,0,0,0,0
1681546063.90042710,86128868,1559,1559,1560,1559,0,0,0,0,0,0,0,0,0,0
1681546064.00038695,86228828,1559,1559,1560,1558,0,0,0,0,0,0,0,0,0,0
1681546064.10034704,86328788,1558,1558,1558,1558,0,0,0,0,0,0,0,0,0,0
1681546064.20030689,86428748,1556,1556,1557,1556,0,0,0,0,0,0,0,0,0,0
1681546064.30026698,86528708,1557,1557,1557,1557,0,0,0,0,0,0,0,0,0,0
1681546064.40022707,86628668,1556,1557,1557,1556,0,0,0,0,0,0,0,0,0,0
1681546064.50018692,86728628,1557,1557,1557,1556,0,0,0,0,0,0,0,0,0,0
1681546064.60014701,86828588,1558,1558,1558,1556,0,0,0,0,0,0,0,0,0,0
1681546064.70010710,86928548,1558,1558,1559,1556,0,0,0,0,0,0,0,0,0,0
1681546064.80006695,87028508,1560,1559,1559,1559,0,0,0,0,0,0,0,0,0,0
1681546064.90002704,87128468,1559,1559,1558,1561,0,0,0,0,0,0,0,0,0,0
1681546064.99998689,87228428,1560,1560,1557,1563,0,0,0,0,0,0,0,0,0,0
1681546065.09994698,87328388,1560,1560,1558,1563,0,0,0,0,0,0,0,0,0,0
1681546065.19990706,87428348,1561,1562,1559,1563,0,0,0,0,0,0,0,0,0,0
1681546065.29986691,87528308,1562,1562,1560,1563,0,0,0,0,0,0,0,0,0,0
1681546065.39982700,87628268,1561,1561,1562,1560,0,0,0,0,0,0,0,0,0,0
1681546065.49978709,87728228,1560,1560,1562,1558,0,0,0,0,0,0,0,0,0,0
1681546065.59974694,87828188,1559,1559,1561,1558,0,0,0,0,0,0,0,0,0,0
1681546065.70054007,87928981,1558,1558,1557,1561,0,0,0,0,0,0,0,0,0,0
1681546065.80049992,88028941,1555,1555,1554,1559,0,0,0,0,0,0,0,0,0,0
1681546065.90046000,88128901,1551,1551,1550,1554,0,0,0,0,0,0,0,0,0,0
1681546066.00042009,88228861,1545,1545,1546,1547,0,0,0,0,0,0,0,0,0,0
1681546066.10037994,88328821,1539,1538,1541,1540,0,0,0,0,0,0,0,0,0,0
1681546066.20034003,88428781,1531,1531,1534,1532,0,0,0,0,0,0,0,0,0,0
1681546066.30029988,88528741,1525,1524,1527,1525,0,0,0,0,0,0,0,0,0,0
1681546066.40025997,88628701,1520,1521,1522,1521,0,0,0,0,0,0,0,0,0,0
1681546066.50022006,88728661,1519,1519,1519,1520,0,0,0,0,0,0,0,0,0,0
1681546066.60017991,88828621,1521,1522,1520,1522,0,0,0,0,0,0,0,0,0,0
1681546066.70014000,88928581,1523,1523,1521,1522,0,0,0,0,0,0,0,0,0,0
1681546066.80010009,89028541,1526,1526,1523,1524,0,0,0,0,0,0,0,0,0,0
1681546066.90005994,89128501,1531,1531,1528,1528,0,0,0,0,0,0,0,0,0,0
1681546067.00002003,89228461,1536,1536,1533,1532,0,0,0,0,0,0,0,0,0,0
1681546067.09998012,89328421,1539,1539,1536,1535,0,0,0,0,0,0,0,0,0,0
1681546067.19993997,89428381,1541,1541,1539,1538,0,0,0,0,0,0,0,0,0,0
1681546067.29990005,89528341,1543,1543,1542,1540,0,0,0,0,0,0,0,0,0,0
1681546067.39985991,89628301,1544,1544,1544,1543,0,0,0,0,0,0,0,0,0,0
1681546067.49981999,89728261,1545,1545,1546,1545,0,0,0,0,0,0,0,0,0,0
1681546067.59978008,89828221,1544,1545,1546,1545,0,0,0,0,0,0,0,0,0,0
1681546067.69973993,89928181,1544,1545,1547,1547,0,0,0,0,0,0,0,0,0,0
1681546067.80053306,90028974,1545,1545,1547,1547,0,0,0,0,0,0,0,0,0,0
1681546067.90049291,90128934,1546,1545,1548,1548,0,0,0,0,0,0,0,0,0,0
1681546068.00045300,90228894,1545,1545,1547,1547,0,0,0,0,0,0,0,0,0,0
1681546068.10041308,90328854,1545,1545,1546,1547,0,0,0,0,0,0,0,0,0,0
1681546068.20037293,90428814,1545,1546,1547,1547,0,0,0,0,0,0,0,0,0,0
1681546068.30033302,90528774,1546,1545,1546,1546,0,0,0,0,0,0,0,0,0,0
1681546068.40029311,90628734,1545,1545,1545,1544,0,0,0,0,0,0,0,0,0,0
1681546068.50025296,90728694,1545,1545,1545,1544,0,0,0,0,0,0,0,0,0,0
1681546068.60021305,90828654,1545,1545,1544,1544,0,0,0,0,0,0,0,0,0,0
1681546068.70017290,90928614,1545,1545,1544,1545,0,0,0,0,0,0,0,0,0,0
1681546068.80013299,91028574,1545,1545,1544,1545,0,0,0,0,0,0,0,0,0,0
1681546068.90009308,91128534,1545,1545,1544,1544,0,0,0,0,0,0,0,0,0,0
1681546069.00005293,91228494,1544,1544,1544,1543,0,0,0,0,0,0,0,0,0,0
1681546069.10001302,91328454,1544,1544,1543,1543,0,0,0,0,0,0,0,0,0,0
1681546069.19997311,91428414,1544,1544,1544,1544,0,0,0,0,0,0,0,0,0,0
1681546069.29993296,91528374,1544,1544,1544,1544,0,0,0,0,0,0,0,0,0,0
1681546069.39989305,91628334,1543,1544,1544,1543,0,0,0,0,0,0,0,0,0,0
1681546069.49985290,91728294,1545,1544,1544,1545,0,0,0,0,0,0,0,0,0,0
1681546069.59981298,91828254,1544,1544,1545,1544,0,0,0,0,0,0,0,0,0,0
1681546069.69977307,91928214,1544,1544,1544,1544,0,0,0,0,0,0,0,0,0,0
1681546069.79973292,92028174,1544,1544,1544,1544,0,0,0,0,0,0,0,0,0,0
1681546069.90052605,92128967,1544,1544,1544,1544,0,0,0,0,0,0,0,0,0,0
1681546070.00048590,92228927,1544,1544,1544,1544,0,0,0,0,0,0,0,0,0,0
1681546070.10044599,92328887,1544,1545,1545,1545,0,0,0,0,0,0,0,0,0,0
1681546070.20040607,92428847,1544,1544,1545,1545,0,0,0,0,0,0,0,0,0,0
1681546070.30036592,92528807,1543,1543,1544,1544,0,0,0,0,0,0,0,0,0,0
1681546070.40032601,92628767,1544,1544,1544,1544,0,0,0,0,0,0,0,0,0,0
1681546070.50028610,92728727,1544,1544,1544,1545,0,0,0,0,0,0,0,0,0,0
1681546070.60024595,92828687,1544,1545,1544,1544,0,0,0,0,0,0,0,0,0,0
1681546070.70020604,92928647,1545,1545,1545,1544,0,0,0,0,0,0,0,0,0,0
1681546070.80016589,93028607,1544,1544,1543,1543,0,0,0,0,0,0,0,0,0,0
1681546070.90012598,93128567,1544,1544,1544,1544,0,0,0,0,0,0,0,0,0,0
1681546071.00008607,93228527,1544,1544,1544,1544,0,0,0,0,0,0,0,0,0,0
1681546071.10004592,93328487,1545,1544,1544,1545,0,0,0,0,0,0,0,0,0,0
1681546071.20000601,93428447,1545,1544,1545,1544,0,0,0,0,0,0,0,0,0,0
1681546071.29996610,93528407,1544,1545,1545,1544,0,0,0,0,0,0,0,0,0,0
1681546071.39992595,93628367,1544,1544,1544,1544,0,0,0,0,0,0,0,0,0,0
1681546071.49988604,93728327,1544,1543,1544,1544,0,0,0,0,0,0,0,0,0,0
1681546071.59984589,93828287,1543,1544,1544,1544,0,0,0,0,0,0,0,0,0,0
1681546071.69980597,93928247,1543,1543,1543,1543,0,0,0,0,0,0,0,0,0,0
1681546071.79976606,94028207,1544,1543,1544,1544,0,0,0,0,0,0,0,0,0,0
1681546071.89972591,94128167,1543,1543,1543,1543,0,0,0,0,0,0,0,0,0,0
1681546072.00051904,94228960,1544,1544,1544,1544,0,0,0,0,0,0,0,0,0,0
1681546072.10047889,94328920,1544,1544,1544,1545,0,0,0,0,0,0,0,0,0,0
1681546072.20043898,94428880,1544,1545,1545,1545,0,0,0,0,0,0,0,0,0,0
1681546072.30039907,94528840,1544,1544,1544,1544,0,0,0,0,0,0,0,0,0,0
1681546072.40035892,94628800,1545,1544,1544,1544,0,0,0,0,0,0,0,0,0,0
1681546072.50031900,94728760,1545,1544,1544,1544,0,0,0,0,0,0,0,0,0,0
1681546072.60027909,94828720,1544,1543,1544,1543,0,0,0,0,0,0,0,0,0,0
1681546072.70023894,94928680,1544,1544,1544,1544,0,0,0,0,0,0,0,0,0,0
1681546072.80019903,95028640,1545,1545,1545,1544,0,0,0,0,0,0,0,0,0,0
1681546072.90015888,95128600,1544,1545,1544,1545,0,0,0,0,0,0,0,0,0,0
1681546073.00011897,95228560,1544,1545,1545,1544,0,0,0,0,0,0,0,0,0,0
1681546073.10007906,95328520,1545,1545,1545,1545,0,0,0,0,0,0,0,0,0,0
1681546073.20003891,95428480,1545,1545,1545,1545,0,0,0,0,0,0,0,0,0,0
1681546073.29999900,95528440,1545,1544,1544,1545,0,0,0,0,0,0,0,0,0,0
1681546073.39995909,95628400,1544,1544,1544,1545,0,0,0,0,0,0,0,0,0,0
1681546073.49991894,95728360,1544,1544,1544,1545,0,0,0,0,0,0,0,0,0,0
1681546073.59987903,95828320,1544,1544,1544,1544,0,0,0,0,0,0,0,0,0,0
1681546073.69983912,95928280,1545,1545,1545,1545,0,0,0,0,0,0,0,0,0,0
1681546073.79979897,96028240,1544,1544,1544,1544,0,0,0,0,0,0,0,0,0,0
1681546073.89975905,96128200,1544,1544,1545,1544,0,0,0,0,0,0,0,0,0,0
1681546073.99971890,96228160,1544,1544,1544,1544,0,0,0,0,0,0,0,0,0,0
1681546074.10051203,96328953,1544,1544,1544,1544,0,0,0,0,0,0,0,0,0,0
1681546074.20047212,96428913,1543,1544,1544,1543,0,0,0,0,0,0,0,0,0,0
1681546074.30043197,96528873,1544,1543,1544,1544,0,0,0,0,0,0,0,0,0,0
1681546074.40039206,96628833,1544,1545,1545,1544,0,0,0,0,0,0,0,0,0,0
1681546074.50035191,96728793,1544,1544,1544,1544,0,0,0,0,0,0,0,0,0,0
1681546074.60031199,96828753,1545,1545,1544,1544,0,0,0,0,0,0,0,0,0,0
1681546074.70027208,96928713,1544,1544,1544,1544,0,0,0,0,0,0,0,0,0,0
1681546074.80023193,97028673,1543,1543,1543,1544,0,0,0,0,0,0,0,0,0,0
1681546074.90019202,97128633,1544,1544,1544,1544,0,0,0,0,0,0,0,0,0,0
1681546075.00015211,97228593,1545,1544,1544,1544,0,0,0,0,0,0,0,0,0,0
1681546075.10011196,97328553,1545,1544,1545,1545,0,0,0,0,0,0,0,0,0,0
1681546075.20007205,97428513,1544,1544,1544,1544,0,0,0,0,0,0,0,0,0,0
1681546075.30003190,97528473,1544,1544,1544,1544,0,0,0,0,0,0,0,0,0,0
1681546075.39999199,97628433,1545,1545,1545,1544,0,0,0,0,0,0,0,0,0,0
1681546075.49995208,97728393,1544,1544,1544,1544,0,0,0,0,0,0,0,0,0,0
1681546075.59991193,97828353,1545,1545,1545,1544,0,0,0,0,0,0,0,0,0,0
1681546075.69987202,97928313,1544,1544,1544,1545,0,0,0,0,0,0,0,0,0,0
1681546075.79983211,98028273,1545,1545,1545,1545,0,0,0,0,0,0,0,0,0,0
1681546075.89979196,98128233,1545,1545,1545,1545,0,0,0,0,0,0,0,0,0,0
1681546075.99975204,98228193,1545,1545,1545,1545,0,0,0,0,0,0,0,0,0,0
1681546076.10054493,98328986,1491,1490,1503,1491,0,0,0,0,0,0,0,0,0,0
1681546076.20050502,98428946,1316,1313,1375,1316,0,0,0,0,0,0,0,0,0,0
1681546076.30046511,98528906,1236,1233,1323,1236,0,0,0,0,0,0,0,0,0,0
1681546076.40042496,98628866,1210,1208,1308,1210,0,0,0,0,0,0,0,0,0,0
1681546076.50038505,98728826,1182,1179,1292,1182,0,0,0,0,0,0,0,0,0,0
1681546076.60034490,98828786,1153,1150,1276,1152,0,0,0,0,0,0,0,0,0,0
1681546076.70030499,98928746,1153,1150,1217,1152,0,0,0,0,0,0,0,0,0,0
1681546076.80026507,99028706,1152,1150,1217,1151,0,0,0,0,0,0,0,0,0,0
1681546076.90022492,99128666,1153,1150,1217,1152,0,0,0,0,0,0,0,0,0,0
1681546077.00018501,99228626,1171,1150,1192,1173,0,0,0,0,0,0,0,0,0,0
1681546077.10014510,99328586,1164,1150,1201,1166,0,0,0,0,0,0,0,0,0,0
1681546077.20010495,99428546,1161,1150,1205,1163,0,0,0,0,0,0,0,0,0,0
1681546077.30006504,99528506,1161,1150,1204,1164,0,0,0,0,0,0,0,0,0,0
1681546077.40002489,99628466,1161,1150,1204,1164,0,0,0,0,0,0,0,0,0,0
1681546077.49998498,99728426,1162,1150,1203,1165,0,0,0,0,0,0,0,0,0,0
1681546077.59994507,99828386,1161,1150,1203,1165,0,0,0,0,0,0,0,0,0,0
1681546077.69990492,99928346,1162,1150,1203,1166,0,0,0,0,0,0,0,0,0,0
1681546077.79986501,100028306,1151,1150,1215,1156,0,0,0,0,0,0,0,0,0,0
1681546077.89982510,100128266,1152,1150,1214,1157,0,0,0,0,0,0,0,0,0,0
1681546077.99978495,100228226,1153,1150,1213,1158,0,0,0,0,0,0,0,0,0,0
1681546078.09974504,100328186,1153,1150,1213,1158,0,0,0,0,0,0,0,0,0,0
1681546078.20053792,100428979,1151,1150,1072,1153,0,0,0,0,0,0,0,0,0,0
1681546078.30049801,100528939,1000,1000,1000,1000,0,0,0,0,0,0,0,0,0,0
1681546078.40045810,100628899,1000,1000,1000,1000,0,0,0,0,0,0,0,0,0,0
1681546078.50041795,100728859,1000,1000,1000,1000,0,0,0,0,0,0,0,0,0,0
1681546078.60037804,100828819,1000,1000,1000,1000,0,0,0,0,0,0,0,0,0,0
1681546078.70033789,100928779,1000,1000,1000,1000,0,0,0,0,0,0,0,0,0,0
1681546078.80029798,101028739,1000,1000,1000,1000,0,0,0,0,0,0,0,0,0,0
1681546078.90025806,101128699,1000,1000,1000,1000,0,0,0,0,0,0,0,0,0,0
1681546079.00021791,101228659,1000,1000,1000,1000,0,0,0,0,0,0,0,0,0,0
1681546079.10017800,101328619,1000,1000,1000,1000,0,0,0,0,0,0,0,0,0,0
1681546079.20013809,101428579,1000,1000,1000,1000,0,0,0,0,0,0,0,0,0,0
1681546079.30009794,101528539,1000,1000,1000,1000,0,0,0,0,0,0,0,0,0,0
1681546079.40005803,101628499,1000,1000,1000,1000,0,0,0,0,0,0,0,0,0,0
1681546079.50001788,101728459,1000,1000,1000,1000,0,0,0,0,0,0,0,0,0,0
1681546079.59997797,101828419,1000,1000,1000,1000,0,0,0,0,0,0,0,0,0,0
1681546079.69993806,101928379,1000,1000,1000,1000,0,0,0,0,0,0,0,0,0,0
1681546079.79989791,102028339,1000,1000,1000,1000,0,0,0,0,0,0,0,0,0,0
1681546079.89985800,102128299,1000,1000,1000,1000,0,0,0,0,0,0,0,0,0,0
1681546079.99981809,102228259,1000,1000,1000,1000,0,0,0,0,0,0,0,0,0,0
1681546080.09977794,102328219,1000,1000,1000,1000,0,0,0,0,0,0,0,0,0,0
1681546080.19973803,102428179,1000,1000,1000,1000,0,0,0,0,0,0,0,0,0,0
1681546080.30053091,102528972,1000,1000,1000,1000,0,0,0,0,0,0,0,0,0,0
1681546080.40049100,102628932,1000,1000,1000,1000,0,0,0,0,0,0,0,0,0,0
1681546080.50045109,102728892,1000,1000,1000,1000,0,0,0,0,0,0,0,0,0,0
1681546080.60041094,102828852,1000,1000,1000,1000,0,0,0,0,0,0,0,0,0,0
1681546080.70037103,102928812,1000,1000,1000,1000,0,0,0,0,0,0,0,0,0,0
1681546080.80033112,103028772,1000,1000,1000,1000,0,0,0,0,0,0,0,0,0,0
1681546080.90029097,103128732,1000,1000,1000,1000,0,0,0,0,0,0,0,0,0,0
1681546081.00025105,103228692,1000,1000,1000,1000,0,0,0,0,0,0,0,0,0,0
1681546081.10021091,103328652,1000,1000,1000,1000,0,0,0,0,0,0,0,0,0,0
1681546081.20017099,103428612,1000,1000,1000,1000,0,0,0,0,0,0,0,0,0,0
1681546081.30013108,103528572,1000,1000,1000,1000,0,0,0,0,0,0,0,0,0,0
1681546081.40009093,103628532,1000,1000,1000,1000,0,0,0,0,0,0,0,0,0,0
1681546081.50005102,103728492,1000,1000,1000,1000,0,0,0,0,0,0,0,0,0,0
1681546081.60001111,103828452,1000,1000,1000,1000,0,0,0,0,0,0,0,0,0,0
1681546081.69997096,103928412,1000,1000,1000,1000,0,0,0,0,0,0,0,0,0,0
1681546081.79993105,104028372,1000,1000,1000,1000,0,0,0,0,0,0,0,0,0,0
1681546081.89989090,104128332,1000,1000,1000,1000,0,0,0,0,0,0,0,0,0,0
1681546081.99985099,104228292,1000,1000,1000,1000,0,0,0,0,0,0,0,0,0,0
1681546082.09981108,104328252,1000,1000,1000,1000,0,0,0,0,0,0,0,0,0,0
1681546082.19977093,104428212,1000,1000,1000,1000,0,0,0,0,0,0,0,0,0,0
1681546082.29973102,104528172,1000,1000,1000,1000,0,0,0,0,0,0,0,0,0,0
1681546082.40052390,104628965,1000,1000,1000,1000,0,0,0,0,0,0,0,0,0,0
1681546082.50048399,104728925,1000,1000,1000,1000,0,0,0,0,0,0,0,0,0,0
1681546082.60044408,104828885,1000,1000,1000,1000,0,0,0,0,0,0,0,0,0,0
1681546082.70040393,104928845,1000,1000,1000,1000,0,0,0,0,0,0,0,0,0,0
1681546082.80036402,105028805,1000,1000,1000,1000,0,0,0,0,0,0,0,0,0,0
1681546082.90032411,105128765,1000,1000,1000,1000,0,0,0,0,0,0,0,0,0,0
1681546083.00028396,105228725,1000,1000,1000,1000,0,0,0,0,0,0,0,0,0,0
1681546083.10024405,105328685,1000,1000,1000,1000,0,0,0,0,0,0,0,0,0,0
1681546083.20020390,105428645,1000,1000,1000,1000,0,0,0,0,0,0,0,0,0,0
1681546083.30016398,105528605,1000,1000,1000,1000,0,0,0,0,0,0,0,0,0,0
1681546083.40012407,105628565,1000,1000,1000,1000,0,0,0,0,0,0,0,0,0,0
1681546083.50008392,105728525,1000,1000,1000,1000,0,0,0,0,0,0,0,0,0,0
1681546083.60004401,105828485,1000,1000,1000,1000,0,0,0,0,0,0,0,0,0,0
1681546083.70000410,105928445,1000,1000,1000,1000,0,0,0,0,0,0,0,0,0,0
1681546083.79996395,106028405,1000,1000,1000,1000,0,0,0,0,0,0,0,0,0,0
1681546083.89992404,106128365,1000,1000,1000,1000,0,0,0,0,0,0,0,0,0,0
1681546083.99988389,106228325,1000,1000,1000,1000,0,0,0,0,0,0,0,0,0,0
1681546084.09984398,106328285,1000,1000,1000,1000,0,0,0,0,0,0,0,0,0,0
1681546084.19980407,106428245,1000,1000,1000,1000,0,0,0,0,0,0,0,0,0,0
1681546084.29976392,106528205,1000,1000,1000,1000,0,0,0,0,0,0,0,0,0,0
1681546084.39972401,106628165,1000,1000,1000,1000,0,0,0,0,0,0,0,0,0,0
1681546084.50051689,106728958,1000,1000,1000,1000,0,0,0,0,0,0,0,0,0,0
1681546084.60047698,106828918,1000,1000,1000,1000,0,0,0,0,0,0,0,0,0,0
1681546084.70043707,106928878,1000,1000,1000,1000,0,0,0,0,0,0,0,0,0,0
1681546084.80039692,107028838,1000,1000,1000,1000,0,0,0,0,0,0,0,0,0,0
1681546084.90035701,107128798,1000,1000,1000,1000,0,0,0,0,0,0,0,0,0,0
1681546085.00031710,107228758,1000,1000,1000,1000,0,0,0,0,0,0,0,0,0,0
1681546085.10027695,107328718,1000,1000,1000,1000,0,0,0,0,0,0,0,0,0,0
1681546085.20023704,107428678,1000,1000,1000,1000,0,0,0,0,0,0,0,0,0,0
1681546085.30019689,107528638,1000,1000,1000,1000,0,0,0,0,0,0,0,0,0,0
1681546085.40015697,107628598,1000,1000,1000,1000,0,0,0,0,0,0,0,0,0,0
1681546085.50011706,107728558,1000,1000,1000,1000,0,0,0,0,0,0,0,0,0,0
1681546085.60007691,107828518,1000,1000,1000,1000,0,0,0,0,0,0,0,0,0,0
1681546085.70003700,107928478,1000,1000,1000,1000,0,0,0,0,0,0,0,0,0,0
1681546085.79999709,108028438,1000,1000,1000,1000,0,0,0,0,0,0,0,0,0,0
1681546085.89995694,108128398,1000,1000,1000,1000,0,0,0,0,0,0,0,0,0,0
1681546085.99991703,108228358,1000,1000,1000,1000,0,0,0,0,0,0,0,0,0,0
1681546086.09987712,108328318,1000,1000,1000,1000,0,0,0,0,0,0,0,0,0,0
1681546086.19983697,108428278,1000,1000,1000,1000,0,0,0,0,0,0,0,0,0,0
1681546086.29979706,108528238,1000,1000,1000,1000,0,0,0,0,0,0,0,0,0,0
1681546086.39975691,108628198,1000,1000,1000,1000,0,0,0,0,0,0,0,0,0,0
1681546086.49971700,108728158,1000,1000,1000,1000,0,0,0,0,0,0,0,0,0,0
1681546086.60050988,108828951,1000,1000,1000,1000,0,0,0,0,0,0,0,0,0,0
1681546086.70046997,108928911,1000,1000,1000,1000,0,0,0,0,0,0,0,0,0,0
1681546086.80043006,109028871,1000,1000,1000,1000,0,0,0,0,0,0,0,0,0,0
1681546086.90038991,109128831,1000,1000,1000,1000,0,0,0,0,0,0,0,0,0,0
1681546087.00035000,109228791,1000,1000,1000,1000,0,0,0,0,0,0,0,0,0,0
1681546087.10031009,109328751,1000,1000,1000,1000,0,0,0,0,0,0,0,0,0,0
1681546087.20026994,109428711,1000,1000,1000,1000,0,0,0,0,0,0,0,0,0,0
1681546087.30023003,109528671,1000,1000,1000,1000,0,0,0,0,0,0,0,0,0,0
1681546087.40019011,109628631,1000,1000,1000,1000,0,0,0,0,0,0,0,0,0,0
1681546087.50014997,109728591,1000,1000,1000,1000,0,0,0,0,0,0,0,0,0,0
1681546087.60011005,109828551,1000,1000,1000,1000,0,0,0,0,0,0,0,0,0,0
1681546087.70006990,109928511,1000,1000,1000,1000,0,0,0,0,0,0,0,0,0,0
1681546087.80002999,110028471,1000,1000,1000,1000,0,0,0,0,0,0,0,0,0,0
1681546087.89999008,110128431,1000,1000,1000,1000,0,0,0,0,0,0,0,0,0,0
1681546087.99994993,110228391,1000,1000,1000,1000,0,0,0,0,0,0,0,0,0,0
1681546088.09991002,110328351,1000,1000,1000,1000,0,0,0,0,0,0,0,0,0,0
1681546088.19987011,110428311,1000,1000,1000,1000,0,0,0,0,0,0,0,0,0,0
1681546088.29982996,110528271,1000,1000,1000,1000,0,0,0,0,0,0,0,0,0,0
1681546088.39979005,110628231,1000,1000,1000,1000,0,0,0,0,0,0,0,0,0,0
1681546088.49974990,110728191,1000,1000,1000,1000,0,0,0,0,0,0,0,0,0,0
1681546088.60054302,110828984,1000,1000,1000,1000,0,0,0,0,0,0,0,0,0,0
1681546088.70050311,110928944,1000,1000,1000,1000,0,0,0,0,0,0,0,0,0,0
1681546088.80046296,111028904,1000,1000,1000,1000,0,0,0,0,0,0,0,0,0,0
1681546088.90042305,111128864,1000,1000,1000,1000,0,0,0,0,0,0,0,0,0,0
1681546089.00038290,111228824,1000,1000,1000,1000,0,0,0,0,0,0,0,0,0,0
1681546089.10034299,111328784,1000,1000,1000,1000,0,0,0,0,0,0,0,0,0,0
1681546089.20030308,111428744,1000,1000,1000,1000,0,0,0,0,0,0,0,0,0,0
1681546089.30026293,111528704,1000,1000,1000,1000,0,0,0,0,0,0,0,0,0,0
1681546089.40022302,111628664,1000,1000,1000,1000,0,0,0,0,0,0,0,0,0,0
1681546089.50018311,111728624,1000,1000,1000,1000,0,0,0,0,0,0,0,0,0,0
1681546089.60014296,111828584,1000,1000,1000,1000,0,0,0,0,0,0,0,0,0,0
1681546089.70010304,111928544,1000,1000,1000,1000,0,0,0,0,0,0,0,0,0,0
1681546089.80006289,112028504,1000,1000,1000,1000,0,0,0,0,0,0,0,0,0,0
1681546089.90002298,112128464,1000,1000,1000,1000,0,0,0,0,0,0,0,0,0,0
1681546089.99998307,112228424,1000,1000,1000,1000,0,0,0,0,0,0,0,0,0,0
1681546090.09994292,112328384,1000,1000,1000,1000,0,0,0,0,0,0,0,0,0,0
1681546090.19990301,112428344,1000,1000,1000,1000,0,0,0,0,0,0,0,0,0,0
1681546090.29986310,112528304,1000,1000,1000,1000,0,0,0,0,0,0,0,0,0,0
1681546090.39982295,112628264,1000,1000,1000,1000,0,0,0,0,0,0,0,0,0,0
1681546090.49978304,112728224,1000,1000,1000,1000,0,0,0,0,0,0,0,0,0,0
1681546090.59974289,112828184,1000,1000,1000,1000,0,0,0,0,0,0,0,0,0,0
1681546090.70053601,112928977,1000,1000,1000,1000,0,0,0,0,0,0,0,0,0,0
1681546090.80049610,113028937,1000,1000,1000,1000,0,0,0,0,0,0,0,0,0,0
1681546090.90045595,113128897,1000,1000,1000,1000,0,0,0,0,0,0,0,0,0,0
1681546091.00041604,113228857,1000,1000,1000,1000,0,0,0,0,0,0,0,0,0,0
1681546091.10037589,113328817,1000,1000,1000,1000,0,0,0,0,0,0,0,0,0,0
1681546091.20033598,113428777,1000,1000,1000,1000,0,0,0,0,0,0,0,0,0,0
1681546091.30029607,113528737,1000,1000,1000,1000,0,0,0,0,0,0,0,0,0,0
1681546091.40025592,113628697,1000,1000,1000,1000,0,0,0,0,0,0,0,0,0,0
1681546091.50021601,113728657,1000,1000,1000,1000,0,0,0,0,0,0,0,0,0,0
1681546091.60017610,113828617,1000,1000,1000,1000,0,0,0,0,0,0,0,0,0,0
1681546091.70013595,113928577,1000,1000,1000,1000,0,0,0,0,0,0,0,0,0,0
1681546091.80009604,114028537,1000,1000,1000,1000,0,0,0,0,0,0,0,0,0,0
1681546091.90005589,114128497,1000,1000,1000,1000,0,0,0,0,0,0,0,0,0,0
1681546092.00001597,114228457,1000,1000,1000,1000,0,0,0,0,0,0,0,0,0,0
1681546092.09997606,114328417,1000,1000,1000,1000,0,0,0,0,0,0,0,0,0,0
1681546092.19993591,114428377,1000,1000,1000,1000,0,0,0,0,0,0,0,0,0,0
1681546092.29989600,114528337,1000,1000,1000,1000,0,0,0,0,0,0,0,0,0,0
1681546092.39985609,114628297,1000,1000,1000,1000,0,0,0,0,0,0,0,0,0,0
1681546092.49981594,114728257,1000,1000,1000,1000,0,0,0,0,0,0,0,0,0,0
1681546092.59977603,114828217,1000,1000,1000,1000,0,0,0,0,0,0,0,0,0,0
1681546092.69973612,114928177,1000,1000,1000,1000,0,0,0,0,0,0,0,0,0,0
1681546092.80052900,115028970,1000,1000,1000,1000,0,0,0,0,0,0,0,0,0,0
1681546092.90048909,115128930,1000,1000,1000,1000,0,0,0,0,0,0,0,0,0,0
1681546093.00044894,115228890,1000,1000,1000,1000,0,0,0,0,0,0,0,0,0,0
1681546093.10040903,115328850,1000,1000,1000,1000,0,0,0,0,0,0,0,0,0,0
1681546093.20036888,115428810,1000,1000,1000,1000,0,0,0,0,0,0,0,0,0,0
