timestamp,TimeUS,C1,C2,C3,C4,C5,C6,C7,C8,C9,C10,C11,C12,C13,C14
1681545402.20000005,52028347,1000,1000,1000,1000,0,0,0,0,0,0,0,0,0,0
1681545402.29996014,52128307,1000,1000,1000,1000,0,0,0,0,0,0,0,0,0,0
1681545402.39991999,52228267,1000,1000,1000,1000,0,0,0,0,0,0,0,0,0,0
1681545402.49988008,52328227,1000,1000,1000,1000,0,0,0,0,0,0,0,0,0,0
1681545402.59983993,52428187,1000,1000,1000,1000,0,0,0,0,0,0,0,0,0,0
1681545402.70063305,52528980,1000,1000,1000,1000,0,0,0,0,0,0,0,0,0,0
1681545402.80059314,52628940,1000,1000,1000,1000,0,0,0,0,0,0,0,0,0,0
1681545402.90055299,52728900,1000,1000,1000,1000,0,0,0,0,0,0,0,0,0,0
1681545403.00051308,52828860,1000,1000,1000,1000,0,0,0,0,0,0,0,0,0,0
1681545403.10047293,52928820,1000,1000,1000,1000,0,0,0,0,0,0,0,0,0,0
1681545403.20043302,53028780,1000,1000,1000,1000,0,0,0,0,0,0,0,0,0,0
1681545403.30039310,53128740,1000,1000,1000,1000,0,0,0,0,0,0,0,0,0,0
1681545403.40035295,53228700,1000,1000,1000,1000,0,0,0,0,0,0,0,0,0,0
1681545403.50031304,53328660,1000,1000,1000,1000,0,0,0,0,0,0,0,0,0,0
1681545403.60027313,53428620,1000,1000,1000,1000,0,0,0,0,0,0,0,0,0,0
1681545403.70023298,53528580,1000,1000,1000,1000,0,0,0,0,0,0,0,0,0,0
1681545403.80019307,53628540,1000,1000,1000,1000,0,0,0,0,0,0,0,0,0,0
1681545403.90015292,53728500,1000,1000,1000,1000,0,0,0,0,0,0,0,0,0,0
1681545404.00011301,53828460,1000,1000,1000,1000,0,0,0,0,0,0,0,0,0,0
1681545404.10007310,53928420,1000,1000,1000,1000,0,0,0,0,0,0,0,0,0,0
1681545404.20003295,54028380,1024,1024,1024,1024,0,0,0,0,0,0,0,0,0,0
1681545404.29999304,54128340,1054,1054,1054,1054,0,0,0,0,0,0,0,0,0,0
1681545404.39995313,54228300,1084,1084,1084,1084,0,0,0,0,0,0,0,0,0,0
1681545404.49991298,54328260,1113,1113,1113,1113,0,0,0,0,0,0,0,0,0,0
1681545404.59987307,54428220,1143,1143,1143,1143,0,0,0,0,0,0,0,0,0,0
1681545404.69983292,54528180,1357,1351,1351,1358,0,0,0,0,0,0,0,0,0,0
1681545404.80062604,54628973,1546,1541,1542,1547,0,0,0,0,0,0,0,0,0,0
1681545404.90058613,54728933,1699,1694,1695,1699,0,0,0,0,0,0,0,0,0,0
1681545405.00054598,54828893,1830,1825,1826,1830,0,0,0,0,0,0,0,0,0,0
1681545405.10050607,54928853,1901,1896,1896,1901,0,0,0,0,0,0,0,0,0,0
1681545405.20046592,55028813,1845,1843,1843,1845,0,0,0,0,0,0,0,0,0,0
1681545405.30042601,55128773,1718,1716,1716,1719,0,0,0,0,0,0,0,0,0,0
1681545405.40038610,55228733,1642,1644,1639,1647,0,0,0,0,0,0,0,0,0,0
1681545405.50034595,55328693,1627,1630,1626,1632,0,0,0,0,0,0,0,0,0,0
1681545405.60030603,55428653,1635,1637,1635,1636,0,0,0,0,0,0,0,0,0,0
1681545405.70026612,55528613,1639,1641,1642,1638,0,0,0,0,0,0,0,0,0,0
1681545405.80022597,55628573,1637,1638,1640,1635,0,0,0,0,0,0,0,0,0,0
1681545405.90018606,55728533,1631,1631,1633,1629,0,0,0,0,0,0,0,0,0,0
1681545406.00014615,55828493,1625,1624,1626,1623,0,0,0,0,0,0,0,0,0,0
1681545406.10010600,55928453,1622,1621,1622,1620,0,0,0,0,0,0,0,0,0,0
1681545406.20006609,56028413,1620,1619,1620,1619,0,0,0,0,0,0,0,0,0,0
1681545406.30002594,56128373,1594,1594,1599,1588,0,0,0,0,0,0,0,0,0,0
1681545406.39998603,56228333,1578,1578,1585,1571,0,0,0,0,0,0,0,0,0,0
1681545406.49994612,56328293,1566,1567,1568,1564,0,0,0,0,0,0,0,0,0,0
1681545406.59990597,56428253,1557,1558,1556,1560,0,0,0,0,0,0,0,0,0,0
1681545406.69986606,56528213,1550,1550,1546,1554,0,0,0,0,0,0,0,0,0,0
1681545406.79982615,56628173,1543,1543,1535,1550,0,0,0,0,0,0,0,0,0,0
1681545406.90061903,56728966,1537,1536,1529,1544,0,0,0,0,0,0,0,0,0,0
1681545407.00057912,56828926,1532,1531,1527,1535,0,0,0,0,0,0,0,0,0,0
1681545407.10053897,56928886,1527,1527,1526,1528,0,0,0,0,0,0,0,0,0,0
1681545407.20049906,57028846,1526,1526,1527,1525,0,0,0,0,0,0,0,0,0,0
1681545407.30045915,57128806,1527,1527,1529,1525,0,0,0,0,0,0,0,0,0,0
1681545407.40041900,57228766,1530,1530,1533,1527,0,0,0,0,0,0,0,0,0,0
1681545407.50037909,57328726,1534,1534,1537,1532,0,0,0,0,0,0,0,0,0,0
1681545407.60033894,57428686,1537,1538,1539,1536,0,0,0,0,0,0,0,0,0,0
1681545407.70029902,57528646,1541,1542,1543,1541,0,0,0,0,0,0,0,0,0,0
1681545407.80025911,57628606,1544,1545,1545,1544,0,0,0,0,0,0,0,0,0,0
1681545407.90021896,57728566,1548,1548,1548,1548,0,0,0,0,0,0,0,0,0,0
1681545408.00017905,57828526,1551,1551,1551,1551,0,0,0,0,0,0,0,0,0,0
1681545408.10013914,57928486,1554,1553,1552,1554,0,0,0,0,0,0,0,0,0,0
1681545408.20009899,58028446,1556,1555,1554,1557,0,0,0,0,0,0,0,0,0,0
1681545408.30005908,58128406,1555,1554,1560,1563,0,0,0,0,0,0,0,0,0,0
1681545408.40001893,58228366,1555,1555,1563,1564,0,0,0,0,0,0,0,0,0,0
1681545408.49997902,58328326,1558,1558,1565,1565,0,0,0,0,0,0,0,0,0,0
1681545408.59993911,58428286,1561,1561,1566,1565,0,0,0,0,0,0,0,0,0,0
1681545408.69989896,58528246,1564,1564,1566,1566,0,0,0,0,0,0,0,0,0,0
1681545408.79985905,58628206,1566,1566,1566,1565,0,0,0,0,0,0,0,0,0,0
1681545408.89981914,58728166,1568,1567,1565,1565,0,0,0,0,0,0,0,0,0,0
1681545409.00061202,58828959,1569,1569,1566,1566,0,0,0,0,0,0,0,0,0,0
1681545409.10057211,58928919,1570,1570,1565,1565,0,0,0,0,0,0,0,0,0,0
1681545409.20053196,59028879,1571,1571,1566,1567,0,0,0,0,0,0,0,0,0,0
1681545409.30049205,59128839,1572,1572,1567,1568,0,0,0,0,0,0,0,0,0,0
1681545409.40045214,59228799,1573,1573,1569,1569,0,0,0,0,0,0,0,0,0,0
1681545409.50041199,59328759,1573,1572,1570,1570,0,0,0,0,0,0,0,0,0,0
1681545409.60037208,59428719,1573,1573,1571,1571,0,0,0,0,0,0,0,0,0,0
1681545409.70033193,59528679,1573,1574,1573,1572,0,0,0,0,0,0,0,0,0,0
1681545409.80029202,59628639,1575,1575,1576,1574,0,0,0,0,0,0,0,0,0,0
1681545409.90025210,59728599,1575,1575,1576,1575,0,0,0,0,0,0,0,0,0,0
1681545410.00021195,59828559,1575,1575,1577,1576,0,0,0,0,0,0,0,0,0,0
1681545410.10017204,59928519,1576,1576,1578,1577,0,0,0,0,0,0,0,0,0,0
1681545410.20013213,60028479,1575,1575,1576,1576,0,0,0,0,0,0,0,0,0,0
1681545410.30009198,60128439,1575,1575,1576,1577,0,0,0,0,0,0,0,0,0,0
1681545410.40005207,60228399,1575,1575,1576,1577,0,0,0,0,0,0,0,0,0,0
1681545410.50001192,60328359,1576,1576,1577,1577,0,0,0,0,0,0,0,0,0,0
1681545410.59997201,60428319,1577,1577,1577,1577,0,0,0,0,0,0,0,0,0,0
1681545410.69993210,60528279,1578,1577,1578,1577,0,0,0,0,0,0,0,0,0,0
1681545410.79989195,60628239,1578,1577,1577,1577,0,0,0,0,0,0,0,0,0,0
1681545410.89985204,60728199,1578,1578,1577,1578,0,0,0,0,0,0,0,0,0,0
1681545410.99981213,60828159,1578,1579,1578,1578,0,0,0,0,0,0,0,0,0,0
1681545411.10060501,60928952,1579,1579,1578,1578,0,0,0,0,0,0,0,0,0,0
1681545411.20056510,61028912,1578,1578,1578,1577,0,0,0,0,0,0,0,0,0,0
1681545411.30052495,61128872,1578,1578,1578,1578,0,0,0,0,0,0,0,0,0,0
1681545411.40048504,61228832,1579,1579,1578,1578,0,0,0,0,0,0,0,0,0,0
1681545411.50044513,61328792,1579,1579,1578,1578,0,0,0,0,0,0,0,0,0,0
1681545411.60040498,61428752,1578,1579,1578,1578,0,0,0,0,0,0,0,0,0,0
1681545411.70036507,61528712,1578,1578,1579,1579,0,0,0,0,0,0,0,0,0,0
1681545411.80032492,61628672,1579,1579,1579,1579,0,0,0,0,0,0,0,0,0,0
1681545411.90028501,61728632,1579,1579,1579,1579,0,0,0,0,0,0,0,0,0,0
1681545412.00024509,61828592,1579,1579,1580,1580,0,0,0,0,0,0,0,0,0,0
1681545412.10020494,61928552,1579,1579,1579,1579,0,0,0,0,0,0,0,0,0,0
1681545412.20016503,62028512,1579,1579,1579,1580,0,0,0,0,0,0,0,0,0,0
1681545412.30012512,62128472,1579,1579,1579,1580,0,0,0,0,0,0,0,0,0,0
1681545412.40008497,62228432,1580,1580,1581,1580,0,0,0,0,0,0,0,0,0,0
1681545412.50004506,62328392,1580,1579,1580,1580,0,0,0,0,0,0,0,0,0,0
1681545412.60000515,62428352,1580,1580,1580,1580,0,0,0,0,0,0,0,0,0,0
1681545412.69996500,62528312,1580,1580,1580,1580,0,0,0,0,0,0,0,0,0,0
1681545412.79992509,62628272,1580,1580,1580,1580,0,0,0,0,0,0,0,0,0,0
1681545412.89988494,62728232,1580,1580,1580,1580,0,0,0,0,0,0,0,0,0,0
1681545412.99984503,62828192,1580,1581,1580,1581,0,0,0,0,0,0,0,0,0,0
1681545413.10063815,62928985,1580,1580,1579,1580,0,0,0,0,0,0,0,0,0,0
1681545413.20059800,63028945,1580,1580,1580,1580,0,0,0,0,0,0,0,0,0,0
1681545413.30055809,63128905,1580,1580,1580,1580,0,0,0,0,0,0,0,0,0,0
1681545413.40051794,63228865,1580,1580,1580,1580,0,0,0,0,0,0,0,0,0,0
1681545413.50047803,63328825,1580,1580,1580,1580,0,0,0,0,0,0,0,0,0,0
1681545413.60043812,63428785,1580,1580,1580,1580,0,0,0,0,0,0,0,0,0,0
1681545413.70039797,63528745,1580,1580,1581,1580,0,0,0,0,0,0,0,0,0,0
1681545413.80035806,63628705,1580,1580,1580,1580,0,0,0,0,0,0,0,0,0,0
1681545413.90031815,63728665,1581,1581,1581,1581,0,0,0,0,0,0,0,0,0,0
1681545414.00027800,63828625,1580,1580,1581,1580,0,0,0,0,0,0,0,0,0,0
1681545414.10023808,63928585,1582,1582,1582,1582,0,0,0,0,0,0,0,0,0,0
1681545414.20019794,64028545,1582,1582,1582,1582,0,0,0,0,0,0,0,0,0,0
1681545414.30015802,64128505,1581,1581,1581,1581,0,0,0,0,0,0,0,0,0,0
1681545414.40011811,64228465,1582,1582,1582,1581,0,0,0,0,0,0,0,0,0,0
1681545414.50007796,64328425,1580,1581,1587,1573,0,0,0,0,0,0,0,0,0,0
1681545414.60003805,64428385,1579,1582,1584,1572,0,0,0,0,0,0,0,0,0,0
1681545414.69999814,64528345,1578,1581,1576,1573,0,0,0,0,0,0,0,0,0,0
1681545414.79995799,64628305,1577,1579,1567,1571,0,0,0,0,0,0,0,0,0,0
1681545414.89991808,64728265,1577,1579,1561,1568,0,0,0,0,0,0,0,0,0,0
1681545414.99987793,64828225,1577,1578,1557,1563,0,0,0,0,0,0,0,0,0,0
1681545415.09983802,64928185,1578,1577,1554,1558,0,0,0,0,0,0,0,0,0,0
1681545415.20063114,65028978,1578,1577,1555,1555,0,0,0,0,0,0,0,0,0,0
1681545415.30059099,65128938,1578,1576,1555,1553,0,0,0,0,0,0,0,0,0,0
1681545415.40055108,65228898,1578,1576,1555,1553,0,0,0,0,0,0,0,0,0,0
1681545415.50051093,65328858,1576,1576,1555,1553,0,0,0,0,0,0,0,0,0,0
1681545415.60047102,65428818,1575,1576,1555,1553,0,0,0,0,0,0,0,0,0,0
1681545415.70043111,65528778,1575,1576,1554,1554,0,0,0,0,0,0,0,0,0,0
1681545415.80039096,65628738,1574,1576,1553,1553,0,0,0,0,0,0,0,0,0,0
1681545415.90035105,65728698,1575,1577,1552,1552,0,0,0,0,0,0,0,0,0,0
1681545416.00031114,65828658,1576,1578,1550,1550,0,0,0,0,0,0,0,0,0,0
1681545416.10027099,65928618,1579,1580,1548,1548,0,0,0,0,0,0,0,0,0,0
1681545416.20023108,66028578,1582,1583,1546,1545,0,0,0,0,0,0,0,0,0,0
1681545416.30019093,66128538,1584,1585,1543,1542,0,0,0,0,0,0,0,0,0,0
1681545416.40015101,66228498,1587,1587,1540,1539,0,0,0,0,0,0,0,0,0,0
1681545416.50011110,66328458,1591,1591,1538,1538,0,0,0,0,0,0,0,0,0,0
1681545416.60007095,66428418,1593,1594,1536,1536,0,0,0,0,0,0,0,0,0,0
1681545416.70003104,66528378,1595,1595,1534,1535,0,0,0,0,0,0,0,0,0,0
1681545416.79999113,66628338,1595,1595,1534,1536,0,0,0,0,0,0,0,0,0,0
1681545416.89995098,66728298,1594,1595,1536,1538,0,0,0,0,0,0,0,0,0,0
1681545416.99991107,66828258,1592,1592,1539,1542,0,0,0,0,0,0,0,0,0,0
1681545417.09987092,66928218,1589,1587,1545,1548,0,0,0,0,0,0,0,0,0,0
1681545417.19983101,67028178,1584,1581,1554,1557,0,0,0,0,0,0,0,0,0,0
1681545417.30062413,67128971,1575,1571,1563,1565,0,0,0,0,0,0,0,0,0,0
1681545417.40058398,67228931,1565,1561,1575,1577,0,0,0,0,0,0,0,0,0,0
1681545417.50054407,67328891,1554,1550,1588,1589,0,0,0,0,0,0,0,0,0,0
1681545417.60050392,67428851,1543,1541,1599,1599,0,0,0,0,0,0,0,0,0,0
1681545417.70046401,67528811,1534,1533,1607,1607,0,0,0,0,0,0,0,0,0,0
1681545417.80042410,67628771,1530,1530,1613,1613,0,0,0,0,0,0,0,0,0,0
1681545417.90038395,67728731,1528,1530,1615,1614,0,0,0,0,0,0,0,0,0,0
1681545418.00034404,67828691,1531,1534,1614,1613,0,0,0,0,0,0,0,0,0,0
1681545418.10030413,67928651,1537,1539,1609,1609,0,0,0,0,0,0,0,0,0,0
1681545418.20026398,68028611,1545,1546,1603,1603,0,0,0,0,0,0,0,0,0,0
1681545418.30022407,68128571,1553,1554,1595,1596,0,0,0,0,0,0,0,0,0,0
1681545418.40018392,68228531,1563,1563,1588,1588,0,0,0,0,0,0,0,0,0,0
1681545418.50014400,68328491,1571,1571,1581,1580,0,0,0,0,0,0,0,0,0,0
1681545418.60010409,68428451,1578,1577,1575,1574,0,0,0,0,0,0,0,0,0,0
1681545418.70006394,68528411,1584,1582,1571,1570,0,0,0,0,0,0,0,0,0,0
1681545418.80002403,68628371,1587,1586,1568,1568,0,0,0,0,0,0,0,0,0,0
1681545418.89998412,68728331,1588,1587,1566,1567,0,0,0,0,0,0,0,0,0,0
1681545418.99994397,68828291,1587,1586,1566,1566,0,0,0,0,0,0,0,0,0,0
1681545419.09990406,68928251,1586,1585,1568,1568,0,0,0,0,0,0,0,0,0,0
1681545419.19986415,69028211,1584,1583,1571,1570,0,0,0,0,0,0,0,0,0,0
1681545419.29982400,69128171,1581,1581,1575,1574,0,0,0,0,0,0,0,0,0,0
1681545419.40061712,69228964,1578,1578,1577,1577,0,0,0,0,0,0,0,0,0,0
1681545419.50057697,69328924,1575,1575,1579,1579,0,0,0,0,0,0,0,0,0,0
1681545419.60053706,69428884,1573,1573,1581,1581,0,0,0,0,0,0,0,0,0,0
1681545419.70049715,69528844,1572,1573,1583,1583,0,0,0,0,0,0,0,0,0,0
1681545419.80045700,69628804,1571,1572,1583,1583,0,0,0,0,0,0,0,0,0,0
1681545419.90041709,69728764,1572,1573,1584,1584,0,0,0,0,0,0,0,0,0,0
1681545420.00037694,69828724,1574,1574,1584,1584,0,0,0,0,0,0,0,0,0,0
1681545420.10033703,69928684,1574,1574,1582,1581,0,0,0,0,0,0,0,0,0,0
1681545420.20029712,70028644,1576,1576,1581,1581,0,0,0,0,0,0,0,0,0,0
1681545420.30025697,70128604,1580,1580,1485,1541,0,0,0,0,0,0,0,0,0,0
1681545420.40021706,70228564,1603,1602,1547,1545,0,0,0,0,0,0,0,0,0,0
1681545420.50017715,70328524,1615,1615,1592,1556,0,0,0,0,0,0,0,0,0,0
1681545420.60013700,70428484,1623,1624,1623,1578,0,0,0,0,0,0,0,0,0,0
1681545420.70009708,70528444,1622,1624,1638,1599,0,0,0,0,0,0,0,0,0,0
1681545420.80005693,70628404,1611,1613,1635,1614,0,0,0,0,0,0,0,0,0,0
1681545420.90001702,70728364,1593,1596,1622,1621,0,0,0,0,0,0,0,0,0,0
1681545420.99997711,70828324,1578,1579,1606,1621,0,0,0,0,0,0,0,0,0,0
1681545421.09993696,70928284,1568,1566,1594,1616,0,0,0,0,0,0,0,0,0,0
1681545421.19989705,71028244,1563,1560,1588,1608,0,0,0,0,0,0,0,0,0,0
1681545421.29985714,71128204,1563,1559,1587,1599,0,0,0,0,0,0,0,0,0,0
1681545421.39981699,71228164,1564,1562,1587,1590,0,0,0,0,0,0,0,0,0,0
1681545421.50061011,71328957,1567,1567,1586,1583,0,0,0,0,0,0,0,0,0,0
1681545421.60056996,71428917,1570,1571,1584,1577,0,0,0,0,0,0,0,0,0,0
1681545421.70053005,71528877,1574,1576,1580,1575,0,0,0,0,0,0,0,0,0,0
1681545421.80049014,71628837,1576,1579,1575,1572,0,0,0,0,0,0,0,0,0,0
1681545421.90044999,71728797,1579,1581,1570,1571,0,0,0,0,0,0,0,0,0,0
1681545422.00041008,71828757,1580,1581,1566,1569,0,0,0,0,0,0,0,0,0,0
1681545422.10036993,71928717,1581,1581,1564,1567,0,0,0,0,0,0,0,0,0,0
1681545422.20033002,72028677,1581,1580,1564,1566,0,0,0,0,0,0,0,0,0,0
1681545422.30029011,72128637,1581,1579,1565,1567,0,0,0,0,0,0,0,0,0,0
1681545422.40024996,72228597,1580,1578,1567,1567,0,0,0,0,0,0,0,0,0,0
1681545422.50021005,72328557,1578,1580,1576,1561,0,0,0,0,0,0,0,0,0,0
1681545422.60017014,72428517,1577,1581,1576,1561,0,0,0,0,0,0,0,0,0,0
1681545422.70012999,72528477,1575,1580,1570,1565,0,0,0,0,0,0,0,0,0,0
1681545422.80009007,72628437,1573,1577,1563,1566,0,0,0,0,0,0,0,0,0,0
1681545422.90004992,72728397,1572,1575,1557,1564,0,0,0,0,0,0,0,0,0,0
1681545423.00001001,72828357,1574,1574,1554,1562,0,0,0,0,0,0,0,0,0,0
1681545423.09997010,72928317,1576,1574,1553,1559,0,0,0,0,0,0,0,0,0,0
1681545423.19992995,73028277,1576,1573,1552,1553,0,0,0,0,0,0,0,0,0,0
1681545423.29989004,73128237,1577,1575,1553,1553,0,0,0,0,0,0,0,0,0,0
1681545423.39985013,73228197,1576,1575,1553,1551,0,0,0,0,0,0,0,0,0,0
1681545423.49980998,73328157,1577,1577,1554,1551,0,0,0,0,0,0,0,0,0,0
1681545423.60060310,73428950,1576,1578,1553,1552,0,0,0,0,0,0,0,0,0,0
1681545423.70056295,73528910,1575,1577,1552,1551,0,0,0,0,0,0,0,0,0,0
1681545423.80052304,73628870,1576,1578,1551,1551,0,0,0,0,0,0,0,0,0,0
1681545423.90048313,73728830,1577,1578,1549,1549,0,0,0,0,0,0,0,0,0,0
1681545424.00044298,73828790,1579,1580,1548,1549,0,0,0,0,0,0,0,0,0,0
1681545424.10040307,73928750,1580,1581,1547,1548,0,0,0,0,0,0,0,0,0,0
1681545424.20036292,74028710,1582,1583,1546,1546,0,0,0,0,0,0,0,0,0,0
1681545424.30032301,74128670,1584,1583,1544,1545,0,0,0,0,0,0,0,0,0,0
1681545424.40028310,74228630,1585,1585,1544,1544,0,0,0,0,0,0,0,0,0,0
1681545424.50024295,74328590,1587,1587,1544,1544,0,0,0,0,0,0,0,0,0,0
1681545424.60020304,74428550,1587,1587,1542,1543,0,0,0,0,0,0,0,0,0,0
1681545424.70016313,74528510,1589,1590,1543,1545,0,0,0,0,0,0,0,0,0,0
1681545424.80012298,74628470,1588,1589,1545,1547,0,0,0,0,0,0,0,0,0,0
1681545424.90008307,74728430,1587,1586,1547,1549,0,0,0,0,0,0,0,0,0,0
1681545425.00004292,74828390,1584,1581,1552,1555,0,0,0,0,0,0,0,0,0,0
1681545425.10000300,74928350,1578,1575,1559,1561,0,0,0,0,0,0,0,0,0,0
1681545425.19996309,75028310,1572,1568,1568,1570,0,0,0,0,0,0,0,0,0,0
1681545425.29992294,75128270,1565,1562,1579,1580,0,0,0,0,0,0,0,0,0,0
1681545425.39988303,75228230,1556,1554,1588,1587,0,0,0,0,0,0,0,0,0,0
1681545425.49984312,75328190,1549,1549,1596,1595,0,0,0,0,0,0,0,0,0,0
1681545425.60063601,75428983,1545,1546,1602,1600,0,0,0,0,0,0,0,0,0,0
1681545425.70059609,75528943,1543,1544,1604,1602,0,0,0,0,0,0,0,0,0,0
1681545425.80055594,75628903,1544,1546,1605,1604,0,0,0,0,0,0,0,0,0,0
1681545425.90051603,75728863,1546,1548,1603,1603,0,0,0,0,0,0,0,0,0,0
1681545426.00047612,75828823,1550,1550,1600,1600,0,0,0,0,0,0,0,0,0,0
1681545426.10043597,75928783,1555,1555,1598,1598,0,0,0,0,0,0,0,0,0,0
1681545426.20039606,76028743,1560,1560,1595,1594,0,0,0,0,0,0,0,0,0,0
1681545426.30035615,76128703,1563,1563,1590,1589,0,0,0,0,0,0,0,0,0,0
1681545426.40031600,76228663,1568,1568,1585,1585,0,0,0,0,0,0,0,0,0,0
1681545426.50027609,76328623,1572,1572,1580,1580,0,0,0,0,0,0,0,0,0,0
1681545426.60023594,76428583,1575,1575,1575,1576,0,0,0,0,0,0,0,0,0,0
1681545426.70019603,76528543,1580,1580,1572,1573,0,0,0,0,0,0,0,0,0,0
1681545426.80015612,76628503,1582,1581,1570,1570,0,0,0,0,0,0,0,0,0,0
1681545426.90011597,76728463,1584,1583,1569,1570,0,0,0,0,0,0,0,0,0,0
1681545427.00007606,76828423,1584,1582,1569,1569,0,0,0,0,0,0,0,0,0,0
1681545427.10003614,76928383,1583,1582,1571,1570,0,0,0,0,0,0,0,0,0,0
1681545427.19999599,77028343,1582,1581,1573,1572,0,0,0,0,0,0,0,0,0,0
1681545427.29995608,77128303,1580,1580,1575,1575,0,0,0,0,0,0,0,0,0,0
1681545427.39991593,77228263,1578,1579,1577,1577,0,0,0,0,0,0,0,0,0,0
1681545427.49987602,77328223,1577,1577,1579,1580,0,0,0,0,0,0,0,0,0,0
1681545427.59983611,77428183,1576,1576,1581,1581,0,0,0,0,0,0,0,0,0,0
1681545427.70062900,77528976,1575,1575,1582,1582,0,0,0,0,0,0,0,0,0,0
1681545427.80058908,77628936,1575,1576,1583,1583,0,0,0,0,0,0,0,0,0,0
1681545427.90054893,77728896,1574,1575,1583,1583,0,0,0,0,0,0,0,0,0,0
1681545428.00050902,77828856,1574,1574,1582,1582,0,0,0,0,0,0,0,0,0,0
1681545428.10046911,77928816,1576,1576,1583,1582,0,0,0,0,0,0,0,0,0,0
1681545428.20042896,78028776,1577,1577,1582,1582,0,0,0,0,0,0,0,0,0,0
1681545428.30038905,78128736,1577,1578,1580,1581,0,0,0,0,0,0,0,0,0,0
1681545428.40034914,78228696,1580,1579,1580,1581,0,0,0,0,0,0,0,0,0,0
1681545428.50030899,78328656,1580,1579,1579,1579,0,0,0,0,0,0,0,0,0,0
1681545428.60026908,78428616,1581,1581,1579,1579,0,0,0,0,0,0,0,0,0,0
1681545428.70022893,78528576,1581,1581,1579,1578,0,0,0,0,0,0,0,0,0,0
1681545428.80018902,78628536,1582,1582,1580,1579,0,0,0,0,0,0,0,0,0,0
1681545428.90014911,78728496,1582,1582,1579,1579,0,0,0,0,0,0,0,0,0,0
1681545429.00010896,78828456,1582,1582,1579,1579,0,0,0,0,0,0,0,0,0,0
1681545429.10006905,78928416,1581,1581,1579,1579,0,0,0,0,0,0,0,0,0,0
1681545429.20002913,79028376,1580,1580,1578,1579,0,0,0,0,0,0,0,0,0,0
1681545429.29998899,79128336,1580,1580,1579,1580,0,0,0,0,0,0,0,0,0,0
1681545429.39994907,79228296,1580,1580,1580,1579,0,0,0,0,0,0,0,0,0,0
1681545429.49990892,79328256,1580,1580,1580,1580,0,0,0,0,0,0,0,0,0,0
1681545429.59986901,79428216,1581,1580,1581,1581,0,0,0,0,0,0,0,0,0,0
1681545429.69982910,79528176,1580,1580,1581,1582,0,0,0,0,0,0,0,0,0,0
1681545429.80062199,79628969,1580,1580,1582,1581,0,0,0,0,0,0,0,0,0,0
1681545429.90058208,79728929,1580,1581,1582,1582,0,0,0,0,0,0,0,0,0,0
1681545430.00054193,79828889,1581,1581,1582,1582,0,0,0,0,0,0,0,0,0,0
1681545430.10050201,79928849,1581,1581,1582,1582,0,0,0,0,0,0,0,0,0,0
1681545430.20046210,80028809,1581,1581,1581,1581,0,0,0,0,0,0,0,0,0,0
1681545430.30042195,80128769,1580,1580,1580,1581,0,0,0,0,0,0,0,0,0,0
1681545430.40038204,80228729,1581,1581,1581,1582,0,0,0,0,0,0,0,0,0,0
1681545430.50034213,80328689,1580,1580,1580,1580,0,0,0,0,0,0,0,0,0,0
1681545430.60030198,80428649,1581,1581,1582,1579,0,0,0,0,0,0,0,0,0,0
1681545430.70026207,80528609,1580,1582,1587,1572,0,0,0,0,0,0,0,0,0,0
1681545430.80022192,80628569,1579,1583,1583,1572,0,0,0,0,0,0,0,0,0,0
1681545430.90018201,80728529,1578,1581,1574,1572,0,0,0,0,0,0,0,0,0,0
1681545431.00014210,80828489,1577,1579,1566,1570,0,0,0,0,0,0,0,0,0,0
1681545431.10010195,80928449,1576,1578,1560,1566,0,0,0,0,0,0,0,0,0,0
1681545431.20006204,81028409,1578,1578,1556,1562,0,0,0,0,0,0,0,0,0,0
1681545431.30002213,81128369,1579,1577,1554,1558,0,0,0,0,0,0,0,0,0,0
1681545431.39998198,81228329,1580,1578,1554,1555,0,0,0,0,0,0,0,0,0,0
1681545431.49994206,81328289,1580,1578,1554,1553,0,0,0,0,0,0,0,0,0,0
1681545431.59990191,81428249,1579,1578,1554,1552,0,0,0,0,0,0,0,0,0,0
1681545431.69986200,81528209,1577,1578,1555,1553,0,0,0,0,0,0,0,0,0,0
1681545431.79982209,81628169,1575,1577,1554,1553,0,0,0,0,0,0,0,0,0,0
1681545431.90061498,81728962,1575,1578,1554,1553,0,0,0,0,0,0,0,0,0,0
1681545432.00057507,81828922,1575,1577,1553,1552,0,0,0,0,0,0,0,0,0,0
1681545432.10053492,81928882,1576,1578,1552,1553,0,0,0,0,0,0,0,0,0,0
1681545432.20049500,82028842,1578,1579,1551,1551,0,0,0,0,0,0,0,0,0,0
1681545432.30045509,82128802,1580,1580,1549,1548,0,0,0,0,0,0,0,0,0,0
1681545432.40041494,82228762,1582,1583,1547,1547,0,0,0,0,0,0,0,0,0,0
1681545432.50037503,82328722,1585,1585,1545,1545,0,0,0,0,0,0,0,0,0,0
1681545432.60033512,82428682,1587,1587,1542,1542,0,0,0,0,0,0,0,0,0,0
1681545432.70029497,82528642,1590,1590,1540,1541,0,0,0,0,0,0,0,0,0,0
1681545432.80025506,82628602,1591,1592,1538,1539,0,0,0,0,0,0,0,0,0,0
1681545432.90021515,82728562,1591,1593,1535,1537,0,0,0,0,0,0,0,0,0,0
1681545433.00017500,82828522,1594,1595,1536,1538,0,0,0,0,0,0,0,0,0,0
1681545433.10013509,82928482,1594,1594,1538,1540,0,0,0,0,0,0,0,0,0,0
1681545433.20009494,83028442,1592,1590,1541,1544,0,0,0,0,0,0,0,0,0,0
1681545433.30005503,83128402,1588,1585,1548,1551,0,0,0,0,0,0,0,0,0,0
1681545433.40001512,83228362,1582,1578,1557,1560,0,0,0,0,0,0,0,0,0,0
1681545433.49997497,83328322,1573,1568,1568,1570,0,0,0,0,0,0,0,0,0,0
1681545433.59993505,83428282,1561,1558,1580,1581,0,0,0,0,0,0,0,0,0,0
1681545433.69989514,83528242,1550,1548,1591,1592,0,0,0,0,0,0,0,0,0,0
1681545433.79985499,83628202,1542,1541,1602,1601,0,0,0,0,0,0,0,0,0,0
1681545433.89981508,83728162,1535,1535,1609,1608,0,0,0,0,0,0,0,0,0,0
1681545434.00060797,83828955,1533,1535,1613,1611,0,0,0,0,0,0,0,0,0,0
1681545434.10056806,83928915,1535,1537,1614,1612,0,0,0,0,0,0,0,0,0,0
1681545434.20052814,84028875,1539,1541,1611,1610,0,0,0,0,0,0,0,0,0,0
1681545434.30048800,84128835,1544,1546,1607,1606,0,0,0,0,0,0,0,0,0,0
1681545434.40044808,84228795,1551,1551,1602,1601,0,0,0,0,0,0,0,0,0,0
1681545434.50040793,84328755,1558,1558,1596,1595,0,0,0,0,0,0,0,0,0,0
1681545434.60036802,84428715,1564,1564,1589,1588,0,0,0,0,0,0,0,0,0,0
1681545434.70032811,84528675,1571,1571,1582,1582,0,0,0,0,0,0,0,0,0,0
1681545434.80028796,84628635,1577,1576,1575,1576,0,0,0,0,0,0,0,0,0,0
1681545434.90024805,84728595,1582,1580,1570,1571,0,0,0,0,0,0,0,0,0,0
1681545435.00020814,84828555,1584,1583,1567,1568,0,0,0,0,0,0,0,0,0,0
1681545435.10016799,84928515,1586,1585,1565,1566,0,0,0,0,0,0,0,0,0,0
1681545435.20012808,85028475,1587,1585,1566,1567,0,0,0,0,0,0,0,0,0,0
1681545435.30008793,85128435,1586,1585,1568,1568,0,0,0,0,0,0,0,0,0,0
1681545435.40004802,85228395,1583,1583,1570,1569,0,0,0,0,0,0,0,0,0,0
1681545435.50000811,85328355,1582,1582,1574,1573,0,0,0,0,0,0,0,0,0,0
1681545435.59996796,85428315,1578,1578,1576,1575,0,0,0,0,0,0,0,0,0,0
1681545435.69992805,85528275,1576,1576,1578,1578,0,0,0,0,0,0,0,0,0,0
1681545435.79988813,85628235,1575,1575,1581,1581,0,0,0,0,0,0,0,0,0,0
1681545435.89984798,85728195,1573,1573,1582,1582,0,0,0,0,0,0,0,0,0,0
1681545435.99980807,85828155,1573,1573,1584,1583,0,0,0,0,0,0,0,0,0,0
1681545436.10060096,85928948,1574,1574,1585,1585,0,0,0,0,0,0,0,0,0,0
1681545436.20056105,86028908,1574,1574,1584,1584,0,0,0,0,0,0,0,0,0,0
1681545436.30052114,86128868,1574,1575,1583,1583,0,0,0,0,0,0,0,0,0,0
1681545436.40048099,86228828,1576,1576,1582,1582,0,0,0,0,0,0,0,0,0,0
1681545436.50044107,86328788,1577,1577,1581,1581,0,0,0,0,0,0,0,0,0,0
1681545436.60040092,86428748,1578,1577,1579,1579,0,0,0,0,0,0,0,0,0,0
1681545436.70036101,86528708,1579,1579,1579,1579,0,0,0,0,0,0,0,0,0,0
1681545436.80032110,86628668,1579,1579,1576,1577,0,0,0,0,0,0,0,0,0,0
1681545436.90028095,86728628,1581,1581,1577,1577,0,0,0,0,0,0,0,0,0,0
1681545437.00024104,86828588,1581,1581,1577,1577,0,0,0,0,0,0,0,0,0,0
1681545437.10020113,86928548,1582,1582,1578,1578,0,0,0,0,0,0,0,0,0,0
1681545437.20016098,87028508,1582,1582,1578,1578,0,0,0,0,0,0,0,0,0,0
1681545437.30012107,87128468,1581,1581,1578,1578,0,0,0,0,0,0,0,0,0,0
1681545437.40008092,87228428,1582,1581,1579,1579,0,0,0,0,0,0,0,0,0,0
1681545437.50004101,87328388,1580,1580,1579,1579,0,0,0,0,0,0,0,0,0,0
1681545437.60000110,87428348,1580,1580,1579,1580,0,0,0,0,0,0,0,0,0,0
1681545437.69996095,87528308,1580,1580,1580,1580,0,0,0,0,0,0,0,0,0,0
1681545437.79992104,87628268,1580,1580,1581,1581,0,0,0,0,0,0,0,0,0,0
1681545437.89988112,87728228,1579,1579,1581,1580,0,0,0,0,0,0,0,0,0,0
1681545437.99984097,87828188,1579,1579,1581,1581,0,0,0,0,0,0,0,0,0,0
1681545438.10063410,87928981,1580,1580,1581,1582,0,0,0,0,0,0,0,0,0,0
1681545438.20059395,88028941,1580,1581,1582,1582,0,0,0,0,0,0,0,0,0,0
1681545438.30055404,88128901,1580,1580,1582,1581,0,0,0,0,0,0,0,0,0,0
1681545438.40051413,88228861,1580,1580,1581,1581,0,0,0,0,0,0,0,0,0,0
1681545438.50047398,88328821,1580,1580,1581,1580,0,0,0,0,0,0,0,0,0,0
1681545438.60043406,88428781,1581,1581,1586,1572,0,0,0,0,0,0,0,0,0,0
1681545438.70039392,88528741,1579,1580,1583,1572,0,0,0,0,0,0,0,0,0,0
1681545438.80035400,88628701,1577,1577,1577,1574,0,0,0,0,0,0,0,0,0,0
1681545438.90031409,88728661,1575,1575,1572,1575,0,0,0,0,0,0,0,0,0,0
1681545439.00027394,88828621,1571,1570,1567,1574,0,0,0,0,0,0,0,0,0,0
1681545439.10023403,88928581,1569,1568,1565,1572,0,0,0,0,0,0,0,0,0,0
1681545439.20019412,89028541,1568,1567,1565,1569,0,0,0,0,0,0,0,0,0,0
1681545439.30015397,89128501,1567,1566,1566,1567,0,0,0,0,0,0,0,0,0,0
1681545439.40011406,89228461,1566,1566,1566,1565,0,0,0,0,0,0,0,0,0,0
1681545439.50007415,89328421,1565,1566,1567,1564,0,0,0,0,0,0,0,0,0,0
1681545439.60003400,89428381,1566,1566,1567,1564,0,0,0,0,0,0,0,0,0,0
1681545439.69999409,89528341,1565,1566,1567,1565,0,0,0,0,0,0,0,0,0,0
1681545439.79995394,89628301,1564,1564,1565,1564,0,0,0,0,0,0,0,0,0,0
1681545439.89991403,89728261,1564,1563,1564,1564,0,0,0,0,0,0,0,0,0,0
1681545439.99987411,89828221,1561,1561,1562,1562,0,0,0,0,0,0,0,0,0,0
1681545440.09983397,89928181,1562,1562,1562,1562,0,0,0,0,0,0,0,0,0,0
1681545440.20062709,90028974,1561,1561,1561,1561,0,0,0,0,0,0,0,0,0,0
1681545440.30058694,90128934,1560,1560,1560,1560,0,0,0,0,0,0,0,0,0,0
1681545440.40054703,90228894,1560,1561,1560,1560,0,0,0,0,0,0,0,0,0,0
1681545440.50050712,90328854,1558,1558,1559,1558,0,0,0,0,0,0,0,0,0,0
1681545440.60046697,90428814,1557,1557,1558,1557,0,0,0,0,0,0,0,0,0,0
1681545440.70042706,90528774,1557,1557,1558,1557,0,0,0,0,0,0,0,0,0,0
1681545440.80038714,90628734,1558,1557,1558,1557,0,0,0,0,0,0,0,0,0,0
1681545440.90034699,90728694,1557,1557,1557,1556,0,0,0,0,0,0,0,0,0,0
1681545441.00030708,90828654,1558,1557,1558,1557,0,0,0,0,0,0,0,0,0,0
1681545441.10026693,90928614,1557,1557,1558,1555,0,0,0,0,0,0,0,0,0,0
1681545441.20022702,91028574,1558,1559,1559,1557,0,0,0,0,0,0,0,0,0,0
1681545441.30018711,91128534,1558,1558,1559,1556,0,0,0,0,0,0,0,0,0,0
1681545441.40014696,91228494,1559,1559,1559,1559,0,0,0,0,0,0,0,0,0,0
1681545441.50010705,91328454,1560,1559,1557,1562,0,0,0,0,0,0,0,0,0,0
1681545441.60006714,91428414,1560,1561,1557,1564,0,0,0,0,0,0,0,0,0,0
1681545441.70002699,91528374,1561,1561,1558,1565,0,0,0,0,0,0,0,0,0,0
1681545441.79998708,91628334,1563,1563,1561,1564,0,0,0,0,0,0,0,0,0,0
1681545441.89994693,91728294,1563,1563,1562,1563,0,0,0,0,0,0,0,0,0,0
1681545441.99990702,91828254,1561,1561,1561,1561,0,0,0,0,0,0,0,0,0,0
1681545442.09986711,91928214,1558,1558,1558,1558,0,0,0,0,0,0,0,0,0,0
1681545442.19982696,92028174,1553,1553,1554,1553,0,0,0,0,0,0,0,0,0,0
1681545442.30062008,92128967,1548,1548,1549,1548,0,0,0,0,0,0,0,0,0,0
1681545442.40057993,92228927,1541,1541,1542,1542,0,0,0,0,0,0,0,0,0,0
1681545442.50054002,92328887,1534,1534,1535,1535,0,0,0,0,0,0,0,0,0,0
1681545442.60050011,92428847,1526,1526,1527,1528,0,0,0,0,0,0,0,0,0,0
1681545442.70045996,92528807,1521,1521,1522,1523,0,0,0,0,0,0,0,0,0,0
1681545442.80042005,92628767,1520,1520,1520,1521,0,0,0,0,0,0,0,0,0,0
1681545442.90038013,92728727,1520,1521,1520,1521,0,0,0,0,0,0,0,0,0,0
1681545443.00033998,92828687,1522,1522,1521,1521,0,0,0,0,0,0,0,0,0,0
1681545443.10030007,92928647,1526,1526,1524,1524,0,0,0,0,0,0,0,0,0,0
1681545443.20025992,93028607,1529,1529,1527,1528,0,0,0,0,0,0,0,0,0,0
1681545443.30022001,93128567,1534,1534,1532,1532,0,0,0,0,0,0,0,0,0,0
1681545443.40018010,93228527,1538,1539,1536,1536,0,0,0,0,0,0,0,0,0,0
1681545443.50013995,93328487,1541,1541,1540,1539,0,0,0,0,0,0,0,0,0,0
1681545443.60010004,93428447,1543,1543,1542,1541,0,0,0,0,0,0,0,0,0,0
1681545443.70006013,93528407,1544,1544,1544,1543,0,0,0,0,0,0,0,0,0,0
1681545443.80001998,93628367,1544,1544,1545,1544,0,0,0,0,0,0,0,0,0,0
1681545443.89998007,93728327,1545,1545,1546,1545,0,0,0,0,0,0,0,0,0,0
1681545443.99993992,93828287,1545,1545,1546,1546,0,0,0,0,0,0,0,0,0,0
1681545444.09990001,93928247,1546,1545,1547,1547,0,0,0,0,0,0,0,0,0,0
1681545444.19986010,94028207,1545,1546,1547,1547,0,0,0,0,0,0,0,0,0,0
1681545444.29981995,94128167,1545,1546,1547,1547,0,0,0,0,0,0,0,0,0,0
1681545444.40061307,94228960,1545,1545,1546,1546,0,0,0,0,0,0,0,0,0,0
1681545444.50057292,94328920,1546,1545,1546,1546,0,0,0,0,0,0,0,0,0,0
1681545444.60053301,94428880,1545,1546,1546,1546,0,0,0,0,0,0,0,0,0,0
1681545444.70049310,94528840,1546,1546,1547,1546,0,0,0,0,0,0,0,0,0,0
1681545444.80045295,94628800,1545,1545,1545,1545,0,0,0,0,0,0,0,0,0,0
1681545444.90041304,94728760,1545,1544,1544,1544,0,0,0,0,0,0,0,0,0,0
1681545445.00037313,94828720,1545,1545,1545,1544,0,0,0,0,0,0,0,0,0,0
1681545445.10033298,94928680,1545,1545,1544,1545,0,0,0,0,0,0,0,0,0,0
1681545445.20029306,95028640,1544,1544,1543,1544,0,0,0,0,0,0,0,0,0,0
1681545445.30025291,95128600,1544,1545,1544,1544,0,0,0,0,0,0,0,0,0,0
1681545445.40021300,95228560,1544,1544,1544,1543,0,0,0,0,0,0,0,0,0,0
1681545445.50017309,95328520,1544,1544,1544,1544,0,0,0,0,0,0,0,0,0,0
1681545445.60013294,95428480,1544,1544,1544,1543,0,0,0,0,0,0,0,0,0,0
1681545445.70009303,95528440,1544,1544,1544,1544,0,0,0,0,0,0,0,0,0,0
1681545445.80005312,95628400,1544,1544,1544,1544,0,0,0,0,0,0,0,0,0,0
1681545445.90001297,95728360,1544,1543,1544,1544,0,0,0,0,0,0,0,0,0,0
1681545445.99997306,95828320,1544,1544,1544,1544,0,0,0,0,0,0,0,0,0,0
1681545446.09993315,95928280,1544,1544,1544,1543,0,0,0,0,0,0,0,0,0,0
1681545446.19989300,96028240,1543,1543,1544,1544,0,0,0,0,0,0,0,0,0,0
1681545446.29985309,96128200,1544,1544,1544,1545,0,0,0,0,0,0,0,0,0,0
1681545446.39981294,96228160,1544,1544,1544,1544,0,0,0,0,0,0,0,0,0,0
1681545446.50060606,96328953,1545,1545,1545,1545,0,0,0,0,0,0,0,0,0,0
1681545446.60056615,96428913,1543,1544,1544,1544,0,0,0,0,0,0,0,0,0,0
1681545446.70052600,96528873,1543,1543,1543,1544,0,0,0,0,0,0,0,0,0,0
1681545446.80048609,96628833,1543,1543,1543,1543,0,0,0,0,0,0,0,0,0,0
1681545446.90044594,96728793,1544,1543,1544,1544,0,0,0,0,0,0,0,0,0,0
1681545447.00040603,96828753,1544,1544,1544,1544,0,0,0,0,0,0,0,0,0,0
1681545447.10036612,96928713,1544,1544,1544,1544,0,0,0,0,0,0,0,0,0,0
1681545447.20032597,97028673,1545,1545,1544,1544,0,0,0,0,0,0,0,0,0,0
1681545447.30028605,97128633,1544,1544,1544,1544,0,0,0,0,0,0,0,0,0,0
1681545447.40024614,97228593,1544,1544,1544,1544,0,0,0,0,0,0,0,0,0,0
1681545447.50020599,97328553,1545,1544,1545,1545,0,0,0,0,0,0,0,0,0,0
1681545447.60016608,97428513,1544,1544,1544,1544,0,0,0,0,0,0,0,0,0,0
1681545447.70012593,97528473,1544,1544,1544,1544,0,0,0,0,0,0,0,0,0,0
1681545447.80008602,97628433,1544,1544,1544,1544,0,0,0,0,0,0,0,0,0,0
1681545447.90004611,97728393,1546,1545,1545,1545,0,0,0,0,0,0,0,0,0,0
1681545448.00000596,97828353,1545,1545,1545,1545,0,0,0,0,0,0,0,0,0,0
1681545448.09996605,97928313,1545,1544,1544,1545,0,0,0,0,0,0,0,0,0,0
1681545448.19992614,98028273,1544,1544,1544,1544,0,0,0,0,0,0,0,0,0,0
1681545448.29988599,98128233,1544,1543,1544,1543,0,0,0,0,0,0,0,0,0,0
1681545448.39984608,98228193,1544,1544,1544,1544,0,0,0,0,0,0,0,0,0,0
1681545448.50063896,98328986,1544,1545,1544,1545,0,0,0,0,0,0,0,0,0,0
1681545448.60059905,98428946,1544,1544,1544,1544,0,0,0,0,0,0,0,0,0,0
1681545448.70055914,98528906,1544,1543,1543,1544,0,0,0,0,0,0,0,0,0,0
1681545448.80051899,98628866,1544,1544,1543,1544,0,0,0,0,0,0,0,0,0,0
1681545448.90047908,98728826,1543,1543,1543,1543,0,0,0,0,0,0,0,0,0,0
1681545449.00043893,98828786,1544,1544,1544,1544,0,0,0,0,0,0,0,0,0,0
1681545449.10039902,98928746,1543,1543,1543,1543,0,0,0,0,0,0,0,0,0,0
1681545449.20035911,99028706,1543,1543,1543,1543,0,0,0,0,0,0,0,0,0,0
1681545449.30031896,99128666,1544,1544,1544,1544,0,0,0,0,0,0,0,0,0,0
1681545449.40027905,99228626,1543,1543,1543,1543,0,0,0,0,0,0,0,0,0,0
1681545449.50023913,99328586,1544,1544,1544,1544,0,0,0,0,0,0,0,0,0,0
1681545449.60019898,99428546,1544,1544,1544,1544,0,0,0,0,0,0,0,0,0,0
1681545449.70015907,99528506,1545,1544,1544,1545,0,0,0,0,0,0,0,0,0,0
1681545449.80011892,99628466,1544,1544,1544,1544,0,0,0,0,0,0,0,0,0,0
1681545449.90007901,99728426,1544,1545,1544,1545,0,0,0,0,0,0,0,0,0,0
1681545450.00003910,99828386,1544,1545,1545,1544,0,0,0,0,0,0,0,0,0,0
1681545450.09999895,99928346,1545,1545,1545,1545,0,0,0,0,0,0,0,0,0,0
1681545450.19995904,100028306,1545,1545,1545,1545,0,0,0,0,0,0,0,0,0,0
1681545450.29991913,100128266,1545,1544,1545,1544,0,0,0,0,0,0,0,0,0,0
1681545450.39987898,100228226,1543,1544,1544,1544,0,0,0,0,0,0,0,0,0,0
1681545450.49983907,100328186,1544,1543,1544,1544,0,0,0,0,0,0,0,0,0,0
1681545450.60063195,100428979,1544,1544,1544,1544,0,0,0,0,0,0,0,0,0,0
1681545450.70059204,100528939,1544,1544,1544,1544,0,0,0,0,0,0,0,0,0,0
1681545450.80055213,100628899,1544,1544,1544,1544,0,0,0,0,0,0,0,0,0,0
1681545450.90051198,100728859,1545,1545,1545,1545,0,0,0,0,0,0,0,0,0,0
1681545451.00047207,100828819,1544,1544,1544,1544,0,0,0,0,0,0,0,0,0,0
1681545451.10043192,100928779,1545,1545,1545,1545,0,0,0,0,0,0,0,0,0,0
1681545451.20039201,101028739,1545,1545,1545,1545,0,0,0,0,0,0,0,0,0,0
1681545451.30035210,101128699,1544,1545,1544,1545,0,0,0,0,0,0,0,0,0,0
1681545451.40031195,101228659,1545,1544,1544,1544,0,0,0,0,0,0,0,0,0,0
1681545451.50027204,101328619,1545,1544,1544,1545,0,0,0,0,0,0,0,0,0,0
1681545451.60023212,101428579,1544,1544,1544,1544,0,0,0,0,0,0,0,0,0,0
1681545451.70019197,101528539,1544,1544,1544,1544,0,0,0,0,0,0,0,0,0,0
1681545451.80015206,101628499,1544,1545,1545,1545,0,0,0,0,0,0,0,0,0,0
1681545451.90011191,101728459,1544,1544,1544,1544,0,0,0,0,0,0,0,0,0,0
1681545452.00007200,101828419,1544,1544,1544,1543,0,0,0,0,0,0,0,0,0,0
1681545452.10003209,101928379,1544,1544,1544,1544,0,0,0,0,0,0,0,0,0,0
1681545452.19999194,102028339,1544,1545,1545,1544,0,0,0,0,0,0,0,0,0,0
1681545452.29995203,102128299,1544,1544,1544,1544,0,0,0,0,0,0,0,0,0,0
1681545452.39991212,102228259,1543,1544,1544,1543,0,0,0,0,0,0,0,0,0,0
1681545452.49987197,102328219,1371,1370,1402,1370,0,0,0,0,0,0,0,0,0,0
1681545452.59983206,102428179,1256,1255,1316,1255,0,0,0,0,0,0,0,0,0,0
1681545452.70062494,102528972,1219,1217,1289,1217,0,0,0,0,0,0,0,0,0,0
1681545452.80058503,102628932,1200,1200,1277,1199,0,0,0,0,0,0,0,0,0,0
1681545452.90054512,102728892,1156,1155,1248,1155,0,0,0,0,0,0,0,0,0,0
1681545453.00050497,102828852,1151,1151,1245,1150,0,0,0,0,0,0,0,0,0,0
1681545453.10046506,102928812,1151,1150,1244,1150,0,0,0,0,0,0,0,0,0,0
1681545453.20042515,103028772,1151,1151,1245,1150,0,0,0,0,0,0,0,0,0,0
1681545453.30038500,103128732,1184,1150,1243,1183,0,0,0,0,0,0,0,0,0,0
1681545453.40034509,103228692,1173,1150,1244,1172,0,0,0,0,0,0,0,0,0,0
1681545453.50030494,103328652,1170,1150,1244,1169,0,0,0,0,0,0,0,0,0,0
1681545453.60026503,103428612,1171,1150,1244,1169,0,0,0,0,0,0,0,0,0,0
1681545453.70022511,103528572,1173,1150,1244,1171,0,0,0,0,0,0,0,0,0,0
1681545453.80018497,103628532,1174,1150,1244,1173,0,0,0,0,0,0,0,0,0,0
1681545453.90014505,103728492,1177,1150,1244,1175,0,0,0,0,0,0,0,0,0,0
1681545454.00010514,103828452,1178,1150,1244,1176,0,0,0,0,0,0,0,0,0,0
1681545454.10006499,103928412,1164,1150,1244,1163,0,0,0,0,0,0,0,0,0,0
1681545454.20002508,104028372,1166,1150,1244,1164,0,0,0,0,0,0,0,0,0,0
1681545454.29998493,104128332,1167,1150,1244,1165,0,0,0,0,0,0,0,0,0,0
1681545454.39994502,104228292,1167,1150,1244,1166,0,0,0,0,0,0,0,0,0,0
1681545454.49990511,104328252,1159,1150,1139,1158,0,0,0,0,0,0,0,0,0,0
1681545454.59986496,104428212,1000,1000,1000,1000,0,0,0,0,0,0,0,0,0,0
1681545454.69982505,104528172,1000,1000,1000,1000,0,0,0,0,0,0,0,0,0,0
1681545454.80061793,104628965,1000,1000,1000,1000,0,0,0,0,0,0,0,0,0,0
1681545454.90057802,104728925,1000,1000,1000,1000,0,0,0,0,0,0,0,0,0,0
1681545455.00053811,104828885,1000,1000,1000,1000,0,0,0,0,0,0,0,0,0,0
1681545455.10049796,104928845,1000,1000,1000,1000,0,0,0,0,0,0,0,0,0,0
1681545455.20045805,105028805,1000,1000,1000,1000,0,0,0,0,0,0,0,0,0,0
1681545455.30041814,105128765,1000,1000,1000,1000,0,0,0,0,0,0,0,0,0,0
1681545455.40037799,105228725,1000,1000,1000,1000,0,0,0,0,0,0,0,0,0,0
1681545455.50033808,105328685,1000,1000,1000,1000,0,0,0,0,0,0,0,0,0,0
1681545455.60029793,105428645,1000,1000,1000,1000,0,0,0,0,0,0,0,0,0,0
1681545455.70025802,105528605,1000,1000,1000,1000,0,0,0,0,0,0,0,0,0,0
1681545455.80021811,105628565,1000,1000,1000,1000,0,0,0,0,0,0,0,0,0,0
1681545455.90017796,105728525,1000,1000,1000,1000,0,0,0,0,0,0,0,0,0,0
1681545456.00013804,105828485,1000,1000,1000,1000,0,0,0,0,0,0,0,0,0,0
1681545456.10009813,105928445,1000,1000,1000,1000,0,0,0,0,0,0,0,0,0,0
1681545456.20005798,106028405,1000,1000,1000,1000,0,0,0,0,0,0,0,0,0,0
1681545456.30001807,106128365,1000,1000,1000,1000,0,0,0,0,0,0,0,0,0,0
1681545456.39997792,106228325,1000,1000,1000,1000,0,0,0,0,0,0,0,0,0,0
1681545456.49993801,106328285,1000,1000,1000,1000,0,0,0,0,0,0,0,0,0,0
1681545456.59989810,106428245,1000,1000,1000,1000,0,0,0,0,0,0,0,0,0,0
1681545456.69985795,106528205,1000,1000,1000,1000,0,0,0,0,0,0,0,0,0,0
1681545456.79981804,106628165,1000,1000,1000,1000,0,0,0,0,0,0,0,0,0,0
1681545456.90061092,106728958,1000,1000,1000,1000,0,0,0,0,0,0,0,0,0,0
1681545457.00057101,106828918,1000,1000,1000,1000,0,0,0,0,0,0,0,0,0,0
1681545457.10053110,106928878,1000,1000,1000,1000,0,0,0,0,0,0,0,0,0,0
1681545457.20049095,107028838,1000,1000,1000,1000,0,0,0,0,0,0,0,0,0,0
1681545457.30045104,107128798,1000,1000,1000,1000,0,0,0,0,0,0,0,0,0,0
1681545457.40041113,107228758,1000,1000,1000,1000,0,0,0,0,0,0,0,0,0,0
1681545457.50037098,107328718,1000,1000,1000,1000,0,0,0,0,0,0,0,0,0,0
1681545457.60033107,107428678,1000,1000,1000,1000,0,0,0,0,0,0,0,0,0,0
1681545457.70029092,107528638,1000,1000,1000,1000,0,0,0,0,0,0,0,0,0,0
1681545457.80025101,107628598,1000,1000,1000,1000,0,0,0,0,0,0,0,0,0,0
1681545457.90021110,107728558,1000,1000,1000,1000,0,0,0,0,0,0,0,0,0,0
1681545458.00017095,107828518,1000,1000,1000,1000,0,0,0,0,0,0,0,0,0,0
1681545458.10013103,107928478,1000,1000,1000,1000,0,0,0,0,0,0,0,0,0,0
1681545458.20009112,108028438,1000,1000,1000,1000,0,0,0,0,0,0,0,0,0,0
1681545458.30005097,108128398,1000,1000,1000,1000,0,0,0,0,0,0,0,0,0,0
1681545458.40001106,108228358,1000,1000,1000,1000,0,0,0,0,0,0,0,0,0,0
1681545458.49997115,108328318,1000,1000,1000,1000,0,0,0,0,0,0,0,0,0,0
1681545458.59993100,108428278,1000,1000,1000,1000,0,0,0,0,0,0,0,0,0,0
1681545458.69989109,108528238,1000,1000,1000,1000,0,0,0,0,0,0,0,0,0,0
1681545458.79985094,108628198,1000,1000,1000,1000,0,0,0,0,0,0,0,0,0,0
1681545458.89981103,108728158,1000,1000,1000,1000,0,0,0,0,0,0,0,0,0,0
1681545459.00060391,108828951,1000,1000,1000,1000,0,0,0,0,0,0,0,0,0,0
1681545459.10056400,108928911,1000,1000,1000,1000,0,0,0,0,0,0,0,0,0,0
1681545459.20052409,109028871,1000,1000,1000,1000,0,0,0,0,0,0,0,0,0,0
1681545459.30048394,109128831,1000,1000,1000,1000,0,0,0,0,0,0,0,0,0,0
1681545459.40044403,109228791,1000,1000,1000,1000,0,0,0,0,0,0,0,0,0,0
1681545459.50040412,109328751,1000,1000,1000,1000,0,0,0,0,0,0,0,0,0,0
1681545459.60036397,109428711,1000,1000,1000,1000,0,0,0,0,0,0,0,0,0,0
1681545459.70032406,109528671,1000,1000,1000,1000,0,0,0,0,0,0,0,0,0,0
1681545459.80028415,109628631,1000,1000,1000,1000,0,0,0,0,0,0,0,0,0,0
1681545459.90024400,109728591,1000,1000,1000,1000,0,0,0,0,0,0,0,0,0,0
1681545460.00020409,109828551,1000,1000,1000,1000,0,0,0,0,0,0,0,0,0,0
1681545460.10016394,109928511,1000,1000,1000,1000,0,0,0,0,0,0,0,0,0,0
1681545460.20012403,110028471,1000,1000,1000,1000,0,0,0,0,0,0,0,0,0,0
1681545460.30008411,110128431,1000,1000,1000,1000,0,0,0,0,0,0,0,0,0,0
1681545460.40004396,110228391,1000,1000,1000,1000,0,0,0,0,0,0,0,0,0,0
1681545460.50000405,110328351,1000,1000,1000,1000,0,0,0,0,0,0,0,0,0,0
1681545460.59996414,110428311,1000,1000,1000,1000,0,0,0,0,0,0,0,0,0,0
1681545460.69992399,110528271,1000,1000,1000,1000,0,0,0,0,0,0,0,0,0,0
1681545460.79988408,110628231,1000,1000,1000,1000,0,0,0,0,0,0,0,0,0,0
1681545460.89984393,110728191,1000,1000,1000,1000,0,0,0,0,0,0,0,0,0,0
1681545461.00063705,110828984,1000,1000,1000,1000,0,0,0,0,0,0,0,0,0,0
1681545461.10059714,110928944,1000,1000,1000,1000,0,0,0,0,0,0,0,0,0,0
1681545461.20055699,111028904,1000,1000,1000,1000,0,0,0,0,0,0,0,0,0,0
1681545461.30051708,111128864,1000,1000,1000,1000,0,0,0,0,0,0,0,0,0,0
1681545461.40047693,111228824,1000,1000,1000,1000,0,0,0,0,0,0,0,0,0,0
1681545461.50043702,111328784,1000,1000,1000,1000,0,0,0,0,0,0,0,0,0,0
1681545461.60039711,111428744,1000,1000,1000,1000,0,0,0,0,0,0,0,0,0,0
1681545461.70035696,111528704,1000,1000,1000,1000,0,0,0,0,0,0,0,0,0,0
1681545461.80031705,111628664,1000,1000,1000,1000,0,0,0,0,0,0,0,0,0,0
1681545461.90027714,111728624,1000,1000,1000,1000,0,0,0,0,0,0,0,0,0,0
1681545462.00023699,111828584,1000,1000,1000,1000,0,0,0,0,0,0,0,0,0,0
1681545462.10019708,111928544,1000,1000,1000,1000,0,0,0,0,0,0,0,0,0,0
1681545462.20015693,112028504,1000,1000,1000,1000,0,0,0,0,0,0,0,0,0,0
1681545462.30011702,112128464,1000,1000,1000,1000,0,0,0,0,0,0,0,0,0,0
1681545462.40007710,112228424,1000,1000,1000,1000,0,0,0,0,0,0,0,0,0,0
1681545462.50003695,112328384,1000,1000,1000,1000,0,0,0,0,0,0,0,0,0,0
1681545462.59999704,112428344,1000,1000,1000,1000,0,0,0,0,0,0,0,0,0,0
1681545462.69995713,112528304,1000,1000,1000,1000,0,0,0,0,0,0,0,0,0,0
1681545462.79991698,112628264,1000,1000,1000,1000,0,0,0,0,0,0,0,0,0,0
1681545462.89987707,112728224,1000,1000,1000,1000,0,0,0,0,0,0,0,0,0,0
1681545462.99983692,112828184,1000,1000,1000,1000,0,0,0,0,0,0,0,0,0,0
1681545463.10063004,112928977,1000,1000,1000,1000,0,0,0,0,0,0,0,0,0,0
1681545463.20059013,113028937,1000,1000,1000,1000,0,0,0,0,0,0,0,0,0,0
1681545463.30054998,113128897,1000,1000,1000,1000,0,0,0,0,0,0,0,0,0,0
1681545463.40051007,113228857,1000,1000,1000,1000,0,0,0,0,0,0,0,0,0,0
1681545463.50046992,113328817,1000,1000,1000,1000,0,0,0,0,0,0,0,0,0,0
1681545463.60043001,113428777,1000,1000,1000,1000,0,0,0,0,0,0,0,0,0,0
1681545463.70039010,113528737,1000,1000,1000,1000,0,0,0,0,0,0,0,0,0,0
1681545463.80034995,113628697,1000,1000,1000,1000,0,0,0,0,0,0,0,0,0,0
1681545463.90031004,113728657,1000,1000,1000,1000,0,0,0,0,0,0,0,0,0,0
1681545464.00027013,113828617,1000,1000,1000,1000,0,0,0,0,0,0,0,0,0,0
1681545464.10022998,113928577,1000,1000,1000,1000,0,0,0,0,0,0,0,0,0,0
1681545464.20019007,114028537,1000,1000,1000,1000,0,0,0,0,0,0,0,0,0,0
1681545464.30014992,114128497,1000,1000,1000,1000,0,0,0,0,0,0,0,0,0,0
1681545464.40011001,114228457,1000,1000,1000,1000,0,0,0,0,0,0,0,0,0,0
1681545464.50007010,114328417,1000,1000,1000,1000,0,0,0,0,0,0,0,0,0,0
1681545464.60002995,114428377,1000,1000,1000,1000,0,0,0,0,0,0,0,0,0,0
1681545464.69999003,114528337,1000,1000,1000,1000,0,0,0,0,0,0,0,0,0,0
1681545464.79995012,114628297,1000,1000,1000,1000,0,0,0,0,0,0,0,0,0,0
1681545464.89990997,114728257,1000,1000,1000,1000,0,0,0,0,0,0,0,0,0,0
1681545464.99987006,114828217,1000,1000,1000,1000,0,0,0,0,0,0,0,0,0,0
1681545465.09983015,114928177,1000,1000,1000,1000,0,0,0,0,0,0,0,0,0,0
1681545465.20062304,115028970,1000,1000,1000,1000,0,0,0,0,0,0,0,0,0,0
1681545465.30058312,115128930,1000,1000,1000,1000,0,0,0,0,0,0,0,0,0,0
1681545465.40054297,115228890,1000,1000,1000,1000,0,0,0,0,0,0,0,0,0,0
1681545465.50050306,115328850,1000,1000,1000,1000,0,0,0,0,0,0,0,0,0,0
1681545465.60046291,115428810,1000,1000,1000,1000,0,0,0,0,0,0,0,0,0,0
1681545465.70042300,115528770,1000,1000,1000,1000,0,0,0,0,0,0,0,0,0,0
1681545465.80038309,115628730,1000,1000,1000,1000,0,0,0,0,0,0,0,0,0,0
1681545465.90034294,115728690,1000,1000,1000,1000,0,0,0,0,0,0,0,0,0,0
1681545466.00030303,115828650,1000,1000,1000,1000,0,0,0,0,0,0,0,0,0,0
1681545466.10026312,115928610,1000,1000,1000,1000,0,0,0,0,0,0,0,0,0,0
1681545466.20022297,116028570,1000,1000,1000,1000,0,0,0,0,0,0,0,0,0,0
1681545466.30018306,116128530,1000,1000,1000,1000,0,0,0,0,0,0,0,0,0,0
1681545466.40014315,116228490,1000,1000,1000,1000,0,0,0,0,0,0,0,0,0,0
1681545466.50010300,116328450,1000,1000,1000,1000,0,0,0,0,0,0,0,0,0,0
1681545466.60006309,116428410,1000,1000,1000,1000,0,0,0,0,0,0,0,0,0,0
1681545466.70002294,116528370,1000,1000,1000,1000,0,0,0,0,0,0,0,0,0,0
1681545466.79998302,116628330,1000,1000,1000,1000,0,0,0,0,0,0,0,0,0,0
1681545466.89994311,116728290,1000,1000,1000,1000,0,0,0,0,0,0,0,0,0,0
1681545466.99990296,116828250,1000,1000,1000,1000,0,0,0,0,0,0,0,0,0,0
1681545467.09986305,116928210,1000,1000,1000,1000,0,0,0,0,0,0,0,0,0,0
1681545467.19982314,117028170,1000,1000,1000,1000,0,0,0,0,0,0,0,0,0,0
1681545467.30061603,117128963,1000,1000,1000,1000,0,0,0,0,0,0,0,0,0,0
1681545467.40057611,117228923,1000,1000,1000,1000,0,0,0,0,0,0,0,0,0,0
1681545467.50053596,117328883,1000,1000,1000,1000,0,0,0,0,0,0,0,0,0,0
1681545467.60049605,117428843,1000,1000,1000,1000,0,0,0,0,0,0,0,0,0,0
1681545467.70045614,117528803,1000,1000,1000,1000,0,0,0,0,0,0,0,0,0,0
1681545467.80041599,117628763,1000,1000,1000,1000,0,0,0,0,0,0,0,0,0,0
1681545467.90037608,117728723,1000,1000,1000,1000,0,0,0,0,0,0,0,0,0,0
1681545468.00033593,117828683,1000,1000,1000,1000,0,0,0,0,0,0,0,0,0,0
1681545468.10029602,117928643,1000,1000,1000,1000,0,0,0,0,0,0,0,0,0,0
1681545468.20025611,118028603,1000,1000,1000,1000,0,0,0,0,0,0,0,0,0,0
1681545468.30021596,118128563,1000,1000,1000,1000,0,0,0,0,0,0,0,0,0,0
1681545468.40017605,118228523,1000,1000,1000,1000,0,0,0,0,0,0,0,0,0,0
1681545468.50013614,118328483,1000,1000,1000,1000,0,0,0,0,0,0,0,0,0,0
1681545468.60009599,118428443,1000,1000,1000,1000,0,0,0,0,0,0,0,0,0,0
1681545468.70005608,118528403,1000,1000,1000,1000,0,0,0,0,0,0,0,0,0,0
1681545468.80001593,118628363,1000,1000,1000,1000,0,0,0,0,0,0,0,0,0,0
1681545468.89997602,118728323,1000,1000,1000,1000,0,0,0,0,0,0,0,0,0,0
1681545468.99993610,118828283,1000,1000,1000,1000,0,0,0,0,0,0,0,0,0,0
