timestamp,TimeUS,C1,C2,C3,C4,C5,C6,C7,C8,C9,C10,C11,C12,C13,C14
1681461827.00000000,46228168,1000,1000,1000,1000,0,0,0,0,0,0,0,0,0,0
1681461827.10079288,46328961,1000,1000,1000,1000,0,0,0,0,0,0,0,0,0,0
1681461827.20075297,46428921,1000,1000,1000,1000,0,0,0,0,0,0,0,0,0,0
1681461827.30071306,46528881,1000,1000,1000,1000,0,0,0,0,0,0,0,0,0,0
1681461827.40067291,46628841,1000,1000,1000,1000,0,0,0,0,0,0,0,0,0,0
1681461827.50063300,46728801,1000,1000,1000,1000,0,0,0,0,0,0,0,0,0,0
1681461827.60059309,46828761,1000,1000,1000,1000,0,0,0,0,0,0,0,0,0,0
1681461827.70055294,46928721,1000,1000,1000,1000,0,0,0,0,0,0,0,0,0,0
1681461827.80051303,47028681,1000,1000,1000,1000,0,0,0,0,0,0,0,0,0,0
1681461827.90047288,47128641,1000,1000,1000,1000,0,0,0,0,0,0,0,0,0,0
1681461828.00043297,47228601,1000,1000,1000,1000,0,0,0,0,0,0,0,0,0,0
1681461828.10039306,47328561,1000,1000,1000,1000,0,0,0,0,0,0,0,0,0,0
1681461828.20035291,47428521,1000,1000,1000,1000,0,0,0,0,0,0,0,0,0,0
1681461828.30031300,47528481,1000,1000,1000,1000,0,0,0,0,0,0,0,0,0,0
1681461828.40027308,47628441,1000,1000,1000,1000,0,0,0,0,0,0,0,0,0,0
1681461828.50023293,47728401,1000,1000,1000,1000,0,0,0,0,0,0,0,0,0,0
1681461828.60019302,47828361,1000,1000,1000,1000,0,0,0,0,0,0,0,0,0,0
1681461828.70015287,47928321,1000,1000,1000,1000,0,0,0,0,0,0,0,0,0,0
1681461828.80011296,48028281,1000,1000,1000,1000,0,0,0,0,0,0,0,0,0,0
1681461828.90007305,48128241,1000,1000,1000,1000,0,0,0,0,0,0,0,0,0,0
1681461829.00003290,48228201,1012,1012,1012,1012,0,0,0,0,0,0,0,0,0,0
1681461829.09999299,48328161,1042,1042,1042,1042,0,0,0,0,0,0,0,0,0,0
1681461829.20078588,48428954,1072,1072,1072,1072,0,0,0,0,0,0,0,0,0,0
1681461829.30074596,48528914,1102,1102,1102,1102,0,0,0,0,0,0,0,0,0,0
1681461829.40070605,48628874,1132,1132,1132,1132,0,0,0,0,0,0,0,0,0,0
1681461829.50066590,48728834,1268,1263,1263,1268,0,0,0,0,0,0,0,0,0,0
1681461829.60062599,48828794,1481,1477,1477,1481,0,0,0,0,0,0,0,0,0,0
1681461829.70058608,48928754,1644,1640,1641,1644,0,0,0,0,0,0,0,0,0,0
1681461829.80054593,49028714,1782,1779,1779,1782,0,0,0,0,0,0,0,0,0,0
1681461829.90050602,49128674,1848,1844,1844,1848,0,0,0,0,0,0,0,0,0,0
1681461830.00046611,49228634,1857,1854,1855,1857,0,0,0,0,0,0,0,0,0,0
1681461830.10042596,49328594,1742,1741,1741,1742,0,0,0,0,0,0,0,0,0,0
1681461830.20038605,49428554,1637,1638,1638,1637,0,0,0,0,0,0,0,0,0,0
1681461830.30034590,49528514,1606,1608,1608,1606,0,0,0,0,0,0,0,0,0,0
1681461830.40030599,49628474,1617,1619,1619,1618,0,0,0,0,0,0,0,0,0,0
1681461830.50026608,49728434,1632,1634,1633,1633,0,0,0,0,0,0,0,0,0,0
1681461830.60022593,49828394,1635,1635,1635,1635,0,0,0,0,0,0,0,0,0,0
1681461830.70018601,49928354,1630,1629,1629,1630,0,0,0,0,0,0,0,0,0,0
1681461830.80014610,50028314,1612,1611,1606,1616,0,0,0,0,0,0,0,0,0,0
1681461830.90010595,50128274,1603,1603,1595,1610,0,0,0,0,0,0,0,0,0,0
1681461831.00006604,50228234,1603,1602,1598,1606,0,0,0,0,0,0,0,0,0,0
1681461831.10002589,50328194,1605,1604,1604,1604,0,0,0,0,0,0,0,0,0,0
1681461831.19998598,50428154,1610,1609,1612,1607,0,0,0,0,0,0,0,0,0,0
1681461831.30077910,50528947,1616,1616,1620,1612,0,0,0,0,0,0,0,0,0,0
1681461831.40073895,50628907,1620,1620,1624,1616,0,0,0,0,0,0,0,0,0,0
1681461831.50069904,50728867,1589,1590,1603,1576,0,0,0,0,0,0,0,0,0,0
1681461831.60065889,50828827,1575,1577,1587,1565,0,0,0,0,0,0,0,0,0,0
1681461831.70061898,50928787,1564,1565,1567,1562,0,0,0,0,0,0,0,0,0,0
1681461831.80057907,51028747,1554,1554,1547,1562,0,0,0,0,0,0,0,0,0,0
1681461831.90053892,51128707,1546,1545,1534,1558,0,0,0,0,0,0,0,0,0,0
1681461832.00049901,51228667,1539,1539,1529,1549,0,0,0,0,0,0,0,0,0,0
1681461832.10045910,51328627,1533,1533,1527,1539,0,0,0,0,0,0,0,0,0,0
1681461832.20041895,51428587,1529,1529,1528,1531,0,0,0,0,0,0,0,0,0,0
1681461832.30037904,51528547,1529,1529,1530,1528,0,0,0,0,0,0,0,0,0,0
1681461832.40033889,51628507,1531,1531,1534,1528,0,0,0,0,0,0,0,0,0,0
1681461832.50029898,51728467,1534,1534,1537,1530,0,0,0,0,0,0,0,0,0,0
1681461832.60025907,51828427,1537,1537,1541,1533,0,0,0,0,0,0,0,0,0,0
1681461832.70021892,51928387,1540,1540,1543,1538,0,0,0,0,0,0,0,0,0,0
1681461832.80017900,52028347,1543,1543,1544,1542,0,0,0,0,0,0,0,0,0,0
1681461832.90013909,52128307,1546,1546,1546,1547,0,0,0,0,0,0,0,0,0,0
1681461833.00009894,52228267,1549,1549,1548,1551,0,0,0,0,0,0,0,0,0,0
1681461833.10005903,52328227,1552,1551,1550,1553,0,0,0,0,0,0,0,0,0,0
1681461833.20001888,52428187,1551,1550,1556,1559,0,0,0,0,0,0,0,0,0,0
1681461833.30081201,52528980,1552,1552,1560,1562,0,0,0,0,0,0,0,0,0,0
1681461833.40077209,52628940,1556,1556,1562,1563,0,0,0,0,0,0,0,0,0,0
1681461833.50073195,52728900,1558,1559,1563,1563,0,0,0,0,0,0,0,0,0,0
1681461833.60069203,52828860,1562,1562,1564,1564,0,0,0,0,0,0,0,0,0,0
1681461833.70065188,52928820,1565,1565,1565,1564,0,0,0,0,0,0,0,0,0,0
1681461833.80061197,53028780,1567,1567,1565,1564,0,0,0,0,0,0,0,0,0,0
1681461833.90057206,53128740,1569,1569,1565,1565,0,0,0,0,0,0,0,0,0,0
1681461834.00053191,53228700,1570,1570,1565,1565,0,0,0,0,0,0,0,0,0,0
1681461834.10049200,53328660,1570,1570,1565,1565,0,0,0,0,0,0,0,0,0,0
1681461834.20045209,53428620,1572,1571,1567,1567,0,0,0,0,0,0,0,0,0,0
1681461834.30041194,53528580,1573,1572,1569,1569,0,0,0,0,0,0,0,0,0,0
1681461834.40037203,53628540,1573,1573,1571,1570,0,0,0,0,0,0,0,0,0,0
1681461834.50033188,53728500,1573,1573,1572,1571,0,0,0,0,0,0,0,0,0,0
1681461834.60029197,53828460,1574,1574,1575,1574,0,0,0,0,0,0,0,0,0,0
1681461834.70025206,53928420,1574,1575,1576,1575,0,0,0,0,0,0,0,0,0,0
1681461834.80021191,54028380,1574,1575,1577,1575,0,0,0,0,0,0,0,0,0,0
1681461834.90017200,54128340,1574,1574,1576,1576,0,0,0,0,0,0,0,0,0,0
1681461835.00013208,54228300,1575,1575,1577,1577,0,0,0,0,0,0,0,0,0,0
1681461835.10009193,54328260,1576,1575,1577,1577,0,0,0,0,0,0,0,0,0,0
1681461835.20005202,54428220,1576,1576,1577,1577,0,0,0,0,0,0,0,0,0,0
1681461835.30001187,54528180,1576,1576,1577,1577,0,0,0,0,0,0,0,0,0,0
1681461835.40080500,54628973,1576,1576,1576,1576,0,0,0,0,0,0,0,0,0,0
1681461835.50076509,54728933,1577,1577,1577,1577,0,0,0,0,0,0,0,0,0,0
1681461835.60072494,54828893,1578,1578,1578,1578,0,0,0,0,0,0,0,0,0,0
1681461835.70068502,54928853,1578,1578,1578,1578,0,0,0,0,0,0,0,0,0,0
1681461835.80064487,55028813,1578,1577,1577,1577,0,0,0,0,0,0,0,0,0,0
1681461835.90060496,55128773,1578,1578,1578,1578,0,0,0,0,0,0,0,0,0,0
1681461836.00056505,55228733,1578,1579,1578,1578,0,0,0,0,0,0,0,0,0,0
1681461836.10052490,55328693,1578,1579,1578,1578,0,0,0,0,0,0,0,0,0,0
1681461836.20048499,55428653,1579,1579,1578,1578,0,0,0,0,0,0,0,0,0,0
1681461836.30044508,55528613,1579,1578,1578,1578,0,0,0,0,0,0,0,0,0,0
1681461836.40040493,55628573,1579,1579,1579,1579,0,0,0,0,0,0,0,0,0,0
1681461836.50036502,55728533,1579,1579,1579,1579,0,0,0,0,0,0,0,0,0,0
1681461836.60032511,55828493,1579,1579,1579,1579,0,0,0,0,0,0,0,0,0,0
1681461836.70028496,55928453,1579,1579,1579,1579,0,0,0,0,0,0,0,0,0,0
1681461836.80024505,56028413,1579,1579,1579,1579,0,0,0,0,0,0,0,0,0,0
1681461836.90020490,56128373,1579,1580,1580,1580,0,0,0,0,0,0,0,0,0,0
1681461837.00016499,56228333,1580,1579,1580,1580,0,0,0,0,0,0,0,0,0,0
1681461837.10012507,56328293,1579,1579,1580,1580,0,0,0,0,0,0,0,0,0,0
1681461837.20008492,56428253,1579,1579,1580,1580,0,0,0,0,0,0,0,0,0,0
1681461837.30004501,56528213,1579,1579,1580,1579,0,0,0,0,0,0,0,0,0,0
1681461837.40000510,56628173,1578,1579,1579,1579,0,0,0,0,0,0,0,0,0,0
1681461837.50079799,56728966,1580,1579,1579,1580,0,0,0,0,0,0,0,0,0,0
1681461837.60075808,56828926,1581,1580,1581,1581,0,0,0,0,0,0,0,0,0,0
1681461837.70071793,56928886,1581,1581,1581,1581,0,0,0,0,0,0,0,0,0,0
1681461837.80067801,57028846,1581,1581,1581,1581,0,0,0,0,0,0,0,0,0,0
1681461837.90063810,57128806,1580,1581,1580,1581,0,0,0,0,0,0,0,0,0,0
1681461838.00059795,57228766,1581,1581,1581,1580,0,0,0,0,0,0,0,0,0,0
1681461838.10055804,57328726,1580,1581,1580,1580,0,0,0,0,0,0,0,0,0,0
1681461838.20051789,57428686,1581,1580,1580,1581,0,0,0,0,0,0,0,0,0,0
1681461838.30047798,57528646,1580,1580,1580,1580,0,0,0,0,0,0,0,0,0,0
1681461838.40043807,57628606,1580,1580,1580,1580,0,0,0,0,0,0,0,0,0,0
1681461838.50039792,57728566,1581,1580,1580,1581,0,0,0,0,0,0,0,0,0,0
1681461838.60035801,57828526,1580,1580,1580,1580,0,0,0,0,0,0,0,0,0,0
1681461838.70031810,57928486,1581,1581,1581,1581,0,0,0,0,0,0,0,0,0,0
1681461838.80027795,58028446,1582,1581,1581,1581,0,0,0,0,0,0,0,0,0,0
1681461838.90023804,58128406,1581,1581,1581,1582,0,0,0,0,0,0,0,0,0,0
1681461839.00019789,58228366,1582,1581,1582,1581,0,0,0,0,0,0,0,0,0,0
1681461839.10015798,58328326,1581,1581,1581,1581,0,0,0,0,0,0,0,0,0,0
1681461839.20011806,58428286,1581,1581,1581,1581,0,0,0,0,0,0,0,0,0,0
1681461839.30007792,58528246,1581,1581,1581,1581,0,0,0,0,0,0,0,0,0,0
1681461839.40003800,58628206,1581,1581,1585,1577,0,0,0,0,0,0,0,0,0,0
1681461839.49999809,58728166,1580,1582,1587,1573,0,0,0,0,0,0,0,0,0,0
1681461839.60079098,58828959,1579,1582,1582,1573,0,0,0,0,0,0,0,0,0,0
1681461839.70075107,58928919,1577,1580,1572,1573,0,0,0,0,0,0,0,0,0,0
1681461839.80071092,59028879,1576,1579,1564,1570,0,0,0,0,0,0,0,0,0,0
1681461839.90067101,59128839,1576,1578,1558,1566,0,0,0,0,0,0,0,0,0,0
1681461840.00063109,59228799,1578,1578,1556,1561,0,0,0,0,0,0,0,0,0,0
1681461840.10059094,59328759,1579,1577,1555,1557,0,0,0,0,0,0,0,0,0,0
1681461840.20055103,59428719,1579,1578,1556,1555,0,0,0,0,0,0,0,0,0,0
1681461840.30051088,59528679,1579,1578,1557,1555,0,0,0,0,0,0,0,0,0,0
1681461840.40047097,59628639,1578,1578,1557,1555,0,0,0,0,0,0,0,0,0,0
1681461840.50043106,59728599,1576,1577,1556,1554,0,0,0,0,0,0,0,0,0,0
1681461840.60039091,59828559,1575,1576,1555,1554,0,0,0,0,0,0,0,0,0,0
1681461840.70035100,59928519,1574,1576,1553,1554,0,0,0,0,0,0,0,0,0,0
1681461840.80031109,60028479,1575,1576,1552,1553,0,0,0,0,0,0,0,0,0,0
1681461840.90027094,60128439,1575,1577,1551,1551,0,0,0,0,0,0,0,0,0,0
1681461841.00023103,60228399,1577,1578,1550,1549,0,0,0,0,0,0,0,0,0,0
1681461841.10019088,60328359,1579,1580,1547,1547,0,0,0,0,0,0,0,0,0,0
1681461841.20015097,60428319,1581,1582,1544,1543,0,0,0,0,0,0,0,0,0,0
1681461841.30011106,60528279,1584,1585,1541,1541,0,0,0,0,0,0,0,0,0,0
1681461841.40007091,60628239,1588,1589,1539,1539,0,0,0,0,0,0,0,0,0,0
1681461841.50003099,60728199,1591,1592,1537,1537,0,0,0,0,0,0,0,0,0,0
1681461841.59999108,60828159,1593,1594,1535,1535,0,0,0,0,0,0,0,0,0,0
1681461841.70078397,60928952,1596,1595,1535,1536,0,0,0,0,0,0,0,0,0,0
1681461841.80074406,61028912,1594,1594,1534,1536,0,0,0,0,0,0,0,0,0,0
1681461841.90070391,61128872,1594,1594,1537,1540,0,0,0,0,0,0,0,0,0,0
1681461842.00066400,61228832,1591,1590,1540,1543,0,0,0,0,0,0,0,0,0,0
1681461842.10062408,61328792,1587,1585,1547,1550,0,0,0,0,0,0,0,0,0,0
1681461842.20058393,61428752,1580,1577,1555,1558,0,0,0,0,0,0,0,0,0,0
1681461842.30054402,61528712,1571,1568,1565,1568,0,0,0,0,0,0,0,0,0,0
1681461842.40050387,61628672,1561,1558,1578,1580,0,0,0,0,0,0,0,0,0,0
1681461842.50046396,61728632,1550,1546,1590,1590,0,0,0,0,0,0,0,0,0,0
1681461842.60042405,61828592,1540,1538,1601,1600,0,0,0,0,0,0,0,0,0,0
1681461842.70038390,61928552,1532,1532,1609,1608,0,0,0,0,0,0,0,0,0,0
1681461842.80034399,62028512,1529,1531,1614,1613,0,0,0,0,0,0,0,0,0,0
1681461842.90030408,62128472,1529,1530,1615,1614,0,0,0,0,0,0,0,0,0,0
1681461843.00026393,62228432,1533,1535,1613,1612,0,0,0,0,0,0,0,0,0,0
1681461843.10022402,62328392,1539,1541,1607,1608,0,0,0,0,0,0,0,0,0,0
1681461843.20018411,62428352,1546,1548,1601,1601,0,0,0,0,0,0,0,0,0,0
1681461843.30014396,62528312,1555,1556,1593,1593,0,0,0,0,0,0,0,0,0,0
1681461843.40010405,62628272,1564,1564,1586,1585,0,0,0,0,0,0,0,0,0,0
1681461843.50006390,62728232,1571,1571,1578,1577,0,0,0,0,0,0,0,0,0,0
1681461843.60002398,62828192,1578,1577,1573,1572,0,0,0,0,0,0,0,0,0,0
1681461843.70081711,62928985,1583,1582,1569,1568,0,0,0,0,0,0,0,0,0,0
1681461843.80077696,63028945,1586,1585,1567,1566,0,0,0,0,0,0,0,0,0,0
1681461843.90073705,63128905,1587,1586,1565,1565,0,0,0,0,0,0,0,0,0,0
1681461844.00069690,63228865,1587,1586,1567,1567,0,0,0,0,0,0,0,0,0,0
1681461844.10065699,63328825,1585,1584,1569,1569,0,0,0,0,0,0,0,0,0,0
1681461844.20061707,63428785,1583,1583,1572,1572,0,0,0,0,0,0,0,0,0,0
1681461844.30057693,63528745,1580,1581,1575,1575,0,0,0,0,0,0,0,0,0,0
1681461844.40053701,63628705,1578,1578,1578,1578,0,0,0,0,0,0,0,0,0,0
1681461844.50049710,63728665,1575,1576,1581,1580,0,0,0,0,0,0,0,0,0,0
1681461844.60045695,63828625,1573,1574,1582,1582,0,0,0,0,0,0,0,0,0,0
1681461844.70041704,63928585,1573,1574,1584,1584,0,0,0,0,0,0,0,0,0,0
1681461844.80037689,64028545,1572,1573,1584,1584,0,0,0,0,0,0,0,0,0,0
1681461844.90033698,64128505,1573,1574,1584,1584,0,0,0,0,0,0,0,0,0,0
1681461845.00029707,64228465,1574,1574,1583,1583,0,0,0,0,0,0,0,0,0,0
1681461845.10025692,64328425,1575,1575,1582,1582,0,0,0,0,0,0,0,0,0,0
1681461845.20021701,64428385,1577,1577,1582,1581,0,0,0,0,0,0,0,0,0,0
1681461845.30017710,64528345,1578,1577,1579,1579,0,0,0,0,0,0,0,0,0,0
1681461845.40013695,64628305,1592,1592,1570,1563,0,0,0,0,0,0,0,0,0,0
1681461845.50009704,64728265,1596,1595,1588,1567,0,0,0,0,0,0,0,0,0,0
1681461845.60005689,64828225,1598,1597,1600,1576,0,0,0,0,0,0,0,0,0,0
1681461845.70001698,64928185,1597,1597,1604,1587,0,0,0,0,0,0,0,0,0,0
1681461845.80081010,65028978,1591,1591,1600,1593,0,0,0,0,0,0,0,0,0,0
1681461845.90076995,65128938,1585,1585,1594,1597,0,0,0,0,0,0,0,0,0,0
1681461846.00073004,65228898,1577,1578,1587,1597,0,0,0,0,0,0,0,0,0,0
1681461846.10068989,65328858,1573,1573,1584,1594,0,0,0,0,0,0,0,0,0,0
1681461846.20064998,65428818,1571,1571,1582,1590,0,0,0,0,0,0,0,0,0,0
1681461846.30061007,65528778,1572,1572,1583,1587,0,0,0,0,0,0,0,0,0,0
1681461846.40056992,65628738,1574,1574,1584,1584,0,0,0,0,0,0,0,0,0,0
1681461846.50053000,65728698,1575,1575,1582,1580,0,0,0,0,0,0,0,0,0,0
1681461846.60049009,65828658,1577,1577,1581,1578,0,0,0,0,0,0,0,0,0,0
1681461846.70044994,65928618,1579,1580,1579,1578,0,0,0,0,0,0,0,0,0,0
1681461846.80041003,66028578,1580,1580,1577,1576,0,0,0,0,0,0,0,0,0,0
1681461846.90036988,66128538,1581,1581,1575,1575,0,0,0,0,0,0,0,0,0,0
1681461847.00032997,66228498,1582,1581,1574,1575,0,0,0,0,0,0,0,0,0,0
1681461847.10029006,66328458,1582,1582,1575,1575,0,0,0,0,0,0,0,0,0,0
1681461847.20024991,66428418,1581,1581,1574,1575,0,0,0,0,0,0,0,0,0,0
1681461847.30021000,66528378,1580,1580,1575,1575,0,0,0,0,0,0,0,0,0,0
1681461847.40017009,66628338,1578,1579,1575,1575,0,0,0,0,0,0,0,0,0,0
1681461847.50012994,66728298,1577,1581,1583,1568,0,0,0,0,0,0,0,0,0,0
1681461847.60009003,66828258,1578,1582,1580,1568,0,0,0,0,0,0,0,0,0,0
1681461847.70004988,66928218,1577,1581,1573,1570,0,0,0,0,0,0,0,0,0,0
1681461847.80000997,67028178,1576,1579,1564,1569,0,0,0,0,0,0,0,0,0,0
1681461847.90080309,67128971,1577,1577,1558,1565,0,0,0,0,0,0,0,0,0,0
1681461848.00076294,67228931,1578,1577,1554,1561,0,0,0,0,0,0,0,0,0,0
1681461848.10072303,67328891,1578,1577,1552,1556,0,0,0,0,0,0,0,0,0,0
1681461848.20068288,67428851,1579,1578,1552,1553,0,0,0,0,0,0,0,0,0,0
1681461848.30064297,67528811,1580,1579,1553,1552,0,0,0,0,0,0,0,0,0,0
1681461848.40060306,67628771,1579,1579,1554,1551,0,0,0,0,0,0,0,0,0,0
1681461848.50056291,67728731,1578,1579,1554,1551,0,0,0,0,0,0,0,0,0,0
1681461848.60052299,67828691,1577,1579,1553,1551,0,0,0,0,0,0,0,0,0,0
1681461848.70048308,67928651,1577,1578,1552,1552,0,0,0,0,0,0,0,0,0,0
1681461848.80044293,68028611,1577,1578,1552,1552,0,0,0,0,0,0,0,0,0,0
1681461848.90040302,68128571,1577,1579,1550,1551,0,0,0,0,0,0,0,0,0,0
1681461849.00036287,68228531,1578,1580,1548,1549,0,0,0,0,0,0,0,0,0,0
1681461849.10032296,68328491,1580,1580,1547,1547,0,0,0,0,0,0,0,0,0,0
1681461849.20028305,68428451,1582,1583,1546,1547,0,0,0,0,0,0,0,0,0,0
1681461849.30024290,68528411,1584,1585,1544,1545,0,0,0,0,0,0,0,0,0,0
1681461849.40020299,68628371,1586,1587,1544,1544,0,0,0,0,0,0,0,0,0,0
1681461849.50016308,68728331,1588,1589,1543,1543,0,0,0,0,0,0,0,0,0,0
1681461849.60012293,68828291,1590,1591,1542,1543,0,0,0,0,0,0,0,0,0,0
1681461849.70008302,68928251,1592,1592,1542,1544,0,0,0,0,0,0,0,0,0,0
1681461849.80004311,69028211,1591,1591,1543,1546,0,0,0,0,0,0,0,0,0,0
1681461849.90000296,69128171,1589,1587,1547,1549,0,0,0,0,0,0,0,0,0,0
1681461850.00079608,69228964,1584,1581,1553,1555,0,0,0,0,0,0,0,0,0,0
1681461850.10075593,69328924,1578,1574,1561,1563,0,0,0,0,0,0,0,0,0,0
1681461850.20071602,69428884,1569,1565,1571,1572,0,0,0,0,0,0,0,0,0,0
1681461850.30067611,69528844,1561,1557,1581,1582,0,0,0,0,0,0,0,0,0,0
1681461850.40063596,69628804,1552,1551,1591,1592,0,0,0,0,0,0,0,0,0,0
1681461850.50059605,69728764,1545,1545,1599,1599,0,0,0,0,0,0,0,0,0,0
1681461850.60055590,69828724,1540,1541,1605,1604,0,0,0,0,0,0,0,0,0,0
1681461850.70051599,69928684,1539,1540,1608,1607,0,0,0,0,0,0,0,0,0,0
1681461850.80047607,70028644,1540,1541,1607,1607,0,0,0,0,0,0,0,0,0,0
1681461850.90043592,70128604,1544,1546,1606,1605,0,0,0,0,0,0,0,0,0,0
1681461851.00039601,70228564,1549,1551,1602,1601,0,0,0,0,0,0,0,0,0,0
1681461851.10035610,70328524,1555,1556,1598,1596,0,0,0,0,0,0,0,0,0,0
1681461851.20031595,70428484,1561,1562,1591,1591,0,0,0,0,0,0,0,0,0,0
1681461851.30027604,70528444,1568,1568,1585,1585,0,0,0,0,0,0,0,0,0,0
1681461851.40023589,70628404,1574,1573,1580,1580,0,0,0,0,0,0,0,0,0,0
1681461851.50019598,70728364,1579,1578,1575,1576,0,0,0,0,0,0,0,0,0,0
1681461851.60015607,70828324,1581,1581,1571,1571,0,0,0,0,0,0,0,0,0,0
1681461851.70011592,70928284,1584,1582,1569,1569,0,0,0,0,0,0,0,0,0,0
1681461851.80007601,71028244,1585,1584,1569,1569,0,0,0,0,0,0,0,0,0,0
1681461851.90003610,71128204,1584,1583,1569,1570,0,0,0,0,0,0,0,0,0,0
1681461851.99999595,71228164,1583,1582,1571,1571,0,0,0,0,0,0,0,0,0,0
1681461852.10078907,71328957,1581,1581,1573,1573,0,0,0,0,0,0,0,0,0,0
1681461852.20074892,71428917,1580,1580,1577,1576,0,0,0,0,0,0,0,0,0,0
1681461852.30070901,71528877,1578,1578,1578,1578,0,0,0,0,0,0,0,0,0,0
1681461852.40066910,71628837,1576,1576,1581,1581,0,0,0,0,0,0,0,0,0,0
1681461852.50062895,71728797,1574,1574,1581,1581,0,0,0,0,0,0,0,0,0,0
1681461852.60058904,71828757,1574,1574,1583,1583,0,0,0,0,0,0,0,0,0,0
1681461852.70054889,71928717,1573,1574,1583,1583,0,0,0,0,0,0,0,0,0,0
1681461852.80050898,72028677,1575,1575,1584,1584,0,0,0,0,0,0,0,0,0,0
1681461852.90046906,72128637,1575,1576,1583,1583,0,0,0,0,0,0,0,0,0,0
1681461853.00042892,72228597,1576,1577,1583,1582,0,0,0,0,0,0,0,0,0,0
1681461853.10038900,72328557,1578,1578,1582,1582,0,0,0,0,0,0,0,0,0,0
1681461853.20034909,72428517,1579,1579,1581,1581,0,0,0,0,0,0,0,0,0,0
1681461853.30030894,72528477,1580,1580,1580,1580,0,0,0,0,0,0,0,0,0,0
1681461853.40026903,72628437,1581,1581,1580,1579,0,0,0,0,0,0,0,0,0,0
1681461853.50022888,72728397,1581,1581,1578,1578,0,0,0,0,0,0,0,0,0,0
1681461853.60018897,72828357,1581,1580,1577,1578,0,0,0,0,0,0,0,0,0,0
1681461853.70014906,72928317,1581,1581,1578,1578,0,0,0,0,0,0,0,0,0,0
1681461853.80010891,73028277,1581,1581,1578,1578,0,0,0,0,0,0,0,0,0,0
1681461853.90006900,73128237,1581,1580,1578,1577,0,0,0,0,0,0,0,0,0,0
1681461854.00002909,73228197,1580,1580,1578,1579,0,0,0,0,0,0,0,0,0,0
1681461854.09998894,73328157,1579,1579,1578,1578,0,0,0,0,0,0,0,0,0,0
1681461854.20078206,73428950,1579,1579,1579,1579,0,0,0,0,0,0,0,0,0,0
1681461854.30074191,73528910,1578,1579,1579,1579,0,0,0,0,0,0,0,0,0,0
1681461854.40070200,73628870,1580,1580,1581,1581,0,0,0,0,0,0,0,0,0,0
1681461854.50066209,73728830,1579,1579,1581,1581,0,0,0,0,0,0,0,0,0,0
1681461854.60062194,73828790,1580,1580,1581,1581,0,0,0,0,0,0,0,0,0,0
1681461854.70058203,73928750,1580,1580,1581,1581,0,0,0,0,0,0,0,0,0,0
1681461854.80054188,74028710,1580,1580,1581,1581,0,0,0,0,0,0,0,0,0,0
1681461854.90050197,74128670,1579,1579,1580,1580,0,0,0,0,0,0,0,0,0,0
1681461855.00046206,74228630,1581,1581,1581,1581,0,0,0,0,0,0,0,0,0,0
1681461855.10042191,74328590,1581,1581,1581,1581,0,0,0,0,0,0,0,0,0,0
1681461855.20038199,74428550,1582,1582,1582,1582,0,0,0,0,0,0,0,0,0,0
1681461855.30034208,74528510,1582,1582,1581,1582,0,0,0,0,0,0,0,0,0,0
1681461855.40030193,74628470,1582,1582,1582,1582,0,0,0,0,0,0,0,0,0,0
1681461855.50026202,74728430,1583,1583,1582,1582,0,0,0,0,0,0,0,0,0,0
1681461855.60022187,74828390,1582,1583,1588,1575,0,0,0,0,0,0,0,0,0,0
1681461855.70018196,74928350,1582,1584,1587,1574,0,0,0,0,0,0,0,0,0,0
1681461855.80014205,75028310,1580,1584,1579,1574,0,0,0,0,0,0,0,0,0,0
1681461855.90010190,75128270,1580,1582,1571,1574,0,0,0,0,0,0,0,0,0,0
1681461856.00006199,75228230,1577,1580,1562,1569,0,0,0,0,0,0,0,0,0,0
1681461856.10002208,75328190,1578,1579,1557,1565,0,0,0,0,0,0,0,0,0,0
1681461856.20081496,75428983,1579,1578,1555,1560,0,0,0,0,0,0,0,0,0,0
1681461856.30077505,75528943,1579,1578,1554,1556,0,0,0,0,0,0,0,0,0,0
1681461856.40073490,75628903,1579,1577,1554,1553,0,0,0,0,0,0,0,0,0,0
1681461856.50069499,75728863,1578,1577,1554,1552,0,0,0,0,0,0,0,0,0,0
1681461856.60065508,75828823,1577,1577,1555,1552,0,0,0,0,0,0,0,0,0,0
1681461856.70061493,75928783,1575,1576,1554,1552,0,0,0,0,0,0,0,0,0,0
1681461856.80057502,76028743,1576,1577,1555,1554,0,0,0,0,0,0,0,0,0,0
1681461856.90053511,76128703,1575,1576,1553,1553,0,0,0,0,0,0,0,0,0,0
1681461857.00049496,76228663,1575,1577,1552,1553,0,0,0,0,0,0,0,0,0,0
1681461857.10045505,76328623,1576,1578,1550,1551,0,0,0,0,0,0,0,0,0,0
1681461857.20041490,76428583,1578,1580,1549,1549,0,0,0,0,0,0,0,0,0,0
1681461857.30037498,76528543,1580,1581,1547,1547,0,0,0,0,0,0,0,0,0,0
1681461857.40033507,76628503,1584,1585,1546,1545,0,0,0,0,0,0,0,0,0,0
1681461857.50029492,76728463,1586,1587,1543,1543,0,0,0,0,0,0,0,0,0,0
1681461857.60025501,76828423,1589,1589,1540,1540,0,0,0,0,0,0,0,0,0,0
1681461857.70021510,76928383,1591,1591,1538,1539,0,0,0,0,0,0,0,0,0,0
1681461857.80017495,77028343,1593,1593,1537,1538,0,0,0,0,0,0,0,0,0,0
1681461857.90013504,77128303,1594,1594,1537,1539,0,0,0,0,0,0,0,0,0,0
1681461858.00009489,77228263,1593,1594,1537,1539,0,0,0,0,0,0,0,0,0,0
1681461858.10005498,77328223,1593,1592,1541,1543,0,0,0,0,0,0,0,0,0,0
1681461858.20001507,77428183,1589,1588,1546,1548,0,0,0,0,0,0,0,0,0,0
1681461858.30080795,77528976,1584,1580,1553,1556,0,0,0,0,0,0,0,0,0,0
1681461858.40076804,77628936,1576,1572,1563,1566,0,0,0,0,0,0,0,0,0,0
1681461858.50072789,77728896,1566,1561,1574,1576,0,0,0,0,0,0,0,0,0,0
1681461858.60068798,77828856,1555,1552,1586,1587,0,0,0,0,0,0,0,0,0,0
1681461858.70064807,77928816,1545,1544,1598,1597,0,0,0,0,0,0,0,0,0,0
1681461858.80060792,78028776,1537,1537,1606,1605,0,0,0,0,0,0,0,0,0,0
1681461858.90056801,78128736,1533,1533,1611,1610,0,0,0,0,0,0,0,0,0,0
1681461859.00052810,78228696,1532,1534,1613,1612,0,0,0,0,0,0,0,0,0,0
1681461859.10048795,78328656,1535,1536,1612,1611,0,0,0,0,0,0,0,0,0,0
1681461859.20044804,78428616,1541,1543,1609,1608,0,0,0,0,0,0,0,0,0,0
1681461859.30040789,78528576,1546,1548,1603,1602,0,0,0,0,0,0,0,0,0,0
1681461859.40036798,78628536,1555,1556,1597,1597,0,0,0,0,0,0,0,0,0,0
1681461859.50032806,78728496,1563,1563,1590,1589,0,0,0,0,0,0,0,0,0,0
1681461859.60028791,78828456,1570,1570,1583,1582,0,0,0,0,0,0,0,0,0,0
1681461859.70024800,78928416,1576,1576,1576,1576,0,0,0,0,0,0,0,0,0,0
1681461859.80020809,79028376,1582,1581,1572,1572,0,0,0,0,0,0,0,0,0,0
1681461859.90016794,79128336,1585,1584,1568,1569,0,0,0,0,0,0,0,0,0,0
1681461860.00012803,79228296,1586,1585,1566,1567,0,0,0,0,0,0,0,0,0,0
1681461860.10008788,79328256,1586,1585,1566,1567,0,0,0,0,0,0,0,0,0,0
1681461860.20004797,79428216,1585,1584,1567,1568,0,0,0,0,0,0,0,0,0,0
1681461860.30000806,79528176,1583,1582,1569,1570,0,0,0,0,0,0,0,0,0,0
1681461860.40080094,79628969,1581,1580,1573,1573,0,0,0,0,0,0,0,0,0,0
1681461860.50076103,79728929,1579,1579,1576,1576,0,0,0,0,0,0,0,0,0,0
1681461860.60072088,79828889,1575,1576,1578,1578,0,0,0,0,0,0,0,0,0,0
1681461860.70068097,79928849,1574,1575,1581,1580,0,0,0,0,0,0,0,0,0,0
1681461860.80064106,80028809,1573,1573,1582,1582,0,0,0,0,0,0,0,0,0,0
1681461860.90060091,80128769,1572,1574,1584,1584,0,0,0,0,0,0,0,0,0,0
1681461861.00056100,80228729,1571,1573,1583,1583,0,0,0,0,0,0,0,0,0,0
1681461861.10052109,80328689,1572,1573,1583,1583,0,0,0,0,0,0,0,0,0,0
1681461861.20048094,80428649,1574,1574,1582,1583,0,0,0,0,0,0,0,0,0,0
1681461861.30044103,80528609,1575,1576,1581,1581,0,0,0,0,0,0,0,0,0,0
1681461861.40040088,80628569,1578,1577,1581,1581,0,0,0,0,0,0,0,0,0,0
1681461861.50036097,80728529,1578,1578,1579,1579,0,0,0,0,0,0,0,0,0,0
1681461861.60032105,80828489,1579,1579,1578,1578,0,0,0,0,0,0,0,0,0,0
1681461861.70028090,80928449,1580,1580,1578,1577,0,0,0,0,0,0,0,0,0,0
1681461861.80024099,81028409,1581,1581,1578,1578,0,0,0,0,0,0,0,0,0,0
1681461861.90020108,81128369,1581,1580,1576,1576,0,0,0,0,0,0,0,0,0,0
1681461862.00016093,81228329,1581,1582,1577,1577,0,0,0,0,0,0,0,0,0,0
1681461862.10012102,81328289,1581,1581,1577,1578,0,0,0,0,0,0,0,0,0,0
1681461862.20008087,81428249,1580,1581,1578,1578,0,0,0,0,0,0,0,0,0,0
1681461862.30004096,81528209,1581,1580,1579,1578,0,0,0,0,0,0,0,0,0,0
1681461862.40000105,81628169,1580,1580,1579,1580,0,0,0,0,0,0,0,0,0,0
1681461862.50079393,81728962,1580,1580,1580,1580,0,0,0,0,0,0,0,0,0,0
1681461862.60075402,81828922,1580,1580,1581,1581,0,0,0,0,0,0,0,0,0,0
1681461862.70071387,81928882,1579,1579,1580,1581,0,0,0,0,0,0,0,0,0,0
1681461862.80067396,82028842,1579,1579,1581,1581,0,0,0,0,0,0,0,0,0,0
1681461862.90063405,82128802,1579,1579,1581,1580,0,0,0,0,0,0,0,0,0,0
1681461863.00059390,82228762,1579,1580,1581,1581,0,0,0,0,0,0,0,0,0,0
1681461863.10055399,82328722,1580,1580,1581,1581,0,0,0,0,0,0,0,0,0,0
1681461863.20051408,82428682,1581,1581,1581,1582,0,0,0,0,0,0,0,0,0,0
1681461863.30047393,82528642,1581,1581,1582,1582,0,0,0,0,0,0,0,0,0,0
1681461863.40043402,82628602,1582,1582,1582,1582,0,0,0,0,0,0,0,0,0,0
1681461863.50039411,82728562,1582,1581,1582,1579,0,0,0,0,0,0,0,0,0,0
1681461863.60035396,82828522,1581,1582,1588,1572,0,0,0,0,0,0,0,0,0,0
1681461863.70031404,82928482,1580,1581,1584,1574,0,0,0,0,0,0,0,0,0,0
1681461863.80027390,83028442,1578,1579,1578,1576,0,0,0,0,0,0,0,0,0,0
1681461863.90023398,83128402,1574,1574,1571,1575,0,0,0,0,0,0,0,0,0,0
1681461864.00019407,83228362,1571,1570,1566,1573,0,0,0,0,0,0,0,0,0,0
1681461864.10015392,83328322,1568,1568,1564,1571,0,0,0,0,0,0,0,0,0,0
1681461864.20011401,83428282,1568,1567,1565,1569,0,0,0,0,0,0,0,0,0,0
1681461864.30007410,83528242,1566,1566,1566,1566,0,0,0,0,0,0,0,0,0,0
1681461864.40003395,83628202,1567,1567,1568,1565,0,0,0,0,0,0,0,0,0,0
1681461864.49999404,83728162,1565,1565,1567,1564,0,0,0,0,0,0,0,0,0,0
1681461864.60078692,83828955,1564,1566,1566,1564,0,0,0,0,0,0,0,0,0,0
1681461864.70074701,83928915,1564,1564,1565,1564,0,0,0,0,0,0,0,0,0,0
1681461864.80070710,84028875,1562,1562,1563,1562,0,0,0,0,0,0,0,0,0,0
1681461864.90066695,84128835,1563,1563,1563,1564,0,0,0,0,0,0,0,0,0,0
1681461865.00062704,84228795,1563,1562,1562,1563,0,0,0,0,0,0,0,0,0,0
1681461865.10058689,84328755,1563,1562,1562,1563,0,0,0,0,0,0,0,0,0,0
1681461865.20054698,84428715,1561,1561,1562,1561,0,0,0,0,0,0,0,0,0,0
1681461865.30050707,84528675,1561,1561,1561,1560,0,0,0,0,0,0,0,0,0,0
1681461865.40046692,84628635,1560,1560,1560,1559,0,0,0,0,0,0,0,0,0,0
1681461865.50042701,84728595,1559,1559,1559,1559,0,0,0,0,0,0,0,0,0,0
1681461865.60038710,84828555,1558,1558,1558,1558,0,0,0,0,0,0,0,0,0,0
1681461865.70034695,84928515,1559,1558,1559,1558,0,0,0,0,0,0,0,0,0,0
1681461865.80030704,85028475,1557,1557,1558,1557,0,0,0,0,0,0,0,0,0,0
1681461865.90026689,85128435,1558,1558,1558,1557,0,0,0,0,0,0,0,0,0,0
1681461866.00022697,85228395,1557,1557,1558,1556,0,0,0,0,0,0,0,0,0,0
1681461866.10018706,85328355,1558,1558,1559,1557,0,0,0,0,0,0,0,0,0,0
1681461866.20014691,85428315,1558,1558,1559,1556,0,0,0,0,0,0,0,0,0,0
1681461866.30010700,85528275,1558,1558,1559,1557,0,0,0,0,0,0,0,0,0,0
1681461866.40006709,85628235,1559,1559,1559,1560,0,0,0,0,0,0,0,0,0,0
1681461866.50002694,85728195,1559,1559,1557,1562,0,0,0,0,0,0,0,0,0,0
1681461866.59998703,85828155,1560,1560,1557,1563,0,0,0,0,0,0,0,0,0,0
1681461866.70077991,85928948,1561,1561,1558,1564,0,0,0,0,0,0,0,0,0,0
1681461866.80074000,86028908,1562,1562,1560,1564,0,0,0,0,0,0,0,0,0,0
1681461866.90070009,86128868,1563,1563,1562,1563,0,0,0,0,0,0,0,0,0,0
1681461867.00065994,86228828,1562,1561,1563,1560,0,0,0,0,0,0,0,0,0,0
1681461867.10062003,86328788,1560,1559,1562,1557,0,0,0,0,0,0,0,0,0,0
1681461867.20057988,86428748,1561,1561,1561,1561,0,0,0,0,0,0,0,0,0,0
1681461867.30053997,86528708,1558,1558,1556,1561,0,0,0,0,0,0,0,0,0,0
1681461867.40050006,86628668,1555,1554,1552,1557,0,0,0,0,0,0,0,0,0,0
1681461867.50045991,86728628,1549,1549,1548,1551,0,0,0,0,0,0,0,0,0,0
1681461867.60042000,86828588,1544,1544,1544,1545,0,0,0,0,0,0,0,0,0,0
1681461867.70038009,86928548,1536,1536,1537,1536,0,0,0,0,0,0,0,0,0,0
1681461867.80033994,87028508,1529,1529,1531,1529,0,0,0,0,0,0,0,0,0,0
1681461867.90030003,87128468,1522,1522,1523,1521,0,0,0,0,0,0,0,0,0,0
1681461868.00025988,87228428,1520,1520,1520,1520,0,0,0,0,0,0,0,0,0,0
1681461868.10021996,87328388,1519,1519,1519,1519,0,0,0,0,0,0,0,0,0,0
1681461868.20018005,87428348,1520,1520,1519,1521,0,0,0,0,0,0,0,0,0,0
1681461868.30013990,87528308,1523,1523,1522,1523,0,0,0,0,0,0,0,0,0,0
1681461868.40009999,87628268,1527,1527,1526,1526,0,0,0,0,0,0,0,0,0,0
1681461868.50006008,87728228,1532,1531,1530,1531,0,0,0,0,0,0,0,0,0,0
1681461868.60001993,87828188,1536,1536,1535,1535,0,0,0,0,0,0,0,0,0,0
1681461868.70081306,87928981,1540,1541,1540,1539,0,0,0,0,0,0,0,0,0,0
1681461868.80077291,88028941,1542,1542,1542,1541,0,0,0,0,0,0,0,0,0,0
1681461868.90073299,88128901,1544,1543,1544,1543,0,0,0,0,0,0,0,0,0,0
1681461869.00069308,88228861,1545,1545,1545,1545,0,0,0,0,0,0,0,0,0,0
1681461869.10065293,88328821,1545,1545,1546,1545,0,0,0,0,0,0,0,0,0,0
1681461869.20061302,88428781,1545,1545,1546,1546,0,0,0,0,0,0,0,0,0,0
1681461869.30057287,88528741,1545,1546,1546,1546,0,0,0,0,0,0,0,0,0,0
1681461869.40053296,88628701,1545,1546,1546,1546,0,0,0,0,0,0,0,0,0,0
1681461869.50049305,88728661,1545,1545,1546,1546,0,0,0,0,0,0,0,0,0,0
1681461869.60045290,88828621,1545,1545,1546,1546,0,0,0,0,0,0,0,0,0,0
1681461869.70041299,88928581,1545,1544,1545,1545,0,0,0,0,0,0,0,0,0,0
1681461869.80037308,89028541,1546,1546,1546,1546,0,0,0,0,0,0,0,0,0,0
1681461869.90033293,89128501,1545,1545,1545,1545,0,0,0,0,0,0,0,0,0,0
1681461870.00029302,89228461,1546,1546,1546,1545,0,0,0,0,0,0,0,0,0,0
1681461870.10025311,89328421,1545,1545,1545,1544,0,0,0,0,0,0,0,0,0,0
1681461870.20021296,89428381,1545,1545,1545,1545,0,0,0,0,0,0,0,0,0,0
1681461870.30017304,89528341,1545,1545,1544,1545,0,0,0,0,0,0,0,0,0,0
1681461870.40013289,89628301,1545,1546,1545,1545,0,0,0,0,0,0,0,0,0,0
1681461870.50009298,89728261,1544,1545,1544,1545,0,0,0,0,0,0,0,0,0,0
1681461870.60005307,89828221,1544,1544,1544,1544,0,0,0,0,0,0,0,0,0,0
1681461870.70001292,89928181,1544,1543,1544,1543,0,0,0,0,0,0,0,0,0,0
1681461870.80080605,90028974,1545,1544,1545,1544,0,0,0,0,0,0,0,0,0,0
1681461870.90076590,90128934,1544,1544,1544,1544,0,0,0,0,0,0,0,0,0,0
1681461871.00072598,90228894,1544,1543,1543,1544,0,0,0,0,0,0,0,0,0,0
1681461871.10068607,90328854,1543,1543,1543,1543,0,0,0,0,0,0,0,0,0,0
1681461871.20064592,90428814,1544,1544,1544,1544,0,0,0,0,0,0,0,0,0,0
1681461871.30060601,90528774,1544,1544,1544,1544,0,0,0,0,0,0,0,0,0,0
1681461871.40056610,90628734,1545,1545,1545,1544,0,0,0,0,0,0,0,0,0,0
1681461871.50052595,90728694,1544,1544,1544,1544,0,0,0,0,0,0,0,0,0,0
1681461871.60048604,90828654,1544,1545,1545,1545,0,0,0,0,0,0,0,0,0,0
1681461871.70044589,90928614,1545,1545,1545,1546,0,0,0,0,0,0,0,0,0,0
1681461871.80040598,91028574,1545,1545,1545,1546,0,0,0,0,0,0,0,0,0,0
1681461871.90036607,91128534,1545,1545,1545,1545,0,0,0,0,0,0,0,0,0,0
1681461872.00032592,91228494,1543,1544,1544,1543,0,0,0,0,0,0,0,0,0,0
1681461872.10028601,91328454,1544,1544,1544,1544,0,0,0,0,0,0,0,0,0,0
1681461872.20024610,91428414,1544,1544,1544,1544,0,0,0,0,0,0,0,0,0,0
1681461872.30020595,91528374,1544,1543,1544,1544,0,0,0,0,0,0,0,0,0,0
1681461872.40016603,91628334,1543,1544,1544,1544,0,0,0,0,0,0,0,0,0,0
1681461872.50012589,91728294,1544,1544,1543,1544,0,0,0,0,0,0,0,0,0,0
1681461872.60008597,91828254,1544,1544,1544,1545,0,0,0,0,0,0,0,0,0,0
1681461872.70004606,91928214,1545,1544,1544,1545,0,0,0,0,0,0,0,0,0,0
1681461872.80000591,92028174,1545,1544,1545,1544,0,0,0,0,0,0,0,0,0,0
1681461872.90079904,92128967,1545,1544,1545,1544,0,0,0,0,0,0,0,0,0,0
1681461873.00075889,92228927,1544,1544,1544,1544,0,0,0,0,0,0,0,0,0,0
1681461873.10071898,92328887,1545,1545,1544,1545,0,0,0,0,0,0,0,0,0,0
1681461873.20067906,92428847,1545,1545,1545,1545,0,0,0,0,0,0,0,0,0,0
1681461873.30063891,92528807,1545,1544,1544,1545,0,0,0,0,0,0,0,0,0,0
1681461873.40059900,92628767,1544,1545,1544,1544,0,0,0,0,0,0,0,0,0,0
1681461873.50055909,92728727,1545,1545,1545,1545,0,0,0,0,0,0,0,0,0,0
1681461873.60051894,92828687,1545,1545,1545,1545,0,0,0,0,0,0,0,0,0,0
1681461873.70047903,92928647,1545,1545,1545,1545,0,0,0,0,0,0,0,0,0,0
1681461873.80043888,93028607,1544,1545,1544,1545,0,0,0,0,0,0,0,0,0,0
1681461873.90039897,93128567,1544,1544,1544,1545,0,0,0,0,0,0,0,0,0,0
1681461874.00035906,93228527,1545,1545,1545,1545,0,0,0,0,0,0,0,0,0,0
1681461874.10031891,93328487,1544,1545,1544,1545,0,0,0,0,0,0,0,0,0,0
1681461874.20027900,93428447,1544,1544,1545,1544,0,0,0,0,0,0,0,0,0,0
1681461874.30023909,93528407,1545,1545,1545,1545,0,0,0,0,0,0,0,0,0,0
1681461874.40019894,93628367,1545,1546,1545,1545,0,0,0,0,0,0,0,0,0,0
1681461874.50015903,93728327,1545,1544,1544,1545,0,0,0,0,0,0,0,0,0,0
1681461874.60011888,93828287,1545,1545,1545,1545,0,0,0,0,0,0,0,0,0,0
1681461874.70007896,93928247,1545,1544,1545,1545,0,0,0,0,0,0,0,0,0,0
1681461874.80003905,94028207,1545,1545,1545,1545,0,0,0,0,0,0,0,0,0,0
1681461874.89999890,94128167,1545,1545,1545,1545,0,0,0,0,0,0,0,0,0,0
1681461875.00079203,94228960,1544,1545,1544,1545,0,0,0,0,0,0,0,0,0,0
1681461875.10075188,94328920,1545,1545,1545,1545,0,0,0,0,0,0,0,0,0,0
1681461875.20071197,94428880,1545,1545,1545,1545,0,0,0,0,0,0,0,0,0,0
1681461875.30067205,94528840,1545,1545,1545,1545,0,0,0,0,0,0,0,0,0,0
1681461875.40063190,94628800,1544,1545,1544,1545,0,0,0,0,0,0,0,0,0,0
1681461875.50059199,94728760,1544,1543,1544,1544,0,0,0,0,0,0,0,0,0,0
1681461875.60055208,94828720,1544,1544,1544,1544,0,0,0,0,0,0,0,0,0,0
1681461875.70051193,94928680,1544,1544,1544,1544,0,0,0,0,0,0,0,0,0,0
1681461875.80047202,95028640,1544,1543,1544,1543,0,0,0,0,0,0,0,0,0,0
1681461875.90043187,95128600,1544,1543,1543,1544,0,0,0,0,0,0,0,0,0,0
1681461876.00039196,95228560,1543,1543,1543,1543,0,0,0,0,0,0,0,0,0,0
1681461876.10035205,95328520,1544,1544,1544,1544,0,0,0,0,0,0,0,0,0,0
1681461876.20031190,95428480,1544,1545,1544,1545,0,0,0,0,0,0,0,0,0,0
1681461876.30027199,95528440,1545,1545,1545,1545,0,0,0,0,0,0,0,0,0,0
1681461876.40023208,95628400,1544,1544,1545,1544,0,0,0,0,0,0,0,0,0,0
1681461876.50019193,95728360,1544,1544,1544,1544,0,0,0,0,0,0,0,0,0,0
1681461876.60015202,95828320,1545,1545,1545,1545,0,0,0,0,0,0,0,0,0,0
1681461876.70011210,95928280,1546,1545,1545,1545,0,0,0,0,0,0,0,0,0,0
1681461876.80007195,96028240,1545,1546,1545,1546,0,0,0,0,0,0,0,0,0,0
1681461876.90003204,96128200,1545,1545,1544,1545,0,0,0,0,0,0,0,0,0,0
1681461876.99999189,96228160,1545,1545,1545,1545,0,0,0,0,0,0,0,0,0,0
1681461877.10078502,96328953,1544,1544,1545,1544,0,0,0,0,0,0,0,0,0,0
1681461877.20074511,96428913,1544,1544,1544,1544,0,0,0,0,0,0,0,0,0,0
1681461877.30070496,96528873,1544,1544,1544,1545,0,0,0,0,0,0,0,0,0,0
1681461877.40066504,96628833,1543,1543,1543,1544,0,0,0,0,0,0,0,0,0,0
1681461877.50062490,96728793,1544,1544,1544,1545,0,0,0,0,0,0,0,0,0,0
1681461877.60058498,96828753,1544,1544,1544,1544,0,0,0,0,0,0,0,0,0,0
1681461877.70054507,96928713,1446,1445,1453,1446,0,0,0,0,0,0,0,0,0,0
1681461877.80050492,97028673,1291,1289,1315,1290,0,0,0,0,0,0,0,0,0,0
1681461877.90046501,97128633,1227,1224,1261,1226,0,0,0,0,0,0,0,0,0,0
1681461878.00042510,97228593,1204,1202,1242,1203,0,0,0,0,0,0,0,0,0,0
1681461878.10038495,97328553,1169,1168,1214,1169,0,0,0,0,0,0,0,0,0,0
1681461878.20034504,97428513,1150,1150,1199,1150,0,0,0,0,0,0,0,0,0,0
1681461878.30030489,97528473,1151,1150,1199,1151,0,0,0,0,0,0,0,0,0,0
1681461878.40026498,97628433,1161,1150,1199,1161,0,0,0,0,0,0,0,0,0,0
1681461878.50022507,97728393,1180,1150,1200,1179,0,0,0,0,0,0,0,0,0,0
1681461878.60018492,97828353,1171,1150,1200,1171,0,0,0,0,0,0,0,0,0,0
1681461878.70014501,97928313,1170,1150,1200,1170,0,0,0,0,0,0,0,0,0,0
1681461878.80010509,98028273,1171,1150,1200,1171,0,0,0,0,0,0,0,0,0,0
1681461878.90006495,98128233,1173,1150,1200,1173,0,0,0,0,0,0,0,0,0,0
1681461879.00002503,98228193,1175,1150,1200,1174,0,0,0,0,0,0,0,0,0,0
1681461879.10081792,98328986,1176,1150,1200,1176,0,0,0,0,0,0,0,0,0,0
1681461879.20077801,98428946,1151,1150,1200,1151,0,0,0,0,0,0,0,0,0,0
1681461879.30073810,98528906,1165,1150,1200,1164,0,0,0,0,0,0,0,0,0,0
1681461879.40069795,98628866,1166,1150,1200,1165,0,0,0,0,0,0,0,0,0,0
1681461879.50065804,98728826,1167,1150,1200,1166,0,0,0,0,0,0,0,0,0,0
1681461879.60061789,98828786,1167,1150,1200,1167,0,0,0,0,0,0,0,0,0,0
1681461879.70057797,98928746,1146,1146,1085,1146,0,0,0,0,0,0,0,0,0,0
1681461879.80053806,99028706,1000,1000,1000,1000,0,0,0,0,0,0,0,0,0,0
1681461879.90049791,99128666,1000,1000,1000,1000,0,0,0,0,0,0,0,0,0,0
1681461880.00045800,99228626,1000,1000,1000,1000,0,0,0,0,0,0,0,0,0,0
1681461880.10041809,99328586,1000,1000,1000,1000,0,0,0,0,0,0,0,0,0,0
1681461880.20037794,99428546,1000,1000,1000,1000,0,0,0,0,0,0,0,0,0,0
1681461880.30033803,99528506,1000,1000,1000,1000,0,0,0,0,0,0,0,0,0,0
1681461880.40029788,99628466,1000,1000,1000,1000,0,0,0,0,0,0,0,0,0,0
1681461880.50025797,99728426,1000,1000,1000,1000,0,0,0,0,0,0,0,0,0,0
1681461880.60021806,99828386,1000,1000,1000,1000,0,0,0,0,0,0,0,0,0,0
1681461880.70017791,99928346,1000,1000,1000,1000,0,0,0,0,0,0,0,0,0,0
1681461880.80013800,100028306,1000,1000,1000,1000,0,0,0,0,0,0,0,0,0,0
1681461880.90009809,100128266,1000,1000,1000,1000,0,0,0,0,0,0,0,0,0,0
1681461881.00005794,100228226,1000,1000,1000,1000,0,0,0,0,0,0,0,0,0,0
1681461881.10001802,100328186,1000,1000,1000,1000,0,0,0,0,0,0,0,0,0,0
1681461881.20081091,100428979,1000,1000,1000,1000,0,0,0,0,0,0,0,0,0,0
1681461881.30077100,100528939,1000,1000,1000,1000,0,0,0,0,0,0,0,0,0,0
1681461881.40073109,100628899,1000,1000,1000,1000,0,0,0,0,0,0,0,0,0,0
1681461881.50069094,100728859,1000,1000,1000,1000,0,0,0,0,0,0,0,0,0,0
1681461881.60065103,100828819,1000,1000,1000,1000,0,0,0,0,0,0,0,0,0,0
1681461881.70061088,100928779,1000,1000,1000,1000,0,0,0,0,0,0,0,0,0,0
1681461881.80057096,101028739,1000,1000,1000,1000,0,0,0,0,0,0,0,0,0,0
1681461881.90053105,101128699,1000,1000,1000,1000,0,0,0,0,0,0,0,0,0,0
1681461882.00049090,101228659,1000,1000,1000,1000,0,0,0,0,0,0,0,0,0,0
1681461882.10045099,101328619,1000,1000,1000,1000,0,0,0,0,0,0,0,0,0,0
1681461882.20041108,101428579,1000,1000,1000,1000,0,0,0,0,0,0,0,0,0,0
1681461882.30037093,101528539,1000,1000,1000,1000,0,0,0,0,0,0,0,0,0,0
1681461882.40033102,101628499,1000,1000,1000,1000,0,0,0,0,0,0,0,0,0,0
1681461882.50029087,101728459,1000,1000,1000,1000,0,0,0,0,0,0,0,0,0,0
1681461882.60025096,101828419,1000,1000,1000,1000,0,0,0,0,0,0,0,0,0,0
1681461882.70021105,101928379,1000,1000,1000,1000,0,0,0,0,0,0,0,0,0,0
1681461882.80017090,102028339,1000,1000,1000,1000,0,0,0,0,0,0,0,0,0,0
1681461882.90013099,102128299,1000,1000,1000,1000,0,0,0,0,0,0,0,0,0,0
1681461883.00009108,102228259,1000,1000,1000,1000,0,0,0,0,0,0,0,0,0,0
1681461883.10005093,102328219,1000,1000,1000,1000,0,0,0,0,0,0,0,0,0,0
1681461883.20001101,102428179,1000,1000,1000,1000,0,0,0,0,0,0,0,0,0,0
1681461883.30080390,102528972,1000,1000,1000,1000,0,0,0,0,0,0,0,0,0,0
1681461883.40076399,102628932,1000,1000,1000,1000,0,0,0,0,0,0,0,0,0,0
1681461883.50072408,102728892,1000,1000,1000,1000,0,0,0,0,0,0,0,0,0,0
1681461883.60068393,102828852,1000,1000,1000,1000,0,0,0,0,0,0,0,0,0,0
1681461883.70064402,102928812,1000,1000,1000,1000,0,0,0,0,0,0,0,0,0,0
1681461883.80060410,103028772,1000,1000,1000,1000,0,0,0,0,0,0,0,0,0,0
1681461883.90056396,103128732,1000,1000,1000,1000,0,0,0,0,0,0,0,0,0,0
1681461884.00052404,103228692,1000,1000,1000,1000,0,0,0,0,0,0,0,0,0,0
1681461884.10048389,103328652,1000,1000,1000,1000,0,0,0,0,0,0,0,0,0,0
1681461884.20044398,103428612,1000,1000,1000,1000,0,0,0,0,0,0,0,0,0,0
1681461884.30040407,103528572,1000,1000,1000,1000,0,0,0,0,0,0,0,0,0,0
1681461884.40036392,103628532,1000,1000,1000,1000,0,0,0,0,0,0,0,0,0,0
1681461884.50032401,103728492,1000,1000,1000,1000,0,0,0,0,0,0,0,0,0,0
1681461884.60028410,103828452,1000,1000,1000,1000,0,0,0,0,0,0,0,0,0,0
1681461884.70024395,103928412,1000,1000,1000,1000,0,0,0,0,0,0,0,0,0,0
1681461884.80020404,104028372,1000,1000,1000,1000,0,0,0,0,0,0,0,0,0,0
1681461884.90016389,104128332,1000,1000,1000,1000,0,0,0,0,0,0,0,0,0,0
1681461885.00012398,104228292,1000,1000,1000,1000,0,0,0,0,0,0,0,0,0,0
1681461885.10008407,104328252,1000,1000,1000,1000,0,0,0,0,0,0,0,0,0,0
1681461885.20004392,104428212,1000,1000,1000,1000,0,0,0,0,0,0,0,0,0,0
1681461885.30000401,104528172,1000,1000,1000,1000,0,0,0,0,0,0,0,0,0,0
1681461885.40079689,104628965,1000,1000,1000,1000,0,0,0,0,0,0,0,0,0,0
1681461885.50075698,104728925,1000,1000,1000,1000,0,0,0,0,0,0,0,0,0,0
1681461885.60071707,104828885,1000,1000,1000,1000,0,0,0,0,0,0,0,0,0,0
1681461885.70067692,104928845,1000,1000,1000,1000,0,0,0,0,0,0,0,0,0,0
1681461885.80063701,105028805,1000,1000,1000,1000,0,0,0,0,0,0,0,0,0,0
1681461885.90059710,105128765,1000,1000,1000,1000,0,0,0,0,0,0,0,0,0,0
1681461886.00055695,105228725,1000,1000,1000,1000,0,0,0,0,0,0,0,0,0,0
1681461886.10051703,105328685,1000,1000,1000,1000,0,0,0,0,0,0,0,0,0,0
1681461886.20047688,105428645,1000,1000,1000,1000,0,0,0,0,0,0,0,0,0,0
1681461886.30043697,105528605,1000,1000,1000,1000,0,0,0,0,0,0,0,0,0,0
1681461886.40039706,105628565,1000,1000,1000,1000,0,0,0,0,0,0,0,0,0,0
1681461886.50035691,105728525,1000,1000,1000,1000,0,0,0,0,0,0,0,0,0,0
1681461886.60031700,105828485,1000,1000,1000,1000,0,0,0,0,0,0,0,0,0,0
1681461886.70027709,105928445,1000,1000,1000,1000,0,0,0,0,0,0,0,0,0,0
1681461886.80023694,106028405,1000,1000,1000,1000,0,0,0,0,0,0,0,0,0,0
1681461886.90019703,106128365,1000,1000,1000,1000,0,0,0,0,0,0,0,0,0,0
1681461887.00015688,106228325,1000,1000,1000,1000,0,0,0,0,0,0,0,0,0,0
1681461887.10011697,106328285,1000,1000,1000,1000,0,0,0,0,0,0,0,0,0,0
1681461887.20007706,106428245,1000,1000,1000,1000,0,0,0,0,0,0,0,0,0,0
1681461887.30003691,106528205,1000,1000,1000,1000,0,0,0,0,0,0,0,0,0,0
1681461887.39999700,106628165,1000,1000,1000,1000,0,0,0,0,0,0,0,0,0,0
1681461887.50078988,106728958,1000,1000,1000,1000,0,0,0,0,0,0,0,0,0,0
1681461887.60074997,106828918,1000,1000,1000,1000,0,0,0,0,0,0,0,0,0,0
1681461887.70071006,106928878,1000,1000,1000,1000,0,0,0,0,0,0,0,0,0,0
1681461887.80066991,107028838,1000,1000,1000,1000,0,0,0,0,0,0,0,0,0,0
1681461887.90063000,107128798,1000,1000,1000,1000,0,0,0,0,0,0,0,0,0,0
1681461888.00059009,107228758,1000,1000,1000,1000,0,0,0,0,0,0,0,0,0,0
1681461888.10054994,107328718,1000,1000,1000,1000,0,0,0,0,0,0,0,0,0,0
1681461888.20051003,107428678,1000,1000,1000,1000,0,0,0,0,0,0,0,0,0,0
1681461888.30046988,107528638,1000,1000,1000,1000,0,0,0,0,0,0,0,0,0,0
1681461888.40042996,107628598,1000,1000,1000,1000,0,0,0,0,0,0,0,0,0,0
1681461888.50039005,107728558,1000,1000,1000,1000,0,0,0,0,0,0,0,0,0,0
1681461888.60034990,107828518,1000,1000,1000,1000,0,0,0,0,0,0,0,0,0,0
1681461888.70030999,107928478,1000,1000,1000,1000,0,0,0,0,0,0,0,0,0,0
1681461888.80027008,108028438,1000,1000,1000,1000,0,0,0,0,0,0,0,0,0,0
1681461888.90022993,108128398,1000,1000,1000,1000,0,0,0,0,0,0,0,0,0,0
1681461889.00019002,108228358,1000,1000,1000,1000,0,0,0,0,0,0,0,0,0,0
1681461889.10015011,108328318,1000,1000,1000,1000,0,0,0,0,0,0,0,0,0,0
1681461889.20010996,108428278,1000,1000,1000,1000,0,0,0,0,0,0,0,0,0,0
1681461889.30007005,108528238,1000,1000,1000,1000,0,0,0,0,0,0,0,0,0,0
1681461889.40002990,108628198,1000,1000,1000,1000,0,0,0,0,0,0,0,0,0,0
1681461889.49998999,108728158,1000,1000,1000,1000,0,0,0,0,0,0,0,0,0,0
1681461889.60078287,108828951,1000,1000,1000,1000,0,0,0,0,0,0,0,0,0,0
1681461889.70074296,108928911,1000,1000,1000,1000,0,0,0,0,0,0,0,0,0,0
1681461889.80070305,109028871,1000,1000,1000,1000,0,0,0,0,0,0,0,0,0,0
1681461889.90066290,109128831,1000,1000,1000,1000,0,0,0,0,0,0,0,0,0,0
1681461890.00062299,109228791,1000,1000,1000,1000,0,0,0,0,0,0,0,0,0,0
1681461890.10058308,109328751,1000,1000,1000,1000,0,0,0,0,0,0,0,0,0,0
1681461890.20054293,109428711,1000,1000,1000,1000,0,0,0,0,0,0,0,0,0,0
1681461890.30050302,109528671,1000,1000,1000,1000,0,0,0,0,0,0,0,0,0,0
1681461890.40046310,109628631,1000,1000,1000,1000,0,0,0,0,0,0,0,0,0,0
1681461890.50042295,109728591,1000,1000,1000,1000,0,0,0,0,0,0,0,0,0,0
1681461890.60038304,109828551,1000,1000,1000,1000,0,0,0,0,0,0,0,0,0,0
1681461890.70034289,109928511,1000,1000,1000,1000,0,0,0,0,0,0,0,0,0,0
1681461890.80030298,110028471,1000,1000,1000,1000,0,0,0,0,0,0,0,0,0,0
1681461890.90026307,110128431,1000,1000,1000,1000,0,0,0,0,0,0,0,0,0,0
1681461891.00022292,110228391,1000,1000,1000,1000,0,0,0,0,0,0,0,0,0,0
1681461891.10018301,110328351,1000,1000,1000,1000,0,0,0,0,0,0,0,0,0,0
1681461891.20014310,110428311,1000,1000,1000,1000,0,0,0,0,0,0,0,0,0,0
1681461891.30010295,110528271,1000,1000,1000,1000,0,0,0,0,0,0,0,0,0,0
1681461891.40006304,110628231,1000,1000,1000,1000,0,0,0,0,0,0,0,0,0,0
1681461891.50002289,110728191,1000,1000,1000,1000,0,0,0,0,0,0,0,0,0,0
1681461891.60081601,110828984,1000,1000,1000,1000,0,0,0,0,0,0,0,0,0,0
1681461891.70077610,110928944,1000,1000,1000,1000,0,0,0,0,0,0,0,0,0,0
1681461891.80073595,111028904,1000,1000,1000,1000,0,0,0,0,0,0,0,0,0,0
1681461891.90069604,111128864,1000,1000,1000,1000,0,0,0,0,0,0,0,0,0,0
1681461892.00065589,111228824,1000,1000,1000,1000,0,0,0,0,0,0,0,0,0,0
1681461892.10061598,111328784,1000,1000,1000,1000,0,0,0,0,0,0,0,0,0,0
1681461892.20057607,111428744,1000,1000,1000,1000,0,0,0,0,0,0,0,0,0,0
1681461892.30053592,111528704,1000,1000,1000,1000,0,0,0,0,0,0,0,0,0,0
1681461892.40049601,111628664,1000,1000,1000,1000,0,0,0,0,0,0,0,0,0,0
1681461892.50045609,111728624,1000,1000,1000,1000,0,0,0,0,0,0,0,0,0,0
1681461892.60041595,111828584,1000,1000,1000,1000,0,0,0,0,0,0,0,0,0,0
1681461892.70037603,111928544,1000,1000,1000,1000,0,0,0,0,0,0,0,0,0,0
1681461892.80033588,112028504,1000,1000,1000,1000,0,0,0,0,0,0,0,0,0,0
1681461892.90029597,112128464,1000,1000,1000,1000,0,0,0,0,0,0,0,0,0,0
1681461893.00025606,112228424,1000,1000,1000,1000,0,0,0,0,0,0,0,0,0,0
1681461893.10021591,112328384,1000,1000,1000,1000,0,0,0,0,0,0,0,0,0,0
1681461893.20017600,112428344,1000,1000,1000,1000,0,0,0,0,0,0,0,0,0,0
1681461893.30013609,112528304,1000,1000,1000,1000,0,0,0,0,0,0,0,0,0,0
1681461893.40009594,112628264,1000,1000,1000,1000,0,0,0,0,0,0,0,0,0,0
1681461893.50005603,112728224,1000,1000,1000,1000,0,0,0,0,0,0,0,0,0,0
1681461893.60001588,112828184,1000,1000,1000,1000,0,0,0,0,0,0,0,0,0,0
1681461893.70080900,112928977,1000,1000,1000,1000,0,0,0,0,0,0,0,0,0,0
1681461893.80076909,113028937,1000,1000,1000,1000,0,0,0,0,0,0,0,0,0,0
1681461893.90072894,113128897,1000,1000,1000,1000,0,0,0,0,0,0,0,0,0,0
1681461894.00068903,113228857,1000,1000,1000,1000,0,0,0,0,0,0,0,0,0,0
1681461894.10064888,113328817,1000,1000,1000,1000,0,0,0,0,0,0,0,0,0,0
1681461894.20060897,113428777,1000,1000,1000,1000,0,0,0,0,0,0,0,0,0,0
1681461894.30056906,113528737,1000,1000,1000,1000,0,0,0,0,0,0,0,0,0,0
1681461894.40052891,113628697,1000,1000,1000,1000,0,0,0,0,0,0,0,0,0,0
1681461894.50048900,113728657,1000,1000,1000,1000,0,0,0,0,0,0,0,0,0,0
1681461894.60044909,113828617,1000,1000,1000,1000,0,0,0,0,0,0,0,0,0,0
