timestamp,TimeUS,C1,C2,C3,C4,C5,C6,C7,C8,C9,C10,C11,C12,C13,C14
1680866049.70003986,69328924,1000,1000,1000,1000,0,0,0,0,0,0,0,0,0,0
1680866049.79999995,69428884,1000,1000,1000,1000,0,0,0,0,0,0,0,0,0,0
1680866049.89996004,69528844,1000,1000,1000,1000,0,0,0,0,0,0,0,0,0,0
1680866049.99991989,69628804,1000,1000,1000,1000,0,0,0,0,0,0,0,0,0,0
1680866050.09987998,69728764,1000,1000,1000,1000,0,0,0,0,0,0,0,0,0,0
1680866050.19983983,69828724,1000,1000,1000,1000,0,0,0,0,0,0,0,0,0,0
1680866050.29979992,69928684,1000,1000,1000,1000,0,0,0,0,0,0,0,0,0,0
1680866050.39976001,70028644,1000,1000,1000,1000,0,0,0,0,0,0,0,0,0,0
1680866050.49971986,70128604,1000,1000,1000,1000,0,0,0,0,0,0,0,0,0,0
1680866050.59967995,70228564,1000,1000,1000,1000,0,0,0,0,0,0,0,0,0,0
1680866050.69964004,70328524,1000,1000,1000,1000,0,0,0,0,0,0,0,0,0,0
1680866050.79959989,70428484,1000,1000,1000,1000,0,0,0,0,0,0,0,0,0,0
1680866050.89955997,70528444,1000,1000,1000,1000,0,0,0,0,0,0,0,0,0,0
1680866050.99951982,70628404,1000,1000,1000,1000,0,0,0,0,0,0,0,0,0,0
1680866051.09947991,70728364,1000,1000,1000,1000,0,0,0,0,0,0,0,0,0,0
1680866051.19944000,70828324,1000,1000,1000,1000,0,0,0,0,0,0,0,0,0,0
1680866051.29939985,70928284,1000,1000,1000,1000,0,0,0,0,0,0,0,0,0,0
1680866051.39935994,71028244,1000,1000,1000,1000,0,0,0,0,0,0,0,0,0,0
1680866051.49932003,71128204,1000,1000,1000,1000,0,0,0,0,0,0,0,0,0,0
1680866051.59927988,71228164,1000,1000,1000,1000,0,0,0,0,0,0,0,0,0,0
1680866051.70007300,71328957,1015,1015,1015,1015,0,0,0,0,0,0,0,0,0,0
1680866051.80003285,71428917,1045,1045,1045,1045,0,0,0,0,0,0,0,0,0,0
1680866051.89999294,71528877,1075,1075,1075,1075,0,0,0,0,0,0,0,0,0,0
1680866051.99995303,71628837,1105,1105,1105,1105,0,0,0,0,0,0,0,0,0,0
1680866052.09991288,71728797,1135,1135,1135,1135,0,0,0,0,0,0,0,0,0,0
1680866052.19987297,71828757,1295,1286,1287,1295,0,0,0,0,0,0,0,0,0,0
1680866052.29983282,71928717,1500,1493,1493,1500,0,0,0,0,0,0,0,0,0,0
1680866052.39979291,72028677,1660,1654,1654,1660,0,0,0,0,0,0,0,0,0,0
1680866052.49975300,72128637,1796,1790,1790,1796,0,0,0,0,0,0,0,0,0,0
1680866052.59971285,72228597,1845,1839,1839,1846,0,0,0,0,0,0,0,0,0,0
1680866052.69967294,72328557,1854,1850,1850,1855,0,0,0,0,0,0,0,0,0,0
1680866052.79963303,72428517,1733,1731,1732,1733,0,0,0,0,0,0,0,0,0,0
1680866052.89959288,72528477,1634,1636,1636,1634,0,0,0,0,0,0,0,0,0,0
1680866052.99955297,72628437,1609,1612,1612,1609,0,0,0,0,0,0,0,0,0,0
1680866053.09951282,72728397,1621,1625,1624,1622,0,0,0,0,0,0,0,0,0,0
1680866053.19947290,72828357,1636,1638,1637,1636,0,0,0,0,0,0,0,0,0,0
1680866053.29943299,72928317,1638,1637,1637,1637,0,0,0,0,0,0,0,0,0,0
1680866053.39939284,73028277,1633,1632,1632,1633,0,0,0,0,0,0,0,0,0,0
1680866053.49935293,73128237,1626,1625,1624,1626,0,0,0,0,0,0,0,0,0,0
1680866053.59931302,73228197,1622,1621,1620,1622,0,0,0,0,0,0,0,0,0,0
1680866053.69927287,73328157,1620,1619,1619,1619,0,0,0,0,0,0,0,0,0,0
1680866053.80006599,73428950,1589,1589,1589,1589,0,0,0,0,0,0,0,0,0,0
1680866053.90002584,73528910,1582,1582,1577,1586,0,0,0,0,0,0,0,0,0,0
1680866053.99998593,73628870,1577,1576,1568,1584,0,0,0,0,0,0,0,0,0,0
1680866054.09994602,73728830,1575,1574,1568,1579,0,0,0,0,0,0,0,0,0,0
1680866054.19990587,73828790,1574,1574,1572,1575,0,0,0,0,0,0,0,0,0,0
1680866054.29986596,73928750,1575,1575,1576,1573,0,0,0,0,0,0,0,0,0,0
1680866054.39982581,74028710,1578,1578,1581,1574,0,0,0,0,0,0,0,0,0,0
1680866054.49978590,74128670,1572,1572,1580,1565,0,0,0,0,0,0,0,0,0,0
1680866054.59974599,74228630,1557,1558,1572,1544,0,0,0,0,0,0,0,0,0,0
1680866054.69970584,74328590,1548,1549,1555,1543,0,0,0,0,0,0,0,0,0,0
1680866054.79966593,74428550,1540,1540,1538,1544,0,0,0,0,0,0,0,0,0,0
1680866054.89962602,74528510,1535,1534,1527,1543,0,0,0,0,0,0,0,0,0,0
1680866054.99958587,74628470,1533,1533,1525,1542,0,0,0,0,0,0,0,0,0,0
1680866055.09954596,74728430,1534,1533,1528,1539,0,0,0,0,0,0,0,0,0,0
1680866055.19950581,74828390,1534,1535,1532,1537,0,0,0,0,0,0,0,0,0,0
1680866055.29946589,74928350,1538,1537,1539,1536,0,0,0,0,0,0,0,0,0,0
1680866055.39942598,75028310,1541,1541,1545,1538,0,0,0,0,0,0,0,0,0,0
1680866055.49938583,75128270,1545,1545,1548,1541,0,0,0,0,0,0,0,0,0,0
1680866055.59934592,75228230,1547,1547,1550,1545,0,0,0,0,0,0,0,0,0,0
1680866055.69930601,75328190,1551,1551,1551,1550,0,0,0,0,0,0,0,0,0,0
1680866055.80009890,75428983,1551,1550,1554,1556,0,0,0,0,0,0,0,0,0,0
1680866055.90005898,75528943,1550,1550,1557,1561,0,0,0,0,0,0,0,0,0,0
1680866056.00001884,75628903,1552,1552,1559,1562,0,0,0,0,0,0,0,0,0,0
1680866056.09997892,75728863,1555,1556,1560,1563,0,0,0,0,0,0,0,0,0,0
1680866056.19993901,75828823,1558,1560,1562,1562,0,0,0,0,0,0,0,0,0,0
1680866056.29989886,75928783,1562,1562,1562,1562,0,0,0,0,0,0,0,0,0,0
1680866056.39985895,76028743,1565,1565,1564,1562,0,0,0,0,0,0,0,0,0,0
1680866056.49981904,76128703,1569,1568,1565,1564,0,0,0,0,0,0,0,0,0,0
1680866056.59977889,76228663,1570,1570,1565,1564,0,0,0,0,0,0,0,0,0,0
1680866056.69973898,76328623,1572,1571,1565,1566,0,0,0,0,0,0,0,0,0,0
1680866056.79969883,76428583,1573,1572,1567,1567,0,0,0,0,0,0,0,0,0,0
1680866056.89965892,76528543,1573,1572,1568,1568,0,0,0,0,0,0,0,0,0,0
1680866056.99961901,76628503,1573,1573,1569,1569,0,0,0,0,0,0,0,0,0,0
1680866057.09957886,76728463,1573,1573,1571,1571,0,0,0,0,0,0,0,0,0,0
1680866057.19953895,76828423,1572,1573,1572,1572,0,0,0,0,0,0,0,0,0,0
1680866057.29949903,76928383,1575,1574,1575,1574,0,0,0,0,0,0,0,0,0,0
1680866057.39945889,77028343,1575,1575,1577,1575,0,0,0,0,0,0,0,0,0,0
1680866057.49941897,77128303,1574,1574,1577,1576,0,0,0,0,0,0,0,0,0,0
1680866057.59937882,77228263,1574,1574,1577,1576,0,0,0,0,0,0,0,0,0,0
1680866057.69933891,77328223,1574,1574,1576,1576,0,0,0,0,0,0,0,0,0,0
1680866057.79929900,77428183,1575,1575,1576,1577,0,0,0,0,0,0,0,0,0,0
1680866057.90009189,77528976,1575,1575,1576,1576,0,0,0,0,0,0,0,0,0,0
1680866058.00005198,77628936,1575,1575,1576,1576,0,0,0,0,0,0,0,0,0,0
1680866058.10001183,77728896,1577,1577,1577,1577,0,0,0,0,0,0,0,0,0,0
1680866058.19997191,77828856,1578,1577,1577,1577,0,0,0,0,0,0,0,0,0,0
1680866058.29993200,77928816,1578,1578,1578,1578,0,0,0,0,0,0,0,0,0,0
1680866058.39989185,78028776,1578,1578,1578,1577,0,0,0,0,0,0,0,0,0,0
1680866058.49985194,78128736,1578,1579,1578,1578,0,0,0,0,0,0,0,0,0,0
1680866058.59981203,78228696,1578,1579,1577,1577,0,0,0,0,0,0,0,0,0,0
1680866058.69977188,78328656,1578,1578,1577,1577,0,0,0,0,0,0,0,0,0,0
1680866058.79973197,78428616,1578,1578,1577,1577,0,0,0,0,0,0,0,0,0,0
1680866058.89969182,78528576,1578,1578,1578,1578,0,0,0,0,0,0,0,0,0,0
1680866058.99965191,78628536,1578,1579,1578,1579,0,0,0,0,0,0,0,0,0,0
1680866059.09961200,78728496,1579,1579,1579,1579,0,0,0,0,0,0,0,0,0,0
1680866059.19957185,78828456,1579,1579,1579,1579,0,0,0,0,0,0,0,0,0,0
1680866059.29953194,78928416,1579,1579,1579,1579,0,0,0,0,0,0,0,0,0,0
1680866059.39949203,79028376,1579,1578,1579,1578,0,0,0,0,0,0,0,0,0,0
1680866059.49945188,79128336,1579,1579,1580,1579,0,0,0,0,0,0,0,0,0,0
1680866059.59941196,79228296,1579,1579,1580,1580,0,0,0,0,0,0,0,0,0,0
1680866059.69937181,79328256,1579,1578,1578,1579,0,0,0,0,0,0,0,0,0,0
1680866059.79933190,79428216,1578,1578,1579,1579,0,0,0,0,0,0,0,0,0,0
1680866059.89929199,79528176,1579,1579,1580,1580,0,0,0,0,0,0,0,0,0,0
1680866060.00008488,79628969,1579,1580,1580,1580,0,0,0,0,0,0,0,0,0,0
1680866060.10004497,79728929,1578,1579,1578,1579,0,0,0,0,0,0,0,0,0,0
1680866060.20000482,79828889,1579,1579,1579,1579,0,0,0,0,0,0,0,0,0,0
1680866060.29996490,79928849,1579,1579,1579,1579,0,0,0,0,0,0,0,0,0,0
1680866060.39992499,80028809,1580,1580,1580,1580,0,0,0,0,0,0,0,0,0,0
1680866060.49988484,80128769,1580,1579,1579,1579,0,0,0,0,0,0,0,0,0,0
1680866060.59984493,80228729,1580,1580,1580,1580,0,0,0,0,0,0,0,0,0,0
1680866060.69980502,80328689,1581,1581,1581,1581,0,0,0,0,0,0,0,0,0,0
1680866060.79976487,80428649,1581,1581,1581,1581,0,0,0,0,0,0,0,0,0,0
1680866060.89972496,80528609,1580,1581,1581,1580,0,0,0,0,0,0,0,0,0,0
1680866060.99968481,80628569,1581,1581,1580,1581,0,0,0,0,0,0,0,0,0,0
1680866061.09964490,80728529,1581,1581,1581,1581,0,0,0,0,0,0,0,0,0,0
1680866061.19960499,80828489,1582,1581,1581,1582,0,0,0,0,0,0,0,0,0,0
1680866061.29956484,80928449,1582,1581,1581,1581,0,0,0,0,0,0,0,0,0,0
1680866061.39952493,81028409,1581,1581,1581,1581,0,0,0,0,0,0,0,0,0,0
1680866061.49948502,81128369,1581,1581,1581,1581,0,0,0,0,0,0,0,0,0,0
1680866061.59944487,81228329,1581,1581,1581,1581,0,0,0,0,0,0,0,0,0,0
1680866061.69940495,81328289,1580,1581,1581,1581,0,0,0,0,0,0,0,0,0,0
1680866061.79936481,81428249,1581,1580,1581,1581,0,0,0,0,0,0,0,0,0,0
1680866061.89932489,81528209,1580,1581,1581,1581,0,0,0,0,0,0,0,0,0,0
1680866061.99928498,81628169,1580,1581,1582,1580,0,0,0,0,0,0,0,0,0,0
1680866062.10007787,81728962,1580,1581,1584,1577,0,0,0,0,0,0,0,0,0,0
1680866062.20003796,81828922,1581,1583,1588,1573,0,0,0,0,0,0,0,0,0,0
1680866062.29999781,81928882,1580,1582,1582,1574,0,0,0,0,0,0,0,0,0,0
1680866062.39995790,82028842,1578,1581,1573,1573,0,0,0,0,0,0,0,0,0,0
1680866062.49991798,82128802,1577,1579,1564,1570,0,0,0,0,0,0,0,0,0,0
1680866062.59987783,82228762,1577,1579,1559,1566,0,0,0,0,0,0,0,0,0,0
1680866062.69983792,82328722,1578,1578,1555,1561,0,0,0,0,0,0,0,0,0,0
1680866062.79979801,82428682,1579,1578,1555,1556,0,0,0,0,0,0,0,0,0,0
1680866062.89975786,82528642,1580,1579,1556,1555,0,0,0,0,0,0,0,0,0,0
1680866062.99971795,82628602,1579,1578,1556,1553,0,0,0,0,0,0,0,0,0,0
1680866063.09967804,82728562,1579,1578,1556,1554,0,0,0,0,0,0,0,0,0,0
1680866063.19963789,82828522,1577,1578,1556,1554,0,0,0,0,0,0,0,0,0,0
1680866063.29959798,82928482,1576,1577,1555,1555,0,0,0,0,0,0,0,0,0,0
1680866063.39955783,83028442,1574,1577,1553,1553,0,0,0,0,0,0,0,0,0,0
1680866063.49951792,83128402,1574,1576,1552,1552,0,0,0,0,0,0,0,0,0,0
1680866063.59947801,83228362,1575,1577,1550,1550,0,0,0,0,0,0,0,0,0,0
1680866063.69943786,83328322,1577,1578,1548,1549,0,0,0,0,0,0,0,0,0,0
1680866063.79939795,83428282,1580,1581,1547,1546,0,0,0,0,0,0,0,0,0,0
1680866063.89935803,83528242,1583,1584,1545,1544,0,0,0,0,0,0,0,0,0,0
1680866063.99931788,83628202,1586,1586,1542,1541,0,0,0,0,0,0,0,0,0,0
1680866064.09927797,83728162,1588,1589,1538,1538,0,0,0,0,0,0,0,0,0,0
1680866064.20007086,83828955,1592,1592,1536,1537,0,0,0,0,0,0,0,0,0,0
1680866064.30003095,83928915,1594,1593,1535,1535,0,0,0,0,0,0,0,0,0,0
1680866064.39999104,84028875,1595,1595,1535,1535,0,0,0,0,0,0,0,0,0,0
1680866064.49995089,84128835,1595,1595,1536,1537,0,0,0,0,0,0,0,0,0,0
1680866064.59991097,84228795,1593,1593,1537,1540,0,0,0,0,0,0,0,0,0,0
1680866064.69987082,84328755,1591,1590,1542,1545,0,0,0,0,0,0,0,0,0,0
1680866064.79983091,84428715,1585,1584,1548,1551,0,0,0,0,0,0,0,0,0,0
1680866064.89979100,84528675,1579,1576,1558,1561,0,0,0,0,0,0,0,0,0,0
1680866064.99975085,84628635,1569,1565,1569,1571,0,0,0,0,0,0,0,0,0,0
1680866065.09971094,84728595,1559,1554,1581,1583,0,0,0,0,0,0,0,0,0,0
1680866065.19967103,84828555,1547,1544,1593,1593,0,0,0,0,0,0,0,0,0,0
1680866065.29963088,84928515,1538,1536,1604,1604,0,0,0,0,0,0,0,0,0,0
1680866065.39959097,85028475,1532,1532,1611,1611,0,0,0,0,0,0,0,0,0,0
1680866065.49955082,85128435,1528,1529,1615,1613,0,0,0,0,0,0,0,0,0,0
1680866065.59951091,85228395,1529,1531,1615,1613,0,0,0,0,0,0,0,0,0,0
1680866065.69947100,85328355,1534,1536,1611,1611,0,0,0,0,0,0,0,0,0,0
1680866065.79943085,85428315,1542,1544,1607,1607,0,0,0,0,0,0,0,0,0,0
1680866065.89939094,85528275,1550,1551,1600,1600,0,0,0,0,0,0,0,0,0,0
1680866065.99935102,85628235,1559,1560,1592,1592,0,0,0,0,0,0,0,0,0,0
1680866066.09931087,85728195,1568,1567,1585,1584,0,0,0,0,0,0,0,0,0,0
1680866066.19927096,85828155,1575,1574,1578,1577,0,0,0,0,0,0,0,0,0,0
1680866066.30006385,85928948,1581,1580,1573,1572,0,0,0,0,0,0,0,0,0,0
1680866066.40002394,86028908,1586,1584,1569,1569,0,0,0,0,0,0,0,0,0,0
1680866066.49998403,86128868,1588,1586,1567,1567,0,0,0,0,0,0,0,0,0,0
1680866066.59994388,86228828,1588,1587,1566,1567,0,0,0,0,0,0,0,0,0,0
1680866066.69990396,86328788,1587,1586,1567,1568,0,0,0,0,0,0,0,0,0,0
1680866066.79986382,86428748,1585,1584,1569,1569,0,0,0,0,0,0,0,0,0,0
1680866066.89982390,86528708,1582,1582,1573,1573,0,0,0,0,0,0,0,0,0,0
1680866066.99978399,86628668,1579,1580,1576,1575,0,0,0,0,0,0,0,0,0,0
1680866067.09974384,86728628,1577,1577,1579,1578,0,0,0,0,0,0,0,0,0,0
1680866067.19970393,86828588,1574,1574,1581,1580,0,0,0,0,0,0,0,0,0,0
1680866067.29966402,86928548,1572,1573,1582,1582,0,0,0,0,0,0,0,0,0,0
1680866067.39962387,87028508,1572,1572,1583,1583,0,0,0,0,0,0,0,0,0,0
1680866067.49958396,87128468,1572,1572,1583,1584,0,0,0,0,0,0,0,0,0,0
1680866067.59954381,87228428,1572,1573,1583,1583,0,0,0,0,0,0,0,0,0,0
1680866067.69950390,87328388,1574,1575,1583,1583,0,0,0,0,0,0,0,0,0,0
1680866067.79946399,87428348,1576,1576,1582,1582,0,0,0,0,0,0,0,0,0,0
1680866067.89942384,87528308,1577,1577,1581,1581,0,0,0,0,0,0,0,0,0,0
1680866067.99938393,87628268,1579,1578,1580,1579,0,0,0,0,0,0,0,0,0,0
1680866068.09934402,87728228,1579,1579,1578,1578,0,0,0,0,0,0,0,0,0,0
1680866068.19930387,87828188,1580,1579,1577,1577,0,0,0,0,0,0,0,0,0,0
1680866068.30009699,87928981,1581,1580,1577,1576,0,0,0,0,0,0,0,0,0,0
1680866068.40005684,88028941,1582,1581,1577,1577,0,0,0,0,0,0,0,0,0,0
1680866068.50001693,88128901,1581,1581,1577,1577,0,0,0,0,0,0,0,0,0,0
1680866068.59997702,88228861,1580,1580,1577,1576,0,0,0,0,0,0,0,0,0,0
1680866068.69993687,88328821,1581,1581,1578,1578,0,0,0,0,0,0,0,0,0,0
1680866068.79989696,88428781,1587,1587,1526,1561,0,0,0,0,0,0,0,0,0,0
1680866068.89985681,88528741,1595,1594,1561,1559,0,0,0,0,0,0,0,0,0,0
1680866068.99981689,88628701,1599,1598,1588,1565,0,0,0,0,0,0,0,0,0,0
1680866069.09977698,88728661,1602,1601,1607,1579,0,0,0,0,0,0,0,0,0,0
1680866069.19973683,88828621,1600,1601,1615,1592,0,0,0,0,0,0,0,0,0,0
1680866069.29969692,88928581,1592,1594,1611,1601,0,0,0,0,0,0,0,0,0,0
1680866069.39965701,89028541,1584,1585,1604,1606,0,0,0,0,0,0,0,0,0,0
1680866069.49961686,89128501,1575,1576,1596,1606,0,0,0,0,0,0,0,0,0,0
1680866069.59957695,89228461,1571,1571,1591,1603,0,0,0,0,0,0,0,0,0,0
1680866069.69953704,89328421,1569,1568,1587,1598,0,0,0,0,0,0,0,0,0,0
1680866069.79949689,89428381,1569,1568,1586,1591,0,0,0,0,0,0,0,0,0,0
1680866069.89945698,89528341,1571,1571,1585,1586,0,0,0,0,0,0,0,0,0,0
1680866069.99941683,89628301,1575,1575,1584,1582,0,0,0,0,0,0,0,0,0,0
1680866070.09937692,89728261,1578,1579,1584,1574,0,0,0,0,0,0,0,0,0,0
1680866070.19933701,89828221,1581,1585,1585,1567,0,0,0,0,0,0,0,0,0,0
1680866070.29929686,89928181,1581,1586,1575,1565,0,0,0,0,0,0,0,0,0,0
1680866070.40008998,90028974,1582,1586,1563,1563,0,0,0,0,0,0,0,0,0,0
1680866070.50004983,90128934,1581,1583,1552,1560,0,0,0,0,0,0,0,0,0,0
1680866070.60000992,90228894,1581,1582,1545,1555,0,0,0,0,0,0,0,0,0,0
1680866070.69997001,90328854,1583,1581,1544,1552,0,0,0,0,0,0,0,0,0,0
1680866070.79992986,90428814,1583,1580,1544,1548,0,0,0,0,0,0,0,0,0,0
1680866070.89988995,90528774,1583,1580,1547,1546,0,0,0,0,0,0,0,0,0,0
1680866070.99985003,90628734,1581,1580,1549,1547,0,0,0,0,0,0,0,0,0,0
1680866071.09980989,90728694,1578,1579,1551,1548,0,0,0,0,0,0,0,0,0,0
1680866071.19976997,90828654,1576,1578,1552,1549,0,0,0,0,0,0,0,0,0,0
1680866071.29972982,90928614,1575,1577,1553,1551,0,0,0,0,0,0,0,0,0,0
1680866071.39968991,91028574,1573,1575,1552,1551,0,0,0,0,0,0,0,0,0,0
1680866071.49965000,91128534,1575,1576,1552,1553,0,0,0,0,0,0,0,0,0,0
1680866071.59960985,91228494,1576,1577,1551,1552,0,0,0,0,0,0,0,0,0,0
1680866071.69956994,91328454,1578,1579,1550,1550,0,0,0,0,0,0,0,0,0,0
1680866071.79953003,91428414,1580,1581,1548,1549,0,0,0,0,0,0,0,0,0,0
1680866071.89948988,91528374,1582,1582,1546,1545,0,0,0,0,0,0,0,0,0,0
1680866071.99944997,91628334,1585,1586,1545,1545,0,0,0,0,0,0,0,0,0,0
1680866072.09940982,91728294,1586,1587,1542,1542,0,0,0,0,0,0,0,0,0,0
1680866072.19936991,91828254,1589,1590,1541,1542,0,0,0,0,0,0,0,0,0,0
1680866072.29933000,91928214,1591,1591,1540,1542,0,0,0,0,0,0,0,0,0,0
1680866072.39928985,92028174,1592,1592,1542,1545,0,0,0,0,0,0,0,0,0,0
1680866072.50008297,92128967,1591,1588,1545,1548,0,0,0,0,0,0,0,0,0,0
1680866072.60004282,92228927,1586,1583,1550,1552,0,0,0,0,0,0,0,0,0,0
1680866072.70000291,92328887,1581,1577,1559,1562,0,0,0,0,0,0,0,0,0,0
1680866072.79996300,92428847,1573,1569,1569,1571,0,0,0,0,0,0,0,0,0,0
1680866072.89992285,92528807,1563,1560,1579,1580,0,0,0,0,0,0,0,0,0,0
1680866072.99988294,92628767,1554,1552,1589,1590,0,0,0,0,0,0,0,0,0,0
1680866073.09984303,92728727,1547,1546,1599,1598,0,0,0,0,0,0,0,0,0,0
1680866073.19980288,92828687,1542,1542,1605,1604,0,0,0,0,0,0,0,0,0,0
1680866073.29976296,92928647,1540,1541,1609,1607,0,0,0,0,0,0,0,0,0,0
1680866073.39972281,93028607,1540,1542,1608,1607,0,0,0,0,0,0,0,0,0,0
1680866073.49968290,93128567,1543,1545,1606,1605,0,0,0,0,0,0,0,0,0,0
1680866073.59964299,93228527,1548,1549,1603,1602,0,0,0,0,0,0,0,0,0,0
1680866073.69960284,93328487,1554,1555,1599,1599,0,0,0,0,0,0,0,0,0,0
1680866073.79956293,93428447,1559,1559,1593,1593,0,0,0,0,0,0,0,0,0,0
1680866073.89952302,93528407,1566,1566,1589,1588,0,0,0,0,0,0,0,0,0,0
1680866073.99948287,93628367,1571,1571,1582,1583,0,0,0,0,0,0,0,0,0,0
1680866074.09944296,93728327,1576,1575,1576,1576,0,0,0,0,0,0,0,0,0,0
1680866074.19940281,93828287,1581,1580,1573,1574,0,0,0,0,0,0,0,0,0,0
1680866074.29936290,93928247,1584,1583,1571,1570,0,0,0,0,0,0,0,0,0,0
1680866074.39932299,94028207,1585,1584,1570,1570,0,0,0,0,0,0,0,0,0,0
1680866074.49928284,94128167,1585,1583,1568,1569,0,0,0,0,0,0,0,0,0,0
1680866074.60007596,94228960,1584,1583,1570,1570,0,0,0,0,0,0,0,0,0,0
1680866074.70003581,94328920,1583,1582,1572,1572,0,0,0,0,0,0,0,0,0,0
1680866074.79999590,94428880,1580,1580,1574,1574,0,0,0,0,0,0,0,0,0,0
1680866074.89995599,94528840,1577,1577,1576,1575,0,0,0,0,0,0,0,0,0,0
1680866074.99991584,94628800,1577,1577,1579,1579,0,0,0,0,0,0,0,0,0,0
1680866075.09987593,94728760,1575,1575,1581,1580,0,0,0,0,0,0,0,0,0,0
1680866075.19983602,94828720,1575,1575,1582,1582,0,0,0,0,0,0,0,0,0,0
1680866075.29979587,94928680,1574,1574,1583,1583,0,0,0,0,0,0,0,0,0,0
1680866075.39975595,95028640,1574,1574,1583,1583,0,0,0,0,0,0,0,0,0,0
1680866075.49971581,95128600,1574,1575,1583,1583,0,0,0,0,0,0,0,0,0,0
1680866075.59967589,95228560,1574,1575,1582,1582,0,0,0,0,0,0,0,0,0,0
1680866075.69963598,95328520,1576,1576,1581,1581,0,0,0,0,0,0,0,0,0,0
1680866075.79959583,95428480,1579,1579,1582,1582,0,0,0,0,0,0,0,0,0,0
1680866075.89955592,95528440,1579,1579,1581,1580,0,0,0,0,0,0,0,0,0,0
1680866075.99951601,95628400,1580,1580,1579,1579,0,0,0,0,0,0,0,0,0,0
1680866076.09947586,95728360,1580,1580,1578,1578,0,0,0,0,0,0,0,0,0,0
1680866076.19943595,95828320,1581,1580,1578,1578,0,0,0,0,0,0,0,0,0,0
1680866076.29939604,95928280,1580,1580,1577,1577,0,0,0,0,0,0,0,0,0,0
1680866076.39935589,96028240,1581,1581,1578,1578,0,0,0,0,0,0,0,0,0,0
1680866076.49931598,96128200,1581,1581,1578,1578,0,0,0,0,0,0,0,0,0,0
1680866076.59927583,96228160,1582,1582,1579,1579,0,0,0,0,0,0,0,0,0,0
1680866076.70006895,96328953,1581,1581,1580,1580,0,0,0,0,0,0,0,0,0,0
1680866076.80002904,96428913,1581,1581,1580,1580,0,0,0,0,0,0,0,0,0,0
1680866076.89998889,96528873,1580,1580,1580,1580,0,0,0,0,0,0,0,0,0,0
1680866076.99994898,96628833,1581,1581,1581,1582,0,0,0,0,0,0,0,0,0,0
1680866077.09990883,96728793,1580,1580,1581,1581,0,0,0,0,0,0,0,0,0,0
1680866077.19986892,96828753,1579,1579,1581,1581,0,0,0,0,0,0,0,0,0,0
1680866077.29982901,96928713,1580,1580,1581,1582,0,0,0,0,0,0,0,0,0,0
1680866077.39978886,97028673,1580,1580,1582,1582,0,0,0,0,0,0,0,0,0,0
1680866077.49974895,97128633,1581,1581,1582,1582,0,0,0,0,0,0,0,0,0,0
1680866077.59970903,97228593,1581,1581,1582,1581,0,0,0,0,0,0,0,0,0,0
1680866077.69966888,97328553,1580,1580,1581,1581,0,0,0,0,0,0,0,0,0,0
1680866077.79962897,97428513,1581,1581,1581,1581,0,0,0,0,0,0,0,0,0,0
1680866077.89958882,97528473,1581,1581,1581,1581,0,0,0,0,0,0,0,0,0,0
1680866077.99954891,97628433,1580,1580,1580,1580,0,0,0,0,0,0,0,0,0,0
1680866078.09950900,97728393,1580,1580,1579,1579,0,0,0,0,0,0,0,0,0,0
1680866078.19946885,97828353,1581,1581,1582,1579,0,0,0,0,0,0,0,0,0,0
1680866078.29942894,97928313,1581,1583,1587,1572,0,0,0,0,0,0,0,0,0,0
1680866078.39938903,98028273,1580,1583,1582,1572,0,0,0,0,0,0,0,0,0,0
1680866078.49934888,98128233,1578,1582,1574,1572,0,0,0,0,0,0,0,0,0,0
1680866078.59930897,98228193,1577,1580,1566,1571,0,0,0,0,0,0,0,0,0,0
1680866078.70010185,98328986,1577,1579,1560,1567,0,0,0,0,0,0,0,0,0,0
1680866078.80006194,98428946,1579,1578,1556,1563,0,0,0,0,0,0,0,0,0,0
1680866078.90002203,98528906,1579,1578,1554,1558,0,0,0,0,0,0,0,0,0,0
1680866078.99998188,98628866,1580,1579,1555,1555,0,0,0,0,0,0,0,0,0,0
1680866079.09994197,98728826,1580,1579,1556,1554,0,0,0,0,0,0,0,0,0,0
1680866079.19990182,98828786,1579,1579,1556,1553,0,0,0,0,0,0,0,0,0,0
1680866079.29986191,98928746,1578,1579,1556,1554,0,0,0,0,0,0,0,0,0,0
1680866079.39982200,99028706,1576,1578,1555,1554,0,0,0,0,0,0,0,0,0,0
1680866079.49978185,99128666,1576,1577,1554,1554,0,0,0,0,0,0,0,0,0,0
1680866079.59974194,99228626,1576,1578,1554,1554,0,0,0,0,0,0,0,0,0,0
1680866079.69970202,99328586,1576,1578,1552,1552,0,0,0,0,0,0,0,0,0,0
1680866079.79966187,99428546,1577,1579,1550,1551,0,0,0,0,0,0,0,0,0,0
1680866079.89962196,99528506,1579,1580,1548,1548,0,0,0,0,0,0,0,0,0,0
1680866079.99958181,99628466,1581,1583,1546,1546,0,0,0,0,0,0,0,0,0,0
1680866080.09954190,99728426,1585,1585,1544,1544,0,0,0,0,0,0,0,0,0,0
1680866080.19950199,99828386,1586,1587,1541,1541,0,0,0,0,0,0,0,0,0,0
1680866080.29946184,99928346,1589,1589,1539,1539,0,0,0,0,0,0,0,0,0,0
1680866080.39942193,100028306,1592,1591,1538,1538,0,0,0,0,0,0,0,0,0,0
1680866080.49938202,100128266,1594,1594,1538,1539,0,0,0,0,0,0,0,0,0,0
1680866080.59934187,100228226,1594,1595,1538,1539,0,0,0,0,0,0,0,0,0,0
1680866080.69930196,100328186,1594,1594,1540,1542,0,0,0,0,0,0,0,0,0,0
1680866080.80009484,100428979,1592,1591,1543,1546,0,0,0,0,0,0,0,0,0,0
1680866080.90005493,100528939,1587,1585,1549,1552,0,0,0,0,0,0,0,0,0,0
1680866081.00001502,100628899,1580,1576,1557,1560,0,0,0,0,0,0,0,0,0,0
1680866081.09997487,100728859,1572,1567,1568,1571,0,0,0,0,0,0,0,0,0,0
1680866081.19993496,100828819,1561,1558,1581,1582,0,0,0,0,0,0,0,0,0,0
1680866081.29989481,100928779,1551,1549,1593,1593,0,0,0,0,0,0,0,0,0,0
1680866081.39985490,101028739,1542,1542,1602,1602,0,0,0,0,0,0,0,0,0,0
1680866081.49981499,101128699,1537,1537,1610,1609,0,0,0,0,0,0,0,0,0,0
1680866081.59977484,101228659,1533,1535,1614,1612,0,0,0,0,0,0,0,0,0,0
1680866081.69973493,101328619,1535,1537,1614,1613,0,0,0,0,0,0,0,0,0,0
1680866081.79969501,101428579,1538,1540,1611,1610,0,0,0,0,0,0,0,0,0,0
1680866081.89965487,101528539,1544,1546,1606,1607,0,0,0,0,0,0,0,0,0,0
1680866081.99961495,101628499,1551,1552,1601,1600,0,0,0,0,0,0,0,0,0,0
1680866082.09957480,101728459,1558,1558,1594,1594,0,0,0,0,0,0,0,0,0,0
1680866082.19953489,101828419,1566,1566,1588,1587,0,0,0,0,0,0,0,0,0,0
1680866082.29949498,101928379,1573,1573,1581,1580,0,0,0,0,0,0,0,0,0,0
1680866082.39945483,102028339,1580,1579,1576,1576,0,0,0,0,0,0,0,0,0,0
1680866082.49941492,102128299,1583,1582,1570,1571,0,0,0,0,0,0,0,0,0,0
1680866082.59937501,102228259,1586,1585,1568,1568,0,0,0,0,0,0,0,0,0,0
1680866082.69933486,102328219,1587,1585,1566,1567,0,0,0,0,0,0,0,0,0,0
1680866082.79929495,102428179,1587,1585,1567,1567,0,0,0,0,0,0,0,0,0,0
1680866082.90008783,102528972,1585,1584,1569,1569,0,0,0,0,0,0,0,0,0,0
1680866083.00004792,102628932,1582,1582,1571,1571,0,0,0,0,0,0,0,0,0,0
1680866083.10000801,102728892,1580,1580,1574,1574,0,0,0,0,0,0,0,0,0,0
1680866083.19996786,102828852,1577,1577,1576,1576,0,0,0,0,0,0,0,0,0,0
1680866083.29992795,102928812,1575,1576,1580,1580,0,0,0,0,0,0,0,0,0,0
1680866083.39988804,103028772,1573,1575,1582,1581,0,0,0,0,0,0,0,0,0,0
1680866083.49984789,103128732,1574,1574,1584,1583,0,0,0,0,0,0,0,0,0,0
1680866083.59980798,103228692,1572,1573,1583,1583,0,0,0,0,0,0,0,0,0,0
1680866083.69976783,103328652,1573,1574,1584,1584,0,0,0,0,0,0,0,0,0,0
1680866083.79972792,103428612,1573,1574,1583,1583,0,0,0,0,0,0,0,0,0,0
1680866083.89968801,103528572,1575,1575,1582,1582,0,0,0,0,0,0,0,0,0,0
1680866083.99964786,103628532,1575,1576,1581,1580,0,0,0,0,0,0,0,0,0,0
1680866084.09960794,103728492,1577,1577,1580,1580,0,0,0,0,0,0,0,0,0,0
1680866084.19956803,103828452,1578,1578,1578,1579,0,0,0,0,0,0,0,0,0,0
1680866084.29952788,103928412,1579,1579,1578,1578,0,0,0,0,0,0,0,0,0,0
1680866084.39948797,104028372,1581,1581,1578,1577,0,0,0,0,0,0,0,0,0,0
1680866084.49944782,104128332,1582,1581,1578,1578,0,0,0,0,0,0,0,0,0,0
1680866084.59940791,104228292,1580,1581,1577,1577,0,0,0,0,0,0,0,0,0,0
1680866084.69936800,104328252,1581,1581,1577,1577,0,0,0,0,0,0,0,0,0,0
1680866084.79932785,104428212,1581,1581,1577,1577,0,0,0,0,0,0,0,0,0,0
1680866084.89928794,104528172,1582,1581,1578,1579,0,0,0,0,0,0,0,0,0,0
1680866085.00008082,104628965,1580,1580,1578,1578,0,0,0,0,0,0,0,0,0,0
1680866085.10004091,104728925,1579,1579,1579,1579,0,0,0,0,0,0,0,0,0,0
1680866085.20000100,104828885,1579,1579,1579,1579,0,0,0,0,0,0,0,0,0,0
1680866085.29996085,104928845,1580,1580,1581,1581,0,0,0,0,0,0,0,0,0,0
1680866085.39992094,105028805,1579,1580,1581,1581,0,0,0,0,0,0,0,0,0,0
1680866085.49988103,105128765,1580,1580,1582,1582,0,0,0,0,0,0,0,0,0,0
1680866085.59984088,105228725,1580,1581,1582,1582,0,0,0,0,0,0,0,0,0,0
1680866085.69980097,105328685,1580,1580,1581,1581,0,0,0,0,0,0,0,0,0,0
1680866085.79976082,105428645,1579,1579,1580,1580,0,0,0,0,0,0,0,0,0,0
1680866085.89972091,105528605,1581,1581,1581,1581,0,0,0,0,0,0,0,0,0,0
1680866085.99968100,105628565,1580,1580,1581,1580,0,0,0,0,0,0,0,0,0,0
1680866086.09964085,105728525,1580,1580,1580,1580,0,0,0,0,0,0,0,0,0,0
1680866086.19960093,105828485,1581,1582,1586,1573,0,0,0,0,0,0,0,0,0,0
1680866086.29956102,105928445,1580,1581,1585,1572,0,0,0,0,0,0,0,0,0,0
1680866086.39952087,106028405,1578,1578,1579,1574,0,0,0,0,0,0,0,0,0,0
1680866086.49948096,106128365,1574,1574,1572,1574,0,0,0,0,0,0,0,0,0,0
1680866086.59944081,106228325,1571,1571,1567,1574,0,0,0,0,0,0,0,0,0,0
1680866086.69940090,106328285,1569,1568,1564,1571,0,0,0,0,0,0,0,0,0,0
1680866086.79936099,106428245,1567,1567,1565,1570,0,0,0,0,0,0,0,0,0,0
1680866086.89932084,106528205,1567,1566,1565,1567,0,0,0,0,0,0,0,0,0,0
1680866086.99928093,106628165,1566,1566,1566,1565,0,0,0,0,0,0,0,0,0,0
1680866087.10007381,106728958,1565,1565,1567,1564,0,0,0,0,0,0,0,0,0,0
1680866087.20003390,106828918,1565,1565,1567,1563,0,0,0,0,0,0,0,0,0,0
1680866087.29999399,106928878,1565,1565,1566,1564,0,0,0,0,0,0,0,0,0,0
1680866087.39995384,107028838,1565,1564,1565,1565,0,0,0,0,0,0,0,0,0,0
1680866087.49991393,107128798,1563,1563,1564,1564,0,0,0,0,0,0,0,0,0,0
1680866087.59987402,107228758,1563,1563,1564,1564,0,0,0,0,0,0,0,0,0,0
1680866087.69983387,107328718,1563,1562,1563,1563,0,0,0,0,0,0,0,0,0,0
1680866087.79979396,107428678,1563,1563,1563,1563,0,0,0,0,0,0,0,0,0,0
1680866087.89975381,107528638,1561,1562,1562,1561,0,0,0,0,0,0,0,0,0,0
1680866087.99971390,107628598,1561,1561,1561,1560,0,0,0,0,0,0,0,0,0,0
1680866088.09967399,107728558,1560,1560,1560,1559,0,0,0,0,0,0,0,0,0,0
1680866088.19963384,107828518,1558,1558,1559,1557,0,0,0,0,0,0,0,0,0,0
1680866088.29959393,107928478,1557,1557,1558,1557,0,0,0,0,0,0,0,0,0,0
1680866088.39955401,108028438,1557,1558,1558,1557,0,0,0,0,0,0,0,0,0,0
1680866088.49951386,108128398,1558,1557,1557,1557,0,0,0,0,0,0,0,0,0,0
1680866088.59947395,108228358,1559,1558,1559,1558,0,0,0,0,0,0,0,0,0,0
1680866088.69943404,108328318,1558,1558,1559,1558,0,0,0,0,0,0,0,0,0,0
1680866088.79939389,108428278,1558,1558,1559,1556,0,0,0,0,0,0,0,0,0,0
1680866088.89935398,108528238,1558,1558,1560,1556,0,0,0,0,0,0,0,0,0,0
1680866088.99931383,108628198,1558,1559,1558,1559,0,0,0,0,0,0,0,0,0,0
1680866089.09927392,108728158,1559,1559,1557,1562,0,0,0,0,0,0,0,0,0,0
1680866089.20006680,108828951,1560,1560,1557,1563,0,0,0,0,0,0,0,0,0,0
1680866089.30002689,108928911,1560,1560,1557,1563,0,0,0,0,0,0,0,0,0,0
1680866089.39998698,109028871,1562,1562,1559,1563,0,0,0,0,0,0,0,0,0,0
1680866089.49994683,109128831,1562,1562,1561,1563,0,0,0,0,0,0,0,0,0,0
1680866089.59990692,109228791,1563,1562,1563,1561,0,0,0,0,0,0,0,0,0,0
1680866089.69986701,109328751,1561,1561,1563,1559,0,0,0,0,0,0,0,0,0,0
1680866089.79982686,109428711,1560,1561,1562,1560,0,0,0,0,0,0,0,0,0,0
1680866089.89978695,109528671,1558,1559,1556,1561,0,0,0,0,0,0,0,0,0,0
1680866089.99974704,109628631,1554,1554,1552,1557,0,0,0,0,0,0,0,0,0,0
1680866090.09970689,109728591,1551,1550,1550,1553,0,0,0,0,0,0,0,0,0,0
1680866090.19966698,109828551,1544,1544,1545,1545,0,0,0,0,0,0,0,0,0,0
1680866090.29962683,109928511,1537,1537,1538,1537,0,0,0,0,0,0,0,0,0,0
1680866090.39958692,110028471,1530,1530,1532,1530,0,0,0,0,0,0,0,0,0,0
1680866090.49954700,110128431,1523,1522,1524,1522,0,0,0,0,0,0,0,0,0,0
1680866090.59950686,110228391,1520,1520,1521,1520,0,0,0,0,0,0,0,0,0,0
1680866090.69946694,110328351,1519,1519,1519,1520,0,0,0,0,0,0,0,0,0,0
1680866090.79942703,110428311,1520,1520,1519,1521,0,0,0,0,0,0,0,0,0,0
1680866090.89938688,110528271,1523,1523,1521,1522,0,0,0,0,0,0,0,0,0,0
1680866090.99934697,110628231,1527,1527,1525,1526,0,0,0,0,0,0,0,0,0,0
1680866091.09930682,110728191,1532,1531,1530,1530,0,0,0,0,0,0,0,0,0,0
1680866091.20009995,110828984,1535,1535,1534,1534,0,0,0,0,0,0,0,0,0,0
1680866091.30006003,110928944,1540,1540,1539,1538,0,0,0,0,0,0,0,0,0,0
1680866091.40001988,111028904,1542,1542,1541,1541,0,0,0,0,0,0,0,0,0,0
1680866091.49997997,111128864,1543,1544,1543,1543,0,0,0,0,0,0,0,0,0,0
1680866091.59993982,111228824,1544,1544,1545,1544,0,0,0,0,0,0,0,0,0,0
1680866091.69989991,111328784,1545,1544,1545,1545,0,0,0,0,0,0,0,0,0,0
1680866091.79986000,111428744,1545,1545,1546,1546,0,0,0,0,0,0,0,0,0,0
1680866091.89981985,111528704,1547,1547,1548,1547,0,0,0,0,0,0,0,0,0,0
1680866091.99977994,111628664,1547,1547,1548,1548,0,0,0,0,0,0,0,0,0,0
1680866092.09974003,111728624,1547,1547,1548,1548,0,0,0,0,0,0,0,0,0,0
1680866092.19969988,111828584,1546,1546,1546,1547,0,0,0,0,0,0,0,0,0,0
1680866092.29965997,111928544,1545,1546,1547,1546,0,0,0,0,0,0,0,0,0,0
1680866092.39961982,112028504,1546,1546,1547,1546,0,0,0,0,0,0,0,0,0,0
1680866092.49957991,112128464,1546,1545,1546,1546,0,0,0,0,0,0,0,0,0,0
1680866092.59954000,112228424,1545,1545,1546,1545,0,0,0,0,0,0,0,0,0,0
1680866092.69949985,112328384,1545,1545,1545,1545,0,0,0,0,0,0,0,0,0,0
1680866092.79945993,112428344,1544,1545,1545,1544,0,0,0,0,0,0,0,0,0,0
1680866092.89942002,112528304,1546,1546,1545,1546,0,0,0,0,0,0,0,0,0,0
1680866092.99937987,112628264,1545,1544,1544,1544,0,0,0,0,0,0,0,0,0,0
1680866093.09933996,112728224,1544,1544,1544,1545,0,0,0,0,0,0,0,0,0,0
1680866093.19929981,112828184,1544,1544,1544,1544,0,0,0,0,0,0,0,0,0,0
1680866093.30009294,112928977,1543,1544,1543,1543,0,0,0,0,0,0,0,0,0,0
1680866093.40005302,113028937,1544,1544,1544,1544,0,0,0,0,0,0,0,0,0,0
1680866093.50001287,113128897,1544,1544,1544,1543,0,0,0,0,0,0,0,0,0,0
1680866093.59997296,113228857,1545,1545,1545,1545,0,0,0,0,0,0,0,0,0,0
1680866093.69993281,113328817,1544,1543,1543,1544,0,0,0,0,0,0,0,0,0,0
1680866093.79989290,113428777,1543,1544,1544,1544,0,0,0,0,0,0,0,0,0,0
1680866093.89985299,113528737,1545,1544,1545,1545,0,0,0,0,0,0,0,0,0,0
1680866093.99981284,113628697,1544,1545,1545,1545,0,0,0,0,0,0,0,0,0,0
1680866094.09977293,113728657,1544,1544,1544,1544,0,0,0,0,0,0,0,0,0,0
1680866094.19973302,113828617,1543,1543,1543,1543,0,0,0,0,0,0,0,0,0,0
1680866094.29969287,113928577,1543,1543,1543,1543,0,0,0,0,0,0,0,0,0,0
1680866094.39965296,114028537,1544,1545,1544,1544,0,0,0,0,0,0,0,0,0,0
1680866094.49961281,114128497,1543,1543,1543,1543,0,0,0,0,0,0,0,0,0,0
1680866094.59957290,114228457,1543,1543,1543,1543,0,0,0,0,0,0,0,0,0,0
1680866094.69953299,114328417,1544,1544,1544,1544,0,0,0,0,0,0,0,0,0,0
1680866094.79949284,114428377,1544,1544,1544,1544,0,0,0,0,0,0,0,0,0,0
1680866094.89945292,114528337,1543,1543,1543,1543,0,0,0,0,0,0,0,0,0,0
1680866094.99941301,114628297,1544,1544,1544,1544,0,0,0,0,0,0,0,0,0,0
1680866095.09937286,114728257,1545,1544,1544,1544,0,0,0,0,0,0,0,0,0,0
1680866095.19933295,114828217,1544,1544,1544,1544,0,0,0,0,0,0,0,0,0,0
1680866095.29929304,114928177,1544,1544,1544,1544,0,0,0,0,0,0,0,0,0,0
1680866095.40008593,115028970,1544,1544,1544,1544,0,0,0,0,0,0,0,0,0,0
1680866095.50004601,115128930,1545,1544,1544,1544,0,0,0,0,0,0,0,0,0,0
1680866095.60000587,115228890,1545,1545,1545,1545,0,0,0,0,0,0,0,0,0,0
1680866095.69996595,115328850,1545,1544,1544,1544,0,0,0,0,0,0,0,0,0,0
1680866095.79992580,115428810,1543,1544,1544,1544,0,0,0,0,0,0,0,0,0,0
1680866095.89988589,115528770,1544,1544,1544,1544,0,0,0,0,0,0,0,0,0,0
1680866095.99984598,115628730,1544,1544,1544,1544,0,0,0,0,0,0,0,0,0,0
1680866096.09980583,115728690,1546,1545,1545,1545,0,0,0,0,0,0,0,0,0,0
1680866096.19976592,115828650,1546,1545,1545,1546,0,0,0,0,0,0,0,0,0,0
1680866096.29972601,115928610,1545,1545,1545,1545,0,0,0,0,0,0,0,0,0,0
1680866096.39968586,116028570,1545,1545,1545,1545,0,0,0,0,0,0,0,0,0,0
1680866096.49964595,116128530,1544,1545,1544,1545,0,0,0,0,0,0,0,0,0,0
1680866096.59960604,116228490,1545,1545,1545,1545,0,0,0,0,0,0,0,0,0,0
1680866096.69956589,116328450,1545,1545,1545,1545,0,0,0,0,0,0,0,0,0,0
1680866096.79952598,116428410,1545,1545,1545,1545,0,0,0,0,0,0,0,0,0,0
1680866096.89948583,116528370,1545,1544,1545,1545,0,0,0,0,0,0,0,0,0,0
1680866096.99944592,116628330,1544,1544,1544,1544,0,0,0,0,0,0,0,0,0,0
1680866097.09940600,116728290,1544,1544,1543,1544,0,0,0,0,0,0,0,0,0,0
1680866097.19936585,116828250,1543,1544,1543,1544,0,0,0,0,0,0,0,0,0,0
1680866097.29932594,116928210,1543,1544,1543,1544,0,0,0,0,0,0,0,0,0,0
1680866097.39928603,117028170,1543,1543,1543,1543,0,0,0,0,0,0,0,0,0,0
1680866097.50007892,117128963,1544,1544,1544,1544,0,0,0,0,0,0,0,0,0,0
1680866097.60003901,117228923,1543,1544,1544,1543,0,0,0,0,0,0,0,0,0,0
1680866097.69999886,117328883,1544,1544,1544,1544,0,0,0,0,0,0,0,0,0,0
1680866097.79995894,117428843,1545,1545,1544,1545,0,0,0,0,0,0,0,0,0,0
1680866097.89991903,117528803,1545,1544,1544,1545,0,0,0,0,0,0,0,0,0,0
1680866097.99987888,117628763,1544,1544,1544,1544,0,0,0,0,0,0,0,0,0,0
1680866098.09983897,117728723,1544,1543,1544,1543,0,0,0,0,0,0,0,0,0,0
1680866098.19979882,117828683,1544,1544,1544,1544,0,0,0,0,0,0,0,0,0,0
1680866098.29975891,117928643,1545,1545,1545,1545,0,0,0,0,0,0,0,0,0,0
1680866098.39971900,118028603,1544,1545,1545,1545,0,0,0,0,0,0,0,0,0,0
1680866098.49967885,118128563,1544,1544,1544,1544,0,0,0,0,0,0,0,0,0,0
1680866098.59963894,118228523,1544,1544,1544,1544,0,0,0,0,0,0,0,0,0,0
1680866098.69959903,118328483,1544,1544,1544,1545,0,0,0,0,0,0,0,0,0,0
1680866098.79955888,118428443,1545,1544,1545,1544,0,0,0,0,0,0,0,0,0,0
1680866098.89951897,118528403,1546,1545,1545,1545,0,0,0,0,0,0,0,0,0,0
1680866098.99947882,118628363,1544,1544,1544,1544,0,0,0,0,0,0,0,0,0,0
1680866099.09943891,118728323,1544,1544,1544,1544,0,0,0,0,0,0,0,0,0,0
1680866099.19939899,118828283,1544,1545,1545,1545,0,0,0,0,0,0,0,0,0,0
1680866099.29935884,118928243,1544,1544,1544,1544,0,0,0,0,0,0,0,0,0,0
1680866099.39931893,119028203,1544,1544,1544,1544,0,0,0,0,0,0,0,0,0,0
1680866099.49927902,119128163,1545,1544,1544,1545,0,0,0,0,0,0,0,0,0,0
1680866099.60007191,119228956,1543,1544,1544,1544,0,0,0,0,0,0,0,0,0,0
1680866099.70003200,119328916,1545,1544,1544,1545,0,0,0,0,0,0,0,0,0,0
1680866099.79999185,119428876,1544,1545,1545,1544,0,0,0,0,0,0,0,0,0,0
1680866099.89995193,119528836,1545,1545,1545,1545,0,0,0,0,0,0,0,0,0,0
1680866099.99991202,119628796,1545,1545,1545,1545,0,0,0,0,0,0,0,0,0,0
1680866100.09987187,119728756,1544,1544,1544,1544,0,0,0,0,0,0,0,0,0,0
1680866100.19983196,119828716,1544,1544,1544,1544,0,0,0,0,0,0,0,0,0,0
1680866100.29979181,119928676,1544,1544,1544,1544,0,0,0,0,0,0,0,0,0,0
1680866100.39975190,120028636,1386,1386,1405,1386,0,0,0,0,0,0,0,0,0,0
1680866100.49971199,120128596,1264,1264,1303,1264,0,0,0,0,0,0,0,0,0,0
1680866100.59967184,120228556,1222,1222,1270,1221,0,0,0,0,0,0,0,0,0,0
1680866100.69963193,120328516,1202,1201,1254,1201,0,0,0,0,0,0,0,0,0,0
1680866100.79959202,120428476,1161,1161,1224,1160,0,0,0,0,0,0,0,0,0,0
1680866100.89955187,120528436,1151,1150,1216,1150,0,0,0,0,0,0,0,0,0,0
1680866100.99951196,120628396,1151,1151,1217,1150,0,0,0,0,0,0,0,0,0,0
1680866101.09947181,120728356,1164,1150,1216,1163,0,0,0,0,0,0,0,0,0,0
1680866101.19943190,120828316,1186,1150,1215,1186,0,0,0,0,0,0,0,0,0,0
1680866101.29939198,120928276,1176,1150,1216,1175,0,0,0,0,0,0,0,0,0,0
1680866101.39935184,121028236,1174,1150,1216,1173,0,0,0,0,0,0,0,0,0,0
1680866101.49931192,121128196,1176,1150,1216,1175,0,0,0,0,0,0,0,0,0,0
1680866101.59927201,121228156,1177,1150,1216,1176,0,0,0,0,0,0,0,0,0,0
1680866101.70006490,121328949,1180,1150,1216,1179,0,0,0,0,0,0,0,0,0,0
1680866101.80002499,121428909,1182,1150,1216,1181,0,0,0,0,0,0,0,0,0,0
1680866101.89998484,121528869,1150,1150,1215,1150,0,0,0,0,0,0,0,0,0,0
1680866101.99994493,121628829,1168,1150,1216,1167,0,0,0,0,0,0,0,0,0,0
1680866102.09990501,121728789,1169,1150,1216,1169,0,0,0,0,0,0,0,0,0,0
1680866102.19986486,121828749,1170,1150,1216,1169,0,0,0,0,0,0,0,0,0,0
1680866102.29982495,121928709,1171,1150,1216,1170,0,0,0,0,0,0,0,0,0,0
1680866102.39978504,122028669,1146,1146,1061,1146,0,0,0,0,0,0,0,0,0,0
1680866102.49974489,122128629,1000,1000,1000,1000,0,0,0,0,0,0,0,0,0,0
1680866102.59970498,122228589,1000,1000,1000,1000,0,0,0,0,0,0,0,0,0,0
1680866102.69966483,122328549,1000,1000,1000,1000,0,0,0,0,0,0,0,0,0,0
1680866102.79962492,122428509,1000,1000,1000,1000,0,0,0,0,0,0,0,0,0,0
1680866102.89958501,122528469,1000,1000,1000,1000,0,0,0,0,0,0,0,0,0,0
1680866102.99954486,122628429,1000,1000,1000,1000,0,0,0,0,0,0,0,0,0,0
1680866103.09950495,122728389,1000,1000,1000,1000,0,0,0,0,0,0,0,0,0,0
1680866103.19946504,122828349,1000,1000,1000,1000,0,0,0,0,0,0,0,0,0,0
1680866103.29942489,122928309,1000,1000,1000,1000,0,0,0,0,0,0,0,0,0,0
1680866103.39938498,123028269,1000,1000,1000,1000,0,0,0,0,0,0,0,0,0,0
1680866103.49934483,123128229,1000,1000,1000,1000,0,0,0,0,0,0,0,0,0,0
1680866103.59930491,123228189,1000,1000,1000,1000,0,0,0,0,0,0,0,0,0,0
1680866103.70009804,123328982,1000,1000,1000,1000,0,0,0,0,0,0,0,0,0,0
1680866103.80005789,123428942,1000,1000,1000,1000,0,0,0,0,0,0,0,0,0,0
1680866103.90001798,123528902,1000,1000,1000,1000,0,0,0,0,0,0,0,0,0,0
1680866103.99997783,123628862,1000,1000,1000,1000,0,0,0,0,0,0,0,0,0,0
1680866104.09993792,123728822,1000,1000,1000,1000,0,0,0,0,0,0,0,0,0,0
1680866104.19989800,123828782,1000,1000,1000,1000,0,0,0,0,0,0,0,0,0,0
1680866104.29985785,123928742,1000,1000,1000,1000,0,0,0,0,0,0,0,0,0,0
1680866104.39981794,124028702,1000,1000,1000,1000,0,0,0,0,0,0,0,0,0,0
1680866104.49977803,124128662,1000,1000,1000,1000,0,0,0,0,0,0,0,0,0,0
1680866104.59973788,124228622,1000,1000,1000,1000,0,0,0,0,0,0,0,0,0,0
1680866104.69969797,124328582,1000,1000,1000,1000,0,0,0,0,0,0,0,0,0,0
1680866104.79965782,124428542,1000,1000,1000,1000,0,0,0,0,0,0,0,0,0,0
1680866104.89961791,124528502,1000,1000,1000,1000,0,0,0,0,0,0,0,0,0,0
1680866104.99957800,124628462,1000,1000,1000,1000,0,0,0,0,0,0,0,0,0,0
1680866105.09953785,124728422,1000,1000,1000,1000,0,0,0,0,0,0,0,0,0,0
1680866105.19949794,124828382,1000,1000,1000,1000,0,0,0,0,0,0,0,0,0,0
1680866105.29945803,124928342,1000,1000,1000,1000,0,0,0,0,0,0,0,0,0,0
1680866105.39941788,125028302,1000,1000,1000,1000,0,0,0,0,0,0,0,0,0,0
1680866105.49937797,125128262,1000,1000,1000,1000,0,0,0,0,0,0,0,0,0,0
1680866105.59933782,125228222,1000,1000,1000,1000,0,0,0,0,0,0,0,0,0,0
1680866105.69929790,125328182,1000,1000,1000,1000,0,0,0,0,0,0,0,0,0,0
1680866105.80009103,125428975,1000,1000,1000,1000,0,0,0,0,0,0,0,0,0,0
1680866105.90005088,125528935,1000,1000,1000,1000,0,0,0,0,0,0,0,0,0,0
1680866106.00001097,125628895,1000,1000,1000,1000,0,0,0,0,0,0,0,0,0,0
1680866106.09997082,125728855,1000,1000,1000,1000,0,0,0,0,0,0,0,0,0,0
1680866106.19993091,125828815,1000,1000,1000,1000,0,0,0,0,0,0,0,0,0,0
1680866106.29989100,125928775,1000,1000,1000,1000,0,0,0,0,0,0,0,0,0,0
1680866106.39985085,126028735,1000,1000,1000,1000,0,0,0,0,0,0,0,0,0,0
1680866106.49981093,126128695,1000,1000,1000,1000,0,0,0,0,0,0,0,0,0,0
1680866106.59977102,126228655,1000,1000,1000,1000,0,0,0,0,0,0,0,0,0,0
1680866106.69973087,126328615,1000,1000,1000,1000,0,0,0,0,0,0,0,0,0,0
1680866106.79969096,126428575,1000,1000,1000,1000,0,0,0,0,0,0,0,0,0,0
1680866106.89965081,126528535,1000,1000,1000,1000,0,0,0,0,0,0,0,0,0,0
1680866106.99961090,126628495,1000,1000,1000,1000,0,0,0,0,0,0,0,0,0,0
1680866107.09957099,126728455,1000,1000,1000,1000,0,0,0,0,0,0,0,0,0,0
1680866107.19953084,126828415,1000,1000,1000,1000,0,0,0,0,0,0,0,0,0,0
1680866107.29949093,126928375,1000,1000,1000,1000,0,0,0,0,0,0,0,0,0,0
1680866107.39945102,127028335,1000,1000,1000,1000,0,0,0,0,0,0,0,0,0,0
1680866107.49941087,127128295,1000,1000,1000,1000,0,0,0,0,0,0,0,0,0,0
1680866107.59937096,127228255,1000,1000,1000,1000,0,0,0,0,0,0,0,0,0,0
1680866107.69933081,127328215,1000,1000,1000,1000,0,0,0,0,0,0,0,0,0,0
1680866107.79929090,127428175,1000,1000,1000,1000,0,0,0,0,0,0,0,0,0,0
1680866107.90008402,127528968,1000,1000,1000,1000,0,0,0,0,0,0,0,0,0,0
1680866108.00004387,127628928,1000,1000,1000,1000,0,0,0,0,0,0,0,0,0,0
1680866108.10000396,127728888,1000,1000,1000,1000,0,0,0,0,0,0,0,0,0,0
1680866108.19996381,127828848,1000,1000,1000,1000,0,0,0,0,0,0,0,0,0,0
1680866108.29992390,127928808,1000,1000,1000,1000,0,0,0,0,0,0,0,0,0,0
1680866108.39988399,128028768,1000,1000,1000,1000,0,0,0,0,0,0,0,0,0,0
1680866108.49984384,128128728,1000,1000,1000,1000,0,0,0,0,0,0,0,0,0,0
1680866108.59980392,128228688,1000,1000,1000,1000,0,0,0,0,0,0,0,0,0,0
1680866108.69976401,128328648,1000,1000,1000,1000,0,0,0,0,0,0,0,0,0,0
1680866108.79972386,128428608,1000,1000,1000,1000,0,0,0,0,0,0,0,0,0,0
1680866108.89968395,128528568,1000,1000,1000,1000,0,0,0,0,0,0,0,0,0,0
1680866108.99964404,128628528,1000,1000,1000,1000,0,0,0,0,0,0,0,0,0,0
1680866109.09960389,128728488,1000,1000,1000,1000,0,0,0,0,0,0,0,0,0,0
1680866109.19956398,128828448,1000,1000,1000,1000,0,0,0,0,0,0,0,0,0,0
1680866109.29952383,128928408,1000,1000,1000,1000,0,0,0,0,0,0,0,0,0,0
1680866109.39948392,129028368,1000,1000,1000,1000,0,0,0,0,0,0,0,0,0,0
1680866109.49944401,129128328,1000,1000,1000,1000,0,0,0,0,0,0,0,0,0,0
1680866109.59940386,129228288,1000,1000,1000,1000,0,0,0,0,0,0,0,0,0,0
1680866109.69936395,129328248,1000,1000,1000,1000,0,0,0,0,0,0,0,0,0,0
1680866109.79932404,129428208,1000,1000,1000,1000,0,0,0,0,0,0,0,0,0,0
1680866109.89928389,129528168,1000,1000,1000,1000,0,0,0,0,0,0,0,0,0,0
1680866110.00007701,129628961,1000,1000,1000,1000,0,0,0,0,0,0,0,0,0,0
1680866110.10003686,129728921,1000,1000,1000,1000,0,0,0,0,0,0,0,0,0,0
1680866110.19999695,129828881,1000,1000,1000,1000,0,0,0,0,0,0,0,0,0,0
1680866110.29995704,129928841,1000,1000,1000,1000,0,0,0,0,0,0,0,0,0,0
1680866110.39991689,130028801,1000,1000,1000,1000,0,0,0,0,0,0,0,0,0,0
1680866110.49987698,130128761,1000,1000,1000,1000,0,0,0,0,0,0,0,0,0,0
1680866110.59983683,130228721,1000,1000,1000,1000,0,0,0,0,0,0,0,0,0,0
1680866110.69979692,130328681,1000,1000,1000,1000,0,0,0,0,0,0,0,0,0,0
1680866110.79975700,130428641,1000,1000,1000,1000,0,0,0,0,0,0,0,0,0,0
1680866110.89971685,130528601,1000,1000,1000,1000,0,0,0,0,0,0,0,0,0,0
1680866110.99967694,130628561,1000,1000,1000,1000,0,0,0,0,0,0,0,0,0,0
1680866111.09963703,130728521,1000,1000,1000,1000,0,0,0,0,0,0,0,0,0,0
1680866111.19959688,130828481,1000,1000,1000,1000,0,0,0,0,0,0,0,0,0,0
1680866111.29955697,130928441,1000,1000,1000,1000,0,0,0,0,0,0,0,0,0,0
1680866111.39951682,131028401,1000,1000,1000,1000,0,0,0,0,0,0,0,0,0,0
1680866111.49947691,131128361,1000,1000,1000,1000,0,0,0,0,0,0,0,0,0,0
1680866111.59943700,131228321,1000,1000,1000,1000,0,0,0,0,0,0,0,0,0,0
1680866111.69939685,131328281,1000,1000,1000,1000,0,0,0,0,0,0,0,0,0,0
1680866111.79935694,131428241,1000,1000,1000,1000,0,0,0,0,0,0,0,0,0,0
1680866111.89931703,131528201,1000,1000,1000,1000,0,0,0,0,0,0,0,0,0,0
1680866111.99927688,131628161,1000,1000,1000,1000,0,0,0,0,0,0,0,0,0,0
1680866112.10007000,131728954,1000,1000,1000,1000,0,0,0,0,0,0,0,0,0,0
1680866112.20002985,131828914,1000,1000,1000,1000,0,0,0,0,0,0,0,0,0,0
1680866112.29998994,131928874,1000,1000,1000,1000,0,0,0,0,0,0,0,0,0,0
1680866112.39995003,132028834,1000,1000,1000,1000,0,0,0,0,0,0,0,0,0,0
1680866112.49990988,132128794,1000,1000,1000,1000,0,0,0,0,0,0,0,0,0,0
1680866112.59986997,132228754,1000,1000,1000,1000,0,0,0,0,0,0,0,0,0,0
1680866112.69982982,132328714,1000,1000,1000,1000,0,0,0,0,0,0,0,0,0,0
1680866112.79978991,132428674,1000,1000,1000,1000,0,0,0,0,0,0,0,0,0,0
1680866112.89974999,132528634,1000,1000,1000,1000,0,0,0,0,0,0,0,0,0,0
1680866112.99970984,132628594,1000,1000,1000,1000,0,0,0,0,0,0,0,0,0,0
1680866113.09966993,132728554,1000,1000,1000,1000,0,0,0,0,0,0,0,0,0,0
1680866113.19963002,132828514,1000,1000,1000,1000,0,0,0,0,0,0,0,0,0,0
1680866113.29958987,132928474,1000,1000,1000,1000,0,0,0,0,0,0,0,0,0,0
1680866113.39954996,133028434,1000,1000,1000,1000,0,0,0,0,0,0,0,0,0,0
1680866113.49950981,133128394,1000,1000,1000,1000,0,0,0,0,0,0,0,0,0,0
1680866113.59946990,133228354,1000,1000,1000,1000,0,0,0,0,0,0,0,0,0,0
1680866113.69942999,133328314,1000,1000,1000,1000,0,0,0,0,0,0,0,0,0,0
1680866113.79938984,133428274,1000,1000,1000,1000,0,0,0,0,0,0,0,0,0,0
1680866113.89934993,133528234,1000,1000,1000,1000,0,0,0,0,0,0,0,0,0,0
1680866113.99931002,133628194,1000,1000,1000,1000,0,0,0,0,0,0,0,0,0,0
1680866114.09926987,133728154,1000,1000,1000,1000,0,0,0,0,0,0,0,0,0,0
1680866114.20006299,133828947,1000,1000,1000,1000,0,0,0,0,0,0,0,0,0,0
1680866114.30002284,133928907,1000,1000,1000,1000,0,0,0,0,0,0,0,0,0,0
1680866114.39998293,134028867,1000,1000,1000,1000,0,0,0,0,0,0,0,0,0,0
1680866114.49994302,134128827,1000,1000,1000,1000,0,0,0,0,0,0,0,0,0,0
1680866114.59990287,134228787,1000,1000,1000,1000,0,0,0,0,0,0,0,0,0,0
1680866114.69986296,134328747,1000,1000,1000,1000,0,0,0,0,0,0,0,0,0,0
1680866114.79982281,134428707,1000,1000,1000,1000,0,0,0,0,0,0,0,0,0,0
1680866114.89978290,134528667,1000,1000,1000,1000,0,0,0,0,0,0,0,0,0,0
1680866114.99974298,134628627,1000,1000,1000,1000,0,0,0,0,0,0,0,0,0,0
1680866115.09970284,134728587,1000,1000,1000,1000,0,0,0,0,0,0,0,0,0,0
1680866115.19966292,134828547,1000,1000,1000,1000,0,0,0,0,0,0,0,0,0,0
1680866115.29962301,134928507,1000,1000,1000,1000,0,0,0,0,0,0,0,0,0,0
1680866115.39958286,135028467,1000,1000,1000,1000,0,0,0,0,0,0,0,0,0,0
1680866115.49954295,135128427,1000,1000,1000,1000,0,0,0,0,0,0,0,0,0,0
1680866115.59950304,135228387,1000,1000,1000,1000,0,0,0,0,0,0,0,0,0,0
1680866115.69946289,135328347,1000,1000,1000,1000,0,0,0,0,0,0,0,0,0,0
1680866115.79942298,135428307,1000,1000,1000,1000,0,0,0,0,0,0,0,0,0,0
1680866115.89938283,135528267,1000,1000,1000,1000,0,0,0,0,0,0,0,0,0,0
1680866115.99934292,135628227,1000,1000,1000,1000,0,0,0,0,0,0,0,0,0,0
1680866116.09930301,135728187,1000,1000,1000,1000,0,0,0,0,0,0,0,0,0,0
1680866116.20009589,135828980,1000,1000,1000,1000,0,0,0,0,0,0,0,0,0,0
1680866116.30005598,135928940,1000,1000,1000,1000,0,0,0,0,0,0,0,0,0,0
1680866116.40001583,136028900,1000,1000,1000,1000,0,0,0,0,0,0,0,0,0,0
1680866116.49997592,136128860,1000,1000,1000,1000,0,0,0,0,0,0,0,0,0,0
1680866116.59993601,136228820,1000,1000,1000,1000,0,0,0,0,0,0,0,0,0,0
1680866116.69989586,136328780,1000,1000,1000,1000,0,0,0,0,0,0,0,0,0,0
1680866116.79985595,136428740,1000,1000,1000,1000,0,0,0,0,0,0,0,0,0,0
1680866116.89981604,136528700,1000,1000,1000,1000,0,0,0,0,0,0,0,0,0,0
1680866116.99977589,136628660,1000,1000,1000,1000,0,0,0,0,0,0,0,0,0,0
1680866117.09973598,136728620,1000,1000,1000,1000,0,0,0,0,0,0,0,0,0,0
1680866117.19969583,136828580,1000,1000,1000,1000,0,0,0,0,0,0,0,0,0,0
1680866117.29965591,136928540,1000,1000,1000,1000,0,0,0,0,0,0,0,0,0,0
