timestamp,TimeUS,C1,C2,C3,C4,C5,C6,C7,C8,C9,C10,C11,C12,C13,C14
1681143922.40000010,78228696,1000,1000,1000,1000,0,0,0,0,0,0,0,0,0,0
1681143922.49995995,78328656,1000,1000,1000,1000,0,0,0,0,0,0,0,0,0,0
1681143922.59992003,78428616,1000,1000,1000,1000,0,0,0,0,0,0,0,0,0,0
1681143922.69987988,78528576,1000,1000,1000,1000,0,0,0,0,0,0,0,0,0,0
1681143922.79983997,78628536,1000,1000,1000,1000,0,0,0,0,0,0,0,0,0,0
1681143922.89980006,78728496,1000,1000,1000,1000,0,0,0,0,0,0,0,0,0,0
1681143922.99975991,78828456,1000,1000,1000,1000,0,0,0,0,0,0,0,0,0,0
1681143923.09972000,78928416,1000,1000,1000,1000,0,0,0,0,0,0,0,0,0,0
1681143923.19968009,79028376,1000,1000,1000,1000,0,0,0,0,0,0,0,0,0,0
1681143923.29963994,79128336,1000,1000,1000,1000,0,0,0,0,0,0,0,0,0,0
1681143923.39960003,79228296,1000,1000,1000,1000,0,0,0,0,0,0,0,0,0,0
1681143923.49955988,79328256,1000,1000,1000,1000,0,0,0,0,0,0,0,0,0,0
1681143923.59951997,79428216,1000,1000,1000,1000,0,0,0,0,0,0,0,0,0,0
1681143923.69948006,79528176,1000,1000,1000,1000,0,0,0,0,0,0,0,0,0,0
1681143923.80027294,79628969,1000,1000,1000,1000,0,0,0,0,0,0,0,0,0,0
1681143923.90023303,79728929,1000,1000,1000,1000,0,0,0,0,0,0,0,0,0,0
1681143924.00019288,79828889,1000,1000,1000,1000,0,0,0,0,0,0,0,0,0,0
1681143924.10015297,79928849,1000,1000,1000,1000,0,0,0,0,0,0,0,0,0,0
1681143924.20011306,80028809,1000,1000,1000,1000,0,0,0,0,0,0,0,0,0,0
1681143924.30007291,80128769,1000,1000,1000,1000,0,0,0,0,0,0,0,0,0,0
1681143924.40003300,80228729,1006,1006,1006,1006,0,0,0,0,0,0,0,0,0,0
1681143924.49999309,80328689,1036,1036,1036,1036,0,0,0,0,0,0,0,0,0,0
1681143924.59995294,80428649,1066,1066,1066,1066,0,0,0,0,0,0,0,0,0,0
1681143924.69991302,80528609,1096,1096,1096,1096,0,0,0,0,0,0,0,0,0,0
1681143924.79987288,80628569,1126,1126,1126,1126,0,0,0,0,0,0,0,0,0,0
1681143924.89983296,80728529,1217,1205,1206,1217,0,0,0,0,0,0,0,0,0,0
1681143924.99979305,80828489,1445,1437,1438,1445,0,0,0,0,0,0,0,0,0,0
1681143925.09975290,80928449,1616,1608,1609,1616,0,0,0,0,0,0,0,0,0,0
1681143925.19971299,81028409,1757,1751,1751,1758,0,0,0,0,0,0,0,0,0,0
1681143925.29967308,81128369,1852,1845,1845,1853,0,0,0,0,0,0,0,0,0,0
1681143925.39963293,81228329,1861,1855,1856,1861,0,0,0,0,0,0,0,0,0,0
1681143925.49959302,81328289,1770,1768,1768,1771,0,0,0,0,0,0,0,0,0,0
1681143925.59955287,81428249,1652,1653,1653,1652,0,0,0,0,0,0,0,0,0,0
1681143925.69951296,81528209,1606,1609,1610,1607,0,0,0,0,0,0,0,0,0,0
1681143925.79947305,81628169,1613,1616,1616,1613,0,0,0,0,0,0,0,0,0,0
1681143925.90026593,81728962,1628,1630,1630,1628,0,0,0,0,0,0,0,0,0,0
1681143926.00022602,81828922,1636,1636,1636,1636,0,0,0,0,0,0,0,0,0,0
1681143926.10018587,81928882,1632,1631,1631,1632,0,0,0,0,0,0,0,0,0,0
1681143926.20014596,82028842,1621,1620,1619,1622,0,0,0,0,0,0,0,0,0,0
1681143926.30010605,82128802,1606,1605,1597,1613,0,0,0,0,0,0,0,0,0,0
1681143926.40006590,82228762,1602,1600,1594,1607,0,0,0,0,0,0,0,0,0,0
1681143926.50002599,82328722,1603,1602,1599,1604,0,0,0,0,0,0,0,0,0,0
1681143926.59998608,82428682,1607,1606,1608,1605,0,0,0,0,0,0,0,0,0,0
1681143926.69994593,82528642,1612,1612,1615,1609,0,0,0,0,0,0,0,0,0,0
1681143926.79990602,82628602,1618,1619,1622,1615,0,0,0,0,0,0,0,0,0,0
1681143926.89986610,82728562,1598,1599,1608,1589,0,0,0,0,0,0,0,0,0,0
1681143926.99982595,82828522,1579,1580,1595,1565,0,0,0,0,0,0,0,0,0,0
1681143927.09978604,82928482,1568,1569,1575,1562,0,0,0,0,0,0,0,0,0,0
1681143927.19974589,83028442,1557,1557,1554,1562,0,0,0,0,0,0,0,0,0,0
1681143927.29970598,83128402,1549,1548,1538,1560,0,0,0,0,0,0,0,0,0,0
1681143927.39966607,83228362,1542,1540,1530,1553,0,0,0,0,0,0,0,0,0,0
1681143927.49962592,83328322,1535,1533,1526,1542,0,0,0,0,0,0,0,0,0,0
1681143927.59958601,83428282,1529,1529,1526,1532,0,0,0,0,0,0,0,0,0,0
1681143927.69954610,83528242,1529,1529,1529,1528,0,0,0,0,0,0,0,0,0,0
1681143927.79950595,83628202,1530,1530,1532,1527,0,0,0,0,0,0,0,0,0,0
1681143927.89946604,83728162,1533,1533,1536,1530,0,0,0,0,0,0,0,0,0,0
1681143928.00025892,83828955,1535,1535,1539,1531,0,0,0,0,0,0,0,0,0,0
1681143928.10021901,83928915,1540,1540,1543,1537,0,0,0,0,0,0,0,0,0,0
1681143928.20017910,84028875,1542,1542,1544,1541,0,0,0,0,0,0,0,0,0,0
1681143928.30013895,84128835,1546,1546,1546,1546,0,0,0,0,0,0,0,0,0,0
1681143928.40009904,84228795,1548,1549,1548,1550,0,0,0,0,0,0,0,0,0,0
1681143928.50005889,84328755,1551,1551,1550,1552,0,0,0,0,0,0,0,0,0,0
1681143928.60001898,84428715,1554,1552,1553,1556,0,0,0,0,0,0,0,0,0,0
1681143928.69997907,84528675,1553,1552,1558,1561,0,0,0,0,0,0,0,0,0,0
1681143928.79993892,84628635,1554,1555,1561,1562,0,0,0,0,0,0,0,0,0,0
1681143928.89989901,84728595,1557,1557,1563,1563,0,0,0,0,0,0,0,0,0,0
1681143928.99985909,84828555,1560,1561,1565,1563,0,0,0,0,0,0,0,0,0,0
1681143929.09981894,84928515,1563,1564,1565,1564,0,0,0,0,0,0,0,0,0,0
1681143929.19977903,85028475,1566,1566,1565,1564,0,0,0,0,0,0,0,0,0,0
1681143929.29973888,85128435,1569,1569,1567,1566,0,0,0,0,0,0,0,0,0,0
1681143929.39969897,85228395,1570,1570,1566,1567,0,0,0,0,0,0,0,0,0,0
1681143929.49965906,85328355,1572,1572,1567,1568,0,0,0,0,0,0,0,0,0,0
1681143929.59961891,85428315,1572,1573,1567,1568,0,0,0,0,0,0,0,0,0,0
1681143929.69957900,85528275,1574,1573,1569,1569,0,0,0,0,0,0,0,0,0,0
1681143929.79953909,85628235,1574,1574,1570,1570,0,0,0,0,0,0,0,0,0,0
1681143929.89949894,85728195,1574,1575,1572,1572,0,0,0,0,0,0,0,0,0,0
1681143929.99945903,85828155,1574,1574,1573,1572,0,0,0,0,0,0,0,0,0,0
1681143930.10025191,85928948,1575,1575,1575,1574,0,0,0,0,0,0,0,0,0,0
1681143930.20021200,86028908,1575,1575,1576,1575,0,0,0,0,0,0,0,0,0,0
1681143930.30017209,86128868,1575,1574,1576,1575,0,0,0,0,0,0,0,0,0,0
1681143930.40013194,86228828,1574,1574,1576,1575,0,0,0,0,0,0,0,0,0,0
1681143930.50009203,86328788,1575,1576,1576,1577,0,0,0,0,0,0,0,0,0,0
1681143930.60005188,86428748,1575,1575,1576,1576,0,0,0,0,0,0,0,0,0,0
1681143930.70001197,86528708,1575,1576,1577,1577,0,0,0,0,0,0,0,0,0,0
1681143930.79997206,86628668,1576,1576,1577,1577,0,0,0,0,0,0,0,0,0,0
1681143930.89993191,86728628,1576,1576,1577,1576,0,0,0,0,0,0,0,0,0,0
1681143930.99989200,86828588,1577,1577,1577,1577,0,0,0,0,0,0,0,0,0,0
1681143931.09985209,86928548,1577,1577,1577,1577,0,0,0,0,0,0,0,0,0,0
1681143931.19981194,87028508,1578,1578,1577,1578,0,0,0,0,0,0,0,0,0,0
1681143931.29977202,87128468,1577,1577,1576,1577,0,0,0,0,0,0,0,0,0,0
1681143931.39973187,87228428,1577,1577,1576,1576,0,0,0,0,0,0,0,0,0,0
1681143931.49969196,87328388,1578,1578,1577,1577,0,0,0,0,0,0,0,0,0,0
1681143931.59965205,87428348,1578,1578,1578,1578,0,0,0,0,0,0,0,0,0,0
1681143931.69961190,87528308,1579,1578,1578,1578,0,0,0,0,0,0,0,0,0,0
1681143931.79957199,87628268,1579,1579,1579,1579,0,0,0,0,0,0,0,0,0,0
1681143931.89953208,87728228,1579,1579,1578,1578,0,0,0,0,0,0,0,0,0,0
1681143931.99949193,87828188,1579,1578,1578,1578,0,0,0,0,0,0,0,0,0,0
1681143932.10028505,87928981,1579,1579,1579,1579,0,0,0,0,0,0,0,0,0,0
1681143932.20024490,88028941,1579,1579,1580,1579,0,0,0,0,0,0,0,0,0,0
1681143932.30020499,88128901,1579,1579,1579,1579,0,0,0,0,0,0,0,0,0,0
1681143932.40016508,88228861,1578,1578,1578,1579,0,0,0,0,0,0,0,0,0,0
1681143932.50012493,88328821,1578,1579,1579,1580,0,0,0,0,0,0,0,0,0,0
1681143932.60008502,88428781,1579,1579,1579,1579,0,0,0,0,0,0,0,0,0,0
1681143932.70004487,88528741,1580,1579,1579,1580,0,0,0,0,0,0,0,0,0,0
1681143932.80000496,88628701,1579,1578,1579,1579,0,0,0,0,0,0,0,0,0,0
1681143932.89996505,88728661,1579,1579,1580,1580,0,0,0,0,0,0,0,0,0,0
1681143932.99992490,88828621,1579,1579,1580,1580,0,0,0,0,0,0,0,0,0,0
1681143933.09988499,88928581,1580,1580,1580,1580,0,0,0,0,0,0,0,0,0,0
1681143933.19984508,89028541,1579,1580,1579,1579,0,0,0,0,0,0,0,0,0,0
1681143933.29980493,89128501,1580,1580,1580,1580,0,0,0,0,0,0,0,0,0,0
1681143933.39976501,89228461,1579,1579,1578,1579,0,0,0,0,0,0,0,0,0,0
1681143933.49972510,89328421,1579,1579,1578,1579,0,0,0,0,0,0,0,0,0,0
1681143933.59968495,89428381,1580,1580,1580,1580,0,0,0,0,0,0,0,0,0,0
1681143933.69964504,89528341,1579,1579,1579,1579,0,0,0,0,0,0,0,0,0,0
1681143933.79960489,89628301,1579,1579,1579,1579,0,0,0,0,0,0,0,0,0,0
1681143933.89956498,89728261,1580,1580,1580,1580,0,0,0,0,0,0,0,0,0,0
1681143933.99952507,89828221,1581,1581,1581,1581,0,0,0,0,0,0,0,0,0,0
1681143934.09948492,89928181,1580,1581,1581,1580,0,0,0,0,0,0,0,0,0,0
1681143934.20027804,90028974,1581,1581,1581,1581,0,0,0,0,0,0,0,0,0,0
1681143934.30023789,90128934,1580,1580,1580,1580,0,0,0,0,0,0,0,0,0,0
1681143934.40019798,90228894,1581,1580,1581,1580,0,0,0,0,0,0,0,0,0,0
1681143934.50015807,90328854,1580,1580,1580,1580,0,0,0,0,0,0,0,0,0,0
1681143934.60011792,90428814,1581,1580,1580,1581,0,0,0,0,0,0,0,0,0,0
1681143934.70007801,90528774,1581,1581,1581,1581,0,0,0,0,0,0,0,0,0,0
1681143934.80003810,90628734,1581,1581,1582,1581,0,0,0,0,0,0,0,0,0,0
1681143934.89999795,90728694,1581,1583,1589,1574,0,0,0,0,0,0,0,0,0,0
1681143934.99995804,90828654,1581,1583,1586,1574,0,0,0,0,0,0,0,0,0,0
1681143935.09991789,90928614,1578,1581,1576,1573,0,0,0,0,0,0,0,0,0,0
1681143935.19987798,91028574,1577,1580,1567,1572,0,0,0,0,0,0,0,0,0,0
1681143935.29983807,91128534,1578,1580,1561,1569,0,0,0,0,0,0,0,0,0,0
1681143935.39979792,91228494,1577,1578,1556,1562,0,0,0,0,0,0,0,0,0,0
1681143935.49975801,91328454,1579,1578,1555,1558,0,0,0,0,0,0,0,0,0,0
1681143935.59971809,91428414,1580,1578,1555,1556,0,0,0,0,0,0,0,0,0,0
1681143935.69967794,91528374,1580,1578,1555,1554,0,0,0,0,0,0,0,0,0,0
1681143935.79963803,91628334,1578,1578,1555,1553,0,0,0,0,0,0,0,0,0,0
1681143935.89959788,91728294,1577,1578,1555,1554,0,0,0,0,0,0,0,0,0,0
1681143935.99955797,91828254,1576,1578,1555,1553,0,0,0,0,0,0,0,0,0,0
1681143936.09951806,91928214,1575,1577,1554,1554,0,0,0,0,0,0,0,0,0,0
1681143936.19947791,92028174,1575,1577,1553,1553,0,0,0,0,0,0,0,0,0,0
1681143936.30027103,92128967,1576,1578,1552,1552,0,0,0,0,0,0,0,0,0,0
1681143936.40023088,92228927,1576,1578,1550,1549,0,0,0,0,0,0,0,0,0,0
1681143936.50019097,92328887,1579,1579,1547,1548,0,0,0,0,0,0,0,0,0,0
1681143936.60015106,92428847,1582,1583,1546,1546,0,0,0,0,0,0,0,0,0,0
1681143936.70011091,92528807,1584,1585,1542,1542,0,0,0,0,0,0,0,0,0,0
1681143936.80007100,92628767,1586,1587,1539,1539,0,0,0,0,0,0,0,0,0,0
1681143936.90003109,92728727,1590,1590,1537,1537,0,0,0,0,0,0,0,0,0,0
1681143936.99999094,92828687,1593,1594,1536,1536,0,0,0,0,0,0,0,0,0,0
1681143937.09995103,92928647,1594,1594,1535,1535,0,0,0,0,0,0,0,0,0,0
1681143937.19991088,93028607,1595,1595,1535,1537,0,0,0,0,0,0,0,0,0,0
1681143937.29987097,93128567,1594,1594,1536,1539,0,0,0,0,0,0,0,0,0,0
1681143937.39983106,93228527,1592,1591,1540,1542,0,0,0,0,0,0,0,0,0,0
1681143937.49979091,93328487,1588,1585,1545,1548,0,0,0,0,0,0,0,0,0,0
1681143937.59975100,93428447,1582,1579,1554,1557,0,0,0,0,0,0,0,0,0,0
1681143937.69971108,93528407,1573,1569,1564,1567,0,0,0,0,0,0,0,0,0,0
1681143937.79967093,93628367,1562,1559,1576,1578,0,0,0,0,0,0,0,0,0,0
1681143937.89963102,93728327,1551,1548,1589,1590,0,0,0,0,0,0,0,0,0,0
1681143937.99959087,93828287,1541,1539,1600,1600,0,0,0,0,0,0,0,0,0,0
1681143938.09955096,93928247,1534,1533,1609,1608,0,0,0,0,0,0,0,0,0,0
1681143938.19951105,94028207,1528,1529,1613,1612,0,0,0,0,0,0,0,0,0,0
1681143938.29947090,94128167,1529,1530,1615,1614,0,0,0,0,0,0,0,0,0,0
1681143938.40026402,94228960,1533,1535,1614,1613,0,0,0,0,0,0,0,0,0,0
1681143938.50022388,94328920,1538,1541,1609,1608,0,0,0,0,0,0,0,0,0,0
1681143938.60018396,94428880,1546,1549,1602,1603,0,0,0,0,0,0,0,0,0,0
1681143938.70014405,94528840,1555,1557,1595,1595,0,0,0,0,0,0,0,0,0,0
1681143938.80010390,94628800,1565,1565,1587,1587,0,0,0,0,0,0,0,0,0,0
1681143938.90006399,94728760,1572,1572,1580,1579,0,0,0,0,0,0,0,0,0,0
1681143939.00002408,94828720,1580,1579,1575,1574,0,0,0,0,0,0,0,0,0,0
1681143939.09998393,94928680,1585,1583,1570,1569,0,0,0,0,0,0,0,0,0,0
1681143939.19994402,95028640,1587,1585,1567,1567,0,0,0,0,0,0,0,0,0,0
1681143939.29990387,95128600,1588,1587,1566,1566,0,0,0,0,0,0,0,0,0,0
1681143939.39986396,95228560,1587,1586,1566,1566,0,0,0,0,0,0,0,0,0,0
1681143939.49982405,95328520,1585,1584,1568,1568,0,0,0,0,0,0,0,0,0,0
1681143939.59978390,95428480,1583,1583,1571,1572,0,0,0,0,0,0,0,0,0,0
1681143939.69974399,95528440,1580,1580,1574,1574,0,0,0,0,0,0,0,0,0,0
1681143939.79970407,95628400,1577,1578,1577,1577,0,0,0,0,0,0,0,0,0,0
1681143939.89966393,95728360,1575,1576,1580,1580,0,0,0,0,0,0,0,0,0,0
1681143939.99962401,95828320,1574,1574,1582,1582,0,0,0,0,0,0,0,0,0,0
1681143940.09958410,95928280,1572,1573,1584,1584,0,0,0,0,0,0,0,0,0,0
1681143940.19954395,96028240,1572,1573,1584,1584,0,0,0,0,0,0,0,0,0,0
1681143940.29950404,96128200,1573,1573,1584,1584,0,0,0,0,0,0,0,0,0,0
1681143940.39946389,96228160,1573,1574,1583,1583,0,0,0,0,0,0,0,0,0,0
1681143940.50025702,96328953,1575,1575,1582,1582,0,0,0,0,0,0,0,0,0,0
1681143940.60021710,96428913,1576,1576,1581,1581,0,0,0,0,0,0,0,0,0,0
1681143940.70017695,96528873,1577,1577,1579,1579,0,0,0,0,0,0,0,0,0,0
1681143940.80013704,96628833,1578,1579,1578,1578,0,0,0,0,0,0,0,0,0,0
1681143940.90009689,96728793,1580,1580,1577,1578,0,0,0,0,0,0,0,0,0,0
1681143941.00005698,96828753,1608,1608,1397,1515,0,0,0,0,0,0,0,0,0,0
1681143941.10001707,96928713,1639,1641,1512,1509,0,0,0,0,0,0,0,0,0,0
1681143941.19997692,97028673,1676,1683,1619,1551,0,0,0,0,0,0,0,0,0,0
1681143941.29993701,97128633,1640,1654,1650,1544,0,0,0,0,0,0,0,0,0,0
1681143941.39989710,97228593,1627,1648,1650,1579,0,0,0,0,0,0,0,0,0,0
1681143941.49985695,97328553,1631,1650,1650,1609,0,0,0,0,0,0,0,0,0,0
1681143941.59981704,97428513,1625,1636,1650,1636,0,0,0,0,0,0,0,0,0,0
1681143941.69977689,97528473,1605,1602,1650,1661,0,0,0,0,0,0,0,0,0,0
1681143941.79973698,97628433,1573,1566,1650,1679,0,0,0,0,0,0,0,0,0,0
1681143941.89969707,97728393,1548,1523,1650,1681,0,0,0,0,0,0,0,0,0,0
1681143941.99965692,97828353,1534,1496,1650,1672,0,0,0,0,0,0,0,0,0,0
1681143942.09961700,97928313,1539,1502,1650,1663,0,0,0,0,0,0,0,0,0,0
1681143942.19957709,98028273,1564,1540,1650,1657,0,0,0,0,0,0,0,0,0,0
1681143942.29953694,98128233,1600,1593,1650,1652,0,0,0,0,0,0,0,0,0,0
1681143942.39949703,98228193,1630,1641,1650,1649,0,0,0,0,0,0,0,0,0,0
1681143942.50028992,98328986,1610,1632,1615,1609,0,0,0,0,0,0,0,0,0,0
1681143942.60025001,98428946,1601,1627,1590,1589,0,0,0,0,0,0,0,0,0,0
1681143942.70021009,98528906,1595,1616,1570,1577,0,0,0,0,0,0,0,0,0,0
1681143942.80016994,98628866,1590,1600,1556,1566,0,0,0,0,0,0,0,0,0,0
1681143942.90013003,98728826,1584,1588,1551,1546,0,0,0,0,0,0,0,0,0,0
1681143943.00008988,98828786,1581,1582,1543,1537,0,0,0,0,0,0,0,0,0,0
1681143943.10004997,98928746,1578,1578,1535,1534,0,0,0,0,0,0,0,0,0,0
1681143943.20001006,99028706,1574,1573,1529,1531,0,0,0,0,0,0,0,0,0,0
1681143943.29996991,99128666,1572,1569,1527,1531,0,0,0,0,0,0,0,0,0,0
1681143943.39993000,99228626,1570,1567,1528,1531,0,0,0,0,0,0,0,0,0,0
1681143943.49989009,99328586,1568,1566,1531,1531,0,0,0,0,0,0,0,0,0,0
1681143943.59984994,99428546,1567,1565,1535,1533,0,0,0,0,0,0,0,0,0,0
1681143943.69981003,99528506,1566,1566,1539,1537,0,0,0,0,0,0,0,0,0,0
1681143943.79976988,99628466,1565,1566,1542,1541,0,0,0,0,0,0,0,0,0,0
1681143943.89972997,99728426,1564,1566,1545,1543,0,0,0,0,0,0,0,0,0,0
1681143943.99969006,99828386,1565,1567,1548,1547,0,0,0,0,0,0,0,0,0,0
1681143944.09964991,99928346,1566,1567,1550,1549,0,0,0,0,0,0,0,0,0,0
1681143944.19960999,100028306,1567,1568,1550,1550,0,0,0,0,0,0,0,0,0,0
1681143944.29957008,100128266,1569,1570,1551,1551,0,0,0,0,0,0,0,0,0,0
1681143944.39952993,100228226,1572,1572,1551,1551,0,0,0,0,0,0,0,0,0,0
1681143944.49949002,100328186,1574,1574,1550,1549,0,0,0,0,0,0,0,0,0,0
1681143944.60028291,100428979,1577,1578,1549,1548,0,0,0,0,0,0,0,0,0,0
1681143944.70024300,100528939,1579,1580,1546,1546,0,0,0,0,0,0,0,0,0,0
1681143944.80020308,100628899,1583,1584,1545,1544,0,0,0,0,0,0,0,0,0,0
1681143944.90016294,100728859,1586,1586,1542,1542,0,0,0,0,0,0,0,0,0,0
1681143945.00012302,100828819,1589,1589,1540,1541,0,0,0,0,0,0,0,0,0,0
1681143945.10008287,100928779,1591,1591,1538,1540,0,0,0,0,0,0,0,0,0,0
1681143945.20004296,101028739,1592,1591,1539,1541,0,0,0,0,0,0,0,0,0,0
1681143945.30000305,101128699,1592,1590,1541,1543,0,0,0,0,0,0,0,0,0,0
1681143945.39996290,101228659,1589,1586,1544,1546,0,0,0,0,0,0,0,0,0,0
1681143945.49992299,101328619,1584,1581,1549,1551,0,0,0,0,0,0,0,0,0,0
1681143945.59988308,101428579,1576,1575,1555,1557,0,0,0,0,0,0,0,0,0,0
1681143945.69984293,101528539,1571,1569,1562,1565,0,0,0,0,0,0,0,0,0,0
1681143945.79980302,101628499,1564,1563,1569,1571,0,0,0,0,0,0,0,0,0,0
1681143945.89976287,101728459,1558,1557,1577,1578,0,0,0,0,0,0,0,0,0,0
1681143945.99972296,101828419,1554,1553,1584,1584,0,0,0,0,0,0,0,0,0,0
1681143946.09968305,101928379,1551,1549,1590,1589,0,0,0,0,0,0,0,0,0,0
1681143946.19964290,102028339,1549,1548,1595,1593,0,0,0,0,0,0,0,0,0,0
1681143946.29960299,102128299,1549,1548,1599,1596,0,0,0,0,0,0,0,0,0,0
1681143946.39956307,102228259,1547,1548,1600,1597,0,0,0,0,0,0,0,0,0,0
1681143946.49952292,102328219,1548,1548,1599,1598,0,0,0,0,0,0,0,0,0,0
1681143946.59948301,102428179,1549,1550,1598,1598,0,0,0,0,0,0,0,0,0,0
1681143946.70027590,102528972,1551,1551,1595,1596,0,0,0,0,0,0,0,0,0,0
1681143946.80023599,102628932,1553,1553,1593,1594,0,0,0,0,0,0,0,0,0,0
1681143946.90019608,102728892,1556,1556,1591,1592,0,0,0,0,0,0,0,0,0,0
1681143947.00015593,102828852,1559,1559,1588,1589,0,0,0,0,0,0,0,0,0,0
1681143947.10011601,102928812,1562,1562,1586,1586,0,0,0,0,0,0,0,0,0,0
1681143947.20007610,103028772,1565,1566,1584,1583,0,0,0,0,0,0,0,0,0,0
1681143947.30003595,103128732,1569,1570,1582,1581,0,0,0,0,0,0,0,0,0,0
1681143947.39999604,103228692,1572,1572,1579,1579,0,0,0,0,0,0,0,0,0,0
1681143947.49995589,103328652,1574,1574,1577,1576,0,0,0,0,0,0,0,0,0,0
1681143947.59991598,103428612,1576,1576,1575,1575,0,0,0,0,0,0,0,0,0,0
1681143947.69987607,103528572,1579,1579,1574,1574,0,0,0,0,0,0,0,0,0,0
1681143947.79983592,103628532,1580,1579,1572,1572,0,0,0,0,0,0,0,0,0,0
1681143947.89979601,103728492,1582,1581,1572,1572,0,0,0,0,0,0,0,0,0,0
1681143947.99975610,103828452,1581,1581,1570,1571,0,0,0,0,0,0,0,0,0,0
1681143948.09971595,103928412,1582,1581,1571,1571,0,0,0,0,0,0,0,0,0,0
1681143948.19967604,104028372,1581,1581,1571,1572,0,0,0,0,0,0,0,0,0,0
1681143948.29963589,104128332,1581,1581,1573,1572,0,0,0,0,0,0,0,0,0,0
1681143948.39959598,104228292,1581,1581,1574,1574,0,0,0,0,0,0,0,0,0,0
1681143948.49955606,104328252,1580,1580,1575,1575,0,0,0,0,0,0,0,0,0,0
1681143948.59951591,104428212,1579,1580,1577,1577,0,0,0,0,0,0,0,0,0,0
1681143948.69947600,104528172,1578,1578,1578,1577,0,0,0,0,0,0,0,0,0,0
1681143948.80026889,104628965,1578,1578,1579,1579,0,0,0,0,0,0,0,0,0,0
1681143948.90022898,104728925,1576,1576,1579,1579,0,0,0,0,0,0,0,0,0,0
1681143949.00018907,104828885,1577,1577,1581,1581,0,0,0,0,0,0,0,0,0,0
1681143949.10014892,104928845,1576,1576,1581,1581,0,0,0,0,0,0,0,0,0,0
1681143949.20010900,105028805,1577,1577,1581,1581,0,0,0,0,0,0,0,0,0,0
1681143949.30006909,105128765,1577,1577,1581,1581,0,0,0,0,0,0,0,0,0,0
1681143949.40002894,105228725,1577,1578,1581,1581,0,0,0,0,0,0,0,0,0,0
1681143949.49998903,105328685,1578,1578,1581,1581,0,0,0,0,0,0,0,0,0,0
1681143949.59994888,105428645,1579,1579,1581,1581,0,0,0,0,0,0,0,0,0,0
1681143949.69990897,105528605,1579,1578,1580,1580,0,0,0,0,0,0,0,0,0,0
1681143949.79986906,105628565,1580,1580,1580,1580,0,0,0,0,0,0,0,0,0,0
1681143949.89982891,105728525,1580,1580,1580,1580,0,0,0,0,0,0,0,0,0,0
1681143949.99978900,105828485,1580,1579,1579,1579,0,0,0,0,0,0,0,0,0,0
1681143950.09974909,105928445,1582,1581,1580,1580,0,0,0,0,0,0,0,0,0,0
1681143950.19970894,106028405,1581,1581,1580,1580,0,0,0,0,0,0,0,0,0,0
1681143950.29966903,106128365,1581,1581,1579,1580,0,0,0,0,0,0,0,0,0,0
1681143950.39962888,106228325,1581,1581,1580,1579,0,0,0,0,0,0,0,0,0,0
1681143950.49958897,106328285,1581,1581,1579,1579,0,0,0,0,0,0,0,0,0,0
1681143950.59954906,106428245,1582,1581,1580,1581,0,0,0,0,0,0,0,0,0,0
1681143950.69950891,106528205,1580,1580,1580,1580,0,0,0,0,0,0,0,0,0,0
1681143950.79946899,106628165,1581,1581,1581,1581,0,0,0,0,0,0,0,0,0,0
1681143950.90026188,106728958,1581,1582,1581,1581,0,0,0,0,0,0,0,0,0,0
1681143951.00022197,106828918,1581,1581,1581,1581,0,0,0,0,0,0,0,0,0,0
1681143951.10018206,106928878,1581,1581,1582,1582,0,0,0,0,0,0,0,0,0,0
1681143951.20014191,107028838,1581,1582,1582,1582,0,0,0,0,0,0,0,0,0,0
1681143951.30010200,107128798,1581,1581,1582,1582,0,0,0,0,0,0,0,0,0,0
1681143951.40006208,107228758,1580,1581,1581,1581,0,0,0,0,0,0,0,0,0,0
1681143951.50002193,107328718,1581,1580,1581,1581,0,0,0,0,0,0,0,0,0,0
1681143951.59998202,107428678,1580,1582,1585,1575,0,0,0,0,0,0,0,0,0,0
1681143951.69994187,107528638,1580,1583,1586,1572,0,0,0,0,0,0,0,0,0,0
1681143951.79990196,107628598,1578,1582,1580,1572,0,0,0,0,0,0,0,0,0,0
1681143951.89986205,107728558,1577,1580,1572,1572,0,0,0,0,0,0,0,0,0,0
1681143951.99982190,107828518,1575,1578,1564,1570,0,0,0,0,0,0,0,0,0,0
1681143952.09978199,107928478,1577,1578,1559,1567,0,0,0,0,0,0,0,0,0,0
1681143952.19974208,108028438,1577,1577,1555,1561,0,0,0,0,0,0,0,0,0,0
1681143952.29970193,108128398,1579,1577,1553,1557,0,0,0,0,0,0,0,0,0,0
1681143952.39966202,108228358,1581,1578,1554,1554,0,0,0,0,0,0,0,0,0,0
1681143952.49962211,108328318,1580,1579,1553,1552,0,0,0,0,0,0,0,0,0,0
1681143952.59958196,108428278,1580,1580,1555,1552,0,0,0,0,0,0,0,0,0,0
1681143952.69954205,108528238,1579,1580,1555,1553,0,0,0,0,0,0,0,0,0,0
1681143952.79950190,108628198,1577,1579,1554,1553,0,0,0,0,0,0,0,0,0,0
1681143952.89946198,108728158,1576,1578,1554,1553,0,0,0,0,0,0,0,0,0,0
1681143953.00025487,108828951,1577,1579,1553,1553,0,0,0,0,0,0,0,0,0,0
1681143953.10021496,108928911,1577,1579,1552,1552,0,0,0,0,0,0,0,0,0,0
1681143953.20017505,109028871,1578,1580,1551,1550,0,0,0,0,0,0,0,0,0,0
1681143953.30013490,109128831,1579,1581,1548,1549,0,0,0,0,0,0,0,0,0,0
1681143953.40009499,109228791,1582,1583,1546,1546,0,0,0,0,0,0,0,0,0,0
1681143953.50005507,109328751,1585,1585,1544,1544,0,0,0,0,0,0,0,0,0,0
1681143953.60001493,109428711,1588,1588,1542,1542,0,0,0,0,0,0,0,0,0,0
1681143953.69997501,109528671,1591,1591,1540,1541,0,0,0,0,0,0,0,0,0,0
1681143953.79993510,109628631,1593,1594,1538,1539,0,0,0,0,0,0,0,0,0,0
1681143953.89989495,109728591,1594,1595,1536,1537,0,0,0,0,0,0,0,0,0,0
1681143953.99985504,109828551,1595,1595,1536,1538,0,0,0,0,0,0,0,0,0,0
1681143954.09981489,109928511,1596,1594,1538,1542,0,0,0,0,0,0,0,0,0,0
1681143954.19977498,110028471,1593,1591,1543,1547,0,0,0,0,0,0,0,0,0,0
1681143954.29973507,110128431,1589,1584,1550,1554,0,0,0,0,0,0,0,0,0,0
1681143954.39969492,110228391,1580,1576,1560,1563,0,0,0,0,0,0,0,0,0,0
1681143954.49965501,110328351,1570,1566,1572,1574,0,0,0,0,0,0,0,0,0,0
1681143954.59961510,110428311,1559,1556,1584,1585,0,0,0,0,0,0,0,0,0,0
1681143954.69957495,110528271,1551,1549,1598,1597,0,0,0,0,0,0,0,0,0,0
1681143954.79953504,110628231,1543,1543,1608,1605,0,0,0,0,0,0,0,0,0,0
1681143954.89949489,110728191,1539,1540,1613,1610,0,0,0,0,0,0,0,0,0,0
1681143955.00028801,110828984,1539,1542,1616,1613,0,0,0,0,0,0,0,0,0,0
1681143955.10024810,110928944,1542,1544,1616,1613,0,0,0,0,0,0,0,0,0,0
1681143955.20020795,111028904,1545,1546,1612,1611,0,0,0,0,0,0,0,0,0,0
1681143955.30016804,111128864,1549,1549,1608,1608,0,0,0,0,0,0,0,0,0,0
1681143955.40012789,111228824,1552,1553,1603,1603,0,0,0,0,0,0,0,0,0,0
1681143955.50008798,111328784,1556,1556,1596,1597,0,0,0,0,0,0,0,0,0,0
1681143955.60004807,111428744,1562,1562,1591,1592,0,0,0,0,0,0,0,0,0,0
1681143955.70000792,111528704,1566,1566,1585,1586,0,0,0,0,0,0,0,0,0,0
1681143955.79996800,111628664,1570,1570,1578,1579,0,0,0,0,0,0,0,0,0,0
1681143955.89992809,111728624,1575,1575,1572,1574,0,0,0,0,0,0,0,0,0,0
1681143955.99988794,111828584,1579,1579,1567,1568,0,0,0,0,0,0,0,0,0,0
1681143956.09984803,111928544,1582,1582,1564,1565,0,0,0,0,0,0,0,0,0,0
1681143956.19980788,112028504,1585,1584,1562,1563,0,0,0,0,0,0,0,0,0,0
1681143956.29976797,112128464,1586,1584,1563,1564,0,0,0,0,0,0,0,0,0,0
1681143956.39972806,112228424,1585,1585,1565,1565,0,0,0,0,0,0,0,0,0,0
1681143956.49968791,112328384,1585,1583,1568,1568,0,0,0,0,0,0,0,0,0,0
1681143956.59964800,112428344,1582,1581,1571,1571,0,0,0,0,0,0,0,0,0,0
1681143956.69960809,112528304,1580,1580,1575,1574,0,0,0,0,0,0,0,0,0,0
1681143956.79956794,112628264,1577,1577,1578,1577,0,0,0,0,0,0,0,0,0,0
1681143956.89952803,112728224,1575,1575,1580,1579,0,0,0,0,0,0,0,0,0,0
1681143956.99948788,112828184,1573,1574,1583,1582,0,0,0,0,0,0,0,0,0,0
1681143957.10028100,112928977,1573,1574,1585,1584,0,0,0,0,0,0,0,0,0,0
1681143957.20024109,113028937,1573,1574,1586,1585,0,0,0,0,0,0,0,0,0,0
1681143957.30020094,113128897,1573,1574,1586,1585,0,0,0,0,0,0,0,0,0,0
1681143957.40016103,113228857,1573,1574,1584,1584,0,0,0,0,0,0,0,0,0,0
1681143957.50012088,113328817,1575,1574,1583,1583,0,0,0,0,0,0,0,0,0,0
1681143957.60008097,113428777,1576,1576,1582,1582,0,0,0,0,0,0,0,0,0,0
1681143957.70004106,113528737,1578,1578,1581,1581,0,0,0,0,0,0,0,0,0,0
1681143957.80000091,113628697,1579,1579,1579,1579,0,0,0,0,0,0,0,0,0,0
1681143957.89996099,113728657,1580,1579,1578,1578,0,0,0,0,0,0,0,0,0,0
1681143957.99992108,113828617,1581,1581,1578,1578,0,0,0,0,0,0,0,0,0,0
1681143958.09988093,113928577,1581,1580,1576,1577,0,0,0,0,0,0,0,0,0,0
1681143958.19984102,114028537,1582,1582,1577,1577,0,0,0,0,0,0,0,0,0,0
1681143958.29980087,114128497,1581,1582,1577,1577,0,0,0,0,0,0,0,0,0,0
1681143958.39976096,114228457,1582,1582,1578,1578,0,0,0,0,0,0,0,0,0,0
1681143958.49972105,114328417,1582,1581,1578,1578,0,0,0,0,0,0,0,0,0,0
1681143958.59968090,114428377,1582,1581,1579,1579,0,0,0,0,0,0,0,0,0,0
1681143958.69964099,114528337,1582,1581,1580,1580,0,0,0,0,0,0,0,0,0,0
1681143958.79960108,114628297,1581,1581,1580,1580,0,0,0,0,0,0,0,0,0,0
1681143958.89956093,114728257,1581,1581,1581,1582,0,0,0,0,0,0,0,0,0,0
1681143958.99952102,114828217,1580,1580,1582,1581,0,0,0,0,0,0,0,0,0,0
1681143959.09948111,114928177,1580,1581,1582,1582,0,0,0,0,0,0,0,0,0,0
1681143959.20027399,115028970,1579,1580,1582,1582,0,0,0,0,0,0,0,0,0,0
1681143959.30023408,115128930,1580,1580,1582,1582,0,0,0,0,0,0,0,0,0,0
1681143959.40019393,115228890,1580,1580,1582,1582,0,0,0,0,0,0,0,0,0,0
1681143959.50015402,115328850,1580,1581,1586,1574,0,0,0,0,0,0,0,0,0,0
1681143959.60011387,115428810,1579,1581,1586,1572,0,0,0,0,0,0,0,0,0,0
1681143959.70007396,115528770,1578,1578,1581,1575,0,0,0,0,0,0,0,0,0,0
1681143959.80003405,115628730,1574,1573,1573,1575,0,0,0,0,0,0,0,0,0,0
1681143959.89999390,115728690,1571,1570,1568,1575,0,0,0,0,0,0,0,0,0,0
1681143959.99995399,115828650,1569,1568,1566,1573,0,0,0,0,0,0,0,0,0,0
1681143960.09991407,115928610,1566,1566,1563,1570,0,0,0,0,0,0,0,0,0,0
1681143960.19987392,116028570,1567,1566,1564,1567,0,0,0,0,0,0,0,0,0,0
1681143960.29983401,116128530,1567,1566,1565,1565,0,0,0,0,0,0,0,0,0,0
1681143960.39979410,116228490,1566,1566,1565,1563,0,0,0,0,0,0,0,0,0,0
1681143960.49975395,116328450,1565,1565,1565,1562,0,0,0,0,0,0,0,0,0,0
1681143960.59971404,116428410,1566,1566,1566,1563,0,0,0,0,0,0,0,0,0,0
1681143960.69967389,116528370,1565,1565,1565,1563,0,0,0,0,0,0,0,0,0,0
1681143960.79963398,116628330,1563,1563,1564,1562,0,0,0,0,0,0,0,0,0,0
1681143960.89959407,116728290,1562,1562,1562,1563,0,0,0,0,0,0,0,0,0,0
1681143960.99955392,116828250,1561,1561,1561,1562,0,0,0,0,0,0,0,0,0,0
1681143961.09951401,116928210,1560,1560,1560,1561,0,0,0,0,0,0,0,0,0,0
1681143961.19947410,117028170,1559,1559,1560,1560,0,0,0,0,0,0,0,0,0,0
1681143961.30026698,117128963,1560,1560,1561,1561,0,0,0,0,0,0,0,0,0,0
1681143961.40022707,117228923,1559,1559,1560,1559,0,0,0,0,0,0,0,0,0,0
1681143961.50018692,117328883,1558,1559,1560,1559,0,0,0,0,0,0,0,0,0,0
1681143961.60014701,117428843,1558,1558,1559,1558,0,0,0,0,0,0,0,0,0,0
1681143961.70010710,117528803,1559,1559,1559,1558,0,0,0,0,0,0,0,0,0,0
1681143961.80006695,117628763,1558,1558,1559,1557,0,0,0,0,0,0,0,0,0,0
1681143961.90002704,117728723,1558,1558,1558,1557,0,0,0,0,0,0,0,0,0,0
1681143961.99998689,117828683,1556,1556,1558,1555,0,0,0,0,0,0,0,0,0,0
1681143962.09994698,117928643,1558,1557,1558,1556,0,0,0,0,0,0,0,0,0,0
1681143962.19990706,118028603,1555,1555,1557,1553,0,0,0,0,0,0,0,0,0,0
1681143962.29986691,118128563,1551,1551,1552,1552,0,0,0,0,0,0,0,0,0,0
1681143962.39982700,118228523,1547,1547,1547,1550,0,0,0,0,0,0,0,0,0,0
1681143962.49978709,118328483,1542,1542,1541,1547,0,0,0,0,0,0,0,0,0,0
1681143962.59974694,118428443,1536,1536,1535,1541,0,0,0,0,0,0,0,0,0,0
1681143962.69970703,118528403,1529,1529,1529,1533,0,0,0,0,0,0,0,0,0,0
1681143962.79966688,118628363,1523,1522,1524,1525,0,0,0,0,0,0,0,0,0,0
1681143962.89962697,118728323,1521,1520,1521,1522,0,0,0,0,0,0,0,0,0,0
1681143962.99958706,118828283,1522,1521,1520,1522,0,0,0,0,0,0,0,0,0,0
1681143963.09954691,118928243,1524,1524,1521,1523,0,0,0,0,0,0,0,0,0,0
1681143963.19950700,119028203,1526,1527,1523,1524,0,0,0,0,0,0,0,0,0,0
1681143963.29946709,119128163,1530,1531,1526,1527,0,0,0,0,0,0,0,0,0,0
1681143963.40025997,119228956,1535,1535,1530,1531,0,0,0,0,0,0,0,0,0,0
1681143963.50022006,119328916,1539,1539,1534,1535,0,0,0,0,0,0,0,0,0,0
1681143963.60017991,119428876,1541,1542,1538,1538,0,0,0,0,0,0,0,0,0,0
1681143963.70014000,119528836,1542,1543,1541,1540,0,0,0,0,0,0,0,0,0,0
1681143963.80010009,119628796,1545,1545,1544,1543,0,0,0,0,0,0,0,0,0,0
1681143963.90005994,119728756,1545,1544,1545,1544,0,0,0,0,0,0,0,0,0,0
1681143964.00002003,119828716,1545,1545,1547,1546,0,0,0,0,0,0,0,0,0,0
1681143964.09997988,119928676,1545,1546,1547,1547,0,0,0,0,0,0,0,0,0,0
1681143964.19993997,120028636,1545,1545,1548,1548,0,0,0,0,0,0,0,0,0,0
1681143964.29990005,120128596,1545,1545,1548,1548,0,0,0,0,0,0,0,0,0,0
1681143964.39985991,120228556,1545,1545,1548,1548,0,0,0,0,0,0,0,0,0,0
1681143964.49981999,120328516,1545,1545,1548,1547,0,0,0,0,0,0,0,0,0,0
1681143964.59978008,120428476,1545,1545,1547,1547,0,0,0,0,0,0,0,0,0,0
1681143964.69973993,120528436,1545,1545,1546,1546,0,0,0,0,0,0,0,0,0,0
1681143964.79970002,120628396,1545,1546,1546,1547,0,0,0,0,0,0,0,0,0,0
1681143964.89965987,120728356,1546,1546,1546,1546,0,0,0,0,0,0,0,0,0,0
1681143964.99961996,120828316,1546,1547,1546,1546,0,0,0,0,0,0,0,0,0,0
1681143965.09958005,120928276,1546,1546,1545,1545,0,0,0,0,0,0,0,0,0,0
1681143965.19953990,121028236,1545,1546,1545,1545,0,0,0,0,0,0,0,0,0,0
1681143965.29949999,121128196,1546,1546,1545,1545,0,0,0,0,0,0,0,0,0,0
1681143965.39946008,121228156,1546,1545,1545,1545,0,0,0,0,0,0,0,0,0,0
1681143965.50025296,121328949,1546,1545,1545,1545,0,0,0,0,0,0,0,0,0,0
1681143965.60021305,121428909,1545,1545,1544,1544,0,0,0,0,0,0,0,0,0,0
1681143965.70017290,121528869,1544,1544,1544,1544,0,0,0,0,0,0,0,0,0,0
1681143965.80013299,121628829,1544,1544,1544,1544,0,0,0,0,0,0,0,0,0,0
1681143965.90009308,121728789,1543,1543,1543,1543,0,0,0,0,0,0,0,0,0,0
1681143966.00005293,121828749,1544,1544,1544,1544,0,0,0,0,0,0,0,0,0,0
1681143966.10001302,121928709,1543,1543,1544,1544,0,0,0,0,0,0,0,0,0,0
1681143966.19997311,122028669,1544,1544,1544,1544,0,0,0,0,0,0,0,0,0,0
1681143966.29993296,122128629,1544,1544,1544,1544,0,0,0,0,0,0,0,0,0,0
1681143966.39989305,122228589,1544,1544,1544,1544,0,0,0,0,0,0,0,0,0,0
1681143966.49985290,122328549,1544,1543,1544,1544,0,0,0,0,0,0,0,0,0,0
1681143966.59981298,122428509,1544,1544,1544,1544,0,0,0,0,0,0,0,0,0,0
1681143966.69977307,122528469,1543,1543,1544,1543,0,0,0,0,0,0,0,0,0,0
1681143966.79973292,122628429,1544,1544,1544,1544,0,0,0,0,0,0,0,0,0,0
1681143966.89969301,122728389,1545,1545,1544,1545,0,0,0,0,0,0,0,0,0,0
1681143966.99965310,122828349,1544,1545,1544,1544,0,0,0,0,0,0,0,0,0,0
1681143967.09961295,122928309,1544,1545,1544,1545,0,0,0,0,0,0,0,0,0,0
1681143967.19957304,123028269,1545,1546,1545,1545,0,0,0,0,0,0,0,0,0,0
1681143967.29953289,123128229,1544,1544,1544,1544,0,0,0,0,0,0,0,0,0,0
1681143967.39949298,123228189,1544,1544,1544,1544,0,0,0,0,0,0,0,0,0,0
1681143967.50028610,123328982,1544,1544,1544,1544,0,0,0,0,0,0,0,0,0,0
1681143967.60024595,123428942,1543,1544,1544,1543,0,0,0,0,0,0,0,0,0,0
1681143967.70020604,123528902,1543,1544,1544,1544,0,0,0,0,0,0,0,0,0,0
1681143967.80016589,123628862,1544,1544,1544,1544,0,0,0,0,0,0,0,0,0,0
1681143967.90012598,123728822,1545,1544,1544,1545,0,0,0,0,0,0,0,0,0,0
1681143968.00008607,123828782,1544,1544,1544,1544,0,0,0,0,0,0,0,0,0,0
1681143968.10004592,123928742,1545,1544,1544,1544,0,0,0,0,0,0,0,0,0,0
1681143968.20000601,124028702,1544,1545,1544,1545,0,0,0,0,0,0,0,0,0,0
1681143968.29996610,124128662,1545,1545,1544,1545,0,0,0,0,0,0,0,0,0,0
1681143968.39992595,124228622,1545,1545,1545,1544,0,0,0,0,0,0,0,0,0,0
1681143968.49988604,124328582,1545,1545,1545,1544,0,0,0,0,0,0,0,0,0,0
1681143968.59984589,124428542,1545,1545,1545,1545,0,0,0,0,0,0,0,0,0,0
1681143968.69980597,124528502,1544,1544,1544,1544,0,0,0,0,0,0,0,0,0,0
1681143968.79976606,124628462,1545,1544,1545,1545,0,0,0,0,0,0,0,0,0,0
1681143968.89972591,124728422,1545,1544,1545,1545,0,0,0,0,0,0,0,0,0,0
1681143968.99968600,124828382,1544,1545,1545,1545,0,0,0,0,0,0,0,0,0,0
1681143969.09964609,124928342,1545,1544,1544,1545,0,0,0,0,0,0,0,0,0,0
1681143969.19960594,125028302,1545,1545,1545,1545,0,0,0,0,0,0,0,0,0,0
1681143969.29956603,125128262,1543,1543,1543,1544,0,0,0,0,0,0,0,0,0,0
1681143969.39952588,125228222,1544,1544,1544,1544,0,0,0,0,0,0,0,0,0,0
1681143969.49948597,125328182,1544,1544,1544,1544,0,0,0,0,0,0,0,0,0,0
1681143969.60027909,125428975,1544,1544,1544,1544,0,0,0,0,0,0,0,0,0,0
1681143969.70023894,125528935,1544,1544,1544,1544,0,0,0,0,0,0,0,0,0,0
1681143969.80019903,125628895,1544,1544,1544,1544,0,0,0,0,0,0,0,0,0,0
1681143969.90015888,125728855,1544,1544,1544,1545,0,0,0,0,0,0,0,0,0,0
1681143970.00011897,125828815,1544,1544,1544,1544,0,0,0,0,0,0,0,0,0,0
1681143970.10007906,125928775,1545,1544,1544,1544,0,0,0,0,0,0,0,0,0,0
1681143970.20003891,126028735,1545,1545,1545,1544,0,0,0,0,0,0,0,0,0,0
1681143970.29999900,126128695,1546,1545,1545,1545,0,0,0,0,0,0,0,0,0,0
1681143970.39995909,126228655,1544,1545,1544,1544,0,0,0,0,0,0,0,0,0,0
1681143970.49991894,126328615,1544,1544,1544,1544,0,0,0,0,0,0,0,0,0,0
1681143970.59987903,126428575,1543,1543,1544,1543,0,0,0,0,0,0,0,0,0,0
1681143970.69983888,126528535,1544,1543,1543,1544,0,0,0,0,0,0,0,0,0,0
1681143970.79979897,126628495,1544,1544,1544,1544,0,0,0,0,0,0,0,0,0,0
1681143970.89975905,126728455,1544,1545,1545,1545,0,0,0,0,0,0,0,0,0,0
1681143970.99971890,126828415,1544,1544,1544,1544,0,0,0,0,0,0,0,0,0,0
1681143971.09967899,126928375,1544,1544,1544,1544,0,0,0,0,0,0,0,0,0,0
1681143971.19963908,127028335,1543,1544,1544,1543,0,0,0,0,0,0,0,0,0,0
1681143971.29959893,127128295,1545,1545,1544,1545,0,0,0,0,0,0,0,0,0,0
1681143971.39955902,127228255,1545,1545,1545,1545,0,0,0,0,0,0,0,0,0,0
1681143971.49951887,127328215,1545,1544,1544,1545,0,0,0,0,0,0,0,0,0,0
1681143971.59947896,127428175,1544,1544,1544,1544,0,0,0,0,0,0,0,0,0,0
1681143971.70027208,127528968,1544,1544,1544,1544,0,0,0,0,0,0,0,0,0,0
1681143971.80023193,127628928,1544,1544,1544,1544,0,0,0,0,0,0,0,0,0,0
1681143971.90019202,127728888,1544,1544,1544,1544,0,0,0,0,0,0,0,0,0,0
1681143972.00015187,127828848,1544,1544,1544,1544,0,0,0,0,0,0,0,0,0,0
1681143972.10011196,127928808,1544,1544,1544,1544,0,0,0,0,0,0,0,0,0,0
1681143972.20007205,128028768,1544,1544,1544,1544,0,0,0,0,0,0,0,0,0,0
1681143972.30003190,128128728,1544,1544,1544,1544,0,0,0,0,0,0,0,0,0,0
1681143972.39999199,128228688,1545,1544,1545,1544,0,0,0,0,0,0,0,0,0,0
1681143972.49995208,128328648,1545,1545,1544,1545,0,0,0,0,0,0,0,0,0,0
1681143972.59991193,128428608,1426,1427,1462,1427,0,0,0,0,0,0,0,0,0,0
1681143972.69987202,128528568,1279,1279,1370,1281,0,0,0,0,0,0,0,0,0,0
1681143972.79983211,128628528,1221,1222,1338,1222,0,0,0,0,0,0,0,0,0,0
1681143972.89979196,128728488,1201,1202,1328,1203,0,0,0,0,0,0,0,0,0,0
1681143972.99975204,128828448,1168,1169,1312,1170,0,0,0,0,0,0,0,0,0,0
1681143973.09971189,128928408,1175,1175,1229,1150,0,0,0,0,0,0,0,0,0,0
1681143973.19967198,129028368,1165,1166,1112,1150,0,0,0,0,0,0,0,0,0,0
1681143973.29963207,129128328,1166,1166,1112,1150,0,0,0,0,0,0,0,0,0,0
1681143973.39959192,129228288,1165,1167,1112,1150,0,0,0,0,0,0,0,0,0,0
1681143973.49955201,129328248,1173,1150,1113,1157,0,0,0,0,0,0,0,0,0,0
1681143973.59951210,129428208,1166,1150,1122,1150,0,0,0,0,0,0,0,0,0,0
1681143973.69947195,129528168,1165,1154,1120,1150,0,0,0,0,0,0,0,0,0,0
1681143973.80026507,129628961,1164,1155,1120,1150,0,0,0,0,0,0,0,0,0,0
1681143973.90022492,129728921,1164,1154,1120,1150,0,0,0,0,0,0,0,0,0,0
1681143974.00018501,129828881,1163,1154,1121,1150,0,0,0,0,0,0,0,0,0,0
1681143974.10014510,129928841,1163,1152,1122,1150,0,0,0,0,0,0,0,0,0,0
1681143974.20010495,130028801,1163,1152,1123,1150,0,0,0,0,0,0,0,0,0,0
1681143974.30006504,130128761,1162,1162,1117,1150,0,0,0,0,0,0,0,0,0,0
1681143974.40002489,130228721,1162,1161,1118,1150,0,0,0,0,0,0,0,0,0,0
1681143974.49998498,130328681,1162,1160,1118,1150,0,0,0,0,0,0,0,0,0,0
1681143974.59994507,130428641,1162,1160,1118,1150,0,0,0,0,0,0,0,0,0,0
1681143974.69990492,130528601,1162,1160,1118,1150,0,0,0,0,0,0,0,0,0,0
1681143974.79986501,130628561,1000,1000,1000,1000,0,0,0,0,0,0,0,0,0,0
1681143974.89982510,130728521,1000,1000,1000,1000,0,0,0,0,0,0,0,0,0,0
1681143974.99978495,130828481,1000,1000,1000,1000,0,0,0,0,0,0,0,0,0,0
1681143975.09974504,130928441,1000,1000,1000,1000,0,0,0,0,0,0,0,0,0,0
1681143975.19970489,131028401,1000,1000,1000,1000,0,0,0,0,0,0,0,0,0,0
1681143975.29966497,131128361,1000,1000,1000,1000,0,0,0,0,0,0,0,0,0,0
1681143975.39962506,131228321,1000,1000,1000,1000,0,0,0,0,0,0,0,0,0,0
1681143975.49958491,131328281,1000,1000,1000,1000,0,0,0,0,0,0,0,0,0,0
1681143975.59954500,131428241,1000,1000,1000,1000,0,0,0,0,0,0,0,0,0,0
1681143975.69950509,131528201,1000,1000,1000,1000,0,0,0,0,0,0,0,0,0,0
1681143975.79946494,131628161,1000,1000,1000,1000,0,0,0,0,0,0,0,0,0,0
1681143975.90025806,131728954,1000,1000,1000,1000,0,0,0,0,0,0,0,0,0,0
1681143976.00021791,131828914,1000,1000,1000,1000,0,0,0,0,0,0,0,0,0,0
1681143976.10017800,131928874,1000,1000,1000,1000,0,0,0,0,0,0,0,0,0,0
1681143976.20013809,132028834,1000,1000,1000,1000,0,0,0,0,0,0,0,0,0,0
1681143976.30009794,132128794,1000,1000,1000,1000,0,0,0,0,0,0,0,0,0,0
1681143976.40005803,132228754,1000,1000,1000,1000,0,0,0,0,0,0,0,0,0,0
1681143976.50001788,132328714,1000,1000,1000,1000,0,0,0,0,0,0,0,0,0,0
1681143976.59997797,132428674,1000,1000,1000,1000,0,0,0,0,0,0,0,0,0,0
1681143976.69993806,132528634,1000,1000,1000,1000,0,0,0,0,0,0,0,0,0,0
1681143976.79989791,132628594,1000,1000,1000,1000,0,0,0,0,0,0,0,0,0,0
1681143976.89985800,132728554,1000,1000,1000,1000,0,0,0,0,0,0,0,0,0,0
1681143976.99981809,132828514,1000,1000,1000,1000,0,0,0,0,0,0,0,0,0,0
1681143977.09977794,132928474,1000,1000,1000,1000,0,0,0,0,0,0,0,0,0,0
1681143977.19973803,133028434,1000,1000,1000,1000,0,0,0,0,0,0,0,0,0,0
1681143977.29969788,133128394,1000,1000,1000,1000,0,0,0,0,0,0,0,0,0,0
1681143977.39965796,133228354,1000,1000,1000,1000,0,0,0,0,0,0,0,0,0,0
1681143977.49961805,133328314,1000,1000,1000,1000,0,0,0,0,0,0,0,0,0,0
1681143977.59957790,133428274,1000,1000,1000,1000,0,0,0,0,0,0,0,0,0,0
1681143977.69953799,133528234,1000,1000,1000,1000,0,0,0,0,0,0,0,0,0,0
1681143977.79949808,133628194,1000,1000,1000,1000,0,0,0,0,0,0,0,0,0,0
1681143977.89945793,133728154,1000,1000,1000,1000,0,0,0,0,0,0,0,0,0,0
1681143978.00025105,133828947,1000,1000,1000,1000,0,0,0,0,0,0,0,0,0,0
1681143978.10021091,133928907,1000,1000,1000,1000,0,0,0,0,0,0,0,0,0,0
1681143978.20017099,134028867,1000,1000,1000,1000,0,0,0,0,0,0,0,0,0,0
1681143978.30013108,134128827,1000,1000,1000,1000,0,0,0,0,0,0,0,0,0,0
1681143978.40009093,134228787,1000,1000,1000,1000,0,0,0,0,0,0,0,0,0,0
1681143978.50005102,134328747,1000,1000,1000,1000,0,0,0,0,0,0,0,0,0,0
1681143978.60001087,134428707,1000,1000,1000,1000,0,0,0,0,0,0,0,0,0,0
1681143978.69997096,134528667,1000,1000,1000,1000,0,0,0,0,0,0,0,0,0,0
1681143978.79993105,134628627,1000,1000,1000,1000,0,0,0,0,0,0,0,0,0,0
1681143978.89989090,134728587,1000,1000,1000,1000,0,0,0,0,0,0,0,0,0,0
1681143978.99985099,134828547,1000,1000,1000,1000,0,0,0,0,0,0,0,0,0,0
1681143979.09981108,134928507,1000,1000,1000,1000,0,0,0,0,0,0,0,0,0,0
1681143979.19977093,135028467,1000,1000,1000,1000,0,0,0,0,0,0,0,0,0,0
1681143979.29973102,135128427,1000,1000,1000,1000,0,0,0,0,0,0,0,0,0,0
1681143979.39969110,135228387,1000,1000,1000,1000,0,0,0,0,0,0,0,0,0,0
1681143979.49965096,135328347,1000,1000,1000,1000,0,0,0,0,0,0,0,0,0,0
1681143979.59961104,135428307,1000,1000,1000,1000,0,0,0,0,0,0,0,0,0,0
1681143979.69957089,135528267,1000,1000,1000,1000,0,0,0,0,0,0,0,0,0,0
1681143979.79953098,135628227,1000,1000,1000,1000,0,0,0,0,0,0,0,0,0,0
1681143979.89949107,135728187,1000,1000,1000,1000,0,0,0,0,0,0,0,0,0,0
1681143980.00028396,135828980,1000,1000,1000,1000,0,0,0,0,0,0,0,0,0,0
1681143980.10024405,135928940,1000,1000,1000,1000,0,0,0,0,0,0,0,0,0,0
1681143980.20020390,136028900,1000,1000,1000,1000,0,0,0,0,0,0,0,0,0,0
1681143980.30016398,136128860,1000,1000,1000,1000,0,0,0,0,0,0,0,0,0,0
1681143980.40012407,136228820,1000,1000,1000,1000,0,0,0,0,0,0,0,0,0,0
1681143980.50008392,136328780,1000,1000,1000,1000,0,0,0,0,0,0,0,0,0,0
1681143980.60004401,136428740,1000,1000,1000,1000,0,0,0,0,0,0,0,0,0,0
1681143980.70000410,136528700,1000,1000,1000,1000,0,0,0,0,0,0,0,0,0,0
1681143980.79996395,136628660,1000,1000,1000,1000,0,0,0,0,0,0,0,0,0,0
1681143980.89992404,136728620,1000,1000,1000,1000,0,0,0,0,0,0,0,0,0,0
1681143980.99988389,136828580,1000,1000,1000,1000,0,0,0,0,0,0,0,0,0,0
1681143981.09984398,136928540,1000,1000,1000,1000,0,0,0,0,0,0,0,0,0,0
1681143981.19980407,137028500,1000,1000,1000,1000,0,0,0,0,0,0,0,0,0,0
1681143981.29976392,137128460,1000,1000,1000,1000,0,0,0,0,0,0,0,0,0,0
1681143981.39972401,137228420,1000,1000,1000,1000,0,0,0,0,0,0,0,0,0,0
1681143981.49968410,137328380,1000,1000,1000,1000,0,0,0,0,0,0,0,0,0,0
1681143981.59964395,137428340,1000,1000,1000,1000,0,0,0,0,0,0,0,0,0,0
1681143981.69960403,137528300,1000,1000,1000,1000,0,0,0,0,0,0,0,0,0,0
1681143981.79956388,137628260,1000,1000,1000,1000,0,0,0,0,0,0,0,0,0,0
1681143981.89952397,137728220,1000,1000,1000,1000,0,0,0,0,0,0,0,0,0,0
1681143981.99948406,137828180,1000,1000,1000,1000,0,0,0,0,0,0,0,0,0,0
1681143982.10027695,137928973,1000,1000,1000,1000,0,0,0,0,0,0,0,0,0,0
1681143982.20023704,138028933,1000,1000,1000,1000,0,0,0,0,0,0,0,0,0,0
1681143982.30019689,138128893,1000,1000,1000,1000,0,0,0,0,0,0,0,0,0,0
1681143982.40015697,138228853,1000,1000,1000,1000,0,0,0,0,0,0,0,0,0,0
1681143982.50011706,138328813,1000,1000,1000,1000,0,0,0,0,0,0,0,0,0,0
1681143982.60007691,138428773,1000,1000,1000,1000,0,0,0,0,0,0,0,0,0,0
1681143982.70003700,138528733,1000,1000,1000,1000,0,0,0,0,0,0,0,0,0,0
1681143982.79999709,138628693,1000,1000,1000,1000,0,0,0,0,0,0,0,0,0,0
1681143982.89995694,138728653,1000,1000,1000,1000,0,0,0,0,0,0,0,0,0,0
1681143982.99991703,138828613,1000,1000,1000,1000,0,0,0,0,0,0,0,0,0,0
1681143983.09987688,138928573,1000,1000,1000,1000,0,0,0,0,0,0,0,0,0,0
1681143983.19983697,139028533,1000,1000,1000,1000,0,0,0,0,0,0,0,0,0,0
