TimeUS,M1,M2,M3,M4,TimeUS,C1,C2,C3,C4
51948379,1000,1000,1000,1000,52028347,1000,1000,1000,1000
51950878,1000,1000,1000,1000,52128307,1000,1000,1000,1000
51953377,1000,1000,1000,1000,52228267,1000,1000,1000,1000
51955876,1000,1000,1000,1000,52328227,1000,1000,1000,1000
51958375,1000,1000,1000,1000,52428187,1000,1000,1000,1000
51960874,1000,1000,1000,1000,52528980,1000,1000,1000,1000
51963373,1000,1000,1000,1000,52628940,1000,1000,1000,1000
51965872,1000,1000,1000,1000,52728900,1000,1000,1000,1000
51968371,1000,1000,1000,1000,52828860,1000,1000,1000,1000
51970870,1000,1000,1000,1000,52928820,1000,1000,1000,1000
51973369,1000,1000,1000,1000,53028780,1000,1000,1000,1000
51975868,1000,1000,1000,1000,53128740,1000,1000,1000,1000
51978367,1000,1000,1000,1000,53228700,1000,1000,1000,1000
51980866,1000,1000,1000,1000,53328660,1000,1000,1000,1000
51983365,1000,1000,1000,1000,53428620,1000,1000,1000,1000
51985864,1000,1000,1000,1000,53528580,1000,1000,1000,1000
51988363,1000,1000,1000,1000,53628540,1000,1000,1000,1000
51990862,1000,1000,1000,1000,53728500,1000,1000,1000,1000
51993361,1000,1000,1000,1000,53828460,1000,1000,1000,1000
51995860,1000,1000,1000,1000,53928420,1000,1000,1000,1000
51998359,1000,1000,1000,1000,54028380,1024,1024,1024,1024
52000858,1000,1000,1000,1000,54128340,1054,1054,1054,1054
52003357,1000,1000,1000,1000,54228300,1084,1084,1084,1084
52005856,1000,1000,1000,1000,54328260,1113,1113,1113,1113
52008355,1000,1000,1000,1000,54428220,1143,1143,1143,1143
52010854,1000,1000,1000,1000,54528180,1357,1351,1351,1358
52013353,1000,1000,1000,1000,54628973,1546,1541,1542,1547
52015852,1000,1000,1000,1000,54728933,1699,1694,1695,1699
52018351,1000,1000,1000,1000,54828893,1830,1825,1826,1830
52020850,1000,1000,1000,1000,54928853,1901,1896,1896,1901
52023349,1000,1000,1000,1000,55028813,1845,1843,1843,1845
52025848,1000,1000,1000,1000,55128773,1718,1716,1716,1719
52028347,1000,1000,1000,1000,55228733,1642,1644,1639,1647
52030846,1000,1000,1000,1000,55328693,1627,1630,1626,1632
52033345,1000,1000,1000,1000,55428653,1635,1637,1635,1636
52035844,1000,1000,1000,1000,55528613,1639,1641,1642,1638
52038343,1000,1000,1000,1000,55628573,1637,1638,1640,1635
52040842,1000,1000,1000,1000,55728533,1631,1631,1633,1629
52043341,1000,1000,1000,1000,55828493,1625,1624,1626,1623
52045840,1000,1000,1000,1000,55928453,1622,1621,1622,1620
52048339,1000,1000,1000,1000,56028413,1620,1619,1620,1619
52050838,1000,1000,1000,1000,56128373,1594,1594,1599,1588
52053337,1000,1000,1000,1000,56228333,1578,1578,1585,1571
52055836,1000,1000,1000,1000,56328293,1566,1567,1568,1564
52058335,1000,1000,1000,1000,56428253,1557,1558,1556,1560
52060834,1000,1000,1000,1000,56528213,1550,1550,1546,1554
52063333,1000,1000,1000,1000,56628173,1543,1543,1535,1550
52065832,1000,1000,1000,1000,56728966,1537,1536,1529,1544
52068331,1000,1000,1000,1000,56828926,1532,1531,1527,1535
52070830,1000,1000,1000,1000,56928886,1527,1527,1526,1528
52073329,1000,1000,1000,1000,57028846,1526,1526,1527,1525
52075828,1000,1000,1000,1000,57128806,1527,1527,1529,1525
52078327,1000,1000,1000,1000,57228766,1530,1530,1533,1527
52080826,1000,1000,1000,1000,57328726,1534,1534,1537,1532
52083325,1000,1000,1000,1000,57428686,1537,1538,1539,1536
52085824,1000,1000,1000,1000,57528646,1541,1542,1543,1541
52088323,1000,1000,1000,1000,57628606,1544,1545,1545,1544
52090822,1000,1000,1000,1000,57728566,1548,1548,1548,1548
52093321,1000,1000,1000,1000,57828526,1551,1551,1551,1551
52095820,1000,1000,1000,1000,57928486,1554,1553,1552,1554
52098319,1000,1000,1000,1000,58028446,1556,1555,1554,1557
52100818,1000,1000,1000,1000,58128406,1555,1554,1560,1563
52103317,1000,1000,1000,1000,58228366,1555,1555,1563,1564
52105816,1000,1000,1000,1000,58328326,1558,1558,1565,1565
52108315,1000,1000,1000,1000,58428286,1561,1561,1566,1565
52110814,1000,1000,1000,1000,58528246,1564,1564,1566,1566
52113313,1000,1000,1000,1000,58628206,1566,1566,1566,1565
52115812,1000,1000,1000,1000,58728166,1568,1567,1565,1565
52118311,1000,1000,1000,1000,58828959,1569,1569,1566,1566
52120810,1000,1000,1000,1000,58928919,1570,1570,1565,1565
52123309,1000,1000,1000,1000,59028879,1571,1571,1566,1567
52125808,1000,1000,1000,1000,59128839,1572,1572,1567,1568
52128307,1000,1000,1000,1000,59228799,1573,1573,1569,1569
52130806,1000,1000,1000,1000,59328759,1573,1572,1570,1570
52133305,1000,1000,1000,1000,59428719,1573,1573,1571,1571
52135804,1000,1000,1000,1000,59528679,1573,1574,1573,1572
52138303,1000,1000,1000,1000,59628639,1575,1575,1576,1574
52140802,1000,1000,1000,1000,59728599,1575,1575,1576,1575
52143301,1000,1000,1000,1000,59828559,1575,1575,1577,1576
52145800,1000,1000,1000,1000,59928519,1576,1576,1578,1577
52148299,1000,1000,1000,1000,60028479,1575,1575,1576,1576
52150798,1000,1000,1000,1000,60128439,1575,1575,1576,1577
52153297,1000,1000,1000,1000,60228399,1575,1575,1576,1577
52155796,1000,1000,1000,1000,60328359,1576,1576,1577,1577
52158295,1000,1000,1000,1000,60428319,1577,1577,1577,1577
52160794,1000,1000,1000,1000,60528279,1578,1577,1578,1577
52163293,1000,1000,1000,1000,60628239,1578,1577,1577,1577
52165792,1000,1000,1000,1000,60728199,1578,1578,1577,1578
52168291,1000,1000,1000,1000,60828159,1578,1579,1578,1578
52170790,1000,1000,1000,1000,60928952,1579,1579,1578,1578
52173289,1000,1000,1000,1000,61028912,1578,1578,1578,1577
52175788,1000,1000,1000,1000,61128872,1578,1578,1578,1578
52178287,1000,1000,1000,1000,61228832,1579,1579,1578,1578
52180786,1000,1000,1000,1000,61328792,1579,1579,1578,1578
52183285,1000,1000,1000,1000,61428752,1578,1579,1578,1578
52185784,1000,1000,1000,1000,61528712,1578,1578,1579,1579
52188283,1000,1000,1000,1000,61628672,1579,1579,1579,1579
52190782,1000,1000,1000,1000,61728632,1579,1579,1579,1579
52193281,1000,1000,1000,1000,61828592,1579,1579,1580,1580
52195780,1000,1000,1000,1000,61928552,1579,1579,1579,1579
52198279,1000,1000,1000,1000,62028512,1579,1579,1579,1580
52200778,1000,1000,1000,1000,62128472,1579,1579,1579,1580
52203277,1000,1000,1000,1000,62228432,1580,1580,1581,1580
52205776,1000,1000,1000,1000,62328392,1580,1579,1580,1580
52208275,1000,1000,1000,1000,62428352,1580,1580,1580,1580
52210774,1000,1000,1000,1000,62528312,1580,1580,1580,1580
52213273,1000,1000,1000,1000,62628272,1580,1580,1580,1580
52215772,1000,1000,1000,1000,62728232,1580,1580,1580,1580
52218271,1000,1000,1000,1000,62828192,1580,1581,1580,1581
52220770,1000,1000,1000,1000,62928985,1580,1580,1579,1580
52223269,1000,1000,1000,1000,63028945,1580,1580,1580,1580
52225768,1000,1000,1000,1000,63128905,1580,1580,1580,1580
52228267,1000,1000,1000,1000,63228865,1580,1580,1580,1580
52230766,1000,1000,1000,1000,63328825,1580,1580,1580,1580
52233265,1000,1000,1000,1000,63428785,1580,1580,1580,1580
52235764,1000,1000,1000,1000,63528745,1580,1580,1581,1580
52238263,1000,1000,1000,1000,63628705,1580,1580,1580,1580
52240762,1000,1000,1000,1000,63728665,1581,1581,1581,1581
52243261,1000,1000,1000,1000,63828625,1580,1580,1581,1580
52245760,1000,1000,1000,1000,63928585,1582,1582,1582,1582
52248259,1000,1000,1000,1000,64028545,1582,1582,1582,1582
52250758,1000,1000,1000,1000,64128505,1581,1581,1581,1581
52253257,1000,1000,1000,1000,64228465,1582,1582,1582,1581
52255756,1000,1000,1000,1000,64328425,1580,1581,1587,1573
52258255,1000,1000,1000,1000,64428385,1579,1582,1584,1572
52260754,1000,1000,1000,1000,64528345,1578,1581,1576,1573
52263253,1000,1000,1000,1000,64628305,1577,1579,1567,1571
52265752,1000,1000,1000,1000,64728265,1577,1579,1561,1568
52268251,1000,1000,1000,1000,64828225,1577,1578,1557,1563
52270750,1000,1000,1000,1000,64928185,1578,1577,1554,1558
52273249,1000,1000,1000,1000,65028978,1578,1577,1555,1555
52275748,1000,1000,1000,1000,65128938,1578,1576,1555,1553
52278247,1000,1000,1000,1000,65228898,1578,1576,1555,1553
52280746,1000,1000,1000,1000,65328858,1576,1576,1555,1553
52283245,1000,1000,1000,1000,65428818,1575,1576,1555,1553
52285744,1000,1000,1000,1000,65528778,1575,1576,1554,1554
52288243,1000,1000,1000,1000,65628738,1574,1576,1553,1553
52290742,1000,1000,1000,1000,65728698,1575,1577,1552,1552
52293241,1000,1000,1000,1000,65828658,1576,1578,1550,1550
52295740,1000,1000,1000,1000,65928618,1579,1580,1548,1548
52298239,1000,1000,1000,1000,66028578,1582,1583,1546,1545
52300738,1000,1000,1000,1000,66128538,1584,1585,1543,1542
52303237,1000,1000,1000,1000,66228498,1587,1587,1540,1539
52305736,1000,1000,1000,1000,66328458,1591,1591,1538,1538
52308235,1000,1000,1000,1000,66428418,1593,1594,1536,1536
52310734,1000,1000,1000,1000,66528378,1595,1595,1534,1535
52313233,1000,1000,1000,1000,66628338,1595,1595,1534,1536
52315732,1000,1000,1000,1000,66728298,1594,1595,1536,1538
52318231,1000,1000,1000,1000,66828258,1592,1592,1539,1542
52320730,1000,1000,1000,1000,66928218,1589,1587,1545,1548
52323229,1000,1000,1000,1000,67028178,1584,1581,1554,1557
52325728,1000,1000,1000,1000,67128971,1575,1571,1563,1565
52328227,1000,1000,1000,1000,67228931,1565,1561,1575,1577
52330726,1000,1000,1000,1000,67328891,1554,1550,1588,1589
52333225,1000,1000,1000,1000,67428851,1543,1541,1599,1599
52335724,1000,1000,1000,1000,67528811,1534,1533,1607,1607
52338223,1000,1000,1000,1000,67628771,1530,1530,1613,1613
52340722,1000,1000,1000,1000,67728731,1528,1530,1615,1614
52343221,1000,1000,1000,1000,67828691,1531,1534,1614,1613
52345720,1000,1000,1000,1000,67928651,1537,1539,1609,1609
52348219,1000,1000,1000,1000,68028611,1545,1546,1603,1603
52350718,1000,1000,1000,1000,68128571,1553,1554,1595,1596
52353217,1000,1000,1000,1000,68228531,1563,1563,1588,1588
52355716,1000,1000,1000,1000,68328491,1571,1571,1581,1580
52358215,1000,1000,1000,1000,68428451,1578,1577,1575,1574
52360714,1000,1000,1000,1000,68528411,1584,1582,1571,1570
52363213,1000,1000,1000,1000,68628371,1587,1586,1568,1568
52365712,1000,1000,1000,1000,68728331,1588,1587,1566,1567
52368211,1000,1000,1000,1000,68828291,1587,1586,1566,1566
52370710,1000,1000,1000,1000,68928251,1586,1585,1568,1568
52373209,1000,1000,1000,1000,69028211,1584,1583,1571,1570
52375708,1000,1000,1000,1000,69128171,1581,1581,1575,1574
52378207,1000,1000,1000,1000,69228964,1578,1578,1577,1577
52380706,1000,1000,1000,1000,69328924,1575,1575,1579,1579
52383205,1000,1000,1000,1000,69428884,1573,1573,1581,1581
52385704,1000,1000,1000,1000,69528844,1572,1573,1583,1583
52388203,1000,1000,1000,1000,69628804,1571,1572,1583,1583
52390702,1000,1000,1000,1000,69728764,1572,1573,1584,1584
52393201,1000,1000,1000,1000,69828724,1574,1574,1584,1584
52395700,1000,1000,1000,1000,69928684,1574,1574,1582,1581
52398199,1000,1000,1000,1000,70028644,1576,1576,1581,1581
52400698,1000,1000,1000,1000,70128604,1580,1580,1485,1541
52403197,1000,1000,1000,1000,70228564,1603,1602,1547,1545
52405696,1000,1000,1000,1000,70328524,1615,1615,1592,1556
52408195,1000,1000,1000,1000,70428484,1623,1624,1623,1578
52410694,1000,1000,1000,1000,70528444,1622,1624,1638,1599
52413193,1000,1000,1000,1000,70628404,1611,1613,1635,1614
52415692,1000,1000,1000,1000,70728364,1593,1596,1622,1621
52418191,1000,1000,1000,1000,70828324,1578,1579,1606,1621
52420690,1000,1000,1000,1000,70928284,1568,1566,1594,1616
52423189,1000,1000,1000,1000,71028244,1563,1560,1588,1608
52425688,1000,1000,1000,1000,71128204,1563,1559,1587,1599
52428187,1000,1000,1000,1000,71228164,1564,1562,1587,1590
52430686,1000,1000,1000,1000,71328957,1567,1567,1586,1583
52433185,1000,1000,1000,1000,71428917,1570,1571,1584,1577
52435684,1000,1000,1000,1000,71528877,1574,1576,1580,1575
52438183,1000,1000,1000,1000,71628837,1576,1579,1575,1572
52440682,1000,1000,1000,1000,71728797,1579,1581,1570,1571
52443181,1000,1000,1000,1000,71828757,1580,1581,1566,1569
52445680,1000,1000,1000,1000,71928717,1581,1581,1564,1567
52448179,1000,1000,1000,1000,72028677,1581,1580,1564,1566
52450678,1000,1000,1000,1000,72128637,1581,1579,1565,1567
52453177,1000,1000,1000,1000,72228597,1580,1578,1567,1567
52455676,1000,1000,1000,1000,72328557,1578,1580,1576,1561
52458175,1000,1000,1000,1000,72428517,1577,1581,1576,1561
52460674,1000,1000,1000,1000,72528477,1575,1580,1570,1565
52463173,1000,1000,1000,1000,72628437,1573,1577,1563,1566
52465672,1000,1000,1000,1000,72728397,1572,1575,1557,1564
52468171,1000,1000,1000,1000,72828357,1574,1574,1554,1562
52470670,1000,1000,1000,1000,72928317,1576,1574,1553,1559
52473169,1000,1000,1000,1000,73028277,1576,1573,1552,1553
52475668,1000,1000,1000,1000,73128237,1577,1575,1553,1553
52478167,1000,1000,1000,1000,73228197,1576,1575,1553,1551
52480666,1000,1000,1000,1000,73328157,1577,1577,1554,1551
52483165,1000,1000,1000,1000,73428950,1576,1578,1553,1552
52485664,1000,1000,1000,1000,73528910,1575,1577,1552,1551
52488163,1000,1000,1000,1000,73628870,1576,1578,1551,1551
52490662,1000,1000,1000,1000,73728830,1577,1578,1549,1549
52493161,1000,1000,1000,1000,73828790,1579,1580,1548,1549
52495660,1000,1000,1000,1000,73928750,1580,1581,1547,1548
52498159,1000,1000,1000,1000,74028710,1582,1583,1546,1546
52500658,1000,1000,1000,1000,74128670,1584,1583,1544,1545
52503157,1000,1000,1000,1000,74228630,1585,1585,1544,1544
52505656,1000,1000,1000,1000,74328590,1587,1587,1544,1544
52508155,1000,1000,1000,1000,74428550,1587,1587,1542,1543
52510654,1000,1000,1000,1000,74528510,1589,1590,1543,1545
52513986,1000,1000,1000,1000,74628470,1588,1589,1545,1547
52516485,1000,1000,1000,1000,74728430,1587,1586,1547,1549
52518984,1000,1000,1000,1000,74828390,1584,1581,1552,1555
52521483,1000,1000,1000,1000,74928350,1578,1575,1559,1561
52523982,1000,1000,1000,1000,75028310,1572,1568,1568,1570
52526481,1000,1000,1000,1000,75128270,1565,1562,1579,1580
52528980,1000,1000,1000,1000,75228230,1556,1554,1588,1587
52531479,1000,1000,1000,1000,75328190,1549,1549,1596,1595
52533978,1000,1000,1000,1000,75428983,1545,1546,1602,1600
52536477,1000,1000,1000,1000,75528943,1543,1544,1604,1602
52538976,1000,1000,1000,1000,75628903,1544,1546,1605,1604
52541475,1000,1000,1000,1000,75728863,1546,1548,1603,1603
52543974,1000,1000,1000,1000,75828823,1550,1550,1600,1600
52546473,1000,1000,1000,1000,75928783,1555,1555,1598,1598
52548972,1000,1000,1000,1000,76028743,1560,1560,1595,1594
52551471,1000,1000,1000,1000,76128703,1563,1563,1590,1589
52553970,1000,1000,1000,1000,76228663,1568,1568,1585,1585
52556469,1000,1000,1000,1000,76328623,1572,1572,1580,1580
52558968,1000,1000,1000,1000,76428583,1575,1575,1575,1576
52561467,1000,1000,1000,1000,76528543,1580,1580,1572,1573
52563966,1000,1000,1000,1000,76628503,1582,1581,1570,1570
52566465,1000,1000,1000,1000,76728463,1584,1583,1569,1570
52568964,1000,1000,1000,1000,76828423,1584,1582,1569,1569
52571463,1000,1000,1000,1000,76928383,1583,1582,1571,1570
52573962,1000,1000,1000,1000,77028343,1582,1581,1573,1572
52576461,1000,1000,1000,1000,77128303,1580,1580,1575,1575
52578960,1000,1000,1000,1000,77228263,1578,1579,1577,1577
52581459,1000,1000,1000,1000,77328223,1577,1577,1579,1580
52583958,1000,1000,1000,1000,77428183,1576,1576,1581,1581
52586457,1000,1000,1000,1000,77528976,1575,1575,1582,1582
52588956,1000,1000,1000,1000,77628936,1575,1576,1583,1583
52591455,1000,1000,1000,1000,77728896,1574,1575,1583,1583
52593954,1000,1000,1000,1000,77828856,1574,1574,1582,1582
52596453,1000,1000,1000,1000,77928816,1576,1576,1583,1582
52598952,1000,1000,1000,1000,78028776,1577,1577,1582,1582
52601451,1000,1000,1000,1000,78128736,1577,1578,1580,1581
52603950,1000,1000,1000,1000,78228696,1580,1579,1580,1581
52606449,1000,1000,1000,1000,78328656,1580,1579,1579,1579
52608948,1000,1000,1000,1000,78428616,1581,1581,1579,1579
52611447,1000,1000,1000,1000,78528576,1581,1581,1579,1578
52613946,1000,1000,1000,1000,78628536,1582,1582,1580,1579
52616445,1000,1000,1000,1000,78728496,1582,1582,1579,1579
52618944,1000,1000,1000,1000,78828456,1582,1582,1579,1579
52621443,1000,1000,1000,1000,78928416,1581,1581,1579,1579
52623942,1000,1000,1000,1000,79028376,1580,1580,1578,1579
52626441,1000,1000,1000,1000,79128336,1580,1580,1579,1580
52628940,1000,1000,1000,1000,79228296,1580,1580,1580,1579
52631439,1000,1000,1000,1000,79328256,1580,1580,1580,1580
52633938,1000,1000,1000,1000,79428216,1581,1580,1581,1581
52636437,1000,1000,1000,1000,79528176,1580,1580,1581,1582
52638936,1000,1000,1000,1000,79628969,1580,1580,1582,1581
52641435,1000,1000,1000,1000,79728929,1580,1581,1582,1582
52643934,1000,1000,1000,1000,79828889,1581,1581,1582,1582
52646433,1000,1000,1000,1000,79928849,1581,1581,1582,1582
52648932,1000,1000,1000,1000,80028809,1581,1581,1581,1581
52651431,1000,1000,1000,1000,80128769,1580,1580,1580,1581
52653930,1000,1000,1000,1000,80228729,1581,1581,1581,1582
52656429,1000,1000,1000,1000,80328689,1580,1580,1580,1580
52658928,1000,1000,1000,1000,80428649,1581,1581,1582,1579
52661427,1000,1000,1000,1000,80528609,1580,1582,1587,1572
52663926,1000,1000,1000,1000,80628569,1579,1583,1583,1572
52666425,1000,1000,1000,1000,80728529,1578,1581,1574,1572
52668924,1000,1000,1000,1000,80828489,1577,1579,1566,1570
52671423,1000,1000,1000,1000,80928449,1576,1578,1560,1566
52673922,1000,1000,1000,1000,81028409,1578,1578,1556,1562
52676421,1000,1000,1000,1000,81128369,1579,1577,1554,1558
52678920,1000,1000,1000,1000,81228329,1580,1578,1554,1555
52681419,1000,1000,1000,1000,81328289,1580,1578,1554,1553
52683918,1000,1000,1000,1000,81428249,1579,1578,1554,1552
52686417,1000,1000,1000,1000,81528209,1577,1578,1555,1553
52688916,1000,1000,1000,1000,81628169,1575,1577,1554,1553
52691415,1000,1000,1000,1000,81728962,1575,1578,1554,1553
52693914,1000,1000,1000,1000,81828922,1575,1577,1553,1552
52696413,1000,1000,1000,1000,81928882,1576,1578,1552,1553
52698912,1000,1000,1000,1000,82028842,1578,1579,1551,1551
52701411,1000,1000,1000,1000,82128802,1580,1580,1549,1548
52703910,1000,1000,1000,1000,82228762,1582,1583,1547,1547
52706409,1000,1000,1000,1000,82328722,1585,1585,1545,1545
52708908,1000,1000,1000,1000,82428682,1587,1587,1542,1542
52711407,1000,1000,1000,1000,82528642,1590,1590,1540,1541
52713906,1000,1000,1000,1000,82628602,1591,1592,1538,1539
52716405,1000,1000,1000,1000,82728562,1591,1593,1535,1537
52718904,1000,1000,1000,1000,82828522,1594,1595,1536,1538
52721403,1000,1000,1000,1000,82928482,1594,1594,1538,1540
52723902,1000,1000,1000,1000,83028442,1592,1590,1541,1544
52726401,1000,1000,1000,1000,83128402,1588,1585,1548,1551
52728900,1000,1000,1000,1000,83228362,1582,1578,1557,1560
52731399,1000,1000,1000,1000,83328322,1573,1568,1568,1570
52733898,1000,1000,1000,1000,83428282,1561,1558,1580,1581
52736397,1000,1000,1000,1000,83528242,1550,1548,1591,1592
52738896,1000,1000,1000,1000,83628202,1542,1541,1602,1601
52741395,1000,1000,1000,1000,83728162,1535,1535,1609,1608
52743894,1000,1000,1000,1000,83828955,1533,1535,1613,1611
52746393,1000,1000,1000,1000,83928915,1535,1537,1614,1612
52748892,1000,1000,1000,1000,84028875,1539,1541,1611,1610
52751391,1000,1000,1000,1000,84128835,1544,1546,1607,1606
52753890,1000,1000,1000,1000,84228795,1551,1551,1602,1601
52756389,1000,1000,1000,1000,84328755,1558,1558,1596,1595
52758888,1000,1000,1000,1000,84428715,1564,1564,1589,1588
52761387,1000,1000,1000,1000,84528675,1571,1571,1582,1582
52763886,1000,1000,1000,1000,84628635,1577,1576,1575,1576
52766385,1000,1000,1000,1000,84728595,1582,1580,1570,1571
52768884,1000,1000,1000,1000,84828555,1584,1583,1567,1568
52771383,1000,1000,1000,1000,84928515,1586,1585,1565,1566
52773882,1000,1000,1000,1000,85028475,1587,1585,1566,1567
52776381,1000,1000,1000,1000,85128435,1586,1585,1568,1568
52778880,1000,1000,1000,1000,85228395,1583,1583,1570,1569
52781379,1000,1000,1000,1000,85328355,1582,1582,1574,1573
52783878,1000,1000,1000,1000,85428315,1578,1578,1576,1575
52786377,1000,1000,1000,1000,85528275,1576,1576,1578,1578
52788876,1000,1000,1000,1000,85628235,1575,1575,1581,1581
52791375,1000,1000,1000,1000,85728195,1573,1573,1582,1582
52793874,1000,1000,1000,1000,85828155,1573,1573,1584,1583
52796373,1000,1000,1000,1000,85928948,1574,1574,1585,1585
52798872,1000,1000,1000,1000,86028908,1574,1574,1584,1584
52801371,1000,1000,1000,1000,86128868,1574,1575,1583,1583
52803870,1000,1000,1000,1000,86228828,1576,1576,1582,1582
52806369,1000,1000,1000,1000,86328788,1577,1577,1581,1581
52808868,1000,1000,1000,1000,86428748,1578,1577,1579,1579
52811367,1000,1000,1000,1000,86528708,1579,1579,1579,1579
52813866,1000,1000,1000,1000,86628668,1579,1579,1576,1577
52816365,1000,1000,1000,1000,86728628,1581,1581,1577,1577
52818864,1000,1000,1000,1000,86828588,1581,1581,1577,1577
52821363,1000,1000,1000,1000,86928548,1582,1582,1578,1578
52823862,1000,1000,1000,1000,87028508,1582,1582,1578,1578
52826361,1000,1000,1000,1000,87128468,1581,1581,1578,1578
52828860,1000,1000,1000,1000,87228428,1582,1581,1579,1579
52831359,1000,1000,1000,1000,87328388,1580,1580,1579,1579
52833858,1000,1000,1000,1000,87428348,1580,1580,1579,1580
52836357,1000,1000,1000,1000,87528308,1580,1580,1580,1580
52838856,1000,1000,1000,1000,87628268,1580,1580,1581,1581
52841355,1000,1000,1000,1000,87728228,1579,1579,1581,1580
52843854,1000,1000,1000,1000,87828188,1579,1579,1581,1581
52846353,1000,1000,1000,1000,87928981,1580,1580,1581,1582
52848852,1000,1000,1000,1000,88028941,1580,1581,1582,1582
52851351,1000,1000,1000,1000,88128901,1580,1580,1582,1581
52853850,1000,1000,1000,1000,88228861,1580,1580,1581,1581
52856349,1000,1000,1000,1000,88328821,1580,1580,1581,1580
52858848,1000,1000,1000,1000,88428781,1581,1581,1586,1572
52861347,1000,1000,1000,1000,88528741,1579,1580,1583,1572
52863846,1000,1000,1000,1000,88628701,1577,1577,1577,1574
52866345,1000,1000,1000,1000,88728661,1575,1575,1572,1575
52868844,1000,1000,1000,1000,88828621,1571,1570,1567,1574
52871343,1000,1000,1000,1000,88928581,1569,1568,1565,1572
52873842,1000,1000,1000,1000,89028541,1568,1567,1565,1569
52876341,1000,1000,1000,1000,89128501,1567,1566,1566,1567
52878840,1000,1000,1000,1000,89228461,1566,1566,1566,1565
52881339,1000,1000,1000,1000,89328421,1565,1566,1567,1564
52883838,1000,1000,1000,1000,89428381,1566,1566,1567,1564
52886337,1000,1000,1000,1000,89528341,1565,1566,1567,1565
52888836,1000,1000,1000,1000,89628301,1564,1564,1565,1564
52891335,1000,1000,1000,1000,89728261,1564,1563,1564,1564
52893834,1000,1000,1000,1000,89828221,1561,1561,1562,1562
52896333,1000,1000,1000,1000,89928181,1562,1562,1562,1562
52898832,1000,1000,1000,1000,90028974,1561,1561,1561,1561
52901331,1000,1000,1000,1000,90128934,1560,1560,1560,1560
52903830,1000,1000,1000,1000,90228894,1560,1561,1560,1560
52906329,1000,1000,1000,1000,90328854,1558,1558,1559,1558
52908828,1000,1000,1000,1000,90428814,1557,1557,1558,1557
52911327,1000,1000,1000,1000,90528774,1557,1557,1558,1557
52913826,1000,1000,1000,1000,90628734,1558,1557,1558,1557
52916325,1000,1000,1000,1000,90728694,1557,1557,1557,1556
52918824,1000,1000,1000,1000,90828654,1558,1557,1558,1557
52921323,1000,1000,1000,1000,90928614,1557,1557,1558,1555
52923822,1000,1000,1000,1000,91028574,1558,1559,1559,1557
52926321,1000,1000,1000,1000,91128534,1558,1558,1559,1556
52928820,1000,1000,1000,1000,91228494,1559,1559,1559,1559
52931319,1000,1000,1000,1000,91328454,1560,1559,1557,1562
52933818,1000,1000,1000,1000,91428414,1560,1561,1557,1564
52936317,1000,1000,1000,1000,91528374,1561,1561,1558,1565
52938816,1000,1000,1000,1000,91628334,1563,1563,1561,1564
52941315,1000,1000,1000,1000,91728294,1563,1563,1562,1563
52943814,1000,1000,1000,1000,91828254,1561,1561,1561,1561
52946313,1000,1000,1000,1000,91928214,1558,1558,1558,1558
52948812,1000,1000,1000,1000,92028174,1553,1553,1554,1553
52951311,1000,1000,1000,1000,92128967,1548,1548,1549,1548
52953810,1000,1000,1000,1000,92228927,1541,1541,1542,1542
52956309,1000,1000,1000,1000,92328887,1534,1534,1535,1535
52958808,1000,1000,1000,1000,92428847,1526,1526,1527,1528
52961307,1000,1000,1000,1000,92528807,1521,1521,1522,1523
52963806,1000,1000,1000,1000,92628767,1520,1520,1520,1521
52966305,1000,1000,1000,1000,92728727,1520,1521,1520,1521
52968804,1000,1000,1000,1000,92828687,1522,1522,1521,1521
52971303,1000,1000,1000,1000,92928647,1526,1526,1524,1524
52973802,1000,1000,1000,1000,93028607,1529,1529,1527,1528
52976301,1000,1000,1000,1000,93128567,1534,1534,1532,1532
52978800,1000,1000,1000,1000,93228527,1538,1539,1536,1536
52981299,1000,1000,1000,1000,93328487,1541,1541,1540,1539
52983798,1000,1000,1000,1000,93428447,1543,1543,1542,1541
52986297,1000,1000,1000,1000,93528407,1544,1544,1544,1543
52988796,1000,1000,1000,1000,93628367,1544,1544,1545,1544
52991295,1000,1000,1000,1000,93728327,1545,1545,1546,1545
52993794,1000,1000,1000,1000,93828287,1545,1545,1546,1546
52996293,1000,1000,1000,1000,93928247,1546,1545,1547,1547
52998792,1000,1000,1000,1000,94028207,1545,1546,1547,1547
53001291,1000,1000,1000,1000,94128167,1545,1546,1547,1547
53003790,1000,1000,1000,1000,94228960,1545,1545,1546,1546
53006289,1000,1000,1000,1000,94328920,1546,1545,1546,1546
53008788,1000,1000,1000,1000,94428880,1545,1546,1546,1546
53011287,1000,1000,1000,1000,94528840,1546,1546,1547,1546
53013786,1000,1000,1000,1000,94628800,1545,1545,1545,1545
53016285,1000,1000,1000,1000,94728760,1545,1544,1544,1544
53018784,1000,1000,1000,1000,94828720,1545,1545,1545,1544
53021283,1000,1000,1000,1000,94928680,1545,1545,1544,1545
53023782,1000,1000,1000,1000,95028640,1544,1544,1543,1544
53026281,1000,1000,1000,1000,95128600,1544,1545,1544,1544
53028780,1000,1000,1000,1000,95228560,1544,1544,1544,1543
53031279,1000,1000,1000,1000,95328520,1544,1544,1544,1544
53033778,1000,1000,1000,1000,95428480,1544,1544,1544,1543
53036277,1000,1000,1000,1000,95528440,1544,1544,1544,1544
53038776,1000,1000,1000,1000,95628400,1544,1544,1544,1544
53041275,1000,1000,1000,1000,95728360,1544,1543,1544,1544
53043774,1000,1000,1000,1000,95828320,1544,1544,1544,1544
53046273,1000,1000,1000,1000,95928280,1544,1544,1544,1543
53048772,1000,1000,1000,1000,96028240,1543,1543,1544,1544
53051271,1000,1000,1000,1000,96128200,1544,1544,1544,1545
53053770,1000,1000,1000,1000,96228160,1544,1544,1544,1544
53056269,1000,1000,1000,1000,96328953,1545,1545,1545,1545
53058768,1000,1000,1000,1000,96428913,1543,1544,1544,1544
53061267,1000,1000,1000,1000,96528873,1543,1543,1543,1544
53063766,1000,1000,1000,1000,96628833,1543,1543,1543,1543
53066265,1000,1000,1000,1000,96728793,1544,1543,1544,1544
53068764,1000,1000,1000,1000,96828753,1544,1544,1544,1544
53071263,1000,1000,1000,1000,96928713,1544,1544,1544,1544
53073762,1000,1000,1000,1000,97028673,1545,1545,1544,1544
53076261,1000,1000,1000,1000,97128633,1544,1544,1544,1544
53078760,1000,1000,1000,1000,97228593,1544,1544,1544,1544
53081259,1000,1000,1000,1000,97328553,1545,1544,1545,1545
53083758,1000,1000,1000,1000,97428513,1544,1544,1544,1544
53086257,1000,1000,1000,1000,97528473,1544,1544,1544,1544
53088756,1000,1000,1000,1000,97628433,1544,1544,1544,1544
53091255,1000,1000,1000,1000,97728393,1546,1545,1545,1545
53093754,1000,1000,1000,1000,97828353,1545,1545,1545,1545
53096253,1000,1000,1000,1000,97928313,1545,1544,1544,1545
53098752,1000,1000,1000,1000,98028273,1544,1544,1544,1544
53101251,1000,1000,1000,1000,98128233,1544,1543,1544,1543
53103750,1000,1000,1000,1000,98228193,1544,1544,1544,1544
53106249,1000,1000,1000,1000,98328986,1544,1545,1544,1545
53108748,1000,1000,1000,1000,98428946,1544,1544,1544,1544
53111247,1000,1000,1000,1000,98528906,1544,1543,1543,1544
53113746,1000,1000,1000,1000,98628866,1544,1544,1543,1544
53116245,1000,1000,1000,1000,98728826,1543,1543,1543,1543
53118744,1000,1000,1000,1000,98828786,1544,1544,1544,1544
53121243,1000,1000,1000,1000,98928746,1543,1543,1543,1543
53123742,1000,1000,1000,1000,99028706,1543,1543,1543,1543
53126241,1000,1000,1000,1000,99128666,1544,1544,1544,1544
53128740,1000,1000,1000,1000,99228626,1543,1543,1543,1543
53131239,1000,1000,1000,1000,99328586,1544,1544,1544,1544
53133738,1000,1000,1000,1000,99428546,1544,1544,1544,1544
53136237,1000,1000,1000,1000,99528506,1545,1544,1544,1545
53138736,1000,1000,1000,1000,99628466,1544,1544,1544,1544
53141235,1000,1000,1000,1000,99728426,1544,1545,1544,1545
53143734,1000,1000,1000,1000,99828386,1544,1545,1545,1544
53146233,1000,1000,1000,1000,99928346,1545,1545,1545,1545
53148732,1000,1000,1000,1000,100028306,1545,1545,1545,1545
53151231,1000,1000,1000,1000,100128266,1545,1544,1545,1544
53153730,1000,1000,1000,1000,100228226,1543,1544,1544,1544
53156229,1000,1000,1000,1000,100328186,1544,1543,1544,1544
53158728,1000,1000,1000,1000,100428979,1544,1544,1544,1544
53161227,1000,1000,1000,1000,100528939,1544,1544,1544,1544
53163726,1000,1000,1000,1000,100628899,1544,1544,1544,1544
53166225,1000,1000,1000,1000,100728859,1545,1545,1545,1545
53168724,1000,1000,1000,1000,100828819,1544,1544,1544,1544
53171223,1000,1000,1000,1000,100928779,1545,1545,1545,1545
53173722,1000,1000,1000,1000,101028739,1545,1545,1545,1545
53176221,1000,1000,1000,1000,101128699,1544,1545,1544,1545
53178720,1000,1000,1000,1000,101228659,1545,1544,1544,1544
53181219,1000,1000,1000,1000,101328619,1545,1544,1544,1545
53183718,1000,1000,1000,1000,101428579,1544,1544,1544,1544
53186217,1000,1000,1000,1000,101528539,1544,1544,1544,1544
53188716,1000,1000,1000,1000,101628499,1544,1545,1545,1545
53191215,1000,1000,1000,1000,101728459,1544,1544,1544,1544
53193714,1000,1000,1000,1000,101828419,1544,1544,1544,1543
53196213,1000,1000,1000,1000,101928379,1544,1544,1544,1544
53198712,1000,1000,1000,1000,102028339,1544,1545,1545,1544
53201211,1000,1000,1000,1000,102128299,1544,1544,1544,1544
53203710,1000,1000,1000,1000,102228259,1543,1544,1544,1543
53206209,1000,1000,1000,1000,102328219,1371,1370,1402,1370
53208708,1000,1000,1000,1000,102428179,1256,1255,1316,1255
53211207,1000,1000,1000,1000,102528972,1219,1217,1289,1217
53213706,1000,1000,1000,1000,102628932,1200,1200,1277,1199
53216205,1000,1000,1000,1000,102728892,1156,1155,1248,1155
53218704,1000,1000,1000,1000,102828852,1151,1151,1245,1150
53221203,1000,1000,1000,1000,102928812,1151,1150,1244,1150
53223702,1000,1000,1000,1000,103028772,1151,1151,1245,1150
53226201,1000,1000,1000,1000,103128732,1184,1150,1243,1183
53228700,1000,1000,1000,1000,103228692,1173,1150,1244,1172
53231199,1000,1000,1000,1000,103328652,1170,1150,1244,1169
53233698,1000,1000,1000,1000,103428612,1171,1150,1244,1169
53236197,1000,1000,1000,1000,103528572,1173,1150,1244,1171
53238696,1000,1000,1000,1000,103628532,1174,1150,1244,1173
53241195,1000,1000,1000,1000,103728492,1177,1150,1244,1175
53243694,1000,1000,1000,1000,103828452,1178,1150,1244,1176
53246193,1000,1000,1000,1000,103928412,1164,1150,1244,1163
53248692,1000,1000,1000,1000,104028372,1166,1150,1244,1164
53251191,1000,1000,1000,1000,104128332,1167,1150,1244,1165
53253690,1000,1000,1000,1000,104228292,1167,1150,1244,1166
53256189,1000,1000,1000,1000,104328252,1159,1150,1139,1158
53258688,1000,1000,1000,1000,104428212,1000,1000,1000,1000
53261187,1000,1000,1000,1000,104528172,1000,1000,1000,1000
53263686,1000,1000,1000,1000,104628965,1000,1000,1000,1000
53266185,1000,1000,1000,1000,104728925,1000,1000,1000,1000
53268684,1000,1000,1000,1000,104828885,1000,1000,1000,1000
53271183,1000,1000,1000,1000,104928845,1000,1000,1000,1000
53273682,1000,1000,1000,1000,105028805,1000,1000,1000,1000
53276181,1000,1000,1000,1000,105128765,1000,1000,1000,1000
53278680,1000,1000,1000,1000,105228725,1000,1000,1000,1000
53281179,1000,1000,1000,1000,105328685,1000,1000,1000,1000
53283678,1000,1000,1000,1000,105428645,1000,1000,1000,1000
53286177,1000,1000,1000,1000,105528605,1000,1000,1000,1000
53288676,1000,1000,1000,1000,105628565,1000,1000,1000,1000
53291175,1000,1000,1000,1000,105728525,1000,1000,1000,1000
53293674,1000,1000,1000,1000,105828485,1000,1000,1000,1000
53296173,1000,1000,1000,1000,105928445,1000,1000,1000,1000
53298672,1000,1000,1000,1000,106028405,1000,1000,1000,1000
53301171,1000,1000,1000,1000,106128365,1000,1000,1000,1000
53303670,1000,1000,1000,1000,106228325,1000,1000,1000,1000
53306169,1000,1000,1000,1000,106328285,1000,1000,1000,1000
53308668,1000,1000,1000,1000,106428245,1000,1000,1000,1000
53311167,1000,1000,1000,1000,106528205,1000,1000,1000,1000
53313666,1000,1000,1000,1000,106628165,1000,1000,1000,1000
53316165,1000,1000,1000,1000,106728958,1000,1000,1000,1000
53318664,1000,1000,1000,1000,106828918,1000,1000,1000,1000
53321163,1000,1000,1000,1000,106928878,1000,1000,1000,1000
53323662,1000,1000,1000,1000,107028838,1000,1000,1000,1000
53326161,1000,1000,1000,1000,107128798,1000,1000,1000,1000
53328660,1000,1000,1000,1000,107228758,1000,1000,1000,1000
53331159,1000,1000,1000,1000,107328718,1000,1000,1000,1000
53333658,1000,1000,1000,1000,107428678,1000,1000,1000,1000
53336157,1000,1000,1000,1000,107528638,1000,1000,1000,1000
53338656,1000,1000,1000,1000,107628598,1000,1000,1000,1000
53341155,1000,1000,1000,1000,107728558,1000,1000,1000,1000
53343654,1000,1000,1000,1000,107828518,1000,1000,1000,1000
53346153,1000,1000,1000,1000,107928478,1000,1000,1000,1000
53348652,1000,1000,1000,1000,108028438,1000,1000,1000,1000
53351151,1000,1000,1000,1000,108128398,1000,1000,1000,1000
53353650,1000,1000,1000,1000,108228358,1000,1000,1000,1000
53356149,1000,1000,1000,1000,108328318,1000,1000,1000,1000
53358648,1000,1000,1000,1000,108428278,1000,1000,1000,1000
53361147,1000,1000,1000,1000,108528238,1000,1000,1000,1000
53363646,1000,1000,1000,1000,108628198,1000,1000,1000,1000
53366145,1000,1000,1000,1000,108728158,1000,1000,1000,1000
53368644,1000,1000,1000,1000,108828951,1000,1000,1000,1000
53371143,1000,1000,1000,1000,108928911,1000,1000,1000,1000
53373642,1000,1000,1000,1000,109028871,1000,1000,1000,1000
53376141,1000,1000,1000,1000,109128831,1000,1000,1000,1000
53378640,1000,1000,1000,1000,109228791,1000,1000,1000,1000
53381139,1000,1000,1000,1000,109328751,1000,1000,1000,1000
53383638,1000,1000,1000,1000,109428711,1000,1000,1000,1000
53386137,1000,1000,1000,1000,109528671,1000,1000,1000,1000
53388636,1000,1000,1000,1000,109628631,1000,1000,1000,1000
53391135,1000,1000,1000,1000,109728591,1000,1000,1000,1000
53393634,1000,1000,1000,1000,109828551,1000,1000,1000,1000
53396133,1000,1000,1000,1000,109928511,1000,1000,1000,1000
53398632,1000,1000,1000,1000,110028471,1000,1000,1000,1000
53401131,1000,1000,1000,1000,110128431,1000,1000,1000,1000
53403630,1000,1000,1000,1000,110228391,1000,1000,1000,1000
53406129,1000,1000,1000,1000,110328351,1000,1000,1000,1000
53408628,1000,1000,1000,1000,110428311,1000,1000,1000,1000
53411127,1000,1000,1000,1000,110528271,1000,1000,1000,1000
53413626,1000,1000,1000,1000,110628231,1000,1000,1000,1000
53416125,1000,1000,1000,1000,110728191,1000,1000,1000,1000
53418624,1000,1000,1000,1000,110828984,1000,1000,1000,1000
53421123,1000,1000,1000,1000,110928944,1000,1000,1000,1000
53423622,1000,1000,1000,1000,111028904,1000,1000,1000,1000
53426121,1000,1000,1000,1000,111128864,1000,1000,1000,1000
53428620,1000,1000,1000,1000,111228824,1000,1000,1000,1000
53431119,1000,1000,1000,1000,111328784,1000,1000,1000,1000
53433618,1000,1000,1000,1000,111428744,1000,1000,1000,1000
53436117,1000,1000,1000,1000,111528704,1000,1000,1000,1000
53438616,1000,1000,1000,1000,111628664,1000,1000,1000,1000
53441115,1000,1000,1000,1000,111728624,1000,1000,1000,1000
53443614,1000,1000,1000,1000,111828584,1000,1000,1000,1000
53446113,1000,1000,1000,1000,111928544,1000,1000,1000,1000
53448612,1000,1000,1000,1000,112028504,1000,1000,1000,1000
53451111,1000,1000,1000,1000,112128464,1000,1000,1000,1000
53453610,1000,1000,1000,1000,112228424,1000,1000,1000,1000
53456109,1000,1000,1000,1000,112328384,1000,1000,1000,1000
53458608,1000,1000,1000,1000,112428344,1000,1000,1000,1000
53461107,1000,1000,1000,1000,112528304,1000,1000,1000,1000
53463606,1000,1000,1000,1000,112628264,1000,1000,1000,1000
53466105,1000,1000,1000,1000,112728224,1000,1000,1000,1000
53468604,1000,1000,1000,1000,112828184,1000,1000,1000,1000
53471103,1000,1000,1000,1000,112928977,1000,1000,1000,1000
53473602,1000,1000,1000,1000,113028937,1000,1000,1000,1000
53476101,1000,1000,1000,1000,113128897,1000,1000,1000,1000
53478600,1000,1000,1000,1000,113228857,1000,1000,1000,1000
53481099,1000,1000,1000,1000,113328817,1000,1000,1000,1000
53483598,1000,1000,1000,1000,113428777,1000,1000,1000,1000
53486097,1000,1000,1000,1000,113528737,1000,1000,1000,1000
53488596,1000,1000,1000,1000,113628697,1000,1000,1000,1000
53491095,1000,1000,1000,1000,113728657,1000,1000,1000,1000
53493594,1000,1000,1000,1000,113828617,1000,1000,1000,1000
53496093,1000,1000,1000,1000,113928577,1000,1000,1000,1000
53498592,1000,1000,1000,1000,114028537,1000,1000,1000,1000
53501091,1000,1000,1000,1000,114128497,1000,1000,1000,1000
53503590,1000,1000,1000,1000,114228457,1000,1000,1000,1000
53506089,1000,1000,1000,1000,114328417,1000,1000,1000,1000
53508588,1000,1000,1000,1000,114428377,1000,1000,1000,1000
53511087,1000,1000,1000,1000,114528337,1000,1000,1000,1000
53513586,1000,1000,1000,1000,114628297,1000,1000,1000,1000
53516085,1000,1000,1000,1000,114728257,1000,1000,1000,1000
53518584,1000,1000,1000,1000,114828217,1000,1000,1000,1000
53521083,1000,1000,1000,1000,114928177,1000,1000,1000,1000
53523582,1000,1000,1000,1000,115028970,1000,1000,1000,1000
53526081,1000,1000,1000,1000,115128930,1000,1000,1000,1000
53528580,1000,1000,1000,1000,115228890,1000,1000,1000,1000
53531079,1000,1000,1000,1000,115328850,1000,1000,1000,1000
53533578,1000,1000,1000,1000,115428810,1000,1000,1000,1000
53536077,1000,1000,1000,1000,115528770,1000,1000,1000,1000
53538576,1000,1000,1000,1000,115628730,1000,1000,1000,1000
53541075,1000,1000,1000,1000,115728690,1000,1000,1000,1000
53543574,1000,1000,1000,1000,115828650,1000,1000,1000,1000
53546073,1000,1000,1000,1000,115928610,1000,1000,1000,1000
53548572,1000,1000,1000,1000,116028570,1000,1000,1000,1000
53551071,1000,1000,1000,1000,116128530,1000,1000,1000,1000
53553570,1000,1000,1000,1000,116228490,1000,1000,1000,1000
53556069,1000,1000,1000,1000,116328450,1000,1000,1000,1000
53558568,1000,1000,1000,1000,116428410,1000,1000,1000,1000
53561067,1000,1000,1000,1000,116528370,1000,1000,1000,1000
53563566,1000,1000,1000,1000,116628330,1000,1000,1000,1000
53566065,1000,1000,1000,1000,116728290,1000,1000,1000,1000
53568564,1000,1000,1000,1000,116828250,1000,1000,1000,1000
53571063,1000,1000,1000,1000,116928210,1000,1000,1000,1000
53573562,1000,1000,1000,1000,117028170,1000,1000,1000,1000
53576061,1000,1000,1000,1000,117128963,1000,1000,1000,1000
53578560,1000,1000,1000,1000,117228923,1000,1000,1000,1000
53581059,1000,1000,1000,1000,117328883,1000,1000,1000,1000
53583558,1000,1000,1000,1000,117428843,1000,1000,1000,1000
53586057,1000,1000,1000,1000,117528803,1000,1000,1000,1000
53588556,1000,1000,1000,1000,117628763,1000,1000,1000,1000
53591055,1000,1000,1000,1000,117728723,1000,1000,1000,1000
53593554,1000,1000,1000,1000,117828683,1000,1000,1000,1000
53596053,1000,1000,1000,1000,117928643,1000,1000,1000,1000
53598552,1000,1000,1000,1000,118028603,1000,1000,1000,1000
53601051,1000,1000,1000,1000,118128563,1000,1000,1000,1000
53603550,1000,1000,1000,1000,118228523,1000,1000,1000,1000
53606049,1000,1000,1000,1000,118328483,1000,1000,1000,1000
53608548,1000,1000,1000,1000,118428443,1000,1000,1000,1000
53611047,1000,1000,1000,1000,118528403,1000,1000,1000,1000
53613546,1000,1000,1000,1000,118628363,1000,1000,1000,1000
53616045,1000,1000,1000,1000,118728323,1000,1000,1000,1000
53618544,1000,1000,1000,1000,118828283,1000,1000,1000,1000
53621043,1000,1000,1000,1000,,,,,
53623542,1000,1000,1000,1000,,,,,
53626041,1000,1000,1000,1000,,,,,
53628540,1000,1000,1000,1000,,,,,
53631039,1000,1000,1000,1000,,,,,
53633538,1000,1000,1000,1000,,,,,
53636037,1000,1000,1000,1000,,,,,
53638536,1000,1000,1000,1000,,,,,
53641035,1000,1000,1000,1000,,,,,
53643534,1000,1000,1000,1000,,,,,
53646033,1000,1000,1000,1000,,,,,
53648532,1000,1000,1000,1000,,,,,
53651031,1000,1000,1000,1000,,,,,
53653530,1000,1000,1000,1000,,,,,
53656029,1000,1000,1000,1000,,,,,
53658528,1000,1000,1000,1000,,,,,
53661027,1000,1000,1000,1000,,,,,
53663526,1000,1000,1000,1000,,,,,
53666025,1000,1000,1000,1000,,,,,
53668524,1000,1000,1000,1000,,,,,
53671023,1000,1000,1000,1000,,,,,
53673522,1000,1000,1000,1000,,,,,
53676021,1000,1000,1000,1000,,,,,
53678520,1000,1000,1000,1000,,,,,
53681019,1000,1000,1000,1000,,,,,
53683518,1000,1000,1000,1000,,,,,
53686017,1000,1000,1000,1000,,,,,
53688516,1000,1000,1000,1000,,,,,
53691015,1000,1000,1000,1000,,,,,
53693514,1000,1000,1000,1000,,,,,
53696013,1000,1000,1000,1000,,,,,
53698512,1000,1000,1000,1000,,,,,
53701011,1000,1000,1000,1000,,,,,
53703510,1000,1000,1000,1000,,,,,
53706009,1000,1000,1000,1000,,,,,
53708508,1000,1000,1000,1000,,,,,
53711007,1000,1000,1000,1000,,,,,
53713506,1000,1000,1000,1000,,,,,
53716005,1000,1000,1000,1000,,,,,
53718504,1000,1000,1000,1000,,,,,
53721003,1000,1000,1000,1000,,,,,
53723502,1000,1000,1000,1000,,,,,
53726001,1000,1000,1000,1000,,,,,
53728500,1000,1000,1000,1000,,,,,
53730999,1000,1000,1000,1000,,,,,
53733498,1000,1000,1000,1000,,,,,
53735997,1000,1000,1000,1000,,,,,
53738496,1000,1000,1000,1000,,,,,
53740995,1000,1000,1000,1000,,,,,
53743494,1000,1000,1000,1000,,,,,
53745993,1000,1000,1000,1000,,,,,
53748492,1000,1000,1000,1000,,,,,
53750991,1000,1000,1000,1000,,,,,
53753490,1000,1000,1000,1000,,,,,
53755989,1000,1000,1000,1000,,,,,
53758488,1000,1000,1000,1000,,,,,
53760987,1000,1000,1000,1000,,,,,
53763486,1000,1000,1000,1000,,,,,
53765985,1000,1000,1000,1000,,,,,
53768484,1000,1000,1000,1000,,,,,
53770983,1000,1000,1000,1000,,,,,
53773482,1000,1000,1000,1000,,,,,
53775981,1000,1000,1000,1000,,,,,
53778480,1000,1000,1000,1000,,,,,
53780979,1000,1000,1000,1000,,,,,
53783478,1000,1000,1000,1000,,,,,
53785977,1000,1000,1000,1000,,,,,
53788476,1000,1000,1000,1000,,,,,
53790975,1000,1000,1000,1000,,,,,
53793474,1000,1000,1000,1000,,,,,
53795973,1000,1000,1000,1000,,,,,
53798472,1000,1000,1000,1000,,,,,
53800971,1000,1000,1000,1000,,,,,
53803470,1000,1000,1000,1000,,,,,
53805969,1000,1000,1000,1000,,,,,
53808468,1000,1000,1000,1000,,,,,
53810967,1000,1000,1000,1000,,,,,
53813466,1000,1000,1000,1000,,,,,
53815965,1000,1000,1000,1000,,,,,
53818464,1000,1000,1000,1000,,,,,
53820963,1000,1000,1000,1000,,,,,
53823462,1000,1000,1000,1000,,,,,
53825961,1000,1000,1000,1000,,,,,
53828460,1000,1000,1000,1000,,,,,
53830959,1000,1000,1000,1000,,,,,
53833458,1000,1000,1000,1000,,,,,
53835957,1000,1000,1000,1000,,,,,
53838456,1000,1000,1000,1000,,,,,
53840955,1000,1000,1000,1000,,,,,
53843454,1000,1000,1000,1000,,,,,
53845953,1000,1000,1000,1000,,,,,
53848452,1000,1000,1000,1000,,,,,
53850951,1000,1000,1000,1000,,,,,
53853450,1000,1000,1000,1000,,,,,
53855949,1000,1000,1000,1000,,,,,
53858448,1000,1000,1000,1000,,,,,
53860947,1000,1000,1000,1000,,,,,
53863446,1000,1000,1000,1000,,,,,
53865945,1000,1000,1000,1000,,,,,
53868444,1000,1000,1000,1000,,,,,
53870943,1000,1000,1000,1000,,,,,
53873442,1000,1000,1000,1000,,,,,
53875941,1000,1000,1000,1000,,,,,
53878440,1000,1000,1000,1000,,,,,
53880939,1000,1000,1000,1000,,,,,
53883438,1000,1000,1000,1000,,,,,
53885937,1000,1000,1000,1000,,,,,
53888436,1000,1000,1000,1000,,,,,
53890935,1000,1000,1000,1000,,,,,
53893434,1000,1000,1000,1000,,,,,
53895933,1000,1000,1000,1000,,,,,
53898432,1000,1000,1000,1000,,,,,
53900931,1000,1000,1000,1000,,,,,
53903430,1000,1000,1000,1000,,,,,
53905929,1000,1000,1000,1000,,,,,
53908428,1000,1000,1000,1000,,,,,
53910927,1000,1000,1000,1000,,,,,
53913426,1000,1000,1000,1000,,,,,
53915925,1000,1000,1000,1000,,,,,
53918424,1000,1000,1000,1000,,,,,
53920923,1000,1000,1000,1000,,,,,
53923422,1000,1000,1000,1000,,,,,
53925921,1000,1000,1000,1000,,,,,
53928420,1000,1000,1000,1000,,,,,
53930919,1000,1000,1000,1000,,,,,
53933418,1000,1000,1000,1000,,,,,
53935917,1000,1000,1000,1000,,,,,
53938416,1000,1000,1000,1000,,,,,
53940915,1000,1000,1000,1000,,,,,
53943414,1000,1000,1000,1000,,,,,
53945913,1000,1000,1000,1000,,,,,
53948412,1000,1000,1000,1000,,,,,
53950911,1000,1000,1000,1000,,,,,
53953410,1000,1000,1000,1000,,,,,
53955909,1001,1001,1001,1001,,,,,
53958408,1002,1002,1002,1002,,,,,
53960907,1003,1003,1003,1003,,,,,
53963406,1003,1003,1003,1003,,,,,
53965905,1004,1004,1004,1004,,,,,
53968404,1005,1005,1005,1005,,,,,
53970903,1006,1006,1006,1006,,,,,
53973402,1006,1006,1006,1006,,,,,
53975901,1007,1007,1007,1007,,,,,
53978400,1008,1008,1008,1008,,,,,
53980899,1009,1009,1009,1009,,,,,
53983398,1009,1009,1009,1009,,,,,
53985897,1010,1010,1010,1010,,,,,
53988396,1011,1011,1011,1011,,,,,
53990895,1012,1012,1012,1012,,,,,
53993394,1012,1012,1012,1012,,,,,
53995893,1013,1013,1013,1013,,,,,
53998392,1014,1014,1014,1014,,,,,
54000891,1015,1015,1015,1015,,,,,
54003390,1015,1015,1015,1015,,,,,
54005889,1016,1016,1016,1016,,,,,
54008388,1017,1017,1017,1017,,,,,
54010887,1018,1018,1018,1018,,,,,
54013386,1018,1018,1018,1018,,,,,
54015885,1019,1019,1019,1019,,,,,
54018384,1020,1020,1020,1020,,,,,
54020883,1021,1021,1021,1021,,,,,
54023382,1021,1021,1021,1021,,,,,
54025881,1022,1022,1022,1022,,,,,
54028380,1023,1023,1023,1023,,,,,
54030879,1024,1024,1024,1024,,,,,
54033378,1024,1024,1024,1024,,,,,
54035877,1025,1025,1025,1025,,,,,
54038376,1026,1026,1026,1026,,,,,
54040875,1027,1027,1027,1027,,,,,
54043374,1027,1027,1027,1027,,,,,
54045873,1028,1028,1028,1028,,,,,
54048372,1029,1029,1029,1029,,,,,
54050871,1030,1030,1030,1030,,,,,
54053370,1030,1030,1030,1030,,,,,
54055869,1031,1031,1031,1031,,,,,
54058368,1032,1032,1032,1032,,,,,
54060867,1033,1033,1033,1033,,,,,
54063366,1033,1033,1033,1033,,,,,
54065865,1034,1034,1034,1034,,,,,
54068364,1035,1035,1035,1035,,,,,
54070863,1036,1036,1036,1036,,,,,
54073362,1036,1036,1036,1036,,,,,
54075861,1037,1037,1037,1037,,,,,
54078360,1038,1038,1038,1038,,,,,
54080859,1039,1039,1039,1039,,,,,
54083358,1039,1039,1039,1039,,,,,
54085857,1040,1040,1040,1040,,,,,
54088356,1041,1041,1041,1041,,,,,
54090855,1042,1042,1042,1042,,,,,
54093354,1042,1042,1042,1042,,,,,
54095853,1043,1043,1043,1043,,,,,
54098352,1044,1044,1044,1044,,,,,
54100851,1045,1045,1045,1045,,,,,
54103350,1045,1045,1045,1045,,,,,
54105849,1046,1046,1046,1046,,,,,
54108348,1047,1047,1047,1047,,,,,
54110847,1048,1048,1048,1048,,,,,
54113346,1048,1048,1048,1048,,,,,
54115845,1049,1049,1049,1049,,,,,
54118344,1050,1050,1050,1050,,,,,
54120843,1051,1051,1051,1051,,,,,
54123342,1051,1051,1051,1051,,,,,
54125841,1052,1052,1052,1052,,,,,
54128340,1053,1053,1053,1053,,,,,
54130839,1054,1054,1054,1054,,,,,
54133338,1054,1054,1054,1054,,,,,
54135837,1055,1055,1055,1055,,,,,
54138336,1056,1056,1056,1056,,,,,
54140835,1057,1057,1057,1057,,,,,
54143334,1057,1057,1057,1057,,,,,
54145833,1058,1058,1058,1058,,,,,
54148332,1059,1059,1059,1059,,,,,
54150831,1060,1060,1060,1060,,,,,
54153330,1060,1060,1060,1060,,,,,
54155829,1061,1061,1061,1061,,,,,
54158328,1062,1062,1062,1062,,,,,
54160827,1063,1063,1063,1063,,,,,
54163326,1063,1063,1063,1063,,,,,
54165825,1064,1064,1064,1064,,,,,
54168324,1065,1065,1065,1065,,,,,
54170823,1066,1066,1066,1066,,,,,
54173322,1066,1066,1066,1066,,,,,
54175821,1067,1067,1067,1067,,,,,
54178320,1068,1068,1068,1068,,,,,
54180819,1069,1069,1069,1069,,,,,
54183318,1069,1069,1069,1069,,,,,
54185817,1070,1070,1070,1070,,,,,
54188316,1071,1071,1071,1071,,,,,
54190815,1072,1072,1072,1072,,,,,
54193314,1072,1072,1072,1072,,,,,
54195813,1073,1073,1073,1073,,,,,
54198312,1074,1074,1074,1074,,,,,
54200811,1075,1075,1075,1075,,,,,
54203310,1075,1075,1075,1075,,,,,
54205809,1076,1076,1076,1076,,,,,
54208308,1077,1077,1077,1077,,,,,
54210807,1078,1078,1078,1078,,,,,
54213306,1078,1078,1078,1078,,,,,
54215805,1079,1079,1079,1079,,,,,
54218304,1080,1080,1080,1080,,,,,
54220803,1081,1081,1081,1081,,,,,
54223302,1081,1081,1081,1081,,,,,
54225801,1082,1082,1082,1082,,,,,
54228300,1083,1083,1083,1083,,,,,
54230799,1084,1084,1084,1084,,,,,
54233298,1084,1084,1084,1084,,,,,
54235797,1085,1085,1085,1085,,,,,
54238296,1086,1086,1086,1086,,,,,
54240795,1087,1087,1087,1087,,,,,
54243294,1087,1087,1087,1087,,,,,
54245793,1088,1088,1088,1088,,,,,
54248292,1089,1089,1089,1089,,,,,
54250791,1090,1090,1090,1090,,,,,
54253290,1090,1090,1090,1090,,,,,
54255789,1091,1091,1091,1091,,,,,
54258288,1092,1092,1092,1092,,,,,
54260787,1093,1093,1093,1093,,,,,
54263286,1093,1093,1093,1093,,,,,
54265785,1094,1094,1094,1094,,,,,
54268284,1095,1095,1095,1095,,,,,
54270783,1096,1096,1096,1096,,,,,
54273282,1096,1096,1096,1096,,,,,
54275781,1097,1097,1097,1097,,,,,
54278280,1098,1098,1098,1098,,,,,
54280779,1099,1099,1099,1099,,,,,
54283278,1099,1099,1099,1099,,,,,
54285777,1100,1100,1100,1100,,,,,
54288276,1101,1101,1101,1101,,,,,
54290775,1101,1101,1101,1101,,,,,
54293274,1102,1102,1102,1102,,,,,
54295773,1103,1103,1103,1103,,,,,
54298272,1104,1104,1104,1104,,,,,
54300771,1104,1104,1104,1104,,,,,
54303270,1105,1105,1105,1105,,,,,
54305769,1106,1106,1106,1106,,,,,
54308268,1107,1107,1107,1107,,,,,
54310767,1107,1107,1107,1107,,,,,
54313266,1108,1108,1108,1108,,,,,
54315765,1109,1109,1109,1109,,,,,
54318264,1110,1110,1110,1110,,,,,
54320763,1110,1110,1110,1110,,,,,
54323262,1111,1111,1111,1111,,,,,
54325761,1112,1112,1112,1112,,,,,
54328260,1113,1113,1113,1113,,,,,
54330759,1113,1113,1113,1113,,,,,
54333258,1114,1114,1114,1114,,,,,
54335757,1115,1115,1115,1115,,,,,
54338256,1116,1116,1116,1116,,,,,
54340755,1116,1116,1116,1116,,,,,
54343254,1117,1117,1117,1117,,,,,
54345753,1118,1118,1118,1118,,,,,
54348252,1119,1119,1119,1119,,,,,
54350751,1119,1119,1119,1119,,,,,
54353250,1120,1120,1120,1120,,,,,
54355749,1121,1121,1121,1121,,,,,
54358248,1122,1122,1122,1122,,,,,
54360747,1122,1122,1122,1122,,,,,
54363246,1123,1123,1123,1123,,,,,
54365745,1124,1124,1124,1124,,,,,
54368244,1125,1125,1125,1125,,,,,
54370743,1125,1125,1125,1125,,,,,
54373242,1126,1126,1126,1126,,,,,
54375741,1127,1127,1127,1127,,,,,
54378240,1128,1128,1128,1128,,,,,
54380739,1128,1128,1128,1128,,,,,
54383238,1129,1129,1129,1129,,,,,
54385737,1130,1130,1130,1130,,,,,
54388236,1131,1131,1131,1131,,,,,
54390735,1131,1131,1131,1131,,,,,
54393234,1132,1132,1132,1132,,,,,
54395733,1133,1133,1133,1133,,,,,
54398232,1134,1134,1134,1134,,,,,
54400731,1134,1134,1134,1134,,,,,
54403230,1135,1135,1135,1135,,,,,
54405729,1136,1136,1136,1136,,,,,
54408228,1137,1137,1137,1137,,,,,
54410727,1137,1137,1137,1137,,,,,
54413226,1138,1138,1138,1138,,,,,
54415725,1139,1139,1139,1139,,,,,
54418224,1140,1140,1140,1140,,,,,
54420723,1140,1140,1140,1140,,,,,
54423222,1141,1141,1141,1141,,,,,
54425721,1142,1142,1142,1142,,,,,
54428220,1143,1143,1143,1143,,,,,
54430719,1143,1143,1143,1143,,,,,
54433218,1144,1144,1144,1144,,,,,
54435717,1145,1145,1145,1145,,,,,
54438216,1146,1146,1146,1146,,,,,
54440715,1146,1146,1146,1146,,,,,
54443214,1147,1147,1147,1147,,,,,
54445713,1148,1148,1148,1148,,,,,
54448212,1149,1149,1149,1149,,,,,
54450711,1149,1149,1149,1149,,,,,
54453210,1150,1150,1150,1150,,,,,
54455709,1162,1153,1154,1162,,,,,
54458208,1170,1161,1162,1170,,,,,
54460707,1177,1169,1170,1178,,,,,
54463206,1185,1177,1178,1186,,,,,
54465705,1193,1185,1185,1193,,,,,
54468204,1200,1192,1193,1201,,,,,
54470703,1207,1200,1200,1208,,,,,
54473202,1215,1207,1208,1215,,,,,
54475701,1222,1214,1215,1222,,,,,
54478200,1229,1221,1222,1229,,,,,
54480699,1236,1228,1229,1236,,,,,
54483198,1242,1235,1236,1243,,,,,
54485697,1249,1242,1242,1250,,,,,
54488196,1256,1249,1249,1256,,,,,
54490695,1262,1255,1256,1263,,,,,
54493194,1269,1262,1262,1269,,,,,
54495693,1275,1268,1269,1276,,,,,
54498192,1281,1274,1275,1282,,,,,
54500691,1288,1281,1281,1288,,,,,
54503190,1294,1287,1287,1294,,,,,
54505689,1300,1293,1294,1300,,,,,
54508188,1306,1299,1300,1306,,,,,
54510687,1312,1305,1306,1312,,,,,
54513186,1318,1311,1312,1318,,,,,
54515685,1323,1317,1317,1324,,,,,
54518184,1329,1323,1323,1330,,,,,
54520683,1335,1328,1329,1335,,,,,
54523182,1341,1334,1335,1341,,,,,
54525681,1346,1340,1340,1347,,,,,
54528180,1352,1345,1346,1352,,,,,
54530679,1357,1351,1351,1358,,,,,
54533178,1363,1356,1357,1363,,,,,
54535677,1368,1362,1362,1369,,,,,
54538176,1373,1367,1368,1374,,,,,
54540675,1379,1373,1373,1379,,,,,
54543174,1384,1378,1378,1384,,,,,
54545673,1389,1383,1384,1390,,,,,
54548172,1394,1388,1389,1395,,,,,
54550671,1399,1394,1394,1400,,,,,
54553170,1405,1399,1399,1405,,,,,
54555669,1410,1404,1404,1410,,,,,
54558168,1415,1409,1409,1415,,,,,
54560667,1420,1414,1414,1420,,,,,
54563166,1425,1419,1419,1425,,,,,
54565665,1429,1424,1424,1430,,,,,
54568164,1434,1429,1429,1435,,,,,
54570663,1439,1434,1434,1440,,,,,
54573162,1444,1438,1439,1444,,,,,
54575661,1449,1443,1444,1449,,,,,
54578160,1453,1448,1448,1454,,,,,
54580659,1458,1453,1453,1458,,,,,
54583158,1463,1457,1458,1463,,,,,
54585657,1467,1462,1462,1468,,,,,
54588156,1472,1467,1467,1472,,,,,
54590655,1477,1471,1472,1477,,,,,
54593154,1481,1476,1476,1482,,,,,
54596486,1486,1480,1481,1486,,,,,
54598985,1490,1485,1485,1491,,,,,
54601484,1495,1489,1490,1495,,,,,
54603983,1499,1494,1494,1499,,,,,
54606482,1504,1498,1499,1504,,,,,
54608981,1508,1503,1503,1508,,,,,
54611480,1512,1507,1508,1513,,,,,
54613979,1517,1511,1512,1517,,,,,
54616478,1521,1516,1516,1521,,,,,
54618977,1525,1520,1521,1526,,,,,
54621476,1530,1524,1525,1530,,,,,
54623975,1534,1529,1529,1534,,,,,
54626474,1538,1533,1533,1538,,,,,
54628973,1542,1537,1537,1543,,,,,
54631472,1546,1541,1542,1547,,,,,
54633971,1551,1546,1546,1551,,,,,
54636470,1555,1550,1550,1555,,,,,
54638969,1559,1554,1554,1559,,,,,
54641468,1563,1558,1558,1563,,,,,
54643967,1567,1562,1562,1567,,,,,
54646466,1571,1566,1566,1571,,,,,
54648965,1575,1570,1570,1575,,,,,
54651464,1579,1574,1575,1579,,,,,
54653963,1583,1578,1579,1583,,,,,
54656462,1587,1582,1583,1587,,,,,
54658961,1591,1586,1587,1591,,,,,
54661460,1595,1590,1590,1595,,,,,
54663959,1599,1594,1594,1599,,,,,
54666458,1603,1598,1598,1603,,,,,
54668957,1607,1602,1602,1607,,,,,
54671456,1611,1606,1606,1611,,,,,
54673955,1614,1610,1610,1615,,,,,
54676454,1618,1613,1614,1618,,,,,
54678953,1622,1617,1618,1622,,,,,
54681452,1626,1621,1622,1626,,,,,
54683951,1630,1625,1625,1630,,,,,
54686450,1633,1629,1629,1634,,,,,
54688949,1637,1632,1633,1637,,,,,
54691448,1641,1636,1637,1641,,,,,
54693947,1645,1640,1640,1645,,,,,
54696446,1648,1644,1644,1648,,,,,
54698945,1652,1647,1648,1652,,,,,
54701444,1656,1651,1652,1656,,,,,
54703943,1659,1655,1655,1659,,,,,
54706442,1663,1658,1659,1663,,,,,
54708941,1667,1662,1662,1667,,,,,
54711440,1670,1666,1666,1670,,,,,
54713939,1674,1669,1670,1674,,,,,
54716438,1678,1673,1673,1678,,,,,
54718937,1681,1676,1677,1681,,,,,
54721436,1685,1680,1680,1685,,,,,
54723935,1688,1683,1684,1688,,,,,
54726434,1692,1687,1688,1692,,,,,
54728933,1695,1690,1691,1695,,,,,
54731432,1699,1694,1695,1699,,,,,
54733931,1702,1697,1698,1702,,,,,
54736430,1706,1701,1702,1706,,,,,
54738929,1709,1704,1705,1709,,,,,
54741428,1713,1708,1709,1713,,,,,
54743927,1716,1711,1712,1716,,,,,
54746426,1720,1715,1715,1720,,,,,
54748925,1723,1718,1719,1723,,,,,
54751424,1727,1721,1722,1726,,,,,
54753923,1730,1725,1726,1730,,,,,
54756422,1733,1728,1729,1733,,,,,
54758921,1737,1732,1733,1736,,,,,
54761420,1740,1735,1736,1740,,,,,
54763919,1744,1738,1739,1743,,,,,
54766418,1747,1742,1743,1747,,,,,
54768917,1750,1745,1746,1750,,,,,
54771416,1754,1748,1749,1753,,,,,
54773915,1757,1752,1753,1756,,,,,
54776414,1760,1755,1756,1760,,,,,
54778913,1763,1758,1759,1763,,,,,
54781412,1767,1761,1762,1766,,,,,
54783911,1770,1765,1766,1770,,,,,
54786410,1773,1768,1769,1773,,,,,
54788909,1776,1771,1772,1776,,,,,
54791408,1780,1774,1776,1779,,,,,
54793907,1783,1778,1779,1782,,,,,
54796406,1786,1781,1782,1786,,,,,
54798905,1789,1784,1785,1789,,,,,
54801404,1793,1787,1788,1792,,,,,
54803903,1796,1791,1792,1795,,,,,
54806402,1799,1794,1795,1798,,,,,
54808901,1802,1797,1798,1802,,,,,
54811400,1805,1800,1801,1805,,,,,
54813899,1808,1803,1804,1808,,,,,
54816398,1811,1806,1807,1811,,,,,
54818897,1815,1810,1810,1814,,,,,
54821396,1818,1813,1814,1817,,,,,
54823895,1821,1816,1817,1820,,,,,
54826394,1824,1819,1820,1823,,,,,
54828893,1827,1822,1823,1827,,,,,
54831392,1830,1825,1826,1830,,,,,
54833891,1833,1828,1829,1833,,,,,
54836390,1836,1831,1832,1836,,,,,
54838889,1839,1834,1835,1839,,,,,
54841388,1842,1837,1838,1842,,,,,
54843887,1845,1840,1841,1845,,,,,
54846386,1848,1843,1844,1848,,,,,
54848885,1851,1846,1847,1851,,,,,
54851384,1854,1849,1850,1854,,,,,
54853883,1857,1853,1853,1857,,,,,
54856382,1860,1856,1856,1860,,,,,
54858881,1863,1859,1859,1863,,,,,
54861380,1866,1862,1862,1866,,,,,
54863879,1869,1865,1865,1869,,,,,
54866378,1872,1868,1868,1872,,,,,
54868877,1875,1870,1871,1875,,,,,
54871376,1878,1873,1874,1878,,,,,
54873875,1881,1876,1877,1881,,,,,
54876374,1884,1879,1880,1884,,,,,
54878873,1887,1882,1883,1887,,,,,
54881372,1890,1885,1885,1890,,,,,
54883871,1893,1888,1888,1893,,,,,
54886370,1896,1891,1891,1896,,,,,
54888869,1898,1894,1894,1899,,,,,
54891368,1901,1897,1897,1902,,,,,
54893867,1904,1900,1900,1905,,,,,
54896366,1907,1903,1903,1907,,,,,
54898865,1909,1905,1905,1910,,,,,
54901364,1908,1904,1904,1909,,,,,
54903863,1908,1903,1903,1908,,,,,
54906362,1907,1902,1902,1907,,,,,
54908861,1906,1901,1901,1906,,,,,
54911360,1905,1900,1901,1906,,,,,
54913859,1905,1900,1900,1905,,,,,
54916358,1904,1899,1899,1904,,,,,
54918857,1903,1898,1899,1904,,,,,
54921356,1903,1898,1898,1903,,,,,
54923855,1902,1897,1897,1903,,,,,
54926354,1902,1897,1897,1902,,,,,
54928853,1901,1896,1897,1902,,,,,
54931352,1901,1896,1896,1901,,,,,
54933851,1901,1896,1896,1901,,,,,
54936350,1901,1896,1896,1901,,,,,
54938849,1901,1896,1896,1901,,,,,
54941348,1901,1896,1896,1901,,,,,
54943847,1901,1896,1896,1901,,,,,
54946346,1901,1896,1896,1901,,,,,
54948845,1901,1896,1897,1901,,,,,
54951344,1901,1896,1897,1901,,,,,
54953843,1901,1897,1897,1901,,,,,
54956342,1901,1897,1897,1901,,,,,
54958841,1901,1897,1897,1901,,,,,
54961340,1901,1897,1897,1901,,,,,
54963839,1901,1897,1897,1901,,,,,
54966338,1900,1897,1897,1901,,,,,
54968837,1900,1896,1897,1900,,,,,
54971336,1899,1896,1896,1899,,,,,
54973835,1898,1895,1895,1898,,,,,
54976334,1897,1894,1894,1897,,,,,
54978833,1896,1893,1893,1896,,,,,
54981332,1895,1892,1892,1895,,,,,
54983831,1893,1890,1891,1893,,,,,
54986330,1892,1889,1889,1892,,,,,
54988829,1890,1887,1887,1890,,,,,
54991328,1888,1885,1885,1888,,,,,
54993827,1886,1883,1883,1886,,,,,
54996326,1884,1881,1881,1884,,,,,
54998825,1882,1879,1879,1882,,,,,
55001324,1879,1876,1877,1879,,,,,
55003823,1877,1874,1874,1877,,,,,
55006322,1874,1872,1872,1875,,,,,
55008821,1872,1869,1869,1872,,,,,
55011320,1869,1866,1867,1869,,,,,
55013819,1866,1864,1864,1866,,,,,
55016318,1863,1861,1861,1864,,,,,
55018817,1860,1858,1858,1861,,,,,
55021316,1857,1855,1855,1858,,,,,
55023815,1854,1852,1852,1855,,,,,
55026314,1851,1849,1849,1852,,,,,
55028813,1848,1846,1846,1848,,,,,
55031312,1845,1843,1843,1845,,,,,
55033811,1842,1840,1840,1842,,,,,
55036310,1838,1836,1837,1839,,,,,
55038809,1835,1833,1834,1835,,,,,
55041308,1832,1830,1830,1832,,,,,
55043807,1828,1827,1827,1829,,,,,
55046306,1825,1823,1824,1825,,,,,
55048805,1821,1820,1820,1822,,,,,
55051304,1818,1817,1817,1818,,,,,
55053803,1815,1813,1813,1815,,,,,
55056302,1811,1810,1810,1812,,,,,
55058801,1808,1807,1807,1808,,,,,
55061300,1804,1803,1803,1805,,,,,
55063799,1801,1800,1800,1802,,,,,
55066298,1798,1797,1797,1798,,,,,
55068797,1794,1793,1794,1795,,,,,
55071296,1791,1790,1790,1792,,,,,
55073795,1788,1787,1787,1788,,,,,
55076294,1785,1784,1784,1785,,,,,
55078793,1781,1781,1781,1782,,,,,
55081292,1778,1777,1778,1779,,,,,
55083791,1775,1774,1774,1775,,,,,
55086290,1772,1771,1771,1772,,,,,
55088789,1768,1768,1768,1769,,,,,
55091288,1765,1765,1765,1766,,,,,
55093787,1762,1762,1762,1763,,,,,
55096286,1759,1759,1759,1759,,,,,
55098785,1756,1756,1756,1756,,,,,
55101284,1753,1752,1753,1753,,,,,
55103783,1750,1749,1750,1750,,,,,
55106282,1747,1746,1747,1747,,,,,
55108781,1744,1743,1744,1744,,,,,
55111280,1741,1740,1741,1741,,,,,
55113779,1738,1738,1738,1738,,,,,
55116278,1735,1735,1735,1735,,,,,
55118777,1732,1731,1731,1733,,,,,
55121276,1730,1728,1728,1730,,,,,
55123775,1727,1725,1725,1727,,,,,
55126274,1724,1722,1722,1725,,,,,
55128773,1721,1719,1719,1722,,,,,
55131272,1718,1716,1716,1719,,,,,
55133771,1716,1713,1714,1716,,,,,
55136270,1713,1711,1711,1713,,,,,
55138769,1710,1708,1708,1710,,,,,
55141268,1707,1706,1706,1708,,,,,
55143767,1704,1703,1703,1705,,,,,
55146266,1702,1701,1701,1703,,,,,
55148765,1699,1698,1698,1700,,,,,
55151264,1697,1696,1696,1698,,,,,
55153763,1694,1694,1693,1695,,,,,
55156262,1692,1691,1691,1693,,,,,
55158761,1689,1689,1688,1691,,,,,
