timestamp,TimeUS,C1,C2,C3,C4,C5,C6,C7,C8,C9,C10,C11,C12,C13,C14
1681115710.20000005,52828860,1000,1000,1000,1000,0,0,0,0,0,0,0,0,0,0
1681115710.29995990,52928820,1000,1000,1000,1000,0,0,0,0,0,0,0,0,0,0
1681115710.39991999,53028780,1000,1000,1000,1000,0,0,0,0,0,0,0,0,0,0
1681115710.49988008,53128740,1000,1000,1000,1000,0,0,0,0,0,0,0,0,0,0
1681115710.59983993,53228700,1000,1000,1000,1000,0,0,0,0,0,0,0,0,0,0
1681115710.69980001,53328660,1000,1000,1000,1000,0,0,0,0,0,0,0,0,0,0
1681115710.79976010,53428620,1000,1000,1000,1000,0,0,0,0,0,0,0,0,0,0
1681115710.89971995,53528580,1000,1000,1000,1000,0,0,0,0,0,0,0,0,0,0
1681115710.99968004,53628540,1000,1000,1000,1000,0,0,0,0,0,0,0,0,0,0
1681115711.09963989,53728500,1000,1000,1000,1000,0,0,0,0,0,0,0,0,0,0
1681115711.19959998,53828460,1000,1000,1000,1000,0,0,0,0,0,0,0,0,0,0
1681115711.29956007,53928420,1000,1000,1000,1000,0,0,0,0,0,0,0,0,0,0
1681115711.39951992,54028380,1000,1000,1000,1000,0,0,0,0,0,0,0,0,0,0
1681115711.49948001,54128340,1000,1000,1000,1000,0,0,0,0,0,0,0,0,0,0
1681115711.59944010,54228300,1000,1000,1000,1000,0,0,0,0,0,0,0,0,0,0
1681115711.69939995,54328260,1000,1000,1000,1000,0,0,0,0,0,0,0,0,0,0
1681115711.79936004,54428220,1000,1000,1000,1000,0,0,0,0,0,0,0,0,0,0
1681115711.89931989,54528180,1000,1000,1000,1000,0,0,0,0,0,0,0,0,0,0
1681115712.00011301,54628973,1000,1000,1000,1000,0,0,0,0,0,0,0,0,0,0
1681115712.10007310,54728933,1000,1000,1000,1000,0,0,0,0,0,0,0,0,0,0
1681115712.20003295,54828893,1014,1014,1014,1014,0,0,0,0,0,0,0,0,0,0
1681115712.29999304,54928853,1044,1044,1044,1044,0,0,0,0,0,0,0,0,0,0
1681115712.39995289,55028813,1074,1074,1074,1074,0,0,0,0,0,0,0,0,0,0
1681115712.49991298,55128773,1104,1104,1104,1104,0,0,0,0,0,0,0,0,0,0
1681115712.59987307,55228733,1134,1134,1134,1134,0,0,0,0,0,0,0,0,0,0
1681115712.69983292,55328693,1281,1274,1275,1282,0,0,0,0,0,0,0,0,0,0
1681115712.79979300,55428653,1490,1485,1485,1491,0,0,0,0,0,0,0,0,0,0
1681115712.89975309,55528613,1652,1647,1647,1652,0,0,0,0,0,0,0,0,0,0
1681115712.99971294,55628573,1789,1784,1784,1790,0,0,0,0,0,0,0,0,0,0
1681115713.09967303,55728533,1908,1903,1904,1908,0,0,0,0,0,0,0,0,0,0
1681115713.19963312,55828493,1880,1877,1877,1880,0,0,0,0,0,0,0,0,0,0
1681115713.29959297,55928453,1747,1746,1745,1749,0,0,0,0,0,0,0,0,0,0
1681115713.39955306,56028413,1648,1649,1646,1651,0,0,0,0,0,0,0,0,0,0
1681115713.49951291,56128373,1617,1619,1617,1619,0,0,0,0,0,0,0,0,0,0
1681115713.59947300,56228333,1621,1623,1622,1621,0,0,0,0,0,0,0,0,0,0
1681115713.69943309,56328293,1628,1629,1630,1627,0,0,0,0,0,0,0,0,0,0
1681115713.79939294,56428253,1628,1628,1629,1626,0,0,0,0,0,0,0,0,0,0
1681115713.89935303,56528213,1622,1622,1623,1621,0,0,0,0,0,0,0,0,0,0
1681115713.99931312,56628173,1618,1617,1618,1618,0,0,0,0,0,0,0,0,0,0
1681115714.10010600,56728966,1616,1615,1615,1615,0,0,0,0,0,0,0,0,0,0
1681115714.20006609,56828926,1615,1615,1615,1615,0,0,0,0,0,0,0,0,0,0
1681115714.30002594,56928886,1616,1616,1616,1615,0,0,0,0,0,0,0,0,0,0
1681115714.39998603,57028846,1617,1618,1618,1617,0,0,0,0,0,0,0,0,0,0
1681115714.49994612,57128806,1588,1588,1595,1582,0,0,0,0,0,0,0,0,0,0
1681115714.59990597,57228766,1573,1574,1579,1567,0,0,0,0,0,0,0,0,0,0
1681115714.69986606,57328726,1562,1562,1564,1561,0,0,0,0,0,0,0,0,0,0
1681115714.79982591,57428686,1553,1552,1550,1555,0,0,0,0,0,0,0,0,0,0
1681115714.89978600,57528646,1546,1545,1537,1554,0,0,0,0,0,0,0,0,0,0
1681115714.99974608,57628606,1539,1539,1531,1547,0,0,0,0,0,0,0,0,0,0
1681115715.09970593,57728566,1533,1533,1528,1538,0,0,0,0,0,0,0,0,0,0
1681115715.19966602,57828526,1528,1528,1526,1530,0,0,0,0,0,0,0,0,0,0
1681115715.29962611,57928486,1527,1527,1528,1527,0,0,0,0,0,0,0,0,0,0
1681115715.39958596,58028446,1528,1528,1530,1526,0,0,0,0,0,0,0,0,0,0
1681115715.49954605,58128406,1531,1531,1534,1528,0,0,0,0,0,0,0,0,0,0
1681115715.59950590,58228366,1534,1534,1537,1531,0,0,0,0,0,0,0,0,0,0
1681115715.69946599,58328326,1537,1537,1540,1535,0,0,0,0,0,0,0,0,0,0
1681115715.79942608,58428286,1542,1542,1544,1541,0,0,0,0,0,0,0,0,0,0
1681115715.89938593,58528246,1545,1545,1546,1545,0,0,0,0,0,0,0,0,0,0
1681115715.99934602,58628206,1548,1548,1548,1548,0,0,0,0,0,0,0,0,0,0
1681115716.09930611,58728166,1551,1550,1550,1552,0,0,0,0,0,0,0,0,0,0
1681115716.20009899,58828959,1552,1552,1551,1553,0,0,0,0,0,0,0,0,0,0
1681115716.30005908,58928919,1555,1554,1555,1558,0,0,0,0,0,0,0,0,0,0
1681115716.40001893,59028879,1554,1554,1561,1564,0,0,0,0,0,0,0,0,0,0
1681115716.49997902,59128839,1556,1556,1564,1566,0,0,0,0,0,0,0,0,0,0
1681115716.59993911,59228799,1558,1560,1565,1565,0,0,0,0,0,0,0,0,0,0
1681115716.69989896,59328759,1562,1562,1566,1565,0,0,0,0,0,0,0,0,0,0
1681115716.79985905,59428719,1564,1564,1565,1564,0,0,0,0,0,0,0,0,0,0
1681115716.89981890,59528679,1567,1567,1565,1565,0,0,0,0,0,0,0,0,0,0
1681115716.99977899,59628639,1569,1569,1565,1565,0,0,0,0,0,0,0,0,0,0
1681115717.09973907,59728599,1571,1570,1566,1565,0,0,0,0,0,0,0,0,0,0
1681115717.19969893,59828559,1572,1571,1566,1566,0,0,0,0,0,0,0,0,0,0
1681115717.29965901,59928519,1572,1571,1566,1567,0,0,0,0,0,0,0,0,0,0
1681115717.39961910,60028479,1573,1572,1567,1568,0,0,0,0,0,0,0,0,0,0
1681115717.49957895,60128439,1573,1573,1570,1570,0,0,0,0,0,0,0,0,0,0
1681115717.59953904,60228399,1574,1574,1572,1571,0,0,0,0,0,0,0,0,0,0
1681115717.69949889,60328359,1574,1574,1573,1573,0,0,0,0,0,0,0,0,0,0
1681115717.79945898,60428319,1574,1574,1575,1574,0,0,0,0,0,0,0,0,0,0
1681115717.89941907,60528279,1575,1574,1576,1575,0,0,0,0,0,0,0,0,0,0
1681115717.99937892,60628239,1575,1574,1577,1576,0,0,0,0,0,0,0,0,0,0
1681115718.09933901,60728199,1575,1575,1577,1577,0,0,0,0,0,0,0,0,0,0
1681115718.19929910,60828159,1575,1575,1577,1577,0,0,0,0,0,0,0,0,0,0
1681115718.30009198,60928952,1575,1576,1577,1577,0,0,0,0,0,0,0,0,0,0
1681115718.40005207,61028912,1576,1576,1577,1578,0,0,0,0,0,0,0,0,0,0
1681115718.50001192,61128872,1576,1575,1577,1577,0,0,0,0,0,0,0,0,0,0
1681115718.59997201,61228832,1577,1577,1577,1577,0,0,0,0,0,0,0,0,0,0
1681115718.69993210,61328792,1576,1576,1576,1576,0,0,0,0,0,0,0,0,0,0
1681115718.79989195,61428752,1577,1577,1576,1576,0,0,0,0,0,0,0,0,0,0
1681115718.89985204,61528712,1577,1577,1577,1577,0,0,0,0,0,0,0,0,0,0
1681115718.99981189,61628672,1578,1578,1578,1577,0,0,0,0,0,0,0,0,0,0
1681115719.09977198,61728632,1578,1578,1577,1577,0,0,0,0,0,0,0,0,0,0
1681115719.19973207,61828592,1578,1579,1578,1578,0,0,0,0,0,0,0,0,0,0
1681115719.29969192,61928552,1578,1578,1577,1577,0,0,0,0,0,0,0,0,0,0
1681115719.39965200,62028512,1578,1578,1577,1577,0,0,0,0,0,0,0,0,0,0
1681115719.49961209,62128472,1578,1578,1578,1578,0,0,0,0,0,0,0,0,0,0
1681115719.59957194,62228432,1577,1577,1577,1577,0,0,0,0,0,0,0,0,0,0
1681115719.69953203,62328392,1578,1578,1578,1578,0,0,0,0,0,0,0,0,0,0
1681115719.79949212,62428352,1578,1578,1578,1579,0,0,0,0,0,0,0,0,0,0
1681115719.89945197,62528312,1578,1578,1578,1579,0,0,0,0,0,0,0,0,0,0
1681115719.99941206,62628272,1578,1578,1578,1578,0,0,0,0,0,0,0,0,0,0
1681115720.09937191,62728232,1578,1578,1578,1578,0,0,0,0,0,0,0,0,0,0
1681115720.19933200,62828192,1579,1579,1579,1579,0,0,0,0,0,0,0,0,0,0
1681115720.30012512,62928985,1579,1579,1579,1579,0,0,0,0,0,0,0,0,0,0
1681115720.40008497,63028945,1579,1579,1580,1579,0,0,0,0,0,0,0,0,0,0
1681115720.50004506,63128905,1579,1579,1579,1579,0,0,0,0,0,0,0,0,0,0
1681115720.60000491,63228865,1579,1579,1579,1580,0,0,0,0,0,0,0,0,0,0
1681115720.69996500,63328825,1580,1580,1580,1580,0,0,0,0,0,0,0,0,0,0
1681115720.79992509,63428785,1579,1579,1579,1579,0,0,0,0,0,0,0,0,0,0
1681115720.89988494,63528745,1579,1579,1579,1579,0,0,0,0,0,0,0,0,0,0
1681115720.99984503,63628705,1580,1580,1580,1580,0,0,0,0,0,0,0,0,0,0
1681115721.09980512,63728665,1580,1579,1580,1579,0,0,0,0,0,0,0,0,0,0
1681115721.19976497,63828625,1580,1580,1580,1580,0,0,0,0,0,0,0,0,0,0
1681115721.29972506,63928585,1580,1580,1579,1580,0,0,0,0,0,0,0,0,0,0
1681115721.39968491,64028545,1580,1580,1580,1580,0,0,0,0,0,0,0,0,0,0
1681115721.49964499,64128505,1580,1580,1580,1580,0,0,0,0,0,0,0,0,0,0
1681115721.59960508,64228465,1580,1580,1580,1580,0,0,0,0,0,0,0,0,0,0
1681115721.69956493,64328425,1580,1580,1580,1580,0,0,0,0,0,0,0,0,0,0
1681115721.79952502,64428385,1581,1581,1581,1581,0,0,0,0,0,0,0,0,0,0
1681115721.89948511,64528345,1581,1580,1581,1580,0,0,0,0,0,0,0,0,0,0
1681115721.99944496,64628305,1580,1580,1580,1580,0,0,0,0,0,0,0,0,0,0
1681115722.09940505,64728265,1581,1581,1581,1581,0,0,0,0,0,0,0,0,0,0
1681115722.19936490,64828225,1581,1582,1582,1582,0,0,0,0,0,0,0,0,0,0
1681115722.29932499,64928185,1581,1582,1582,1582,0,0,0,0,0,0,0,0,0,0
1681115722.40011811,65028978,1581,1581,1581,1581,0,0,0,0,0,0,0,0,0,0
1681115722.50007796,65128938,1582,1582,1584,1580,0,0,0,0,0,0,0,0,0,0
1681115722.60003805,65228898,1582,1583,1589,1574,0,0,0,0,0,0,0,0,0,0
1681115722.69999790,65328858,1580,1583,1583,1574,0,0,0,0,0,0,0,0,0,0
1681115722.79995799,65428818,1579,1581,1574,1574,0,0,0,0,0,0,0,0,0,0
1681115722.89991808,65528778,1578,1580,1567,1572,0,0,0,0,0,0,0,0,0,0
1681115722.99987793,65628738,1577,1579,1560,1567,0,0,0,0,0,0,0,0,0,0
1681115723.09983802,65728698,1578,1578,1556,1562,0,0,0,0,0,0,0,0,0,0
1681115723.19979811,65828658,1578,1577,1554,1557,0,0,0,0,0,0,0,0,0,0
1681115723.29975796,65928618,1579,1578,1555,1555,0,0,0,0,0,0,0,0,0,0
1681115723.39971805,66028578,1579,1577,1556,1553,0,0,0,0,0,0,0,0,0,0
1681115723.49967790,66128538,1578,1577,1556,1554,0,0,0,0,0,0,0,0,0,0
1681115723.59963799,66228498,1577,1577,1556,1554,0,0,0,0,0,0,0,0,0,0
1681115723.69959807,66328458,1576,1577,1555,1555,0,0,0,0,0,0,0,0,0,0
1681115723.79955792,66428418,1575,1577,1554,1554,0,0,0,0,0,0,0,0,0,0
1681115723.89951801,66528378,1574,1576,1552,1552,0,0,0,0,0,0,0,0,0,0
1681115723.99947810,66628338,1575,1576,1551,1551,0,0,0,0,0,0,0,0,0,0
1681115724.09943795,66728298,1576,1577,1549,1549,0,0,0,0,0,0,0,0,0,0
1681115724.19939804,66828258,1579,1581,1548,1547,0,0,0,0,0,0,0,0,0,0
1681115724.29935789,66928218,1582,1583,1545,1545,0,0,0,0,0,0,0,0,0,0
1681115724.39931798,67028178,1585,1586,1543,1542,0,0,0,0,0,0,0,0,0,0
1681115724.50011110,67128971,1588,1588,1540,1540,0,0,0,0,0,0,0,0,0,0
1681115724.60007095,67228931,1591,1592,1538,1538,0,0,0,0,0,0,0,0,0,0
1681115724.70003104,67328891,1594,1594,1536,1536,0,0,0,0,0,0,0,0,0,0
1681115724.79999089,67428851,1595,1595,1535,1536,0,0,0,0,0,0,0,0,0,0
1681115724.89995098,67528811,1595,1595,1535,1536,0,0,0,0,0,0,0,0,0,0
1681115724.99991107,67628771,1595,1594,1537,1539,0,0,0,0,0,0,0,0,0,0
1681115725.09987092,67728731,1592,1591,1540,1543,0,0,0,0,0,0,0,0,0,0
1681115725.19983101,67828691,1589,1587,1546,1550,0,0,0,0,0,0,0,0,0,0
1681115725.29979110,67928651,1582,1579,1555,1558,0,0,0,0,0,0,0,0,0,0
1681115725.39975095,68028611,1573,1569,1565,1568,0,0,0,0,0,0,0,0,0,0
1681115725.49971104,68128571,1563,1559,1578,1580,0,0,0,0,0,0,0,0,0,0
1681115725.59967089,68228531,1552,1548,1590,1591,0,0,0,0,0,0,0,0,0,0
1681115725.69963098,68328491,1540,1539,1601,1601,0,0,0,0,0,0,0,0,0,0
1681115725.79959106,68428451,1533,1533,1610,1608,0,0,0,0,0,0,0,0,0,0
1681115725.89955091,68528411,1529,1529,1614,1613,0,0,0,0,0,0,0,0,0,0
1681115725.99951100,68628371,1528,1530,1615,1614,0,0,0,0,0,0,0,0,0,0
1681115726.09947109,68728331,1532,1535,1613,1613,0,0,0,0,0,0,0,0,0,0
1681115726.19943094,68828291,1538,1540,1608,1608,0,0,0,0,0,0,0,0,0,0
1681115726.29939103,68928251,1547,1548,1602,1602,0,0,0,0,0,0,0,0,0,0
1681115726.39935112,69028211,1556,1557,1595,1595,0,0,0,0,0,0,0,0,0,0
1681115726.49931097,69128171,1564,1564,1587,1586,0,0,0,0,0,0,0,0,0,0
1681115726.60010409,69228964,1573,1573,1581,1579,0,0,0,0,0,0,0,0,0,0
1681115726.70006394,69328924,1580,1579,1575,1574,0,0,0,0,0,0,0,0,0,0
1681115726.80002403,69428884,1584,1583,1570,1569,0,0,0,0,0,0,0,0,0,0
1681115726.89998412,69528844,1586,1585,1566,1566,0,0,0,0,0,0,0,0,0,0
1681115726.99994397,69628804,1588,1586,1566,1566,0,0,0,0,0,0,0,0,0,0
1681115727.09990406,69728764,1587,1586,1566,1567,0,0,0,0,0,0,0,0,0,0
1681115727.19986391,69828724,1586,1584,1569,1569,0,0,0,0,0,0,0,0,0,0
1681115727.29982400,69928684,1582,1582,1571,1571,0,0,0,0,0,0,0,0,0,0
1681115727.39978409,70028644,1580,1580,1574,1574,0,0,0,0,0,0,0,0,0,0
1681115727.49974394,70128604,1577,1577,1577,1576,0,0,0,0,0,0,0,0,0,0
1681115727.59970403,70228564,1575,1575,1580,1579,0,0,0,0,0,0,0,0,0,0
1681115727.69966412,70328524,1573,1574,1582,1582,0,0,0,0,0,0,0,0,0,0
1681115727.79962397,70428484,1572,1572,1583,1583,0,0,0,0,0,0,0,0,0,0
1681115727.89958405,70528444,1572,1572,1583,1584,0,0,0,0,0,0,0,0,0,0
1681115727.99954391,70628404,1571,1571,1582,1582,0,0,0,0,0,0,0,0,0,0
1681115728.09950399,70728364,1573,1573,1582,1583,0,0,0,0,0,0,0,0,0,0
1681115728.19946408,70828324,1574,1574,1582,1581,0,0,0,0,0,0,0,0,0,0
1681115728.29942393,70928284,1576,1576,1581,1581,0,0,0,0,0,0,0,0,0,0
1681115728.39938402,71028244,1577,1578,1579,1579,0,0,0,0,0,0,0,0,0,0
1681115728.49934411,71128204,1579,1579,1579,1579,0,0,0,0,0,0,0,0,0,0
1681115728.59930396,71228164,1580,1580,1578,1578,0,0,0,0,0,0,0,0,0,0
1681115728.70009708,71328957,1581,1581,1577,1577,0,0,0,0,0,0,0,0,0,0
1681115728.80005693,71428917,1582,1581,1577,1577,0,0,0,0,0,0,0,0,0,0
1681115728.90001702,71528877,1584,1583,1313,1544,0,0,0,0,0,0,0,0,0,0
1681115728.99997711,71628837,1626,1626,1463,1506,0,0,0,0,0,0,0,0,0,0
1681115729.09993696,71728797,1656,1662,1572,1527,0,0,0,0,0,0,0,0,0,0
1681115729.19989705,71828757,1666,1678,1650,1554,0,0,0,0,0,0,0,0,0,0
1681115729.29985690,71928717,1626,1646,1650,1564,0,0,0,0,0,0,0,0,0,0
1681115729.39981699,72028677,1628,1649,1650,1597,0,0,0,0,0,0,0,0,0,0
1681115729.49977708,72128637,1628,1643,1650,1624,0,0,0,0,0,0,0,0,0,0
1681115729.59973693,72228597,1615,1618,1650,1651,0,0,0,0,0,0,0,0,0,0
1681115729.69969702,72328557,1584,1581,1650,1673,0,0,0,0,0,0,0,0,0,0
1681115729.79965711,72428517,1555,1537,1650,1682,0,0,0,0,0,0,0,0,0,0
1681115729.89961696,72528477,1535,1500,1650,1676,0,0,0,0,0,0,0,0,0,0
1681115729.99957705,72628437,1532,1493,1650,1667,0,0,0,0,0,0,0,0,0,0
1681115730.09953690,72728397,1552,1520,1650,1661,0,0,0,0,0,0,0,0,0,0
1681115730.19949698,72828357,1586,1572,1650,1655,0,0,0,0,0,0,0,0,0,0
1681115730.29945707,72928317,1619,1624,1650,1651,0,0,0,0,0,0,0,0,0,0
1681115730.39941692,73028277,1645,1663,1649,1648,0,0,0,0,0,0,0,0,0,0
1681115730.49937701,73128237,1622,1648,1614,1609,0,0,0,0,0,0,0,0,0,0
1681115730.59933710,73228197,1610,1638,1591,1577,0,0,0,0,0,0,0,0,0,0
1681115730.69929695,73328157,1601,1624,1564,1559,0,0,0,0,0,0,0,0,0,0
1681115730.80009007,73428950,1592,1605,1542,1549,0,0,0,0,0,0,0,0,0,0
1681115730.90004992,73528910,1584,1583,1526,1540,0,0,0,0,0,0,0,0,0,0
1681115731.00001001,73628870,1577,1565,1518,1531,0,0,0,0,0,0,0,0,0,0
1681115731.09997010,73728830,1570,1557,1516,1523,0,0,0,0,0,0,0,0,0,0
1681115731.19992995,73828790,1566,1556,1519,1519,0,0,0,0,0,0,0,0,0,0
1681115731.29989004,73928750,1562,1558,1522,1518,0,0,0,0,0,0,0,0,0,0
1681115731.39984989,74028710,1559,1561,1526,1519,0,0,0,0,0,0,0,0,0,0
1681115731.49980998,74128670,1559,1564,1530,1525,0,0,0,0,0,0,0,0,0,0
1681115731.59977007,74228630,1559,1565,1533,1530,0,0,0,0,0,0,0,0,0,0
1681115731.69972992,74328590,1560,1564,1535,1535,0,0,0,0,0,0,0,0,0,0
1681115731.79969001,74428550,1562,1564,1538,1539,0,0,0,0,0,0,0,0,0,0
1681115731.89965010,74528510,1565,1565,1541,1542,0,0,0,0,0,0,0,0,0,0
1681115731.99960995,74628470,1566,1566,1542,1543,0,0,0,0,0,0,0,0,0,0
1681115732.09957004,74728430,1570,1569,1545,1544,0,0,0,0,0,0,0,0,0,0
1681115732.19952989,74828390,1572,1572,1546,1545,0,0,0,0,0,0,0,0,0,0
1681115732.29948997,74928350,1575,1575,1545,1544,0,0,0,0,0,0,0,0,0,0
1681115732.39945006,75028310,1578,1579,1545,1544,0,0,0,0,0,0,0,0,0,0
1681115732.49940991,75128270,1582,1583,1545,1544,0,0,0,0,0,0,0,0,0,0
1681115732.59937000,75228230,1585,1586,1543,1544,0,0,0,0,0,0,0,0,0,0
1681115732.69933009,75328190,1587,1587,1542,1543,0,0,0,0,0,0,0,0,0,0
1681115732.80012298,75428983,1589,1589,1542,1544,0,0,0,0,0,0,0,0,0,0
1681115732.90008307,75528943,1590,1588,1542,1545,0,0,0,0,0,0,0,0,0,0
1681115733.00004292,75628903,1588,1586,1545,1547,0,0,0,0,0,0,0,0,0,0
1681115733.10000300,75728863,1585,1583,1549,1551,0,0,0,0,0,0,0,0,0,0
1681115733.19996309,75828823,1580,1579,1554,1557,0,0,0,0,0,0,0,0,0,0
1681115733.29992294,75928783,1574,1572,1559,1561,0,0,0,0,0,0,0,0,0,0
1681115733.39988303,76028743,1568,1567,1566,1568,0,0,0,0,0,0,0,0,0,0
1681115733.49984312,76128703,1563,1562,1573,1575,0,0,0,0,0,0,0,0,0,0
1681115733.59980297,76228663,1558,1557,1580,1580,0,0,0,0,0,0,0,0,0,0
1681115733.69976306,76328623,1554,1552,1586,1585,0,0,0,0,0,0,0,0,0,0
1681115733.79972291,76428583,1550,1550,1591,1589,0,0,0,0,0,0,0,0,0,0
1681115733.89968300,76528543,1549,1549,1595,1593,0,0,0,0,0,0,0,0,0,0
1681115733.99964309,76628503,1548,1548,1597,1595,0,0,0,0,0,0,0,0,0,0
1681115734.09960294,76728463,1547,1548,1598,1596,0,0,0,0,0,0,0,0,0,0
1681115734.19956303,76828423,1549,1549,1597,1596,0,0,0,0,0,0,0,0,0,0
1681115734.29952312,76928383,1550,1550,1595,1596,0,0,0,0,0,0,0,0,0,0
1681115734.39948297,77028343,1553,1553,1594,1595,0,0,0,0,0,0,0,0,0,0
1681115734.49944305,77128303,1556,1555,1592,1593,0,0,0,0,0,0,0,0,0,0
1681115734.59940290,77228263,1557,1557,1589,1590,0,0,0,0,0,0,0,0,0,0
1681115734.69936299,77328223,1560,1560,1586,1587,0,0,0,0,0,0,0,0,0,0
1681115734.79932308,77428183,1564,1564,1584,1585,0,0,0,0,0,0,0,0,0,0
1681115734.90011597,77528976,1566,1567,1582,1582,0,0,0,0,0,0,0,0,0,0
1681115735.00007606,77628936,1568,1570,1580,1579,0,0,0,0,0,0,0,0,0,0
1681115735.10003591,77728896,1572,1573,1578,1578,0,0,0,0,0,0,0,0,0,0
1681115735.19999599,77828856,1574,1573,1575,1575,0,0,0,0,0,0,0,0,0,0
1681115735.29995608,77928816,1577,1576,1574,1574,0,0,0,0,0,0,0,0,0,0
1681115735.39991593,78028776,1578,1578,1573,1573,0,0,0,0,0,0,0,0,0,0
1681115735.49987602,78128736,1578,1578,1571,1571,0,0,0,0,0,0,0,0,0,0
1681115735.59983611,78228696,1580,1580,1571,1571,0,0,0,0,0,0,0,0,0,0
1681115735.69979596,78328656,1581,1581,1571,1571,0,0,0,0,0,0,0,0,0,0
1681115735.79975605,78428616,1583,1583,1573,1573,0,0,0,0,0,0,0,0,0,0
1681115735.89971590,78528576,1582,1581,1573,1572,0,0,0,0,0,0,0,0,0,0
1681115735.99967599,78628536,1582,1581,1574,1573,0,0,0,0,0,0,0,0,0,0
1681115736.09963608,78728496,1582,1581,1575,1575,0,0,0,0,0,0,0,0,0,0
1681115736.19959593,78828456,1580,1579,1576,1575,0,0,0,0,0,0,0,0,0,0
1681115736.29955602,78928416,1579,1579,1577,1578,0,0,0,0,0,0,0,0,0,0
1681115736.39951611,79028376,1578,1578,1578,1578,0,0,0,0,0,0,0,0,0,0
1681115736.49947596,79128336,1577,1578,1579,1579,0,0,0,0,0,0,0,0,0,0
1681115736.59943604,79228296,1578,1579,1581,1581,0,0,0,0,0,0,0,0,0,0
1681115736.69939590,79328256,1578,1578,1581,1581,0,0,0,0,0,0,0,0,0,0
1681115736.79935598,79428216,1577,1578,1582,1581,0,0,0,0,0,0,0,0,0,0
1681115736.89931607,79528176,1578,1579,1583,1583,0,0,0,0,0,0,0,0,0,0
1681115737.00010896,79628969,1578,1578,1582,1582,0,0,0,0,0,0,0,0,0,0
1681115737.10006905,79728929,1579,1579,1582,1582,0,0,0,0,0,0,0,0,0,0
1681115737.20002890,79828889,1579,1579,1582,1581,0,0,0,0,0,0,0,0,0,0
1681115737.29998899,79928849,1579,1579,1581,1581,0,0,0,0,0,0,0,0,0,0
1681115737.39994907,80028809,1580,1580,1581,1581,0,0,0,0,0,0,0,0,0,0
1681115737.49990892,80128769,1580,1580,1581,1581,0,0,0,0,0,0,0,0,0,0
1681115737.59986901,80228729,1580,1580,1580,1580,0,0,0,0,0,0,0,0,0,0
1681115737.69982910,80328689,1581,1581,1580,1581,0,0,0,0,0,0,0,0,0,0
1681115737.79978895,80428649,1581,1581,1580,1581,0,0,0,0,0,0,0,0,0,0
1681115737.89974904,80528609,1581,1581,1580,1580,0,0,0,0,0,0,0,0,0,0
1681115737.99970889,80628569,1582,1582,1580,1580,0,0,0,0,0,0,0,0,0,0
1681115738.09966898,80728529,1582,1581,1579,1580,0,0,0,0,0,0,0,0,0,0
1681115738.19962907,80828489,1582,1582,1580,1580,0,0,0,0,0,0,0,0,0,0
1681115738.29958892,80928449,1582,1581,1580,1580,0,0,0,0,0,0,0,0,0,0
1681115738.39954901,81028409,1581,1581,1580,1580,0,0,0,0,0,0,0,0,0,0
1681115738.49950910,81128369,1581,1582,1580,1581,0,0,0,0,0,0,0,0,0,0
1681115738.59946895,81228329,1581,1581,1581,1580,0,0,0,0,0,0,0,0,0,0
1681115738.69942904,81328289,1580,1581,1581,1581,0,0,0,0,0,0,0,0,0,0
1681115738.79938889,81428249,1580,1581,1581,1581,0,0,0,0,0,0,0,0,0,0
1681115738.89934897,81528209,1580,1579,1580,1581,0,0,0,0,0,0,0,0,0,0
1681115738.99930906,81628169,1579,1580,1580,1580,0,0,0,0,0,0,0,0,0,0
1681115739.10010195,81728962,1580,1580,1581,1581,0,0,0,0,0,0,0,0,0,0
1681115739.20006204,81828922,1580,1581,1585,1575,0,0,0,0,0,0,0,0,0,0
1681115739.30002189,81928882,1580,1583,1586,1572,0,0,0,0,0,0,0,0,0,0
1681115739.39998198,82028842,1578,1582,1581,1574,0,0,0,0,0,0,0,0,0,0
1681115739.49994206,82128802,1576,1580,1573,1573,0,0,0,0,0,0,0,0,0,0
1681115739.59990191,82228762,1576,1578,1565,1571,0,0,0,0,0,0,0,0,0,0
1681115739.69986200,82328722,1576,1577,1559,1567,0,0,0,0,0,0,0,0,0,0
1681115739.79982209,82428682,1578,1576,1556,1562,0,0,0,0,0,0,0,0,0,0
1681115739.89978194,82528642,1579,1577,1554,1558,0,0,0,0,0,0,0,0,0,0
1681115739.99974203,82628602,1580,1578,1553,1555,0,0,0,0,0,0,0,0,0,0
1681115740.09970212,82728562,1580,1578,1554,1552,0,0,0,0,0,0,0,0,0,0
1681115740.19966197,82828522,1578,1578,1554,1551,0,0,0,0,0,0,0,0,0,0
1681115740.29962206,82928482,1577,1578,1554,1551,0,0,0,0,0,0,0,0,0,0
1681115740.39958191,83028442,1576,1577,1553,1551,0,0,0,0,0,0,0,0,0,0
1681115740.49954200,83128402,1576,1578,1553,1553,0,0,0,0,0,0,0,0,0,0
1681115740.59950209,83228362,1575,1577,1552,1551,0,0,0,0,0,0,0,0,0,0
1681115740.69946194,83328322,1576,1578,1551,1552,0,0,0,0,0,0,0,0,0,0
1681115740.79942203,83428282,1578,1580,1551,1551,0,0,0,0,0,0,0,0,0,0
1681115740.89938211,83528242,1580,1581,1549,1549,0,0,0,0,0,0,0,0,0,0
1681115740.99934196,83628202,1581,1583,1546,1546,0,0,0,0,0,0,0,0,0,0
1681115741.09930205,83728162,1585,1586,1545,1545,0,0,0,0,0,0,0,0,0,0
1681115741.20009494,83828955,1588,1588,1543,1542,0,0,0,0,0,0,0,0,0,0
1681115741.30005503,83928915,1590,1590,1541,1540,0,0,0,0,0,0,0,0,0,0
1681115741.40001512,84028875,1593,1593,1539,1540,0,0,0,0,0,0,0,0,0,0
1681115741.49997497,84128835,1594,1594,1537,1538,0,0,0,0,0,0,0,0,0,0
1681115741.59993505,84228795,1595,1595,1536,1538,0,0,0,0,0,0,0,0,0,0
1681115741.69989491,84328755,1595,1594,1538,1541,0,0,0,0,0,0,0,0,0,0
1681115741.79985499,84428715,1593,1591,1542,1545,0,0,0,0,0,0,0,0,0,0
1681115741.89981508,84528675,1589,1585,1548,1552,0,0,0,0,0,0,0,0,0,0
1681115741.99977493,84628635,1582,1577,1558,1561,0,0,0,0,0,0,0,0,0,0
1681115742.09973502,84728595,1572,1567,1569,1571,0,0,0,0,0,0,0,0,0,0
1681115742.19969511,84828555,1561,1558,1581,1583,0,0,0,0,0,0,0,0,0,0
1681115742.29965496,84928515,1549,1548,1593,1593,0,0,0,0,0,0,0,0,0,0
1681115742.39961505,85028475,1543,1543,1604,1602,0,0,0,0,0,0,0,0,0,0
1681115742.49957490,85128435,1540,1541,1612,1608,0,0,0,0,0,0,0,0,0,0
1681115742.59953499,85228395,1539,1541,1615,1611,0,0,0,0,0,0,0,0,0,0
1681115742.69949508,85328355,1541,1543,1615,1612,0,0,0,0,0,0,0,0,0,0
1681115742.79945493,85428315,1544,1546,1613,1611,0,0,0,0,0,0,0,0,0,0
1681115742.89941502,85528275,1548,1549,1609,1608,0,0,0,0,0,0,0,0,0,0
1681115742.99937510,85628235,1552,1553,1604,1603,0,0,0,0,0,0,0,0,0,0
1681115743.09933496,85728195,1556,1556,1598,1598,0,0,0,0,0,0,0,0,0,0
1681115743.19929504,85828155,1561,1561,1592,1593,0,0,0,0,0,0,0,0,0,0
1681115743.30008793,85928948,1566,1565,1586,1588,0,0,0,0,0,0,0,0,0,0
1681115743.40004802,86028908,1570,1570,1580,1582,0,0,0,0,0,0,0,0,0,0
1681115743.50000811,86128868,1575,1574,1575,1576,0,0,0,0,0,0,0,0,0,0
1681115743.59996796,86228828,1579,1579,1570,1571,0,0,0,0,0,0,0,0,0,0
1681115743.69992805,86328788,1582,1582,1566,1567,0,0,0,0,0,0,0,0,0,0
1681115743.79988790,86428748,1585,1584,1564,1565,0,0,0,0,0,0,0,0,0,0
1681115743.89984798,86528708,1586,1584,1564,1564,0,0,0,0,0,0,0,0,0,0
1681115743.99980807,86628668,1585,1584,1564,1565,0,0,0,0,0,0,0,0,0,0
1681115744.09976792,86728628,1584,1583,1567,1567,0,0,0,0,0,0,0,0,0,0
1681115744.19972801,86828588,1582,1582,1570,1570,0,0,0,0,0,0,0,0,0,0
1681115744.29968810,86928548,1580,1580,1573,1573,0,0,0,0,0,0,0,0,0,0
1681115744.39964795,87028508,1577,1577,1576,1576,0,0,0,0,0,0,0,0,0,0
1681115744.49960804,87128468,1575,1576,1579,1579,0,0,0,0,0,0,0,0,0,0
1681115744.59956789,87228428,1575,1575,1583,1582,0,0,0,0,0,0,0,0,0,0
1681115744.69952798,87328388,1573,1574,1584,1583,0,0,0,0,0,0,0,0,0,0
1681115744.79948807,87428348,1573,1574,1585,1585,0,0,0,0,0,0,0,0,0,0
1681115744.89944792,87528308,1574,1575,1586,1586,0,0,0,0,0,0,0,0,0,0
1681115744.99940801,87628268,1574,1574,1585,1585,0,0,0,0,0,0,0,0,0,0
1681115745.09936810,87728228,1575,1575,1584,1584,0,0,0,0,0,0,0,0,0,0
1681115745.19932795,87828188,1576,1576,1583,1583,0,0,0,0,0,0,0,0,0,0
1681115745.30012107,87928981,1577,1577,1581,1581,0,0,0,0,0,0,0,0,0,0
1681115745.40008092,88028941,1578,1578,1580,1580,0,0,0,0,0,0,0,0,0,0
1681115745.50004101,88128901,1579,1579,1578,1578,0,0,0,0,0,0,0,0,0,0
1681115745.60000110,88228861,1581,1580,1578,1578,0,0,0,0,0,0,0,0,0,0
1681115745.69996095,88328821,1582,1582,1578,1578,0,0,0,0,0,0,0,0,0,0
1681115745.79992104,88428781,1581,1582,1577,1577,0,0,0,0,0,0,0,0,0,0
1681115745.89988089,88528741,1581,1581,1576,1577,0,0,0,0,0,0,0,0,0,0
1681115745.99984097,88628701,1581,1580,1576,1577,0,0,0,0,0,0,0,0,0,0
1681115746.09980106,88728661,1581,1580,1577,1577,0,0,0,0,0,0,0,0,0,0
1681115746.19976091,88828621,1581,1581,1578,1578,0,0,0,0,0,0,0,0,0,0
1681115746.29972100,88928581,1581,1581,1579,1579,0,0,0,0,0,0,0,0,0,0
1681115746.39968109,89028541,1581,1581,1580,1580,0,0,0,0,0,0,0,0,0,0
1681115746.49964094,89128501,1580,1581,1581,1580,0,0,0,0,0,0,0,0,0,0
1681115746.59960103,89228461,1580,1580,1582,1581,0,0,0,0,0,0,0,0,0,0
1681115746.69956112,89328421,1580,1580,1582,1582,0,0,0,0,0,0,0,0,0,0
1681115746.79952097,89428381,1580,1580,1582,1582,0,0,0,0,0,0,0,0,0,0
1681115746.89948106,89528341,1580,1580,1582,1582,0,0,0,0,0,0,0,0,0,0
1681115746.99944091,89628301,1581,1581,1583,1583,0,0,0,0,0,0,0,0,0,0
1681115747.09940100,89728261,1581,1582,1585,1578,0,0,0,0,0,0,0,0,0,0
1681115747.19936109,89828221,1581,1582,1587,1573,0,0,0,0,0,0,0,0,0,0
1681115747.29932094,89928181,1578,1580,1583,1574,0,0,0,0,0,0,0,0,0,0
1681115747.40011406,90028974,1576,1576,1577,1576,0,0,0,0,0,0,0,0,0,0
1681115747.50007391,90128934,1572,1572,1571,1576,0,0,0,0,0,0,0,0,0,0
1681115747.60003400,90228894,1569,1568,1566,1573,0,0,0,0,0,0,0,0,0,0
1681115747.69999409,90328854,1567,1566,1564,1571,0,0,0,0,0,0,0,0,0,0
1681115747.79995394,90428814,1566,1565,1564,1567,0,0,0,0,0,0,0,0,0,0
1681115747.89991403,90528774,1566,1566,1564,1565,0,0,0,0,0,0,0,0,0,0
1681115747.99987411,90628734,1565,1565,1564,1563,0,0,0,0,0,0,0,0,0,0
1681115748.09983397,90728694,1565,1565,1565,1562,0,0,0,0,0,0,0,0,0,0
1681115748.19979405,90828654,1564,1565,1565,1561,0,0,0,0,0,0,0,0,0,0
1681115748.29975390,90928614,1564,1564,1564,1562,0,0,0,0,0,0,0,0,0,0
1681115748.39971399,91028574,1562,1563,1563,1562,0,0,0,0,0,0,0,0,0,0
1681115748.49967408,91128534,1562,1563,1562,1562,0,0,0,0,0,0,0,0,0,0
1681115748.59963393,91228494,1562,1562,1562,1562,0,0,0,0,0,0,0,0,0,0
1681115748.69959402,91328454,1561,1561,1562,1562,0,0,0,0,0,0,0,0,0,0
1681115748.79955411,91428414,1561,1561,1562,1562,0,0,0,0,0,0,0,0,0,0
1681115748.89951396,91528374,1560,1560,1561,1561,0,0,0,0,0,0,0,0,0,0
1681115748.99947405,91628334,1561,1560,1562,1560,0,0,0,0,0,0,0,0,0,0
1681115749.09943390,91728294,1559,1559,1560,1559,0,0,0,0,0,0,0,0,0,0
1681115749.19939399,91828254,1559,1559,1560,1559,0,0,0,0,0,0,0,0,0,0
1681115749.29935408,91928214,1559,1559,1560,1559,0,0,0,0,0,0,0,0,0,0
1681115749.39931393,92028174,1558,1559,1559,1558,0,0,0,0,0,0,0,0,0,0
1681115749.50010705,92128967,1558,1558,1559,1558,0,0,0,0,0,0,0,0,0,0
1681115749.60006690,92228927,1558,1558,1559,1557,0,0,0,0,0,0,0,0,0,0
1681115749.70002699,92328887,1558,1558,1559,1557,0,0,0,0,0,0,0,0,0,0
1681115749.79998708,92428847,1558,1558,1559,1556,0,0,0,0,0,0,0,0,0,0
1681115749.89994693,92528807,1559,1559,1559,1558,0,0,0,0,0,0,0,0,0,0
1681115749.99990702,92628767,1559,1560,1558,1561,0,0,0,0,0,0,0,0,0,0
1681115750.09986711,92728727,1560,1560,1557,1563,0,0,0,0,0,0,0,0,0,0
1681115750.19982696,92828687,1562,1561,1558,1564,0,0,0,0,0,0,0,0,0,0
1681115750.29978704,92928647,1562,1562,1559,1564,0,0,0,0,0,0,0,0,0,0
1681115750.39974689,93028607,1563,1562,1561,1563,0,0,0,0,0,0,0,0,0,0
1681115750.49970698,93128567,1562,1562,1562,1561,0,0,0,0,0,0,0,0,0,0
1681115750.59966707,93228527,1561,1561,1563,1558,0,0,0,0,0,0,0,0,0,0
1681115750.69962692,93328487,1561,1561,1562,1559,0,0,0,0,0,0,0,0,0,0
1681115750.79958701,93428447,1558,1558,1558,1560,0,0,0,0,0,0,0,0,0,0
1681115750.89954710,93528407,1555,1555,1554,1558,0,0,0,0,0,0,0,0,0,0
1681115750.99950695,93628367,1550,1550,1551,1553,0,0,0,0,0,0,0,0,0,0
1681115751.09946704,93728327,1543,1544,1545,1547,0,0,0,0,0,0,0,0,0,0
1681115751.19942689,93828287,1537,1537,1540,1540,0,0,0,0,0,0,0,0,0,0
1681115751.29938698,93928247,1530,1530,1533,1532,0,0,0,0,0,0,0,0,0,0
1681115751.39934707,94028207,1522,1522,1526,1525,0,0,0,0,0,0,0,0,0,0
1681115751.49930692,94128167,1519,1520,1521,1522,0,0,0,0,0,0,0,0,0,0
1681115751.60010004,94228960,1519,1518,1519,1520,0,0,0,0,0,0,0,0,0,0
1681115751.70005989,94328920,1521,1521,1519,1521,0,0,0,0,0,0,0,0,0,0
1681115751.80001998,94428880,1524,1525,1521,1523,0,0,0,0,0,0,0,0,0,0
1681115751.89998007,94528840,1528,1528,1523,1524,0,0,0,0,0,0,0,0,0,0
1681115751.99993992,94628800,1532,1532,1527,1527,0,0,0,0,0,0,0,0,0,0
1681115752.09990001,94728760,1537,1537,1532,1532,0,0,0,0,0,0,0,0,0,0
1681115752.19986010,94828720,1540,1540,1536,1535,0,0,0,0,0,0,0,0,0,0
1681115752.29981995,94928680,1541,1542,1539,1537,0,0,0,0,0,0,0,0,0,0
1681115752.39978004,95028640,1543,1543,1541,1540,0,0,0,0,0,0,0,0,0,0
1681115752.49973989,95128600,1544,1543,1543,1542,0,0,0,0,0,0,0,0,0,0
1681115752.59969997,95228560,1544,1545,1545,1544,0,0,0,0,0,0,0,0,0,0
1681115752.69966006,95328520,1544,1544,1546,1546,0,0,0,0,0,0,0,0,0,0
1681115752.79961991,95428480,1544,1544,1547,1547,0,0,0,0,0,0,0,0,0,0
1681115752.89958000,95528440,1545,1544,1548,1547,0,0,0,0,0,0,0,0,0,0
1681115752.99954009,95628400,1545,1545,1548,1548,0,0,0,0,0,0,0,0,0,0
1681115753.09949994,95728360,1545,1545,1548,1548,0,0,0,0,0,0,0,0,0,0
1681115753.19946003,95828320,1546,1546,1548,1549,0,0,0,0,0,0,0,0,0,0
1681115753.29942012,95928280,1545,1546,1547,1547,0,0,0,0,0,0,0,0,0,0
1681115753.39937997,96028240,1545,1545,1546,1546,0,0,0,0,0,0,0,0,0,0
1681115753.49934006,96128200,1545,1545,1546,1545,0,0,0,0,0,0,0,0,0,0
1681115753.59929991,96228160,1546,1546,1546,1546,0,0,0,0,0,0,0,0,0,0
1681115753.70009303,96328953,1546,1545,1545,1545,0,0,0,0,0,0,0,0,0,0
1681115753.80005312,96428913,1545,1545,1544,1544,0,0,0,0,0,0,0,0,0,0
1681115753.90001297,96528873,1545,1545,1544,1544,0,0,0,0,0,0,0,0,0,0
1681115753.99997306,96628833,1544,1545,1544,1543,0,0,0,0,0,0,0,0,0,0
1681115754.09993291,96728793,1544,1544,1543,1543,0,0,0,0,0,0,0,0,0,0
1681115754.19989300,96828753,1545,1544,1543,1544,0,0,0,0,0,0,0,0,0,0
1681115754.29985309,96928713,1544,1544,1543,1544,0,0,0,0,0,0,0,0,0,0
1681115754.39981294,97028673,1544,1544,1543,1544,0,0,0,0,0,0,0,0,0,0
1681115754.49977303,97128633,1544,1543,1543,1543,0,0,0,0,0,0,0,0,0,0
1681115754.59973311,97228593,1543,1543,1543,1543,0,0,0,0,0,0,0,0,0,0
1681115754.69969296,97328553,1544,1544,1544,1544,0,0,0,0,0,0,0,0,0,0
1681115754.79965305,97428513,1543,1544,1544,1544,0,0,0,0,0,0,0,0,0,0
1681115754.89961290,97528473,1544,1544,1544,1544,0,0,0,0,0,0,0,0,0,0
1681115754.99957299,97628433,1544,1544,1545,1544,0,0,0,0,0,0,0,0,0,0
1681115755.09953308,97728393,1543,1543,1544,1544,0,0,0,0,0,0,0,0,0,0
1681115755.19949293,97828353,1544,1544,1544,1544,0,0,0,0,0,0,0,0,0,0
1681115755.29945302,97928313,1544,1544,1544,1545,0,0,0,0,0,0,0,0,0,0
1681115755.39941311,98028273,1544,1544,1544,1544,0,0,0,0,0,0,0,0,0,0
1681115755.49937296,98128233,1544,1544,1544,1545,0,0,0,0,0,0,0,0,0,0
1681115755.59933305,98228193,1544,1544,1544,1544,0,0,0,0,0,0,0,0,0,0
1681115755.70012593,98328986,1544,1544,1544,1544,0,0,0,0,0,0,0,0,0,0
1681115755.80008602,98428946,1543,1543,1543,1543,0,0,0,0,0,0,0,0,0,0
1681115755.90004611,98528906,1544,1543,1544,1543,0,0,0,0,0,0,0,0,0,0
1681115756.00000596,98628866,1544,1544,1544,1544,0,0,0,0,0,0,0,0,0,0
1681115756.09996605,98728826,1543,1543,1543,1543,0,0,0,0,0,0,0,0,0,0
1681115756.19992590,98828786,1544,1544,1544,1544,0,0,0,0,0,0,0,0,0,0
1681115756.29988599,98928746,1544,1544,1543,1544,0,0,0,0,0,0,0,0,0,0
1681115756.39984608,99028706,1544,1544,1544,1544,0,0,0,0,0,0,0,0,0,0
1681115756.49980593,99128666,1544,1544,1544,1544,0,0,0,0,0,0,0,0,0,0
1681115756.59976602,99228626,1544,1544,1544,1544,0,0,0,0,0,0,0,0,0,0
1681115756.69972610,99328586,1545,1545,1545,1544,0,0,0,0,0,0,0,0,0,0
1681115756.79968596,99428546,1544,1544,1544,1544,0,0,0,0,0,0,0,0,0,0
1681115756.89964604,99528506,1544,1544,1544,1544,0,0,0,0,0,0,0,0,0,0
1681115756.99960589,99628466,1544,1545,1544,1545,0,0,0,0,0,0,0,0,0,0
1681115757.09956598,99728426,1545,1544,1544,1545,0,0,0,0,0,0,0,0,0,0
1681115757.19952607,99828386,1545,1544,1545,1544,0,0,0,0,0,0,0,0,0,0
1681115757.29948592,99928346,1545,1546,1545,1545,0,0,0,0,0,0,0,0,0,0
1681115757.39944601,100028306,1545,1545,1545,1544,0,0,0,0,0,0,0,0,0,0
1681115757.49940610,100128266,1544,1544,1545,1545,0,0,0,0,0,0,0,0,0,0
1681115757.59936595,100228226,1544,1544,1544,1544,0,0,0,0,0,0,0,0,0,0
1681115757.69932604,100328186,1544,1543,1544,1544,0,0,0,0,0,0,0,0,0,0
1681115757.80011892,100428979,1543,1543,1543,1544,0,0,0,0,0,0,0,0,0,0
1681115757.90007901,100528939,1543,1543,1543,1544,0,0,0,0,0,0,0,0,0,0
1681115758.00003910,100628899,1544,1544,1544,1544,0,0,0,0,0,0,0,0,0,0
1681115758.09999895,100728859,1545,1544,1544,1544,0,0,0,0,0,0,0,0,0,0
1681115758.19995904,100828819,1544,1544,1544,1543,0,0,0,0,0,0,0,0,0,0
1681115758.29991889,100928779,1544,1545,1544,1544,0,0,0,0,0,0,0,0,0,0
1681115758.39987898,101028739,1545,1545,1545,1545,0,0,0,0,0,0,0,0,0,0
1681115758.49983907,101128699,1545,1545,1545,1544,0,0,0,0,0,0,0,0,0,0
1681115758.59979892,101228659,1545,1545,1545,1545,0,0,0,0,0,0,0,0,0,0
1681115758.69975901,101328619,1545,1544,1544,1545,0,0,0,0,0,0,0,0,0,0
1681115758.79971910,101428579,1544,1544,1545,1544,0,0,0,0,0,0,0,0,0,0
1681115758.89967895,101528539,1545,1545,1545,1545,0,0,0,0,0,0,0,0,0,0
1681115758.99963903,101628499,1544,1544,1544,1545,0,0,0,0,0,0,0,0,0,0
1681115759.09959888,101728459,1543,1544,1544,1544,0,0,0,0,0,0,0,0,0,0
1681115759.19955897,101828419,1544,1545,1545,1545,0,0,0,0,0,0,0,0,0,0
1681115759.29951906,101928379,1545,1545,1545,1545,0,0,0,0,0,0,0,0,0,0
1681115759.39947891,102028339,1546,1546,1546,1546,0,0,0,0,0,0,0,0,0,0
1681115759.49943900,102128299,1546,1545,1545,1546,0,0,0,0,0,0,0,0,0,0
1681115759.59939909,102228259,1546,1545,1545,1545,0,0,0,0,0,0,0,0,0,0
1681115759.69935894,102328219,1545,1544,1545,1544,0,0,0,0,0,0,0,0,0,0
1681115759.79931903,102428179,1544,1545,1545,1545,0,0,0,0,0,0,0,0,0,0
1681115759.90011191,102528972,1544,1545,1545,1545,0,0,0,0,0,0,0,0,0,0
1681115760.00007200,102628932,1544,1544,1545,1544,0,0,0,0,0,0,0,0,0,0
1681115760.10003209,102728892,1544,1544,1544,1545,0,0,0,0,0,0,0,0,0,0
1681115760.19999194,102828852,1544,1544,1545,1545,0,0,0,0,0,0,0,0,0,0
1681115760.29995203,102928812,1545,1544,1544,1545,0,0,0,0,0,0,0,0,0,0
1681115760.39991212,103028772,1544,1544,1544,1544,0,0,0,0,0,0,0,0,0,0
1681115760.49987197,103128732,1544,1544,1544,1545,0,0,0,0,0,0,0,0,0,0
1681115760.59983206,103228692,1545,1545,1544,1545,0,0,0,0,0,0,0,0,0,0
1681115760.69979191,103328652,1544,1544,1544,1544,0,0,0,0,0,0,0,0,0,0
1681115760.79975200,103428612,1544,1544,1544,1544,0,0,0,0,0,0,0,0,0,0
1681115760.89971209,103528572,1543,1544,1544,1543,0,0,0,0,0,0,0,0,0,0
1681115760.99967194,103628532,1545,1545,1545,1545,0,0,0,0,0,0,0,0,0,0
1681115761.09963202,103728492,1544,1544,1544,1544,0,0,0,0,0,0,0,0,0,0
1681115761.19959211,103828452,1532,1532,1536,1531,0,0,0,0,0,0,0,0,0,0
1681115761.29955196,103928412,1344,1340,1409,1340,0,0,0,0,0,0,0,0,0,0
1681115761.39951205,104028372,1245,1240,1351,1240,0,0,0,0,0,0,0,0,0,0
1681115761.49947190,104128332,1215,1209,1334,1210,0,0,0,0,0,0,0,0,0,0
1681115761.59943199,104228292,1194,1190,1324,1190,0,0,0,0,0,0,0,0,0,0
1681115761.69939208,104328252,1155,1150,1305,1150,0,0,0,0,0,0,0,0,0,0
1681115761.79935193,104428212,1172,1170,1154,1150,0,0,0,0,0,0,0,0,0,0
1681115761.89931202,104528172,1169,1166,1117,1150,0,0,0,0,0,0,0,0,0,0
1681115762.00010490,104628965,1169,1167,1117,1150,0,0,0,0,0,0,0,0,0,0
1681115762.10006499,104728925,1169,1166,1117,1150,0,0,0,0,0,0,0,0,0,0
1681115762.20002508,104828885,1168,1151,1128,1150,0,0,0,0,0,0,0,0,0,0
1681115762.29998493,104928845,1168,1157,1124,1150,0,0,0,0,0,0,0,0,0,0
1681115762.39994502,105028805,1168,1159,1123,1150,0,0,0,0,0,0,0,0,0,0
1681115762.49990511,105128765,1168,1158,1123,1150,0,0,0,0,0,0,0,0,0,0
1681115762.59986496,105228725,1167,1158,1123,1150,0,0,0,0,0,0,0,0,0,0
1681115762.69982505,105328685,1167,1157,1124,1150,0,0,0,0,0,0,0,0,0,0
1681115762.79978490,105428645,1167,1157,1124,1150,0,0,0,0,0,0,0,0,0,0
1681115762.89974499,105528605,1166,1160,1123,1150,0,0,0,0,0,0,0,0,0,0
1681115762.99970508,105628565,1165,1164,1122,1150,0,0,0,0,0,0,0,0,0,0
1681115763.09966493,105728525,1165,1163,1122,1150,0,0,0,0,0,0,0,0,0,0
1681115763.19962502,105828485,1165,1163,1122,1150,0,0,0,0,0,0,0,0,0,0
1681115763.29958510,105928445,1165,1162,1122,1150,0,0,0,0,0,0,0,0,0,0
1681115763.39954495,106028405,1150,1150,850,1150,0,0,0,0,0,0,0,0,0,0
1681115763.49950504,106128365,1000,1000,1000,1000,0,0,0,0,0,0,0,0,0,0
1681115763.59946489,106228325,1000,1000,1000,1000,0,0,0,0,0,0,0,0,0,0
1681115763.69942498,106328285,1000,1000,1000,1000,0,0,0,0,0,0,0,0,0,0
1681115763.79938507,106428245,1000,1000,1000,1000,0,0,0,0,0,0,0,0,0,0
1681115763.89934492,106528205,1000,1000,1000,1000,0,0,0,0,0,0,0,0,0,0
1681115763.99930501,106628165,1000,1000,1000,1000,0,0,0,0,0,0,0,0,0,0
1681115764.10009789,106728958,1000,1000,1000,1000,0,0,0,0,0,0,0,0,0,0
1681115764.20005798,106828918,1000,1000,1000,1000,0,0,0,0,0,0,0,0,0,0
1681115764.30001807,106928878,1000,1000,1000,1000,0,0,0,0,0,0,0,0,0,0
1681115764.39997792,107028838,1000,1000,1000,1000,0,0,0,0,0,0,0,0,0,0
1681115764.49993801,107128798,1000,1000,1000,1000,0,0,0,0,0,0,0,0,0,0
1681115764.59989810,107228758,1000,1000,1000,1000,0,0,0,0,0,0,0,0,0,0
1681115764.69985795,107328718,1000,1000,1000,1000,0,0,0,0,0,0,0,0,0,0
1681115764.79981804,107428678,1000,1000,1000,1000,0,0,0,0,0,0,0,0,0,0
1681115764.89977789,107528638,1000,1000,1000,1000,0,0,0,0,0,0,0,0,0,0
1681115764.99973798,107628598,1000,1000,1000,1000,0,0,0,0,0,0,0,0,0,0
1681115765.09969807,107728558,1000,1000,1000,1000,0,0,0,0,0,0,0,0,0,0
1681115765.19965792,107828518,1000,1000,1000,1000,0,0,0,0,0,0,0,0,0,0
1681115765.29961801,107928478,1000,1000,1000,1000,0,0,0,0,0,0,0,0,0,0
1681115765.39957809,108028438,1000,1000,1000,1000,0,0,0,0,0,0,0,0,0,0
1681115765.49953794,108128398,1000,1000,1000,1000,0,0,0,0,0,0,0,0,0,0
1681115765.59949803,108228358,1000,1000,1000,1000,0,0,0,0,0,0,0,0,0,0
1681115765.69945812,108328318,1000,1000,1000,1000,0,0,0,0,0,0,0,0,0,0
1681115765.79941797,108428278,1000,1000,1000,1000,0,0,0,0,0,0,0,0,0,0
1681115765.89937806,108528238,1000,1000,1000,1000,0,0,0,0,0,0,0,0,0,0
1681115765.99933791,108628198,1000,1000,1000,1000,0,0,0,0,0,0,0,0,0,0
1681115766.09929800,108728158,1000,1000,1000,1000,0,0,0,0,0,0,0,0,0,0
1681115766.20009089,108828951,1000,1000,1000,1000,0,0,0,0,0,0,0,0,0,0
1681115766.30005097,108928911,1000,1000,1000,1000,0,0,0,0,0,0,0,0,0,0
1681115766.40001106,109028871,1000,1000,1000,1000,0,0,0,0,0,0,0,0,0,0
1681115766.49997091,109128831,1000,1000,1000,1000,0,0,0,0,0,0,0,0,0,0
1681115766.59993100,109228791,1000,1000,1000,1000,0,0,0,0,0,0,0,0,0,0
1681115766.69989109,109328751,1000,1000,1000,1000,0,0,0,0,0,0,0,0,0,0
1681115766.79985094,109428711,1000,1000,1000,1000,0,0,0,0,0,0,0,0,0,0
1681115766.89981103,109528671,1000,1000,1000,1000,0,0,0,0,0,0,0,0,0,0
1681115766.99977112,109628631,1000,1000,1000,1000,0,0,0,0,0,0,0,0,0,0
1681115767.09973097,109728591,1000,1000,1000,1000,0,0,0,0,0,0,0,0,0,0
1681115767.19969106,109828551,1000,1000,1000,1000,0,0,0,0,0,0,0,0,0,0
1681115767.29965091,109928511,1000,1000,1000,1000,0,0,0,0,0,0,0,0,0,0
1681115767.39961100,110028471,1000,1000,1000,1000,0,0,0,0,0,0,0,0,0,0
1681115767.49957108,110128431,1000,1000,1000,1000,0,0,0,0,0,0,0,0,0,0
1681115767.59953094,110228391,1000,1000,1000,1000,0,0,0,0,0,0,0,0,0,0
1681115767.69949102,110328351,1000,1000,1000,1000,0,0,0,0,0,0,0,0,0,0
1681115767.79945111,110428311,1000,1000,1000,1000,0,0,0,0,0,0,0,0,0,0
1681115767.89941096,110528271,1000,1000,1000,1000,0,0,0,0,0,0,0,0,0,0
1681115767.99937105,110628231,1000,1000,1000,1000,0,0,0,0,0,0,0,0,0,0
1681115768.09933090,110728191,1000,1000,1000,1000,0,0,0,0,0,0,0,0,0,0
1681115768.20012403,110828984,1000,1000,1000,1000,0,0,0,0,0,0,0,0,0,0
1681115768.30008411,110928944,1000,1000,1000,1000,0,0,0,0,0,0,0,0,0,0
1681115768.40004396,111028904,1000,1000,1000,1000,0,0,0,0,0,0,0,0,0,0
1681115768.50000405,111128864,1000,1000,1000,1000,0,0,0,0,0,0,0,0,0,0
1681115768.59996390,111228824,1000,1000,1000,1000,0,0,0,0,0,0,0,0,0,0
1681115768.69992399,111328784,1000,1000,1000,1000,0,0,0,0,0,0,0,0,0,0
1681115768.79988408,111428744,1000,1000,1000,1000,0,0,0,0,0,0,0,0,0,0
1681115768.89984393,111528704,1000,1000,1000,1000,0,0,0,0,0,0,0,0,0,0
1681115768.99980402,111628664,1000,1000,1000,1000,0,0,0,0,0,0,0,0,0,0
1681115769.09976411,111728624,1000,1000,1000,1000,0,0,0,0,0,0,0,0,0,0
1681115769.19972396,111828584,1000,1000,1000,1000,0,0,0,0,0,0,0,0,0,0
1681115769.29968405,111928544,1000,1000,1000,1000,0,0,0,0,0,0,0,0,0,0
1681115769.39964390,112028504,1000,1000,1000,1000,0,0,0,0,0,0,0,0,0,0
1681115769.49960399,112128464,1000,1000,1000,1000,0,0,0,0,0,0,0,0,0,0
1681115769.59956408,112228424,1000,1000,1000,1000,0,0,0,0,0,0,0,0,0,0
1681115769.69952393,112328384,1000,1000,1000,1000,0,0,0,0,0,0,0,0,0,0
1681115769.79948401,112428344,1000,1000,1000,1000,0,0,0,0,0,0,0,0,0,0
1681115769.89944410,112528304,1000,1000,1000,1000,0,0,0,0,0,0,0,0,0,0
1681115769.99940395,112628264,1000,1000,1000,1000,0,0,0,0,0,0,0,0,0,0
1681115770.09936404,112728224,1000,1000,1000,1000,0,0,0,0,0,0,0,0,0,0
1681115770.19932389,112828184,1000,1000,1000,1000,0,0,0,0,0,0,0,0,0,0
1681115770.30011702,112928977,1000,1000,1000,1000,0,0,0,0,0,0,0,0,0,0
1681115770.40007710,113028937,1000,1000,1000,1000,0,0,0,0,0,0,0,0,0,0
1681115770.50003695,113128897,1000,1000,1000,1000,0,0,0,0,0,0,0,0,0,0
1681115770.59999704,113228857,1000,1000,1000,1000,0,0,0,0,0,0,0,0,0,0
1681115770.69995689,113328817,1000,1000,1000,1000,0,0,0,0,0,0,0,0,0,0
1681115770.79991698,113428777,1000,1000,1000,1000,0,0,0,0,0,0,0,0,0,0
1681115770.89987707,113528737,1000,1000,1000,1000,0,0,0,0,0,0,0,0,0,0
1681115770.99983692,113628697,1000,1000,1000,1000,0,0,0,0,0,0,0,0,0,0
1681115771.09979701,113728657,1000,1000,1000,1000,0,0,0,0,0,0,0,0,0,0
1681115771.19975710,113828617,1000,1000,1000,1000,0,0,0,0,0,0,0,0,0,0
1681115771.29971695,113928577,1000,1000,1000,1000,0,0,0,0,0,0,0,0,0,0
1681115771.39967704,114028537,1000,1000,1000,1000,0,0,0,0,0,0,0,0,0,0
1681115771.49963689,114128497,1000,1000,1000,1000,0,0,0,0,0,0,0,0,0,0
1681115771.59959698,114228457,1000,1000,1000,1000,0,0,0,0,0,0,0,0,0,0
1681115771.69955707,114328417,1000,1000,1000,1000,0,0,0,0,0,0,0,0,0,0
1681115771.79951692,114428377,1000,1000,1000,1000,0,0,0,0,0,0,0,0,0,0
1681115771.89947701,114528337,1000,1000,1000,1000,0,0,0,0,0,0,0,0,0,0
1681115771.99943709,114628297,1000,1000,1000,1000,0,0,0,0,0,0,0,0,0,0
1681115772.09939694,114728257,1000,1000,1000,1000,0,0,0,0,0,0,0,0,0,0
1681115772.19935703,114828217,1000,1000,1000,1000,0,0,0,0,0,0,0,0,0,0
1681115772.29931712,114928177,1000,1000,1000,1000,0,0,0,0,0,0,0,0,0,0
1681115772.40011001,115028970,1000,1000,1000,1000,0,0,0,0,0,0,0,0,0,0
1681115772.50007010,115128930,1000,1000,1000,1000,0,0,0,0,0,0,0,0,0,0
1681115772.60002995,115228890,1000,1000,1000,1000,0,0,0,0,0,0,0,0,0,0
1681115772.69999003,115328850,1000,1000,1000,1000,0,0,0,0,0,0,0,0,0,0
1681115772.79994988,115428810,1000,1000,1000,1000,0,0,0,0,0,0,0,0,0,0
1681115772.89990997,115528770,1000,1000,1000,1000,0,0,0,0,0,0,0,0,0,0
1681115772.99987006,115628730,1000,1000,1000,1000,0,0,0,0,0,0,0,0,0,0
1681115773.09982991,115728690,1000,1000,1000,1000,0,0,0,0,0,0,0,0,0,0
1681115773.19979000,115828650,1000,1000,1000,1000,0,0,0,0,0,0,0,0,0,0
1681115773.29975009,115928610,1000,1000,1000,1000,0,0,0,0,0,0,0,0,0,0
1681115773.39970994,116028570,1000,1000,1000,1000,0,0,0,0,0,0,0,0,0,0
1681115773.49967003,116128530,1000,1000,1000,1000,0,0,0,0,0,0,0,0,0,0
1681115773.59963012,116228490,1000,1000,1000,1000,0,0,0,0,0,0,0,0,0,0
1681115773.69958997,116328450,1000,1000,1000,1000,0,0,0,0,0,0,0,0,0,0
1681115773.79955006,116428410,1000,1000,1000,1000,0,0,0,0,0,0,0,0,0,0
1681115773.89950991,116528370,1000,1000,1000,1000,0,0,0,0,0,0,0,0,0,0
1681115773.99947000,116628330,1000,1000,1000,1000,0,0,0,0,0,0,0,0,0,0
1681115774.09943008,116728290,1000,1000,1000,1000,0,0,0,0,0,0,0,0,0,0
1681115774.19938993,116828250,1000,1000,1000,1000,0,0,0,0,0,0,0,0,0,0
1681115774.29935002,116928210,1000,1000,1000,1000,0,0,0,0,0,0,0,0,0,0
1681115774.39931011,117028170,1000,1000,1000,1000,0,0,0,0,0,0,0,0,0,0
1681115774.50010300,117128963,1000,1000,1000,1000,0,0,0,0,0,0,0,0,0,0
1681115774.60006309,117228923,1000,1000,1000,1000,0,0,0,0,0,0,0,0,0,0
1681115774.70002294,117328883,1000,1000,1000,1000,0,0,0,0,0,0,0,0,0,0
1681115774.79998302,117428843,1000,1000,1000,1000,0,0,0,0,0,0,0,0,0,0
1681115774.89994311,117528803,1000,1000,1000,1000,0,0,0,0,0,0,0,0,0,0
1681115774.99990296,117628763,1000,1000,1000,1000,0,0,0,0,0,0,0,0,0,0
1681115775.09986305,117728723,1000,1000,1000,1000,0,0,0,0,0,0,0,0,0,0
1681115775.19982290,117828683,1000,1000,1000,1000,0,0,0,0,0,0,0,0,0,0
1681115775.29978299,117928643,1000,1000,1000,1000,0,0,0,0,0,0,0,0,0,0
1681115775.39974308,118028603,1000,1000,1000,1000,0,0,0,0,0,0,0,0,0,0
