timestamp,TimeUS,C1,C2,C3,C4,C5,C6,C7,C8,C9,C10,C11,C12,C13,C14
1681651873.50003982,81728962,1000,1000,1000,1000,0,0,0,0,0,0,0,0,0,0
1681651873.59999990,81828922,1000,1000,1000,1000,0,0,0,0,0,0,0,0,0,0
1681651873.69995975,81928882,1000,1000,1000,1000,0,0,0,0,0,0,0,0,0,0
1681651873.79991984,82028842,1000,1000,1000,1000,0,0,0,0,0,0,0,0,0,0
1681651873.89987993,82128802,1000,1000,1000,1000,0,0,0,0,0,0,0,0,0,0
1681651873.99983978,82228762,1000,1000,1000,1000,0,0,0,0,0,0,0,0,0,0
1681651874.09979987,82328722,1000,1000,1000,1000,0,0,0,0,0,0,0,0,0,0
1681651874.19975996,82428682,1000,1000,1000,1000,0,0,0,0,0,0,0,0,0,0
1681651874.29971981,82528642,1000,1000,1000,1000,0,0,0,0,0,0,0,0,0,0
1681651874.39967990,82628602,1000,1000,1000,1000,0,0,0,0,0,0,0,0,0,0
1681651874.49963999,82728562,1000,1000,1000,1000,0,0,0,0,0,0,0,0,0,0
1681651874.59959984,82828522,1000,1000,1000,1000,0,0,0,0,0,0,0,0,0,0
1681651874.69955993,82928482,1000,1000,1000,1000,0,0,0,0,0,0,0,0,0,0
1681651874.79951978,83028442,1000,1000,1000,1000,0,0,0,0,0,0,0,0,0,0
1681651874.89947987,83128402,1000,1000,1000,1000,0,0,0,0,0,0,0,0,0,0
1681651874.99943995,83228362,1000,1000,1000,1000,0,0,0,0,0,0,0,0,0,0
1681651875.09939981,83328322,1000,1000,1000,1000,0,0,0,0,0,0,0,0,0,0
1681651875.19935989,83428282,1000,1000,1000,1000,0,0,0,0,0,0,0,0,0,0
1681651875.29931998,83528242,1000,1000,1000,1000,0,0,0,0,0,0,0,0,0,0
1681651875.39927983,83628202,1000,1000,1000,1000,0,0,0,0,0,0,0,0,0,0
1681651875.49923992,83728162,1007,1007,1007,1007,0,0,0,0,0,0,0,0,0,0
1681651875.60003281,83828955,1037,1037,1037,1037,0,0,0,0,0,0,0,0,0,0
1681651875.69999290,83928915,1067,1067,1067,1067,0,0,0,0,0,0,0,0,0,0
1681651875.79995298,84028875,1097,1097,1097,1097,0,0,0,0,0,0,0,0,0,0
1681651875.89991283,84128835,1127,1127,1127,1127,0,0,0,0,0,0,0,0,0,0
1681651875.99987292,84228795,1224,1212,1213,1224,0,0,0,0,0,0,0,0,0,0
1681651876.09983277,84328755,1450,1441,1442,1451,0,0,0,0,0,0,0,0,0,0
1681651876.19979286,84428715,1620,1612,1612,1620,0,0,0,0,0,0,0,0,0,0
1681651876.29975295,84528675,1761,1754,1754,1762,0,0,0,0,0,0,0,0,0,0
1681651876.39971280,84628635,1885,1878,1878,1886,0,0,0,0,0,0,0,0,0,0
1681651876.49967289,84728595,1899,1893,1894,1899,0,0,0,0,0,0,0,0,0,0
1681651876.59963298,84828555,1785,1783,1784,1785,0,0,0,0,0,0,0,0,0,0
1681651876.69959283,84928515,1675,1676,1677,1675,0,0,0,0,0,0,0,0,0,0
1681651876.79955292,85028475,1632,1636,1636,1632,0,0,0,0,0,0,0,0,0,0
1681651876.89951277,85128435,1633,1636,1636,1633,0,0,0,0,0,0,0,0,0,0
1681651876.99947286,85228395,1640,1642,1642,1640,0,0,0,0,0,0,0,0,0,0
1681651877.09943295,85328355,1642,1634,1633,1643,0,0,0,0,0,0,0,0,0,0
1681651877.19939280,85428315,1621,1621,1613,1629,0,0,0,0,0,0,0,0,0,0
1681651877.29935288,85528275,1612,1612,1605,1618,0,0,0,0,0,0,0,0,0,0
1681651877.39931297,85628235,1607,1607,1605,1609,0,0,0,0,0,0,0,0,0,0
1681651877.49927282,85728195,1608,1608,1609,1606,0,0,0,0,0,0,0,0,0,0
1681651877.59923291,85828155,1613,1613,1617,1609,0,0,0,0,0,0,0,0,0,0
1681651877.70002580,85928948,1618,1617,1622,1613,0,0,0,0,0,0,0,0,0,0
1681651877.79998589,86028908,1588,1588,1603,1572,0,0,0,0,0,0,0,0,0,0
1681651877.89994597,86128868,1573,1574,1587,1561,0,0,0,0,0,0,0,0,0,0
1681651877.99990582,86228828,1562,1562,1566,1559,0,0,0,0,0,0,0,0,0,0
1681651878.09986591,86328788,1552,1552,1547,1557,0,0,0,0,0,0,0,0,0,0
1681651878.19982576,86428748,1544,1544,1532,1556,0,0,0,0,0,0,0,0,0,0
1681651878.29978585,86528708,1538,1537,1525,1549,0,0,0,0,0,0,0,0,0,0
1681651878.39974594,86628668,1532,1532,1524,1539,0,0,0,0,0,0,0,0,0,0
1681651878.49970579,86728628,1527,1526,1523,1529,0,0,0,0,0,0,0,0,0,0
1681651878.59966588,86828588,1526,1526,1527,1524,0,0,0,0,0,0,0,0,0,0
1681651878.69962597,86928548,1528,1528,1530,1525,0,0,0,0,0,0,0,0,0,0
1681651878.79958582,87028508,1531,1531,1534,1527,0,0,0,0,0,0,0,0,0,0
1681651878.89954591,87128468,1535,1535,1538,1532,0,0,0,0,0,0,0,0,0,0
1681651878.99950576,87228428,1538,1538,1541,1536,0,0,0,0,0,0,0,0,0,0
1681651879.09946585,87328388,1541,1541,1543,1540,0,0,0,0,0,0,0,0,0,0
1681651879.19942594,87428348,1544,1544,1545,1544,0,0,0,0,0,0,0,0,0,0
1681651879.29938579,87528308,1547,1547,1547,1548,0,0,0,0,0,0,0,0,0,0
1681651879.39934587,87628268,1550,1550,1550,1551,0,0,0,0,0,0,0,0,0,0
1681651879.49930596,87728228,1553,1553,1552,1555,0,0,0,0,0,0,0,0,0,0
1681651879.59926581,87828188,1556,1556,1552,1555,0,0,0,0,0,0,0,0,0,0
1681651879.70005894,87928981,1559,1559,1555,1556,0,0,0,0,0,0,0,0,0,0
1681651879.80001879,88028941,1560,1560,1560,1560,0,0,0,0,0,0,0,0,0,0
1681651879.89997888,88128901,1560,1560,1563,1563,0,0,0,0,0,0,0,0,0,0
1681651879.99993896,88228861,1561,1561,1567,1567,0,0,0,0,0,0,0,0,0,0
1681651880.09989882,88328821,1562,1562,1569,1568,0,0,0,0,0,0,0,0,0,0
1681651880.19985890,88428781,1562,1564,1570,1569,0,0,0,0,0,0,0,0,0,0
1681651880.29981875,88528741,1565,1566,1571,1571,0,0,0,0,0,0,0,0,0,0
1681651880.39977884,88628701,1567,1567,1570,1570,0,0,0,0,0,0,0,0,0,0
1681651880.49973893,88728661,1570,1569,1570,1571,0,0,0,0,0,0,0,0,0,0
1681651880.59969878,88828621,1571,1571,1570,1571,0,0,0,0,0,0,0,0,0,0
1681651880.69965887,88928581,1572,1572,1570,1571,0,0,0,0,0,0,0,0,0,0
1681651880.79961896,89028541,1573,1573,1570,1570,0,0,0,0,0,0,0,0,0,0
1681651880.89957881,89128501,1575,1574,1570,1571,0,0,0,0,0,0,0,0,0,0
1681651880.99953890,89228461,1575,1575,1571,1570,0,0,0,0,0,0,0,0,0,0
1681651881.09949899,89328421,1576,1576,1573,1571,0,0,0,0,0,0,0,0,0,0
1681651881.19945884,89428381,1576,1576,1574,1571,0,0,0,0,0,0,0,0,0,0
1681651881.29941893,89528341,1577,1576,1575,1574,0,0,0,0,0,0,0,0,0,0
1681651881.39937878,89628301,1575,1576,1574,1574,0,0,0,0,0,0,0,0,0,0
1681651881.49933887,89728261,1575,1575,1575,1575,0,0,0,0,0,0,0,0,0,0
1681651881.59929895,89828221,1575,1576,1576,1576,0,0,0,0,0,0,0,0,0,0
1681651881.69925880,89928181,1576,1576,1577,1577,0,0,0,0,0,0,0,0,0,0
1681651881.80005193,90028974,1575,1575,1576,1576,0,0,0,0,0,0,0,0,0,0
1681651881.90001178,90128934,1576,1575,1577,1577,0,0,0,0,0,0,0,0,0,0
1681651881.99997187,90228894,1576,1576,1577,1577,0,0,0,0,0,0,0,0,0,0
1681651882.09993196,90328854,1576,1576,1577,1577,0,0,0,0,0,0,0,0,0,0
1681651882.19989181,90428814,1577,1578,1579,1578,0,0,0,0,0,0,0,0,0,0
1681651882.29985189,90528774,1577,1577,1578,1578,0,0,0,0,0,0,0,0,0,0
1681651882.39981198,90628734,1578,1578,1579,1578,0,0,0,0,0,0,0,0,0,0
1681651882.49977183,90728694,1579,1578,1579,1578,0,0,0,0,0,0,0,0,0,0
1681651882.59973192,90828654,1579,1578,1578,1578,0,0,0,0,0,0,0,0,0,0
1681651882.69969177,90928614,1579,1579,1578,1579,0,0,0,0,0,0,0,0,0,0
1681651882.79965186,91028574,1578,1578,1578,1578,0,0,0,0,0,0,0,0,0,0
1681651882.89961195,91128534,1579,1579,1578,1579,0,0,0,0,0,0,0,0,0,0
1681651882.99957180,91228494,1579,1579,1579,1579,0,0,0,0,0,0,0,0,0,0
1681651883.09953189,91328454,1579,1579,1579,1579,0,0,0,0,0,0,0,0,0,0
1681651883.19949198,91428414,1579,1579,1579,1578,0,0,0,0,0,0,0,0,0,0
1681651883.29945183,91528374,1578,1578,1578,1578,0,0,0,0,0,0,0,0,0,0
1681651883.39941192,91628334,1579,1579,1578,1579,0,0,0,0,0,0,0,0,0,0
1681651883.49937177,91728294,1579,1579,1578,1579,0,0,0,0,0,0,0,0,0,0
1681651883.59933186,91828254,1578,1579,1579,1578,0,0,0,0,0,0,0,0,0,0
1681651883.69929194,91928214,1579,1579,1579,1579,0,0,0,0,0,0,0,0,0,0
1681651883.79925179,92028174,1579,1579,1580,1579,0,0,0,0,0,0,0,0,0,0
1681651883.90004492,92128967,1579,1579,1579,1580,0,0,0,0,0,0,0,0,0,0
1681651884.00000477,92228927,1578,1579,1579,1579,0,0,0,0,0,0,0,0,0,0
1681651884.09996486,92328887,1579,1579,1580,1580,0,0,0,0,0,0,0,0,0,0
1681651884.19992495,92428847,1581,1581,1581,1581,0,0,0,0,0,0,0,0,0,0
1681651884.29988480,92528807,1580,1580,1580,1580,0,0,0,0,0,0,0,0,0,0
1681651884.39984488,92628767,1580,1580,1580,1580,0,0,0,0,0,0,0,0,0,0
1681651884.49980497,92728727,1581,1580,1581,1581,0,0,0,0,0,0,0,0,0,0
1681651884.59976482,92828687,1581,1581,1581,1581,0,0,0,0,0,0,0,0,0,0
1681651884.69972491,92928647,1580,1580,1580,1580,0,0,0,0,0,0,0,0,0,0
1681651884.79968476,93028607,1581,1581,1581,1581,0,0,0,0,0,0,0,0,0,0
1681651884.89964485,93128567,1581,1581,1581,1581,0,0,0,0,0,0,0,0,0,0
1681651884.99960494,93228527,1581,1581,1582,1581,0,0,0,0,0,0,0,0,0,0
1681651885.09956479,93328487,1580,1581,1580,1581,0,0,0,0,0,0,0,0,0,0
1681651885.19952488,93428447,1580,1580,1580,1580,0,0,0,0,0,0,0,0,0,0
1681651885.29948497,93528407,1581,1581,1581,1581,0,0,0,0,0,0,0,0,0,0
1681651885.39944482,93628367,1581,1581,1581,1581,0,0,0,0,0,0,0,0,0,0
1681651885.49940491,93728327,1580,1580,1580,1580,0,0,0,0,0,0,0,0,0,0
1681651885.59936476,93828287,1580,1580,1580,1580,0,0,0,0,0,0,0,0,0,0
1681651885.69932485,93928247,1580,1580,1580,1581,0,0,0,0,0,0,0,0,0,0
1681651885.79928493,94028207,1580,1581,1584,1576,0,0,0,0,0,0,0,0,0,0
1681651885.89924479,94128167,1581,1582,1588,1573,0,0,0,0,0,0,0,0,0,0
1681651886.00003791,94228960,1580,1583,1582,1574,0,0,0,0,0,0,0,0,0,0
1681651886.09999776,94328920,1578,1581,1572,1573,0,0,0,0,0,0,0,0,0,0
1681651886.19995785,94428880,1576,1579,1564,1569,0,0,0,0,0,0,0,0,0,0
1681651886.29991794,94528840,1577,1578,1558,1565,0,0,0,0,0,0,0,0,0,0
1681651886.39987779,94628800,1578,1578,1555,1561,0,0,0,0,0,0,0,0,0,0
1681651886.49983788,94728760,1579,1577,1554,1557,0,0,0,0,0,0,0,0,0,0
1681651886.59979796,94828720,1580,1578,1556,1555,0,0,0,0,0,0,0,0,0,0
1681651886.69975781,94928680,1579,1578,1556,1554,0,0,0,0,0,0,0,0,0,0
1681651886.79971790,95028640,1578,1578,1556,1554,0,0,0,0,0,0,0,0,0,0
1681651886.89967775,95128600,1578,1578,1556,1554,0,0,0,0,0,0,0,0,0,0
1681651886.99963784,95228560,1576,1577,1555,1554,0,0,0,0,0,0,0,0,0,0
1681651887.09959793,95328520,1575,1577,1553,1554,0,0,0,0,0,0,0,0,0,0
1681651887.19955778,95428480,1575,1577,1552,1553,0,0,0,0,0,0,0,0,0,0
1681651887.29951787,95528440,1577,1578,1551,1551,0,0,0,0,0,0,0,0,0,0
1681651887.39947796,95628400,1578,1579,1549,1548,0,0,0,0,0,0,0,0,0,0
1681651887.49943781,95728360,1580,1581,1547,1546,0,0,0,0,0,0,0,0,0,0
1681651887.59939790,95828320,1583,1583,1544,1543,0,0,0,0,0,0,0,0,0,0
1681651887.69935799,95928280,1584,1586,1540,1540,0,0,0,0,0,0,0,0,0,0
1681651887.79931784,96028240,1589,1589,1539,1538,0,0,0,0,0,0,0,0,0,0
1681651887.89927793,96128200,1592,1592,1536,1536,0,0,0,0,0,0,0,0,0,0
1681651887.99923778,96228160,1594,1594,1535,1535,0,0,0,0,0,0,0,0,0,0
1681651888.10003090,96328953,1595,1594,1533,1535,0,0,0,0,0,0,0,0,0,0
1681651888.19999099,96428913,1595,1596,1535,1537,0,0,0,0,0,0,0,0,0,0
1681651888.29995084,96528873,1593,1593,1537,1539,0,0,0,0,0,0,0,0,0,0
1681651888.39991093,96628833,1590,1590,1541,1544,0,0,0,0,0,0,0,0,0,0
1681651888.49987078,96728793,1586,1583,1548,1551,0,0,0,0,0,0,0,0,0,0
1681651888.59983087,96828753,1579,1575,1558,1561,0,0,0,0,0,0,0,0,0,0
1681651888.69979095,96928713,1568,1564,1569,1572,0,0,0,0,0,0,0,0,0,0
1681651888.79975080,97028673,1557,1554,1582,1584,0,0,0,0,0,0,0,0,0,0
1681651888.89971089,97128633,1546,1542,1593,1594,0,0,0,0,0,0,0,0,0,0
1681651888.99967098,97228593,1536,1535,1604,1604,0,0,0,0,0,0,0,0,0,0
1681651889.09963083,97328553,1530,1530,1612,1610,0,0,0,0,0,0,0,0,0,0
1681651889.19959092,97428513,1527,1529,1615,1614,0,0,0,0,0,0,0,0,0,0
1681651889.29955077,97528473,1529,1531,1615,1614,0,0,0,0,0,0,0,0,0,0
1681651889.39951086,97628433,1533,1536,1611,1611,0,0,0,0,0,0,0,0,0,0
1681651889.49947095,97728393,1540,1542,1605,1605,0,0,0,0,0,0,0,0,0,0
1681651889.59943080,97828353,1549,1550,1598,1599,0,0,0,0,0,0,0,0,0,0
1681651889.69939089,97928313,1559,1559,1591,1591,0,0,0,0,0,0,0,0,0,0
1681651889.79935098,98028273,1568,1568,1584,1583,0,0,0,0,0,0,0,0,0,0
1681651889.89931083,98128233,1576,1575,1578,1577,0,0,0,0,0,0,0,0,0,0
1681651889.99927092,98228193,1581,1580,1572,1571,0,0,0,0,0,0,0,0,0,0
1681651890.10006380,98328986,1585,1583,1567,1567,0,0,0,0,0,0,0,0,0,0
1681651890.20002389,98428946,1587,1586,1565,1565,0,0,0,0,0,0,0,0,0,0
1681651890.29998398,98528906,1588,1586,1565,1566,0,0,0,0,0,0,0,0,0,0
1681651890.39994383,98628866,1587,1585,1567,1567,0,0,0,0,0,0,0,0,0,0
1681651890.49990392,98728826,1584,1583,1568,1569,0,0,0,0,0,0,0,0,0,0
1681651890.59986377,98828786,1581,1581,1571,1572,0,0,0,0,0,0,0,0,0,0
1681651890.69982386,98928746,1578,1579,1575,1575,0,0,0,0,0,0,0,0,0,0
1681651890.79978395,99028706,1576,1576,1579,1578,0,0,0,0,0,0,0,0,0,0
1681651890.89974380,99128666,1574,1575,1581,1581,0,0,0,0,0,0,0,0,0,0
1681651890.99970388,99228626,1572,1573,1583,1582,0,0,0,0,0,0,0,0,0,0
1681651891.09966397,99328586,1572,1572,1583,1583,0,0,0,0,0,0,0,0,0,0
1681651891.19962382,99428546,1572,1573,1584,1584,0,0,0,0,0,0,0,0,0,0
1681651891.29958391,99528506,1572,1572,1583,1583,0,0,0,0,0,0,0,0,0,0
1681651891.39954376,99628466,1574,1575,1583,1584,0,0,0,0,0,0,0,0,0,0
1681651891.49950385,99728426,1590,1589,1558,1567,0,0,0,0,0,0,0,0,0,0
1681651891.59946394,99828386,1592,1592,1583,1563,0,0,0,0,0,0,0,0,0,0
1681651891.69942379,99928346,1597,1597,1600,1573,0,0,0,0,0,0,0,0,0,0
1681651891.79938388,100028306,1598,1598,1608,1585,0,0,0,0,0,0,0,0,0,0
1681651891.89934397,100128266,1594,1594,1606,1593,0,0,0,0,0,0,0,0,0,0
1681651891.99930382,100228226,1587,1588,1600,1599,0,0,0,0,0,0,0,0,0,0
1681651892.09926391,100328186,1580,1581,1592,1601,0,0,0,0,0,0,0,0,0,0
1681651892.20005679,100428979,1574,1575,1586,1598,0,0,0,0,0,0,0,0,0,0
1681651892.30001688,100528939,1571,1571,1583,1594,0,0,0,0,0,0,0,0,0,0
1681651892.39997697,100628899,1571,1570,1582,1589,0,0,0,0,0,0,0,0,0,0
1681651892.49993682,100728859,1573,1572,1583,1585,0,0,0,0,0,0,0,0,0,0
1681651892.59989691,100828819,1575,1575,1583,1581,0,0,0,0,0,0,0,0,0,0
1681651892.69985676,100928779,1576,1576,1580,1578,0,0,0,0,0,0,0,0,0,0
1681651892.79981685,101028739,1578,1578,1579,1576,0,0,0,0,0,0,0,0,0,0
1681651892.89977694,101128699,1579,1579,1575,1574,0,0,0,0,0,0,0,0,0,0
1681651892.99973679,101228659,1580,1581,1574,1574,0,0,0,0,0,0,0,0,0,0
1681651893.09969687,101328619,1580,1581,1573,1574,0,0,0,0,0,0,0,0,0,0
1681651893.19965696,101428579,1581,1580,1573,1574,0,0,0,0,0,0,0,0,0,0
1681651893.29961681,101528539,1580,1579,1572,1573,0,0,0,0,0,0,0,0,0,0
1681651893.39957690,101628499,1579,1579,1574,1574,0,0,0,0,0,0,0,0,0,0
1681651893.49953675,101728459,1579,1579,1575,1575,0,0,0,0,0,0,0,0,0,0
1681651893.59949684,101828419,1578,1578,1576,1575,0,0,0,0,0,0,0,0,0,0
1681651893.69945693,101928379,1579,1578,1578,1577,0,0,0,0,0,0,0,0,0,0
1681651893.79941678,102028339,1577,1578,1582,1574,0,0,0,0,0,0,0,0,0,0
1681651893.89937687,102128299,1576,1581,1585,1569,0,0,0,0,0,0,0,0,0,0
1681651893.99933696,102228259,1577,1581,1579,1571,0,0,0,0,0,0,0,0,0,0
1681651894.09929681,102328219,1577,1580,1570,1571,0,0,0,0,0,0,0,0,0,0
1681651894.19925690,102428179,1576,1578,1562,1568,0,0,0,0,0,0,0,0,0,0
1681651894.30004978,102528972,1577,1578,1556,1563,0,0,0,0,0,0,0,0,0,0
1681651894.40000987,102628932,1579,1577,1552,1558,0,0,0,0,0,0,0,0,0,0
1681651894.49996996,102728892,1581,1578,1551,1555,0,0,0,0,0,0,0,0,0,0
1681651894.59992981,102828852,1582,1580,1553,1552,0,0,0,0,0,0,0,0,0,0
1681651894.69988990,102928812,1580,1579,1552,1550,0,0,0,0,0,0,0,0,0,0
1681651894.79984999,103028772,1580,1580,1553,1550,0,0,0,0,0,0,0,0,0,0
1681651894.89980984,103128732,1578,1580,1553,1551,0,0,0,0,0,0,0,0,0,0
1681651894.99976993,103228692,1576,1579,1552,1551,0,0,0,0,0,0,0,0,0,0
1681651895.09972978,103328652,1577,1579,1551,1552,0,0,0,0,0,0,0,0,0,0
1681651895.19968987,103428612,1578,1579,1552,1552,0,0,0,0,0,0,0,0,0,0
1681651895.29964995,103528572,1579,1580,1551,1552,0,0,0,0,0,0,0,0,0,0
1681651895.39960980,103628532,1580,1580,1549,1550,0,0,0,0,0,0,0,0,0,0
1681651895.49956989,103728492,1580,1581,1548,1548,0,0,0,0,0,0,0,0,0,0
1681651895.59952998,103828452,1582,1583,1546,1546,0,0,0,0,0,0,0,0,0,0
1681651895.69948983,103928412,1584,1584,1545,1546,0,0,0,0,0,0,0,0,0,0
1681651895.79944992,104028372,1586,1587,1545,1544,0,0,0,0,0,0,0,0,0,0
1681651895.89940977,104128332,1588,1589,1543,1543,0,0,0,0,0,0,0,0,0,0
1681651895.99936986,104228292,1589,1591,1542,1543,0,0,0,0,0,0,0,0,0,0
1681651896.09932995,104328252,1591,1590,1542,1545,0,0,0,0,0,0,0,0,0,0
1681651896.19928980,104428212,1591,1589,1546,1548,0,0,0,0,0,0,0,0,0,0
1681651896.29924989,104528172,1588,1584,1550,1552,0,0,0,0,0,0,0,0,0,0
1681651896.40004277,104628965,1582,1579,1557,1560,0,0,0,0,0,0,0,0,0,0
1681651896.50000286,104728925,1576,1572,1567,1569,0,0,0,0,0,0,0,0,0,0
1681651896.59996295,104828885,1566,1564,1577,1578,0,0,0,0,0,0,0,0,0,0
1681651896.69992280,104928845,1557,1555,1586,1586,0,0,0,0,0,0,0,0,0,0
1681651896.79988289,105028805,1549,1548,1594,1594,0,0,0,0,0,0,0,0,0,0
1681651896.89984298,105128765,1544,1544,1602,1602,0,0,0,0,0,0,0,0,0,0
1681651896.99980283,105228725,1540,1542,1606,1605,0,0,0,0,0,0,0,0,0,0
1681651897.09976292,105328685,1541,1542,1607,1606,0,0,0,0,0,0,0,0,0,0
1681651897.19972277,105428645,1544,1545,1606,1606,0,0,0,0,0,0,0,0,0,0
1681651897.29968286,105528605,1548,1549,1604,1603,0,0,0,0,0,0,0,0,0,0
1681651897.39964294,105628565,1553,1554,1600,1598,0,0,0,0,0,0,0,0,0,0
1681651897.49960279,105728525,1560,1560,1596,1595,0,0,0,0,0,0,0,0,0,0
1681651897.59956288,105828485,1566,1566,1590,1590,0,0,0,0,0,0,0,0,0,0
1681651897.69952297,105928445,1571,1571,1584,1584,0,0,0,0,0,0,0,0,0,0
1681651897.79948282,106028405,1576,1576,1578,1579,0,0,0,0,0,0,0,0,0,0
1681651897.89944291,106128365,1581,1580,1575,1575,0,0,0,0,0,0,0,0,0,0
1681651897.99940276,106228325,1583,1582,1572,1572,0,0,0,0,0,0,0,0,0,0
1681651898.09936285,106328285,1585,1584,1571,1571,0,0,0,0,0,0,0,0,0,0
1681651898.19932294,106428245,1586,1585,1571,1571,0,0,0,0,0,0,0,0,0,0
1681651898.29928279,106528205,1584,1583,1571,1571,0,0,0,0,0,0,0,0,0,0
1681651898.39924288,106628165,1584,1583,1573,1574,0,0,0,0,0,0,0,0,0,0
1681651898.50003576,106728958,1581,1581,1575,1575,0,0,0,0,0,0,0,0,0,0
1681651898.59999585,106828918,1578,1579,1577,1576,0,0,0,0,0,0,0,0,0,0
1681651898.69995594,106928878,1576,1577,1578,1579,0,0,0,0,0,0,0,0,0,0
1681651898.79991579,107028838,1575,1575,1580,1580,0,0,0,0,0,0,0,0,0,0
1681651898.89987588,107128798,1574,1575,1582,1582,0,0,0,0,0,0,0,0,0,0
1681651898.99983597,107228758,1573,1573,1582,1582,0,0,0,0,0,0,0,0,0,0
1681651899.09979582,107328718,1574,1574,1583,1583,0,0,0,0,0,0,0,0,0,0
1681651899.19975591,107428678,1574,1575,1583,1582,0,0,0,0,0,0,0,0,0,0
1681651899.29971576,107528638,1574,1575,1582,1582,0,0,0,0,0,0,0,0,0,0
1681651899.39967585,107628598,1575,1575,1581,1581,0,0,0,0,0,0,0,0,0,0
1681651899.49963593,107728558,1577,1577,1580,1580,0,0,0,0,0,0,0,0,0,0
1681651899.59959579,107828518,1578,1578,1580,1579,0,0,0,0,0,0,0,0,0,0
1681651899.69955587,107928478,1579,1579,1578,1578,0,0,0,0,0,0,0,0,0,0
1681651899.79951596,108028438,1580,1579,1578,1578,0,0,0,0,0,0,0,0,0,0
1681651899.89947581,108128398,1581,1580,1578,1578,0,0,0,0,0,0,0,0,0,0
1681651899.99943590,108228358,1581,1581,1578,1578,0,0,0,0,0,0,0,0,0,0
1681651900.09939599,108328318,1580,1581,1578,1578,0,0,0,0,0,0,0,0,0,0
1681651900.19935584,108428278,1580,1580,1577,1577,0,0,0,0,0,0,0,0,0,0
1681651900.29931593,108528238,1581,1581,1579,1579,0,0,0,0,0,0,0,0,0,0
1681651900.39927578,108628198,1581,1581,1579,1579,0,0,0,0,0,0,0,0,0,0
1681651900.49923587,108728158,1580,1580,1579,1580,0,0,0,0,0,0,0,0,0,0
1681651900.60002875,108828951,1579,1579,1579,1579,0,0,0,0,0,0,0,0,0,0
1681651900.69998884,108928911,1580,1579,1580,1580,0,0,0,0,0,0,0,0,0,0
1681651900.79994893,109028871,1580,1580,1581,1581,0,0,0,0,0,0,0,0,0,0
1681651900.89990878,109128831,1580,1581,1582,1582,0,0,0,0,0,0,0,0,0,0
1681651900.99986887,109228791,1580,1580,1582,1582,0,0,0,0,0,0,0,0,0,0
1681651901.09982896,109328751,1580,1580,1582,1581,0,0,0,0,0,0,0,0,0,0
1681651901.19978881,109428711,1580,1581,1582,1581,0,0,0,0,0,0,0,0,0,0
1681651901.29974890,109528671,1580,1580,1581,1581,0,0,0,0,0,0,0,0,0,0
1681651901.39970899,109628631,1581,1580,1581,1581,0,0,0,0,0,0,0,0,0,0
1681651901.49966884,109728591,1581,1580,1580,1581,0,0,0,0,0,0,0,0,0,0
1681651901.59962893,109828551,1582,1581,1581,1582,0,0,0,0,0,0,0,0,0,0
1681651901.69958878,109928511,1581,1581,1580,1581,0,0,0,0,0,0,0,0,0,0
1681651901.79954886,110028471,1581,1581,1581,1580,0,0,0,0,0,0,0,0,0,0
1681651901.89950895,110128431,1581,1582,1584,1577,0,0,0,0,0,0,0,0,0,0
1681651901.99946880,110228391,1581,1583,1587,1572,0,0,0,0,0,0,0,0,0,0
1681651902.09942889,110328351,1579,1583,1580,1572,0,0,0,0,0,0,0,0,0,0
1681651902.19938898,110428311,1578,1581,1571,1571,0,0,0,0,0,0,0,0,0,0
1681651902.29934883,110528271,1577,1579,1564,1569,0,0,0,0,0,0,0,0,0,0
1681651902.39930892,110628231,1577,1578,1558,1565,0,0,0,0,0,0,0,0,0,0
1681651902.49926877,110728191,1579,1579,1555,1561,0,0,0,0,0,0,0,0,0,0
1681651902.60006189,110828984,1581,1579,1555,1557,0,0,0,0,0,0,0,0,0,0
1681651902.70002198,110928944,1581,1580,1555,1555,0,0,0,0,0,0,0,0,0,0
1681651902.79998183,111028904,1580,1578,1555,1553,0,0,0,0,0,0,0,0,0,0
1681651902.89994192,111128864,1579,1579,1555,1553,0,0,0,0,0,0,0,0,0,0
1681651902.99990177,111228824,1579,1579,1556,1554,0,0,0,0,0,0,0,0,0,0
1681651903.09986186,111328784,1577,1579,1556,1555,0,0,0,0,0,0,0,0,0,0
1681651903.19982195,111428744,1575,1578,1554,1554,0,0,0,0,0,0,0,0,0,0
1681651903.29978180,111528704,1576,1577,1553,1553,0,0,0,0,0,0,0,0,0,0
1681651903.39974189,111628664,1577,1578,1552,1552,0,0,0,0,0,0,0,0,0,0
1681651903.49970198,111728624,1579,1579,1550,1550,0,0,0,0,0,0,0,0,0,0
1681651903.59966183,111828584,1581,1581,1548,1548,0,0,0,0,0,0,0,0,0,0
1681651903.69962192,111928544,1583,1584,1546,1546,0,0,0,0,0,0,0,0,0,0
1681651903.79958177,112028504,1585,1586,1543,1543,0,0,0,0,0,0,0,0,0,0
1681651903.89954185,112128464,1587,1588,1541,1541,0,0,0,0,0,0,0,0,0,0
1681651903.99950194,112228424,1589,1590,1540,1539,0,0,0,0,0,0,0,0,0,0
1681651904.09946179,112328384,1591,1592,1538,1538,0,0,0,0,0,0,0,0,0,0
1681651904.19942188,112428344,1594,1594,1537,1539,0,0,0,0,0,0,0,0,0,0
1681651904.29938197,112528304,1594,1594,1538,1540,0,0,0,0,0,0,0,0,0,0
1681651904.39934182,112628264,1593,1593,1540,1542,0,0,0,0,0,0,0,0,0,0
1681651904.49930191,112728224,1591,1588,1545,1548,0,0,0,0,0,0,0,0,0,0
1681651904.59926176,112828184,1585,1582,1552,1555,0,0,0,0,0,0,0,0,0,0
1681651904.70005488,112928977,1578,1574,1562,1564,0,0,0,0,0,0,0,0,0,0
1681651904.80001497,113028937,1568,1564,1573,1575,0,0,0,0,0,0,0,0,0,0
1681651904.89997482,113128897,1557,1554,1585,1586,0,0,0,0,0,0,0,0,0,0
1681651904.99993491,113228857,1548,1546,1596,1596,0,0,0,0,0,0,0,0,0,0
1681651905.09989476,113328817,1541,1540,1605,1605,0,0,0,0,0,0,0,0,0,0
1681651905.19985485,113428777,1535,1536,1611,1609,0,0,0,0,0,0,0,0,0,0
1681651905.29981494,113528737,1532,1534,1613,1611,0,0,0,0,0,0,0,0,0,0
1681651905.39977479,113628697,1535,1537,1612,1611,0,0,0,0,0,0,0,0,0,0
1681651905.49973488,113728657,1540,1542,1609,1608,0,0,0,0,0,0,0,0,0,0
1681651905.59969497,113828617,1547,1549,1604,1604,0,0,0,0,0,0,0,0,0,0
1681651905.69965482,113928577,1553,1554,1598,1597,0,0,0,0,0,0,0,0,0,0
1681651905.79961491,114028537,1561,1561,1591,1590,0,0,0,0,0,0,0,0,0,0
1681651905.89957476,114128497,1569,1569,1584,1584,0,0,0,0,0,0,0,0,0,0
1681651905.99953485,114228457,1575,1575,1578,1578,0,0,0,0,0,0,0,0,0,0
1681651906.09949493,114328417,1580,1579,1573,1572,0,0,0,0,0,0,0,0,0,0
1681651906.19945478,114428377,1583,1582,1569,1569,0,0,0,0,0,0,0,0,0,0
1681651906.29941487,114528337,1586,1584,1567,1567,0,0,0,0,0,0,0,0,0,0
1681651906.39937496,114628297,1587,1586,1567,1568,0,0,0,0,0,0,0,0,0,0
1681651906.49933481,114728257,1585,1584,1567,1568,0,0,0,0,0,0,0,0,0,0
1681651906.59929490,114828217,1584,1583,1569,1570,0,0,0,0,0,0,0,0,0,0
1681651906.69925499,114928177,1581,1581,1572,1573,0,0,0,0,0,0,0,0,0,0
1681651906.80004787,115028970,1579,1580,1576,1575,0,0,0,0,0,0,0,0,0,0
1681651906.90000796,115128930,1577,1577,1578,1578,0,0,0,0,0,0,0,0,0,0
1681651906.99996781,115228890,1576,1576,1581,1581,0,0,0,0,0,0,0,0,0,0
1681651907.09992790,115328850,1574,1574,1582,1582,0,0,0,0,0,0,0,0,0,0
1681651907.19988775,115428810,1573,1574,1584,1584,0,0,0,0,0,0,0,0,0,0
1681651907.29984784,115528770,1573,1574,1584,1584,0,0,0,0,0,0,0,0,0,0
1681651907.39980793,115628730,1574,1574,1584,1584,0,0,0,0,0,0,0,0,0,0
1681651907.49976778,115728690,1574,1574,1583,1583,0,0,0,0,0,0,0,0,0,0
1681651907.59972787,115828650,1576,1576,1582,1582,0,0,0,0,0,0,0,0,0,0
1681651907.69968796,115928610,1577,1578,1581,1582,0,0,0,0,0,0,0,0,0,0
1681651907.79964781,116028570,1579,1579,1581,1581,0,0,0,0,0,0,0,0,0,0
1681651907.89960790,116128530,1580,1580,1579,1579,0,0,0,0,0,0,0,0,0,0
1681651907.99956799,116228490,1581,1581,1579,1579,0,0,0,0,0,0,0,0,0,0
1681651908.09952784,116328450,1582,1581,1578,1578,0,0,0,0,0,0,0,0,0,0
1681651908.19948792,116428410,1581,1581,1577,1577,0,0,0,0,0,0,0,0,0,0
1681651908.29944777,116528370,1582,1581,1577,1578,0,0,0,0,0,0,0,0,0,0
1681651908.39940786,116628330,1581,1580,1577,1577,0,0,0,0,0,0,0,0,0,0
1681651908.49936795,116728290,1581,1581,1578,1578,0,0,0,0,0,0,0,0,0,0
1681651908.59932780,116828250,1580,1581,1578,1578,0,0,0,0,0,0,0,0,0,0
1681651908.69928789,116928210,1580,1580,1579,1579,0,0,0,0,0,0,0,0,0,0
1681651908.79924798,117028170,1580,1580,1580,1580,0,0,0,0,0,0,0,0,0,0
1681651908.90004086,117128963,1581,1581,1581,1581,0,0,0,0,0,0,0,0,0,0
1681651909.00000095,117228923,1580,1581,1582,1581,0,0,0,0,0,0,0,0,0,0
1681651909.09996080,117328883,1579,1579,1581,1581,0,0,0,0,0,0,0,0,0,0
1681651909.19992089,117428843,1579,1579,1581,1581,0,0,0,0,0,0,0,0,0,0
1681651909.29988098,117528803,1579,1579,1581,1581,0,0,0,0,0,0,0,0,0,0
1681651909.39984083,117628763,1579,1579,1581,1581,0,0,0,0,0,0,0,0,0,0
1681651909.49980092,117728723,1581,1581,1581,1582,0,0,0,0,0,0,0,0,0,0
1681651909.59976077,117828683,1581,1582,1582,1582,0,0,0,0,0,0,0,0,0,0
1681651909.69972086,117928643,1582,1581,1582,1581,0,0,0,0,0,0,0,0,0,0
1681651909.79968095,118028603,1581,1582,1584,1576,0,0,0,0,0,0,0,0,0,0
1681651909.89964080,118128563,1582,1583,1588,1573,0,0,0,0,0,0,0,0,0,0
1681651909.99960089,118228523,1580,1580,1582,1574,0,0,0,0,0,0,0,0,0,0
1681651910.09956098,118328483,1577,1577,1575,1576,0,0,0,0,0,0,0,0,0,0
1681651910.19952083,118428443,1574,1574,1570,1576,0,0,0,0,0,0,0,0,0,0
1681651910.29948092,118528403,1571,1570,1567,1574,0,0,0,0,0,0,0,0,0,0
1681651910.39944077,118628363,1569,1568,1566,1571,0,0,0,0,0,0,0,0,0,0
1681651910.49940085,118728323,1567,1567,1565,1568,0,0,0,0,0,0,0,0,0,0
1681651910.59936094,118828283,1567,1567,1567,1567,0,0,0,0,0,0,0,0,0,0
1681651910.69932079,118928243,1566,1566,1568,1565,0,0,0,0,0,0,0,0,0,0
1681651910.79928088,119028203,1566,1566,1567,1564,0,0,0,0,0,0,0,0,0,0
1681651910.89924097,119128163,1565,1565,1567,1564,0,0,0,0,0,0,0,0,0,0
1681651911.00003386,119228956,1564,1564,1566,1564,0,0,0,0,0,0,0,0,0,0
1681651911.09999394,119328916,1563,1563,1564,1564,0,0,0,0,0,0,0,0,0,0
1681651911.19995379,119428876,1563,1562,1563,1563,0,0,0,0,0,0,0,0,0,0
1681651911.29991388,119528836,1562,1561,1562,1562,0,0,0,0,0,0,0,0,0,0
1681651911.39987397,119628796,1561,1561,1562,1561,0,0,0,0,0,0,0,0,0,0
1681651911.49983382,119728756,1561,1561,1561,1561,0,0,0,0,0,0,0,0,0,0
1681651911.59979391,119828716,1560,1560,1561,1560,0,0,0,0,0,0,0,0,0,0
1681651911.69975376,119928676,1559,1559,1559,1559,0,0,0,0,0,0,0,0,0,0
1681651911.79971385,120028636,1558,1558,1559,1558,0,0,0,0,0,0,0,0,0,0
1681651911.89967394,120128596,1558,1558,1558,1557,0,0,0,0,0,0,0,0,0,0
1681651911.99963379,120228556,1558,1558,1558,1557,0,0,0,0,0,0,0,0,0,0
1681651912.09959388,120328516,1557,1556,1557,1556,0,0,0,0,0,0,0,0,0,0
1681651912.19955397,120428476,1558,1557,1558,1557,0,0,0,0,0,0,0,0,0,0
1681651912.29951382,120528436,1557,1557,1557,1556,0,0,0,0,0,0,0,0,0,0
1681651912.39947391,120628396,1557,1557,1558,1556,0,0,0,0,0,0,0,0,0,0
1681651912.49943376,120728356,1558,1558,1560,1557,0,0,0,0,0,0,0,0,0,0
1681651912.59939384,120828316,1559,1559,1560,1558,0,0,0,0,0,0,0,0,0,0
1681651912.69935393,120928276,1559,1560,1558,1561,0,0,0,0,0,0,0,0,0,0
1681651912.79931378,121028236,1560,1560,1557,1563,0,0,0,0,0,0,0,0,0,0
1681651912.89927387,121128196,1562,1562,1558,1565,0,0,0,0,0,0,0,0,0,0
1681651912.99923396,121228156,1562,1562,1560,1565,0,0,0,0,0,0,0,0,0,0
1681651913.10002685,121328949,1563,1563,1561,1563,0,0,0,0,0,0,0,0,0,0
1681651913.19998693,121428909,1561,1561,1560,1561,0,0,0,0,0,0,0,0,0,0
1681651913.29994678,121528869,1558,1558,1558,1558,0,0,0,0,0,0,0,0,0,0
1681651913.39990687,121628829,1553,1553,1554,1553,0,0,0,0,0,0,0,0,0,0
1681651913.49986696,121728789,1547,1548,1548,1547,0,0,0,0,0,0,0,0,0,0
1681651913.59982681,121828749,1541,1541,1542,1542,0,0,0,0,0,0,0,0,0,0
1681651913.69978690,121928709,1534,1533,1534,1535,0,0,0,0,0,0,0,0,0,0
1681651913.79974699,122028669,1527,1527,1527,1529,0,0,0,0,0,0,0,0,0,0
1681651913.89970684,122128629,1521,1522,1522,1523,0,0,0,0,0,0,0,0,0,0
1681651913.99966693,122228589,1519,1519,1519,1520,0,0,0,0,0,0,0,0,0,0
1681651914.09962678,122328549,1520,1521,1520,1521,0,0,0,0,0,0,0,0,0,0
1681651914.19958687,122428509,1523,1523,1522,1522,0,0,0,0,0,0,0,0,0,0
1681651914.29954696,122528469,1525,1525,1524,1524,0,0,0,0,0,0,0,0,0,0
1681651914.39950681,122628429,1529,1529,1528,1528,0,0,0,0,0,0,0,0,0,0
1681651914.49946690,122728389,1533,1534,1532,1533,0,0,0,0,0,0,0,0,0,0
1681651914.59942698,122828349,1538,1538,1537,1537,0,0,0,0,0,0,0,0,0,0
1681651914.69938684,122928309,1540,1540,1539,1539,0,0,0,0,0,0,0,0,0,0
1681651914.79934692,123028269,1542,1542,1541,1541,0,0,0,0,0,0,0,0,0,0
1681651914.89930677,123128229,1544,1544,1544,1543,0,0,0,0,0,0,0,0,0,0
1681651914.99926686,123228189,1546,1546,1546,1546,0,0,0,0,0,0,0,0,0,0
1681651915.10005999,123328982,1546,1546,1546,1546,0,0,0,0,0,0,0,0,0,0
1681651915.20001984,123428942,1546,1546,1547,1546,0,0,0,0,0,0,0,0,0,0
1681651915.29997993,123528902,1546,1546,1547,1547,0,0,0,0,0,0,0,0,0,0
1681651915.39993978,123628862,1546,1546,1547,1547,0,0,0,0,0,0,0,0,0,0
1681651915.49989986,123728822,1547,1547,1547,1548,0,0,0,0,0,0,0,0,0,0
1681651915.59985995,123828782,1545,1545,1546,1546,0,0,0,0,0,0,0,0,0,0
1681651915.69981980,123928742,1545,1546,1546,1546,0,0,0,0,0,0,0,0,0,0
1681651915.79977989,124028702,1545,1546,1546,1545,0,0,0,0,0,0,0,0,0,0
1681651915.89973998,124128662,1546,1546,1546,1546,0,0,0,0,0,0,0,0,0,0
1681651915.99969983,124228622,1545,1545,1545,1545,0,0,0,0,0,0,0,0,0,0
1681651916.09965992,124328582,1545,1545,1545,1545,0,0,0,0,0,0,0,0,0,0
1681651916.19961977,124428542,1545,1545,1545,1544,0,0,0,0,0,0,0,0,0,0
1681651916.29957986,124528502,1546,1545,1545,1545,0,0,0,0,0,0,0,0,0,0
1681651916.39953995,124628462,1544,1544,1544,1544,0,0,0,0,0,0,0,0,0,0
1681651916.49949980,124728422,1544,1544,1544,1544,0,0,0,0,0,0,0,0,0,0
1681651916.59945989,124828382,1544,1544,1544,1544,0,0,0,0,0,0,0,0,0,0
1681651916.69941998,124928342,1544,1544,1544,1544,0,0,0,0,0,0,0,0,0,0
1681651916.79937983,125028302,1543,1543,1542,1542,0,0,0,0,0,0,0,0,0,0
1681651916.89933991,125128262,1543,1543,1543,1543,0,0,0,0,0,0,0,0,0,0
1681651916.99929976,125228222,1544,1544,1544,1544,0,0,0,0,0,0,0,0,0,0
1681651917.09925985,125328182,1543,1543,1543,1543,0,0,0,0,0,0,0,0,0,0
1681651917.20005298,125428975,1544,1544,1544,1544,0,0,0,0,0,0,0,0,0,0
1681651917.30001283,125528935,1544,1544,1544,1544,0,0,0,0,0,0,0,0,0,0
1681651917.39997292,125628895,1544,1543,1544,1543,0,0,0,0,0,0,0,0,0,0
1681651917.49993277,125728855,1544,1544,1544,1544,0,0,0,0,0,0,0,0,0,0
1681651917.59989285,125828815,1544,1544,1544,1544,0,0,0,0,0,0,0,0,0,0
1681651917.69985294,125928775,1544,1544,1544,1544,0,0,0,0,0,0,0,0,0,0
1681651917.79981279,126028735,1543,1544,1543,1544,0,0,0,0,0,0,0,0,0,0
1681651917.89977288,126128695,1544,1544,1544,1544,0,0,0,0,0,0,0,0,0,0
1681651917.99973297,126228655,1543,1543,1543,1543,0,0,0,0,0,0,0,0,0,0
1681651918.09969282,126328615,1543,1543,1543,1544,0,0,0,0,0,0,0,0,0,0
1681651918.19965291,126428575,1544,1544,1544,1544,0,0,0,0,0,0,0,0,0,0
1681651918.29961276,126528535,1544,1543,1543,1544,0,0,0,0,0,0,0,0,0,0
1681651918.39957285,126628495,1543,1543,1543,1543,0,0,0,0,0,0,0,0,0,0
1681651918.49953294,126728455,1543,1543,1543,1543,0,0,0,0,0,0,0,0,0,0
1681651918.59949279,126828415,1543,1544,1543,1543,0,0,0,0,0,0,0,0,0,0
1681651918.69945288,126928375,1543,1543,1543,1543,0,0,0,0,0,0,0,0,0,0
1681651918.79941297,127028335,1545,1544,1544,1544,0,0,0,0,0,0,0,0,0,0
1681651918.89937282,127128295,1545,1544,1545,1544,0,0,0,0,0,0,0,0,0,0
1681651918.99933290,127228255,1544,1545,1544,1544,0,0,0,0,0,0,0,0,0,0
1681651919.09929276,127328215,1545,1545,1545,1545,0,0,0,0,0,0,0,0,0,0
1681651919.19925284,127428175,1544,1544,1544,1544,0,0,0,0,0,0,0,0,0,0
1681651919.30004597,127528968,1545,1544,1545,1545,0,0,0,0,0,0,0,0,0,0
1681651919.40000582,127628928,1544,1544,1545,1544,0,0,0,0,0,0,0,0,0,0
1681651919.49996591,127728888,1544,1544,1544,1544,0,0,0,0,0,0,0,0,0,0
1681651919.59992576,127828848,1544,1545,1544,1544,0,0,0,0,0,0,0,0,0,0
1681651919.69988585,127928808,1544,1544,1544,1544,0,0,0,0,0,0,0,0,0,0
1681651919.79984593,128028768,1544,1544,1545,1544,0,0,0,0,0,0,0,0,0,0
1681651919.89980578,128128728,1545,1545,1544,1545,0,0,0,0,0,0,0,0,0,0
1681651919.99976587,128228688,1544,1545,1544,1545,0,0,0,0,0,0,0,0,0,0
1681651920.09972596,128328648,1544,1544,1544,1544,0,0,0,0,0,0,0,0,0,0
1681651920.19968581,128428608,1544,1544,1544,1544,0,0,0,0,0,0,0,0,0,0
1681651920.29964590,128528568,1545,1544,1545,1545,0,0,0,0,0,0,0,0,0,0
1681651920.39960599,128628528,1544,1544,1544,1544,0,0,0,0,0,0,0,0,0,0
1681651920.49956584,128728488,1544,1544,1544,1544,0,0,0,0,0,0,0,0,0,0
1681651920.59952593,128828448,1544,1545,1545,1544,0,0,0,0,0,0,0,0,0,0
1681651920.69948578,128928408,1544,1543,1544,1544,0,0,0,0,0,0,0,0,0,0
1681651920.79944587,129028368,1544,1543,1543,1544,0,0,0,0,0,0,0,0,0,0
1681651920.89940596,129128328,1545,1544,1544,1544,0,0,0,0,0,0,0,0,0,0
1681651920.99936581,129228288,1544,1544,1544,1544,0,0,0,0,0,0,0,0,0,0
1681651921.09932590,129328248,1545,1545,1545,1545,0,0,0,0,0,0,0,0,0,0
1681651921.19928598,129428208,1544,1544,1544,1544,0,0,0,0,0,0,0,0,0,0
1681651921.29924583,129528168,1545,1544,1544,1545,0,0,0,0,0,0,0,0,0,0
1681651921.40003896,129628961,1544,1545,1545,1544,0,0,0,0,0,0,0,0,0,0
1681651921.49999881,129728921,1545,1545,1545,1544,0,0,0,0,0,0,0,0,0,0
1681651921.59995890,129828881,1544,1543,1544,1544,0,0,0,0,0,0,0,0,0,0
1681651921.69991899,129928841,1545,1544,1544,1545,0,0,0,0,0,0,0,0,0,0
1681651921.79987884,130028801,1544,1543,1544,1543,0,0,0,0,0,0,0,0,0,0
1681651921.89983892,130128761,1544,1544,1544,1544,0,0,0,0,0,0,0,0,0,0
1681651921.99979877,130228721,1544,1545,1544,1545,0,0,0,0,0,0,0,0,0,0
1681651922.09975886,130328681,1544,1544,1544,1545,0,0,0,0,0,0,0,0,0,0
1681651922.19971895,130428641,1544,1545,1544,1544,0,0,0,0,0,0,0,0,0,0
1681651922.29967880,130528601,1545,1545,1544,1545,0,0,0,0,0,0,0,0,0,0
1681651922.39963889,130628561,1544,1544,1544,1544,0,0,0,0,0,0,0,0,0,0
1681651922.49959898,130728521,1545,1545,1544,1545,0,0,0,0,0,0,0,0,0,0
1681651922.59955883,130828481,1544,1545,1545,1544,0,0,0,0,0,0,0,0,0,0
1681651922.69951892,130928441,1545,1544,1544,1544,0,0,0,0,0,0,0,0,0,0
1681651922.79947877,131028401,1544,1544,1544,1544,0,0,0,0,0,0,0,0,0,0
1681651922.89943886,131128361,1545,1545,1545,1545,0,0,0,0,0,0,0,0,0,0
1681651922.99939895,131228321,1545,1545,1545,1545,0,0,0,0,0,0,0,0,0,0
1681651923.09935880,131328281,1544,1543,1544,1544,0,0,0,0,0,0,0,0,0,0
1681651923.19931889,131428241,1544,1544,1544,1544,0,0,0,0,0,0,0,0,0,0
1681651923.29927897,131528201,1544,1543,1543,1544,0,0,0,0,0,0,0,0,0,0
1681651923.39923882,131628161,1544,1544,1544,1544,0,0,0,0,0,0,0,0,0,0
1681651923.50003195,131728954,1544,1544,1544,1544,0,0,0,0,0,0,0,0,0,0
1681651923.59999180,131828914,1544,1544,1544,1544,0,0,0,0,0,0,0,0,0,0
1681651923.69995189,131928874,1424,1423,1436,1424,0,0,0,0,0,0,0,0,0,0
1681651923.79991198,132028834,1277,1276,1309,1276,0,0,0,0,0,0,0,0,0,0
1681651923.89987183,132128794,1220,1218,1262,1219,0,0,0,0,0,0,0,0,0,0
1681651923.99983191,132228754,1197,1197,1245,1197,0,0,0,0,0,0,0,0,0,0
1681651924.09979177,132328714,1160,1158,1216,1159,0,0,0,0,0,0,0,0,0,0
1681651924.19975185,132428674,1151,1150,1210,1150,0,0,0,0,0,0,0,0,0,0
1681651924.29971194,132528634,1151,1150,1210,1150,0,0,0,0,0,0,0,0,0,0
1681651924.39967179,132628594,1153,1150,1210,1152,0,0,0,0,0,0,0,0,0,0
1681651924.49963188,132728554,1193,1150,1209,1194,0,0,0,0,0,0,0,0,0,0
1681651924.59959197,132828514,1180,1150,1209,1180,0,0,0,0,0,0,0,0,0,0
1681651924.69955182,132928474,1177,1150,1210,1177,0,0,0,0,0,0,0,0,0,0
1681651924.79951191,133028434,1178,1150,1210,1178,0,0,0,0,0,0,0,0,0,0
1681651924.89947176,133128394,1181,1150,1210,1181,0,0,0,0,0,0,0,0,0,0
1681651924.99943185,133228354,1184,1150,1210,1183,0,0,0,0,0,0,0,0,0,0
1681651925.09939194,133328314,1186,1150,1210,1186,0,0,0,0,0,0,0,0,0,0
1681651925.19935179,133428274,1166,1150,1210,1166,0,0,0,0,0,0,0,0,0,0
1681651925.29931188,133528234,1170,1150,1210,1170,0,0,0,0,0,0,0,0,0,0
1681651925.39927197,133628194,1172,1150,1210,1171,0,0,0,0,0,0,0,0,0,0
1681651925.49923182,133728154,1173,1150,1210,1172,0,0,0,0,0,0,0,0,0,0
1681651925.60002494,133828947,1174,1150,1210,1173,0,0,0,0,0,0,0,0,0,0
1681651925.69998479,133928907,1150,1150,1076,1150,0,0,0,0,0,0,0,0,0,0
1681651925.79994488,134028867,1000,1000,1000,1000,0,0,0,0,0,0,0,0,0,0
1681651925.89990497,134128827,1000,1000,1000,1000,0,0,0,0,0,0,0,0,0,0
1681651925.99986482,134228787,1000,1000,1000,1000,0,0,0,0,0,0,0,0,0,0
1681651926.09982491,134328747,1000,1000,1000,1000,0,0,0,0,0,0,0,0,0,0
1681651926.19978476,134428707,1000,1000,1000,1000,0,0,0,0,0,0,0,0,0,0
1681651926.29974484,134528667,1000,1000,1000,1000,0,0,0,0,0,0,0,0,0,0
1681651926.39970493,134628627,1000,1000,1000,1000,0,0,0,0,0,0,0,0,0,0
1681651926.49966478,134728587,1000,1000,1000,1000,0,0,0,0,0,0,0,0,0,0
1681651926.59962487,134828547,1000,1000,1000,1000,0,0,0,0,0,0,0,0,0,0
1681651926.69958496,134928507,1000,1000,1000,1000,0,0,0,0,0,0,0,0,0,0
1681651926.79954481,135028467,1000,1000,1000,1000,0,0,0,0,0,0,0,0,0,0
1681651926.89950490,135128427,1000,1000,1000,1000,0,0,0,0,0,0,0,0,0,0
1681651926.99946499,135228387,1000,1000,1000,1000,0,0,0,0,0,0,0,0,0,0
1681651927.09942484,135328347,1000,1000,1000,1000,0,0,0,0,0,0,0,0,0,0
1681651927.19938493,135428307,1000,1000,1000,1000,0,0,0,0,0,0,0,0,0,0
1681651927.29934478,135528267,1000,1000,1000,1000,0,0,0,0,0,0,0,0,0,0
1681651927.39930487,135628227,1000,1000,1000,1000,0,0,0,0,0,0,0,0,0,0
1681651927.49926496,135728187,1000,1000,1000,1000,0,0,0,0,0,0,0,0,0,0
1681651927.60005784,135828980,1000,1000,1000,1000,0,0,0,0,0,0,0,0,0,0
1681651927.70001793,135928940,1000,1000,1000,1000,0,0,0,0,0,0,0,0,0,0
1681651927.79997778,136028900,1000,1000,1000,1000,0,0,0,0,0,0,0,0,0,0
1681651927.89993787,136128860,1000,1000,1000,1000,0,0,0,0,0,0,0,0,0,0
1681651927.99989796,136228820,1000,1000,1000,1000,0,0,0,0,0,0,0,0,0,0
1681651928.09985781,136328780,1000,1000,1000,1000,0,0,0,0,0,0,0,0,0,0
1681651928.19981790,136428740,1000,1000,1000,1000,0,0,0,0,0,0,0,0,0,0
1681651928.29977798,136528700,1000,1000,1000,1000,0,0,0,0,0,0,0,0,0,0
1681651928.39973783,136628660,1000,1000,1000,1000,0,0,0,0,0,0,0,0,0,0
1681651928.49969792,136728620,1000,1000,1000,1000,0,0,0,0,0,0,0,0,0,0
1681651928.59965777,136828580,1000,1000,1000,1000,0,0,0,0,0,0,0,0,0,0
1681651928.69961786,136928540,1000,1000,1000,1000,0,0,0,0,0,0,0,0,0,0
1681651928.79957795,137028500,1000,1000,1000,1000,0,0,0,0,0,0,0,0,0,0
1681651928.89953780,137128460,1000,1000,1000,1000,0,0,0,0,0,0,0,0,0,0
1681651928.99949789,137228420,1000,1000,1000,1000,0,0,0,0,0,0,0,0,0,0
1681651929.09945798,137328380,1000,1000,1000,1000,0,0,0,0,0,0,0,0,0,0
1681651929.19941783,137428340,1000,1000,1000,1000,0,0,0,0,0,0,0,0,0,0
1681651929.29937792,137528300,1000,1000,1000,1000,0,0,0,0,0,0,0,0,0,0
1681651929.39933777,137628260,1000,1000,1000,1000,0,0,0,0,0,0,0,0,0,0
1681651929.49929786,137728220,1000,1000,1000,1000,0,0,0,0,0,0,0,0,0,0
1681651929.59925795,137828180,1000,1000,1000,1000,0,0,0,0,0,0,0,0,0,0
1681651929.70005083,137928973,1000,1000,1000,1000,0,0,0,0,0,0,0,0,0,0
1681651929.80001092,138028933,1000,1000,1000,1000,0,0,0,0,0,0,0,0,0,0
1681651929.89997077,138128893,1000,1000,1000,1000,0,0,0,0,0,0,0,0,0,0
1681651929.99993086,138228853,1000,1000,1000,1000,0,0,0,0,0,0,0,0,0,0
1681651930.09989095,138328813,1000,1000,1000,1000,0,0,0,0,0,0,0,0,0,0
1681651930.19985080,138428773,1000,1000,1000,1000,0,0,0,0,0,0,0,0,0,0
1681651930.29981089,138528733,1000,1000,1000,1000,0,0,0,0,0,0,0,0,0,0
1681651930.39977098,138628693,1000,1000,1000,1000,0,0,0,0,0,0,0,0,0,0
1681651930.49973083,138728653,1000,1000,1000,1000,0,0,0,0,0,0,0,0,0,0
1681651930.59969091,138828613,1000,1000,1000,1000,0,0,0,0,0,0,0,0,0,0
1681651930.69965076,138928573,1000,1000,1000,1000,0,0,0,0,0,0,0,0,0,0
1681651930.79961085,139028533,1000,1000,1000,1000,0,0,0,0,0,0,0,0,0,0
1681651930.89957094,139128493,1000,1000,1000,1000,0,0,0,0,0,0,0,0,0,0
1681651930.99953079,139228453,1000,1000,1000,1000,0,0,0,0,0,0,0,0,0,0
1681651931.09949088,139328413,1000,1000,1000,1000,0,0,0,0,0,0,0,0,0,0
1681651931.19945097,139428373,1000,1000,1000,1000,0,0,0,0,0,0,0,0,0,0
1681651931.29941082,139528333,1000,1000,1000,1000,0,0,0,0,0,0,0,0,0,0
1681651931.39937091,139628293,1000,1000,1000,1000,0,0,0,0,0,0,0,0,0,0
1681651931.49933076,139728253,1000,1000,1000,1000,0,0,0,0,0,0,0,0,0,0
1681651931.59929085,139828213,1000,1000,1000,1000,0,0,0,0,0,0,0,0,0,0
1681651931.69925094,139928173,1000,1000,1000,1000,0,0,0,0,0,0,0,0,0,0
1681651931.80004382,140028966,1000,1000,1000,1000,0,0,0,0,0,0,0,0,0,0
1681651931.90000391,140128926,1000,1000,1000,1000,0,0,0,0,0,0,0,0,0,0
1681651931.99996376,140228886,1000,1000,1000,1000,0,0,0,0,0,0,0,0,0,0
1681651932.09992385,140328846,1000,1000,1000,1000,0,0,0,0,0,0,0,0,0,0
1681651932.19988394,140428806,1000,1000,1000,1000,0,0,0,0,0,0,0,0,0,0
1681651932.29984379,140528766,1000,1000,1000,1000,0,0,0,0,0,0,0,0,0,0
1681651932.39980388,140628726,1000,1000,1000,1000,0,0,0,0,0,0,0,0,0,0
1681651932.49976397,140728686,1000,1000,1000,1000,0,0,0,0,0,0,0,0,0,0
1681651932.59972382,140828646,1000,1000,1000,1000,0,0,0,0,0,0,0,0,0,0
1681651932.69968390,140928606,1000,1000,1000,1000,0,0,0,0,0,0,0,0,0,0
1681651932.79964375,141028566,1000,1000,1000,1000,0,0,0,0,0,0,0,0,0,0
1681651932.89960384,141128526,1000,1000,1000,1000,0,0,0,0,0,0,0,0,0,0
1681651932.99956393,141228486,1000,1000,1000,1000,0,0,0,0,0,0,0,0,0,0
1681651933.09952378,141328446,1000,1000,1000,1000,0,0,0,0,0,0,0,0,0,0
1681651933.19948387,141428406,1000,1000,1000,1000,0,0,0,0,0,0,0,0,0,0
1681651933.29944396,141528366,1000,1000,1000,1000,0,0,0,0,0,0,0,0,0,0
1681651933.39940381,141628326,1000,1000,1000,1000,0,0,0,0,0,0,0,0,0,0
1681651933.49936390,141728286,1000,1000,1000,1000,0,0,0,0,0,0,0,0,0,0
1681651933.59932399,141828246,1000,1000,1000,1000,0,0,0,0,0,0,0,0,0,0
1681651933.69928384,141928206,1000,1000,1000,1000,0,0,0,0,0,0,0,0,0,0
1681651933.79924393,142028166,1000,1000,1000,1000,0,0,0,0,0,0,0,0,0,0
1681651933.90003681,142128959,1000,1000,1000,1000,0,0,0,0,0,0,0,0,0,0
1681651933.99999690,142228919,1000,1000,1000,1000,0,0,0,0,0,0,0,0,0,0
1681651934.09995699,142328879,1000,1000,1000,1000,0,0,0,0,0,0,0,0,0,0
1681651934.19991684,142428839,1000,1000,1000,1000,0,0,0,0,0,0,0,0,0,0
1681651934.29987693,142528799,1000,1000,1000,1000,0,0,0,0,0,0,0,0,0,0
1681651934.39983678,142628759,1000,1000,1000,1000,0,0,0,0,0,0,0,0,0,0
1681651934.49979687,142728719,1000,1000,1000,1000,0,0,0,0,0,0,0,0,0,0
1681651934.59975696,142828679,1000,1000,1000,1000,0,0,0,0,0,0,0,0,0,0
1681651934.69971681,142928639,1000,1000,1000,1000,0,0,0,0,0,0,0,0,0,0
1681651934.79967690,143028599,1000,1000,1000,1000,0,0,0,0,0,0,0,0,0,0
1681651934.89963698,143128559,1000,1000,1000,1000,0,0,0,0,0,0,0,0,0,0
1681651934.99959683,143228519,1000,1000,1000,1000,0,0,0,0,0,0,0,0,0,0
1681651935.09955692,143328479,1000,1000,1000,1000,0,0,0,0,0,0,0,0,0,0
1681651935.19951677,143428439,1000,1000,1000,1000,0,0,0,0,0,0,0,0,0,0
1681651935.29947686,143528399,1000,1000,1000,1000,0,0,0,0,0,0,0,0,0,0
1681651935.39943695,143628359,1000,1000,1000,1000,0,0,0,0,0,0,0,0,0,0
1681651935.49939680,143728319,1000,1000,1000,1000,0,0,0,0,0,0,0,0,0,0
1681651935.59935689,143828279,1000,1000,1000,1000,0,0,0,0,0,0,0,0,0,0
1681651935.69931698,143928239,1000,1000,1000,1000,0,0,0,0,0,0,0,0,0,0
1681651935.79927683,144028199,1000,1000,1000,1000,0,0,0,0,0,0,0,0,0,0
1681651935.89923692,144128159,1000,1000,1000,1000,0,0,0,0,0,0,0,0,0,0
1681651936.00002980,144228952,1000,1000,1000,1000,0,0,0,0,0,0,0,0,0,0
1681651936.09998989,144328912,1000,1000,1000,1000,0,0,0,0,0,0,0,0,0,0
1681651936.19994998,144428872,1000,1000,1000,1000,0,0,0,0,0,0,0,0,0,0
1681651936.29990983,144528832,1000,1000,1000,1000,0,0,0,0,0,0,0,0,0,0
1681651936.39986992,144628792,1000,1000,1000,1000,0,0,0,0,0,0,0,0,0,0
1681651936.49982977,144728752,1000,1000,1000,1000,0,0,0,0,0,0,0,0,0,0
1681651936.59978986,144828712,1000,1000,1000,1000,0,0,0,0,0,0,0,0,0,0
1681651936.69974995,144928672,1000,1000,1000,1000,0,0,0,0,0,0,0,0,0,0
1681651936.79970980,145028632,1000,1000,1000,1000,0,0,0,0,0,0,0,0,0,0
1681651936.89966989,145128592,1000,1000,1000,1000,0,0,0,0,0,0,0,0,0,0
1681651936.99962997,145228552,1000,1000,1000,1000,0,0,0,0,0,0,0,0,0,0
1681651937.09958982,145328512,1000,1000,1000,1000,0,0,0,0,0,0,0,0,0,0
1681651937.19954991,145428472,1000,1000,1000,1000,0,0,0,0,0,0,0,0,0,0
1681651937.29950976,145528432,1000,1000,1000,1000,0,0,0,0,0,0,0,0,0,0
1681651937.39946985,145628392,1000,1000,1000,1000,0,0,0,0,0,0,0,0,0,0
1681651937.49942994,145728352,1000,1000,1000,1000,0,0,0,0,0,0,0,0,0,0
1681651937.59938979,145828312,1000,1000,1000,1000,0,0,0,0,0,0,0,0,0,0
1681651937.69934988,145928272,1000,1000,1000,1000,0,0,0,0,0,0,0,0,0,0
1681651937.79930997,146028232,1000,1000,1000,1000,0,0,0,0,0,0,0,0,0,0
1681651937.89926982,146128192,1000,1000,1000,1000,0,0,0,0,0,0,0,0,0,0
1681651938.00006294,146228985,1000,1000,1000,1000,0,0,0,0,0,0,0,0,0,0
1681651938.10002279,146328945,1000,1000,1000,1000,0,0,0,0,0,0,0,0,0,0
1681651938.19998288,146428905,1000,1000,1000,1000,0,0,0,0,0,0,0,0,0,0
1681651938.29994297,146528865,1000,1000,1000,1000,0,0,0,0,0,0,0,0,0,0
1681651938.39990282,146628825,1000,1000,1000,1000,0,0,0,0,0,0,0,0,0,0
1681651938.49986291,146728785,1000,1000,1000,1000,0,0,0,0,0,0,0,0,0,0
1681651938.59982276,146828745,1000,1000,1000,1000,0,0,0,0,0,0,0,0,0,0
1681651938.69978285,146928705,1000,1000,1000,1000,0,0,0,0,0,0,0,0,0,0
1681651938.79974294,147028665,1000,1000,1000,1000,0,0,0,0,0,0,0,0,0,0
1681651938.89970279,147128625,1000,1000,1000,1000,0,0,0,0,0,0,0,0,0,0
1681651938.99966288,147228585,1000,1000,1000,1000,0,0,0,0,0,0,0,0,0,0
1681651939.09962296,147328545,1000,1000,1000,1000,0,0,0,0,0,0,0,0,0,0
1681651939.19958282,147428505,1000,1000,1000,1000,0,0,0,0,0,0,0,0,0,0
1681651939.29954290,147528465,1000,1000,1000,1000,0,0,0,0,0,0,0,0,0,0
1681651939.39950275,147628425,1000,1000,1000,1000,0,0,0,0,0,0,0,0,0,0
1681651939.49946284,147728385,1000,1000,1000,1000,0,0,0,0,0,0,0,0,0,0
1681651939.59942293,147828345,1000,1000,1000,1000,0,0,0,0,0,0,0,0,0,0
1681651939.69938278,147928305,1000,1000,1000,1000,0,0,0,0,0,0,0,0,0,0
1681651939.79934287,148028265,1000,1000,1000,1000,0,0,0,0,0,0,0,0,0,0
1681651939.89930296,148128225,1000,1000,1000,1000,0,0,0,0,0,0,0,0,0,0
1681651939.99926281,148228185,1000,1000,1000,1000,0,0,0,0,0,0,0,0,0,0
1681651940.10005593,148328978,1000,1000,1000,1000,0,0,0,0,0,0,0,0,0,0
1681651940.20001578,148428938,1000,1000,1000,1000,0,0,0,0,0,0,0,0,0,0
1681651940.29997587,148528898,1000,1000,1000,1000,0,0,0,0,0,0,0,0,0,0
1681651940.39993596,148628858,1000,1000,1000,1000,0,0,0,0,0,0,0,0,0,0
1681651940.49989581,148728818,1000,1000,1000,1000,0,0,0,0,0,0,0,0,0,0
1681651940.59985590,148828778,1000,1000,1000,1000,0,0,0,0,0,0,0,0,0,0
