timestamp,TimeUS,C1,C2,C3,C4,C5,C6,C7,C8,C9,C10,C11,C12,C13,C14
1681134125.50004005,77128303,1000,1000,1000,1000,0,0,0,0,0,0,0,0,0,0
1681134125.59999990,77228263,1000,1000,1000,1000,0,0,0,0,0,0,0,0,0,0
1681134125.69995999,77328223,1000,1000,1000,1000,0,0,0,0,0,0,0,0,0,0
1681134125.79992008,77428183,1000,1000,1000,1000,0,0,0,0,0,0,0,0,0,0
1681134125.90071297,77528976,1000,1000,1000,1000,0,0,0,0,0,0,0,0,0,0
1681134126.00067306,77628936,1000,1000,1000,1000,0,0,0,0,0,0,0,0,0,0
1681134126.10063291,77728896,1000,1000,1000,1000,0,0,0,0,0,0,0,0,0,0
1681134126.20059299,77828856,1000,1000,1000,1000,0,0,0,0,0,0,0,0,0,0
1681134126.30055308,77928816,1000,1000,1000,1000,0,0,0,0,0,0,0,0,0,0
1681134126.40051293,78028776,1000,1000,1000,1000,0,0,0,0,0,0,0,0,0,0
1681134126.50047302,78128736,1000,1000,1000,1000,0,0,0,0,0,0,0,0,0,0
1681134126.60043311,78228696,1000,1000,1000,1000,0,0,0,0,0,0,0,0,0,0
1681134126.70039296,78328656,1000,1000,1000,1000,0,0,0,0,0,0,0,0,0,0
1681134126.80035305,78428616,1000,1000,1000,1000,0,0,0,0,0,0,0,0,0,0
1681134126.90031290,78528576,1000,1000,1000,1000,0,0,0,0,0,0,0,0,0,0
1681134127.00027299,78628536,1000,1000,1000,1000,0,0,0,0,0,0,0,0,0,0
1681134127.10023308,78728496,1000,1000,1000,1000,0,0,0,0,0,0,0,0,0,0
1681134127.20019293,78828456,1000,1000,1000,1000,0,0,0,0,0,0,0,0,0,0
1681134127.30015302,78928416,1000,1000,1000,1000,0,0,0,0,0,0,0,0,0,0
1681134127.40011311,79028376,1000,1000,1000,1000,0,0,0,0,0,0,0,0,0,0
1681134127.50007296,79128336,1006,1006,1006,1006,0,0,0,0,0,0,0,0,0,0
1681134127.60003304,79228296,1036,1036,1036,1036,0,0,0,0,0,0,0,0,0,0
1681134127.69999290,79328256,1066,1066,1066,1066,0,0,0,0,0,0,0,0,0,0
1681134127.79995298,79428216,1096,1096,1096,1096,0,0,0,0,0,0,0,0,0,0
1681134127.89991307,79528176,1126,1126,1126,1126,0,0,0,0,0,0,0,0,0,0
1681134128.00070596,79628969,1216,1206,1206,1217,0,0,0,0,0,0,0,0,0,0
1681134128.10066605,79728929,1445,1437,1438,1446,0,0,0,0,0,0,0,0,0,0
1681134128.20062590,79828889,1615,1609,1609,1616,0,0,0,0,0,0,0,0,0,0
1681134128.30058599,79928849,1758,1751,1751,1758,0,0,0,0,0,0,0,0,0,0
1681134128.40054607,80028809,1849,1843,1843,1850,0,0,0,0,0,0,0,0,0,0
1681134128.50050592,80128769,1859,1854,1854,1860,0,0,0,0,0,0,0,0,0,0
1681134128.60046601,80228729,1769,1767,1767,1769,0,0,0,0,0,0,0,0,0,0
1681134128.70042610,80328689,1650,1651,1651,1650,0,0,0,0,0,0,0,0,0,0
1681134128.80038595,80428649,1605,1608,1608,1605,0,0,0,0,0,0,0,0,0,0
1681134128.90034604,80528609,1612,1614,1614,1612,0,0,0,0,0,0,0,0,0,0
1681134129.00030589,80628569,1628,1630,1630,1628,0,0,0,0,0,0,0,0,0,0
1681134129.10026598,80728529,1635,1636,1636,1635,0,0,0,0,0,0,0,0,0,0
1681134129.20022607,80828489,1632,1632,1632,1632,0,0,0,0,0,0,0,0,0,0
1681134129.30018592,80928449,1626,1624,1624,1625,0,0,0,0,0,0,0,0,0,0
1681134129.40014601,81028409,1615,1616,1615,1616,0,0,0,0,0,0,0,0,0,0
1681134129.50010610,81128369,1600,1599,1591,1608,0,0,0,0,0,0,0,0,0,0
1681134129.60006595,81228329,1598,1597,1590,1604,0,0,0,0,0,0,0,0,0,0
1681134129.70002604,81328289,1600,1598,1596,1602,0,0,0,0,0,0,0,0,0,0
1681134129.79998589,81428249,1603,1603,1603,1602,0,0,0,0,0,0,0,0,0,0
1681134129.89994597,81528209,1608,1609,1612,1605,0,0,0,0,0,0,0,0,0,0
1681134129.99990606,81628169,1615,1615,1619,1612,0,0,0,0,0,0,0,0,0,0
1681134130.10069895,81728962,1585,1587,1602,1570,0,0,0,0,0,0,0,0,0,0
1681134130.20065904,81828922,1572,1574,1588,1559,0,0,0,0,0,0,0,0,0,0
1681134130.30061889,81928882,1562,1562,1566,1559,0,0,0,0,0,0,0,0,0,0
1681134130.40057898,82028842,1551,1551,1544,1560,0,0,0,0,0,0,0,0,0,0
1681134130.50053906,82128802,1544,1542,1531,1556,0,0,0,0,0,0,0,0,0,0
1681134130.60049891,82228762,1537,1537,1527,1548,0,0,0,0,0,0,0,0,0,0
1681134130.70045900,82328722,1531,1530,1524,1537,0,0,0,0,0,0,0,0,0,0
1681134130.80041909,82428682,1529,1528,1527,1530,0,0,0,0,0,0,0,0,0,0
1681134130.90037894,82528642,1530,1530,1531,1529,0,0,0,0,0,0,0,0,0,0
1681134131.00033903,82628602,1533,1533,1536,1529,0,0,0,0,0,0,0,0,0,0
1681134131.10029912,82728562,1536,1536,1540,1531,0,0,0,0,0,0,0,0,0,0
1681134131.20025897,82828522,1538,1539,1543,1535,0,0,0,0,0,0,0,0,0,0
1681134131.30021906,82928482,1542,1543,1544,1540,0,0,0,0,0,0,0,0,0,0
1681134131.40017891,83028442,1545,1546,1546,1545,0,0,0,0,0,0,0,0,0,0
1681134131.50013900,83128402,1549,1549,1548,1549,0,0,0,0,0,0,0,0,0,0
1681134131.60009909,83228362,1550,1550,1549,1551,0,0,0,0,0,0,0,0,0,0
1681134131.70005894,83328322,1553,1551,1552,1555,0,0,0,0,0,0,0,0,0,0
1681134131.80001903,83428282,1551,1551,1557,1560,0,0,0,0,0,0,0,0,0,0
1681134131.89997911,83528242,1553,1553,1559,1562,0,0,0,0,0,0,0,0,0,0
1681134131.99993896,83628202,1556,1557,1562,1562,0,0,0,0,0,0,0,0,0,0
1681134132.09989905,83728162,1559,1560,1564,1563,0,0,0,0,0,0,0,0,0,0
1681134132.20069194,83828955,1562,1563,1564,1563,0,0,0,0,0,0,0,0,0,0
1681134132.30065203,83928915,1565,1565,1565,1564,0,0,0,0,0,0,0,0,0,0
1681134132.40061212,84028875,1568,1568,1566,1565,0,0,0,0,0,0,0,0,0,0
1681134132.50057197,84128835,1569,1569,1565,1565,0,0,0,0,0,0,0,0,0,0
1681134132.60053205,84228795,1570,1570,1565,1565,0,0,0,0,0,0,0,0,0,0
1681134132.70049191,84328755,1572,1571,1566,1568,0,0,0,0,0,0,0,0,0,0
1681134132.80045199,84428715,1572,1572,1568,1568,0,0,0,0,0,0,0,0,0,0
1681134132.90041208,84528675,1573,1572,1569,1570,0,0,0,0,0,0,0,0,0,0
1681134133.00037193,84628635,1573,1573,1571,1571,0,0,0,0,0,0,0,0,0,0
1681134133.10033202,84728595,1574,1574,1573,1572,0,0,0,0,0,0,0,0,0,0
1681134133.20029211,84828555,1574,1575,1575,1573,0,0,0,0,0,0,0,0,0,0
1681134133.30025196,84928515,1574,1575,1576,1574,0,0,0,0,0,0,0,0,0,0
1681134133.40021205,85028475,1574,1574,1576,1575,0,0,0,0,0,0,0,0,0,0
1681134133.50017190,85128435,1575,1575,1576,1576,0,0,0,0,0,0,0,0,0,0
1681134133.60013199,85228395,1575,1575,1576,1576,0,0,0,0,0,0,0,0,0,0
1681134133.70009208,85328355,1575,1575,1576,1576,0,0,0,0,0,0,0,0,0,0
1681134133.80005193,85428315,1575,1575,1576,1576,0,0,0,0,0,0,0,0,0,0
1681134133.90001202,85528275,1576,1576,1576,1577,0,0,0,0,0,0,0,0,0,0
1681134133.99997211,85628235,1576,1577,1577,1577,0,0,0,0,0,0,0,0,0,0
1681134134.09993196,85728195,1577,1577,1577,1577,0,0,0,0,0,0,0,0,0,0
1681134134.19989204,85828155,1577,1577,1577,1576,0,0,0,0,0,0,0,0,0,0
1681134134.30068493,85928948,1577,1577,1577,1576,0,0,0,0,0,0,0,0,0,0
1681134134.40064502,86028908,1578,1578,1577,1577,0,0,0,0,0,0,0,0,0,0
1681134134.50060511,86128868,1578,1577,1577,1577,0,0,0,0,0,0,0,0,0,0
1681134134.60056496,86228828,1579,1578,1578,1578,0,0,0,0,0,0,0,0,0,0
1681134134.70052505,86328788,1578,1578,1577,1578,0,0,0,0,0,0,0,0,0,0
1681134134.80048490,86428748,1578,1578,1578,1578,0,0,0,0,0,0,0,0,0,0
1681134134.90044498,86528708,1578,1578,1578,1578,0,0,0,0,0,0,0,0,0,0
1681134135.00040507,86628668,1579,1579,1579,1579,0,0,0,0,0,0,0,0,0,0
1681134135.10036492,86728628,1578,1578,1579,1578,0,0,0,0,0,0,0,0,0,0
1681134135.20032501,86828588,1578,1578,1579,1578,0,0,0,0,0,0,0,0,0,0
1681134135.30028510,86928548,1579,1579,1579,1579,0,0,0,0,0,0,0,0,0,0
1681134135.40024495,87028508,1578,1578,1578,1579,0,0,0,0,0,0,0,0,0,0
1681134135.50020504,87128468,1578,1578,1578,1578,0,0,0,0,0,0,0,0,0,0
1681134135.60016489,87228428,1579,1578,1579,1579,0,0,0,0,0,0,0,0,0,0
1681134135.70012498,87328388,1577,1578,1578,1578,0,0,0,0,0,0,0,0,0,0
1681134135.80008507,87428348,1579,1579,1579,1579,0,0,0,0,0,0,0,0,0,0
1681134135.90004492,87528308,1579,1579,1579,1579,0,0,0,0,0,0,0,0,0,0
1681134136.00000501,87628268,1579,1579,1579,1579,0,0,0,0,0,0,0,0,0,0
1681134136.09996510,87728228,1580,1580,1580,1580,0,0,0,0,0,0,0,0,0,0
1681134136.19992495,87828188,1580,1580,1580,1580,0,0,0,0,0,0,0,0,0,0
1681134136.30071807,87928981,1580,1579,1579,1580,0,0,0,0,0,0,0,0,0,0
1681134136.40067792,88028941,1580,1580,1580,1580,0,0,0,0,0,0,0,0,0,0
1681134136.50063801,88128901,1581,1580,1580,1580,0,0,0,0,0,0,0,0,0,0
1681134136.60059810,88228861,1579,1579,1579,1579,0,0,0,0,0,0,0,0,0,0
1681134136.70055795,88328821,1579,1579,1579,1580,0,0,0,0,0,0,0,0,0,0
1681134136.80051804,88428781,1580,1580,1580,1580,0,0,0,0,0,0,0,0,0,0
1681134136.90047789,88528741,1581,1580,1581,1580,0,0,0,0,0,0,0,0,0,0
1681134137.00043797,88628701,1580,1580,1580,1580,0,0,0,0,0,0,0,0,0,0
1681134137.10039806,88728661,1580,1580,1580,1580,0,0,0,0,0,0,0,0,0,0
1681134137.20035791,88828621,1580,1580,1581,1580,0,0,0,0,0,0,0,0,0,0
1681134137.30031800,88928581,1581,1581,1581,1581,0,0,0,0,0,0,0,0,0,0
1681134137.40027809,89028541,1580,1581,1580,1581,0,0,0,0,0,0,0,0,0,0
1681134137.50023794,89128501,1580,1580,1580,1580,0,0,0,0,0,0,0,0,0,0
1681134137.60019803,89228461,1580,1580,1580,1581,0,0,0,0,0,0,0,0,0,0
1681134137.70015812,89328421,1581,1581,1581,1582,0,0,0,0,0,0,0,0,0,0
1681134137.80011797,89428381,1581,1581,1582,1581,0,0,0,0,0,0,0,0,0,0
1681134137.90007806,89528341,1582,1581,1582,1582,0,0,0,0,0,0,0,0,0,0
1681134138.00003791,89628301,1581,1582,1588,1575,0,0,0,0,0,0,0,0,0,0
1681134138.09999800,89728261,1582,1584,1587,1574,0,0,0,0,0,0,0,0,0,0
1681134138.19995809,89828221,1579,1582,1579,1574,0,0,0,0,0,0,0,0,0,0
1681134138.29991794,89928181,1578,1581,1569,1573,0,0,0,0,0,0,0,0,0,0
1681134138.40071106,90028974,1577,1580,1562,1569,0,0,0,0,0,0,0,0,0,0
1681134138.50067091,90128934,1577,1577,1556,1563,0,0,0,0,0,0,0,0,0,0
1681134138.60063100,90228894,1579,1578,1556,1560,0,0,0,0,0,0,0,0,0,0
1681134138.70059109,90328854,1580,1578,1555,1557,0,0,0,0,0,0,0,0,0,0
1681134138.80055094,90428814,1580,1579,1556,1555,0,0,0,0,0,0,0,0,0,0
1681134138.90051103,90528774,1579,1578,1556,1554,0,0,0,0,0,0,0,0,0,0
1681134139.00047112,90628734,1577,1578,1556,1554,0,0,0,0,0,0,0,0,0,0
1681134139.10043097,90728694,1576,1577,1555,1554,0,0,0,0,0,0,0,0,0,0
1681134139.20039105,90828654,1575,1577,1555,1554,0,0,0,0,0,0,0,0,0,0
1681134139.30035090,90928614,1575,1576,1553,1553,0,0,0,0,0,0,0,0,0,0
1681134139.40031099,91028574,1575,1577,1551,1552,0,0,0,0,0,0,0,0,0,0
1681134139.50027108,91128534,1577,1578,1550,1550,0,0,0,0,0,0,0,0,0,0
1681134139.60023093,91228494,1578,1579,1548,1547,0,0,0,0,0,0,0,0,0,0
1681134139.70019102,91328454,1581,1582,1546,1546,0,0,0,0,0,0,0,0,0,0
1681134139.80015111,91428414,1584,1585,1543,1542,0,0,0,0,0,0,0,0,0,0
1681134139.90011096,91528374,1587,1587,1540,1540,0,0,0,0,0,0,0,0,0,0
1681134140.00007105,91628334,1590,1591,1538,1537,0,0,0,0,0,0,0,0,0,0
1681134140.10003090,91728294,1593,1593,1536,1536,0,0,0,0,0,0,0,0,0,0
1681134140.19999099,91828254,1594,1594,1534,1535,0,0,0,0,0,0,0,0,0,0
1681134140.29995108,91928214,1595,1594,1535,1536,0,0,0,0,0,0,0,0,0,0
1681134140.39991093,92028174,1594,1595,1536,1538,0,0,0,0,0,0,0,0,0,0
1681134140.50070405,92128967,1593,1592,1540,1542,0,0,0,0,0,0,0,0,0,0
1681134140.60066390,92228927,1589,1588,1544,1548,0,0,0,0,0,0,0,0,0,0
1681134140.70062399,92328887,1584,1580,1552,1555,0,0,0,0,0,0,0,0,0,0
1681134140.80058408,92428847,1577,1573,1564,1566,0,0,0,0,0,0,0,0,0,0
1681134140.90054393,92528807,1566,1562,1575,1577,0,0,0,0,0,0,0,0,0,0
1681134141.00050402,92628767,1554,1552,1587,1588,0,0,0,0,0,0,0,0,0,0
1681134141.10046411,92728727,1544,1541,1598,1598,0,0,0,0,0,0,0,0,0,0
1681134141.20042396,92828687,1535,1534,1607,1606,0,0,0,0,0,0,0,0,0,0
1681134141.30038404,92928647,1531,1532,1615,1613,0,0,0,0,0,0,0,0,0,0
1681134141.40034389,93028607,1530,1531,1617,1615,0,0,0,0,0,0,0,0,0,0
1681134141.50030398,93128567,1531,1534,1614,1613,0,0,0,0,0,0,0,0,0,0
1681134141.60026407,93228527,1537,1539,1610,1610,0,0,0,0,0,0,0,0,0,0
1681134141.70022392,93328487,1544,1546,1603,1604,0,0,0,0,0,0,0,0,0,0
1681134141.80018401,93428447,1552,1553,1596,1596,0,0,0,0,0,0,0,0,0,0
1681134141.90014410,93528407,1561,1561,1588,1587,0,0,0,0,0,0,0,0,0,0
1681134142.00010395,93628367,1570,1569,1581,1580,0,0,0,0,0,0,0,0,0,0
1681134142.10006404,93728327,1577,1576,1574,1574,0,0,0,0,0,0,0,0,0,0
1681134142.20002389,93828287,1583,1583,1572,1571,0,0,0,0,0,0,0,0,0,0
1681134142.29998398,93928247,1587,1585,1568,1568,0,0,0,0,0,0,0,0,0,0
1681134142.39994407,94028207,1588,1586,1566,1566,0,0,0,0,0,0,0,0,0,0
1681134142.49990392,94128167,1589,1587,1568,1567,0,0,0,0,0,0,0,0,0,0
1681134142.60069704,94228960,1586,1585,1568,1568,0,0,0,0,0,0,0,0,0,0
1681134142.70065689,94328920,1584,1584,1571,1572,0,0,0,0,0,0,0,0,0,0
1681134142.80061698,94428880,1580,1581,1573,1574,0,0,0,0,0,0,0,0,0,0
1681134142.90057707,94528840,1577,1578,1576,1576,0,0,0,0,0,0,0,0,0,0
1681134143.00053692,94628800,1575,1576,1579,1579,0,0,0,0,0,0,0,0,0,0
1681134143.10049701,94728760,1573,1574,1581,1581,0,0,0,0,0,0,0,0,0,0
1681134143.20045710,94828720,1572,1573,1582,1582,0,0,0,0,0,0,0,0,0,0
1681134143.30041695,94928680,1572,1572,1583,1583,0,0,0,0,0,0,0,0,0,0
1681134143.40037704,95028640,1572,1573,1583,1583,0,0,0,0,0,0,0,0,0,0
1681134143.50033689,95128600,1573,1573,1583,1583,0,0,0,0,0,0,0,0,0,0
1681134143.60029697,95228560,1574,1575,1582,1582,0,0,0,0,0,0,0,0,0,0
1681134143.70025706,95328520,1576,1576,1581,1581,0,0,0,0,0,0,0,0,0,0
1681134143.80021691,95428480,1578,1578,1580,1581,0,0,0,0,0,0,0,0,0,0
1681134143.90017700,95528440,1579,1579,1579,1579,0,0,0,0,0,0,0,0,0,0
1681134144.00013709,95628400,1580,1579,1578,1578,0,0,0,0,0,0,0,0,0,0
1681134144.10009694,95728360,1581,1581,1578,1578,0,0,0,0,0,0,0,0,0,0
1681134144.20005703,95828320,1581,1581,1577,1577,0,0,0,0,0,0,0,0,0,0
1681134144.30001712,95928280,1581,1581,1577,1577,0,0,0,0,0,0,0,0,0,0
1681134144.39997697,96028240,1581,1580,1577,1577,0,0,0,0,0,0,0,0,0,0
1681134144.49993706,96128200,1582,1582,1579,1578,0,0,0,0,0,0,0,0,0,0
1681134144.59989691,96228160,1581,1581,1579,1578,0,0,0,0,0,0,0,0,0,0
1681134144.70069003,96328953,1580,1580,1579,1579,0,0,0,0,0,0,0,0,0,0
1681134144.80065012,96428913,1580,1580,1580,1580,0,0,0,0,0,0,0,0,0,0
1681134144.90060997,96528873,1580,1580,1581,1580,0,0,0,0,0,0,0,0,0,0
1681134145.00057006,96628833,1579,1579,1580,1580,0,0,0,0,0,0,0,0,0,0
1681134145.10052991,96728793,1579,1579,1580,1581,0,0,0,0,0,0,0,0,0,0
1681134145.20049000,96828753,1580,1580,1581,1582,0,0,0,0,0,0,0,0,0,0
1681134145.30045009,96928713,1580,1579,1581,1581,0,0,0,0,0,0,0,0,0,0
1681134145.40040994,97028673,1580,1580,1581,1582,0,0,0,0,0,0,0,0,0,0
1681134145.50037003,97128633,1580,1580,1581,1581,0,0,0,0,0,0,0,0,0,0
1681134145.60033011,97228593,1580,1580,1580,1580,0,0,0,0,0,0,0,0,0,0
1681134145.70028996,97328553,1582,1582,1582,1582,0,0,0,0,0,0,0,0,0,0
1681134145.80025005,97428513,1581,1581,1581,1580,0,0,0,0,0,0,0,0,0,0
1681134145.90020990,97528473,1582,1582,1581,1581,0,0,0,0,0,0,0,0,0,0
1681134146.00016999,97628433,1581,1583,1587,1573,0,0,0,0,0,0,0,0,0,0
1681134146.10013008,97728393,1580,1584,1583,1570,0,0,0,0,0,0,0,0,0,0
1681134146.20008993,97828353,1606,1609,1395,1506,0,0,0,0,0,0,0,0,0,0
1681134146.30005002,97928313,1633,1638,1498,1496,0,0,0,0,0,0,0,0,0,0
1681134146.40001011,98028273,1658,1669,1589,1526,0,0,0,0,0,0,0,0,0,0
1681134146.49996996,98128233,1662,1679,1650,1561,0,0,0,0,0,0,0,0,0,0
1681134146.59993005,98228193,1636,1658,1650,1586,0,0,0,0,0,0,0,0,0,0
1681134146.70072293,98328986,1633,1652,1650,1615,0,0,0,0,0,0,0,0,0,0
1681134146.80068302,98428946,1628,1637,1650,1641,0,0,0,0,0,0,0,0,0,0
1681134146.90064311,98528906,1616,1611,1650,1667,0,0,0,0,0,0,0,0,0,0
1681134147.00060296,98628866,1597,1586,1638,1668,0,0,0,0,0,0,0,0,0,0
1681134147.10056305,98728826,1581,1558,1626,1653,0,0,0,0,0,0,0,0,0,0
1681134147.20052290,98828786,1581,1552,1616,1635,0,0,0,0,0,0,0,0,0,0
1681134147.30048299,98928746,1587,1561,1603,1608,0,0,0,0,0,0,0,0,0,0
1681134147.40044308,99028706,1590,1577,1586,1579,0,0,0,0,0,0,0,0,0,0
1681134147.50040293,99128666,1591,1592,1565,1554,0,0,0,0,0,0,0,0,0,0
1681134147.60036302,99228626,1594,1607,1543,1535,0,0,0,0,0,0,0,0,0,0
1681134147.70032310,99328586,1598,1616,1521,1523,0,0,0,0,0,0,0,0,0,0
1681134147.80028296,99428546,1605,1624,1505,1515,0,0,0,0,0,0,0,0,0,0
1681134147.90024304,99528506,1614,1624,1496,1514,0,0,0,0,0,0,0,0,0,0
1681134148.00020289,99628466,1621,1620,1495,1513,0,0,0,0,0,0,0,0,0,0
1681134148.10016298,99728426,1628,1617,1501,1515,0,0,0,0,0,0,0,0,0,0
1681134148.20012307,99828386,1628,1612,1513,1522,0,0,0,0,0,0,0,0,0,0
1681134148.30008292,99928346,1613,1596,1535,1541,0,0,0,0,0,0,0,0,0,0
1681134148.40004301,100028306,1587,1574,1565,1564,0,0,0,0,0,0,0,0,0,0
1681134148.50000310,100128266,1561,1555,1594,1589,0,0,0,0,0,0,0,0,0,0
1681134148.59996295,100228226,1542,1542,1619,1607,0,0,0,0,0,0,0,0,0,0
1681134148.69992304,100328186,1533,1536,1637,1621,0,0,0,0,0,0,0,0,0,0
1681134148.80071592,100428979,1529,1536,1645,1629,0,0,0,0,0,0,0,0,0,0
1681134148.90067601,100528939,1529,1537,1645,1632,0,0,0,0,0,0,0,0,0,0
1681134149.00063610,100628899,1528,1536,1638,1632,0,0,0,0,0,0,0,0,0,0
1681134149.10059595,100728859,1523,1528,1633,1635,0,0,0,0,0,0,0,0,0,0
1681134149.20055604,100828819,1523,1522,1625,1632,0,0,0,0,0,0,0,0,0,0
1681134149.30051589,100928779,1530,1526,1617,1625,0,0,0,0,0,0,0,0,0,0
1681134149.40047598,101028739,1539,1534,1603,1610,0,0,0,0,0,0,0,0,0,0
1681134149.50043607,101128699,1550,1547,1591,1595,0,0,0,0,0,0,0,0,0,0
1681134149.60039592,101228659,1558,1557,1581,1584,0,0,0,0,0,0,0,0,0,0
1681134149.70035601,101328619,1564,1565,1574,1577,0,0,0,0,0,0,0,0,0,0
1681134149.80031610,101428579,1569,1572,1569,1571,0,0,0,0,0,0,0,0,0,0
1681134149.90027595,101528539,1573,1575,1565,1567,0,0,0,0,0,0,0,0,0,0
1681134150.00023603,101628499,1577,1579,1564,1565,0,0,0,0,0,0,0,0,0,0
1681134150.10019588,101728459,1581,1582,1562,1563,0,0,0,0,0,0,0,0,0,0
1681134150.20015597,101828419,1584,1584,1562,1562,0,0,0,0,0,0,0,0,0,0
1681134150.30011606,101928379,1586,1585,1562,1562,0,0,0,0,0,0,0,0,0,0
1681134150.40007591,102028339,1588,1587,1563,1563,0,0,0,0,0,0,0,0,0,0
1681134150.50003600,102128299,1588,1587,1564,1563,0,0,0,0,0,0,0,0,0,0
1681134150.59999609,102228259,1588,1587,1566,1565,0,0,0,0,0,0,0,0,0,0
1681134150.69995594,102328219,1587,1586,1567,1566,0,0,0,0,0,0,0,0,0,0
1681134150.79991603,102428179,1586,1586,1570,1569,0,0,0,0,0,0,0,0,0,0
1681134150.90070891,102528972,1585,1586,1573,1572,0,0,0,0,0,0,0,0,0,0
1681134151.00066900,102628932,1583,1583,1574,1574,0,0,0,0,0,0,0,0,0,0
1681134151.10062909,102728892,1581,1581,1576,1576,0,0,0,0,0,0,0,0,0,0
1681134151.20058894,102828852,1581,1581,1579,1580,0,0,0,0,0,0,0,0,0,0
1681134151.30054903,102928812,1579,1579,1581,1581,0,0,0,0,0,0,0,0,0,0
1681134151.40050912,103028772,1578,1578,1582,1582,0,0,0,0,0,0,0,0,0,0
1681134151.50046897,103128732,1578,1578,1583,1583,0,0,0,0,0,0,0,0,0,0
1681134151.60042906,103228692,1578,1579,1585,1585,0,0,0,0,0,0,0,0,0,0
1681134151.70038891,103328652,1577,1577,1584,1584,0,0,0,0,0,0,0,0,0,0
1681134151.80034900,103428612,1578,1578,1585,1584,0,0,0,0,0,0,0,0,0,0
1681134151.90030909,103528572,1578,1578,1584,1584,0,0,0,0,0,0,0,0,0,0
1681134152.00026894,103628532,1579,1580,1585,1585,0,0,0,0,0,0,0,0,0,0
1681134152.10022902,103728492,1578,1579,1583,1583,0,0,0,0,0,0,0,0,0,0
1681134152.20018911,103828452,1579,1579,1583,1583,0,0,0,0,0,0,0,0,0,0
1681134152.30014896,103928412,1581,1580,1582,1583,0,0,0,0,0,0,0,0,0,0
1681134152.40010905,104028372,1580,1580,1582,1581,0,0,0,0,0,0,0,0,0,0
1681134152.50006890,104128332,1581,1581,1581,1581,0,0,0,0,0,0,0,0,0,0
1681134152.60002899,104228292,1580,1580,1580,1580,0,0,0,0,0,0,0,0,0,0
1681134152.69998908,104328252,1581,1581,1580,1580,0,0,0,0,0,0,0,0,0,0
1681134152.79994893,104428212,1581,1581,1580,1580,0,0,0,0,0,0,0,0,0,0
1681134152.89990902,104528172,1583,1583,1581,1580,0,0,0,0,0,0,0,0,0,0
1681134153.00070190,104628965,1583,1582,1580,1581,0,0,0,0,0,0,0,0,0,0
1681134153.10066199,104728925,1583,1582,1580,1581,0,0,0,0,0,0,0,0,0,0
1681134153.20062208,104828885,1582,1582,1580,1580,0,0,0,0,0,0,0,0,0,0
1681134153.30058193,104928845,1583,1583,1581,1582,0,0,0,0,0,0,0,0,0,0
1681134153.40054202,105028805,1582,1582,1581,1581,0,0,0,0,0,0,0,0,0,0
1681134153.50050211,105128765,1582,1584,1587,1575,0,0,0,0,0,0,0,0,0,0
1681134153.60046196,105228725,1579,1584,1586,1573,0,0,0,0,0,0,0,0,0,0
1681134153.70042205,105328685,1577,1583,1581,1575,0,0,0,0,0,0,0,0,0,0
1681134153.80038190,105428645,1576,1581,1574,1575,0,0,0,0,0,0,0,0,0,0
1681134153.90034199,105528605,1575,1577,1567,1573,0,0,0,0,0,0,0,0,0,0
1681134154.00030208,105628565,1575,1575,1561,1568,0,0,0,0,0,0,0,0,0,0
1681134154.10026193,105728525,1577,1574,1559,1565,0,0,0,0,0,0,0,0,0,0
1681134154.20022202,105828485,1578,1575,1557,1560,0,0,0,0,0,0,0,0,0,0
1681134154.30018210,105928445,1579,1576,1557,1557,0,0,0,0,0,0,0,0,0,0
1681134154.40014195,106028405,1578,1578,1556,1555,0,0,0,0,0,0,0,0,0,0
1681134154.50010204,106128365,1578,1579,1557,1555,0,0,0,0,0,0,0,0,0,0
1681134154.60006189,106228325,1578,1579,1557,1554,0,0,0,0,0,0,0,0,0,0
1681134154.70002198,106328285,1577,1578,1556,1555,0,0,0,0,0,0,0,0,0,0
1681134154.79998207,106428245,1577,1579,1556,1555,0,0,0,0,0,0,0,0,0,0
1681134154.89994192,106528205,1577,1578,1555,1555,0,0,0,0,0,0,0,0,0,0
1681134154.99990201,106628165,1577,1578,1554,1554,0,0,0,0,0,0,0,0,0,0
1681134155.10069489,106728958,1578,1578,1552,1553,0,0,0,0,0,0,0,0,0,0
1681134155.20065498,106828918,1579,1580,1551,1551,0,0,0,0,0,0,0,0,0,0
1681134155.30061507,106928878,1581,1581,1549,1549,0,0,0,0,0,0,0,0,0,0
1681134155.40057492,107028838,1583,1584,1547,1546,0,0,0,0,0,0,0,0,0,0
1681134155.50053501,107128798,1585,1586,1545,1544,0,0,0,0,0,0,0,0,0,0
1681134155.60049510,107228758,1587,1588,1542,1541,0,0,0,0,0,0,0,0,0,0
1681134155.70045495,107328718,1590,1591,1540,1540,0,0,0,0,0,0,0,0,0,0
1681134155.80041504,107428678,1591,1592,1537,1538,0,0,0,0,0,0,0,0,0,0
1681134155.90037489,107528638,1594,1595,1535,1537,0,0,0,0,0,0,0,0,0,0
1681134156.00033498,107628598,1596,1596,1535,1537,0,0,0,0,0,0,0,0,0,0
1681134156.10029507,107728558,1596,1595,1537,1540,0,0,0,0,0,0,0,0,0,0
1681134156.20025492,107828518,1594,1591,1540,1543,0,0,0,0,0,0,0,0,0,0
1681134156.30021501,107928478,1588,1584,1546,1550,0,0,0,0,0,0,0,0,0,0
1681134156.40017509,108028438,1581,1577,1555,1559,0,0,0,0,0,0,0,0,0,0
1681134156.50013494,108128398,1572,1568,1567,1570,0,0,0,0,0,0,0,0,0,0
1681134156.60009503,108228358,1560,1558,1580,1581,0,0,0,0,0,0,0,0,0,0
1681134156.70005512,108328318,1551,1549,1593,1592,0,0,0,0,0,0,0,0,0,0
1681134156.80001497,108428278,1544,1544,1603,1601,0,0,0,0,0,0,0,0,0,0
1681134156.89997506,108528238,1541,1542,1610,1606,0,0,0,0,0,0,0,0,0,0
1681134156.99993491,108628198,1540,1541,1613,1609,0,0,0,0,0,0,0,0,0,0
1681134157.09989500,108728158,1542,1544,1614,1611,0,0,0,0,0,0,0,0,0,0
1681134157.20068789,108828951,1544,1546,1612,1610,0,0,0,0,0,0,0,0,0,0
1681134157.30064797,108928911,1548,1549,1609,1608,0,0,0,0,0,0,0,0,0,0
1681134157.40060806,109028871,1551,1552,1604,1604,0,0,0,0,0,0,0,0,0,0
1681134157.50056791,109128831,1555,1555,1599,1600,0,0,0,0,0,0,0,0,0,0
1681134157.60052800,109228791,1560,1560,1594,1595,0,0,0,0,0,0,0,0,0,0
1681134157.70048809,109328751,1564,1564,1590,1590,0,0,0,0,0,0,0,0,0,0
1681134157.80044794,109428711,1568,1568,1584,1586,0,0,0,0,0,0,0,0,0,0
1681134157.90040803,109528671,1572,1571,1579,1580,0,0,0,0,0,0,0,0,0,0
1681134158.00036812,109628631,1576,1576,1575,1576,0,0,0,0,0,0,0,0,0,0
1681134158.10032797,109728591,1579,1578,1570,1571,0,0,0,0,0,0,0,0,0,0
1681134158.20028806,109828551,1583,1581,1567,1567,0,0,0,0,0,0,0,0,0,0
1681134158.30024791,109928511,1585,1584,1565,1565,0,0,0,0,0,0,0,0,0,0
1681134158.40020800,110028471,1585,1583,1563,1564,0,0,0,0,0,0,0,0,0,0
1681134158.50016809,110128431,1585,1584,1565,1566,0,0,0,0,0,0,0,0,0,0
1681134158.60012794,110228391,1584,1583,1567,1567,0,0,0,0,0,0,0,0,0,0
1681134158.70008802,110328351,1581,1581,1569,1569,0,0,0,0,0,0,0,0,0,0
1681134158.80004811,110428311,1579,1580,1573,1573,0,0,0,0,0,0,0,0,0,0
1681134158.90000796,110528271,1578,1579,1577,1576,0,0,0,0,0,0,0,0,0,0
1681134158.99996805,110628231,1576,1576,1579,1579,0,0,0,0,0,0,0,0,0,0
1681134159.09992790,110728191,1575,1576,1582,1582,0,0,0,0,0,0,0,0,0,0
1681134159.20072103,110828984,1573,1574,1583,1582,0,0,0,0,0,0,0,0,0,0
1681134159.30068111,110928944,1573,1573,1584,1584,0,0,0,0,0,0,0,0,0,0
1681134159.40064096,111028904,1573,1574,1585,1584,0,0,0,0,0,0,0,0,0,0
1681134159.50060105,111128864,1574,1575,1584,1584,0,0,0,0,0,0,0,0,0,0
1681134159.60056090,111228824,1575,1576,1584,1584,0,0,0,0,0,0,0,0,0,0
1681134159.70052099,111328784,1574,1575,1582,1581,0,0,0,0,0,0,0,0,0,0
1681134159.80048108,111428744,1578,1578,1581,1582,0,0,0,0,0,0,0,0,0,0
1681134159.90044093,111528704,1577,1577,1579,1579,0,0,0,0,0,0,0,0,0,0
1681134160.00040102,111628664,1579,1580,1579,1579,0,0,0,0,0,0,0,0,0,0
1681134160.10036111,111728624,1580,1580,1577,1578,0,0,0,0,0,0,0,0,0,0
1681134160.20032096,111828584,1581,1580,1576,1577,0,0,0,0,0,0,0,0,0,0
1681134160.30028105,111928544,1582,1581,1577,1577,0,0,0,0,0,0,0,0,0,0
1681134160.40024090,112028504,1581,1580,1576,1576,0,0,0,0,0,0,0,0,0,0
1681134160.50020099,112128464,1581,1581,1577,1577,0,0,0,0,0,0,0,0,0,0
1681134160.60016108,112228424,1580,1581,1577,1577,0,0,0,0,0,0,0,0,0,0
1681134160.70012093,112328384,1581,1581,1578,1579,0,0,0,0,0,0,0,0,0,0
1681134160.80008101,112428344,1581,1582,1580,1580,0,0,0,0,0,0,0,0,0,0
1681134160.90004110,112528304,1581,1581,1581,1580,0,0,0,0,0,0,0,0,0,0
1681134161.00000095,112628264,1581,1581,1582,1581,0,0,0,0,0,0,0,0,0,0
1681134161.09996104,112728224,1580,1580,1581,1581,0,0,0,0,0,0,0,0,0,0
1681134161.19992089,112828184,1580,1580,1582,1582,0,0,0,0,0,0,0,0,0,0
1681134161.30071402,112928977,1581,1581,1582,1583,0,0,0,0,0,0,0,0,0,0
1681134161.40067410,113028937,1579,1580,1582,1581,0,0,0,0,0,0,0,0,0,0
1681134161.50063396,113128897,1581,1582,1586,1576,0,0,0,0,0,0,0,0,0,0
1681134161.60059404,113228857,1580,1581,1587,1572,0,0,0,0,0,0,0,0,0,0
1681134161.70055389,113328817,1579,1580,1583,1575,0,0,0,0,0,0,0,0,0,0
1681134161.80051398,113428777,1575,1576,1576,1577,0,0,0,0,0,0,0,0,0,0
1681134161.90047407,113528737,1571,1571,1570,1575,0,0,0,0,0,0,0,0,0,0
1681134162.00043392,113628697,1568,1568,1566,1573,0,0,0,0,0,0,0,0,0,0
1681134162.10039401,113728657,1568,1566,1565,1571,0,0,0,0,0,0,0,0,0,0
1681134162.20035410,113828617,1566,1565,1564,1567,0,0,0,0,0,0,0,0,0,0
1681134162.30031395,113928577,1565,1565,1564,1565,0,0,0,0,0,0,0,0,0,0
1681134162.40027404,114028537,1565,1565,1565,1564,0,0,0,0,0,0,0,0,0,0
1681134162.50023389,114128497,1565,1565,1565,1562,0,0,0,0,0,0,0,0,0,0
1681134162.60019398,114228457,1564,1564,1564,1561,0,0,0,0,0,0,0,0,0,0
1681134162.70015407,114328417,1564,1564,1564,1562,0,0,0,0,0,0,0,0,0,0
1681134162.80011392,114428377,1564,1564,1564,1562,0,0,0,0,0,0,0,0,0,0
1681134162.90007401,114528337,1562,1562,1562,1562,0,0,0,0,0,0,0,0,0,0
1681134163.00003409,114628297,1562,1562,1562,1562,0,0,0,0,0,0,0,0,0,0
1681134163.09999394,114728257,1561,1562,1561,1562,0,0,0,0,0,0,0,0,0,0
1681134163.19995403,114828217,1562,1561,1562,1562,0,0,0,0,0,0,0,0,0,0
1681134163.29991412,114928177,1561,1561,1561,1561,0,0,0,0,0,0,0,0,0,0
1681134163.40070701,115028970,1560,1560,1561,1560,0,0,0,0,0,0,0,0,0,0
1681134163.50066710,115128930,1559,1558,1560,1559,0,0,0,0,0,0,0,0,0,0
1681134163.60062695,115228890,1558,1558,1559,1558,0,0,0,0,0,0,0,0,0,0
1681134163.70058703,115328850,1559,1559,1560,1559,0,0,0,0,0,0,0,0,0,0
1681134163.80054688,115428810,1558,1558,1559,1558,0,0,0,0,0,0,0,0,0,0
1681134163.90050697,115528770,1558,1558,1559,1557,0,0,0,0,0,0,0,0,0,0
1681134164.00046706,115628730,1557,1557,1558,1556,0,0,0,0,0,0,0,0,0,0
1681134164.10042691,115728690,1558,1559,1559,1557,0,0,0,0,0,0,0,0,0,0
1681134164.20038700,115828650,1559,1559,1560,1558,0,0,0,0,0,0,0,0,0,0
1681134164.30034709,115928610,1560,1560,1559,1560,0,0,0,0,0,0,0,0,0,0
1681134164.40030694,116028570,1560,1560,1558,1561,0,0,0,0,0,0,0,0,0,0
1681134164.50026703,116128530,1560,1560,1557,1563,0,0,0,0,0,0,0,0,0,0
1681134164.60022712,116228490,1562,1562,1558,1564,0,0,0,0,0,0,0,0,0,0
1681134164.70018697,116328450,1563,1562,1560,1564,0,0,0,0,0,0,0,0,0,0
1681134164.80014706,116428410,1562,1561,1560,1562,0,0,0,0,0,0,0,0,0,0
1681134164.90010691,116528370,1562,1562,1562,1561,0,0,0,0,0,0,0,0,0,0
1681134165.00006700,116628330,1561,1561,1563,1558,0,0,0,0,0,0,0,0,0,0
1681134165.10002708,116728290,1560,1560,1561,1559,0,0,0,0,0,0,0,0,0,0
1681134165.19998693,116828250,1557,1558,1557,1561,0,0,0,0,0,0,0,0,0,0
1681134165.29994702,116928210,1553,1553,1553,1557,0,0,0,0,0,0,0,0,0,0
1681134165.39990711,117028170,1548,1548,1549,1552,0,0,0,0,0,0,0,0,0,0
1681134165.50070000,117128963,1543,1542,1545,1545,0,0,0,0,0,0,0,0,0,0
1681134165.60066009,117228923,1536,1535,1539,1538,0,0,0,0,0,0,0,0,0,0
1681134165.70061994,117328883,1528,1527,1531,1530,0,0,0,0,0,0,0,0,0,0
1681134165.80058002,117428843,1521,1522,1525,1524,0,0,0,0,0,0,0,0,0,0
1681134165.90054011,117528803,1519,1519,1520,1521,0,0,0,0,0,0,0,0,0,0
1681134166.00049996,117628763,1519,1519,1519,1520,0,0,0,0,0,0,0,0,0,0
1681134166.10046005,117728723,1520,1521,1518,1521,0,0,0,0,0,0,0,0,0,0
1681134166.20041990,117828683,1524,1523,1520,1522,0,0,0,0,0,0,0,0,0,0
1681134166.30037999,117928643,1528,1528,1523,1524,0,0,0,0,0,0,0,0,0,0
1681134166.40034008,118028603,1532,1532,1527,1528,0,0,0,0,0,0,0,0,0,0
1681134166.50029993,118128563,1537,1537,1532,1532,0,0,0,0,0,0,0,0,0,0
1681134166.60026002,118228523,1541,1540,1537,1535,0,0,0,0,0,0,0,0,0,0
1681134166.70022011,118328483,1543,1543,1540,1538,0,0,0,0,0,0,0,0,0,0
1681134166.80017996,118428443,1544,1545,1543,1541,0,0,0,0,0,0,0,0,0,0
1681134166.90014005,118528403,1545,1545,1545,1543,0,0,0,0,0,0,0,0,0,0
1681134167.00009990,118628363,1545,1545,1546,1546,0,0,0,0,0,0,0,0,0,0
1681134167.10005999,118728323,1546,1546,1547,1547,0,0,0,0,0,0,0,0,0,0
1681134167.20002007,118828283,1546,1546,1548,1548,0,0,0,0,0,0,0,0,0,0
1681134167.29997993,118928243,1545,1545,1549,1549,0,0,0,0,0,0,0,0,0,0
1681134167.39994001,119028203,1545,1545,1548,1548,0,0,0,0,0,0,0,0,0,0
1681134167.49990010,119128163,1546,1546,1549,1549,0,0,0,0,0,0,0,0,0,0
1681134167.60069299,119228956,1545,1545,1548,1548,0,0,0,0,0,0,0,0,0,0
1681134167.70065308,119328916,1545,1545,1547,1548,0,0,0,0,0,0,0,0,0,0
1681134167.80061293,119428876,1545,1546,1547,1547,0,0,0,0,0,0,0,0,0,0
1681134167.90057302,119528836,1545,1545,1545,1545,0,0,0,0,0,0,0,0,0,0
1681134168.00053310,119628796,1545,1546,1545,1545,0,0,0,0,0,0,0,0,0,0
1681134168.10049295,119728756,1546,1546,1545,1545,0,0,0,0,0,0,0,0,0,0
1681134168.20045304,119828716,1545,1545,1544,1544,0,0,0,0,0,0,0,0,0,0
1681134168.30041289,119928676,1546,1545,1544,1544,0,0,0,0,0,0,0,0,0,0
1681134168.40037298,120028636,1545,1545,1544,1544,0,0,0,0,0,0,0,0,0,0
1681134168.50033307,120128596,1545,1545,1544,1544,0,0,0,0,0,0,0,0,0,0
1681134168.60029292,120228556,1545,1545,1544,1544,0,0,0,0,0,0,0,0,0,0
1681134168.70025301,120328516,1545,1545,1544,1544,0,0,0,0,0,0,0,0,0,0
1681134168.80021310,120428476,1543,1543,1543,1543,0,0,0,0,0,0,0,0,0,0
1681134168.90017295,120528436,1544,1544,1544,1544,0,0,0,0,0,0,0,0,0,0
1681134169.00013304,120628396,1544,1544,1544,1544,0,0,0,0,0,0,0,0,0,0
1681134169.10009289,120728356,1544,1544,1544,1544,0,0,0,0,0,0,0,0,0,0
1681134169.20005298,120828316,1543,1543,1544,1543,0,0,0,0,0,0,0,0,0,0
1681134169.30001307,120928276,1543,1543,1544,1544,0,0,0,0,0,0,0,0,0,0
1681134169.39997292,121028236,1543,1543,1544,1544,0,0,0,0,0,0,0,0,0,0
1681134169.49993300,121128196,1544,1544,1544,1544,0,0,0,0,0,0,0,0,0,0
1681134169.59989309,121228156,1543,1543,1543,1544,0,0,0,0,0,0,0,0,0,0
1681134169.70068598,121328949,1544,1543,1544,1544,0,0,0,0,0,0,0,0,0,0
1681134169.80064607,121428909,1545,1545,1545,1545,0,0,0,0,0,0,0,0,0,0
1681134169.90060592,121528869,1545,1544,1544,1544,0,0,0,0,0,0,0,0,0,0
1681134170.00056601,121628829,1544,1544,1544,1544,0,0,0,0,0,0,0,0,0,0
1681134170.10052609,121728789,1544,1544,1544,1544,0,0,0,0,0,0,0,0,0,0
1681134170.20048594,121828749,1543,1544,1544,1543,0,0,0,0,0,0,0,0,0,0
1681134170.30044603,121928709,1544,1544,1544,1544,0,0,0,0,0,0,0,0,0,0
1681134170.40040612,122028669,1543,1544,1543,1544,0,0,0,0,0,0,0,0,0,0
1681134170.50036597,122128629,1545,1544,1544,1545,0,0,0,0,0,0,0,0,0,0
1681134170.60032606,122228589,1544,1544,1544,1544,0,0,0,0,0,0,0,0,0,0
1681134170.70028591,122328549,1544,1544,1544,1544,0,0,0,0,0,0,0,0,0,0
1681134170.80024600,122428509,1544,1544,1544,1544,0,0,0,0,0,0,0,0,0,0
1681134170.90020609,122528469,1544,1544,1544,1544,0,0,0,0,0,0,0,0,0,0
1681134171.00016594,122628429,1544,1544,1544,1544,0,0,0,0,0,0,0,0,0,0
1681134171.10012603,122728389,1544,1544,1544,1544,0,0,0,0,0,0,0,0,0,0
1681134171.20008612,122828349,1544,1544,1544,1544,0,0,0,0,0,0,0,0,0,0
1681134171.30004597,122928309,1544,1544,1544,1544,0,0,0,0,0,0,0,0,0,0
1681134171.40000606,123028269,1543,1543,1544,1543,0,0,0,0,0,0,0,0,0,0
1681134171.49996591,123128229,1543,1543,1543,1543,0,0,0,0,0,0,0,0,0,0
1681134171.59992599,123228189,1543,1543,1543,1543,0,0,0,0,0,0,0,0,0,0
1681134171.70071912,123328982,1543,1543,1543,1544,0,0,0,0,0,0,0,0,0,0
1681134171.80067897,123428942,1543,1543,1543,1543,0,0,0,0,0,0,0,0,0,0
1681134171.90063906,123528902,1545,1544,1544,1545,0,0,0,0,0,0,0,0,0,0
1681134172.00059891,123628862,1545,1545,1545,1544,0,0,0,0,0,0,0,0,0,0
1681134172.10055900,123728822,1544,1544,1544,1544,0,0,0,0,0,0,0,0,0,0
1681134172.20051908,123828782,1544,1544,1545,1544,0,0,0,0,0,0,0,0,0,0
1681134172.30047894,123928742,1545,1545,1545,1545,0,0,0,0,0,0,0,0,0,0
1681134172.40043902,124028702,1544,1544,1544,1544,0,0,0,0,0,0,0,0,0,0
1681134172.50039911,124128662,1545,1545,1545,1545,0,0,0,0,0,0,0,0,0,0
1681134172.60035896,124228622,1544,1544,1545,1544,0,0,0,0,0,0,0,0,0,0
1681134172.70031905,124328582,1545,1544,1545,1545,0,0,0,0,0,0,0,0,0,0
1681134172.80027890,124428542,1545,1545,1545,1545,0,0,0,0,0,0,0,0,0,0
1681134172.90023899,124528502,1545,1545,1545,1545,0,0,0,0,0,0,0,0,0,0
1681134173.00019908,124628462,1544,1544,1544,1544,0,0,0,0,0,0,0,0,0,0
1681134173.10015893,124728422,1544,1543,1544,1544,0,0,0,0,0,0,0,0,0,0
1681134173.20011902,124828382,1544,1544,1544,1544,0,0,0,0,0,0,0,0,0,0
1681134173.30007911,124928342,1544,1544,1544,1544,0,0,0,0,0,0,0,0,0,0
1681134173.40003896,125028302,1543,1544,1544,1544,0,0,0,0,0,0,0,0,0,0
1681134173.49999905,125128262,1544,1544,1544,1544,0,0,0,0,0,0,0,0,0,0
1681134173.59995890,125228222,1545,1545,1545,1545,0,0,0,0,0,0,0,0,0,0
1681134173.69991899,125328182,1545,1545,1544,1545,0,0,0,0,0,0,0,0,0,0
1681134173.80071211,125428975,1545,1545,1544,1544,0,0,0,0,0,0,0,0,0,0
1681134173.90067196,125528935,1545,1544,1545,1545,0,0,0,0,0,0,0,0,0,0
1681134174.00063205,125628895,1545,1544,1544,1544,0,0,0,0,0,0,0,0,0,0
1681134174.10059190,125728855,1544,1544,1544,1544,0,0,0,0,0,0,0,0,0,0
1681134174.20055199,125828815,1544,1545,1545,1545,0,0,0,0,0,0,0,0,0,0
1681134174.30051208,125928775,1545,1545,1545,1545,0,0,0,0,0,0,0,0,0,0
1681134174.40047193,126028735,1545,1544,1545,1544,0,0,0,0,0,0,0,0,0,0
1681134174.50043201,126128695,1544,1544,1544,1545,0,0,0,0,0,0,0,0,0,0
1681134174.60039210,126228655,1545,1544,1544,1545,0,0,0,0,0,0,0,0,0,0
1681134174.70035195,126328615,1545,1544,1545,1544,0,0,0,0,0,0,0,0,0,0
1681134174.80031204,126428575,1544,1545,1544,1544,0,0,0,0,0,0,0,0,0,0
1681134174.90027189,126528535,1544,1544,1544,1545,0,0,0,0,0,0,0,0,0,0
1681134175.00023198,126628495,1544,1544,1544,1544,0,0,0,0,0,0,0,0,0,0
1681134175.10019207,126728455,1544,1544,1544,1544,0,0,0,0,0,0,0,0,0,0
1681134175.20015192,126828415,1545,1544,1545,1544,0,0,0,0,0,0,0,0,0,0
1681134175.30011201,126928375,1544,1544,1544,1544,0,0,0,0,0,0,0,0,0,0
1681134175.40007210,127028335,1544,1545,1545,1545,0,0,0,0,0,0,0,0,0,0
1681134175.50003195,127128295,1544,1544,1544,1544,0,0,0,0,0,0,0,0,0,0
1681134175.59999204,127228255,1537,1537,1539,1536,0,0,0,0,0,0,0,0,0,0
1681134175.69995189,127328215,1349,1351,1413,1350,0,0,0,0,0,0,0,0,0,0
1681134175.79991198,127428175,1245,1250,1353,1247,0,0,0,0,0,0,0,0,0,0
1681134175.90070510,127528968,1213,1217,1335,1215,0,0,0,0,0,0,0,0,0,0
1681134176.00066495,127628928,1194,1197,1326,1195,0,0,0,0,0,0,0,0,0,0
1681134176.10062504,127728888,1150,1152,1304,1151,0,0,0,0,0,0,0,0,0,0
1681134176.20058489,127828848,1169,1172,1159,1150,0,0,0,0,0,0,0,0,0,0
1681134176.30054498,127928808,1165,1167,1109,1150,0,0,0,0,0,0,0,0,0,0
1681134176.40050507,128028768,1165,1168,1109,1150,0,0,0,0,0,0,0,0,0,0
1681134176.50046492,128128728,1165,1167,1109,1150,0,0,0,0,0,0,0,0,0,0
1681134176.60042500,128228688,1171,1150,1113,1154,0,0,0,0,0,0,0,0,0,0
1681134176.70038509,128328648,1166,1154,1117,1150,0,0,0,0,0,0,0,0,0,0
1681134176.80034494,128428608,1165,1157,1116,1150,0,0,0,0,0,0,0,0,0,0
1681134176.90030503,128528568,1165,1157,1116,1150,0,0,0,0,0,0,0,0,0,0
1681134177.00026512,128628528,1164,1156,1117,1150,0,0,0,0,0,0,0,0,0,0
1681134177.10022497,128728488,1164,1155,1117,1150,0,0,0,0,0,0,0,0,0,0
1681134177.20018506,128828448,1164,1154,1118,1150,0,0,0,0,0,0,0,0,0,0
1681134177.30014491,128928408,1163,1153,1119,1150,0,0,0,0,0,0,0,0,0,0
1681134177.40010500,129028368,1163,1162,1114,1150,0,0,0,0,0,0,0,0,0,0
1681134177.50006509,129128328,1163,1161,1114,1150,0,0,0,0,0,0,0,0,0,0
1681134177.60002494,129228288,1163,1161,1114,1150,0,0,0,0,0,0,0,0,0,0
1681134177.69998503,129328248,1163,1161,1115,1150,0,0,0,0,0,0,0,0,0,0
1681134177.79994512,129428208,1153,1152,934,1150,0,0,0,0,0,0,0,0,0,0
1681134177.89990497,129528168,1000,1000,1000,1000,0,0,0,0,0,0,0,0,0,0
1681134178.00069809,129628961,1000,1000,1000,1000,0,0,0,0,0,0,0,0,0,0
1681134178.10065794,129728921,1000,1000,1000,1000,0,0,0,0,0,0,0,0,0,0
1681134178.20061803,129828881,1000,1000,1000,1000,0,0,0,0,0,0,0,0,0,0
1681134178.30057812,129928841,1000,1000,1000,1000,0,0,0,0,0,0,0,0,0,0
1681134178.40053797,130028801,1000,1000,1000,1000,0,0,0,0,0,0,0,0,0,0
1681134178.50049806,130128761,1000,1000,1000,1000,0,0,0,0,0,0,0,0,0,0
1681134178.60045791,130228721,1000,1000,1000,1000,0,0,0,0,0,0,0,0,0,0
1681134178.70041800,130328681,1000,1000,1000,1000,0,0,0,0,0,0,0,0,0,0
1681134178.80037808,130428641,1000,1000,1000,1000,0,0,0,0,0,0,0,0,0,0
1681134178.90033793,130528601,1000,1000,1000,1000,0,0,0,0,0,0,0,0,0,0
1681134179.00029802,130628561,1000,1000,1000,1000,0,0,0,0,0,0,0,0,0,0
1681134179.10025811,130728521,1000,1000,1000,1000,0,0,0,0,0,0,0,0,0,0
1681134179.20021796,130828481,1000,1000,1000,1000,0,0,0,0,0,0,0,0,0,0
1681134179.30017805,130928441,1000,1000,1000,1000,0,0,0,0,0,0,0,0,0,0
1681134179.40013790,131028401,1000,1000,1000,1000,0,0,0,0,0,0,0,0,0,0
1681134179.50009799,131128361,1000,1000,1000,1000,0,0,0,0,0,0,0,0,0,0
1681134179.60005808,131228321,1000,1000,1000,1000,0,0,0,0,0,0,0,0,0,0
1681134179.70001793,131328281,1000,1000,1000,1000,0,0,0,0,0,0,0,0,0,0
1681134179.79997802,131428241,1000,1000,1000,1000,0,0,0,0,0,0,0,0,0,0
1681134179.89993811,131528201,1000,1000,1000,1000,0,0,0,0,0,0,0,0,0,0
1681134179.99989796,131628161,1000,1000,1000,1000,0,0,0,0,0,0,0,0,0,0
1681134180.10069108,131728954,1000,1000,1000,1000,0,0,0,0,0,0,0,0,0,0
1681134180.20065093,131828914,1000,1000,1000,1000,0,0,0,0,0,0,0,0,0,0
1681134180.30061102,131928874,1000,1000,1000,1000,0,0,0,0,0,0,0,0,0,0
1681134180.40057111,132028834,1000,1000,1000,1000,0,0,0,0,0,0,0,0,0,0
1681134180.50053096,132128794,1000,1000,1000,1000,0,0,0,0,0,0,0,0,0,0
1681134180.60049105,132228754,1000,1000,1000,1000,0,0,0,0,0,0,0,0,0,0
1681134180.70045090,132328714,1000,1000,1000,1000,0,0,0,0,0,0,0,0,0,0
1681134180.80041099,132428674,1000,1000,1000,1000,0,0,0,0,0,0,0,0,0,0
1681134180.90037107,132528634,1000,1000,1000,1000,0,0,0,0,0,0,0,0,0,0
1681134181.00033092,132628594,1000,1000,1000,1000,0,0,0,0,0,0,0,0,0,0
1681134181.10029101,132728554,1000,1000,1000,1000,0,0,0,0,0,0,0,0,0,0
1681134181.20025110,132828514,1000,1000,1000,1000,0,0,0,0,0,0,0,0,0,0
1681134181.30021095,132928474,1000,1000,1000,1000,0,0,0,0,0,0,0,0,0,0
1681134181.40017104,133028434,1000,1000,1000,1000,0,0,0,0,0,0,0,0,0,0
1681134181.50013089,133128394,1000,1000,1000,1000,0,0,0,0,0,0,0,0,0,0
1681134181.60009098,133228354,1000,1000,1000,1000,0,0,0,0,0,0,0,0,0,0
1681134181.70005107,133328314,1000,1000,1000,1000,0,0,0,0,0,0,0,0,0,0
1681134181.80001092,133428274,1000,1000,1000,1000,0,0,0,0,0,0,0,0,0,0
1681134181.89997101,133528234,1000,1000,1000,1000,0,0,0,0,0,0,0,0,0,0
1681134181.99993110,133628194,1000,1000,1000,1000,0,0,0,0,0,0,0,0,0,0
1681134182.09989095,133728154,1000,1000,1000,1000,0,0,0,0,0,0,0,0,0,0
1681134182.20068407,133828947,1000,1000,1000,1000,0,0,0,0,0,0,0,0,0,0
1681134182.30064392,133928907,1000,1000,1000,1000,0,0,0,0,0,0,0,0,0,0
1681134182.40060401,134028867,1000,1000,1000,1000,0,0,0,0,0,0,0,0,0,0
1681134182.50056410,134128827,1000,1000,1000,1000,0,0,0,0,0,0,0,0,0,0
1681134182.60052395,134228787,1000,1000,1000,1000,0,0,0,0,0,0,0,0,0,0
1681134182.70048404,134328747,1000,1000,1000,1000,0,0,0,0,0,0,0,0,0,0
1681134182.80044389,134428707,1000,1000,1000,1000,0,0,0,0,0,0,0,0,0,0
1681134182.90040398,134528667,1000,1000,1000,1000,0,0,0,0,0,0,0,0,0,0
1681134183.00036407,134628627,1000,1000,1000,1000,0,0,0,0,0,0,0,0,0,0
1681134183.10032392,134728587,1000,1000,1000,1000,0,0,0,0,0,0,0,0,0,0
1681134183.20028400,134828547,1000,1000,1000,1000,0,0,0,0,0,0,0,0,0,0
1681134183.30024409,134928507,1000,1000,1000,1000,0,0,0,0,0,0,0,0,0,0
1681134183.40020394,135028467,1000,1000,1000,1000,0,0,0,0,0,0,0,0,0,0
1681134183.50016403,135128427,1000,1000,1000,1000,0,0,0,0,0,0,0,0,0,0
1681134183.60012412,135228387,1000,1000,1000,1000,0,0,0,0,0,0,0,0,0,0
1681134183.70008397,135328347,1000,1000,1000,1000,0,0,0,0,0,0,0,0,0,0
1681134183.80004406,135428307,1000,1000,1000,1000,0,0,0,0,0,0,0,0,0,0
1681134183.90000391,135528267,1000,1000,1000,1000,0,0,0,0,0,0,0,0,0,0
1681134183.99996400,135628227,1000,1000,1000,1000,0,0,0,0,0,0,0,0,0,0
1681134184.09992409,135728187,1000,1000,1000,1000,0,0,0,0,0,0,0,0,0,0
1681134184.20071697,135828980,1000,1000,1000,1000,0,0,0,0,0,0,0,0,0,0
1681134184.30067706,135928940,1000,1000,1000,1000,0,0,0,0,0,0,0,0,0,0
1681134184.40063691,136028900,1000,1000,1000,1000,0,0,0,0,0,0,0,0,0,0
1681134184.50059700,136128860,1000,1000,1000,1000,0,0,0,0,0,0,0,0,0,0
1681134184.60055709,136228820,1000,1000,1000,1000,0,0,0,0,0,0,0,0,0,0
1681134184.70051694,136328780,1000,1000,1000,1000,0,0,0,0,0,0,0,0,0,0
1681134184.80047703,136428740,1000,1000,1000,1000,0,0,0,0,0,0,0,0,0,0
1681134184.90043712,136528700,1000,1000,1000,1000,0,0,0,0,0,0,0,0,0,0
1681134185.00039697,136628660,1000,1000,1000,1000,0,0,0,0,0,0,0,0,0,0
1681134185.10035706,136728620,1000,1000,1000,1000,0,0,0,0,0,0,0,0,0,0
1681134185.20031691,136828580,1000,1000,1000,1000,0,0,0,0,0,0,0,0,0,0
1681134185.30027699,136928540,1000,1000,1000,1000,0,0,0,0,0,0,0,0,0,0
1681134185.40023708,137028500,1000,1000,1000,1000,0,0,0,0,0,0,0,0,0,0
1681134185.50019693,137128460,1000,1000,1000,1000,0,0,0,0,0,0,0,0,0,0
1681134185.60015702,137228420,1000,1000,1000,1000,0,0,0,0,0,0,0,0,0,0
1681134185.70011711,137328380,1000,1000,1000,1000,0,0,0,0,0,0,0,0,0,0
1681134185.80007696,137428340,1000,1000,1000,1000,0,0,0,0,0,0,0,0,0,0
1681134185.90003705,137528300,1000,1000,1000,1000,0,0,0,0,0,0,0,0,0,0
1681134185.99999690,137628260,1000,1000,1000,1000,0,0,0,0,0,0,0,0,0,0
1681134186.09995699,137728220,1000,1000,1000,1000,0,0,0,0,0,0,0,0,0,0
1681134186.19991708,137828180,1000,1000,1000,1000,0,0,0,0,0,0,0,0,0,0
1681134186.30070996,137928973,1000,1000,1000,1000,0,0,0,0,0,0,0,0,0,0
1681134186.40067005,138028933,1000,1000,1000,1000,0,0,0,0,0,0,0,0,0,0
1681134186.50062990,138128893,1000,1000,1000,1000,0,0,0,0,0,0,0,0,0,0
1681134186.60058999,138228853,1000,1000,1000,1000,0,0,0,0,0,0,0,0,0,0
1681134186.70055008,138328813,1000,1000,1000,1000,0,0,0,0,0,0,0,0,0,0
1681134186.80050993,138428773,1000,1000,1000,1000,0,0,0,0,0,0,0,0,0,0
1681134186.90047002,138528733,1000,1000,1000,1000,0,0,0,0,0,0,0,0,0,0
1681134187.00043011,138628693,1000,1000,1000,1000,0,0,0,0,0,0,0,0,0,0
1681134187.10038996,138728653,1000,1000,1000,1000,0,0,0,0,0,0,0,0,0,0
1681134187.20035005,138828613,1000,1000,1000,1000,0,0,0,0,0,0,0,0,0,0
1681134187.30030990,138928573,1000,1000,1000,1000,0,0,0,0,0,0,0,0,0,0
1681134187.40026999,139028533,1000,1000,1000,1000,0,0,0,0,0,0,0,0,0,0
1681134187.50023007,139128493,1000,1000,1000,1000,0,0,0,0,0,0,0,0,0,0
1681134187.60018992,139228453,1000,1000,1000,1000,0,0,0,0,0,0,0,0,0,0
1681134187.70015001,139328413,1000,1000,1000,1000,0,0,0,0,0,0,0,0,0,0
1681134187.80011010,139428373,1000,1000,1000,1000,0,0,0,0,0,0,0,0,0,0
1681134187.90006995,139528333,1000,1000,1000,1000,0,0,0,0,0,0,0,0,0,0
1681134188.00003004,139628293,1000,1000,1000,1000,0,0,0,0,0,0,0,0,0,0
1681134188.09998989,139728253,1000,1000,1000,1000,0,0,0,0,0,0,0,0,0,0
1681134188.19994998,139828213,1000,1000,1000,1000,0,0,0,0,0,0,0,0,0,0
1681134188.29991007,139928173,1000,1000,1000,1000,0,0,0,0,0,0,0,0,0,0
1681134188.40070295,140028966,1000,1000,1000,1000,0,0,0,0,0,0,0,0,0,0
1681134188.50066304,140128926,1000,1000,1000,1000,0,0,0,0,0,0,0,0,0,0
1681134188.60062289,140228886,1000,1000,1000,1000,0,0,0,0,0,0,0,0,0,0
1681134188.70058298,140328846,1000,1000,1000,1000,0,0,0,0,0,0,0,0,0,0
1681134188.80054307,140428806,1000,1000,1000,1000,0,0,0,0,0,0,0,0,0,0
1681134188.90050292,140528766,1000,1000,1000,1000,0,0,0,0,0,0,0,0,0,0
1681134189.00046301,140628726,1000,1000,1000,1000,0,0,0,0,0,0,0,0,0,0
1681134189.10042310,140728686,1000,1000,1000,1000,0,0,0,0,0,0,0,0,0,0
1681134189.20038295,140828646,1000,1000,1000,1000,0,0,0,0,0,0,0,0,0,0
1681134189.30034304,140928606,1000,1000,1000,1000,0,0,0,0,0,0,0,0,0,0
1681134189.40030289,141028566,1000,1000,1000,1000,0,0,0,0,0,0,0,0,0,0
1681134189.50026298,141128526,1000,1000,1000,1000,0,0,0,0,0,0,0,0,0,0
1681134189.60022306,141228486,1000,1000,1000,1000,0,0,0,0,0,0,0,0,0,0
1681134189.70018291,141328446,1000,1000,1000,1000,0,0,0,0,0,0,0,0,0,0
1681134189.80014300,141428406,1000,1000,1000,1000,0,0,0,0,0,0,0,0,0,0
1681134189.90010309,141528366,1000,1000,1000,1000,0,0,0,0,0,0,0,0,0,0
1681134190.00006294,141628326,1000,1000,1000,1000,0,0,0,0,0,0,0,0,0,0
1681134190.10002303,141728286,1000,1000,1000,1000,0,0,0,0,0,0,0,0,0,0
1681134190.19998312,141828246,1000,1000,1000,1000,0,0,0,0,0,0,0,0,0,0
1681134190.29994297,141928206,1000,1000,1000,1000,0,0,0,0,0,0,0,0,0,0
1681134190.39990306,142028166,1000,1000,1000,1000,0,0,0,0,0,0,0,0,0,0
1681134190.50069594,142128959,1000,1000,1000,1000,0,0,0,0,0,0,0,0,0,0
1681134190.60065603,142228919,1000,1000,1000,1000,0,0,0,0,0,0,0,0,0,0
1681134190.70061612,142328879,1000,1000,1000,1000,0,0,0,0,0,0,0,0,0,0
1681134190.80057597,142428839,1000,1000,1000,1000,0,0,0,0,0,0,0,0,0,0
1681134190.90053606,142528799,1000,1000,1000,1000,0,0,0,0,0,0,0,0,0,0
1681134191.00049591,142628759,1000,1000,1000,1000,0,0,0,0,0,0,0,0,0,0
1681134191.10045600,142728719,1000,1000,1000,1000,0,0,0,0,0,0,0,0,0,0
1681134191.20041609,142828679,1000,1000,1000,1000,0,0,0,0,0,0,0,0,0,0
1681134191.30037594,142928639,1000,1000,1000,1000,0,0,0,0,0,0,0,0,0,0
1681134191.40033603,143028599,1000,1000,1000,1000,0,0,0,0,0,0,0,0,0,0
1681134191.50029612,143128559,1000,1000,1000,1000,0,0,0,0,0,0,0,0,0,0
1681134191.60025597,143228519,1000,1000,1000,1000,0,0,0,0,0,0,0,0,0,0
1681134191.70021605,143328479,1000,1000,1000,1000,0,0,0,0,0,0,0,0,0,0
1681134191.80017591,143428439,1000,1000,1000,1000,0,0,0,0,0,0,0,0,0,0
1681134191.90013599,143528399,1000,1000,1000,1000,0,0,0,0,0,0,0,0,0,0
1681134192.00009608,143628359,1000,1000,1000,1000,0,0,0,0,0,0,0,0,0,0
1681134192.10005593,143728319,1000,1000,1000,1000,0,0,0,0,0,0,0,0,0,0
1681134192.20001602,143828279,1000,1000,1000,1000,0,0,0,0,0,0,0,0,0,0
1681134192.29997611,143928239,1000,1000,1000,1000,0,0,0,0,0,0,0,0,0,0
1681134192.39993596,144028199,1000,1000,1000,1000,0,0,0,0,0,0,0,0,0,0
1681134192.49989605,144128159,1000,1000,1000,1000,0,0,0,0,0,0,0,0,0,0
1681134192.60068893,144228952,1000,1000,1000,1000,0,0,0,0,0,0,0,0,0,0
1681134192.70064902,144328912,1000,1000,1000,1000,0,0,0,0,0,0,0,0,0,0
1681134192.80060911,144428872,1000,1000,1000,1000,0,0,0,0,0,0,0,0,0,0
