TimeUS,M1,M2,M3,M4,TimeUS,C1,C2,C3,C4
46185685,1000,1000,1000,1000,46228168,1000,1000,1000,1000
46188184,1000,1000,1000,1000,46328961,1000,1000,1000,1000
46190683,1000,1000,1000,1000,46428921,1000,1000,1000,1000
46193182,1000,1000,1000,1000,46528881,1000,1000,1000,1000
46195681,1000,1000,1000,1000,46628841,1000,1000,1000,1000
46198180,1000,1000,1000,1000,46728801,1000,1000,1000,1000
46200679,1000,1000,1000,1000,46828761,1000,1000,1000,1000
46203178,1000,1000,1000,1000,46928721,1000,1000,1000,1000
46205677,1000,1000,1000,1000,47028681,1000,1000,1000,1000
46208176,1000,1000,1000,1000,47128641,1000,1000,1000,1000
46210675,1000,1000,1000,1000,47228601,1000,1000,1000,1000
46213174,1000,1000,1000,1000,47328561,1000,1000,1000,1000
46215673,1000,1000,1000,1000,47428521,1000,1000,1000,1000
46218172,1000,1000,1000,1000,47528481,1000,1000,1000,1000
46220671,1000,1000,1000,1000,47628441,1000,1000,1000,1000
46223170,1000,1000,1000,1000,47728401,1000,1000,1000,1000
46225669,1000,1000,1000,1000,47828361,1000,1000,1000,1000
46228168,1000,1000,1000,1000,47928321,1000,1000,1000,1000
46230667,1000,1000,1000,1000,48028281,1000,1000,1000,1000
46233166,1000,1000,1000,1000,48128241,1000,1000,1000,1000
46235665,1000,1000,1000,1000,48228201,1012,1012,1012,1012
46238164,1000,1000,1000,1000,48328161,1042,1042,1042,1042
46240663,1000,1000,1000,1000,48428954,1072,1072,1072,1072
46243162,1000,1000,1000,1000,48528914,1102,1102,1102,1102
46245661,1000,1000,1000,1000,48628874,1132,1132,1132,1132
46248160,1000,1000,1000,1000,48728834,1268,1263,1263,1268
46250659,1000,1000,1000,1000,48828794,1481,1477,1477,1481
46253158,1000,1000,1000,1000,48928754,1644,1640,1641,1644
46255657,1000,1000,1000,1000,49028714,1782,1779,1779,1782
46258156,1000,1000,1000,1000,49128674,1848,1844,1844,1848
46260655,1000,1000,1000,1000,49228634,1857,1854,1855,1857
46263154,1000,1000,1000,1000,49328594,1742,1741,1741,1742
46266486,1000,1000,1000,1000,49428554,1637,1638,1638,1637
46268985,1000,1000,1000,1000,49528514,1606,1608,1608,1606
46271484,1000,1000,1000,1000,49628474,1617,1619,1619,1618
46273983,1000,1000,1000,1000,49728434,1632,1634,1633,1633
46276482,1000,1000,1000,1000,49828394,1635,1635,1635,1635
46278981,1000,1000,1000,1000,49928354,1630,1629,1629,1630
46281480,1000,1000,1000,1000,50028314,1612,1611,1606,1616
46283979,1000,1000,1000,1000,50128274,1603,1603,1595,1610
46286478,1000,1000,1000,1000,50228234,1603,1602,1598,1606
46288977,1000,1000,1000,1000,50328194,1605,1604,1604,1604
46291476,1000,1000,1000,1000,50428154,1610,1609,1612,1607
46293975,1000,1000,1000,1000,50528947,1616,1616,1620,1612
46296474,1000,1000,1000,1000,50628907,1620,1620,1624,1616
46298973,1000,1000,1000,1000,50728867,1589,1590,1603,1576
46301472,1000,1000,1000,1000,50828827,1575,1577,1587,1565
46303971,1000,1000,1000,1000,50928787,1564,1565,1567,1562
46306470,1000,1000,1000,1000,51028747,1554,1554,1547,1562
46308969,1000,1000,1000,1000,51128707,1546,1545,1534,1558
46311468,1000,1000,1000,1000,51228667,1539,1539,1529,1549
46313967,1000,1000,1000,1000,51328627,1533,1533,1527,1539
46316466,1000,1000,1000,1000,51428587,1529,1529,1528,1531
46318965,1000,1000,1000,1000,51528547,1529,1529,1530,1528
46321464,1000,1000,1000,1000,51628507,1531,1531,1534,1528
46323963,1000,1000,1000,1000,51728467,1534,1534,1537,1530
46326462,1000,1000,1000,1000,51828427,1537,1537,1541,1533
46328961,1000,1000,1000,1000,51928387,1540,1540,1543,1538
46331460,1000,1000,1000,1000,52028347,1543,1543,1544,1542
46333959,1000,1000,1000,1000,52128307,1546,1546,1546,1547
46336458,1000,1000,1000,1000,52228267,1549,1549,1548,1551
46338957,1000,1000,1000,1000,52328227,1552,1551,1550,1553
46341456,1000,1000,1000,1000,52428187,1551,1550,1556,1559
46343955,1000,1000,1000,1000,52528980,1552,1552,1560,1562
46346454,1000,1000,1000,1000,52628940,1556,1556,1562,1563
46348953,1000,1000,1000,1000,52728900,1558,1559,1563,1563
46351452,1000,1000,1000,1000,52828860,1562,1562,1564,1564
46353951,1000,1000,1000,1000,52928820,1565,1565,1565,1564
46356450,1000,1000,1000,1000,53028780,1567,1567,1565,1564
46358949,1000,1000,1000,1000,53128740,1569,1569,1565,1565
46361448,1000,1000,1000,1000,53228700,1570,1570,1565,1565
46363947,1000,1000,1000,1000,53328660,1570,1570,1565,1565
46366446,1000,1000,1000,1000,53428620,1572,1571,1567,1567
46368945,1000,1000,1000,1000,53528580,1573,1572,1569,1569
46371444,1000,1000,1000,1000,53628540,1573,1573,1571,1570
46373943,1000,1000,1000,1000,53728500,1573,1573,1572,1571
46376442,1000,1000,1000,1000,53828460,1574,1574,1575,1574
46378941,1000,1000,1000,1000,53928420,1574,1575,1576,1575
46381440,1000,1000,1000,1000,54028380,1574,1575,1577,1575
46383939,1000,1000,1000,1000,54128340,1574,1574,1576,1576
46386438,1000,1000,1000,1000,54228300,1575,1575,1577,1577
46388937,1000,1000,1000,1000,54328260,1576,1575,1577,1577
46391436,1000,1000,1000,1000,54428220,1576,1576,1577,1577
46393935,1000,1000,1000,1000,54528180,1576,1576,1577,1577
46396434,1000,1000,1000,1000,54628973,1576,1576,1576,1576
46398933,1000,1000,1000,1000,54728933,1577,1577,1577,1577
46401432,1000,1000,1000,1000,54828893,1578,1578,1578,1578
46403931,1000,1000,1000,1000,54928853,1578,1578,1578,1578
46406430,1000,1000,1000,1000,55028813,1578,1577,1577,1577
46408929,1000,1000,1000,1000,55128773,1578,1578,1578,1578
46411428,1000,1000,1000,1000,55228733,1578,1579,1578,1578
46413927,1000,1000,1000,1000,55328693,1578,1579,1578,1578
46416426,1000,1000,1000,1000,55428653,1579,1579,1578,1578
46418925,1000,1000,1000,1000,55528613,1579,1578,1578,1578
46421424,1000,1000,1000,1000,55628573,1579,1579,1579,1579
46423923,1000,1000,1000,1000,55728533,1579,1579,1579,1579
46426422,1000,1000,1000,1000,55828493,1579,1579,1579,1579
46428921,1000,1000,1000,1000,55928453,1579,1579,1579,1579
46431420,1000,1000,1000,1000,56028413,1579,1579,1579,1579
46433919,1000,1000,1000,1000,56128373,1579,1580,1580,1580
46436418,1000,1000,1000,1000,56228333,1580,1579,1580,1580
46438917,1000,1000,1000,1000,56328293,1579,1579,1580,1580
46441416,1000,1000,1000,1000,56428253,1579,1579,1580,1580
46443915,1000,1000,1000,1000,56528213,1579,1579,1580,1579
46446414,1000,1000,1000,1000,56628173,1578,1579,1579,1579
46448913,1000,1000,1000,1000,56728966,1580,1579,1579,1580
46451412,1000,1000,1000,1000,56828926,1581,1580,1581,1581
46453911,1000,1000,1000,1000,56928886,1581,1581,1581,1581
46456410,1000,1000,1000,1000,57028846,1581,1581,1581,1581
46458909,1000,1000,1000,1000,57128806,1580,1581,1580,1581
46461408,1000,1000,1000,1000,57228766,1581,1581,1581,1580
46463907,1000,1000,1000,1000,57328726,1580,1581,1580,1580
46466406,1000,1000,1000,1000,57428686,1581,1580,1580,1581
46468905,1000,1000,1000,1000,57528646,1580,1580,1580,1580
46471404,1000,1000,1000,1000,57628606,1580,1580,1580,1580
46473903,1000,1000,1000,1000,57728566,1581,1580,1580,1581
46476402,1000,1000,1000,1000,57828526,1580,1580,1580,1580
46478901,1000,1000,1000,1000,57928486,1581,1581,1581,1581
46481400,1000,1000,1000,1000,58028446,1582,1581,1581,1581
46483899,1000,1000,1000,1000,58128406,1581,1581,1581,1582
46486398,1000,1000,1000,1000,58228366,1582,1581,1582,1581
46488897,1000,1000,1000,1000,58328326,1581,1581,1581,1581
46491396,1000,1000,1000,1000,58428286,1581,1581,1581,1581
46493895,1000,1000,1000,1000,58528246,1581,1581,1581,1581
46496394,1000,1000,1000,1000,58628206,1581,1581,1585,1577
46498893,1000,1000,1000,1000,58728166,1580,1582,1587,1573
46501392,1000,1000,1000,1000,58828959,1579,1582,1582,1573
46503891,1000,1000,1000,1000,58928919,1577,1580,1572,1573
46506390,1000,1000,1000,1000,59028879,1576,1579,1564,1570
46508889,1000,1000,1000,1000,59128839,1576,1578,1558,1566
46511388,1000,1000,1000,1000,59228799,1578,1578,1556,1561
46513887,1000,1000,1000,1000,59328759,1579,1577,1555,1557
46516386,1000,1000,1000,1000,59428719,1579,1578,1556,1555
46518885,1000,1000,1000,1000,59528679,1579,1578,1557,1555
46521384,1000,1000,1000,1000,59628639,1578,1578,1557,1555
46523883,1000,1000,1000,1000,59728599,1576,1577,1556,1554
46526382,1000,1000,1000,1000,59828559,1575,1576,1555,1554
46528881,1000,1000,1000,1000,59928519,1574,1576,1553,1554
46531380,1000,1000,1000,1000,60028479,1575,1576,1552,1553
46533879,1000,1000,1000,1000,60128439,1575,1577,1551,1551
46536378,1000,1000,1000,1000,60228399,1577,1578,1550,1549
46538877,1000,1000,1000,1000,60328359,1579,1580,1547,1547
46541376,1000,1000,1000,1000,60428319,1581,1582,1544,1543
46543875,1000,1000,1000,1000,60528279,1584,1585,1541,1541
46546374,1000,1000,1000,1000,60628239,1588,1589,1539,1539
46548873,1000,1000,1000,1000,60728199,1591,1592,1537,1537
46551372,1000,1000,1000,1000,60828159,1593,1594,1535,1535
46553871,1000,1000,1000,1000,60928952,1596,1595,1535,1536
46556370,1000,1000,1000,1000,61028912,1594,1594,1534,1536
46558869,1000,1000,1000,1000,61128872,1594,1594,1537,1540
46561368,1000,1000,1000,1000,61228832,1591,1590,1540,1543
46563867,1000,1000,1000,1000,61328792,1587,1585,1547,1550
46566366,1000,1000,1000,1000,61428752,1580,1577,1555,1558
46568865,1000,1000,1000,1000,61528712,1571,1568,1565,1568
46571364,1000,1000,1000,1000,61628672,1561,1558,1578,1580
46573863,1000,1000,1000,1000,61728632,1550,1546,1590,1590
46576362,1000,1000,1000,1000,61828592,1540,1538,1601,1600
46578861,1000,1000,1000,1000,61928552,1532,1532,1609,1608
46581360,1000,1000,1000,1000,62028512,1529,1531,1614,1613
46583859,1000,1000,1000,1000,62128472,1529,1530,1615,1614
46586358,1000,1000,1000,1000,62228432,1533,1535,1613,1612
46588857,1000,1000,1000,1000,62328392,1539,1541,1607,1608
46591356,1000,1000,1000,1000,62428352,1546,1548,1601,1601
46593855,1000,1000,1000,1000,62528312,1555,1556,1593,1593
46596354,1000,1000,1000,1000,62628272,1564,1564,1586,1585
46598853,1000,1000,1000,1000,62728232,1571,1571,1578,1577
46601352,1000,1000,1000,1000,62828192,1578,1577,1573,1572
46603851,1000,1000,1000,1000,62928985,1583,1582,1569,1568
46606350,1000,1000,1000,1000,63028945,1586,1585,1567,1566
46608849,1000,1000,1000,1000,63128905,1587,1586,1565,1565
46611348,1000,1000,1000,1000,63228865,1587,1586,1567,1567
46613847,1000,1000,1000,1000,63328825,1585,1584,1569,1569
46616346,1000,1000,1000,1000,63428785,1583,1583,1572,1572
46618845,1000,1000,1000,1000,63528745,1580,1581,1575,1575
46621344,1000,1000,1000,1000,63628705,1578,1578,1578,1578
46623843,1000,1000,1000,1000,63728665,1575,1576,1581,1580
46626342,1000,1000,1000,1000,63828625,1573,1574,1582,1582
46628841,1000,1000,1000,1000,63928585,1573,1574,1584,1584
46631340,1000,1000,1000,1000,64028545,1572,1573,1584,1584
46633839,1000,1000,1000,1000,64128505,1573,1574,1584,1584
46636338,1000,1000,1000,1000,64228465,1574,1574,1583,1583
46638837,1000,1000,1000,1000,64328425,1575,1575,1582,1582
46641336,1000,1000,1000,1000,64428385,1577,1577,1582,1581
46643835,1000,1000,1000,1000,64528345,1578,1577,1579,1579
46646334,1000,1000,1000,1000,64628305,1592,1592,1570,1563
46648833,1000,1000,1000,1000,64728265,1596,1595,1588,1567
46651332,1000,1000,1000,1000,64828225,1598,1597,1600,1576
46653831,1000,1000,1000,1000,64928185,1597,1597,1604,1587
46656330,1000,1000,1000,1000,65028978,1591,1591,1600,1593
46658829,1000,1000,1000,1000,65128938,1585,1585,1594,1597
46661328,1000,1000,1000,1000,65228898,1577,1578,1587,1597
46663827,1000,1000,1000,1000,65328858,1573,1573,1584,1594
46666326,1000,1000,1000,1000,65428818,1571,1571,1582,1590
46668825,1000,1000,1000,1000,65528778,1572,1572,1583,1587
46671324,1000,1000,1000,1000,65628738,1574,1574,1584,1584
46673823,1000,1000,1000,1000,65728698,1575,1575,1582,1580
46676322,1000,1000,1000,1000,65828658,1577,1577,1581,1578
46678821,1000,1000,1000,1000,65928618,1579,1580,1579,1578
46681320,1000,1000,1000,1000,66028578,1580,1580,1577,1576
46683819,1000,1000,1000,1000,66128538,1581,1581,1575,1575
46686318,1000,1000,1000,1000,66228498,1582,1581,1574,1575
46688817,1000,1000,1000,1000,66328458,1582,1582,1575,1575
46691316,1000,1000,1000,1000,66428418,1581,1581,1574,1575
46693815,1000,1000,1000,1000,66528378,1580,1580,1575,1575
46696314,1000,1000,1000,1000,66628338,1578,1579,1575,1575
46698813,1000,1000,1000,1000,66728298,1577,1581,1583,1568
46701312,1000,1000,1000,1000,66828258,1578,1582,1580,1568
46703811,1000,1000,1000,1000,66928218,1577,1581,1573,1570
46706310,1000,1000,1000,1000,67028178,1576,1579,1564,1569
46708809,1000,1000,1000,1000,67128971,1577,1577,1558,1565
46711308,1000,1000,1000,1000,67228931,1578,1577,1554,1561
46713807,1000,1000,1000,1000,67328891,1578,1577,1552,1556
46716306,1000,1000,1000,1000,67428851,1579,1578,1552,1553
46718805,1000,1000,1000,1000,67528811,1580,1579,1553,1552
46721304,1000,1000,1000,1000,67628771,1579,1579,1554,1551
46723803,1000,1000,1000,1000,67728731,1578,1579,1554,1551
46726302,1000,1000,1000,1000,67828691,1577,1579,1553,1551
46728801,1000,1000,1000,1000,67928651,1577,1578,1552,1552
46731300,1000,1000,1000,1000,68028611,1577,1578,1552,1552
46733799,1000,1000,1000,1000,68128571,1577,1579,1550,1551
46736298,1000,1000,1000,1000,68228531,1578,1580,1548,1549
46738797,1000,1000,1000,1000,68328491,1580,1580,1547,1547
46741296,1000,1000,1000,1000,68428451,1582,1583,1546,1547
46743795,1000,1000,1000,1000,68528411,1584,1585,1544,1545
46746294,1000,1000,1000,1000,68628371,1586,1587,1544,1544
46748793,1000,1000,1000,1000,68728331,1588,1589,1543,1543
46751292,1000,1000,1000,1000,68828291,1590,1591,1542,1543
46753791,1000,1000,1000,1000,68928251,1592,1592,1542,1544
46756290,1000,1000,1000,1000,69028211,1591,1591,1543,1546
46758789,1000,1000,1000,1000,69128171,1589,1587,1547,1549
46761288,1000,1000,1000,1000,69228964,1584,1581,1553,1555
46763787,1000,1000,1000,1000,69328924,1578,1574,1561,1563
46766286,1000,1000,1000,1000,69428884,1569,1565,1571,1572
46768785,1000,1000,1000,1000,69528844,1561,1557,1581,1582
46771284,1000,1000,1000,1000,69628804,1552,1551,1591,1592
46773783,1000,1000,1000,1000,69728764,1545,1545,1599,1599
46776282,1000,1000,1000,1000,69828724,1540,1541,1605,1604
46778781,1000,1000,1000,1000,69928684,1539,1540,1608,1607
46781280,1000,1000,1000,1000,70028644,1540,1541,1607,1607
46783779,1000,1000,1000,1000,70128604,1544,1546,1606,1605
46786278,1000,1000,1000,1000,70228564,1549,1551,1602,1601
46788777,1000,1000,1000,1000,70328524,1555,1556,1598,1596
46791276,1000,1000,1000,1000,70428484,1561,1562,1591,1591
46793775,1000,1000,1000,1000,70528444,1568,1568,1585,1585
46796274,1000,1000,1000,1000,70628404,1574,1573,1580,1580
46798773,1000,1000,1000,1000,70728364,1579,1578,1575,1576
46801272,1000,1000,1000,1000,70828324,1581,1581,1571,1571
46803771,1000,1000,1000,1000,70928284,1584,1582,1569,1569
46806270,1000,1000,1000,1000,71028244,1585,1584,1569,1569
46808769,1000,1000,1000,1000,71128204,1584,1583,1569,1570
46811268,1000,1000,1000,1000,71228164,1583,1582,1571,1571
46813767,1000,1000,1000,1000,71328957,1581,1581,1573,1573
46816266,1000,1000,1000,1000,71428917,1580,1580,1577,1576
46818765,1000,1000,1000,1000,71528877,1578,1578,1578,1578
46821264,1000,1000,1000,1000,71628837,1576,1576,1581,1581
46823763,1000,1000,1000,1000,71728797,1574,1574,1581,1581
46826262,1000,1000,1000,1000,71828757,1574,1574,1583,1583
46828761,1000,1000,1000,1000,71928717,1573,1574,1583,1583
46831260,1000,1000,1000,1000,72028677,1575,1575,1584,1584
46833759,1000,1000,1000,1000,72128637,1575,1576,1583,1583
46836258,1000,1000,1000,1000,72228597,1576,1577,1583,1582
46838757,1000,1000,1000,1000,72328557,1578,1578,1582,1582
46841256,1000,1000,1000,1000,72428517,1579,1579,1581,1581
46843755,1000,1000,1000,1000,72528477,1580,1580,1580,1580
46846254,1000,1000,1000,1000,72628437,1581,1581,1580,1579
46848753,1000,1000,1000,1000,72728397,1581,1581,1578,1578
46851252,1000,1000,1000,1000,72828357,1581,1580,1577,1578
46853751,1000,1000,1000,1000,72928317,1581,1581,1578,1578
46856250,1000,1000,1000,1000,73028277,1581,1581,1578,1578
46858749,1000,1000,1000,1000,73128237,1581,1580,1578,1577
46861248,1000,1000,1000,1000,73228197,1580,1580,1578,1579
46863747,1000,1000,1000,1000,73328157,1579,1579,1578,1578
46866246,1000,1000,1000,1000,73428950,1579,1579,1579,1579
46868745,1000,1000,1000,1000,73528910,1578,1579,1579,1579
46871244,1000,1000,1000,1000,73628870,1580,1580,1581,1581
46873743,1000,1000,1000,1000,73728830,1579,1579,1581,1581
46876242,1000,1000,1000,1000,73828790,1580,1580,1581,1581
46878741,1000,1000,1000,1000,73928750,1580,1580,1581,1581
46881240,1000,1000,1000,1000,74028710,1580,1580,1581,1581
46883739,1000,1000,1000,1000,74128670,1579,1579,1580,1580
46886238,1000,1000,1000,1000,74228630,1581,1581,1581,1581
46888737,1000,1000,1000,1000,74328590,1581,1581,1581,1581
46891236,1000,1000,1000,1000,74428550,1582,1582,1582,1582
46893735,1000,1000,1000,1000,74528510,1582,1582,1581,1582
46896234,1000,1000,1000,1000,74628470,1582,1582,1582,1582
46898733,1000,1000,1000,1000,74728430,1583,1583,1582,1582
46901232,1000,1000,1000,1000,74828390,1582,1583,1588,1575
46903731,1000,1000,1000,1000,74928350,1582,1584,1587,1574
46906230,1000,1000,1000,1000,75028310,1580,1584,1579,1574
46908729,1000,1000,1000,1000,75128270,1580,1582,1571,1574
46911228,1000,1000,1000,1000,75228230,1577,1580,1562,1569
46913727,1000,1000,1000,1000,75328190,1578,1579,1557,1565
46916226,1000,1000,1000,1000,75428983,1579,1578,1555,1560
46918725,1000,1000,1000,1000,75528943,1579,1578,1554,1556
46921224,1000,1000,1000,1000,75628903,1579,1577,1554,1553
46923723,1000,1000,1000,1000,75728863,1578,1577,1554,1552
46926222,1000,1000,1000,1000,75828823,1577,1577,1555,1552
46928721,1000,1000,1000,1000,75928783,1575,1576,1554,1552
46931220,1000,1000,1000,1000,76028743,1576,1577,1555,1554
46933719,1000,1000,1000,1000,76128703,1575,1576,1553,1553
46936218,1000,1000,1000,1000,76228663,1575,1577,1552,1553
46938717,1000,1000,1000,1000,76328623,1576,1578,1550,1551
46941216,1000,1000,1000,1000,76428583,1578,1580,1549,1549
46943715,1000,1000,1000,1000,76528543,1580,1581,1547,1547
46946214,1000,1000,1000,1000,76628503,1584,1585,1546,1545
46948713,1000,1000,1000,1000,76728463,1586,1587,1543,1543
46951212,1000,1000,1000,1000,76828423,1589,1589,1540,1540
46953711,1000,1000,1000,1000,76928383,1591,1591,1538,1539
46956210,1000,1000,1000,1000,77028343,1593,1593,1537,1538
46958709,1000,1000,1000,1000,77128303,1594,1594,1537,1539
46961208,1000,1000,1000,1000,77228263,1593,1594,1537,1539
46963707,1000,1000,1000,1000,77328223,1593,1592,1541,1543
46966206,1000,1000,1000,1000,77428183,1589,1588,1546,1548
46968705,1000,1000,1000,1000,77528976,1584,1580,1553,1556
46971204,1000,1000,1000,1000,77628936,1576,1572,1563,1566
46973703,1000,1000,1000,1000,77728896,1566,1561,1574,1576
46976202,1000,1000,1000,1000,77828856,1555,1552,1586,1587
46978701,1000,1000,1000,1000,77928816,1545,1544,1598,1597
46981200,1000,1000,1000,1000,78028776,1537,1537,1606,1605
46983699,1000,1000,1000,1000,78128736,1533,1533,1611,1610
46986198,1000,1000,1000,1000,78228696,1532,1534,1613,1612
46988697,1000,1000,1000,1000,78328656,1535,1536,1612,1611
46991196,1000,1000,1000,1000,78428616,1541,1543,1609,1608
46993695,1000,1000,1000,1000,78528576,1546,1548,1603,1602
46996194,1000,1000,1000,1000,78628536,1555,1556,1597,1597
46998693,1000,1000,1000,1000,78728496,1563,1563,1590,1589
47001192,1000,1000,1000,1000,78828456,1570,1570,1583,1582
47003691,1000,1000,1000,1000,78928416,1576,1576,1576,1576
47006190,1000,1000,1000,1000,79028376,1582,1581,1572,1572
47008689,1000,1000,1000,1000,79128336,1585,1584,1568,1569
47011188,1000,1000,1000,1000,79228296,1586,1585,1566,1567
47013687,1000,1000,1000,1000,79328256,1586,1585,1566,1567
47016186,1000,1000,1000,1000,79428216,1585,1584,1567,1568
47018685,1000,1000,1000,1000,79528176,1583,1582,1569,1570
47021184,1000,1000,1000,1000,79628969,1581,1580,1573,1573
47023683,1000,1000,1000,1000,79728929,1579,1579,1576,1576
47026182,1000,1000,1000,1000,79828889,1575,1576,1578,1578
47028681,1000,1000,1000,1000,79928849,1574,1575,1581,1580
47031180,1000,1000,1000,1000,80028809,1573,1573,1582,1582
47033679,1000,1000,1000,1000,80128769,1572,1574,1584,1584
47036178,1000,1000,1000,1000,80228729,1571,1573,1583,1583
47038677,1000,1000,1000,1000,80328689,1572,1573,1583,1583
47041176,1000,1000,1000,1000,80428649,1574,1574,1582,1583
47043675,1000,1000,1000,1000,80528609,1575,1576,1581,1581
47046174,1000,1000,1000,1000,80628569,1578,1577,1581,1581
47048673,1000,1000,1000,1000,80728529,1578,1578,1579,1579
47051172,1000,1000,1000,1000,80828489,1579,1579,1578,1578
47053671,1000,1000,1000,1000,80928449,1580,1580,1578,1577
47056170,1000,1000,1000,1000,81028409,1581,1581,1578,1578
47058669,1000,1000,1000,1000,81128369,1581,1580,1576,1576
47061168,1000,1000,1000,1000,81228329,1581,1582,1577,1577
47063667,1000,1000,1000,1000,81328289,1581,1581,1577,1578
47066166,1000,1000,1000,1000,81428249,1580,1581,1578,1578
47068665,1000,1000,1000,1000,81528209,1581,1580,1579,1578
47071164,1000,1000,1000,1000,81628169,1580,1580,1579,1580
47073663,1000,1000,1000,1000,81728962,1580,1580,1580,1580
47076162,1000,1000,1000,1000,81828922,1580,1580,1581,1581
47078661,1000,1000,1000,1000,81928882,1579,1579,1580,1581
47081160,1000,1000,1000,1000,82028842,1579,1579,1581,1581
47083659,1000,1000,1000,1000,82128802,1579,1579,1581,1580
47086158,1000,1000,1000,1000,82228762,1579,1580,1581,1581
47088657,1000,1000,1000,1000,82328722,1580,1580,1581,1581
47091156,1000,1000,1000,1000,82428682,1581,1581,1581,1582
47093655,1000,1000,1000,1000,82528642,1581,1581,1582,1582
47096154,1000,1000,1000,1000,82628602,1582,1582,1582,1582
47098653,1000,1000,1000,1000,82728562,1582,1581,1582,1579
47101152,1000,1000,1000,1000,82828522,1581,1582,1588,1572
47103651,1000,1000,1000,1000,82928482,1580,1581,1584,1574
47106150,1000,1000,1000,1000,83028442,1578,1579,1578,1576
47108649,1000,1000,1000,1000,83128402,1574,1574,1571,1575
47111148,1000,1000,1000,1000,83228362,1571,1570,1566,1573
47113647,1000,1000,1000,1000,83328322,1568,1568,1564,1571
47116146,1000,1000,1000,1000,83428282,1568,1567,1565,1569
47118645,1000,1000,1000,1000,83528242,1566,1566,1566,1566
47121144,1000,1000,1000,1000,83628202,1567,1567,1568,1565
47123643,1000,1000,1000,1000,83728162,1565,1565,1567,1564
47126142,1000,1000,1000,1000,83828955,1564,1566,1566,1564
47128641,1000,1000,1000,1000,83928915,1564,1564,1565,1564
47131140,1000,1000,1000,1000,84028875,1562,1562,1563,1562
47133639,1000,1000,1000,1000,84128835,1563,1563,1563,1564
47136138,1000,1000,1000,1000,84228795,1563,1562,1562,1563
47138637,1000,1000,1000,1000,84328755,1563,1562,1562,1563
47141136,1000,1000,1000,1000,84428715,1561,1561,1562,1561
47143635,1000,1000,1000,1000,84528675,1561,1561,1561,1560
47146134,1000,1000,1000,1000,84628635,1560,1560,1560,1559
47148633,1000,1000,1000,1000,84728595,1559,1559,1559,1559
47151132,1000,1000,1000,1000,84828555,1558,1558,1558,1558
47153631,1000,1000,1000,1000,84928515,1559,1558,1559,1558
47156130,1000,1000,1000,1000,85028475,1557,1557,1558,1557
47158629,1000,1000,1000,1000,85128435,1558,1558,1558,1557
47161128,1000,1000,1000,1000,85228395,1557,1557,1558,1556
47163627,1000,1000,1000,1000,85328355,1558,1558,1559,1557
47166126,1000,1000,1000,1000,85428315,1558,1558,1559,1556
47168625,1000,1000,1000,1000,85528275,1558,1558,1559,1557
47171124,1000,1000,1000,1000,85628235,1559,1559,1559,1560
47173623,1000,1000,1000,1000,85728195,1559,1559,1557,1562
47176122,1000,1000,1000,1000,85828155,1560,1560,1557,1563
47178621,1000,1000,1000,1000,85928948,1561,1561,1558,1564
47181120,1000,1000,1000,1000,86028908,1562,1562,1560,1564
47183619,1000,1000,1000,1000,86128868,1563,1563,1562,1563
47186118,1000,1000,1000,1000,86228828,1562,1561,1563,1560
47188617,1000,1000,1000,1000,86328788,1560,1559,1562,1557
47191116,1000,1000,1000,1000,86428748,1561,1561,1561,1561
47193615,1000,1000,1000,1000,86528708,1558,1558,1556,1561
47196114,1000,1000,1000,1000,86628668,1555,1554,1552,1557
47198613,1000,1000,1000,1000,86728628,1549,1549,1548,1551
47201112,1000,1000,1000,1000,86828588,1544,1544,1544,1545
47203611,1000,1000,1000,1000,86928548,1536,1536,1537,1536
47206110,1000,1000,1000,1000,87028508,1529,1529,1531,1529
47208609,1000,1000,1000,1000,87128468,1522,1522,1523,1521
47211108,1000,1000,1000,1000,87228428,1520,1520,1520,1520
47213607,1000,1000,1000,1000,87328388,1519,1519,1519,1519
47216106,1000,1000,1000,1000,87428348,1520,1520,1519,1521
47218605,1000,1000,1000,1000,87528308,1523,1523,1522,1523
47221104,1000,1000,1000,1000,87628268,1527,1527,1526,1526
47223603,1000,1000,1000,1000,87728228,1532,1531,1530,1531
47226102,1000,1000,1000,1000,87828188,1536,1536,1535,1535
47228601,1000,1000,1000,1000,87928981,1540,1541,1540,1539
47231100,1000,1000,1000,1000,88028941,1542,1542,1542,1541
47233599,1000,1000,1000,1000,88128901,1544,1543,1544,1543
47236098,1000,1000,1000,1000,88228861,1545,1545,1545,1545
47238597,1000,1000,1000,1000,88328821,1545,1545,1546,1545
47241096,1000,1000,1000,1000,88428781,1545,1545,1546,1546
47243595,1000,1000,1000,1000,88528741,1545,1546,1546,1546
47246094,1000,1000,1000,1000,88628701,1545,1546,1546,1546
47248593,1000,1000,1000,1000,88728661,1545,1545,1546,1546
47251092,1000,1000,1000,1000,88828621,1545,1545,1546,1546
47253591,1000,1000,1000,1000,88928581,1545,1544,1545,1545
47256090,1000,1000,1000,1000,89028541,1546,1546,1546,1546
47258589,1000,1000,1000,1000,89128501,1545,1545,1545,1545
47261088,1000,1000,1000,1000,89228461,1546,1546,1546,1545
47263587,1000,1000,1000,1000,89328421,1545,1545,1545,1544
47266086,1000,1000,1000,1000,89428381,1545,1545,1545,1545
47268585,1000,1000,1000,1000,89528341,1545,1545,1544,1545
47271084,1000,1000,1000,1000,89628301,1545,1546,1545,1545
47273583,1000,1000,1000,1000,89728261,1544,1545,1544,1545
47276082,1000,1000,1000,1000,89828221,1544,1544,1544,1544
47278581,1000,1000,1000,1000,89928181,1544,1543,1544,1543
47281080,1000,1000,1000,1000,90028974,1545,1544,1545,1544
47283579,1000,1000,1000,1000,90128934,1544,1544,1544,1544
47286078,1000,1000,1000,1000,90228894,1544,1543,1543,1544
47288577,1000,1000,1000,1000,90328854,1543,1543,1543,1543
47291076,1000,1000,1000,1000,90428814,1544,1544,1544,1544
47293575,1000,1000,1000,1000,90528774,1544,1544,1544,1544
47296074,1000,1000,1000,1000,90628734,1545,1545,1545,1544
47298573,1000,1000,1000,1000,90728694,1544,1544,1544,1544
47301072,1000,1000,1000,1000,90828654,1544,1545,1545,1545
47303571,1000,1000,1000,1000,90928614,1545,1545,1545,1546
47306070,1000,1000,1000,1000,91028574,1545,1545,1545,1546
47308569,1000,1000,1000,1000,91128534,1545,1545,1545,1545
47311068,1000,1000,1000,1000,91228494,1543,1544,1544,1543
47313567,1000,1000,1000,1000,91328454,1544,1544,1544,1544
47316066,1000,1000,1000,1000,91428414,1544,1544,1544,1544
47318565,1000,1000,1000,1000,91528374,1544,1543,1544,1544
47321064,1000,1000,1000,1000,91628334,1543,1544,1544,1544
47323563,1000,1000,1000,1000,91728294,1544,1544,1543,1544
47326062,1000,1000,1000,1000,91828254,1544,1544,1544,1545
47328561,1000,1000,1000,1000,91928214,1545,1544,1544,1545
47331060,1000,1000,1000,1000,92028174,1545,1544,1545,1544
47333559,1000,1000,1000,1000,92128967,1545,1544,1545,1544
47336058,1000,1000,1000,1000,92228927,1544,1544,1544,1544
47338557,1000,1000,1000,1000,92328887,1545,1545,1544,1545
47341056,1000,1000,1000,1000,92428847,1545,1545,1545,1545
47343555,1000,1000,1000,1000,92528807,1545,1544,1544,1545
47346054,1000,1000,1000,1000,92628767,1544,1545,1544,1544
47348553,1000,1000,1000,1000,92728727,1545,1545,1545,1545
47351052,1000,1000,1000,1000,92828687,1545,1545,1545,1545
47353551,1000,1000,1000,1000,92928647,1545,1545,1545,1545
47356050,1000,1000,1000,1000,93028607,1544,1545,1544,1545
47358549,1000,1000,1000,1000,93128567,1544,1544,1544,1545
47361048,1000,1000,1000,1000,93228527,1545,1545,1545,1545
47363547,1000,1000,1000,1000,93328487,1544,1545,1544,1545
47366046,1000,1000,1000,1000,93428447,1544,1544,1545,1544
47368545,1000,1000,1000,1000,93528407,1545,1545,1545,1545
47371044,1000,1000,1000,1000,93628367,1545,1546,1545,1545
47373543,1000,1000,1000,1000,93728327,1545,1544,1544,1545
47376042,1000,1000,1000,1000,93828287,1545,1545,1545,1545
47378541,1000,1000,1000,1000,93928247,1545,1544,1545,1545
47381040,1000,1000,1000,1000,94028207,1545,1545,1545,1545
47383539,1000,1000,1000,1000,94128167,1545,1545,1545,1545
47386038,1000,1000,1000,1000,94228960,1544,1545,1544,1545
47388537,1000,1000,1000,1000,94328920,1545,1545,1545,1545
47391036,1000,1000,1000,1000,94428880,1545,1545,1545,1545
47393535,1000,1000,1000,1000,94528840,1545,1545,1545,1545
47396034,1000,1000,1000,1000,94628800,1544,1545,1544,1545
47398533,1000,1000,1000,1000,94728760,1544,1543,1544,1544
47401032,1000,1000,1000,1000,94828720,1544,1544,1544,1544
47403531,1000,1000,1000,1000,94928680,1544,1544,1544,1544
47406030,1000,1000,1000,1000,95028640,1544,1543,1544,1543
47408529,1000,1000,1000,1000,95128600,1544,1543,1543,1544
47411028,1000,1000,1000,1000,95228560,1543,1543,1543,1543
47413527,1000,1000,1000,1000,95328520,1544,1544,1544,1544
47416026,1000,1000,1000,1000,95428480,1544,1545,1544,1545
47418525,1000,1000,1000,1000,95528440,1545,1545,1545,1545
47421024,1000,1000,1000,1000,95628400,1544,1544,1545,1544
47423523,1000,1000,1000,1000,95728360,1544,1544,1544,1544
47426022,1000,1000,1000,1000,95828320,1545,1545,1545,1545
47428521,1000,1000,1000,1000,95928280,1546,1545,1545,1545
47431020,1000,1000,1000,1000,96028240,1545,1546,1545,1546
47433519,1000,1000,1000,1000,96128200,1545,1545,1544,1545
47436018,1000,1000,1000,1000,96228160,1545,1545,1545,1545
47438517,1000,1000,1000,1000,96328953,1544,1544,1545,1544
47441016,1000,1000,1000,1000,96428913,1544,1544,1544,1544
47443515,1000,1000,1000,1000,96528873,1544,1544,1544,1545
47446014,1000,1000,1000,1000,96628833,1543,1543,1543,1544
47448513,1000,1000,1000,1000,96728793,1544,1544,1544,1545
47451012,1000,1000,1000,1000,96828753,1544,1544,1544,1544
47453511,1000,1000,1000,1000,96928713,1446,1445,1453,1446
47456010,1000,1000,1000,1000,97028673,1291,1289,1315,1290
47458509,1000,1000,1000,1000,97128633,1227,1224,1261,1226
47461008,1000,1000,1000,1000,97228593,1204,1202,1242,1203
47463507,1000,1000,1000,1000,97328553,1169,1168,1214,1169
47466006,1000,1000,1000,1000,97428513,1150,1150,1199,1150
47468505,1000,1000,1000,1000,97528473,1151,1150,1199,1151
47471004,1000,1000,1000,1000,97628433,1161,1150,1199,1161
47473503,1000,1000,1000,1000,97728393,1180,1150,1200,1179
47476002,1000,1000,1000,1000,97828353,1171,1150,1200,1171
47478501,1000,1000,1000,1000,97928313,1170,1150,1200,1170
47481000,1000,1000,1000,1000,98028273,1171,1150,1200,1171
47483499,1000,1000,1000,1000,98128233,1173,1150,1200,1173
47485998,1000,1000,1000,1000,98228193,1175,1150,1200,1174
47488497,1000,1000,1000,1000,98328986,1176,1150,1200,1176
47490996,1000,1000,1000,1000,98428946,1151,1150,1200,1151
47493495,1000,1000,1000,1000,98528906,1165,1150,1200,1164
47495994,1000,1000,1000,1000,98628866,1166,1150,1200,1165
47498493,1000,1000,1000,1000,98728826,1167,1150,1200,1166
47500992,1000,1000,1000,1000,98828786,1167,1150,1200,1167
47503491,1000,1000,1000,1000,98928746,1146,1146,1085,1146
47505990,1000,1000,1000,1000,99028706,1000,1000,1000,1000
47508489,1000,1000,1000,1000,99128666,1000,1000,1000,1000
47510988,1000,1000,1000,1000,99228626,1000,1000,1000,1000
47513487,1000,1000,1000,1000,99328586,1000,1000,1000,1000
47515986,1000,1000,1000,1000,99428546,1000,1000,1000,1000
47518485,1000,1000,1000,1000,99528506,1000,1000,1000,1000
47520984,1000,1000,1000,1000,99628466,1000,1000,1000,1000
47523483,1000,1000,1000,1000,99728426,1000,1000,1000,1000
47525982,1000,1000,1000,1000,99828386,1000,1000,1000,1000
47528481,1000,1000,1000,1000,99928346,1000,1000,1000,1000
47530980,1000,1000,1000,1000,100028306,1000,1000,1000,1000
47533479,1000,1000,1000,1000,100128266,1000,1000,1000,1000
47535978,1000,1000,1000,1000,100228226,1000,1000,1000,1000
47538477,1000,1000,1000,1000,100328186,1000,1000,1000,1000
47540976,1000,1000,1000,1000,100428979,1000,1000,1000,1000
47543475,1000,1000,1000,1000,100528939,1000,1000,1000,1000
47545974,1000,1000,1000,1000,100628899,1000,1000,1000,1000
47548473,1000,1000,1000,1000,100728859,1000,1000,1000,1000
47550972,1000,1000,1000,1000,100828819,1000,1000,1000,1000
47553471,1000,1000,1000,1000,100928779,1000,1000,1000,1000
47555970,1000,1000,1000,1000,101028739,1000,1000,1000,1000
47558469,1000,1000,1000,1000,101128699,1000,1000,1000,1000
47560968,1000,1000,1000,1000,101228659,1000,1000,1000,1000
47563467,1000,1000,1000,1000,101328619,1000,1000,1000,1000
47565966,1000,1000,1000,1000,101428579,1000,1000,1000,1000
47568465,1000,1000,1000,1000,101528539,1000,1000,1000,1000
47570964,1000,1000,1000,1000,101628499,1000,1000,1000,1000
47573463,1000,1000,1000,1000,101728459,1000,1000,1000,1000
47575962,1000,1000,1000,1000,101828419,1000,1000,1000,1000
47578461,1000,1000,1000,1000,101928379,1000,1000,1000,1000
47580960,1000,1000,1000,1000,102028339,1000,1000,1000,1000
47583459,1000,1000,1000,1000,102128299,1000,1000,1000,1000
47585958,1000,1000,1000,1000,102228259,1000,1000,1000,1000
47588457,1000,1000,1000,1000,102328219,1000,1000,1000,1000
47590956,1000,1000,1000,1000,102428179,1000,1000,1000,1000
47593455,1000,1000,1000,1000,102528972,1000,1000,1000,1000
47595954,1000,1000,1000,1000,102628932,1000,1000,1000,1000
47598453,1000,1000,1000,1000,102728892,1000,1000,1000,1000
47600952,1000,1000,1000,1000,102828852,1000,1000,1000,1000
47603451,1000,1000,1000,1000,102928812,1000,1000,1000,1000
47605950,1000,1000,1000,1000,103028772,1000,1000,1000,1000
47608449,1000,1000,1000,1000,103128732,1000,1000,1000,1000
47610948,1000,1000,1000,1000,103228692,1000,1000,1000,1000
47613447,1000,1000,1000,1000,103328652,1000,1000,1000,1000
47615946,1000,1000,1000,1000,103428612,1000,1000,1000,1000
47618445,1000,1000,1000,1000,103528572,1000,1000,1000,1000
47620944,1000,1000,1000,1000,103628532,1000,1000,1000,1000
47623443,1000,1000,1000,1000,103728492,1000,1000,1000,1000
47625942,1000,1000,1000,1000,103828452,1000,1000,1000,1000
47628441,1000,1000,1000,1000,103928412,1000,1000,1000,1000
47630940,1000,1000,1000,1000,104028372,1000,1000,1000,1000
47633439,1000,1000,1000,1000,104128332,1000,1000,1000,1000
47635938,1000,1000,1000,1000,104228292,1000,1000,1000,1000
47638437,1000,1000,1000,1000,104328252,1000,1000,1000,1000
47640936,1000,1000,1000,1000,104428212,1000,1000,1000,1000
47643435,1000,1000,1000,1000,104528172,1000,1000,1000,1000
47645934,1000,1000,1000,1000,104628965,1000,1000,1000,1000
47648433,1000,1000,1000,1000,104728925,1000,1000,1000,1000
47650932,1000,1000,1000,1000,104828885,1000,1000,1000,1000
47653431,1000,1000,1000,1000,104928845,1000,1000,1000,1000
47655930,1000,1000,1000,1000,105028805,1000,1000,1000,1000
47658429,1000,1000,1000,1000,105128765,1000,1000,1000,1000
47660928,1000,1000,1000,1000,105228725,1000,1000,1000,1000
47663427,1000,1000,1000,1000,105328685,1000,1000,1000,1000
47665926,1000,1000,1000,1000,105428645,1000,1000,1000,1000
47668425,1000,1000,1000,1000,105528605,1000,1000,1000,1000
47670924,1000,1000,1000,1000,105628565,1000,1000,1000,1000
47673423,1000,1000,1000,1000,105728525,1000,1000,1000,1000
47675922,1000,1000,1000,1000,105828485,1000,1000,1000,1000
47678421,1000,1000,1000,1000,105928445,1000,1000,1000,1000
47680920,1000,1000,1000,1000,106028405,1000,1000,1000,1000
47683419,1000,1000,1000,1000,106128365,1000,1000,1000,1000
47685918,1000,1000,1000,1000,106228325,1000,1000,1000,1000
47688417,1000,1000,1000,1000,106328285,1000,1000,1000,1000
47690916,1000,1000,1000,1000,106428245,1000,1000,1000,1000
47693415,1000,1000,1000,1000,106528205,1000,1000,1000,1000
47695914,1000,1000,1000,1000,106628165,1000,1000,1000,1000
47698413,1000,1000,1000,1000,106728958,1000,1000,1000,1000
47700912,1000,1000,1000,1000,106828918,1000,1000,1000,1000
47703411,1000,1000,1000,1000,106928878,1000,1000,1000,1000
47705910,1000,1000,1000,1000,107028838,1000,1000,1000,1000
47708409,1000,1000,1000,1000,107128798,1000,1000,1000,1000
47710908,1000,1000,1000,1000,107228758,1000,1000,1000,1000
47713407,1000,1000,1000,1000,107328718,1000,1000,1000,1000
47715906,1000,1000,1000,1000,107428678,1000,1000,1000,1000
47718405,1000,1000,1000,1000,107528638,1000,1000,1000,1000
47720904,1000,1000,1000,1000,107628598,1000,1000,1000,1000
47723403,1000,1000,1000,1000,107728558,1000,1000,1000,1000
47725902,1000,1000,1000,1000,107828518,1000,1000,1000,1000
47728401,1000,1000,1000,1000,107928478,1000,1000,1000,1000
47730900,1000,1000,1000,1000,108028438,1000,1000,1000,1000
47733399,1000,1000,1000,1000,108128398,1000,1000,1000,1000
47735898,1000,1000,1000,1000,108228358,1000,1000,1000,1000
47738397,1000,1000,1000,1000,108328318,1000,1000,1000,1000
47740896,1000,1000,1000,1000,108428278,1000,1000,1000,1000
47743395,1000,1000,1000,1000,108528238,1000,1000,1000,1000
47745894,1000,1000,1000,1000,108628198,1000,1000,1000,1000
47748393,1000,1000,1000,1000,108728158,1000,1000,1000,1000
47750892,1000,1000,1000,1000,108828951,1000,1000,1000,1000
47753391,1000,1000,1000,1000,108928911,1000,1000,1000,1000
47755890,1000,1000,1000,1000,109028871,1000,1000,1000,1000
47758389,1000,1000,1000,1000,109128831,1000,1000,1000,1000
47760888,1000,1000,1000,1000,109228791,1000,1000,1000,1000
47763387,1000,1000,1000,1000,109328751,1000,1000,1000,1000
47765886,1000,1000,1000,1000,109428711,1000,1000,1000,1000
47768385,1000,1000,1000,1000,109528671,1000,1000,1000,1000
47770884,1000,1000,1000,1000,109628631,1000,1000,1000,1000
47773383,1000,1000,1000,1000,109728591,1000,1000,1000,1000
47775882,1000,1000,1000,1000,109828551,1000,1000,1000,1000
47778381,1000,1000,1000,1000,109928511,1000,1000,1000,1000
47780880,1000,1000,1000,1000,110028471,1000,1000,1000,1000
47783379,1000,1000,1000,1000,110128431,1000,1000,1000,1000
47785878,1000,1000,1000,1000,110228391,1000,1000,1000,1000
47788377,1000,1000,1000,1000,110328351,1000,1000,1000,1000
47790876,1000,1000,1000,1000,110428311,1000,1000,1000,1000
47793375,1000,1000,1000,1000,110528271,1000,1000,1000,1000
47795874,1000,1000,1000,1000,110628231,1000,1000,1000,1000
47798373,1000,1000,1000,1000,110728191,1000,1000,1000,1000
47800872,1000,1000,1000,1000,110828984,1000,1000,1000,1000
47803371,1000,1000,1000,1000,110928944,1000,1000,1000,1000
47805870,1000,1000,1000,1000,111028904,1000,1000,1000,1000
47808369,1000,1000,1000,1000,111128864,1000,1000,1000,1000
47810868,1000,1000,1000,1000,111228824,1000,1000,1000,1000
47813367,1000,1000,1000,1000,111328784,1000,1000,1000,1000
47815866,1000,1000,1000,1000,111428744,1000,1000,1000,1000
47818365,1000,1000,1000,1000,111528704,1000,1000,1000,1000
47820864,1000,1000,1000,1000,111628664,1000,1000,1000,1000
47823363,1000,1000,1000,1000,111728624,1000,1000,1000,1000
47825862,1000,1000,1000,1000,111828584,1000,1000,1000,1000
47828361,1000,1000,1000,1000,111928544,1000,1000,1000,1000
47830860,1000,1000,1000,1000,112028504,1000,1000,1000,1000
47833359,1000,1000,1000,1000,112128464,1000,1000,1000,1000
47835858,1000,1000,1000,1000,112228424,1000,1000,1000,1000
47838357,1000,1000,1000,1000,112328384,1000,1000,1000,1000
47840856,1000,1000,1000,1000,112428344,1000,1000,1000,1000
47843355,1000,1000,1000,1000,112528304,1000,1000,1000,1000
47845854,1000,1000,1000,1000,112628264,1000,1000,1000,1000
47848353,1000,1000,1000,1000,112728224,1000,1000,1000,1000
47850852,1000,1000,1000,1000,112828184,1000,1000,1000,1000
47853351,1000,1000,1000,1000,112928977,1000,1000,1000,1000
47855850,1000,1000,1000,1000,113028937,1000,1000,1000,1000
47858349,1000,1000,1000,1000,113128897,1000,1000,1000,1000
47860848,1000,1000,1000,1000,113228857,1000,1000,1000,1000
47863347,1000,1000,1000,1000,113328817,1000,1000,1000,1000
47865846,1000,1000,1000,1000,113428777,1000,1000,1000,1000
47868345,1000,1000,1000,1000,113528737,1000,1000,1000,1000
47870844,1000,1000,1000,1000,113628697,1000,1000,1000,1000
47873343,1000,1000,1000,1000,113728657,1000,1000,1000,1000
47875842,1000,1000,1000,1000,113828617,1000,1000,1000,1000
47878341,1000,1000,1000,1000,,,,,
47880840,1000,1000,1000,1000,,,,,
47883339,1000,1000,1000,1000,,,,,
47885838,1000,1000,1000,1000,,,,,
47888337,1000,1000,1000,1000,,,,,
47890836,1000,1000,1000,1000,,,,,
47893335,1000,1000,1000,1000,,,,,
47895834,1000,1000,1000,1000,,,,,
47898333,1000,1000,1000,1000,,,,,
47900832,1000,1000,1000,1000,,,,,
47903331,1000,1000,1000,1000,,,,,
47905830,1000,1000,1000,1000,,,,,
47908329,1000,1000,1000,1000,,,,,
47910828,1000,1000,1000,1000,,,,,
47913327,1000,1000,1000,1000,,,,,
47915826,1000,1000,1000,1000,,,,,
47918325,1000,1000,1000,1000,,,,,
47920824,1000,1000,1000,1000,,,,,
47923323,1000,1000,1000,1000,,,,,
47925822,1000,1000,1000,1000,,,,,
47928321,1000,1000,1000,1000,,,,,
47930820,1000,1000,1000,1000,,,,,
47933319,1000,1000,1000,1000,,,,,
47935818,1000,1000,1000,1000,,,,,
47938317,1000,1000,1000,1000,,,,,
47940816,1000,1000,1000,1000,,,,,
47943315,1000,1000,1000,1000,,,,,
47945814,1000,1000,1000,1000,,,,,
47948313,1000,1000,1000,1000,,,,,
47950812,1000,1000,1000,1000,,,,,
47953311,1000,1000,1000,1000,,,,,
47955810,1000,1000,1000,1000,,,,,
47958309,1000,1000,1000,1000,,,,,
47960808,1000,1000,1000,1000,,,,,
47963307,1000,1000,1000,1000,,,,,
47965806,1000,1000,1000,1000,,,,,
47968305,1000,1000,1000,1000,,,,,
47970804,1000,1000,1000,1000,,,,,
47973303,1000,1000,1000,1000,,,,,
47975802,1000,1000,1000,1000,,,,,
47978301,1000,1000,1000,1000,,,,,
47980800,1000,1000,1000,1000,,,,,
47983299,1000,1000,1000,1000,,,,,
47985798,1000,1000,1000,1000,,,,,
47988297,1000,1000,1000,1000,,,,,
47990796,1000,1000,1000,1000,,,,,
47993295,1000,1000,1000,1000,,,,,
47995794,1000,1000,1000,1000,,,,,
47998293,1000,1000,1000,1000,,,,,
48000792,1000,1000,1000,1000,,,,,
48003291,1000,1000,1000,1000,,,,,
48005790,1000,1000,1000,1000,,,,,
48008289,1000,1000,1000,1000,,,,,
48010788,1000,1000,1000,1000,,,,,
48013287,1000,1000,1000,1000,,,,,
48015786,1000,1000,1000,1000,,,,,
48018285,1000,1000,1000,1000,,,,,
48020784,1000,1000,1000,1000,,,,,
48023283,1000,1000,1000,1000,,,,,
48025782,1000,1000,1000,1000,,,,,
48028281,1000,1000,1000,1000,,,,,
48030780,1000,1000,1000,1000,,,,,
48033279,1000,1000,1000,1000,,,,,
48035778,1000,1000,1000,1000,,,,,
48038277,1000,1000,1000,1000,,,,,
48040776,1000,1000,1000,1000,,,,,
48043275,1000,1000,1000,1000,,,,,
48045774,1000,1000,1000,1000,,,,,
48048273,1000,1000,1000,1000,,,,,
48050772,1000,1000,1000,1000,,,,,
48053271,1000,1000,1000,1000,,,,,
48055770,1000,1000,1000,1000,,,,,
48058269,1000,1000,1000,1000,,,,,
48060768,1000,1000,1000,1000,,,,,
48063267,1000,1000,1000,1000,,,,,
48065766,1000,1000,1000,1000,,,,,
48068265,1000,1000,1000,1000,,,,,
48070764,1000,1000,1000,1000,,,,,
48073263,1000,1000,1000,1000,,,,,
48075762,1000,1000,1000,1000,,,,,
48078261,1000,1000,1000,1000,,,,,
48080760,1000,1000,1000,1000,,,,,
48083259,1000,1000,1000,1000,,,,,
48085758,1000,1000,1000,1000,,,,,
48088257,1000,1000,1000,1000,,,,,
48090756,1000,1000,1000,1000,,,,,
48093255,1000,1000,1000,1000,,,,,
48095754,1000,1000,1000,1000,,,,,
48098253,1000,1000,1000,1000,,,,,
48100752,1000,1000,1000,1000,,,,,
48103251,1000,1000,1000,1000,,,,,
48105750,1000,1000,1000,1000,,,,,
48108249,1000,1000,1000,1000,,,,,
48110748,1000,1000,1000,1000,,,,,
48113247,1000,1000,1000,1000,,,,,
48115746,1000,1000,1000,1000,,,,,
48118245,1000,1000,1000,1000,,,,,
48120744,1000,1000,1000,1000,,,,,
48123243,1000,1000,1000,1000,,,,,
48125742,1000,1000,1000,1000,,,,,
48128241,1000,1000,1000,1000,,,,,
48130740,1000,1000,1000,1000,,,,,
48133239,1000,1000,1000,1000,,,,,
48135738,1000,1000,1000,1000,,,,,
48138237,1000,1000,1000,1000,,,,,
48140736,1000,1000,1000,1000,,,,,
48143235,1000,1000,1000,1000,,,,,
48145734,1000,1000,1000,1000,,,,,
48148233,1000,1000,1000,1000,,,,,
48150732,1000,1000,1000,1000,,,,,
48153231,1000,1000,1000,1000,,,,,
48155730,1000,1000,1000,1000,,,,,
48158229,1000,1000,1000,1000,,,,,
48160728,1000,1000,1000,1000,,,,,
48163227,1000,1000,1000,1000,,,,,
48165726,1000,1000,1000,1000,,,,,
48168225,1000,1000,1000,1000,,,,,
48170724,1000,1000,1000,1000,,,,,
48173223,1000,1000,1000,1000,,,,,
48175722,1000,1000,1000,1000,,,,,
48178221,1000,1000,1000,1000,,,,,
48180720,1000,1000,1000,1000,,,,,
48183219,1000,1000,1000,1000,,,,,
48185718,1000,1000,1000,1000,,,,,
48188217,1000,1000,1000,1000,,,,,
48190716,1000,1000,1000,1000,,,,,
48193215,1001,1001,1001,1001,,,,,
48195714,1002,1002,1002,1002,,,,,
48198213,1003,1003,1003,1003,,,,,
48200712,1003,1003,1003,1003,,,,,
48203211,1004,1004,1004,1004,,,,,
48205710,1005,1005,1005,1005,,,,,
48208209,1006,1006,1006,1006,,,,,
48210708,1006,1006,1006,1006,,,,,
48213207,1007,1007,1007,1007,,,,,
48215706,1008,1008,1008,1008,,,,,
48218205,1009,1009,1009,1009,,,,,
48220704,1009,1009,1009,1009,,,,,
48223203,1010,1010,1010,1010,,,,,
48225702,1011,1011,1011,1011,,,,,
48228201,1012,1012,1012,1012,,,,,
48230700,1012,1012,1012,1012,,,,,
48233199,1013,1013,1013,1013,,,,,
48235698,1014,1014,1014,1014,,,,,
48238197,1015,1015,1015,1015,,,,,
48240696,1015,1015,1015,1015,,,,,
48243195,1016,1016,1016,1016,,,,,
48245694,1017,1017,1017,1017,,,,,
48248193,1018,1018,1018,1018,,,,,
48250692,1018,1018,1018,1018,,,,,
48253191,1019,1019,1019,1019,,,,,
48255690,1020,1020,1020,1020,,,,,
48258189,1021,1021,1021,1021,,,,,
48260688,1021,1021,1021,1021,,,,,
48263187,1022,1022,1022,1022,,,,,
48265686,1023,1023,1023,1023,,,,,
48268185,1024,1024,1024,1024,,,,,
48270684,1024,1024,1024,1024,,,,,
48273183,1025,1025,1025,1025,,,,,
48275682,1026,1026,1026,1026,,,,,
48278181,1027,1027,1027,1027,,,,,
48280680,1027,1027,1027,1027,,,,,
48283179,1028,1028,1028,1028,,,,,
48285678,1029,1029,1029,1029,,,,,
48288177,1030,1030,1030,1030,,,,,
48290676,1030,1030,1030,1030,,,,,
48293175,1031,1031,1031,1031,,,,,
48295674,1032,1032,1032,1032,,,,,
48298173,1033,1033,1033,1033,,,,,
48300672,1033,1033,1033,1033,,,,,
48303171,1034,1034,1034,1034,,,,,
48305670,1035,1035,1035,1035,,,,,
48308169,1036,1036,1036,1036,,,,,
48310668,1036,1036,1036,1036,,,,,
48313167,1037,1037,1037,1037,,,,,
48315666,1038,1038,1038,1038,,,,,
48318165,1039,1039,1039,1039,,,,,
48320664,1039,1039,1039,1039,,,,,
48323163,1040,1040,1040,1040,,,,,
48325662,1041,1041,1041,1041,,,,,
48328161,1042,1042,1042,1042,,,,,
48330660,1042,1042,1042,1042,,,,,
48333159,1043,1043,1043,1043,,,,,
48335658,1044,1044,1044,1044,,,,,
48338157,1045,1045,1045,1045,,,,,
48340656,1045,1045,1045,1045,,,,,
48343155,1046,1046,1046,1046,,,,,
48345654,1047,1047,1047,1047,,,,,
48348986,1048,1048,1048,1048,,,,,
48351485,1048,1048,1048,1048,,,,,
48353984,1049,1049,1049,1049,,,,,
48356483,1050,1050,1050,1050,,,,,
48358982,1051,1051,1051,1051,,,,,
48361481,1051,1051,1051,1051,,,,,
48363980,1052,1052,1052,1052,,,,,
48366479,1053,1053,1053,1053,,,,,
48368978,1054,1054,1054,1054,,,,,
48371477,1054,1054,1054,1054,,,,,
48373976,1055,1055,1055,1055,,,,,
48376475,1056,1056,1056,1056,,,,,
48378974,1057,1057,1057,1057,,,,,
48381473,1057,1057,1057,1057,,,,,
48383972,1058,1058,1058,1058,,,,,
48386471,1059,1059,1059,1059,,,,,
48388970,1060,1060,1060,1060,,,,,
48391469,1060,1060,1060,1060,,,,,
48393968,1061,1061,1061,1061,,,,,
48396467,1062,1062,1062,1062,,,,,
48398966,1063,1063,1063,1063,,,,,
48401465,1063,1063,1063,1063,,,,,
48403964,1064,1064,1064,1064,,,,,
48406463,1065,1065,1065,1065,,,,,
48408962,1066,1066,1066,1066,,,,,
48411461,1066,1066,1066,1066,,,,,
48413960,1067,1067,1067,1067,,,,,
48416459,1068,1068,1068,1068,,,,,
48418958,1069,1069,1069,1069,,,,,
48421457,1069,1069,1069,1069,,,,,
48423956,1070,1070,1070,1070,,,,,
48426455,1071,1071,1071,1071,,,,,
48428954,1072,1072,1072,1072,,,,,
48431453,1072,1072,1072,1072,,,,,
48433952,1073,1073,1073,1073,,,,,
48436451,1074,1074,1074,1074,,,,,
48438950,1075,1075,1075,1075,,,,,
48441449,1075,1075,1075,1075,,,,,
48443948,1076,1076,1076,1076,,,,,
48446447,1077,1077,1077,1077,,,,,
48448946,1078,1078,1078,1078,,,,,
48451445,1078,1078,1078,1078,,,,,
48453944,1079,1079,1079,1079,,,,,
48456443,1080,1080,1080,1080,,,,,
48458942,1081,1081,1081,1081,,,,,
48461441,1081,1081,1081,1081,,,,,
48463940,1082,1082,1082,1082,,,,,
48466439,1083,1083,1083,1083,,,,,
48468938,1084,1084,1084,1084,,,,,
48471437,1084,1084,1084,1084,,,,,
48473936,1085,1085,1085,1085,,,,,
48476435,1086,1086,1086,1086,,,,,
48478934,1087,1087,1087,1087,,,,,
48481433,1087,1087,1087,1087,,,,,
48483932,1088,1088,1088,1088,,,,,
48486431,1089,1089,1089,1089,,,,,
48488930,1090,1090,1090,1090,,,,,
48491429,1090,1090,1090,1090,,,,,
48493928,1091,1091,1091,1091,,,,,
48496427,1092,1092,1092,1092,,,,,
48498926,1093,1093,1093,1093,,,,,
48501425,1093,1093,1093,1093,,,,,
48503924,1094,1094,1094,1094,,,,,
48506423,1095,1095,1095,1095,,,,,
48508922,1096,1096,1096,1096,,,,,
48511421,1096,1096,1096,1096,,,,,
48513920,1097,1097,1097,1097,,,,,
48516419,1098,1098,1098,1098,,,,,
48518918,1099,1099,1099,1099,,,,,
48521417,1099,1099,1099,1099,,,,,
48523916,1100,1100,1100,1100,,,,,
48526415,1101,1101,1101,1101,,,,,
48528914,1101,1101,1101,1101,,,,,
48531413,1102,1102,1102,1102,,,,,
48533912,1103,1103,1103,1103,,,,,
48536411,1104,1104,1104,1104,,,,,
48538910,1104,1104,1104,1104,,,,,
48541409,1105,1105,1105,1105,,,,,
48543908,1106,1106,1106,1106,,,,,
48546407,1107,1107,1107,1107,,,,,
48548906,1107,1107,1107,1107,,,,,
48551405,1108,1108,1108,1108,,,,,
48553904,1109,1109,1109,1109,,,,,
48556403,1110,1110,1110,1110,,,,,
48558902,1110,1110,1110,1110,,,,,
48561401,1111,1111,1111,1111,,,,,
48563900,1112,1112,1112,1112,,,,,
48566399,1113,1113,1113,1113,,,,,
48568898,1113,1113,1113,1113,,,,,
48571397,1114,1114,1114,1114,,,,,
48573896,1115,1115,1115,1115,,,,,
48576395,1116,1116,1116,1116,,,,,
48578894,1116,1116,1116,1116,,,,,
48581393,1117,1117,1117,1117,,,,,
48583892,1118,1118,1118,1118,,,,,
48586391,1119,1119,1119,1119,,,,,
48588890,1119,1119,1119,1119,,,,,
48591389,1120,1120,1120,1120,,,,,
48593888,1121,1121,1121,1121,,,,,
48596387,1122,1122,1122,1122,,,,,
48598886,1122,1122,1122,1122,,,,,
48601385,1123,1123,1123,1123,,,,,
48603884,1124,1124,1124,1124,,,,,
48606383,1125,1125,1125,1125,,,,,
48608882,1125,1125,1125,1125,,,,,
48611381,1126,1126,1126,1126,,,,,
48613880,1127,1127,1127,1127,,,,,
48616379,1128,1128,1128,1128,,,,,
48618878,1128,1128,1128,1128,,,,,
48621377,1129,1129,1129,1129,,,,,
48623876,1130,1130,1130,1130,,,,,
48626375,1131,1131,1131,1131,,,,,
48628874,1131,1131,1131,1131,,,,,
48631373,1132,1132,1132,1132,,,,,
48633872,1133,1133,1133,1133,,,,,
48636371,1134,1134,1134,1134,,,,,
48638870,1134,1134,1134,1134,,,,,
48641369,1135,1135,1135,1135,,,,,
48643868,1136,1136,1136,1136,,,,,
48646367,1137,1137,1137,1137,,,,,
48648866,1137,1137,1137,1137,,,,,
48651365,1138,1138,1138,1138,,,,,
48653864,1139,1139,1139,1139,,,,,
48656363,1140,1140,1140,1140,,,,,
48658862,1140,1140,1140,1140,,,,,
48661361,1141,1141,1141,1141,,,,,
48663860,1142,1142,1142,1142,,,,,
48666359,1143,1143,1143,1143,,,,,
48668858,1143,1143,1143,1143,,,,,
48671357,1144,1144,1144,1144,,,,,
48673856,1145,1145,1145,1145,,,,,
48676355,1146,1146,1146,1146,,,,,
48678854,1146,1146,1146,1146,,,,,
48681353,1147,1147,1147,1147,,,,,
48683852,1148,1148,1148,1148,,,,,
48686351,1149,1149,1149,1149,,,,,
48688850,1149,1149,1149,1149,,,,,
48691349,1150,1150,1150,1150,,,,,
48693848,1161,1154,1155,1161,,,,,
48696347,1169,1162,1163,1169,,,,,
48698846,1177,1170,1171,1177,,,,,
48701345,1184,1178,1178,1185,,,,,
48703844,1192,1186,1186,1192,,,,,
48706343,1199,1193,1194,1200,,,,,
48708842,1207,1201,1201,1207,,,,,
48711341,1214,1208,1208,1214,,,,,
48713840,1221,1215,1215,1221,,,,,
48716339,1228,1222,1223,1228,,,,,
48718838,1235,1229,1229,1235,,,,,
48721337,1242,1236,1236,1242,,,,,
48723836,1248,1243,1243,1249,,,,,
48726335,1255,1249,1250,1255,,,,,
48728834,1262,1256,1256,1262,,,,,
48731333,1268,1263,1263,1268,,,,,
48733832,1274,1269,1269,1275,,,,,
48736331,1281,1275,1276,1281,,,,,
48738830,1287,1282,1282,1287,,,,,
48741329,1293,1288,1288,1293,,,,,
48743828,1299,1294,1294,1299,,,,,
48746327,1305,1300,1300,1305,,,,,
48748826,1311,1306,1306,1311,,,,,
48751325,1317,1312,1312,1317,,,,,
48753824,1323,1318,1318,1323,,,,,
48756323,1329,1324,1324,1329,,,,,
48758822,1334,1329,1330,1335,,,,,
48761321,1340,1335,1335,1340,,,,,
48763820,1346,1341,1341,1346,,,,,
48766319,1351,1346,1347,1351,,,,,
48768818,1357,1352,1352,1357,,,,,
48771317,1362,1357,1358,1362,,,,,
48773816,1367,1363,1363,1368,,,,,
48776315,1373,1368,1368,1373,,,,,
48778814,1378,1373,1374,1378,,,,,
48781313,1383,1379,1379,1384,,,,,
48783812,1389,1384,1384,1389,,,,,
48786311,1394,1389,1389,1394,,,,,
48788810,1399,1394,1395,1399,,,,,
48791309,1404,1399,1400,1404,,,,,
48793808,1409,1405,1405,1409,,,,,
48796307,1414,1410,1410,1414,,,,,
48798806,1419,1415,1415,1419,,,,,
48801305,1424,1420,1420,1424,,,,,
48803804,1429,1424,1425,1429,,,,,
48806303,1434,1429,1430,1434,,,,,
48808802,1439,1434,1435,1439,,,,,
48811301,1443,1439,1439,1444,,,,,
48813800,1448,1444,1444,1448,,,,,
48816299,1453,1449,1449,1453,,,,,
48818798,1458,1453,1454,1458,,,,,
48821297,1462,1458,1458,1462,,,,,
48823796,1467,1463,1463,1467,,,,,
48826295,1472,1467,1468,1472,,,,,
48828794,1476,1472,1472,1476,,,,,
48831293,1481,1477,1477,1481,,,,,
48833792,1485,1481,1481,1485,,,,,
48836291,1490,1486,1486,1490,,,,,
48838790,1494,1490,1490,1494,,,,,
48841289,1499,1495,1495,1499,,,,,
48843788,1503,1499,1499,1503,,,,,
48846287,1507,1503,1504,1508,,,,,
48848786,1512,1508,1508,1512,,,,,
48851285,1516,1512,1512,1516,,,,,
48853784,1520,1517,1517,1521,,,,,
48856283,1525,1521,1521,1525,,,,,
48858782,1529,1525,1525,1529,,,,,
48861281,1533,1529,1530,1533,,,,,
48863780,1537,1534,1534,1538,,,,,
48866279,1542,1538,1538,1542,,,,,
48868778,1546,1542,1542,1546,,,,,
48871277,1550,1546,1547,1550,,,,,
48873776,1554,1550,1551,1554,,,,,
48876275,1558,1555,1555,1558,,,,,
48878774,1562,1559,1559,1563,,,,,
48881273,1566,1563,1563,1567,,,,,
48883772,1571,1567,1567,1571,,,,,
48886271,1575,1571,1571,1575,,,,,
48888770,1579,1575,1575,1579,,,,,
48891269,1583,1579,1579,1583,,,,,
48893768,1587,1583,1583,1587,,,,,
48896267,1591,1587,1587,1591,,,,,
48898766,1595,1591,1591,1595,,,,,
48901265,1598,1595,1595,1599,,,,,
48903764,1602,1599,1599,1602,,,,,
48906263,1606,1602,1603,1606,,,,,
48908762,1610,1606,1607,1610,,,,,
48911261,1614,1610,1611,1614,,,,,
48913760,1618,1614,1614,1618,,,,,
48916259,1622,1618,1618,1622,,,,,
48918758,1626,1622,1622,1625,,,,,
48921257,1629,1625,1626,1629,,,,,
48923756,1633,1629,1630,1633,,,,,
48926255,1637,1633,1633,1637,,,,,
48928754,1641,1637,1637,1640,,,,,
48931253,1644,1640,1641,1644,,,,,
48933752,1648,1644,1645,1648,,,,,
48936251,1652,1648,1648,1652,,,,,
48938750,1655,1652,1652,1655,,,,,
48941249,1659,1655,1656,1659,,,,,
48943748,1663,1659,1659,1663,,,,,
48946247,1666,1663,1663,1666,,,,,
48948746,1670,1666,1666,1670,,,,,
48951245,1673,1670,1670,1673,,,,,
48953744,1677,1673,1674,1677,,,,,
48956243,1681,1677,1677,1681,,,,,
48958742,1684,1681,1681,1684,,,,,
48961241,1688,1684,1684,1688,,,,,
48963740,1691,1688,1688,1691,,,,,
48966239,1695,1691,1692,1695,,,,,
48968738,1698,1695,1695,1698,,,,,
48971237,1702,1698,1699,1702,,,,,
48973736,1705,1702,1702,1705,,,,,
48976235,1709,1705,1706,1709,,,,,
48978734,1712,1709,1709,1712,,,,,
48981233,1715,1712,1712,1716,,,,,
48983732,1719,1716,1716,1719,,,,,
48986231,1722,1719,1719,1722,,,,,
48988730,1726,1722,1723,1726,,,,,
48991229,1729,1726,1726,1729,,,,,
48993728,1733,1729,1730,1733,,,,,
48996227,1736,1733,1733,1736,,,,,
48998726,1739,1736,1736,1739,,,,,
49001225,1743,1739,1740,1743,,,,,
49003724,1746,1743,1743,1746,,,,,
49006223,1749,1746,1746,1749,,,,,
49008722,1753,1749,1750,1753,,,,,
49011221,1756,1753,1753,1756,,,,,
49013720,1759,1756,1756,1759,,,,,
49016219,1762,1759,1760,1763,,,,,
49018718,1766,1763,1763,1766,,,,,
49021217,1769,1766,1766,1769,,,,,
49023716,1772,1769,1769,1772,,,,,
49026215,1776,1772,1773,1776,,,,,
49028714,1779,1776,1776,1779,,,,,
49031213,1782,1779,1779,1782,,,,,
49033712,1785,1782,1782,1785,,,,,
49036211,1788,1785,1785,1789,,,,,
49038710,1792,1788,1788,1792,,,,,
49041209,1795,1792,1792,1795,,,,,
49043708,1798,1795,1795,1798,,,,,
49046207,1801,1798,1798,1801,,,,,
49048706,1804,1801,1801,1805,,,,,
49051205,1807,1804,1804,1808,,,,,
49053704,1811,1807,1807,1811,,,,,
49056203,1814,1810,1810,1814,,,,,
49058702,1817,1814,1814,1817,,,,,
49061201,1820,1817,1817,1820,,,,,
49063700,1823,1820,1820,1823,,,,,
49066199,1826,1823,1823,1827,,,,,
49068698,1829,1826,1826,1830,,,,,
49071197,1832,1829,1829,1833,,,,,
49073696,1835,1832,1832,1836,,,,,
49076195,1838,1835,1835,1839,,,,,
49078694,1842,1838,1838,1842,,,,,
49081193,1845,1841,1841,1845,,,,,
49083692,1848,1844,1844,1848,,,,,
49086191,1851,1847,1847,1851,,,,,
49088690,1854,1850,1850,1854,,,,,
49091189,1857,1853,1853,1857,,,,,
49093688,1860,1856,1856,1860,,,,,
49096187,1861,1857,1857,1861,,,,,
49098686,1860,1856,1856,1860,,,,,
49101185,1858,1855,1855,1859,,,,,
49103684,1857,1854,1854,1857,,,,,
49106183,1856,1853,1853,1856,,,,,
49108682,1855,1851,1852,1855,,,,,
49111181,1854,1850,1850,1854,,,,,
49113680,1853,1849,1849,1853,,,,,
49116179,1852,1848,1848,1852,,,,,
49118678,1851,1847,1848,1851,,,,,
49121177,1850,1847,1847,1850,,,,,
49123676,1849,1846,1846,1850,,,,,
49126175,1849,1845,1845,1849,,,,,
49128674,1848,1845,1845,1848,,,,,
49131173,1848,1844,1844,1848,,,,,
49133672,1847,1844,1844,1847,,,,,
49136171,1847,1843,1843,1847,,,,,
49138670,1847,1843,1843,1847,,,,,
49141169,1846,1843,1843,1847,,,,,
49143668,1846,1843,1843,1846,,,,,
49146167,1846,1843,1843,1846,,,,,
49148666,1846,1843,1843,1846,,,,,
49151165,1846,1843,1843,1846,,,,,
49153664,1846,1843,1843,1847,,,,,
49156163,1847,1843,1843,1847,,,,,
49158662,1847,1843,1844,1847,,,,,
49161161,1847,1844,1844,1847,,,,,
49163660,1848,1844,1844,1848,,,,,
49166159,1848,1844,1845,1848,,,,,
49168658,1849,1845,1845,1849,,,,,
49171157,1849,1846,1846,1849,,,,,
49173656,1850,1846,1847,1850,,,,,
49176155,1851,1847,1847,1850,,,,,
49178654,1851,1847,1848,1851,,,,,
49181153,1852,1848,1849,1852,,,,,
49183652,1853,1849,1849,1852,,,,,
49186151,1854,1850,1850,1853,,,,,
49188650,1854,1850,1851,1854,,,,,
49191149,1855,1851,1852,1855,,,,,
49193648,1856,1852,1853,1856,,,,,
49196147,1857,1853,1854,1856,,,,,
49198646,1858,1854,1854,1857,,,,,
49201145,1858,1855,1855,1858,,,,,
49203644,1859,1855,1856,1859,,,,,
49206143,1860,1856,1857,1859,,,,,
49208642,1860,1857,1857,1860,,,,,
49211141,1860,1857,1858,1860,,,,,
49213640,1861,1857,1858,1860,,,,,
49216139,1861,1857,1858,1860,,,,,
49218638,1860,1857,1858,1860,,,,,
49221137,1860,1857,1858,1860,,,,,
49223636,1860,1857,1857,1859,,,,,
49226135,1859,1856,1857,1859,,,,,
49228634,1858,1855,1856,1858,,,,,
49231133,1857,1854,1855,1857,,,,,
49233632,1856,1853,1854,1856,,,,,
49236131,1855,1852,1852,1854,,,,,
49238630,1853,1850,1851,1853,,,,,
49241129,1851,1849,1849,1851,,,,,
49243628,1849,1847,1847,1849,,,,,
49246127,1848,1845,1845,1847,,,,,
49248626,1845,1843,1843,1845,,,,,
49251125,1843,1841,1841,1843,,,,,
49253624,1841,1838,1839,1841,,,,,
49256123,1838,1836,1836,1838,,,,,
49258622,1836,1834,1834,1836,,,,,
49261121,1833,1831,1831,1833,,,,,
49263620,1830,1828,1829,1830,,,,,
49266119,1828,1825,1826,1828,,,,,
49268618,1825,1823,1823,1825,,,,,
49271117,1822,1820,1820,1822,,,,,
49273616,1819,1817,1817,1819,,,,,
49276115,1816,1814,1814,1816,,,,,
49278614,1812,1811,1811,1812,,,,,
49281113,1809,1807,1808,1809,,,,,
49283612,1806,1804,1805,1806,,,,,
49286111,1803,1801,1801,1803,,,,,
49288610,1800,1798,1798,1800,,,,,
49291109,1796,1795,1795,1796,,,,,
49293608,1793,1791,1792,1793,,,,,
49296107,1790,1788,1788,1790,,,,,
49298606,1786,1785,1785,1786,,,,,
49301105,1783,1781,1782,1783,,,,,
49303604,1780,1778,1778,1780,,,,,
49306103,1776,1775,1775,1776,,,,,
49308602,1773,1771,1772,1773,,,,,
49311101,1769,1768,1768,1769,,,,,
49313600,1766,1765,1765,1766,,,,,
49316099,1762,1761,1761,1763,,,,,
49318598,1759,1758,1758,1759,,,,,
49321097,1756,1755,1755,1756,,,,,
49323596,1752,1751,1751,1752,,,,,
49326095,1749,1748,1748,1749,,,,,
49328594,1745,1744,1744,1746,,,,,
49331093,1742,1741,1741,1742,,,,,
49333592,1739,1738,1738,1739,,,,,
49336091,1735,1734,1734,1736,,,,,
49338590,1732,1731,1731,1732,,,,,
49341089,1729,1728,1728,1729,,,,,
49343588,1725,1725,1725,1726,,,,,
49346087,1722,1722,1722,1722,,,,,
49348586,1719,1718,1718,1719,,,,,
49351085,1716,1715,1715,1716,,,,,
49353584,1713,1712,1712,1713,,,,,
49356083,1709,1709,1709,1710,,,,,
49358582,1706,1706,1706,1707,,,,,
49361081,1703,1703,1703,1704,,,,,
49363580,1700,1700,1700,1701,,,,,
49366079,1697,1697,1697,1698,,,,,
49368578,1694,1694,1694,1695,,,,,
49371077,1691,1691,1691,1692,,,,,
49373576,1689,1689,1689,1689,,,,,
49376075,1686,1686,1686,1686,,,,,
49378574,1683,1683,1683,1683,,,,,
49381073,1680,1681,1681,1681,,,,,
49383572,1678,1678,1678,1678,,,,,
49386071,1675,1675,1675,1675,,,,,
