timestamp,TimeUS,C1,C2,C3,C4,C5,C6,C7,C8,C9,C10,C11,C12,C13,C14
1681635261.00000000,54028380,1000,1000,1000,1000,0,0,0,0,0,0,0,0,0,0
1681635261.09996009,54128340,1000,1000,1000,1000,0,0,0,0,0,0,0,0,0,0
1681635261.19992018,54228300,1000,1000,1000,1000,0,0,0,0,0,0,0,0,0,0
1681635261.29988003,54328260,1000,1000,1000,1000,0,0,0,0,0,0,0,0,0,0
1681635261.39984012,54428220,1000,1000,1000,1000,0,0,0,0,0,0,0,0,0,0
1681635261.49979997,54528180,1000,1000,1000,1000,0,0,0,0,0,0,0,0,0,0
1681635261.60059309,54628973,1000,1000,1000,1000,0,0,0,0,0,0,0,0,0,0
1681635261.70055318,54728933,1000,1000,1000,1000,0,0,0,0,0,0,0,0,0,0
1681635261.80051303,54828893,1000,1000,1000,1000,0,0,0,0,0,0,0,0,0,0
1681635261.90047312,54928853,1000,1000,1000,1000,0,0,0,0,0,0,0,0,0,0
1681635262.00043297,55028813,1000,1000,1000,1000,0,0,0,0,0,0,0,0,0,0
1681635262.10039306,55128773,1000,1000,1000,1000,0,0,0,0,0,0,0,0,0,0
1681635262.20035315,55228733,1000,1000,1000,1000,0,0,0,0,0,0,0,0,0,0
1681635262.30031300,55328693,1000,1000,1000,1000,0,0,0,0,0,0,0,0,0,0
1681635262.40027308,55428653,1000,1000,1000,1000,0,0,0,0,0,0,0,0,0,0
1681635262.50023317,55528613,1000,1000,1000,1000,0,0,0,0,0,0,0,0,0,0
1681635262.60019302,55628573,1000,1000,1000,1000,0,0,0,0,0,0,0,0,0,0
1681635262.70015311,55728533,1000,1000,1000,1000,0,0,0,0,0,0,0,0,0,0
1681635262.80011320,55828493,1000,1000,1000,1000,0,0,0,0,0,0,0,0,0,0
1681635262.90007305,55928453,1000,1000,1000,1000,0,0,0,0,0,0,0,0,0,0
1681635263.00003314,56028413,1014,1014,1014,1014,0,0,0,0,0,0,0,0,0,0
1681635263.09999299,56128373,1044,1044,1044,1044,0,0,0,0,0,0,0,0,0,0
1681635263.19995308,56228333,1074,1074,1074,1074,0,0,0,0,0,0,0,0,0,0
1681635263.29991317,56328293,1104,1104,1104,1104,0,0,0,0,0,0,0,0,0,0
1681635263.39987302,56428253,1134,1134,1134,1134,0,0,0,0,0,0,0,0,0,0
1681635263.49983311,56528213,1282,1274,1275,1282,0,0,0,0,0,0,0,0,0,0
1681635263.59979320,56628173,1490,1485,1485,1491,0,0,0,0,0,0,0,0,0,0
1681635263.70058608,56728966,1652,1647,1648,1652,0,0,0,0,0,0,0,0,0,0
1681635263.80054617,56828926,1789,1784,1784,1790,0,0,0,0,0,0,0,0,0,0
1681635263.90050602,56928886,1910,1905,1905,1910,0,0,0,0,0,0,0,0,0,0
1681635264.00046611,57028846,1889,1886,1887,1889,0,0,0,0,0,0,0,0,0,0
1681635264.10042620,57128806,1762,1761,1762,1762,0,0,0,0,0,0,0,0,0,0
1681635264.20038605,57228766,1669,1671,1670,1670,0,0,0,0,0,0,0,0,0,0
1681635264.30034614,57328726,1636,1638,1633,1641,0,0,0,0,0,0,0,0,0,0
1681635264.40030599,57428686,1638,1641,1634,1645,0,0,0,0,0,0,0,0,0,0
1681635264.50026608,57528646,1642,1645,1642,1646,0,0,0,0,0,0,0,0,0,0
1681635264.60022616,57628606,1640,1642,1643,1640,0,0,0,0,0,0,0,0,0,0
1681635264.70018601,57728566,1635,1635,1638,1631,0,0,0,0,0,0,0,0,0,0
1681635264.80014610,57828526,1629,1627,1632,1624,0,0,0,0,0,0,0,0,0,0
1681635264.90010619,57928486,1625,1623,1627,1620,0,0,0,0,0,0,0,0,0,0
1681635265.00006604,58028446,1622,1621,1623,1619,0,0,0,0,0,0,0,0,0,0
1681635265.10002613,58128406,1591,1590,1599,1582,0,0,0,0,0,0,0,0,0,0
1681635265.19998598,58228366,1576,1576,1582,1569,0,0,0,0,0,0,0,0,0,0
1681635265.29994607,58328326,1564,1565,1565,1564,0,0,0,0,0,0,0,0,0,0
1681635265.39990616,58428286,1554,1554,1550,1558,0,0,0,0,0,0,0,0,0,0
1681635265.49986601,58528246,1547,1547,1541,1553,0,0,0,0,0,0,0,0,0,0
1681635265.59982610,58628206,1541,1540,1532,1549,0,0,0,0,0,0,0,0,0,0
1681635265.69978619,58728166,1535,1534,1527,1541,0,0,0,0,0,0,0,0,0,0
1681635265.80057907,58828959,1529,1529,1525,1532,0,0,0,0,0,0,0,0,0,0
1681635265.90053916,58928919,1525,1525,1524,1525,0,0,0,0,0,0,0,0,0,0
1681635266.00049901,59028879,1524,1524,1526,1522,0,0,0,0,0,0,0,0,0,0
1681635266.10045910,59128839,1526,1526,1528,1524,0,0,0,0,0,0,0,0,0,0
1681635266.20041919,59228799,1529,1529,1531,1526,0,0,0,0,0,0,0,0,0,0
1681635266.30037904,59328759,1533,1533,1535,1531,0,0,0,0,0,0,0,0,0,0
1681635266.40033913,59428719,1537,1537,1539,1536,0,0,0,0,0,0,0,0,0,0
1681635266.50029898,59528679,1541,1541,1543,1539,0,0,0,0,0,0,0,0,0,0
1681635266.60025907,59628639,1544,1544,1545,1543,0,0,0,0,0,0,0,0,0,0
1681635266.70021915,59728599,1548,1548,1548,1548,0,0,0,0,0,0,0,0,0,0
1681635266.80017900,59828559,1551,1551,1551,1552,0,0,0,0,0,0,0,0,0,0
1681635266.90013909,59928519,1554,1553,1553,1554,0,0,0,0,0,0,0,0,0,0
1681635267.00009918,60028479,1556,1556,1555,1557,0,0,0,0,0,0,0,0,0,0
1681635267.10005903,60128439,1556,1556,1558,1561,0,0,0,0,0,0,0,0,0,0
1681635267.20001912,60228399,1557,1557,1561,1562,0,0,0,0,0,0,0,0,0,0
1681635267.29997897,60328359,1559,1559,1563,1564,0,0,0,0,0,0,0,0,0,0
1681635267.39993906,60428319,1560,1560,1565,1564,0,0,0,0,0,0,0,0,0,0
1681635267.49989915,60528279,1562,1562,1565,1565,0,0,0,0,0,0,0,0,0,0
1681635267.59985900,60628239,1565,1565,1567,1566,0,0,0,0,0,0,0,0,0,0
1681635267.69981909,60728199,1567,1568,1568,1567,0,0,0,0,0,0,0,0,0,0
1681635267.79977918,60828159,1568,1569,1567,1567,0,0,0,0,0,0,0,0,0,0
1681635267.90057206,60928952,1571,1571,1569,1569,0,0,0,0,0,0,0,0,0,0
1681635268.00053215,61028912,1571,1571,1568,1568,0,0,0,0,0,0,0,0,0,0
1681635268.10049200,61128872,1572,1571,1568,1568,0,0,0,0,0,0,0,0,0,0
1681635268.20045209,61228832,1573,1572,1569,1569,0,0,0,0,0,0,0,0,0,0
1681635268.30041218,61328792,1574,1574,1571,1571,0,0,0,0,0,0,0,0,0,0
1681635268.40037203,61428752,1575,1575,1572,1573,0,0,0,0,0,0,0,0,0,0
1681635268.50033212,61528712,1575,1575,1574,1573,0,0,0,0,0,0,0,0,0,0
1681635268.60029197,61628672,1575,1575,1575,1573,0,0,0,0,0,0,0,0,0,0
1681635268.70025206,61728632,1576,1575,1576,1574,0,0,0,0,0,0,0,0,0,0
1681635268.80021214,61828592,1575,1575,1576,1575,0,0,0,0,0,0,0,0,0,0
1681635268.90017200,61928552,1575,1575,1575,1576,0,0,0,0,0,0,0,0,0,0
1681635269.00013208,62028512,1575,1576,1576,1577,0,0,0,0,0,0,0,0,0,0
1681635269.10009217,62128472,1576,1576,1576,1577,0,0,0,0,0,0,0,0,0,0
1681635269.20005202,62228432,1576,1576,1577,1576,0,0,0,0,0,0,0,0,0,0
1681635269.30001211,62328392,1575,1575,1576,1576,0,0,0,0,0,0,0,0,0,0
1681635269.39997220,62428352,1576,1576,1577,1577,0,0,0,0,0,0,0,0,0,0
1681635269.49993205,62528312,1576,1576,1577,1577,0,0,0,0,0,0,0,0,0,0
1681635269.59989214,62628272,1576,1576,1577,1576,0,0,0,0,0,0,0,0,0,0
1681635269.69985199,62728232,1577,1577,1577,1577,0,0,0,0,0,0,0,0,0,0
1681635269.79981208,62828192,1577,1577,1577,1577,0,0,0,0,0,0,0,0,0,0
1681635269.90060520,62928985,1577,1577,1577,1576,0,0,0,0,0,0,0,0,0,0
1681635270.00056505,63028945,1578,1579,1578,1578,0,0,0,0,0,0,0,0,0,0
1681635270.10052514,63128905,1579,1578,1578,1578,0,0,0,0,0,0,0,0,0,0
1681635270.20048499,63228865,1578,1578,1578,1578,0,0,0,0,0,0,0,0,0,0
1681635270.30044508,63328825,1579,1578,1578,1578,0,0,0,0,0,0,0,0,0,0
1681635270.40040517,63428785,1579,1578,1578,1578,0,0,0,0,0,0,0,0,0,0
1681635270.50036502,63528745,1578,1578,1578,1578,0,0,0,0,0,0,0,0,0,0
1681635270.60032511,63628705,1579,1578,1579,1579,0,0,0,0,0,0,0,0,0,0
1681635270.70028520,63728665,1578,1578,1578,1578,0,0,0,0,0,0,0,0,0,0
1681635270.80024505,63828625,1579,1579,1579,1580,0,0,0,0,0,0,0,0,0,0
1681635270.90020514,63928585,1579,1579,1580,1580,0,0,0,0,0,0,0,0,0,0
1681635271.00016499,64028545,1578,1579,1579,1579,0,0,0,0,0,0,0,0,0,0
1681635271.10012507,64128505,1580,1580,1580,1580,0,0,0,0,0,0,0,0,0,0
1681635271.20008516,64228465,1579,1579,1579,1580,0,0,0,0,0,0,0,0,0,0
1681635271.30004501,64328425,1579,1579,1579,1579,0,0,0,0,0,0,0,0,0,0
1681635271.40000510,64428385,1579,1580,1580,1579,0,0,0,0,0,0,0,0,0,0
1681635271.49996519,64528345,1580,1580,1579,1579,0,0,0,0,0,0,0,0,0,0
1681635271.59992504,64628305,1580,1579,1579,1579,0,0,0,0,0,0,0,0,0,0
1681635271.69988513,64728265,1580,1579,1579,1580,0,0,0,0,0,0,0,0,0,0
1681635271.79984498,64828225,1580,1580,1580,1580,0,0,0,0,0,0,0,0,0,0
1681635271.89980507,64928185,1579,1579,1578,1579,0,0,0,0,0,0,0,0,0,0
1681635272.00059819,65028978,1580,1579,1579,1579,0,0,0,0,0,0,0,0,0,0
1681635272.10055804,65128938,1579,1579,1579,1579,0,0,0,0,0,0,0,0,0,0
1681635272.20051813,65228898,1578,1578,1578,1579,0,0,0,0,0,0,0,0,0,0
1681635272.30047798,65328858,1579,1580,1579,1579,0,0,0,0,0,0,0,0,0,0
1681635272.40043807,65428818,1578,1579,1579,1579,0,0,0,0,0,0,0,0,0,0
1681635272.50039816,65528778,1580,1580,1580,1580,0,0,0,0,0,0,0,0,0,0
1681635272.60035801,65628738,1580,1580,1580,1580,0,0,0,0,0,0,0,0,0,0
1681635272.70031810,65728698,1580,1580,1580,1580,0,0,0,0,0,0,0,0,0,0
1681635272.80027819,65828658,1580,1580,1580,1580,0,0,0,0,0,0,0,0,0,0
1681635272.90023804,65928618,1580,1579,1580,1580,0,0,0,0,0,0,0,0,0,0
1681635273.00019813,66028578,1581,1581,1581,1581,0,0,0,0,0,0,0,0,0,0
1681635273.10015798,66128538,1581,1581,1581,1581,0,0,0,0,0,0,0,0,0,0
1681635273.20011806,66228498,1580,1580,1582,1578,0,0,0,0,0,0,0,0,0,0
1681635273.30007815,66328458,1580,1581,1588,1573,0,0,0,0,0,0,0,0,0,0
1681635273.40003800,66428418,1580,1582,1583,1574,0,0,0,0,0,0,0,0,0,0
1681635273.49999809,66528378,1579,1582,1575,1574,0,0,0,0,0,0,0,0,0,0
1681635273.59995818,66628338,1577,1580,1566,1571,0,0,0,0,0,0,0,0,0,0
1681635273.69991803,66728298,1576,1578,1559,1566,0,0,0,0,0,0,0,0,0,0
1681635273.79987812,66828258,1578,1578,1556,1562,0,0,0,0,0,0,0,0,0,0
1681635273.89983797,66928218,1579,1578,1556,1558,0,0,0,0,0,0,0,0,0,0
1681635273.99979806,67028178,1580,1578,1556,1556,0,0,0,0,0,0,0,0,0,0
1681635274.10059118,67128971,1579,1578,1556,1554,0,0,0,0,0,0,0,0,0,0
1681635274.20055103,67228931,1578,1578,1556,1554,0,0,0,0,0,0,0,0,0,0
1681635274.30051112,67328891,1577,1577,1555,1554,0,0,0,0,0,0,0,0,0,0
1681635274.40047097,67428851,1576,1577,1555,1554,0,0,0,0,0,0,0,0,0,0
1681635274.50043106,67528811,1575,1576,1553,1554,0,0,0,0,0,0,0,0,0,0
1681635274.60039115,67628771,1574,1577,1552,1552,0,0,0,0,0,0,0,0,0,0
1681635274.70035100,67728731,1576,1577,1551,1552,0,0,0,0,0,0,0,0,0,0
1681635274.80031109,67828691,1577,1579,1550,1550,0,0,0,0,0,0,0,0,0,0
1681635274.90027118,67928651,1578,1579,1546,1546,0,0,0,0,0,0,0,0,0,0
1681635275.00023103,68028611,1581,1582,1544,1544,0,0,0,0,0,0,0,0,0,0
1681635275.10019112,68128571,1585,1585,1542,1541,0,0,0,0,0,0,0,0,0,0
1681635275.20015097,68228531,1588,1588,1539,1539,0,0,0,0,0,0,0,0,0,0
1681635275.30011106,68328491,1590,1591,1537,1536,0,0,0,0,0,0,0,0,0,0
1681635275.40007114,68428451,1593,1594,1535,1536,0,0,0,0,0,0,0,0,0,0
1681635275.50003099,68528411,1595,1594,1535,1535,0,0,0,0,0,0,0,0,0,0
1681635275.59999108,68628371,1594,1594,1534,1536,0,0,0,0,0,0,0,0,0,0
1681635275.69995117,68728331,1594,1593,1536,1539,0,0,0,0,0,0,0,0,0,0
1681635275.79991102,68828291,1591,1591,1540,1543,0,0,0,0,0,0,0,0,0,0
1681635275.89987111,68928251,1587,1585,1546,1550,0,0,0,0,0,0,0,0,0,0
1681635275.99983120,69028211,1580,1577,1554,1557,0,0,0,0,0,0,0,0,0,0
1681635276.09979105,69128171,1572,1568,1566,1568,0,0,0,0,0,0,0,0,0,0
1681635276.20058417,69228964,1562,1557,1579,1579,0,0,0,0,0,0,0,0,0,0
1681635276.30054402,69328924,1551,1547,1592,1592,0,0,0,0,0,0,0,0,0,0
1681635276.40050411,69428884,1541,1539,1602,1602,0,0,0,0,0,0,0,0,0,0
1681635276.50046420,69528844,1532,1531,1608,1608,0,0,0,0,0,0,0,0,0,0
1681635276.60042405,69628804,1529,1530,1614,1613,0,0,0,0,0,0,0,0,0,0
1681635276.70038414,69728764,1529,1531,1615,1614,0,0,0,0,0,0,0,0,0,0
1681635276.80034399,69828724,1533,1536,1613,1613,0,0,0,0,0,0,0,0,0,0
1681635276.90030408,69928684,1539,1541,1608,1608,0,0,0,0,0,0,0,0,0,0
1681635277.00026417,70028644,1548,1549,1602,1602,0,0,0,0,0,0,0,0,0,0
1681635277.10022402,70128604,1556,1557,1594,1594,0,0,0,0,0,0,0,0,0,0
1681635277.20018411,70228564,1565,1566,1587,1587,0,0,0,0,0,0,0,0,0,0
1681635277.30014420,70328524,1573,1572,1580,1578,0,0,0,0,0,0,0,0,0,0
1681635277.40010405,70428484,1580,1579,1575,1573,0,0,0,0,0,0,0,0,0,0
1681635277.50006413,70528444,1585,1583,1570,1569,0,0,0,0,0,0,0,0,0,0
1681635277.60002398,70628404,1587,1585,1567,1567,0,0,0,0,0,0,0,0,0,0
1681635277.69998407,70728364,1588,1586,1566,1566,0,0,0,0,0,0,0,0,0,0
1681635277.79994416,70828324,1587,1586,1566,1567,0,0,0,0,0,0,0,0,0,0
1681635277.89990401,70928284,1585,1584,1568,1568,0,0,0,0,0,0,0,0,0,0
1681635277.99986410,71028244,1583,1582,1572,1571,0,0,0,0,0,0,0,0,0,0
1681635278.09982419,71128204,1580,1580,1574,1574,0,0,0,0,0,0,0,0,0,0
1681635278.19978404,71228164,1577,1578,1578,1578,0,0,0,0,0,0,0,0,0,0
1681635278.30057716,71328957,1575,1575,1580,1580,0,0,0,0,0,0,0,0,0,0
1681635278.40053701,71428917,1595,1595,1464,1537,0,0,0,0,0,0,0,0,0,0
1681635278.50049710,71528877,1612,1614,1545,1534,0,0,0,0,0,0,0,0,0,0
1681635278.60045719,71628837,1633,1636,1616,1560,0,0,0,0,0,0,0,0,0,0
1681635278.70041704,71728797,1649,1654,1668,1598,0,0,0,0,0,0,0,0,0,0
1681635278.80037713,71828757,1648,1656,1689,1629,0,0,0,0,0,0,0,0,0,0
1681635278.90033698,71928717,1628,1636,1678,1644,0,0,0,0,0,0,0,0,0,0
1681635279.00029707,72028677,1599,1603,1647,1646,0,0,0,0,0,0,0,0,0,0
1681635279.10025716,72128637,1576,1574,1618,1643,0,0,0,0,0,0,0,0,0,0
1681635279.20021701,72228597,1561,1552,1597,1633,0,0,0,0,0,0,0,0,0,0
1681635279.30017710,72328557,1556,1542,1588,1621,0,0,0,0,0,0,0,0,0,0
1681635279.40013719,72428517,1554,1540,1587,1607,0,0,0,0,0,0,0,0,0,0
1681635279.50009704,72528477,1554,1544,1588,1593,0,0,0,0,0,0,0,0,0,0
1681635279.60005713,72628437,1556,1554,1588,1583,0,0,0,0,0,0,0,0,0,0
1681635279.70001698,72728397,1560,1563,1585,1576,0,0,0,0,0,0,0,0,0,0
1681635279.79997706,72828357,1564,1572,1580,1572,0,0,0,0,0,0,0,0,0,0
1681635279.89993715,72928317,1567,1576,1573,1570,0,0,0,0,0,0,0,0,0,0
1681635279.99989700,73028277,1571,1579,1568,1569,0,0,0,0,0,0,0,0,0,0
1681635280.09985709,73128237,1575,1578,1563,1568,0,0,0,0,0,0,0,0,0,0
1681635280.19981718,73228197,1576,1577,1560,1566,0,0,0,0,0,0,0,0,0,0
1681635280.29977703,73328157,1578,1576,1559,1564,0,0,0,0,0,0,0,0,0,0
1681635280.40057015,73428950,1579,1576,1560,1562,0,0,0,0,0,0,0,0,0,0
1681635280.50053000,73528910,1580,1577,1561,1561,0,0,0,0,0,0,0,0,0,0
1681635280.60049009,73628870,1581,1579,1564,1561,0,0,0,0,0,0,0,0,0,0
1681635280.70045018,73728830,1581,1580,1566,1564,0,0,0,0,0,0,0,0,0,0
1681635280.80041003,73828790,1580,1581,1567,1566,0,0,0,0,0,0,0,0,0,0
1681635280.90037012,73928750,1579,1580,1569,1569,0,0,0,0,0,0,0,0,0,0
1681635281.00032997,74028710,1577,1578,1571,1571,0,0,0,0,0,0,0,0,0,0
1681635281.10029006,74128670,1577,1577,1573,1573,0,0,0,0,0,0,0,0,0,0
1681635281.20025015,74228630,1576,1576,1575,1575,0,0,0,0,0,0,0,0,0,0
1681635281.30021000,74328590,1574,1576,1583,1568,0,0,0,0,0,0,0,0,0,0
1681635281.40017009,74428550,1573,1578,1581,1569,0,0,0,0,0,0,0,0,0,0
1681635281.50013018,74528510,1572,1577,1575,1572,0,0,0,0,0,0,0,0,0,0
1681635281.60009003,74628470,1570,1574,1567,1571,0,0,0,0,0,0,0,0,0,0
1681635281.70005012,74728430,1571,1572,1560,1568,0,0,0,0,0,0,0,0,0,0
1681635281.80000997,74828390,1572,1571,1556,1563,0,0,0,0,0,0,0,0,0,0
1681635281.89997005,74928350,1574,1571,1553,1558,0,0,0,0,0,0,0,0,0,0
1681635281.99993014,75028310,1575,1573,1553,1554,0,0,0,0,0,0,0,0,0,0
1681635282.09988999,75128270,1577,1575,1553,1551,0,0,0,0,0,0,0,0,0,0
1681635282.19985008,75228230,1577,1577,1552,1549,0,0,0,0,0,0,0,0,0,0
1681635282.29981017,75328190,1577,1578,1551,1549,0,0,0,0,0,0,0,0,0,0
1681635282.40060306,75428983,1578,1580,1551,1550,0,0,0,0,0,0,0,0,0,0
1681635282.50056314,75528943,1578,1579,1550,1550,0,0,0,0,0,0,0,0,0,0
1681635282.60052299,75628903,1577,1578,1549,1549,0,0,0,0,0,0,0,0,0,0
1681635282.70048308,75728863,1577,1578,1549,1549,0,0,0,0,0,0,0,0,0,0
1681635282.80044317,75828823,1579,1579,1548,1549,0,0,0,0,0,0,0,0,0,0
1681635282.90040302,75928783,1580,1580,1548,1548,0,0,0,0,0,0,0,0,0,0
1681635283.00036311,76028743,1581,1582,1547,1548,0,0,0,0,0,0,0,0,0,0
1681635283.10032320,76128703,1582,1583,1547,1547,0,0,0,0,0,0,0,0,0,0
1681635283.20028305,76228663,1584,1584,1546,1546,0,0,0,0,0,0,0,0,0,0
1681635283.30024314,76328623,1585,1585,1545,1545,0,0,0,0,0,0,0,0,0,0
1681635283.40020299,76428583,1587,1587,1546,1547,0,0,0,0,0,0,0,0,0,0
1681635283.50016308,76528543,1586,1587,1545,1546,0,0,0,0,0,0,0,0,0,0
1681635283.60012317,76628503,1587,1587,1545,1547,0,0,0,0,0,0,0,0,0,0
1681635283.70008302,76728463,1587,1586,1547,1549,0,0,0,0,0,0,0,0,0,0
1681635283.80004311,76828423,1586,1585,1551,1554,0,0,0,0,0,0,0,0,0,0
1681635283.90000319,76928383,1581,1579,1555,1558,0,0,0,0,0,0,0,0,0,0
1681635283.99996305,77028343,1576,1574,1563,1565,0,0,0,0,0,0,0,0,0,0
1681635284.09992313,77128303,1570,1567,1571,1573,0,0,0,0,0,0,0,0,0,0
1681635284.19988298,77228263,1563,1561,1581,1582,0,0,0,0,0,0,0,0,0,0
1681635284.29984307,77328223,1557,1555,1589,1589,0,0,0,0,0,0,0,0,0,0
1681635284.39980316,77428183,1552,1552,1596,1595,0,0,0,0,0,0,0,0,0,0
1681635284.50059605,77528976,1550,1550,1601,1599,0,0,0,0,0,0,0,0,0,0
1681635284.60055614,77628936,1550,1550,1603,1602,0,0,0,0,0,0,0,0,0,0
1681635284.70051599,77728896,1549,1550,1603,1602,0,0,0,0,0,0,0,0,0,0
1681635284.80047607,77828856,1550,1552,1602,1601,0,0,0,0,0,0,0,0,0,0
1681635284.90043616,77928816,1552,1553,1599,1599,0,0,0,0,0,0,0,0,0,0
1681635285.00039601,78028776,1556,1556,1597,1597,0,0,0,0,0,0,0,0,0,0
1681635285.10035610,78128736,1559,1559,1594,1594,0,0,0,0,0,0,0,0,0,0
1681635285.20031619,78228696,1562,1563,1590,1590,0,0,0,0,0,0,0,0,0,0
1681635285.30027604,78328656,1564,1565,1586,1586,0,0,0,0,0,0,0,0,0,0
1681635285.40023613,78428616,1568,1569,1582,1582,0,0,0,0,0,0,0,0,0,0
1681635285.50019598,78528576,1571,1571,1578,1578,0,0,0,0,0,0,0,0,0,0
1681635285.60015607,78628536,1575,1575,1575,1576,0,0,0,0,0,0,0,0,0,0
1681635285.70011616,78728496,1579,1578,1573,1573,0,0,0,0,0,0,0,0,0,0
1681635285.80007601,78828456,1581,1581,1571,1571,0,0,0,0,0,0,0,0,0,0
1681635285.90003610,78928416,1583,1582,1570,1570,0,0,0,0,0,0,0,0,0,0
1681635285.99999619,79028376,1583,1583,1569,1569,0,0,0,0,0,0,0,0,0,0
1681635286.09995604,79128336,1583,1582,1570,1570,0,0,0,0,0,0,0,0,0,0
1681635286.19991612,79228296,1582,1581,1571,1571,0,0,0,0,0,0,0,0,0,0
1681635286.29987597,79328256,1580,1580,1573,1573,0,0,0,0,0,0,0,0,0,0
1681635286.39983606,79428216,1579,1579,1575,1576,0,0,0,0,0,0,0,0,0,0
1681635286.49979615,79528176,1577,1577,1578,1577,0,0,0,0,0,0,0,0,0,0
1681635286.60058904,79628969,1576,1576,1580,1579,0,0,0,0,0,0,0,0,0,0
1681635286.70054913,79728929,1574,1575,1581,1580,0,0,0,0,0,0,0,0,0,0
1681635286.80050898,79828889,1574,1575,1582,1582,0,0,0,0,0,0,0,0,0,0
1681635286.90046906,79928849,1574,1575,1583,1582,0,0,0,0,0,0,0,0,0,0
1681635287.00042915,80028809,1575,1575,1582,1583,0,0,0,0,0,0,0,0,0,0
1681635287.10038900,80128769,1576,1576,1583,1582,0,0,0,0,0,0,0,0,0,0
1681635287.20034909,80228729,1577,1577,1582,1582,0,0,0,0,0,0,0,0,0,0
1681635287.30030918,80328689,1578,1577,1582,1582,0,0,0,0,0,0,0,0,0,0
1681635287.40026903,80428649,1578,1578,1580,1580,0,0,0,0,0,0,0,0,0,0
1681635287.50022912,80528609,1579,1579,1580,1580,0,0,0,0,0,0,0,0,0,0
1681635287.60018897,80628569,1580,1580,1579,1580,0,0,0,0,0,0,0,0,0,0
1681635287.70014906,80728529,1581,1581,1579,1579,0,0,0,0,0,0,0,0,0,0
1681635287.80010915,80828489,1581,1581,1579,1579,0,0,0,0,0,0,0,0,0,0
1681635287.90006900,80928449,1580,1580,1577,1578,0,0,0,0,0,0,0,0,0,0
1681635288.00002909,81028409,1580,1580,1577,1577,0,0,0,0,0,0,0,0,0,0
1681635288.09998918,81128369,1580,1580,1577,1578,0,0,0,0,0,0,0,0,0,0
1681635288.19994903,81228329,1581,1580,1579,1579,0,0,0,0,0,0,0,0,0,0
1681635288.29990911,81328289,1581,1581,1580,1580,0,0,0,0,0,0,0,0,0,0
1681635288.39986897,81428249,1581,1581,1580,1580,0,0,0,0,0,0,0,0,0,0
1681635288.49982905,81528209,1581,1581,1581,1581,0,0,0,0,0,0,0,0,0,0
1681635288.59978914,81628169,1581,1581,1581,1581,0,0,0,0,0,0,0,0,0,0
1681635288.70058203,81728962,1580,1580,1581,1581,0,0,0,0,0,0,0,0,0,0
1681635288.80054212,81828922,1581,1581,1582,1582,0,0,0,0,0,0,0,0,0,0
1681635288.90050197,81928882,1579,1580,1581,1581,0,0,0,0,0,0,0,0,0,0
1681635289.00046206,82028842,1580,1580,1581,1581,0,0,0,0,0,0,0,0,0,0
1681635289.10042214,82128802,1580,1580,1581,1581,0,0,0,0,0,0,0,0,0,0
1681635289.20038199,82228762,1581,1581,1582,1582,0,0,0,0,0,0,0,0,0,0
1681635289.30034208,82328722,1581,1581,1581,1582,0,0,0,0,0,0,0,0,0,0
1681635289.40030217,82428682,1581,1581,1581,1581,0,0,0,0,0,0,0,0,0,0
1681635289.50026202,82528642,1582,1581,1582,1581,0,0,0,0,0,0,0,0,0,0
1681635289.60022211,82628602,1581,1583,1587,1574,0,0,0,0,0,0,0,0,0,0
1681635289.70018220,82728562,1580,1584,1585,1573,0,0,0,0,0,0,0,0,0,0
1681635289.80014205,82828522,1579,1583,1578,1573,0,0,0,0,0,0,0,0,0,0
1681635289.90010214,82928482,1577,1580,1569,1571,0,0,0,0,0,0,0,0,0,0
1681635290.00006199,83028442,1577,1579,1562,1569,0,0,0,0,0,0,0,0,0,0
1681635290.10002208,83128402,1577,1578,1557,1564,0,0,0,0,0,0,0,0,0,0
1681635290.19998217,83228362,1580,1578,1555,1560,0,0,0,0,0,0,0,0,0,0
1681635290.29994202,83328322,1580,1577,1554,1555,0,0,0,0,0,0,0,0,0,0
1681635290.39990211,83428282,1579,1577,1554,1553,0,0,0,0,0,0,0,0,0,0
1681635290.49986219,83528242,1580,1579,1555,1553,0,0,0,0,0,0,0,0,0,0
1681635290.59982204,83628202,1578,1579,1555,1552,0,0,0,0,0,0,0,0,0,0
1681635290.69978213,83728162,1577,1578,1554,1553,0,0,0,0,0,0,0,0,0,0
1681635290.80057502,83828955,1576,1578,1554,1553,0,0,0,0,0,0,0,0,0,0
1681635290.90053511,83928915,1575,1576,1552,1552,0,0,0,0,0,0,0,0,0,0
1681635291.00049520,84028875,1575,1577,1551,1551,0,0,0,0,0,0,0,0,0,0
1681635291.10045505,84128835,1577,1578,1550,1551,0,0,0,0,0,0,0,0,0,0
1681635291.20041513,84228795,1578,1579,1549,1548,0,0,0,0,0,0,0,0,0,0
1681635291.30037498,84328755,1581,1581,1547,1547,0,0,0,0,0,0,0,0,0,0
1681635291.40033507,84428715,1583,1584,1545,1544,0,0,0,0,0,0,0,0,0,0
1681635291.50029516,84528675,1586,1587,1543,1543,0,0,0,0,0,0,0,0,0,0
1681635291.60025501,84628635,1588,1589,1540,1540,0,0,0,0,0,0,0,0,0,0
1681635291.70021510,84728595,1592,1591,1538,1539,0,0,0,0,0,0,0,0,0,0
1681635291.80017519,84828555,1592,1592,1536,1537,0,0,0,0,0,0,0,0,0,0
1681635291.90013504,84928515,1594,1594,1536,1538,0,0,0,0,0,0,0,0,0,0
1681635292.00009513,85028475,1595,1595,1537,1540,0,0,0,0,0,0,0,0,0,0
1681635292.10005498,85128435,1594,1593,1541,1544,0,0,0,0,0,0,0,0,0,0
1681635292.20001507,85228395,1590,1587,1546,1549,0,0,0,0,0,0,0,0,0,0
1681635292.29997516,85328355,1584,1580,1554,1557,0,0,0,0,0,0,0,0,0,0
1681635292.39993501,85428315,1574,1571,1564,1567,0,0,0,0,0,0,0,0,0,0
1681635292.49989510,85528275,1564,1560,1576,1578,0,0,0,0,0,0,0,0,0,0
1681635292.59985518,85628235,1554,1551,1589,1589,0,0,0,0,0,0,0,0,0,0
1681635292.69981503,85728195,1545,1543,1601,1600,0,0,0,0,0,0,0,0,0,0
1681635292.79977512,85828155,1538,1538,1609,1607,0,0,0,0,0,0,0,0,0,0
1681635292.90056801,85928948,1535,1537,1614,1611,0,0,0,0,0,0,0,0,0,0
1681635293.00052810,86028908,1536,1538,1615,1613,0,0,0,0,0,0,0,0,0,0
1681635293.10048819,86128868,1539,1541,1613,1612,0,0,0,0,0,0,0,0,0,0
1681635293.20044804,86228828,1546,1546,1610,1610,0,0,0,0,0,0,0,0,0,0
1681635293.30040812,86328788,1549,1550,1605,1604,0,0,0,0,0,0,0,0,0,0
1681635293.40036798,86428748,1555,1556,1599,1599,0,0,0,0,0,0,0,0,0,0
1681635293.50032806,86528708,1560,1561,1592,1592,0,0,0,0,0,0,0,0,0,0
1681635293.60028815,86628668,1567,1567,1585,1586,0,0,0,0,0,0,0,0,0,0
1681635293.70024800,86728628,1574,1573,1580,1580,0,0,0,0,0,0,0,0,0,0
1681635293.80020809,86828588,1578,1578,1573,1573,0,0,0,0,0,0,0,0,0,0
1681635293.90016818,86928548,1584,1582,1569,1570,0,0,0,0,0,0,0,0,0,0
1681635294.00012803,87028508,1585,1583,1565,1566,0,0,0,0,0,0,0,0,0,0
1681635294.10008812,87128468,1586,1585,1564,1565,0,0,0,0,0,0,0,0,0,0
1681635294.20004797,87228428,1586,1585,1565,1566,0,0,0,0,0,0,0,0,0,0
1681635294.30000806,87328388,1585,1584,1567,1567,0,0,0,0,0,0,0,0,0,0
1681635294.39996815,87428348,1583,1582,1570,1570,0,0,0,0,0,0,0,0,0,0
1681635294.49992800,87528308,1580,1580,1573,1573,0,0,0,0,0,0,0,0,0,0
1681635294.59988809,87628268,1578,1578,1576,1576,0,0,0,0,0,0,0,0,0,0
1681635294.69984818,87728228,1576,1576,1579,1578,0,0,0,0,0,0,0,0,0,0
1681635294.79980803,87828188,1574,1575,1582,1581,0,0,0,0,0,0,0,0,0,0
1681635294.90060115,87928981,1573,1573,1583,1583,0,0,0,0,0,0,0,0,0,0
1681635295.00056100,88028941,1571,1572,1583,1583,0,0,0,0,0,0,0,0,0,0
1681635295.10052109,88128901,1572,1573,1584,1584,0,0,0,0,0,0,0,0,0,0
1681635295.20048118,88228861,1572,1574,1583,1583,0,0,0,0,0,0,0,0,0,0
1681635295.30044103,88328821,1573,1574,1582,1582,0,0,0,0,0,0,0,0,0,0
1681635295.40040112,88428781,1575,1575,1582,1582,0,0,0,0,0,0,0,0,0,0
1681635295.50036097,88528741,1577,1577,1581,1581,0,0,0,0,0,0,0,0,0,0
1681635295.60032105,88628701,1578,1578,1579,1579,0,0,0,0,0,0,0,0,0,0
1681635295.70028114,88728661,1579,1579,1578,1578,0,0,0,0,0,0,0,0,0,0
1681635295.80024099,88828621,1579,1580,1577,1577,0,0,0,0,0,0,0,0,0,0
1681635295.90020108,88928581,1580,1580,1576,1577,0,0,0,0,0,0,0,0,0,0
1681635296.00016117,89028541,1581,1581,1576,1577,0,0,0,0,0,0,0,0,0,0
1681635296.10012102,89128501,1582,1581,1577,1577,0,0,0,0,0,0,0,0,0,0
1681635296.20008111,89228461,1581,1581,1577,1577,0,0,0,0,0,0,0,0,0,0
1681635296.30004120,89328421,1580,1580,1577,1577,0,0,0,0,0,0,0,0,0,0
1681635296.40000105,89428381,1581,1581,1579,1579,0,0,0,0,0,0,0,0,0,0
1681635296.49996114,89528341,1581,1581,1580,1579,0,0,0,0,0,0,0,0,0,0
1681635296.59992099,89628301,1580,1580,1580,1580,0,0,0,0,0,0,0,0,0,0
1681635296.69988108,89728261,1580,1581,1581,1581,0,0,0,0,0,0,0,0,0,0
1681635296.79984117,89828221,1580,1579,1581,1581,0,0,0,0,0,0,0,0,0,0
1681635296.89980102,89928181,1580,1580,1582,1581,0,0,0,0,0,0,0,0,0,0
1681635297.00059414,90028974,1579,1579,1581,1582,0,0,0,0,0,0,0,0,0,0
1681635297.10055399,90128934,1580,1580,1582,1583,0,0,0,0,0,0,0,0,0,0
1681635297.20051408,90228894,1580,1580,1582,1582,0,0,0,0,0,0,0,0,0,0
1681635297.30047417,90328854,1580,1580,1582,1581,0,0,0,0,0,0,0,0,0,0
1681635297.40043402,90428814,1580,1580,1581,1581,0,0,0,0,0,0,0,0,0,0
1681635297.50039411,90528774,1580,1581,1586,1573,0,0,0,0,0,0,0,0,0,0
1681635297.60035419,90628734,1581,1582,1586,1573,0,0,0,0,0,0,0,0,0,0
1681635297.70031404,90728694,1578,1579,1580,1574,0,0,0,0,0,0,0,0,0,0
1681635297.80027413,90828654,1575,1576,1573,1576,0,0,0,0,0,0,0,0,0,0
1681635297.90023398,90928614,1571,1571,1568,1574,0,0,0,0,0,0,0,0,0,0
1681635298.00019407,91028574,1569,1568,1565,1572,0,0,0,0,0,0,0,0,0,0
1681635298.10015416,91128534,1568,1566,1564,1569,0,0,0,0,0,0,0,0,0,0
1681635298.20011401,91228494,1568,1567,1566,1568,0,0,0,0,0,0,0,0,0,0
1681635298.30007410,91328454,1567,1567,1566,1566,0,0,0,0,0,0,0,0,0,0
1681635298.40003419,91428414,1566,1566,1566,1564,0,0,0,0,0,0,0,0,0,0
1681635298.49999404,91528374,1565,1566,1567,1564,0,0,0,0,0,0,0,0,0,0
1681635298.59995413,91628334,1565,1566,1567,1564,0,0,0,0,0,0,0,0,0,0
1681635298.69991398,91728294,1564,1565,1565,1564,0,0,0,0,0,0,0,0,0,0
1681635298.79987407,91828254,1565,1565,1565,1565,0,0,0,0,0,0,0,0,0,0
1681635298.89983416,91928214,1563,1562,1563,1563,0,0,0,0,0,0,0,0,0,0
1681635298.99979401,92028174,1563,1563,1563,1564,0,0,0,0,0,0,0,0,0,0
1681635299.10058713,92128967,1562,1562,1562,1562,0,0,0,0,0,0,0,0,0,0
1681635299.20054698,92228927,1561,1561,1562,1561,0,0,0,0,0,0,0,0,0,0
1681635299.30050707,92328887,1561,1560,1561,1560,0,0,0,0,0,0,0,0,0,0
1681635299.40046716,92428847,1560,1560,1561,1560,0,0,0,0,0,0,0,0,0,0
1681635299.50042701,92528807,1558,1559,1559,1559,0,0,0,0,0,0,0,0,0,0
1681635299.60038710,92628767,1557,1557,1558,1557,0,0,0,0,0,0,0,0,0,0
1681635299.70034719,92728727,1558,1558,1559,1558,0,0,0,0,0,0,0,0,0,0
1681635299.80030704,92828687,1557,1557,1558,1557,0,0,0,0,0,0,0,0,0,0
1681635299.90026712,92928647,1557,1557,1557,1556,0,0,0,0,0,0,0,0,0,0
1681635300.00022697,93028607,1558,1558,1558,1556,0,0,0,0,0,0,0,0,0,0
1681635300.10018706,93128567,1557,1557,1558,1556,0,0,0,0,0,0,0,0,0,0
1681635300.20014715,93228527,1558,1559,1560,1557,0,0,0,0,0,0,0,0,0,0
1681635300.30010700,93328487,1559,1559,1558,1559,0,0,0,0,0,0,0,0,0,0
1681635300.40006709,93428447,1557,1556,1555,1558,0,0,0,0,0,0,0,0,0,0
1681635300.50002718,93528407,1558,1557,1555,1561,0,0,0,0,0,0,0,0,0,0
1681635300.59998703,93628367,1556,1557,1554,1560,0,0,0,0,0,0,0,0,0,0
1681635300.69994712,93728327,1554,1554,1552,1557,0,0,0,0,0,0,0,0,0,0
1681635300.79990697,93828287,1549,1549,1549,1551,0,0,0,0,0,0,0,0,0,0
1681635300.89986706,93928247,1544,1544,1545,1545,0,0,0,0,0,0,0,0,0,0
1681635300.99982715,94028207,1536,1537,1539,1537,0,0,0,0,0,0,0,0,0,0
1681635301.09978700,94128167,1529,1530,1532,1530,0,0,0,0,0,0,0,0,0,0
1681635301.20058012,94228960,1523,1522,1525,1524,0,0,0,0,0,0,0,0,0,0
1681635301.30053997,94328920,1521,1521,1521,1523,0,0,0,0,0,0,0,0,0,0
1681635301.40050006,94428880,1520,1520,1519,1521,0,0,0,0,0,0,0,0,0,0
1681635301.50046015,94528840,1522,1522,1520,1523,0,0,0,0,0,0,0,0,0,0
1681635301.60042000,94628800,1525,1525,1522,1524,0,0,0,0,0,0,0,0,0,0
1681635301.70038009,94728760,1529,1529,1526,1527,0,0,0,0,0,0,0,0,0,0
1681635301.80034018,94828720,1533,1533,1530,1530,0,0,0,0,0,0,0,0,0,0
1681635301.90030003,94928680,1537,1537,1534,1533,0,0,0,0,0,0,0,0,0,0
1681635302.00026011,95028640,1540,1541,1538,1537,0,0,0,0,0,0,0,0,0,0
1681635302.10021996,95128600,1542,1542,1541,1539,0,0,0,0,0,0,0,0,0,0
1681635302.20018005,95228560,1544,1544,1543,1542,0,0,0,0,0,0,0,0,0,0
1681635302.30014014,95328520,1545,1544,1544,1544,0,0,0,0,0,0,0,0,0,0
1681635302.40009999,95428480,1544,1544,1545,1544,0,0,0,0,0,0,0,0,0,0
1681635302.50006008,95528440,1545,1545,1547,1546,0,0,0,0,0,0,0,0,0,0
1681635302.60002017,95628400,1545,1546,1548,1548,0,0,0,0,0,0,0,0,0,0
1681635302.69998002,95728360,1546,1546,1548,1548,0,0,0,0,0,0,0,0,0,0
1681635302.79994011,95828320,1545,1545,1547,1547,0,0,0,0,0,0,0,0,0,0
1681635302.89990020,95928280,1545,1545,1547,1548,0,0,0,0,0,0,0,0,0,0
1681635302.99986005,96028240,1545,1545,1547,1547,0,0,0,0,0,0,0,0,0,0
1681635303.09982014,96128200,1546,1545,1546,1547,0,0,0,0,0,0,0,0,0,0
1681635303.19977999,96228160,1545,1545,1546,1545,0,0,0,0,0,0,0,0,0,0
1681635303.30057311,96328953,1545,1545,1545,1545,0,0,0,0,0,0,0,0,0,0
1681635303.40053320,96428913,1545,1546,1545,1545,0,0,0,0,0,0,0,0,0,0
1681635303.50049305,96528873,1545,1545,1544,1544,0,0,0,0,0,0,0,0,0,0
1681635303.60045314,96628833,1545,1545,1544,1544,0,0,0,0,0,0,0,0,0,0
1681635303.70041299,96728793,1545,1544,1544,1544,0,0,0,0,0,0,0,0,0,0
1681635303.80037308,96828753,1544,1544,1544,1543,0,0,0,0,0,0,0,0,0,0
1681635303.90033317,96928713,1545,1545,1545,1544,0,0,0,0,0,0,0,0,0,0
1681635304.00029302,97028673,1545,1545,1544,1544,0,0,0,0,0,0,0,0,0,0
1681635304.10025311,97128633,1545,1546,1545,1545,0,0,0,0,0,0,0,0,0,0
1681635304.20021319,97228593,1545,1545,1545,1545,0,0,0,0,0,0,0,0,0,0
1681635304.30017304,97328553,1544,1544,1544,1543,0,0,0,0,0,0,0,0,0,0
1681635304.40013313,97428513,1543,1543,1544,1543,0,0,0,0,0,0,0,0,0,0
1681635304.50009298,97528473,1543,1543,1543,1543,0,0,0,0,0,0,0,0,0,0
1681635304.60005307,97628433,1543,1544,1544,1544,0,0,0,0,0,0,0,0,0,0
1681635304.70001316,97728393,1544,1544,1544,1545,0,0,0,0,0,0,0,0,0,0
1681635304.79997301,97828353,1544,1544,1544,1544,0,0,0,0,0,0,0,0,0,0
1681635304.89993310,97928313,1545,1545,1545,1544,0,0,0,0,0,0,0,0,0,0
1681635304.99989319,98028273,1545,1544,1545,1544,0,0,0,0,0,0,0,0,0,0
1681635305.09985304,98128233,1544,1544,1544,1544,0,0,0,0,0,0,0,0,0,0
1681635305.19981313,98228193,1544,1544,1544,1544,0,0,0,0,0,0,0,0,0,0
1681635305.30060601,98328986,1543,1543,1543,1543,0,0,0,0,0,0,0,0,0,0
1681635305.40056610,98428946,1544,1545,1544,1544,0,0,0,0,0,0,0,0,0,0
1681635305.50052619,98528906,1545,1545,1544,1545,0,0,0,0,0,0,0,0,0,0
1681635305.60048604,98628866,1545,1545,1544,1544,0,0,0,0,0,0,0,0,0,0
1681635305.70044613,98728826,1544,1544,1544,1543,0,0,0,0,0,0,0,0,0,0
1681635305.80040598,98828786,1544,1544,1544,1544,0,0,0,0,0,0,0,0,0,0
1681635305.90036607,98928746,1544,1544,1544,1544,0,0,0,0,0,0,0,0,0,0
1681635306.00032616,99028706,1544,1544,1544,1544,0,0,0,0,0,0,0,0,0,0
1681635306.10028601,99128666,1545,1545,1545,1545,0,0,0,0,0,0,0,0,0,0
1681635306.20024610,99228626,1544,1544,1544,1544,0,0,0,0,0,0,0,0,0,0
1681635306.30020618,99328586,1544,1544,1544,1544,0,0,0,0,0,0,0,0,0,0
1681635306.40016603,99428546,1544,1544,1544,1544,0,0,0,0,0,0,0,0,0,0
1681635306.50012612,99528506,1544,1544,1545,1544,0,0,0,0,0,0,0,0,0,0
1681635306.60008597,99628466,1544,1545,1545,1544,0,0,0,0,0,0,0,0,0,0
1681635306.70004606,99728426,1544,1543,1543,1544,0,0,0,0,0,0,0,0,0,0
1681635306.80000615,99828386,1543,1544,1544,1544,0,0,0,0,0,0,0,0,0,0
1681635306.89996600,99928346,1543,1543,1543,1544,0,0,0,0,0,0,0,0,0,0
1681635306.99992609,100028306,1544,1544,1544,1544,0,0,0,0,0,0,0,0,0,0
1681635307.09988618,100128266,1545,1545,1545,1545,0,0,0,0,0,0,0,0,0,0
1681635307.19984603,100228226,1544,1544,1544,1544,0,0,0,0,0,0,0,0,0,0
1681635307.29980612,100328186,1545,1544,1544,1544,0,0,0,0,0,0,0,0,0,0
1681635307.40059900,100428979,1545,1545,1545,1545,0,0,0,0,0,0,0,0,0,0
1681635307.50055909,100528939,1544,1545,1544,1544,0,0,0,0,0,0,0,0,0,0
1681635307.60051918,100628899,1544,1545,1545,1544,0,0,0,0,0,0,0,0,0,0
1681635307.70047903,100728859,1546,1546,1546,1546,0,0,0,0,0,0,0,0,0,0
1681635307.80043912,100828819,1546,1546,1545,1546,0,0,0,0,0,0,0,0,0,0
1681635307.90039897,100928779,1544,1544,1544,1544,0,0,0,0,0,0,0,0,0,0
1681635308.00035906,101028739,1545,1544,1545,1545,0,0,0,0,0,0,0,0,0,0
1681635308.10031915,101128699,1545,1544,1544,1545,0,0,0,0,0,0,0,0,0,0
1681635308.20027900,101228659,1544,1545,1545,1545,0,0,0,0,0,0,0,0,0,0
1681635308.30023909,101328619,1545,1545,1545,1545,0,0,0,0,0,0,0,0,0,0
1681635308.40019917,101428579,1544,1544,1544,1544,0,0,0,0,0,0,0,0,0,0
1681635308.50015903,101528539,1544,1544,1544,1544,0,0,0,0,0,0,0,0,0,0
1681635308.60011911,101628499,1544,1544,1545,1544,0,0,0,0,0,0,0,0,0,0
1681635308.70007896,101728459,1544,1544,1544,1545,0,0,0,0,0,0,0,0,0,0
1681635308.80003905,101828419,1543,1544,1544,1544,0,0,0,0,0,0,0,0,0,0
1681635308.89999914,101928379,1544,1544,1544,1545,0,0,0,0,0,0,0,0,0,0
1681635308.99995899,102028339,1545,1545,1545,1545,0,0,0,0,0,0,0,0,0,0
1681635309.09991908,102128299,1544,1544,1544,1544,0,0,0,0,0,0,0,0,0,0
1681635309.19987917,102228259,1544,1544,1544,1544,0,0,0,0,0,0,0,0,0,0
1681635309.29983902,102328219,1545,1544,1544,1544,0,0,0,0,0,0,0,0,0,0
1681635309.39979911,102428179,1544,1544,1544,1544,0,0,0,0,0,0,0,0,0,0
1681635309.50059199,102528972,1545,1545,1545,1545,0,0,0,0,0,0,0,0,0,0
1681635309.60055208,102628932,1544,1545,1544,1544,0,0,0,0,0,0,0,0,0,0
1681635309.70051217,102728892,1545,1545,1545,1545,0,0,0,0,0,0,0,0,0,0
1681635309.80047202,102828852,1543,1544,1544,1543,0,0,0,0,0,0,0,0,0,0
1681635309.90043211,102928812,1544,1544,1544,1544,0,0,0,0,0,0,0,0,0,0
1681635310.00039220,103028772,1544,1544,1544,1544,0,0,0,0,0,0,0,0,0,0
1681635310.10035205,103128732,1544,1544,1544,1544,0,0,0,0,0,0,0,0,0,0
1681635310.20031214,103228692,1544,1544,1544,1544,0,0,0,0,0,0,0,0,0,0
1681635310.30027199,103328652,1544,1544,1544,1544,0,0,0,0,0,0,0,0,0,0
1681635310.40023208,103428612,1544,1545,1544,1544,0,0,0,0,0,0,0,0,0,0
1681635310.50019217,103528572,1545,1544,1544,1545,0,0,0,0,0,0,0,0,0,0
1681635310.60015202,103628532,1543,1544,1544,1543,0,0,0,0,0,0,0,0,0,0
1681635310.70011210,103728492,1544,1544,1544,1544,0,0,0,0,0,0,0,0,0,0
1681635310.80007219,103828452,1543,1543,1543,1543,0,0,0,0,0,0,0,0,0,0
1681635310.90003204,103928412,1544,1544,1544,1544,0,0,0,0,0,0,0,0,0,0
1681635310.99999213,104028372,1514,1513,1521,1513,0,0,0,0,0,0,0,0,0,0
1681635311.09995198,104128332,1331,1330,1386,1329,0,0,0,0,0,0,0,0,0,0
1681635311.19991207,104228292,1242,1242,1329,1240,0,0,0,0,0,0,0,0,0,0
1681635311.29987216,104328252,1216,1215,1312,1214,0,0,0,0,0,0,0,0,0,0
1681635311.39983201,104428212,1195,1194,1299,1193,0,0,0,0,0,0,0,0,0,0
1681635311.49979210,104528172,1152,1150,1274,1150,0,0,0,0,0,0,0,0,0,0
1681635311.60058498,104628965,1152,1150,1232,1150,0,0,0,0,0,0,0,0,0,0
1681635311.70054507,104728925,1152,1150,1232,1150,0,0,0,0,0,0,0,0,0,0
1681635311.80050516,104828885,1152,1151,1231,1150,0,0,0,0,0,0,0,0,0,0
1681635311.90046501,104928845,1175,1150,1202,1175,0,0,0,0,0,0,0,0,0,0
1681635312.00042510,105028805,1166,1150,1213,1167,0,0,0,0,0,0,0,0,0,0
1681635312.10038519,105128765,1162,1150,1218,1163,0,0,0,0,0,0,0,0,0,0
1681635312.20034504,105228725,1161,1150,1219,1162,0,0,0,0,0,0,0,0,0,0
1681635312.30030513,105328685,1162,1150,1218,1163,0,0,0,0,0,0,0,0,0,0
1681635312.40026498,105428645,1162,1150,1217,1164,0,0,0,0,0,0,0,0,0,0
1681635312.50022507,105528605,1163,1150,1216,1165,0,0,0,0,0,0,0,0,0,0
1681635312.60018516,105628565,1163,1150,1216,1166,0,0,0,0,0,0,0,0,0,0
1681635312.70014501,105728525,1150,1150,1230,1154,0,0,0,0,0,0,0,0,0,0
1681635312.80010509,105828485,1152,1150,1228,1156,0,0,0,0,0,0,0,0,0,0
1681635312.90006518,105928445,1152,1150,1228,1156,0,0,0,0,0,0,0,0,0,0
1681635313.00002503,106028405,1153,1150,1227,1157,0,0,0,0,0,0,0,0,0,0
1681635313.09998512,106128365,1153,1150,1227,1157,0,0,0,0,0,0,0,0,0,0
1681635313.19994497,106228325,1000,1000,1000,1000,0,0,0,0,0,0,0,0,0,0
1681635313.29990506,106328285,1000,1000,1000,1000,0,0,0,0,0,0,0,0,0,0
1681635313.39986515,106428245,1000,1000,1000,1000,0,0,0,0,0,0,0,0,0,0
1681635313.49982500,106528205,1000,1000,1000,1000,0,0,0,0,0,0,0,0,0,0
1681635313.59978509,106628165,1000,1000,1000,1000,0,0,0,0,0,0,0,0,0,0
1681635313.70057797,106728958,1000,1000,1000,1000,0,0,0,0,0,0,0,0,0,0
1681635313.80053806,106828918,1000,1000,1000,1000,0,0,0,0,0,0,0,0,0,0
1681635313.90049815,106928878,1000,1000,1000,1000,0,0,0,0,0,0,0,0,0,0
1681635314.00045800,107028838,1000,1000,1000,1000,0,0,0,0,0,0,0,0,0,0
1681635314.10041809,107128798,1000,1000,1000,1000,0,0,0,0,0,0,0,0,0,0
1681635314.20037818,107228758,1000,1000,1000,1000,0,0,0,0,0,0,0,0,0,0
1681635314.30033803,107328718,1000,1000,1000,1000,0,0,0,0,0,0,0,0,0,0
1681635314.40029812,107428678,1000,1000,1000,1000,0,0,0,0,0,0,0,0,0,0
1681635314.50025797,107528638,1000,1000,1000,1000,0,0,0,0,0,0,0,0,0,0
1681635314.60021806,107628598,1000,1000,1000,1000,0,0,0,0,0,0,0,0,0,0
1681635314.70017815,107728558,1000,1000,1000,1000,0,0,0,0,0,0,0,0,0,0
1681635314.80013800,107828518,1000,1000,1000,1000,0,0,0,0,0,0,0,0,0,0
1681635314.90009809,107928478,1000,1000,1000,1000,0,0,0,0,0,0,0,0,0,0
1681635315.00005817,108028438,1000,1000,1000,1000,0,0,0,0,0,0,0,0,0,0
1681635315.10001802,108128398,1000,1000,1000,1000,0,0,0,0,0,0,0,0,0,0
1681635315.19997811,108228358,1000,1000,1000,1000,0,0,0,0,0,0,0,0,0,0
1681635315.29993820,108328318,1000,1000,1000,1000,0,0,0,0,0,0,0,0,0,0
1681635315.39989805,108428278,1000,1000,1000,1000,0,0,0,0,0,0,0,0,0,0
1681635315.49985814,108528238,1000,1000,1000,1000,0,0,0,0,0,0,0,0,0,0
1681635315.59981799,108628198,1000,1000,1000,1000,0,0,0,0,0,0,0,0,0,0
1681635315.69977808,108728158,1000,1000,1000,1000,0,0,0,0,0,0,0,0,0,0
1681635315.80057096,108828951,1000,1000,1000,1000,0,0,0,0,0,0,0,0,0,0
1681635315.90053105,108928911,1000,1000,1000,1000,0,0,0,0,0,0,0,0,0,0
1681635316.00049114,109028871,1000,1000,1000,1000,0,0,0,0,0,0,0,0,0,0
1681635316.10045099,109128831,1000,1000,1000,1000,0,0,0,0,0,0,0,0,0,0
1681635316.20041108,109228791,1000,1000,1000,1000,0,0,0,0,0,0,0,0,0,0
1681635316.30037117,109328751,1000,1000,1000,1000,0,0,0,0,0,0,0,0,0,0
1681635316.40033102,109428711,1000,1000,1000,1000,0,0,0,0,0,0,0,0,0,0
1681635316.50029111,109528671,1000,1000,1000,1000,0,0,0,0,0,0,0,0,0,0
1681635316.60025120,109628631,1000,1000,1000,1000,0,0,0,0,0,0,0,0,0,0
1681635316.70021105,109728591,1000,1000,1000,1000,0,0,0,0,0,0,0,0,0,0
1681635316.80017114,109828551,1000,1000,1000,1000,0,0,0,0,0,0,0,0,0,0
1681635316.90013099,109928511,1000,1000,1000,1000,0,0,0,0,0,0,0,0,0,0
1681635317.00009108,110028471,1000,1000,1000,1000,0,0,0,0,0,0,0,0,0,0
1681635317.10005116,110128431,1000,1000,1000,1000,0,0,0,0,0,0,0,0,0,0
1681635317.20001101,110228391,1000,1000,1000,1000,0,0,0,0,0,0,0,0,0,0
1681635317.29997110,110328351,1000,1000,1000,1000,0,0,0,0,0,0,0,0,0,0
1681635317.39993119,110428311,1000,1000,1000,1000,0,0,0,0,0,0,0,0,0,0
1681635317.49989104,110528271,1000,1000,1000,1000,0,0,0,0,0,0,0,0,0,0
1681635317.59985113,110628231,1000,1000,1000,1000,0,0,0,0,0,0,0,0,0,0
1681635317.69981098,110728191,1000,1000,1000,1000,0,0,0,0,0,0,0,0,0,0
1681635317.80060410,110828984,1000,1000,1000,1000,0,0,0,0,0,0,0,0,0,0
1681635317.90056419,110928944,1000,1000,1000,1000,0,0,0,0,0,0,0,0,0,0
1681635318.00052404,111028904,1000,1000,1000,1000,0,0,0,0,0,0,0,0,0,0
1681635318.10048413,111128864,1000,1000,1000,1000,0,0,0,0,0,0,0,0,0,0
1681635318.20044398,111228824,1000,1000,1000,1000,0,0,0,0,0,0,0,0,0,0
1681635318.30040407,111328784,1000,1000,1000,1000,0,0,0,0,0,0,0,0,0,0
1681635318.40036416,111428744,1000,1000,1000,1000,0,0,0,0,0,0,0,0,0,0
1681635318.50032401,111528704,1000,1000,1000,1000,0,0,0,0,0,0,0,0,0,0
1681635318.60028410,111628664,1000,1000,1000,1000,0,0,0,0,0,0,0,0,0,0
1681635318.70024419,111728624,1000,1000,1000,1000,0,0,0,0,0,0,0,0,0,0
1681635318.80020404,111828584,1000,1000,1000,1000,0,0,0,0,0,0,0,0,0,0
1681635318.90016413,111928544,1000,1000,1000,1000,0,0,0,0,0,0,0,0,0,0
1681635319.00012398,112028504,1000,1000,1000,1000,0,0,0,0,0,0,0,0,0,0
1681635319.10008407,112128464,1000,1000,1000,1000,0,0,0,0,0,0,0,0,0,0
1681635319.20004416,112228424,1000,1000,1000,1000,0,0,0,0,0,0,0,0,0,0
1681635319.30000401,112328384,1000,1000,1000,1000,0,0,0,0,0,0,0,0,0,0
1681635319.39996409,112428344,1000,1000,1000,1000,0,0,0,0,0,0,0,0,0,0
1681635319.49992418,112528304,1000,1000,1000,1000,0,0,0,0,0,0,0,0,0,0
1681635319.59988403,112628264,1000,1000,1000,1000,0,0,0,0,0,0,0,0,0,0
1681635319.69984412,112728224,1000,1000,1000,1000,0,0,0,0,0,0,0,0,0,0
1681635319.79980397,112828184,1000,1000,1000,1000,0,0,0,0,0,0,0,0,0,0
1681635319.90059710,112928977,1000,1000,1000,1000,0,0,0,0,0,0,0,0,0,0
1681635320.00055718,113028937,1000,1000,1000,1000,0,0,0,0,0,0,0,0,0,0
1681635320.10051703,113128897,1000,1000,1000,1000,0,0,0,0,0,0,0,0,0,0
1681635320.20047712,113228857,1000,1000,1000,1000,0,0,0,0,0,0,0,0,0,0
1681635320.30043697,113328817,1000,1000,1000,1000,0,0,0,0,0,0,0,0,0,0
1681635320.40039706,113428777,1000,1000,1000,1000,0,0,0,0,0,0,0,0,0,0
1681635320.50035715,113528737,1000,1000,1000,1000,0,0,0,0,0,0,0,0,0,0
1681635320.60031700,113628697,1000,1000,1000,1000,0,0,0,0,0,0,0,0,0,0
1681635320.70027709,113728657,1000,1000,1000,1000,0,0,0,0,0,0,0,0,0,0
1681635320.80023718,113828617,1000,1000,1000,1000,0,0,0,0,0,0,0,0,0,0
1681635320.90019703,113928577,1000,1000,1000,1000,0,0,0,0,0,0,0,0,0,0
1681635321.00015712,114028537,1000,1000,1000,1000,0,0,0,0,0,0,0,0,0,0
1681635321.10011697,114128497,1000,1000,1000,1000,0,0,0,0,0,0,0,0,0,0
1681635321.20007706,114228457,1000,1000,1000,1000,0,0,0,0,0,0,0,0,0,0
1681635321.30003715,114328417,1000,1000,1000,1000,0,0,0,0,0,0,0,0,0,0
1681635321.39999700,114428377,1000,1000,1000,1000,0,0,0,0,0,0,0,0,0,0
1681635321.49995708,114528337,1000,1000,1000,1000,0,0,0,0,0,0,0,0,0,0
1681635321.59991717,114628297,1000,1000,1000,1000,0,0,0,0,0,0,0,0,0,0
1681635321.69987702,114728257,1000,1000,1000,1000,0,0,0,0,0,0,0,0,0,0
1681635321.79983711,114828217,1000,1000,1000,1000,0,0,0,0,0,0,0,0,0,0
1681635321.89979720,114928177,1000,1000,1000,1000,0,0,0,0,0,0,0,0,0,0
1681635322.00059009,115028970,1000,1000,1000,1000,0,0,0,0,0,0,0,0,0,0
1681635322.10055017,115128930,1000,1000,1000,1000,0,0,0,0,0,0,0,0,0,0
1681635322.20051003,115228890,1000,1000,1000,1000,0,0,0,0,0,0,0,0,0,0
1681635322.30047011,115328850,1000,1000,1000,1000,0,0,0,0,0,0,0,0,0,0
1681635322.40042996,115428810,1000,1000,1000,1000,0,0,0,0,0,0,0,0,0,0
1681635322.50039005,115528770,1000,1000,1000,1000,0,0,0,0,0,0,0,0,0,0
1681635322.60035014,115628730,1000,1000,1000,1000,0,0,0,0,0,0,0,0,0,0
1681635322.70030999,115728690,1000,1000,1000,1000,0,0,0,0,0,0,0,0,0,0
1681635322.80027008,115828650,1000,1000,1000,1000,0,0,0,0,0,0,0,0,0,0
1681635322.90023017,115928610,1000,1000,1000,1000,0,0,0,0,0,0,0,0,0,0
1681635323.00019002,116028570,1000,1000,1000,1000,0,0,0,0,0,0,0,0,0,0
1681635323.10015011,116128530,1000,1000,1000,1000,0,0,0,0,0,0,0,0,0,0
1681635323.20011020,116228490,1000,1000,1000,1000,0,0,0,0,0,0,0,0,0,0
1681635323.30007005,116328450,1000,1000,1000,1000,0,0,0,0,0,0,0,0,0,0
1681635323.40003014,116428410,1000,1000,1000,1000,0,0,0,0,0,0,0,0,0,0
1681635323.49998999,116528370,1000,1000,1000,1000,0,0,0,0,0,0,0,0,0,0
1681635323.59995008,116628330,1000,1000,1000,1000,0,0,0,0,0,0,0,0,0,0
1681635323.69991016,116728290,1000,1000,1000,1000,0,0,0,0,0,0,0,0,0,0
1681635323.79987001,116828250,1000,1000,1000,1000,0,0,0,0,0,0,0,0,0,0
1681635323.89983010,116928210,1000,1000,1000,1000,0,0,0,0,0,0,0,0,0,0
1681635323.99979019,117028170,1000,1000,1000,1000,0,0,0,0,0,0,0,0,0,0
1681635324.10058308,117128963,1000,1000,1000,1000,0,0,0,0,0,0,0,0,0,0
1681635324.20054317,117228923,1000,1000,1000,1000,0,0,0,0,0,0,0,0,0,0
1681635324.30050302,117328883,1000,1000,1000,1000,0,0,0,0,0,0,0,0,0,0
1681635324.40046310,117428843,1000,1000,1000,1000,0,0,0,0,0,0,0,0,0,0
1681635324.50042319,117528803,1000,1000,1000,1000,0,0,0,0,0,0,0,0,0,0
1681635324.60038304,117628763,1000,1000,1000,1000,0,0,0,0,0,0,0,0,0,0
1681635324.70034313,117728723,1000,1000,1000,1000,0,0,0,0,0,0,0,0,0,0
1681635324.80030298,117828683,1000,1000,1000,1000,0,0,0,0,0,0,0,0,0,0
1681635324.90026307,117928643,1000,1000,1000,1000,0,0,0,0,0,0,0,0,0,0
1681635325.00022316,118028603,1000,1000,1000,1000,0,0,0,0,0,0,0,0,0,0
1681635325.10018301,118128563,1000,1000,1000,1000,0,0,0,0,0,0,0,0,0,0
1681635325.20014310,118228523,1000,1000,1000,1000,0,0,0,0,0,0,0,0,0,0
1681635325.30010319,118328483,1000,1000,1000,1000,0,0,0,0,0,0,0,0,0,0
1681635325.40006304,118428443,1000,1000,1000,1000,0,0,0,0,0,0,0,0,0,0
1681635325.50002313,118528403,1000,1000,1000,1000,0,0,0,0,0,0,0,0,0,0
1681635325.59998298,118628363,1000,1000,1000,1000,0,0,0,0,0,0,0,0,0,0
1681635325.69994307,118728323,1000,1000,1000,1000,0,0,0,0,0,0,0,0,0,0
1681635325.79990315,118828283,1000,1000,1000,1000,0,0,0,0,0,0,0,0,0,0
1681635325.89986300,118928243,1000,1000,1000,1000,0,0,0,0,0,0,0,0,0,0
1681635325.99982309,119028203,1000,1000,1000,1000,0,0,0,0,0,0,0,0,0,0
1681635326.09978318,119128163,1000,1000,1000,1000,0,0,0,0,0,0,0,0,0,0
1681635326.20057607,119228956,1000,1000,1000,1000,0,0,0,0,0,0,0,0,0,0
1681635326.30053616,119328916,1000,1000,1000,1000,0,0,0,0,0,0,0,0,0,0
1681635326.40049601,119428876,1000,1000,1000,1000,0,0,0,0,0,0,0,0,0,0
1681635326.50045609,119528836,1000,1000,1000,1000,0,0,0,0,0,0,0,0,0,0
1681635326.60041618,119628796,1000,1000,1000,1000,0,0,0,0,0,0,0,0,0,0
1681635326.70037603,119728756,1000,1000,1000,1000,0,0,0,0,0,0,0,0,0,0
1681635326.80033612,119828716,1000,1000,1000,1000,0,0,0,0,0,0,0,0,0,0
1681635326.90029597,119928676,1000,1000,1000,1000,0,0,0,0,0,0,0,0,0,0
1681635327.00025606,120028636,1000,1000,1000,1000,0,0,0,0,0,0,0,0,0,0
1681635327.10021615,120128596,1000,1000,1000,1000,0,0,0,0,0,0,0,0,0,0
1681635327.20017600,120228556,1000,1000,1000,1000,0,0,0,0,0,0,0,0,0,0
1681635327.30013609,120328516,1000,1000,1000,1000,0,0,0,0,0,0,0,0,0,0
1681635327.40009618,120428476,1000,1000,1000,1000,0,0,0,0,0,0,0,0,0,0
1681635327.50005603,120528436,1000,1000,1000,1000,0,0,0,0,0,0,0,0,0,0
1681635327.60001612,120628396,1000,1000,1000,1000,0,0,0,0,0,0,0,0,0,0
1681635327.69997597,120728356,1000,1000,1000,1000,0,0,0,0,0,0,0,0,0,0
1681635327.79993606,120828316,1000,1000,1000,1000,0,0,0,0,0,0,0,0,0,0
1681635327.89989614,120928276,1000,1000,1000,1000,0,0,0,0,0,0,0,0,0,0
1681635327.99985600,121028236,1000,1000,1000,1000,0,0,0,0,0,0,0,0,0,0
1681635328.09981608,121128196,1000,1000,1000,1000,0,0,0,0,0,0,0,0,0,0
