timestamp,TimeUS,C1,C2,C3,C4,C5,C6,C7,C8,C9,C10,C11,C12,C13,C14
1681114524.79999995,71428917,1000,1000,1000,1000,0,0,0,0,0,0,0,0,0,0
1681114524.89996004,71528877,1000,1000,1000,1000,0,0,0,0,0,0,0,0,0,0
1681114524.99992013,71628837,1000,1000,1000,1000,0,0,0,0,0,0,0,0,0,0
1681114525.09987998,71728797,1000,1000,1000,1000,0,0,0,0,0,0,0,0,0,0
1681114525.19984007,71828757,1000,1000,1000,1000,0,0,0,0,0,0,0,0,0,0
1681114525.29979992,71928717,1000,1000,1000,1000,0,0,0,0,0,0,0,0,0,0
1681114525.39976001,72028677,1000,1000,1000,1000,0,0,0,0,0,0,0,0,0,0
1681114525.49972010,72128637,1000,1000,1000,1000,0,0,0,0,0,0,0,0,0,0
1681114525.59967995,72228597,1000,1000,1000,1000,0,0,0,0,0,0,0,0,0,0
1681114525.69964004,72328557,1000,1000,1000,1000,0,0,0,0,0,0,0,0,0,0
1681114525.79960012,72428517,1000,1000,1000,1000,0,0,0,0,0,0,0,0,0,0
1681114525.89955997,72528477,1000,1000,1000,1000,0,0,0,0,0,0,0,0,0,0
1681114525.99952006,72628437,1000,1000,1000,1000,0,0,0,0,0,0,0,0,0,0
1681114526.09947991,72728397,1000,1000,1000,1000,0,0,0,0,0,0,0,0,0,0
1681114526.19944000,72828357,1000,1000,1000,1000,0,0,0,0,0,0,0,0,0,0
1681114526.29940009,72928317,1000,1000,1000,1000,0,0,0,0,0,0,0,0,0,0
1681114526.39935994,73028277,1000,1000,1000,1000,0,0,0,0,0,0,0,0,0,0
1681114526.49932003,73128237,1000,1000,1000,1000,0,0,0,0,0,0,0,0,0,0
1681114526.59928012,73228197,1000,1000,1000,1000,0,0,0,0,0,0,0,0,0,0
1681114526.69923997,73328157,1000,1000,1000,1000,0,0,0,0,0,0,0,0,0,0
1681114526.80003309,73428950,1006,1006,1006,1006,0,0,0,0,0,0,0,0,0,0
1681114526.89999294,73528910,1036,1036,1036,1036,0,0,0,0,0,0,0,0,0,0
1681114526.99995303,73628870,1066,1066,1066,1066,0,0,0,0,0,0,0,0,0,0
1681114527.09991312,73728830,1096,1096,1096,1096,0,0,0,0,0,0,0,0,0,0
1681114527.19987297,73828790,1125,1125,1125,1125,0,0,0,0,0,0,0,0,0,0
1681114527.29983306,73928750,1209,1198,1199,1210,0,0,0,0,0,0,0,0,0,0
1681114527.39979291,74028710,1440,1433,1433,1441,0,0,0,0,0,0,0,0,0,0
1681114527.49975300,74128670,1611,1605,1605,1612,0,0,0,0,0,0,0,0,0,0
1681114527.59971309,74228630,1754,1748,1748,1754,0,0,0,0,0,0,0,0,0,0
1681114527.69967294,74328590,1874,1868,1868,1875,0,0,0,0,0,0,0,0,0,0
1681114527.79963303,74428550,1872,1866,1867,1872,0,0,0,0,0,0,0,0,0,0
1681114527.89959311,74528510,1777,1776,1776,1778,0,0,0,0,0,0,0,0,0,0
1681114527.99955297,74628470,1663,1664,1665,1663,0,0,0,0,0,0,0,0,0,0
1681114528.09951305,74728430,1618,1620,1620,1618,0,0,0,0,0,0,0,0,0,0
1681114528.19947290,74828390,1621,1624,1624,1621,0,0,0,0,0,0,0,0,0,0
1681114528.29943299,74928350,1628,1628,1624,1632,0,0,0,0,0,0,0,0,0,0
1681114528.39939308,75028310,1629,1632,1626,1636,0,0,0,0,0,0,0,0,0,0
1681114528.49935293,75128270,1626,1628,1625,1629,0,0,0,0,0,0,0,0,0,0
1681114528.59931302,75228230,1623,1623,1624,1622,0,0,0,0,0,0,0,0,0,0
1681114528.69927311,75328190,1620,1619,1622,1616,0,0,0,0,0,0,0,0,0,0
1681114528.80006599,75428983,1619,1618,1622,1615,0,0,0,0,0,0,0,0,0,0
1681114528.90002608,75528943,1620,1619,1622,1617,0,0,0,0,0,0,0,0,0,0
1681114528.99998593,75628903,1620,1620,1622,1618,0,0,0,0,0,0,0,0,0,0
1681114529.09994602,75728863,1618,1618,1619,1617,0,0,0,0,0,0,0,0,0,0
1681114529.19990611,75828823,1587,1587,1594,1580,0,0,0,0,0,0,0,0,0,0
1681114529.29986596,75928783,1573,1574,1578,1569,0,0,0,0,0,0,0,0,0,0
1681114529.39982605,76028743,1562,1563,1562,1563,0,0,0,0,0,0,0,0,0,0
1681114529.49978614,76128703,1553,1553,1549,1558,0,0,0,0,0,0,0,0,0,0
1681114529.59974599,76228663,1546,1545,1536,1555,0,0,0,0,0,0,0,0,0,0
1681114529.69970608,76328623,1540,1539,1531,1548,0,0,0,0,0,0,0,0,0,0
1681114529.79966593,76428583,1534,1533,1528,1538,0,0,0,0,0,0,0,0,0,0
1681114529.89962602,76528543,1529,1528,1527,1530,0,0,0,0,0,0,0,0,0,0
1681114529.99958611,76628503,1527,1527,1528,1525,0,0,0,0,0,0,0,0,0,0
1681114530.09954596,76728463,1529,1530,1532,1527,0,0,0,0,0,0,0,0,0,0
1681114530.19950604,76828423,1532,1532,1535,1528,0,0,0,0,0,0,0,0,0,0
1681114530.29946613,76928383,1535,1535,1538,1532,0,0,0,0,0,0,0,0,0,0
1681114530.39942598,77028343,1539,1539,1541,1537,0,0,0,0,0,0,0,0,0,0
1681114530.49938607,77128303,1542,1542,1543,1541,0,0,0,0,0,0,0,0,0,0
1681114530.59934592,77228263,1545,1545,1545,1545,0,0,0,0,0,0,0,0,0,0
1681114530.69930601,77328223,1548,1548,1548,1549,0,0,0,0,0,0,0,0,0,0
1681114530.79926610,77428183,1550,1550,1550,1551,0,0,0,0,0,0,0,0,0,0
1681114530.90005898,77528976,1553,1552,1552,1554,0,0,0,0,0,0,0,0,0,0
1681114531.00001907,77628936,1556,1555,1553,1555,0,0,0,0,0,0,0,0,0,0
1681114531.09997892,77728896,1558,1558,1557,1559,0,0,0,0,0,0,0,0,0,0
1681114531.19993901,77828856,1559,1559,1560,1561,0,0,0,0,0,0,0,0,0,0
1681114531.29989910,77928816,1559,1559,1563,1563,0,0,0,0,0,0,0,0,0,0
1681114531.39985895,78028776,1560,1561,1566,1565,0,0,0,0,0,0,0,0,0,0
1681114531.49981904,78128736,1561,1562,1567,1566,0,0,0,0,0,0,0,0,0,0
1681114531.59977913,78228696,1564,1565,1569,1568,0,0,0,0,0,0,0,0,0,0
1681114531.69973898,78328656,1566,1566,1569,1568,0,0,0,0,0,0,0,0,0,0
1681114531.79969907,78428616,1568,1568,1569,1569,0,0,0,0,0,0,0,0,0,0
1681114531.89965892,78528576,1569,1570,1569,1570,0,0,0,0,0,0,0,0,0,0
1681114531.99961901,78628536,1571,1571,1570,1570,0,0,0,0,0,0,0,0,0,0
1681114532.09957910,78728496,1573,1572,1569,1570,0,0,0,0,0,0,0,0,0,0
1681114532.19953895,78828456,1574,1574,1571,1571,0,0,0,0,0,0,0,0,0,0
1681114532.29949903,78928416,1575,1575,1571,1571,0,0,0,0,0,0,0,0,0,0
1681114532.39945912,79028376,1576,1576,1573,1572,0,0,0,0,0,0,0,0,0,0
1681114532.49941897,79128336,1576,1576,1574,1573,0,0,0,0,0,0,0,0,0,0
1681114532.59937906,79228296,1576,1576,1574,1573,0,0,0,0,0,0,0,0,0,0
1681114532.69933891,79328256,1576,1575,1574,1574,0,0,0,0,0,0,0,0,0,0
1681114532.79929900,79428216,1575,1575,1574,1574,0,0,0,0,0,0,0,0,0,0
1681114532.89925909,79528176,1575,1575,1575,1575,0,0,0,0,0,0,0,0,0,0
1681114533.00005198,79628969,1575,1576,1575,1576,0,0,0,0,0,0,0,0,0,0
1681114533.10001206,79728929,1575,1575,1576,1576,0,0,0,0,0,0,0,0,0,0
1681114533.19997191,79828889,1575,1574,1575,1576,0,0,0,0,0,0,0,0,0,0
1681114533.29993200,79928849,1575,1575,1576,1577,0,0,0,0,0,0,0,0,0,0
1681114533.39989209,80028809,1576,1576,1577,1577,0,0,0,0,0,0,0,0,0,0
1681114533.49985194,80128769,1576,1576,1577,1577,0,0,0,0,0,0,0,0,0,0
1681114533.59981203,80228729,1577,1577,1578,1577,0,0,0,0,0,0,0,0,0,0
1681114533.69977212,80328689,1577,1577,1577,1578,0,0,0,0,0,0,0,0,0,0
1681114533.79973197,80428649,1578,1578,1578,1578,0,0,0,0,0,0,0,0,0,0
1681114533.89969206,80528609,1578,1578,1578,1578,0,0,0,0,0,0,0,0,0,0
1681114533.99965191,80628569,1578,1578,1578,1578,0,0,0,0,0,0,0,0,0,0
1681114534.09961200,80728529,1577,1577,1577,1577,0,0,0,0,0,0,0,0,0,0
1681114534.19957209,80828489,1578,1578,1578,1578,0,0,0,0,0,0,0,0,0,0
1681114534.29953194,80928449,1578,1578,1578,1578,0,0,0,0,0,0,0,0,0,0
1681114534.39949203,81028409,1579,1579,1578,1578,0,0,0,0,0,0,0,0,0,0
1681114534.49945211,81128369,1579,1578,1578,1578,0,0,0,0,0,0,0,0,0,0
1681114534.59941196,81228329,1578,1579,1578,1578,0,0,0,0,0,0,0,0,0,0
1681114534.69937205,81328289,1579,1579,1579,1579,0,0,0,0,0,0,0,0,0,0
1681114534.79933190,81428249,1579,1578,1579,1578,0,0,0,0,0,0,0,0,0,0
1681114534.89929199,81528209,1579,1579,1579,1579,0,0,0,0,0,0,0,0,0,0
1681114534.99925208,81628169,1578,1579,1579,1578,0,0,0,0,0,0,0,0,0,0
1681114535.10004497,81728962,1579,1579,1579,1579,0,0,0,0,0,0,0,0,0,0
1681114535.20000505,81828922,1580,1580,1580,1580,0,0,0,0,0,0,0,0,0,0
1681114535.29996490,81928882,1580,1580,1580,1580,0,0,0,0,0,0,0,0,0,0
1681114535.39992499,82028842,1579,1579,1580,1580,0,0,0,0,0,0,0,0,0,0
1681114535.49988508,82128802,1580,1579,1580,1580,0,0,0,0,0,0,0,0,0,0
1681114535.59984493,82228762,1580,1580,1580,1579,0,0,0,0,0,0,0,0,0,0
1681114535.69980502,82328722,1580,1580,1580,1580,0,0,0,0,0,0,0,0,0,0
1681114535.79976511,82428682,1580,1580,1580,1580,0,0,0,0,0,0,0,0,0,0
1681114535.89972496,82528642,1580,1580,1580,1580,0,0,0,0,0,0,0,0,0,0
1681114535.99968505,82628602,1580,1580,1580,1580,0,0,0,0,0,0,0,0,0,0
1681114536.09964514,82728562,1580,1580,1581,1580,0,0,0,0,0,0,0,0,0,0
1681114536.19960499,82828522,1580,1580,1580,1580,0,0,0,0,0,0,0,0,0,0
1681114536.29956508,82928482,1580,1580,1580,1580,0,0,0,0,0,0,0,0,0,0
1681114536.39952493,83028442,1581,1581,1581,1581,0,0,0,0,0,0,0,0,0,0
1681114536.49948502,83128402,1581,1582,1581,1582,0,0,0,0,0,0,0,0,0,0
1681114536.59944510,83228362,1580,1580,1580,1580,0,0,0,0,0,0,0,0,0,0
1681114536.69940495,83328322,1581,1581,1581,1581,0,0,0,0,0,0,0,0,0,0
1681114536.79936504,83428282,1581,1581,1581,1581,0,0,0,0,0,0,0,0,0,0
1681114536.89932513,83528242,1580,1580,1580,1580,0,0,0,0,0,0,0,0,0,0
1681114536.99928498,83628202,1580,1580,1580,1580,0,0,0,0,0,0,0,0,0,0
1681114537.09924507,83728162,1580,1581,1581,1580,0,0,0,0,0,0,0,0,0,0
1681114537.20003796,83828955,1581,1581,1586,1575,0,0,0,0,0,0,0,0,0,0
1681114537.29999804,83928915,1580,1583,1587,1573,0,0,0,0,0,0,0,0,0,0
1681114537.39995813,84028875,1579,1582,1580,1573,0,0,0,0,0,0,0,0,0,0
1681114537.49991798,84128835,1577,1580,1570,1572,0,0,0,0,0,0,0,0,0,0
1681114537.59987807,84228795,1576,1578,1562,1569,0,0,0,0,0,0,0,0,0,0
1681114537.69983792,84328755,1577,1578,1558,1564,0,0,0,0,0,0,0,0,0,0
1681114537.79979801,84428715,1578,1578,1555,1560,0,0,0,0,0,0,0,0,0,0
1681114537.89975810,84528675,1579,1578,1555,1556,0,0,0,0,0,0,0,0,0,0
1681114537.99971795,84628635,1580,1578,1556,1554,0,0,0,0,0,0,0,0,0,0
1681114538.09967804,84728595,1579,1578,1556,1553,0,0,0,0,0,0,0,0,0,0
1681114538.19963813,84828555,1579,1579,1557,1554,0,0,0,0,0,0,0,0,0,0
1681114538.29959798,84928515,1577,1578,1555,1554,0,0,0,0,0,0,0,0,0,0
1681114538.39955807,85028475,1576,1577,1554,1554,0,0,0,0,0,0,0,0,0,0
1681114538.49951792,85128435,1575,1577,1553,1553,0,0,0,0,0,0,0,0,0,0
1681114538.59947801,85228395,1576,1577,1552,1552,0,0,0,0,0,0,0,0,0,0
1681114538.69943810,85328355,1576,1577,1550,1550,0,0,0,0,0,0,0,0,0,0
1681114538.79939795,85428315,1578,1580,1549,1548,0,0,0,0,0,0,0,0,0,0
1681114538.89935803,85528275,1581,1582,1547,1547,0,0,0,0,0,0,0,0,0,0
1681114538.99931812,85628235,1583,1584,1544,1543,0,0,0,0,0,0,0,0,0,0
1681114539.09927797,85728195,1587,1587,1541,1541,0,0,0,0,0,0,0,0,0,0
1681114539.19923806,85828155,1589,1590,1537,1537,0,0,0,0,0,0,0,0,0,0
1681114539.30003095,85928948,1592,1592,1536,1536,0,0,0,0,0,0,0,0,0,0
1681114539.39999104,86028908,1594,1594,1535,1535,0,0,0,0,0,0,0,0,0,0
1681114539.49995112,86128868,1595,1595,1535,1536,0,0,0,0,0,0,0,0,0,0
1681114539.59991097,86228828,1595,1595,1536,1538,0,0,0,0,0,0,0,0,0,0
1681114539.69987106,86328788,1593,1592,1538,1541,0,0,0,0,0,0,0,0,0,0
1681114539.79983091,86428748,1590,1589,1543,1546,0,0,0,0,0,0,0,0,0,0
1681114539.89979100,86528708,1584,1582,1551,1554,0,0,0,0,0,0,0,0,0,0
1681114539.99975109,86628668,1576,1572,1560,1563,0,0,0,0,0,0,0,0,0,0
1681114540.09971094,86728628,1566,1562,1571,1574,0,0,0,0,0,0,0,0,0,0
1681114540.19967103,86828588,1554,1551,1584,1585,0,0,0,0,0,0,0,0,0,0
1681114540.29963112,86928548,1544,1541,1597,1597,0,0,0,0,0,0,0,0,0,0
1681114540.39959097,87028508,1535,1534,1607,1605,0,0,0,0,0,0,0,0,0,0
1681114540.49955106,87128468,1530,1531,1614,1612,0,0,0,0,0,0,0,0,0,0
1681114540.59951091,87228428,1528,1530,1616,1614,0,0,0,0,0,0,0,0,0,0
1681114540.69947100,87328388,1530,1532,1614,1614,0,0,0,0,0,0,0,0,0,0
1681114540.79943109,87428348,1536,1538,1610,1610,0,0,0,0,0,0,0,0,0,0
1681114540.89939094,87528308,1543,1545,1604,1604,0,0,0,0,0,0,0,0,0,0
1681114540.99935102,87628268,1552,1553,1597,1598,0,0,0,0,0,0,0,0,0,0
1681114541.09931111,87728228,1561,1561,1589,1589,0,0,0,0,0,0,0,0,0,0
1681114541.19927096,87828188,1570,1570,1583,1582,0,0,0,0,0,0,0,0,0,0
1681114541.30006409,87928981,1576,1576,1576,1574,0,0,0,0,0,0,0,0,0,0
1681114541.40002394,88028941,1582,1581,1571,1570,0,0,0,0,0,0,0,0,0,0
1681114541.49998403,88128901,1586,1585,1567,1567,0,0,0,0,0,0,0,0,0,0
1681114541.59994411,88228861,1588,1586,1566,1566,0,0,0,0,0,0,0,0,0,0
1681114541.69990396,88328821,1588,1587,1567,1567,0,0,0,0,0,0,0,0,0,0
1681114541.79986405,88428781,1587,1586,1568,1568,0,0,0,0,0,0,0,0,0,0
1681114541.89982390,88528741,1584,1583,1570,1570,0,0,0,0,0,0,0,0,0,0
1681114541.99978399,88628701,1581,1581,1574,1573,0,0,0,0,0,0,0,0,0,0
1681114542.09974408,88728661,1579,1580,1577,1578,0,0,0,0,0,0,0,0,0,0
1681114542.19970393,88828621,1576,1576,1579,1579,0,0,0,0,0,0,0,0,0,0
1681114542.29966402,88928581,1574,1575,1582,1582,0,0,0,0,0,0,0,0,0,0
1681114542.39962411,89028541,1573,1574,1584,1583,0,0,0,0,0,0,0,0,0,0
1681114542.49958396,89128501,1572,1572,1583,1584,0,0,0,0,0,0,0,0,0,0
1681114542.59954405,89228461,1573,1573,1584,1584,0,0,0,0,0,0,0,0,0,0
1681114542.69950414,89328421,1573,1573,1583,1583,0,0,0,0,0,0,0,0,0,0
1681114542.79946399,89428381,1574,1575,1582,1583,0,0,0,0,0,0,0,0,0,0
1681114542.89942408,89528341,1576,1576,1582,1582,0,0,0,0,0,0,0,0,0,0
1681114542.99938393,89628301,1577,1578,1581,1580,0,0,0,0,0,0,0,0,0,0
1681114543.09934402,89728261,1579,1579,1579,1580,0,0,0,0,0,0,0,0,0,0
1681114543.19930410,89828221,1580,1579,1578,1578,0,0,0,0,0,0,0,0,0,0
1681114543.29926395,89928181,1580,1580,1577,1577,0,0,0,0,0,0,0,0,0,0
1681114543.40005708,90028974,1581,1581,1577,1577,0,0,0,0,0,0,0,0,0,0
1681114543.50001693,90128934,1582,1582,1578,1577,0,0,0,0,0,0,0,0,0,0
1681114543.59997702,90228894,1582,1581,1578,1577,0,0,0,0,0,0,0,0,0,0
1681114543.69993711,90328854,1581,1581,1577,1577,0,0,0,0,0,0,0,0,0,0
1681114543.79989696,90428814,1581,1582,1579,1579,0,0,0,0,0,0,0,0,0,0
1681114543.89985704,90528774,1581,1581,1579,1579,0,0,0,0,0,0,0,0,0,0
1681114543.99981713,90628734,1580,1580,1579,1579,0,0,0,0,0,0,0,0,0,0
1681114544.09977698,90728694,1580,1579,1580,1580,0,0,0,0,0,0,0,0,0,0
1681114544.19973707,90828654,1579,1579,1580,1580,0,0,0,0,0,0,0,0,0,0
1681114544.29969692,90928614,1579,1579,1580,1580,0,0,0,0,0,0,0,0,0,0
1681114544.39965701,91028574,1578,1578,1579,1580,0,0,0,0,0,0,0,0,0,0
1681114544.49961710,91128534,1579,1579,1581,1581,0,0,0,0,0,0,0,0,0,0
1681114544.59957695,91228494,1581,1580,1582,1582,0,0,0,0,0,0,0,0,0,0
1681114544.69953704,91328454,1580,1580,1581,1581,0,0,0,0,0,0,0,0,0,0
1681114544.79949713,91428414,1580,1580,1581,1581,0,0,0,0,0,0,0,0,0,0
1681114544.89945698,91528374,1581,1581,1581,1581,0,0,0,0,0,0,0,0,0,0
1681114544.99941707,91628334,1581,1581,1581,1581,0,0,0,0,0,0,0,0,0,0
1681114545.09937692,91728294,1599,1599,1461,1539,0,0,0,0,0,0,0,0,0,0
1681114545.19933701,91828254,1618,1620,1543,1529,0,0,0,0,0,0,0,0,0,0
1681114545.29929709,91928214,1637,1643,1610,1547,0,0,0,0,0,0,0,0,0,0
1681114545.39925694,92028174,1648,1657,1651,1579,0,0,0,0,0,0,0,0,0,0
1681114545.50005007,92128967,1639,1650,1661,1606,0,0,0,0,0,0,0,0,0,0
1681114545.60000992,92228927,1613,1623,1643,1620,0,0,0,0,0,0,0,0,0,0
1681114545.69997001,92328887,1586,1591,1614,1623,0,0,0,0,0,0,0,0,0,0
1681114545.79993010,92428847,1570,1567,1588,1620,0,0,0,0,0,0,0,0,0,0
1681114545.89988995,92528807,1564,1555,1574,1610,0,0,0,0,0,0,0,0,0,0
1681114545.99985003,92628767,1565,1552,1570,1596,0,0,0,0,0,0,0,0,0,0
1681114546.09981012,92728727,1567,1556,1570,1581,0,0,0,0,0,0,0,0,0,0
1681114546.19976997,92828687,1569,1563,1568,1567,0,0,0,0,0,0,0,0,0,0
1681114546.29973006,92928647,1572,1572,1566,1557,0,0,0,0,0,0,0,0,0,0
1681114546.39968991,93028607,1575,1580,1560,1549,0,0,0,0,0,0,0,0,0,0
1681114546.49965000,93128567,1578,1585,1550,1542,0,0,0,0,0,0,0,0,0,0
1681114546.59961009,93228527,1583,1591,1541,1538,0,0,0,0,0,0,0,0,0,0
1681114546.69956994,93328487,1589,1594,1531,1533,0,0,0,0,0,0,0,0,0,0
1681114546.79953003,93428447,1596,1598,1522,1528,0,0,0,0,0,0,0,0,0,0
1681114546.89949012,93528407,1603,1602,1518,1524,0,0,0,0,0,0,0,0,0,0
1681114546.99944997,93628367,1608,1605,1517,1521,0,0,0,0,0,0,0,0,0,0
1681114547.09941006,93728327,1610,1607,1518,1522,0,0,0,0,0,0,0,0,0,0
1681114547.19936991,93828287,1609,1608,1521,1524,0,0,0,0,0,0,0,0,0,0
1681114547.29933000,93928247,1605,1604,1526,1529,0,0,0,0,0,0,0,0,0,0
1681114547.39929008,94028207,1599,1597,1535,1538,0,0,0,0,0,0,0,0,0,0
1681114547.49924994,94128167,1591,1588,1548,1550,0,0,0,0,0,0,0,0,0,0
1681114547.60004306,94228960,1578,1574,1561,1563,0,0,0,0,0,0,0,0,0,0
1681114547.70000291,94328920,1564,1560,1577,1578,0,0,0,0,0,0,0,0,0,0
1681114547.79996300,94428880,1551,1548,1593,1592,0,0,0,0,0,0,0,0,0,0
1681114547.89992309,94528840,1542,1540,1605,1602,0,0,0,0,0,0,0,0,0,0
1681114547.99988294,94628800,1537,1536,1614,1609,0,0,0,0,0,0,0,0,0,0
1681114548.09984303,94728760,1534,1535,1618,1613,0,0,0,0,0,0,0,0,0,0
1681114548.19980311,94828720,1535,1537,1619,1616,0,0,0,0,0,0,0,0,0,0
1681114548.29976296,94928680,1536,1538,1616,1614,0,0,0,0,0,0,0,0,0,0
1681114548.39972305,95028640,1540,1541,1612,1612,0,0,0,0,0,0,0,0,0,0
1681114548.49968290,95128600,1545,1546,1608,1609,0,0,0,0,0,0,0,0,0,0
1681114548.59964299,95228560,1548,1549,1602,1604,0,0,0,0,0,0,0,0,0,0
1681114548.69960308,95328520,1552,1553,1596,1598,0,0,0,0,0,0,0,0,0,0
1681114548.79956293,95428480,1556,1556,1590,1592,0,0,0,0,0,0,0,0,0,0
1681114548.89952302,95528440,1562,1562,1587,1588,0,0,0,0,0,0,0,0,0,0
1681114548.99948311,95628400,1567,1567,1582,1583,0,0,0,0,0,0,0,0,0,0
1681114549.09944296,95728360,1570,1570,1577,1578,0,0,0,0,0,0,0,0,0,0
1681114549.19940305,95828320,1574,1574,1574,1574,0,0,0,0,0,0,0,0,0,0
1681114549.29936314,95928280,1578,1578,1571,1571,0,0,0,0,0,0,0,0,0,0
1681114549.39932299,96028240,1581,1580,1567,1567,0,0,0,0,0,0,0,0,0,0
1681114549.49928308,96128200,1584,1583,1565,1565,0,0,0,0,0,0,0,0,0,0
1681114549.59924293,96228160,1586,1585,1564,1565,0,0,0,0,0,0,0,0,0,0
1681114549.70003605,96328953,1587,1586,1563,1564,0,0,0,0,0,0,0,0,0,0
1681114549.79999614,96428913,1586,1585,1564,1564,0,0,0,0,0,0,0,0,0,0
1681114549.89995599,96528873,1585,1584,1566,1567,0,0,0,0,0,0,0,0,0,0
1681114549.99991608,96628833,1582,1582,1569,1569,0,0,0,0,0,0,0,0,0,0
1681114550.09987593,96728793,1581,1580,1573,1573,0,0,0,0,0,0,0,0,0,0
1681114550.19983602,96828753,1578,1578,1576,1575,0,0,0,0,0,0,0,0,0,0
1681114550.29979610,96928713,1577,1577,1580,1579,0,0,0,0,0,0,0,0,0,0
1681114550.39975595,97028673,1576,1576,1583,1582,0,0,0,0,0,0,0,0,0,0
1681114550.49971604,97128633,1573,1574,1583,1582,0,0,0,0,0,0,0,0,0,0
1681114550.59967613,97228593,1573,1574,1584,1584,0,0,0,0,0,0,0,0,0,0
1681114550.69963598,97328553,1574,1574,1584,1584,0,0,0,0,0,0,0,0,0,0
1681114550.79959607,97428513,1575,1575,1584,1584,0,0,0,0,0,0,0,0,0,0
1681114550.89955592,97528473,1576,1576,1584,1584,0,0,0,0,0,0,0,0,0,0
1681114550.99951601,97628433,1576,1576,1582,1582,0,0,0,0,0,0,0,0,0,0
1681114551.09947610,97728393,1578,1579,1582,1582,0,0,0,0,0,0,0,0,0,0
1681114551.19943595,97828353,1580,1580,1581,1581,0,0,0,0,0,0,0,0,0,0
1681114551.29939604,97928313,1581,1580,1579,1580,0,0,0,0,0,0,0,0,0,0
1681114551.39935613,98028273,1582,1581,1578,1579,0,0,0,0,0,0,0,0,0,0
1681114551.49931598,98128233,1582,1581,1578,1578,0,0,0,0,0,0,0,0,0,0
1681114551.59927607,98228193,1582,1581,1577,1577,0,0,0,0,0,0,0,0,0,0
1681114551.70006895,98328986,1582,1582,1578,1578,0,0,0,0,0,0,0,0,0,0
1681114551.80002904,98428946,1582,1582,1578,1578,0,0,0,0,0,0,0,0,0,0
1681114551.89998913,98528906,1582,1582,1579,1579,0,0,0,0,0,0,0,0,0,0
1681114551.99994898,98628866,1582,1582,1580,1580,0,0,0,0,0,0,0,0,0,0
1681114552.09990907,98728826,1580,1581,1580,1579,0,0,0,0,0,0,0,0,0,0
1681114552.19986892,98828786,1580,1581,1580,1581,0,0,0,0,0,0,0,0,0,0
1681114552.29982901,98928746,1580,1580,1580,1581,0,0,0,0,0,0,0,0,0,0
1681114552.39978909,99028706,1580,1580,1581,1581,0,0,0,0,0,0,0,0,0,0
1681114552.49974895,99128666,1580,1580,1581,1581,0,0,0,0,0,0,0,0,0,0
1681114552.59970903,99228626,1581,1581,1583,1583,0,0,0,0,0,0,0,0,0,0
1681114552.69966912,99328586,1581,1581,1583,1582,0,0,0,0,0,0,0,0,0,0
1681114552.79962897,99428546,1580,1580,1582,1582,0,0,0,0,0,0,0,0,0,0
1681114552.89958906,99528506,1581,1581,1582,1582,0,0,0,0,0,0,0,0,0,0
1681114552.99954891,99628466,1580,1580,1581,1581,0,0,0,0,0,0,0,0,0,0
1681114553.09950900,99728426,1580,1581,1581,1581,0,0,0,0,0,0,0,0,0,0
1681114553.19946909,99828386,1580,1581,1585,1575,0,0,0,0,0,0,0,0,0,0
1681114553.29942894,99928346,1579,1582,1585,1572,0,0,0,0,0,0,0,0,0,0
1681114553.39938903,100028306,1578,1582,1580,1574,0,0,0,0,0,0,0,0,0,0
1681114553.49934912,100128266,1577,1580,1572,1573,0,0,0,0,0,0,0,0,0,0
1681114553.59930897,100228226,1576,1578,1565,1570,0,0,0,0,0,0,0,0,0,0
1681114553.69926906,100328186,1576,1577,1559,1566,0,0,0,0,0,0,0,0,0,0
1681114553.80006194,100428979,1578,1577,1556,1562,0,0,0,0,0,0,0,0,0,0
1681114553.90002203,100528939,1580,1577,1555,1558,0,0,0,0,0,0,0,0,0,0
1681114553.99998212,100628899,1580,1578,1555,1555,0,0,0,0,0,0,0,0,0,0
1681114554.09994197,100728859,1579,1578,1555,1553,0,0,0,0,0,0,0,0,0,0
1681114554.19990206,100828819,1578,1579,1556,1553,0,0,0,0,0,0,0,0,0,0
1681114554.29986191,100928779,1578,1579,1556,1554,0,0,0,0,0,0,0,0,0,0
1681114554.39982200,101028739,1578,1579,1557,1555,0,0,0,0,0,0,0,0,0,0
1681114554.49978209,101128699,1575,1577,1554,1554,0,0,0,0,0,0,0,0,0,0
1681114554.59974194,101228659,1576,1578,1554,1554,0,0,0,0,0,0,0,0,0,0
1681114554.69970202,101328619,1576,1578,1553,1553,0,0,0,0,0,0,0,0,0,0
1681114554.79966211,101428579,1577,1578,1550,1551,0,0,0,0,0,0,0,0,0,0
1681114554.89962196,101528539,1579,1580,1549,1549,0,0,0,0,0,0,0,0,0,0
1681114554.99958205,101628499,1582,1583,1547,1546,0,0,0,0,0,0,0,0,0,0
1681114555.09954190,101728459,1584,1585,1544,1544,0,0,0,0,0,0,0,0,0,0
1681114555.19950199,101828419,1588,1588,1542,1542,0,0,0,0,0,0,0,0,0,0
1681114555.29946208,101928379,1591,1590,1539,1539,0,0,0,0,0,0,0,0,0,0
1681114555.39942193,102028339,1593,1593,1538,1538,0,0,0,0,0,0,0,0,0,0
1681114555.49938202,102128299,1594,1594,1536,1537,0,0,0,0,0,0,0,0,0,0
1681114555.59934211,102228259,1594,1595,1534,1536,0,0,0,0,0,0,0,0,0,0
1681114555.69930196,102328219,1595,1594,1536,1539,0,0,0,0,0,0,0,0,0,0
1681114555.79926205,102428179,1593,1592,1539,1542,0,0,0,0,0,0,0,0,0,0
1681114555.90005493,102528972,1589,1586,1545,1548,0,0,0,0,0,0,0,0,0,0
1681114556.00001502,102628932,1583,1580,1554,1557,0,0,0,0,0,0,0,0,0,0
1681114556.09997511,102728892,1574,1570,1565,1567,0,0,0,0,0,0,0,0,0,0
1681114556.19993496,102828852,1563,1560,1577,1578,0,0,0,0,0,0,0,0,0,0
1681114556.29989505,102928812,1553,1550,1590,1591,0,0,0,0,0,0,0,0,0,0
1681114556.39985514,103028772,1543,1543,1602,1601,0,0,0,0,0,0,0,0,0,0
1681114556.49981499,103128732,1536,1536,1610,1607,0,0,0,0,0,0,0,0,0,0
1681114556.59977508,103228692,1535,1536,1615,1612,0,0,0,0,0,0,0,0,0,0
1681114556.69973493,103328652,1536,1537,1615,1613,0,0,0,0,0,0,0,0,0,0
1681114556.79969501,103428612,1539,1541,1613,1611,0,0,0,0,0,0,0,0,0,0
1681114556.89965510,103528572,1543,1545,1609,1609,0,0,0,0,0,0,0,0,0,0
1681114556.99961495,103628532,1550,1550,1605,1605,0,0,0,0,0,0,0,0,0,0
1681114557.09957504,103728492,1556,1556,1599,1600,0,0,0,0,0,0,0,0,0,0
1681114557.19953513,103828452,1560,1561,1593,1594,0,0,0,0,0,0,0,0,0,0
1681114557.29949498,103928412,1566,1566,1587,1587,0,0,0,0,0,0,0,0,0,0
1681114557.39945507,104028372,1571,1571,1580,1580,0,0,0,0,0,0,0,0,0,0
1681114557.49941492,104128332,1577,1576,1574,1574,0,0,0,0,0,0,0,0,0,0
1681114557.59937501,104228292,1581,1580,1568,1569,0,0,0,0,0,0,0,0,0,0
1681114557.69933510,104328252,1585,1584,1566,1566,0,0,0,0,0,0,0,0,0,0
1681114557.79929495,104428212,1587,1586,1564,1565,0,0,0,0,0,0,0,0,0,0
1681114557.89925504,104528172,1587,1585,1564,1564,0,0,0,0,0,0,0,0,0,0
1681114558.00004792,104628965,1585,1584,1565,1566,0,0,0,0,0,0,0,0,0,0
1681114558.10000801,104728925,1583,1582,1568,1568,0,0,0,0,0,0,0,0,0,0
1681114558.19996810,104828885,1581,1581,1571,1571,0,0,0,0,0,0,0,0,0,0
1681114558.29992795,104928845,1578,1577,1574,1574,0,0,0,0,0,0,0,0,0,0
1681114558.39988804,105028805,1576,1577,1578,1578,0,0,0,0,0,0,0,0,0,0
1681114558.49984813,105128765,1574,1575,1581,1580,0,0,0,0,0,0,0,0,0,0
1681114558.59980798,105228725,1573,1573,1583,1582,0,0,0,0,0,0,0,0,0,0
1681114558.69976807,105328685,1572,1573,1584,1583,0,0,0,0,0,0,0,0,0,0
1681114558.79972792,105428645,1571,1572,1584,1583,0,0,0,0,0,0,0,0,0,0
1681114558.89968801,105528605,1573,1574,1585,1585,0,0,0,0,0,0,0,0,0,0
1681114558.99964809,105628565,1573,1574,1583,1583,0,0,0,0,0,0,0,0,0,0
1681114559.09960794,105728525,1575,1575,1582,1582,0,0,0,0,0,0,0,0,0,0
1681114559.19956803,105828485,1576,1577,1580,1581,0,0,0,0,0,0,0,0,0,0
1681114559.29952812,105928445,1578,1578,1580,1581,0,0,0,0,0,0,0,0,0,0
1681114559.39948797,106028405,1578,1578,1578,1578,0,0,0,0,0,0,0,0,0,0
1681114559.49944806,106128365,1579,1579,1577,1577,0,0,0,0,0,0,0,0,0,0
1681114559.59940791,106228325,1580,1580,1576,1576,0,0,0,0,0,0,0,0,0,0
1681114559.69936800,106328285,1581,1581,1576,1576,0,0,0,0,0,0,0,0,0,0
1681114559.79932809,106428245,1581,1581,1576,1577,0,0,0,0,0,0,0,0,0,0
1681114559.89928794,106528205,1582,1581,1577,1577,0,0,0,0,0,0,0,0,0,0
1681114559.99924803,106628165,1582,1582,1579,1578,0,0,0,0,0,0,0,0,0,0
1681114560.10004091,106728958,1582,1582,1580,1579,0,0,0,0,0,0,0,0,0,0
1681114560.20000100,106828918,1582,1581,1580,1580,0,0,0,0,0,0,0,0,0,0
1681114560.29996109,106928878,1581,1581,1580,1580,0,0,0,0,0,0,0,0,0,0
1681114560.39992094,107028838,1579,1580,1580,1580,0,0,0,0,0,0,0,0,0,0
1681114560.49988103,107128798,1580,1581,1582,1582,0,0,0,0,0,0,0,0,0,0
1681114560.59984112,107228758,1580,1580,1582,1582,0,0,0,0,0,0,0,0,0,0
1681114560.69980097,107328718,1580,1580,1582,1582,0,0,0,0,0,0,0,0,0,0
1681114560.79976106,107428678,1579,1580,1582,1582,0,0,0,0,0,0,0,0,0,0
1681114560.89972091,107528638,1580,1580,1582,1582,0,0,0,0,0,0,0,0,0,0
1681114560.99968100,107628598,1581,1580,1582,1582,0,0,0,0,0,0,0,0,0,0
1681114561.09964108,107728558,1581,1581,1582,1582,0,0,0,0,0,0,0,0,0,0
1681114561.19960093,107828518,1581,1583,1586,1576,0,0,0,0,0,0,0,0,0,0
1681114561.29956102,107928478,1581,1583,1587,1573,0,0,0,0,0,0,0,0,0,0
1681114561.39952111,108028438,1579,1580,1582,1575,0,0,0,0,0,0,0,0,0,0
1681114561.49948096,108128398,1576,1576,1575,1575,0,0,0,0,0,0,0,0,0,0
1681114561.59944105,108228358,1573,1572,1569,1575,0,0,0,0,0,0,0,0,0,0
1681114561.69940114,108328318,1569,1569,1565,1573,0,0,0,0,0,0,0,0,0,0
1681114561.79936099,108428278,1567,1567,1564,1570,0,0,0,0,0,0,0,0,0,0
1681114561.89932108,108528238,1567,1566,1564,1567,0,0,0,0,0,0,0,0,0,0
1681114561.99928093,108628198,1566,1566,1566,1565,0,0,0,0,0,0,0,0,0,0
1681114562.09924102,108728158,1565,1565,1566,1563,0,0,0,0,0,0,0,0,0,0
1681114562.20003390,108828951,1566,1566,1566,1564,0,0,0,0,0,0,0,0,0,0
1681114562.29999399,108928911,1565,1565,1565,1563,0,0,0,0,0,0,0,0,0,0
1681114562.39995408,109028871,1564,1564,1565,1564,0,0,0,0,0,0,0,0,0,0
1681114562.49991393,109128831,1564,1564,1564,1564,0,0,0,0,0,0,0,0,0,0
1681114562.59987402,109228791,1563,1564,1564,1564,0,0,0,0,0,0,0,0,0,0
1681114562.69983411,109328751,1563,1563,1563,1564,0,0,0,0,0,0,0,0,0,0
1681114562.79979396,109428711,1562,1562,1563,1562,0,0,0,0,0,0,0,0,0,0
1681114562.89975405,109528671,1561,1561,1562,1562,0,0,0,0,0,0,0,0,0,0
1681114562.99971414,109628631,1560,1561,1561,1561,0,0,0,0,0,0,0,0,0,0
1681114563.09967399,109728591,1560,1560,1561,1560,0,0,0,0,0,0,0,0,0,0
1681114563.19963408,109828551,1559,1559,1559,1559,0,0,0,0,0,0,0,0,0,0
1681114563.29959393,109928511,1559,1558,1559,1558,0,0,0,0,0,0,0,0,0,0
1681114563.39955401,110028471,1558,1558,1559,1557,0,0,0,0,0,0,0,0,0,0
1681114563.49951410,110128431,1558,1558,1558,1557,0,0,0,0,0,0,0,0,0,0
1681114563.59947395,110228391,1557,1557,1558,1557,0,0,0,0,0,0,0,0,0,0
1681114563.69943404,110328351,1557,1557,1558,1556,0,0,0,0,0,0,0,0,0,0
1681114563.79939413,110428311,1557,1557,1558,1556,0,0,0,0,0,0,0,0,0,0
1681114563.89935398,110528271,1558,1558,1559,1556,0,0,0,0,0,0,0,0,0,0
1681114563.99931407,110628231,1559,1559,1559,1558,0,0,0,0,0,0,0,0,0,0
1681114564.09927392,110728191,1559,1560,1557,1561,0,0,0,0,0,0,0,0,0,0
1681114564.20006704,110828984,1560,1560,1557,1563,0,0,0,0,0,0,0,0,0,0
1681114564.30002713,110928944,1561,1561,1557,1564,0,0,0,0,0,0,0,0,0,0
1681114564.39998698,111028904,1563,1562,1560,1565,0,0,0,0,0,0,0,0,0,0
1681114564.49994707,111128864,1563,1562,1561,1563,0,0,0,0,0,0,0,0,0,0
1681114564.59990692,111228824,1562,1562,1563,1560,0,0,0,0,0,0,0,0,0,0
1681114564.69986701,111328784,1560,1561,1562,1558,0,0,0,0,0,0,0,0,0,0
1681114564.79982710,111428744,1559,1560,1562,1557,0,0,0,0,0,0,0,0,0,0
1681114564.89978695,111528704,1558,1558,1557,1561,0,0,0,0,0,0,0,0,0,0
1681114564.99974704,111628664,1556,1556,1554,1560,0,0,0,0,0,0,0,0,0,0
1681114565.09970713,111728624,1552,1552,1551,1555,0,0,0,0,0,0,0,0,0,0
1681114565.19966698,111828584,1546,1546,1547,1548,0,0,0,0,0,0,0,0,0,0
1681114565.29962707,111928544,1540,1540,1542,1541,0,0,0,0,0,0,0,0,0,0
1681114565.39958692,112028504,1533,1533,1536,1534,0,0,0,0,0,0,0,0,0,0
1681114565.49954700,112128464,1525,1525,1527,1526,0,0,0,0,0,0,0,0,0,0
1681114565.59950709,112228424,1519,1519,1521,1520,0,0,0,0,0,0,0,0,0,0
1681114565.69946694,112328384,1518,1518,1519,1519,0,0,0,0,0,0,0,0,0,0
1681114565.79942703,112428344,1519,1520,1518,1520,0,0,0,0,0,0,0,0,0,0
1681114565.89938712,112528304,1522,1522,1519,1521,0,0,0,0,0,0,0,0,0,0
1681114565.99934697,112628264,1525,1525,1522,1524,0,0,0,0,0,0,0,0,0,0
1681114566.09930706,112728224,1530,1530,1526,1527,0,0,0,0,0,0,0,0,0,0
1681114566.19926691,112828184,1535,1535,1531,1531,0,0,0,0,0,0,0,0,0,0
1681114566.30006003,112928977,1539,1539,1536,1535,0,0,0,0,0,0,0,0,0,0
1681114566.40002012,113028937,1541,1541,1539,1538,0,0,0,0,0,0,0,0,0,0
1681114566.49997997,113128897,1544,1544,1542,1541,0,0,0,0,0,0,0,0,0,0
1681114566.59994006,113228857,1544,1544,1544,1543,0,0,0,0,0,0,0,0,0,0
1681114566.69989991,113328817,1545,1545,1546,1545,0,0,0,0,0,0,0,0,0,0
1681114566.79986000,113428777,1545,1545,1547,1546,0,0,0,0,0,0,0,0,0,0
1681114566.89982009,113528737,1545,1545,1547,1547,0,0,0,0,0,0,0,0,0,0
1681114566.99977994,113628697,1546,1546,1548,1548,0,0,0,0,0,0,0,0,0,0
1681114567.09974003,113728657,1545,1545,1547,1547,0,0,0,0,0,0,0,0,0,0
1681114567.19970012,113828617,1545,1545,1547,1547,0,0,0,0,0,0,0,0,0,0
1681114567.29965997,113928577,1545,1545,1547,1547,0,0,0,0,0,0,0,0,0,0
1681114567.39962006,114028537,1544,1545,1546,1546,0,0,0,0,0,0,0,0,0,0
1681114567.49957991,114128497,1545,1545,1546,1545,0,0,0,0,0,0,0,0,0,0
1681114567.59954000,114228457,1545,1545,1545,1545,0,0,0,0,0,0,0,0,0,0
1681114567.69950008,114328417,1545,1544,1545,1545,0,0,0,0,0,0,0,0,0,0
1681114567.79945993,114428377,1545,1544,1544,1544,0,0,0,0,0,0,0,0,0,0
1681114567.89942002,114528337,1545,1545,1544,1545,0,0,0,0,0,0,0,0,0,0
1681114567.99938011,114628297,1544,1545,1543,1544,0,0,0,0,0,0,0,0,0,0
1681114568.09933996,114728257,1545,1545,1544,1543,0,0,0,0,0,0,0,0,0,0
1681114568.19930005,114828217,1544,1544,1544,1543,0,0,0,0,0,0,0,0,0,0
1681114568.29926014,114928177,1544,1544,1544,1543,0,0,0,0,0,0,0,0,0,0
1681114568.40005302,115028970,1544,1544,1543,1543,0,0,0,0,0,0,0,0,0,0
1681114568.50001311,115128930,1544,1543,1543,1544,0,0,0,0,0,0,0,0,0,0
1681114568.59997296,115228890,1544,1544,1544,1544,0,0,0,0,0,0,0,0,0,0
1681114568.69993305,115328850,1543,1543,1544,1544,0,0,0,0,0,0,0,0,0,0
1681114568.79989290,115428810,1544,1545,1545,1544,0,0,0,0,0,0,0,0,0,0
1681114568.89985299,115528770,1544,1544,1544,1544,0,0,0,0,0,0,0,0,0,0
1681114568.99981308,115628730,1544,1544,1544,1544,0,0,0,0,0,0,0,0,0,0
1681114569.09977293,115728690,1544,1544,1544,1544,0,0,0,0,0,0,0,0,0,0
1681114569.19973302,115828650,1544,1544,1544,1544,0,0,0,0,0,0,0,0,0,0
1681114569.29969311,115928610,1544,1543,1544,1544,0,0,0,0,0,0,0,0,0,0
1681114569.39965296,116028570,1544,1544,1544,1545,0,0,0,0,0,0,0,0,0,0
1681114569.49961305,116128530,1545,1544,1544,1545,0,0,0,0,0,0,0,0,0,0
1681114569.59957314,116228490,1544,1544,1544,1544,0,0,0,0,0,0,0,0,0,0
1681114569.69953299,116328450,1544,1544,1544,1543,0,0,0,0,0,0,0,0,0,0
1681114569.79949307,116428410,1543,1544,1544,1543,0,0,0,0,0,0,0,0,0,0
1681114569.89945292,116528370,1544,1544,1544,1544,0,0,0,0,0,0,0,0,0,0
1681114569.99941301,116628330,1544,1544,1544,1543,0,0,0,0,0,0,0,0,0,0
1681114570.09937310,116728290,1544,1544,1544,1544,0,0,0,0,0,0,0,0,0,0
1681114570.19933295,116828250,1544,1544,1544,1544,0,0,0,0,0,0,0,0,0,0
1681114570.29929304,116928210,1545,1545,1544,1545,0,0,0,0,0,0,0,0,0,0
1681114570.39925313,117028170,1544,1544,1544,1544,0,0,0,0,0,0,0,0,0,0
1681114570.50004601,117128963,1544,1544,1544,1543,0,0,0,0,0,0,0,0,0,0
1681114570.60000610,117228923,1544,1544,1544,1543,0,0,0,0,0,0,0,0,0,0
1681114570.69996595,117328883,1544,1543,1543,1543,0,0,0,0,0,0,0,0,0,0
1681114570.79992604,117428843,1543,1543,1543,1543,0,0,0,0,0,0,0,0,0,0
1681114570.89988613,117528803,1544,1544,1544,1544,0,0,0,0,0,0,0,0,0,0
1681114570.99984598,117628763,1544,1544,1544,1544,0,0,0,0,0,0,0,0,0,0
1681114571.09980607,117728723,1545,1545,1545,1545,0,0,0,0,0,0,0,0,0,0
1681114571.19976592,117828683,1544,1544,1544,1544,0,0,0,0,0,0,0,0,0,0
1681114571.29972601,117928643,1544,1543,1543,1544,0,0,0,0,0,0,0,0,0,0
1681114571.39968610,118028603,1544,1544,1544,1544,0,0,0,0,0,0,0,0,0,0
1681114571.49964595,118128563,1544,1544,1544,1544,0,0,0,0,0,0,0,0,0,0
1681114571.59960604,118228523,1544,1544,1544,1544,0,0,0,0,0,0,0,0,0,0
1681114571.69956613,118328483,1543,1543,1543,1543,0,0,0,0,0,0,0,0,0,0
1681114571.79952598,118428443,1544,1543,1544,1544,0,0,0,0,0,0,0,0,0,0
1681114571.89948606,118528403,1544,1543,1543,1544,0,0,0,0,0,0,0,0,0,0
1681114571.99944592,118628363,1544,1544,1544,1544,0,0,0,0,0,0,0,0,0,0
1681114572.09940600,118728323,1544,1544,1544,1544,0,0,0,0,0,0,0,0,0,0
1681114572.19936609,118828283,1544,1544,1544,1544,0,0,0,0,0,0,0,0,0,0
1681114572.29932594,118928243,1544,1544,1544,1544,0,0,0,0,0,0,0,0,0,0
1681114572.39928603,119028203,1545,1545,1544,1545,0,0,0,0,0,0,0,0,0,0
1681114572.49924612,119128163,1545,1545,1544,1545,0,0,0,0,0,0,0,0,0,0
1681114572.60003901,119228956,1543,1544,1544,1543,0,0,0,0,0,0,0,0,0,0
1681114572.69999909,119328916,1544,1544,1544,1544,0,0,0,0,0,0,0,0,0,0
1681114572.79995894,119428876,1544,1544,1544,1544,0,0,0,0,0,0,0,0,0,0
1681114572.89991903,119528836,1544,1543,1544,1544,0,0,0,0,0,0,0,0,0,0
1681114572.99987912,119628796,1543,1543,1544,1544,0,0,0,0,0,0,0,0,0,0
1681114573.09983897,119728756,1545,1544,1544,1545,0,0,0,0,0,0,0,0,0,0
1681114573.19979906,119828716,1544,1544,1544,1544,0,0,0,0,0,0,0,0,0,0
1681114573.29975891,119928676,1544,1544,1543,1544,0,0,0,0,0,0,0,0,0,0
1681114573.39971900,120028636,1544,1544,1544,1544,0,0,0,0,0,0,0,0,0,0
1681114573.49967909,120128596,1544,1544,1544,1544,0,0,0,0,0,0,0,0,0,0
1681114573.59963894,120228556,1545,1545,1545,1544,0,0,0,0,0,0,0,0,0,0
1681114573.69959903,120328516,1544,1544,1544,1544,0,0,0,0,0,0,0,0,0,0
1681114573.79955912,120428476,1544,1545,1545,1544,0,0,0,0,0,0,0,0,0,0
1681114573.89951897,120528436,1544,1544,1544,1544,0,0,0,0,0,0,0,0,0,0
1681114573.99947906,120628396,1545,1545,1545,1545,0,0,0,0,0,0,0,0,0,0
1681114574.09943891,120728356,1544,1543,1544,1544,0,0,0,0,0,0,0,0,0,0
1681114574.19939899,120828316,1544,1544,1544,1544,0,0,0,0,0,0,0,0,0,0
1681114574.29935908,120928276,1544,1544,1544,1544,0,0,0,0,0,0,0,0,0,0
1681114574.39931893,121028236,1544,1544,1544,1544,0,0,0,0,0,0,0,0,0,0
1681114574.49927902,121128196,1544,1544,1544,1544,0,0,0,0,0,0,0,0,0,0
1681114574.59923911,121228156,1543,1543,1543,1543,0,0,0,0,0,0,0,0,0,0
1681114574.70003200,121328949,1543,1543,1543,1543,0,0,0,0,0,0,0,0,0,0
1681114574.79999208,121428909,1544,1544,1544,1544,0,0,0,0,0,0,0,0,0,0
1681114574.89995193,121528869,1544,1544,1544,1544,0,0,0,0,0,0,0,0,0,0
1681114574.99991202,121628829,1545,1545,1545,1545,0,0,0,0,0,0,0,0,0,0
1681114575.09987211,121728789,1545,1545,1545,1545,0,0,0,0,0,0,0,0,0,0
1681114575.19983196,121828749,1544,1544,1544,1544,0,0,0,0,0,0,0,0,0,0
1681114575.29979205,121928709,1543,1543,1543,1544,0,0,0,0,0,0,0,0,0,0
1681114575.39975214,122028669,1358,1360,1404,1359,0,0,0,0,0,0,0,0,0,0
1681114575.49971199,122128629,1246,1248,1327,1248,0,0,0,0,0,0,0,0,0,0
1681114575.59967208,122228589,1209,1211,1304,1211,0,0,0,0,0,0,0,0,0,0
1681114575.69963193,122328549,1187,1188,1291,1189,0,0,0,0,0,0,0,0,0,0
1681114575.79959202,122428509,1150,1151,1270,1151,0,0,0,0,0,0,0,0,0,0
1681114575.89955211,122528469,1150,1150,1225,1151,0,0,0,0,0,0,0,0,0,0
1681114575.99951196,122628429,1150,1152,1224,1151,0,0,0,0,0,0,0,0,0,0
1681114576.09947205,122728389,1150,1151,1225,1151,0,0,0,0,0,0,0,0,0,0
1681114576.19943213,122828349,1179,1150,1189,1180,0,0,0,0,0,0,0,0,0,0
1681114576.29939198,122928309,1168,1150,1201,1171,0,0,0,0,0,0,0,0,0,0
1681114576.39935207,123028269,1163,1150,1208,1166,0,0,0,0,0,0,0,0,0,0
1681114576.49931192,123128229,1162,1150,1209,1166,0,0,0,0,0,0,0,0,0,0
1681114576.59927201,123228189,1162,1150,1208,1167,0,0,0,0,0,0,0,0,0,0
1681114576.70006514,123328982,1163,1150,1207,1169,0,0,0,0,0,0,0,0,0,0
1681114576.80002499,123428942,1163,1150,1206,1170,0,0,0,0,0,0,0,0,0,0
1681114576.89998507,123528902,1164,1150,1205,1171,0,0,0,0,0,0,0,0,0,0
1681114576.99994493,123628862,1150,1150,1221,1157,0,0,0,0,0,0,0,0,0,0
1681114577.09990501,123728822,1152,1150,1220,1159,0,0,0,0,0,0,0,0,0,0
1681114577.19986510,123828782,1152,1150,1219,1160,0,0,0,0,0,0,0,0,0,0
1681114577.29982495,123928742,1153,1150,1218,1160,0,0,0,0,0,0,0,0,0,0
1681114577.39978504,124028702,1153,1150,1218,1161,0,0,0,0,0,0,0,0,0,0
1681114577.49974513,124128662,1000,1000,1000,1000,0,0,0,0,0,0,0,0,0,0
1681114577.59970498,124228622,1000,1000,1000,1000,0,0,0,0,0,0,0,0,0,0
1681114577.69966507,124328582,1000,1000,1000,1000,0,0,0,0,0,0,0,0,0,0
1681114577.79962492,124428542,1000,1000,1000,1000,0,0,0,0,0,0,0,0,0,0
1681114577.89958501,124528502,1000,1000,1000,1000,0,0,0,0,0,0,0,0,0,0
1681114577.99954510,124628462,1000,1000,1000,1000,0,0,0,0,0,0,0,0,0,0
1681114578.09950495,124728422,1000,1000,1000,1000,0,0,0,0,0,0,0,0,0,0
1681114578.19946504,124828382,1000,1000,1000,1000,0,0,0,0,0,0,0,0,0,0
1681114578.29942513,124928342,1000,1000,1000,1000,0,0,0,0,0,0,0,0,0,0
1681114578.39938498,125028302,1000,1000,1000,1000,0,0,0,0,0,0,0,0,0,0
1681114578.49934506,125128262,1000,1000,1000,1000,0,0,0,0,0,0,0,0,0,0
1681114578.59930491,125228222,1000,1000,1000,1000,0,0,0,0,0,0,0,0,0,0
1681114578.69926500,125328182,1000,1000,1000,1000,0,0,0,0,0,0,0,0,0,0
1681114578.80005813,125428975,1000,1000,1000,1000,0,0,0,0,0,0,0,0,0,0
1681114578.90001798,125528935,1000,1000,1000,1000,0,0,0,0,0,0,0,0,0,0
1681114578.99997807,125628895,1000,1000,1000,1000,0,0,0,0,0,0,0,0,0,0
1681114579.09993792,125728855,1000,1000,1000,1000,0,0,0,0,0,0,0,0,0,0
1681114579.19989800,125828815,1000,1000,1000,1000,0,0,0,0,0,0,0,0,0,0
1681114579.29985809,125928775,1000,1000,1000,1000,0,0,0,0,0,0,0,0,0,0
1681114579.39981794,126028735,1000,1000,1000,1000,0,0,0,0,0,0,0,0,0,0
1681114579.49977803,126128695,1000,1000,1000,1000,0,0,0,0,0,0,0,0,0,0
1681114579.59973812,126228655,1000,1000,1000,1000,0,0,0,0,0,0,0,0,0,0
1681114579.69969797,126328615,1000,1000,1000,1000,0,0,0,0,0,0,0,0,0,0
1681114579.79965806,126428575,1000,1000,1000,1000,0,0,0,0,0,0,0,0,0,0
1681114579.89961791,126528535,1000,1000,1000,1000,0,0,0,0,0,0,0,0,0,0
1681114579.99957800,126628495,1000,1000,1000,1000,0,0,0,0,0,0,0,0,0,0
1681114580.09953809,126728455,1000,1000,1000,1000,0,0,0,0,0,0,0,0,0,0
1681114580.19949794,126828415,1000,1000,1000,1000,0,0,0,0,0,0,0,0,0,0
1681114580.29945803,126928375,1000,1000,1000,1000,0,0,0,0,0,0,0,0,0,0
1681114580.39941812,127028335,1000,1000,1000,1000,0,0,0,0,0,0,0,0,0,0
1681114580.49937797,127128295,1000,1000,1000,1000,0,0,0,0,0,0,0,0,0,0
1681114580.59933805,127228255,1000,1000,1000,1000,0,0,0,0,0,0,0,0,0,0
1681114580.69929790,127328215,1000,1000,1000,1000,0,0,0,0,0,0,0,0,0,0
1681114580.79925799,127428175,1000,1000,1000,1000,0,0,0,0,0,0,0,0,0,0
1681114580.90005112,127528968,1000,1000,1000,1000,0,0,0,0,0,0,0,0,0,0
1681114581.00001097,127628928,1000,1000,1000,1000,0,0,0,0,0,0,0,0,0,0
1681114581.09997106,127728888,1000,1000,1000,1000,0,0,0,0,0,0,0,0,0,0
1681114581.19993091,127828848,1000,1000,1000,1000,0,0,0,0,0,0,0,0,0,0
1681114581.29989100,127928808,1000,1000,1000,1000,0,0,0,0,0,0,0,0,0,0
1681114581.39985108,128028768,1000,1000,1000,1000,0,0,0,0,0,0,0,0,0,0
1681114581.49981093,128128728,1000,1000,1000,1000,0,0,0,0,0,0,0,0,0,0
1681114581.59977102,128228688,1000,1000,1000,1000,0,0,0,0,0,0,0,0,0,0
1681114581.69973111,128328648,1000,1000,1000,1000,0,0,0,0,0,0,0,0,0,0
1681114581.79969096,128428608,1000,1000,1000,1000,0,0,0,0,0,0,0,0,0,0
1681114581.89965105,128528568,1000,1000,1000,1000,0,0,0,0,0,0,0,0,0,0
1681114581.99961114,128628528,1000,1000,1000,1000,0,0,0,0,0,0,0,0,0,0
1681114582.09957099,128728488,1000,1000,1000,1000,0,0,0,0,0,0,0,0,0,0
1681114582.19953108,128828448,1000,1000,1000,1000,0,0,0,0,0,0,0,0,0,0
1681114582.29949093,128928408,1000,1000,1000,1000,0,0,0,0,0,0,0,0,0,0
1681114582.39945102,129028368,1000,1000,1000,1000,0,0,0,0,0,0,0,0,0,0
1681114582.49941111,129128328,1000,1000,1000,1000,0,0,0,0,0,0,0,0,0,0
1681114582.59937096,129228288,1000,1000,1000,1000,0,0,0,0,0,0,0,0,0,0
1681114582.69933105,129328248,1000,1000,1000,1000,0,0,0,0,0,0,0,0,0,0
1681114582.79929113,129428208,1000,1000,1000,1000,0,0,0,0,0,0,0,0,0,0
1681114582.89925098,129528168,1000,1000,1000,1000,0,0,0,0,0,0,0,0,0,0
1681114583.00004411,129628961,1000,1000,1000,1000,0,0,0,0,0,0,0,0,0,0
1681114583.10000396,129728921,1000,1000,1000,1000,0,0,0,0,0,0,0,0,0,0
1681114583.19996405,129828881,1000,1000,1000,1000,0,0,0,0,0,0,0,0,0,0
1681114583.29992414,129928841,1000,1000,1000,1000,0,0,0,0,0,0,0,0,0,0
1681114583.39988399,130028801,1000,1000,1000,1000,0,0,0,0,0,0,0,0,0,0
1681114583.49984407,130128761,1000,1000,1000,1000,0,0,0,0,0,0,0,0,0,0
1681114583.59980392,130228721,1000,1000,1000,1000,0,0,0,0,0,0,0,0,0,0
1681114583.69976401,130328681,1000,1000,1000,1000,0,0,0,0,0,0,0,0,0,0
1681114583.79972410,130428641,1000,1000,1000,1000,0,0,0,0,0,0,0,0,0,0
1681114583.89968395,130528601,1000,1000,1000,1000,0,0,0,0,0,0,0,0,0,0
1681114583.99964404,130628561,1000,1000,1000,1000,0,0,0,0,0,0,0,0,0,0
1681114584.09960413,130728521,1000,1000,1000,1000,0,0,0,0,0,0,0,0,0,0
1681114584.19956398,130828481,1000,1000,1000,1000,0,0,0,0,0,0,0,0,0,0
1681114584.29952407,130928441,1000,1000,1000,1000,0,0,0,0,0,0,0,0,0,0
1681114584.39948392,131028401,1000,1000,1000,1000,0,0,0,0,0,0,0,0,0,0
1681114584.49944401,131128361,1000,1000,1000,1000,0,0,0,0,0,0,0,0,0,0
1681114584.59940410,131228321,1000,1000,1000,1000,0,0,0,0,0,0,0,0,0,0
1681114584.69936395,131328281,1000,1000,1000,1000,0,0,0,0,0,0,0,0,0,0
1681114584.79932404,131428241,1000,1000,1000,1000,0,0,0,0,0,0,0,0,0,0
1681114584.89928412,131528201,1000,1000,1000,1000,0,0,0,0,0,0,0,0,0,0
1681114584.99924397,131628161,1000,1000,1000,1000,0,0,0,0,0,0,0,0,0,0
1681114585.10003710,131728954,1000,1000,1000,1000,0,0,0,0,0,0,0,0,0,0
1681114585.19999695,131828914,1000,1000,1000,1000,0,0,0,0,0,0,0,0,0,0
1681114585.29995704,131928874,1000,1000,1000,1000,0,0,0,0,0,0,0,0,0,0
1681114585.39991713,132028834,1000,1000,1000,1000,0,0,0,0,0,0,0,0,0,0
1681114585.49987698,132128794,1000,1000,1000,1000,0,0,0,0,0,0,0,0,0,0
1681114585.59983706,132228754,1000,1000,1000,1000,0,0,0,0,0,0,0,0,0,0
1681114585.69979692,132328714,1000,1000,1000,1000,0,0,0,0,0,0,0,0,0,0
1681114585.79975700,132428674,1000,1000,1000,1000,0,0,0,0,0,0,0,0,0,0
1681114585.89971709,132528634,1000,1000,1000,1000,0,0,0,0,0,0,0,0,0,0
1681114585.99967694,132628594,1000,1000,1000,1000,0,0,0,0,0,0,0,0,0,0
1681114586.09963703,132728554,1000,1000,1000,1000,0,0,0,0,0,0,0,0,0,0
1681114586.19959712,132828514,1000,1000,1000,1000,0,0,0,0,0,0,0,0,0,0
1681114586.29955697,132928474,1000,1000,1000,1000,0,0,0,0,0,0,0,0,0,0
1681114586.39951706,133028434,1000,1000,1000,1000,0,0,0,0,0,0,0,0,0,0
1681114586.49947691,133128394,1000,1000,1000,1000,0,0,0,0,0,0,0,0,0,0
1681114586.59943700,133228354,1000,1000,1000,1000,0,0,0,0,0,0,0,0,0,0
1681114586.69939709,133328314,1000,1000,1000,1000,0,0,0,0,0,0,0,0,0,0
1681114586.79935694,133428274,1000,1000,1000,1000,0,0,0,0,0,0,0,0,0,0
1681114586.89931703,133528234,1000,1000,1000,1000,0,0,0,0,0,0,0,0,0,0
1681114586.99927711,133628194,1000,1000,1000,1000,0,0,0,0,0,0,0,0,0,0
1681114587.09923697,133728154,1000,1000,1000,1000,0,0,0,0,0,0,0,0,0,0
1681114587.20003009,133828947,1000,1000,1000,1000,0,0,0,0,0,0,0,0,0,0
1681114587.29998994,133928907,1000,1000,1000,1000,0,0,0,0,0,0,0,0,0,0
1681114587.39995003,134028867,1000,1000,1000,1000,0,0,0,0,0,0,0,0,0,0
1681114587.49991012,134128827,1000,1000,1000,1000,0,0,0,0,0,0,0,0,0,0
1681114587.59986997,134228787,1000,1000,1000,1000,0,0,0,0,0,0,0,0,0,0
1681114587.69983006,134328747,1000,1000,1000,1000,0,0,0,0,0,0,0,0,0,0
1681114587.79978991,134428707,1000,1000,1000,1000,0,0,0,0,0,0,0,0,0,0
1681114587.89974999,134528667,1000,1000,1000,1000,0,0,0,0,0,0,0,0,0,0
1681114587.99971008,134628627,1000,1000,1000,1000,0,0,0,0,0,0,0,0,0,0
1681114588.09966993,134728587,1000,1000,1000,1000,0,0,0,0,0,0,0,0,0,0
1681114588.19963002,134828547,1000,1000,1000,1000,0,0,0,0,0,0,0,0,0,0
1681114588.29959011,134928507,1000,1000,1000,1000,0,0,0,0,0,0,0,0,0,0
1681114588.39954996,135028467,1000,1000,1000,1000,0,0,0,0,0,0,0,0,0,0
1681114588.49951005,135128427,1000,1000,1000,1000,0,0,0,0,0,0,0,0,0,0
1681114588.59947014,135228387,1000,1000,1000,1000,0,0,0,0,0,0,0,0,0,0
1681114588.69942999,135328347,1000,1000,1000,1000,0,0,0,0,0,0,0,0,0,0
1681114588.79939008,135428307,1000,1000,1000,1000,0,0,0,0,0,0,0,0,0,0
1681114588.89934993,135528267,1000,1000,1000,1000,0,0,0,0,0,0,0,0,0,0
1681114588.99931002,135628227,1000,1000,1000,1000,0,0,0,0,0,0,0,0,0,0
1681114589.09927011,135728187,1000,1000,1000,1000,0,0,0,0,0,0,0,0,0,0
1681114589.20006299,135828980,1000,1000,1000,1000,0,0,0,0,0,0,0,0,0,0
1681114589.30002308,135928940,1000,1000,1000,1000,0,0,0,0,0,0,0,0,0,0
1681114589.39998293,136028900,1000,1000,1000,1000,0,0,0,0,0,0,0,0,0,0
1681114589.49994302,136128860,1000,1000,1000,1000,0,0,0,0,0,0,0,0,0,0
1681114589.59990311,136228820,1000,1000,1000,1000,0,0,0,0,0,0,0,0,0,0
1681114589.69986296,136328780,1000,1000,1000,1000,0,0,0,0,0,0,0,0,0,0
