timestamp,TimeUS,C1,C2,C3,C4,C5,C6,C7,C8,C9,C10,C11,C12,C13,C14
1680794374.59999990,38228869,1000,1000,1000,1000,0,0,0,0,0,0,0,0,0,0
1680794374.69995999,38328829,1000,1000,1000,1000,0,0,0,0,0,0,0,0,0,0
1680794374.79991984,38428789,1000,1000,1000,1000,0,0,0,0,0,0,0,0,0,0
1680794374.89987993,38528749,1000,1000,1000,1000,0,0,0,0,0,0,0,0,0,0
1680794374.99984002,38628709,1000,1000,1000,1000,0,0,0,0,0,0,0,0,0,0
1680794375.09979987,38728669,1000,1000,1000,1000,0,0,0,0,0,0,0,0,0,0
1680794375.19975996,38828629,1000,1000,1000,1000,0,0,0,0,0,0,0,0,0,0
1680794375.29972005,38928589,1000,1000,1000,1000,0,0,0,0,0,0,0,0,0,0
1680794375.39967990,39028549,1000,1000,1000,1000,0,0,0,0,0,0,0,0,0,0
1680794375.49963999,39128509,1000,1000,1000,1000,0,0,0,0,0,0,0,0,0,0
1680794375.59959984,39228469,1000,1000,1000,1000,0,0,0,0,0,0,0,0,0,0
1680794375.69955993,39328429,1000,1000,1000,1000,0,0,0,0,0,0,0,0,0,0
1680794375.79952002,39428389,1000,1000,1000,1000,0,0,0,0,0,0,0,0,0,0
1680794375.89947987,39528349,1000,1000,1000,1000,0,0,0,0,0,0,0,0,0,0
1680794375.99943995,39628309,1000,1000,1000,1000,0,0,0,0,0,0,0,0,0,0
1680794376.09940004,39728269,1000,1000,1000,1000,0,0,0,0,0,0,0,0,0,0
1680794376.19935989,39828229,1000,1000,1000,1000,0,0,0,0,0,0,0,0,0,0
1680794376.29931998,39928189,1000,1000,1000,1000,0,0,0,0,0,0,0,0,0,0
1680794376.40011287,40028982,1000,1000,1000,1000,0,0,0,0,0,0,0,0,0,0
1680794376.50007296,40128942,1000,1000,1000,1000,0,0,0,0,0,0,0,0,0,0
1680794376.60003304,40228902,1000,1000,1000,1000,0,0,0,0,0,0,0,0,0,0
1680794376.69999290,40328862,1000,1000,1000,1000,0,0,0,0,0,0,0,0,0,0
1680794376.79995298,40428822,1000,1000,1000,1000,0,0,0,0,0,0,0,0,0,0
1680794376.89991283,40528782,1000,1000,1000,1000,0,0,0,0,0,0,0,0,0,0
1680794376.99987292,40628742,1000,1000,1000,1000,0,0,0,0,0,0,0,0,0,0
1680794377.09983301,40728702,1000,1000,1000,1000,0,0,0,0,0,0,0,0,0,0
1680794377.19979286,40828662,1000,1000,1000,1000,0,0,0,0,0,0,0,0,0,0
1680794377.29975295,40928622,1000,1000,1000,1000,0,0,0,0,0,0,0,0,0,0
1680794377.39971304,41028582,1000,1000,1000,1000,0,0,0,0,0,0,0,0,0,0
1680794377.49967289,41128542,1000,1000,1000,1000,0,0,0,0,0,0,0,0,0,0
1680794377.59963298,41228502,1000,1000,1000,1000,0,0,0,0,0,0,0,0,0,0
1680794377.69959283,41328462,1000,1000,1000,1000,0,0,0,0,0,0,0,0,0,0
1680794377.79955292,41428422,1000,1000,1000,1000,0,0,0,0,0,0,0,0,0,0
1680794377.89951301,41528382,1000,1000,1000,1000,0,0,0,0,0,0,0,0,0,0
1680794377.99947286,41628342,1000,1000,1000,1000,0,0,0,0,0,0,0,0,0,0
1680794378.09943295,41728302,1000,1000,1000,1000,0,0,0,0,0,0,0,0,0,0
1680794378.19939303,41828262,1000,1000,1000,1000,0,0,0,0,0,0,0,0,0,0
1680794378.29935288,41928222,1000,1000,1000,1000,0,0,0,0,0,0,0,0,0,0
1680794378.39931297,42028182,1000,1000,1000,1000,0,0,0,0,0,0,0,0,0,0
1680794378.50010586,42128975,1000,1000,1000,1000,0,0,0,0,0,0,0,0,0,0
1680794378.60006595,42228935,1000,1000,1000,1000,0,0,0,0,0,0,0,0,0,0
1680794378.70002604,42328895,1000,1000,1000,1000,0,0,0,0,0,0,0,0,0,0
1680794378.79998589,42428855,1000,1000,1000,1000,0,0,0,0,0,0,0,0,0,0
1680794378.89994597,42528815,1000,1000,1000,1000,0,0,0,0,0,0,0,0,0,0
1680794378.99990582,42628775,1000,1000,1000,1000,0,0,0,0,0,0,0,0,0,0
1680794379.09986591,42728735,1000,1000,1000,1000,0,0,0,0,0,0,0,0,0,0
1680794379.19982600,42828695,1000,1000,1000,1000,0,0,0,0,0,0,0,0,0,0
1680794379.29978585,42928655,1000,1000,1000,1000,0,0,0,0,0,0,0,0,0,0
1680794379.39974594,43028615,1000,1000,1000,1000,0,0,0,0,0,0,0,0,0,0
1680794379.49970603,43128575,1000,1000,1000,1000,0,0,0,0,0,0,0,0,0,0
1680794379.59966588,43228535,1000,1000,1000,1000,0,0,0,0,0,0,0,0,0,0
1680794379.69962597,43328495,1000,1000,1000,1000,0,0,0,0,0,0,0,0,0,0
1680794379.79958606,43428455,1000,1000,1000,1000,0,0,0,0,0,0,0,0,0,0
1680794379.89954591,43528415,1000,1000,1000,1000,0,0,0,0,0,0,0,0,0,0
1680794379.99950600,43628375,1000,1000,1000,1000,0,0,0,0,0,0,0,0,0,0
1680794380.09946585,43728335,1000,1000,1000,1000,0,0,0,0,0,0,0,0,0,0
1680794380.19942594,43828295,1000,1000,1000,1000,0,0,0,0,0,0,0,0,0,0
1680794380.29938602,43928255,1000,1000,1000,1000,0,0,0,0,0,0,0,0,0,0
1680794380.39934587,44028215,1000,1000,1000,1000,0,0,0,0,0,0,0,0,0,0
1680794380.49930596,44128175,1000,1000,1000,1000,0,0,0,0,0,0,0,0,0,0
1680794380.60009885,44228968,1000,1000,1000,1000,0,0,0,0,0,0,0,0,0,0
1680794380.70005894,44328928,1000,1000,1000,1000,0,0,0,0,0,0,0,0,0,0
1680794380.80001903,44428888,1000,1000,1000,1000,0,0,0,0,0,0,0,0,0,0
1680794380.89997888,44528848,1000,1000,1000,1000,0,0,0,0,0,0,0,0,0,0
1680794380.99993896,44628808,1000,1000,1000,1000,0,0,0,0,0,0,0,0,0,0
1680794381.09989905,44728768,1000,1000,1000,1000,0,0,0,0,0,0,0,0,0,0
1680794381.19985890,44828728,1000,1000,1000,1000,0,0,0,0,0,0,0,0,0,0
1680794381.29981899,44928688,1000,1000,1000,1000,0,0,0,0,0,0,0,0,0,0
1680794381.39977884,45028648,1000,1000,1000,1000,0,0,0,0,0,0,0,0,0,0
1680794381.49973893,45128608,1000,1000,1000,1000,0,0,0,0,0,0,0,0,0,0
1680794381.59969902,45228568,1000,1000,1000,1000,0,0,0,0,0,0,0,0,0,0
1680794381.69965887,45328528,1000,1000,1000,1000,0,0,0,0,0,0,0,0,0,0
1680794381.79961896,45428488,1000,1000,1000,1000,0,0,0,0,0,0,0,0,0,0
1680794381.89957905,45528448,1000,1000,1000,1000,0,0,0,0,0,0,0,0,0,0
1680794381.99953890,45628408,1000,1000,1000,1000,0,0,0,0,0,0,0,0,0,0
1680794382.09949899,45728368,1000,1000,1000,1000,0,0,0,0,0,0,0,0,0,0
1680794382.19945884,45828328,1000,1000,1000,1000,0,0,0,0,0,0,0,0,0,0
1680794382.29941893,45928288,1000,1000,1000,1000,0,0,0,0,0,0,0,0,0,0
1680794382.39937901,46028248,1000,1000,1000,1000,0,0,0,0,0,0,0,0,0,0
1680794382.49933887,46128208,1000,1000,1000,1000,0,0,0,0,0,0,0,0,0,0
1680794382.59929895,46228168,1000,1000,1000,1000,0,0,0,0,0,0,0,0,0,0
1680794382.70009184,46328961,1000,1000,1000,1000,0,0,0,0,0,0,0,0,0,0
1680794382.80005193,46428921,1000,1000,1000,1000,0,0,0,0,0,0,0,0,0,0
1680794382.90001202,46528881,1000,1000,1000,1000,0,0,0,0,0,0,0,0,0,0
1680794382.99997187,46628841,1000,1000,1000,1000,0,0,0,0,0,0,0,0,0,0
1680794383.09993196,46728801,1000,1000,1000,1000,0,0,0,0,0,0,0,0,0,0
1680794383.19989204,46828761,1000,1000,1000,1000,0,0,0,0,0,0,0,0,0,0
1680794383.29985189,46928721,1000,1000,1000,1000,0,0,0,0,0,0,0,0,0,0
1680794383.39981198,47028681,1000,1000,1000,1000,0,0,0,0,0,0,0,0,0,0
1680794383.49977183,47128641,1000,1000,1000,1000,0,0,0,0,0,0,0,0,0,0
1680794383.59973192,47228601,1000,1000,1000,1000,0,0,0,0,0,0,0,0,0,0
1680794383.69969201,47328561,1000,1000,1000,1000,0,0,0,0,0,0,0,0,0,0
1680794383.79965186,47428521,1000,1000,1000,1000,0,0,0,0,0,0,0,0,0,0
1680794383.89961195,47528481,1000,1000,1000,1000,0,0,0,0,0,0,0,0,0,0
1680794383.99957204,47628441,1000,1000,1000,1000,0,0,0,0,0,0,0,0,0,0
1680794384.09953189,47728401,1000,1000,1000,1000,0,0,0,0,0,0,0,0,0,0
1680794384.19949198,47828361,1000,1000,1000,1000,0,0,0,0,0,0,0,0,0,0
1680794384.29945183,47928321,1000,1000,1000,1000,0,0,0,0,0,0,0,0,0,0
1680794384.39941192,48028281,1000,1000,1000,1000,0,0,0,0,0,0,0,0,0,0
1680794384.49937201,48128241,1000,1000,1000,1000,0,0,0,0,0,0,0,0,0,0
1680794384.59933186,48228201,1000,1000,1000,1000,0,0,0,0,0,0,0,0,0,0
1680794384.69929194,48328161,1000,1000,1000,1000,0,0,0,0,0,0,0,0,0,0
1680794384.80008483,48428954,1000,1000,1000,1000,0,0,0,0,0,0,0,0,0,0
1680794384.90004492,48528914,1000,1000,1000,1000,0,0,0,0,0,0,0,0,0,0
1680794385.00000501,48628874,1000,1000,1000,1000,0,0,0,0,0,0,0,0,0,0
1680794385.09996486,48728834,1000,1000,1000,1000,0,0,0,0,0,0,0,0,0,0
1680794385.19992495,48828794,1000,1000,1000,1000,0,0,0,0,0,0,0,0,0,0
1680794385.29988503,48928754,1000,1000,1000,1000,0,0,0,0,0,0,0,0,0,0
1680794385.39984488,49028714,1000,1000,1000,1000,0,0,0,0,0,0,0,0,0,0
1680794385.49980497,49128674,1000,1000,1000,1000,0,0,0,0,0,0,0,0,0,0
1680794385.59976506,49228634,1000,1000,1000,1000,0,0,0,0,0,0,0,0,0,0
1680794385.69972491,49328594,1000,1000,1000,1000,0,0,0,0,0,0,0,0,0,0
1680794385.79968500,49428554,1000,1000,1000,1000,0,0,0,0,0,0,0,0,0,0
1680794385.89964485,49528514,1000,1000,1000,1000,0,0,0,0,0,0,0,0,0,0
1680794385.99960494,49628474,1000,1000,1000,1000,0,0,0,0,0,0,0,0,0,0
1680794386.09956503,49728434,1000,1000,1000,1000,0,0,0,0,0,0,0,0,0,0
1680794386.19952488,49828394,1000,1000,1000,1000,0,0,0,0,0,0,0,0,0,0
1680794386.29948497,49928354,1000,1000,1000,1000,0,0,0,0,0,0,0,0,0,0
1680794386.39944506,50028314,1000,1000,1000,1000,0,0,0,0,0,0,0,0,0,0
1680794386.49940491,50128274,1000,1000,1000,1000,0,0,0,0,0,0,0,0,0,0
1680794386.59936500,50228234,1000,1000,1000,1000,0,0,0,0,0,0,0,0,0,0
1680794386.69932485,50328194,1000,1000,1000,1000,0,0,0,0,0,0,0,0,0,0
1680794386.79928493,50428154,1000,1000,1000,1000,0,0,0,0,0,0,0,0,0,0
1680794386.90007806,50528947,1000,1000,1000,1000,0,0,0,0,0,0,0,0,0,0
1680794387.00003791,50628907,1000,1000,1000,1000,0,0,0,0,0,0,0,0,0,0
1680794387.09999800,50728867,1000,1000,1000,1000,0,0,0,0,0,0,0,0,0,0
1680794387.19995785,50828827,1000,1000,1000,1000,0,0,0,0,0,0,0,0,0,0
1680794387.29991794,50928787,1000,1000,1000,1000,0,0,0,0,0,0,0,0,0,0
1680794387.39987803,51028747,1000,1000,1000,1000,0,0,0,0,0,0,0,0,0,0
1680794387.49983788,51128707,1000,1000,1000,1000,0,0,0,0,0,0,0,0,0,0
1680794387.59979796,51228667,1000,1000,1000,1000,0,0,0,0,0,0,0,0,0,0
1680794387.69975805,51328627,1000,1000,1000,1000,0,0,0,0,0,0,0,0,0,0
1680794387.79971790,51428587,1000,1000,1000,1000,0,0,0,0,0,0,0,0,0,0
1680794387.89967799,51528547,1000,1000,1000,1000,0,0,0,0,0,0,0,0,0,0
1680794387.99963784,51628507,1000,1000,1000,1000,0,0,0,0,0,0,0,0,0,0
1680794388.09959793,51728467,1000,1000,1000,1000,0,0,0,0,0,0,0,0,0,0
1680794388.19955802,51828427,1000,1000,1000,1000,0,0,0,0,0,0,0,0,0,0
1680794388.29951787,51928387,1000,1000,1000,1000,0,0,0,0,0,0,0,0,0,0
1680794388.39947796,52028347,1000,1000,1000,1000,0,0,0,0,0,0,0,0,0,0
1680794388.49943805,52128307,1000,1000,1000,1000,0,0,0,0,0,0,0,0,0,0
1680794388.59939790,52228267,1000,1000,1000,1000,0,0,0,0,0,0,0,0,0,0
1680794388.69935799,52328227,1000,1000,1000,1000,0,0,0,0,0,0,0,0,0,0
1680794388.79931784,52428187,1000,1000,1000,1000,0,0,0,0,0,0,0,0,0,0
1680794388.90011096,52528980,1000,1000,1000,1000,0,0,0,0,0,0,0,0,0,0
1680794389.00007105,52628940,1000,1000,1000,1000,0,0,0,0,0,0,0,0,0,0
1680794389.10003090,52728900,1000,1000,1000,1000,0,0,0,0,0,0,0,0,0,0
1680794389.19999099,52828860,1000,1000,1000,1000,0,0,0,0,0,0,0,0,0,0
1680794389.29995084,52928820,1000,1000,1000,1000,0,0,0,0,0,0,0,0,0,0
1680794389.39991093,53028780,1000,1000,1000,1000,0,0,0,0,0,0,0,0,0,0
1680794389.49987102,53128740,1000,1000,1000,1000,0,0,0,0,0,0,0,0,0,0
1680794389.59983087,53228700,1000,1000,1000,1000,0,0,0,0,0,0,0,0,0,0
1680794389.69979095,53328660,1000,1000,1000,1000,0,0,0,0,0,0,0,0,0,0
1680794389.79975104,53428620,1000,1000,1000,1000,0,0,0,0,0,0,0,0,0,0
1680794389.89971089,53528580,1000,1000,1000,1000,0,0,0,0,0,0,0,0,0,0
1680794389.99967098,53628540,1000,1000,1000,1000,0,0,0,0,0,0,0,0,0,0
1680794390.09963083,53728500,1000,1000,1000,1000,0,0,0,0,0,0,0,0,0,0
1680794390.19959092,53828460,1000,1000,1000,1000,0,0,0,0,0,0,0,0,0,0
1680794390.29955101,53928420,1000,1000,1000,1000,0,0,0,0,0,0,0,0,0,0
1680794390.39951086,54028380,1009,1009,1009,1009,0,0,0,0,0,0,0,0,0,0
1680794390.49947095,54128340,1039,1039,1039,1039,0,0,0,0,0,0,0,0,0,0
1680794390.59943104,54228300,1069,1069,1069,1069,0,0,0,0,0,0,0,0,0,0
1680794390.69939089,54328260,1099,1099,1099,1099,0,0,0,0,0,0,0,0,0,0
1680794390.79935098,54428220,1128,1128,1128,1128,0,0,0,0,0,0,0,0,0,0
1680794390.89931083,54528180,1236,1228,1229,1236,0,0,0,0,0,0,0,0,0,0
1680794391.00010395,54628973,1458,1453,1453,1459,0,0,0,0,0,0,0,0,0,0
1680794391.10006404,54728933,1626,1621,1621,1626,0,0,0,0,0,0,0,0,0,0
1680794391.20002389,54828893,1767,1762,1762,1766,0,0,0,0,0,0,0,0,0,0
1680794391.29998398,54928853,1890,1885,1885,1890,0,0,0,0,0,0,0,0,0,0
1680794391.39994383,55028813,1875,1872,1871,1876,0,0,0,0,0,0,0,0,0,0
1680794391.49990392,55128773,1761,1759,1758,1763,0,0,0,0,0,0,0,0,0,0
1680794391.59986401,55228733,1653,1654,1652,1655,0,0,0,0,0,0,0,0,0,0
1680794391.69982386,55328693,1614,1616,1615,1615,0,0,0,0,0,0,0,0,0,0
1680794391.79978395,55428653,1617,1619,1619,1618,0,0,0,0,0,0,0,0,0,0
1680794391.89974403,55528613,1627,1629,1629,1627,0,0,0,0,0,0,0,0,0,0
1680794391.99970388,55628573,1630,1630,1631,1629,0,0,0,0,0,0,0,0,0,0
1680794392.09966397,55728533,1625,1624,1625,1624,0,0,0,0,0,0,0,0,0,0
1680794392.19962406,55828493,1621,1620,1620,1621,0,0,0,0,0,0,0,0,0,0
1680794392.29958391,55928453,1618,1617,1617,1618,0,0,0,0,0,0,0,0,0,0
1680794392.39954400,56028413,1619,1618,1618,1619,0,0,0,0,0,0,0,0,0,0
1680794392.49950385,56128373,1619,1619,1619,1619,0,0,0,0,0,0,0,0,0,0
1680794392.59946394,56228333,1622,1622,1622,1621,0,0,0,0,0,0,0,0,0,0
1680794392.69942403,56328293,1600,1601,1605,1596,0,0,0,0,0,0,0,0,0,0
1680794392.79938388,56428253,1582,1584,1590,1575,0,0,0,0,0,0,0,0,0,0
1680794392.89934397,56528213,1571,1571,1575,1567,0,0,0,0,0,0,0,0,0,0
1680794392.99930406,56628173,1561,1561,1560,1562,0,0,0,0,0,0,0,0,0,0
1680794393.10009694,56728966,1552,1551,1546,1557,0,0,0,0,0,0,0,0,0,0
1680794393.20005703,56828926,1545,1544,1536,1554,0,0,0,0,0,0,0,0,0,0
1680794393.30001688,56928886,1539,1538,1531,1546,0,0,0,0,0,0,0,0,0,0
1680794393.39997697,57028846,1533,1532,1528,1536,0,0,0,0,0,0,0,0,0,0
1680794393.49993706,57128806,1529,1529,1528,1529,0,0,0,0,0,0,0,0,0,0
1680794393.59989691,57228766,1528,1528,1530,1527,0,0,0,0,0,0,0,0,0,0
1680794393.69985700,57328726,1530,1530,1533,1527,0,0,0,0,0,0,0,0,0,0
1680794393.79981685,57428686,1532,1532,1536,1529,0,0,0,0,0,0,0,0,0,0
1680794393.89977694,57528646,1535,1535,1538,1533,0,0,0,0,0,0,0,0,0,0
1680794393.99973702,57628606,1539,1539,1541,1537,0,0,0,0,0,0,0,0,0,0
1680794394.09969687,57728566,1542,1543,1543,1542,0,0,0,0,0,0,0,0,0,0
1680794394.19965696,57828526,1546,1546,1546,1546,0,0,0,0,0,0,0,0,0,0
1680794394.29961705,57928486,1549,1548,1548,1549,0,0,0,0,0,0,0,0,0,0
1680794394.39957690,58028446,1551,1551,1550,1551,0,0,0,0,0,0,0,0,0,0
1680794394.49953699,58128406,1554,1553,1553,1555,0,0,0,0,0,0,0,0,0,0
1680794394.59949684,58228366,1554,1552,1556,1558,0,0,0,0,0,0,0,0,0,0
1680794394.69945693,58328326,1552,1552,1562,1563,0,0,0,0,0,0,0,0,0,0
1680794394.79941702,58428286,1556,1557,1565,1566,0,0,0,0,0,0,0,0,0,0
1680794394.89937687,58528246,1559,1560,1566,1566,0,0,0,0,0,0,0,0,0,0
1680794394.99933696,58628206,1562,1562,1565,1565,0,0,0,0,0,0,0,0,0,0
1680794395.09929705,58728166,1565,1565,1565,1565,0,0,0,0,0,0,0,0,0,0
1680794395.20008993,58828959,1568,1568,1565,1565,0,0,0,0,0,0,0,0,0,0
1680794395.30005002,58928919,1570,1570,1565,1565,0,0,0,0,0,0,0,0,0,0
1680794395.40000987,59028879,1571,1571,1564,1564,0,0,0,0,0,0,0,0,0,0
1680794395.49996996,59128839,1573,1572,1566,1566,0,0,0,0,0,0,0,0,0,0
1680794395.59993005,59228799,1573,1572,1566,1567,0,0,0,0,0,0,0,0,0,0
1680794395.69988990,59328759,1574,1573,1568,1569,0,0,0,0,0,0,0,0,0,0
1680794395.79984999,59428719,1574,1574,1570,1571,0,0,0,0,0,0,0,0,0,0
1680794395.89980984,59528679,1574,1574,1572,1572,0,0,0,0,0,0,0,0,0,0
1680794395.99976993,59628639,1574,1575,1574,1573,0,0,0,0,0,0,0,0,0,0
1680794396.09973001,59728599,1574,1574,1576,1574,0,0,0,0,0,0,0,0,0,0
1680794396.19968987,59828559,1574,1575,1577,1576,0,0,0,0,0,0,0,0,0,0
1680794396.29964995,59928519,1575,1575,1578,1577,0,0,0,0,0,0,0,0,0,0
1680794396.39961004,60028479,1576,1575,1578,1578,0,0,0,0,0,0,0,0,0,0
1680794396.49956989,60128439,1575,1574,1577,1577,0,0,0,0,0,0,0,0,0,0
1680794396.59952998,60228399,1575,1575,1577,1577,0,0,0,0,0,0,0,0,0,0
1680794396.69948983,60328359,1575,1575,1576,1577,0,0,0,0,0,0,0,0,0,0
1680794396.79944992,60428319,1576,1577,1577,1577,0,0,0,0,0,0,0,0,0,0
1680794396.89941001,60528279,1577,1576,1577,1577,0,0,0,0,0,0,0,0,0,0
1680794396.99936986,60628239,1577,1577,1577,1576,0,0,0,0,0,0,0,0,0,0
1680794397.09932995,60728199,1577,1577,1576,1577,0,0,0,0,0,0,0,0,0,0
1680794397.19929004,60828159,1577,1578,1577,1577,0,0,0,0,0,0,0,0,0,0
1680794397.30008292,60928952,1577,1577,1576,1576,0,0,0,0,0,0,0,0,0,0
1680794397.40004301,61028912,1578,1578,1577,1577,0,0,0,0,0,0,0,0,0,0
1680794397.50000286,61128872,1578,1578,1577,1577,0,0,0,0,0,0,0,0,0,0
1680794397.59996295,61228832,1578,1578,1578,1577,0,0,0,0,0,0,0,0,0,0
1680794397.69992304,61328792,1578,1579,1578,1578,0,0,0,0,0,0,0,0,0,0
1680794397.79988289,61428752,1579,1578,1578,1578,0,0,0,0,0,0,0,0,0,0
1680794397.89984298,61528712,1578,1579,1578,1579,0,0,0,0,0,0,0,0,0,0
1680794397.99980283,61628672,1579,1579,1579,1579,0,0,0,0,0,0,0,0,0,0
1680794398.09976292,61728632,1579,1579,1579,1579,0,0,0,0,0,0,0,0,0,0
1680794398.19972301,61828592,1578,1579,1579,1579,0,0,0,0,0,0,0,0,0,0
1680794398.29968286,61928552,1578,1578,1579,1579,0,0,0,0,0,0,0,0,0,0
1680794398.39964294,62028512,1579,1579,1579,1579,0,0,0,0,0,0,0,0,0,0
1680794398.49960303,62128472,1579,1578,1579,1579,0,0,0,0,0,0,0,0,0,0
1680794398.59956288,62228432,1579,1578,1579,1579,0,0,0,0,0,0,0,0,0,0
1680794398.69952297,62328392,1579,1579,1579,1580,0,0,0,0,0,0,0,0,0,0
1680794398.79948306,62428352,1579,1580,1580,1580,0,0,0,0,0,0,0,0,0,0
1680794398.89944291,62528312,1579,1580,1579,1580,0,0,0,0,0,0,0,0,0,0
1680794398.99940300,62628272,1580,1580,1580,1580,0,0,0,0,0,0,0,0,0,0
1680794399.09936285,62728232,1580,1580,1580,1580,0,0,0,0,0,0,0,0,0,0
1680794399.19932294,62828192,1580,1580,1580,1580,0,0,0,0,0,0,0,0,0,0
1680794399.30011606,62928985,1580,1580,1580,1580,0,0,0,0,0,0,0,0,0,0
1680794399.40007591,63028945,1580,1580,1580,1580,0,0,0,0,0,0,0,0,0,0
1680794399.50003600,63128905,1580,1580,1580,1580,0,0,0,0,0,0,0,0,0,0
1680794399.59999585,63228865,1581,1580,1580,1581,0,0,0,0,0,0,0,0,0,0
1680794399.69995594,63328825,1580,1580,1580,1580,0,0,0,0,0,0,0,0,0,0
1680794399.79991603,63428785,1579,1580,1580,1580,0,0,0,0,0,0,0,0,0,0
1680794399.89987588,63528745,1580,1580,1580,1580,0,0,0,0,0,0,0,0,0,0
1680794399.99983597,63628705,1581,1581,1581,1581,0,0,0,0,0,0,0,0,0,0
1680794400.09979606,63728665,1580,1580,1581,1581,0,0,0,0,0,0,0,0,0,0
1680794400.19975591,63828625,1581,1581,1581,1581,0,0,0,0,0,0,0,0,0,0
1680794400.29971600,63928585,1580,1580,1580,1581,0,0,0,0,0,0,0,0,0,0
1680794400.39967585,64028545,1580,1580,1580,1580,0,0,0,0,0,0,0,0,0,0
1680794400.49963593,64128505,1581,1581,1581,1581,0,0,0,0,0,0,0,0,0,0
1680794400.59959602,64228465,1581,1581,1581,1581,0,0,0,0,0,0,0,0,0,0
1680794400.69955587,64328425,1580,1580,1580,1580,0,0,0,0,0,0,0,0,0,0
1680794400.79951596,64428385,1581,1581,1585,1577,0,0,0,0,0,0,0,0,0,0
1680794400.89947605,64528345,1580,1582,1587,1573,0,0,0,0,0,0,0,0,0,0
1680794400.99943590,64628305,1579,1581,1581,1573,0,0,0,0,0,0,0,0,0,0
1680794401.09939599,64728265,1577,1581,1572,1573,0,0,0,0,0,0,0,0,0,0
1680794401.19935584,64828225,1576,1579,1564,1570,0,0,0,0,0,0,0,0,0,0
1680794401.29931593,64928185,1577,1579,1559,1566,0,0,0,0,0,0,0,0,0,0
1680794401.40010905,65028978,1578,1579,1556,1562,0,0,0,0,0,0,0,0,0,0
1680794401.50006890,65128938,1579,1577,1555,1557,0,0,0,0,0,0,0,0,0,0
1680794401.60002899,65228898,1580,1578,1556,1555,0,0,0,0,0,0,0,0,0,0
1680794401.69998884,65328858,1579,1577,1555,1554,0,0,0,0,0,0,0,0,0,0
1680794401.79994893,65428818,1578,1578,1557,1554,0,0,0,0,0,0,0,0,0,0
1680794401.89990902,65528778,1577,1578,1557,1555,0,0,0,0,0,0,0,0,0,0
1680794401.99986887,65628738,1576,1578,1556,1554,0,0,0,0,0,0,0,0,0,0
1680794402.09982896,65728698,1575,1577,1555,1554,0,0,0,0,0,0,0,0,0,0
1680794402.19978905,65828658,1576,1578,1554,1554,0,0,0,0,0,0,0,0,0,0
1680794402.29974890,65928618,1576,1578,1551,1552,0,0,0,0,0,0,0,0,0,0
1680794402.39970899,66028578,1578,1579,1549,1550,0,0,0,0,0,0,0,0,0,0
1680794402.49966884,66128538,1580,1580,1547,1546,0,0,0,0,0,0,0,0,0,0
1680794402.59962893,66228498,1582,1583,1544,1544,0,0,0,0,0,0,0,0,0,0
1680794402.69958901,66328458,1585,1586,1541,1541,0,0,0,0,0,0,0,0,0,0
1680794402.79954886,66428418,1588,1589,1539,1538,0,0,0,0,0,0,0,0,0,0
1680794402.89950895,66528378,1592,1592,1537,1536,0,0,0,0,0,0,0,0,0,0
1680794402.99946904,66628338,1594,1594,1536,1535,0,0,0,0,0,0,0,0,0,0
1680794403.09942889,66728298,1596,1594,1535,1536,0,0,0,0,0,0,0,0,0,0
1680794403.19938898,66828258,1596,1596,1537,1538,0,0,0,0,0,0,0,0,0,0
1680794403.29934883,66928218,1594,1593,1538,1540,0,0,0,0,0,0,0,0,0,0
1680794403.39930892,67028178,1591,1591,1542,1545,0,0,0,0,0,0,0,0,0,0
1680794403.50010204,67128971,1586,1584,1548,1551,0,0,0,0,0,0,0,0,0,0
1680794403.60006189,67228931,1579,1577,1558,1560,0,0,0,0,0,0,0,0,0,0
1680794403.70002198,67328891,1570,1566,1568,1570,0,0,0,0,0,0,0,0,0,0
1680794403.79998183,67428851,1559,1555,1579,1581,0,0,0,0,0,0,0,0,0,0
1680794403.89994192,67528811,1549,1545,1592,1592,0,0,0,0,0,0,0,0,0,0
1680794403.99990201,67628771,1539,1538,1603,1602,0,0,0,0,0,0,0,0,0,0
1680794404.09986186,67728731,1532,1532,1610,1609,0,0,0,0,0,0,0,0,0,0
1680794404.19982195,67828691,1530,1531,1615,1614,0,0,0,0,0,0,0,0,0,0
1680794404.29978204,67928651,1529,1532,1615,1614,0,0,0,0,0,0,0,0,0,0
1680794404.39974189,68028611,1534,1536,1612,1612,0,0,0,0,0,0,0,0,0,0
1680794404.49970198,68128571,1540,1542,1607,1607,0,0,0,0,0,0,0,0,0,0
1680794404.59966183,68228531,1548,1550,1600,1600,0,0,0,0,0,0,0,0,0,0
1680794404.69962192,68328491,1556,1557,1592,1592,0,0,0,0,0,0,0,0,0,0
1680794404.79958200,68428451,1565,1565,1585,1584,0,0,0,0,0,0,0,0,0,0
1680794404.89954185,68528411,1574,1573,1579,1578,0,0,0,0,0,0,0,0,0,0
1680794404.99950194,68628371,1580,1579,1574,1572,0,0,0,0,0,0,0,0,0,0
1680794405.09946203,68728331,1585,1583,1569,1568,0,0,0,0,0,0,0,0,0,0
1680794405.19942188,68828291,1587,1586,1568,1567,0,0,0,0,0,0,0,0,0,0
1680794405.29938197,68928251,1587,1586,1566,1566,0,0,0,0,0,0,0,0,0,0
1680794405.39934206,69028211,1587,1586,1567,1567,0,0,0,0,0,0,0,0,0,0
1680794405.49930191,69128171,1585,1584,1568,1569,0,0,0,0,0,0,0,0,0,0
1680794405.60009503,69228964,1582,1581,1571,1571,0,0,0,0,0,0,0,0,0,0
1680794405.70005488,69328924,1579,1580,1575,1575,0,0,0,0,0,0,0,0,0,0
1680794405.80001497,69428884,1577,1578,1578,1578,0,0,0,0,0,0,0,0,0,0
1680794405.89997506,69528844,1576,1576,1581,1581,0,0,0,0,0,0,0,0,0,0
1680794405.99993491,69628804,1573,1574,1582,1582,0,0,0,0,0,0,0,0,0,0
1680794406.09989500,69728764,1572,1573,1583,1583,0,0,0,0,0,0,0,0,0,0
1680794406.19985485,69828724,1572,1573,1584,1584,0,0,0,0,0,0,0,0,0,0
1680794406.29981494,69928684,1576,1576,1552,1573,0,0,0,0,0,0,0,0,0,0
1680794406.39977503,70028644,1582,1582,1572,1570,0,0,0,0,0,0,0,0,0,0
1680794406.49973488,70128604,1586,1585,1586,1573,0,0,0,0,0,0,0,0,0,0
1680794406.59969497,70228564,1588,1587,1594,1578,0,0,0,0,0,0,0,0,0,0
1680794406.69965506,70328524,1588,1588,1597,1584,0,0,0,0,0,0,0,0,0,0
1680794406.79961491,70428484,1586,1587,1595,1590,0,0,0,0,0,0,0,0,0,0
1680794406.89957500,70528444,1582,1583,1591,1592,0,0,0,0,0,0,0,0,0,0
1680794406.99953485,70628404,1579,1580,1586,1592,0,0,0,0,0,0,0,0,0,0
1680794407.09949493,70728364,1577,1576,1583,1590,0,0,0,0,0,0,0,0,0,0
1680794407.19945502,70828324,1575,1575,1581,1586,0,0,0,0,0,0,0,0,0,0
1680794407.29941487,70928284,1576,1576,1581,1584,0,0,0,0,0,0,0,0,0,0
1680794407.39937496,71028244,1576,1576,1580,1581,0,0,0,0,0,0,0,0,0,0
1680794407.49933505,71128204,1578,1578,1580,1580,0,0,0,0,0,0,0,0,0,0
1680794407.59929490,71228164,1578,1578,1578,1577,0,0,0,0,0,0,0,0,0,0
1680794407.70008802,71328957,1580,1580,1579,1577,0,0,0,0,0,0,0,0,0,0
1680794407.80004787,71428917,1581,1581,1578,1577,0,0,0,0,0,0,0,0,0,0
1680794407.90000796,71528877,1581,1581,1577,1577,0,0,0,0,0,0,0,0,0,0
1680794407.99996805,71628837,1581,1581,1576,1577,0,0,0,0,0,0,0,0,0,0
1680794408.09992790,71728797,1580,1580,1576,1577,0,0,0,0,0,0,0,0,0,0
1680794408.19988799,71828757,1581,1581,1577,1578,0,0,0,0,0,0,0,0,0,0
1680794408.29984784,71928717,1580,1580,1577,1578,0,0,0,0,0,0,0,0,0,0
1680794408.39980793,72028677,1579,1579,1577,1578,0,0,0,0,0,0,0,0,0,0
1680794408.49976802,72128637,1579,1579,1579,1578,0,0,0,0,0,0,0,0,0,0
1680794408.59972787,72228597,1578,1578,1578,1578,0,0,0,0,0,0,0,0,0,0
1680794408.69968796,72328557,1578,1579,1580,1580,0,0,0,0,0,0,0,0,0,0
1680794408.79964805,72428517,1578,1579,1582,1578,0,0,0,0,0,0,0,0,0,0
1680794408.89960790,72528477,1577,1581,1586,1571,0,0,0,0,0,0,0,0,0,0
1680794408.99956799,72628437,1578,1582,1581,1571,0,0,0,0,0,0,0,0,0,0
1680794409.09952784,72728397,1577,1580,1572,1570,0,0,0,0,0,0,0,0,0,0
1680794409.19948792,72828357,1576,1578,1562,1567,0,0,0,0,0,0,0,0,0,0
1680794409.29944801,72928317,1576,1577,1555,1563,0,0,0,0,0,0,0,0,0,0
1680794409.39940786,73028277,1578,1577,1552,1558,0,0,0,0,0,0,0,0,0,0
1680794409.49936795,73128237,1581,1579,1551,1554,0,0,0,0,0,0,0,0,0,0
1680794409.59932804,73228197,1580,1578,1551,1551,0,0,0,0,0,0,0,0,0,0
1680794409.69928789,73328157,1581,1580,1552,1551,0,0,0,0,0,0,0,0,0,0
1680794409.80008101,73428950,1580,1580,1554,1551,0,0,0,0,0,0,0,0,0,0
1680794409.90004086,73528910,1580,1580,1554,1552,0,0,0,0,0,0,0,0,0,0
1680794410.00000095,73628870,1578,1579,1553,1552,0,0,0,0,0,0,0,0,0,0
1680794410.09996104,73728830,1577,1578,1553,1553,0,0,0,0,0,0,0,0,0,0
1680794410.19992089,73828790,1577,1579,1552,1553,0,0,0,0,0,0,0,0,0,0
1680794410.29988098,73928750,1577,1578,1551,1551,0,0,0,0,0,0,0,0,0,0
1680794410.39984083,74028710,1578,1580,1550,1550,0,0,0,0,0,0,0,0,0,0
1680794410.49980092,74128670,1580,1581,1548,1549,0,0,0,0,0,0,0,0,0,0
1680794410.59976101,74228630,1583,1583,1547,1548,0,0,0,0,0,0,0,0,0,0
1680794410.69972086,74328590,1585,1585,1545,1546,0,0,0,0,0,0,0,0,0,0
1680794410.79968095,74428550,1586,1587,1543,1543,0,0,0,0,0,0,0,0,0,0
1680794410.89964104,74528510,1589,1590,1542,1543,0,0,0,0,0,0,0,0,0,0
1680794410.99960089,74628470,1591,1592,1540,1542,0,0,0,0,0,0,0,0,0,0
1680794411.09956098,74728430,1591,1591,1540,1541,0,0,0,0,0,0,0,0,0,0
1680794411.19952083,74828390,1593,1591,1543,1545,0,0,0,0,0,0,0,0,0,0
1680794411.29948092,74928350,1589,1587,1546,1548,0,0,0,0,0,0,0,0,0,0
1680794411.39944100,75028310,1585,1582,1553,1555,0,0,0,0,0,0,0,0,0,0
1680794411.49940085,75128270,1578,1574,1562,1564,0,0,0,0,0,0,0,0,0,0
1680794411.59936094,75228230,1569,1566,1571,1574,0,0,0,0,0,0,0,0,0,0
1680794411.69932103,75328190,1560,1557,1583,1584,0,0,0,0,0,0,0,0,0,0
1680794411.80011392,75428983,1551,1549,1592,1592,0,0,0,0,0,0,0,0,0,0
1680794411.90007401,75528943,1544,1543,1601,1600,0,0,0,0,0,0,0,0,0,0
1680794412.00003386,75628903,1540,1540,1607,1606,0,0,0,0,0,0,0,0,0,0
1680794412.09999394,75728863,1538,1539,1609,1608,0,0,0,0,0,0,0,0,0,0
1680794412.19995403,75828823,1540,1542,1609,1608,0,0,0,0,0,0,0,0,0,0
1680794412.29991388,75928783,1544,1546,1607,1606,0,0,0,0,0,0,0,0,0,0
1680794412.39987397,76028743,1550,1552,1604,1602,0,0,0,0,0,0,0,0,0,0
1680794412.49983406,76128703,1556,1558,1598,1598,0,0,0,0,0,0,0,0,0,0
1680794412.59979391,76228663,1563,1564,1592,1591,0,0,0,0,0,0,0,0,0,0
1680794412.69975400,76328623,1569,1569,1584,1585,0,0,0,0,0,0,0,0,0,0
1680794412.79971385,76428583,1575,1574,1578,1579,0,0,0,0,0,0,0,0,0,0
1680794412.89967394,76528543,1580,1579,1574,1575,0,0,0,0,0,0,0,0,0,0
1680794412.99963403,76628503,1583,1582,1570,1571,0,0,0,0,0,0,0,0,0,0
1680794413.09959388,76728463,1584,1583,1568,1568,0,0,0,0,0,0,0,0,0,0
1680794413.19955397,76828423,1585,1584,1569,1569,0,0,0,0,0,0,0,0,0,0
1680794413.29951406,76928383,1585,1584,1570,1569,0,0,0,0,0,0,0,0,0,0
1680794413.39947391,77028343,1582,1582,1571,1571,0,0,0,0,0,0,0,0,0,0
1680794413.49943399,77128303,1581,1581,1574,1574,0,0,0,0,0,0,0,0,0,0
1680794413.59939384,77228263,1579,1579,1577,1576,0,0,0,0,0,0,0,0,0,0
1680794413.69935393,77328223,1578,1577,1579,1579,0,0,0,0,0,0,0,0,0,0
1680794413.79931402,77428183,1576,1576,1581,1581,0,0,0,0,0,0,0,0,0,0
1680794413.90010691,77528976,1575,1575,1582,1583,0,0,0,0,0,0,0,0,0,0
1680794414.00006700,77628936,1572,1573,1582,1582,0,0,0,0,0,0,0,0,0,0
1680794414.10002685,77728896,1573,1573,1583,1583,0,0,0,0,0,0,0,0,0,0
1680794414.19998693,77828856,1572,1574,1582,1583,0,0,0,0,0,0,0,0,0,0
1680794414.29994702,77928816,1574,1575,1582,1582,0,0,0,0,0,0,0,0,0,0
1680794414.39990687,78028776,1575,1576,1582,1581,0,0,0,0,0,0,0,0,0,0
1680794414.49986696,78128736,1577,1578,1581,1581,0,0,0,0,0,0,0,0,0,0
1680794414.59982705,78228696,1579,1579,1580,1580,0,0,0,0,0,0,0,0,0,0
1680794414.69978690,78328656,1580,1579,1579,1580,0,0,0,0,0,0,0,0,0,0
1680794414.79974699,78428616,1580,1580,1579,1578,0,0,0,0,0,0,0,0,0,0
1680794414.89970684,78528576,1581,1580,1578,1577,0,0,0,0,0,0,0,0,0,0
1680794414.99966693,78628536,1582,1581,1578,1578,0,0,0,0,0,0,0,0,0,0
1680794415.09962702,78728496,1582,1582,1579,1579,0,0,0,0,0,0,0,0,0,0
1680794415.19958687,78828456,1582,1582,1579,1579,0,0,0,0,0,0,0,0,0,0
1680794415.29954696,78928416,1581,1581,1579,1579,0,0,0,0,0,0,0,0,0,0
1680794415.39950705,79028376,1580,1579,1578,1578,0,0,0,0,0,0,0,0,0,0
1680794415.49946690,79128336,1580,1580,1579,1579,0,0,0,0,0,0,0,0,0,0
1680794415.59942698,79228296,1579,1579,1580,1579,0,0,0,0,0,0,0,0,0,0
1680794415.69938684,79328256,1579,1580,1580,1580,0,0,0,0,0,0,0,0,0,0
1680794415.79934692,79428216,1579,1580,1581,1581,0,0,0,0,0,0,0,0,0,0
1680794415.89930701,79528176,1579,1579,1580,1581,0,0,0,0,0,0,0,0,0,0
1680794416.00009990,79628969,1579,1578,1580,1580,0,0,0,0,0,0,0,0,0,0
1680794416.10005999,79728929,1579,1579,1580,1580,0,0,0,0,0,0,0,0,0,0
1680794416.20001984,79828889,1579,1579,1580,1581,0,0,0,0,0,0,0,0,0,0
1680794416.29997993,79928849,1581,1581,1582,1582,0,0,0,0,0,0,0,0,0,0
1680794416.39994001,80028809,1581,1581,1581,1581,0,0,0,0,0,0,0,0,0,0
1680794416.49989986,80128769,1581,1581,1582,1581,0,0,0,0,0,0,0,0,0,0
1680794416.59985995,80228729,1581,1582,1581,1581,0,0,0,0,0,0,0,0,0,0
1680794416.69982004,80328689,1582,1582,1582,1582,0,0,0,0,0,0,0,0,0,0
1680794416.79977989,80428649,1581,1581,1580,1581,0,0,0,0,0,0,0,0,0,0
1680794416.89973998,80528609,1582,1582,1581,1581,0,0,0,0,0,0,0,0,0,0
1680794416.99969983,80628569,1581,1583,1587,1574,0,0,0,0,0,0,0,0,0,0
1680794417.09965992,80728529,1581,1584,1586,1573,0,0,0,0,0,0,0,0,0,0
1680794417.19962001,80828489,1579,1582,1577,1573,0,0,0,0,0,0,0,0,0,0
1680794417.29957986,80928449,1577,1580,1569,1571,0,0,0,0,0,0,0,0,0,0
1680794417.39953995,81028409,1577,1579,1561,1568,0,0,0,0,0,0,0,0,0,0
1680794417.49950004,81128369,1578,1579,1557,1564,0,0,0,0,0,0,0,0,0,0
1680794417.59945989,81228329,1578,1578,1554,1558,0,0,0,0,0,0,0,0,0,0
1680794417.69941998,81328289,1578,1577,1553,1555,0,0,0,0,0,0,0,0,0,0
1680794417.79937983,81428249,1579,1578,1554,1553,0,0,0,0,0,0,0,0,0,0
1680794417.89933991,81528209,1578,1577,1555,1552,0,0,0,0,0,0,0,0,0,0
1680794417.99930000,81628169,1577,1577,1555,1552,0,0,0,0,0,0,0,0,0,0
1680794418.10009289,81728962,1577,1577,1555,1553,0,0,0,0,0,0,0,0,0,0
1680794418.20005298,81828922,1575,1577,1554,1554,0,0,0,0,0,0,0,0,0,0
1680794418.30001283,81928882,1575,1577,1554,1553,0,0,0,0,0,0,0,0,0,0
1680794418.39997292,82028842,1575,1576,1552,1551,0,0,0,0,0,0,0,0,0,0
1680794418.49993300,82128802,1577,1578,1551,1552,0,0,0,0,0,0,0,0,0,0
1680794418.59989285,82228762,1578,1579,1549,1549,0,0,0,0,0,0,0,0,0,0
1680794418.69985294,82328722,1580,1581,1547,1547,0,0,0,0,0,0,0,0,0,0
1680794418.79981303,82428682,1583,1584,1545,1545,0,0,0,0,0,0,0,0,0,0
1680794418.89977288,82528642,1586,1587,1543,1543,0,0,0,0,0,0,0,0,0,0
1680794418.99973297,82628602,1588,1589,1540,1539,0,0,0,0,0,0,0,0,0,0
1680794419.09969306,82728562,1591,1591,1539,1538,0,0,0,0,0,0,0,0,0,0
1680794419.19965291,82828522,1592,1592,1537,1537,0,0,0,0,0,0,0,0,0,0
1680794419.29961300,82928482,1594,1594,1537,1539,0,0,0,0,0,0,0,0,0,0
1680794419.39957285,83028442,1594,1595,1538,1540,0,0,0,0,0,0,0,0,0,0
1680794419.49953294,83128402,1593,1593,1541,1544,0,0,0,0,0,0,0,0,0,0
1680794419.59949303,83228362,1590,1588,1546,1548,0,0,0,0,0,0,0,0,0,0
1680794419.69945288,83328322,1584,1581,1554,1556,0,0,0,0,0,0,0,0,0,0
1680794419.79941297,83428282,1576,1573,1563,1566,0,0,0,0,0,0,0,0,0,0
1680794419.89937305,83528242,1567,1563,1575,1577,0,0,0,0,0,0,0,0,0,0
1680794419.99933290,83628202,1556,1553,1587,1588,0,0,0,0,0,0,0,0,0,0
1680794420.09929299,83728162,1546,1543,1597,1597,0,0,0,0,0,0,0,0,0,0
1680794420.20008588,83828955,1538,1538,1606,1605,0,0,0,0,0,0,0,0,0,0
1680794420.30004597,83928915,1534,1534,1612,1611,0,0,0,0,0,0,0,0,0,0
1680794420.40000606,84028875,1532,1534,1614,1613,0,0,0,0,0,0,0,0,0,0
1680794420.49996591,84128835,1535,1537,1612,1612,0,0,0,0,0,0,0,0,0,0
1680794420.59992599,84228795,1540,1541,1609,1608,0,0,0,0,0,0,0,0,0,0
1680794420.69988585,84328755,1547,1548,1603,1603,0,0,0,0,0,0,0,0,0,0
1680794420.79984593,84428715,1554,1555,1596,1596,0,0,0,0,0,0,0,0,0,0
1680794420.89980602,84528675,1562,1562,1589,1588,0,0,0,0,0,0,0,0,0,0
1680794420.99976587,84628635,1570,1570,1582,1582,0,0,0,0,0,0,0,0,0,0
1680794421.09972596,84728595,1576,1575,1575,1575,0,0,0,0,0,0,0,0,0,0
1680794421.19968605,84828555,1581,1580,1571,1570,0,0,0,0,0,0,0,0,0,0
1680794421.29964590,84928515,1585,1584,1568,1568,0,0,0,0,0,0,0,0,0,0
1680794421.39960599,85028475,1587,1585,1566,1567,0,0,0,0,0,0,0,0,0,0
1680794421.49956584,85128435,1587,1586,1567,1567,0,0,0,0,0,0,0,0,0,0
1680794421.59952593,85228395,1585,1584,1567,1568,0,0,0,0,0,0,0,0,0,0
1680794421.69948602,85328355,1583,1582,1569,1570,0,0,0,0,0,0,0,0,0,0
1680794421.79944587,85428315,1579,1580,1572,1572,0,0,0,0,0,0,0,0,0,0
1680794421.89940596,85528275,1577,1578,1575,1575,0,0,0,0,0,0,0,0,0,0
1680794421.99936604,85628235,1575,1575,1578,1577,0,0,0,0,0,0,0,0,0,0
1680794422.09932590,85728195,1573,1574,1581,1580,0,0,0,0,0,0,0,0,0,0
1680794422.19928598,85828155,1572,1573,1582,1582,0,0,0,0,0,0,0,0,0,0
1680794422.30007887,85928948,1572,1573,1583,1583,0,0,0,0,0,0,0,0,0,0
1680794422.40003896,86028908,1573,1573,1584,1584,0,0,0,0,0,0,0,0,0,0
1680794422.49999905,86128868,1573,1574,1583,1583,0,0,0,0,0,0,0,0,0,0
1680794422.59995890,86228828,1573,1574,1582,1582,0,0,0,0,0,0,0,0,0,0
1680794422.69991899,86328788,1575,1575,1581,1581,0,0,0,0,0,0,0,0,0,0
1680794422.79987884,86428748,1577,1577,1581,1580,0,0,0,0,0,0,0,0,0,0
1680794422.89983892,86528708,1578,1578,1580,1579,0,0,0,0,0,0,0,0,0,0
1680794422.99979901,86628668,1580,1579,1579,1578,0,0,0,0,0,0,0,0,0,0
1680794423.09975886,86728628,1581,1581,1578,1578,0,0,0,0,0,0,0,0,0,0
1680794423.19971895,86828588,1581,1581,1577,1578,0,0,0,0,0,0,0,0,0,0
1680794423.29967904,86928548,1581,1581,1577,1577,0,0,0,0,0,0,0,0,0,0
1680794423.39963889,87028508,1582,1581,1578,1578,0,0,0,0,0,0,0,0,0,0
1680794423.49959898,87128468,1581,1581,1577,1577,0,0,0,0,0,0,0,0,0,0
1680794423.59955883,87228428,1580,1580,1578,1577,0,0,0,0,0,0,0,0,0,0
1680794423.69951892,87328388,1580,1580,1579,1579,0,0,0,0,0,0,0,0,0,0
1680794423.79947901,87428348,1580,1580,1579,1579,0,0,0,0,0,0,0,0,0,0
1680794423.89943886,87528308,1580,1580,1580,1580,0,0,0,0,0,0,0,0,0,0
1680794423.99939895,87628268,1579,1580,1581,1581,0,0,0,0,0,0,0,0,0,0
1680794424.09935904,87728228,1580,1580,1581,1581,0,0,0,0,0,0,0,0,0,0
1680794424.19931889,87828188,1580,1580,1581,1581,0,0,0,0,0,0,0,0,0,0
1680794424.30011201,87928981,1579,1580,1581,1581,0,0,0,0,0,0,0,0,0,0
1680794424.40007186,88028941,1579,1580,1581,1581,0,0,0,0,0,0,0,0,0,0
1680794424.50003195,88128901,1580,1579,1581,1581,0,0,0,0,0,0,0,0,0,0
1680794424.59999204,88228861,1581,1580,1581,1581,0,0,0,0,0,0,0,0,0,0
1680794424.69995189,88328821,1579,1579,1580,1580,0,0,0,0,0,0,0,0,0,0
1680794424.79991198,88428781,1580,1581,1581,1581,0,0,0,0,0,0,0,0,0,0
1680794424.89987183,88528741,1580,1581,1581,1578,0,0,0,0,0,0,0,0,0,0
1680794424.99983191,88628701,1581,1583,1588,1572,0,0,0,0,0,0,0,0,0,0
1680794425.09979200,88728661,1580,1580,1583,1573,0,0,0,0,0,0,0,0,0,0
1680794425.19975185,88828621,1576,1576,1575,1574,0,0,0,0,0,0,0,0,0,0
1680794425.29971194,88928581,1575,1573,1570,1576,0,0,0,0,0,0,0,0,0,0
1680794425.39967203,89028541,1571,1571,1566,1574,0,0,0,0,0,0,0,0,0,0
1680794425.49963188,89128501,1568,1568,1564,1571,0,0,0,0,0,0,0,0,0,0
1680794425.59959197,89228461,1567,1566,1565,1568,0,0,0,0,0,0,0,0,0,0
1680794425.69955206,89328421,1566,1567,1566,1567,0,0,0,0,0,0,0,0,0,0
1680794425.79951191,89428381,1566,1566,1567,1565,0,0,0,0,0,0,0,0,0,0
1680794425.89947200,89528341,1565,1565,1567,1564,0,0,0,0,0,0,0,0,0,0
1680794425.99943185,89628301,1565,1565,1567,1564,0,0,0,0,0,0,0,0,0,0
1680794426.09939194,89728261,1564,1564,1566,1565,0,0,0,0,0,0,0,0,0,0
1680794426.19935203,89828221,1564,1564,1565,1564,0,0,0,0,0,0,0,0,0,0
1680794426.29931188,89928181,1563,1563,1563,1564,0,0,0,0,0,0,0,0,0,0
1680794426.40010500,90028974,1563,1563,1563,1564,0,0,0,0,0,0,0,0,0,0
1680794426.50006485,90128934,1562,1562,1562,1563,0,0,0,0,0,0,0,0,0,0
1680794426.60002494,90228894,1561,1561,1562,1562,0,0,0,0,0,0,0,0,0,0
1680794426.69998503,90328854,1561,1561,1561,1561,0,0,0,0,0,0,0,0,0,0
1680794426.79994488,90428814,1560,1561,1561,1560,0,0,0,0,0,0,0,0,0,0
1680794426.89990497,90528774,1560,1560,1560,1559,0,0,0,0,0,0,0,0,0,0
1680794426.99986506,90628734,1559,1559,1559,1559,0,0,0,0,0,0,0,0,0,0
1680794427.09982491,90728694,1559,1558,1559,1558,0,0,0,0,0,0,0,0,0,0
1680794427.19978499,90828654,1558,1558,1558,1557,0,0,0,0,0,0,0,0,0,0
1680794427.29974484,90928614,1559,1558,1558,1557,0,0,0,0,0,0,0,0,0,0
1680794427.39970493,91028574,1558,1558,1558,1557,0,0,0,0,0,0,0,0,0,0
1680794427.49966502,91128534,1557,1557,1558,1556,0,0,0,0,0,0,0,0,0,0
1680794427.59962487,91228494,1558,1558,1559,1556,0,0,0,0,0,0,0,0,0,0
1680794427.69958496,91328454,1558,1558,1560,1556,0,0,0,0,0,0,0,0,0,0
1680794427.79954505,91428414,1558,1559,1558,1559,0,0,0,0,0,0,0,0,0,0
1680794427.89950490,91528374,1561,1560,1558,1563,0,0,0,0,0,0,0,0,0,0
1680794427.99946499,91628334,1560,1560,1557,1564,0,0,0,0,0,0,0,0,0,0
1680794428.09942484,91728294,1561,1561,1558,1564,0,0,0,0,0,0,0,0,0,0
1680794428.19938493,91828254,1562,1562,1560,1564,0,0,0,0,0,0,0,0,0,0
1680794428.29934502,91928214,1562,1562,1562,1562,0,0,0,0,0,0,0,0,0,0
1680794428.39930487,92028174,1560,1560,1562,1558,0,0,0,0,0,0,0,0,0,0
1680794428.50009799,92128967,1560,1560,1561,1558,0,0,0,0,0,0,0,0,0,0
1680794428.60005784,92228927,1559,1559,1557,1561,0,0,0,0,0,0,0,0,0,0
1680794428.70001793,92328887,1555,1555,1554,1557,0,0,0,0,0,0,0,0,0,0
1680794428.79997802,92428847,1551,1551,1550,1552,0,0,0,0,0,0,0,0,0,0
1680794428.89993787,92528807,1544,1544,1544,1545,0,0,0,0,0,0,0,0,0,0
1680794428.99989796,92628767,1538,1538,1539,1538,0,0,0,0,0,0,0,0,0,0
1680794429.09985805,92728727,1531,1531,1532,1531,0,0,0,0,0,0,0,0,0,0
1680794429.19981790,92828687,1525,1525,1526,1525,0,0,0,0,0,0,0,0,0,0
1680794429.29977798,92928647,1520,1520,1521,1520,0,0,0,0,0,0,0,0,0,0
1680794429.39973783,93028607,1519,1520,1519,1520,0,0,0,0,0,0,0,0,0,0
1680794429.49969792,93128567,1520,1520,1520,1520,0,0,0,0,0,0,0,0,0,0
1680794429.59965801,93228527,1522,1522,1521,1523,0,0,0,0,0,0,0,0,0,0
1680794429.69961786,93328487,1526,1526,1525,1526,0,0,0,0,0,0,0,0,0,0
1680794429.79957795,93428447,1531,1531,1530,1530,0,0,0,0,0,0,0,0,0,0
1680794429.89953804,93528407,1535,1535,1534,1534,0,0,0,0,0,0,0,0,0,0
1680794429.99949789,93628367,1539,1539,1538,1538,0,0,0,0,0,0,0,0,0,0
1680794430.09945798,93728327,1541,1540,1540,1540,0,0,0,0,0,0,0,0,0,0
1680794430.19941783,93828287,1542,1542,1542,1542,0,0,0,0,0,0,0,0,0,0
1680794430.29937792,93928247,1543,1543,1543,1543,0,0,0,0,0,0,0,0,0,0
1680794430.39933801,94028207,1545,1545,1546,1545,0,0,0,0,0,0,0,0,0,0
1680794430.49929786,94128167,1545,1545,1546,1546,0,0,0,0,0,0,0,0,0,0
1680794430.60009098,94228960,1546,1547,1547,1547,0,0,0,0,0,0,0,0,0,0
1680794430.70005083,94328920,1546,1546,1547,1546,0,0,0,0,0,0,0,0,0,0
1680794430.80001092,94428880,1546,1546,1547,1547,0,0,0,0,0,0,0,0,0,0
1680794430.89997101,94528840,1547,1546,1547,1547,0,0,0,0,0,0,0,0,0,0
1680794430.99993086,94628800,1545,1546,1546,1546,0,0,0,0,0,0,0,0,0,0
1680794431.09989095,94728760,1545,1545,1546,1546,0,0,0,0,0,0,0,0,0,0
1680794431.19985104,94828720,1546,1545,1546,1546,0,0,0,0,0,0,0,0,0,0
1680794431.29981089,94928680,1546,1545,1545,1546,0,0,0,0,0,0,0,0,0,0
1680794431.39977098,95028640,1545,1545,1545,1545,0,0,0,0,0,0,0,0,0,0
1680794431.49973083,95128600,1545,1545,1545,1544,0,0,0,0,0,0,0,0,0,0
1680794431.59969091,95228560,1545,1545,1545,1544,0,0,0,0,0,0,0,0,0,0
1680794431.69965100,95328520,1544,1544,1544,1544,0,0,0,0,0,0,0,0,0,0
1680794431.79961085,95428480,1544,1544,1543,1544,0,0,0,0,0,0,0,0,0,0
1680794431.89957094,95528440,1545,1545,1544,1545,0,0,0,0,0,0,0,0,0,0
1680794431.99953103,95628400,1545,1544,1544,1544,0,0,0,0,0,0,0,0,0,0
1680794432.09949088,95728360,1544,1544,1544,1544,0,0,0,0,0,0,0,0,0,0
1680794432.19945097,95828320,1545,1545,1545,1544,0,0,0,0,0,0,0,0,0,0
1680794432.29941106,95928280,1544,1544,1544,1544,0,0,0,0,0,0,0,0,0,0
1680794432.39937091,96028240,1544,1544,1544,1544,0,0,0,0,0,0,0,0,0,0
1680794432.49933100,96128200,1545,1545,1545,1544,0,0,0,0,0,0,0,0,0,0
1680794432.59929085,96228160,1544,1544,1544,1543,0,0,0,0,0,0,0,0,0,0
1680794432.70008397,96328953,1545,1545,1545,1545,0,0,0,0,0,0,0,0,0,0
1680794432.80004406,96428913,1544,1544,1544,1544,0,0,0,0,0,0,0,0,0,0
1680794432.90000391,96528873,1544,1544,1544,1544,0,0,0,0,0,0,0,0,0,0
1680794432.99996400,96628833,1544,1544,1544,1545,0,0,0,0,0,0,0,0,0,0
1680794433.09992385,96728793,1544,1544,1544,1544,0,0,0,0,0,0,0,0,0,0
1680794433.19988394,96828753,1544,1544,1545,1544,0,0,0,0,0,0,0,0,0,0
1680794433.29984403,96928713,1545,1544,1545,1545,0,0,0,0,0,0,0,0,0,0
1680794433.39980388,97028673,1544,1544,1544,1544,0,0,0,0,0,0,0,0,0,0
1680794433.49976397,97128633,1544,1544,1544,1544,0,0,0,0,0,0,0,0,0,0
1680794433.59972405,97228593,1544,1544,1544,1544,0,0,0,0,0,0,0,0,0,0
1680794433.69968390,97328553,1544,1543,1543,1543,0,0,0,0,0,0,0,0,0,0
1680794433.79964399,97428513,1543,1543,1543,1543,0,0,0,0,0,0,0,0,0,0
1680794433.89960384,97528473,1545,1544,1544,1545,0,0,0,0,0,0,0,0,0,0
1680794433.99956393,97628433,1543,1543,1543,1543,0,0,0,0,0,0,0,0,0,0
1680794434.09952402,97728393,1545,1545,1545,1545,0,0,0,0,0,0,0,0,0,0
1680794434.19948387,97828353,1544,1544,1544,1544,0,0,0,0,0,0,0,0,0,0
1680794434.29944396,97928313,1544,1544,1544,1544,0,0,0,0,0,0,0,0,0,0
1680794434.39940405,98028273,1544,1544,1544,1544,0,0,0,0,0,0,0,0,0,0
1680794434.49936390,98128233,1544,1544,1544,1544,0,0,0,0,0,0,0,0,0,0
1680794434.59932399,98228193,1544,1545,1545,1544,0,0,0,0,0,0,0,0,0,0
1680794434.70011687,98328986,1545,1545,1545,1545,0,0,0,0,0,0,0,0,0,0
1680794434.80007696,98428946,1544,1544,1544,1545,0,0,0,0,0,0,0,0,0,0
1680794434.90003705,98528906,1545,1544,1544,1545,0,0,0,0,0,0,0,0,0,0
1680794434.99999690,98628866,1545,1545,1545,1545,0,0,0,0,0,0,0,0,0,0
1680794435.09995699,98728826,1544,1544,1544,1544,0,0,0,0,0,0,0,0,0,0
1680794435.19991684,98828786,1544,1545,1544,1544,0,0,0,0,0,0,0,0,0,0
1680794435.29987693,98928746,1545,1545,1545,1545,0,0,0,0,0,0,0,0,0,0
1680794435.39983702,99028706,1544,1544,1545,1545,0,0,0,0,0,0,0,0,0,0
1680794435.49979687,99128666,1545,1544,1544,1544,0,0,0,0,0,0,0,0,0,0
1680794435.59975696,99228626,1545,1545,1545,1545,0,0,0,0,0,0,0,0,0,0
1680794435.69971704,99328586,1545,1544,1544,1545,0,0,0,0,0,0,0,0,0,0
1680794435.79967690,99428546,1545,1545,1545,1545,0,0,0,0,0,0,0,0,0,0
1680794435.89963698,99528506,1544,1544,1544,1544,0,0,0,0,0,0,0,0,0,0
1680794435.99959683,99628466,1544,1545,1544,1544,0,0,0,0,0,0,0,0,0,0
1680794436.09955692,99728426,1544,1544,1544,1544,0,0,0,0,0,0,0,0,0,0
1680794436.19951701,99828386,1544,1544,1544,1544,0,0,0,0,0,0,0,0,0,0
1680794436.29947686,99928346,1544,1543,1543,1544,0,0,0,0,0,0,0,0,0,0
1680794436.39943695,100028306,1544,1544,1545,1544,0,0,0,0,0,0,0,0,0,0
1680794436.49939704,100128266,1544,1544,1544,1544,0,0,0,0,0,0,0,0,0,0
1680794436.59935689,100228226,1544,1545,1545,1544,0,0,0,0,0,0,0,0,0,0
1680794436.69931698,100328186,1544,1544,1544,1544,0,0,0,0,0,0,0,0,0,0
1680794436.80010986,100428979,1545,1545,1545,1545,0,0,0,0,0,0,0,0,0,0
1680794436.90006995,100528939,1545,1545,1544,1545,0,0,0,0,0,0,0,0,0,0
1680794437.00003004,100628899,1544,1545,1545,1544,0,0,0,0,0,0,0,0,0,0
1680794437.09998989,100728859,1544,1544,1544,1544,0,0,0,0,0,0,0,0,0,0
1680794437.19994998,100828819,1544,1544,1544,1544,0,0,0,0,0,0,0,0,0,0
1680794437.29990983,100928779,1544,1544,1544,1544,0,0,0,0,0,0,0,0,0,0
1680794437.39986992,101028739,1544,1545,1544,1545,0,0,0,0,0,0,0,0,0,0
1680794437.49983001,101128699,1545,1544,1545,1545,0,0,0,0,0,0,0,0,0,0
1680794437.59978986,101228659,1544,1544,1545,1544,0,0,0,0,0,0,0,0,0,0
1680794437.69974995,101328619,1544,1544,1544,1544,0,0,0,0,0,0,0,0,0,0
1680794437.79971004,101428579,1545,1545,1545,1545,0,0,0,0,0,0,0,0,0,0
1680794437.89966989,101528539,1545,1545,1545,1545,0,0,0,0,0,0,0,0,0,0
1680794437.99962997,101628499,1545,1545,1545,1545,0,0,0,0,0,0,0,0,0,0
1680794438.09958982,101728459,1545,1545,1545,1545,0,0,0,0,0,0,0,0,0,0
1680794438.19954991,101828419,1544,1545,1544,1544,0,0,0,0,0,0,0,0,0,0
1680794438.29951000,101928379,1545,1545,1545,1545,0,0,0,0,0,0,0,0,0,0
1680794438.39946985,102028339,1544,1544,1544,1544,0,0,0,0,0,0,0,0,0,0
1680794438.49942994,102128299,1544,1544,1544,1544,0,0,0,0,0,0,0,0,0,0
1680794438.59939003,102228259,1544,1544,1545,1544,0,0,0,0,0,0,0,0,0,0
1680794438.69934988,102328219,1545,1544,1545,1545,0,0,0,0,0,0,0,0,0,0
1680794438.79930997,102428179,1545,1545,1545,1545,0,0,0,0,0,0,0,0,0,0
1680794438.90010285,102528972,1544,1544,1544,1544,0,0,0,0,0,0,0,0,0,0
1680794439.00006294,102628932,1459,1459,1465,1458,0,0,0,0,0,0,0,0,0,0
1680794439.10002303,102728892,1300,1298,1319,1299,0,0,0,0,0,0,0,0,0,0
1680794439.19998288,102828852,1232,1230,1261,1230,0,0,0,0,0,0,0,0,0,0
1680794439.29994297,102928812,1210,1208,1242,1209,0,0,0,0,0,0,0,0,0,0
1680794439.39990306,103028772,1182,1181,1219,1180,0,0,0,0,0,0,0,0,0,0
1680794439.49986291,103128732,1152,1150,1194,1150,0,0,0,0,0,0,0,0,0,0
1680794439.59982300,103228692,1152,1151,1195,1150,0,0,0,0,0,0,0,0,0,0
1680794439.69978285,103328652,1152,1150,1194,1150,0,0,0,0,0,0,0,0,0,0
1680794439.79974294,103428612,1183,1150,1192,1182,0,0,0,0,0,0,0,0,0,0
1680794439.89970303,103528572,1173,1150,1193,1172,0,0,0,0,0,0,0,0,0,0
1680794439.99966288,103628532,1171,1150,1194,1169,0,0,0,0,0,0,0,0,0,0
1680794440.09962296,103728492,1172,1150,1194,1171,0,0,0,0,0,0,0,0,0,0
1680794440.19958305,103828452,1174,1150,1194,1172,0,0,0,0,0,0,0,0,0,0
1680794440.29954290,103928412,1176,1150,1194,1174,0,0,0,0,0,0,0,0,0,0
1680794440.39950299,104028372,1178,1150,1194,1176,0,0,0,0,0,0,0,0,0,0
1680794440.49946284,104128332,1172,1150,1194,1170,0,0,0,0,0,0,0,0,0,0
1680794440.59942293,104228292,1165,1150,1193,1164,0,0,0,0,0,0,0,0,0,0
1680794440.69938302,104328252,1167,1150,1193,1165,0,0,0,0,0,0,0,0,0,0
1680794440.79934287,104428212,1168,1150,1193,1166,0,0,0,0,0,0,0,0,0,0
1680794440.89930296,104528172,1168,1150,1193,1167,0,0,0,0,0,0,0,0,0,0
1680794441.00009584,104628965,1150,1150,1100,1150,0,0,0,0,0,0,0,0,0,0
1680794441.10005593,104728925,1000,1000,1000,1000,0,0,0,0,0,0,0,0,0,0
1680794441.20001602,104828885,1000,1000,1000,1000,0,0,0,0,0,0,0,0,0,0
1680794441.29997587,104928845,1000,1000,1000,1000,0,0,0,0,0,0,0,0,0,0
1680794441.39993596,105028805,1000,1000,1000,1000,0,0,0,0,0,0,0,0,0,0
1680794441.49989605,105128765,1000,1000,1000,1000,0,0,0,0,0,0,0,0,0,0
1680794441.59985590,105228725,1000,1000,1000,1000,0,0,0,0,0,0,0,0,0,0
1680794441.69981599,105328685,1000,1000,1000,1000,0,0,0,0,0,0,0,0,0,0
1680794441.79977584,105428645,1000,1000,1000,1000,0,0,0,0,0,0,0,0,0,0
1680794441.89973593,105528605,1000,1000,1000,1000,0,0,0,0,0,0,0,0,0,0
1680794441.99969602,105628565,1000,1000,1000,1000,0,0,0,0,0,0,0,0,0,0
1680794442.09965587,105728525,1000,1000,1000,1000,0,0,0,0,0,0,0,0,0,0
1680794442.19961596,105828485,1000,1000,1000,1000,0,0,0,0,0,0,0,0,0,0
1680794442.29957604,105928445,1000,1000,1000,1000,0,0,0,0,0,0,0,0,0,0
1680794442.39953589,106028405,1000,1000,1000,1000,0,0,0,0,0,0,0,0,0,0
1680794442.49949598,106128365,1000,1000,1000,1000,0,0,0,0,0,0,0,0,0,0
1680794442.59945583,106228325,1000,1000,1000,1000,0,0,0,0,0,0,0,0,0,0
1680794442.69941592,106328285,1000,1000,1000,1000,0,0,0,0,0,0,0,0,0,0
1680794442.79937601,106428245,1000,1000,1000,1000,0,0,0,0,0,0,0,0,0,0
1680794442.89933586,106528205,1000,1000,1000,1000,0,0,0,0,0,0,0,0,0,0
1680794442.99929595,106628165,1000,1000,1000,1000,0,0,0,0,0,0,0,0,0,0
1680794443.10008883,106728958,1000,1000,1000,1000,0,0,0,0,0,0,0,0,0,0
1680794443.20004892,106828918,1000,1000,1000,1000,0,0,0,0,0,0,0,0,0,0
1680794443.30000901,106928878,1000,1000,1000,1000,0,0,0,0,0,0,0,0,0,0
1680794443.39996886,107028838,1000,1000,1000,1000,0,0,0,0,0,0,0,0,0,0
1680794443.49992895,107128798,1000,1000,1000,1000,0,0,0,0,0,0,0,0,0,0
1680794443.59988904,107228758,1000,1000,1000,1000,0,0,0,0,0,0,0,0,0,0
1680794443.69984889,107328718,1000,1000,1000,1000,0,0,0,0,0,0,0,0,0,0
1680794443.79980898,107428678,1000,1000,1000,1000,0,0,0,0,0,0,0,0,0,0
1680794443.89976883,107528638,1000,1000,1000,1000,0,0,0,0,0,0,0,0,0,0
1680794443.99972892,107628598,1000,1000,1000,1000,0,0,0,0,0,0,0,0,0,0
1680794444.09968901,107728558,1000,1000,1000,1000,0,0,0,0,0,0,0,0,0,0
1680794444.19964886,107828518,1000,1000,1000,1000,0,0,0,0,0,0,0,0,0,0
1680794444.29960895,107928478,1000,1000,1000,1000,0,0,0,0,0,0,0,0,0,0
1680794444.39956903,108028438,1000,1000,1000,1000,0,0,0,0,0,0,0,0,0,0
1680794444.49952888,108128398,1000,1000,1000,1000,0,0,0,0,0,0,0,0,0,0
1680794444.59948897,108228358,1000,1000,1000,1000,0,0,0,0,0,0,0,0,0,0
1680794444.69944906,108328318,1000,1000,1000,1000,0,0,0,0,0,0,0,0,0,0
1680794444.79940891,108428278,1000,1000,1000,1000,0,0,0,0,0,0,0,0,0,0
1680794444.89936900,108528238,1000,1000,1000,1000,0,0,0,0,0,0,0,0,0,0
1680794444.99932885,108628198,1000,1000,1000,1000,0,0,0,0,0,0,0,0,0,0
1680794445.09928894,108728158,1000,1000,1000,1000,0,0,0,0,0,0,0,0,0,0
1680794445.20008183,108828951,1000,1000,1000,1000,0,0,0,0,0,0,0,0,0,0
1680794445.30004191,108928911,1000,1000,1000,1000,0,0,0,0,0,0,0,0,0,0
1680794445.40000200,109028871,1000,1000,1000,1000,0,0,0,0,0,0,0,0,0,0
1680794445.49996185,109128831,1000,1000,1000,1000,0,0,0,0,0,0,0,0,0,0
1680794445.59992194,109228791,1000,1000,1000,1000,0,0,0,0,0,0,0,0,0,0
1680794445.69988203,109328751,1000,1000,1000,1000,0,0,0,0,0,0,0,0,0,0
1680794445.79984188,109428711,1000,1000,1000,1000,0,0,0,0,0,0,0,0,0,0
1680794445.89980197,109528671,1000,1000,1000,1000,0,0,0,0,0,0,0,0,0,0
1680794445.99976206,109628631,1000,1000,1000,1000,0,0,0,0,0,0,0,0,0,0
1680794446.09972191,109728591,1000,1000,1000,1000,0,0,0,0,0,0,0,0,0,0
1680794446.19968200,109828551,1000,1000,1000,1000,0,0,0,0,0,0,0,0,0,0
1680794446.29964185,109928511,1000,1000,1000,1000,0,0,0,0,0,0,0,0,0,0
1680794446.39960194,110028471,1000,1000,1000,1000,0,0,0,0,0,0,0,0,0,0
1680794446.49956203,110128431,1000,1000,1000,1000,0,0,0,0,0,0,0,0,0,0
1680794446.59952188,110228391,1000,1000,1000,1000,0,0,0,0,0,0,0,0,0,0
1680794446.69948196,110328351,1000,1000,1000,1000,0,0,0,0,0,0,0,0,0,0
1680794446.79944205,110428311,1000,1000,1000,1000,0,0,0,0,0,0,0,0,0,0
1680794446.89940190,110528271,1000,1000,1000,1000,0,0,0,0,0,0,0,0,0,0
1680794446.99936199,110628231,1000,1000,1000,1000,0,0,0,0,0,0,0,0,0,0
1680794447.09932184,110728191,1000,1000,1000,1000,0,0,0,0,0,0,0,0,0,0
1680794447.20011497,110828984,1000,1000,1000,1000,0,0,0,0,0,0,0,0,0,0
1680794447.30007505,110928944,1000,1000,1000,1000,0,0,0,0,0,0,0,0,0,0
1680794447.40003490,111028904,1000,1000,1000,1000,0,0,0,0,0,0,0,0,0,0
1680794447.49999499,111128864,1000,1000,1000,1000,0,0,0,0,0,0,0,0,0,0
1680794447.59995484,111228824,1000,1000,1000,1000,0,0,0,0,0,0,0,0,0,0
1680794447.69991493,111328784,1000,1000,1000,1000,0,0,0,0,0,0,0,0,0,0
1680794447.79987502,111428744,1000,1000,1000,1000,0,0,0,0,0,0,0,0,0,0
1680794447.89983487,111528704,1000,1000,1000,1000,0,0,0,0,0,0,0,0,0,0
1680794447.99979496,111628664,1000,1000,1000,1000,0,0,0,0,0,0,0,0,0,0
1680794448.09975505,111728624,1000,1000,1000,1000,0,0,0,0,0,0,0,0,0,0
1680794448.19971490,111828584,1000,1000,1000,1000,0,0,0,0,0,0,0,0,0,0
1680794448.29967499,111928544,1000,1000,1000,1000,0,0,0,0,0,0,0,0,0,0
1680794448.39963484,112028504,1000,1000,1000,1000,0,0,0,0,0,0,0,0,0,0
1680794448.49959493,112128464,1000,1000,1000,1000,0,0,0,0,0,0,0,0,0,0
1680794448.59955502,112228424,1000,1000,1000,1000,0,0,0,0,0,0,0,0,0,0
1680794448.69951487,112328384,1000,1000,1000,1000,0,0,0,0,0,0,0,0,0,0
1680794448.79947495,112428344,1000,1000,1000,1000,0,0,0,0,0,0,0,0,0,0
1680794448.89943504,112528304,1000,1000,1000,1000,0,0,0,0,0,0,0,0,0,0
1680794448.99939489,112628264,1000,1000,1000,1000,0,0,0,0,0,0,0,0,0,0
1680794449.09935498,112728224,1000,1000,1000,1000,0,0,0,0,0,0,0,0,0,0
1680794449.19931483,112828184,1000,1000,1000,1000,0,0,0,0,0,0,0,0,0,0
1680794449.30010796,112928977,1000,1000,1000,1000,0,0,0,0,0,0,0,0,0,0
1680794449.40006804,113028937,1000,1000,1000,1000,0,0,0,0,0,0,0,0,0,0
1680794449.50002789,113128897,1000,1000,1000,1000,0,0,0,0,0,0,0,0,0,0
1680794449.59998798,113228857,1000,1000,1000,1000,0,0,0,0,0,0,0,0,0,0
1680794449.69994783,113328817,1000,1000,1000,1000,0,0,0,0,0,0,0,0,0,0
1680794449.79990792,113428777,1000,1000,1000,1000,0,0,0,0,0,0,0,0,0,0
1680794449.89986801,113528737,1000,1000,1000,1000,0,0,0,0,0,0,0,0,0,0
1680794449.99982786,113628697,1000,1000,1000,1000,0,0,0,0,0,0,0,0,0,0
1680794450.09978795,113728657,1000,1000,1000,1000,0,0,0,0,0,0,0,0,0,0
1680794450.19974804,113828617,1000,1000,1000,1000,0,0,0,0,0,0,0,0,0,0
1680794450.29970789,113928577,1000,1000,1000,1000,0,0,0,0,0,0,0,0,0,0
1680794450.39966798,114028537,1000,1000,1000,1000,0,0,0,0,0,0,0,0,0,0
1680794450.49962783,114128497,1000,1000,1000,1000,0,0,0,0,0,0,0,0,0,0
1680794450.59958792,114228457,1000,1000,1000,1000,0,0,0,0,0,0,0,0,0,0
1680794450.69954801,114328417,1000,1000,1000,1000,0,0,0,0,0,0,0,0,0,0
1680794450.79950786,114428377,1000,1000,1000,1000,0,0,0,0,0,0,0,0,0,0
1680794450.89946795,114528337,1000,1000,1000,1000,0,0,0,0,0,0,0,0,0,0
1680794450.99942803,114628297,1000,1000,1000,1000,0,0,0,0,0,0,0,0,0,0
1680794451.09938788,114728257,1000,1000,1000,1000,0,0,0,0,0,0,0,0,0,0
1680794451.19934797,114828217,1000,1000,1000,1000,0,0,0,0,0,0,0,0,0,0
1680794451.29930806,114928177,1000,1000,1000,1000,0,0,0,0,0,0,0,0,0,0
1680794451.40010095,115028970,1000,1000,1000,1000,0,0,0,0,0,0,0,0,0,0
1680794451.50006104,115128930,1000,1000,1000,1000,0,0,0,0,0,0,0,0,0,0
1680794451.60002089,115228890,1000,1000,1000,1000,0,0,0,0,0,0,0,0,0,0
1680794451.69998097,115328850,1000,1000,1000,1000,0,0,0,0,0,0,0,0,0,0
1680794451.79994082,115428810,1000,1000,1000,1000,0,0,0,0,0,0,0,0,0,0
1680794451.89990091,115528770,1000,1000,1000,1000,0,0,0,0,0,0,0,0,0,0
1680794451.99986100,115628730,1000,1000,1000,1000,0,0,0,0,0,0,0,0,0,0
1680794452.09982085,115728690,1000,1000,1000,1000,0,0,0,0,0,0,0,0,0,0
1680794452.19978094,115828650,1000,1000,1000,1000,0,0,0,0,0,0,0,0,0,0
1680794452.29974103,115928610,1000,1000,1000,1000,0,0,0,0,0,0,0,0,0,0
1680794452.39970088,116028570,1000,1000,1000,1000,0,0,0,0,0,0,0,0,0,0
1680794452.49966097,116128530,1000,1000,1000,1000,0,0,0,0,0,0,0,0,0,0
1680794452.59962106,116228490,1000,1000,1000,1000,0,0,0,0,0,0,0,0,0,0
1680794452.69958091,116328450,1000,1000,1000,1000,0,0,0,0,0,0,0,0,0,0
1680794452.79954100,116428410,1000,1000,1000,1000,0,0,0,0,0,0,0,0,0,0
1680794452.89950085,116528370,1000,1000,1000,1000,0,0,0,0,0,0,0,0,0,0
1680794452.99946094,116628330,1000,1000,1000,1000,0,0,0,0,0,0,0,0,0,0
1680794453.09942102,116728290,1000,1000,1000,1000,0,0,0,0,0,0,0,0,0,0
1680794453.19938087,116828250,1000,1000,1000,1000,0,0,0,0,0,0,0,0,0,0
1680794453.29934096,116928210,1000,1000,1000,1000,0,0,0,0,0,0,0,0,0,0
1680794453.39930105,117028170,1000,1000,1000,1000,0,0,0,0,0,0,0,0,0,0
1680794453.50009394,117128963,1000,1000,1000,1000,0,0,0,0,0,0,0,0,0,0
1680794453.60005403,117228923,1000,1000,1000,1000,0,0,0,0,0,0,0,0,0,0
1680794453.70001388,117328883,1000,1000,1000,1000,0,0,0,0,0,0,0,0,0,0
1680794453.79997396,117428843,1000,1000,1000,1000,0,0,0,0,0,0,0,0,0,0
1680794453.89993405,117528803,1000,1000,1000,1000,0,0,0,0,0,0,0,0,0,0
1680794453.99989390,117628763,1000,1000,1000,1000,0,0,0,0,0,0,0,0,0,0
1680794454.09985399,117728723,1000,1000,1000,1000,0,0,0,0,0,0,0,0,0,0
1680794454.19981384,117828683,1000,1000,1000,1000,0,0,0,0,0,0,0,0,0,0
1680794454.29977393,117928643,1000,1000,1000,1000,0,0,0,0,0,0,0,0,0,0
1680794454.39973402,118028603,1000,1000,1000,1000,0,0,0,0,0,0,0,0,0,0
1680794454.49969387,118128563,1000,1000,1000,1000,0,0,0,0,0,0,0,0,0,0
1680794454.59965396,118228523,1000,1000,1000,1000,0,0,0,0,0,0,0,0,0,0
1680794454.69961405,118328483,1000,1000,1000,1000,0,0,0,0,0,0,0,0,0,0
1680794454.79957390,118428443,1000,1000,1000,1000,0,0,0,0,0,0,0,0,0,0
1680794454.89953399,118528403,1000,1000,1000,1000,0,0,0,0,0,0,0,0,0,0
1680794454.99949384,118628363,1000,1000,1000,1000,0,0,0,0,0,0,0,0,0,0
1680794455.09945393,118728323,1000,1000,1000,1000,0,0,0,0,0,0,0,0,0,0
1680794455.19941401,118828283,1000,1000,1000,1000,0,0,0,0,0,0,0,0,0,0
1680794455.29937387,118928243,1000,1000,1000,1000,0,0,0,0,0,0,0,0,0,0
1680794455.39933395,119028203,1000,1000,1000,1000,0,0,0,0,0,0,0,0,0,0
1680794455.49929404,119128163,1000,1000,1000,1000,0,0,0,0,0,0,0,0,0,0
1680794455.60008693,119228956,1000,1000,1000,1000,0,0,0,0,0,0,0,0,0,0
1680794455.70004702,119328916,1000,1000,1000,1000,0,0,0,0,0,0,0,0,0,0
1680794455.80000687,119428876,1000,1000,1000,1000,0,0,0,0,0,0,0,0,0,0
1680794455.89996696,119528836,1000,1000,1000,1000,0,0,0,0,0,0,0,0,0,0
1680794455.99992704,119628796,1000,1000,1000,1000,0,0,0,0,0,0,0,0,0,0
