timestamp,TimeUS,C1,C2,C3,C4,C5,C6,C7,C8,C9,C10,C11,C12,C13,C14
1680789700.58000779,434208747,1000,1000,1000,1000,0,0,0,0,0,0,0,0,0,0
1680789700.67996788,434308707,1000,1000,1000,1000,0,0,0,0,0,0,0,0,0,0
1680789700.77992797,434408667,1000,1000,1000,1000,0,0,0,0,0,0,0,0,0,0
1680789700.87988782,434508627,1000,1000,1000,1000,0,0,0,0,0,0,0,0,0,0
1680789700.97984791,434608587,1000,1000,1000,1000,0,0,0,0,0,0,0,0,0,0
1680789701.07980800,434708547,1000,1000,1000,1000,0,0,0,0,0,0,0,0,0,0
1680789701.17976785,434808507,1000,1000,1000,1000,0,0,0,0,0,0,0,0,0,0
1680789701.27972794,434908467,1000,1000,1000,1000,0,0,0,0,0,0,0,0,0,0
1680789701.37968779,435008427,1000,1000,1000,1000,0,0,0,0,0,0,0,0,0,0
1680789701.47964787,435108387,1000,1000,1000,1000,0,0,0,0,0,0,0,0,0,0
1680789701.57960796,435208347,1000,1000,1000,1000,0,0,0,0,0,0,0,0,0,0
1680789701.67956781,435308307,1000,1000,1000,1000,0,0,0,0,0,0,0,0,0,0
1680789701.77952790,435408267,1000,1000,1000,1000,0,0,0,0,0,0,0,0,0,0
1680789701.87948799,435508227,1000,1000,1000,1000,0,0,0,0,0,0,0,0,0,0
1680789701.97944784,435608187,1000,1000,1000,1000,0,0,0,0,0,0,0,0,0,0
1680789702.08024096,435708980,1000,1000,1000,1000,0,0,0,0,0,0,0,0,0,0
1680789702.18020082,435808940,1000,1000,1000,1000,0,0,0,0,0,0,0,0,0,0
1680789702.28016090,435908900,1000,1000,1000,1000,0,0,0,0,0,0,0,0,0,0
1680789702.38012099,436008860,1000,1000,1000,1000,0,0,0,0,0,0,0,0,0,0
1680789702.48008084,436108820,1000,1000,1000,1000,0,0,0,0,0,0,0,0,0,0
1680789702.58004093,436208780,1003,1003,1003,1003,0,0,0,0,0,0,0,0,0,0
1680789702.68000078,436308740,1033,1033,1033,1033,0,0,0,0,0,0,0,0,0,0
1680789702.77996087,436408700,1063,1063,1063,1063,0,0,0,0,0,0,0,0,0,0
1680789702.87992096,436508660,1093,1093,1093,1093,0,0,0,0,0,0,0,0,0,0
1680789702.97988081,436608620,1100,1100,1100,1100,0,0,0,0,0,0,0,0,0,0
1680789703.07984090,436708580,1100,1100,1100,1100,0,0,0,0,0,0,0,0,0,0
1680789703.17980099,436808540,1100,1100,1100,1100,0,0,0,0,0,0,0,0,0,0
1680789703.27976084,436908500,1100,1100,1100,1100,0,0,0,0,0,0,0,0,0,0
1680789703.37972093,437008460,1100,1100,1100,1100,0,0,0,0,0,0,0,0,0,0
1680789703.47968078,437108420,1100,1100,1100,1100,0,0,0,0,0,0,0,0,0,0
1680789703.57964087,437208380,1100,1100,1100,1100,0,0,0,0,0,0,0,0,0,0
1680789703.67960095,437308340,1100,1100,1100,1100,0,0,0,0,0,0,0,0,0,0
1680789703.77956080,437408300,1100,1100,1100,1100,0,0,0,0,0,0,0,0,0,0
1680789703.87952089,437508260,1100,1100,1100,1100,0,0,0,0,0,0,0,0,0,0
1680789703.97948098,437608220,1100,1100,1100,1100,0,0,0,0,0,0,0,0,0,0
1680789704.07944083,437708180,1100,1100,1100,1100,0,0,0,0,0,0,0,0,0,0
1680789704.18023396,437808973,1100,1100,1100,1100,0,0,0,0,0,0,0,0,0,0
1680789704.28019381,437908933,1100,1100,1100,1100,0,0,0,0,0,0,0,0,0,0
1680789704.38015389,438008893,1100,1100,1100,1100,0,0,0,0,0,0,0,0,0,0
1680789704.48011398,438108853,1100,1100,1100,1100,0,0,0,0,0,0,0,0,0,0
1680789704.58007383,438208813,1100,1100,1100,1100,0,0,0,0,0,0,0,0,0,0
1680789704.68003392,438308773,1100,1100,1100,1100,0,0,0,0,0,0,0,0,0,0
1680789704.77999377,438408733,1100,1100,1100,1100,0,0,0,0,0,0,0,0,0,0
1680789704.87995386,438508693,1100,1100,1100,1100,0,0,0,0,0,0,0,0,0,0
1680789704.97991395,438608653,1100,1100,1100,1100,0,0,0,0,0,0,0,0,0,0
1680789705.07987380,438708613,1100,1100,1100,1100,0,0,0,0,0,0,0,0,0,0
1680789705.17983389,438808573,1100,1100,1100,1100,0,0,0,0,0,0,0,0,0,0
1680789705.27979398,438908533,1100,1100,1100,1100,0,0,0,0,0,0,0,0,0,0
1680789705.37975383,439008493,1100,1100,1100,1100,0,0,0,0,0,0,0,0,0,0
1680789705.47971392,439108453,1100,1100,1100,1100,0,0,0,0,0,0,0,0,0,0
1680789705.57967377,439208413,1100,1100,1100,1100,0,0,0,0,0,0,0,0,0,0
1680789705.67963386,439308373,1100,1100,1100,1100,0,0,0,0,0,0,0,0,0,0
1680789705.77959394,439408333,1100,1100,1100,1100,0,0,0,0,0,0,0,0,0,0
1680789705.87955379,439508293,1100,1100,1100,1100,0,0,0,0,0,0,0,0,0,0
1680789705.97951388,439608253,1100,1100,1100,1100,0,0,0,0,0,0,0,0,0,0
1680789706.07947397,439708213,1100,1100,1100,1100,0,0,0,0,0,0,0,0,0,0
1680789706.17943382,439808173,1100,1100,1100,1100,0,0,0,0,0,0,0,0,0,0
1680789706.28022695,439908966,1100,1100,1100,1100,0,0,0,0,0,0,0,0,0,0
1680789706.38018680,440008926,1100,1100,1100,1100,0,0,0,0,0,0,0,0,0,0
1680789706.48014688,440108886,1100,1100,1100,1100,0,0,0,0,0,0,0,0,0,0
1680789706.58010697,440208846,1100,1100,1100,1100,0,0,0,0,0,0,0,0,0,0
1680789706.68006682,440308806,1100,1100,1100,1100,0,0,0,0,0,0,0,0,0,0
1680789706.78002691,440408766,1100,1100,1100,1100,0,0,0,0,0,0,0,0,0,0
1680789706.87998676,440508726,1100,1100,1100,1100,0,0,0,0,0,0,0,0,0,0
1680789706.97994685,440608686,1100,1100,1100,1100,0,0,0,0,0,0,0,0,0,0
1680789707.07990694,440708646,1100,1100,1100,1100,0,0,0,0,0,0,0,0,0,0
1680789707.17986679,440808606,1100,1100,1100,1100,0,0,0,0,0,0,0,0,0,0
1680789707.27982688,440908566,1100,1100,1100,1100,0,0,0,0,0,0,0,0,0,0
1680789707.37978697,441008526,1100,1100,1100,1100,0,0,0,0,0,0,0,0,0,0
1680789707.47974682,441108486,1100,1100,1100,1100,0,0,0,0,0,0,0,0,0,0
1680789707.57970691,441208446,1124,1124,1124,1124,0,0,0,0,0,0,0,0,0,0
1680789707.67966700,441308406,1168,1177,1176,1168,0,0,0,0,0,0,0,0,0,0
1680789707.77962685,441408366,1193,1203,1202,1193,0,0,0,0,0,0,0,0,0,0
1680789707.87958694,441508326,1227,1237,1236,1227,0,0,0,0,0,0,0,0,0,0
1680789707.97954679,441608286,1270,1280,1279,1270,0,0,0,0,0,0,0,0,0,0
1680789708.07950687,441708246,1319,1329,1328,1318,0,0,0,0,0,0,0,0,0,0
1680789708.17946696,441808206,1367,1378,1377,1367,0,0,0,0,0,0,0,0,0,0
1680789708.27942681,441908166,1418,1429,1428,1418,0,0,0,0,0,0,0,0,0,0
1680789708.38021994,442008959,1470,1481,1480,1470,0,0,0,0,0,0,0,0,0,0
1680789708.48017979,442108919,1523,1534,1533,1523,0,0,0,0,0,0,0,0,0,0
1680789708.58013988,442208879,1575,1587,1585,1575,0,0,0,0,0,0,0,0,0,0
1680789708.68009996,442308839,1610,1621,1620,1609,0,0,0,0,0,0,0,0,0,0
1680789708.78005981,442408799,1640,1653,1652,1641,0,0,0,0,0,0,0,0,0,0
1680789708.88001990,442508759,1675,1688,1687,1675,0,0,0,0,0,0,0,0,0,0
1680789708.97997999,442608719,1711,1725,1723,1711,0,0,0,0,0,0,0,0,0,0
1680789709.07993984,442708679,1748,1762,1761,1748,0,0,0,0,0,0,0,0,0,0
1680789709.17989993,442808639,1768,1775,1774,1767,0,0,0,0,0,0,0,0,0,0
1680789709.27985978,442908599,1639,1640,1640,1638,0,0,0,0,0,0,0,0,0,0
1680789709.37981987,443008559,1561,1557,1556,1560,0,0,0,0,0,0,0,0,0,0
1680789709.47977996,443108519,1569,1565,1564,1569,0,0,0,0,0,0,0,0,0,0
1680789709.57973981,443208479,1609,1605,1605,1609,0,0,0,0,0,0,0,0,0,0
1680789709.67969990,443308439,1637,1634,1634,1637,0,0,0,0,0,0,0,0,0,0
1680789709.77965999,443408399,1646,1646,1646,1647,0,0,0,0,0,0,0,0,0,0
1680789709.87961984,443508359,1644,1645,1646,1644,0,0,0,0,0,0,0,0,0,0
1680789709.97957993,443608319,1637,1640,1640,1638,0,0,0,0,0,0,0,0,0,0
1680789710.07953978,443708279,1633,1636,1637,1634,0,0,0,0,0,0,0,0,0,0
1680789710.17949986,443808239,1634,1635,1635,1634,0,0,0,0,0,0,0,0,0,0
1680789710.27945995,443908199,1635,1635,1635,1635,0,0,0,0,0,0,0,0,0,0
1680789710.37941980,444008159,1635,1634,1635,1635,0,0,0,0,0,0,0,0,0,0
1680789710.48021293,444108952,1634,1633,1634,1634,0,0,0,0,0,0,0,0,0,0
1680789710.58017278,444208912,1634,1633,1633,1634,0,0,0,0,0,0,0,0,0,0
1680789710.68013287,444308872,1630,1626,1626,1629,0,0,0,0,0,0,0,0,0,0
1680789710.78009295,444408832,1596,1596,1596,1596,0,0,0,0,0,0,0,0,0,0
1680789710.88005280,444508792,1582,1582,1582,1582,0,0,0,0,0,0,0,0,0,0
1680789710.98001289,444608752,1570,1570,1570,1570,0,0,0,0,0,0,0,0,0,0
1680789711.07997298,444708712,1560,1561,1560,1559,0,0,0,0,0,0,0,0,0,0
1680789711.17993283,444808672,1551,1552,1551,1551,0,0,0,0,0,0,0,0,0,0
1680789711.27989292,444908632,1544,1544,1542,1546,0,0,0,0,0,0,0,0,0,0
1680789711.37985277,445008592,1537,1537,1534,1540,0,0,0,0,0,0,0,0,0,0
1680789711.47981286,445108552,1531,1531,1529,1534,0,0,0,0,0,0,0,0,0,0
1680789711.57977295,445208512,1528,1527,1525,1530,0,0,0,0,0,0,0,0,0,0
1680789711.67973280,445308472,1528,1527,1527,1529,0,0,0,0,0,0,0,0,0,0
1680789711.77969289,445408432,1529,1529,1530,1528,0,0,0,0,0,0,0,0,0,0
1680789711.87965298,445508392,1532,1532,1534,1530,0,0,0,0,0,0,0,0,0,0
1680789711.97961283,445608352,1535,1535,1537,1534,0,0,0,0,0,0,0,0,0,0
1680789712.07957292,445708312,1538,1539,1540,1537,0,0,0,0,0,0,0,0,0,0
1680789712.17953277,445808272,1543,1542,1545,1540,0,0,0,0,0,0,0,0,0,0
1680789712.27949286,445908232,1546,1546,1552,1540,0,0,0,0,0,0,0,0,0,0
1680789712.37945294,446008192,1549,1548,1550,1546,0,0,0,0,0,0,0,0,0,0
1680789712.48024583,446108985,1551,1550,1548,1552,0,0,0,0,0,0,0,0,0,0
1680789712.58020592,446208945,1552,1552,1546,1557,0,0,0,0,0,0,0,0,0,0
1680789712.68016577,446308905,1553,1554,1548,1559,0,0,0,0,0,0,0,0,0,0
1680789712.78012586,446408865,1555,1555,1551,1558,0,0,0,0,0,0,0,0,0,0
1680789712.88008595,446508825,1557,1557,1556,1558,0,0,0,0,0,0,0,0,0,0
1680789712.98004580,446608785,1559,1559,1561,1557,0,0,0,0,0,0,0,0,0,0
1680789713.08000588,446708745,1560,1560,1563,1557,0,0,0,0,0,0,0,0,0,0
1680789713.17996597,446808705,1562,1562,1565,1559,0,0,0,0,0,0,0,0,0,0
1680789713.27992582,446908665,1564,1564,1565,1563,0,0,0,0,0,0,0,0,0,0
1680789713.37988591,447008625,1554,1553,1573,1574,0,0,0,0,0,0,0,0,0,0
1680789713.47984576,447108585,1552,1553,1575,1578,0,0,0,0,0,0,0,0,0,0
1680789713.57980585,447208545,1555,1557,1570,1574,0,0,0,0,0,0,0,0,0,0
1680789713.67976594,447308505,1561,1563,1567,1570,0,0,0,0,0,0,0,0,0,0
1680789713.77972579,447408465,1566,1567,1564,1565,0,0,0,0,0,0,0,0,0,0
1680789713.87968588,447508425,1571,1571,1563,1562,0,0,0,0,0,0,0,0,0,0
1680789713.97964597,447608385,1574,1573,1561,1560,0,0,0,0,0,0,0,0,0,0
1680789714.07960582,447708345,1576,1576,1562,1560,0,0,0,0,0,0,0,0,0,0
1680789714.17956591,447808305,1578,1576,1563,1562,0,0,0,0,0,0,0,0,0,0
1680789714.27952600,447908265,1577,1576,1563,1563,0,0,0,0,0,0,0,0,0,0
1680789714.37948585,448008225,1576,1575,1565,1566,0,0,0,0,0,0,0,0,0,0
1680789714.47944593,448108185,1574,1574,1568,1568,0,0,0,0,0,0,0,0,0,0
1680789714.58023882,448208978,1573,1573,1570,1571,0,0,0,0,0,0,0,0,0,0
1680789714.68019891,448308938,1573,1573,1573,1574,0,0,0,0,0,0,0,0,0,0
1680789714.78015900,448408898,1572,1573,1576,1575,0,0,0,0,0,0,0,0,0,0
1680789714.88011885,448508858,1571,1572,1577,1575,0,0,0,0,0,0,0,0,0,0
1680789714.98007894,448608818,1571,1572,1578,1577,0,0,0,0,0,0,0,0,0,0
1680789715.08003879,448708778,1572,1572,1579,1577,0,0,0,0,0,0,0,0,0,0
1680789715.17999887,448808738,1573,1573,1579,1578,0,0,0,0,0,0,0,0,0,0
1680789715.27995896,448908698,1574,1573,1578,1578,0,0,0,0,0,0,0,0,0,0
1680789715.37991881,449008658,1574,1574,1577,1577,0,0,0,0,0,0,0,0,0,0
1680789715.47987890,449108618,1575,1574,1576,1576,0,0,0,0,0,0,0,0,0,0
1680789715.57983899,449208578,1576,1576,1577,1577,0,0,0,0,0,0,0,0,0,0
1680789715.67979884,449308538,1577,1578,1576,1576,0,0,0,0,0,0,0,0,0,0
1680789715.77975893,449408498,1578,1579,1577,1577,0,0,0,0,0,0,0,0,0,0
1680789715.87971878,449508458,1579,1579,1577,1576,0,0,0,0,0,0,0,0,0,0
1680789715.97967887,449608418,1580,1580,1578,1578,0,0,0,0,0,0,0,0,0,0
1680789716.07963896,449708378,1580,1580,1578,1577,0,0,0,0,0,0,0,0,0,0
1680789716.17959881,449808338,1580,1579,1578,1578,0,0,0,0,0,0,0,0,0,0
1680789716.27955890,449908298,1579,1579,1578,1577,0,0,0,0,0,0,0,0,0,0
1680789716.37951899,450008258,1579,1579,1577,1578,0,0,0,0,0,0,0,0,0,0
1680789716.47947884,450108218,1578,1579,1578,1578,0,0,0,0,0,0,0,0,0,0
1680789716.57943892,450208178,1579,1579,1579,1579,0,0,0,0,0,0,0,0,0,0
1680789716.68023181,450308971,1579,1579,1579,1579,0,0,0,0,0,0,0,0,0,0
1680789716.78019190,450408931,1579,1579,1580,1579,0,0,0,0,0,0,0,0,0,0
1680789716.88015199,450508891,1579,1579,1579,1579,0,0,0,0,0,0,0,0,0,0
1680789716.98011184,450608851,1580,1580,1581,1580,0,0,0,0,0,0,0,0,0,0
1680789717.08007193,450708811,1579,1578,1579,1579,0,0,0,0,0,0,0,0,0,0
1680789717.18003178,450808771,1579,1579,1580,1580,0,0,0,0,0,0,0,0,0,0
1680789717.27999187,450908731,1579,1579,1579,1579,0,0,0,0,0,0,0,0,0,0
1680789717.37995195,451008691,1579,1579,1579,1580,0,0,0,0,0,0,0,0,0,0
1680789717.47991180,451108651,1579,1580,1579,1579,0,0,0,0,0,0,0,0,0,0
1680789717.57987189,451208611,1580,1579,1579,1579,0,0,0,0,0,0,0,0,0,0
1680789717.67983198,451308571,1580,1580,1580,1579,0,0,0,0,0,0,0,0,0,0
1680789717.77979183,451408531,1580,1580,1579,1579,0,0,0,0,0,0,0,0,0,0
1680789717.87975192,451508491,1580,1580,1579,1579,0,0,0,0,0,0,0,0,0,0
1680789717.97971177,451608451,1580,1580,1579,1579,0,0,0,0,0,0,0,0,0,0
1680789718.07967186,451708411,1580,1579,1579,1579,0,0,0,0,0,0,0,0,0,0
1680789718.17963195,451808371,1579,1579,1579,1579,0,0,0,0,0,0,0,0,0,0
1680789718.27959180,451908331,1580,1580,1580,1580,0,0,0,0,0,0,0,0,0,0
1680789718.37955189,452008291,1580,1580,1580,1580,0,0,0,0,0,0,0,0,0,0
1680789718.47951198,452108251,1581,1581,1581,1580,0,0,0,0,0,0,0,0,0,0
1680789718.57947183,452208211,1581,1581,1581,1581,0,0,0,0,0,0,0,0,0,0
1680789718.67943192,452308171,1581,1580,1581,1580,0,0,0,0,0,0,0,0,0,0
1680789718.78022480,452408964,1581,1581,1581,1581,0,0,0,0,0,0,0,0,0,0
1680789718.88018489,452508924,1581,1582,1582,1582,0,0,0,0,0,0,0,0,0,0
1680789718.98014498,452608884,1581,1581,1581,1581,0,0,0,0,0,0,0,0,0,0
1680789719.08010483,452708844,1582,1581,1581,1582,0,0,0,0,0,0,0,0,0,0
1680789719.18006492,452808804,1581,1580,1581,1580,0,0,0,0,0,0,0,0,0,0
1680789719.28002477,452908764,1581,1582,1581,1581,0,0,0,0,0,0,0,0,0,0
1680789719.37998486,453008724,1581,1581,1581,1581,0,0,0,0,0,0,0,0,0,0
1680789719.47994494,453108684,1581,1582,1582,1581,0,0,0,0,0,0,0,0,0,0
1680789719.57990479,453208644,1581,1581,1581,1581,0,0,0,0,0,0,0,0,0,0
1680789719.67986488,453308604,1582,1581,1586,1576,0,0,0,0,0,0,0,0,0,0
1680789719.77982497,453408564,1580,1582,1587,1573,0,0,0,0,0,0,0,0,0,0
1680789719.87978482,453508524,1579,1581,1580,1574,0,0,0,0,0,0,0,0,0,0
1680789719.97974491,453608484,1577,1579,1570,1573,0,0,0,0,0,0,0,0,0,0
1680789720.07970500,453708444,1576,1578,1563,1570,0,0,0,0,0,0,0,0,0,0
1680789720.17966485,453808404,1576,1577,1558,1565,0,0,0,0,0,0,0,0,0,0
1680789720.27962494,453908364,1576,1576,1556,1561,0,0,0,0,0,0,0,0,0,0
1680789720.37958479,454008324,1576,1574,1555,1557,0,0,0,0,0,0,0,0,0,0
1680789720.47954488,454108284,1576,1575,1556,1555,0,0,0,0,0,0,0,0,0,0
1680789720.57950497,454208244,1575,1574,1556,1553,0,0,0,0,0,0,0,0,0,0
1680789720.67946482,454308204,1574,1574,1556,1553,0,0,0,0,0,0,0,0,0,0
1680789720.77942491,454408164,1573,1574,1555,1554,0,0,0,0,0,0,0,0,0,0
1680789720.88021779,454508957,1572,1574,1555,1554,0,0,0,0,0,0,0,0,0,0
1680789720.98017788,454608917,1572,1574,1555,1554,0,0,0,0,0,0,0,0,0,0
1680789721.08013797,454708877,1572,1574,1553,1553,0,0,0,0,0,0,0,0,0,0
1680789721.18009782,454808837,1573,1574,1551,1552,0,0,0,0,0,0,0,0,0,0
1680789721.28005791,454908797,1574,1575,1549,1550,0,0,0,0,0,0,0,0,0,0
1680789721.38001800,455008757,1576,1577,1547,1546,0,0,0,0,0,0,0,0,0,0
1680789721.47997785,455108717,1578,1579,1544,1543,0,0,0,0,0,0,0,0,0,0
1680789721.57993793,455208677,1581,1582,1541,1541,0,0,0,0,0,0,0,0,0,0
1680789721.67989779,455308637,1584,1585,1539,1538,0,0,0,0,0,0,0,0,0,0
1680789721.77985787,455408597,1587,1588,1536,1536,0,0,0,0,0,0,0,0,0,0
1680789721.87981796,455508557,1590,1591,1534,1534,0,0,0,0,0,0,0,0,0,0
1680789721.97977781,455608517,1593,1593,1532,1533,0,0,0,0,0,0,0,0,0,0
1680789722.07973790,455708477,1594,1594,1533,1534,0,0,0,0,0,0,0,0,0,0
1680789722.17969799,455808437,1593,1592,1534,1535,0,0,0,0,0,0,0,0,0,0
1680789722.27965784,455908397,1592,1592,1538,1540,0,0,0,0,0,0,0,0,0,0
1680789722.37961793,456008357,1588,1587,1541,1544,0,0,0,0,0,0,0,0,0,0
1680789722.47957778,456108317,1583,1581,1547,1550,0,0,0,0,0,0,0,0,0,0
1680789722.57953787,456208277,1576,1574,1556,1560,0,0,0,0,0,0,0,0,0,0
1680789722.67949796,456308237,1567,1564,1567,1570,0,0,0,0,0,0,0,0,0,0
1680789722.77945781,456408197,1559,1554,1580,1582,0,0,0,0,0,0,0,0,0,0
1680789722.87941790,456508157,1549,1545,1593,1594,0,0,0,0,0,0,0,0,0,0
1680789722.98021078,456608950,1539,1537,1603,1603,0,0,0,0,0,0,0,0,0,0
1680789723.08017087,456708910,1533,1533,1611,1610,0,0,0,0,0,0,0,0,0,0
1680789723.18013096,456808870,1530,1531,1615,1614,0,0,0,0,0,0,0,0,0,0
1680789723.28009081,456908830,1530,1532,1615,1614,0,0,0,0,0,0,0,0,0,0
1680789723.38005090,457008790,1534,1536,1612,1611,0,0,0,0,0,0,0,0,0,0
1680789723.48001099,457108750,1540,1542,1606,1606,0,0,0,0,0,0,0,0,0,0
1680789723.57997084,457208710,1549,1551,1600,1600,0,0,0,0,0,0,0,0,0,0
1680789723.67993093,457308670,1557,1558,1592,1592,0,0,0,0,0,0,0,0,0,0
1680789723.77989078,457408630,1568,1567,1586,1586,0,0,0,0,0,0,0,0,0,0
1680789723.87985086,457508590,1575,1574,1579,1578,0,0,0,0,0,0,0,0,0,0
1680789723.97981095,457608550,1581,1580,1574,1573,0,0,0,0,0,0,0,0,0,0
1680789724.07977080,457708510,1585,1584,1570,1569,0,0,0,0,0,0,0,0,0,0
1680789724.17973089,457808470,1587,1586,1567,1567,0,0,0,0,0,0,0,0,0,0
1680789724.27969098,457908430,1587,1587,1567,1566,0,0,0,0,0,0,0,0,0,0
1680789724.37965083,458008390,1587,1586,1568,1568,0,0,0,0,0,0,0,0,0,0
1680789724.47961092,458108350,1586,1585,1570,1570,0,0,0,0,0,0,0,0,0,0
1680789724.57957077,458208310,1584,1583,1573,1573,0,0,0,0,0,0,0,0,0,0
1680789724.67953086,458308270,1581,1581,1576,1576,0,0,0,0,0,0,0,0,0,0
1680789724.77949095,458408230,1579,1578,1579,1579,0,0,0,0,0,0,0,0,0,0
1680789724.87945080,458508190,1575,1577,1581,1581,0,0,0,0,0,0,0,0,0,0
1680789724.98024392,458608983,1574,1575,1583,1583,0,0,0,0,0,0,0,0,0,0
1680789725.08020377,458708943,1572,1574,1583,1583,0,0,0,0,0,0,0,0,0,0
1680789725.18016386,458808903,1573,1573,1584,1584,0,0,0,0,0,0,0,0,0,0
1680789725.28012395,458908863,1573,1573,1582,1583,0,0,0,0,0,0,0,0,0,0
1680789725.38008380,459008823,1574,1574,1582,1583,0,0,0,0,0,0,0,0,0,0
1680789725.48004389,459108783,1576,1575,1582,1582,0,0,0,0,0,0,0,0,0,0
1680789725.58000398,459208743,1577,1576,1580,1580,0,0,0,0,0,0,0,0,0,0
1680789725.67996383,459308703,1578,1579,1580,1579,0,0,0,0,0,0,0,0,0,0
1680789725.77992392,459408663,1579,1579,1578,1578,0,0,0,0,0,0,0,0,0,0
1680789725.87988377,459508623,1580,1581,1578,1578,0,0,0,0,0,0,0,0,0,0
1680789725.97984385,459608583,1581,1581,1578,1578,0,0,0,0,0,0,0,0,0,0
1680789726.07980394,459708543,1582,1582,1578,1578,0,0,0,0,0,0,0,0,0,0
1680789726.17976379,459808503,1583,1583,1579,1578,0,0,0,0,0,0,0,0,0,0
1680789726.27972388,459908463,1583,1582,1578,1579,0,0,0,0,0,0,0,0,0,0
1680789726.37968397,460008423,1581,1581,1577,1577,0,0,0,0,0,0,0,0,0,0
1680789726.47964382,460108383,1580,1580,1578,1578,0,0,0,0,0,0,0,0,0,0
1680789726.57960391,460208343,1581,1581,1579,1580,0,0,0,0,0,0,0,0,0,0
1680789726.67956400,460308303,1580,1580,1580,1580,0,0,0,0,0,0,0,0,0,0
1680789726.77952385,460408263,1580,1580,1581,1581,0,0,0,0,0,0,0,0,0,0
1680789726.87948394,460508223,1579,1579,1580,1580,0,0,0,0,0,0,0,0,0,0
1680789726.97944379,460608183,1578,1578,1580,1580,0,0,0,0,0,0,0,0,0,0
1680789727.08023691,460708976,1578,1579,1580,1580,0,0,0,0,0,0,0,0,0,0
1680789727.18019700,460808936,1579,1579,1581,1580,0,0,0,0,0,0,0,0,0,0
1680789727.28015685,460908896,1578,1579,1580,1580,0,0,0,0,0,0,0,0,0,0
1680789727.38011694,461008856,1580,1579,1580,1580,0,0,0,0,0,0,0,0,0,0
1680789727.48007679,461108816,1580,1579,1580,1580,0,0,0,0,0,0,0,0,0,0
1680789727.58003688,461208776,1581,1581,1581,1581,0,0,0,0,0,0,0,0,0,0
1680789727.67999697,461308736,1581,1581,1581,1580,0,0,0,0,0,0,0,0,0,0
1680789727.77995682,461408696,1580,1581,1580,1579,0,0,0,0,0,0,0,0,0,0
1680789727.87991691,461508656,1581,1582,1587,1573,0,0,0,0,0,0,0,0,0,0
1680789727.97987700,461608616,1580,1582,1583,1572,0,0,0,0,0,0,0,0,0,0
1680789728.07983685,461708576,1578,1581,1574,1571,0,0,0,0,0,0,0,0,0,0
1680789728.17979693,461808536,1576,1579,1565,1569,0,0,0,0,0,0,0,0,0,0
1680789728.27975678,461908496,1577,1579,1559,1566,0,0,0,0,0,0,0,0,0,0
1680789728.37971687,462008456,1578,1579,1556,1562,0,0,0,0,0,0,0,0,0,0
1680789728.47967696,462108416,1578,1577,1553,1557,0,0,0,0,0,0,0,0,0,0
1680789728.57963681,462208376,1579,1577,1553,1554,0,0,0,0,0,0,0,0,0,0
1680789728.67959690,462308336,1579,1577,1554,1552,0,0,0,0,0,0,0,0,0,0
1680789728.77955699,462408296,1578,1578,1556,1552,0,0,0,0,0,0,0,0,0,0
1680789728.87951684,462508256,1576,1577,1554,1552,0,0,0,0,0,0,0,0,0,0
1680789728.97947693,462608216,1575,1576,1554,1552,0,0,0,0,0,0,0,0,0,0
1680789729.07943678,462708176,1575,1577,1554,1553,0,0,0,0,0,0,0,0,0,0
1680789729.18022990,462808969,1575,1576,1551,1552,0,0,0,0,0,0,0,0,0,0
1680789729.28018999,462908929,1576,1577,1551,1551,0,0,0,0,0,0,0,0,0,0
1680789729.38014984,463008889,1577,1578,1549,1549,0,0,0,0,0,0,0,0,0,0
1680789729.48010993,463108849,1590,1592,1500,1524,0,0,0,0,0,0,0,0,0,0
1680789729.58006978,463208809,1595,1597,1531,1517,0,0,0,0,0,0,0,0,0,0
1680789729.68002987,463308769,1596,1600,1551,1521,0,0,0,0,0,0,0,0,0,0
1680789729.77998996,463408729,1595,1600,1561,1532,0,0,0,0,0,0,0,0,0,0
1680789729.87994981,463508689,1592,1597,1561,1544,0,0,0,0,0,0,0,0,0,0
1680789729.97990990,463608649,1591,1594,1557,1553,0,0,0,0,0,0,0,0,0,0
1680789730.07986999,463708609,1590,1591,1549,1556,0,0,0,0,0,0,0,0,0,0
1680789730.17982984,463808569,1592,1591,1544,1557,0,0,0,0,0,0,0,0,0,0
1680789730.27978992,463908529,1595,1591,1541,1555,0,0,0,0,0,0,0,0,0,0
1680789730.37974977,464008489,1595,1590,1543,1554,0,0,0,0,0,0,0,0,0,0
1680789730.47970986,464108449,1593,1588,1550,1556,0,0,0,0,0,0,0,0,0,0
1680789730.57966995,464208409,1587,1581,1560,1563,0,0,0,0,0,0,0,0,0,0
1680789730.67962980,464308369,1576,1571,1573,1573,0,0,0,0,0,0,0,0,0,0
1680789730.77958989,464408329,1563,1558,1588,1587,0,0,0,0,0,0,0,0,0,0
1680789730.87954998,464508289,1548,1545,1602,1600,0,0,0,0,0,0,0,0,0,0
1680789730.97950983,464608249,1538,1536,1614,1611,0,0,0,0,0,0,0,0,0,0
1680789731.07946992,464708209,1532,1530,1620,1616,0,0,0,0,0,0,0,0,0,0
1680789731.17942977,464808169,1528,1529,1621,1618,0,0,0,0,0,0,0,0,0,0
1680789731.28022289,464908962,1530,1532,1620,1618,0,0,0,0,0,0,0,0,0,0
1680789731.38018298,465008922,1534,1536,1616,1615,0,0,0,0,0,0,0,0,0,0
1680789731.48014283,465108882,1539,1541,1610,1610,0,0,0,0,0,0,0,0,0,0
1680789731.58010292,465208842,1545,1546,1603,1604,0,0,0,0,0,0,0,0,0,0
1680789731.68006277,465308802,1551,1552,1596,1597,0,0,0,0,0,0,0,0,0,0
1680789731.78002286,465408762,1558,1559,1589,1591,0,0,0,0,0,0,0,0,0,0
1680789731.87998295,465508722,1564,1564,1582,1583,0,0,0,0,0,0,0,0,0,0
1680789731.97994280,465608682,1570,1570,1575,1576,0,0,0,0,0,0,0,0,0,0
1680789732.07990289,465708642,1577,1577,1569,1570,0,0,0,0,0,0,0,0,0,0
1680789732.17986298,465808602,1583,1582,1564,1565,0,0,0,0,0,0,0,0,0,0
1680789732.27982283,465908562,1587,1586,1560,1561,0,0,0,0,0,0,0,0,0,0
1680789732.37978292,466008522,1590,1588,1560,1560,0,0,0,0,0,0,0,0,0,0
1680789732.47974277,466108482,1590,1588,1560,1561,0,0,0,0,0,0,0,0,0,0
1680789732.57970285,466208442,1588,1587,1563,1563,0,0,0,0,0,0,0,0,0,0
1680789732.67966294,466308402,1585,1585,1566,1566,0,0,0,0,0,0,0,0,0,0
1680789732.77962279,466408362,1583,1582,1570,1570,0,0,0,0,0,0,0,0,0,0
1680789732.87958288,466508322,1580,1580,1575,1574,0,0,0,0,0,0,0,0,0,0
1680789732.97954297,466608282,1576,1577,1578,1577,0,0,0,0,0,0,0,0,0,0
1680789733.07950282,466708242,1573,1574,1580,1580,0,0,0,0,0,0,0,0,0,0
1680789733.17946291,466808202,1572,1572,1582,1582,0,0,0,0,0,0,0,0,0,0
1680789733.27942300,466908162,1571,1572,1585,1584,0,0,0,0,0,0,0,0,0,0
1680789733.38021588,467008955,1573,1573,1586,1585,0,0,0,0,0,0,0,0,0,0
1680789733.48017597,467108915,1572,1573,1585,1584,0,0,0,0,0,0,0,0,0,0
1680789733.58013582,467208875,1574,1575,1584,1584,0,0,0,0,0,0,0,0,0,0
1680789733.68009591,467308835,1576,1577,1583,1583,0,0,0,0,0,0,0,0,0,0
1680789733.78005600,467408795,1576,1577,1581,1581,0,0,0,0,0,0,0,0,0,0
1680789733.88001585,467508755,1578,1578,1579,1579,0,0,0,0,0,0,0,0,0,0
1680789733.97997594,467608715,1580,1579,1578,1578,0,0,0,0,0,0,0,0,0,0
1680789734.07993579,467708675,1581,1580,1577,1577,0,0,0,0,0,0,0,0,0,0
1680789734.17989588,467808635,1581,1581,1576,1576,0,0,0,0,0,0,0,0,0,0
1680789734.27985597,467908595,1582,1582,1577,1576,0,0,0,0,0,0,0,0,0,0
1680789734.37981582,468008555,1583,1582,1576,1577,0,0,0,0,0,0,0,0,0,0
1680789734.47977591,468108515,1582,1581,1576,1576,0,0,0,0,0,0,0,0,0,0
1680789734.57973599,468208475,1582,1582,1577,1577,0,0,0,0,0,0,0,0,0,0
1680789734.67969584,468308435,1581,1581,1578,1578,0,0,0,0,0,0,0,0,0,0
1680789734.77965593,468408395,1580,1580,1578,1578,0,0,0,0,0,0,0,0,0,0
1680789734.87961578,468508355,1580,1580,1580,1580,0,0,0,0,0,0,0,0,0,0
1680789734.97957587,468608315,1580,1580,1580,1580,0,0,0,0,0,0,0,0,0,0
1680789735.07953596,468708275,1579,1579,1580,1580,0,0,0,0,0,0,0,0,0,0
1680789735.17949581,468808235,1579,1579,1581,1581,0,0,0,0,0,0,0,0,0,0
1680789735.27945590,468908195,1580,1580,1582,1582,0,0,0,0,0,0,0,0,0,0
1680789735.37941599,469008155,1579,1580,1582,1582,0,0,0,0,0,0,0,0,0,0
1680789735.48020887,469108948,1579,1579,1581,1581,0,0,0,0,0,0,0,0,0,0
1680789735.58016896,469208908,1580,1581,1582,1582,0,0,0,0,0,0,0,0,0,0
1680789735.68012881,469308868,1580,1580,1581,1581,0,0,0,0,0,0,0,0,0,0
1680789735.78008890,469408828,1581,1580,1581,1580,0,0,0,0,0,0,0,0,0,0
1680789735.88004899,469508788,1581,1581,1581,1581,0,0,0,0,0,0,0,0,0,0
1680789735.98000884,469608748,1581,1581,1580,1580,0,0,0,0,0,0,0,0,0,0
1680789736.07996893,469708708,1580,1581,1583,1576,0,0,0,0,0,0,0,0,0,0
1680789736.17992878,469808668,1581,1582,1586,1572,0,0,0,0,0,0,0,0,0,0
1680789736.27988887,469908628,1578,1580,1580,1571,0,0,0,0,0,0,0,0,0,0
1680789736.37984896,470008588,1576,1580,1573,1572,0,0,0,0,0,0,0,0,0,0
1680789736.47980881,470108548,1575,1578,1565,1570,0,0,0,0,0,0,0,0,0,0
1680789736.57976890,470208508,1575,1576,1559,1567,0,0,0,0,0,0,0,0,0,0
1680789736.67972898,470308468,1576,1576,1557,1562,0,0,0,0,0,0,0,0,0,0
1680789736.77968884,470408428,1577,1575,1556,1558,0,0,0,0,0,0,0,0,0,0
1680789736.87964892,470508388,1577,1575,1556,1556,0,0,0,0,0,0,0,0,0,0
1680789736.97960877,470608348,1576,1575,1557,1554,0,0,0,0,0,0,0,0,0,0
1680789737.07956886,470708308,1576,1576,1557,1555,0,0,0,0,0,0,0,0,0,0
1680789737.17952895,470808268,1574,1575,1556,1554,0,0,0,0,0,0,0,0,0,0
1680789737.27948880,470908228,1573,1575,1556,1555,0,0,0,0,0,0,0,0,0,0
1680789737.37944889,471008188,1572,1574,1555,1554,0,0,0,0,0,0,0,0,0,0
1680789737.48024178,471108981,1572,1574,1553,1553,0,0,0,0,0,0,0,0,0,0
1680789737.58020186,471208941,1573,1574,1552,1552,0,0,0,0,0,0,0,0,0,0
1680789737.68016195,471308901,1574,1575,1550,1551,0,0,0,0,0,0,0,0,0,0
1680789737.78012180,471408861,1575,1576,1548,1547,0,0,0,0,0,0,0,0,0,0
1680789737.88008189,471508821,1578,1579,1546,1546,0,0,0,0,0,0,0,0,0,0
1680789737.98004198,471608781,1582,1583,1545,1544,0,0,0,0,0,0,0,0,0,0
1680789738.08000183,471708741,1584,1585,1542,1541,0,0,0,0,0,0,0,0,0,0
1680789738.17996192,471808701,1587,1588,1539,1539,0,0,0,0,0,0,0,0,0,0
1680789738.27992177,471908661,1589,1590,1536,1536,0,0,0,0,0,0,0,0,0,0
1680789738.37988186,472008621,1593,1593,1536,1535,0,0,0,0,0,0,0,0,0,0
1680789738.47984195,472108581,1593,1593,1534,1535,0,0,0,0,0,0,0,0,0,0
1680789738.57980180,472208541,1593,1594,1535,1536,0,0,0,0,0,0,0,0,0,0
1680789738.67976189,472308501,1593,1593,1536,1539,0,0,0,0,0,0,0,0,0,0
1680789738.77972198,472408461,1591,1590,1540,1543,0,0,0,0,0,0,0,0,0,0
1680789738.87968183,472508421,1588,1585,1545,1549,0,0,0,0,0,0,0,0,0,0
1680789738.97964191,472608381,1581,1578,1554,1557,0,0,0,0,0,0,0,0,0,0
1680789739.07960176,472708341,1572,1568,1564,1566,0,0,0,0,0,0,0,0,0,0
1680789739.17956185,472808301,1561,1558,1576,1578,0,0,0,0,0,0,0,0,0,0
1680789739.27952194,472908261,1552,1549,1589,1589,0,0,0,0,0,0,0,0,0,0
1680789739.37948179,473008221,1542,1540,1600,1599,0,0,0,0,0,0,0,0,0,0
1680789739.47944188,473108181,1534,1534,1608,1606,0,0,0,0,0,0,0,0,0,0
1680789739.58023477,473208974,1532,1533,1614,1612,0,0,0,0,0,0,0,0,0,0
1680789739.68019485,473308934,1531,1533,1614,1611,0,0,0,0,0,0,0,0,0,0
1680789739.78015494,473408894,1536,1537,1612,1611,0,0,0,0,0,0,0,0,0,0
1680789739.88011479,473508854,1541,1542,1608,1607,0,0,0,0,0,0,0,0,0,0
1680789739.98007488,473608814,1547,1549,1602,1603,0,0,0,0,0,0,0,0,0,0
1680789740.08003497,473708774,1555,1555,1597,1597,0,0,0,0,0,0,0,0,0,0
1680789740.17999482,473808734,1561,1561,1590,1589,0,0,0,0,0,0,0,0,0,0
1680789740.27995491,473908694,1568,1568,1583,1582,0,0,0,0,0,0,0,0,0,0
1680789740.37991500,474008654,1575,1575,1576,1576,0,0,0,0,0,0,0,0,0,0
1680789740.47987485,474108614,1580,1580,1571,1571,0,0,0,0,0,0,0,0,0,0
1680789740.57983494,474208574,1585,1584,1568,1568,0,0,0,0,0,0,0,0,0,0
1680789740.67979479,474308534,1586,1586,1565,1566,0,0,0,0,0,0,0,0,0,0
1680789740.77975488,474408494,1587,1585,1565,1566,0,0,0,0,0,0,0,0,0,0
1680789740.87971497,474508454,1586,1584,1566,1567,0,0,0,0,0,0,0,0,0,0
1680789740.97967482,474608414,1584,1583,1569,1570,0,0,0,0,0,0,0,0,0,0
1680789741.07963490,474708374,1581,1582,1572,1572,0,0,0,0,0,0,0,0,0,0
1680789741.17959499,474808334,1580,1580,1576,1575,0,0,0,0,0,0,0,0,0,0
1680789741.27955484,474908294,1577,1577,1578,1578,0,0,0,0,0,0,0,0,0,0
1680789741.37951493,475008254,1575,1575,1581,1580,0,0,0,0,0,0,0,0,0,0
1680789741.47947478,475108214,1574,1575,1583,1583,0,0,0,0,0,0,0,0,0,0
1680789741.57943487,475208174,1573,1574,1584,1584,0,0,0,0,0,0,0,0,0,0
1680789741.68022799,475308967,1574,1575,1585,1585,0,0,0,0,0,0,0,0,0,0
1680789741.78018785,475408927,1575,1574,1585,1584,0,0,0,0,0,0,0,0,0,0
1680789741.88014793,475508887,1575,1576,1584,1584,0,0,0,0,0,0,0,0,0,0
1680789741.98010778,475608847,1575,1575,1582,1582,0,0,0,0,0,0,0,0,0,0
1680789742.08006787,475708807,1577,1577,1581,1582,0,0,0,0,0,0,0,0,0,0
1680789742.18002796,475808767,1578,1578,1580,1580,0,0,0,0,0,0,0,0,0,0
1680789742.27998781,475908727,1581,1581,1580,1580,0,0,0,0,0,0,0,0,0,0
1680789742.37994790,476008687,1582,1581,1579,1579,0,0,0,0,0,0,0,0,0,0
1680789742.47990799,476108647,1581,1581,1578,1578,0,0,0,0,0,0,0,0,0,0
1680789742.57986784,476208607,1582,1582,1578,1578,0,0,0,0,0,0,0,0,0,0
1680789742.67982793,476308567,1582,1583,1578,1579,0,0,0,0,0,0,0,0,0,0
1680789742.77978778,476408527,1582,1582,1578,1578,0,0,0,0,0,0,0,0,0,0
1680789742.87974787,476508487,1581,1581,1577,1577,0,0,0,0,0,0,0,0,0,0
1680789742.97970796,476608447,1581,1581,1578,1578,0,0,0,0,0,0,0,0,0,0
1680789743.07966781,476708407,1581,1581,1580,1579,0,0,0,0,0,0,0,0,0,0
1680789743.17962790,476808367,1580,1579,1579,1579,0,0,0,0,0,0,0,0,0,0
1680789743.27958798,476908327,1580,1580,1580,1580,0,0,0,0,0,0,0,0,0,0
1680789743.37954783,477008287,1579,1579,1580,1580,0,0,0,0,0,0,0,0,0,0
1680789743.47950792,477108247,1579,1579,1580,1580,0,0,0,0,0,0,0,0,0,0
1680789743.57946777,477208207,1579,1579,1580,1580,0,0,0,0,0,0,0,0,0,0
1680789743.67942786,477308167,1580,1580,1581,1581,0,0,0,0,0,0,0,0,0,0
1680789743.78022099,477408960,1580,1579,1581,1581,0,0,0,0,0,0,0,0,0,0
1680789743.88018084,477508920,1579,1579,1580,1580,0,0,0,0,0,0,0,0,0,0
1680789743.98014092,477608880,1579,1580,1580,1580,0,0,0,0,0,0,0,0,0,0
1680789744.08010077,477708840,1578,1579,1579,1579,0,0,0,0,0,0,0,0,0,0
1680789744.18006086,477808800,1580,1579,1580,1579,0,0,0,0,0,0,0,0,0,0
1680789744.28002095,477908760,1581,1581,1586,1573,0,0,0,0,0,0,0,0,0,0
1680789744.37998080,478008720,1581,1581,1585,1572,0,0,0,0,0,0,0,0,0,0
1680789744.47994089,478108680,1578,1578,1579,1573,0,0,0,0,0,0,0,0,0,0
1680789744.57990098,478208640,1575,1575,1572,1575,0,0,0,0,0,0,0,0,0,0
1680789744.67986083,478308600,1571,1571,1566,1573,0,0,0,0,0,0,0,0,0,0
1680789744.77982092,478408560,1568,1568,1564,1571,0,0,0,0,0,0,0,0,0,0
1680789744.87978077,478508520,1566,1566,1563,1568,0,0,0,0,0,0,0,0,0,0
1680789744.97974086,478608480,1565,1565,1564,1566,0,0,0,0,0,0,0,0,0,0
1680789745.07970095,478708440,1565,1564,1565,1564,0,0,0,0,0,0,0,0,0,0
1680789745.17966080,478808400,1565,1565,1566,1564,0,0,0,0,0,0,0,0,0,0
1680789745.27962089,478908360,1563,1564,1566,1562,0,0,0,0,0,0,0,0,0,0
1680789745.37958097,479008320,1564,1564,1565,1563,0,0,0,0,0,0,0,0,0,0
1680789745.47954082,479108280,1563,1563,1564,1563,0,0,0,0,0,0,0,0,0,0
1680789745.57950091,479208240,1562,1562,1562,1562,0,0,0,0,0,0,0,0,0,0
1680789745.67946076,479308200,1562,1562,1562,1563,0,0,0,0,0,0,0,0,0,0
1680789745.77942085,479408160,1562,1561,1561,1562,0,0,0,0,0,0,0,0,0,0
1680789745.88021398,479508953,1561,1561,1561,1561,0,0,0,0,0,0,0,0,0,0
1680789745.98017383,479608913,1560,1560,1561,1560,0,0,0,0,0,0,0,0,0,0
1680789746.08013391,479708873,1560,1561,1561,1560,0,0,0,0,0,0,0,0,0,0
1680789746.18009377,479808833,1559,1559,1559,1559,0,0,0,0,0,0,0,0,0,0
1680789746.28005385,479908793,1560,1560,1560,1559,0,0,0,0,0,0,0,0,0,0
1680789746.38001394,480008753,1559,1559,1559,1559,0,0,0,0,0,0,0,0,0,0
1680789746.47997379,480108713,1558,1559,1559,1558,0,0,0,0,0,0,0,0,0,0
1680789746.57993388,480208673,1558,1558,1558,1557,0,0,0,0,0,0,0,0,0,0
1680789746.67989397,480308633,1557,1558,1558,1557,0,0,0,0,0,0,0,0,0,0
1680789746.77985382,480408593,1557,1557,1558,1557,0,0,0,0,0,0,0,0,0,0
1680789746.87981391,480508553,1558,1558,1559,1557,0,0,0,0,0,0,0,0,0,0
1680789746.97977400,480608513,1558,1558,1558,1557,0,0,0,0,0,0,0,0,0,0
1680789747.07973385,480708473,1557,1558,1559,1556,0,0,0,0,0,0,0,0,0,0
1680789747.17969394,480808433,1558,1558,1557,1559,0,0,0,0,0,0,0,0,0,0
1680789747.27965379,480908393,1559,1559,1557,1562,0,0,0,0,0,0,0,0,0,0
1680789747.37961388,481008353,1560,1560,1557,1563,0,0,0,0,0,0,0,0,0,0
1680789747.47957397,481108313,1560,1560,1558,1562,0,0,0,0,0,0,0,0,0,0
1680789747.57953382,481208273,1560,1560,1558,1561,0,0,0,0,0,0,0,0,0,0
1680789747.67949390,481308233,1559,1559,1559,1559,0,0,0,0,0,0,0,0,0,0
1680789747.77945399,481408193,1559,1558,1560,1558,0,0,0,0,0,0,0,0,0,0
1680789747.88024688,481508986,1559,1558,1560,1556,0,0,0,0,0,0,0,0,0,0
1680789747.98020697,481608946,1558,1558,1559,1557,0,0,0,0,0,0,0,0,0,0
1680789748.08016682,481708906,1558,1558,1555,1561,0,0,0,0,0,0,0,0,0,0
1680789748.18012691,481808866,1555,1555,1552,1559,0,0,0,0,0,0,0,0,0,0
1680789748.28008699,481908826,1551,1551,1550,1553,0,0,0,0,0,0,0,0,0,0
1680789748.38004684,482008786,1545,1546,1545,1547,0,0,0,0,0,0,0,0,0,0
1680789748.48000693,482108746,1538,1538,1540,1538,0,0,0,0,0,0,0,0,0,0
1680789748.57996678,482208706,1532,1532,1534,1532,0,0,0,0,0,0,0,0,0,0
1680789748.67992687,482308666,1525,1525,1527,1524,0,0,0,0,0,0,0,0,0,0
1680789748.77988696,482408626,1521,1520,1522,1521,0,0,0,0,0,0,0,0,0,0
1680789748.87984681,482508586,1520,1519,1520,1520,0,0,0,0,0,0,0,0,0,0
1680789748.97980690,482608546,1521,1520,1520,1521,0,0,0,0,0,0,0,0,0,0
1680789749.07976699,482708506,1522,1522,1521,1522,0,0,0,0,0,0,0,0,0,0
1680789749.17972684,482808466,1526,1526,1524,1525,0,0,0,0,0,0,0,0,0,0
1680789749.27968693,482908426,1530,1530,1528,1528,0,0,0,0,0,0,0,0,0,0
1680789749.37964678,483008386,1534,1534,1533,1533,0,0,0,0,0,0,0,0,0,0
1680789749.47960687,483108346,1538,1539,1537,1537,0,0,0,0,0,0,0,0,0,0
1680789749.57956696,483208306,1541,1541,1540,1540,0,0,0,0,0,0,0,0,0,0
1680789749.67952681,483308266,1544,1544,1544,1542,0,0,0,0,0,0,0,0,0,0
1680789749.77948689,483408226,1546,1545,1545,1545,0,0,0,0,0,0,0,0,0,0
1680789749.87944698,483508186,1546,1546,1547,1545,0,0,0,0,0,0,0,0,0,0
1680789749.98023987,483608979,1547,1546,1547,1547,0,0,0,0,0,0,0,0,0,0
1680789750.08019996,483708939,1546,1546,1547,1546,0,0,0,0,0,0,0,0,0,0
1680789750.18015981,483808899,1546,1546,1547,1547,0,0,0,0,0,0,0,0,0,0
1680789750.28011990,483908859,1545,1546,1547,1547,0,0,0,0,0,0,0,0,0,0
1680789750.38007998,484008819,1546,1546,1547,1548,0,0,0,0,0,0,0,0,0,0
1680789750.48003983,484108779,1546,1546,1547,1546,0,0,0,0,0,0,0,0,0,0
1680789750.57999992,484208739,1546,1546,1546,1546,0,0,0,0,0,0,0,0,0,0
1680789750.67995977,484308699,1545,1545,1546,1545,0,0,0,0,0,0,0,0,0,0
1680789750.77991986,484408659,1546,1546,1546,1546,0,0,0,0,0,0,0,0,0,0
1680789750.87987995,484508619,1545,1545,1545,1545,0,0,0,0,0,0,0,0,0,0
1680789750.97983980,484608579,1545,1545,1545,1545,0,0,0,0,0,0,0,0,0,0
1680789751.07979989,484708539,1545,1545,1545,1545,0,0,0,0,0,0,0,0,0,0
1680789751.17975998,484808499,1544,1544,1544,1544,0,0,0,0,0,0,0,0,0,0
1680789751.27971983,484908459,1544,1544,1544,1544,0,0,0,0,0,0,0,0,0,0
1680789751.37967992,485008419,1545,1544,1543,1544,0,0,0,0,0,0,0,0,0,0
1680789751.47963977,485108379,1544,1545,1544,1544,0,0,0,0,0,0,0,0,0,0
1680789751.57959986,485208339,1546,1545,1545,1545,0,0,0,0,0,0,0,0,0,0
1680789751.67955995,485308299,1544,1545,1544,1544,0,0,0,0,0,0,0,0,0,0
1680789751.77951980,485408259,1545,1544,1544,1545,0,0,0,0,0,0,0,0,0,0
1680789751.87947989,485508219,1545,1545,1545,1545,0,0,0,0,0,0,0,0,0,0
1680789751.97943997,485608179,1544,1545,1545,1545,0,0,0,0,0,0,0,0,0,0
1680789752.08023286,485708972,1544,1543,1545,1544,0,0,0,0,0,0,0,0,0,0
1680789752.18019295,485808932,1544,1544,1544,1545,0,0,0,0,0,0,0,0,0,0
1680789752.28015280,485908892,1545,1545,1545,1545,0,0,0,0,0,0,0,0,0,0
1680789752.38011289,486008852,1544,1544,1544,1545,0,0,0,0,0,0,0,0,0,0
1680789752.48007298,486108812,1544,1544,1544,1544,0,0,0,0,0,0,0,0,0,0
1680789752.58003283,486208772,1544,1544,1544,1544,0,0,0,0,0,0,0,0,0,0
1680789752.67999291,486308732,1544,1544,1544,1544,0,0,0,0,0,0,0,0,0,0
1680789752.77995276,486408692,1544,1544,1544,1544,0,0,0,0,0,0,0,0,0,0
1680789752.87991285,486508652,1544,1544,1544,1544,0,0,0,0,0,0,0,0,0,0
1680789752.97987294,486608612,1544,1544,1543,1544,0,0,0,0,0,0,0,0,0,0
1680789753.07983279,486708572,1545,1545,1545,1544,0,0,0,0,0,0,0,0,0,0
1680789753.17979288,486808532,1545,1544,1544,1545,0,0,0,0,0,0,0,0,0,0
1680789753.27975297,486908492,1544,1545,1544,1544,0,0,0,0,0,0,0,0,0,0
1680789753.37971282,487008452,1544,1544,1544,1544,0,0,0,0,0,0,0,0,0,0
1680789753.47967291,487108412,1544,1544,1544,1544,0,0,0,0,0,0,0,0,0,0
1680789753.57963300,487208372,1545,1545,1545,1546,0,0,0,0,0,0,0,0,0,0
1680789753.67959285,487308332,1544,1545,1545,1544,0,0,0,0,0,0,0,0,0,0
1680789753.77955294,487408292,1544,1543,1543,1544,0,0,0,0,0,0,0,0,0,0
1680789753.87951279,487508252,1544,1544,1544,1544,0,0,0,0,0,0,0,0,0,0
1680789753.97947288,487608212,1544,1544,1544,1544,0,0,0,0,0,0,0,0,0,0
1680789754.07943296,487708172,1544,1544,1544,1544,0,0,0,0,0,0,0,0,0,0
1680789754.18022585,487808965,1543,1543,1543,1543,0,0,0,0,0,0,0,0,0,0
1680789754.28018594,487908925,1544,1544,1544,1543,0,0,0,0,0,0,0,0,0,0
1680789754.38014579,488008885,1543,1543,1543,1543,0,0,0,0,0,0,0,0,0,0
1680789754.48010588,488108845,1544,1545,1545,1545,0,0,0,0,0,0,0,0,0,0
1680789754.58006597,488208805,1544,1544,1544,1545,0,0,0,0,0,0,0,0,0,0
1680789754.68002582,488308765,1544,1544,1544,1544,0,0,0,0,0,0,0,0,0,0
1680789754.77998590,488408725,1545,1545,1545,1545,0,0,0,0,0,0,0,0,0,0
1680789754.87994599,488508685,1545,1545,1545,1544,0,0,0,0,0,0,0,0,0,0
1680789754.97990584,488608645,1545,1544,1544,1544,0,0,0,0,0,0,0,0,0,0
1680789755.07986593,488708605,1544,1544,1544,1544,0,0,0,0,0,0,0,0,0,0
1680789755.17982578,488808565,1544,1544,1544,1544,0,0,0,0,0,0,0,0,0,0
1680789755.27978587,488908525,1546,1547,1546,1546,0,0,0,0,0,0,0,0,0,0
1680789755.37974596,489008485,1546,1545,1545,1546,0,0,0,0,0,0,0,0,0,0
1680789755.47970581,489108445,1545,1545,1545,1545,0,0,0,0,0,0,0,0,0,0
1680789755.57966590,489208405,1545,1545,1544,1545,0,0,0,0,0,0,0,0,0,0
1680789755.67962599,489308365,1545,1545,1545,1545,0,0,0,0,0,0,0,0,0,0
1680789755.77958584,489408325,1545,1545,1545,1545,0,0,0,0,0,0,0,0,0,0
1680789755.87954593,489508285,1545,1545,1545,1545,0,0,0,0,0,0,0,0,0,0
1680789755.97950578,489608245,1545,1545,1546,1545,0,0,0,0,0,0,0,0,0,0
1680789756.07946587,489708205,1543,1543,1544,1543,0,0,0,0,0,0,0,0,0,0
1680789756.17942595,489808165,1544,1544,1544,1544,0,0,0,0,0,0,0,0,0,0
1680789756.28021884,489908958,1545,1545,1545,1545,0,0,0,0,0,0,0,0,0,0
1680789756.38017893,490008918,1545,1544,1544,1545,0,0,0,0,0,0,0,0,0,0
1680789756.48013878,490108878,1544,1545,1545,1544,0,0,0,0,0,0,0,0,0,0
1680789756.58009887,490208838,1544,1544,1544,1544,0,0,0,0,0,0,0,0,0,0
1680789756.68005896,490308798,1544,1544,1544,1543,0,0,0,0,0,0,0,0,0,0
1680789756.78001881,490408758,1544,1544,1544,1544,0,0,0,0,0,0,0,0,0,0
1680789756.87997890,490508718,1544,1544,1544,1544,0,0,0,0,0,0,0,0,0,0
1680789756.97993898,490608678,1544,1543,1544,1544,0,0,0,0,0,0,0,0,0,0
1680789757.07989883,490708638,1544,1544,1544,1544,0,0,0,0,0,0,0,0,0,0
1680789757.17985892,490808598,1544,1544,1543,1544,0,0,0,0,0,0,0,0,0,0
1680789757.27981877,490908558,1545,1545,1545,1544,0,0,0,0,0,0,0,0,0,0
1680789757.37977886,491008518,1544,1544,1544,1544,0,0,0,0,0,0,0,0,0,0
1680789757.47973895,491108478,1544,1545,1545,1544,0,0,0,0,0,0,0,0,0,0
1680789757.57969880,491208438,1545,1545,1545,1545,0,0,0,0,0,0,0,0,0,0
1680789757.67965889,491308398,1544,1545,1545,1544,0,0,0,0,0,0,0,0,0,0
1680789757.77961898,491408358,1544,1544,1544,1544,0,0,0,0,0,0,0,0,0,0
1680789757.87957883,491508318,1546,1545,1545,1545,0,0,0,0,0,0,0,0,0,0
1680789757.97953892,491608278,1544,1544,1544,1544,0,0,0,0,0,0,0,0,0,0
1680789758.07949877,491708238,1544,1545,1545,1545,0,0,0,0,0,0,0,0,0,0
1680789758.17945886,491808198,1545,1544,1544,1545,0,0,0,0,0,0,0,0,0,0
1680789758.27941895,491908158,1545,1545,1545,1545,0,0,0,0,0,0,0,0,0,0
1680789758.38021183,492008951,1521,1520,1522,1521,0,0,0,0,0,0,0,0,0,0
1680789758.48017192,492108911,1333,1334,1365,1332,0,0,0,0,0,0,0,0,0,0
1680789758.58013177,492208871,1240,1242,1291,1239,0,0,0,0,0,0,0,0,0,0
1680789758.68009186,492308831,1210,1212,1269,1208,0,0,0,0,0,0,0,0,0,0
1680789758.78005195,492408791,1190,1191,1253,1188,0,0,0,0,0,0,0,0,0,0
1680789758.88001180,492508751,1152,1153,1226,1150,0,0,0,0,0,0,0,0,0,0
1680789758.97997189,492608711,1152,1152,1226,1150,0,0,0,0,0,0,0,0,0,0
1680789759.07993197,492708671,1153,1154,1227,1150,0,0,0,0,0,0,0,0,0,0
1680789759.17989182,492808631,1153,1194,1256,1150,0,0,0,0,0,0,0,0,0,0
1680789759.27985191,492908591,1153,1192,1255,1150,0,0,0,0,0,0,0,0,0,0
1680789759.37981176,493008551,1153,1183,1248,1150,0,0,0,0,0,0,0,0,0,0
1680789759.47977185,493108511,1154,1183,1248,1150,0,0,0,0,0,0,0,0,0,0
1680789759.57973194,493208471,1154,1185,1250,1150,0,0,0,0,0,0,0,0,0,0
1680789759.67969179,493308431,1155,1189,1252,1150,0,0,0,0,0,0,0,0,0,0
1680789759.77965188,493408391,1155,1191,1254,1150,0,0,0,0,0,0,0,0,0,0
1680789759.87961197,493508351,1155,1194,1256,1150,0,0,0,0,0,0,0,0,0,0
1680789759.97957182,493608311,1153,1169,1237,1150,0,0,0,0,0,0,0,0,0,0
1680789760.07953191,493708271,1154,1176,1242,1150,0,0,0,0,0,0,0,0,0,0
1680789760.17949200,493808231,1154,1178,1243,1150,0,0,0,0,0,0,0,0,0,0
1680789760.27945185,493908191,1155,1179,1244,1150,0,0,0,0,0,0,0,0,0,0
1680789760.38024497,494008984,1155,1180,1245,1150,0,0,0,0,0,0,0,0,0,0
1680789760.42022896,494048968,1155,1179,1236,1150,0,0,0,0,0,0,0,0,0,0
1680789760.52018881,494148928,1000,1000,1000,1000,0,0,0,0,0,0,0,0,0,0
1680789760.62014890,494248888,1000,1000,1000,1000,0,0,0,0,0,0,0,0,0,0
1680789760.72010899,494348848,1000,1000,1000,1000,0,0,0,0,0,0,0,0,0,0
1680789760.82006884,494448808,1000,1000,1000,1000,0,0,0,0,0,0,0,0,0,0
1680789760.92002892,494548768,1000,1000,1000,1000,0,0,0,0,0,0,0,0,0,0
1680789761.01998878,494648728,1000,1000,1000,1000,0,0,0,0,0,0,0,0,0,0
1680789761.11994886,494748688,1000,1000,1000,1000,0,0,0,0,0,0,0,0,0,0
1680789761.21990895,494848648,1000,1000,1000,1000,0,0,0,0,0,0,0,0,0,0
1680789761.31986880,494948608,1000,1000,1000,1000,0,0,0,0,0,0,0,0,0,0
1680789761.41982889,495048568,1000,1000,1000,1000,0,0,0,0,0,0,0,0,0,0
1680789761.51978898,495148528,1000,1000,1000,1000,0,0,0,0,0,0,0,0,0,0
1680789761.61974883,495248488,1000,1000,1000,1000,0,0,0,0,0,0,0,0,0,0
1680789761.71970892,495348448,1000,1000,1000,1000,0,0,0,0,0,0,0,0,0,0
1680789761.81966877,495448408,1000,1000,1000,1000,0,0,0,0,0,0,0,0,0,0
1680789761.91962886,495548368,1000,1000,1000,1000,0,0,0,0,0,0,0,0,0,0
1680789762.01958895,495648328,1000,1000,1000,1000,0,0,0,0,0,0,0,0,0,0
1680789762.11954880,495748288,1000,1000,1000,1000,0,0,0,0,0,0,0,0,0,0
1680789762.21950889,495848248,1000,1000,1000,1000,0,0,0,0,0,0,0,0,0,0
1680789762.31946898,495948208,1000,1000,1000,1000,0,0,0,0,0,0,0,0,0,0
1680789762.41942883,496048168,1000,1000,1000,1000,0,0,0,0,0,0,0,0,0,0
1680789762.52022195,496148961,1000,1000,1000,1000,0,0,0,0,0,0,0,0,0,0
1680789762.62018180,496248921,1000,1000,1000,1000,0,0,0,0,0,0,0,0,0,0
1680789762.72014189,496348881,1000,1000,1000,1000,0,0,0,0,0,0,0,0,0,0
1680789762.82010198,496448841,1000,1000,1000,1000,0,0,0,0,0,0,0,0,0,0
1680789762.92006183,496548801,1000,1000,1000,1000,0,0,0,0,0,0,0,0,0,0
1680789763.02002192,496648761,1000,1000,1000,1000,0,0,0,0,0,0,0,0,0,0
1680789763.11998177,496748721,1000,1000,1000,1000,0,0,0,0,0,0,0,0,0,0
1680789763.21994185,496848681,1000,1000,1000,1000,0,0,0,0,0,0,0,0,0,0
1680789763.31990194,496948641,1000,1000,1000,1000,0,0,0,0,0,0,0,0,0,0
1680789763.41986179,497048601,1000,1000,1000,1000,0,0,0,0,0,0,0,0,0,0
1680789763.51982188,497148561,1000,1000,1000,1000,0,0,0,0,0,0,0,0,0,0
1680789763.61978197,497248521,1000,1000,1000,1000,0,0,0,0,0,0,0,0,0,0
1680789763.71974182,497348481,1000,1000,1000,1000,0,0,0,0,0,0,0,0,0,0
1680789763.81970191,497448441,1000,1000,1000,1000,0,0,0,0,0,0,0,0,0,0
1680789763.91966200,497548401,1000,1000,1000,1000,0,0,0,0,0,0,0,0,0,0
1680789764.01962185,497648361,1000,1000,1000,1000,0,0,0,0,0,0,0,0,0,0
1680789764.11958194,497748321,1000,1000,1000,1000,0,0,0,0,0,0,0,0,0,0
1680789764.21954179,497848281,1000,1000,1000,1000,0,0,0,0,0,0,0,0,0,0
1680789764.31950188,497948241,1000,1000,1000,1000,0,0,0,0,0,0,0,0,0,0
1680789764.41946197,498048201,1000,1000,1000,1000,0,0,0,0,0,0,0,0,0,0
1680789764.51942182,498148161,1000,1000,1000,1000,0,0,0,0,0,0,0,0,0,0
1680789764.62021494,498248954,1000,1000,1000,1000,0,0,0,0,0,0,0,0,0,0
1680789764.72017479,498348914,1000,1000,1000,1000,0,0,0,0,0,0,0,0,0,0
1680789764.82013488,498448874,1000,1000,1000,1000,0,0,0,0,0,0,0,0,0,0
1680789764.92009497,498548834,1000,1000,1000,1000,0,0,0,0,0,0,0,0,0,0
1680789765.02005482,498648794,1000,1000,1000,1000,0,0,0,0,0,0,0,0,0,0
1680789765.12001491,498748754,1000,1000,1000,1000,0,0,0,0,0,0,0,0,0,0
1680789765.21997499,498848714,1000,1000,1000,1000,0,0,0,0,0,0,0,0,0,0
1680789765.31993484,498948674,1000,1000,1000,1000,0,0,0,0,0,0,0,0,0,0
1680789765.41989493,499048634,1000,1000,1000,1000,0,0,0,0,0,0,0,0,0,0
1680789765.51985478,499148594,1000,1000,1000,1000,0,0,0,0,0,0,0,0,0,0
1680789765.61981487,499248554,1000,1000,1000,1000,0,0,0,0,0,0,0,0,0,0
1680789765.71977496,499348514,1000,1000,1000,1000,0,0,0,0,0,0,0,0,0,0
1680789765.81973481,499448474,1000,1000,1000,1000,0,0,0,0,0,0,0,0,0,0
1680789765.91969490,499548434,1000,1000,1000,1000,0,0,0,0,0,0,0,0,0,0
1680789766.01965499,499648394,1000,1000,1000,1000,0,0,0,0,0,0,0,0,0,0
1680789766.11961484,499748354,1000,1000,1000,1000,0,0,0,0,0,0,0,0,0,0
1680789766.21957493,499848314,1000,1000,1000,1000,0,0,0,0,0,0,0,0,0,0
1680789766.31953478,499948274,1000,1000,1000,1000,0,0,0,0,0,0,0,0,0,0
1680789766.41949487,500048234,1000,1000,1000,1000,0,0,0,0,0,0,0,0,0,0
1680789766.51945496,500148194,1000,1000,1000,1000,0,0,0,0,0,0,0,0,0,0
1680789766.61941481,500248154,1000,1000,1000,1000,0,0,0,0,0,0,0,0,0,0
1680789766.72020793,500348947,1000,1000,1000,1000,0,0,0,0,0,0,0,0,0,0
1680789766.82016778,500448907,1000,1000,1000,1000,0,0,0,0,0,0,0,0,0,0
1680789766.92012787,500548867,1000,1000,1000,1000,0,0,0,0,0,0,0,0,0,0
1680789767.02008796,500648827,1000,1000,1000,1000,0,0,0,0,0,0,0,0,0,0
1680789767.12004781,500748787,1000,1000,1000,1000,0,0,0,0,0,0,0,0,0,0
1680789767.22000790,500848747,1000,1000,1000,1000,0,0,0,0,0,0,0,0,0,0
1680789767.31996799,500948707,1000,1000,1000,1000,0,0,0,0,0,0,0,0,0,0
1680789767.41992784,501048667,1000,1000,1000,1000,0,0,0,0,0,0,0,0,0,0
1680789767.51988792,501148627,1000,1000,1000,1000,0,0,0,0,0,0,0,0,0,0
1680789767.61984777,501248587,1000,1000,1000,1000,0,0,0,0,0,0,0,0,0,0
1680789767.71980786,501348547,1000,1000,1000,1000,0,0,0,0,0,0,0,0,0,0
1680789767.81976795,501448507,1000,1000,1000,1000,0,0,0,0,0,0,0,0,0,0
1680789767.91972780,501548467,1000,1000,1000,1000,0,0,0,0,0,0,0,0,0,0
1680789768.01968789,501648427,1000,1000,1000,1000,0,0,0,0,0,0,0,0,0,0
1680789768.11964798,501748387,1000,1000,1000,1000,0,0,0,0,0,0,0,0,0,0
1680789768.21960783,501848347,1000,1000,1000,1000,0,0,0,0,0,0,0,0,0,0
1680789768.31956792,501948307,1000,1000,1000,1000,0,0,0,0,0,0,0,0,0,0
1680789768.41952777,502048267,1000,1000,1000,1000,0,0,0,0,0,0,0,0,0,0
1680789768.51948786,502148227,1000,1000,1000,1000,0,0,0,0,0,0,0,0,0,0
1680789768.61944795,502248187,1000,1000,1000,1000,0,0,0,0,0,0,0,0,0,0
1680789768.72024083,502348980,1000,1000,1000,1000,0,0,0,0,0,0,0,0,0,0
1680789768.82020092,502448940,1000,1000,1000,1000,0,0,0,0,0,0,0,0,0,0
1680789768.92016077,502548900,1000,1000,1000,1000,0,0,0,0,0,0,0,0,0,0
1680789769.02012086,502648860,1000,1000,1000,1000,0,0,0,0,0,0,0,0,0,0
1680789769.12008095,502748820,1000,1000,1000,1000,0,0,0,0,0,0,0,0,0,0
1680789769.22004080,502848780,1000,1000,1000,1000,0,0,0,0,0,0,0,0,0,0
1680789769.32000089,502948740,1000,1000,1000,1000,0,0,0,0,0,0,0,0,0,0
1680789769.41996098,503048700,1000,1000,1000,1000,0,0,0,0,0,0,0,0,0,0
1680789769.51992083,503148660,1000,1000,1000,1000,0,0,0,0,0,0,0,0,0,0
1680789769.61988091,503248620,1000,1000,1000,1000,0,0,0,0,0,0,0,0,0,0
1680789769.71984076,503348580,1000,1000,1000,1000,0,0,0,0,0,0,0,0,0,0
1680789769.81980085,503448540,1000,1000,1000,1000,0,0,0,0,0,0,0,0,0,0
1680789769.91976094,503548500,1000,1000,1000,1000,0,0,0,0,0,0,0,0,0,0
1680789770.01972079,503648460,1000,1000,1000,1000,0,0,0,0,0,0,0,0,0,0
1680789770.11968088,503748420,1000,1000,1000,1000,0,0,0,0,0,0,0,0,0,0
1680789770.21964097,503848380,1000,1000,1000,1000,0,0,0,0,0,0,0,0,0,0
1680789770.31960082,503948340,1000,1000,1000,1000,0,0,0,0,0,0,0,0,0,0
1680789770.41956091,504048300,1000,1000,1000,1000,0,0,0,0,0,0,0,0,0,0
1680789770.51952100,504148260,1000,1000,1000,1000,0,0,0,0,0,0,0,0,0,0
1680789770.61948085,504248220,1000,1000,1000,1000,0,0,0,0,0,0,0,0,0,0
1680789770.71944094,504348180,1000,1000,1000,1000,0,0,0,0,0,0,0,0,0,0
1680789770.82023382,504448973,1000,1000,1000,1000,0,0,0,0,0,0,0,0,0,0
1680789770.92019391,504548933,1000,1000,1000,1000,0,0,0,0,0,0,0,0,0,0
1680789771.02015400,504648893,1000,1000,1000,1000,0,0,0,0,0,0,0,0,0,0
1680789771.12011385,504748853,1000,1000,1000,1000,0,0,0,0,0,0,0,0,0,0
1680789771.22007394,504848813,1000,1000,1000,1000,0,0,0,0,0,0,0,0,0,0
1680789771.32003379,504948773,1000,1000,1000,1000,0,0,0,0,0,0,0,0,0,0
1680789771.41999388,505048733,1000,1000,1000,1000,0,0,0,0,0,0,0,0,0,0
1680789771.51995397,505148693,1000,1000,1000,1000,0,0,0,0,0,0,0,0,0,0
1680789771.61991382,505248653,1000,1000,1000,1000,0,0,0,0,0,0,0,0,0,0
1680789771.71987391,505348613,1000,1000,1000,1000,0,0,0,0,0,0,0,0,0,0
1680789771.81983399,505448573,1000,1000,1000,1000,0,0,0,0,0,0,0,0,0,0
1680789771.91979384,505548533,1000,1000,1000,1000,0,0,0,0,0,0,0,0,0,0
1680789772.01975393,505648493,1000,1000,1000,1000,0,0,0,0,0,0,0,0,0,0
1680789772.11971378,505748453,1000,1000,1000,1000,0,0,0,0,0,0,0,0,0,0
1680789772.21967387,505848413,1000,1000,1000,1000,0,0,0,0,0,0,0,0,0,0
1680789772.31963396,505948373,1000,1000,1000,1000,0,0,0,0,0,0,0,0,0,0
1680789772.41959381,506048333,1000,1000,1000,1000,0,0,0,0,0,0,0,0,0,0
1680789772.51955390,506148293,1000,1000,1000,1000,0,0,0,0,0,0,0,0,0,0
1680789772.61951399,506248253,1000,1000,1000,1000,0,0,0,0,0,0,0,0,0,0
1680789772.71947384,506348213,1000,1000,1000,1000,0,0,0,0,0,0,0,0,0,0
1680789772.81943393,506448173,1000,1000,1000,1000,0,0,0,0,0,0,0,0,0,0
1680789772.92022681,506548966,1000,1000,1000,1000,0,0,0,0,0,0,0,0,0,0
1680789773.02018690,506648926,1000,1000,1000,1000,0,0,0,0,0,0,0,0,0,0
1680789773.12014699,506748886,1000,1000,1000,1000,0,0,0,0,0,0,0,0,0,0
1680789773.22010684,506848846,1000,1000,1000,1000,0,0,0,0,0,0,0,0,0,0
1680789773.32006693,506948806,1000,1000,1000,1000,0,0,0,0,0,0,0,0,0,0
1680789773.42002678,507048766,1000,1000,1000,1000,0,0,0,0,0,0,0,0,0,0
1680789773.51998687,507148726,1000,1000,1000,1000,0,0,0,0,0,0,0,0,0,0
1680789773.61994696,507248686,1000,1000,1000,1000,0,0,0,0,0,0,0,0,0,0
1680789773.71990681,507348646,1000,1000,1000,1000,0,0,0,0,0,0,0,0,0,0
1680789773.81986690,507448606,1000,1000,1000,1000,0,0,0,0,0,0,0,0,0,0
1680789773.91982698,507548566,1000,1000,1000,1000,0,0,0,0,0,0,0,0,0,0
1680789774.01978683,507648526,1000,1000,1000,1000,0,0,0,0,0,0,0,0,0,0
1680789774.11974692,507748486,1000,1000,1000,1000,0,0,0,0,0,0,0,0,0,0
1680789774.21970677,507848446,1000,1000,1000,1000,0,0,0,0,0,0,0,0,0,0
1680789774.31966686,507948406,1000,1000,1000,1000,0,0,0,0,0,0,0,0,0,0
1680789774.41962695,508048366,1000,1000,1000,1000,0,0,0,0,0,0,0,0,0,0
1680789774.51958680,508148326,1000,1000,1000,1000,0,0,0,0,0,0,0,0,0,0
1680789774.61954689,508248286,1000,1000,1000,1000,0,0,0,0,0,0,0,0,0,0
1680789774.71950698,508348246,1000,1000,1000,1000,0,0,0,0,0,0,0,0,0,0
1680789774.81946683,508448206,1000,1000,1000,1000,0,0,0,0,0,0,0,0,0,0
1680789774.91942692,508548166,1000,1000,1000,1000,0,0,0,0,0,0,0,0,0,0
1680789775.02021980,508648959,1000,1000,1000,1000,0,0,0,0,0,0,0,0,0,0
1680789775.12017989,508748919,1000,1000,1000,1000,0,0,0,0,0,0,0,0,0,0
1680789775.22013998,508848879,1000,1000,1000,1000,0,0,0,0,0,0,0,0,0,0
1680789775.32009983,508948839,1000,1000,1000,1000,0,0,0,0,0,0,0,0,0,0
1680789775.42005992,509048799,1000,1000,1000,1000,0,0,0,0,0,0,0,0,0,0
