TimeUS,M1,M2,M3,M4,TimeUS,C1,C2,C3,C4
38153899,1000,1000,1000,1000,38228869,1000,1000,1000,1000
38156398,1000,1000,1000,1000,38328829,1000,1000,1000,1000
38158897,1000,1000,1000,1000,38428789,1000,1000,1000,1000
38161396,1000,1000,1000,1000,38528749,1000,1000,1000,1000
38163895,1000,1000,1000,1000,38628709,1000,1000,1000,1000
38166394,1000,1000,1000,1000,38728669,1000,1000,1000,1000
38168893,1000,1000,1000,1000,38828629,1000,1000,1000,1000
38171392,1000,1000,1000,1000,38928589,1000,1000,1000,1000
38173891,1000,1000,1000,1000,39028549,1000,1000,1000,1000
38176390,1000,1000,1000,1000,39128509,1000,1000,1000,1000
38178889,1000,1000,1000,1000,39228469,1000,1000,1000,1000
38181388,1000,1000,1000,1000,39328429,1000,1000,1000,1000
38183887,1000,1000,1000,1000,39428389,1000,1000,1000,1000
38186386,1000,1000,1000,1000,39528349,1000,1000,1000,1000
38188885,1000,1000,1000,1000,39628309,1000,1000,1000,1000
38191384,1000,1000,1000,1000,39728269,1000,1000,1000,1000
38193883,1000,1000,1000,1000,39828229,1000,1000,1000,1000
38196382,1000,1000,1000,1000,39928189,1000,1000,1000,1000
38198881,1000,1000,1000,1000,40028982,1000,1000,1000,1000
38201380,1000,1000,1000,1000,40128942,1000,1000,1000,1000
38203879,1000,1000,1000,1000,40228902,1000,1000,1000,1000
38206378,1000,1000,1000,1000,40328862,1000,1000,1000,1000
38208877,1000,1000,1000,1000,40428822,1000,1000,1000,1000
38211376,1000,1000,1000,1000,40528782,1000,1000,1000,1000
38213875,1000,1000,1000,1000,40628742,1000,1000,1000,1000
38216374,1000,1000,1000,1000,40728702,1000,1000,1000,1000
38218873,1000,1000,1000,1000,40828662,1000,1000,1000,1000
38221372,1000,1000,1000,1000,40928622,1000,1000,1000,1000
38223871,1000,1000,1000,1000,41028582,1000,1000,1000,1000
38226370,1000,1000,1000,1000,41128542,1000,1000,1000,1000
38228869,1000,1000,1000,1000,41228502,1000,1000,1000,1000
38231368,1000,1000,1000,1000,41328462,1000,1000,1000,1000
38233867,1000,1000,1000,1000,41428422,1000,1000,1000,1000
38236366,1000,1000,1000,1000,41528382,1000,1000,1000,1000
38238865,1000,1000,1000,1000,41628342,1000,1000,1000,1000
38241364,1000,1000,1000,1000,41728302,1000,1000,1000,1000
38243863,1000,1000,1000,1000,41828262,1000,1000,1000,1000
38246362,1000,1000,1000,1000,41928222,1000,1000,1000,1000
38248861,1000,1000,1000,1000,42028182,1000,1000,1000,1000
38251360,1000,1000,1000,1000,42128975,1000,1000,1000,1000
38253859,1000,1000,1000,1000,42228935,1000,1000,1000,1000
38256358,1000,1000,1000,1000,42328895,1000,1000,1000,1000
38258857,1000,1000,1000,1000,42428855,1000,1000,1000,1000
38261356,1000,1000,1000,1000,42528815,1000,1000,1000,1000
38263855,1000,1000,1000,1000,42628775,1000,1000,1000,1000
38266354,1000,1000,1000,1000,42728735,1000,1000,1000,1000
38268853,1000,1000,1000,1000,42828695,1000,1000,1000,1000
38271352,1000,1000,1000,1000,42928655,1000,1000,1000,1000
38273851,1000,1000,1000,1000,43028615,1000,1000,1000,1000
38276350,1000,1000,1000,1000,43128575,1000,1000,1000,1000
38278849,1000,1000,1000,1000,43228535,1000,1000,1000,1000
38281348,1000,1000,1000,1000,43328495,1000,1000,1000,1000
38283847,1000,1000,1000,1000,43428455,1000,1000,1000,1000
38286346,1000,1000,1000,1000,43528415,1000,1000,1000,1000
38288845,1000,1000,1000,1000,43628375,1000,1000,1000,1000
38291344,1000,1000,1000,1000,43728335,1000,1000,1000,1000
38293843,1000,1000,1000,1000,43828295,1000,1000,1000,1000
38296342,1000,1000,1000,1000,43928255,1000,1000,1000,1000
38298841,1000,1000,1000,1000,44028215,1000,1000,1000,1000
38301340,1000,1000,1000,1000,44128175,1000,1000,1000,1000
38303839,1000,1000,1000,1000,44228968,1000,1000,1000,1000
38306338,1000,1000,1000,1000,44328928,1000,1000,1000,1000
38308837,1000,1000,1000,1000,44428888,1000,1000,1000,1000
38311336,1000,1000,1000,1000,44528848,1000,1000,1000,1000
38313835,1000,1000,1000,1000,44628808,1000,1000,1000,1000
38316334,1000,1000,1000,1000,44728768,1000,1000,1000,1000
38318833,1000,1000,1000,1000,44828728,1000,1000,1000,1000
38321332,1000,1000,1000,1000,44928688,1000,1000,1000,1000
38323831,1000,1000,1000,1000,45028648,1000,1000,1000,1000
38326330,1000,1000,1000,1000,45128608,1000,1000,1000,1000
38328829,1000,1000,1000,1000,45228568,1000,1000,1000,1000
38331328,1000,1000,1000,1000,45328528,1000,1000,1000,1000
38333827,1000,1000,1000,1000,45428488,1000,1000,1000,1000
38336326,1000,1000,1000,1000,45528448,1000,1000,1000,1000
38338825,1000,1000,1000,1000,45628408,1000,1000,1000,1000
38341324,1000,1000,1000,1000,45728368,1000,1000,1000,1000
38343823,1000,1000,1000,1000,45828328,1000,1000,1000,1000
38346322,1000,1000,1000,1000,45928288,1000,1000,1000,1000
38348821,1000,1000,1000,1000,46028248,1000,1000,1000,1000
38351320,1000,1000,1000,1000,46128208,1000,1000,1000,1000
38353819,1000,1000,1000,1000,46228168,1000,1000,1000,1000
38356318,1000,1000,1000,1000,46328961,1000,1000,1000,1000
38358817,1000,1000,1000,1000,46428921,1000,1000,1000,1000
38361316,1000,1000,1000,1000,46528881,1000,1000,1000,1000
38363815,1000,1000,1000,1000,46628841,1000,1000,1000,1000
38366314,1000,1000,1000,1000,46728801,1000,1000,1000,1000
38368813,1000,1000,1000,1000,46828761,1000,1000,1000,1000
38371312,1000,1000,1000,1000,46928721,1000,1000,1000,1000
38373811,1000,1000,1000,1000,47028681,1000,1000,1000,1000
38376310,1000,1000,1000,1000,47128641,1000,1000,1000,1000
38378809,1000,1000,1000,1000,47228601,1000,1000,1000,1000
38381308,1000,1000,1000,1000,47328561,1000,1000,1000,1000
38383807,1000,1000,1000,1000,47428521,1000,1000,1000,1000
38386306,1000,1000,1000,1000,47528481,1000,1000,1000,1000
38388805,1000,1000,1000,1000,47628441,1000,1000,1000,1000
38391304,1000,1000,1000,1000,47728401,1000,1000,1000,1000
38393803,1000,1000,1000,1000,47828361,1000,1000,1000,1000
38396302,1000,1000,1000,1000,47928321,1000,1000,1000,1000
38398801,1000,1000,1000,1000,48028281,1000,1000,1000,1000
38401300,1000,1000,1000,1000,48128241,1000,1000,1000,1000
38403799,1000,1000,1000,1000,48228201,1000,1000,1000,1000
38406298,1000,1000,1000,1000,48328161,1000,1000,1000,1000
38408797,1000,1000,1000,1000,48428954,1000,1000,1000,1000
38411296,1000,1000,1000,1000,48528914,1000,1000,1000,1000
38413795,1000,1000,1000,1000,48628874,1000,1000,1000,1000
38416294,1000,1000,1000,1000,48728834,1000,1000,1000,1000
38418793,1000,1000,1000,1000,48828794,1000,1000,1000,1000
38421292,1000,1000,1000,1000,48928754,1000,1000,1000,1000
38423791,1000,1000,1000,1000,49028714,1000,1000,1000,1000
38426290,1000,1000,1000,1000,49128674,1000,1000,1000,1000
38428789,1000,1000,1000,1000,49228634,1000,1000,1000,1000
38431288,1000,1000,1000,1000,49328594,1000,1000,1000,1000
38433787,1000,1000,1000,1000,49428554,1000,1000,1000,1000
38436286,1000,1000,1000,1000,49528514,1000,1000,1000,1000
38438785,1000,1000,1000,1000,49628474,1000,1000,1000,1000
38441284,1000,1000,1000,1000,49728434,1000,1000,1000,1000
38443783,1000,1000,1000,1000,49828394,1000,1000,1000,1000
38446282,1000,1000,1000,1000,49928354,1000,1000,1000,1000
38448781,1000,1000,1000,1000,50028314,1000,1000,1000,1000
38451280,1000,1000,1000,1000,50128274,1000,1000,1000,1000
38453779,1000,1000,1000,1000,50228234,1000,1000,1000,1000
38456278,1000,1000,1000,1000,50328194,1000,1000,1000,1000
38458777,1000,1000,1000,1000,50428154,1000,1000,1000,1000
38461276,1000,1000,1000,1000,50528947,1000,1000,1000,1000
38463775,1000,1000,1000,1000,50628907,1000,1000,1000,1000
38466274,1000,1000,1000,1000,50728867,1000,1000,1000,1000
38468773,1000,1000,1000,1000,50828827,1000,1000,1000,1000
38471272,1000,1000,1000,1000,50928787,1000,1000,1000,1000
38473771,1000,1000,1000,1000,51028747,1000,1000,1000,1000
38476270,1000,1000,1000,1000,51128707,1000,1000,1000,1000
38478769,1000,1000,1000,1000,51228667,1000,1000,1000,1000
38481268,1000,1000,1000,1000,51328627,1000,1000,1000,1000
38483767,1000,1000,1000,1000,51428587,1000,1000,1000,1000
38486266,1000,1000,1000,1000,51528547,1000,1000,1000,1000
38488765,1000,1000,1000,1000,51628507,1000,1000,1000,1000
38491264,1000,1000,1000,1000,51728467,1000,1000,1000,1000
38493763,1000,1000,1000,1000,51828427,1000,1000,1000,1000
38496262,1000,1000,1000,1000,51928387,1000,1000,1000,1000
38498761,1000,1000,1000,1000,52028347,1000,1000,1000,1000
38501260,1000,1000,1000,1000,52128307,1000,1000,1000,1000
38503759,1000,1000,1000,1000,52228267,1000,1000,1000,1000
38506258,1000,1000,1000,1000,52328227,1000,1000,1000,1000
38508757,1000,1000,1000,1000,52428187,1000,1000,1000,1000
38511256,1000,1000,1000,1000,52528980,1000,1000,1000,1000
38513755,1000,1000,1000,1000,52628940,1000,1000,1000,1000
38516254,1000,1000,1000,1000,52728900,1000,1000,1000,1000
38518753,1000,1000,1000,1000,52828860,1000,1000,1000,1000
38521252,1000,1000,1000,1000,52928820,1000,1000,1000,1000
38523751,1000,1000,1000,1000,53028780,1000,1000,1000,1000
38526250,1000,1000,1000,1000,53128740,1000,1000,1000,1000
38528749,1000,1000,1000,1000,53228700,1000,1000,1000,1000
38531248,1000,1000,1000,1000,53328660,1000,1000,1000,1000
38533747,1000,1000,1000,1000,53428620,1000,1000,1000,1000
38536246,1000,1000,1000,1000,53528580,1000,1000,1000,1000
38538745,1000,1000,1000,1000,53628540,1000,1000,1000,1000
38541244,1000,1000,1000,1000,53728500,1000,1000,1000,1000
38543743,1000,1000,1000,1000,53828460,1000,1000,1000,1000
38546242,1000,1000,1000,1000,53928420,1000,1000,1000,1000
38548741,1000,1000,1000,1000,54028380,1009,1009,1009,1009
38551240,1000,1000,1000,1000,54128340,1039,1039,1039,1039
38553739,1000,1000,1000,1000,54228300,1069,1069,1069,1069
38556238,1000,1000,1000,1000,54328260,1099,1099,1099,1099
38558737,1000,1000,1000,1000,54428220,1128,1128,1128,1128
38561236,1000,1000,1000,1000,54528180,1236,1228,1229,1236
38563735,1000,1000,1000,1000,54628973,1458,1453,1453,1459
38566234,1000,1000,1000,1000,54728933,1626,1621,1621,1626
38568733,1000,1000,1000,1000,54828893,1767,1762,1762,1766
38571232,1000,1000,1000,1000,54928853,1890,1885,1885,1890
38573731,1000,1000,1000,1000,55028813,1875,1872,1871,1876
38576230,1000,1000,1000,1000,55128773,1761,1759,1758,1763
38578729,1000,1000,1000,1000,55228733,1653,1654,1652,1655
38581228,1000,1000,1000,1000,55328693,1614,1616,1615,1615
38583727,1000,1000,1000,1000,55428653,1617,1619,1619,1618
38586226,1000,1000,1000,1000,55528613,1627,1629,1629,1627
38588725,1000,1000,1000,1000,55628573,1630,1630,1631,1629
38591224,1000,1000,1000,1000,55728533,1625,1624,1625,1624
38593723,1000,1000,1000,1000,55828493,1621,1620,1620,1621
38596222,1000,1000,1000,1000,55928453,1618,1617,1617,1618
38598721,1000,1000,1000,1000,56028413,1619,1618,1618,1619
38601220,1000,1000,1000,1000,56128373,1619,1619,1619,1619
38603719,1000,1000,1000,1000,56228333,1622,1622,1622,1621
38606218,1000,1000,1000,1000,56328293,1600,1601,1605,1596
38608717,1000,1000,1000,1000,56428253,1582,1584,1590,1575
38611216,1000,1000,1000,1000,56528213,1571,1571,1575,1567
38613715,1000,1000,1000,1000,56628173,1561,1561,1560,1562
38616214,1000,1000,1000,1000,56728966,1552,1551,1546,1557
38618713,1000,1000,1000,1000,56828926,1545,1544,1536,1554
38621212,1000,1000,1000,1000,56928886,1539,1538,1531,1546
38623711,1000,1000,1000,1000,57028846,1533,1532,1528,1536
38626210,1000,1000,1000,1000,57128806,1529,1529,1528,1529
38628709,1000,1000,1000,1000,57228766,1528,1528,1530,1527
38631208,1000,1000,1000,1000,57328726,1530,1530,1533,1527
38633707,1000,1000,1000,1000,57428686,1532,1532,1536,1529
38636206,1000,1000,1000,1000,57528646,1535,1535,1538,1533
38638705,1000,1000,1000,1000,57628606,1539,1539,1541,1537
38641204,1000,1000,1000,1000,57728566,1542,1543,1543,1542
38643703,1000,1000,1000,1000,57828526,1546,1546,1546,1546
38646202,1000,1000,1000,1000,57928486,1549,1548,1548,1549
38648701,1000,1000,1000,1000,58028446,1551,1551,1550,1551
38651200,1000,1000,1000,1000,58128406,1554,1553,1553,1555
38653699,1000,1000,1000,1000,58228366,1554,1552,1556,1558
38656198,1000,1000,1000,1000,58328326,1552,1552,1562,1563
38658697,1000,1000,1000,1000,58428286,1556,1557,1565,1566
38661196,1000,1000,1000,1000,58528246,1559,1560,1566,1566
38663695,1000,1000,1000,1000,58628206,1562,1562,1565,1565
38666194,1000,1000,1000,1000,58728166,1565,1565,1565,1565
38668693,1000,1000,1000,1000,58828959,1568,1568,1565,1565
38671192,1000,1000,1000,1000,58928919,1570,1570,1565,1565
38673691,1000,1000,1000,1000,59028879,1571,1571,1564,1564
38676190,1000,1000,1000,1000,59128839,1573,1572,1566,1566
38678689,1000,1000,1000,1000,59228799,1573,1572,1566,1567
38681188,1000,1000,1000,1000,59328759,1574,1573,1568,1569
38683687,1000,1000,1000,1000,59428719,1574,1574,1570,1571
38686186,1000,1000,1000,1000,59528679,1574,1574,1572,1572
38688685,1000,1000,1000,1000,59628639,1574,1575,1574,1573
38691184,1000,1000,1000,1000,59728599,1574,1574,1576,1574
38693683,1000,1000,1000,1000,59828559,1574,1575,1577,1576
38696182,1000,1000,1000,1000,59928519,1575,1575,1578,1577
38698681,1000,1000,1000,1000,60028479,1576,1575,1578,1578
38701180,1000,1000,1000,1000,60128439,1575,1574,1577,1577
38703679,1000,1000,1000,1000,60228399,1575,1575,1577,1577
38706178,1000,1000,1000,1000,60328359,1575,1575,1576,1577
38708677,1000,1000,1000,1000,60428319,1576,1577,1577,1577
38711176,1000,1000,1000,1000,60528279,1577,1576,1577,1577
38713675,1000,1000,1000,1000,60628239,1577,1577,1577,1576
38716174,1000,1000,1000,1000,60728199,1577,1577,1576,1577
38718673,1000,1000,1000,1000,60828159,1577,1578,1577,1577
38721172,1000,1000,1000,1000,60928952,1577,1577,1576,1576
38723671,1000,1000,1000,1000,61028912,1578,1578,1577,1577
38726170,1000,1000,1000,1000,61128872,1578,1578,1577,1577
38728669,1000,1000,1000,1000,61228832,1578,1578,1578,1577
38731168,1000,1000,1000,1000,61328792,1578,1579,1578,1578
38733667,1000,1000,1000,1000,61428752,1579,1578,1578,1578
38736166,1000,1000,1000,1000,61528712,1578,1579,1578,1579
38738665,1000,1000,1000,1000,61628672,1579,1579,1579,1579
38741164,1000,1000,1000,1000,61728632,1579,1579,1579,1579
38743663,1000,1000,1000,1000,61828592,1578,1579,1579,1579
38746162,1000,1000,1000,1000,61928552,1578,1578,1579,1579
38748661,1000,1000,1000,1000,62028512,1579,1579,1579,1579
38751160,1000,1000,1000,1000,62128472,1579,1578,1579,1579
38753659,1000,1000,1000,1000,62228432,1579,1578,1579,1579
38756158,1000,1000,1000,1000,62328392,1579,1579,1579,1580
38758657,1000,1000,1000,1000,62428352,1579,1580,1580,1580
38761156,1000,1000,1000,1000,62528312,1579,1580,1579,1580
38763655,1000,1000,1000,1000,62628272,1580,1580,1580,1580
38766154,1000,1000,1000,1000,62728232,1580,1580,1580,1580
38768653,1000,1000,1000,1000,62828192,1580,1580,1580,1580
38771152,1000,1000,1000,1000,62928985,1580,1580,1580,1580
38773651,1000,1000,1000,1000,63028945,1580,1580,1580,1580
38776150,1000,1000,1000,1000,63128905,1580,1580,1580,1580
38778649,1000,1000,1000,1000,63228865,1581,1580,1580,1581
38781148,1000,1000,1000,1000,63328825,1580,1580,1580,1580
38783647,1000,1000,1000,1000,63428785,1579,1580,1580,1580
38786146,1000,1000,1000,1000,63528745,1580,1580,1580,1580
38788645,1000,1000,1000,1000,63628705,1581,1581,1581,1581
38791144,1000,1000,1000,1000,63728665,1580,1580,1581,1581
38793643,1000,1000,1000,1000,63828625,1581,1581,1581,1581
38796142,1000,1000,1000,1000,63928585,1580,1580,1580,1581
38798641,1000,1000,1000,1000,64028545,1580,1580,1580,1580
38801140,1000,1000,1000,1000,64128505,1581,1581,1581,1581
38803639,1000,1000,1000,1000,64228465,1581,1581,1581,1581
38806138,1000,1000,1000,1000,64328425,1580,1580,1580,1580
38808637,1000,1000,1000,1000,64428385,1581,1581,1585,1577
38811136,1000,1000,1000,1000,64528345,1580,1582,1587,1573
38813635,1000,1000,1000,1000,64628305,1579,1581,1581,1573
38816134,1000,1000,1000,1000,64728265,1577,1581,1572,1573
38818633,1000,1000,1000,1000,64828225,1576,1579,1564,1570
38821132,1000,1000,1000,1000,64928185,1577,1579,1559,1566
38823631,1000,1000,1000,1000,65028978,1578,1579,1556,1562
38826130,1000,1000,1000,1000,65128938,1579,1577,1555,1557
38828629,1000,1000,1000,1000,65228898,1580,1578,1556,1555
38831128,1000,1000,1000,1000,65328858,1579,1577,1555,1554
38833627,1000,1000,1000,1000,65428818,1578,1578,1557,1554
38836126,1000,1000,1000,1000,65528778,1577,1578,1557,1555
38838625,1000,1000,1000,1000,65628738,1576,1578,1556,1554
38841124,1000,1000,1000,1000,65728698,1575,1577,1555,1554
38843623,1000,1000,1000,1000,65828658,1576,1578,1554,1554
38846122,1000,1000,1000,1000,65928618,1576,1578,1551,1552
38848621,1000,1000,1000,1000,66028578,1578,1579,1549,1550
38851120,1000,1000,1000,1000,66128538,1580,1580,1547,1546
38853619,1000,1000,1000,1000,66228498,1582,1583,1544,1544
38856118,1000,1000,1000,1000,66328458,1585,1586,1541,1541
38858617,1000,1000,1000,1000,66428418,1588,1589,1539,1538
38861116,1000,1000,1000,1000,66528378,1592,1592,1537,1536
38863615,1000,1000,1000,1000,66628338,1594,1594,1536,1535
38866114,1000,1000,1000,1000,66728298,1596,1594,1535,1536
38868613,1000,1000,1000,1000,66828258,1596,1596,1537,1538
38871112,1000,1000,1000,1000,66928218,1594,1593,1538,1540
38873611,1000,1000,1000,1000,67028178,1591,1591,1542,1545
38876110,1000,1000,1000,1000,67128971,1586,1584,1548,1551
38878609,1000,1000,1000,1000,67228931,1579,1577,1558,1560
38881108,1000,1000,1000,1000,67328891,1570,1566,1568,1570
38883607,1000,1000,1000,1000,67428851,1559,1555,1579,1581
38886106,1000,1000,1000,1000,67528811,1549,1545,1592,1592
38888605,1000,1000,1000,1000,67628771,1539,1538,1603,1602
38891104,1000,1000,1000,1000,67728731,1532,1532,1610,1609
38893603,1000,1000,1000,1000,67828691,1530,1531,1615,1614
38896102,1000,1000,1000,1000,67928651,1529,1532,1615,1614
38898601,1000,1000,1000,1000,68028611,1534,1536,1612,1612
38901100,1000,1000,1000,1000,68128571,1540,1542,1607,1607
38903599,1000,1000,1000,1000,68228531,1548,1550,1600,1600
38906098,1000,1000,1000,1000,68328491,1556,1557,1592,1592
38908597,1000,1000,1000,1000,68428451,1565,1565,1585,1584
38911096,1000,1000,1000,1000,68528411,1574,1573,1579,1578
38913595,1000,1000,1000,1000,68628371,1580,1579,1574,1572
38916094,1000,1000,1000,1000,68728331,1585,1583,1569,1568
38918593,1000,1000,1000,1000,68828291,1587,1586,1568,1567
38921092,1000,1000,1000,1000,68928251,1587,1586,1566,1566
38923591,1000,1000,1000,1000,69028211,1587,1586,1567,1567
38926090,1000,1000,1000,1000,69128171,1585,1584,1568,1569
38928589,1000,1000,1000,1000,69228964,1582,1581,1571,1571
38931088,1000,1000,1000,1000,69328924,1579,1580,1575,1575
38933587,1000,1000,1000,1000,69428884,1577,1578,1578,1578
38936086,1000,1000,1000,1000,69528844,1576,1576,1581,1581
38938585,1000,1000,1000,1000,69628804,1573,1574,1582,1582
38941084,1000,1000,1000,1000,69728764,1572,1573,1583,1583
38943583,1000,1000,1000,1000,69828724,1572,1573,1584,1584
38946082,1000,1000,1000,1000,69928684,1576,1576,1552,1573
38948581,1000,1000,1000,1000,70028644,1582,1582,1572,1570
38951080,1000,1000,1000,1000,70128604,1586,1585,1586,1573
38953579,1000,1000,1000,1000,70228564,1588,1587,1594,1578
38956078,1000,1000,1000,1000,70328524,1588,1588,1597,1584
38958577,1000,1000,1000,1000,70428484,1586,1587,1595,1590
38961076,1000,1000,1000,1000,70528444,1582,1583,1591,1592
38963575,1000,1000,1000,1000,70628404,1579,1580,1586,1592
38966074,1000,1000,1000,1000,70728364,1577,1576,1583,1590
38968573,1000,1000,1000,1000,70828324,1575,1575,1581,1586
38971072,1000,1000,1000,1000,70928284,1576,1576,1581,1584
38973571,1000,1000,1000,1000,71028244,1576,1576,1580,1581
38976070,1000,1000,1000,1000,71128204,1578,1578,1580,1580
38978569,1000,1000,1000,1000,71228164,1578,1578,1578,1577
38981068,1000,1000,1000,1000,71328957,1580,1580,1579,1577
38983567,1000,1000,1000,1000,71428917,1581,1581,1578,1577
38986066,1000,1000,1000,1000,71528877,1581,1581,1577,1577
38988565,1000,1000,1000,1000,71628837,1581,1581,1576,1577
38991064,1000,1000,1000,1000,71728797,1580,1580,1576,1577
38993563,1000,1000,1000,1000,71828757,1581,1581,1577,1578
38996062,1000,1000,1000,1000,71928717,1580,1580,1577,1578
38998561,1000,1000,1000,1000,72028677,1579,1579,1577,1578
39001060,1000,1000,1000,1000,72128637,1579,1579,1579,1578
39003559,1000,1000,1000,1000,72228597,1578,1578,1578,1578
39006058,1000,1000,1000,1000,72328557,1578,1579,1580,1580
39008557,1000,1000,1000,1000,72428517,1578,1579,1582,1578
39011056,1000,1000,1000,1000,72528477,1577,1581,1586,1571
39013555,1000,1000,1000,1000,72628437,1578,1582,1581,1571
39016054,1000,1000,1000,1000,72728397,1577,1580,1572,1570
39018553,1000,1000,1000,1000,72828357,1576,1578,1562,1567
39021052,1000,1000,1000,1000,72928317,1576,1577,1555,1563
39023551,1000,1000,1000,1000,73028277,1578,1577,1552,1558
39026050,1000,1000,1000,1000,73128237,1581,1579,1551,1554
39028549,1000,1000,1000,1000,73228197,1580,1578,1551,1551
39031048,1000,1000,1000,1000,73328157,1581,1580,1552,1551
39033547,1000,1000,1000,1000,73428950,1580,1580,1554,1551
39036046,1000,1000,1000,1000,73528910,1580,1580,1554,1552
39038545,1000,1000,1000,1000,73628870,1578,1579,1553,1552
39041044,1000,1000,1000,1000,73728830,1577,1578,1553,1553
39043543,1000,1000,1000,1000,73828790,1577,1579,1552,1553
39046042,1000,1000,1000,1000,73928750,1577,1578,1551,1551
39048541,1000,1000,1000,1000,74028710,1578,1580,1550,1550
39051040,1000,1000,1000,1000,74128670,1580,1581,1548,1549
39053539,1000,1000,1000,1000,74228630,1583,1583,1547,1548
39056038,1000,1000,1000,1000,74328590,1585,1585,1545,1546
39058537,1000,1000,1000,1000,74428550,1586,1587,1543,1543
39061036,1000,1000,1000,1000,74528510,1589,1590,1542,1543
39063535,1000,1000,1000,1000,74628470,1591,1592,1540,1542
39066034,1000,1000,1000,1000,74728430,1591,1591,1540,1541
39068533,1000,1000,1000,1000,74828390,1593,1591,1543,1545
39071032,1000,1000,1000,1000,74928350,1589,1587,1546,1548
39073531,1000,1000,1000,1000,75028310,1585,1582,1553,1555
39076030,1000,1000,1000,1000,75128270,1578,1574,1562,1564
39078529,1000,1000,1000,1000,75228230,1569,1566,1571,1574
39081028,1000,1000,1000,1000,75328190,1560,1557,1583,1584
39083527,1000,1000,1000,1000,75428983,1551,1549,1592,1592
39086026,1000,1000,1000,1000,75528943,1544,1543,1601,1600
39088525,1000,1000,1000,1000,75628903,1540,1540,1607,1606
39091024,1000,1000,1000,1000,75728863,1538,1539,1609,1608
39093523,1000,1000,1000,1000,75828823,1540,1542,1609,1608
39096022,1000,1000,1000,1000,75928783,1544,1546,1607,1606
39098521,1000,1000,1000,1000,76028743,1550,1552,1604,1602
39101020,1000,1000,1000,1000,76128703,1556,1558,1598,1598
39103519,1000,1000,1000,1000,76228663,1563,1564,1592,1591
39106018,1000,1000,1000,1000,76328623,1569,1569,1584,1585
39108517,1000,1000,1000,1000,76428583,1575,1574,1578,1579
39111016,1000,1000,1000,1000,76528543,1580,1579,1574,1575
39113515,1000,1000,1000,1000,76628503,1583,1582,1570,1571
39116014,1000,1000,1000,1000,76728463,1584,1583,1568,1568
39118513,1000,1000,1000,1000,76828423,1585,1584,1569,1569
39121012,1000,1000,1000,1000,76928383,1585,1584,1570,1569
39123511,1000,1000,1000,1000,77028343,1582,1582,1571,1571
39126010,1000,1000,1000,1000,77128303,1581,1581,1574,1574
39128509,1000,1000,1000,1000,77228263,1579,1579,1577,1576
39131008,1000,1000,1000,1000,77328223,1578,1577,1579,1579
39133507,1000,1000,1000,1000,77428183,1576,1576,1581,1581
39136006,1000,1000,1000,1000,77528976,1575,1575,1582,1583
39138505,1000,1000,1000,1000,77628936,1572,1573,1582,1582
39141004,1000,1000,1000,1000,77728896,1573,1573,1583,1583
39143503,1000,1000,1000,1000,77828856,1572,1574,1582,1583
39146002,1000,1000,1000,1000,77928816,1574,1575,1582,1582
39148501,1000,1000,1000,1000,78028776,1575,1576,1582,1581
39151000,1000,1000,1000,1000,78128736,1577,1578,1581,1581
39153499,1000,1000,1000,1000,78228696,1579,1579,1580,1580
39155998,1000,1000,1000,1000,78328656,1580,1579,1579,1580
39158497,1000,1000,1000,1000,78428616,1580,1580,1579,1578
39160996,1000,1000,1000,1000,78528576,1581,1580,1578,1577
39163495,1000,1000,1000,1000,78628536,1582,1581,1578,1578
39165994,1000,1000,1000,1000,78728496,1582,1582,1579,1579
39168493,1000,1000,1000,1000,78828456,1582,1582,1579,1579
39170992,1000,1000,1000,1000,78928416,1581,1581,1579,1579
39173491,1000,1000,1000,1000,79028376,1580,1579,1578,1578
39175990,1000,1000,1000,1000,79128336,1580,1580,1579,1579
39178489,1000,1000,1000,1000,79228296,1579,1579,1580,1579
39180988,1000,1000,1000,1000,79328256,1579,1580,1580,1580
39183487,1000,1000,1000,1000,79428216,1579,1580,1581,1581
39185986,1000,1000,1000,1000,79528176,1579,1579,1580,1581
39188485,1000,1000,1000,1000,79628969,1579,1578,1580,1580
39190984,1000,1000,1000,1000,79728929,1579,1579,1580,1580
39193483,1000,1000,1000,1000,79828889,1579,1579,1580,1581
39195982,1000,1000,1000,1000,79928849,1581,1581,1582,1582
39198481,1000,1000,1000,1000,80028809,1581,1581,1581,1581
39200980,1000,1000,1000,1000,80128769,1581,1581,1582,1581
39203479,1000,1000,1000,1000,80228729,1581,1582,1581,1581
39205978,1000,1000,1000,1000,80328689,1582,1582,1582,1582
39208477,1000,1000,1000,1000,80428649,1581,1581,1580,1581
39210976,1000,1000,1000,1000,80528609,1582,1582,1581,1581
39213475,1000,1000,1000,1000,80628569,1581,1583,1587,1574
39215974,1000,1000,1000,1000,80728529,1581,1584,1586,1573
39218473,1000,1000,1000,1000,80828489,1579,1582,1577,1573
39220972,1000,1000,1000,1000,80928449,1577,1580,1569,1571
39223471,1000,1000,1000,1000,81028409,1577,1579,1561,1568
39225970,1000,1000,1000,1000,81128369,1578,1579,1557,1564
39228469,1000,1000,1000,1000,81228329,1578,1578,1554,1558
39230968,1000,1000,1000,1000,81328289,1578,1577,1553,1555
39233467,1000,1000,1000,1000,81428249,1579,1578,1554,1553
39235966,1000,1000,1000,1000,81528209,1578,1577,1555,1552
39238465,1000,1000,1000,1000,81628169,1577,1577,1555,1552
39240964,1000,1000,1000,1000,81728962,1577,1577,1555,1553
39243463,1000,1000,1000,1000,81828922,1575,1577,1554,1554
39245962,1000,1000,1000,1000,81928882,1575,1577,1554,1553
39248461,1000,1000,1000,1000,82028842,1575,1576,1552,1551
39250960,1000,1000,1000,1000,82128802,1577,1578,1551,1552
39253459,1000,1000,1000,1000,82228762,1578,1579,1549,1549
39255958,1000,1000,1000,1000,82328722,1580,1581,1547,1547
39258457,1000,1000,1000,1000,82428682,1583,1584,1545,1545
39260956,1000,1000,1000,1000,82528642,1586,1587,1543,1543
39263455,1000,1000,1000,1000,82628602,1588,1589,1540,1539
39265954,1000,1000,1000,1000,82728562,1591,1591,1539,1538
39268453,1000,1000,1000,1000,82828522,1592,1592,1537,1537
39270952,1000,1000,1000,1000,82928482,1594,1594,1537,1539
39273451,1000,1000,1000,1000,83028442,1594,1595,1538,1540
39275950,1000,1000,1000,1000,83128402,1593,1593,1541,1544
39278449,1000,1000,1000,1000,83228362,1590,1588,1546,1548
39280948,1000,1000,1000,1000,83328322,1584,1581,1554,1556
39283447,1000,1000,1000,1000,83428282,1576,1573,1563,1566
39285946,1000,1000,1000,1000,83528242,1567,1563,1575,1577
39288445,1000,1000,1000,1000,83628202,1556,1553,1587,1588
39290944,1000,1000,1000,1000,83728162,1546,1543,1597,1597
39293443,1000,1000,1000,1000,83828955,1538,1538,1606,1605
39295942,1000,1000,1000,1000,83928915,1534,1534,1612,1611
39298441,1000,1000,1000,1000,84028875,1532,1534,1614,1613
39300940,1000,1000,1000,1000,84128835,1535,1537,1612,1612
39303439,1000,1000,1000,1000,84228795,1540,1541,1609,1608
39305938,1000,1000,1000,1000,84328755,1547,1548,1603,1603
39308437,1000,1000,1000,1000,84428715,1554,1555,1596,1596
39310936,1000,1000,1000,1000,84528675,1562,1562,1589,1588
39313435,1000,1000,1000,1000,84628635,1570,1570,1582,1582
39315934,1000,1000,1000,1000,84728595,1576,1575,1575,1575
39318433,1000,1000,1000,1000,84828555,1581,1580,1571,1570
39320932,1000,1000,1000,1000,84928515,1585,1584,1568,1568
39323431,1000,1000,1000,1000,85028475,1587,1585,1566,1567
39325930,1000,1000,1000,1000,85128435,1587,1586,1567,1567
39328429,1000,1000,1000,1000,85228395,1585,1584,1567,1568
39330928,1000,1000,1000,1000,85328355,1583,1582,1569,1570
39333427,1000,1000,1000,1000,85428315,1579,1580,1572,1572
39335926,1000,1000,1000,1000,85528275,1577,1578,1575,1575
39338425,1000,1000,1000,1000,85628235,1575,1575,1578,1577
39340924,1000,1000,1000,1000,85728195,1573,1574,1581,1580
39343423,1000,1000,1000,1000,85828155,1572,1573,1582,1582
39345922,1000,1000,1000,1000,85928948,1572,1573,1583,1583
39348421,1000,1000,1000,1000,86028908,1573,1573,1584,1584
39350920,1000,1000,1000,1000,86128868,1573,1574,1583,1583
39353419,1000,1000,1000,1000,86228828,1573,1574,1582,1582
39355918,1000,1000,1000,1000,86328788,1575,1575,1581,1581
39358417,1000,1000,1000,1000,86428748,1577,1577,1581,1580
39360916,1000,1000,1000,1000,86528708,1578,1578,1580,1579
39363415,1000,1000,1000,1000,86628668,1580,1579,1579,1578
39365914,1000,1000,1000,1000,86728628,1581,1581,1578,1578
39368413,1000,1000,1000,1000,86828588,1581,1581,1577,1578
39370912,1000,1000,1000,1000,86928548,1581,1581,1577,1577
39373411,1000,1000,1000,1000,87028508,1582,1581,1578,1578
39375910,1000,1000,1000,1000,87128468,1581,1581,1577,1577
39378409,1000,1000,1000,1000,87228428,1580,1580,1578,1577
39380908,1000,1000,1000,1000,87328388,1580,1580,1579,1579
39383407,1000,1000,1000,1000,87428348,1580,1580,1579,1579
39385906,1000,1000,1000,1000,87528308,1580,1580,1580,1580
39388405,1000,1000,1000,1000,87628268,1579,1580,1581,1581
39390904,1000,1000,1000,1000,87728228,1580,1580,1581,1581
39393403,1000,1000,1000,1000,87828188,1580,1580,1581,1581
39395902,1000,1000,1000,1000,87928981,1579,1580,1581,1581
39398401,1000,1000,1000,1000,88028941,1579,1580,1581,1581
39400900,1000,1000,1000,1000,88128901,1580,1579,1581,1581
39403399,1000,1000,1000,1000,88228861,1581,1580,1581,1581
39405898,1000,1000,1000,1000,88328821,1579,1579,1580,1580
39408397,1000,1000,1000,1000,88428781,1580,1581,1581,1581
39410896,1000,1000,1000,1000,88528741,1580,1581,1581,1578
39413395,1000,1000,1000,1000,88628701,1581,1583,1588,1572
39415894,1000,1000,1000,1000,88728661,1580,1580,1583,1573
39418393,1000,1000,1000,1000,88828621,1576,1576,1575,1574
39420892,1000,1000,1000,1000,88928581,1575,1573,1570,1576
39423391,1000,1000,1000,1000,89028541,1571,1571,1566,1574
39425890,1000,1000,1000,1000,89128501,1568,1568,1564,1571
39428389,1000,1000,1000,1000,89228461,1567,1566,1565,1568
39430888,1000,1000,1000,1000,89328421,1566,1567,1566,1567
39433387,1000,1000,1000,1000,89428381,1566,1566,1567,1565
39435886,1000,1000,1000,1000,89528341,1565,1565,1567,1564
39438385,1000,1000,1000,1000,89628301,1565,1565,1567,1564
39440884,1000,1000,1000,1000,89728261,1564,1564,1566,1565
39443383,1000,1000,1000,1000,89828221,1564,1564,1565,1564
39445882,1000,1000,1000,1000,89928181,1563,1563,1563,1564
39448381,1000,1000,1000,1000,90028974,1563,1563,1563,1564
39450880,1000,1000,1000,1000,90128934,1562,1562,1562,1563
39453379,1000,1000,1000,1000,90228894,1561,1561,1562,1562
39455878,1000,1000,1000,1000,90328854,1561,1561,1561,1561
39458377,1000,1000,1000,1000,90428814,1560,1561,1561,1560
39460876,1000,1000,1000,1000,90528774,1560,1560,1560,1559
39463375,1000,1000,1000,1000,90628734,1559,1559,1559,1559
39465874,1000,1000,1000,1000,90728694,1559,1558,1559,1558
39468373,1000,1000,1000,1000,90828654,1558,1558,1558,1557
39470872,1000,1000,1000,1000,90928614,1559,1558,1558,1557
39473371,1000,1000,1000,1000,91028574,1558,1558,1558,1557
39475870,1000,1000,1000,1000,91128534,1557,1557,1558,1556
39478369,1000,1000,1000,1000,91228494,1558,1558,1559,1556
39480868,1000,1000,1000,1000,91328454,1558,1558,1560,1556
39483367,1000,1000,1000,1000,91428414,1558,1559,1558,1559
39485866,1000,1000,1000,1000,91528374,1561,1560,1558,1563
39488365,1000,1000,1000,1000,91628334,1560,1560,1557,1564
39490864,1000,1000,1000,1000,91728294,1561,1561,1558,1564
39493363,1000,1000,1000,1000,91828254,1562,1562,1560,1564
39495862,1000,1000,1000,1000,91928214,1562,1562,1562,1562
39498361,1000,1000,1000,1000,92028174,1560,1560,1562,1558
39500860,1000,1000,1000,1000,92128967,1560,1560,1561,1558
39503359,1000,1000,1000,1000,92228927,1559,1559,1557,1561
39505858,1000,1000,1000,1000,92328887,1555,1555,1554,1557
39508357,1000,1000,1000,1000,92428847,1551,1551,1550,1552
39510856,1000,1000,1000,1000,92528807,1544,1544,1544,1545
39513355,1000,1000,1000,1000,92628767,1538,1538,1539,1538
39515854,1000,1000,1000,1000,92728727,1531,1531,1532,1531
39518353,1000,1000,1000,1000,92828687,1525,1525,1526,1525
39520852,1000,1000,1000,1000,92928647,1520,1520,1521,1520
39523351,1000,1000,1000,1000,93028607,1519,1520,1519,1520
39525850,1000,1000,1000,1000,93128567,1520,1520,1520,1520
39528349,1000,1000,1000,1000,93228527,1522,1522,1521,1523
39530848,1000,1000,1000,1000,93328487,1526,1526,1525,1526
39533347,1000,1000,1000,1000,93428447,1531,1531,1530,1530
39535846,1000,1000,1000,1000,93528407,1535,1535,1534,1534
39538345,1000,1000,1000,1000,93628367,1539,1539,1538,1538
39540844,1000,1000,1000,1000,93728327,1541,1540,1540,1540
39543343,1000,1000,1000,1000,93828287,1542,1542,1542,1542
39545842,1000,1000,1000,1000,93928247,1543,1543,1543,1543
39548341,1000,1000,1000,1000,94028207,1545,1545,1546,1545
39550840,1000,1000,1000,1000,94128167,1545,1545,1546,1546
39553339,1000,1000,1000,1000,94228960,1546,1547,1547,1547
39555838,1000,1000,1000,1000,94328920,1546,1546,1547,1546
39558337,1000,1000,1000,1000,94428880,1546,1546,1547,1547
39560836,1000,1000,1000,1000,94528840,1547,1546,1547,1547
39563335,1000,1000,1000,1000,94628800,1545,1546,1546,1546
39565834,1000,1000,1000,1000,94728760,1545,1545,1546,1546
39568333,1000,1000,1000,1000,94828720,1546,1545,1546,1546
39570832,1000,1000,1000,1000,94928680,1546,1545,1545,1546
39573331,1000,1000,1000,1000,95028640,1545,1545,1545,1545
39575830,1000,1000,1000,1000,95128600,1545,1545,1545,1544
39578329,1000,1000,1000,1000,95228560,1545,1545,1545,1544
39580828,1000,1000,1000,1000,95328520,1544,1544,1544,1544
39583327,1000,1000,1000,1000,95428480,1544,1544,1543,1544
39585826,1000,1000,1000,1000,95528440,1545,1545,1544,1545
39588325,1000,1000,1000,1000,95628400,1545,1544,1544,1544
39590824,1000,1000,1000,1000,95728360,1544,1544,1544,1544
39593323,1000,1000,1000,1000,95828320,1545,1545,1545,1544
39595822,1000,1000,1000,1000,95928280,1544,1544,1544,1544
39598321,1000,1000,1000,1000,96028240,1544,1544,1544,1544
39600820,1000,1000,1000,1000,96128200,1545,1545,1545,1544
39603319,1000,1000,1000,1000,96228160,1544,1544,1544,1543
39605818,1000,1000,1000,1000,96328953,1545,1545,1545,1545
39608317,1000,1000,1000,1000,96428913,1544,1544,1544,1544
39610816,1000,1000,1000,1000,96528873,1544,1544,1544,1544
39613315,1000,1000,1000,1000,96628833,1544,1544,1544,1545
39615814,1000,1000,1000,1000,96728793,1544,1544,1544,1544
39618313,1000,1000,1000,1000,96828753,1544,1544,1545,1544
39620812,1000,1000,1000,1000,96928713,1545,1544,1545,1545
39623311,1000,1000,1000,1000,97028673,1544,1544,1544,1544
39625810,1000,1000,1000,1000,97128633,1544,1544,1544,1544
39628309,1000,1000,1000,1000,97228593,1544,1544,1544,1544
39630808,1000,1000,1000,1000,97328553,1544,1543,1543,1543
39633307,1000,1000,1000,1000,97428513,1543,1543,1543,1543
39635806,1000,1000,1000,1000,97528473,1545,1544,1544,1545
39638305,1000,1000,1000,1000,97628433,1543,1543,1543,1543
39640804,1000,1000,1000,1000,97728393,1545,1545,1545,1545
39643303,1000,1000,1000,1000,97828353,1544,1544,1544,1544
39645802,1000,1000,1000,1000,97928313,1544,1544,1544,1544
39648301,1000,1000,1000,1000,98028273,1544,1544,1544,1544
39650800,1000,1000,1000,1000,98128233,1544,1544,1544,1544
39653299,1000,1000,1000,1000,98228193,1544,1545,1545,1544
39655798,1000,1000,1000,1000,98328986,1545,1545,1545,1545
39658297,1000,1000,1000,1000,98428946,1544,1544,1544,1545
39660796,1000,1000,1000,1000,98528906,1545,1544,1544,1545
39663295,1000,1000,1000,1000,98628866,1545,1545,1545,1545
39665794,1000,1000,1000,1000,98728826,1544,1544,1544,1544
39668293,1000,1000,1000,1000,98828786,1544,1545,1544,1544
39670792,1000,1000,1000,1000,98928746,1545,1545,1545,1545
39673291,1000,1000,1000,1000,99028706,1544,1544,1545,1545
39675790,1000,1000,1000,1000,99128666,1545,1544,1544,1544
39678289,1000,1000,1000,1000,99228626,1545,1545,1545,1545
39680788,1000,1000,1000,1000,99328586,1545,1544,1544,1545
39683287,1000,1000,1000,1000,99428546,1545,1545,1545,1545
39685786,1000,1000,1000,1000,99528506,1544,1544,1544,1544
39688285,1000,1000,1000,1000,99628466,1544,1545,1544,1544
39690784,1000,1000,1000,1000,99728426,1544,1544,1544,1544
39693283,1000,1000,1000,1000,99828386,1544,1544,1544,1544
39695782,1000,1000,1000,1000,99928346,1544,1543,1543,1544
39698281,1000,1000,1000,1000,100028306,1544,1544,1545,1544
39700780,1000,1000,1000,1000,100128266,1544,1544,1544,1544
39703279,1000,1000,1000,1000,100228226,1544,1545,1545,1544
39705778,1000,1000,1000,1000,100328186,1544,1544,1544,1544
39708277,1000,1000,1000,1000,100428979,1545,1545,1545,1545
39710776,1000,1000,1000,1000,100528939,1545,1545,1544,1545
39713275,1000,1000,1000,1000,100628899,1544,1545,1545,1544
39715774,1000,1000,1000,1000,100728859,1544,1544,1544,1544
39718273,1000,1000,1000,1000,100828819,1544,1544,1544,1544
39720772,1000,1000,1000,1000,100928779,1544,1544,1544,1544
39723271,1000,1000,1000,1000,101028739,1544,1545,1544,1545
39725770,1000,1000,1000,1000,101128699,1545,1544,1545,1545
39728269,1000,1000,1000,1000,101228659,1544,1544,1545,1544
39730768,1000,1000,1000,1000,101328619,1544,1544,1544,1544
39733267,1000,1000,1000,1000,101428579,1545,1545,1545,1545
39735766,1000,1000,1000,1000,101528539,1545,1545,1545,1545
39738265,1000,1000,1000,1000,101628499,1545,1545,1545,1545
39740764,1000,1000,1000,1000,101728459,1545,1545,1545,1545
39743263,1000,1000,1000,1000,101828419,1544,1545,1544,1544
39745762,1000,1000,1000,1000,101928379,1545,1545,1545,1545
39748261,1000,1000,1000,1000,102028339,1544,1544,1544,1544
39750760,1000,1000,1000,1000,102128299,1544,1544,1544,1544
39753259,1000,1000,1000,1000,102228259,1544,1544,1545,1544
39755758,1000,1000,1000,1000,102328219,1545,1544,1545,1545
39758257,1000,1000,1000,1000,102428179,1545,1545,1545,1545
39760756,1000,1000,1000,1000,102528972,1544,1544,1544,1544
39763255,1000,1000,1000,1000,102628932,1459,1459,1465,1458
39765754,1000,1000,1000,1000,102728892,1300,1298,1319,1299
39768253,1000,1000,1000,1000,102828852,1232,1230,1261,1230
39770752,1000,1000,1000,1000,102928812,1210,1208,1242,1209
39773251,1000,1000,1000,1000,103028772,1182,1181,1219,1180
39775750,1000,1000,1000,1000,103128732,1152,1150,1194,1150
39778249,1000,1000,1000,1000,103228692,1152,1151,1195,1150
39780748,1000,1000,1000,1000,103328652,1152,1150,1194,1150
39783247,1000,1000,1000,1000,103428612,1183,1150,1192,1182
39785746,1000,1000,1000,1000,103528572,1173,1150,1193,1172
39788245,1000,1000,1000,1000,103628532,1171,1150,1194,1169
39790744,1000,1000,1000,1000,103728492,1172,1150,1194,1171
39793243,1000,1000,1000,1000,103828452,1174,1150,1194,1172
39795742,1000,1000,1000,1000,103928412,1176,1150,1194,1174
39798241,1000,1000,1000,1000,104028372,1178,1150,1194,1176
39800740,1000,1000,1000,1000,104128332,1172,1150,1194,1170
39803239,1000,1000,1000,1000,104228292,1165,1150,1193,1164
39805738,1000,1000,1000,1000,104328252,1167,1150,1193,1165
39808237,1000,1000,1000,1000,104428212,1168,1150,1193,1166
39810736,1000,1000,1000,1000,104528172,1168,1150,1193,1167
39813235,1000,1000,1000,1000,104628965,1150,1150,1100,1150
39815734,1000,1000,1000,1000,104728925,1000,1000,1000,1000
39818233,1000,1000,1000,1000,104828885,1000,1000,1000,1000
39820732,1000,1000,1000,1000,104928845,1000,1000,1000,1000
39823231,1000,1000,1000,1000,105028805,1000,1000,1000,1000
39825730,1000,1000,1000,1000,105128765,1000,1000,1000,1000
39828229,1000,1000,1000,1000,105228725,1000,1000,1000,1000
39830728,1000,1000,1000,1000,105328685,1000,1000,1000,1000
39833227,1000,1000,1000,1000,105428645,1000,1000,1000,1000
39835726,1000,1000,1000,1000,105528605,1000,1000,1000,1000
39838225,1000,1000,1000,1000,105628565,1000,1000,1000,1000
39840724,1000,1000,1000,1000,105728525,1000,1000,1000,1000
39843223,1000,1000,1000,1000,105828485,1000,1000,1000,1000
39845722,1000,1000,1000,1000,105928445,1000,1000,1000,1000
39848221,1000,1000,1000,1000,106028405,1000,1000,1000,1000
39850720,1000,1000,1000,1000,106128365,1000,1000,1000,1000
39853219,1000,1000,1000,1000,106228325,1000,1000,1000,1000
39855718,1000,1000,1000,1000,106328285,1000,1000,1000,1000
39858217,1000,1000,1000,1000,106428245,1000,1000,1000,1000
39860716,1000,1000,1000,1000,106528205,1000,1000,1000,1000
39863215,1000,1000,1000,1000,106628165,1000,1000,1000,1000
39865714,1000,1000,1000,1000,106728958,1000,1000,1000,1000
39868213,1000,1000,1000,1000,106828918,1000,1000,1000,1000
39870712,1000,1000,1000,1000,106928878,1000,1000,1000,1000
39873211,1000,1000,1000,1000,107028838,1000,1000,1000,1000
39875710,1000,1000,1000,1000,107128798,1000,1000,1000,1000
39878209,1000,1000,1000,1000,107228758,1000,1000,1000,1000
39880708,1000,1000,1000,1000,107328718,1000,1000,1000,1000
39883207,1000,1000,1000,1000,107428678,1000,1000,1000,1000
39885706,1000,1000,1000,1000,107528638,1000,1000,1000,1000
39888205,1000,1000,1000,1000,107628598,1000,1000,1000,1000
39890704,1000,1000,1000,1000,107728558,1000,1000,1000,1000
39893203,1000,1000,1000,1000,107828518,1000,1000,1000,1000
39895702,1000,1000,1000,1000,107928478,1000,1000,1000,1000
39898201,1000,1000,1000,1000,108028438,1000,1000,1000,1000
39900700,1000,1000,1000,1000,108128398,1000,1000,1000,1000
39903199,1000,1000,1000,1000,108228358,1000,1000,1000,1000
39905698,1000,1000,1000,1000,108328318,1000,1000,1000,1000
39908197,1000,1000,1000,1000,108428278,1000,1000,1000,1000
39910696,1000,1000,1000,1000,108528238,1000,1000,1000,1000
39913195,1000,1000,1000,1000,108628198,1000,1000,1000,1000
39915694,1000,1000,1000,1000,108728158,1000,1000,1000,1000
39918193,1000,1000,1000,1000,108828951,1000,1000,1000,1000
39920692,1000,1000,1000,1000,108928911,1000,1000,1000,1000
39923191,1000,1000,1000,1000,109028871,1000,1000,1000,1000
39925690,1000,1000,1000,1000,109128831,1000,1000,1000,1000
39928189,1000,1000,1000,1000,109228791,1000,1000,1000,1000
39930688,1000,1000,1000,1000,109328751,1000,1000,1000,1000
39933187,1000,1000,1000,1000,109428711,1000,1000,1000,1000
39935686,1000,1000,1000,1000,109528671,1000,1000,1000,1000
39938185,1000,1000,1000,1000,109628631,1000,1000,1000,1000
39940684,1000,1000,1000,1000,109728591,1000,1000,1000,1000
39943183,1000,1000,1000,1000,109828551,1000,1000,1000,1000
39945682,1000,1000,1000,1000,109928511,1000,1000,1000,1000
39948181,1000,1000,1000,1000,110028471,1000,1000,1000,1000
39950680,1000,1000,1000,1000,110128431,1000,1000,1000,1000
39953179,1000,1000,1000,1000,110228391,1000,1000,1000,1000
39955678,1000,1000,1000,1000,110328351,1000,1000,1000,1000
39958177,1000,1000,1000,1000,110428311,1000,1000,1000,1000
39960676,1000,1000,1000,1000,110528271,1000,1000,1000,1000
39963175,1000,1000,1000,1000,110628231,1000,1000,1000,1000
39965674,1000,1000,1000,1000,110728191,1000,1000,1000,1000
39968173,1000,1000,1000,1000,110828984,1000,1000,1000,1000
39970672,1000,1000,1000,1000,110928944,1000,1000,1000,1000
39973171,1000,1000,1000,1000,111028904,1000,1000,1000,1000
39975670,1000,1000,1000,1000,111128864,1000,1000,1000,1000
39978169,1000,1000,1000,1000,111228824,1000,1000,1000,1000
39980668,1000,1000,1000,1000,111328784,1000,1000,1000,1000
39983167,1000,1000,1000,1000,111428744,1000,1000,1000,1000
39985666,1000,1000,1000,1000,111528704,1000,1000,1000,1000
39988165,1000,1000,1000,1000,111628664,1000,1000,1000,1000
39990664,1000,1000,1000,1000,111728624,1000,1000,1000,1000
39993163,1000,1000,1000,1000,111828584,1000,1000,1000,1000
39995662,1000,1000,1000,1000,111928544,1000,1000,1000,1000
39998161,1000,1000,1000,1000,112028504,1000,1000,1000,1000
40000660,1000,1000,1000,1000,112128464,1000,1000,1000,1000
40003159,1000,1000,1000,1000,112228424,1000,1000,1000,1000
40005658,1000,1000,1000,1000,112328384,1000,1000,1000,1000
40008157,1000,1000,1000,1000,112428344,1000,1000,1000,1000
40010656,1000,1000,1000,1000,112528304,1000,1000,1000,1000
40013155,1000,1000,1000,1000,112628264,1000,1000,1000,1000
40015654,1000,1000,1000,1000,112728224,1000,1000,1000,1000
40018986,1000,1000,1000,1000,112828184,1000,1000,1000,1000
40021485,1000,1000,1000,1000,112928977,1000,1000,1000,1000
40023984,1000,1000,1000,1000,113028937,1000,1000,1000,1000
40026483,1000,1000,1000,1000,113128897,1000,1000,1000,1000
40028982,1000,1000,1000,1000,113228857,1000,1000,1000,1000
40031481,1000,1000,1000,1000,113328817,1000,1000,1000,1000
40033980,1000,1000,1000,1000,113428777,1000,1000,1000,1000
40036479,1000,1000,1000,1000,113528737,1000,1000,1000,1000
40038978,1000,1000,1000,1000,113628697,1000,1000,1000,1000
40041477,1000,1000,1000,1000,113728657,1000,1000,1000,1000
40043976,1000,1000,1000,1000,113828617,1000,1000,1000,1000
40046475,1000,1000,1000,1000,113928577,1000,1000,1000,1000
40048974,1000,1000,1000,1000,114028537,1000,1000,1000,1000
40051473,1000,1000,1000,1000,114128497,1000,1000,1000,1000
40053972,1000,1000,1000,1000,114228457,1000,1000,1000,1000
40056471,1000,1000,1000,1000,114328417,1000,1000,1000,1000
40058970,1000,1000,1000,1000,114428377,1000,1000,1000,1000
40061469,1000,1000,1000,1000,114528337,1000,1000,1000,1000
40063968,1000,1000,1000,1000,114628297,1000,1000,1000,1000
40066467,1000,1000,1000,1000,114728257,1000,1000,1000,1000
40068966,1000,1000,1000,1000,114828217,1000,1000,1000,1000
40071465,1000,1000,1000,1000,114928177,1000,1000,1000,1000
40073964,1000,1000,1000,1000,115028970,1000,1000,1000,1000
40076463,1000,1000,1000,1000,115128930,1000,1000,1000,1000
40078962,1000,1000,1000,1000,115228890,1000,1000,1000,1000
40081461,1000,1000,1000,1000,115328850,1000,1000,1000,1000
40083960,1000,1000,1000,1000,115428810,1000,1000,1000,1000
40086459,1000,1000,1000,1000,115528770,1000,1000,1000,1000
40088958,1000,1000,1000,1000,115628730,1000,1000,1000,1000
40091457,1000,1000,1000,1000,115728690,1000,1000,1000,1000
40093956,1000,1000,1000,1000,115828650,1000,1000,1000,1000
40096455,1000,1000,1000,1000,115928610,1000,1000,1000,1000
40098954,1000,1000,1000,1000,116028570,1000,1000,1000,1000
40101453,1000,1000,1000,1000,116128530,1000,1000,1000,1000
40103952,1000,1000,1000,1000,116228490,1000,1000,1000,1000
40106451,1000,1000,1000,1000,116328450,1000,1000,1000,1000
40108950,1000,1000,1000,1000,116428410,1000,1000,1000,1000
40111449,1000,1000,1000,1000,116528370,1000,1000,1000,1000
40113948,1000,1000,1000,1000,116628330,1000,1000,1000,1000
40116447,1000,1000,1000,1000,116728290,1000,1000,1000,1000
40118946,1000,1000,1000,1000,116828250,1000,1000,1000,1000
40121445,1000,1000,1000,1000,116928210,1000,1000,1000,1000
40123944,1000,1000,1000,1000,117028170,1000,1000,1000,1000
40126443,1000,1000,1000,1000,117128963,1000,1000,1000,1000
40128942,1000,1000,1000,1000,117228923,1000,1000,1000,1000
40131441,1000,1000,1000,1000,117328883,1000,1000,1000,1000
40133940,1000,1000,1000,1000,117428843,1000,1000,1000,1000
40136439,1000,1000,1000,1000,117528803,1000,1000,1000,1000
40138938,1000,1000,1000,1000,117628763,1000,1000,1000,1000
40141437,1000,1000,1000,1000,117728723,1000,1000,1000,1000
40143936,1000,1000,1000,1000,117828683,1000,1000,1000,1000
40146435,1000,1000,1000,1000,117928643,1000,1000,1000,1000
40148934,1000,1000,1000,1000,118028603,1000,1000,1000,1000
40151433,1000,1000,1000,1000,118128563,1000,1000,1000,1000
40153932,1000,1000,1000,1000,118228523,1000,1000,1000,1000
40156431,1000,1000,1000,1000,118328483,1000,1000,1000,1000
40158930,1000,1000,1000,1000,118428443,1000,1000,1000,1000
40161429,1000,1000,1000,1000,118528403,1000,1000,1000,1000
40163928,1000,1000,1000,1000,118628363,1000,1000,1000,1000
40166427,1000,1000,1000,1000,118728323,1000,1000,1000,1000
40168926,1000,1000,1000,1000,118828283,1000,1000,1000,1000
40171425,1000,1000,1000,1000,118928243,1000,1000,1000,1000
40173924,1000,1000,1000,1000,119028203,1000,1000,1000,1000
40176423,1000,1000,1000,1000,119128163,1000,1000,1000,1000
40178922,1000,1000,1000,1000,119228956,1000,1000,1000,1000
40181421,1000,1000,1000,1000,119328916,1000,1000,1000,1000
40183920,1000,1000,1000,1000,119428876,1000,1000,1000,1000
40186419,1000,1000,1000,1000,119528836,1000,1000,1000,1000
40188918,1000,1000,1000,1000,119628796,1000,1000,1000,1000
40191417,1000,1000,1000,1000,,,,,
40193916,1000,1000,1000,1000,,,,,
40196415,1000,1000,1000,1000,,,,,
40198914,1000,1000,1000,1000,,,,,
40201413,1000,1000,1000,1000,,,,,
40203912,1000,1000,1000,1000,,,,,
40206411,1000,1000,1000,1000,,,,,
40208910,1000,1000,1000,1000,,,,,
40211409,1000,1000,1000,1000,,,,,
40213908,1000,1000,1000,1000,,,,,
40216407,1000,1000,1000,1000,,,,,
40218906,1000,1000,1000,1000,,,,,
40221405,1000,1000,1000,1000,,,,,
40223904,1000,1000,1000,1000,,,,,
40226403,1000,1000,1000,1000,,,,,
40228902,1000,1000,1000,1000,,,,,
40231401,1000,1000,1000,1000,,,,,
40233900,1000,1000,1000,1000,,,,,
40236399,1000,1000,1000,1000,,,,,
40238898,1000,1000,1000,1000,,,,,
40241397,1000,1000,1000,1000,,,,,
40243896,1000,1000,1000,1000,,,,,
40246395,1000,1000,1000,1000,,,,,
40248894,1000,1000,1000,1000,,,,,
40251393,1000,1000,1000,1000,,,,,
40253892,1000,1000,1000,1000,,,,,
40256391,1000,1000,1000,1000,,,,,
40258890,1000,1000,1000,1000,,,,,
40261389,1000,1000,1000,1000,,,,,
40263888,1000,1000,1000,1000,,,,,
40266387,1000,1000,1000,1000,,,,,
40268886,1000,1000,1000,1000,,,,,
40271385,1000,1000,1000,1000,,,,,
40273884,1000,1000,1000,1000,,,,,
40276383,1000,1000,1000,1000,,,,,
40278882,1000,1000,1000,1000,,,,,
40281381,1000,1000,1000,1000,,,,,
40283880,1000,1000,1000,1000,,,,,
40286379,1000,1000,1000,1000,,,,,
40288878,1000,1000,1000,1000,,,,,
40291377,1000,1000,1000,1000,,,,,
40293876,1000,1000,1000,1000,,,,,
40296375,1000,1000,1000,1000,,,,,
40298874,1000,1000,1000,1000,,,,,
40301373,1000,1000,1000,1000,,,,,
40303872,1000,1000,1000,1000,,,,,
40306371,1000,1000,1000,1000,,,,,
40308870,1000,1000,1000,1000,,,,,
40311369,1000,1000,1000,1000,,,,,
40313868,1000,1000,1000,1000,,,,,
40316367,1000,1000,1000,1000,,,,,
40318866,1000,1000,1000,1000,,,,,
40321365,1000,1000,1000,1000,,,,,
40323864,1000,1000,1000,1000,,,,,
40326363,1000,1000,1000,1000,,,,,
40328862,1000,1000,1000,1000,,,,,
40331361,1000,1000,1000,1000,,,,,
40333860,1000,1000,1000,1000,,,,,
40336359,1000,1000,1000,1000,,,,,
40338858,1000,1000,1000,1000,,,,,
40341357,1000,1000,1000,1000,,,,,
40343856,1000,1000,1000,1000,,,,,
40346355,1000,1000,1000,1000,,,,,
40348854,1000,1000,1000,1000,,,,,
40351353,1000,1000,1000,1000,,,,,
40353852,1000,1000,1000,1000,,,,,
40356351,1000,1000,1000,1000,,,,,
40358850,1000,1000,1000,1000,,,,,
40361349,1000,1000,1000,1000,,,,,
40363848,1000,1000,1000,1000,,,,,
40366347,1000,1000,1000,1000,,,,,
40368846,1000,1000,1000,1000,,,,,
40371345,1000,1000,1000,1000,,,,,
40373844,1000,1000,1000,1000,,,,,
40376343,1000,1000,1000,1000,,,,,
40378842,1000,1000,1000,1000,,,,,
40381341,1000,1000,1000,1000,,,,,
40383840,1000,1000,1000,1000,,,,,
40386339,1000,1000,1000,1000,,,,,
40388838,1000,1000,1000,1000,,,,,
40391337,1000,1000,1000,1000,,,,,
40393836,1000,1000,1000,1000,,,,,
40396335,1000,1000,1000,1000,,,,,
40398834,1000,1000,1000,1000,,,,,
40401333,1000,1000,1000,1000,,,,,
40403832,1000,1000,1000,1000,,,,,
40406331,1000,1000,1000,1000,,,,,
40408830,1000,1000,1000,1000,,,,,
40411329,1000,1000,1000,1000,,,,,
40413828,1000,1000,1000,1000,,,,,
40416327,1000,1000,1000,1000,,,,,
40418826,1000,1000,1000,1000,,,,,
40421325,1000,1000,1000,1000,,,,,
40423824,1000,1000,1000,1000,,,,,
40426323,1000,1000,1000,1000,,,,,
40428822,1000,1000,1000,1000,,,,,
40431321,1000,1000,1000,1000,,,,,
40433820,1000,1000,1000,1000,,,,,
40436319,1000,1000,1000,1000,,,,,
40438818,1000,1000,1000,1000,,,,,
40441317,1000,1000,1000,1000,,,,,
40443816,1000,1000,1000,1000,,,,,
40446315,1000,1000,1000,1000,,,,,
40448814,1000,1000,1000,1000,,,,,
40451313,1000,1000,1000,1000,,,,,
40453812,1000,1000,1000,1000,,,,,
40456311,1000,1000,1000,1000,,,,,
40458810,1000,1000,1000,1000,,,,,
40461309,1000,1000,1000,1000,,,,,
40463808,1000,1000,1000,1000,,,,,
40466307,1000,1000,1000,1000,,,,,
40468806,1000,1000,1000,1000,,,,,
40471305,1000,1000,1000,1000,,,,,
40473804,1000,1000,1000,1000,,,,,
40476303,1000,1000,1000,1000,,,,,
40478802,1000,1000,1000,1000,,,,,
40481301,1000,1000,1000,1000,,,,,
40483800,1000,1000,1000,1000,,,,,
40486299,1000,1000,1000,1000,,,,,
40488798,1000,1000,1000,1000,,,,,
40491297,1000,1000,1000,1000,,,,,
40493796,1000,1000,1000,1000,,,,,
40496295,1000,1000,1000,1000,,,,,
40498794,1000,1000,1000,1000,,,,,
40501293,1000,1000,1000,1000,,,,,
40503792,1000,1000,1000,1000,,,,,
40506291,1000,1000,1000,1000,,,,,
40508790,1000,1000,1000,1000,,,,,
40511289,1000,1000,1000,1000,,,,,
40513788,1000,1000,1000,1000,,,,,
40516287,1000,1000,1000,1000,,,,,
40518786,1000,1000,1000,1000,,,,,
40521285,1000,1000,1000,1000,,,,,
40523784,1000,1000,1000,1000,,,,,
40526283,1000,1000,1000,1000,,,,,
40528782,1000,1000,1000,1000,,,,,
40531281,1000,1000,1000,1000,,,,,
40533780,1000,1000,1000,1000,,,,,
40536279,1000,1000,1000,1000,,,,,
40538778,1000,1000,1000,1000,,,,,
40541277,1000,1000,1000,1000,,,,,
40543776,1000,1000,1000,1000,,,,,
40546275,1000,1000,1000,1000,,,,,
40548774,1000,1000,1000,1000,,,,,
40551273,1000,1000,1000,1000,,,,,
40553772,1000,1000,1000,1000,,,,,
40556271,1000,1000,1000,1000,,,,,
40558770,1000,1000,1000,1000,,,,,
40561269,1000,1000,1000,1000,,,,,
40563768,1000,1000,1000,1000,,,,,
40566267,1000,1000,1000,1000,,,,,
40568766,1000,1000,1000,1000,,,,,
40571265,1000,1000,1000,1000,,,,,
40573764,1000,1000,1000,1000,,,,,
40576263,1000,1000,1000,1000,,,,,
40578762,1000,1000,1000,1000,,,,,
40581261,1000,1000,1000,1000,,,,,
40583760,1000,1000,1000,1000,,,,,
40586259,1000,1000,1000,1000,,,,,
40588758,1000,1000,1000,1000,,,,,
40591257,1000,1000,1000,1000,,,,,
40593756,1000,1000,1000,1000,,,,,
40596255,1000,1000,1000,1000,,,,,
40598754,1000,1000,1000,1000,,,,,
40601253,1000,1000,1000,1000,,,,,
40603752,1000,1000,1000,1000,,,,,
40606251,1000,1000,1000,1000,,,,,
40608750,1000,1000,1000,1000,,,,,
40611249,1000,1000,1000,1000,,,,,
40613748,1000,1000,1000,1000,,,,,
40616247,1000,1000,1000,1000,,,,,
40618746,1000,1000,1000,1000,,,,,
40621245,1000,1000,1000,1000,,,,,
40623744,1000,1000,1000,1000,,,,,
40626243,1000,1000,1000,1000,,,,,
40628742,1000,1000,1000,1000,,,,,
40631241,1000,1000,1000,1000,,,,,
40633740,1000,1000,1000,1000,,,,,
40636239,1000,1000,1000,1000,,,,,
40638738,1000,1000,1000,1000,,,,,
40641237,1000,1000,1000,1000,,,,,
40643736,1000,1000,1000,1000,,,,,
40646235,1000,1000,1000,1000,,,,,
40648734,1000,1000,1000,1000,,,,,
40651233,1000,1000,1000,1000,,,,,
40653732,1000,1000,1000,1000,,,,,
40656231,1000,1000,1000,1000,,,,,
40658730,1000,1000,1000,1000,,,,,
40661229,1000,1000,1000,1000,,,,,
40663728,1000,1000,1000,1000,,,,,
40666227,1000,1000,1000,1000,,,,,
40668726,1000,1000,1000,1000,,,,,
40671225,1000,1000,1000,1000,,,,,
40673724,1000,1000,1000,1000,,,,,
40676223,1000,1000,1000,1000,,,,,
40678722,1000,1000,1000,1000,,,,,
40681221,1000,1000,1000,1000,,,,,
40683720,1000,1000,1000,1000,,,,,
40686219,1000,1000,1000,1000,,,,,
40688718,1000,1000,1000,1000,,,,,
40691217,1000,1000,1000,1000,,,,,
40693716,1000,1000,1000,1000,,,,,
40696215,1000,1000,1000,1000,,,,,
40698714,1000,1000,1000,1000,,,,,
40701213,1000,1000,1000,1000,,,,,
40703712,1000,1000,1000,1000,,,,,
40706211,1000,1000,1000,1000,,,,,
40708710,1000,1000,1000,1000,,,,,
40711209,1000,1000,1000,1000,,,,,
40713708,1000,1000,1000,1000,,,,,
40716207,1000,1000,1000,1000,,,,,
40718706,1000,1000,1000,1000,,,,,
40721205,1000,1000,1000,1000,,,,,
40723704,1000,1000,1000,1000,,,,,
40726203,1000,1000,1000,1000,,,,,
40728702,1000,1000,1000,1000,,,,,
40731201,1000,1000,1000,1000,,,,,
40733700,1000,1000,1000,1000,,,,,
40736199,1000,1000,1000,1000,,,,,
40738698,1000,1000,1000,1000,,,,,
40741197,1000,1000,1000,1000,,,,,
40743696,1000,1000,1000,1000,,,,,
40746195,1000,1000,1000,1000,,,,,
40748694,1000,1000,1000,1000,,,,,
40751193,1000,1000,1000,1000,,,,,
40753692,1000,1000,1000,1000,,,,,
40756191,1000,1000,1000,1000,,,,,
40758690,1000,1000,1000,1000,,,,,
40761189,1000,1000,1000,1000,,,,,
40763688,1000,1000,1000,1000,,,,,
40766187,1000,1000,1000,1000,,,,,
40768686,1000,1000,1000,1000,,,,,
40771185,1000,1000,1000,1000,,,,,
40773684,1000,1000,1000,1000,,,,,
40776183,1000,1000,1000,1000,,,,,
40778682,1000,1000,1000,1000,,,,,
40781181,1000,1000,1000,1000,,,,,
40783680,1000,1000,1000,1000,,,,,
40786179,1000,1000,1000,1000,,,,,
40788678,1000,1000,1000,1000,,,,,
40791177,1000,1000,1000,1000,,,,,
40793676,1000,1000,1000,1000,,,,,
40796175,1000,1000,1000,1000,,,,,
40798674,1000,1000,1000,1000,,,,,
40801173,1000,1000,1000,1000,,,,,
40803672,1000,1000,1000,1000,,,,,
40806171,1000,1000,1000,1000,,,,,
40808670,1000,1000,1000,1000,,,,,
40811169,1000,1000,1000,1000,,,,,
40813668,1000,1000,1000,1000,,,,,
40816167,1000,1000,1000,1000,,,,,
40818666,1000,1000,1000,1000,,,,,
40821165,1000,1000,1000,1000,,,,,
40823664,1000,1000,1000,1000,,,,,
40826163,1000,1000,1000,1000,,,,,
40828662,1000,1000,1000,1000,,,,,
40831161,1000,1000,1000,1000,,,,,
40833660,1000,1000,1000,1000,,,,,
40836159,1000,1000,1000,1000,,,,,
40838658,1000,1000,1000,1000,,,,,
40841157,1000,1000,1000,1000,,,,,
40843656,1000,1000,1000,1000,,,,,
40846155,1000,1000,1000,1000,,,,,
40848654,1000,1000,1000,1000,,,,,
40851153,1000,1000,1000,1000,,,,,
40853652,1000,1000,1000,1000,,,,,
40856151,1000,1000,1000,1000,,,,,
40858650,1000,1000,1000,1000,,,,,
40861149,1000,1000,1000,1000,,,,,
40863648,1000,1000,1000,1000,,,,,
40866147,1000,1000,1000,1000,,,,,
40868646,1000,1000,1000,1000,,,,,
40871145,1000,1000,1000,1000,,,,,
40873644,1000,1000,1000,1000,,,,,
40876143,1000,1000,1000,1000,,,,,
40878642,1000,1000,1000,1000,,,,,
40881141,1000,1000,1000,1000,,,,,
40883640,1000,1000,1000,1000,,,,,
40886139,1000,1000,1000,1000,,,,,
40888638,1000,1000,1000,1000,,,,,
40891137,1000,1000,1000,1000,,,,,
40893636,1000,1000,1000,1000,,,,,
40896135,1000,1000,1000,1000,,,,,
40898634,1000,1000,1000,1000,,,,,
40901133,1000,1000,1000,1000,,,,,
40903632,1000,1000,1000,1000,,,,,
40906131,1000,1000,1000,1000,,,,,
40908630,1000,1000,1000,1000,,,,,
40911129,1000,1000,1000,1000,,,,,
40913628,1000,1000,1000,1000,,,,,
40916127,1000,1000,1000,1000,,,,,
40918626,1000,1000,1000,1000,,,,,
40921125,1000,1000,1000,1000,,,,,
40923624,1000,1000,1000,1000,,,,,
40926123,1000,1000,1000,1000,,,,,
40928622,1000,1000,1000,1000,,,,,
40931121,1000,1000,1000,1000,,,,,
40933620,1000,1000,1000,1000,,,,,
40936119,1000,1000,1000,1000,,,,,
40938618,1000,1000,1000,1000,,,,,
40941117,1000,1000,1000,1000,,,,,
40943616,1000,1000,1000,1000,,,,,
40946115,1000,1000,1000,1000,,,,,
40948614,1000,1000,1000,1000,,,,,
40951113,1000,1000,1000,1000,,,,,
40953612,1000,1000,1000,1000,,,,,
40956111,1000,1000,1000,1000,,,,,
40958610,1000,1000,1000,1000,,,,,
40961109,1000,1000,1000,1000,,,,,
40963608,1000,1000,1000,1000,,,,,
40966107,1000,1000,1000,1000,,,,,
40968606,1000,1000,1000,1000,,,,,
40971105,1000,1000,1000,1000,,,,,
40973604,1000,1000,1000,1000,,,,,
40976103,1000,1000,1000,1000,,,,,
40978602,1000,1000,1000,1000,,,,,
40981101,1000,1000,1000,1000,,,,,
40983600,1000,1000,1000,1000,,,,,
40986099,1000,1000,1000,1000,,,,,
40988598,1000,1000,1000,1000,,,,,
40991097,1000,1000,1000,1000,,,,,
40993596,1000,1000,1000,1000,,,,,
40996095,1000,1000,1000,1000,,,,,
40998594,1000,1000,1000,1000,,,,,
41001093,1000,1000,1000,1000,,,,,
41003592,1000,1000,1000,1000,,,,,
41006091,1000,1000,1000,1000,,,,,
41008590,1000,1000,1000,1000,,,,,
41011089,1000,1000,1000,1000,,,,,
41013588,1000,1000,1000,1000,,,,,
41016087,1000,1000,1000,1000,,,,,
41018586,1000,1000,1000,1000,,,,,
41021085,1000,1000,1000,1000,,,,,
41023584,1000,1000,1000,1000,,,,,
41026083,1000,1000,1000,1000,,,,,
41028582,1000,1000,1000,1000,,,,,
41031081,1000,1000,1000,1000,,,,,
41033580,1000,1000,1000,1000,,,,,
41036079,1000,1000,1000,1000,,,,,
41038578,1000,1000,1000,1000,,,,,
41041077,1000,1000,1000,1000,,,,,
41043576,1000,1000,1000,1000,,,,,
41046075,1000,1000,1000,1000,,,,,
41048574,1000,1000,1000,1000,,,,,
41051073,1000,1000,1000,1000,,,,,
41053572,1000,1000,1000,1000,,,,,
41056071,1000,1000,1000,1000,,,,,
41058570,1000,1000,1000,1000,,,,,
41061069,1000,1000,1000,1000,,,,,
41063568,1000,1000,1000,1000,,,,,
41066067,1000,1000,1000,1000,,,,,
41068566,1000,1000,1000,1000,,,,,
41071065,1000,1000,1000,1000,,,,,
41073564,1000,1000,1000,1000,,,,,
41076063,1000,1000,1000,1000,,,,,
41078562,1000,1000,1000,1000,,,,,
41081061,1000,1000,1000,1000,,,,,
41083560,1000,1000,1000,1000,,,,,
41086059,1000,1000,1000,1000,,,,,
41088558,1000,1000,1000,1000,,,,,
41091057,1000,1000,1000,1000,,,,,
41093556,1000,1000,1000,1000,,,,,
41096055,1000,1000,1000,1000,,,,,
41098554,1000,1000,1000,1000,,,,,
41101053,1000,1000,1000,1000,,,,,
41103552,1000,1000,1000,1000,,,,,
41106051,1000,1000,1000,1000,,,,,
