TimeUS,M1,M2,M3,M4,TimeUS,C1,C2,C3,C4
46618845,1000,1000,1000,1000,46628841,1000,1000,1000,1000
46621344,1000,1000,1000,1000,46728801,1000,1000,1000,1000
46623843,1000,1000,1000,1000,46828761,1000,1000,1000,1000
46626342,1000,1000,1000,1000,46928721,1000,1000,1000,1000
46628841,1000,1000,1000,1000,47028681,1000,1000,1000,1000
46631340,1000,1000,1000,1000,47128641,1000,1000,1000,1000
46633839,1000,1000,1000,1000,47228601,1000,1000,1000,1000
46636338,1000,1000,1000,1000,47328561,1000,1000,1000,1000
46638837,1000,1000,1000,1000,47428521,1000,1000,1000,1000
46641336,1000,1000,1000,1000,47528481,1000,1000,1000,1000
46643835,1000,1000,1000,1000,47628441,1000,1000,1000,1000
46646334,1000,1000,1000,1000,47728401,1000,1000,1000,1000
46648833,1000,1000,1000,1000,47828361,1000,1000,1000,1000
46651332,1000,1000,1000,1000,47928321,1000,1000,1000,1000
46653831,1000,1000,1000,1000,48028281,1000,1000,1000,1000
46656330,1000,1000,1000,1000,48128241,1000,1000,1000,1000
46658829,1000,1000,1000,1000,48228201,1000,1000,1000,1000
46661328,1000,1000,1000,1000,48328161,1000,1000,1000,1000
46663827,1000,1000,1000,1000,48428954,1000,1000,1000,1000
46666326,1000,1000,1000,1000,48528914,1000,1000,1000,1000
46668825,1000,1000,1000,1000,48628874,1003,1003,1003,1003
46671324,1000,1000,1000,1000,48728834,1033,1033,1033,1033
46673823,1000,1000,1000,1000,48828794,1063,1063,1063,1063
46676322,1000,1000,1000,1000,48928754,1093,1093,1093,1093
46678821,1000,1000,1000,1000,49028714,1122,1122,1122,1122
46681320,1000,1000,1000,1000,49128674,1177,1170,1170,1177
46683819,1000,1000,1000,1000,49228634,1419,1415,1415,1419
46686318,1000,1000,1000,1000,49328594,1595,1591,1591,1595
46688817,1000,1000,1000,1000,49428554,1740,1736,1736,1740
46691316,1000,1000,1000,1000,49528514,1866,1862,1862,1866
46693815,1000,1000,1000,1000,49628474,1891,1887,1888,1890
46696314,1000,1000,1000,1000,49728434,1798,1797,1797,1798
46698813,1000,1000,1000,1000,49828394,1681,1682,1682,1682
46701312,1000,1000,1000,1000,49928354,1631,1633,1633,1631
46703811,1000,1000,1000,1000,50028314,1629,1630,1630,1629
46706310,1000,1000,1000,1000,50128274,1633,1633,1628,1637
46708809,1000,1000,1000,1000,50228234,1632,1634,1627,1639
46711308,1000,1000,1000,1000,50328194,1626,1628,1624,1630
46713807,1000,1000,1000,1000,50428154,1621,1622,1622,1621
46716306,1000,1000,1000,1000,50528947,1617,1617,1620,1614
46718805,1000,1000,1000,1000,50628907,1617,1616,1621,1612
46721304,1000,1000,1000,1000,50728867,1618,1617,1621,1614
46723803,1000,1000,1000,1000,50828827,1619,1619,1621,1616
46726302,1000,1000,1000,1000,50928787,1589,1589,1598,1580
46728801,1000,1000,1000,1000,51028747,1573,1574,1580,1567
46731300,1000,1000,1000,1000,51128707,1563,1562,1563,1563
46733799,1000,1000,1000,1000,51228667,1553,1554,1549,1558
46736298,1000,1000,1000,1000,51328627,1545,1545,1536,1555
46738797,1000,1000,1000,1000,51428587,1539,1539,1529,1549
46741296,1000,1000,1000,1000,51528547,1533,1533,1527,1539
46743795,1000,1000,1000,1000,51628507,1528,1528,1526,1530
46746294,1000,1000,1000,1000,51728467,1527,1527,1528,1526
46748793,1000,1000,1000,1000,51828427,1527,1527,1529,1525
46751292,1000,1000,1000,1000,51928387,1530,1530,1533,1527
46753791,1000,1000,1000,1000,52028347,1533,1533,1536,1530
46756290,1000,1000,1000,1000,52128307,1537,1537,1540,1535
46758789,1000,1000,1000,1000,52228267,1542,1542,1543,1540
46761288,1000,1000,1000,1000,52328227,1545,1544,1545,1544
46763787,1000,1000,1000,1000,52428187,1548,1547,1547,1548
46766286,1000,1000,1000,1000,52528980,1549,1549,1549,1550
46768785,1000,1000,1000,1000,52628940,1552,1552,1551,1553
46771284,1000,1000,1000,1000,52728900,1554,1553,1556,1558
46773783,1000,1000,1000,1000,52828860,1552,1553,1559,1561
46776282,1000,1000,1000,1000,52928820,1555,1555,1561,1563
46778781,1000,1000,1000,1000,53028780,1558,1558,1563,1563
46781280,1000,1000,1000,1000,53128740,1561,1561,1565,1564
46783779,1000,1000,1000,1000,53228700,1564,1564,1566,1565
46786278,1000,1000,1000,1000,53328660,1567,1566,1566,1565
46788777,1000,1000,1000,1000,53428620,1568,1569,1566,1566
46791276,1000,1000,1000,1000,53528580,1571,1571,1567,1567
46793775,1000,1000,1000,1000,53628540,1572,1572,1567,1568
46796274,1000,1000,1000,1000,53728500,1571,1571,1567,1567
46798773,1000,1000,1000,1000,53828460,1572,1572,1568,1568
46801272,1000,1000,1000,1000,53928420,1572,1572,1569,1569
46803771,1000,1000,1000,1000,54028380,1574,1573,1571,1571
46806270,1000,1000,1000,1000,54128340,1573,1574,1573,1572
46808769,1000,1000,1000,1000,54228300,1574,1574,1574,1573
46811268,1000,1000,1000,1000,54328260,1574,1574,1575,1574
46813767,1000,1000,1000,1000,54428220,1574,1574,1576,1575
46816266,1000,1000,1000,1000,54528180,1574,1574,1576,1575
46818765,1000,1000,1000,1000,54628973,1574,1575,1576,1576
46821264,1000,1000,1000,1000,54728933,1575,1576,1577,1577
46823763,1000,1000,1000,1000,54828893,1575,1575,1576,1576
46826262,1000,1000,1000,1000,54928853,1575,1575,1576,1577
46828761,1000,1000,1000,1000,55028813,1576,1576,1576,1576
46831260,1000,1000,1000,1000,55128773,1576,1576,1577,1577
46833759,1000,1000,1000,1000,55228733,1577,1577,1577,1577
46836258,1000,1000,1000,1000,55328693,1578,1577,1578,1577
46838757,1000,1000,1000,1000,55428653,1578,1578,1578,1577
46841256,1000,1000,1000,1000,55528613,1579,1579,1578,1578
46843755,1000,1000,1000,1000,55628573,1579,1580,1579,1579
46846254,1000,1000,1000,1000,55728533,1579,1578,1578,1578
46848753,1000,1000,1000,1000,55828493,1579,1579,1578,1579
46851252,1000,1000,1000,1000,55928453,1578,1578,1577,1578
46853751,1000,1000,1000,1000,56028413,1577,1577,1577,1577
46856250,1000,1000,1000,1000,56128373,1578,1578,1578,1579
46858749,1000,1000,1000,1000,56228333,1578,1578,1578,1578
46861248,1000,1000,1000,1000,56328293,1579,1578,1579,1578
46863747,1000,1000,1000,1000,56428253,1579,1579,1580,1579
46866246,1000,1000,1000,1000,56528213,1579,1579,1579,1580
46868745,1000,1000,1000,1000,56628173,1579,1579,1579,1579
46871244,1000,1000,1000,1000,56728966,1578,1578,1579,1578
46873743,1000,1000,1000,1000,56828926,1578,1579,1579,1579
46876242,1000,1000,1000,1000,56928886,1579,1579,1579,1580
46878741,1000,1000,1000,1000,57028846,1579,1579,1579,1579
46881240,1000,1000,1000,1000,57128806,1580,1579,1580,1580
46883739,1000,1000,1000,1000,57228766,1579,1579,1579,1579
46886238,1000,1000,1000,1000,57328726,1579,1580,1580,1580
46888737,1000,1000,1000,1000,57428686,1578,1579,1579,1579
46891236,1000,1000,1000,1000,57528646,1580,1581,1580,1581
46893735,1000,1000,1000,1000,57628606,1580,1580,1581,1580
46896234,1000,1000,1000,1000,57728566,1581,1580,1581,1581
46898733,1000,1000,1000,1000,57828526,1581,1580,1580,1580
46901232,1000,1000,1000,1000,57928486,1581,1581,1581,1581
46903731,1000,1000,1000,1000,58028446,1580,1580,1580,1580
46906230,1000,1000,1000,1000,58128406,1580,1580,1579,1580
46908729,1000,1000,1000,1000,58228366,1580,1580,1580,1580
46911228,1000,1000,1000,1000,58328326,1580,1580,1579,1580
46913727,1000,1000,1000,1000,58428286,1580,1580,1580,1580
46916226,1000,1000,1000,1000,58528246,1580,1580,1580,1580
46918725,1000,1000,1000,1000,58628206,1580,1580,1580,1580
46921224,1000,1000,1000,1000,58728166,1580,1581,1580,1580
46923723,1000,1000,1000,1000,58828959,1580,1581,1581,1580
46926222,1000,1000,1000,1000,58928919,1581,1582,1585,1578
46928721,1000,1000,1000,1000,59028879,1580,1581,1587,1573
46931220,1000,1000,1000,1000,59128839,1579,1581,1581,1573
46933719,1000,1000,1000,1000,59228799,1577,1580,1572,1572
46936218,1000,1000,1000,1000,59328759,1576,1578,1564,1570
46938717,1000,1000,1000,1000,59428719,1577,1578,1559,1566
46941216,1000,1000,1000,1000,59528679,1578,1578,1556,1561
46943715,1000,1000,1000,1000,59628639,1579,1577,1555,1557
46946214,1000,1000,1000,1000,59728599,1579,1578,1555,1555
46948713,1000,1000,1000,1000,59828559,1579,1578,1557,1554
46951212,1000,1000,1000,1000,59928519,1577,1577,1556,1554
46953711,1000,1000,1000,1000,60028479,1576,1577,1556,1554
46956210,1000,1000,1000,1000,60128439,1575,1577,1555,1554
46958709,1000,1000,1000,1000,60228399,1575,1577,1554,1554
46961208,1000,1000,1000,1000,60328359,1575,1577,1553,1554
46963707,1000,1000,1000,1000,60428319,1575,1577,1551,1551
46966206,1000,1000,1000,1000,60528279,1577,1579,1550,1550
46968705,1000,1000,1000,1000,60628239,1581,1582,1549,1548
46971204,1000,1000,1000,1000,60728199,1583,1583,1545,1545
46973703,1000,1000,1000,1000,60828159,1585,1586,1542,1542
46976202,1000,1000,1000,1000,60928952,1588,1589,1539,1539
46978701,1000,1000,1000,1000,61028912,1591,1591,1536,1536
46981200,1000,1000,1000,1000,61128872,1594,1593,1535,1535
46983699,1000,1000,1000,1000,61228832,1595,1594,1534,1534
46986198,1000,1000,1000,1000,61328792,1595,1595,1535,1537
46988697,1000,1000,1000,1000,61428752,1594,1594,1537,1540
46991196,1000,1000,1000,1000,61528712,1592,1591,1541,1544
46993695,1000,1000,1000,1000,61628672,1588,1586,1547,1550
46996194,1000,1000,1000,1000,61728632,1582,1578,1556,1559
46998693,1000,1000,1000,1000,61828592,1572,1568,1567,1569
47001192,1000,1000,1000,1000,61928552,1561,1557,1579,1581
47003691,1000,1000,1000,1000,62028512,1550,1547,1591,1592
47006190,1000,1000,1000,1000,62128472,1540,1538,1603,1602
47008689,1000,1000,1000,1000,62228432,1532,1532,1610,1609
47011188,1000,1000,1000,1000,62328392,1529,1530,1615,1614
47013687,1000,1000,1000,1000,62428352,1529,1531,1616,1615
47016186,1000,1000,1000,1000,62528312,1533,1536,1614,1613
47018685,1000,1000,1000,1000,62628272,1539,1541,1608,1607
47021184,1000,1000,1000,1000,62728232,1547,1548,1601,1601
47023683,1000,1000,1000,1000,62828192,1557,1558,1594,1594
47026182,1000,1000,1000,1000,62928985,1565,1565,1586,1586
47028681,1000,1000,1000,1000,63028945,1573,1572,1578,1578
47031180,1000,1000,1000,1000,63128905,1579,1578,1573,1572
47033679,1000,1000,1000,1000,63228865,1585,1583,1569,1568
47036178,1000,1000,1000,1000,63328825,1587,1585,1566,1566
47038677,1000,1000,1000,1000,63428785,1588,1587,1566,1566
47041176,1000,1000,1000,1000,63528745,1587,1586,1566,1566
47043675,1000,1000,1000,1000,63628705,1585,1584,1568,1569
47046174,1000,1000,1000,1000,63728665,1583,1583,1572,1572
47048673,1000,1000,1000,1000,63828625,1579,1580,1574,1575
47051172,1000,1000,1000,1000,63928585,1577,1577,1577,1577
47053671,1000,1000,1000,1000,64028545,1574,1574,1579,1579
47056170,1000,1000,1000,1000,64128505,1573,1574,1582,1582
47058669,1000,1000,1000,1000,64228465,1571,1572,1582,1583
47061168,1000,1000,1000,1000,64328425,1572,1572,1583,1584
47063667,1000,1000,1000,1000,64428385,1572,1572,1583,1583
47066166,1000,1000,1000,1000,64528345,1573,1574,1583,1583
47068665,1000,1000,1000,1000,64628305,1575,1575,1582,1582
47071164,1000,1000,1000,1000,64728265,1577,1577,1582,1581
47073663,1000,1000,1000,1000,64828225,1578,1578,1580,1580
47076162,1000,1000,1000,1000,64928185,1579,1579,1578,1579
47078661,1000,1000,1000,1000,65028978,1580,1579,1577,1577
47081160,1000,1000,1000,1000,65128938,1581,1581,1577,1577
47083659,1000,1000,1000,1000,65228898,1582,1581,1577,1577
47086158,1000,1000,1000,1000,65328858,1581,1581,1577,1576
47088657,1000,1000,1000,1000,65428818,1581,1582,1577,1578
47091156,1000,1000,1000,1000,65528778,1581,1581,1577,1577
47093655,1000,1000,1000,1000,65628738,1581,1580,1578,1578
47096154,1000,1000,1000,1000,65728698,1580,1580,1579,1579
47098653,1000,1000,1000,1000,65828658,1580,1580,1580,1580
47101152,1000,1000,1000,1000,65928618,1580,1579,1580,1580
47103651,1000,1000,1000,1000,66028578,1580,1580,1581,1581
47106150,1000,1000,1000,1000,66128538,1579,1579,1581,1580
47108649,1000,1000,1000,1000,66228498,1579,1579,1581,1581
47111148,1000,1000,1000,1000,66328458,1578,1579,1581,1581
47113647,1000,1000,1000,1000,66428418,1579,1580,1581,1581
47116146,1000,1000,1000,1000,66528378,1580,1580,1581,1581
47118645,1000,1000,1000,1000,66628338,1581,1580,1581,1581
47121144,1000,1000,1000,1000,66728298,1580,1580,1580,1581
47123643,1000,1000,1000,1000,66828258,1580,1580,1580,1580
47126142,1000,1000,1000,1000,66928218,1582,1583,1313,1550
47128641,1000,1000,1000,1000,67028178,1624,1627,1468,1499
47131140,1000,1000,1000,1000,67128971,1655,1664,1572,1517
47133639,1000,1000,1000,1000,67228931,1673,1690,1650,1556
47136138,1000,1000,1000,1000,67328891,1638,1663,1650,1571
47138637,1000,1000,1000,1000,67428851,1637,1662,1650,1604
47141136,1000,1000,1000,1000,67528811,1635,1652,1650,1632
47143635,1000,1000,1000,1000,67628771,1623,1624,1650,1658
47146134,1000,1000,1000,1000,67728731,1604,1598,1650,1680
47148633,1000,1000,1000,1000,67828691,1593,1573,1650,1684
47151132,1000,1000,1000,1000,67928651,1591,1557,1650,1674
47153631,1000,1000,1000,1000,68028611,1590,1555,1640,1650
47156130,1000,1000,1000,1000,68128571,1588,1564,1618,1614
47158629,1000,1000,1000,1000,68228531,1586,1580,1591,1580
47161128,1000,1000,1000,1000,68328491,1585,1594,1562,1551
47163627,1000,1000,1000,1000,68428451,1586,1607,1534,1530
47166126,1000,1000,1000,1000,68528411,1592,1615,1508,1514
47168625,1000,1000,1000,1000,68628371,1602,1622,1489,1503
47171124,1000,1000,1000,1000,68728331,1615,1626,1478,1495
47173623,1000,1000,1000,1000,68828291,1626,1626,1475,1492
47176122,1000,1000,1000,1000,68928251,1633,1623,1482,1494
47178621,1000,1000,1000,1000,69028211,1634,1619,1495,1501
47181120,1000,1000,1000,1000,69128171,1625,1609,1512,1515
47183619,1000,1000,1000,1000,69228964,1604,1591,1539,1541
47186118,1000,1000,1000,1000,69328924,1574,1565,1571,1571
47188617,1000,1000,1000,1000,69428884,1548,1545,1602,1596
47191116,1000,1000,1000,1000,69528844,1532,1533,1626,1615
47193615,1000,1000,1000,1000,69628804,1525,1531,1642,1627
47196114,1000,1000,1000,1000,69728764,1525,1532,1649,1633
47198613,1000,1000,1000,1000,69828724,1526,1534,1647,1635
47201112,1000,1000,1000,1000,69928684,1522,1529,1646,1640
47203611,1000,1000,1000,1000,70028644,1518,1520,1640,1642
47206110,1000,1000,1000,1000,70128604,1521,1519,1632,1638
47208609,1000,1000,1000,1000,70228564,1531,1526,1619,1627
47211108,1000,1000,1000,1000,70328524,1544,1539,1603,1610
47213607,1000,1000,1000,1000,70428484,1555,1553,1589,1594
47216106,1000,1000,1000,1000,70528444,1564,1564,1580,1583
47218605,1000,1000,1000,1000,70628404,1569,1571,1572,1574
47221104,1000,1000,1000,1000,70728364,1574,1576,1567,1569
47223603,1000,1000,1000,1000,70828324,1577,1580,1564,1565
47226102,1000,1000,1000,1000,70928284,1581,1582,1562,1563
47228601,1000,1000,1000,1000,71028244,1584,1585,1561,1562
47231100,1000,1000,1000,1000,71128204,1587,1586,1561,1561
47233599,1000,1000,1000,1000,71228164,1589,1588,1562,1561
47236098,1000,1000,1000,1000,71328957,1590,1588,1563,1562
47238597,1000,1000,1000,1000,71428917,1590,1589,1565,1564
47241096,1000,1000,1000,1000,71528877,1589,1588,1566,1566
47243595,1000,1000,1000,1000,71628837,1587,1586,1569,1568
47246094,1000,1000,1000,1000,71728797,1585,1586,1572,1571
47248593,1000,1000,1000,1000,71828757,1583,1583,1574,1574
47251092,1000,1000,1000,1000,71928717,1582,1582,1577,1577
47253591,1000,1000,1000,1000,72028677,1580,1580,1579,1579
47256090,1000,1000,1000,1000,72128637,1578,1579,1581,1581
47258589,1000,1000,1000,1000,72228597,1577,1578,1582,1582
47261088,1000,1000,1000,1000,72328557,1577,1578,1584,1583
47263587,1000,1000,1000,1000,72428517,1578,1577,1585,1584
47266086,1000,1000,1000,1000,72528477,1577,1577,1585,1585
47268585,1000,1000,1000,1000,72628437,1577,1578,1585,1585
47271084,1000,1000,1000,1000,72728397,1578,1578,1585,1585
47273583,1000,1000,1000,1000,72828357,1579,1579,1585,1584
47276082,1000,1000,1000,1000,72928317,1579,1580,1584,1584
47278581,1000,1000,1000,1000,73028277,1581,1580,1584,1584
47281080,1000,1000,1000,1000,73128237,1580,1580,1583,1583
47283579,1000,1000,1000,1000,73228197,1580,1580,1582,1581
47286078,1000,1000,1000,1000,73328157,1581,1581,1581,1581
47288577,1000,1000,1000,1000,73428950,1581,1581,1580,1581
47291076,1000,1000,1000,1000,73528910,1583,1582,1581,1582
47293575,1000,1000,1000,1000,73628870,1582,1582,1581,1581
47296074,1000,1000,1000,1000,73728830,1583,1583,1581,1581
47298573,1000,1000,1000,1000,73828790,1583,1583,1581,1581
47301072,1000,1000,1000,1000,73928750,1582,1582,1580,1580
47303571,1000,1000,1000,1000,74028710,1582,1581,1580,1579
47306070,1000,1000,1000,1000,74128670,1582,1581,1580,1580
47308569,1000,1000,1000,1000,74228630,1582,1582,1580,1580
47311068,1000,1000,1000,1000,74328590,1582,1583,1581,1582
47313567,1000,1000,1000,1000,74428550,1582,1583,1587,1575
47316066,1000,1000,1000,1000,74528510,1580,1584,1587,1574
47318565,1000,1000,1000,1000,74628470,1578,1582,1582,1576
47321064,1000,1000,1000,1000,74728430,1576,1580,1574,1576
47323563,1000,1000,1000,1000,74828390,1573,1576,1567,1572
47326062,1000,1000,1000,1000,74928350,1575,1575,1561,1569
47328561,1000,1000,1000,1000,75028310,1576,1574,1558,1564
47331060,1000,1000,1000,1000,75128270,1577,1574,1557,1560
47333559,1000,1000,1000,1000,75228230,1577,1575,1556,1556
47336058,1000,1000,1000,1000,75328190,1578,1577,1557,1555
47338557,1000,1000,1000,1000,75428983,1578,1578,1557,1555
47341056,1000,1000,1000,1000,75528943,1577,1578,1557,1554
47343555,1000,1000,1000,1000,75628903,1576,1579,1557,1555
47346054,1000,1000,1000,1000,75728863,1576,1578,1556,1555
47348553,1000,1000,1000,1000,75828823,1576,1578,1555,1555
47351052,1000,1000,1000,1000,75928783,1577,1578,1554,1555
47353551,1000,1000,1000,1000,76028743,1578,1579,1553,1553
47356050,1000,1000,1000,1000,76128703,1578,1579,1551,1550
47358549,1000,1000,1000,1000,76228663,1580,1580,1549,1548
47361048,1000,1000,1000,1000,76328623,1583,1584,1548,1547
47363547,1000,1000,1000,1000,76428583,1584,1585,1544,1544
47366046,1000,1000,1000,1000,76528543,1587,1588,1542,1541
47368545,1000,1000,1000,1000,76628503,1589,1590,1539,1539
47371044,1000,1000,1000,1000,76728463,1591,1592,1536,1537
47373543,1000,1000,1000,1000,76828423,1594,1595,1536,1538
47376042,1000,1000,1000,1000,76928383,1596,1596,1535,1537
47378541,1000,1000,1000,1000,77028343,1595,1595,1536,1538
47381040,1000,1000,1000,1000,77128303,1595,1593,1540,1543
47383539,1000,1000,1000,1000,77228263,1591,1587,1546,1549
47386038,1000,1000,1000,1000,77328223,1584,1580,1554,1558
47388537,1000,1000,1000,1000,77428183,1574,1571,1565,1568
47391036,1000,1000,1000,1000,77528976,1564,1560,1578,1579
47393535,1000,1000,1000,1000,77628936,1553,1551,1591,1591
47396034,1000,1000,1000,1000,77728896,1544,1544,1601,1599
47398533,1000,1000,1000,1000,77828856,1542,1543,1610,1607
47401032,1000,1000,1000,1000,77928816,1540,1542,1614,1610
47403531,1000,1000,1000,1000,78028776,1541,1543,1615,1611
47406030,1000,1000,1000,1000,78128736,1542,1544,1612,1610
47408529,1000,1000,1000,1000,78228696,1546,1547,1609,1608
47411028,1000,1000,1000,1000,78328656,1549,1549,1604,1604
47413527,1000,1000,1000,1000,78428616,1553,1553,1599,1600
47416026,1000,1000,1000,1000,78528576,1558,1557,1595,1595
47418525,1000,1000,1000,1000,78628536,1562,1563,1590,1591
47421024,1000,1000,1000,1000,78728496,1567,1567,1585,1586
47423523,1000,1000,1000,1000,78828456,1570,1571,1580,1581
47426022,1000,1000,1000,1000,78928416,1575,1574,1575,1576
47428521,1000,1000,1000,1000,79028376,1578,1577,1570,1570
47431020,1000,1000,1000,1000,79128336,1582,1582,1567,1568
47433519,1000,1000,1000,1000,79228296,1585,1584,1564,1565
47436018,1000,1000,1000,1000,79328256,1586,1585,1564,1565
47438517,1000,1000,1000,1000,79428216,1586,1585,1565,1566
47441016,1000,1000,1000,1000,79528176,1584,1583,1566,1566
47443515,1000,1000,1000,1000,79628969,1582,1581,1568,1568
47446014,1000,1000,1000,1000,79728929,1580,1580,1572,1572
47448513,1000,1000,1000,1000,79828889,1579,1579,1576,1576
47451012,1000,1000,1000,1000,79928849,1577,1578,1580,1579
47453511,1000,1000,1000,1000,80028809,1575,1576,1582,1581
47456010,1000,1000,1000,1000,80128769,1573,1574,1584,1582
47458509,1000,1000,1000,1000,80228729,1573,1574,1585,1584
47461008,1000,1000,1000,1000,80328689,1574,1574,1585,1585
47463507,1000,1000,1000,1000,80428649,1576,1576,1586,1586
47466006,1000,1000,1000,1000,80528609,1576,1575,1585,1585
47468505,1000,1000,1000,1000,80628569,1577,1577,1584,1584
47471004,1000,1000,1000,1000,80728529,1577,1577,1582,1582
47473503,1000,1000,1000,1000,80828489,1578,1578,1580,1580
47476002,1000,1000,1000,1000,80928449,1580,1580,1579,1580
47478501,1000,1000,1000,1000,81028409,1580,1580,1578,1578
47481000,1000,1000,1000,1000,81128369,1581,1581,1577,1577
47483499,1000,1000,1000,1000,81228329,1581,1582,1577,1577
47485998,1000,1000,1000,1000,81328289,1582,1582,1577,1578
47488497,1000,1000,1000,1000,81428249,1582,1581,1577,1577
47490996,1000,1000,1000,1000,81528209,1582,1582,1577,1578
47493495,1000,1000,1000,1000,81628169,1581,1581,1578,1578
47495994,1000,1000,1000,1000,81728962,1580,1580,1579,1578
47498493,1000,1000,1000,1000,81828922,1581,1581,1580,1580
47500992,1000,1000,1000,1000,81928882,1581,1581,1581,1581
47503491,1000,1000,1000,1000,82028842,1579,1579,1580,1580
47505990,1000,1000,1000,1000,82128802,1580,1580,1581,1581
47508489,1000,1000,1000,1000,82228762,1579,1579,1581,1582
47510988,1000,1000,1000,1000,82328722,1579,1579,1582,1582
47513487,1000,1000,1000,1000,82428682,1579,1580,1582,1579
47515986,1000,1000,1000,1000,82528642,1579,1580,1587,1572
47518485,1000,1000,1000,1000,82628602,1578,1580,1584,1573
47520984,1000,1000,1000,1000,82728562,1576,1577,1578,1575
47523483,1000,1000,1000,1000,82828522,1573,1573,1572,1576
47525982,1000,1000,1000,1000,82928482,1569,1568,1566,1574
47528481,1000,1000,1000,1000,83028442,1567,1565,1564,1571
47530980,1000,1000,1000,1000,83128402,1566,1565,1563,1569
47533479,1000,1000,1000,1000,83228362,1566,1565,1564,1566
47535978,1000,1000,1000,1000,83328322,1565,1565,1564,1563
47538477,1000,1000,1000,1000,83428282,1566,1567,1566,1563
47540976,1000,1000,1000,1000,83528242,1566,1566,1566,1563
47543475,1000,1000,1000,1000,83628202,1565,1565,1565,1562
47545974,1000,1000,1000,1000,83728162,1564,1564,1563,1563
47548473,1000,1000,1000,1000,83828955,1563,1563,1562,1563
47550972,1000,1000,1000,1000,83928915,1562,1562,1562,1562
47553471,1000,1000,1000,1000,84028875,1561,1561,1561,1562
47555970,1000,1000,1000,1000,84128835,1561,1561,1561,1562
47558469,1000,1000,1000,1000,84228795,1561,1561,1562,1562
47560968,1000,1000,1000,1000,84328755,1560,1560,1561,1560
47563467,1000,1000,1000,1000,84428715,1558,1558,1560,1558
47565966,1000,1000,1000,1000,84528675,1558,1558,1559,1558
47568465,1000,1000,1000,1000,84628635,1558,1558,1559,1558
47570964,1000,1000,1000,1000,84728595,1558,1558,1559,1558
47573463,1000,1000,1000,1000,84828555,1557,1557,1558,1557
47575962,1000,1000,1000,1000,84928515,1557,1557,1558,1556
47578461,1000,1000,1000,1000,85028475,1557,1558,1558,1557
47580960,1000,1000,1000,1000,85128435,1558,1558,1558,1556
47583459,1000,1000,1000,1000,85228395,1558,1558,1558,1557
47585958,1000,1000,1000,1000,85328355,1558,1559,1557,1559
47588457,1000,1000,1000,1000,85428315,1560,1560,1557,1562
47590956,1000,1000,1000,1000,85528275,1561,1560,1557,1563
47593455,1000,1000,1000,1000,85628235,1560,1560,1557,1562
47595954,1000,1000,1000,1000,85728195,1561,1560,1558,1562
47598453,1000,1000,1000,1000,85828155,1561,1561,1560,1560
47600952,1000,1000,1000,1000,85928948,1560,1560,1561,1558
47603451,1000,1000,1000,1000,86028908,1559,1560,1561,1557
47605950,1000,1000,1000,1000,86128868,1558,1559,1558,1560
47608449,1000,1000,1000,1000,86228828,1555,1555,1555,1558
47610948,1000,1000,1000,1000,86328788,1551,1551,1552,1555
47613447,1000,1000,1000,1000,86428748,1545,1545,1547,1548
47615946,1000,1000,1000,1000,86528708,1539,1539,1541,1541
47618445,1000,1000,1000,1000,86628668,1532,1532,1535,1534
47620944,1000,1000,1000,1000,86728628,1525,1524,1528,1527
47623443,1000,1000,1000,1000,86828588,1521,1521,1523,1523
47625942,1000,1000,1000,1000,86928548,1521,1520,1521,1522
47628441,1000,1000,1000,1000,87028508,1520,1521,1520,1521
47630940,1000,1000,1000,1000,87128468,1522,1523,1520,1521
47633439,1000,1000,1000,1000,87228428,1526,1526,1522,1524
47635938,1000,1000,1000,1000,87328388,1531,1531,1526,1527
47638437,1000,1000,1000,1000,87428348,1536,1536,1531,1531
47640936,1000,1000,1000,1000,87528308,1540,1539,1535,1534
47643435,1000,1000,1000,1000,87628268,1542,1542,1539,1537
47645934,1000,1000,1000,1000,87728228,1543,1543,1541,1540
47648433,1000,1000,1000,1000,87828188,1545,1545,1544,1542
47650932,1000,1000,1000,1000,87928981,1544,1544,1545,1544
47653431,1000,1000,1000,1000,88028941,1545,1545,1546,1546
47655930,1000,1000,1000,1000,88128901,1545,1545,1548,1547
47658429,1000,1000,1000,1000,88228861,1545,1546,1548,1548
47660928,1000,1000,1000,1000,88328821,1545,1544,1548,1548
47663427,1000,1000,1000,1000,88428781,1545,1544,1548,1548
47665926,1000,1000,1000,1000,88528741,1544,1544,1547,1547
47668425,1000,1000,1000,1000,88628701,1545,1545,1547,1547
47670924,1000,1000,1000,1000,88728661,1544,1544,1546,1546
47673423,1000,1000,1000,1000,88828621,1545,1546,1546,1546
47675922,1000,1000,1000,1000,88928581,1545,1545,1545,1545
47678421,1000,1000,1000,1000,89028541,1544,1545,1545,1544
47680920,1000,1000,1000,1000,89128501,1545,1545,1544,1544
47683419,1000,1000,1000,1000,89228461,1545,1545,1544,1544
47685918,1000,1000,1000,1000,89328421,1545,1545,1544,1544
47688417,1000,1000,1000,1000,89428381,1545,1546,1544,1544
47690916,1000,1000,1000,1000,89528341,1545,1545,1543,1544
47693415,1000,1000,1000,1000,89628301,1545,1545,1543,1544
47695914,1000,1000,1000,1000,89728261,1544,1544,1544,1543
47698413,1000,1000,1000,1000,89828221,1544,1544,1544,1543
47700912,1000,1000,1000,1000,89928181,1545,1545,1545,1545
47703411,1000,1000,1000,1000,90028974,1544,1544,1544,1544
47705910,1000,1000,1000,1000,90128934,1545,1545,1545,1546
47708409,1000,1000,1000,1000,90228894,1544,1545,1545,1545
47710908,1000,1000,1000,1000,90328854,1544,1544,1545,1545
47713407,1000,1000,1000,1000,90428814,1543,1544,1544,1544
47715906,1000,1000,1000,1000,90528774,1545,1544,1545,1546
47718405,1000,1000,1000,1000,90628734,1545,1544,1545,1545
47720904,1000,1000,1000,1000,90728694,1544,1544,1544,1545
47723403,1000,1000,1000,1000,90828654,1544,1544,1544,1544
47725902,1000,1000,1000,1000,90928614,1544,1544,1544,1544
47728401,1000,1000,1000,1000,91028574,1544,1544,1544,1544
47730900,1000,1000,1000,1000,91128534,1544,1544,1544,1544
47733399,1000,1000,1000,1000,91228494,1544,1544,1544,1544
47735898,1000,1000,1000,1000,91328454,1544,1544,1544,1544
47738397,1000,1000,1000,1000,91428414,1544,1545,1544,1545
47740896,1000,1000,1000,1000,91528374,1544,1544,1544,1544
47743395,1000,1000,1000,1000,91628334,1545,1545,1545,1545
47745894,1000,1000,1000,1000,91728294,1545,1545,1545,1545
47748393,1000,1000,1000,1000,91828254,1545,1545,1545,1545
47750892,1000,1000,1000,1000,91928214,1545,1545,1545,1545
47753391,1000,1000,1000,1000,92028174,1545,1545,1545,1545
47755890,1000,1000,1000,1000,92128967,1545,1544,1545,1545
47758389,1000,1000,1000,1000,92228927,1543,1544,1544,1544
47760888,1000,1000,1000,1000,92328887,1544,1544,1544,1544
47763387,1000,1000,1000,1000,92428847,1544,1544,1544,1544
47765886,1000,1000,1000,1000,92528807,1543,1543,1544,1544
47768385,1000,1000,1000,1000,92628767,1544,1545,1544,1545
47770884,1000,1000,1000,1000,92728727,1544,1544,1544,1544
47773383,1000,1000,1000,1000,92828687,1544,1544,1544,1544
47775882,1000,1000,1000,1000,92928647,1545,1545,1544,1545
47778381,1000,1000,1000,1000,93028607,1544,1544,1544,1544
47780880,1000,1000,1000,1000,93128567,1545,1544,1544,1544
47783379,1000,1000,1000,1000,93228527,1545,1545,1545,1544
47785878,1000,1000,1000,1000,93328487,1544,1544,1544,1544
47788377,1000,1000,1000,1000,93428447,1545,1545,1545,1545
47790876,1000,1000,1000,1000,93528407,1544,1545,1544,1545
47793375,1000,1000,1000,1000,93628367,1544,1544,1544,1544
47795874,1000,1000,1000,1000,93728327,1545,1545,1545,1545
47798373,1000,1000,1000,1000,93828287,1543,1544,1544,1544
47800872,1000,1000,1000,1000,93928247,1544,1544,1544,1544
47803371,1000,1000,1000,1000,94028207,1545,1544,1545,1545
47805870,1000,1000,1000,1000,94128167,1544,1544,1544,1544
47808369,1000,1000,1000,1000,94228960,1543,1543,1544,1544
47810868,1000,1000,1000,1000,94328920,1543,1544,1543,1544
47813367,1000,1000,1000,1000,94428880,1543,1543,1543,1544
47815866,1000,1000,1000,1000,94528840,1544,1543,1543,1544
47818365,1000,1000,1000,1000,94628800,1544,1544,1544,1544
47820864,1000,1000,1000,1000,94728760,1544,1544,1544,1544
47823363,1000,1000,1000,1000,94828720,1544,1544,1544,1544
47825862,1000,1000,1000,1000,94928680,1545,1545,1545,1544
47828361,1000,1000,1000,1000,95028640,1543,1543,1544,1543
47830860,1000,1000,1000,1000,95128600,1544,1544,1544,1544
47833359,1000,1000,1000,1000,95228560,1544,1544,1544,1544
47835858,1000,1000,1000,1000,95328520,1544,1544,1544,1544
47838357,1000,1000,1000,1000,95428480,1544,1544,1544,1545
47840856,1000,1000,1000,1000,95528440,1544,1544,1544,1544
47843355,1000,1000,1000,1000,95628400,1544,1544,1544,1544
47845854,1000,1000,1000,1000,95728360,1544,1544,1544,1544
47848353,1000,1000,1000,1000,95828320,1544,1545,1544,1544
47850852,1000,1000,1000,1000,95928280,1545,1545,1545,1545
47853351,1000,1000,1000,1000,96028240,1545,1545,1545,1545
47855850,1000,1000,1000,1000,96128200,1544,1544,1544,1544
47858349,1000,1000,1000,1000,96228160,1543,1544,1544,1544
47860848,1000,1000,1000,1000,96328953,1544,1544,1544,1544
47863347,1000,1000,1000,1000,96428913,1544,1544,1544,1544
47865846,1000,1000,1000,1000,96528873,1544,1544,1544,1544
47868345,1000,1000,1000,1000,96628833,1373,1373,1428,1372
47870844,1000,1000,1000,1000,96728793,1256,1256,1358,1256
47873343,1000,1000,1000,1000,96828753,1216,1216,1336,1216
47875842,1000,1000,1000,1000,96928713,1196,1194,1325,1195
47878341,1000,1000,1000,1000,97028673,1151,1151,1304,1150
47880840,1000,1000,1000,1000,97128633,1173,1172,1178,1150
47883339,1000,1000,1000,1000,97228593,1168,1167,1119,1150
47885838,1000,1000,1000,1000,97328553,1168,1167,1119,1150
47888337,1000,1000,1000,1000,97428513,1168,1168,1119,1150
47890836,1000,1000,1000,1000,97528473,1167,1151,1129,1150
47893335,1000,1000,1000,1000,97628433,1167,1158,1126,1150
47895834,1000,1000,1000,1000,97728393,1167,1160,1125,1150
47898333,1000,1000,1000,1000,97828353,1167,1160,1125,1150
47900832,1000,1000,1000,1000,97928313,1166,1159,1125,1150
47903331,1000,1000,1000,1000,98028273,1166,1159,1125,1150
47905830,1000,1000,1000,1000,98128233,1166,1158,1126,1150
47908329,1000,1000,1000,1000,98228193,1166,1158,1127,1150
47910828,1000,1000,1000,1000,98328986,1165,1164,1123,1150
47913327,1000,1000,1000,1000,98428946,1165,1163,1124,1150
47915826,1000,1000,1000,1000,98528906,1165,1163,1124,1150
47918325,1000,1000,1000,1000,98628866,1165,1163,1124,1150
47920824,1000,1000,1000,1000,98728826,1156,1155,982,1150
47923323,1000,1000,1000,1000,98828786,1000,1000,1000,1000
47925822,1000,1000,1000,1000,98928746,1000,1000,1000,1000
47928321,1000,1000,1000,1000,99028706,1000,1000,1000,1000
47930820,1000,1000,1000,1000,99128666,1000,1000,1000,1000
47933319,1000,1000,1000,1000,99228626,1000,1000,1000,1000
47935818,1000,1000,1000,1000,99328586,1000,1000,1000,1000
47938317,1000,1000,1000,1000,99428546,1000,1000,1000,1000
47940816,1000,1000,1000,1000,99528506,1000,1000,1000,1000
47943315,1000,1000,1000,1000,99628466,1000,1000,1000,1000
47945814,1000,1000,1000,1000,99728426,1000,1000,1000,1000
47948313,1000,1000,1000,1000,99828386,1000,1000,1000,1000
47950812,1000,1000,1000,1000,99928346,1000,1000,1000,1000
47953311,1000,1000,1000,1000,100028306,1000,1000,1000,1000
47955810,1000,1000,1000,1000,100128266,1000,1000,1000,1000
47958309,1000,1000,1000,1000,100228226,1000,1000,1000,1000
47960808,1000,1000,1000,1000,100328186,1000,1000,1000,1000
47963307,1000,1000,1000,1000,100428979,1000,1000,1000,1000
47965806,1000,1000,1000,1000,100528939,1000,1000,1000,1000
47968305,1000,1000,1000,1000,100628899,1000,1000,1000,1000
47970804,1000,1000,1000,1000,100728859,1000,1000,1000,1000
47973303,1000,1000,1000,1000,100828819,1000,1000,1000,1000
47975802,1000,1000,1000,1000,100928779,1000,1000,1000,1000
47978301,1000,1000,1000,1000,101028739,1000,1000,1000,1000
47980800,1000,1000,1000,1000,101128699,1000,1000,1000,1000
47983299,1000,1000,1000,1000,101228659,1000,1000,1000,1000
47985798,1000,1000,1000,1000,101328619,1000,1000,1000,1000
47988297,1000,1000,1000,1000,101428579,1000,1000,1000,1000
47990796,1000,1000,1000,1000,101528539,1000,1000,1000,1000
47993295,1000,1000,1000,1000,101628499,1000,1000,1000,1000
47995794,1000,1000,1000,1000,101728459,1000,1000,1000,1000
47998293,1000,1000,1000,1000,101828419,1000,1000,1000,1000
48000792,1000,1000,1000,1000,101928379,1000,1000,1000,1000
48003291,1000,1000,1000,1000,102028339,1000,1000,1000,1000
48005790,1000,1000,1000,1000,102128299,1000,1000,1000,1000
48008289,1000,1000,1000,1000,102228259,1000,1000,1000,1000
48010788,1000,1000,1000,1000,102328219,1000,1000,1000,1000
48013287,1000,1000,1000,1000,102428179,1000,1000,1000,1000
48015786,1000,1000,1000,1000,102528972,1000,1000,1000,1000
48018285,1000,1000,1000,1000,102628932,1000,1000,1000,1000
48020784,1000,1000,1000,1000,102728892,1000,1000,1000,1000
48023283,1000,1000,1000,1000,102828852,1000,1000,1000,1000
48025782,1000,1000,1000,1000,102928812,1000,1000,1000,1000
48028281,1000,1000,1000,1000,103028772,1000,1000,1000,1000
48030780,1000,1000,1000,1000,103128732,1000,1000,1000,1000
48033279,1000,1000,1000,1000,103228692,1000,1000,1000,1000
48035778,1000,1000,1000,1000,103328652,1000,1000,1000,1000
48038277,1000,1000,1000,1000,103428612,1000,1000,1000,1000
48040776,1000,1000,1000,1000,103528572,1000,1000,1000,1000
48043275,1000,1000,1000,1000,103628532,1000,1000,1000,1000
48045774,1000,1000,1000,1000,103728492,1000,1000,1000,1000
48048273,1000,1000,1000,1000,103828452,1000,1000,1000,1000
48050772,1000,1000,1000,1000,103928412,1000,1000,1000,1000
48053271,1000,1000,1000,1000,104028372,1000,1000,1000,1000
48055770,1000,1000,1000,1000,104128332,1000,1000,1000,1000
48058269,1000,1000,1000,1000,104228292,1000,1000,1000,1000
48060768,1000,1000,1000,1000,104328252,1000,1000,1000,1000
48063267,1000,1000,1000,1000,104428212,1000,1000,1000,1000
48065766,1000,1000,1000,1000,104528172,1000,1000,1000,1000
48068265,1000,1000,1000,1000,104628965,1000,1000,1000,1000
48070764,1000,1000,1000,1000,104728925,1000,1000,1000,1000
48073263,1000,1000,1000,1000,104828885,1000,1000,1000,1000
48075762,1000,1000,1000,1000,104928845,1000,1000,1000,1000
48078261,1000,1000,1000,1000,105028805,1000,1000,1000,1000
48080760,1000,1000,1000,1000,105128765,1000,1000,1000,1000
48083259,1000,1000,1000,1000,105228725,1000,1000,1000,1000
48085758,1000,1000,1000,1000,105328685,1000,1000,1000,1000
48088257,1000,1000,1000,1000,105428645,1000,1000,1000,1000
48090756,1000,1000,1000,1000,105528605,1000,1000,1000,1000
48093255,1000,1000,1000,1000,105628565,1000,1000,1000,1000
48095754,1000,1000,1000,1000,105728525,1000,1000,1000,1000
48098253,1000,1000,1000,1000,105828485,1000,1000,1000,1000
48100752,1000,1000,1000,1000,105928445,1000,1000,1000,1000
48103251,1000,1000,1000,1000,106028405,1000,1000,1000,1000
48105750,1000,1000,1000,1000,106128365,1000,1000,1000,1000
48108249,1000,1000,1000,1000,106228325,1000,1000,1000,1000
48110748,1000,1000,1000,1000,106328285,1000,1000,1000,1000
48113247,1000,1000,1000,1000,106428245,1000,1000,1000,1000
48115746,1000,1000,1000,1000,106528205,1000,1000,1000,1000
48118245,1000,1000,1000,1000,106628165,1000,1000,1000,1000
48120744,1000,1000,1000,1000,106728958,1000,1000,1000,1000
48123243,1000,1000,1000,1000,106828918,1000,1000,1000,1000
48125742,1000,1000,1000,1000,106928878,1000,1000,1000,1000
48128241,1000,1000,1000,1000,107028838,1000,1000,1000,1000
48130740,1000,1000,1000,1000,107128798,1000,1000,1000,1000
48133239,1000,1000,1000,1000,107228758,1000,1000,1000,1000
48135738,1000,1000,1000,1000,107328718,1000,1000,1000,1000
48138237,1000,1000,1000,1000,107428678,1000,1000,1000,1000
48140736,1000,1000,1000,1000,107528638,1000,1000,1000,1000
48143235,1000,1000,1000,1000,107628598,1000,1000,1000,1000
48145734,1000,1000,1000,1000,107728558,1000,1000,1000,1000
48148233,1000,1000,1000,1000,107828518,1000,1000,1000,1000
48150732,1000,1000,1000,1000,107928478,1000,1000,1000,1000
48153231,1000,1000,1000,1000,108028438,1000,1000,1000,1000
48155730,1000,1000,1000,1000,108128398,1000,1000,1000,1000
48158229,1000,1000,1000,1000,108228358,1000,1000,1000,1000
48160728,1000,1000,1000,1000,108328318,1000,1000,1000,1000
48163227,1000,1000,1000,1000,108428278,1000,1000,1000,1000
48165726,1000,1000,1000,1000,108528238,1000,1000,1000,1000
48168225,1000,1000,1000,1000,108628198,1000,1000,1000,1000
48170724,1000,1000,1000,1000,108728158,1000,1000,1000,1000
48173223,1000,1000,1000,1000,108828951,1000,1000,1000,1000
48175722,1000,1000,1000,1000,108928911,1000,1000,1000,1000
48178221,1000,1000,1000,1000,109028871,1000,1000,1000,1000
48180720,1000,1000,1000,1000,109128831,1000,1000,1000,1000
48183219,1000,1000,1000,1000,109228791,1000,1000,1000,1000
48185718,1000,1000,1000,1000,109328751,1000,1000,1000,1000
48188217,1000,1000,1000,1000,109428711,1000,1000,1000,1000
48190716,1000,1000,1000,1000,109528671,1000,1000,1000,1000
48193215,1000,1000,1000,1000,109628631,1000,1000,1000,1000
48195714,1000,1000,1000,1000,109728591,1000,1000,1000,1000
48198213,1000,1000,1000,1000,109828551,1000,1000,1000,1000
48200712,1000,1000,1000,1000,109928511,1000,1000,1000,1000
48203211,1000,1000,1000,1000,110028471,1000,1000,1000,1000
48205710,1000,1000,1000,1000,110128431,1000,1000,1000,1000
48208209,1000,1000,1000,1000,110228391,1000,1000,1000,1000
48210708,1000,1000,1000,1000,110328351,1000,1000,1000,1000
48213207,1000,1000,1000,1000,110428311,1000,1000,1000,1000
48215706,1000,1000,1000,1000,110528271,1000,1000,1000,1000
48218205,1000,1000,1000,1000,110628231,1000,1000,1000,1000
48220704,1000,1000,1000,1000,110728191,1000,1000,1000,1000
48223203,1000,1000,1000,1000,110828984,1000,1000,1000,1000
48225702,1000,1000,1000,1000,110928944,1000,1000,1000,1000
48228201,1000,1000,1000,1000,111028904,1000,1000,1000,1000
48230700,1000,1000,1000,1000,111128864,1000,1000,1000,1000
48233199,1000,1000,1000,1000,111228824,1000,1000,1000,1000
48235698,1000,1000,1000,1000,111328784,1000,1000,1000,1000
48238197,1000,1000,1000,1000,111428744,1000,1000,1000,1000
48240696,1000,1000,1000,1000,111528704,1000,1000,1000,1000
48243195,1000,1000,1000,1000,111628664,1000,1000,1000,1000
48245694,1000,1000,1000,1000,111728624,1000,1000,1000,1000
48248193,1000,1000,1000,1000,111828584,1000,1000,1000,1000
48250692,1000,1000,1000,1000,111928544,1000,1000,1000,1000
48253191,1000,1000,1000,1000,112028504,1000,1000,1000,1000
48255690,1000,1000,1000,1000,112128464,1000,1000,1000,1000
48258189,1000,1000,1000,1000,112228424,1000,1000,1000,1000
48260688,1000,1000,1000,1000,112328384,1000,1000,1000,1000
48263187,1000,1000,1000,1000,112428344,1000,1000,1000,1000
48265686,1000,1000,1000,1000,112528304,1000,1000,1000,1000
48268185,1000,1000,1000,1000,112628264,1000,1000,1000,1000
48270684,1000,1000,1000,1000,112728224,1000,1000,1000,1000
48273183,1000,1000,1000,1000,112828184,1000,1000,1000,1000
48275682,1000,1000,1000,1000,112928977,1000,1000,1000,1000
48278181,1000,1000,1000,1000,113028937,1000,1000,1000,1000
48280680,1000,1000,1000,1000,113128897,1000,1000,1000,1000
48283179,1000,1000,1000,1000,113228857,1000,1000,1000,1000
48285678,1000,1000,1000,1000,113328817,1000,1000,1000,1000
48288177,1000,1000,1000,1000,113428777,1000,1000,1000,1000
48290676,1000,1000,1000,1000,113528737,1000,1000,1000,1000
48293175,1000,1000,1000,1000,113628697,1000,1000,1000,1000
48295674,1000,1000,1000,1000,113728657,1000,1000,1000,1000
48298173,1000,1000,1000,1000,,,,,
48300672,1000,1000,1000,1000,,,,,
48303171,1000,1000,1000,1000,,,,,
48305670,1000,1000,1000,1000,,,,,
48308169,1000,1000,1000,1000,,,,,
48310668,1000,1000,1000,1000,,,,,
48313167,1000,1000,1000,1000,,,,,
48315666,1000,1000,1000,1000,,,,,
48318165,1000,1000,1000,1000,,,,,
48320664,1000,1000,1000,1000,,,,,
48323163,1000,1000,1000,1000,,,,,
48325662,1000,1000,1000,1000,,,,,
48328161,1000,1000,1000,1000,,,,,
48330660,1000,1000,1000,1000,,,,,
48333159,1000,1000,1000,1000,,,,,
48335658,1000,1000,1000,1000,,,,,
48338157,1000,1000,1000,1000,,,,,
48340656,1000,1000,1000,1000,,,,,
48343155,1000,1000,1000,1000,,,,,
48345654,1000,1000,1000,1000,,,,,
48348986,1000,1000,1000,1000,,,,,
48351485,1000,1000,1000,1000,,,,,
48353984,1000,1000,1000,1000,,,,,
48356483,1000,1000,1000,1000,,,,,
48358982,1000,1000,1000,1000,,,,,
48361481,1000,1000,1000,1000,,,,,
48363980,1000,1000,1000,1000,,,,,
48366479,1000,1000,1000,1000,,,,,
48368978,1000,1000,1000,1000,,,,,
48371477,1000,1000,1000,1000,,,,,
48373976,1000,1000,1000,1000,,,,,
48376475,1000,1000,1000,1000,,,,,
48378974,1000,1000,1000,1000,,,,,
48381473,1000,1000,1000,1000,,,,,
48383972,1000,1000,1000,1000,,,,,
48386471,1000,1000,1000,1000,,,,,
48388970,1000,1000,1000,1000,,,,,
48391469,1000,1000,1000,1000,,,,,
48393968,1000,1000,1000,1000,,,,,
48396467,1000,1000,1000,1000,,,,,
48398966,1000,1000,1000,1000,,,,,
48401465,1000,1000,1000,1000,,,,,
48403964,1000,1000,1000,1000,,,,,
48406463,1000,1000,1000,1000,,,,,
48408962,1000,1000,1000,1000,,,,,
48411461,1000,1000,1000,1000,,,,,
48413960,1000,1000,1000,1000,,,,,
48416459,1000,1000,1000,1000,,,,,
48418958,1000,1000,1000,1000,,,,,
48421457,1000,1000,1000,1000,,,,,
48423956,1000,1000,1000,1000,,,,,
48426455,1000,1000,1000,1000,,,,,
48428954,1000,1000,1000,1000,,,,,
48431453,1000,1000,1000,1000,,,,,
48433952,1000,1000,1000,1000,,,,,
48436451,1000,1000,1000,1000,,,,,
48438950,1000,1000,1000,1000,,,,,
48441449,1000,1000,1000,1000,,,,,
48443948,1000,1000,1000,1000,,,,,
48446447,1000,1000,1000,1000,,,,,
48448946,1000,1000,1000,1000,,,,,
48451445,1000,1000,1000,1000,,,,,
48453944,1000,1000,1000,1000,,,,,
48456443,1000,1000,1000,1000,,,,,
48458942,1000,1000,1000,1000,,,,,
48461441,1000,1000,1000,1000,,,,,
48463940,1000,1000,1000,1000,,,,,
48466439,1000,1000,1000,1000,,,,,
48468938,1000,1000,1000,1000,,,,,
48471437,1000,1000,1000,1000,,,,,
48473936,1000,1000,1000,1000,,,,,
48476435,1000,1000,1000,1000,,,,,
48478934,1000,1000,1000,1000,,,,,
48481433,1000,1000,1000,1000,,,,,
48483932,1000,1000,1000,1000,,,,,
48486431,1000,1000,1000,1000,,,,,
48488930,1000,1000,1000,1000,,,,,
48491429,1000,1000,1000,1000,,,,,
48493928,1000,1000,1000,1000,,,,,
48496427,1000,1000,1000,1000,,,,,
48498926,1000,1000,1000,1000,,,,,
48501425,1000,1000,1000,1000,,,,,
48503924,1000,1000,1000,1000,,,,,
48506423,1000,1000,1000,1000,,,,,
48508922,1000,1000,1000,1000,,,,,
48511421,1000,1000,1000,1000,,,,,
48513920,1000,1000,1000,1000,,,,,
48516419,1000,1000,1000,1000,,,,,
48518918,1000,1000,1000,1000,,,,,
48521417,1000,1000,1000,1000,,,,,
48523916,1000,1000,1000,1000,,,,,
48526415,1000,1000,1000,1000,,,,,
48528914,1000,1000,1000,1000,,,,,
48531413,1000,1000,1000,1000,,,,,
48533912,1000,1000,1000,1000,,,,,
48536411,1000,1000,1000,1000,,,,,
48538910,1000,1000,1000,1000,,,,,
48541409,1000,1000,1000,1000,,,,,
48543908,1000,1000,1000,1000,,,,,
48546407,1000,1000,1000,1000,,,,,
48548906,1000,1000,1000,1000,,,,,
48551405,1000,1000,1000,1000,,,,,
48553904,1000,1000,1000,1000,,,,,
48556403,1000,1000,1000,1000,,,,,
48558902,1000,1000,1000,1000,,,,,
48561401,1000,1000,1000,1000,,,,,
48563900,1000,1000,1000,1000,,,,,
48566399,1000,1000,1000,1000,,,,,
48568898,1000,1000,1000,1000,,,,,
48571397,1000,1000,1000,1000,,,,,
48573896,1000,1000,1000,1000,,,,,
48576395,1000,1000,1000,1000,,,,,
48578894,1000,1000,1000,1000,,,,,
48581393,1000,1000,1000,1000,,,,,
48583892,1000,1000,1000,1000,,,,,
48586391,1000,1000,1000,1000,,,,,
48588890,1000,1000,1000,1000,,,,,
48591389,1000,1000,1000,1000,,,,,
48593888,1000,1000,1000,1000,,,,,
48596387,1000,1000,1000,1000,,,,,
48598886,1000,1000,1000,1000,,,,,
48601385,1000,1000,1000,1000,,,,,
48603884,1000,1000,1000,1000,,,,,
48606383,1000,1000,1000,1000,,,,,
48608882,1000,1000,1000,1000,,,,,
48611381,1000,1000,1000,1000,,,,,
48613880,1000,1000,1000,1000,,,,,
48616379,1000,1000,1000,1000,,,,,
48618878,1000,1000,1000,1000,,,,,
48621377,1000,1000,1000,1000,,,,,
48623876,1000,1000,1000,1000,,,,,
48626375,1001,1001,1001,1001,,,,,
48628874,1002,1002,1002,1002,,,,,
48631373,1003,1003,1003,1003,,,,,
48633872,1003,1003,1003,1003,,,,,
48636371,1004,1004,1004,1004,,,,,
48638870,1005,1005,1005,1005,,,,,
48641369,1006,1006,1006,1006,,,,,
48643868,1006,1006,1006,1006,,,,,
48646367,1007,1007,1007,1007,,,,,
48648866,1008,1008,1008,1008,,,,,
48651365,1009,1009,1009,1009,,,,,
48653864,1009,1009,1009,1009,,,,,
48656363,1010,1010,1010,1010,,,,,
48658862,1011,1011,1011,1011,,,,,
48661361,1012,1012,1012,1012,,,,,
48663860,1012,1012,1012,1012,,,,,
48666359,1013,1013,1013,1013,,,,,
48668858,1014,1014,1014,1014,,,,,
48671357,1015,1015,1015,1015,,,,,
48673856,1015,1015,1015,1015,,,,,
48676355,1016,1016,1016,1016,,,,,
48678854,1017,1017,1017,1017,,,,,
48681353,1018,1018,1018,1018,,,,,
48683852,1018,1018,1018,1018,,,,,
48686351,1019,1019,1019,1019,,,,,
48688850,1020,1020,1020,1020,,,,,
48691349,1021,1021,1021,1021,,,,,
48693848,1021,1021,1021,1021,,,,,
48696347,1022,1022,1022,1022,,,,,
48698846,1023,1023,1023,1023,,,,,
48701345,1024,1024,1024,1024,,,,,
48703844,1024,1024,1024,1024,,,,,
48706343,1025,1025,1025,1025,,,,,
48708842,1026,1026,1026,1026,,,,,
48711341,1027,1027,1027,1027,,,,,
48713840,1027,1027,1027,1027,,,,,
48716339,1028,1028,1028,1028,,,,,
48718838,1029,1029,1029,1029,,,,,
48721337,1030,1030,1030,1030,,,,,
48723836,1030,1030,1030,1030,,,,,
48726335,1031,1031,1031,1031,,,,,
48728834,1032,1032,1032,1032,,,,,
48731333,1033,1033,1033,1033,,,,,
48733832,1033,1033,1033,1033,,,,,
48736331,1034,1034,1034,1034,,,,,
48738830,1035,1035,1035,1035,,,,,
48741329,1036,1036,1036,1036,,,,,
48743828,1036,1036,1036,1036,,,,,
48746327,1037,1037,1037,1037,,,,,
48748826,1038,1038,1038,1038,,,,,
48751325,1039,1039,1039,1039,,,,,
48753824,1039,1039,1039,1039,,,,,
48756323,1040,1040,1040,1040,,,,,
48758822,1041,1041,1041,1041,,,,,
48761321,1042,1042,1042,1042,,,,,
48763820,1042,1042,1042,1042,,,,,
48766319,1043,1043,1043,1043,,,,,
48768818,1044,1044,1044,1044,,,,,
48771317,1045,1045,1045,1045,,,,,
48773816,1045,1045,1045,1045,,,,,
48776315,1046,1046,1046,1046,,,,,
48778814,1047,1047,1047,1047,,,,,
48781313,1048,1048,1048,1048,,,,,
48783812,1048,1048,1048,1048,,,,,
48786311,1049,1049,1049,1049,,,,,
48788810,1050,1050,1050,1050,,,,,
48791309,1051,1051,1051,1051,,,,,
48793808,1051,1051,1051,1051,,,,,
48796307,1052,1052,1052,1052,,,,,
48798806,1053,1053,1053,1053,,,,,
48801305,1054,1054,1054,1054,,,,,
48803804,1054,1054,1054,1054,,,,,
48806303,1055,1055,1055,1055,,,,,
48808802,1056,1056,1056,1056,,,,,
48811301,1057,1057,1057,1057,,,,,
48813800,1057,1057,1057,1057,,,,,
48816299,1058,1058,1058,1058,,,,,
48818798,1059,1059,1059,1059,,,,,
48821297,1060,1060,1060,1060,,,,,
48823796,1060,1060,1060,1060,,,,,
48826295,1061,1061,1061,1061,,,,,
48828794,1062,1062,1062,1062,,,,,
48831293,1063,1063,1063,1063,,,,,
48833792,1063,1063,1063,1063,,,,,
48836291,1064,1064,1064,1064,,,,,
48838790,1065,1065,1065,1065,,,,,
48841289,1066,1066,1066,1066,,,,,
48843788,1066,1066,1066,1066,,,,,
48846287,1067,1067,1067,1067,,,,,
48848786,1068,1068,1068,1068,,,,,
48851285,1069,1069,1069,1069,,,,,
48853784,1069,1069,1069,1069,,,,,
48856283,1070,1070,1070,1070,,,,,
48858782,1071,1071,1071,1071,,,,,
48861281,1072,1072,1072,1072,,,,,
48863780,1072,1072,1072,1072,,,,,
48866279,1073,1073,1073,1073,,,,,
48868778,1074,1074,1074,1074,,,,,
48871277,1075,1075,1075,1075,,,,,
48873776,1075,1075,1075,1075,,,,,
48876275,1076,1076,1076,1076,,,,,
48878774,1077,1077,1077,1077,,,,,
48881273,1078,1078,1078,1078,,,,,
48883772,1078,1078,1078,1078,,,,,
48886271,1079,1079,1079,1079,,,,,
48888770,1080,1080,1080,1080,,,,,
48891269,1081,1081,1081,1081,,,,,
48893768,1081,1081,1081,1081,,,,,
48896267,1082,1082,1082,1082,,,,,
48898766,1083,1083,1083,1083,,,,,
48901265,1084,1084,1084,1084,,,,,
48903764,1084,1084,1084,1084,,,,,
48906263,1085,1085,1085,1085,,,,,
48908762,1086,1086,1086,1086,,,,,
48911261,1087,1087,1087,1087,,,,,
48913760,1087,1087,1087,1087,,,,,
48916259,1088,1088,1088,1088,,,,,
48918758,1089,1089,1089,1089,,,,,
48921257,1090,1090,1090,1090,,,,,
48923756,1090,1090,1090,1090,,,,,
48926255,1091,1091,1091,1091,,,,,
48928754,1092,1092,1092,1092,,,,,
48931253,1093,1093,1093,1093,,,,,
48933752,1093,1093,1093,1093,,,,,
48936251,1094,1094,1094,1094,,,,,
48938750,1095,1095,1095,1095,,,,,
48941249,1096,1096,1096,1096,,,,,
48943748,1096,1096,1096,1096,,,,,
48946247,1097,1097,1097,1097,,,,,
48948746,1098,1098,1098,1098,,,,,
48951245,1099,1099,1099,1099,,,,,
48953744,1099,1099,1099,1099,,,,,
48956243,1100,1100,1100,1100,,,,,
48958742,1101,1101,1101,1101,,,,,
48961241,1101,1101,1101,1101,,,,,
48963740,1102,1102,1102,1102,,,,,
48966239,1103,1103,1103,1103,,,,,
48968738,1104,1104,1104,1104,,,,,
48971237,1104,1104,1104,1104,,,,,
48973736,1105,1105,1105,1105,,,,,
48976235,1106,1106,1106,1106,,,,,
48978734,1107,1107,1107,1107,,,,,
48981233,1107,1107,1107,1107,,,,,
48983732,1108,1108,1108,1108,,,,,
48986231,1109,1109,1109,1109,,,,,
48988730,1110,1110,1110,1110,,,,,
48991229,1110,1110,1110,1110,,,,,
48993728,1111,1111,1111,1111,,,,,
48996227,1112,1112,1112,1112,,,,,
48998726,1113,1113,1113,1113,,,,,
49001225,1113,1113,1113,1113,,,,,
49003724,1114,1114,1114,1114,,,,,
49006223,1115,1115,1115,1115,,,,,
49008722,1116,1116,1116,1116,,,,,
49011221,1116,1116,1116,1116,,,,,
49013720,1117,1117,1117,1117,,,,,
49016219,1118,1118,1118,1118,,,,,
49018718,1119,1119,1119,1119,,,,,
49021217,1119,1119,1119,1119,,,,,
49023716,1120,1120,1120,1120,,,,,
49026215,1121,1121,1121,1121,,,,,
49028714,1122,1122,1122,1122,,,,,
49031213,1122,1122,1122,1122,,,,,
49033712,1123,1123,1123,1123,,,,,
49036211,1124,1124,1124,1124,,,,,
49038710,1125,1125,1125,1125,,,,,
49041209,1125,1125,1125,1125,,,,,
49043708,1126,1126,1126,1126,,,,,
49046207,1127,1127,1127,1127,,,,,
49048706,1128,1128,1128,1128,,,,,
49051205,1128,1128,1128,1128,,,,,
49053704,1129,1129,1129,1129,,,,,
49056203,1130,1130,1130,1130,,,,,
49058702,1131,1131,1131,1131,,,,,
49061201,1131,1131,1131,1131,,,,,
49063700,1132,1132,1132,1132,,,,,
49066199,1133,1133,1133,1133,,,,,
49068698,1134,1134,1134,1134,,,,,
49071197,1134,1134,1134,1134,,,,,
49073696,1135,1135,1135,1135,,,,,
49076195,1136,1136,1136,1136,,,,,
49078694,1137,1137,1137,1137,,,,,
49081193,1137,1137,1137,1137,,,,,
49083692,1138,1138,1138,1138,,,,,
49086191,1139,1139,1139,1139,,,,,
49088690,1140,1140,1140,1140,,,,,
49091189,1140,1140,1140,1140,,,,,
49093688,1141,1141,1141,1141,,,,,
49096187,1142,1142,1142,1142,,,,,
49098686,1143,1143,1143,1143,,,,,
49101185,1143,1143,1143,1143,,,,,
49103684,1144,1144,1144,1144,,,,,
49106183,1145,1145,1145,1145,,,,,
49108682,1146,1146,1146,1146,,,,,
49111181,1146,1146,1146,1146,,,,,
49113680,1147,1147,1147,1147,,,,,
49116179,1148,1148,1148,1148,,,,,
49118678,1149,1149,1149,1149,,,,,
49121177,1149,1149,1149,1149,,,,,
49123676,1150,1150,1150,1150,,,,,
49126175,1161,1154,1154,1161,,,,,
49128674,1169,1162,1163,1169,,,,,
49131173,1177,1170,1170,1177,,,,,
49133672,1184,1178,1178,1185,,,,,
49136171,1192,1186,1186,1193,,,,,
49138670,1199,1193,1194,1200,,,,,
49141169,1207,1201,1201,1207,,,,,
49143668,1214,1208,1208,1214,,,,,
49146167,1221,1215,1215,1222,,,,,
49148666,1228,1222,1222,1229,,,,,
49151165,1235,1229,1229,1235,,,,,
49153664,1242,1236,1236,1242,,,,,
49156163,1248,1243,1243,1249,,,,,
49158662,1255,1249,1250,1256,,,,,
49161161,1262,1256,1256,1262,,,,,
49163660,1268,1263,1263,1268,,,,,
49166159,1274,1269,1269,1275,,,,,
49168658,1281,1275,1276,1281,,,,,
49171157,1287,1282,1282,1287,,,,,
49173656,1293,1288,1288,1293,,,,,
49176155,1299,1294,1294,1300,,,,,
49178654,1305,1300,1300,1306,,,,,
49181153,1311,1306,1306,1311,,,,,
49183652,1317,1312,1312,1317,,,,,
49186151,1323,1318,1318,1323,,,,,
49188650,1329,1324,1324,1329,,,,,
49191149,1334,1329,1330,1335,,,,,
49193648,1340,1335,1335,1340,,,,,
49196147,1345,1341,1341,1346,,,,,
49198646,1351,1346,1347,1351,,,,,
49201145,1357,1352,1352,1357,,,,,
49203644,1362,1357,1358,1362,,,,,
49206143,1367,1363,1363,1368,,,,,
49208642,1373,1368,1368,1373,,,,,
49211141,1378,1373,1374,1378,,,,,
49213640,1383,1379,1379,1384,,,,,
49216139,1389,1384,1384,1389,,,,,
49218638,1394,1389,1389,1394,,,,,
49221137,1399,1394,1395,1399,,,,,
49223636,1404,1399,1400,1404,,,,,
49226135,1409,1405,1405,1409,,,,,
49228634,1414,1410,1410,1414,,,,,
49231133,1419,1415,1415,1419,,,,,
49233632,1424,1420,1420,1424,,,,,
49236131,1429,1424,1425,1429,,,,,
49238630,1434,1429,1430,1434,,,,,
49241129,1439,1434,1434,1439,,,,,
49243628,1443,1439,1439,1444,,,,,
49246127,1448,1444,1444,1449,,,,,
49248626,1453,1449,1449,1453,,,,,
49251125,1458,1453,1454,1458,,,,,
49253624,1462,1458,1458,1463,,,,,
49256123,1467,1463,1463,1467,,,,,
49258622,1472,1467,1468,1472,,,,,
49261121,1476,1472,1472,1476,,,,,
49263620,1481,1476,1477,1481,,,,,
49266119,1485,1481,1481,1486,,,,,
49268618,1490,1486,1486,1490,,,,,
49271117,1494,1490,1490,1495,,,,,
49273616,1499,1494,1495,1499,,,,,
49276115,1503,1499,1499,1503,,,,,
49278614,1508,1503,1504,1508,,,,,
49281113,1512,1508,1508,1512,,,,,
49283612,1516,1512,1512,1517,,,,,
49286111,1521,1516,1517,1521,,,,,
49288610,1525,1521,1521,1525,,,,,
49291109,1529,1525,1525,1529,,,,,
49293608,1533,1529,1529,1534,,,,,
49296107,1538,1533,1534,1538,,,,,
49298606,1542,1538,1538,1542,,,,,
49301105,1546,1542,1542,1546,,,,,
49303604,1550,1546,1546,1551,,,,,
49306103,1554,1550,1550,1555,,,,,
49308602,1558,1554,1554,1559,,,,,
49311101,1563,1558,1559,1563,,,,,
49313600,1567,1562,1563,1567,,,,,
49316099,1571,1567,1567,1571,,,,,
49318598,1575,1571,1571,1575,,,,,
49321097,1579,1575,1575,1579,,,,,
49323596,1583,1579,1579,1583,,,,,
49326095,1587,1583,1583,1587,,,,,
49328594,1591,1587,1587,1591,,,,,
49331093,1595,1591,1591,1595,,,,,
49333592,1599,1595,1595,1599,,,,,
49336091,1602,1598,1599,1603,,,,,
49338590,1606,1602,1602,1607,,,,,
49341089,1610,1606,1606,1611,,,,,
49343588,1614,1610,1610,1614,,,,,
49346087,1618,1614,1614,1618,,,,,
49348586,1622,1618,1618,1622,,,,,
49351085,1625,1622,1622,1626,,,,,
49353584,1629,1625,1625,1630,,,,,
49356083,1633,1629,1629,1633,,,,,
49358582,1637,1633,1633,1637,,,,,
49361081,1640,1637,1637,1641,,,,,
49363580,1644,1640,1640,1645,,,,,
49366079,1648,1644,1644,1648,,,,,
49368578,1652,1648,1648,1652,,,,,
49371077,1655,1652,1652,1656,,,,,
49373576,1659,1655,1655,1659,,,,,
49376075,1663,1659,1659,1663,,,,,
49378574,1666,1662,1663,1667,,,,,
49381073,1670,1666,1666,1670,,,,,
49383572,1673,1670,1670,1674,,,,,
49386071,1677,1673,1673,1677,,,,,
49388570,1681,1677,1677,1681,,,,,
49391069,1684,1680,1681,1685,,,,,
49393568,1688,1684,1684,1688,,,,,
49396067,1691,1688,1688,1692,,,,,
49398566,1695,1691,1691,1695,,,,,
49401065,1698,1695,1695,1699,,,,,
49403564,1702,1698,1698,1702,,,,,
49406063,1705,1702,1702,1706,,,,,
49408562,1709,1705,1705,1709,,,,,
49411061,1712,1708,1709,1713,,,,,
49413560,1716,1712,1712,1716,,,,,
49416059,1719,1715,1715,1719,,,,,
49418558,1723,1719,1719,1723,,,,,
49421057,1726,1722,1722,1726,,,,,
49423556,1729,1726,1726,1730,,,,,
49426055,1733,1729,1729,1733,,,,,
49428554,1736,1732,1733,1736,,,,,
49431053,1740,1736,1736,1740,,,,,
49433552,1743,1739,1739,1743,,,,,
49436051,1746,1742,1743,1746,,,,,
49438550,1750,1746,1746,1750,,,,,
49441049,1753,1749,1749,1753,,,,,
49443548,1756,1752,1753,1756,,,,,
49446047,1759,1756,1756,1760,,,,,
49448546,1763,1759,1759,1763,,,,,
49451045,1766,1762,1762,1766,,,,,
49453544,1769,1765,1766,1770,,,,,
49456043,1773,1769,1769,1773,,,,,
49458542,1776,1772,1772,1776,,,,,
49461041,1779,1775,1775,1779,,,,,
49463540,1782,1778,1779,1782,,,,,
49466039,1785,1782,1782,1786,,,,,
49468538,1789,1785,1785,1789,,,,,
49471037,1792,1788,1788,1792,,,,,
49473536,1795,1791,1791,1795,,,,,
49476035,1798,1794,1795,1798,,,,,
49478534,1801,1798,1798,1802,,,,,
49481033,1805,1801,1801,1805,,,,,
49483532,1808,1804,1804,1808,,,,,
49486031,1811,1807,1807,1811,,,,,
49488530,1814,1810,1810,1814,,,,,
49491029,1817,1813,1813,1817,,,,,
49493528,1820,1816,1817,1820,,,,,
49496027,1823,1819,1820,1824,,,,,
49498526,1826,1823,1823,1827,,,,,
49501025,1830,1826,1826,1830,,,,,
49503524,1833,1829,1829,1833,,,,,
49506023,1836,1832,1832,1836,,,,,
49508522,1839,1835,1835,1839,,,,,
49511021,1842,1838,1838,1842,,,,,
49513520,1845,1841,1841,1845,,,,,
49516019,1848,1844,1844,1848,,,,,
49518518,1851,1847,1847,1851,,,,,
49521017,1854,1850,1850,1854,,,,,
49523516,1857,1853,1853,1857,,,,,
49526015,1860,1856,1856,1860,,,,,
49528514,1863,1859,1859,1863,,,,,
49531013,1866,1862,1862,1866,,,,,
49533512,1869,1865,1865,1869,,,,,
49536011,1872,1868,1868,1872,,,,,
49538510,1875,1871,1871,1875,,,,,
49541009,1878,1874,1874,1878,,,,,
49543508,1881,1876,1877,1881,,,,,
49546007,1884,1879,1880,1884,,,,,
49548506,1887,1882,1883,1887,,,,,
49551005,1890,1885,1886,1890,,,,,
49553504,1893,1888,1889,1893,,,,,
49556003,1896,1891,1892,1895,,,,,
49558502,1898,1894,1894,1898,,,,,
49561001,1900,1896,1896,1900,,,,,
49563500,1899,1895,1895,1899,,,,,
49565999,1898,1894,1894,1898,,,,,
49568498,1898,1893,1894,1898,,,,,
49570997,1897,1892,1893,1897,,,,,
49573496,1896,1891,1892,1896,,,,,
49575995,1895,1891,1891,1895,,,,,
49578494,1894,1890,1890,1894,,,,,
49580993,1894,1889,1889,1894,,,,,
49583492,1893,1888,1889,1893,,,,,
49585991,1892,1888,1888,1892,,,,,
49588490,1892,1887,1888,1892,,,,,
49590989,1891,1887,1887,1891,,,,,
49593488,1891,1886,1887,1891,,,,,
49595987,1891,1886,1886,1891,,,,,
49598486,1890,1886,1886,1890,,,,,
49600985,1890,1885,1886,1890,,,,,
49603484,1890,1885,1886,1890,,,,,
49605983,1890,1885,1886,1890,,,,,
49608482,1890,1885,1886,1890,,,,,
49610981,1890,1885,1886,1890,,,,,
49613480,1890,1886,1886,1890,,,,,
49615979,1890,1886,1886,1890,,,,,
49618478,1890,1886,1887,1890,,,,,
49620977,1891,1886,1887,1890,,,,,
49623476,1891,1887,1887,1891,,,,,
49625975,1891,1887,1888,1891,,,,,
49628474,1891,1887,1888,1891,,,,,
49630973,1891,1887,1888,1890,,,,,
49633472,1891,1887,1888,1890,,,,,
49635971,1890,1887,1888,1890,,,,,
49638470,1890,1886,1887,1890,,,,,
49640969,1889,1886,1887,1889,,,,,
49643468,1889,1885,1886,1888,,,,,
49645967,1888,1885,1885,1887,,,,,
49648466,1887,1883,1884,1886,,,,,
49650965,1885,1882,1883,1885,,,,,
49653464,1884,1881,1882,1884,,,,,
49655963,1883,1880,1880,1882,,,,,
49658462,1881,1878,1879,1881,,,,,
49660961,1879,1876,1877,1879,,,,,
49663460,1877,1874,1875,1877,,,,,
49665959,1875,1872,1873,1875,,,,,
49668458,1873,1870,1871,1873,,,,,
49670957,1871,1868,1869,1870,,,,,
49673456,1868,1866,1866,1868,,,,,
49675955,1866,1863,1864,1866,,,,,
49678454,1863,1861,1861,1863,,,,,
49680953,1860,1858,1859,1860,,,,,
49683452,1858,1856,1856,1858,,,,,
49685951,1855,1853,1853,1855,,,,,
49688450,1852,1850,1851,1852,,,,,
49690949,1849,1848,1848,1849,,,,,
49693448,1846,1845,1845,1846,,,,,
49695947,1843,1842,1842,1844,,,,,
49698446,1840,1839,1839,1841,,,,,
49700945,1837,1836,1836,1837,,,,,
49703444,1834,1833,1833,1834,,,,,
49705943,1831,1830,1830,1831,,,,,
49708442,1828,1826,1826,1828,,,,,
49710941,1824,1823,1823,1825,,,,,
49713440,1821,1820,1820,1822,,,,,
49715939,1818,1817,1817,1818,,,,,
49718438,1815,1814,1814,1815,,,,,
49720937,1811,1810,1810,1812,,,,,
49723436,1808,1807,1807,1808,,,,,
49725935,1805,1804,1804,1805,,,,,
49728434,1801,1800,1800,1802,,,,,
49730933,1798,1797,1797,1798,,,,,
49733432,1795,1794,1794,1795,,,,,
49735931,1791,1791,1791,1792,,,,,
49738430,1788,1787,1787,1788,,,,,
49740929,1784,1784,1784,1785,,,,,
49743428,1781,1781,1781,1782,,,,,
49745927,1778,1777,1777,1778,,,,,
49748426,1774,1774,1774,1775,,,,,
49750925,1771,1771,1771,1772,,,,,
49753424,1768,1768,1768,1768,,,,,
49755923,1765,1765,1764,1765,,,,,
49758422,1761,1761,1761,1762,,,,,
49760921,1758,1758,1758,1759,,,,,
49763420,1755,1755,1755,1755,,,,,
49765919,1752,1752,1752,1752,,,,,
49768418,1748,1749,1749,1749,,,,,
49770917,1745,1746,1746,1746,,,,,
49773416,1742,1743,1742,1743,,,,,
49775915,1739,1740,1739,1740,,,,,
49778414,1736,1737,1736,1737,,,,,
49780913,1733,1734,1733,1734,,,,,
49783412,1730,1731,1730,1731,,,,,
49785911,1727,1728,1728,1728,,,,,
49788410,1724,1725,1725,1725,,,,,
49790909,1721,1722,1722,1722,,,,,
49793408,1718,1719,1719,1719,,,,,
49795907,1716,1716,1716,1716,,,,,
49798406,1713,1713,1713,1713,,,,,
49800905,1710,1711,1711,1710,,,,,
49803404,1707,1708,1708,1708,,,,,
49805903,1705,1705,1705,1705,,,,,
49808402,1702,1703,1703,1702,,,,,
49810901,1700,1700,1700,1700,,,,,
49813400,1697,1698,1698,1697,,,,,
49815899,1695,1696,1696,1695,,,,,
49818398,1692,1693,1693,1693,,,,,
49820897,1690,1691,1691,1690,,,,,
49823396,1688,1689,1689,1688,,,,,
49825895,1686,1686,1687,1686,,,,,
49828394,1683,1684,1684,1684,,,,,
