TimeUS,M1,M2,M3,M4,TimeUS,C1,C2,C3,C4
434196252,1000,1000,1000,1000,434208747,1000,1000,1000,1000
434198751,1000,1000,1000,1000,434308707,1000,1000,1000,1000
434201250,1000,1000,1000,1000,434408667,1000,1000,1000,1000
434203749,1000,1000,1000,1000,434508627,1000,1000,1000,1000
434206248,1000,1000,1000,1000,434608587,1000,1000,1000,1000
434208747,1000,1000,1000,1000,434708547,1000,1000,1000,1000
434211246,1000,1000,1000,1000,434808507,1000,1000,1000,1000
434213745,1000,1000,1000,1000,434908467,1000,1000,1000,1000
434216244,1000,1000,1000,1000,435008427,1000,1000,1000,1000
434218743,1000,1000,1000,1000,435108387,1000,1000,1000,1000
434221242,1000,1000,1000,1000,435208347,1000,1000,1000,1000
434223741,1000,1000,1000,1000,435308307,1000,1000,1000,1000
434226240,1000,1000,1000,1000,435408267,1000,1000,1000,1000
434228739,1000,1000,1000,1000,435508227,1000,1000,1000,1000
434231238,1000,1000,1000,1000,435608187,1000,1000,1000,1000
434233737,1000,1000,1000,1000,435708980,1000,1000,1000,1000
434236236,1000,1000,1000,1000,435808940,1000,1000,1000,1000
434238735,1000,1000,1000,1000,435908900,1000,1000,1000,1000
434241234,1000,1000,1000,1000,436008860,1000,1000,1000,1000
434243733,1000,1000,1000,1000,436108820,1000,1000,1000,1000
434246232,1000,1000,1000,1000,436208780,1003,1003,1003,1003
434248731,1000,1000,1000,1000,436308740,1033,1033,1033,1033
434251230,1000,1000,1000,1000,436408700,1063,1063,1063,1063
434253729,1000,1000,1000,1000,436508660,1093,1093,1093,1093
434256228,1000,1000,1000,1000,436608620,1100,1100,1100,1100
434258727,1000,1000,1000,1000,436708580,1100,1100,1100,1100
434261226,1000,1000,1000,1000,436808540,1100,1100,1100,1100
434263725,1000,1000,1000,1000,436908500,1100,1100,1100,1100
434266224,1000,1000,1000,1000,437008460,1100,1100,1100,1100
434268723,1000,1000,1000,1000,437108420,1100,1100,1100,1100
434271222,1000,1000,1000,1000,437208380,1100,1100,1100,1100
434273721,1000,1000,1000,1000,437308340,1100,1100,1100,1100
434276220,1000,1000,1000,1000,437408300,1100,1100,1100,1100
434278719,1000,1000,1000,1000,437508260,1100,1100,1100,1100
434281218,1000,1000,1000,1000,437608220,1100,1100,1100,1100
434283717,1000,1000,1000,1000,437708180,1100,1100,1100,1100
434286216,1000,1000,1000,1000,437808973,1100,1100,1100,1100
434288715,1000,1000,1000,1000,437908933,1100,1100,1100,1100
434291214,1000,1000,1000,1000,438008893,1100,1100,1100,1100
434293713,1000,1000,1000,1000,438108853,1100,1100,1100,1100
434296212,1000,1000,1000,1000,438208813,1100,1100,1100,1100
434298711,1000,1000,1000,1000,438308773,1100,1100,1100,1100
434301210,1000,1000,1000,1000,438408733,1100,1100,1100,1100
434303709,1000,1000,1000,1000,438508693,1100,1100,1100,1100
434306208,1000,1000,1000,1000,438608653,1100,1100,1100,1100
434308707,1000,1000,1000,1000,438708613,1100,1100,1100,1100
434311206,1000,1000,1000,1000,438808573,1100,1100,1100,1100
434313705,1000,1000,1000,1000,438908533,1100,1100,1100,1100
434316204,1000,1000,1000,1000,439008493,1100,1100,1100,1100
434318703,1000,1000,1000,1000,439108453,1100,1100,1100,1100
434321202,1000,1000,1000,1000,439208413,1100,1100,1100,1100
434323701,1000,1000,1000,1000,439308373,1100,1100,1100,1100
434326200,1000,1000,1000,1000,439408333,1100,1100,1100,1100
434328699,1000,1000,1000,1000,439508293,1100,1100,1100,1100
434331198,1000,1000,1000,1000,439608253,1100,1100,1100,1100
434333697,1000,1000,1000,1000,439708213,1100,1100,1100,1100
434336196,1000,1000,1000,1000,439808173,1100,1100,1100,1100
434338695,1000,1000,1000,1000,439908966,1100,1100,1100,1100
434341194,1000,1000,1000,1000,440008926,1100,1100,1100,1100
434343693,1000,1000,1000,1000,440108886,1100,1100,1100,1100
434346192,1000,1000,1000,1000,440208846,1100,1100,1100,1100
434348691,1000,1000,1000,1000,440308806,1100,1100,1100,1100
434351190,1000,1000,1000,1000,440408766,1100,1100,1100,1100
434353689,1000,1000,1000,1000,440508726,1100,1100,1100,1100
434356188,1000,1000,1000,1000,440608686,1100,1100,1100,1100
434358687,1000,1000,1000,1000,440708646,1100,1100,1100,1100
434361186,1000,1000,1000,1000,440808606,1100,1100,1100,1100
434363685,1000,1000,1000,1000,440908566,1100,1100,1100,1100
434366184,1000,1000,1000,1000,441008526,1100,1100,1100,1100
434368683,1000,1000,1000,1000,441108486,1100,1100,1100,1100
434371182,1000,1000,1000,1000,441208446,1124,1124,1124,1124
434373681,1000,1000,1000,1000,441308406,1168,1177,1176,1168
434376180,1000,1000,1000,1000,441408366,1193,1203,1202,1193
434378679,1000,1000,1000,1000,441508326,1227,1237,1236,1227
434381178,1000,1000,1000,1000,441608286,1270,1280,1279,1270
434383677,1000,1000,1000,1000,441708246,1319,1329,1328,1318
434386176,1000,1000,1000,1000,441808206,1367,1378,1377,1367
434388675,1000,1000,1000,1000,441908166,1418,1429,1428,1418
434391174,1000,1000,1000,1000,442008959,1470,1481,1480,1470
434393673,1000,1000,1000,1000,442108919,1523,1534,1533,1523
434396172,1000,1000,1000,1000,442208879,1575,1587,1585,1575
434398671,1000,1000,1000,1000,442308839,1610,1621,1620,1609
434401170,1000,1000,1000,1000,442408799,1640,1653,1652,1641
434403669,1000,1000,1000,1000,442508759,1675,1688,1687,1675
434406168,1000,1000,1000,1000,442608719,1711,1725,1723,1711
434408667,1000,1000,1000,1000,442708679,1748,1762,1761,1748
434411166,1000,1000,1000,1000,442808639,1768,1775,1774,1767
434413665,1000,1000,1000,1000,442908599,1639,1640,1640,1638
434416164,1000,1000,1000,1000,443008559,1561,1557,1556,1560
434418663,1000,1000,1000,1000,443108519,1569,1565,1564,1569
434421162,1000,1000,1000,1000,443208479,1609,1605,1605,1609
434423661,1000,1000,1000,1000,443308439,1637,1634,1634,1637
434426160,1000,1000,1000,1000,443408399,1646,1646,1646,1647
434428659,1000,1000,1000,1000,443508359,1644,1645,1646,1644
434431158,1000,1000,1000,1000,443608319,1637,1640,1640,1638
434433657,1000,1000,1000,1000,443708279,1633,1636,1637,1634
434436156,1000,1000,1000,1000,443808239,1634,1635,1635,1634
434438655,1000,1000,1000,1000,443908199,1635,1635,1635,1635
434441154,1000,1000,1000,1000,444008159,1635,1634,1635,1635
434443653,1000,1000,1000,1000,444108952,1634,1633,1634,1634
434446152,1000,1000,1000,1000,444208912,1634,1633,1633,1634
434448651,1000,1000,1000,1000,444308872,1630,1626,1626,1629
434451150,1000,1000,1000,1000,444408832,1596,1596,1596,1596
434453649,1000,1000,1000,1000,444508792,1582,1582,1582,1582
434456148,1000,1000,1000,1000,444608752,1570,1570,1570,1570
434458647,1000,1000,1000,1000,444708712,1560,1561,1560,1559
434461146,1000,1000,1000,1000,444808672,1551,1552,1551,1551
434463645,1000,1000,1000,1000,444908632,1544,1544,1542,1546
434466144,1000,1000,1000,1000,445008592,1537,1537,1534,1540
434468643,1000,1000,1000,1000,445108552,1531,1531,1529,1534
434471142,1000,1000,1000,1000,445208512,1528,1527,1525,1530
434473641,1000,1000,1000,1000,445308472,1528,1527,1527,1529
434476140,1000,1000,1000,1000,445408432,1529,1529,1530,1528
434478639,1000,1000,1000,1000,445508392,1532,1532,1534,1530
434481138,1000,1000,1000,1000,445608352,1535,1535,1537,1534
434483637,1000,1000,1000,1000,445708312,1538,1539,1540,1537
434486136,1000,1000,1000,1000,445808272,1543,1542,1545,1540
434488635,1000,1000,1000,1000,445908232,1546,1546,1552,1540
434491134,1000,1000,1000,1000,446008192,1549,1548,1550,1546
434493633,1000,1000,1000,1000,446108985,1551,1550,1548,1552
434496132,1000,1000,1000,1000,446208945,1552,1552,1546,1557
434498631,1000,1000,1000,1000,446308905,1553,1554,1548,1559
434501130,1000,1000,1000,1000,446408865,1555,1555,1551,1558
434503629,1000,1000,1000,1000,446508825,1557,1557,1556,1558
434506128,1000,1000,1000,1000,446608785,1559,1559,1561,1557
434508627,1000,1000,1000,1000,446708745,1560,1560,1563,1557
434511126,1000,1000,1000,1000,446808705,1562,1562,1565,1559
434513625,1000,1000,1000,1000,446908665,1564,1564,1565,1563
434516124,1000,1000,1000,1000,447008625,1554,1553,1573,1574
434518623,1000,1000,1000,1000,447108585,1552,1553,1575,1578
434521122,1000,1000,1000,1000,447208545,1555,1557,1570,1574
434523621,1000,1000,1000,1000,447308505,1561,1563,1567,1570
434526120,1000,1000,1000,1000,447408465,1566,1567,1564,1565
434528619,1000,1000,1000,1000,447508425,1571,1571,1563,1562
434531118,1000,1000,1000,1000,447608385,1574,1573,1561,1560
434533617,1000,1000,1000,1000,447708345,1576,1576,1562,1560
434536116,1000,1000,1000,1000,447808305,1578,1576,1563,1562
434538615,1000,1000,1000,1000,447908265,1577,1576,1563,1563
434541114,1000,1000,1000,1000,448008225,1576,1575,1565,1566
434543613,1000,1000,1000,1000,448108185,1574,1574,1568,1568
434546112,1000,1000,1000,1000,448208978,1573,1573,1570,1571
434548611,1000,1000,1000,1000,448308938,1573,1573,1573,1574
434551110,1000,1000,1000,1000,448408898,1572,1573,1576,1575
434553609,1000,1000,1000,1000,448508858,1571,1572,1577,1575
434556108,1000,1000,1000,1000,448608818,1571,1572,1578,1577
434558607,1000,1000,1000,1000,448708778,1572,1572,1579,1577
434561106,1000,1000,1000,1000,448808738,1573,1573,1579,1578
434563605,1000,1000,1000,1000,448908698,1574,1573,1578,1578
434566104,1000,1000,1000,1000,449008658,1574,1574,1577,1577
434568603,1000,1000,1000,1000,449108618,1575,1574,1576,1576
434571102,1000,1000,1000,1000,449208578,1576,1576,1577,1577
434573601,1000,1000,1000,1000,449308538,1577,1578,1576,1576
434576100,1000,1000,1000,1000,449408498,1578,1579,1577,1577
434578599,1000,1000,1000,1000,449508458,1579,1579,1577,1576
434581098,1000,1000,1000,1000,449608418,1580,1580,1578,1578
434583597,1000,1000,1000,1000,449708378,1580,1580,1578,1577
434586096,1000,1000,1000,1000,449808338,1580,1579,1578,1578
434588595,1000,1000,1000,1000,449908298,1579,1579,1578,1577
434591094,1000,1000,1000,1000,450008258,1579,1579,1577,1578
434593593,1000,1000,1000,1000,450108218,1578,1579,1578,1578
434596092,1000,1000,1000,1000,450208178,1579,1579,1579,1579
434598591,1000,1000,1000,1000,450308971,1579,1579,1579,1579
434601090,1000,1000,1000,1000,450408931,1579,1579,1580,1579
434603589,1000,1000,1000,1000,450508891,1579,1579,1579,1579
434606088,1000,1000,1000,1000,450608851,1580,1580,1581,1580
434608587,1000,1000,1000,1000,450708811,1579,1578,1579,1579
434611086,1000,1000,1000,1000,450808771,1579,1579,1580,1580
434613585,1000,1000,1000,1000,450908731,1579,1579,1579,1579
434616084,1000,1000,1000,1000,451008691,1579,1579,1579,1580
434618583,1000,1000,1000,1000,451108651,1579,1580,1579,1579
434621082,1000,1000,1000,1000,451208611,1580,1579,1579,1579
434623581,1000,1000,1000,1000,451308571,1580,1580,1580,1579
434626080,1000,1000,1000,1000,451408531,1580,1580,1579,1579
434628579,1000,1000,1000,1000,451508491,1580,1580,1579,1579
434631078,1000,1000,1000,1000,451608451,1580,1580,1579,1579
434633577,1000,1000,1000,1000,451708411,1580,1579,1579,1579
434636076,1000,1000,1000,1000,451808371,1579,1579,1579,1579
434638575,1000,1000,1000,1000,451908331,1580,1580,1580,1580
434641074,1000,1000,1000,1000,452008291,1580,1580,1580,1580
434643573,1000,1000,1000,1000,452108251,1581,1581,1581,1580
434646072,1000,1000,1000,1000,452208211,1581,1581,1581,1581
434648571,1000,1000,1000,1000,452308171,1581,1580,1581,1580
434651070,1000,1000,1000,1000,452408964,1581,1581,1581,1581
434653569,1000,1000,1000,1000,452508924,1581,1582,1582,1582
434656068,1000,1000,1000,1000,452608884,1581,1581,1581,1581
434658567,1000,1000,1000,1000,452708844,1582,1581,1581,1582
434661066,1000,1000,1000,1000,452808804,1581,1580,1581,1580
434663565,1000,1000,1000,1000,452908764,1581,1582,1581,1581
434666064,1000,1000,1000,1000,453008724,1581,1581,1581,1581
434668563,1000,1000,1000,1000,453108684,1581,1582,1582,1581
434671062,1000,1000,1000,1000,453208644,1581,1581,1581,1581
434673561,1000,1000,1000,1000,453308604,1582,1581,1586,1576
434676060,1000,1000,1000,1000,453408564,1580,1582,1587,1573
434678559,1000,1000,1000,1000,453508524,1579,1581,1580,1574
434681058,1000,1000,1000,1000,453608484,1577,1579,1570,1573
434683557,1000,1000,1000,1000,453708444,1576,1578,1563,1570
434686056,1000,1000,1000,1000,453808404,1576,1577,1558,1565
434688555,1000,1000,1000,1000,453908364,1576,1576,1556,1561
434691054,1000,1000,1000,1000,454008324,1576,1574,1555,1557
434693553,1000,1000,1000,1000,454108284,1576,1575,1556,1555
434696052,1000,1000,1000,1000,454208244,1575,1574,1556,1553
434698551,1000,1000,1000,1000,454308204,1574,1574,1556,1553
434701050,1000,1000,1000,1000,454408164,1573,1574,1555,1554
434703549,1000,1000,1000,1000,454508957,1572,1574,1555,1554
434706048,1000,1000,1000,1000,454608917,1572,1574,1555,1554
434708547,1000,1000,1000,1000,454708877,1572,1574,1553,1553
434711046,1000,1000,1000,1000,454808837,1573,1574,1551,1552
434713545,1000,1000,1000,1000,454908797,1574,1575,1549,1550
434716044,1000,1000,1000,1000,455008757,1576,1577,1547,1546
434718543,1000,1000,1000,1000,455108717,1578,1579,1544,1543
434721042,1000,1000,1000,1000,455208677,1581,1582,1541,1541
434723541,1000,1000,1000,1000,455308637,1584,1585,1539,1538
434726040,1000,1000,1000,1000,455408597,1587,1588,1536,1536
434728539,1000,1000,1000,1000,455508557,1590,1591,1534,1534
434731038,1000,1000,1000,1000,455608517,1593,1593,1532,1533
434733537,1000,1000,1000,1000,455708477,1594,1594,1533,1534
434736036,1000,1000,1000,1000,455808437,1593,1592,1534,1535
434738535,1000,1000,1000,1000,455908397,1592,1592,1538,1540
434741034,1000,1000,1000,1000,456008357,1588,1587,1541,1544
434743533,1000,1000,1000,1000,456108317,1583,1581,1547,1550
434746032,1000,1000,1000,1000,456208277,1576,1574,1556,1560
434748531,1000,1000,1000,1000,456308237,1567,1564,1567,1570
434751030,1000,1000,1000,1000,456408197,1559,1554,1580,1582
434753529,1000,1000,1000,1000,456508157,1549,1545,1593,1594
434756028,1000,1000,1000,1000,456608950,1539,1537,1603,1603
434758527,1000,1000,1000,1000,456708910,1533,1533,1611,1610
434761026,1000,1000,1000,1000,456808870,1530,1531,1615,1614
434763525,1000,1000,1000,1000,456908830,1530,1532,1615,1614
434766024,1000,1000,1000,1000,457008790,1534,1536,1612,1611
434768523,1000,1000,1000,1000,457108750,1540,1542,1606,1606
434771022,1000,1000,1000,1000,457208710,1549,1551,1600,1600
434773521,1000,1000,1000,1000,457308670,1557,1558,1592,1592
434776020,1000,1000,1000,1000,457408630,1568,1567,1586,1586
434778519,1000,1000,1000,1000,457508590,1575,1574,1579,1578
434781018,1000,1000,1000,1000,457608550,1581,1580,1574,1573
434783517,1000,1000,1000,1000,457708510,1585,1584,1570,1569
434786016,1000,1000,1000,1000,457808470,1587,1586,1567,1567
434788515,1000,1000,1000,1000,457908430,1587,1587,1567,1566
434791014,1000,1000,1000,1000,458008390,1587,1586,1568,1568
434793513,1000,1000,1000,1000,458108350,1586,1585,1570,1570
434796012,1000,1000,1000,1000,458208310,1584,1583,1573,1573
434798511,1000,1000,1000,1000,458308270,1581,1581,1576,1576
434801010,1000,1000,1000,1000,458408230,1579,1578,1579,1579
434803509,1000,1000,1000,1000,458508190,1575,1577,1581,1581
434806008,1000,1000,1000,1000,458608983,1574,1575,1583,1583
434808507,1000,1000,1000,1000,458708943,1572,1574,1583,1583
434811006,1000,1000,1000,1000,458808903,1573,1573,1584,1584
434813505,1000,1000,1000,1000,458908863,1573,1573,1582,1583
434816004,1000,1000,1000,1000,459008823,1574,1574,1582,1583
434818503,1000,1000,1000,1000,459108783,1576,1575,1582,1582
434821002,1000,1000,1000,1000,459208743,1577,1576,1580,1580
434823501,1000,1000,1000,1000,459308703,1578,1579,1580,1579
434826000,1000,1000,1000,1000,459408663,1579,1579,1578,1578
434828499,1000,1000,1000,1000,459508623,1580,1581,1578,1578
434830998,1000,1000,1000,1000,459608583,1581,1581,1578,1578
434833497,1000,1000,1000,1000,459708543,1582,1582,1578,1578
434835996,1000,1000,1000,1000,459808503,1583,1583,1579,1578
434838495,1000,1000,1000,1000,459908463,1583,1582,1578,1579
434840994,1000,1000,1000,1000,460008423,1581,1581,1577,1577
434843493,1000,1000,1000,1000,460108383,1580,1580,1578,1578
434845992,1000,1000,1000,1000,460208343,1581,1581,1579,1580
434848491,1000,1000,1000,1000,460308303,1580,1580,1580,1580
434850990,1000,1000,1000,1000,460408263,1580,1580,1581,1581
434853489,1000,1000,1000,1000,460508223,1579,1579,1580,1580
434855988,1000,1000,1000,1000,460608183,1578,1578,1580,1580
434858487,1000,1000,1000,1000,460708976,1578,1579,1580,1580
434860986,1000,1000,1000,1000,460808936,1579,1579,1581,1580
434863485,1000,1000,1000,1000,460908896,1578,1579,1580,1580
434865984,1000,1000,1000,1000,461008856,1580,1579,1580,1580
434868483,1000,1000,1000,1000,461108816,1580,1579,1580,1580
434870982,1000,1000,1000,1000,461208776,1581,1581,1581,1581
434873481,1000,1000,1000,1000,461308736,1581,1581,1581,1580
434875980,1000,1000,1000,1000,461408696,1580,1581,1580,1579
434878479,1000,1000,1000,1000,461508656,1581,1582,1587,1573
434880978,1000,1000,1000,1000,461608616,1580,1582,1583,1572
434883477,1000,1000,1000,1000,461708576,1578,1581,1574,1571
434885976,1000,1000,1000,1000,461808536,1576,1579,1565,1569
434888475,1000,1000,1000,1000,461908496,1577,1579,1559,1566
434890974,1000,1000,1000,1000,462008456,1578,1579,1556,1562
434893473,1000,1000,1000,1000,462108416,1578,1577,1553,1557
434895972,1000,1000,1000,1000,462208376,1579,1577,1553,1554
434898471,1000,1000,1000,1000,462308336,1579,1577,1554,1552
434900970,1000,1000,1000,1000,462408296,1578,1578,1556,1552
434903469,1000,1000,1000,1000,462508256,1576,1577,1554,1552
434905968,1000,1000,1000,1000,462608216,1575,1576,1554,1552
434908467,1000,1000,1000,1000,462708176,1575,1577,1554,1553
434910966,1000,1000,1000,1000,462808969,1575,1576,1551,1552
434913465,1000,1000,1000,1000,462908929,1576,1577,1551,1551
434915964,1000,1000,1000,1000,463008889,1577,1578,1549,1549
434918463,1000,1000,1000,1000,463108849,1590,1592,1500,1524
434920962,1000,1000,1000,1000,463208809,1595,1597,1531,1517
434923461,1000,1000,1000,1000,463308769,1596,1600,1551,1521
434925960,1000,1000,1000,1000,463408729,1595,1600,1561,1532
434928459,1000,1000,1000,1000,463508689,1592,1597,1561,1544
434930958,1000,1000,1000,1000,463608649,1591,1594,1557,1553
434933457,1000,1000,1000,1000,463708609,1590,1591,1549,1556
434935956,1000,1000,1000,1000,463808569,1592,1591,1544,1557
434938455,1000,1000,1000,1000,463908529,1595,1591,1541,1555
434940954,1000,1000,1000,1000,464008489,1595,1590,1543,1554
434943453,1000,1000,1000,1000,464108449,1593,1588,1550,1556
434945952,1000,1000,1000,1000,464208409,1587,1581,1560,1563
434948451,1000,1000,1000,1000,464308369,1576,1571,1573,1573
434950950,1000,1000,1000,1000,464408329,1563,1558,1588,1587
434953449,1000,1000,1000,1000,464508289,1548,1545,1602,1600
434955948,1000,1000,1000,1000,464608249,1538,1536,1614,1611
434958447,1000,1000,1000,1000,464708209,1532,1530,1620,1616
434960946,1000,1000,1000,1000,464808169,1528,1529,1621,1618
434963445,1000,1000,1000,1000,464908962,1530,1532,1620,1618
434965944,1000,1000,1000,1000,465008922,1534,1536,1616,1615
434968443,1000,1000,1000,1000,465108882,1539,1541,1610,1610
434970942,1000,1000,1000,1000,465208842,1545,1546,1603,1604
434973441,1000,1000,1000,1000,465308802,1551,1552,1596,1597
434975940,1000,1000,1000,1000,465408762,1558,1559,1589,1591
434978439,1000,1000,1000,1000,465508722,1564,1564,1582,1583
434980938,1000,1000,1000,1000,465608682,1570,1570,1575,1576
434983437,1000,1000,1000,1000,465708642,1577,1577,1569,1570
434985936,1000,1000,1000,1000,465808602,1583,1582,1564,1565
434988435,1000,1000,1000,1000,465908562,1587,1586,1560,1561
434990934,1000,1000,1000,1000,466008522,1590,1588,1560,1560
434993433,1000,1000,1000,1000,466108482,1590,1588,1560,1561
434995932,1000,1000,1000,1000,466208442,1588,1587,1563,1563
434998431,1000,1000,1000,1000,466308402,1585,1585,1566,1566
435000930,1000,1000,1000,1000,466408362,1583,1582,1570,1570
435003429,1000,1000,1000,1000,466508322,1580,1580,1575,1574
435005928,1000,1000,1000,1000,466608282,1576,1577,1578,1577
435008427,1000,1000,1000,1000,466708242,1573,1574,1580,1580
435010926,1000,1000,1000,1000,466808202,1572,1572,1582,1582
435013425,1000,1000,1000,1000,466908162,1571,1572,1585,1584
435015924,1000,1000,1000,1000,467008955,1573,1573,1586,1585
435018423,1000,1000,1000,1000,467108915,1572,1573,1585,1584
435020922,1000,1000,1000,1000,467208875,1574,1575,1584,1584
435023421,1000,1000,1000,1000,467308835,1576,1577,1583,1583
435025920,1000,1000,1000,1000,467408795,1576,1577,1581,1581
435028419,1000,1000,1000,1000,467508755,1578,1578,1579,1579
435030918,1000,1000,1000,1000,467608715,1580,1579,1578,1578
435033417,1000,1000,1000,1000,467708675,1581,1580,1577,1577
435035916,1000,1000,1000,1000,467808635,1581,1581,1576,1576
435038415,1000,1000,1000,1000,467908595,1582,1582,1577,1576
435040914,1000,1000,1000,1000,468008555,1583,1582,1576,1577
435043413,1000,1000,1000,1000,468108515,1582,1581,1576,1576
435045912,1000,1000,1000,1000,468208475,1582,1582,1577,1577
435048411,1000,1000,1000,1000,468308435,1581,1581,1578,1578
435050910,1000,1000,1000,1000,468408395,1580,1580,1578,1578
435053409,1000,1000,1000,1000,468508355,1580,1580,1580,1580
435055908,1000,1000,1000,1000,468608315,1580,1580,1580,1580
435058407,1000,1000,1000,1000,468708275,1579,1579,1580,1580
435060906,1000,1000,1000,1000,468808235,1579,1579,1581,1581
435063405,1000,1000,1000,1000,468908195,1580,1580,1582,1582
435065904,1000,1000,1000,1000,469008155,1579,1580,1582,1582
435068403,1000,1000,1000,1000,469108948,1579,1579,1581,1581
435070902,1000,1000,1000,1000,469208908,1580,1581,1582,1582
435073401,1000,1000,1000,1000,469308868,1580,1580,1581,1581
435075900,1000,1000,1000,1000,469408828,1581,1580,1581,1580
435078399,1000,1000,1000,1000,469508788,1581,1581,1581,1581
435080898,1000,1000,1000,1000,469608748,1581,1581,1580,1580
435083397,1000,1000,1000,1000,469708708,1580,1581,1583,1576
435085896,1000,1000,1000,1000,469808668,1581,1582,1586,1572
435088395,1000,1000,1000,1000,469908628,1578,1580,1580,1571
435090894,1000,1000,1000,1000,470008588,1576,1580,1573,1572
435093393,1000,1000,1000,1000,470108548,1575,1578,1565,1570
435095892,1000,1000,1000,1000,470208508,1575,1576,1559,1567
435098391,1000,1000,1000,1000,470308468,1576,1576,1557,1562
435100890,1000,1000,1000,1000,470408428,1577,1575,1556,1558
435103389,1000,1000,1000,1000,470508388,1577,1575,1556,1556
435105888,1000,1000,1000,1000,470608348,1576,1575,1557,1554
435108387,1000,1000,1000,1000,470708308,1576,1576,1557,1555
435110886,1000,1000,1000,1000,470808268,1574,1575,1556,1554
435113385,1000,1000,1000,1000,470908228,1573,1575,1556,1555
435115884,1000,1000,1000,1000,471008188,1572,1574,1555,1554
435118383,1000,1000,1000,1000,471108981,1572,1574,1553,1553
435120882,1000,1000,1000,1000,471208941,1573,1574,1552,1552
435123381,1000,1000,1000,1000,471308901,1574,1575,1550,1551
435125880,1000,1000,1000,1000,471408861,1575,1576,1548,1547
435128379,1000,1000,1000,1000,471508821,1578,1579,1546,1546
435130878,1000,1000,1000,1000,471608781,1582,1583,1545,1544
435133377,1000,1000,1000,1000,471708741,1584,1585,1542,1541
435135876,1000,1000,1000,1000,471808701,1587,1588,1539,1539
435138375,1000,1000,1000,1000,471908661,1589,1590,1536,1536
435140874,1000,1000,1000,1000,472008621,1593,1593,1536,1535
435143373,1000,1000,1000,1000,472108581,1593,1593,1534,1535
435145872,1000,1000,1000,1000,472208541,1593,1594,1535,1536
435148371,1000,1000,1000,1000,472308501,1593,1593,1536,1539
435150870,1000,1000,1000,1000,472408461,1591,1590,1540,1543
435153369,1000,1000,1000,1000,472508421,1588,1585,1545,1549
435155868,1000,1000,1000,1000,472608381,1581,1578,1554,1557
435158367,1000,1000,1000,1000,472708341,1572,1568,1564,1566
435160866,1000,1000,1000,1000,472808301,1561,1558,1576,1578
435163365,1000,1000,1000,1000,472908261,1552,1549,1589,1589
435165864,1000,1000,1000,1000,473008221,1542,1540,1600,1599
435168363,1000,1000,1000,1000,473108181,1534,1534,1608,1606
435170862,1000,1000,1000,1000,473208974,1532,1533,1614,1612
435173361,1000,1000,1000,1000,473308934,1531,1533,1614,1611
435175860,1000,1000,1000,1000,473408894,1536,1537,1612,1611
435178359,1000,1000,1000,1000,473508854,1541,1542,1608,1607
435180858,1000,1000,1000,1000,473608814,1547,1549,1602,1603
435183357,1000,1000,1000,1000,473708774,1555,1555,1597,1597
435185856,1000,1000,1000,1000,473808734,1561,1561,1590,1589
435188355,1000,1000,1000,1000,473908694,1568,1568,1583,1582
435190854,1000,1000,1000,1000,474008654,1575,1575,1576,1576
435193353,1000,1000,1000,1000,474108614,1580,1580,1571,1571
435195852,1000,1000,1000,1000,474208574,1585,1584,1568,1568
435198351,1000,1000,1000,1000,474308534,1586,1586,1565,1566
435200850,1000,1000,1000,1000,474408494,1587,1585,1565,1566
435203349,1000,1000,1000,1000,474508454,1586,1584,1566,1567
435205848,1000,1000,1000,1000,474608414,1584,1583,1569,1570
435208347,1000,1000,1000,1000,474708374,1581,1582,1572,1572
435210846,1000,1000,1000,1000,474808334,1580,1580,1576,1575
435213345,1000,1000,1000,1000,474908294,1577,1577,1578,1578
435215844,1000,1000,1000,1000,475008254,1575,1575,1581,1580
435218343,1000,1000,1000,1000,475108214,1574,1575,1583,1583
435220842,1000,1000,1000,1000,475208174,1573,1574,1584,1584
435223341,1000,1000,1000,1000,475308967,1574,1575,1585,1585
435225840,1000,1000,1000,1000,475408927,1575,1574,1585,1584
435228339,1000,1000,1000,1000,475508887,1575,1576,1584,1584
435230838,1000,1000,1000,1000,475608847,1575,1575,1582,1582
435233337,1000,1000,1000,1000,475708807,1577,1577,1581,1582
435235836,1000,1000,1000,1000,475808767,1578,1578,1580,1580
435238335,1000,1000,1000,1000,475908727,1581,1581,1580,1580
435240834,1000,1000,1000,1000,476008687,1582,1581,1579,1579
435243333,1000,1000,1000,1000,476108647,1581,1581,1578,1578
435245832,1000,1000,1000,1000,476208607,1582,1582,1578,1578
435248331,1000,1000,1000,1000,476308567,1582,1583,1578,1579
435250830,1000,1000,1000,1000,476408527,1582,1582,1578,1578
435253329,1000,1000,1000,1000,476508487,1581,1581,1577,1577
435255828,1000,1000,1000,1000,476608447,1581,1581,1578,1578
435258327,1000,1000,1000,1000,476708407,1581,1581,1580,1579
435260826,1000,1000,1000,1000,476808367,1580,1579,1579,1579
435263325,1000,1000,1000,1000,476908327,1580,1580,1580,1580
435265824,1000,1000,1000,1000,477008287,1579,1579,1580,1580
435268323,1000,1000,1000,1000,477108247,1579,1579,1580,1580
435270822,1000,1000,1000,1000,477208207,1579,1579,1580,1580
435273321,1000,1000,1000,1000,477308167,1580,1580,1581,1581
435275820,1000,1000,1000,1000,477408960,1580,1579,1581,1581
435278319,1000,1000,1000,1000,477508920,1579,1579,1580,1580
435280818,1000,1000,1000,1000,477608880,1579,1580,1580,1580
435283317,1000,1000,1000,1000,477708840,1578,1579,1579,1579
435285816,1000,1000,1000,1000,477808800,1580,1579,1580,1579
435288315,1000,1000,1000,1000,477908760,1581,1581,1586,1573
435290814,1000,1000,1000,1000,478008720,1581,1581,1585,1572
435293313,1000,1000,1000,1000,478108680,1578,1578,1579,1573
435295812,1000,1000,1000,1000,478208640,1575,1575,1572,1575
435298311,1000,1000,1000,1000,478308600,1571,1571,1566,1573
435300810,1000,1000,1000,1000,478408560,1568,1568,1564,1571
435303309,1000,1000,1000,1000,478508520,1566,1566,1563,1568
435305808,1000,1000,1000,1000,478608480,1565,1565,1564,1566
435308307,1000,1000,1000,1000,478708440,1565,1564,1565,1564
435310806,1000,1000,1000,1000,478808400,1565,1565,1566,1564
435313305,1000,1000,1000,1000,478908360,1563,1564,1566,1562
435315804,1000,1000,1000,1000,479008320,1564,1564,1565,1563
435318303,1000,1000,1000,1000,479108280,1563,1563,1564,1563
435320802,1000,1000,1000,1000,479208240,1562,1562,1562,1562
435323301,1000,1000,1000,1000,479308200,1562,1562,1562,1563
435325800,1000,1000,1000,1000,479408160,1562,1561,1561,1562
435328299,1000,1000,1000,1000,479508953,1561,1561,1561,1561
435330798,1000,1000,1000,1000,479608913,1560,1560,1561,1560
435333297,1000,1000,1000,1000,479708873,1560,1561,1561,1560
435335796,1000,1000,1000,1000,479808833,1559,1559,1559,1559
435338295,1000,1000,1000,1000,479908793,1560,1560,1560,1559
435340794,1000,1000,1000,1000,480008753,1559,1559,1559,1559
435343293,1000,1000,1000,1000,480108713,1558,1559,1559,1558
435345792,1000,1000,1000,1000,480208673,1558,1558,1558,1557
435348291,1000,1000,1000,1000,480308633,1557,1558,1558,1557
435350790,1000,1000,1000,1000,480408593,1557,1557,1558,1557
435353289,1000,1000,1000,1000,480508553,1558,1558,1559,1557
435355788,1000,1000,1000,1000,480608513,1558,1558,1558,1557
435358287,1000,1000,1000,1000,480708473,1557,1558,1559,1556
435360786,1000,1000,1000,1000,480808433,1558,1558,1557,1559
435363285,1000,1000,1000,1000,480908393,1559,1559,1557,1562
435365784,1000,1000,1000,1000,481008353,1560,1560,1557,1563
435368283,1000,1000,1000,1000,481108313,1560,1560,1558,1562
435370782,1000,1000,1000,1000,481208273,1560,1560,1558,1561
435373281,1000,1000,1000,1000,481308233,1559,1559,1559,1559
435375780,1000,1000,1000,1000,481408193,1559,1558,1560,1558
435378279,1000,1000,1000,1000,481508986,1559,1558,1560,1556
435380778,1000,1000,1000,1000,481608946,1558,1558,1559,1557
435383277,1000,1000,1000,1000,481708906,1558,1558,1555,1561
435385776,1000,1000,1000,1000,481808866,1555,1555,1552,1559
435388275,1000,1000,1000,1000,481908826,1551,1551,1550,1553
435390774,1000,1000,1000,1000,482008786,1545,1546,1545,1547
435393273,1000,1000,1000,1000,482108746,1538,1538,1540,1538
435395772,1000,1000,1000,1000,482208706,1532,1532,1534,1532
435398271,1000,1000,1000,1000,482308666,1525,1525,1527,1524
435400770,1000,1000,1000,1000,482408626,1521,1520,1522,1521
435403269,1000,1000,1000,1000,482508586,1520,1519,1520,1520
435405768,1000,1000,1000,1000,482608546,1521,1520,1520,1521
435408267,1000,1000,1000,1000,482708506,1522,1522,1521,1522
435410766,1000,1000,1000,1000,482808466,1526,1526,1524,1525
435413265,1000,1000,1000,1000,482908426,1530,1530,1528,1528
435415764,1000,1000,1000,1000,483008386,1534,1534,1533,1533
435418263,1000,1000,1000,1000,483108346,1538,1539,1537,1537
435420762,1000,1000,1000,1000,483208306,1541,1541,1540,1540
435423261,1000,1000,1000,1000,483308266,1544,1544,1544,1542
435425760,1000,1000,1000,1000,483408226,1546,1545,1545,1545
435428259,1000,1000,1000,1000,483508186,1546,1546,1547,1545
435430758,1000,1000,1000,1000,483608979,1547,1546,1547,1547
435433257,1000,1000,1000,1000,483708939,1546,1546,1547,1546
435435756,1000,1000,1000,1000,483808899,1546,1546,1547,1547
435438255,1000,1000,1000,1000,483908859,1545,1546,1547,1547
435440754,1000,1000,1000,1000,484008819,1546,1546,1547,1548
435443253,1000,1000,1000,1000,484108779,1546,1546,1547,1546
435445752,1000,1000,1000,1000,484208739,1546,1546,1546,1546
435448251,1000,1000,1000,1000,484308699,1545,1545,1546,1545
435450750,1000,1000,1000,1000,484408659,1546,1546,1546,1546
435453249,1000,1000,1000,1000,484508619,1545,1545,1545,1545
435455748,1000,1000,1000,1000,484608579,1545,1545,1545,1545
435458247,1000,1000,1000,1000,484708539,1545,1545,1545,1545
435460746,1000,1000,1000,1000,484808499,1544,1544,1544,1544
435463245,1000,1000,1000,1000,484908459,1544,1544,1544,1544
435465744,1000,1000,1000,1000,485008419,1545,1544,1543,1544
435468243,1000,1000,1000,1000,485108379,1544,1545,1544,1544
435470742,1000,1000,1000,1000,485208339,1546,1545,1545,1545
435473241,1000,1000,1000,1000,485308299,1544,1545,1544,1544
435475740,1000,1000,1000,1000,485408259,1545,1544,1544,1545
435478239,1000,1000,1000,1000,485508219,1545,1545,1545,1545
435480738,1000,1000,1000,1000,485608179,1544,1545,1545,1545
435483237,1000,1000,1000,1000,485708972,1544,1543,1545,1544
435485736,1000,1000,1000,1000,485808932,1544,1544,1544,1545
435488235,1000,1000,1000,1000,485908892,1545,1545,1545,1545
435490734,1000,1000,1000,1000,486008852,1544,1544,1544,1545
435493233,1000,1000,1000,1000,486108812,1544,1544,1544,1544
435495732,1000,1000,1000,1000,486208772,1544,1544,1544,1544
435498231,1000,1000,1000,1000,486308732,1544,1544,1544,1544
435500730,1000,1000,1000,1000,486408692,1544,1544,1544,1544
435503229,1000,1000,1000,1000,486508652,1544,1544,1544,1544
435505728,1000,1000,1000,1000,486608612,1544,1544,1543,1544
435508227,1000,1000,1000,1000,486708572,1545,1545,1545,1544
435510726,1000,1000,1000,1000,486808532,1545,1544,1544,1545
435513225,1000,1000,1000,1000,486908492,1544,1545,1544,1544
435515724,1000,1000,1000,1000,487008452,1544,1544,1544,1544
435518223,1000,1000,1000,1000,487108412,1544,1544,1544,1544
435520722,1000,1000,1000,1000,487208372,1545,1545,1545,1546
435523221,1000,1000,1000,1000,487308332,1544,1545,1545,1544
435525720,1000,1000,1000,1000,487408292,1544,1543,1543,1544
435528219,1000,1000,1000,1000,487508252,1544,1544,1544,1544
435530718,1000,1000,1000,1000,487608212,1544,1544,1544,1544
435533217,1000,1000,1000,1000,487708172,1544,1544,1544,1544
435535716,1000,1000,1000,1000,487808965,1543,1543,1543,1543
435538215,1000,1000,1000,1000,487908925,1544,1544,1544,1543
435540714,1000,1000,1000,1000,488008885,1543,1543,1543,1543
435543213,1000,1000,1000,1000,488108845,1544,1545,1545,1545
435545712,1000,1000,1000,1000,488208805,1544,1544,1544,1545
435548211,1000,1000,1000,1000,488308765,1544,1544,1544,1544
435550710,1000,1000,1000,1000,488408725,1545,1545,1545,1545
435553209,1000,1000,1000,1000,488508685,1545,1545,1545,1544
435555708,1000,1000,1000,1000,488608645,1545,1544,1544,1544
435558207,1000,1000,1000,1000,488708605,1544,1544,1544,1544
435560706,1000,1000,1000,1000,488808565,1544,1544,1544,1544
435563205,1000,1000,1000,1000,488908525,1546,1547,1546,1546
435565704,1000,1000,1000,1000,489008485,1546,1545,1545,1546
435568203,1000,1000,1000,1000,489108445,1545,1545,1545,1545
435570702,1000,1000,1000,1000,489208405,1545,1545,1544,1545
435573201,1000,1000,1000,1000,489308365,1545,1545,1545,1545
435575700,1000,1000,1000,1000,489408325,1545,1545,1545,1545
435578199,1000,1000,1000,1000,489508285,1545,1545,1545,1545
435580698,1000,1000,1000,1000,489608245,1545,1545,1546,1545
435583197,1000,1000,1000,1000,489708205,1543,1543,1544,1543
435585696,1000,1000,1000,1000,489808165,1544,1544,1544,1544
435588195,1000,1000,1000,1000,489908958,1545,1545,1545,1545
435590694,1000,1000,1000,1000,490008918,1545,1544,1544,1545
435593193,1000,1000,1000,1000,490108878,1544,1545,1545,1544
435595692,1000,1000,1000,1000,490208838,1544,1544,1544,1544
435598191,1000,1000,1000,1000,490308798,1544,1544,1544,1543
435600690,1000,1000,1000,1000,490408758,1544,1544,1544,1544
435603189,1000,1000,1000,1000,490508718,1544,1544,1544,1544
435605688,1000,1000,1000,1000,490608678,1544,1543,1544,1544
435608187,1000,1000,1000,1000,490708638,1544,1544,1544,1544
435610686,1000,1000,1000,1000,490808598,1544,1544,1543,1544
435613185,1000,1000,1000,1000,490908558,1545,1545,1545,1544
435615684,1000,1000,1000,1000,491008518,1544,1544,1544,1544
435618183,1000,1000,1000,1000,491108478,1544,1545,1545,1544
435620682,1000,1000,1000,1000,491208438,1545,1545,1545,1545
435623181,1000,1000,1000,1000,491308398,1544,1545,1545,1544
435625680,1000,1000,1000,1000,491408358,1544,1544,1544,1544
435628179,1000,1000,1000,1000,491508318,1546,1545,1545,1545
435630678,1000,1000,1000,1000,491608278,1544,1544,1544,1544
435633177,1000,1000,1000,1000,491708238,1544,1545,1545,1545
435635676,1000,1000,1000,1000,491808198,1545,1544,1544,1545
435638175,1000,1000,1000,1000,491908158,1545,1545,1545,1545
435640674,1000,1000,1000,1000,492008951,1521,1520,1522,1521
435643173,1000,1000,1000,1000,492108911,1333,1334,1365,1332
435645672,1000,1000,1000,1000,492208871,1240,1242,1291,1239
435648171,1000,1000,1000,1000,492308831,1210,1212,1269,1208
435650670,1000,1000,1000,1000,492408791,1190,1191,1253,1188
435653169,1000,1000,1000,1000,492508751,1152,1153,1226,1150
435655668,1000,1000,1000,1000,492608711,1152,1152,1226,1150
435658167,1000,1000,1000,1000,492708671,1153,1154,1227,1150
435660666,1000,1000,1000,1000,492808631,1153,1194,1256,1150
435663165,1000,1000,1000,1000,492908591,1153,1192,1255,1150
435665664,1000,1000,1000,1000,493008551,1153,1183,1248,1150
435668163,1000,1000,1000,1000,493108511,1154,1183,1248,1150
435670662,1000,1000,1000,1000,493208471,1154,1185,1250,1150
435673161,1000,1000,1000,1000,493308431,1155,1189,1252,1150
435675660,1000,1000,1000,1000,493408391,1155,1191,1254,1150
435678159,1000,1000,1000,1000,493508351,1155,1194,1256,1150
435680658,1000,1000,1000,1000,493608311,1153,1169,1237,1150
435683157,1000,1000,1000,1000,493708271,1154,1176,1242,1150
435685656,1000,1000,1000,1000,493808231,1154,1178,1243,1150
435688155,1000,1000,1000,1000,493908191,1155,1179,1244,1150
435690654,1000,1000,1000,1000,494008984,1155,1180,1245,1150
435693986,1000,1000,1000,1000,494048968,1155,1179,1236,1150
435696485,1000,1000,1000,1000,494148928,1000,1000,1000,1000
435698984,1000,1000,1000,1000,494248888,1000,1000,1000,1000
435701483,1000,1000,1000,1000,494348848,1000,1000,1000,1000
435703982,1000,1000,1000,1000,494448808,1000,1000,1000,1000
435706481,1000,1000,1000,1000,494548768,1000,1000,1000,1000
435708980,1000,1000,1000,1000,494648728,1000,1000,1000,1000
435711479,1000,1000,1000,1000,494748688,1000,1000,1000,1000
435713978,1000,1000,1000,1000,494848648,1000,1000,1000,1000
435716477,1000,1000,1000,1000,494948608,1000,1000,1000,1000
435718976,1000,1000,1000,1000,495048568,1000,1000,1000,1000
435721475,1000,1000,1000,1000,495148528,1000,1000,1000,1000
435723974,1000,1000,1000,1000,495248488,1000,1000,1000,1000
435726473,1000,1000,1000,1000,495348448,1000,1000,1000,1000
435728972,1000,1000,1000,1000,495448408,1000,1000,1000,1000
435731471,1000,1000,1000,1000,495548368,1000,1000,1000,1000
435733970,1000,1000,1000,1000,495648328,1000,1000,1000,1000
435736469,1000,1000,1000,1000,495748288,1000,1000,1000,1000
435738968,1000,1000,1000,1000,495848248,1000,1000,1000,1000
435741467,1000,1000,1000,1000,495948208,1000,1000,1000,1000
435743966,1000,1000,1000,1000,496048168,1000,1000,1000,1000
435746465,1000,1000,1000,1000,496148961,1000,1000,1000,1000
435748964,1000,1000,1000,1000,496248921,1000,1000,1000,1000
435751463,1000,1000,1000,1000,496348881,1000,1000,1000,1000
435753962,1000,1000,1000,1000,496448841,1000,1000,1000,1000
435756461,1000,1000,1000,1000,496548801,1000,1000,1000,1000
435758960,1000,1000,1000,1000,496648761,1000,1000,1000,1000
435761459,1000,1000,1000,1000,496748721,1000,1000,1000,1000
435763958,1000,1000,1000,1000,496848681,1000,1000,1000,1000
435766457,1000,1000,1000,1000,496948641,1000,1000,1000,1000
435768956,1000,1000,1000,1000,497048601,1000,1000,1000,1000
435771455,1000,1000,1000,1000,497148561,1000,1000,1000,1000
435773954,1000,1000,1000,1000,497248521,1000,1000,1000,1000
435776453,1000,1000,1000,1000,497348481,1000,1000,1000,1000
435778952,1000,1000,1000,1000,497448441,1000,1000,1000,1000
435781451,1000,1000,1000,1000,497548401,1000,1000,1000,1000
435783950,1000,1000,1000,1000,497648361,1000,1000,1000,1000
435786449,1000,1000,1000,1000,497748321,1000,1000,1000,1000
435788948,1000,1000,1000,1000,497848281,1000,1000,1000,1000
435791447,1000,1000,1000,1000,497948241,1000,1000,1000,1000
435793946,1000,1000,1000,1000,498048201,1000,1000,1000,1000
435796445,1000,1000,1000,1000,498148161,1000,1000,1000,1000
435798944,1000,1000,1000,1000,498248954,1000,1000,1000,1000
435801443,1000,1000,1000,1000,498348914,1000,1000,1000,1000
435803942,1000,1000,1000,1000,498448874,1000,1000,1000,1000
435806441,1000,1000,1000,1000,498548834,1000,1000,1000,1000
435808940,1000,1000,1000,1000,498648794,1000,1000,1000,1000
435811439,1000,1000,1000,1000,498748754,1000,1000,1000,1000
435813938,1000,1000,1000,1000,498848714,1000,1000,1000,1000
435816437,1000,1000,1000,1000,498948674,1000,1000,1000,1000
435818936,1000,1000,1000,1000,499048634,1000,1000,1000,1000
435821435,1000,1000,1000,1000,499148594,1000,1000,1000,1000
435823934,1000,1000,1000,1000,499248554,1000,1000,1000,1000
435826433,1000,1000,1000,1000,499348514,1000,1000,1000,1000
435828932,1000,1000,1000,1000,499448474,1000,1000,1000,1000
435831431,1000,1000,1000,1000,499548434,1000,1000,1000,1000
435833930,1000,1000,1000,1000,499648394,1000,1000,1000,1000
435836429,1000,1000,1000,1000,499748354,1000,1000,1000,1000
435838928,1000,1000,1000,1000,499848314,1000,1000,1000,1000
435841427,1000,1000,1000,1000,499948274,1000,1000,1000,1000
435843926,1000,1000,1000,1000,500048234,1000,1000,1000,1000
435846425,1000,1000,1000,1000,500148194,1000,1000,1000,1000
435848924,1000,1000,1000,1000,500248154,1000,1000,1000,1000
435851423,1000,1000,1000,1000,500348947,1000,1000,1000,1000
435853922,1000,1000,1000,1000,500448907,1000,1000,1000,1000
435856421,1000,1000,1000,1000,500548867,1000,1000,1000,1000
435858920,1000,1000,1000,1000,500648827,1000,1000,1000,1000
435861419,1000,1000,1000,1000,500748787,1000,1000,1000,1000
435863918,1000,1000,1000,1000,500848747,1000,1000,1000,1000
435866417,1000,1000,1000,1000,500948707,1000,1000,1000,1000
435868916,1000,1000,1000,1000,501048667,1000,1000,1000,1000
435871415,1000,1000,1000,1000,501148627,1000,1000,1000,1000
435873914,1000,1000,1000,1000,501248587,1000,1000,1000,1000
435876413,1000,1000,1000,1000,501348547,1000,1000,1000,1000
435878912,1000,1000,1000,1000,501448507,1000,1000,1000,1000
435881411,1000,1000,1000,1000,501548467,1000,1000,1000,1000
435883910,1000,1000,1000,1000,501648427,1000,1000,1000,1000
435886409,1000,1000,1000,1000,501748387,1000,1000,1000,1000
435888908,1000,1000,1000,1000,501848347,1000,1000,1000,1000
435891407,1000,1000,1000,1000,501948307,1000,1000,1000,1000
435893906,1000,1000,1000,1000,502048267,1000,1000,1000,1000
435896405,1000,1000,1000,1000,502148227,1000,1000,1000,1000
435898904,1000,1000,1000,1000,502248187,1000,1000,1000,1000
435901403,1000,1000,1000,1000,502348980,1000,1000,1000,1000
435903902,1000,1000,1000,1000,502448940,1000,1000,1000,1000
435906401,1000,1000,1000,1000,502548900,1000,1000,1000,1000
435908900,1000,1000,1000,1000,502648860,1000,1000,1000,1000
435911399,1000,1000,1000,1000,502748820,1000,1000,1000,1000
435913898,1000,1000,1000,1000,502848780,1000,1000,1000,1000
435916397,1000,1000,1000,1000,502948740,1000,1000,1000,1000
435918896,1000,1000,1000,1000,503048700,1000,1000,1000,1000
435921395,1000,1000,1000,1000,503148660,1000,1000,1000,1000
435923894,1000,1000,1000,1000,503248620,1000,1000,1000,1000
435926393,1000,1000,1000,1000,503348580,1000,1000,1000,1000
435928892,1000,1000,1000,1000,503448540,1000,1000,1000,1000
435931391,1000,1000,1000,1000,503548500,1000,1000,1000,1000
435933890,1000,1000,1000,1000,503648460,1000,1000,1000,1000
435936389,1000,1000,1000,1000,503748420,1000,1000,1000,1000
435938888,1000,1000,1000,1000,503848380,1000,1000,1000,1000
435941387,1000,1000,1000,1000,503948340,1000,1000,1000,1000
435943886,1000,1000,1000,1000,504048300,1000,1000,1000,1000
435946385,1000,1000,1000,1000,504148260,1000,1000,1000,1000
435948884,1000,1000,1000,1000,504248220,1000,1000,1000,1000
435951383,1000,1000,1000,1000,504348180,1000,1000,1000,1000
435953882,1000,1000,1000,1000,504448973,1000,1000,1000,1000
435956381,1000,1000,1000,1000,504548933,1000,1000,1000,1000
435958880,1000,1000,1000,1000,504648893,1000,1000,1000,1000
435961379,1000,1000,1000,1000,504748853,1000,1000,1000,1000
435963878,1000,1000,1000,1000,504848813,1000,1000,1000,1000
435966377,1000,1000,1000,1000,504948773,1000,1000,1000,1000
435968876,1000,1000,1000,1000,505048733,1000,1000,1000,1000
435971375,1000,1000,1000,1000,505148693,1000,1000,1000,1000
435973874,1000,1000,1000,1000,505248653,1000,1000,1000,1000
435976373,1000,1000,1000,1000,505348613,1000,1000,1000,1000
435978872,1000,1000,1000,1000,505448573,1000,1000,1000,1000
435981371,1000,1000,1000,1000,505548533,1000,1000,1000,1000
435983870,1000,1000,1000,1000,505648493,1000,1000,1000,1000
435986369,1000,1000,1000,1000,505748453,1000,1000,1000,1000
435988868,1000,1000,1000,1000,505848413,1000,1000,1000,1000
435991367,1000,1000,1000,1000,505948373,1000,1000,1000,1000
435993866,1000,1000,1000,1000,506048333,1000,1000,1000,1000
435996365,1000,1000,1000,1000,506148293,1000,1000,1000,1000
435998864,1000,1000,1000,1000,506248253,1000,1000,1000,1000
436001363,1000,1000,1000,1000,506348213,1000,1000,1000,1000
436003862,1000,1000,1000,1000,506448173,1000,1000,1000,1000
436006361,1000,1000,1000,1000,506548966,1000,1000,1000,1000
436008860,1000,1000,1000,1000,506648926,1000,1000,1000,1000
436011359,1000,1000,1000,1000,506748886,1000,1000,1000,1000
436013858,1000,1000,1000,1000,506848846,1000,1000,1000,1000
436016357,1000,1000,1000,1000,506948806,1000,1000,1000,1000
436018856,1000,1000,1000,1000,507048766,1000,1000,1000,1000
436021355,1000,1000,1000,1000,507148726,1000,1000,1000,1000
436023854,1000,1000,1000,1000,507248686,1000,1000,1000,1000
436026353,1000,1000,1000,1000,507348646,1000,1000,1000,1000
436028852,1000,1000,1000,1000,507448606,1000,1000,1000,1000
436031351,1000,1000,1000,1000,507548566,1000,1000,1000,1000
436033850,1000,1000,1000,1000,507648526,1000,1000,1000,1000
436036349,1000,1000,1000,1000,507748486,1000,1000,1000,1000
436038848,1000,1000,1000,1000,507848446,1000,1000,1000,1000
436041347,1000,1000,1000,1000,507948406,1000,1000,1000,1000
436043846,1000,1000,1000,1000,508048366,1000,1000,1000,1000
436046345,1000,1000,1000,1000,508148326,1000,1000,1000,1000
436048844,1000,1000,1000,1000,508248286,1000,1000,1000,1000
436051343,1000,1000,1000,1000,508348246,1000,1000,1000,1000
436053842,1000,1000,1000,1000,508448206,1000,1000,1000,1000
436056341,1000,1000,1000,1000,508548166,1000,1000,1000,1000
436058840,1000,1000,1000,1000,508648959,1000,1000,1000,1000
436061339,1000,1000,1000,1000,508748919,1000,1000,1000,1000
436063838,1000,1000,1000,1000,508848879,1000,1000,1000,1000
436066337,1000,1000,1000,1000,508948839,1000,1000,1000,1000
436068836,1000,1000,1000,1000,509048799,1000,1000,1000,1000
436071335,1000,1000,1000,1000,,,,,
436073834,1000,1000,1000,1000,,,,,
436076333,1000,1000,1000,1000,,,,,
436078832,1000,1000,1000,1000,,,,,
436081331,1000,1000,1000,1000,,,,,
436083830,1000,1000,1000,1000,,,,,
436086329,1000,1000,1000,1000,,,,,
436088828,1000,1000,1000,1000,,,,,
436091327,1000,1000,1000,1000,,,,,
436093826,1000,1000,1000,1000,,,,,
436096325,1000,1000,1000,1000,,,,,
436098824,1000,1000,1000,1000,,,,,
436101323,1000,1000,1000,1000,,,,,
436103822,1000,1000,1000,1000,,,,,
436106321,1000,1000,1000,1000,,,,,
436108820,1000,1000,1000,1000,,,,,
436111319,1000,1000,1000,1000,,,,,
436113818,1000,1000,1000,1000,,,,,
436116317,1000,1000,1000,1000,,,,,
436118816,1000,1000,1000,1000,,,,,
436121315,1000,1000,1000,1000,,,,,
436123814,1000,1000,1000,1000,,,,,
436126313,1000,1000,1000,1000,,,,,
436128812,1000,1000,1000,1000,,,,,
436131311,1000,1000,1000,1000,,,,,
436133810,1000,1000,1000,1000,,,,,
436136309,1000,1000,1000,1000,,,,,
436138808,1000,1000,1000,1000,,,,,
436141307,1000,1000,1000,1000,,,,,
436143806,1000,1000,1000,1000,,,,,
436146305,1000,1000,1000,1000,,,,,
436148804,1000,1000,1000,1000,,,,,
436151303,1000,1000,1000,1000,,,,,
436153802,1000,1000,1000,1000,,,,,
436156301,1000,1000,1000,1000,,,,,
436158800,1000,1000,1000,1000,,,,,
436161299,1000,1000,1000,1000,,,,,
436163798,1000,1000,1000,1000,,,,,
436166297,1000,1000,1000,1000,,,,,
436168796,1000,1000,1000,1000,,,,,
436171295,1000,1000,1000,1000,,,,,
436173794,1000,1000,1000,1000,,,,,
436176293,1000,1000,1000,1000,,,,,
436178792,1000,1000,1000,1000,,,,,
436181291,1000,1000,1000,1000,,,,,
436183790,1000,1000,1000,1000,,,,,
436186289,1000,1000,1000,1000,,,,,
436188788,1000,1000,1000,1000,,,,,
436191287,1000,1000,1000,1000,,,,,
436193786,1000,1000,1000,1000,,,,,
436196285,1000,1000,1000,1000,,,,,
436198784,1000,1000,1000,1000,,,,,
436201283,1000,1000,1000,1000,,,,,
436203782,1001,1001,1001,1001,,,,,
436206281,1002,1002,1002,1002,,,,,
436208780,1003,1003,1003,1003,,,,,
436211279,1003,1003,1003,1003,,,,,
436213778,1004,1004,1004,1004,,,,,
436216277,1005,1005,1005,1005,,,,,
436218776,1006,1006,1006,1006,,,,,
436221275,1006,1006,1006,1006,,,,,
436223774,1007,1007,1007,1007,,,,,
436226273,1008,1008,1008,1008,,,,,
436228772,1009,1009,1009,1009,,,,,
436231271,1009,1009,1009,1009,,,,,
436233770,1010,1010,1010,1010,,,,,
436236269,1011,1011,1011,1011,,,,,
436238768,1012,1012,1012,1012,,,,,
436241267,1012,1012,1012,1012,,,,,
436243766,1013,1013,1013,1013,,,,,
436246265,1014,1014,1014,1014,,,,,
436248764,1015,1015,1015,1015,,,,,
436251263,1015,1015,1015,1015,,,,,
436253762,1016,1016,1016,1016,,,,,
436256261,1017,1017,1017,1017,,,,,
436258760,1018,1018,1018,1018,,,,,
436261259,1018,1018,1018,1018,,,,,
436263758,1019,1019,1019,1019,,,,,
436266257,1020,1020,1020,1020,,,,,
436268756,1021,1021,1021,1021,,,,,
436271255,1021,1021,1021,1021,,,,,
436273754,1022,1022,1022,1022,,,,,
436276253,1023,1023,1023,1023,,,,,
436278752,1024,1024,1024,1024,,,,,
436281251,1024,1024,1024,1024,,,,,
436283750,1025,1025,1025,1025,,,,,
436286249,1026,1026,1026,1026,,,,,
436288748,1027,1027,1027,1027,,,,,
436291247,1027,1027,1027,1027,,,,,
436293746,1028,1028,1028,1028,,,,,
436296245,1029,1029,1029,1029,,,,,
436298744,1030,1030,1030,1030,,,,,
436301243,1030,1030,1030,1030,,,,,
436303742,1031,1031,1031,1031,,,,,
436306241,1032,1032,1032,1032,,,,,
436308740,1033,1033,1033,1033,,,,,
436311239,1033,1033,1033,1033,,,,,
436313738,1034,1034,1034,1034,,,,,
436316237,1035,1035,1035,1035,,,,,
436318736,1036,1036,1036,1036,,,,,
436321235,1036,1036,1036,1036,,,,,
436323734,1037,1037,1037,1037,,,,,
436326233,1038,1038,1038,1038,,,,,
436328732,1039,1039,1039,1039,,,,,
436331231,1039,1039,1039,1039,,,,,
436333730,1040,1040,1040,1040,,,,,
436336229,1041,1041,1041,1041,,,,,
436338728,1042,1042,1042,1042,,,,,
436341227,1042,1042,1042,1042,,,,,
436343726,1043,1043,1043,1043,,,,,
436346225,1044,1044,1044,1044,,,,,
436348724,1045,1045,1045,1045,,,,,
436351223,1045,1045,1045,1045,,,,,
436353722,1046,1046,1046,1046,,,,,
436356221,1047,1047,1047,1047,,,,,
436358720,1048,1048,1048,1048,,,,,
436361219,1048,1048,1048,1048,,,,,
436363718,1049,1049,1049,1049,,,,,
436366217,1050,1050,1050,1050,,,,,
436368716,1051,1051,1051,1051,,,,,
436371215,1051,1051,1051,1051,,,,,
436373714,1052,1052,1052,1052,,,,,
436376213,1053,1053,1053,1053,,,,,
436378712,1054,1054,1054,1054,,,,,
436381211,1054,1054,1054,1054,,,,,
436383710,1055,1055,1055,1055,,,,,
436386209,1056,1056,1056,1056,,,,,
436388708,1057,1057,1057,1057,,,,,
436391207,1057,1057,1057,1057,,,,,
436393706,1058,1058,1058,1058,,,,,
436396205,1059,1059,1059,1059,,,,,
436398704,1060,1060,1060,1060,,,,,
436401203,1060,1060,1060,1060,,,,,
436403702,1061,1061,1061,1061,,,,,
436406201,1062,1062,1062,1062,,,,,
436408700,1063,1063,1063,1063,,,,,
436411199,1063,1063,1063,1063,,,,,
436413698,1064,1064,1064,1064,,,,,
436416197,1065,1065,1065,1065,,,,,
436418696,1066,1066,1066,1066,,,,,
436421195,1066,1066,1066,1066,,,,,
436423694,1067,1067,1067,1067,,,,,
436426193,1068,1068,1068,1068,,,,,
436428692,1069,1069,1069,1069,,,,,
436431191,1069,1069,1069,1069,,,,,
436433690,1070,1070,1070,1070,,,,,
436436189,1071,1071,1071,1071,,,,,
436438688,1072,1072,1072,1072,,,,,
436441187,1072,1072,1072,1072,,,,,
436443686,1073,1073,1073,1073,,,,,
436446185,1074,1074,1074,1074,,,,,
436448684,1075,1075,1075,1075,,,,,
436451183,1075,1075,1075,1075,,,,,
436453682,1076,1076,1076,1076,,,,,
436456181,1077,1077,1077,1077,,,,,
436458680,1078,1078,1078,1078,,,,,
436461179,1078,1078,1078,1078,,,,,
436463678,1079,1079,1079,1079,,,,,
436466177,1080,1080,1080,1080,,,,,
436468676,1081,1081,1081,1081,,,,,
436471175,1081,1081,1081,1081,,,,,
436473674,1082,1082,1082,1082,,,,,
436476173,1083,1083,1083,1083,,,,,
436478672,1084,1084,1084,1084,,,,,
436481171,1084,1084,1084,1084,,,,,
436483670,1085,1085,1085,1085,,,,,
436486169,1086,1086,1086,1086,,,,,
436488668,1087,1087,1087,1087,,,,,
436491167,1087,1087,1087,1087,,,,,
436493666,1088,1088,1088,1088,,,,,
436496165,1089,1089,1089,1089,,,,,
436498664,1090,1090,1090,1090,,,,,
436501163,1090,1090,1090,1090,,,,,
436503662,1091,1091,1091,1091,,,,,
436506161,1092,1092,1092,1092,,,,,
436508660,1093,1093,1093,1093,,,,,
436511159,1093,1093,1093,1093,,,,,
436513658,1094,1094,1094,1094,,,,,
436516157,1095,1095,1095,1095,,,,,
436518656,1096,1096,1096,1096,,,,,
436521155,1096,1096,1096,1096,,,,,
436523654,1097,1097,1097,1097,,,,,
436526153,1098,1098,1098,1098,,,,,
436528652,1099,1099,1099,1099,,,,,
436531151,1099,1099,1099,1099,,,,,
436533650,1100,1100,1100,1100,,,,,
436536149,1100,1100,1100,1100,,,,,
436538648,1100,1100,1100,1100,,,,,
436541147,1100,1100,1100,1100,,,,,
436543646,1100,1100,1100,1100,,,,,
436546145,1100,1100,1100,1100,,,,,
436548644,1100,1100,1100,1100,,,,,
436551143,1100,1100,1100,1100,,,,,
436553642,1100,1100,1100,1100,,,,,
436556141,1100,1100,1100,1100,,,,,
436558640,1100,1100,1100,1100,,,,,
436561139,1100,1100,1100,1100,,,,,
436563638,1100,1100,1100,1100,,,,,
436566137,1100,1100,1100,1100,,,,,
436568636,1100,1100,1100,1100,,,,,
436571135,1100,1100,1100,1100,,,,,
436573634,1100,1100,1100,1100,,,,,
436576133,1100,1100,1100,1100,,,,,
436578632,1100,1100,1100,1100,,,,,
436581131,1100,1100,1100,1100,,,,,
436583630,1100,1100,1100,1100,,,,,
436586129,1100,1100,1100,1100,,,,,
436588628,1100,1100,1100,1100,,,,,
436591127,1100,1100,1100,1100,,,,,
436593626,1100,1100,1100,1100,,,,,
436596125,1100,1100,1100,1100,,,,,
436598624,1100,1100,1100,1100,,,,,
436601123,1100,1100,1100,1100,,,,,
436603622,1100,1100,1100,1100,,,,,
436606121,1100,1100,1100,1100,,,,,
436608620,1100,1100,1100,1100,,,,,
436611119,1100,1100,1100,1100,,,,,
436613618,1100,1100,1100,1100,,,,,
436616117,1100,1100,1100,1100,,,,,
436618616,1100,1100,1100,1100,,,,,
436621115,1100,1100,1100,1100,,,,,
436623614,1100,1100,1100,1100,,,,,
436626113,1100,1100,1100,1100,,,,,
436628612,1100,1100,1100,1100,,,,,
436631111,1100,1100,1100,1100,,,,,
436633610,1100,1100,1100,1100,,,,,
436636109,1100,1100,1100,1100,,,,,
436638608,1100,1100,1100,1100,,,,,
436641107,1100,1100,1100,1100,,,,,
436643606,1100,1100,1100,1100,,,,,
436646105,1100,1100,1100,1100,,,,,
436648604,1100,1100,1100,1100,,,,,
436651103,1100,1100,1100,1100,,,,,
436653602,1100,1100,1100,1100,,,,,
436656101,1100,1100,1100,1100,,,,,
436658600,1100,1100,1100,1100,,,,,
436661099,1100,1100,1100,1100,,,,,
436663598,1100,1100,1100,1100,,,,,
436666097,1100,1100,1100,1100,,,,,
436668596,1100,1100,1100,1100,,,,,
436671095,1100,1100,1100,1100,,,,,
436673594,1100,1100,1100,1100,,,,,
436676093,1100,1100,1100,1100,,,,,
436678592,1100,1100,1100,1100,,,,,
436681091,1100,1100,1100,1100,,,,,
436683590,1100,1100,1100,1100,,,,,
436686089,1100,1100,1100,1100,,,,,
436688588,1100,1100,1100,1100,,,,,
436691087,1100,1100,1100,1100,,,,,
436693586,1100,1100,1100,1100,,,,,
436696085,1100,1100,1100,1100,,,,,
436698584,1100,1100,1100,1100,,,,,
436701083,1100,1100,1100,1100,,,,,
436703582,1100,1100,1100,1100,,,,,
436706081,1100,1100,1100,1100,,,,,
436708580,1100,1100,1100,1100,,,,,
436711079,1100,1100,1100,1100,,,,,
436713578,1100,1100,1100,1100,,,,,
436716077,1100,1100,1100,1100,,,,,
436718576,1100,1100,1100,1100,,,,,
436721075,1100,1100,1100,1100,,,,,
436723574,1100,1100,1100,1100,,,,,
436726073,1100,1100,1100,1100,,,,,
436728572,1100,1100,1100,1100,,,,,
436731071,1100,1100,1100,1100,,,,,
436733570,1100,1100,1100,1100,,,,,
436736069,1100,1100,1100,1100,,,,,
436738568,1100,1100,1100,1100,,,,,
436741067,1100,1100,1100,1100,,,,,
436743566,1100,1100,1100,1100,,,,,
436746065,1100,1100,1100,1100,,,,,
436748564,1100,1100,1100,1100,,,,,
436751063,1100,1100,1100,1100,,,,,
436753562,1100,1100,1100,1100,,,,,
436756061,1100,1100,1100,1100,,,,,
436758560,1100,1100,1100,1100,,,,,
436761059,1100,1100,1100,1100,,,,,
436763558,1100,1100,1100,1100,,,,,
436766057,1100,1100,1100,1100,,,,,
436768556,1100,1100,1100,1100,,,,,
436771055,1100,1100,1100,1100,,,,,
436773554,1100,1100,1100,1100,,,,,
436776053,1100,1100,1100,1100,,,,,
436778552,1100,1100,1100,1100,,,,,
436781051,1100,1100,1100,1100,,,,,
436783550,1100,1100,1100,1100,,,,,
436786049,1100,1100,1100,1100,,,,,
436788548,1100,1100,1100,1100,,,,,
436791047,1100,1100,1100,1100,,,,,
436793546,1100,1100,1100,1100,,,,,
436796045,1100,1100,1100,1100,,,,,
436798544,1100,1100,1100,1100,,,,,
436801043,1100,1100,1100,1100,,,,,
436803542,1100,1100,1100,1100,,,,,
436806041,1100,1100,1100,1100,,,,,
436808540,1100,1100,1100,1100,,,,,
436811039,1100,1100,1100,1100,,,,,
436813538,1100,1100,1100,1100,,,,,
436816037,1100,1100,1100,1100,,,,,
436818536,1100,1100,1100,1100,,,,,
436821035,1100,1100,1100,1100,,,,,
436823534,1100,1100,1100,1100,,,,,
436826033,1100,1100,1100,1100,,,,,
436828532,1100,1100,1100,1100,,,,,
436831031,1100,1100,1100,1100,,,,,
436833530,1100,1100,1100,1100,,,,,
436836029,1100,1100,1100,1100,,,,,
436838528,1100,1100,1100,1100,,,,,
436841027,1100,1100,1100,1100,,,,,
436843526,1100,1100,1100,1100,,,,,
436846025,1100,1100,1100,1100,,,,,
436848524,1100,1100,1100,1100,,,,,
436851023,1100,1100,1100,1100,,,,,
436853522,1100,1100,1100,1100,,,,,
436856021,1100,1100,1100,1100,,,,,
436858520,1100,1100,1100,1100,,,,,
436861019,1100,1100,1100,1100,,,,,
436863518,1100,1100,1100,1100,,,,,
436866017,1100,1100,1100,1100,,,,,
436868516,1100,1100,1100,1100,,,,,
436871015,1100,1100,1100,1100,,,,,
436873514,1100,1100,1100,1100,,,,,
436876013,1100,1100,1100,1100,,,,,
436878512,1100,1100,1100,1100,,,,,
436881011,1100,1100,1100,1100,,,,,
436883510,1100,1100,1100,1100,,,,,
436886009,1100,1100,1100,1100,,,,,
436888508,1100,1100,1100,1100,,,,,
436891007,1100,1100,1100,1100,,,,,
436893506,1100,1100,1100,1100,,,,,
436896005,1100,1100,1100,1100,,,,,
436898504,1100,1100,1100,1100,,,,,
436901003,1100,1100,1100,1100,,,,,
436903502,1100,1100,1100,1100,,,,,
436906001,1100,1100,1100,1100,,,,,
436908500,1100,1100,1100,1100,,,,,
436910999,1100,1100,1100,1100,,,,,
436913498,1100,1100,1100,1100,,,,,
436915997,1100,1100,1100,1100,,,,,
436918496,1100,1100,1100,1100,,,,,
436920995,1100,1100,1100,1100,,,,,
436923494,1100,1100,1100,1100,,,,,
436925993,1100,1100,1100,1100,,,,,
436928492,1100,1100,1100,1100,,,,,
436930991,1100,1100,1100,1100,,,,,
436933490,1100,1100,1100,1100,,,,,
436935989,1100,1100,1100,1100,,,,,
436938488,1100,1100,1100,1100,,,,,
436940987,1100,1100,1100,1100,,,,,
436943486,1100,1100,1100,1100,,,,,
436945985,1100,1100,1100,1100,,,,,
436948484,1100,1100,1100,1100,,,,,
436950983,1100,1100,1100,1100,,,,,
436953482,1100,1100,1100,1100,,,,,
436955981,1100,1100,1100,1100,,,,,
436958480,1100,1100,1100,1100,,,,,
436960979,1100,1100,1100,1100,,,,,
436963478,1100,1100,1100,1100,,,,,
436965977,1100,1100,1100,1100,,,,,
436968476,1100,1100,1100,1100,,,,,
436970975,1100,1100,1100,1100,,,,,
436973474,1100,1100,1100,1100,,,,,
436975973,1100,1100,1100,1100,,,,,
436978472,1100,1100,1100,1100,,,,,
436980971,1100,1100,1100,1100,,,,,
436983470,1100,1100,1100,1100,,,,,
436985969,1100,1100,1100,1100,,,,,
436988468,1100,1100,1100,1100,,,,,
436990967,1100,1100,1100,1100,,,,,
436993466,1100,1100,1100,1100,,,,,
436995965,1100,1100,1100,1100,,,,,
436998464,1100,1100,1100,1100,,,,,
437000963,1100,1100,1100,1100,,,,,
437003462,1100,1100,1100,1100,,,,,
437005961,1100,1100,1100,1100,,,,,
437008460,1100,1100,1100,1100,,,,,
437010959,1100,1100,1100,1100,,,,,
437013458,1100,1100,1100,1100,,,,,
437015957,1100,1100,1100,1100,,,,,
437018456,1100,1100,1100,1100,,,,,
437020955,1100,1100,1100,1100,,,,,
437023454,1100,1100,1100,1100,,,,,
437025953,1100,1100,1100,1100,,,,,
437028452,1100,1100,1100,1100,,,,,
437030951,1100,1100,1100,1100,,,,,
437033450,1100,1100,1100,1100,,,,,
437035949,1100,1100,1100,1100,,,,,
437038448,1100,1100,1100,1100,,,,,
437040947,1100,1100,1100,1100,,,,,
437043446,1100,1100,1100,1100,,,,,
437045945,1100,1100,1100,1100,,,,,
437048444,1100,1100,1100,1100,,,,,
437050943,1100,1100,1100,1100,,,,,
437053442,1100,1100,1100,1100,,,,,
437055941,1100,1100,1100,1100,,,,,
437058440,1100,1100,1100,1100,,,,,
437060939,1100,1100,1100,1100,,,,,
437063438,1100,1100,1100,1100,,,,,
437065937,1100,1100,1100,1100,,,,,
437068436,1100,1100,1100,1100,,,,,
437070935,1100,1100,1100,1100,,,,,
437073434,1100,1100,1100,1100,,,,,
437075933,1100,1100,1100,1100,,,,,
437078432,1100,1100,1100,1100,,,,,
437080931,1100,1100,1100,1100,,,,,
437083430,1100,1100,1100,1100,,,,,
437085929,1100,1100,1100,1100,,,,,
437088428,1100,1100,1100,1100,,,,,
437090927,1100,1100,1100,1100,,,,,
437093426,1100,1100,1100,1100,,,,,
437095925,1100,1100,1100,1100,,,,,
437098424,1100,1100,1100,1100,,,,,
437100923,1100,1100,1100,1100,,,,,
437103422,1100,1100,1100,1100,,,,,
437105921,1100,1100,1100,1100,,,,,
437108420,1100,1100,1100,1100,,,,,
437110919,1100,1100,1100,1100,,,,,
437113418,1100,1100,1100,1100,,,,,
437115917,1100,1100,1100,1100,,,,,
437118416,1100,1100,1100,1100,,,,,
437120915,1100,1100,1100,1100,,,,,
437123414,1100,1100,1100,1100,,,,,
437125913,1100,1100,1100,1100,,,,,
437128412,1100,1100,1100,1100,,,,,
437130911,1100,1100,1100,1100,,,,,
437133410,1100,1100,1100,1100,,,,,
437135909,1100,1100,1100,1100,,,,,
