TimeUS,M1,M2,M3,M4,TimeUS,C1,C2,C3,C4
53980899,1000,1000,1000,1000,54028380,1000,1000,1000,1000
53983398,1000,1000,1000,1000,54128340,1000,1000,1000,1000
53985897,1000,1000,1000,1000,54228300,1000,1000,1000,1000
53988396,1000,1000,1000,1000,54328260,1000,1000,1000,1000
53990895,1000,1000,1000,1000,54428220,1000,1000,1000,1000
53993394,1000,1000,1000,1000,54528180,1000,1000,1000,1000
53995893,1000,1000,1000,1000,54628973,1000,1000,1000,1000
53998392,1000,1000,1000,1000,54728933,1000,1000,1000,1000
54000891,1000,1000,1000,1000,54828893,1000,1000,1000,1000
54003390,1000,1000,1000,1000,54928853,1000,1000,1000,1000
54005889,1000,1000,1000,1000,55028813,1000,1000,1000,1000
54008388,1000,1000,1000,1000,55128773,1000,1000,1000,1000
54010887,1000,1000,1000,1000,55228733,1000,1000,1000,1000
54013386,1000,1000,1000,1000,55328693,1000,1000,1000,1000
54015885,1000,1000,1000,1000,55428653,1000,1000,1000,1000
54018384,1000,1000,1000,1000,55528613,1000,1000,1000,1000
54020883,1000,1000,1000,1000,55628573,1000,1000,1000,1000
54023382,1000,1000,1000,1000,55728533,1000,1000,1000,1000
54025881,1000,1000,1000,1000,55828493,1000,1000,1000,1000
54028380,1000,1000,1000,1000,55928453,1000,1000,1000,1000
54030879,1000,1000,1000,1000,56028413,1014,1014,1014,1014
54033378,1000,1000,1000,1000,56128373,1044,1044,1044,1044
54035877,1000,1000,1000,1000,56228333,1074,1074,1074,1074
54038376,1000,1000,1000,1000,56328293,1104,1104,1104,1104
54040875,1000,1000,1000,1000,56428253,1134,1134,1134,1134
54043374,1000,1000,1000,1000,56528213,1282,1274,1275,1282
54045873,1000,1000,1000,1000,56628173,1490,1485,1485,1491
54048372,1000,1000,1000,1000,56728966,1652,1647,1648,1652
54050871,1000,1000,1000,1000,56828926,1789,1784,1784,1790
54053370,1000,1000,1000,1000,56928886,1910,1905,1905,1910
54055869,1000,1000,1000,1000,57028846,1889,1886,1887,1889
54058368,1000,1000,1000,1000,57128806,1762,1761,1762,1762
54060867,1000,1000,1000,1000,57228766,1669,1671,1670,1670
54063366,1000,1000,1000,1000,57328726,1636,1638,1633,1641
54065865,1000,1000,1000,1000,57428686,1638,1641,1634,1645
54068364,1000,1000,1000,1000,57528646,1642,1645,1642,1646
54070863,1000,1000,1000,1000,57628606,1640,1642,1643,1640
54073362,1000,1000,1000,1000,57728566,1635,1635,1638,1631
54075861,1000,1000,1000,1000,57828526,1629,1627,1632,1624
54078360,1000,1000,1000,1000,57928486,1625,1623,1627,1620
54080859,1000,1000,1000,1000,58028446,1622,1621,1623,1619
54083358,1000,1000,1000,1000,58128406,1591,1590,1599,1582
54085857,1000,1000,1000,1000,58228366,1576,1576,1582,1569
54088356,1000,1000,1000,1000,58328326,1564,1565,1565,1564
54090855,1000,1000,1000,1000,58428286,1554,1554,1550,1558
54093354,1000,1000,1000,1000,58528246,1547,1547,1541,1553
54095853,1000,1000,1000,1000,58628206,1541,1540,1532,1549
54098352,1000,1000,1000,1000,58728166,1535,1534,1527,1541
54100851,1000,1000,1000,1000,58828959,1529,1529,1525,1532
54103350,1000,1000,1000,1000,58928919,1525,1525,1524,1525
54105849,1000,1000,1000,1000,59028879,1524,1524,1526,1522
54108348,1000,1000,1000,1000,59128839,1526,1526,1528,1524
54110847,1000,1000,1000,1000,59228799,1529,1529,1531,1526
54113346,1000,1000,1000,1000,59328759,1533,1533,1535,1531
54115845,1000,1000,1000,1000,59428719,1537,1537,1539,1536
54118344,1000,1000,1000,1000,59528679,1541,1541,1543,1539
54120843,1000,1000,1000,1000,59628639,1544,1544,1545,1543
54123342,1000,1000,1000,1000,59728599,1548,1548,1548,1548
54125841,1000,1000,1000,1000,59828559,1551,1551,1551,1552
54128340,1000,1000,1000,1000,59928519,1554,1553,1553,1554
54130839,1000,1000,1000,1000,60028479,1556,1556,1555,1557
54133338,1000,1000,1000,1000,60128439,1556,1556,1558,1561
54135837,1000,1000,1000,1000,60228399,1557,1557,1561,1562
54138336,1000,1000,1000,1000,60328359,1559,1559,1563,1564
54140835,1000,1000,1000,1000,60428319,1560,1560,1565,1564
54143334,1000,1000,1000,1000,60528279,1562,1562,1565,1565
54145833,1000,1000,1000,1000,60628239,1565,1565,1567,1566
54148332,1000,1000,1000,1000,60728199,1567,1568,1568,1567
54150831,1000,1000,1000,1000,60828159,1568,1569,1567,1567
54153330,1000,1000,1000,1000,60928952,1571,1571,1569,1569
54155829,1000,1000,1000,1000,61028912,1571,1571,1568,1568
54158328,1000,1000,1000,1000,61128872,1572,1571,1568,1568
54160827,1000,1000,1000,1000,61228832,1573,1572,1569,1569
54163326,1000,1000,1000,1000,61328792,1574,1574,1571,1571
54165825,1000,1000,1000,1000,61428752,1575,1575,1572,1573
54168324,1000,1000,1000,1000,61528712,1575,1575,1574,1573
54170823,1000,1000,1000,1000,61628672,1575,1575,1575,1573
54173322,1000,1000,1000,1000,61728632,1576,1575,1576,1574
54175821,1000,1000,1000,1000,61828592,1575,1575,1576,1575
54178320,1000,1000,1000,1000,61928552,1575,1575,1575,1576
54180819,1000,1000,1000,1000,62028512,1575,1576,1576,1577
54183318,1000,1000,1000,1000,62128472,1576,1576,1576,1577
54185817,1000,1000,1000,1000,62228432,1576,1576,1577,1576
54188316,1000,1000,1000,1000,62328392,1575,1575,1576,1576
54190815,1000,1000,1000,1000,62428352,1576,1576,1577,1577
54193314,1000,1000,1000,1000,62528312,1576,1576,1577,1577
54195813,1000,1000,1000,1000,62628272,1576,1576,1577,1576
54198312,1000,1000,1000,1000,62728232,1577,1577,1577,1577
54200811,1000,1000,1000,1000,62828192,1577,1577,1577,1577
54203310,1000,1000,1000,1000,62928985,1577,1577,1577,1576
54205809,1000,1000,1000,1000,63028945,1578,1579,1578,1578
54208308,1000,1000,1000,1000,63128905,1579,1578,1578,1578
54210807,1000,1000,1000,1000,63228865,1578,1578,1578,1578
54213306,1000,1000,1000,1000,63328825,1579,1578,1578,1578
54215805,1000,1000,1000,1000,63428785,1579,1578,1578,1578
54218304,1000,1000,1000,1000,63528745,1578,1578,1578,1578
54220803,1000,1000,1000,1000,63628705,1579,1578,1579,1579
54223302,1000,1000,1000,1000,63728665,1578,1578,1578,1578
54225801,1000,1000,1000,1000,63828625,1579,1579,1579,1580
54228300,1000,1000,1000,1000,63928585,1579,1579,1580,1580
54230799,1000,1000,1000,1000,64028545,1578,1579,1579,1579
54233298,1000,1000,1000,1000,64128505,1580,1580,1580,1580
54235797,1000,1000,1000,1000,64228465,1579,1579,1579,1580
54238296,1000,1000,1000,1000,64328425,1579,1579,1579,1579
54240795,1000,1000,1000,1000,64428385,1579,1580,1580,1579
54243294,1000,1000,1000,1000,64528345,1580,1580,1579,1579
54245793,1000,1000,1000,1000,64628305,1580,1579,1579,1579
54248292,1000,1000,1000,1000,64728265,1580,1579,1579,1580
54250791,1000,1000,1000,1000,64828225,1580,1580,1580,1580
54253290,1000,1000,1000,1000,64928185,1579,1579,1578,1579
54255789,1000,1000,1000,1000,65028978,1580,1579,1579,1579
54258288,1000,1000,1000,1000,65128938,1579,1579,1579,1579
54260787,1000,1000,1000,1000,65228898,1578,1578,1578,1579
54263286,1000,1000,1000,1000,65328858,1579,1580,1579,1579
54265785,1000,1000,1000,1000,65428818,1578,1579,1579,1579
54268284,1000,1000,1000,1000,65528778,1580,1580,1580,1580
54270783,1000,1000,1000,1000,65628738,1580,1580,1580,1580
54273282,1000,1000,1000,1000,65728698,1580,1580,1580,1580
54275781,1000,1000,1000,1000,65828658,1580,1580,1580,1580
54278280,1000,1000,1000,1000,65928618,1580,1579,1580,1580
54280779,1000,1000,1000,1000,66028578,1581,1581,1581,1581
54283278,1000,1000,1000,1000,66128538,1581,1581,1581,1581
54285777,1000,1000,1000,1000,66228498,1580,1580,1582,1578
54288276,1000,1000,1000,1000,66328458,1580,1581,1588,1573
54290775,1000,1000,1000,1000,66428418,1580,1582,1583,1574
54293274,1000,1000,1000,1000,66528378,1579,1582,1575,1574
54295773,1000,1000,1000,1000,66628338,1577,1580,1566,1571
54298272,1000,1000,1000,1000,66728298,1576,1578,1559,1566
54300771,1000,1000,1000,1000,66828258,1578,1578,1556,1562
54303270,1000,1000,1000,1000,66928218,1579,1578,1556,1558
54305769,1000,1000,1000,1000,67028178,1580,1578,1556,1556
54308268,1000,1000,1000,1000,67128971,1579,1578,1556,1554
54310767,1000,1000,1000,1000,67228931,1578,1578,1556,1554
54313266,1000,1000,1000,1000,67328891,1577,1577,1555,1554
54315765,1000,1000,1000,1000,67428851,1576,1577,1555,1554
54318264,1000,1000,1000,1000,67528811,1575,1576,1553,1554
54320763,1000,1000,1000,1000,67628771,1574,1577,1552,1552
54323262,1000,1000,1000,1000,67728731,1576,1577,1551,1552
54325761,1000,1000,1000,1000,67828691,1577,1579,1550,1550
54328260,1000,1000,1000,1000,67928651,1578,1579,1546,1546
54330759,1000,1000,1000,1000,68028611,1581,1582,1544,1544
54333258,1000,1000,1000,1000,68128571,1585,1585,1542,1541
54335757,1000,1000,1000,1000,68228531,1588,1588,1539,1539
54338256,1000,1000,1000,1000,68328491,1590,1591,1537,1536
54340755,1000,1000,1000,1000,68428451,1593,1594,1535,1536
54343254,1000,1000,1000,1000,68528411,1595,1594,1535,1535
54345753,1000,1000,1000,1000,68628371,1594,1594,1534,1536
54348252,1000,1000,1000,1000,68728331,1594,1593,1536,1539
54350751,1000,1000,1000,1000,68828291,1591,1591,1540,1543
54353250,1000,1000,1000,1000,68928251,1587,1585,1546,1550
54355749,1000,1000,1000,1000,69028211,1580,1577,1554,1557
54358248,1000,1000,1000,1000,69128171,1572,1568,1566,1568
54360747,1000,1000,1000,1000,69228964,1562,1557,1579,1579
54363246,1000,1000,1000,1000,69328924,1551,1547,1592,1592
54365745,1000,1000,1000,1000,69428884,1541,1539,1602,1602
54368244,1000,1000,1000,1000,69528844,1532,1531,1608,1608
54370743,1000,1000,1000,1000,69628804,1529,1530,1614,1613
54373242,1000,1000,1000,1000,69728764,1529,1531,1615,1614
54375741,1000,1000,1000,1000,69828724,1533,1536,1613,1613
54378240,1000,1000,1000,1000,69928684,1539,1541,1608,1608
54380739,1000,1000,1000,1000,70028644,1548,1549,1602,1602
54383238,1000,1000,1000,1000,70128604,1556,1557,1594,1594
54385737,1000,1000,1000,1000,70228564,1565,1566,1587,1587
54388236,1000,1000,1000,1000,70328524,1573,1572,1580,1578
54390735,1000,1000,1000,1000,70428484,1580,1579,1575,1573
54393234,1000,1000,1000,1000,70528444,1585,1583,1570,1569
54395733,1000,1000,1000,1000,70628404,1587,1585,1567,1567
54398232,1000,1000,1000,1000,70728364,1588,1586,1566,1566
54400731,1000,1000,1000,1000,70828324,1587,1586,1566,1567
54403230,1000,1000,1000,1000,70928284,1585,1584,1568,1568
54405729,1000,1000,1000,1000,71028244,1583,1582,1572,1571
54408228,1000,1000,1000,1000,71128204,1580,1580,1574,1574
54410727,1000,1000,1000,1000,71228164,1577,1578,1578,1578
54413226,1000,1000,1000,1000,71328957,1575,1575,1580,1580
54415725,1000,1000,1000,1000,71428917,1595,1595,1464,1537
54418224,1000,1000,1000,1000,71528877,1612,1614,1545,1534
54420723,1000,1000,1000,1000,71628837,1633,1636,1616,1560
54423222,1000,1000,1000,1000,71728797,1649,1654,1668,1598
54425721,1000,1000,1000,1000,71828757,1648,1656,1689,1629
54428220,1000,1000,1000,1000,71928717,1628,1636,1678,1644
54430719,1000,1000,1000,1000,72028677,1599,1603,1647,1646
54433218,1000,1000,1000,1000,72128637,1576,1574,1618,1643
54435717,1000,1000,1000,1000,72228597,1561,1552,1597,1633
54438216,1000,1000,1000,1000,72328557,1556,1542,1588,1621
54440715,1000,1000,1000,1000,72428517,1554,1540,1587,1607
54443214,1000,1000,1000,1000,72528477,1554,1544,1588,1593
54445713,1000,1000,1000,1000,72628437,1556,1554,1588,1583
54448212,1000,1000,1000,1000,72728397,1560,1563,1585,1576
54450711,1000,1000,1000,1000,72828357,1564,1572,1580,1572
54453210,1000,1000,1000,1000,72928317,1567,1576,1573,1570
54455709,1000,1000,1000,1000,73028277,1571,1579,1568,1569
54458208,1000,1000,1000,1000,73128237,1575,1578,1563,1568
54460707,1000,1000,1000,1000,73228197,1576,1577,1560,1566
54463206,1000,1000,1000,1000,73328157,1578,1576,1559,1564
54465705,1000,1000,1000,1000,73428950,1579,1576,1560,1562
54468204,1000,1000,1000,1000,73528910,1580,1577,1561,1561
54470703,1000,1000,1000,1000,73628870,1581,1579,1564,1561
54473202,1000,1000,1000,1000,73728830,1581,1580,1566,1564
54475701,1000,1000,1000,1000,73828790,1580,1581,1567,1566
54478200,1000,1000,1000,1000,73928750,1579,1580,1569,1569
54480699,1000,1000,1000,1000,74028710,1577,1578,1571,1571
54483198,1000,1000,1000,1000,74128670,1577,1577,1573,1573
54485697,1000,1000,1000,1000,74228630,1576,1576,1575,1575
54488196,1000,1000,1000,1000,74328590,1574,1576,1583,1568
54490695,1000,1000,1000,1000,74428550,1573,1578,1581,1569
54493194,1000,1000,1000,1000,74528510,1572,1577,1575,1572
54495693,1000,1000,1000,1000,74628470,1570,1574,1567,1571
54498192,1000,1000,1000,1000,74728430,1571,1572,1560,1568
54500691,1000,1000,1000,1000,74828390,1572,1571,1556,1563
54503190,1000,1000,1000,1000,74928350,1574,1571,1553,1558
54505689,1000,1000,1000,1000,75028310,1575,1573,1553,1554
54508188,1000,1000,1000,1000,75128270,1577,1575,1553,1551
54510687,1000,1000,1000,1000,75228230,1577,1577,1552,1549
54513186,1000,1000,1000,1000,75328190,1577,1578,1551,1549
54515685,1000,1000,1000,1000,75428983,1578,1580,1551,1550
54518184,1000,1000,1000,1000,75528943,1578,1579,1550,1550
54520683,1000,1000,1000,1000,75628903,1577,1578,1549,1549
54523182,1000,1000,1000,1000,75728863,1577,1578,1549,1549
54525681,1000,1000,1000,1000,75828823,1579,1579,1548,1549
54528180,1000,1000,1000,1000,75928783,1580,1580,1548,1548
54530679,1000,1000,1000,1000,76028743,1581,1582,1547,1548
54533178,1000,1000,1000,1000,76128703,1582,1583,1547,1547
54535677,1000,1000,1000,1000,76228663,1584,1584,1546,1546
54538176,1000,1000,1000,1000,76328623,1585,1585,1545,1545
54540675,1000,1000,1000,1000,76428583,1587,1587,1546,1547
54543174,1000,1000,1000,1000,76528543,1586,1587,1545,1546
54545673,1000,1000,1000,1000,76628503,1587,1587,1545,1547
54548172,1000,1000,1000,1000,76728463,1587,1586,1547,1549
54550671,1000,1000,1000,1000,76828423,1586,1585,1551,1554
54553170,1000,1000,1000,1000,76928383,1581,1579,1555,1558
54555669,1000,1000,1000,1000,77028343,1576,1574,1563,1565
54558168,1000,1000,1000,1000,77128303,1570,1567,1571,1573
54560667,1000,1000,1000,1000,77228263,1563,1561,1581,1582
54563166,1000,1000,1000,1000,77328223,1557,1555,1589,1589
54565665,1000,1000,1000,1000,77428183,1552,1552,1596,1595
54568164,1000,1000,1000,1000,77528976,1550,1550,1601,1599
54570663,1000,1000,1000,1000,77628936,1550,1550,1603,1602
54573162,1000,1000,1000,1000,77728896,1549,1550,1603,1602
54575661,1000,1000,1000,1000,77828856,1550,1552,1602,1601
54578160,1000,1000,1000,1000,77928816,1552,1553,1599,1599
54580659,1000,1000,1000,1000,78028776,1556,1556,1597,1597
54583158,1000,1000,1000,1000,78128736,1559,1559,1594,1594
54585657,1000,1000,1000,1000,78228696,1562,1563,1590,1590
54588156,1000,1000,1000,1000,78328656,1564,1565,1586,1586
54590655,1000,1000,1000,1000,78428616,1568,1569,1582,1582
54593154,1000,1000,1000,1000,78528576,1571,1571,1578,1578
54596486,1000,1000,1000,1000,78628536,1575,1575,1575,1576
54598985,1000,1000,1000,1000,78728496,1579,1578,1573,1573
54601484,1000,1000,1000,1000,78828456,1581,1581,1571,1571
54603983,1000,1000,1000,1000,78928416,1583,1582,1570,1570
54606482,1000,1000,1000,1000,79028376,1583,1583,1569,1569
54608981,1000,1000,1000,1000,79128336,1583,1582,1570,1570
54611480,1000,1000,1000,1000,79228296,1582,1581,1571,1571
54613979,1000,1000,1000,1000,79328256,1580,1580,1573,1573
54616478,1000,1000,1000,1000,79428216,1579,1579,1575,1576
54618977,1000,1000,1000,1000,79528176,1577,1577,1578,1577
54621476,1000,1000,1000,1000,79628969,1576,1576,1580,1579
54623975,1000,1000,1000,1000,79728929,1574,1575,1581,1580
54626474,1000,1000,1000,1000,79828889,1574,1575,1582,1582
54628973,1000,1000,1000,1000,79928849,1574,1575,1583,1582
54631472,1000,1000,1000,1000,80028809,1575,1575,1582,1583
54633971,1000,1000,1000,1000,80128769,1576,1576,1583,1582
54636470,1000,1000,1000,1000,80228729,1577,1577,1582,1582
54638969,1000,1000,1000,1000,80328689,1578,1577,1582,1582
54641468,1000,1000,1000,1000,80428649,1578,1578,1580,1580
54643967,1000,1000,1000,1000,80528609,1579,1579,1580,1580
54646466,1000,1000,1000,1000,80628569,1580,1580,1579,1580
54648965,1000,1000,1000,1000,80728529,1581,1581,1579,1579
54651464,1000,1000,1000,1000,80828489,1581,1581,1579,1579
54653963,1000,1000,1000,1000,80928449,1580,1580,1577,1578
54656462,1000,1000,1000,1000,81028409,1580,1580,1577,1577
54658961,1000,1000,1000,1000,81128369,1580,1580,1577,1578
54661460,1000,1000,1000,1000,81228329,1581,1580,1579,1579
54663959,1000,1000,1000,1000,81328289,1581,1581,1580,1580
54666458,1000,1000,1000,1000,81428249,1581,1581,1580,1580
54668957,1000,1000,1000,1000,81528209,1581,1581,1581,1581
54671456,1000,1000,1000,1000,81628169,1581,1581,1581,1581
54673955,1000,1000,1000,1000,81728962,1580,1580,1581,1581
54676454,1000,1000,1000,1000,81828922,1581,1581,1582,1582
54678953,1000,1000,1000,1000,81928882,1579,1580,1581,1581
54681452,1000,1000,1000,1000,82028842,1580,1580,1581,1581
54683951,1000,1000,1000,1000,82128802,1580,1580,1581,1581
54686450,1000,1000,1000,1000,82228762,1581,1581,1582,1582
54688949,1000,1000,1000,1000,82328722,1581,1581,1581,1582
54691448,1000,1000,1000,1000,82428682,1581,1581,1581,1581
54693947,1000,1000,1000,1000,82528642,1582,1581,1582,1581
54696446,1000,1000,1000,1000,82628602,1581,1583,1587,1574
54698945,1000,1000,1000,1000,82728562,1580,1584,1585,1573
54701444,1000,1000,1000,1000,82828522,1579,1583,1578,1573
54703943,1000,1000,1000,1000,82928482,1577,1580,1569,1571
54706442,1000,1000,1000,1000,83028442,1577,1579,1562,1569
54708941,1000,1000,1000,1000,83128402,1577,1578,1557,1564
54711440,1000,1000,1000,1000,83228362,1580,1578,1555,1560
54713939,1000,1000,1000,1000,83328322,1580,1577,1554,1555
54716438,1000,1000,1000,1000,83428282,1579,1577,1554,1553
54718937,1000,1000,1000,1000,83528242,1580,1579,1555,1553
54721436,1000,1000,1000,1000,83628202,1578,1579,1555,1552
54723935,1000,1000,1000,1000,83728162,1577,1578,1554,1553
54726434,1000,1000,1000,1000,83828955,1576,1578,1554,1553
54728933,1000,1000,1000,1000,83928915,1575,1576,1552,1552
54731432,1000,1000,1000,1000,84028875,1575,1577,1551,1551
54733931,1000,1000,1000,1000,84128835,1577,1578,1550,1551
54736430,1000,1000,1000,1000,84228795,1578,1579,1549,1548
54738929,1000,1000,1000,1000,84328755,1581,1581,1547,1547
54741428,1000,1000,1000,1000,84428715,1583,1584,1545,1544
54743927,1000,1000,1000,1000,84528675,1586,1587,1543,1543
54746426,1000,1000,1000,1000,84628635,1588,1589,1540,1540
54748925,1000,1000,1000,1000,84728595,1592,1591,1538,1539
54751424,1000,1000,1000,1000,84828555,1592,1592,1536,1537
54753923,1000,1000,1000,1000,84928515,1594,1594,1536,1538
54756422,1000,1000,1000,1000,85028475,1595,1595,1537,1540
54758921,1000,1000,1000,1000,85128435,1594,1593,1541,1544
54761420,1000,1000,1000,1000,85228395,1590,1587,1546,1549
54763919,1000,1000,1000,1000,85328355,1584,1580,1554,1557
54766418,1000,1000,1000,1000,85428315,1574,1571,1564,1567
54768917,1000,1000,1000,1000,85528275,1564,1560,1576,1578
54771416,1000,1000,1000,1000,85628235,1554,1551,1589,1589
54773915,1000,1000,1000,1000,85728195,1545,1543,1601,1600
54776414,1000,1000,1000,1000,85828155,1538,1538,1609,1607
54778913,1000,1000,1000,1000,85928948,1535,1537,1614,1611
54781412,1000,1000,1000,1000,86028908,1536,1538,1615,1613
54783911,1000,1000,1000,1000,86128868,1539,1541,1613,1612
54786410,1000,1000,1000,1000,86228828,1546,1546,1610,1610
54788909,1000,1000,1000,1000,86328788,1549,1550,1605,1604
54791408,1000,1000,1000,1000,86428748,1555,1556,1599,1599
54793907,1000,1000,1000,1000,86528708,1560,1561,1592,1592
54796406,1000,1000,1000,1000,86628668,1567,1567,1585,1586
54798905,1000,1000,1000,1000,86728628,1574,1573,1580,1580
54801404,1000,1000,1000,1000,86828588,1578,1578,1573,1573
54803903,1000,1000,1000,1000,86928548,1584,1582,1569,1570
54806402,1000,1000,1000,1000,87028508,1585,1583,1565,1566
54808901,1000,1000,1000,1000,87128468,1586,1585,1564,1565
54811400,1000,1000,1000,1000,87228428,1586,1585,1565,1566
54813899,1000,1000,1000,1000,87328388,1585,1584,1567,1567
54816398,1000,1000,1000,1000,87428348,1583,1582,1570,1570
54818897,1000,1000,1000,1000,87528308,1580,1580,1573,1573
54821396,1000,1000,1000,1000,87628268,1578,1578,1576,1576
54823895,1000,1000,1000,1000,87728228,1576,1576,1579,1578
54826394,1000,1000,1000,1000,87828188,1574,1575,1582,1581
54828893,1000,1000,1000,1000,87928981,1573,1573,1583,1583
54831392,1000,1000,1000,1000,88028941,1571,1572,1583,1583
54833891,1000,1000,1000,1000,88128901,1572,1573,1584,1584
54836390,1000,1000,1000,1000,88228861,1572,1574,1583,1583
54838889,1000,1000,1000,1000,88328821,1573,1574,1582,1582
54841388,1000,1000,1000,1000,88428781,1575,1575,1582,1582
54843887,1000,1000,1000,1000,88528741,1577,1577,1581,1581
54846386,1000,1000,1000,1000,88628701,1578,1578,1579,1579
54848885,1000,1000,1000,1000,88728661,1579,1579,1578,1578
54851384,1000,1000,1000,1000,88828621,1579,1580,1577,1577
54853883,1000,1000,1000,1000,88928581,1580,1580,1576,1577
54856382,1000,1000,1000,1000,89028541,1581,1581,1576,1577
54858881,1000,1000,1000,1000,89128501,1582,1581,1577,1577
54861380,1000,1000,1000,1000,89228461,1581,1581,1577,1577
54863879,1000,1000,1000,1000,89328421,1580,1580,1577,1577
54866378,1000,1000,1000,1000,89428381,1581,1581,1579,1579
54868877,1000,1000,1000,1000,89528341,1581,1581,1580,1579
54871376,1000,1000,1000,1000,89628301,1580,1580,1580,1580
54873875,1000,1000,1000,1000,89728261,1580,1581,1581,1581
54876374,1000,1000,1000,1000,89828221,1580,1579,1581,1581
54878873,1000,1000,1000,1000,89928181,1580,1580,1582,1581
54881372,1000,1000,1000,1000,90028974,1579,1579,1581,1582
54883871,1000,1000,1000,1000,90128934,1580,1580,1582,1583
54886370,1000,1000,1000,1000,90228894,1580,1580,1582,1582
54888869,1000,1000,1000,1000,90328854,1580,1580,1582,1581
54891368,1000,1000,1000,1000,90428814,1580,1580,1581,1581
54893867,1000,1000,1000,1000,90528774,1580,1581,1586,1573
54896366,1000,1000,1000,1000,90628734,1581,1582,1586,1573
54898865,1000,1000,1000,1000,90728694,1578,1579,1580,1574
54901364,1000,1000,1000,1000,90828654,1575,1576,1573,1576
54903863,1000,1000,1000,1000,90928614,1571,1571,1568,1574
54906362,1000,1000,1000,1000,91028574,1569,1568,1565,1572
54908861,1000,1000,1000,1000,91128534,1568,1566,1564,1569
54911360,1000,1000,1000,1000,91228494,1568,1567,1566,1568
54913859,1000,1000,1000,1000,91328454,1567,1567,1566,1566
54916358,1000,1000,1000,1000,91428414,1566,1566,1566,1564
54918857,1000,1000,1000,1000,91528374,1565,1566,1567,1564
54921356,1000,1000,1000,1000,91628334,1565,1566,1567,1564
54923855,1000,1000,1000,1000,91728294,1564,1565,1565,1564
54926354,1000,1000,1000,1000,91828254,1565,1565,1565,1565
54928853,1000,1000,1000,1000,91928214,1563,1562,1563,1563
54931352,1000,1000,1000,1000,92028174,1563,1563,1563,1564
54933851,1000,1000,1000,1000,92128967,1562,1562,1562,1562
54936350,1000,1000,1000,1000,92228927,1561,1561,1562,1561
54938849,1000,1000,1000,1000,92328887,1561,1560,1561,1560
54941348,1000,1000,1000,1000,92428847,1560,1560,1561,1560
54943847,1000,1000,1000,1000,92528807,1558,1559,1559,1559
54946346,1000,1000,1000,1000,92628767,1557,1557,1558,1557
54948845,1000,1000,1000,1000,92728727,1558,1558,1559,1558
54951344,1000,1000,1000,1000,92828687,1557,1557,1558,1557
54953843,1000,1000,1000,1000,92928647,1557,1557,1557,1556
54956342,1000,1000,1000,1000,93028607,1558,1558,1558,1556
54958841,1000,1000,1000,1000,93128567,1557,1557,1558,1556
54961340,1000,1000,1000,1000,93228527,1558,1559,1560,1557
54963839,1000,1000,1000,1000,93328487,1559,1559,1558,1559
54966338,1000,1000,1000,1000,93428447,1557,1556,1555,1558
54968837,1000,1000,1000,1000,93528407,1558,1557,1555,1561
54971336,1000,1000,1000,1000,93628367,1556,1557,1554,1560
54973835,1000,1000,1000,1000,93728327,1554,1554,1552,1557
54976334,1000,1000,1000,1000,93828287,1549,1549,1549,1551
54978833,1000,1000,1000,1000,93928247,1544,1544,1545,1545
54981332,1000,1000,1000,1000,94028207,1536,1537,1539,1537
54983831,1000,1000,1000,1000,94128167,1529,1530,1532,1530
54986330,1000,1000,1000,1000,94228960,1523,1522,1525,1524
54988829,1000,1000,1000,1000,94328920,1521,1521,1521,1523
54991328,1000,1000,1000,1000,94428880,1520,1520,1519,1521
54993827,1000,1000,1000,1000,94528840,1522,1522,1520,1523
54996326,1000,1000,1000,1000,94628800,1525,1525,1522,1524
54998825,1000,1000,1000,1000,94728760,1529,1529,1526,1527
55001324,1000,1000,1000,1000,94828720,1533,1533,1530,1530
55003823,1000,1000,1000,1000,94928680,1537,1537,1534,1533
55006322,1000,1000,1000,1000,95028640,1540,1541,1538,1537
55008821,1000,1000,1000,1000,95128600,1542,1542,1541,1539
55011320,1000,1000,1000,1000,95228560,1544,1544,1543,1542
55013819,1000,1000,1000,1000,95328520,1545,1544,1544,1544
55016318,1000,1000,1000,1000,95428480,1544,1544,1545,1544
55018817,1000,1000,1000,1000,95528440,1545,1545,1547,1546
55021316,1000,1000,1000,1000,95628400,1545,1546,1548,1548
55023815,1000,1000,1000,1000,95728360,1546,1546,1548,1548
55026314,1000,1000,1000,1000,95828320,1545,1545,1547,1547
55028813,1000,1000,1000,1000,95928280,1545,1545,1547,1548
55031312,1000,1000,1000,1000,96028240,1545,1545,1547,1547
55033811,1000,1000,1000,1000,96128200,1546,1545,1546,1547
55036310,1000,1000,1000,1000,96228160,1545,1545,1546,1545
55038809,1000,1000,1000,1000,96328953,1545,1545,1545,1545
55041308,1000,1000,1000,1000,96428913,1545,1546,1545,1545
55043807,1000,1000,1000,1000,96528873,1545,1545,1544,1544
55046306,1000,1000,1000,1000,96628833,1545,1545,1544,1544
55048805,1000,1000,1000,1000,96728793,1545,1544,1544,1544
55051304,1000,1000,1000,1000,96828753,1544,1544,1544,1543
55053803,1000,1000,1000,1000,96928713,1545,1545,1545,1544
55056302,1000,1000,1000,1000,97028673,1545,1545,1544,1544
55058801,1000,1000,1000,1000,97128633,1545,1546,1545,1545
55061300,1000,1000,1000,1000,97228593,1545,1545,1545,1545
55063799,1000,1000,1000,1000,97328553,1544,1544,1544,1543
55066298,1000,1000,1000,1000,97428513,1543,1543,1544,1543
55068797,1000,1000,1000,1000,97528473,1543,1543,1543,1543
55071296,1000,1000,1000,1000,97628433,1543,1544,1544,1544
55073795,1000,1000,1000,1000,97728393,1544,1544,1544,1545
55076294,1000,1000,1000,1000,97828353,1544,1544,1544,1544
55078793,1000,1000,1000,1000,97928313,1545,1545,1545,1544
55081292,1000,1000,1000,1000,98028273,1545,1544,1545,1544
55083791,1000,1000,1000,1000,98128233,1544,1544,1544,1544
55086290,1000,1000,1000,1000,98228193,1544,1544,1544,1544
55088789,1000,1000,1000,1000,98328986,1543,1543,1543,1543
55091288,1000,1000,1000,1000,98428946,1544,1545,1544,1544
55093787,1000,1000,1000,1000,98528906,1545,1545,1544,1545
55096286,1000,1000,1000,1000,98628866,1545,1545,1544,1544
55098785,1000,1000,1000,1000,98728826,1544,1544,1544,1543
55101284,1000,1000,1000,1000,98828786,1544,1544,1544,1544
55103783,1000,1000,1000,1000,98928746,1544,1544,1544,1544
55106282,1000,1000,1000,1000,99028706,1544,1544,1544,1544
55108781,1000,1000,1000,1000,99128666,1545,1545,1545,1545
55111280,1000,1000,1000,1000,99228626,1544,1544,1544,1544
55113779,1000,1000,1000,1000,99328586,1544,1544,1544,1544
55116278,1000,1000,1000,1000,99428546,1544,1544,1544,1544
55118777,1000,1000,1000,1000,99528506,1544,1544,1545,1544
55121276,1000,1000,1000,1000,99628466,1544,1545,1545,1544
55123775,1000,1000,1000,1000,99728426,1544,1543,1543,1544
55126274,1000,1000,1000,1000,99828386,1543,1544,1544,1544
55128773,1000,1000,1000,1000,99928346,1543,1543,1543,1544
55131272,1000,1000,1000,1000,100028306,1544,1544,1544,1544
55133771,1000,1000,1000,1000,100128266,1545,1545,1545,1545
55136270,1000,1000,1000,1000,100228226,1544,1544,1544,1544
55138769,1000,1000,1000,1000,100328186,1545,1544,1544,1544
55141268,1000,1000,1000,1000,100428979,1545,1545,1545,1545
55143767,1000,1000,1000,1000,100528939,1544,1545,1544,1544
55146266,1000,1000,1000,1000,100628899,1544,1545,1545,1544
55148765,1000,1000,1000,1000,100728859,1546,1546,1546,1546
55151264,1000,1000,1000,1000,100828819,1546,1546,1545,1546
55153763,1000,1000,1000,1000,100928779,1544,1544,1544,1544
55156262,1000,1000,1000,1000,101028739,1545,1544,1545,1545
55158761,1000,1000,1000,1000,101128699,1545,1544,1544,1545
55161260,1000,1000,1000,1000,101228659,1544,1545,1545,1545
55163759,1000,1000,1000,1000,101328619,1545,1545,1545,1545
55166258,1000,1000,1000,1000,101428579,1544,1544,1544,1544
55168757,1000,1000,1000,1000,101528539,1544,1544,1544,1544
55171256,1000,1000,1000,1000,101628499,1544,1544,1545,1544
55173755,1000,1000,1000,1000,101728459,1544,1544,1544,1545
55176254,1000,1000,1000,1000,101828419,1543,1544,1544,1544
55178753,1000,1000,1000,1000,101928379,1544,1544,1544,1545
55181252,1000,1000,1000,1000,102028339,1545,1545,1545,1545
55183751,1000,1000,1000,1000,102128299,1544,1544,1544,1544
55186250,1000,1000,1000,1000,102228259,1544,1544,1544,1544
55188749,1000,1000,1000,1000,102328219,1545,1544,1544,1544
55191248,1000,1000,1000,1000,102428179,1544,1544,1544,1544
55193747,1000,1000,1000,1000,102528972,1545,1545,1545,1545
55196246,1000,1000,1000,1000,102628932,1544,1545,1544,1544
55198745,1000,1000,1000,1000,102728892,1545,1545,1545,1545
55201244,1000,1000,1000,1000,102828852,1543,1544,1544,1543
55203743,1000,1000,1000,1000,102928812,1544,1544,1544,1544
55206242,1000,1000,1000,1000,103028772,1544,1544,1544,1544
55208741,1000,1000,1000,1000,103128732,1544,1544,1544,1544
55211240,1000,1000,1000,1000,103228692,1544,1544,1544,1544
55213739,1000,1000,1000,1000,103328652,1544,1544,1544,1544
55216238,1000,1000,1000,1000,103428612,1544,1545,1544,1544
55218737,1000,1000,1000,1000,103528572,1545,1544,1544,1545
55221236,1000,1000,1000,1000,103628532,1543,1544,1544,1543
55223735,1000,1000,1000,1000,103728492,1544,1544,1544,1544
55226234,1000,1000,1000,1000,103828452,1543,1543,1543,1543
55228733,1000,1000,1000,1000,103928412,1544,1544,1544,1544
55231232,1000,1000,1000,1000,104028372,1514,1513,1521,1513
55233731,1000,1000,1000,1000,104128332,1331,1330,1386,1329
55236230,1000,1000,1000,1000,104228292,1242,1242,1329,1240
55238729,1000,1000,1000,1000,104328252,1216,1215,1312,1214
55241228,1000,1000,1000,1000,104428212,1195,1194,1299,1193
55243727,1000,1000,1000,1000,104528172,1152,1150,1274,1150
55246226,1000,1000,1000,1000,104628965,1152,1150,1232,1150
55248725,1000,1000,1000,1000,104728925,1152,1150,1232,1150
55251224,1000,1000,1000,1000,104828885,1152,1151,1231,1150
55253723,1000,1000,1000,1000,104928845,1175,1150,1202,1175
55256222,1000,1000,1000,1000,105028805,1166,1150,1213,1167
55258721,1000,1000,1000,1000,105128765,1162,1150,1218,1163
55261220,1000,1000,1000,1000,105228725,1161,1150,1219,1162
55263719,1000,1000,1000,1000,105328685,1162,1150,1218,1163
55266218,1000,1000,1000,1000,105428645,1162,1150,1217,1164
55268717,1000,1000,1000,1000,105528605,1163,1150,1216,1165
55271216,1000,1000,1000,1000,105628565,1163,1150,1216,1166
55273715,1000,1000,1000,1000,105728525,1150,1150,1230,1154
55276214,1000,1000,1000,1000,105828485,1152,1150,1228,1156
55278713,1000,1000,1000,1000,105928445,1152,1150,1228,1156
55281212,1000,1000,1000,1000,106028405,1153,1150,1227,1157
55283711,1000,1000,1000,1000,106128365,1153,1150,1227,1157
55286210,1000,1000,1000,1000,106228325,1000,1000,1000,1000
55288709,1000,1000,1000,1000,106328285,1000,1000,1000,1000
55291208,1000,1000,1000,1000,106428245,1000,1000,1000,1000
55293707,1000,1000,1000,1000,106528205,1000,1000,1000,1000
55296206,1000,1000,1000,1000,106628165,1000,1000,1000,1000
55298705,1000,1000,1000,1000,106728958,1000,1000,1000,1000
55301204,1000,1000,1000,1000,106828918,1000,1000,1000,1000
55303703,1000,1000,1000,1000,106928878,1000,1000,1000,1000
55306202,1000,1000,1000,1000,107028838,1000,1000,1000,1000
55308701,1000,1000,1000,1000,107128798,1000,1000,1000,1000
55311200,1000,1000,1000,1000,107228758,1000,1000,1000,1000
55313699,1000,1000,1000,1000,107328718,1000,1000,1000,1000
55316198,1000,1000,1000,1000,107428678,1000,1000,1000,1000
55318697,1000,1000,1000,1000,107528638,1000,1000,1000,1000
55321196,1000,1000,1000,1000,107628598,1000,1000,1000,1000
55323695,1000,1000,1000,1000,107728558,1000,1000,1000,1000
55326194,1000,1000,1000,1000,107828518,1000,1000,1000,1000
55328693,1000,1000,1000,1000,107928478,1000,1000,1000,1000
55331192,1000,1000,1000,1000,108028438,1000,1000,1000,1000
55333691,1000,1000,1000,1000,108128398,1000,1000,1000,1000
55336190,1000,1000,1000,1000,108228358,1000,1000,1000,1000
55338689,1000,1000,1000,1000,108328318,1000,1000,1000,1000
55341188,1000,1000,1000,1000,108428278,1000,1000,1000,1000
55343687,1000,1000,1000,1000,108528238,1000,1000,1000,1000
55346186,1000,1000,1000,1000,108628198,1000,1000,1000,1000
55348685,1000,1000,1000,1000,108728158,1000,1000,1000,1000
55351184,1000,1000,1000,1000,108828951,1000,1000,1000,1000
55353683,1000,1000,1000,1000,108928911,1000,1000,1000,1000
55356182,1000,1000,1000,1000,109028871,1000,1000,1000,1000
55358681,1000,1000,1000,1000,109128831,1000,1000,1000,1000
55361180,1000,1000,1000,1000,109228791,1000,1000,1000,1000
55363679,1000,1000,1000,1000,109328751,1000,1000,1000,1000
55366178,1000,1000,1000,1000,109428711,1000,1000,1000,1000
55368677,1000,1000,1000,1000,109528671,1000,1000,1000,1000
55371176,1000,1000,1000,1000,109628631,1000,1000,1000,1000
55373675,1000,1000,1000,1000,109728591,1000,1000,1000,1000
55376174,1000,1000,1000,1000,109828551,1000,1000,1000,1000
55378673,1000,1000,1000,1000,109928511,1000,1000,1000,1000
55381172,1000,1000,1000,1000,110028471,1000,1000,1000,1000
55383671,1000,1000,1000,1000,110128431,1000,1000,1000,1000
55386170,1000,1000,1000,1000,110228391,1000,1000,1000,1000
55388669,1000,1000,1000,1000,110328351,1000,1000,1000,1000
55391168,1000,1000,1000,1000,110428311,1000,1000,1000,1000
55393667,1000,1000,1000,1000,110528271,1000,1000,1000,1000
55396166,1000,1000,1000,1000,110628231,1000,1000,1000,1000
55398665,1000,1000,1000,1000,110728191,1000,1000,1000,1000
55401164,1000,1000,1000,1000,110828984,1000,1000,1000,1000
55403663,1000,1000,1000,1000,110928944,1000,1000,1000,1000
55406162,1000,1000,1000,1000,111028904,1000,1000,1000,1000
55408661,1000,1000,1000,1000,111128864,1000,1000,1000,1000
55411160,1000,1000,1000,1000,111228824,1000,1000,1000,1000
55413659,1000,1000,1000,1000,111328784,1000,1000,1000,1000
55416158,1000,1000,1000,1000,111428744,1000,1000,1000,1000
55418657,1000,1000,1000,1000,111528704,1000,1000,1000,1000
55421156,1000,1000,1000,1000,111628664,1000,1000,1000,1000
55423655,1000,1000,1000,1000,111728624,1000,1000,1000,1000
55426154,1000,1000,1000,1000,111828584,1000,1000,1000,1000
55428653,1000,1000,1000,1000,111928544,1000,1000,1000,1000
55431152,1000,1000,1000,1000,112028504,1000,1000,1000,1000
55433651,1000,1000,1000,1000,112128464,1000,1000,1000,1000
55436150,1000,1000,1000,1000,112228424,1000,1000,1000,1000
55438649,1000,1000,1000,1000,112328384,1000,1000,1000,1000
55441148,1000,1000,1000,1000,112428344,1000,1000,1000,1000
55443647,1000,1000,1000,1000,112528304,1000,1000,1000,1000
55446146,1000,1000,1000,1000,112628264,1000,1000,1000,1000
55448645,1000,1000,1000,1000,112728224,1000,1000,1000,1000
55451144,1000,1000,1000,1000,112828184,1000,1000,1000,1000
55453643,1000,1000,1000,1000,112928977,1000,1000,1000,1000
55456142,1000,1000,1000,1000,113028937,1000,1000,1000,1000
55458641,1000,1000,1000,1000,113128897,1000,1000,1000,1000
55461140,1000,1000,1000,1000,113228857,1000,1000,1000,1000
55463639,1000,1000,1000,1000,113328817,1000,1000,1000,1000
55466138,1000,1000,1000,1000,113428777,1000,1000,1000,1000
55468637,1000,1000,1000,1000,113528737,1000,1000,1000,1000
55471136,1000,1000,1000,1000,113628697,1000,1000,1000,1000
55473635,1000,1000,1000,1000,113728657,1000,1000,1000,1000
55476134,1000,1000,1000,1000,113828617,1000,1000,1000,1000
55478633,1000,1000,1000,1000,113928577,1000,1000,1000,1000
55481132,1000,1000,1000,1000,114028537,1000,1000,1000,1000
55483631,1000,1000,1000,1000,114128497,1000,1000,1000,1000
55486130,1000,1000,1000,1000,114228457,1000,1000,1000,1000
55488629,1000,1000,1000,1000,114328417,1000,1000,1000,1000
55491128,1000,1000,1000,1000,114428377,1000,1000,1000,1000
55493627,1000,1000,1000,1000,114528337,1000,1000,1000,1000
55496126,1000,1000,1000,1000,114628297,1000,1000,1000,1000
55498625,1000,1000,1000,1000,114728257,1000,1000,1000,1000
55501124,1000,1000,1000,1000,114828217,1000,1000,1000,1000
55503623,1000,1000,1000,1000,114928177,1000,1000,1000,1000
55506122,1000,1000,1000,1000,115028970,1000,1000,1000,1000
55508621,1000,1000,1000,1000,115128930,1000,1000,1000,1000
55511120,1000,1000,1000,1000,115228890,1000,1000,1000,1000
55513619,1000,1000,1000,1000,115328850,1000,1000,1000,1000
55516118,1000,1000,1000,1000,115428810,1000,1000,1000,1000
55518617,1000,1000,1000,1000,115528770,1000,1000,1000,1000
55521116,1000,1000,1000,1000,115628730,1000,1000,1000,1000
55523615,1000,1000,1000,1000,115728690,1000,1000,1000,1000
55526114,1000,1000,1000,1000,115828650,1000,1000,1000,1000
55528613,1000,1000,1000,1000,115928610,1000,1000,1000,1000
55531112,1000,1000,1000,1000,116028570,1000,1000,1000,1000
55533611,1000,1000,1000,1000,116128530,1000,1000,1000,1000
55536110,1000,1000,1000,1000,116228490,1000,1000,1000,1000
55538609,1000,1000,1000,1000,116328450,1000,1000,1000,1000
55541108,1000,1000,1000,1000,116428410,1000,1000,1000,1000
55543607,1000,1000,1000,1000,116528370,1000,1000,1000,1000
55546106,1000,1000,1000,1000,116628330,1000,1000,1000,1000
55548605,1000,1000,1000,1000,116728290,1000,1000,1000,1000
55551104,1000,1000,1000,1000,116828250,1000,1000,1000,1000
55553603,1000,1000,1000,1000,116928210,1000,1000,1000,1000
55556102,1000,1000,1000,1000,117028170,1000,1000,1000,1000
55558601,1000,1000,1000,1000,117128963,1000,1000,1000,1000
55561100,1000,1000,1000,1000,117228923,1000,1000,1000,1000
55563599,1000,1000,1000,1000,117328883,1000,1000,1000,1000
55566098,1000,1000,1000,1000,117428843,1000,1000,1000,1000
55568597,1000,1000,1000,1000,117528803,1000,1000,1000,1000
55571096,1000,1000,1000,1000,117628763,1000,1000,1000,1000
55573595,1000,1000,1000,1000,117728723,1000,1000,1000,1000
55576094,1000,1000,1000,1000,117828683,1000,1000,1000,1000
55578593,1000,1000,1000,1000,117928643,1000,1000,1000,1000
55581092,1000,1000,1000,1000,118028603,1000,1000,1000,1000
55583591,1000,1000,1000,1000,118128563,1000,1000,1000,1000
55586090,1000,1000,1000,1000,118228523,1000,1000,1000,1000
55588589,1000,1000,1000,1000,118328483,1000,1000,1000,1000
55591088,1000,1000,1000,1000,118428443,1000,1000,1000,1000
55593587,1000,1000,1000,1000,118528403,1000,1000,1000,1000
55596086,1000,1000,1000,1000,118628363,1000,1000,1000,1000
55598585,1000,1000,1000,1000,118728323,1000,1000,1000,1000
55601084,1000,1000,1000,1000,118828283,1000,1000,1000,1000
55603583,1000,1000,1000,1000,118928243,1000,1000,1000,1000
55606082,1000,1000,1000,1000,119028203,1000,1000,1000,1000
55608581,1000,1000,1000,1000,119128163,1000,1000,1000,1000
55611080,1000,1000,1000,1000,119228956,1000,1000,1000,1000
55613579,1000,1000,1000,1000,119328916,1000,1000,1000,1000
55616078,1000,1000,1000,1000,119428876,1000,1000,1000,1000
55618577,1000,1000,1000,1000,119528836,1000,1000,1000,1000
55621076,1000,1000,1000,1000,119628796,1000,1000,1000,1000
55623575,1000,1000,1000,1000,119728756,1000,1000,1000,1000
55626074,1000,1000,1000,1000,119828716,1000,1000,1000,1000
55628573,1000,1000,1000,1000,119928676,1000,1000,1000,1000
55631072,1000,1000,1000,1000,120028636,1000,1000,1000,1000
55633571,1000,1000,1000,1000,120128596,1000,1000,1000,1000
55636070,1000,1000,1000,1000,120228556,1000,1000,1000,1000
55638569,1000,1000,1000,1000,120328516,1000,1000,1000,1000
55641068,1000,1000,1000,1000,120428476,1000,1000,1000,1000
55643567,1000,1000,1000,1000,120528436,1000,1000,1000,1000
55646066,1000,1000,1000,1000,120628396,1000,1000,1000,1000
55648565,1000,1000,1000,1000,120728356,1000,1000,1000,1000
55651064,1000,1000,1000,1000,120828316,1000,1000,1000,1000
55653563,1000,1000,1000,1000,120928276,1000,1000,1000,1000
55656062,1000,1000,1000,1000,121028236,1000,1000,1000,1000
55658561,1000,1000,1000,1000,121128196,1000,1000,1000,1000
55661060,1000,1000,1000,1000,,,,,
55663559,1000,1000,1000,1000,,,,,
55666058,1000,1000,1000,1000,,,,,
55668557,1000,1000,1000,1000,,,,,
55671056,1000,1000,1000,1000,,,,,
55673555,1000,1000,1000,1000,,,,,
55676054,1000,1000,1000,1000,,,,,
55678553,1000,1000,1000,1000,,,,,
55681052,1000,1000,1000,1000,,,,,
55683551,1000,1000,1000,1000,,,,,
55686050,1000,1000,1000,1000,,,,,
55688549,1000,1000,1000,1000,,,,,
55691048,1000,1000,1000,1000,,,,,
55693547,1000,1000,1000,1000,,,,,
55696046,1000,1000,1000,1000,,,,,
55698545,1000,1000,1000,1000,,,,,
55701044,1000,1000,1000,1000,,,,,
55703543,1000,1000,1000,1000,,,,,
55706042,1000,1000,1000,1000,,,,,
55708541,1000,1000,1000,1000,,,,,
55711040,1000,1000,1000,1000,,,,,
55713539,1000,1000,1000,1000,,,,,
55716038,1000,1000,1000,1000,,,,,
55718537,1000,1000,1000,1000,,,,,
55721036,1000,1000,1000,1000,,,,,
55723535,1000,1000,1000,1000,,,,,
55726034,1000,1000,1000,1000,,,,,
55728533,1000,1000,1000,1000,,,,,
55731032,1000,1000,1000,1000,,,,,
55733531,1000,1000,1000,1000,,,,,
55736030,1000,1000,1000,1000,,,,,
55738529,1000,1000,1000,1000,,,,,
55741028,1000,1000,1000,1000,,,,,
55743527,1000,1000,1000,1000,,,,,
55746026,1000,1000,1000,1000,,,,,
55748525,1000,1000,1000,1000,,,,,
55751024,1000,1000,1000,1000,,,,,
55753523,1000,1000,1000,1000,,,,,
55756022,1000,1000,1000,1000,,,,,
55758521,1000,1000,1000,1000,,,,,
55761020,1000,1000,1000,1000,,,,,
55763519,1000,1000,1000,1000,,,,,
55766018,1000,1000,1000,1000,,,,,
55768517,1000,1000,1000,1000,,,,,
55771016,1000,1000,1000,1000,,,,,
55773515,1000,1000,1000,1000,,,,,
55776014,1000,1000,1000,1000,,,,,
55778513,1000,1000,1000,1000,,,,,
55781012,1000,1000,1000,1000,,,,,
55783511,1000,1000,1000,1000,,,,,
55786010,1000,1000,1000,1000,,,,,
55788509,1000,1000,1000,1000,,,,,
55791008,1000,1000,1000,1000,,,,,
55793507,1000,1000,1000,1000,,,,,
55796006,1000,1000,1000,1000,,,,,
55798505,1000,1000,1000,1000,,,,,
55801004,1000,1000,1000,1000,,,,,
55803503,1000,1000,1000,1000,,,,,
55806002,1000,1000,1000,1000,,,,,
55808501,1000,1000,1000,1000,,,,,
55811000,1000,1000,1000,1000,,,,,
55813499,1000,1000,1000,1000,,,,,
55815998,1000,1000,1000,1000,,,,,
55818497,1000,1000,1000,1000,,,,,
55820996,1000,1000,1000,1000,,,,,
55823495,1000,1000,1000,1000,,,,,
55825994,1000,1000,1000,1000,,,,,
55828493,1000,1000,1000,1000,,,,,
55830992,1000,1000,1000,1000,,,,,
55833491,1000,1000,1000,1000,,,,,
55835990,1000,1000,1000,1000,,,,,
55838489,1000,1000,1000,1000,,,,,
55840988,1000,1000,1000,1000,,,,,
55843487,1000,1000,1000,1000,,,,,
55845986,1000,1000,1000,1000,,,,,
55848485,1000,1000,1000,1000,,,,,
55850984,1000,1000,1000,1000,,,,,
55853483,1000,1000,1000,1000,,,,,
55855982,1000,1000,1000,1000,,,,,
55858481,1000,1000,1000,1000,,,,,
55860980,1000,1000,1000,1000,,,,,
55863479,1000,1000,1000,1000,,,,,
55865978,1000,1000,1000,1000,,,,,
55868477,1000,1000,1000,1000,,,,,
55870976,1000,1000,1000,1000,,,,,
55873475,1000,1000,1000,1000,,,,,
55875974,1000,1000,1000,1000,,,,,
55878473,1000,1000,1000,1000,,,,,
55880972,1000,1000,1000,1000,,,,,
55883471,1000,1000,1000,1000,,,,,
55885970,1000,1000,1000,1000,,,,,
55888469,1000,1000,1000,1000,,,,,
55890968,1000,1000,1000,1000,,,,,
55893467,1000,1000,1000,1000,,,,,
55895966,1000,1000,1000,1000,,,,,
55898465,1000,1000,1000,1000,,,,,
55900964,1000,1000,1000,1000,,,,,
55903463,1000,1000,1000,1000,,,,,
55905962,1000,1000,1000,1000,,,,,
55908461,1000,1000,1000,1000,,,,,
55910960,1000,1000,1000,1000,,,,,
55913459,1000,1000,1000,1000,,,,,
55915958,1000,1000,1000,1000,,,,,
55918457,1000,1000,1000,1000,,,,,
55920956,1000,1000,1000,1000,,,,,
55923455,1000,1000,1000,1000,,,,,
55925954,1000,1000,1000,1000,,,,,
55928453,1000,1000,1000,1000,,,,,
55930952,1000,1000,1000,1000,,,,,
55933451,1000,1000,1000,1000,,,,,
55935950,1000,1000,1000,1000,,,,,
55938449,1000,1000,1000,1000,,,,,
55940948,1000,1000,1000,1000,,,,,
55943447,1000,1000,1000,1000,,,,,
55945946,1000,1000,1000,1000,,,,,
55948445,1000,1000,1000,1000,,,,,
55950944,1000,1000,1000,1000,,,,,
55953443,1000,1000,1000,1000,,,,,
55955942,1000,1000,1000,1000,,,,,
55958441,1000,1000,1000,1000,,,,,
55960940,1000,1000,1000,1000,,,,,
55963439,1000,1000,1000,1000,,,,,
55965938,1000,1000,1000,1000,,,,,
55968437,1000,1000,1000,1000,,,,,
55970936,1000,1000,1000,1000,,,,,
55973435,1000,1000,1000,1000,,,,,
55975934,1000,1000,1000,1000,,,,,
55978433,1000,1000,1000,1000,,,,,
55980932,1000,1000,1000,1000,,,,,
55983431,1000,1000,1000,1000,,,,,
55985930,1000,1000,1000,1000,,,,,
55988429,1001,1001,1001,1001,,,,,
55990928,1002,1002,1002,1002,,,,,
55993427,1003,1003,1003,1003,,,,,
55995926,1003,1003,1003,1003,,,,,
55998425,1004,1004,1004,1004,,,,,
56000924,1005,1005,1005,1005,,,,,
56003423,1006,1006,1006,1006,,,,,
56005922,1006,1006,1006,1006,,,,,
56008421,1007,1007,1007,1007,,,,,
56010920,1008,1008,1008,1008,,,,,
56013419,1009,1009,1009,1009,,,,,
56015918,1009,1009,1009,1009,,,,,
56018417,1010,1010,1010,1010,,,,,
56020916,1011,1011,1011,1011,,,,,
56023415,1012,1012,1012,1012,,,,,
56025914,1012,1012,1012,1012,,,,,
56028413,1013,1013,1013,1013,,,,,
56030912,1014,1014,1014,1014,,,,,
56033411,1015,1015,1015,1015,,,,,
56035910,1015,1015,1015,1015,,,,,
56038409,1016,1016,1016,1016,,,,,
56040908,1017,1017,1017,1017,,,,,
56043407,1018,1018,1018,1018,,,,,
56045906,1018,1018,1018,1018,,,,,
56048405,1019,1019,1019,1019,,,,,
56050904,1020,1020,1020,1020,,,,,
56053403,1021,1021,1021,1021,,,,,
56055902,1021,1021,1021,1021,,,,,
56058401,1022,1022,1022,1022,,,,,
56060900,1023,1023,1023,1023,,,,,
56063399,1024,1024,1024,1024,,,,,
56065898,1024,1024,1024,1024,,,,,
56068397,1025,1025,1025,1025,,,,,
56070896,1026,1026,1026,1026,,,,,
56073395,1027,1027,1027,1027,,,,,
56075894,1027,1027,1027,1027,,,,,
56078393,1028,1028,1028,1028,,,,,
56080892,1029,1029,1029,1029,,,,,
56083391,1030,1030,1030,1030,,,,,
56085890,1030,1030,1030,1030,,,,,
56088389,1031,1031,1031,1031,,,,,
56090888,1032,1032,1032,1032,,,,,
56093387,1033,1033,1033,1033,,,,,
56095886,1033,1033,1033,1033,,,,,
56098385,1034,1034,1034,1034,,,,,
56100884,1035,1035,1035,1035,,,,,
56103383,1036,1036,1036,1036,,,,,
56105882,1036,1036,1036,1036,,,,,
56108381,1037,1037,1037,1037,,,,,
56110880,1038,1038,1038,1038,,,,,
56113379,1039,1039,1039,1039,,,,,
56115878,1039,1039,1039,1039,,,,,
56118377,1040,1040,1040,1040,,,,,
56120876,1041,1041,1041,1041,,,,,
56123375,1042,1042,1042,1042,,,,,
56125874,1042,1042,1042,1042,,,,,
56128373,1043,1043,1043,1043,,,,,
56130872,1044,1044,1044,1044,,,,,
56133371,1045,1045,1045,1045,,,,,
56135870,1045,1045,1045,1045,,,,,
56138369,1046,1046,1046,1046,,,,,
56140868,1047,1047,1047,1047,,,,,
56143367,1048,1048,1048,1048,,,,,
56145866,1048,1048,1048,1048,,,,,
56148365,1049,1049,1049,1049,,,,,
56150864,1050,1050,1050,1050,,,,,
56153363,1051,1051,1051,1051,,,,,
56155862,1051,1051,1051,1051,,,,,
56158361,1052,1052,1052,1052,,,,,
56160860,1053,1053,1053,1053,,,,,
56163359,1054,1054,1054,1054,,,,,
56165858,1054,1054,1054,1054,,,,,
56168357,1055,1055,1055,1055,,,,,
56170856,1056,1056,1056,1056,,,,,
56173355,1057,1057,1057,1057,,,,,
56175854,1057,1057,1057,1057,,,,,
56178353,1058,1058,1058,1058,,,,,
56180852,1059,1059,1059,1059,,,,,
56183351,1060,1060,1060,1060,,,,,
56185850,1060,1060,1060,1060,,,,,
56188349,1061,1061,1061,1061,,,,,
56190848,1062,1062,1062,1062,,,,,
56193347,1063,1063,1063,1063,,,,,
56195846,1063,1063,1063,1063,,,,,
56198345,1064,1064,1064,1064,,,,,
56200844,1065,1065,1065,1065,,,,,
56203343,1066,1066,1066,1066,,,,,
56205842,1066,1066,1066,1066,,,,,
56208341,1067,1067,1067,1067,,,,,
56210840,1068,1068,1068,1068,,,,,
56213339,1069,1069,1069,1069,,,,,
56215838,1069,1069,1069,1069,,,,,
56218337,1070,1070,1070,1070,,,,,
56220836,1071,1071,1071,1071,,,,,
56223335,1072,1072,1072,1072,,,,,
56225834,1072,1072,1072,1072,,,,,
56228333,1073,1073,1073,1073,,,,,
56230832,1074,1074,1074,1074,,,,,
56233331,1075,1075,1075,1075,,,,,
56235830,1075,1075,1075,1075,,,,,
56238329,1076,1076,1076,1076,,,,,
56240828,1077,1077,1077,1077,,,,,
56243327,1078,1078,1078,1078,,,,,
56245826,1078,1078,1078,1078,,,,,
56248325,1079,1079,1079,1079,,,,,
56250824,1080,1080,1080,1080,,,,,
56253323,1081,1081,1081,1081,,,,,
56255822,1081,1081,1081,1081,,,,,
56258321,1082,1082,1082,1082,,,,,
56260820,1083,1083,1083,1083,,,,,
56263319,1084,1084,1084,1084,,,,,
56265818,1084,1084,1084,1084,,,,,
56268317,1085,1085,1085,1085,,,,,
56270816,1086,1086,1086,1086,,,,,
56273315,1087,1087,1087,1087,,,,,
56275814,1087,1087,1087,1087,,,,,
56278313,1088,1088,1088,1088,,,,,
56280812,1089,1089,1089,1089,,,,,
56283311,1090,1090,1090,1090,,,,,
56285810,1090,1090,1090,1090,,,,,
56288309,1091,1091,1091,1091,,,,,
56290808,1092,1092,1092,1092,,,,,
56293307,1093,1093,1093,1093,,,,,
56295806,1093,1093,1093,1093,,,,,
56298305,1094,1094,1094,1094,,,,,
56300804,1095,1095,1095,1095,,,,,
56303303,1096,1096,1096,1096,,,,,
56305802,1096,1096,1096,1096,,,,,
56308301,1097,1097,1097,1097,,,,,
56310800,1098,1098,1098,1098,,,,,
56313299,1099,1099,1099,1099,,,,,
56315798,1099,1099,1099,1099,,,,,
56318297,1100,1100,1100,1100,,,,,
56320796,1101,1101,1101,1101,,,,,
56323295,1101,1101,1101,1101,,,,,
56325794,1102,1102,1102,1102,,,,,
56328293,1103,1103,1103,1103,,,,,
56330792,1104,1104,1104,1104,,,,,
56333291,1104,1104,1104,1104,,,,,
56335790,1105,1105,1105,1105,,,,,
56338289,1106,1106,1106,1106,,,,,
56340788,1107,1107,1107,1107,,,,,
56343287,1107,1107,1107,1107,,,,,
56345786,1108,1108,1108,1108,,,,,
56348285,1109,1109,1109,1109,,,,,
56350784,1110,1110,1110,1110,,,,,
56353283,1110,1110,1110,1110,,,,,
56355782,1111,1111,1111,1111,,,,,
56358281,1112,1112,1112,1112,,,,,
56360780,1113,1113,1113,1113,,,,,
56363279,1113,1113,1113,1113,,,,,
56365778,1114,1114,1114,1114,,,,,
56368277,1115,1115,1115,1115,,,,,
56370776,1116,1116,1116,1116,,,,,
56373275,1116,1116,1116,1116,,,,,
56375774,1117,1117,1117,1117,,,,,
56378273,1118,1118,1118,1118,,,,,
56380772,1119,1119,1119,1119,,,,,
56383271,1119,1119,1119,1119,,,,,
56385770,1120,1120,1120,1120,,,,,
56388269,1121,1121,1121,1121,,,,,
56390768,1122,1122,1122,1122,,,,,
56393267,1122,1122,1122,1122,,,,,
56395766,1123,1123,1123,1123,,,,,
56398265,1124,1124,1124,1124,,,,,
56400764,1125,1125,1125,1125,,,,,
56403263,1125,1125,1125,1125,,,,,
56405762,1126,1126,1126,1126,,,,,
56408261,1127,1127,1127,1127,,,,,
56410760,1128,1128,1128,1128,,,,,
56413259,1128,1128,1128,1128,,,,,
56415758,1129,1129,1129,1129,,,,,
56418257,1130,1130,1130,1130,,,,,
56420756,1131,1131,1131,1131,,,,,
56423255,1131,1131,1131,1131,,,,,
56425754,1132,1132,1132,1132,,,,,
56428253,1133,1133,1133,1133,,,,,
56430752,1134,1134,1134,1134,,,,,
56433251,1134,1134,1134,1134,,,,,
56435750,1135,1135,1135,1135,,,,,
56438249,1136,1136,1136,1136,,,,,
56440748,1137,1137,1137,1137,,,,,
56443247,1137,1137,1137,1137,,,,,
56445746,1138,1138,1138,1138,,,,,
56448245,1139,1139,1139,1139,,,,,
56450744,1140,1140,1140,1140,,,,,
56453243,1140,1140,1140,1140,,,,,
56455742,1141,1141,1141,1141,,,,,
56458241,1142,1142,1142,1142,,,,,
56460740,1143,1143,1143,1143,,,,,
56463239,1143,1143,1143,1143,,,,,
56465738,1144,1144,1144,1144,,,,,
56468237,1145,1145,1145,1145,,,,,
56470736,1146,1146,1146,1146,,,,,
56473235,1146,1146,1146,1146,,,,,
56475734,1147,1147,1147,1147,,,,,
56478233,1148,1148,1148,1148,,,,,
56480732,1149,1149,1149,1149,,,,,
56483231,1149,1149,1149,1149,,,,,
56485730,1150,1150,1150,1150,,,,,
56488229,1162,1153,1154,1162,,,,,
56490728,1170,1161,1162,1170,,,,,
56493227,1178,1169,1170,1178,,,,,
56495726,1185,1177,1178,1186,,,,,
56498225,1193,1185,1185,1193,,,,,
56500724,1200,1192,1193,1201,,,,,
56503223,1208,1200,1200,1208,,,,,
56505722,1215,1207,1208,1215,,,,,
56508221,1222,1214,1215,1222,,,,,
56510720,1229,1221,1222,1229,,,,,
56513219,1236,1228,1229,1236,,,,,
56515718,1243,1235,1236,1243,,,,,
56518217,1249,1242,1242,1250,,,,,
56520716,1256,1248,1249,1256,,,,,
56523215,1263,1255,1256,1263,,,,,
56525714,1269,1261,1262,1269,,,,,
56528213,1275,1268,1269,1276,,,,,
56530712,1282,1274,1275,1282,,,,,
56533211,1288,1281,1281,1288,,,,,
56535710,1294,1287,1287,1294,,,,,
56538209,1300,1293,1293,1300,,,,,
56540708,1306,1299,1300,1306,,,,,
56543207,1312,1305,1306,1312,,,,,
56545706,1318,1311,1311,1318,,,,,
56548205,1324,1317,1317,1324,,,,,
56550704,1329,1323,1323,1330,,,,,
56553203,1335,1328,1329,1335,,,,,
56555702,1341,1334,1335,1341,,,,,
56558201,1346,1340,1340,1347,,,,,
56560700,1352,1345,1346,1352,,,,,
56563199,1357,1351,1351,1358,,,,,
56565698,1363,1356,1357,1363,,,,,
56568197,1368,1362,1362,1368,,,,,
56570696,1374,1367,1368,1374,,,,,
56573195,1379,1373,1373,1379,,,,,
56575694,1384,1378,1378,1384,,,,,
56578193,1389,1383,1384,1390,,,,,
56580692,1394,1388,1389,1395,,,,,
56583191,1400,1393,1394,1400,,,,,
56585690,1405,1399,1399,1405,,,,,
56588189,1410,1404,1404,1410,,,,,
56590688,1415,1409,1409,1415,,,,,
56593187,1420,1414,1414,1420,,,,,
56595686,1425,1419,1419,1425,,,,,
56598185,1430,1424,1424,1430,,,,,
56600684,1434,1429,1429,1435,,,,,
56603183,1439,1433,1434,1440,,,,,
56605682,1444,1438,1439,1444,,,,,
56608181,1449,1443,1444,1449,,,,,
56610680,1454,1448,1448,1454,,,,,
56613179,1458,1453,1453,1459,,,,,
56615678,1463,1457,1458,1463,,,,,
56618177,1468,1462,1462,1468,,,,,
56620676,1472,1467,1467,1472,,,,,
56623175,1477,1471,1472,1477,,,,,
56625674,1481,1476,1476,1482,,,,,
56628173,1486,1480,1481,1486,,,,,
56630672,1490,1485,1485,1491,,,,,
56633171,1495,1489,1490,1495,,,,,
56635670,1499,1494,1494,1500,,,,,
56638169,1504,1498,1499,1504,,,,,
56640668,1508,1503,1503,1508,,,,,
56643167,1512,1507,1507,1513,,,,,
56645666,1517,1511,1512,1517,,,,,
56648165,1521,1516,1516,1521,,,,,
56650664,1525,1520,1520,1526,,,,,
56653163,1530,1524,1525,1530,,,,,
56655662,1534,1529,1529,1534,,,,,
56658161,1538,1533,1533,1538,,,,,
56660660,1542,1537,1538,1543,,,,,
56663159,1547,1541,1542,1547,,,,,
56665658,1551,1545,1546,1551,,,,,
56668157,1555,1550,1550,1555,,,,,
56670656,1559,1554,1554,1559,,,,,
56673155,1563,1558,1558,1563,,,,,
56675654,1567,1562,1562,1567,,,,,
56678986,1571,1566,1566,1571,,,,,
56681485,1575,1570,1571,1575,,,,,
56683984,1579,1574,1575,1579,,,,,
56686483,1583,1578,1579,1583,,,,,
56688982,1587,1582,1583,1587,,,,,
56691481,1591,1586,1587,1591,,,,,
56693980,1595,1590,1590,1595,,,,,
56696479,1599,1594,1594,1599,,,,,
56698978,1603,1598,1598,1603,,,,,
56701477,1607,1602,1602,1607,,,,,
56703976,1611,1605,1606,1611,,,,,
56706475,1615,1609,1610,1615,,,,,
56708974,1619,1613,1614,1619,,,,,
56711473,1622,1617,1618,1622,,,,,
56713972,1626,1621,1621,1626,,,,,
56716471,1630,1624,1625,1630,,,,,
56718970,1634,1628,1629,1634,,,,,
56721469,1638,1632,1633,1638,,,,,
56723968,1641,1636,1636,1641,,,,,
56726467,1645,1640,1640,1645,,,,,
56728966,1649,1643,1644,1649,,,,,
56731465,1652,1647,1648,1652,,,,,
56733964,1656,1651,1651,1656,,,,,
56736463,1660,1654,1655,1660,,,,,
56738962,1663,1658,1659,1663,,,,,
56741461,1667,1662,1662,1667,,,,,
56743960,1671,1665,1666,1671,,,,,
56746459,1674,1669,1669,1674,,,,,
56748958,1678,1672,1673,1678,,,,,
56751457,1681,1676,1677,1681,,,,,
56753956,1685,1680,1680,1685,,,,,
56756455,1689,1683,1684,1688,,,,,
56758954,1692,1687,1687,1692,,,,,
56761453,1696,1690,1691,1696,,,,,
56763952,1699,1694,1694,1699,,,,,
56766451,1703,1697,1698,1703,,,,,
56768950,1706,1701,1701,1706,,,,,
56771449,1710,1704,1705,1710,,,,,
56773948,1713,1708,1708,1713,,,,,
56776447,1716,1711,1712,1716,,,,,
56778946,1720,1715,1715,1720,,,,,
56781445,1723,1718,1719,1723,,,,,
56783944,1727,1721,1722,1727,,,,,
56786443,1730,1725,1725,1730,,,,,
56788942,1734,1728,1729,1734,,,,,
56791441,1737,1732,1732,1737,,,,,
56793940,1740,1735,1735,1740,,,,,
56796439,1744,1738,1739,1744,,,,,
56798938,1747,1742,1742,1747,,,,,
56801437,1750,1745,1745,1750,,,,,
56803936,1754,1748,1749,1754,,,,,
56806435,1757,1752,1752,1757,,,,,
56808934,1760,1755,1755,1760,,,,,
56811433,1763,1758,1759,1764,,,,,
56813932,1767,1761,1762,1767,,,,,
56816431,1770,1765,1765,1770,,,,,
56818930,1773,1768,1768,1773,,,,,
56821429,1776,1771,1772,1777,,,,,
56823928,1780,1774,1775,1780,,,,,
56826427,1783,1778,1778,1783,,,,,
56828926,1786,1781,1781,1786,,,,,
56831425,1789,1784,1784,1790,,,,,
56833924,1793,1787,1788,1793,,,,,
56836423,1796,1791,1791,1796,,,,,
56838922,1799,1794,1794,1799,,,,,
56841421,1802,1797,1797,1802,,,,,
56843920,1805,1800,1800,1806,,,,,
56846419,1808,1803,1803,1809,,,,,
56848918,1811,1806,1807,1812,,,,,
56851417,1815,1809,1810,1815,,,,,
56853916,1818,1813,1813,1818,,,,,
56856415,1821,1816,1816,1821,,,,,
56858914,1824,1819,1819,1824,,,,,
56861413,1827,1822,1822,1827,,,,,
56863912,1830,1825,1825,1830,,,,,
56866411,1833,1828,1828,1834,,,,,
56868910,1836,1831,1831,1837,,,,,
56871409,1839,1834,1834,1840,,,,,
56873908,1842,1837,1837,1843,,,,,
56876407,1845,1840,1840,1846,,,,,
56878906,1848,1843,1843,1849,,,,,
56881405,1851,1846,1847,1852,,,,,
56883904,1854,1849,1850,1855,,,,,
56886403,1857,1852,1853,1858,,,,,
56888902,1860,1855,1856,1861,,,,,
56891401,1863,1858,1859,1864,,,,,
56893900,1866,1861,1862,1867,,,,,
56896399,1869,1864,1865,1870,,,,,
56898898,1872,1867,1868,1873,,,,,
56901397,1875,1870,1870,1876,,,,,
56903896,1878,1873,1873,1879,,,,,
56906395,1881,1876,1876,1881,,,,,
56908894,1884,1879,1879,1884,,,,,
56911393,1887,1882,1882,1887,,,,,
56913892,1890,1885,1885,1890,,,,,
56916391,1893,1888,1888,1893,,,,,
56918890,1896,1891,1891,1896,,,,,
56921389,1899,1894,1894,1899,,,,,
56923888,1901,1897,1897,1902,,,,,
56926387,1904,1900,1900,1905,,,,,
56928886,1907,1902,1903,1908,,,,,
56931385,1910,1905,1905,1910,,,,,
56933884,1913,1908,1908,1913,,,,,
56936383,1916,1911,1911,1916,,,,,
56938882,1919,1914,1914,1919,,,,,
56941381,1921,1917,1917,1922,,,,,
56943880,1921,1916,1916,1921,,,,,
56946379,1920,1915,1916,1921,,,,,
56948878,1919,1915,1915,1920,,,,,
56951377,1919,1914,1914,1919,,,,,
56953876,1918,1913,1913,1918,,,,,
56956375,1917,1913,1913,1918,,,,,
56958874,1917,1912,1912,1917,,,,,
56961373,1916,1911,1911,1916,,,,,
56963872,1916,1911,1911,1916,,,,,
56966371,1915,1910,1911,1916,,,,,
56968870,1915,1910,1910,1915,,,,,
56971369,1914,1910,1910,1915,,,,,
56973868,1914,1910,1910,1915,,,,,
56976367,1914,1909,1909,1914,,,,,
56978866,1914,1909,1909,1914,,,,,
56981365,1914,1909,1909,1914,,,,,
56983864,1913,1909,1909,1914,,,,,
56986363,1913,1909,1909,1913,,,,,
56988862,1913,1909,1909,1913,,,,,
56991361,1912,1909,1909,1913,,,,,
56993860,1912,1908,1909,1912,,,,,
56996359,1911,1908,1908,1912,,,,,
56998858,1911,1907,1908,1911,,,,,
57001357,1910,1906,1907,1910,,,,,
57003856,1909,1906,1906,1909,,,,,
57006355,1908,1904,1905,1908,,,,,
57008854,1906,1903,1904,1907,,,,,
57011353,1905,1902,1902,1905,,,,,
57013852,1904,1900,1901,1904,,,,,
57016351,1902,1899,1899,1902,,,,,
57018850,1900,1897,1898,1900,,,,,
57021349,1898,1895,1896,1898,,,,,
57023848,1896,1893,1894,1896,,,,,
57026347,1894,1891,1891,1894,,,,,
57028846,1892,1889,1889,1892,,,,,
57031345,1889,1886,1887,1889,,,,,
57033844,1887,1884,1884,1887,,,,,
57036343,1884,1881,1882,1884,,,,,
57038842,1881,1879,1879,1881,,,,,
57041341,1879,1876,1876,1879,,,,,
57043840,1876,1873,1874,1876,,,,,
57046339,1873,1870,1871,1873,,,,,
57048838,1870,1867,1868,1870,,,,,
57051337,1867,1864,1865,1867,,,,,
57053836,1864,1861,1862,1864,,,,,
57056335,1861,1858,1859,1861,,,,,
57058834,1857,1855,1856,1857,,,,,
57061333,1854,1852,1853,1854,,,,,
57063832,1851,1849,1850,1851,,,,,
57066331,1848,1846,1846,1848,,,,,
57068830,1845,1843,1843,1845,,,,,
57071329,1842,1840,1840,1842,,,,,
57073828,1838,1836,1837,1838,,,,,
57076327,1835,1833,1834,1835,,,,,
57078826,1832,1830,1830,1832,,,,,
57081325,1828,1827,1827,1829,,,,,
57083824,1825,1823,1824,1825,,,,,
57086323,1822,1820,1821,1822,,,,,
57088822,1819,1817,1817,1819,,,,,
57091321,1815,1814,1814,1815,,,,,
57093820,1812,1810,1811,1812,,,,,
57096319,1809,1807,1807,1808,,,,,
57098818,1805,1804,1804,1805,,,,,
57101317,1802,1800,1801,1802,,,,,
57103816,1799,1797,1798,1798,,,,,
57106315,1795,1794,1794,1795,,,,,
57108814,1792,1790,1791,1792,,,,,
57111313,1788,1787,1788,1788,,,,,
57113812,1785,1784,1784,1785,,,,,
57116311,1782,1780,1781,1782,,,,,
57118810,1778,1777,1778,1778,,,,,
57121309,1775,1774,1774,1775,,,,,
57123808,1772,1771,1771,1772,,,,,
57126307,1769,1767,1768,1768,,,,,
57128806,1765,1764,1765,1765,,,,,
57131305,1762,1761,1762,1762,,,,,
57133804,1759,1758,1759,1759,,,,,
57136303,1756,1755,1756,1756,,,,,
57138802,1753,1752,1753,1753,,,,,
57141301,1750,1749,1750,1750,,,,,
57143800,1747,1746,1747,1747,,,,,
57146299,1744,1743,1744,1744,,,,,
57148798,1741,1741,1741,1741,,,,,
57151297,1738,1738,1738,1738,,,,,
57153796,1735,1735,1735,1735,,,,,
57156295,1732,1732,1732,1733,,,,,
57158794,1730,1730,1730,1730,,,,,
57161293,1727,1727,1727,1727,,,,,
57163792,1724,1724,1725,1725,,,,,
57166291,1722,1722,1722,1722,,,,,
57168790,1719,1719,1719,1719,,,,,
57171289,1717,1717,1717,1717,,,,,
57173788,1714,1714,1714,1714,,,,,
57176287,1711,1712,1712,1712,,,,,
57178786,1709,1710,1710,1709,,,,,
57181285,1707,1707,1707,1707,,,,,
57183784,1704,1705,1705,1705,,,,,
57186283,1702,1703,1703,1702,,,,,
