timestamp,TimeUS,C1,C2,C3,C4,C5,C6,C7,C8,C9,C10,C11,C12,C13,C14
1681382030.79999995,108028438,1000,1000,1000,1000,0,0,0,0,0,0,0,0,0,0
1681382030.89995980,108128398,1000,1000,1000,1000,0,0,0,0,0,0,0,0,0,0
1681382030.99991989,108228358,1000,1000,1000,1000,0,0,0,0,0,0,0,0,0,0
1681382031.09987998,108328318,1000,1000,1000,1000,0,0,0,0,0,0,0,0,0,0
1681382031.19983983,108428278,1000,1000,1000,1000,0,0,0,0,0,0,0,0,0,0
1681382031.29979992,108528238,1000,1000,1000,1000,0,0,0,0,0,0,0,0,0,0
1681382031.39975977,108628198,1000,1000,1000,1000,0,0,0,0,0,0,0,0,0,0
1681382031.49971986,108728158,1000,1000,1000,1000,0,0,0,0,0,0,0,0,0,0
1681382031.60051274,108828951,1000,1000,1000,1000,0,0,0,0,0,0,0,0,0,0
1681382031.70047283,108928911,1000,1000,1000,1000,0,0,0,0,0,0,0,0,0,0
1681382031.80043292,109028871,1000,1000,1000,1000,0,0,0,0,0,0,0,0,0,0
1681382031.90039277,109128831,1000,1000,1000,1000,0,0,0,0,0,0,0,0,0,0
1681382032.00035286,109228791,1000,1000,1000,1000,0,0,0,0,0,0,0,0,0,0
1681382032.10031295,109328751,1000,1000,1000,1000,0,0,0,0,0,0,0,0,0,0
1681382032.20027280,109428711,1000,1000,1000,1000,0,0,0,0,0,0,0,0,0,0
1681382032.30023289,109528671,1000,1000,1000,1000,0,0,0,0,0,0,0,0,0,0
1681382032.40019298,109628631,1000,1000,1000,1000,0,0,0,0,0,0,0,0,0,0
1681382032.50015283,109728591,1000,1000,1000,1000,0,0,0,0,0,0,0,0,0,0
1681382032.60011292,109828551,1000,1000,1000,1000,0,0,0,0,0,0,0,0,0,0
1681382032.70007277,109928511,1000,1000,1000,1000,0,0,0,0,0,0,0,0,0,0
1681382032.80003285,110028471,1000,1000,1000,1000,0,0,0,0,0,0,0,0,0,0
1681382032.89999294,110128431,1030,1030,1030,1030,0,0,0,0,0,0,0,0,0,0
1681382032.99995279,110228391,1060,1060,1060,1060,0,0,0,0,0,0,0,0,0,0
1681382033.09991288,110328351,1090,1090,1090,1090,0,0,0,0,0,0,0,0,0,0
1681382033.19987297,110428311,1120,1120,1120,1120,0,0,0,0,0,0,0,0,0,0
1681382033.29983282,110528271,1150,1150,1150,1150,0,0,0,0,0,0,0,0,0,0
1681382033.39979291,110628231,1408,1395,1396,1409,0,0,0,0,0,0,0,0,0,0
1681382033.49975276,110728191,1586,1575,1575,1587,0,0,0,0,0,0,0,0,0,0
1681382033.60054588,110828984,1732,1723,1723,1733,0,0,0,0,0,0,0,0,0,0
1681382033.70050597,110928944,1860,1849,1850,1860,0,0,0,0,0,0,0,0,0,0
1681382033.80046582,111028904,1915,1906,1907,1916,0,0,0,0,0,0,0,0,0,0
1681382033.90042591,111128864,1823,1820,1821,1824,0,0,0,0,0,0,0,0,0,0
1681382034.00038576,111228824,1696,1697,1695,1700,0,0,0,0,0,0,0,0,0,0
1681382034.10034585,111328784,1634,1638,1635,1639,0,0,0,0,0,0,0,0,0,0
1681382034.20030594,111428744,1625,1630,1628,1628,0,0,0,0,0,0,0,0,0,0
1681382034.30026579,111528704,1632,1635,1636,1632,0,0,0,0,0,0,0,0,0,0
1681382034.40022588,111628664,1634,1636,1637,1632,0,0,0,0,0,0,0,0,0,0
1681382034.50018597,111728624,1630,1629,1631,1628,0,0,0,0,0,0,0,0,0,0
1681382034.60014582,111828584,1625,1622,1624,1623,0,0,0,0,0,0,0,0,0,0
1681382034.70010591,111928544,1620,1618,1618,1619,0,0,0,0,0,0,0,0,0,0
1681382034.80006576,112028504,1618,1616,1616,1617,0,0,0,0,0,0,0,0,0,0
1681382034.90002584,112128464,1617,1617,1617,1617,0,0,0,0,0,0,0,0,0,0
1681382034.99998593,112228424,1595,1596,1600,1591,0,0,0,0,0,0,0,0,0,0
1681382035.09994578,112328384,1577,1578,1585,1569,0,0,0,0,0,0,0,0,0,0
1681382035.19990587,112428344,1565,1567,1570,1562,0,0,0,0,0,0,0,0,0,0
1681382035.29986596,112528304,1556,1556,1555,1558,0,0,0,0,0,0,0,0,0,0
1681382035.39982581,112628264,1548,1548,1544,1553,0,0,0,0,0,0,0,0,0,0
1681382035.49978590,112728224,1543,1542,1534,1551,0,0,0,0,0,0,0,0,0,0
1681382035.59974575,112828184,1536,1535,1527,1543,0,0,0,0,0,0,0,0,0,0
1681382035.70053887,112928977,1531,1530,1526,1535,0,0,0,0,0,0,0,0,0,0
1681382035.80049896,113028937,1527,1527,1526,1528,0,0,0,0,0,0,0,0,0,0
1681382035.90045881,113128897,1526,1526,1526,1525,0,0,0,0,0,0,0,0,0,0
1681382036.00041890,113228857,1528,1528,1530,1525,0,0,0,0,0,0,0,0,0,0
1681382036.10037875,113328817,1531,1530,1534,1528,0,0,0,0,0,0,0,0,0,0
1681382036.20033884,113428777,1535,1535,1538,1533,0,0,0,0,0,0,0,0,0,0
1681382036.30029893,113528737,1538,1538,1540,1537,0,0,0,0,0,0,0,0,0,0
1681382036.40025878,113628697,1542,1542,1543,1542,0,0,0,0,0,0,0,0,0,0
1681382036.50021887,113728657,1544,1544,1545,1545,0,0,0,0,0,0,0,0,0,0
1681382036.60017896,113828617,1547,1547,1548,1548,0,0,0,0,0,0,0,0,0,0
1681382036.70013881,113928577,1551,1551,1551,1551,0,0,0,0,0,0,0,0,0,0
1681382036.80009890,114028537,1553,1553,1553,1554,0,0,0,0,0,0,0,0,0,0
1681382036.90005875,114128497,1556,1556,1555,1557,0,0,0,0,0,0,0,0,0,0
1681382037.00001884,114228457,1560,1560,1556,1558,0,0,0,0,0,0,0,0,0,0
1681382037.09997892,114328417,1561,1560,1558,1560,0,0,0,0,0,0,0,0,0,0
1681382037.19993877,114428377,1561,1561,1562,1563,0,0,0,0,0,0,0,0,0,0
1681382037.29989886,114528337,1562,1562,1566,1566,0,0,0,0,0,0,0,0,0,0
1681382037.39985895,114628297,1561,1562,1567,1567,0,0,0,0,0,0,0,0,0,0
1681382037.49981880,114728257,1563,1563,1568,1568,0,0,0,0,0,0,0,0,0,0
1681382037.59977889,114828217,1564,1564,1568,1568,0,0,0,0,0,0,0,0,0,0
1681382037.69973898,114928177,1566,1566,1570,1570,0,0,0,0,0,0,0,0,0,0
1681382037.80053186,115028970,1568,1568,1570,1570,0,0,0,0,0,0,0,0,0,0
1681382037.90049195,115128930,1570,1570,1570,1570,0,0,0,0,0,0,0,0,0,0
1681382038.00045180,115228890,1571,1571,1570,1570,0,0,0,0,0,0,0,0,0,0
1681382038.10041189,115328850,1572,1572,1570,1570,0,0,0,0,0,0,0,0,0,0
1681382038.20037174,115428810,1573,1573,1570,1570,0,0,0,0,0,0,0,0,0,0
1681382038.30033183,115528770,1573,1573,1570,1570,0,0,0,0,0,0,0,0,0,0
1681382038.40029192,115628730,1575,1575,1572,1572,0,0,0,0,0,0,0,0,0,0
1681382038.50025177,115728690,1576,1576,1574,1573,0,0,0,0,0,0,0,0,0,0
1681382038.60021186,115828650,1575,1576,1574,1573,0,0,0,0,0,0,0,0,0,0
1681382038.70017195,115928610,1576,1576,1575,1574,0,0,0,0,0,0,0,0,0,0
1681382038.80013180,116028570,1577,1576,1576,1575,0,0,0,0,0,0,0,0,0,0
1681382038.90009189,116128530,1577,1576,1576,1575,0,0,0,0,0,0,0,0,0,0
1681382039.00005198,116228490,1576,1576,1575,1576,0,0,0,0,0,0,0,0,0,0
1681382039.10001183,116328450,1576,1576,1577,1577,0,0,0,0,0,0,0,0,0,0
1681382039.19997191,116428410,1576,1575,1576,1576,0,0,0,0,0,0,0,0,0,0
1681382039.29993176,116528370,1576,1576,1576,1577,0,0,0,0,0,0,0,0,0,0
1681382039.39989185,116628330,1576,1576,1577,1577,0,0,0,0,0,0,0,0,0,0
1681382039.49985194,116728290,1577,1577,1578,1578,0,0,0,0,0,0,0,0,0,0
1681382039.59981179,116828250,1577,1577,1578,1578,0,0,0,0,0,0,0,0,0,0
1681382039.69977188,116928210,1577,1577,1578,1578,0,0,0,0,0,0,0,0,0,0
1681382039.79973197,117028170,1577,1577,1578,1577,0,0,0,0,0,0,0,0,0,0
1681382039.90052485,117128963,1578,1577,1578,1578,0,0,0,0,0,0,0,0,0,0
1681382040.00048494,117228923,1578,1577,1578,1577,0,0,0,0,0,0,0,0,0,0
1681382040.10044479,117328883,1578,1578,1577,1578,0,0,0,0,0,0,0,0,0,0
1681382040.20040488,117428843,1577,1578,1577,1577,0,0,0,0,0,0,0,0,0,0
1681382040.30036497,117528803,1579,1579,1579,1579,0,0,0,0,0,0,0,0,0,0
1681382040.40032482,117628763,1579,1579,1579,1578,0,0,0,0,0,0,0,0,0,0
1681382040.50028491,117728723,1580,1580,1579,1579,0,0,0,0,0,0,0,0,0,0
1681382040.60024476,117828683,1578,1578,1578,1578,0,0,0,0,0,0,0,0,0,0
1681382040.70020485,117928643,1578,1578,1578,1579,0,0,0,0,0,0,0,0,0,0
1681382040.80016494,118028603,1578,1578,1578,1578,0,0,0,0,0,0,0,0,0,0
1681382040.90012479,118128563,1578,1578,1578,1579,0,0,0,0,0,0,0,0,0,0
1681382041.00008488,118228523,1579,1579,1580,1579,0,0,0,0,0,0,0,0,0,0
1681382041.10004497,118328483,1579,1578,1579,1579,0,0,0,0,0,0,0,0,0,0
1681382041.20000482,118428443,1579,1579,1579,1579,0,0,0,0,0,0,0,0,0,0
1681382041.29996490,118528403,1579,1579,1579,1579,0,0,0,0,0,0,0,0,0,0
1681382041.39992476,118628363,1580,1580,1580,1580,0,0,0,0,0,0,0,0,0,0
1681382041.49988484,118728323,1581,1581,1581,1581,0,0,0,0,0,0,0,0,0,0
1681382041.59984493,118828283,1580,1580,1580,1580,0,0,0,0,0,0,0,0,0,0
1681382041.69980478,118928243,1579,1580,1580,1579,0,0,0,0,0,0,0,0,0,0
1681382041.79976487,119028203,1579,1580,1580,1580,0,0,0,0,0,0,0,0,0,0
1681382041.89972496,119128163,1580,1580,1580,1580,0,0,0,0,0,0,0,0,0,0
1681382042.00051785,119228956,1580,1579,1580,1580,0,0,0,0,0,0,0,0,0,0
1681382042.10047793,119328916,1580,1580,1580,1580,0,0,0,0,0,0,0,0,0,0
1681382042.20043778,119428876,1581,1581,1581,1581,0,0,0,0,0,0,0,0,0,0
1681382042.30039787,119528836,1580,1580,1580,1580,0,0,0,0,0,0,0,0,0,0
1681382042.40035796,119628796,1579,1580,1580,1579,0,0,0,0,0,0,0,0,0,0
1681382042.50031781,119728756,1580,1580,1580,1580,0,0,0,0,0,0,0,0,0,0
1681382042.60027790,119828716,1580,1579,1580,1579,0,0,0,0,0,0,0,0,0,0
1681382042.70023775,119928676,1580,1579,1579,1579,0,0,0,0,0,0,0,0,0,0
1681382042.80019784,120028636,1580,1580,1579,1580,0,0,0,0,0,0,0,0,0,0
1681382042.90015793,120128596,1580,1580,1579,1580,0,0,0,0,0,0,0,0,0,0
1681382043.00011778,120228556,1581,1580,1581,1581,0,0,0,0,0,0,0,0,0,0
1681382043.10007787,120328516,1580,1580,1581,1580,0,0,0,0,0,0,0,0,0,0
1681382043.20003796,120428476,1581,1583,1588,1575,0,0,0,0,0,0,0,0,0,0
1681382043.29999781,120528436,1580,1584,1587,1574,0,0,0,0,0,0,0,0,0,0
1681382043.39995790,120628396,1579,1582,1578,1574,0,0,0,0,0,0,0,0,0,0
1681382043.49991775,120728356,1578,1580,1569,1572,0,0,0,0,0,0,0,0,0,0
1681382043.59987783,120828316,1578,1580,1563,1569,0,0,0,0,0,0,0,0,0,0
1681382043.69983792,120928276,1579,1580,1558,1565,0,0,0,0,0,0,0,0,0,0
1681382043.79979777,121028236,1581,1580,1557,1560,0,0,0,0,0,0,0,0,0,0
1681382043.89975786,121128196,1581,1579,1555,1556,0,0,0,0,0,0,0,0,0,0
1681382043.99971795,121228156,1581,1580,1557,1555,0,0,0,0,0,0,0,0,0,0
1681382044.10051084,121328949,1580,1579,1556,1554,0,0,0,0,0,0,0,0,0,0
1681382044.20047092,121428909,1578,1579,1556,1554,0,0,0,0,0,0,0,0,0,0
1681382044.30043077,121528869,1578,1579,1556,1555,0,0,0,0,0,0,0,0,0,0
1681382044.40039086,121628829,1576,1577,1554,1553,0,0,0,0,0,0,0,0,0,0
1681382044.50035095,121728789,1575,1577,1552,1553,0,0,0,0,0,0,0,0,0,0
1681382044.60031080,121828749,1577,1578,1552,1552,0,0,0,0,0,0,0,0,0,0
1681382044.70027089,121928709,1577,1578,1549,1550,0,0,0,0,0,0,0,0,0,0
1681382044.80023098,122028669,1579,1580,1547,1547,0,0,0,0,0,0,0,0,0,0
1681382044.90019083,122128629,1581,1582,1545,1544,0,0,0,0,0,0,0,0,0,0
1681382045.00015092,122228589,1585,1586,1543,1542,0,0,0,0,0,0,0,0,0,0
1681382045.10011077,122328549,1589,1589,1541,1540,0,0,0,0,0,0,0,0,0,0
1681382045.20007086,122428509,1591,1591,1537,1536,0,0,0,0,0,0,0,0,0,0
1681382045.30003095,122528469,1593,1593,1535,1535,0,0,0,0,0,0,0,0,0,0
1681382045.39999080,122628429,1595,1595,1534,1535,0,0,0,0,0,0,0,0,0,0
1681382045.49995089,122728389,1596,1595,1535,1537,0,0,0,0,0,0,0,0,0,0
1681382045.59991097,122828349,1595,1595,1537,1539,0,0,0,0,0,0,0,0,0,0
1681382045.69987082,122928309,1593,1592,1540,1543,0,0,0,0,0,0,0,0,0,0
1681382045.79983091,123028269,1589,1587,1547,1550,0,0,0,0,0,0,0,0,0,0
1681382045.89979076,123128229,1583,1579,1556,1559,0,0,0,0,0,0,0,0,0,0
1681382045.99975085,123228189,1572,1569,1566,1568,0,0,0,0,0,0,0,0,0,0
1681382046.10054398,123328982,1562,1558,1579,1581,0,0,0,0,0,0,0,0,0,0
1681382046.20050383,123428942,1550,1547,1590,1592,0,0,0,0,0,0,0,0,0,0
1681382046.30046391,123528902,1539,1537,1601,1601,0,0,0,0,0,0,0,0,0,0
1681382046.40042377,123628862,1532,1532,1610,1609,0,0,0,0,0,0,0,0,0,0
1681382046.50038385,123728822,1529,1529,1615,1614,0,0,0,0,0,0,0,0,0,0
1681382046.60034394,123828782,1529,1531,1617,1615,0,0,0,0,0,0,0,0,0,0
1681382046.70030379,123928742,1533,1535,1614,1613,0,0,0,0,0,0,0,0,0,0
1681382046.80026388,124028702,1538,1541,1608,1608,0,0,0,0,0,0,0,0,0,0
1681382046.90022397,124128662,1546,1547,1600,1601,0,0,0,0,0,0,0,0,0,0
1681382047.00018382,124228622,1564,1565,1620,1592,0,0,0,0,0,0,0,0,0,0
1681382047.10014391,124328582,1568,1567,1607,1586,0,0,0,0,0,0,0,0,0,0
1681382047.20010376,124428542,1574,1573,1594,1585,0,0,0,0,0,0,0,0,0,0
1681382047.30006385,124528502,1577,1577,1580,1581,0,0,0,0,0,0,0,0,0,0
1681382047.40002394,124628462,1580,1580,1569,1577,0,0,0,0,0,0,0,0,0,0
1681382047.49998379,124728422,1583,1582,1563,1572,0,0,0,0,0,0,0,0,0,0
1681382047.59994388,124828382,1584,1583,1562,1568,0,0,0,0,0,0,0,0,0,0
1681382047.69990396,124928342,1584,1583,1562,1565,0,0,0,0,0,0,0,0,0,0
1681382047.79986382,125028302,1584,1583,1566,1565,0,0,0,0,0,0,0,0,0,0
1681382047.89982390,125128262,1584,1582,1570,1568,0,0,0,0,0,0,0,0,0,0
1681382047.99978375,125228222,1581,1581,1573,1570,0,0,0,0,0,0,0,0,0,0
1681382048.09974384,125328182,1579,1579,1576,1574,0,0,0,0,0,0,0,0,0,0
1681382048.20053697,125428975,1577,1577,1579,1577,0,0,0,0,0,0,0,0,0,0
1681382048.30049682,125528935,1575,1575,1580,1580,0,0,0,0,0,0,0,0,0,0
1681382048.40045691,125628895,1573,1574,1581,1582,0,0,0,0,0,0,0,0,0,0
1681382048.50041676,125728855,1572,1572,1582,1582,0,0,0,0,0,0,0,0,0,0
1681382048.60037684,125828815,1571,1572,1582,1582,0,0,0,0,0,0,0,0,0,0
1681382048.70033693,125928775,1572,1573,1582,1583,0,0,0,0,0,0,0,0,0,0
1681382048.80029678,126028735,1573,1574,1582,1582,0,0,0,0,0,0,0,0,0,0
1681382048.90025687,126128695,1575,1575,1581,1581,0,0,0,0,0,0,0,0,0,0
1681382049.00021696,126228655,1577,1576,1581,1580,0,0,0,0,0,0,0,0,0,0
1681382049.10017681,126328615,1578,1578,1579,1579,0,0,0,0,0,0,0,0,0,0
1681382049.20013690,126428575,1579,1579,1578,1578,0,0,0,0,0,0,0,0,0,0
1681382049.30009675,126528535,1580,1580,1577,1577,0,0,0,0,0,0,0,0,0,0
1681382049.40005684,126628495,1581,1580,1577,1577,0,0,0,0,0,0,0,0,0,0
1681382049.50001693,126728455,1582,1581,1578,1577,0,0,0,0,0,0,0,0,0,0
1681382049.59997678,126828415,1581,1581,1577,1577,0,0,0,0,0,0,0,0,0,0
1681382049.69993687,126928375,1581,1582,1578,1578,0,0,0,0,0,0,0,0,0,0
1681382049.79989696,127028335,1581,1581,1578,1578,0,0,0,0,0,0,0,0,0,0
1681382049.89985681,127128295,1581,1581,1579,1579,0,0,0,0,0,0,0,0,0,0
1681382049.99981689,127228255,1581,1580,1580,1580,0,0,0,0,0,0,0,0,0,0
1681382050.09977674,127328215,1581,1580,1580,1581,0,0,0,0,0,0,0,0,0,0
1681382050.19973683,127428175,1580,1580,1581,1581,0,0,0,0,0,0,0,0,0,0
1681382050.30052996,127528968,1580,1580,1581,1581,0,0,0,0,0,0,0,0,0,0
1681382050.40048981,127628928,1579,1580,1581,1581,0,0,0,0,0,0,0,0,0,0
1681382050.50044990,127728888,1579,1579,1581,1581,0,0,0,0,0,0,0,0,0,0
1681382050.60040975,127828848,1580,1580,1581,1581,0,0,0,0,0,0,0,0,0,0
1681382050.70036983,127928808,1580,1580,1580,1581,0,0,0,0,0,0,0,0,0,0
1681382050.80032992,128028768,1580,1580,1581,1581,0,0,0,0,0,0,0,0,0,0
1681382050.90028977,128128728,1580,1580,1580,1580,0,0,0,0,0,0,0,0,0,0
1681382051.00024986,128228688,1581,1581,1581,1581,0,0,0,0,0,0,0,0,0,0
1681382051.10020995,128328648,1581,1581,1581,1580,0,0,0,0,0,0,0,0,0,0
1681382051.20016980,128428608,1581,1584,1587,1573,0,0,0,0,0,0,0,0,0,0
1681382051.30012989,128528568,1581,1585,1583,1572,0,0,0,0,0,0,0,0,0,0
1681382051.40008998,128628528,1581,1584,1574,1571,0,0,0,0,0,0,0,0,0,0
1681382051.50004983,128728488,1580,1582,1564,1569,0,0,0,0,0,0,0,0,0,0
1681382051.60000992,128828448,1580,1581,1557,1565,0,0,0,0,0,0,0,0,0,0
1681382051.69996977,128928408,1582,1581,1554,1560,0,0,0,0,0,0,0,0,0,0
1681382051.79992986,129028368,1582,1580,1552,1555,0,0,0,0,0,0,0,0,0,0
1681382051.89988995,129128328,1582,1580,1552,1553,0,0,0,0,0,0,0,0,0,0
1681382051.99984980,129228288,1581,1580,1553,1551,0,0,0,0,0,0,0,0,0,0
1681382052.09980989,129328248,1580,1580,1555,1552,0,0,0,0,0,0,0,0,0,0
1681382052.19976997,129428208,1579,1580,1555,1553,0,0,0,0,0,0,0,0,0,0
1681382052.29972982,129528168,1577,1579,1554,1553,0,0,0,0,0,0,0,0,0,0
1681382052.40052295,129628961,1575,1578,1553,1552,0,0,0,0,0,0,0,0,0,0
1681382052.50048280,129728921,1576,1578,1552,1554,0,0,0,0,0,0,0,0,0,0
1681382052.60044289,129828881,1577,1578,1552,1552,0,0,0,0,0,0,0,0,0,0
1681382052.70040298,129928841,1578,1579,1550,1550,0,0,0,0,0,0,0,0,0,0
1681382052.80036283,130028801,1580,1581,1548,1549,0,0,0,0,0,0,0,0,0,0
1681382052.90032291,130128761,1582,1583,1547,1546,0,0,0,0,0,0,0,0,0,0
1681382053.00028276,130228721,1584,1585,1544,1544,0,0,0,0,0,0,0,0,0,0
1681382053.10024285,130328681,1587,1587,1543,1543,0,0,0,0,0,0,0,0,0,0
1681382053.20020294,130428641,1588,1590,1540,1541,0,0,0,0,0,0,0,0,0,0
1681382053.30016279,130528601,1591,1592,1539,1540,0,0,0,0,0,0,0,0,0,0
1681382053.40012288,130628561,1593,1593,1539,1541,0,0,0,0,0,0,0,0,0,0
1681382053.50008297,130728521,1594,1593,1543,1545,0,0,0,0,0,0,0,0,0,0
1681382053.60004282,130828481,1591,1589,1546,1548,0,0,0,0,0,0,0,0,0,0
1681382053.70000291,130928441,1586,1582,1553,1555,0,0,0,0,0,0,0,0,0,0
1681382053.79996276,131028401,1579,1576,1563,1565,0,0,0,0,0,0,0,0,0,0
1681382053.89992285,131128361,1570,1566,1572,1574,0,0,0,0,0,0,0,0,0,0
1681382053.99988294,131228321,1560,1557,1583,1585,0,0,0,0,0,0,0,0,0,0
1681382054.09984279,131328281,1551,1549,1594,1594,0,0,0,0,0,0,0,0,0,0
1681382054.19980288,131428241,1544,1544,1602,1602,0,0,0,0,0,0,0,0,0,0
1681382054.29976296,131528201,1539,1540,1607,1607,0,0,0,0,0,0,0,0,0,0
1681382054.39972281,131628161,1538,1539,1610,1609,0,0,0,0,0,0,0,0,0,0
1681382054.50051594,131728954,1540,1542,1611,1609,0,0,0,0,0,0,0,0,0,0
1681382054.60047579,131828914,1543,1544,1607,1606,0,0,0,0,0,0,0,0,0,0
1681382054.70043588,131928874,1550,1551,1603,1603,0,0,0,0,0,0,0,0,0,0
1681382054.80039597,132028834,1556,1557,1597,1596,0,0,0,0,0,0,0,0,0,0
1681382054.90035582,132128794,1563,1564,1590,1590,0,0,0,0,0,0,0,0,0,0
1681382055.00031590,132228754,1571,1571,1584,1584,0,0,0,0,0,0,0,0,0,0
1681382055.10027575,132328714,1577,1576,1579,1579,0,0,0,0,0,0,0,0,0,0
1681382055.20023584,132428674,1581,1580,1574,1574,0,0,0,0,0,0,0,0,0,0
1681382055.30019593,132528634,1584,1583,1571,1571,0,0,0,0,0,0,0,0,0,0
1681382055.40015578,132628594,1585,1584,1569,1570,0,0,0,0,0,0,0,0,0,0
1681382055.50011587,132728554,1586,1584,1569,1569,0,0,0,0,0,0,0,0,0,0
1681382055.60007596,132828514,1585,1584,1571,1571,0,0,0,0,0,0,0,0,0,0
1681382055.70003581,132928474,1583,1582,1572,1573,0,0,0,0,0,0,0,0,0,0
1681382055.79999590,133028434,1581,1581,1575,1574,0,0,0,0,0,0,0,0,0,0
1681382055.89995575,133128394,1579,1580,1578,1578,0,0,0,0,0,0,0,0,0,0
1681382055.99991584,133228354,1576,1577,1579,1579,0,0,0,0,0,0,0,0,0,0
1681382056.09987593,133328314,1575,1576,1582,1582,0,0,0,0,0,0,0,0,0,0
1681382056.19983578,133428274,1574,1574,1582,1582,0,0,0,0,0,0,0,0,0,0
1681382056.29979587,133528234,1574,1574,1583,1584,0,0,0,0,0,0,0,0,0,0
1681382056.39975595,133628194,1574,1575,1584,1584,0,0,0,0,0,0,0,0,0,0
1681382056.49971581,133728154,1576,1576,1585,1585,0,0,0,0,0,0,0,0,0,0
1681382056.60050893,133828947,1575,1576,1583,1583,0,0,0,0,0,0,0,0,0,0
1681382056.70046878,133928907,1576,1577,1582,1582,0,0,0,0,0,0,0,0,0,0
1681382056.80042887,134028867,1578,1579,1582,1582,0,0,0,0,0,0,0,0,0,0
1681382056.90038896,134128827,1580,1580,1581,1581,0,0,0,0,0,0,0,0,0,0
1681382057.00034881,134228787,1581,1580,1579,1579,0,0,0,0,0,0,0,0,0,0
1681382057.10030890,134328747,1581,1581,1579,1579,0,0,0,0,0,0,0,0,0,0
1681382057.20026875,134428707,1582,1581,1578,1579,0,0,0,0,0,0,0,0,0,0
1681382057.30022883,134528667,1581,1581,1577,1577,0,0,0,0,0,0,0,0,0,0
1681382057.40018892,134628627,1581,1581,1578,1578,0,0,0,0,0,0,0,0,0,0
1681382057.50014877,134728587,1581,1581,1579,1578,0,0,0,0,0,0,0,0,0,0
1681382057.60010886,134828547,1581,1581,1579,1579,0,0,0,0,0,0,0,0,0,0
1681382057.70006895,134928507,1580,1580,1579,1579,0,0,0,0,0,0,0,0,0,0
1681382057.80002880,135028467,1580,1580,1579,1580,0,0,0,0,0,0,0,0,0,0
1681382057.89998889,135128427,1581,1580,1581,1581,0,0,0,0,0,0,0,0,0,0
1681382057.99994898,135228387,1580,1580,1581,1581,0,0,0,0,0,0,0,0,0,0
1681382058.09990883,135328347,1580,1580,1581,1582,0,0,0,0,0,0,0,0,0,0
1681382058.19986892,135428307,1579,1579,1581,1581,0,0,0,0,0,0,0,0,0,0
1681382058.29982877,135528267,1579,1579,1580,1581,0,0,0,0,0,0,0,0,0,0
1681382058.39978886,135628227,1579,1580,1581,1581,0,0,0,0,0,0,0,0,0,0
1681382058.49974895,135728187,1579,1579,1580,1580,0,0,0,0,0,0,0,0,0,0
1681382058.60054183,135828980,1580,1580,1581,1580,0,0,0,0,0,0,0,0,0,0
1681382058.70050192,135928940,1580,1580,1581,1580,0,0,0,0,0,0,0,0,0,0
1681382058.80046177,136028900,1582,1582,1583,1582,0,0,0,0,0,0,0,0,0,0
1681382058.90042186,136128860,1581,1582,1581,1581,0,0,0,0,0,0,0,0,0,0
1681382059.00038195,136228820,1581,1581,1580,1581,0,0,0,0,0,0,0,0,0,0
1681382059.10034180,136328780,1581,1581,1580,1580,0,0,0,0,0,0,0,0,0,0
1681382059.20030189,136428740,1582,1583,1583,1580,0,0,0,0,0,0,0,0,0,0
1681382059.30026197,136528700,1581,1583,1587,1572,0,0,0,0,0,0,0,0,0,0
1681382059.40022182,136628660,1581,1585,1583,1573,0,0,0,0,0,0,0,0,0,0
1681382059.50018191,136728620,1579,1582,1573,1572,0,0,0,0,0,0,0,0,0,0
1681382059.60014176,136828580,1580,1581,1566,1570,0,0,0,0,0,0,0,0,0,0
1681382059.70010185,136928540,1579,1580,1559,1566,0,0,0,0,0,0,0,0,0,0
1681382059.80006194,137028500,1580,1580,1555,1561,0,0,0,0,0,0,0,0,0,0
1681382059.90002179,137128460,1580,1579,1554,1557,0,0,0,0,0,0,0,0,0,0
1681382059.99998188,137228420,1581,1580,1555,1554,0,0,0,0,0,0,0,0,0,0
1681382060.09994197,137328380,1580,1579,1555,1553,0,0,0,0,0,0,0,0,0,0
1681382060.19990182,137428340,1580,1580,1556,1554,0,0,0,0,0,0,0,0,0,0
1681382060.29986191,137528300,1578,1579,1556,1554,0,0,0,0,0,0,0,0,0,0
1681382060.39982176,137628260,1576,1578,1555,1554,0,0,0,0,0,0,0,0,0,0
1681382060.49978185,137728220,1576,1578,1554,1554,0,0,0,0,0,0,0,0,0,0
1681382060.59974194,137828180,1576,1577,1553,1553,0,0,0,0,0,0,0,0,0,0
1681382060.70053482,137928973,1577,1577,1551,1552,0,0,0,0,0,0,0,0,0,0
1681382060.80049491,138028933,1578,1579,1550,1550,0,0,0,0,0,0,0,0,0,0
1681382060.90045476,138128893,1579,1580,1548,1548,0,0,0,0,0,0,0,0,0,0
1681382061.00041485,138228853,1582,1582,1546,1545,0,0,0,0,0,0,0,0,0,0
1681382061.10037494,138328813,1585,1585,1544,1543,0,0,0,0,0,0,0,0,0,0
1681382061.20033479,138428773,1588,1588,1542,1542,0,0,0,0,0,0,0,0,0,0
1681382061.30029488,138528733,1590,1590,1541,1541,0,0,0,0,0,0,0,0,0,0
1681382061.40025496,138628693,1591,1592,1539,1539,0,0,0,0,0,0,0,0,0,0
1681382061.50021482,138728653,1593,1593,1538,1540,0,0,0,0,0,0,0,0,0,0
1681382061.60017490,138828613,1592,1593,1538,1540,0,0,0,0,0,0,0,0,0,0
1681382061.70013475,138928573,1592,1591,1540,1543,0,0,0,0,0,0,0,0,0,0
1681382061.80009484,139028533,1590,1588,1545,1548,0,0,0,0,0,0,0,0,0,0
1681382061.90005493,139128493,1585,1582,1553,1555,0,0,0,0,0,0,0,0,0,0
1681382062.00001478,139228453,1576,1573,1561,1564,0,0,0,0,0,0,0,0,0,0
1681382062.09997487,139328413,1568,1563,1573,1575,0,0,0,0,0,0,0,0,0,0
1681382062.19993496,139428373,1558,1555,1586,1586,0,0,0,0,0,0,0,0,0,0
1681382062.29989481,139528333,1548,1546,1596,1596,0,0,0,0,0,0,0,0,0,0
1681382062.39985490,139628293,1539,1539,1604,1603,0,0,0,0,0,0,0,0,0,0
1681382062.49981475,139728253,1535,1536,1610,1609,0,0,0,0,0,0,0,0,0,0
1681382062.59977484,139828213,1533,1535,1612,1611,0,0,0,0,0,0,0,0,0,0
1681382062.69973493,139928173,1535,1537,1611,1610,0,0,0,0,0,0,0,0,0,0
1681382062.80052781,140028966,1541,1543,1608,1608,0,0,0,0,0,0,0,0,0,0
1681382062.90048790,140128926,1547,1548,1602,1602,0,0,0,0,0,0,0,0,0,0
1681382063.00044775,140228886,1555,1556,1596,1596,0,0,0,0,0,0,0,0,0,0
1681382063.10040784,140328846,1563,1563,1589,1589,0,0,0,0,0,0,0,0,0,0
1681382063.20036793,140428806,1569,1569,1582,1581,0,0,0,0,0,0,0,0,0,0
1681382063.30032778,140528766,1576,1575,1576,1576,0,0,0,0,0,0,0,0,0,0
1681382063.40028787,140628726,1581,1580,1571,1571,0,0,0,0,0,0,0,0,0,0
1681382063.50024796,140728686,1585,1583,1569,1569,0,0,0,0,0,0,0,0,0,0
1681382063.60020781,140828646,1585,1584,1567,1567,0,0,0,0,0,0,0,0,0,0
1681382063.70016789,140928606,1586,1585,1568,1568,0,0,0,0,0,0,0,0,0,0
1681382063.80012774,141028566,1585,1584,1569,1569,0,0,0,0,0,0,0,0,0,0
1681382063.90008783,141128526,1583,1582,1572,1571,0,0,0,0,0,0,0,0,0,0
1681382064.00004792,141228486,1581,1581,1574,1574,0,0,0,0,0,0,0,0,0,0
1681382064.10000777,141328446,1579,1579,1577,1577,0,0,0,0,0,0,0,0,0,0
1681382064.19996786,141428406,1576,1577,1579,1579,0,0,0,0,0,0,0,0,0,0
1681382064.29992795,141528366,1575,1575,1582,1581,0,0,0,0,0,0,0,0,0,0
1681382064.39988780,141628326,1574,1575,1584,1583,0,0,0,0,0,0,0,0,0,0
1681382064.49984789,141728286,1573,1574,1584,1584,0,0,0,0,0,0,0,0,0,0
1681382064.59980798,141828246,1573,1574,1583,1584,0,0,0,0,0,0,0,0,0,0
1681382064.69976783,141928206,1574,1573,1583,1582,0,0,0,0,0,0,0,0,0,0
1681382064.79972792,142028166,1575,1575,1582,1582,0,0,0,0,0,0,0,0,0,0
1681382064.90052080,142128959,1576,1576,1581,1581,0,0,0,0,0,0,0,0,0,0
1681382065.00048089,142228919,1577,1577,1580,1580,0,0,0,0,0,0,0,0,0,0
1681382065.10044098,142328879,1579,1579,1580,1580,0,0,0,0,0,0,0,0,0,0
1681382065.20040083,142428839,1580,1580,1579,1579,0,0,0,0,0,0,0,0,0,0
1681382065.30036092,142528799,1580,1580,1578,1577,0,0,0,0,0,0,0,0,0,0
1681382065.40032077,142628759,1581,1581,1578,1578,0,0,0,0,0,0,0,0,0,0
1681382065.50028086,142728719,1581,1581,1578,1578,0,0,0,0,0,0,0,0,0,0
1681382065.60024095,142828679,1581,1581,1577,1577,0,0,0,0,0,0,0,0,0,0
1681382065.70020080,142928639,1581,1581,1578,1578,0,0,0,0,0,0,0,0,0,0
1681382065.80016088,143028599,1581,1580,1578,1578,0,0,0,0,0,0,0,0,0,0
1681382065.90012097,143128559,1581,1580,1579,1579,0,0,0,0,0,0,0,0,0,0
1681382066.00008082,143228519,1580,1580,1580,1580,0,0,0,0,0,0,0,0,0,0
1681382066.10004091,143328479,1580,1579,1580,1580,0,0,0,0,0,0,0,0,0,0
1681382066.20000076,143428439,1579,1579,1580,1580,0,0,0,0,0,0,0,0,0,0
1681382066.29996085,143528399,1579,1579,1580,1581,0,0,0,0,0,0,0,0,0,0
1681382066.39992094,143628359,1578,1579,1580,1580,0,0,0,0,0,0,0,0,0,0
1681382066.49988079,143728319,1578,1578,1580,1580,0,0,0,0,0,0,0,0,0,0
1681382066.59984088,143828279,1579,1579,1580,1580,0,0,0,0,0,0,0,0,0,0
1681382066.69980097,143928239,1579,1579,1580,1581,0,0,0,0,0,0,0,0,0,0
1681382066.79976082,144028199,1580,1580,1581,1580,0,0,0,0,0,0,0,0,0,0
1681382066.89972091,144128159,1581,1580,1581,1581,0,0,0,0,0,0,0,0,0,0
1681382067.00051379,144228952,1580,1580,1580,1580,0,0,0,0,0,0,0,0,0,0
1681382067.10047388,144328912,1582,1583,1585,1578,0,0,0,0,0,0,0,0,0,0
1681382067.20043397,144428872,1581,1582,1588,1572,0,0,0,0,0,0,0,0,0,0
1681382067.30039382,144528832,1581,1581,1583,1575,0,0,0,0,0,0,0,0,0,0
1681382067.40035391,144628792,1577,1576,1575,1575,0,0,0,0,0,0,0,0,0,0
1681382067.50031376,144728752,1573,1573,1568,1575,0,0,0,0,0,0,0,0,0,0
1681382067.60027385,144828712,1571,1571,1566,1573,0,0,0,0,0,0,0,0,0,0
1681382067.70023394,144928672,1570,1569,1566,1572,0,0,0,0,0,0,0,0,0,0
1681382067.80019379,145028632,1569,1568,1567,1569,0,0,0,0,0,0,0,0,0,0
1681382067.90015388,145128592,1568,1567,1567,1567,0,0,0,0,0,0,0,0,0,0
1681382068.00011396,145228552,1567,1567,1568,1566,0,0,0,0,0,0,0,0,0,0
1681382068.10007381,145328512,1566,1566,1568,1565,0,0,0,0,0,0,0,0,0,0
1681382068.20003390,145428472,1565,1566,1567,1565,0,0,0,0,0,0,0,0,0,0
1681382068.29999375,145528432,1564,1564,1566,1565,0,0,0,0,0,0,0,0,0,0
1681382068.39995384,145628392,1563,1563,1564,1564,0,0,0,0,0,0,0,0,0,0
1681382068.49991393,145728352,1563,1563,1563,1564,0,0,0,0,0,0,0,0,0,0
1681382068.59987378,145828312,1563,1562,1563,1563,0,0,0,0,0,0,0,0,0,0
1681382068.69983387,145928272,1562,1562,1562,1563,0,0,0,0,0,0,0,0,0,0
1681382068.79979396,146028232,1562,1562,1562,1562,0,0,0,0,0,0,0,0,0,0
1681382068.89975381,146128192,1562,1562,1562,1561,0,0,0,0,0,0,0,0,0,0
1681382069.00054693,146228985,1560,1560,1560,1559,0,0,0,0,0,0,0,0,0,0
1681382069.10050678,146328945,1560,1559,1560,1559,0,0,0,0,0,0,0,0,0,0
1681382069.20046687,146428905,1558,1559,1559,1557,0,0,0,0,0,0,0,0,0,0
1681382069.30042696,146528865,1558,1558,1559,1557,0,0,0,0,0,0,0,0,0,0
1681382069.40038681,146628825,1557,1557,1557,1556,0,0,0,0,0,0,0,0,0,0
1681382069.50034690,146728785,1557,1556,1557,1556,0,0,0,0,0,0,0,0,0,0
1681382069.60030675,146828745,1558,1557,1558,1557,0,0,0,0,0,0,0,0,0,0
1681382069.70026684,146928705,1558,1558,1559,1557,0,0,0,0,0,0,0,0,0,0
1681382069.80022693,147028665,1558,1558,1560,1556,0,0,0,0,0,0,0,0,0,0
1681382069.90018678,147128625,1558,1558,1558,1558,0,0,0,0,0,0,0,0,0,0
1681382070.00014687,147228585,1559,1559,1557,1561,0,0,0,0,0,0,0,0,0,0
1681382070.10010695,147328545,1559,1559,1556,1563,0,0,0,0,0,0,0,0,0,0
1681382070.20006680,147428505,1560,1560,1557,1563,0,0,0,0,0,0,0,0,0,0
1681382070.30002689,147528465,1562,1562,1560,1564,0,0,0,0,0,0,0,0,0,0
1681382070.39998674,147628425,1562,1563,1561,1563,0,0,0,0,0,0,0,0,0,0
1681382070.49994683,147728385,1562,1563,1563,1562,0,0,0,0,0,0,0,0,0,0
1681382070.59990692,147828345,1561,1562,1563,1559,0,0,0,0,0,0,0,0,0,0
1681382070.69986677,147928305,1562,1561,1562,1561,0,0,0,0,0,0,0,0,0,0
1681382070.79982686,148028265,1561,1559,1558,1562,0,0,0,0,0,0,0,0,0,0
1681382070.89978695,148128225,1556,1556,1553,1558,0,0,0,0,0,0,0,0,0,0
1681382070.99974680,148228185,1551,1551,1550,1552,0,0,0,0,0,0,0,0,0,0
1681382071.10053992,148328978,1544,1544,1544,1545,0,0,0,0,0,0,0,0,0,0
1681382071.20049977,148428938,1537,1538,1539,1537,0,0,0,0,0,0,0,0,0,0
1681382071.30045986,148528898,1531,1531,1532,1531,0,0,0,0,0,0,0,0,0,0
1681382071.40041995,148628858,1522,1523,1523,1522,0,0,0,0,0,0,0,0,0,0
1681382071.50037980,148728818,1519,1519,1520,1519,0,0,0,0,0,0,0,0,0,0
1681382071.60033989,148828778,1518,1519,1519,1519,0,0,0,0,0,0,0,0,0,0
1681382071.70029998,148928738,1520,1519,1520,1519,0,0,0,0,0,0,0,0,0,0
1681382071.80025983,149028698,1522,1522,1522,1522,0,0,0,0,0,0,0,0,0,0
1681382071.90021992,149128658,1526,1525,1525,1526,0,0,0,0,0,0,0,0,0,0
1681382072.00017977,149228618,1530,1530,1530,1531,0,0,0,0,0,0,0,0,0,0
1681382072.10013986,149328578,1535,1536,1535,1536,0,0,0,0,0,0,0,0,0,0
1681382072.20009995,149428538,1539,1540,1540,1540,0,0,0,0,0,0,0,0,0,0
1681382072.30005980,149528498,1542,1542,1542,1542,0,0,0,0,0,0,0,0,0,0
1681382072.40001988,149628458,1543,1543,1543,1543,0,0,0,0,0,0,0,0,0,0
1681382072.49997997,149728418,1545,1545,1545,1545,0,0,0,0,0,0,0,0,0,0
1681382072.59993982,149828378,1546,1546,1546,1546,0,0,0,0,0,0,0,0,0,0
1681382072.69989991,149928338,1546,1546,1546,1546,0,0,0,0,0,0,0,0,0,0
1681382072.79985976,150028298,1546,1546,1546,1546,0,0,0,0,0,0,0,0,0,0
1681382072.89981985,150128258,1546,1546,1546,1546,0,0,0,0,0,0,0,0,0,0
1681382072.99977994,150228218,1546,1546,1546,1546,0,0,0,0,0,0,0,0,0,0
1681382073.09973979,150328178,1546,1546,1546,1546,0,0,0,0,0,0,0,0,0,0
1681382073.20053291,150428971,1546,1546,1546,1546,0,0,0,0,0,0,0,0,0,0
1681382073.30049276,150528931,1545,1545,1545,1545,0,0,0,0,0,0,0,0,0,0
1681382073.40045285,150628891,1544,1545,1545,1544,0,0,0,0,0,0,0,0,0,0
1681382073.50041294,150728851,1545,1545,1545,1545,0,0,0,0,0,0,0,0,0,0
1681382073.60037279,150828811,1544,1544,1544,1544,0,0,0,0,0,0,0,0,0,0
1681382073.70033288,150928771,1544,1544,1545,1544,0,0,0,0,0,0,0,0,0,0
1681382073.80029297,151028731,1543,1543,1544,1543,0,0,0,0,0,0,0,0,0,0
1681382073.90025282,151128691,1543,1543,1543,1543,0,0,0,0,0,0,0,0,0,0
1681382074.00021291,151228651,1544,1544,1544,1544,0,0,0,0,0,0,0,0,0,0
1681382074.10017276,151328611,1544,1544,1544,1544,0,0,0,0,0,0,0,0,0,0
1681382074.20013285,151428571,1544,1544,1544,1544,0,0,0,0,0,0,0,0,0,0
1681382074.30009294,151528531,1545,1544,1544,1545,0,0,0,0,0,0,0,0,0,0
1681382074.40005279,151628491,1544,1544,1544,1544,0,0,0,0,0,0,0,0,0,0
1681382074.50001287,151728451,1544,1543,1543,1544,0,0,0,0,0,0,0,0,0,0
1681382074.59997296,151828411,1543,1543,1543,1543,0,0,0,0,0,0,0,0,0,0
1681382074.69993281,151928371,1544,1544,1544,1544,0,0,0,0,0,0,0,0,0,0
1681382074.79989290,152028331,1544,1544,1543,1544,0,0,0,0,0,0,0,0,0,0
1681382074.89985275,152128291,1545,1545,1545,1545,0,0,0,0,0,0,0,0,0,0
1681382074.99981284,152228251,1544,1544,1544,1544,0,0,0,0,0,0,0,0,0,0
1681382075.09977293,152328211,1544,1544,1544,1544,0,0,0,0,0,0,0,0,0,0
1681382075.19973278,152428171,1544,1545,1545,1545,0,0,0,0,0,0,0,0,0,0
1681382075.30052590,152528964,1544,1543,1543,1544,0,0,0,0,0,0,0,0,0,0
1681382075.40048575,152628924,1543,1543,1543,1543,0,0,0,0,0,0,0,0,0,0
1681382075.50044584,152728884,1543,1543,1543,1544,0,0,0,0,0,0,0,0,0,0
1681382075.60040593,152828844,1544,1544,1544,1544,0,0,0,0,0,0,0,0,0,0
1681382075.70036578,152928804,1544,1544,1544,1544,0,0,0,0,0,0,0,0,0,0
1681382075.80032587,153028764,1543,1544,1544,1543,0,0,0,0,0,0,0,0,0,0
1681382075.90028596,153128724,1545,1544,1544,1544,0,0,0,0,0,0,0,0,0,0
1681382076.00024581,153228684,1544,1544,1544,1545,0,0,0,0,0,0,0,0,0,0
1681382076.10020590,153328644,1544,1544,1544,1544,0,0,0,0,0,0,0,0,0,0
1681382076.20016575,153428604,1545,1545,1545,1545,0,0,0,0,0,0,0,0,0,0
1681382076.30012584,153528564,1544,1544,1544,1544,0,0,0,0,0,0,0,0,0,0
1681382076.40008593,153628524,1544,1544,1544,1543,0,0,0,0,0,0,0,0,0,0
1681382076.50004578,153728484,1544,1544,1544,1544,0,0,0,0,0,0,0,0,0,0
1681382076.60000587,153828444,1544,1544,1544,1544,0,0,0,0,0,0,0,0,0,0
1681382076.69996595,153928404,1544,1544,1544,1544,0,0,0,0,0,0,0,0,0,0
1681382076.79992580,154028364,1544,1544,1544,1544,0,0,0,0,0,0,0,0,0,0
1681382076.89988589,154128324,1544,1544,1544,1544,0,0,0,0,0,0,0,0,0,0
1681382076.99984574,154228284,1544,1544,1544,1544,0,0,0,0,0,0,0,0,0,0
1681382077.09980583,154328244,1544,1544,1544,1544,0,0,0,0,0,0,0,0,0,0
1681382077.19976592,154428204,1543,1543,1543,1543,0,0,0,0,0,0,0,0,0,0
1681382077.29972577,154528164,1544,1544,1544,1544,0,0,0,0,0,0,0,0,0,0
1681382077.40051889,154628957,1544,1545,1544,1545,0,0,0,0,0,0,0,0,0,0
1681382077.50047874,154728917,1544,1544,1544,1544,0,0,0,0,0,0,0,0,0,0
1681382077.60043883,154828877,1544,1543,1544,1543,0,0,0,0,0,0,0,0,0,0
1681382077.70039892,154928837,1544,1543,1544,1544,0,0,0,0,0,0,0,0,0,0
1681382077.80035877,155028797,1543,1544,1543,1544,0,0,0,0,0,0,0,0,0,0
1681382077.90031886,155128757,1543,1543,1543,1543,0,0,0,0,0,0,0,0,0,0
1681382078.00027895,155228717,1543,1544,1544,1544,0,0,0,0,0,0,0,0,0,0
1681382078.10023880,155328677,1545,1544,1544,1544,0,0,0,0,0,0,0,0,0,0
1681382078.20019889,155428637,1544,1544,1544,1544,0,0,0,0,0,0,0,0,0,0
1681382078.30015898,155528597,1544,1544,1544,1545,0,0,0,0,0,0,0,0,0,0
1681382078.40011883,155628557,1544,1544,1544,1544,0,0,0,0,0,0,0,0,0,0
1681382078.50007892,155728517,1544,1544,1544,1544,0,0,0,0,0,0,0,0,0,0
1681382078.60003877,155828477,1544,1544,1544,1544,0,0,0,0,0,0,0,0,0,0
1681382078.69999886,155928437,1544,1544,1544,1544,0,0,0,0,0,0,0,0,0,0
1681382078.79995894,156028397,1544,1544,1544,1543,0,0,0,0,0,0,0,0,0,0
1681382078.89991879,156128357,1543,1544,1543,1544,0,0,0,0,0,0,0,0,0,0
1681382078.99987888,156228317,1543,1544,1544,1543,0,0,0,0,0,0,0,0,0,0
1681382079.09983897,156328277,1544,1544,1544,1544,0,0,0,0,0,0,0,0,0,0
1681382079.19979882,156428237,1544,1544,1544,1544,0,0,0,0,0,0,0,0,0,0
1681382079.29975891,156528197,1544,1544,1544,1545,0,0,0,0,0,0,0,0,0,0
1681382079.39971876,156628157,1545,1545,1545,1545,0,0,0,0,0,0,0,0,0,0
1681382079.50051188,156728950,1544,1544,1544,1544,0,0,0,0,0,0,0,0,0,0
1681382079.60047197,156828910,1544,1545,1545,1544,0,0,0,0,0,0,0,0,0,0
1681382079.70043182,156928870,1545,1545,1545,1545,0,0,0,0,0,0,0,0,0,0
1681382079.80039191,157028830,1544,1544,1544,1544,0,0,0,0,0,0,0,0,0,0
1681382079.90035176,157128790,1545,1544,1545,1545,0,0,0,0,0,0,0,0,0,0
1681382080.00031185,157228750,1544,1545,1545,1544,0,0,0,0,0,0,0,0,0,0
1681382080.10027194,157328710,1544,1544,1544,1544,0,0,0,0,0,0,0,0,0,0
1681382080.20023179,157428670,1544,1543,1544,1544,0,0,0,0,0,0,0,0,0,0
1681382080.30019188,157528630,1543,1543,1543,1544,0,0,0,0,0,0,0,0,0,0
1681382080.40015197,157628590,1544,1544,1544,1544,0,0,0,0,0,0,0,0,0,0
1681382080.50011182,157728550,1545,1544,1544,1544,0,0,0,0,0,0,0,0,0,0
1681382080.60007191,157828510,1544,1544,1544,1544,0,0,0,0,0,0,0,0,0,0
1681382080.70003176,157928470,1544,1544,1544,1544,0,0,0,0,0,0,0,0,0,0
1681382080.79999185,158028430,1544,1544,1544,1543,0,0,0,0,0,0,0,0,0,0
1681382080.89995193,158128390,1543,1543,1543,1543,0,0,0,0,0,0,0,0,0,0
1681382080.99991179,158228350,1544,1544,1544,1544,0,0,0,0,0,0,0,0,0,0
1681382081.09987187,158328310,1543,1543,1543,1544,0,0,0,0,0,0,0,0,0,0
1681382081.19983196,158428270,1478,1478,1478,1478,0,0,0,0,0,0,0,0,0,0
1681382081.29979181,158528230,1307,1304,1304,1308,0,0,0,0,0,0,0,0,0,0
1681382081.39975190,158628190,1230,1228,1228,1231,0,0,0,0,0,0,0,0,0,0
1681382081.50054479,158728983,1206,1204,1204,1207,0,0,0,0,0,0,0,0,0,0
1681382081.60050488,158828943,1179,1178,1179,1180,0,0,0,0,0,0,0,0,0,0
1681382081.70046496,158928903,1152,1150,1150,1153,0,0,0,0,0,0,0,0,0,0
1681382081.80042481,159028863,1150,1150,1150,1151,0,0,0,0,0,0,0,0,0,0
1681382081.90038490,159128823,1195,1150,1150,1197,0,0,0,0,0,0,0,0,0,0
1681382082.00034475,159228783,1194,1150,1150,1196,0,0,0,0,0,0,0,0,0,0
1681382082.10030484,159328743,1184,1150,1150,1186,0,0,0,0,0,0,0,0,0,0
1681382082.20026493,159428703,1182,1150,1150,1185,0,0,0,0,0,0,0,0,0,0
1681382082.30022478,159528663,1185,1150,1150,1188,0,0,0,0,0,0,0,0,0,0
1681382082.40018487,159628623,1188,1150,1150,1190,0,0,0,0,0,0,0,0,0,0
1681382082.50014496,159728583,1191,1150,1151,1194,0,0,0,0,0,0,0,0,0,0
1681382082.60010481,159828543,1193,1150,1151,1196,0,0,0,0,0,0,0,0,0,0
1681382082.70006490,159928503,1167,1150,1151,1169,0,0,0,0,0,0,0,0,0,0
1681382082.80002475,160028463,1175,1150,1151,1177,0,0,0,0,0,0,0,0,0,0
1681382082.89998484,160128423,1176,1150,1151,1178,0,0,0,0,0,0,0,0,0,0
1681382082.99994493,160228383,1177,1150,1151,1180,0,0,0,0,0,0,0,0,0,0
1681382083.09990478,160328343,1178,1150,1152,1181,0,0,0,0,0,0,0,0,0,0
1681382083.19986486,160428303,1000,1000,1000,1000,0,0,0,0,0,0,0,0,0,0
1681382083.29982495,160528263,1000,1000,1000,1000,0,0,0,0,0,0,0,0,0,0
1681382083.39978480,160628223,1000,1000,1000,1000,0,0,0,0,0,0,0,0,0,0
1681382083.49974489,160728183,1000,1000,1000,1000,0,0,0,0,0,0,0,0,0,0
1681382083.60053778,160828976,1000,1000,1000,1000,0,0,0,0,0,0,0,0,0,0
1681382083.70049787,160928936,1000,1000,1000,1000,0,0,0,0,0,0,0,0,0,0
1681382083.80045795,161028896,1000,1000,1000,1000,0,0,0,0,0,0,0,0,0,0
1681382083.90041780,161128856,1000,1000,1000,1000,0,0,0,0,0,0,0,0,0,0
1681382084.00037789,161228816,1000,1000,1000,1000,0,0,0,0,0,0,0,0,0,0
1681382084.10033774,161328776,1000,1000,1000,1000,0,0,0,0,0,0,0,0,0,0
1681382084.20029783,161428736,1000,1000,1000,1000,0,0,0,0,0,0,0,0,0,0
1681382084.30025792,161528696,1000,1000,1000,1000,0,0,0,0,0,0,0,0,0,0
1681382084.40021777,161628656,1000,1000,1000,1000,0,0,0,0,0,0,0,0,0,0
1681382084.50017786,161728616,1000,1000,1000,1000,0,0,0,0,0,0,0,0,0,0
1681382084.60013795,161828576,1000,1000,1000,1000,0,0,0,0,0,0,0,0,0,0
1681382084.70009780,161928536,1000,1000,1000,1000,0,0,0,0,0,0,0,0,0,0
1681382084.80005789,162028496,1000,1000,1000,1000,0,0,0,0,0,0,0,0,0,0
1681382084.90001798,162128456,1000,1000,1000,1000,0,0,0,0,0,0,0,0,0,0
1681382084.99997783,162228416,1000,1000,1000,1000,0,0,0,0,0,0,0,0,0,0
1681382085.09993792,162328376,1000,1000,1000,1000,0,0,0,0,0,0,0,0,0,0
1681382085.19989777,162428336,1000,1000,1000,1000,0,0,0,0,0,0,0,0,0,0
1681382085.29985785,162528296,1000,1000,1000,1000,0,0,0,0,0,0,0,0,0,0
1681382085.39981794,162628256,1000,1000,1000,1000,0,0,0,0,0,0,0,0,0,0
1681382085.49977779,162728216,1000,1000,1000,1000,0,0,0,0,0,0,0,0,0,0
1681382085.59973788,162828176,1000,1000,1000,1000,0,0,0,0,0,0,0,0,0,0
1681382085.70053077,162928969,1000,1000,1000,1000,0,0,0,0,0,0,0,0,0,0
1681382085.80049086,163028929,1000,1000,1000,1000,0,0,0,0,0,0,0,0,0,0
1681382085.90045094,163128889,1000,1000,1000,1000,0,0,0,0,0,0,0,0,0,0
1681382086.00041080,163228849,1000,1000,1000,1000,0,0,0,0,0,0,0,0,0,0
1681382086.10037088,163328809,1000,1000,1000,1000,0,0,0,0,0,0,0,0,0,0
1681382086.20033097,163428769,1000,1000,1000,1000,0,0,0,0,0,0,0,0,0,0
1681382086.30029082,163528729,1000,1000,1000,1000,0,0,0,0,0,0,0,0,0,0
1681382086.40025091,163628689,1000,1000,1000,1000,0,0,0,0,0,0,0,0,0,0
1681382086.50021076,163728649,1000,1000,1000,1000,0,0,0,0,0,0,0,0,0,0
1681382086.60017085,163828609,1000,1000,1000,1000,0,0,0,0,0,0,0,0,0,0
1681382086.70013094,163928569,1000,1000,1000,1000,0,0,0,0,0,0,0,0,0,0
1681382086.80009079,164028529,1000,1000,1000,1000,0,0,0,0,0,0,0,0,0,0
1681382086.90005088,164128489,1000,1000,1000,1000,0,0,0,0,0,0,0,0,0,0
1681382087.00001097,164228449,1000,1000,1000,1000,0,0,0,0,0,0,0,0,0,0
1681382087.09997082,164328409,1000,1000,1000,1000,0,0,0,0,0,0,0,0,0,0
1681382087.19993091,164428369,1000,1000,1000,1000,0,0,0,0,0,0,0,0,0,0
1681382087.29989076,164528329,1000,1000,1000,1000,0,0,0,0,0,0,0,0,0,0
1681382087.39985085,164628289,1000,1000,1000,1000,0,0,0,0,0,0,0,0,0,0
1681382087.49981093,164728249,1000,1000,1000,1000,0,0,0,0,0,0,0,0,0,0
1681382087.59977078,164828209,1000,1000,1000,1000,0,0,0,0,0,0,0,0,0,0
1681382087.69973087,164928169,1000,1000,1000,1000,0,0,0,0,0,0,0,0,0,0
1681382087.80052376,165028962,1000,1000,1000,1000,0,0,0,0,0,0,0,0,0,0
1681382087.90048385,165128922,1000,1000,1000,1000,0,0,0,0,0,0,0,0,0,0
1681382088.00044394,165228882,1000,1000,1000,1000,0,0,0,0,0,0,0,0,0,0
1681382088.10040379,165328842,1000,1000,1000,1000,0,0,0,0,0,0,0,0,0,0
1681382088.20036387,165428802,1000,1000,1000,1000,0,0,0,0,0,0,0,0,0,0
1681382088.30032396,165528762,1000,1000,1000,1000,0,0,0,0,0,0,0,0,0,0
1681382088.40028381,165628722,1000,1000,1000,1000,0,0,0,0,0,0,0,0,0,0
1681382088.50024390,165728682,1000,1000,1000,1000,0,0,0,0,0,0,0,0,0,0
1681382088.60020375,165828642,1000,1000,1000,1000,0,0,0,0,0,0,0,0,0,0
1681382088.70016384,165928602,1000,1000,1000,1000,0,0,0,0,0,0,0,0,0,0
1681382088.80012393,166028562,1000,1000,1000,1000,0,0,0,0,0,0,0,0,0,0
1681382088.90008378,166128522,1000,1000,1000,1000,0,0,0,0,0,0,0,0,0,0
1681382089.00004387,166228482,1000,1000,1000,1000,0,0,0,0,0,0,0,0,0,0
1681382089.10000396,166328442,1000,1000,1000,1000,0,0,0,0,0,0,0,0,0,0
1681382089.13998795,166368426,1000,1000,1000,1000,0,0,0,0,0,0,0,0,0,0
1681382089.23994780,166468386,1000,1000,1000,1000,0,0,0,0,0,0,0,0,0,0
1681382089.33990788,166568346,1000,1000,1000,1000,0,0,0,0,0,0,0,0,0,0
1681382089.43986797,166668306,1000,1000,1000,1000,0,0,0,0,0,0,0,0,0,0
1681382089.53982782,166768266,1000,1000,1000,1000,0,0,0,0,0,0,0,0,0,0
1681382089.63978791,166868226,1000,1000,1000,1000,0,0,0,0,0,0,0,0,0,0
1681382089.73974776,166968186,1000,1000,1000,1000,0,0,0,0,0,0,0,0,0,0
1681382089.84054089,167068979,1000,1000,1000,1000,0,0,0,0,0,0,0,0,0,0
1681382089.94050097,167168939,1000,1000,1000,1000,0,0,0,0,0,0,0,0,0,0
1681382090.04046082,167268899,1000,1000,1000,1000,0,0,0,0,0,0,0,0,0,0
1681382090.14042091,167368859,1000,1000,1000,1000,0,0,0,0,0,0,0,0,0,0
1681382090.24038076,167468819,1000,1000,1000,1000,0,0,0,0,0,0,0,0,0,0
1681382090.34034085,167568779,1000,1000,1000,1000,0,0,0,0,0,0,0,0,0,0
1681382090.44030094,167668739,1000,1000,1000,1000,0,0,0,0,0,0,0,0,0,0
1681382090.54026079,167768699,1000,1000,1000,1000,0,0,0,0,0,0,0,0,0,0
1681382090.64022088,167868659,1000,1000,1000,1000,0,0,0,0,0,0,0,0,0,0
1681382090.74018097,167968619,1000,1000,1000,1000,0,0,0,0,0,0,0,0,0,0
1681382090.84014082,168068579,1000,1000,1000,1000,0,0,0,0,0,0,0,0,0,0
1681382090.94010091,168168539,1000,1000,1000,1000,0,0,0,0,0,0,0,0,0,0
1681382091.04006076,168268499,1000,1000,1000,1000,0,0,0,0,0,0,0,0,0,0
1681382091.14002085,168368459,1000,1000,1000,1000,0,0,0,0,0,0,0,0,0,0
1681382091.23998094,168468419,1000,1000,1000,1000,0,0,0,0,0,0,0,0,0,0
1681382091.33994079,168568379,1000,1000,1000,1000,0,0,0,0,0,0,0,0,0,0
1681382091.43990088,168668339,1000,1000,1000,1000,0,0,0,0,0,0,0,0,0,0
1681382091.53986096,168768299,1000,1000,1000,1000,0,0,0,0,0,0,0,0,0,0
1681382091.63982081,168868259,1000,1000,1000,1000,0,0,0,0,0,0,0,0,0,0
1681382091.73978090,168968219,1000,1000,1000,1000,0,0,0,0,0,0,0,0,0,0
1681382091.83974075,169068179,1000,1000,1000,1000,0,0,0,0,0,0,0,0,0,0
1681382091.94053388,169168972,1000,1000,1000,1000,0,0,0,0,0,0,0,0,0,0
1681382092.04049397,169268932,1000,1000,1000,1000,0,0,0,0,0,0,0,0,0,0
1681382092.14045382,169368892,1000,1000,1000,1000,0,0,0,0,0,0,0,0,0,0
1681382092.24041390,169468852,1000,1000,1000,1000,0,0,0,0,0,0,0,0,0,0
1681382092.34037375,169568812,1000,1000,1000,1000,0,0,0,0,0,0,0,0,0,0
1681382092.44033384,169668772,1000,1000,1000,1000,0,0,0,0,0,0,0,0,0,0
1681382092.54029393,169768732,1000,1000,1000,1000,0,0,0,0,0,0,0,0,0,0
1681382092.64025378,169868692,1000,1000,1000,1000,0,0,0,0,0,0,0,0,0,0
1681382092.74021387,169968652,1000,1000,1000,1000,0,0,0,0,0,0,0,0,0,0
1681382092.84017396,170068612,1000,1000,1000,1000,0,0,0,0,0,0,0,0,0,0
1681382092.94013381,170168572,1000,1000,1000,1000,0,0,0,0,0,0,0,0,0,0
1681382093.04009390,170268532,1000,1000,1000,1000,0,0,0,0,0,0,0,0,0,0
1681382093.14005375,170368492,1000,1000,1000,1000,0,0,0,0,0,0,0,0,0,0
1681382093.24001384,170468452,1000,1000,1000,1000,0,0,0,0,0,0,0,0,0,0
1681382093.33997393,170568412,1000,1000,1000,1000,0,0,0,0,0,0,0,0,0,0
1681382093.43993378,170668372,1000,1000,1000,1000,0,0,0,0,0,0,0,0,0,0
1681382093.53989387,170768332,1000,1000,1000,1000,0,0,0,0,0,0,0,0,0,0
1681382093.63985395,170868292,1000,1000,1000,1000,0,0,0,0,0,0,0,0,0,0
1681382093.73981380,170968252,1000,1000,1000,1000,0,0,0,0,0,0,0,0,0,0
1681382093.83977389,171068212,1000,1000,1000,1000,0,0,0,0,0,0,0,0,0,0
1681382093.93973374,171168172,1000,1000,1000,1000,0,0,0,0,0,0,0,0,0,0
1681382094.04052687,171268965,1000,1000,1000,1000,0,0,0,0,0,0,0,0,0,0
1681382094.14048696,171368925,1000,1000,1000,1000,0,0,0,0,0,0,0,0,0,0
1681382094.24044681,171468885,1000,1000,1000,1000,0,0,0,0,0,0,0,0,0,0
1681382094.34040689,171568845,1000,1000,1000,1000,0,0,0,0,0,0,0,0,0,0
1681382094.44036674,171668805,1000,1000,1000,1000,0,0,0,0,0,0,0,0,0,0
1681382094.54032683,171768765,1000,1000,1000,1000,0,0,0,0,0,0,0,0,0,0
1681382094.64028692,171868725,1000,1000,1000,1000,0,0,0,0,0,0,0,0,0,0
1681382094.74024677,171968685,1000,1000,1000,1000,0,0,0,0,0,0,0,0,0,0
1681382094.84020686,172068645,1000,1000,1000,1000,0,0,0,0,0,0,0,0,0,0
1681382094.94016695,172168605,1000,1000,1000,1000,0,0,0,0,0,0,0,0,0,0
1681382095.04012680,172268565,1000,1000,1000,1000,0,0,0,0,0,0,0,0,0,0
1681382095.14008689,172368525,1000,1000,1000,1000,0,0,0,0,0,0,0,0,0,0
1681382095.24004698,172468485,1000,1000,1000,1000,0,0,0,0,0,0,0,0,0,0
1681382095.34000683,172568445,1000,1000,1000,1000,0,0,0,0,0,0,0,0,0,0
1681382095.43996692,172668405,1000,1000,1000,1000,0,0,0,0,0,0,0,0,0,0
1681382095.53992677,172768365,1000,1000,1000,1000,0,0,0,0,0,0,0,0,0,0
1681382095.63988686,172868325,1000,1000,1000,1000,0,0,0,0,0,0,0,0,0,0
1681382095.73984694,172968285,1000,1000,1000,1000,0,0,0,0,0,0,0,0,0,0
1681382095.83980680,173068245,1000,1000,1000,1000,0,0,0,0,0,0,0,0,0,0
1681382095.93976688,173168205,1000,1000,1000,1000,0,0,0,0,0,0,0,0,0,0
1681382096.03972697,173268165,1000,1000,1000,1000,0,0,0,0,0,0,0,0,0,0
1681382096.14051986,173368958,1000,1000,1000,1000,0,0,0,0,0,0,0,0,0,0
1681382096.24047995,173468918,1000,1000,1000,1000,0,0,0,0,0,0,0,0,0,0
1681382096.34043980,173568878,1000,1000,1000,1000,0,0,0,0,0,0,0,0,0,0
1681382096.44039989,173668838,1000,1000,1000,1000,0,0,0,0,0,0,0,0,0,0
1681382096.54035997,173768798,1000,1000,1000,1000,0,0,0,0,0,0,0,0,0,0
1681382096.64031982,173868758,1000,1000,1000,1000,0,0,0,0,0,0,0,0,0,0
1681382096.74027991,173968718,1000,1000,1000,1000,0,0,0,0,0,0,0,0,0,0
1681382096.84023976,174068678,1000,1000,1000,1000,0,0,0,0,0,0,0,0,0,0
1681382096.94019985,174168638,1000,1000,1000,1000,0,0,0,0,0,0,0,0,0,0
1681382097.04015994,174268598,1000,1000,1000,1000,0,0,0,0,0,0,0,0,0,0
1681382097.14011979,174368558,1000,1000,1000,1000,0,0,0,0,0,0,0,0,0,0
1681382097.24007988,174468518,1000,1000,1000,1000,0,0,0,0,0,0,0,0,0,0
1681382097.34003997,174568478,1000,1000,1000,1000,0,0,0,0,0,0,0,0,0,0
1681382097.43999982,174668438,1000,1000,1000,1000,0,0,0,0,0,0,0,0,0,0
1681382097.53995991,174768398,1000,1000,1000,1000,0,0,0,0,0,0,0,0,0,0
1681382097.63991976,174868358,1000,1000,1000,1000,0,0,0,0,0,0,0,0,0,0
1681382097.73987985,174968318,1000,1000,1000,1000,0,0,0,0,0,0,0,0,0,0
1681382097.83983994,175068278,1000,1000,1000,1000,0,0,0,0,0,0,0,0,0,0
1681382097.93979979,175168238,1000,1000,1000,1000,0,0,0,0,0,0,0,0,0,0
1681382098.03975987,175268198,1000,1000,1000,1000,0,0,0,0,0,0,0,0,0,0
1681382098.13971996,175368158,1000,1000,1000,1000,0,0,0,0,0,0,0,0,0,0
