TimeUS,M1,M2,M3,M4,TimeUS,C1,C2,C3,C4
78206205,1000,1000,1000,1000,78228696,1000,1000,1000,1000
78208704,1000,1000,1000,1000,78328656,1000,1000,1000,1000
78211203,1000,1000,1000,1000,78428616,1000,1000,1000,1000
78213702,1000,1000,1000,1000,78528576,1000,1000,1000,1000
78216201,1000,1000,1000,1000,78628536,1000,1000,1000,1000
78218700,1000,1000,1000,1000,78728496,1000,1000,1000,1000
78221199,1000,1000,1000,1000,78828456,1000,1000,1000,1000
78223698,1000,1000,1000,1000,78928416,1000,1000,1000,1000
78226197,1000,1000,1000,1000,79028376,1000,1000,1000,1000
78228696,1000,1000,1000,1000,79128336,1000,1000,1000,1000
78231195,1000,1000,1000,1000,79228296,1000,1000,1000,1000
78233694,1000,1000,1000,1000,79328256,1000,1000,1000,1000
78236193,1000,1000,1000,1000,79428216,1000,1000,1000,1000
78238692,1000,1000,1000,1000,79528176,1000,1000,1000,1000
78241191,1000,1000,1000,1000,79628969,1000,1000,1000,1000
78243690,1000,1000,1000,1000,79728929,1000,1000,1000,1000
78246189,1000,1000,1000,1000,79828889,1000,1000,1000,1000
78248688,1000,1000,1000,1000,79928849,1000,1000,1000,1000
78251187,1000,1000,1000,1000,80028809,1000,1000,1000,1000
78253686,1000,1000,1000,1000,80128769,1000,1000,1000,1000
78256185,1000,1000,1000,1000,80228729,1006,1006,1006,1006
78258684,1000,1000,1000,1000,80328689,1036,1036,1036,1036
78261183,1000,1000,1000,1000,80428649,1066,1066,1066,1066
78263682,1000,1000,1000,1000,80528609,1096,1096,1096,1096
78266181,1000,1000,1000,1000,80628569,1126,1126,1126,1126
78268680,1000,1000,1000,1000,80728529,1217,1205,1206,1217
78271179,1000,1000,1000,1000,80828489,1445,1437,1438,1445
78273678,1000,1000,1000,1000,80928449,1616,1608,1609,1616
78276177,1000,1000,1000,1000,81028409,1757,1751,1751,1758
78278676,1000,1000,1000,1000,81128369,1852,1845,1845,1853
78281175,1000,1000,1000,1000,81228329,1861,1855,1856,1861
78283674,1000,1000,1000,1000,81328289,1770,1768,1768,1771
78286173,1000,1000,1000,1000,81428249,1652,1653,1653,1652
78288672,1000,1000,1000,1000,81528209,1606,1609,1610,1607
78291171,1000,1000,1000,1000,81628169,1613,1616,1616,1613
78293670,1000,1000,1000,1000,81728962,1628,1630,1630,1628
78296169,1000,1000,1000,1000,81828922,1636,1636,1636,1636
78298668,1000,1000,1000,1000,81928882,1632,1631,1631,1632
78301167,1000,1000,1000,1000,82028842,1621,1620,1619,1622
78303666,1000,1000,1000,1000,82128802,1606,1605,1597,1613
78306165,1000,1000,1000,1000,82228762,1602,1600,1594,1607
78308664,1000,1000,1000,1000,82328722,1603,1602,1599,1604
78311163,1000,1000,1000,1000,82428682,1607,1606,1608,1605
78313662,1000,1000,1000,1000,82528642,1612,1612,1615,1609
78316161,1000,1000,1000,1000,82628602,1618,1619,1622,1615
78318660,1000,1000,1000,1000,82728562,1598,1599,1608,1589
78321159,1000,1000,1000,1000,82828522,1579,1580,1595,1565
78323658,1000,1000,1000,1000,82928482,1568,1569,1575,1562
78326157,1000,1000,1000,1000,83028442,1557,1557,1554,1562
78328656,1000,1000,1000,1000,83128402,1549,1548,1538,1560
78331155,1000,1000,1000,1000,83228362,1542,1540,1530,1553
78333654,1000,1000,1000,1000,83328322,1535,1533,1526,1542
78336153,1000,1000,1000,1000,83428282,1529,1529,1526,1532
78338652,1000,1000,1000,1000,83528242,1529,1529,1529,1528
78341151,1000,1000,1000,1000,83628202,1530,1530,1532,1527
78343650,1000,1000,1000,1000,83728162,1533,1533,1536,1530
78346149,1000,1000,1000,1000,83828955,1535,1535,1539,1531
78348648,1000,1000,1000,1000,83928915,1540,1540,1543,1537
78351147,1000,1000,1000,1000,84028875,1542,1542,1544,1541
78353646,1000,1000,1000,1000,84128835,1546,1546,1546,1546
78356145,1000,1000,1000,1000,84228795,1548,1549,1548,1550
78358644,1000,1000,1000,1000,84328755,1551,1551,1550,1552
78361143,1000,1000,1000,1000,84428715,1554,1552,1553,1556
78363642,1000,1000,1000,1000,84528675,1553,1552,1558,1561
78366141,1000,1000,1000,1000,84628635,1554,1555,1561,1562
78368640,1000,1000,1000,1000,84728595,1557,1557,1563,1563
78371139,1000,1000,1000,1000,84828555,1560,1561,1565,1563
78373638,1000,1000,1000,1000,84928515,1563,1564,1565,1564
78376137,1000,1000,1000,1000,85028475,1566,1566,1565,1564
78378636,1000,1000,1000,1000,85128435,1569,1569,1567,1566
78381135,1000,1000,1000,1000,85228395,1570,1570,1566,1567
78383634,1000,1000,1000,1000,85328355,1572,1572,1567,1568
78386133,1000,1000,1000,1000,85428315,1572,1573,1567,1568
78388632,1000,1000,1000,1000,85528275,1574,1573,1569,1569
78391131,1000,1000,1000,1000,85628235,1574,1574,1570,1570
78393630,1000,1000,1000,1000,85728195,1574,1575,1572,1572
78396129,1000,1000,1000,1000,85828155,1574,1574,1573,1572
78398628,1000,1000,1000,1000,85928948,1575,1575,1575,1574
78401127,1000,1000,1000,1000,86028908,1575,1575,1576,1575
78403626,1000,1000,1000,1000,86128868,1575,1574,1576,1575
78406125,1000,1000,1000,1000,86228828,1574,1574,1576,1575
78408624,1000,1000,1000,1000,86328788,1575,1576,1576,1577
78411123,1000,1000,1000,1000,86428748,1575,1575,1576,1576
78413622,1000,1000,1000,1000,86528708,1575,1576,1577,1577
78416121,1000,1000,1000,1000,86628668,1576,1576,1577,1577
78418620,1000,1000,1000,1000,86728628,1576,1576,1577,1576
78421119,1000,1000,1000,1000,86828588,1577,1577,1577,1577
78423618,1000,1000,1000,1000,86928548,1577,1577,1577,1577
78426117,1000,1000,1000,1000,87028508,1578,1578,1577,1578
78428616,1000,1000,1000,1000,87128468,1577,1577,1576,1577
78431115,1000,1000,1000,1000,87228428,1577,1577,1576,1576
78433614,1000,1000,1000,1000,87328388,1578,1578,1577,1577
78436113,1000,1000,1000,1000,87428348,1578,1578,1578,1578
78438612,1000,1000,1000,1000,87528308,1579,1578,1578,1578
78441111,1000,1000,1000,1000,87628268,1579,1579,1579,1579
78443610,1000,1000,1000,1000,87728228,1579,1579,1578,1578
78446109,1000,1000,1000,1000,87828188,1579,1578,1578,1578
78448608,1000,1000,1000,1000,87928981,1579,1579,1579,1579
78451107,1000,1000,1000,1000,88028941,1579,1579,1580,1579
78453606,1000,1000,1000,1000,88128901,1579,1579,1579,1579
78456105,1000,1000,1000,1000,88228861,1578,1578,1578,1579
78458604,1000,1000,1000,1000,88328821,1578,1579,1579,1580
78461103,1000,1000,1000,1000,88428781,1579,1579,1579,1579
78463602,1000,1000,1000,1000,88528741,1580,1579,1579,1580
78466101,1000,1000,1000,1000,88628701,1579,1578,1579,1579
78468600,1000,1000,1000,1000,88728661,1579,1579,1580,1580
78471099,1000,1000,1000,1000,88828621,1579,1579,1580,1580
78473598,1000,1000,1000,1000,88928581,1580,1580,1580,1580
78476097,1000,1000,1000,1000,89028541,1579,1580,1579,1579
78478596,1000,1000,1000,1000,89128501,1580,1580,1580,1580
78481095,1000,1000,1000,1000,89228461,1579,1579,1578,1579
78483594,1000,1000,1000,1000,89328421,1579,1579,1578,1579
78486093,1000,1000,1000,1000,89428381,1580,1580,1580,1580
78488592,1000,1000,1000,1000,89528341,1579,1579,1579,1579
78491091,1000,1000,1000,1000,89628301,1579,1579,1579,1579
78493590,1000,1000,1000,1000,89728261,1580,1580,1580,1580
78496089,1000,1000,1000,1000,89828221,1581,1581,1581,1581
78498588,1000,1000,1000,1000,89928181,1580,1581,1581,1580
78501087,1000,1000,1000,1000,90028974,1581,1581,1581,1581
78503586,1000,1000,1000,1000,90128934,1580,1580,1580,1580
78506085,1000,1000,1000,1000,90228894,1581,1580,1581,1580
78508584,1000,1000,1000,1000,90328854,1580,1580,1580,1580
78511083,1000,1000,1000,1000,90428814,1581,1580,1580,1581
78513582,1000,1000,1000,1000,90528774,1581,1581,1581,1581
78516081,1000,1000,1000,1000,90628734,1581,1581,1582,1581
78518580,1000,1000,1000,1000,90728694,1581,1583,1589,1574
78521079,1000,1000,1000,1000,90828654,1581,1583,1586,1574
78523578,1000,1000,1000,1000,90928614,1578,1581,1576,1573
78526077,1000,1000,1000,1000,91028574,1577,1580,1567,1572
78528576,1000,1000,1000,1000,91128534,1578,1580,1561,1569
78531075,1000,1000,1000,1000,91228494,1577,1578,1556,1562
78533574,1000,1000,1000,1000,91328454,1579,1578,1555,1558
78536073,1000,1000,1000,1000,91428414,1580,1578,1555,1556
78538572,1000,1000,1000,1000,91528374,1580,1578,1555,1554
78541071,1000,1000,1000,1000,91628334,1578,1578,1555,1553
78543570,1000,1000,1000,1000,91728294,1577,1578,1555,1554
78546069,1000,1000,1000,1000,91828254,1576,1578,1555,1553
78548568,1000,1000,1000,1000,91928214,1575,1577,1554,1554
78551067,1000,1000,1000,1000,92028174,1575,1577,1553,1553
78553566,1000,1000,1000,1000,92128967,1576,1578,1552,1552
78556065,1000,1000,1000,1000,92228927,1576,1578,1550,1549
78558564,1000,1000,1000,1000,92328887,1579,1579,1547,1548
78561063,1000,1000,1000,1000,92428847,1582,1583,1546,1546
78563562,1000,1000,1000,1000,92528807,1584,1585,1542,1542
78566061,1000,1000,1000,1000,92628767,1586,1587,1539,1539
78568560,1000,1000,1000,1000,92728727,1590,1590,1537,1537
78571059,1000,1000,1000,1000,92828687,1593,1594,1536,1536
78573558,1000,1000,1000,1000,92928647,1594,1594,1535,1535
78576057,1000,1000,1000,1000,93028607,1595,1595,1535,1537
78578556,1000,1000,1000,1000,93128567,1594,1594,1536,1539
78581055,1000,1000,1000,1000,93228527,1592,1591,1540,1542
78583554,1000,1000,1000,1000,93328487,1588,1585,1545,1548
78586053,1000,1000,1000,1000,93428447,1582,1579,1554,1557
78588552,1000,1000,1000,1000,93528407,1573,1569,1564,1567
78591051,1000,1000,1000,1000,93628367,1562,1559,1576,1578
78593550,1000,1000,1000,1000,93728327,1551,1548,1589,1590
78596049,1000,1000,1000,1000,93828287,1541,1539,1600,1600
78598548,1000,1000,1000,1000,93928247,1534,1533,1609,1608
78601047,1000,1000,1000,1000,94028207,1528,1529,1613,1612
78603546,1000,1000,1000,1000,94128167,1529,1530,1615,1614
78606045,1000,1000,1000,1000,94228960,1533,1535,1614,1613
78608544,1000,1000,1000,1000,94328920,1538,1541,1609,1608
78611043,1000,1000,1000,1000,94428880,1546,1549,1602,1603
78613542,1000,1000,1000,1000,94528840,1555,1557,1595,1595
78616041,1000,1000,1000,1000,94628800,1565,1565,1587,1587
78618540,1000,1000,1000,1000,94728760,1572,1572,1580,1579
78621039,1000,1000,1000,1000,94828720,1580,1579,1575,1574
78623538,1000,1000,1000,1000,94928680,1585,1583,1570,1569
78626037,1000,1000,1000,1000,95028640,1587,1585,1567,1567
78628536,1000,1000,1000,1000,95128600,1588,1587,1566,1566
78631035,1000,1000,1000,1000,95228560,1587,1586,1566,1566
78633534,1000,1000,1000,1000,95328520,1585,1584,1568,1568
78636033,1000,1000,1000,1000,95428480,1583,1583,1571,1572
78638532,1000,1000,1000,1000,95528440,1580,1580,1574,1574
78641031,1000,1000,1000,1000,95628400,1577,1578,1577,1577
78643530,1000,1000,1000,1000,95728360,1575,1576,1580,1580
78646029,1000,1000,1000,1000,95828320,1574,1574,1582,1582
78648528,1000,1000,1000,1000,95928280,1572,1573,1584,1584
78651027,1000,1000,1000,1000,96028240,1572,1573,1584,1584
78653526,1000,1000,1000,1000,96128200,1573,1573,1584,1584
78656025,1000,1000,1000,1000,96228160,1573,1574,1583,1583
78658524,1000,1000,1000,1000,96328953,1575,1575,1582,1582
78661023,1000,1000,1000,1000,96428913,1576,1576,1581,1581
78663522,1000,1000,1000,1000,96528873,1577,1577,1579,1579
78666021,1000,1000,1000,1000,96628833,1578,1579,1578,1578
78668520,1000,1000,1000,1000,96728793,1580,1580,1577,1578
78671019,1000,1000,1000,1000,96828753,1608,1608,1397,1515
78673518,1000,1000,1000,1000,96928713,1639,1641,1512,1509
78676017,1000,1000,1000,1000,97028673,1676,1683,1619,1551
78678516,1000,1000,1000,1000,97128633,1640,1654,1650,1544
78681015,1000,1000,1000,1000,97228593,1627,1648,1650,1579
78683514,1000,1000,1000,1000,97328553,1631,1650,1650,1609
78686013,1000,1000,1000,1000,97428513,1625,1636,1650,1636
78688512,1000,1000,1000,1000,97528473,1605,1602,1650,1661
78691011,1000,1000,1000,1000,97628433,1573,1566,1650,1679
78693510,1000,1000,1000,1000,97728393,1548,1523,1650,1681
78696009,1000,1000,1000,1000,97828353,1534,1496,1650,1672
78698508,1000,1000,1000,1000,97928313,1539,1502,1650,1663
78701007,1000,1000,1000,1000,98028273,1564,1540,1650,1657
78703506,1000,1000,1000,1000,98128233,1600,1593,1650,1652
78706005,1000,1000,1000,1000,98228193,1630,1641,1650,1649
78708504,1000,1000,1000,1000,98328986,1610,1632,1615,1609
78711003,1000,1000,1000,1000,98428946,1601,1627,1590,1589
78713502,1000,1000,1000,1000,98528906,1595,1616,1570,1577
78716001,1000,1000,1000,1000,98628866,1590,1600,1556,1566
78718500,1000,1000,1000,1000,98728826,1584,1588,1551,1546
78720999,1000,1000,1000,1000,98828786,1581,1582,1543,1537
78723498,1000,1000,1000,1000,98928746,1578,1578,1535,1534
78725997,1000,1000,1000,1000,99028706,1574,1573,1529,1531
78728496,1000,1000,1000,1000,99128666,1572,1569,1527,1531
78730995,1000,1000,1000,1000,99228626,1570,1567,1528,1531
78733494,1000,1000,1000,1000,99328586,1568,1566,1531,1531
78735993,1000,1000,1000,1000,99428546,1567,1565,1535,1533
78738492,1000,1000,1000,1000,99528506,1566,1566,1539,1537
78740991,1000,1000,1000,1000,99628466,1565,1566,1542,1541
78743490,1000,1000,1000,1000,99728426,1564,1566,1545,1543
78745989,1000,1000,1000,1000,99828386,1565,1567,1548,1547
78748488,1000,1000,1000,1000,99928346,1566,1567,1550,1549
78750987,1000,1000,1000,1000,100028306,1567,1568,1550,1550
78753486,1000,1000,1000,1000,100128266,1569,1570,1551,1551
78755985,1000,1000,1000,1000,100228226,1572,1572,1551,1551
78758484,1000,1000,1000,1000,100328186,1574,1574,1550,1549
78760983,1000,1000,1000,1000,100428979,1577,1578,1549,1548
78763482,1000,1000,1000,1000,100528939,1579,1580,1546,1546
78765981,1000,1000,1000,1000,100628899,1583,1584,1545,1544
78768480,1000,1000,1000,1000,100728859,1586,1586,1542,1542
78770979,1000,1000,1000,1000,100828819,1589,1589,1540,1541
78773478,1000,1000,1000,1000,100928779,1591,1591,1538,1540
78775977,1000,1000,1000,1000,101028739,1592,1591,1539,1541
78778476,1000,1000,1000,1000,101128699,1592,1590,1541,1543
78780975,1000,1000,1000,1000,101228659,1589,1586,1544,1546
78783474,1000,1000,1000,1000,101328619,1584,1581,1549,1551
78785973,1000,1000,1000,1000,101428579,1576,1575,1555,1557
78788472,1000,1000,1000,1000,101528539,1571,1569,1562,1565
78790971,1000,1000,1000,1000,101628499,1564,1563,1569,1571
78793470,1000,1000,1000,1000,101728459,1558,1557,1577,1578
78795969,1000,1000,1000,1000,101828419,1554,1553,1584,1584
78798468,1000,1000,1000,1000,101928379,1551,1549,1590,1589
78800967,1000,1000,1000,1000,102028339,1549,1548,1595,1593
78803466,1000,1000,1000,1000,102128299,1549,1548,1599,1596
78805965,1000,1000,1000,1000,102228259,1547,1548,1600,1597
78808464,1000,1000,1000,1000,102328219,1548,1548,1599,1598
78810963,1000,1000,1000,1000,102428179,1549,1550,1598,1598
78813462,1000,1000,1000,1000,102528972,1551,1551,1595,1596
78815961,1000,1000,1000,1000,102628932,1553,1553,1593,1594
78818460,1000,1000,1000,1000,102728892,1556,1556,1591,1592
78820959,1000,1000,1000,1000,102828852,1559,1559,1588,1589
78823458,1000,1000,1000,1000,102928812,1562,1562,1586,1586
78825957,1000,1000,1000,1000,103028772,1565,1566,1584,1583
78828456,1000,1000,1000,1000,103128732,1569,1570,1582,1581
78830955,1000,1000,1000,1000,103228692,1572,1572,1579,1579
78833454,1000,1000,1000,1000,103328652,1574,1574,1577,1576
78835953,1000,1000,1000,1000,103428612,1576,1576,1575,1575
78838452,1000,1000,1000,1000,103528572,1579,1579,1574,1574
78840951,1000,1000,1000,1000,103628532,1580,1579,1572,1572
78843450,1000,1000,1000,1000,103728492,1582,1581,1572,1572
78845949,1000,1000,1000,1000,103828452,1581,1581,1570,1571
78848448,1000,1000,1000,1000,103928412,1582,1581,1571,1571
78850947,1000,1000,1000,1000,104028372,1581,1581,1571,1572
78853446,1000,1000,1000,1000,104128332,1581,1581,1573,1572
78855945,1000,1000,1000,1000,104228292,1581,1581,1574,1574
78858444,1000,1000,1000,1000,104328252,1580,1580,1575,1575
78860943,1000,1000,1000,1000,104428212,1579,1580,1577,1577
78863442,1000,1000,1000,1000,104528172,1578,1578,1578,1577
78865941,1000,1000,1000,1000,104628965,1578,1578,1579,1579
78868440,1000,1000,1000,1000,104728925,1576,1576,1579,1579
78870939,1000,1000,1000,1000,104828885,1577,1577,1581,1581
78873438,1000,1000,1000,1000,104928845,1576,1576,1581,1581
78875937,1000,1000,1000,1000,105028805,1577,1577,1581,1581
78878436,1000,1000,1000,1000,105128765,1577,1577,1581,1581
78880935,1000,1000,1000,1000,105228725,1577,1578,1581,1581
78883434,1000,1000,1000,1000,105328685,1578,1578,1581,1581
78885933,1000,1000,1000,1000,105428645,1579,1579,1581,1581
78888432,1000,1000,1000,1000,105528605,1579,1578,1580,1580
78890931,1000,1000,1000,1000,105628565,1580,1580,1580,1580
78893430,1000,1000,1000,1000,105728525,1580,1580,1580,1580
78895929,1000,1000,1000,1000,105828485,1580,1579,1579,1579
78898428,1000,1000,1000,1000,105928445,1582,1581,1580,1580
78900927,1000,1000,1000,1000,106028405,1581,1581,1580,1580
78903426,1000,1000,1000,1000,106128365,1581,1581,1579,1580
78905925,1000,1000,1000,1000,106228325,1581,1581,1580,1579
78908424,1000,1000,1000,1000,106328285,1581,1581,1579,1579
78910923,1000,1000,1000,1000,106428245,1582,1581,1580,1581
78913422,1000,1000,1000,1000,106528205,1580,1580,1580,1580
78915921,1000,1000,1000,1000,106628165,1581,1581,1581,1581
78918420,1000,1000,1000,1000,106728958,1581,1582,1581,1581
78920919,1000,1000,1000,1000,106828918,1581,1581,1581,1581
78923418,1000,1000,1000,1000,106928878,1581,1581,1582,1582
78925917,1000,1000,1000,1000,107028838,1581,1582,1582,1582
78928416,1000,1000,1000,1000,107128798,1581,1581,1582,1582
78930915,1000,1000,1000,1000,107228758,1580,1581,1581,1581
78933414,1000,1000,1000,1000,107328718,1581,1580,1581,1581
78935913,1000,1000,1000,1000,107428678,1580,1582,1585,1575
78938412,1000,1000,1000,1000,107528638,1580,1583,1586,1572
78940911,1000,1000,1000,1000,107628598,1578,1582,1580,1572
78943410,1000,1000,1000,1000,107728558,1577,1580,1572,1572
78945909,1000,1000,1000,1000,107828518,1575,1578,1564,1570
78948408,1000,1000,1000,1000,107928478,1577,1578,1559,1567
78950907,1000,1000,1000,1000,108028438,1577,1577,1555,1561
78953406,1000,1000,1000,1000,108128398,1579,1577,1553,1557
78955905,1000,1000,1000,1000,108228358,1581,1578,1554,1554
78958404,1000,1000,1000,1000,108328318,1580,1579,1553,1552
78960903,1000,1000,1000,1000,108428278,1580,1580,1555,1552
78963402,1000,1000,1000,1000,108528238,1579,1580,1555,1553
78965901,1000,1000,1000,1000,108628198,1577,1579,1554,1553
78968400,1000,1000,1000,1000,108728158,1576,1578,1554,1553
78970899,1000,1000,1000,1000,108828951,1577,1579,1553,1553
78973398,1000,1000,1000,1000,108928911,1577,1579,1552,1552
78975897,1000,1000,1000,1000,109028871,1578,1580,1551,1550
78978396,1000,1000,1000,1000,109128831,1579,1581,1548,1549
78980895,1000,1000,1000,1000,109228791,1582,1583,1546,1546
78983394,1000,1000,1000,1000,109328751,1585,1585,1544,1544
78985893,1000,1000,1000,1000,109428711,1588,1588,1542,1542
78988392,1000,1000,1000,1000,109528671,1591,1591,1540,1541
78990891,1000,1000,1000,1000,109628631,1593,1594,1538,1539
78993390,1000,1000,1000,1000,109728591,1594,1595,1536,1537
78995889,1000,1000,1000,1000,109828551,1595,1595,1536,1538
78998388,1000,1000,1000,1000,109928511,1596,1594,1538,1542
79000887,1000,1000,1000,1000,110028471,1593,1591,1543,1547
79003386,1000,1000,1000,1000,110128431,1589,1584,1550,1554
79005885,1000,1000,1000,1000,110228391,1580,1576,1560,1563
79008384,1000,1000,1000,1000,110328351,1570,1566,1572,1574
79010883,1000,1000,1000,1000,110428311,1559,1556,1584,1585
79013382,1000,1000,1000,1000,110528271,1551,1549,1598,1597
79015881,1000,1000,1000,1000,110628231,1543,1543,1608,1605
79018380,1000,1000,1000,1000,110728191,1539,1540,1613,1610
79020879,1000,1000,1000,1000,110828984,1539,1542,1616,1613
79023378,1000,1000,1000,1000,110928944,1542,1544,1616,1613
79025877,1000,1000,1000,1000,111028904,1545,1546,1612,1611
79028376,1000,1000,1000,1000,111128864,1549,1549,1608,1608
79030875,1000,1000,1000,1000,111228824,1552,1553,1603,1603
79033374,1000,1000,1000,1000,111328784,1556,1556,1596,1597
79035873,1000,1000,1000,1000,111428744,1562,1562,1591,1592
79038372,1000,1000,1000,1000,111528704,1566,1566,1585,1586
79040871,1000,1000,1000,1000,111628664,1570,1570,1578,1579
79043370,1000,1000,1000,1000,111728624,1575,1575,1572,1574
79045869,1000,1000,1000,1000,111828584,1579,1579,1567,1568
79048368,1000,1000,1000,1000,111928544,1582,1582,1564,1565
79050867,1000,1000,1000,1000,112028504,1585,1584,1562,1563
79053366,1000,1000,1000,1000,112128464,1586,1584,1563,1564
79055865,1000,1000,1000,1000,112228424,1585,1585,1565,1565
79058364,1000,1000,1000,1000,112328384,1585,1583,1568,1568
79060863,1000,1000,1000,1000,112428344,1582,1581,1571,1571
79063362,1000,1000,1000,1000,112528304,1580,1580,1575,1574
79065861,1000,1000,1000,1000,112628264,1577,1577,1578,1577
79068360,1000,1000,1000,1000,112728224,1575,1575,1580,1579
79070859,1000,1000,1000,1000,112828184,1573,1574,1583,1582
79073358,1000,1000,1000,1000,112928977,1573,1574,1585,1584
79075857,1000,1000,1000,1000,113028937,1573,1574,1586,1585
79078356,1000,1000,1000,1000,113128897,1573,1574,1586,1585
79080855,1000,1000,1000,1000,113228857,1573,1574,1584,1584
79083354,1000,1000,1000,1000,113328817,1575,1574,1583,1583
79085853,1000,1000,1000,1000,113428777,1576,1576,1582,1582
79088352,1000,1000,1000,1000,113528737,1578,1578,1581,1581
79090851,1000,1000,1000,1000,113628697,1579,1579,1579,1579
79093350,1000,1000,1000,1000,113728657,1580,1579,1578,1578
79095849,1000,1000,1000,1000,113828617,1581,1581,1578,1578
79098348,1000,1000,1000,1000,113928577,1581,1580,1576,1577
79100847,1000,1000,1000,1000,114028537,1582,1582,1577,1577
79103346,1000,1000,1000,1000,114128497,1581,1582,1577,1577
79105845,1000,1000,1000,1000,114228457,1582,1582,1578,1578
79108344,1000,1000,1000,1000,114328417,1582,1581,1578,1578
79110843,1000,1000,1000,1000,114428377,1582,1581,1579,1579
79113342,1000,1000,1000,1000,114528337,1582,1581,1580,1580
79115841,1000,1000,1000,1000,114628297,1581,1581,1580,1580
79118340,1000,1000,1000,1000,114728257,1581,1581,1581,1582
79120839,1000,1000,1000,1000,114828217,1580,1580,1582,1581
79123338,1000,1000,1000,1000,114928177,1580,1581,1582,1582
79125837,1000,1000,1000,1000,115028970,1579,1580,1582,1582
79128336,1000,1000,1000,1000,115128930,1580,1580,1582,1582
79130835,1000,1000,1000,1000,115228890,1580,1580,1582,1582
79133334,1000,1000,1000,1000,115328850,1580,1581,1586,1574
79135833,1000,1000,1000,1000,115428810,1579,1581,1586,1572
79138332,1000,1000,1000,1000,115528770,1578,1578,1581,1575
79140831,1000,1000,1000,1000,115628730,1574,1573,1573,1575
79143330,1000,1000,1000,1000,115728690,1571,1570,1568,1575
79145829,1000,1000,1000,1000,115828650,1569,1568,1566,1573
79148328,1000,1000,1000,1000,115928610,1566,1566,1563,1570
79150827,1000,1000,1000,1000,116028570,1567,1566,1564,1567
79153326,1000,1000,1000,1000,116128530,1567,1566,1565,1565
79155825,1000,1000,1000,1000,116228490,1566,1566,1565,1563
79158324,1000,1000,1000,1000,116328450,1565,1565,1565,1562
79160823,1000,1000,1000,1000,116428410,1566,1566,1566,1563
79163322,1000,1000,1000,1000,116528370,1565,1565,1565,1563
79165821,1000,1000,1000,1000,116628330,1563,1563,1564,1562
79168320,1000,1000,1000,1000,116728290,1562,1562,1562,1563
79170819,1000,1000,1000,1000,116828250,1561,1561,1561,1562
79173318,1000,1000,1000,1000,116928210,1560,1560,1560,1561
79175817,1000,1000,1000,1000,117028170,1559,1559,1560,1560
79178316,1000,1000,1000,1000,117128963,1560,1560,1561,1561
79180815,1000,1000,1000,1000,117228923,1559,1559,1560,1559
79183314,1000,1000,1000,1000,117328883,1558,1559,1560,1559
79185813,1000,1000,1000,1000,117428843,1558,1558,1559,1558
79188312,1000,1000,1000,1000,117528803,1559,1559,1559,1558
79190811,1000,1000,1000,1000,117628763,1558,1558,1559,1557
79193310,1000,1000,1000,1000,117728723,1558,1558,1558,1557
79195809,1000,1000,1000,1000,117828683,1556,1556,1558,1555
79198308,1000,1000,1000,1000,117928643,1558,1557,1558,1556
79200807,1000,1000,1000,1000,118028603,1555,1555,1557,1553
79203306,1000,1000,1000,1000,118128563,1551,1551,1552,1552
79205805,1000,1000,1000,1000,118228523,1547,1547,1547,1550
79208304,1000,1000,1000,1000,118328483,1542,1542,1541,1547
79210803,1000,1000,1000,1000,118428443,1536,1536,1535,1541
79213302,1000,1000,1000,1000,118528403,1529,1529,1529,1533
79215801,1000,1000,1000,1000,118628363,1523,1522,1524,1525
79218300,1000,1000,1000,1000,118728323,1521,1520,1521,1522
79220799,1000,1000,1000,1000,118828283,1522,1521,1520,1522
79223298,1000,1000,1000,1000,118928243,1524,1524,1521,1523
79225797,1000,1000,1000,1000,119028203,1526,1527,1523,1524
79228296,1000,1000,1000,1000,119128163,1530,1531,1526,1527
79230795,1000,1000,1000,1000,119228956,1535,1535,1530,1531
79233294,1000,1000,1000,1000,119328916,1539,1539,1534,1535
79235793,1000,1000,1000,1000,119428876,1541,1542,1538,1538
79238292,1000,1000,1000,1000,119528836,1542,1543,1541,1540
79240791,1000,1000,1000,1000,119628796,1545,1545,1544,1543
79243290,1000,1000,1000,1000,119728756,1545,1544,1545,1544
79245789,1000,1000,1000,1000,119828716,1545,1545,1547,1546
79248288,1000,1000,1000,1000,119928676,1545,1546,1547,1547
79250787,1000,1000,1000,1000,120028636,1545,1545,1548,1548
79253286,1000,1000,1000,1000,120128596,1545,1545,1548,1548
79255785,1000,1000,1000,1000,120228556,1545,1545,1548,1548
79258284,1000,1000,1000,1000,120328516,1545,1545,1548,1547
79260783,1000,1000,1000,1000,120428476,1545,1545,1547,1547
79263282,1000,1000,1000,1000,120528436,1545,1545,1546,1546
79265781,1000,1000,1000,1000,120628396,1545,1546,1546,1547
79268280,1000,1000,1000,1000,120728356,1546,1546,1546,1546
79270779,1000,1000,1000,1000,120828316,1546,1547,1546,1546
79273278,1000,1000,1000,1000,120928276,1546,1546,1545,1545
79275777,1000,1000,1000,1000,121028236,1545,1546,1545,1545
79278276,1000,1000,1000,1000,121128196,1546,1546,1545,1545
79280775,1000,1000,1000,1000,121228156,1546,1545,1545,1545
79283274,1000,1000,1000,1000,121328949,1546,1545,1545,1545
79285773,1000,1000,1000,1000,121428909,1545,1545,1544,1544
79288272,1000,1000,1000,1000,121528869,1544,1544,1544,1544
79290771,1000,1000,1000,1000,121628829,1544,1544,1544,1544
79293270,1000,1000,1000,1000,121728789,1543,1543,1543,1543
79295769,1000,1000,1000,1000,121828749,1544,1544,1544,1544
79298268,1000,1000,1000,1000,121928709,1543,1543,1544,1544
79300767,1000,1000,1000,1000,122028669,1544,1544,1544,1544
79303266,1000,1000,1000,1000,122128629,1544,1544,1544,1544
79305765,1000,1000,1000,1000,122228589,1544,1544,1544,1544
79308264,1000,1000,1000,1000,122328549,1544,1543,1544,1544
79310763,1000,1000,1000,1000,122428509,1544,1544,1544,1544
79313262,1000,1000,1000,1000,122528469,1543,1543,1544,1543
79315761,1000,1000,1000,1000,122628429,1544,1544,1544,1544
79318260,1000,1000,1000,1000,122728389,1545,1545,1544,1545
79320759,1000,1000,1000,1000,122828349,1544,1545,1544,1544
79323258,1000,1000,1000,1000,122928309,1544,1545,1544,1545
79325757,1000,1000,1000,1000,123028269,1545,1546,1545,1545
79328256,1000,1000,1000,1000,123128229,1544,1544,1544,1544
79330755,1000,1000,1000,1000,123228189,1544,1544,1544,1544
79333254,1000,1000,1000,1000,123328982,1544,1544,1544,1544
79335753,1000,1000,1000,1000,123428942,1543,1544,1544,1543
79338252,1000,1000,1000,1000,123528902,1543,1544,1544,1544
79340751,1000,1000,1000,1000,123628862,1544,1544,1544,1544
79343250,1000,1000,1000,1000,123728822,1545,1544,1544,1545
79345749,1000,1000,1000,1000,123828782,1544,1544,1544,1544
79348248,1000,1000,1000,1000,123928742,1545,1544,1544,1544
79350747,1000,1000,1000,1000,124028702,1544,1545,1544,1545
79353246,1000,1000,1000,1000,124128662,1545,1545,1544,1545
79355745,1000,1000,1000,1000,124228622,1545,1545,1545,1544
79358244,1000,1000,1000,1000,124328582,1545,1545,1545,1544
79360743,1000,1000,1000,1000,124428542,1545,1545,1545,1545
79363242,1000,1000,1000,1000,124528502,1544,1544,1544,1544
79365741,1000,1000,1000,1000,124628462,1545,1544,1545,1545
79368240,1000,1000,1000,1000,124728422,1545,1544,1545,1545
79370739,1000,1000,1000,1000,124828382,1544,1545,1545,1545
79373238,1000,1000,1000,1000,124928342,1545,1544,1544,1545
79375737,1000,1000,1000,1000,125028302,1545,1545,1545,1545
79378236,1000,1000,1000,1000,125128262,1543,1543,1543,1544
79380735,1000,1000,1000,1000,125228222,1544,1544,1544,1544
79383234,1000,1000,1000,1000,125328182,1544,1544,1544,1544
79385733,1000,1000,1000,1000,125428975,1544,1544,1544,1544
79388232,1000,1000,1000,1000,125528935,1544,1544,1544,1544
79390731,1000,1000,1000,1000,125628895,1544,1544,1544,1544
79393230,1000,1000,1000,1000,125728855,1544,1544,1544,1545
79395729,1000,1000,1000,1000,125828815,1544,1544,1544,1544
79398228,1000,1000,1000,1000,125928775,1545,1544,1544,1544
79400727,1000,1000,1000,1000,126028735,1545,1545,1545,1544
79403226,1000,1000,1000,1000,126128695,1546,1545,1545,1545
79405725,1000,1000,1000,1000,126228655,1544,1545,1544,1544
79408224,1000,1000,1000,1000,126328615,1544,1544,1544,1544
79410723,1000,1000,1000,1000,126428575,1543,1543,1544,1543
79413222,1000,1000,1000,1000,126528535,1544,1543,1543,1544
79415721,1000,1000,1000,1000,126628495,1544,1544,1544,1544
79418220,1000,1000,1000,1000,126728455,1544,1545,1545,1545
79420719,1000,1000,1000,1000,126828415,1544,1544,1544,1544
79423218,1000,1000,1000,1000,126928375,1544,1544,1544,1544
79425717,1000,1000,1000,1000,127028335,1543,1544,1544,1543
79428216,1000,1000,1000,1000,127128295,1545,1545,1544,1545
79430715,1000,1000,1000,1000,127228255,1545,1545,1545,1545
79433214,1000,1000,1000,1000,127328215,1545,1544,1544,1545
79435713,1000,1000,1000,1000,127428175,1544,1544,1544,1544
79438212,1000,1000,1000,1000,127528968,1544,1544,1544,1544
79440711,1000,1000,1000,1000,127628928,1544,1544,1544,1544
79443210,1000,1000,1000,1000,127728888,1544,1544,1544,1544
79445709,1000,1000,1000,1000,127828848,1544,1544,1544,1544
79448208,1000,1000,1000,1000,127928808,1544,1544,1544,1544
79450707,1000,1000,1000,1000,128028768,1544,1544,1544,1544
79453206,1000,1000,1000,1000,128128728,1544,1544,1544,1544
79455705,1000,1000,1000,1000,128228688,1545,1544,1545,1544
79458204,1000,1000,1000,1000,128328648,1545,1545,1544,1545
79460703,1000,1000,1000,1000,128428608,1426,1427,1462,1427
79463202,1000,1000,1000,1000,128528568,1279,1279,1370,1281
79465701,1000,1000,1000,1000,128628528,1221,1222,1338,1222
79468200,1000,1000,1000,1000,128728488,1201,1202,1328,1203
79470699,1000,1000,1000,1000,128828448,1168,1169,1312,1170
79473198,1000,1000,1000,1000,128928408,1175,1175,1229,1150
79475697,1000,1000,1000,1000,129028368,1165,1166,1112,1150
79478196,1000,1000,1000,1000,129128328,1166,1166,1112,1150
79480695,1000,1000,1000,1000,129228288,1165,1167,1112,1150
79483194,1000,1000,1000,1000,129328248,1173,1150,1113,1157
79485693,1000,1000,1000,1000,129428208,1166,1150,1122,1150
79488192,1000,1000,1000,1000,129528168,1165,1154,1120,1150
79490691,1000,1000,1000,1000,129628961,1164,1155,1120,1150
79493190,1000,1000,1000,1000,129728921,1164,1154,1120,1150
79495689,1000,1000,1000,1000,129828881,1163,1154,1121,1150
79498188,1000,1000,1000,1000,129928841,1163,1152,1122,1150
79500687,1000,1000,1000,1000,130028801,1163,1152,1123,1150
79503186,1000,1000,1000,1000,130128761,1162,1162,1117,1150
79505685,1000,1000,1000,1000,130228721,1162,1161,1118,1150
79508184,1000,1000,1000,1000,130328681,1162,1160,1118,1150
79510683,1000,1000,1000,1000,130428641,1162,1160,1118,1150
79513182,1000,1000,1000,1000,130528601,1162,1160,1118,1150
79515681,1000,1000,1000,1000,130628561,1000,1000,1000,1000
79518180,1000,1000,1000,1000,130728521,1000,1000,1000,1000
79520679,1000,1000,1000,1000,130828481,1000,1000,1000,1000
79523178,1000,1000,1000,1000,130928441,1000,1000,1000,1000
79525677,1000,1000,1000,1000,131028401,1000,1000,1000,1000
79528176,1000,1000,1000,1000,131128361,1000,1000,1000,1000
79530675,1000,1000,1000,1000,131228321,1000,1000,1000,1000
79533174,1000,1000,1000,1000,131328281,1000,1000,1000,1000
79535673,1000,1000,1000,1000,131428241,1000,1000,1000,1000
79538172,1000,1000,1000,1000,131528201,1000,1000,1000,1000
79540671,1000,1000,1000,1000,131628161,1000,1000,1000,1000
79543170,1000,1000,1000,1000,131728954,1000,1000,1000,1000
79545669,1000,1000,1000,1000,131828914,1000,1000,1000,1000
79548168,1000,1000,1000,1000,131928874,1000,1000,1000,1000
79550667,1000,1000,1000,1000,132028834,1000,1000,1000,1000
79553166,1000,1000,1000,1000,132128794,1000,1000,1000,1000
79555665,1000,1000,1000,1000,132228754,1000,1000,1000,1000
79558164,1000,1000,1000,1000,132328714,1000,1000,1000,1000
79560663,1000,1000,1000,1000,132428674,1000,1000,1000,1000
79563162,1000,1000,1000,1000,132528634,1000,1000,1000,1000
79565661,1000,1000,1000,1000,132628594,1000,1000,1000,1000
79568160,1000,1000,1000,1000,132728554,1000,1000,1000,1000
79570659,1000,1000,1000,1000,132828514,1000,1000,1000,1000
79573158,1000,1000,1000,1000,132928474,1000,1000,1000,1000
79575657,1000,1000,1000,1000,133028434,1000,1000,1000,1000
79578156,1000,1000,1000,1000,133128394,1000,1000,1000,1000
79580655,1000,1000,1000,1000,133228354,1000,1000,1000,1000
79583154,1000,1000,1000,1000,133328314,1000,1000,1000,1000
79586486,1000,1000,1000,1000,133428274,1000,1000,1000,1000
79588985,1000,1000,1000,1000,133528234,1000,1000,1000,1000
79591484,1000,1000,1000,1000,133628194,1000,1000,1000,1000
79593983,1000,1000,1000,1000,133728154,1000,1000,1000,1000
79596482,1000,1000,1000,1000,133828947,1000,1000,1000,1000
79598981,1000,1000,1000,1000,133928907,1000,1000,1000,1000
79601480,1000,1000,1000,1000,134028867,1000,1000,1000,1000
79603979,1000,1000,1000,1000,134128827,1000,1000,1000,1000
79606478,1000,1000,1000,1000,134228787,1000,1000,1000,1000
79608977,1000,1000,1000,1000,134328747,1000,1000,1000,1000
79611476,1000,1000,1000,1000,134428707,1000,1000,1000,1000
79613975,1000,1000,1000,1000,134528667,1000,1000,1000,1000
79616474,1000,1000,1000,1000,134628627,1000,1000,1000,1000
79618973,1000,1000,1000,1000,134728587,1000,1000,1000,1000
79621472,1000,1000,1000,1000,134828547,1000,1000,1000,1000
79623971,1000,1000,1000,1000,134928507,1000,1000,1000,1000
79626470,1000,1000,1000,1000,135028467,1000,1000,1000,1000
79628969,1000,1000,1000,1000,135128427,1000,1000,1000,1000
79631468,1000,1000,1000,1000,135228387,1000,1000,1000,1000
79633967,1000,1000,1000,1000,135328347,1000,1000,1000,1000
79636466,1000,1000,1000,1000,135428307,1000,1000,1000,1000
79638965,1000,1000,1000,1000,135528267,1000,1000,1000,1000
79641464,1000,1000,1000,1000,135628227,1000,1000,1000,1000
79643963,1000,1000,1000,1000,135728187,1000,1000,1000,1000
79646462,1000,1000,1000,1000,135828980,1000,1000,1000,1000
79648961,1000,1000,1000,1000,135928940,1000,1000,1000,1000
79651460,1000,1000,1000,1000,136028900,1000,1000,1000,1000
79653959,1000,1000,1000,1000,136128860,1000,1000,1000,1000
79656458,1000,1000,1000,1000,136228820,1000,1000,1000,1000
79658957,1000,1000,1000,1000,136328780,1000,1000,1000,1000
79661456,1000,1000,1000,1000,136428740,1000,1000,1000,1000
79663955,1000,1000,1000,1000,136528700,1000,1000,1000,1000
79666454,1000,1000,1000,1000,136628660,1000,1000,1000,1000
79668953,1000,1000,1000,1000,136728620,1000,1000,1000,1000
79671452,1000,1000,1000,1000,136828580,1000,1000,1000,1000
79673951,1000,1000,1000,1000,136928540,1000,1000,1000,1000
79676450,1000,1000,1000,1000,137028500,1000,1000,1000,1000
79678949,1000,1000,1000,1000,137128460,1000,1000,1000,1000
79681448,1000,1000,1000,1000,137228420,1000,1000,1000,1000
79683947,1000,1000,1000,1000,137328380,1000,1000,1000,1000
79686446,1000,1000,1000,1000,137428340,1000,1000,1000,1000
79688945,1000,1000,1000,1000,137528300,1000,1000,1000,1000
79691444,1000,1000,1000,1000,137628260,1000,1000,1000,1000
79693943,1000,1000,1000,1000,137728220,1000,1000,1000,1000
79696442,1000,1000,1000,1000,137828180,1000,1000,1000,1000
79698941,1000,1000,1000,1000,137928973,1000,1000,1000,1000
79701440,1000,1000,1000,1000,138028933,1000,1000,1000,1000
79703939,1000,1000,1000,1000,138128893,1000,1000,1000,1000
79706438,1000,1000,1000,1000,138228853,1000,1000,1000,1000
79708937,1000,1000,1000,1000,138328813,1000,1000,1000,1000
79711436,1000,1000,1000,1000,138428773,1000,1000,1000,1000
79713935,1000,1000,1000,1000,138528733,1000,1000,1000,1000
79716434,1000,1000,1000,1000,138628693,1000,1000,1000,1000
79718933,1000,1000,1000,1000,138728653,1000,1000,1000,1000
79721432,1000,1000,1000,1000,138828613,1000,1000,1000,1000
79723931,1000,1000,1000,1000,138928573,1000,1000,1000,1000
79726430,1000,1000,1000,1000,139028533,1000,1000,1000,1000
79728929,1000,1000,1000,1000,,,,,
79731428,1000,1000,1000,1000,,,,,
79733927,1000,1000,1000,1000,,,,,
79736426,1000,1000,1000,1000,,,,,
79738925,1000,1000,1000,1000,,,,,
79741424,1000,1000,1000,1000,,,,,
79743923,1000,1000,1000,1000,,,,,
79746422,1000,1000,1000,1000,,,,,
79748921,1000,1000,1000,1000,,,,,
79751420,1000,1000,1000,1000,,,,,
79753919,1000,1000,1000,1000,,,,,
79756418,1000,1000,1000,1000,,,,,
79758917,1000,1000,1000,1000,,,,,
79761416,1000,1000,1000,1000,,,,,
79763915,1000,1000,1000,1000,,,,,
79766414,1000,1000,1000,1000,,,,,
79768913,1000,1000,1000,1000,,,,,
79771412,1000,1000,1000,1000,,,,,
79773911,1000,1000,1000,1000,,,,,
79776410,1000,1000,1000,1000,,,,,
79778909,1000,1000,1000,1000,,,,,
79781408,1000,1000,1000,1000,,,,,
79783907,1000,1000,1000,1000,,,,,
79786406,1000,1000,1000,1000,,,,,
79788905,1000,1000,1000,1000,,,,,
79791404,1000,1000,1000,1000,,,,,
79793903,1000,1000,1000,1000,,,,,
79796402,1000,1000,1000,1000,,,,,
79798901,1000,1000,1000,1000,,,,,
79801400,1000,1000,1000,1000,,,,,
79803899,1000,1000,1000,1000,,,,,
79806398,1000,1000,1000,1000,,,,,
79808897,1000,1000,1000,1000,,,,,
79811396,1000,1000,1000,1000,,,,,
79813895,1000,1000,1000,1000,,,,,
79816394,1000,1000,1000,1000,,,,,
79818893,1000,1000,1000,1000,,,,,
79821392,1000,1000,1000,1000,,,,,
79823891,1000,1000,1000,1000,,,,,
79826390,1000,1000,1000,1000,,,,,
79828889,1000,1000,1000,1000,,,,,
79831388,1000,1000,1000,1000,,,,,
79833887,1000,1000,1000,1000,,,,,
79836386,1000,1000,1000,1000,,,,,
79838885,1000,1000,1000,1000,,,,,
79841384,1000,1000,1000,1000,,,,,
79843883,1000,1000,1000,1000,,,,,
79846382,1000,1000,1000,1000,,,,,
79848881,1000,1000,1000,1000,,,,,
79851380,1000,1000,1000,1000,,,,,
79853879,1000,1000,1000,1000,,,,,
79856378,1000,1000,1000,1000,,,,,
79858877,1000,1000,1000,1000,,,,,
79861376,1000,1000,1000,1000,,,,,
79863875,1000,1000,1000,1000,,,,,
79866374,1000,1000,1000,1000,,,,,
79868873,1000,1000,1000,1000,,,,,
79871372,1000,1000,1000,1000,,,,,
79873871,1000,1000,1000,1000,,,,,
79876370,1000,1000,1000,1000,,,,,
79878869,1000,1000,1000,1000,,,,,
79881368,1000,1000,1000,1000,,,,,
79883867,1000,1000,1000,1000,,,,,
79886366,1000,1000,1000,1000,,,,,
79888865,1000,1000,1000,1000,,,,,
79891364,1000,1000,1000,1000,,,,,
79893863,1000,1000,1000,1000,,,,,
79896362,1000,1000,1000,1000,,,,,
79898861,1000,1000,1000,1000,,,,,
79901360,1000,1000,1000,1000,,,,,
79903859,1000,1000,1000,1000,,,,,
79906358,1000,1000,1000,1000,,,,,
79908857,1000,1000,1000,1000,,,,,
79911356,1000,1000,1000,1000,,,,,
79913855,1000,1000,1000,1000,,,,,
79916354,1000,1000,1000,1000,,,,,
79918853,1000,1000,1000,1000,,,,,
79921352,1000,1000,1000,1000,,,,,
79923851,1000,1000,1000,1000,,,,,
79926350,1000,1000,1000,1000,,,,,
79928849,1000,1000,1000,1000,,,,,
79931348,1000,1000,1000,1000,,,,,
79933847,1000,1000,1000,1000,,,,,
79936346,1000,1000,1000,1000,,,,,
79938845,1000,1000,1000,1000,,,,,
79941344,1000,1000,1000,1000,,,,,
79943843,1000,1000,1000,1000,,,,,
79946342,1000,1000,1000,1000,,,,,
79948841,1000,1000,1000,1000,,,,,
79951340,1000,1000,1000,1000,,,,,
79953839,1000,1000,1000,1000,,,,,
79956338,1000,1000,1000,1000,,,,,
79958837,1000,1000,1000,1000,,,,,
79961336,1000,1000,1000,1000,,,,,
79963835,1000,1000,1000,1000,,,,,
79966334,1000,1000,1000,1000,,,,,
79968833,1000,1000,1000,1000,,,,,
79971332,1000,1000,1000,1000,,,,,
79973831,1000,1000,1000,1000,,,,,
79976330,1000,1000,1000,1000,,,,,
79978829,1000,1000,1000,1000,,,,,
79981328,1000,1000,1000,1000,,,,,
79983827,1000,1000,1000,1000,,,,,
79986326,1000,1000,1000,1000,,,,,
79988825,1000,1000,1000,1000,,,,,
79991324,1000,1000,1000,1000,,,,,
79993823,1000,1000,1000,1000,,,,,
79996322,1000,1000,1000,1000,,,,,
79998821,1000,1000,1000,1000,,,,,
80001320,1000,1000,1000,1000,,,,,
80003819,1000,1000,1000,1000,,,,,
80006318,1000,1000,1000,1000,,,,,
80008817,1000,1000,1000,1000,,,,,
80011316,1000,1000,1000,1000,,,,,
80013815,1000,1000,1000,1000,,,,,
80016314,1000,1000,1000,1000,,,,,
80018813,1000,1000,1000,1000,,,,,
80021312,1000,1000,1000,1000,,,,,
80023811,1000,1000,1000,1000,,,,,
80026310,1000,1000,1000,1000,,,,,
80028809,1000,1000,1000,1000,,,,,
80031308,1000,1000,1000,1000,,,,,
80033807,1000,1000,1000,1000,,,,,
80036306,1000,1000,1000,1000,,,,,
80038805,1000,1000,1000,1000,,,,,
80041304,1000,1000,1000,1000,,,,,
80043803,1000,1000,1000,1000,,,,,
80046302,1000,1000,1000,1000,,,,,
80048801,1000,1000,1000,1000,,,,,
80051300,1000,1000,1000,1000,,,,,
80053799,1000,1000,1000,1000,,,,,
80056298,1000,1000,1000,1000,,,,,
80058797,1000,1000,1000,1000,,,,,
80061296,1000,1000,1000,1000,,,,,
80063795,1000,1000,1000,1000,,,,,
80066294,1000,1000,1000,1000,,,,,
80068793,1000,1000,1000,1000,,,,,
80071292,1000,1000,1000,1000,,,,,
80073791,1000,1000,1000,1000,,,,,
80076290,1000,1000,1000,1000,,,,,
80078789,1000,1000,1000,1000,,,,,
80081288,1000,1000,1000,1000,,,,,
80083787,1000,1000,1000,1000,,,,,
80086286,1000,1000,1000,1000,,,,,
80088785,1000,1000,1000,1000,,,,,
80091284,1000,1000,1000,1000,,,,,
80093783,1000,1000,1000,1000,,,,,
80096282,1000,1000,1000,1000,,,,,
80098781,1000,1000,1000,1000,,,,,
80101280,1000,1000,1000,1000,,,,,
80103779,1000,1000,1000,1000,,,,,
80106278,1000,1000,1000,1000,,,,,
80108777,1000,1000,1000,1000,,,,,
80111276,1000,1000,1000,1000,,,,,
80113775,1000,1000,1000,1000,,,,,
80116274,1000,1000,1000,1000,,,,,
80118773,1000,1000,1000,1000,,,,,
80121272,1000,1000,1000,1000,,,,,
80123771,1000,1000,1000,1000,,,,,
80126270,1000,1000,1000,1000,,,,,
80128769,1000,1000,1000,1000,,,,,
80131268,1000,1000,1000,1000,,,,,
80133767,1000,1000,1000,1000,,,,,
80136266,1000,1000,1000,1000,,,,,
80138765,1000,1000,1000,1000,,,,,
80141264,1000,1000,1000,1000,,,,,
80143763,1000,1000,1000,1000,,,,,
80146262,1000,1000,1000,1000,,,,,
80148761,1000,1000,1000,1000,,,,,
80151260,1000,1000,1000,1000,,,,,
80153759,1000,1000,1000,1000,,,,,
80156258,1000,1000,1000,1000,,,,,
80158757,1000,1000,1000,1000,,,,,
80161256,1000,1000,1000,1000,,,,,
80163755,1000,1000,1000,1000,,,,,
80166254,1000,1000,1000,1000,,,,,
80168753,1000,1000,1000,1000,,,,,
80171252,1000,1000,1000,1000,,,,,
80173751,1000,1000,1000,1000,,,,,
80176250,1000,1000,1000,1000,,,,,
80178749,1000,1000,1000,1000,,,,,
80181248,1000,1000,1000,1000,,,,,
80183747,1000,1000,1000,1000,,,,,
80186246,1000,1000,1000,1000,,,,,
80188745,1000,1000,1000,1000,,,,,
80191244,1000,1000,1000,1000,,,,,
80193743,1000,1000,1000,1000,,,,,
80196242,1000,1000,1000,1000,,,,,
80198741,1000,1000,1000,1000,,,,,
80201240,1000,1000,1000,1000,,,,,
80203739,1000,1000,1000,1000,,,,,
80206238,1000,1000,1000,1000,,,,,
80208737,1000,1000,1000,1000,,,,,
80211236,1000,1000,1000,1000,,,,,
80213735,1001,1001,1001,1001,,,,,
80216234,1002,1002,1002,1002,,,,,
80218733,1003,1003,1003,1003,,,,,
80221232,1003,1003,1003,1003,,,,,
80223731,1004,1004,1004,1004,,,,,
80226230,1005,1005,1005,1005,,,,,
80228729,1006,1006,1006,1006,,,,,
80231228,1006,1006,1006,1006,,,,,
80233727,1007,1007,1007,1007,,,,,
80236226,1008,1008,1008,1008,,,,,
80238725,1009,1009,1009,1009,,,,,
80241224,1009,1009,1009,1009,,,,,
80243723,1010,1010,1010,1010,,,,,
80246222,1011,1011,1011,1011,,,,,
80248721,1012,1012,1012,1012,,,,,
80251220,1012,1012,1012,1012,,,,,
80253719,1013,1013,1013,1013,,,,,
80256218,1014,1014,1014,1014,,,,,
80258717,1015,1015,1015,1015,,,,,
80261216,1015,1015,1015,1015,,,,,
80263715,1016,1016,1016,1016,,,,,
80266214,1017,1017,1017,1017,,,,,
80268713,1018,1018,1018,1018,,,,,
80271212,1018,1018,1018,1018,,,,,
80273711,1019,1019,1019,1019,,,,,
80276210,1020,1020,1020,1020,,,,,
80278709,1021,1021,1021,1021,,,,,
80281208,1021,1021,1021,1021,,,,,
80283707,1022,1022,1022,1022,,,,,
80286206,1023,1023,1023,1023,,,,,
80288705,1024,1024,1024,1024,,,,,
80291204,1024,1024,1024,1024,,,,,
80293703,1025,1025,1025,1025,,,,,
80296202,1026,1026,1026,1026,,,,,
80298701,1027,1027,1027,1027,,,,,
80301200,1027,1027,1027,1027,,,,,
80303699,1028,1028,1028,1028,,,,,
80306198,1029,1029,1029,1029,,,,,
80308697,1030,1030,1030,1030,,,,,
80311196,1030,1030,1030,1030,,,,,
80313695,1031,1031,1031,1031,,,,,
80316194,1032,1032,1032,1032,,,,,
80318693,1033,1033,1033,1033,,,,,
80321192,1033,1033,1033,1033,,,,,
80323691,1034,1034,1034,1034,,,,,
80326190,1035,1035,1035,1035,,,,,
80328689,1036,1036,1036,1036,,,,,
80331188,1036,1036,1036,1036,,,,,
80333687,1037,1037,1037,1037,,,,,
80336186,1038,1038,1038,1038,,,,,
80338685,1039,1039,1039,1039,,,,,
80341184,1039,1039,1039,1039,,,,,
80343683,1040,1040,1040,1040,,,,,
80346182,1041,1041,1041,1041,,,,,
80348681,1042,1042,1042,1042,,,,,
80351180,1042,1042,1042,1042,,,,,
80353679,1043,1043,1043,1043,,,,,
80356178,1044,1044,1044,1044,,,,,
80358677,1045,1045,1045,1045,,,,,
80361176,1045,1045,1045,1045,,,,,
80363675,1046,1046,1046,1046,,,,,
80366174,1047,1047,1047,1047,,,,,
80368673,1048,1048,1048,1048,,,,,
80371172,1048,1048,1048,1048,,,,,
80373671,1049,1049,1049,1049,,,,,
80376170,1050,1050,1050,1050,,,,,
80378669,1051,1051,1051,1051,,,,,
80381168,1051,1051,1051,1051,,,,,
80383667,1052,1052,1052,1052,,,,,
80386166,1053,1053,1053,1053,,,,,
80388665,1054,1054,1054,1054,,,,,
80391164,1054,1054,1054,1054,,,,,
80393663,1055,1055,1055,1055,,,,,
80396162,1056,1056,1056,1056,,,,,
80398661,1057,1057,1057,1057,,,,,
80401160,1057,1057,1057,1057,,,,,
80403659,1058,1058,1058,1058,,,,,
80406158,1059,1059,1059,1059,,,,,
80408657,1060,1060,1060,1060,,,,,
80411156,1060,1060,1060,1060,,,,,
80413655,1061,1061,1061,1061,,,,,
80416154,1062,1062,1062,1062,,,,,
80418653,1063,1063,1063,1063,,,,,
80421152,1063,1063,1063,1063,,,,,
80423651,1064,1064,1064,1064,,,,,
80426150,1065,1065,1065,1065,,,,,
80428649,1066,1066,1066,1066,,,,,
80431148,1066,1066,1066,1066,,,,,
80433647,1067,1067,1067,1067,,,,,
80436146,1068,1068,1068,1068,,,,,
80438645,1069,1069,1069,1069,,,,,
80441144,1069,1069,1069,1069,,,,,
80443643,1070,1070,1070,1070,,,,,
80446142,1071,1071,1071,1071,,,,,
80448641,1072,1072,1072,1072,,,,,
80451140,1072,1072,1072,1072,,,,,
80453639,1073,1073,1073,1073,,,,,
80456138,1074,1074,1074,1074,,,,,
80458637,1075,1075,1075,1075,,,,,
80461136,1075,1075,1075,1075,,,,,
80463635,1076,1076,1076,1076,,,,,
80466134,1077,1077,1077,1077,,,,,
80468633,1078,1078,1078,1078,,,,,
80471132,1078,1078,1078,1078,,,,,
80473631,1079,1079,1079,1079,,,,,
80476130,1080,1080,1080,1080,,,,,
80478629,1081,1081,1081,1081,,,,,
80481128,1081,1081,1081,1081,,,,,
80483627,1082,1082,1082,1082,,,,,
80486126,1083,1083,1083,1083,,,,,
80488625,1084,1084,1084,1084,,,,,
80491124,1084,1084,1084,1084,,,,,
80493623,1085,1085,1085,1085,,,,,
80496122,1086,1086,1086,1086,,,,,
80498621,1087,1087,1087,1087,,,,,
80501120,1087,1087,1087,1087,,,,,
80503619,1088,1088,1088,1088,,,,,
80506118,1089,1089,1089,1089,,,,,
80508617,1090,1090,1090,1090,,,,,
80511116,1090,1090,1090,1090,,,,,
80513615,1091,1091,1091,1091,,,,,
80516114,1092,1092,1092,1092,,,,,
80518613,1093,1093,1093,1093,,,,,
80521112,1093,1093,1093,1093,,,,,
80523611,1094,1094,1094,1094,,,,,
80526110,1095,1095,1095,1095,,,,,
80528609,1096,1096,1096,1096,,,,,
80531108,1096,1096,1096,1096,,,,,
80533607,1097,1097,1097,1097,,,,,
80536106,1098,1098,1098,1098,,,,,
80538605,1099,1099,1099,1099,,,,,
80541104,1099,1099,1099,1099,,,,,
80543603,1100,1100,1100,1100,,,,,
80546102,1101,1101,1101,1101,,,,,
80548601,1101,1101,1101,1101,,,,,
80551100,1102,1102,1102,1102,,,,,
80553599,1103,1103,1103,1103,,,,,
80556098,1104,1104,1104,1104,,,,,
80558597,1104,1104,1104,1104,,,,,
80561096,1105,1105,1105,1105,,,,,
80563595,1106,1106,1106,1106,,,,,
80566094,1107,1107,1107,1107,,,,,
80568593,1107,1107,1107,1107,,,,,
80571092,1108,1108,1108,1108,,,,,
80573591,1109,1109,1109,1109,,,,,
80576090,1110,1110,1110,1110,,,,,
80578589,1110,1110,1110,1110,,,,,
80581088,1111,1111,1111,1111,,,,,
80583587,1112,1112,1112,1112,,,,,
80586086,1113,1113,1113,1113,,,,,
80588585,1113,1113,1113,1113,,,,,
80591084,1114,1114,1114,1114,,,,,
80593583,1115,1115,1115,1115,,,,,
80596082,1116,1116,1116,1116,,,,,
80598581,1116,1116,1116,1116,,,,,
80601080,1117,1117,1117,1117,,,,,
80603579,1118,1118,1118,1118,,,,,
80606078,1119,1119,1119,1119,,,,,
80608577,1119,1119,1119,1119,,,,,
80611076,1120,1120,1120,1120,,,,,
80613575,1121,1121,1121,1121,,,,,
80616074,1122,1122,1122,1122,,,,,
80618573,1122,1122,1122,1122,,,,,
80621072,1123,1123,1123,1123,,,,,
80623571,1124,1124,1124,1124,,,,,
80626070,1125,1125,1125,1125,,,,,
80628569,1125,1125,1125,1125,,,,,
80631068,1126,1126,1126,1126,,,,,
80633567,1127,1127,1127,1127,,,,,
80636066,1128,1128,1128,1128,,,,,
80638565,1128,1128,1128,1128,,,,,
80641064,1129,1129,1129,1129,,,,,
80643563,1130,1130,1130,1130,,,,,
80646062,1131,1131,1131,1131,,,,,
80648561,1131,1131,1131,1131,,,,,
80651060,1132,1132,1132,1132,,,,,
80653559,1133,1133,1133,1133,,,,,
80656058,1134,1134,1134,1134,,,,,
80658557,1134,1134,1134,1134,,,,,
80661056,1135,1135,1135,1135,,,,,
80663555,1136,1136,1136,1136,,,,,
80666054,1137,1137,1137,1137,,,,,
80668553,1137,1137,1137,1137,,,,,
80671052,1138,1138,1138,1138,,,,,
80673551,1139,1139,1139,1139,,,,,
80676050,1140,1140,1140,1140,,,,,
80678549,1140,1140,1140,1140,,,,,
80681048,1141,1141,1141,1141,,,,,
80683547,1142,1142,1142,1142,,,,,
80686046,1143,1143,1143,1143,,,,,
80688545,1143,1143,1143,1143,,,,,
80691044,1144,1144,1144,1144,,,,,
80693543,1145,1145,1145,1145,,,,,
80696042,1146,1146,1146,1146,,,,,
80698541,1146,1146,1146,1146,,,,,
80701040,1147,1147,1147,1147,,,,,
80703539,1148,1148,1148,1148,,,,,
80706038,1149,1149,1149,1149,,,,,
80708537,1149,1149,1149,1149,,,,,
80711036,1150,1150,1150,1150,,,,,
80713535,1164,1151,1152,1164,,,,,
80716034,1172,1159,1160,1172,,,,,
80718533,1179,1167,1168,1180,,,,,
80721032,1187,1175,1176,1188,,,,,
80723531,1195,1183,1183,1195,,,,,
80726030,1202,1190,1191,1203,,,,,
80728529,1209,1198,1198,1210,,,,,
80731028,1217,1205,1206,1217,,,,,
80733527,1224,1212,1213,1224,,,,,
80736026,1231,1219,1220,1231,,,,,
80738525,1237,1226,1227,1238,,,,,
80741024,1244,1233,1234,1245,,,,,
80743523,1251,1240,1241,1251,,,,,
80746022,1257,1247,1247,1258,,,,,
80748521,1264,1253,1254,1264,,,,,
80751020,1270,1260,1261,1271,,,,,
80753519,1277,1266,1267,1277,,,,,
80756018,1283,1273,1273,1283,,,,,
80758517,1289,1279,1280,1290,,,,,
80761016,1295,1285,1286,1296,,,,,
80763515,1301,1291,1292,1302,,,,,
80766014,1307,1298,1298,1308,,,,,
80768513,1313,1304,1304,1314,,,,,
80771012,1319,1310,1310,1319,,,,,
80773511,1325,1315,1316,1325,,,,,
80776010,1331,1321,1322,1331,,,,,
80778509,1336,1327,1328,1337,,,,,
80781008,1342,1333,1333,1342,,,,,
80783507,1348,1338,1339,1348,,,,,
80786006,1353,1344,1345,1353,,,,,
80788505,1359,1350,1350,1359,,,,,
80791004,1364,1355,1356,1364,,,,,
80793503,1369,1361,1361,1370,,,,,
80796002,1375,1366,1367,1375,,,,,
80798501,1380,1371,1372,1380,,,,,
80801000,1385,1377,1377,1386,,,,,
80803499,1390,1382,1382,1391,,,,,
80805998,1396,1387,1388,1396,,,,,
80808497,1401,1392,1393,1401,,,,,
80810996,1406,1397,1398,1406,,,,,
80813495,1411,1403,1403,1411,,,,,
80815994,1416,1408,1408,1416,,,,,
80818493,1421,1413,1413,1421,,,,,
80820992,1426,1418,1418,1426,,,,,
80823491,1431,1423,1423,1431,,,,,
80825990,1436,1427,1428,1436,,,,,
80828489,1440,1432,1433,1441,,,,,
80830988,1445,1437,1438,1445,,,,,
80833487,1450,1442,1442,1450,,,,,
80835986,1455,1447,1447,1455,,,,,
80838485,1459,1451,1452,1460,,,,,
80840984,1464,1456,1457,1464,,,,,
80843483,1469,1461,1461,1469,,,,,
80845982,1473,1465,1466,1474,,,,,
80848481,1478,1470,1471,1478,,,,,
80850980,1482,1475,1475,1483,,,,,
80853479,1487,1479,1480,1487,,,,,
80855978,1491,1484,1484,1492,,,,,
80858477,1496,1488,1489,1496,,,,,
80860976,1500,1493,1493,1501,,,,,
80863475,1505,1497,1498,1505,,,,,
80865974,1509,1501,1502,1509,,,,,
80868473,1514,1506,1506,1514,,,,,
80870972,1518,1510,1511,1518,,,,,
80873471,1522,1514,1515,1523,,,,,
80875970,1527,1519,1519,1527,,,,,
80878469,1531,1523,1524,1531,,,,,
80880968,1535,1527,1528,1535,,,,,
80883467,1539,1532,1532,1540,,,,,
80885966,1544,1536,1536,1544,,,,,
80888465,1548,1540,1541,1548,,,,,
80890964,1552,1544,1545,1552,,,,,
80893463,1556,1548,1549,1556,,,,,
80895962,1560,1552,1553,1560,,,,,
80898461,1564,1556,1557,1564,,,,,
80900960,1569,1561,1561,1569,,,,,
80903459,1573,1565,1565,1573,,,,,
80905958,1577,1569,1569,1577,,,,,
80908457,1581,1573,1573,1581,,,,,
80910956,1585,1577,1577,1585,,,,,
80913455,1589,1581,1581,1589,,,,,
80915954,1593,1585,1585,1593,,,,,
80918453,1597,1589,1589,1597,,,,,
80920952,1600,1593,1593,1600,,,,,
80923451,1604,1596,1597,1604,,,,,
80925950,1608,1600,1601,1608,,,,,
80928449,1612,1604,1605,1612,,,,,
80930948,1616,1608,1609,1616,,,,,
80933447,1620,1612,1613,1620,,,,,
80935946,1624,1616,1616,1624,,,,,
80938445,1627,1620,1620,1627,,,,,
80940944,1631,1623,1624,1631,,,,,
80943443,1635,1627,1628,1635,,,,,
80945942,1639,1631,1632,1639,,,,,
80948441,1642,1635,1635,1642,,,,,
80950940,1646,1639,1639,1646,,,,,
80953439,1650,1642,1643,1650,,,,,
80955938,1653,1646,1646,1654,,,,,
80958437,1657,1650,1650,1657,,,,,
80960936,1661,1653,1654,1661,,,,,
80963435,1664,1657,1657,1665,,,,,
80965934,1668,1661,1661,1668,,,,,
80968433,1671,1664,1665,1672,,,,,
80970932,1675,1668,1668,1675,,,,,
80973431,1679,1672,1672,1679,,,,,
80975930,1682,1675,1675,1683,,,,,
80978429,1686,1679,1679,1686,,,,,
80980928,1689,1682,1683,1690,,,,,
80983427,1693,1686,1686,1693,,,,,
80985926,1696,1690,1690,1697,,,,,
80988425,1700,1693,1693,1700,,,,,
80990924,1703,1697,1697,1704,,,,,
80993423,1707,1700,1700,1707,,,,,
80995922,1710,1704,1704,1711,,,,,
80998421,1714,1707,1707,1714,,,,,
81000920,1717,1711,1711,1718,,,,,
81003419,1720,1714,1714,1721,,,,,
81005918,1724,1717,1717,1724,,,,,
81008417,1727,1721,1721,1728,,,,,
81010916,1731,1724,1724,1731,,,,,
81013415,1734,1728,1728,1735,,,,,
81015914,1737,1731,1731,1738,,,,,
81018413,1741,1734,1734,1741,,,,,
81020912,1744,1738,1738,1745,,,,,
81023411,1747,1741,1741,1748,,,,,
81025910,1751,1745,1744,1751,,,,,
81028409,1754,1748,1748,1755,,,,,
81030908,1757,1751,1751,1758,,,,,
81033407,1761,1754,1754,1761,,,,,
81035906,1764,1758,1758,1765,,,,,
81038405,1767,1761,1761,1768,,,,,
81040904,1770,1764,1764,1771,,,,,
81043403,1774,1768,1767,1774,,,,,
81045902,1777,1771,1771,1778,,,,,
81048401,1780,1774,1774,1781,,,,,
81050900,1783,1777,1777,1784,,,,,
81053399,1787,1780,1780,1787,,,,,
81055898,1790,1784,1784,1791,,,,,
81058397,1793,1787,1787,1794,,,,,
81060896,1796,1790,1790,1797,,,,,
81063395,1799,1793,1793,1800,,,,,
81065894,1803,1796,1796,1803,,,,,
81068393,1806,1799,1799,1806,,,,,
81070892,1809,1803,1803,1810,,,,,
81073391,1812,1806,1806,1813,,,,,
81075890,1815,1809,1809,1816,,,,,
81078389,1818,1812,1812,1819,,,,,
81080888,1821,1815,1815,1822,,,,,
81083387,1825,1818,1818,1825,,,,,
81085886,1828,1821,1821,1828,,,,,
81088385,1831,1824,1824,1831,,,,,
81090884,1834,1827,1827,1834,,,,,
81093383,1837,1830,1830,1838,,,,,
81095882,1840,1834,1833,1841,,,,,
81098381,1843,1837,1837,1844,,,,,
81100880,1846,1840,1840,1847,,,,,
81103379,1849,1843,1843,1850,,,,,
81105878,1852,1846,1846,1853,,,,,
81108377,1855,1849,1849,1856,,,,,
81110876,1858,1852,1852,1859,,,,,
81113375,1861,1854,1854,1861,,,,,
81115874,1859,1853,1853,1860,,,,,
81118373,1858,1852,1851,1859,,,,,
81120872,1857,1850,1850,1857,,,,,
81123371,1855,1849,1849,1856,,,,,
81125870,1854,1848,1848,1855,,,,,
81128369,1853,1847,1847,1854,,,,,
81130868,1852,1845,1845,1853,,,,,
81133367,1851,1844,1844,1852,,,,,
81135866,1850,1843,1843,1851,,,,,
81138365,1849,1842,1842,1850,,,,,
81140864,1848,1842,1842,1849,,,,,
81143363,1847,1841,1841,1848,,,,,
81145862,1847,1840,1840,1847,,,,,
81148361,1846,1840,1840,1847,,,,,
81150860,1846,1839,1839,1846,,,,,
81153359,1845,1839,1839,1846,,,,,
81155858,1845,1839,1838,1846,,,,,
81158357,1845,1838,1838,1846,,,,,
81160856,1845,1838,1838,1846,,,,,
81163355,1845,1838,1838,1846,,,,,
81165854,1845,1838,1838,1846,,,,,
81168353,1845,1839,1838,1846,,,,,
81170852,1845,1839,1839,1846,,,,,
81173351,1845,1839,1839,1846,,,,,
81175850,1846,1839,1839,1847,,,,,
81178349,1846,1840,1840,1847,,,,,
81180848,1847,1840,1840,1847,,,,,
81183347,1847,1841,1840,1848,,,,,
81185846,1848,1841,1841,1848,,,,,
81188345,1848,1842,1841,1849,,,,,
81190844,1849,1842,1842,1850,,,,,
81193343,1849,1843,1843,1850,,,,,
81195842,1850,1844,1843,1851,,,,,
81198341,1851,1844,1844,1852,,,,,
81200840,1852,1845,1845,1853,,,,,
81203339,1852,1846,1846,1853,,,,,
81205838,1853,1847,1847,1854,,,,,
81208337,1854,1848,1847,1855,,,,,
81210836,1855,1849,1848,1856,,,,,
81213335,1856,1850,1849,1857,,,,,
81215834,1857,1851,1850,1858,,,,,
81218333,1858,1852,1851,1859,,,,,
81220832,1858,1853,1852,1859,,,,,
81223331,1859,1853,1853,1860,,,,,
81225830,1860,1854,1854,1860,,,,,
81228329,1860,1855,1855,1861,,,,,
81230828,1861,1855,1856,1861,,,,,
81233327,1861,1856,1856,1862,,,,,
81235826,1861,1856,1856,1862,,,,,
81238325,1861,1856,1856,1861,,,,,
81240824,1861,1856,1856,1861,,,,,
81243323,1860,1856,1856,1861,,,,,
81245822,1860,1855,1855,1860,,,,,
81248321,1859,1854,1855,1859,,,,,
81250820,1858,1853,1854,1858,,,,,
81253319,1857,1852,1853,1857,,,,,
81255818,1855,1851,1851,1856,,,,,
81258317,1854,1849,1850,1854,,,,,
81260816,1852,1848,1848,1852,,,,,
81263315,1850,1846,1847,1850,,,,,
81265814,1848,1844,1845,1848,,,,,
81268313,1846,1842,1843,1846,,,,,
81270812,1844,1840,1840,1844,,,,,
81273311,1842,1838,1838,1842,,,,,
81275810,1839,1835,1836,1839,,,,,
81278309,1837,1833,1833,1837,,,,,
81280808,1834,1830,1831,1834,,,,,
81283307,1831,1827,1828,1831,,,,,
81285806,1829,1825,1825,1829,,,,,
81288305,1826,1822,1822,1826,,,,,
81290804,1823,1819,1820,1823,,,,,
81293303,1820,1816,1817,1820,,,,,
81295802,1817,1813,1814,1817,,,,,
81298301,1814,1810,1811,1814,,,,,
81300800,1810,1807,1808,1811,,,,,
81303299,1807,1804,1804,1807,,,,,
81305798,1804,1801,1801,1804,,,,,
81308297,1801,1798,1798,1801,,,,,
81310796,1797,1794,1795,1798,,,,,
81313295,1794,1791,1792,1794,,,,,
81315794,1791,1788,1788,1791,,,,,
81318293,1787,1784,1785,1788,,,,,
81320792,1784,1781,1782,1784,,,,,
81323291,1781,1778,1778,1781,,,,,
81325790,1777,1775,1775,1777,,,,,
81328289,1774,1771,1772,1774,,,,,
81330788,1770,1768,1768,1771,,,,,
81333287,1767,1765,1765,1767,,,,,
81335786,1764,1761,1762,1764,,,,,
81338285,1760,1758,1758,1760,,,,,
81340784,1757,1755,1755,1757,,,,,
81343283,1753,1751,1752,1753,,,,,
81345782,1750,1748,1748,1750,,,,,
81348281,1746,1745,1745,1747,,,,,
81350780,1743,1741,1742,1743,,,,,
81353279,1739,1738,1738,1740,,,,,
81355778,1736,1734,1735,1736,,,,,
81358277,1732,1731,1731,1733,,,,,
81360776,1729,1728,1728,1729,,,,,
81363275,1725,1724,1725,1726,,,,,
81365774,1722,1721,1722,1722,,,,,
81368273,1719,1718,1718,1719,,,,,
81370772,1715,1715,1715,1716,,,,,
81373271,1712,1712,1712,1713,,,,,
81375770,1709,1709,1709,1709,,,,,
81378269,1706,1706,1706,1706,,,,,
81380768,1703,1703,1703,1703,,,,,
81383267,1700,1700,1700,1700,,,,,
81385766,1697,1697,1697,1697,,,,,
81388265,1694,1694,1694,1694,,,,,
81390764,1691,1691,1692,1692,,,,,
81393263,1688,1689,1689,1689,,,,,
81395762,1685,1686,1686,1686,,,,,
81398261,1683,1683,1684,1683,,,,,
81400760,1680,1681,1681,1681,,,,,
81403259,1677,1678,1678,1678,,,,,
81405758,1675,1676,1676,1675,,,,,
81408257,1672,1673,1674,1673,,,,,
81410756,1670,1671,1671,1670,,,,,
81413255,1667,1669,1669,1668,,,,,
81415754,1665,1666,1666,1665,,,,,
81418253,1663,1664,1664,1663,,,,,
81420752,1660,1662,1662,1661,,,,,
81423251,1658,1659,1660,1658,,,,,
81425750,1656,1657,1658,1656,,,,,
81428249,1654,1655,1655,1654,,,,,
81430748,1652,1653,1653,1652,,,,,
81433247,1649,1651,1651,1650,,,,,
81435746,1647,1649,1649,1648,,,,,
81438245,1645,1647,1648,1646,,,,,
81440744,1644,1646,1646,1644,,,,,
81443243,1642,1644,1644,1642,,,,,
81445742,1640,1642,1642,1640,,,,,
81448241,1638,1640,1641,1639,,,,,
81450740,1637,1639,1639,1637,,,,,
81453239,1635,1637,1637,1635,,,,,
81455738,1633,1635,1636,1634,,,,,
81458237,1632,1634,1634,1632,,,,,
81460736,1630,1632,1633,1630,,,,,
81463235,1629,1631,1631,1629,,,,,
81465734,1627,1630,1630,1628,,,,,
81468233,1626,1628,1629,1626,,,,,
81470732,1625,1627,1627,1625,,,,,
81473231,1623,1626,1626,1623,,,,,
81475730,1622,1624,1625,1622,,,,,
81478229,1621,1623,1624,1621,,,,,
81480728,1620,1622,1622,1620,,,,,
81483227,1619,1621,1621,1619,,,,,
81485726,1618,1620,1620,1618,,,,,
81488225,1617,1619,1619,1617,,,,,
81490724,1616,1618,1619,1616,,,,,
81493223,1615,1617,1618,1615,,,,,
81495722,1614,1617,1617,1614,,,,,
81498221,1613,1616,1616,1613,,,,,
81500720,1612,1615,1615,1613,,,,,
81503219,1612,1614,1615,1612,,,,,
81505718,1611,1614,1614,1611,,,,,
81508217,1610,1613,1613,1610,,,,,
