timestamp,TimeUS,C1,C2,C3,C4,C5,C6,C7,C8,C9,C10,C11,C12,C13,C14
1681112948.70003986,83128402,1000,1000,1000,1000,0,0,0,0,0,0,0,0,0,0
1681112948.79999995,83228362,1000,1000,1000,1000,0,0,0,0,0,0,0,0,0,0
1681112948.89995980,83328322,1000,1000,1000,1000,0,0,0,0,0,0,0,0,0,0
1681112948.99991989,83428282,1000,1000,1000,1000,0,0,0,0,0,0,0,0,0,0
1681112949.09987998,83528242,1000,1000,1000,1000,0,0,0,0,0,0,0,0,0,0
1681112949.19983983,83628202,1000,1000,1000,1000,0,0,0,0,0,0,0,0,0,0
1681112949.29979992,83728162,1000,1000,1000,1000,0,0,0,0,0,0,0,0,0,0
1681112949.40059280,83828955,1000,1000,1000,1000,0,0,0,0,0,0,0,0,0,0
1681112949.50055289,83928915,1000,1000,1000,1000,0,0,0,0,0,0,0,0,0,0
1681112949.60051298,84028875,1000,1000,1000,1000,0,0,0,0,0,0,0,0,0,0
1681112949.70047283,84128835,1000,1000,1000,1000,0,0,0,0,0,0,0,0,0,0
1681112949.80043292,84228795,1000,1000,1000,1000,0,0,0,0,0,0,0,0,0,0
1681112949.90039277,84328755,1000,1000,1000,1000,0,0,0,0,0,0,0,0,0,0
1681112950.00035286,84428715,1000,1000,1000,1000,0,0,0,0,0,0,0,0,0,0
1681112950.10031295,84528675,1000,1000,1000,1000,0,0,0,0,0,0,0,0,0,0
1681112950.20027280,84628635,1000,1000,1000,1000,0,0,0,0,0,0,0,0,0,0
1681112950.30023289,84728595,1000,1000,1000,1000,0,0,0,0,0,0,0,0,0,0
1681112950.40019298,84828555,1000,1000,1000,1000,0,0,0,0,0,0,0,0,0,0
1681112950.50015283,84928515,1000,1000,1000,1000,0,0,0,0,0,0,0,0,0,0
1681112950.60011292,85028475,1000,1000,1000,1000,0,0,0,0,0,0,0,0,0,0
1681112950.70007277,85128435,1007,1007,1007,1007,0,0,0,0,0,0,0,0,0,0
1681112950.80003285,85228395,1037,1037,1037,1037,0,0,0,0,0,0,0,0,0,0
1681112950.89999294,85328355,1067,1067,1067,1067,0,0,0,0,0,0,0,0,0,0
1681112950.99995279,85428315,1097,1097,1097,1097,0,0,0,0,0,0,0,0,0,0
1681112951.09991288,85528275,1100,1100,1100,1100,0,0,0,0,0,0,0,0,0,0
1681112951.19987297,85628235,1100,1100,1100,1100,0,0,0,0,0,0,0,0,0,0
1681112951.29983282,85728195,1100,1100,1100,1100,0,0,0,0,0,0,0,0,0,0
1681112951.39979291,85828155,1100,1100,1100,1100,0,0,0,0,0,0,0,0,0,0
1681112951.50058579,85928948,1100,1100,1100,1100,0,0,0,0,0,0,0,0,0,0
1681112951.60054588,86028908,1100,1100,1100,1100,0,0,0,0,0,0,0,0,0,0
1681112951.70050597,86128868,1100,1100,1100,1100,0,0,0,0,0,0,0,0,0,0
1681112951.80046582,86228828,1100,1100,1100,1100,0,0,0,0,0,0,0,0,0,0
1681112951.90042591,86328788,1100,1100,1100,1100,0,0,0,0,0,0,0,0,0,0
1681112952.00038576,86428748,1100,1100,1100,1100,0,0,0,0,0,0,0,0,0,0
1681112952.10034585,86528708,1100,1100,1100,1100,0,0,0,0,0,0,0,0,0,0
1681112952.20030594,86628668,1100,1100,1100,1100,0,0,0,0,0,0,0,0,0,0
1681112952.30026579,86728628,1100,1100,1100,1100,0,0,0,0,0,0,0,0,0,0
1681112952.40022588,86828588,1100,1100,1100,1100,0,0,0,0,0,0,0,0,0,0
1681112952.50018597,86928548,1100,1100,1100,1100,0,0,0,0,0,0,0,0,0,0
1681112952.60014582,87028508,1100,1100,1100,1100,0,0,0,0,0,0,0,0,0,0
1681112952.70010591,87128468,1100,1100,1100,1100,0,0,0,0,0,0,0,0,0,0
1681112952.80006576,87228428,1100,1100,1100,1100,0,0,0,0,0,0,0,0,0,0
1681112952.90002584,87328388,1100,1100,1100,1100,0,0,0,0,0,0,0,0,0,0
1681112952.99998593,87428348,1100,1100,1100,1100,0,0,0,0,0,0,0,0,0,0
1681112953.09994578,87528308,1100,1100,1100,1100,0,0,0,0,0,0,0,0,0,0
1681112953.19990587,87628268,1100,1100,1100,1100,0,0,0,0,0,0,0,0,0,0
1681112953.29986596,87728228,1100,1100,1100,1100,0,0,0,0,0,0,0,0,0,0
1681112953.39982581,87828188,1100,1100,1100,1100,0,0,0,0,0,0,0,0,0,0
1681112953.50061893,87928981,1100,1100,1100,1100,0,0,0,0,0,0,0,0,0,0
1681112953.60057878,88028941,1100,1100,1100,1100,0,0,0,0,0,0,0,0,0,0
1681112953.70053887,88128901,1100,1100,1100,1100,0,0,0,0,0,0,0,0,0,0
1681112953.80049896,88228861,1100,1100,1100,1100,0,0,0,0,0,0,0,0,0,0
1681112953.90045881,88328821,1100,1100,1100,1100,0,0,0,0,0,0,0,0,0,0
1681112954.00041890,88428781,1100,1100,1100,1100,0,0,0,0,0,0,0,0,0,0
1681112954.10037875,88528741,1100,1100,1100,1100,0,0,0,0,0,0,0,0,0,0
1681112954.20033884,88628701,1100,1100,1100,1100,0,0,0,0,0,0,0,0,0,0
1681112954.30029893,88728661,1100,1100,1100,1100,0,0,0,0,0,0,0,0,0,0
1681112954.40025878,88828621,1100,1100,1100,1100,0,0,0,0,0,0,0,0,0,0
1681112954.50021887,88928581,1100,1100,1100,1100,0,0,0,0,0,0,0,0,0,0
1681112954.60017896,89028541,1100,1100,1100,1100,0,0,0,0,0,0,0,0,0,0
1681112954.70013881,89128501,1100,1100,1100,1100,0,0,0,0,0,0,0,0,0,0
1681112954.80009890,89228461,1100,1100,1100,1100,0,0,0,0,0,0,0,0,0,0
1681112954.90005898,89328421,1100,1100,1100,1100,0,0,0,0,0,0,0,0,0,0
1681112955.00001884,89428381,1100,1100,1100,1100,0,0,0,0,0,0,0,0,0,0
1681112955.09997892,89528341,1100,1100,1100,1100,0,0,0,0,0,0,0,0,0,0
1681112955.19993877,89628301,1100,1100,1100,1100,0,0,0,0,0,0,0,0,0,0
1681112955.29989886,89728261,1100,1100,1100,1100,0,0,0,0,0,0,0,0,0,0
1681112955.39985895,89828221,1100,1100,1100,1100,0,0,0,0,0,0,0,0,0,0
1681112955.49981880,89928181,1100,1100,1100,1100,0,0,0,0,0,0,0,0,0,0
1681112955.60061193,90028974,1100,1100,1100,1100,0,0,0,0,0,0,0,0,0,0
1681112955.70057178,90128934,1100,1100,1100,1100,0,0,0,0,0,0,0,0,0,0
1681112955.80053186,90228894,1100,1100,1100,1100,0,0,0,0,0,0,0,0,0,0
1681112955.90049195,90328854,1100,1100,1100,1100,0,0,0,0,0,0,0,0,0,0
1681112956.00045180,90428814,1100,1100,1100,1100,0,0,0,0,0,0,0,0,0,0
1681112956.10041189,90528774,1100,1100,1100,1100,0,0,0,0,0,0,0,0,0,0
1681112956.20037198,90628734,1100,1100,1100,1100,0,0,0,0,0,0,0,0,0,0
1681112956.30033183,90728694,1100,1100,1100,1100,0,0,0,0,0,0,0,0,0,0
1681112956.40029192,90828654,1100,1100,1100,1100,0,0,0,0,0,0,0,0,0,0
1681112956.50025177,90928614,1100,1100,1100,1100,0,0,0,0,0,0,0,0,0,0
1681112956.60021186,91028574,1100,1100,1100,1100,0,0,0,0,0,0,0,0,0,0
1681112956.70017195,91128534,1100,1100,1100,1100,0,0,0,0,0,0,0,0,0,0
1681112956.80013180,91228494,1100,1100,1100,1100,0,0,0,0,0,0,0,0,0,0
1681112956.90009189,91328454,1100,1100,1100,1100,0,0,0,0,0,0,0,0,0,0
1681112957.00005198,91428414,1100,1100,1100,1100,0,0,0,0,0,0,0,0,0,0
1681112957.10001183,91528374,1100,1100,1100,1100,0,0,0,0,0,0,0,0,0,0
1681112957.19997191,91628334,1100,1100,1100,1100,0,0,0,0,0,0,0,0,0,0
1681112957.29993176,91728294,1100,1100,1100,1100,0,0,0,0,0,0,0,0,0,0
1681112957.39989185,91828254,1100,1100,1100,1100,0,0,0,0,0,0,0,0,0,0
1681112957.49985194,91928214,1100,1100,1100,1100,0,0,0,0,0,0,0,0,0,0
1681112957.59981179,92028174,1100,1100,1100,1100,0,0,0,0,0,0,0,0,0,0
1681112957.70060492,92128967,1100,1100,1100,1100,0,0,0,0,0,0,0,0,0,0
1681112957.80056477,92228927,1100,1100,1100,1100,0,0,0,0,0,0,0,0,0,0
1681112957.90052485,92328887,1100,1100,1100,1100,0,0,0,0,0,0,0,0,0,0
1681112958.00048494,92428847,1100,1100,1100,1100,0,0,0,0,0,0,0,0,0,0
1681112958.10044479,92528807,1100,1100,1100,1100,0,0,0,0,0,0,0,0,0,0
1681112958.20040488,92628767,1100,1100,1100,1100,0,0,0,0,0,0,0,0,0,0
1681112958.30036497,92728727,1100,1100,1100,1100,0,0,0,0,0,0,0,0,0,0
1681112958.40032482,92828687,1100,1100,1100,1100,0,0,0,0,0,0,0,0,0,0
1681112958.50028491,92928647,1100,1100,1100,1100,0,0,0,0,0,0,0,0,0,0
1681112958.60024476,93028607,1100,1100,1100,1100,0,0,0,0,0,0,0,0,0,0
1681112958.70020485,93128567,1000,1000,1000,1000,0,0,0,0,0,0,0,0,0,0
1681112958.80016494,93228527,1000,1000,1000,1000,0,0,0,0,0,0,0,0,0,0
1681112958.90012479,93328487,1000,1000,1000,1000,0,0,0,0,0,0,0,0,0,0
1681112959.00008488,93428447,1000,1000,1000,1000,0,0,0,0,0,0,0,0,0,0
1681112959.10004497,93528407,1000,1000,1000,1000,0,0,0,0,0,0,0,0,0,0
1681112959.20000482,93628367,1000,1000,1000,1000,0,0,0,0,0,0,0,0,0,0
1681112959.29996490,93728327,1000,1000,1000,1000,0,0,0,0,0,0,0,0,0,0
1681112959.39992476,93828287,1000,1000,1000,1000,0,0,0,0,0,0,0,0,0,0
1681112959.49988484,93928247,1000,1000,1000,1000,0,0,0,0,0,0,0,0,0,0
1681112959.59984493,94028207,1000,1000,1000,1000,0,0,0,0,0,0,0,0,0,0
1681112959.69980478,94128167,1000,1000,1000,1000,0,0,0,0,0,0,0,0,0,0
1681112959.80059791,94228960,1000,1000,1000,1000,0,0,0,0,0,0,0,0,0,0
1681112959.90055776,94328920,1000,1000,1000,1000,0,0,0,0,0,0,0,0,0,0
1681112960.00051785,94428880,1000,1000,1000,1000,0,0,0,0,0,0,0,0,0,0
1681112960.10047793,94528840,1000,1000,1000,1000,0,0,0,0,0,0,0,0,0,0
1681112960.20043778,94628800,1000,1000,1000,1000,0,0,0,0,0,0,0,0,0,0
1681112960.30039787,94728760,1000,1000,1000,1000,0,0,0,0,0,0,0,0,0,0
1681112960.40035796,94828720,1000,1000,1000,1000,0,0,0,0,0,0,0,0,0,0
1681112960.50031781,94928680,1000,1000,1000,1000,0,0,0,0,0,0,0,0,0,0
1681112960.60027790,95028640,1000,1000,1000,1000,0,0,0,0,0,0,0,0,0,0
1681112960.70023775,95128600,1000,1000,1000,1000,0,0,0,0,0,0,0,0,0,0
1681112960.80019784,95228560,1000,1000,1000,1000,0,0,0,0,0,0,0,0,0,0
1681112960.90015793,95328520,1000,1000,1000,1000,0,0,0,0,0,0,0,0,0,0
1681112961.00011778,95428480,1000,1000,1000,1000,0,0,0,0,0,0,0,0,0,0
1681112961.10007787,95528440,1000,1000,1000,1000,0,0,0,0,0,0,0,0,0,0
1681112961.20003796,95628400,1000,1000,1000,1000,0,0,0,0,0,0,0,0,0,0
1681112961.29999781,95728360,1000,1000,1000,1000,0,0,0,0,0,0,0,0,0,0
1681112961.39995790,95828320,1000,1000,1000,1000,0,0,0,0,0,0,0,0,0,0
1681112961.49991798,95928280,1000,1000,1000,1000,0,0,0,0,0,0,0,0,0,0
1681112961.59987783,96028240,1000,1000,1000,1000,0,0,0,0,0,0,0,0,0,0
1681112961.69983792,96128200,1000,1000,1000,1000,0,0,0,0,0,0,0,0,0,0
1681112961.79979777,96228160,1000,1000,1000,1000,0,0,0,0,0,0,0,0,0,0
1681112961.90059090,96328953,1000,1000,1000,1000,0,0,0,0,0,0,0,0,0,0
1681112962.00055099,96428913,1000,1000,1000,1000,0,0,0,0,0,0,0,0,0,0
1681112962.10051084,96528873,1000,1000,1000,1000,0,0,0,0,0,0,0,0,0,0
1681112962.20047092,96628833,1000,1000,1000,1000,0,0,0,0,0,0,0,0,0,0
1681112962.30043077,96728793,1000,1000,1000,1000,0,0,0,0,0,0,0,0,0,0
1681112962.40039086,96828753,1000,1000,1000,1000,0,0,0,0,0,0,0,0,0,0
1681112962.50035095,96928713,1000,1000,1000,1000,0,0,0,0,0,0,0,0,0,0
1681112962.60031080,97028673,1000,1000,1000,1000,0,0,0,0,0,0,0,0,0,0
1681112962.70027089,97128633,1000,1000,1000,1000,0,0,0,0,0,0,0,0,0,0
1681112962.80023098,97228593,1000,1000,1000,1000,0,0,0,0,0,0,0,0,0,0
1681112962.90019083,97328553,1000,1000,1000,1000,0,0,0,0,0,0,0,0,0,0
1681112963.00015092,97428513,1000,1000,1000,1000,0,0,0,0,0,0,0,0,0,0
1681112963.10011077,97528473,1000,1000,1000,1000,0,0,0,0,0,0,0,0,0,0
1681112963.20007086,97628433,1000,1000,1000,1000,0,0,0,0,0,0,0,0,0,0
1681112963.30003095,97728393,1000,1000,1000,1000,0,0,0,0,0,0,0,0,0,0
1681112963.39999080,97828353,1000,1000,1000,1000,0,0,0,0,0,0,0,0,0,0
1681112963.49995089,97928313,1000,1000,1000,1000,0,0,0,0,0,0,0,0,0,0
1681112963.59991097,98028273,1000,1000,1000,1000,0,0,0,0,0,0,0,0,0,0
1681112963.69987082,98128233,1000,1000,1000,1000,0,0,0,0,0,0,0,0,0,0
1681112963.79983091,98228193,1000,1000,1000,1000,0,0,0,0,0,0,0,0,0,0
1681112963.90062380,98328986,1000,1000,1000,1000,0,0,0,0,0,0,0,0,0,0
1681112964.00058389,98428946,1000,1000,1000,1000,0,0,0,0,0,0,0,0,0,0
1681112964.10054398,98528906,1000,1000,1000,1000,0,0,0,0,0,0,0,0,0,0
1681112964.20050383,98628866,1000,1000,1000,1000,0,0,0,0,0,0,0,0,0,0
1681112964.30046391,98728826,1000,1000,1000,1000,0,0,0,0,0,0,0,0,0,0
1681112964.40042377,98828786,1000,1000,1000,1000,0,0,0,0,0,0,0,0,0,0
1681112964.50038385,98928746,1000,1000,1000,1000,0,0,0,0,0,0,0,0,0,0
1681112964.60034394,99028706,1000,1000,1000,1000,0,0,0,0,0,0,0,0,0,0
1681112964.70030379,99128666,1000,1000,1000,1000,0,0,0,0,0,0,0,0,0,0
1681112964.80026388,99228626,1000,1000,1000,1000,0,0,0,0,0,0,0,0,0,0
1681112964.90022397,99328586,1000,1000,1000,1000,0,0,0,0,0,0,0,0,0,0
1681112965.00018382,99428546,1000,1000,1000,1000,0,0,0,0,0,0,0,0,0,0
1681112965.10014391,99528506,1000,1000,1000,1000,0,0,0,0,0,0,0,0,0,0
1681112965.20010376,99628466,1009,1009,1009,1009,0,0,0,0,0,0,0,0,0,0
1681112965.30006385,99728426,1039,1039,1039,1039,0,0,0,0,0,0,0,0,0,0
1681112965.40002394,99828386,1069,1069,1069,1069,0,0,0,0,0,0,0,0,0,0
1681112965.49998379,99928346,1099,1099,1099,1099,0,0,0,0,0,0,0,0,0,0
1681112965.59994388,100028306,1128,1128,1128,1128,0,0,0,0,0,0,0,0,0,0
1681112965.69990396,100128266,1239,1225,1226,1240,0,0,0,0,0,0,0,0,0,0
1681112965.79986382,100228226,1460,1450,1451,1461,0,0,0,0,0,0,0,0,0,0
1681112965.89982390,100328186,1628,1618,1619,1628,0,0,0,0,0,0,0,0,0,0
1681112966.00061679,100428979,1768,1760,1760,1769,0,0,0,0,0,0,0,0,0,0
1681112966.10057688,100528939,1878,1869,1870,1878,0,0,0,0,0,0,0,0,0,0
1681112966.20053697,100628899,1876,1869,1870,1876,0,0,0,0,0,0,0,0,0,0
1681112966.30049682,100728859,1766,1765,1765,1767,0,0,0,0,0,0,0,0,0,0
1681112966.40045691,100828819,1659,1661,1661,1659,0,0,0,0,0,0,0,0,0,0
1681112966.50041676,100928779,1621,1625,1625,1621,0,0,0,0,0,0,0,0,0,0
1681112966.60037684,101028739,1627,1631,1631,1628,0,0,0,0,0,0,0,0,0,0
1681112966.70033693,101128699,1640,1642,1642,1640,0,0,0,0,0,0,0,0,0,0
1681112966.80029678,101228659,1633,1633,1627,1639,0,0,0,0,0,0,0,0,0,0
1681112966.90025687,101328619,1626,1627,1620,1632,0,0,0,0,0,0,0,0,0,0
1681112967.00021696,101428579,1619,1620,1617,1622,0,0,0,0,0,0,0,0,0,0
1681112967.10017681,101528539,1616,1616,1617,1615,0,0,0,0,0,0,0,0,0,0
1681112967.20013690,101628499,1617,1617,1620,1614,0,0,0,0,0,0,0,0,0,0
1681112967.30009675,101728459,1619,1618,1623,1615,0,0,0,0,0,0,0,0,0,0
1681112967.40005684,101828419,1622,1621,1625,1618,0,0,0,0,0,0,0,0,0,0
1681112967.50001693,101928379,1596,1596,1606,1586,0,0,0,0,0,0,0,0,0,0
1681112967.59997678,102028339,1579,1580,1590,1570,0,0,0,0,0,0,0,0,0,0
1681112967.69993687,102128299,1567,1568,1570,1566,0,0,0,0,0,0,0,0,0,0
1681112967.79989696,102228259,1558,1558,1554,1562,0,0,0,0,0,0,0,0,0,0
1681112967.89985681,102328219,1549,1549,1540,1559,0,0,0,0,0,0,0,0,0,0
1681112967.99981689,102428179,1543,1542,1532,1553,0,0,0,0,0,0,0,0,0,0
1681112968.10060978,102528972,1537,1536,1528,1544,0,0,0,0,0,0,0,0,0,0
1681112968.20056987,102628932,1532,1531,1528,1534,0,0,0,0,0,0,0,0,0,0
1681112968.30052996,102728892,1528,1528,1528,1528,0,0,0,0,0,0,0,0,0,0
1681112968.40048981,102828852,1528,1528,1530,1526,0,0,0,0,0,0,0,0,0,0
1681112968.50044990,102928812,1530,1530,1533,1527,0,0,0,0,0,0,0,0,0,0
1681112968.60040998,103028772,1532,1533,1536,1530,0,0,0,0,0,0,0,0,0,0
1681112968.70036983,103128732,1536,1536,1538,1534,0,0,0,0,0,0,0,0,0,0
1681112968.80032992,103228692,1539,1539,1541,1538,0,0,0,0,0,0,0,0,0,0
1681112968.90028977,103328652,1542,1542,1543,1542,0,0,0,0,0,0,0,0,0,0
1681112969.00024986,103428612,1545,1545,1545,1546,0,0,0,0,0,0,0,0,0,0
1681112969.10020995,103528572,1549,1548,1549,1549,0,0,0,0,0,0,0,0,0,0
1681112969.20016980,103628532,1551,1551,1551,1552,0,0,0,0,0,0,0,0,0,0
1681112969.30012989,103728492,1554,1554,1553,1556,0,0,0,0,0,0,0,0,0,0
1681112969.40008998,103828452,1560,1560,1552,1554,0,0,0,0,0,0,0,0,0,0
1681112969.50004983,103928412,1562,1562,1553,1555,0,0,0,0,0,0,0,0,0,0
1681112969.60000992,104028372,1562,1561,1559,1559,0,0,0,0,0,0,0,0,0,0
1681112969.69996977,104128332,1561,1560,1565,1564,0,0,0,0,0,0,0,0,0,0
1681112969.79992986,104228292,1561,1561,1569,1567,0,0,0,0,0,0,0,0,0,0
1681112969.89988995,104328252,1561,1562,1571,1570,0,0,0,0,0,0,0,0,0,0
1681112969.99984980,104428212,1563,1564,1572,1572,0,0,0,0,0,0,0,0,0,0
1681112970.09980989,104528172,1563,1564,1571,1572,0,0,0,0,0,0,0,0,0,0
1681112970.20060277,104628965,1565,1565,1571,1572,0,0,0,0,0,0,0,0,0,0
1681112970.30056286,104728925,1568,1568,1572,1572,0,0,0,0,0,0,0,0,0,0
1681112970.40052295,104828885,1570,1570,1571,1571,0,0,0,0,0,0,0,0,0,0
1681112970.50048280,104928845,1573,1572,1571,1571,0,0,0,0,0,0,0,0,0,0
1681112970.60044289,105028805,1574,1574,1570,1570,0,0,0,0,0,0,0,0,0,0
1681112970.70040298,105128765,1576,1575,1571,1571,0,0,0,0,0,0,0,0,0,0
1681112970.80036283,105228725,1576,1576,1572,1571,0,0,0,0,0,0,0,0,0,0
1681112970.90032291,105328685,1577,1578,1573,1572,0,0,0,0,0,0,0,0,0,0
1681112971.00028276,105428645,1577,1577,1573,1572,0,0,0,0,0,0,0,0,0,0
1681112971.10024285,105528605,1578,1578,1574,1573,0,0,0,0,0,0,0,0,0,0
1681112971.20020294,105628565,1577,1577,1575,1574,0,0,0,0,0,0,0,0,0,0
1681112971.30016279,105728525,1576,1576,1575,1575,0,0,0,0,0,0,0,0,0,0
1681112971.40012288,105828485,1576,1577,1576,1575,0,0,0,0,0,0,0,0,0,0
1681112971.50008297,105928445,1576,1576,1576,1576,0,0,0,0,0,0,0,0,0,0
1681112971.60004282,106028405,1576,1575,1576,1576,0,0,0,0,0,0,0,0,0,0
1681112971.70000291,106128365,1576,1575,1577,1577,0,0,0,0,0,0,0,0,0,0
1681112971.79996276,106228325,1576,1576,1578,1577,0,0,0,0,0,0,0,0,0,0
1681112971.89992285,106328285,1577,1577,1578,1578,0,0,0,0,0,0,0,0,0,0
1681112971.99988294,106428245,1577,1576,1579,1578,0,0,0,0,0,0,0,0,0,0
1681112972.09984279,106528205,1577,1577,1579,1578,0,0,0,0,0,0,0,0,0,0
1681112972.19980288,106628165,1578,1578,1579,1579,0,0,0,0,0,0,0,0,0,0
1681112972.30059576,106728958,1578,1579,1579,1579,0,0,0,0,0,0,0,0,0,0
1681112972.40055585,106828918,1578,1578,1578,1578,0,0,0,0,0,0,0,0,0,0
1681112972.50051594,106928878,1579,1579,1579,1579,0,0,0,0,0,0,0,0,0,0
1681112972.60047579,107028838,1579,1578,1578,1578,0,0,0,0,0,0,0,0,0,0
1681112972.70043588,107128798,1578,1578,1577,1578,0,0,0,0,0,0,0,0,0,0
1681112972.80039597,107228758,1579,1578,1578,1578,0,0,0,0,0,0,0,0,0,0
1681112972.90035582,107328718,1578,1578,1577,1577,0,0,0,0,0,0,0,0,0,0
1681112973.00031590,107428678,1577,1578,1577,1577,0,0,0,0,0,0,0,0,0,0
1681112973.10027575,107528638,1579,1578,1578,1578,0,0,0,0,0,0,0,0,0,0
1681112973.20023584,107628598,1579,1579,1579,1579,0,0,0,0,0,0,0,0,0,0
1681112973.30019593,107728558,1579,1579,1579,1579,0,0,0,0,0,0,0,0,0,0
1681112973.40015578,107828518,1579,1579,1579,1579,0,0,0,0,0,0,0,0,0,0
1681112973.50011587,107928478,1579,1579,1580,1580,0,0,0,0,0,0,0,0,0,0
1681112973.60007596,108028438,1580,1580,1580,1580,0,0,0,0,0,0,0,0,0,0
1681112973.70003581,108128398,1579,1579,1580,1580,0,0,0,0,0,0,0,0,0,0
1681112973.79999590,108228358,1579,1579,1579,1579,0,0,0,0,0,0,0,0,0,0
1681112973.89995599,108328318,1579,1579,1580,1580,0,0,0,0,0,0,0,0,0,0
1681112973.99991584,108428278,1580,1580,1580,1580,0,0,0,0,0,0,0,0,0,0
1681112974.09987593,108528238,1581,1581,1581,1581,0,0,0,0,0,0,0,0,0,0
1681112974.19983578,108628198,1580,1580,1580,1580,0,0,0,0,0,0,0,0,0,0
1681112974.29979587,108728158,1581,1581,1581,1581,0,0,0,0,0,0,0,0,0,0
1681112974.40058875,108828951,1581,1581,1580,1581,0,0,0,0,0,0,0,0,0,0
1681112974.50054884,108928911,1580,1580,1580,1580,0,0,0,0,0,0,0,0,0,0
1681112974.60050893,109028871,1579,1579,1579,1579,0,0,0,0,0,0,0,0,0,0
1681112974.70046878,109128831,1582,1581,1581,1581,0,0,0,0,0,0,0,0,0,0
1681112974.80042887,109228791,1581,1581,1582,1581,0,0,0,0,0,0,0,0,0,0
1681112974.90038896,109328751,1581,1580,1581,1581,0,0,0,0,0,0,0,0,0,0
1681112975.00034881,109428711,1580,1580,1580,1580,0,0,0,0,0,0,0,0,0,0
1681112975.10030890,109528671,1581,1580,1580,1581,0,0,0,0,0,0,0,0,0,0
1681112975.20026898,109628631,1581,1581,1581,1581,0,0,0,0,0,0,0,0,0,0
1681112975.30022883,109728591,1582,1581,1582,1582,0,0,0,0,0,0,0,0,0,0
1681112975.40018892,109828551,1580,1581,1581,1580,0,0,0,0,0,0,0,0,0,0
1681112975.50014877,109928511,1581,1581,1581,1581,0,0,0,0,0,0,0,0,0,0
1681112975.60010886,110028471,1580,1582,1587,1574,0,0,0,0,0,0,0,0,0,0
1681112975.70006895,110128431,1581,1583,1586,1574,0,0,0,0,0,0,0,0,0,0
1681112975.80002880,110228391,1579,1582,1578,1573,0,0,0,0,0,0,0,0,0,0
1681112975.89998889,110328351,1578,1580,1569,1572,0,0,0,0,0,0,0,0,0,0
1681112975.99994898,110428311,1577,1579,1562,1568,0,0,0,0,0,0,0,0,0,0
1681112976.09990883,110528271,1577,1577,1556,1562,0,0,0,0,0,0,0,0,0,0
1681112976.19986892,110628231,1579,1578,1555,1559,0,0,0,0,0,0,0,0,0,0
1681112976.29982877,110728191,1580,1578,1555,1555,0,0,0,0,0,0,0,0,0,0
1681112976.40062189,110828984,1579,1578,1555,1553,0,0,0,0,0,0,0,0,0,0
1681112976.50058198,110928944,1579,1578,1556,1553,0,0,0,0,0,0,0,0,0,0
1681112976.60054183,111028904,1577,1578,1556,1553,0,0,0,0,0,0,0,0,0,0
1681112976.70050192,111128864,1576,1577,1555,1553,0,0,0,0,0,0,0,0,0,0
1681112976.80046177,111228824,1575,1577,1553,1553,0,0,0,0,0,0,0,0,0,0
1681112976.90042186,111328784,1575,1577,1552,1553,0,0,0,0,0,0,0,0,0,0
1681112977.00038195,111428744,1576,1577,1551,1551,0,0,0,0,0,0,0,0,0,0
1681112977.10034180,111528704,1577,1578,1549,1550,0,0,0,0,0,0,0,0,0,0
1681112977.20030189,111628664,1580,1581,1549,1548,0,0,0,0,0,0,0,0,0,0
1681112977.30026197,111728624,1583,1583,1546,1545,0,0,0,0,0,0,0,0,0,0
1681112977.40022182,111828584,1585,1586,1543,1542,0,0,0,0,0,0,0,0,0,0
1681112977.50018191,111928544,1587,1588,1539,1539,0,0,0,0,0,0,0,0,0,0
1681112977.60014176,112028504,1591,1592,1537,1537,0,0,0,0,0,0,0,0,0,0
1681112977.70010185,112128464,1594,1594,1535,1536,0,0,0,0,0,0,0,0,0,0
1681112977.80006194,112228424,1596,1595,1534,1535,0,0,0,0,0,0,0,0,0,0
1681112977.90002179,112328384,1596,1596,1535,1537,0,0,0,0,0,0,0,0,0,0
1681112977.99998188,112428344,1595,1595,1537,1539,0,0,0,0,0,0,0,0,0,0
1681112978.09994197,112528304,1592,1592,1539,1542,0,0,0,0,0,0,0,0,0,0
1681112978.19990182,112628264,1589,1588,1546,1549,0,0,0,0,0,0,0,0,0,0
1681112978.29986191,112728224,1583,1579,1555,1558,0,0,0,0,0,0,0,0,0,0
1681112978.39982176,112828184,1574,1570,1566,1568,0,0,0,0,0,0,0,0,0,0
1681112978.50061488,112928977,1563,1559,1579,1580,0,0,0,0,0,0,0,0,0,0
1681112978.60057497,113028937,1551,1548,1591,1591,0,0,0,0,0,0,0,0,0,0
1681112978.70053482,113128897,1540,1538,1601,1601,0,0,0,0,0,0,0,0,0,0
1681112978.80049491,113228857,1532,1533,1611,1610,0,0,0,0,0,0,0,0,0,0
1681112978.90045476,113328817,1529,1530,1616,1615,0,0,0,0,0,0,0,0,0,0
1681112979.00041485,113428777,1529,1530,1617,1615,0,0,0,0,0,0,0,0,0,0
1681112979.10037494,113528737,1532,1534,1614,1614,0,0,0,0,0,0,0,0,0,0
1681112979.20033479,113628697,1539,1541,1609,1609,0,0,0,0,0,0,0,0,0,0
1681112979.30029488,113728657,1547,1548,1602,1603,0,0,0,0,0,0,0,0,0,0
1681112979.40025496,113828617,1555,1555,1594,1594,0,0,0,0,0,0,0,0,0,0
1681112979.50021482,113928577,1564,1564,1587,1586,0,0,0,0,0,0,0,0,0,0
1681112979.60017490,114028537,1572,1572,1580,1579,0,0,0,0,0,0,0,0,0,0
1681112979.70013475,114128497,1579,1579,1574,1573,0,0,0,0,0,0,0,0,0,0
1681112979.80009484,114228457,1585,1584,1570,1570,0,0,0,0,0,0,0,0,0,0
1681112979.90005493,114328417,1588,1586,1567,1567,0,0,0,0,0,0,0,0,0,0
1681112980.00001478,114428377,1588,1587,1566,1566,0,0,0,0,0,0,0,0,0,0
1681112980.09997487,114528337,1587,1586,1566,1567,0,0,0,0,0,0,0,0,0,0
1681112980.19993496,114628297,1585,1585,1568,1568,0,0,0,0,0,0,0,0,0,0
1681112980.29989481,114728257,1583,1582,1571,1571,0,0,0,0,0,0,0,0,0,0
1681112980.39985490,114828217,1580,1580,1574,1574,0,0,0,0,0,0,0,0,0,0
1681112980.49981499,114928177,1576,1577,1576,1576,0,0,0,0,0,0,0,0,0,0
1681112980.60060787,115028970,1575,1575,1580,1580,0,0,0,0,0,0,0,0,0,0
1681112980.70056796,115128930,1574,1574,1583,1582,0,0,0,0,0,0,0,0,0,0
1681112980.80052781,115228890,1573,1573,1584,1583,0,0,0,0,0,0,0,0,0,0
1681112980.90048790,115328850,1572,1573,1584,1584,0,0,0,0,0,0,0,0,0,0
1681112981.00044775,115428810,1572,1573,1584,1583,0,0,0,0,0,0,0,0,0,0
1681112981.10040784,115528770,1573,1573,1583,1583,0,0,0,0,0,0,0,0,0,0
1681112981.20036793,115628730,1575,1575,1582,1583,0,0,0,0,0,0,0,0,0,0
1681112981.30032778,115728690,1576,1576,1580,1581,0,0,0,0,0,0,0,0,0,0
1681112981.40028787,115828650,1578,1578,1580,1580,0,0,0,0,0,0,0,0,0,0
1681112981.50024796,115928610,1580,1579,1580,1579,0,0,0,0,0,0,0,0,0,0
1681112981.60020781,116028570,1580,1579,1577,1578,0,0,0,0,0,0,0,0,0,0
1681112981.70016789,116128530,1581,1580,1577,1577,0,0,0,0,0,0,0,0,0,0
1681112981.80012798,116228490,1581,1581,1577,1576,0,0,0,0,0,0,0,0,0,0
1681112981.90008783,116328450,1582,1583,1578,1578,0,0,0,0,0,0,0,0,0,0
1681112982.00004792,116428410,1582,1582,1578,1578,0,0,0,0,0,0,0,0,0,0
1681112982.10000777,116528370,1581,1581,1578,1577,0,0,0,0,0,0,0,0,0,0
1681112982.19996786,116628330,1580,1580,1578,1578,0,0,0,0,0,0,0,0,0,0
1681112982.29992795,116728290,1580,1580,1578,1579,0,0,0,0,0,0,0,0,0,0
1681112982.39988780,116828250,1579,1579,1579,1579,0,0,0,0,0,0,0,0,0,0
1681112982.49984789,116928210,1579,1579,1579,1580,0,0,0,0,0,0,0,0,0,0
1681112982.59980798,117028170,1579,1579,1580,1580,0,0,0,0,0,0,0,0,0,0
1681112982.70060086,117128963,1578,1579,1581,1580,0,0,0,0,0,0,0,0,0,0
1681112982.80056095,117228923,1578,1579,1580,1580,0,0,0,0,0,0,0,0,0,0
1681112982.90052080,117328883,1579,1579,1581,1580,0,0,0,0,0,0,0,0,0,0
1681112983.00048089,117428843,1585,1585,1475,1549,0,0,0,0,0,0,0,0,0,0
1681112983.10044098,117528803,1605,1604,1538,1546,0,0,0,0,0,0,0,0,0,0
1681112983.20040083,117628763,1617,1617,1589,1556,0,0,0,0,0,0,0,0,0,0
1681112983.30036092,117728723,1627,1628,1627,1579,0,0,0,0,0,0,0,0,0,0
1681112983.40032077,117828683,1627,1630,1647,1603,0,0,0,0,0,0,0,0,0,0
1681112983.50028086,117928643,1617,1620,1647,1620,0,0,0,0,0,0,0,0,0,0
1681112983.60024095,118028603,1598,1605,1638,1618,0,0,0,0,0,0,0,0,0,0
1681112983.70020080,118128563,1580,1587,1615,1617,0,0,0,0,0,0,0,0,0,0
1681112983.80016088,118228523,1567,1571,1590,1611,0,0,0,0,0,0,0,0,0,0
1681112983.90012097,118328483,1562,1562,1575,1602,0,0,0,0,0,0,0,0,0,0
1681112984.00008082,118428443,1563,1559,1567,1590,0,0,0,0,0,0,0,0,0,0
1681112984.10004091,118528403,1566,1560,1563,1575,0,0,0,0,0,0,0,0,0,0
1681112984.20000076,118628363,1570,1566,1562,1563,0,0,0,0,0,0,0,0,0,0
1681112984.29996085,118728323,1575,1573,1560,1554,0,0,0,0,0,0,0,0,0,0
1681112984.39992094,118828283,1578,1579,1555,1546,0,0,0,0,0,0,0,0,0,0
1681112984.49988079,118928243,1581,1584,1549,1542,0,0,0,0,0,0,0,0,0,0
1681112984.59984088,119028203,1584,1587,1542,1539,0,0,0,0,0,0,0,0,0,0
1681112984.69980097,119128163,1585,1588,1536,1537,0,0,0,0,0,0,0,0,0,0
1681112984.80059385,119228956,1587,1589,1533,1537,0,0,0,0,0,0,0,0,0,0
1681112984.90055394,119328916,1589,1589,1532,1536,0,0,0,0,0,0,0,0,0,0
1681112985.00051379,119428876,1590,1589,1533,1537,0,0,0,0,0,0,0,0,0,0
1681112985.10047388,119528836,1590,1589,1534,1536,0,0,0,0,0,0,0,0,0,0
1681112985.20043397,119628796,1589,1589,1536,1536,0,0,0,0,0,0,0,0,0,0
1681112985.30039382,119728756,1589,1589,1539,1538,0,0,0,0,0,0,0,0,0,0
1681112985.40035391,119828716,1588,1588,1541,1541,0,0,0,0,0,0,0,0,0,0
1681112985.50031376,119928676,1587,1588,1543,1543,0,0,0,0,0,0,0,0,0,0
1681112985.60027385,120028636,1587,1588,1545,1546,0,0,0,0,0,0,0,0,0,0
1681112985.70023394,120128596,1586,1586,1548,1550,0,0,0,0,0,0,0,0,0,0
1681112985.80019379,120228556,1584,1583,1551,1553,0,0,0,0,0,0,0,0,0,0
1681112985.90015388,120328516,1580,1577,1556,1559,0,0,0,0,0,0,0,0,0,0
1681112986.00011396,120428476,1576,1573,1563,1566,0,0,0,0,0,0,0,0,0,0
1681112986.10007381,120528436,1569,1565,1572,1574,0,0,0,0,0,0,0,0,0,0
1681112986.20003390,120628396,1561,1558,1582,1582,0,0,0,0,0,0,0,0,0,0
1681112986.29999375,120728356,1553,1551,1591,1590,0,0,0,0,0,0,0,0,0,0
1681112986.39995384,120828316,1548,1547,1598,1597,0,0,0,0,0,0,0,0,0,0
1681112986.49991393,120928276,1545,1545,1603,1602,0,0,0,0,0,0,0,0,0,0
1681112986.59987378,121028236,1544,1545,1606,1604,0,0,0,0,0,0,0,0,0,0
1681112986.69983387,121128196,1545,1546,1606,1604,0,0,0,0,0,0,0,0,0,0
1681112986.79979396,121228156,1547,1549,1605,1604,0,0,0,0,0,0,0,0,0,0
1681112986.90058684,121328949,1550,1552,1602,1602,0,0,0,0,0,0,0,0,0,0
1681112987.00054693,121428909,1553,1554,1598,1598,0,0,0,0,0,0,0,0,0,0
1681112987.10050678,121528869,1558,1558,1595,1594,0,0,0,0,0,0,0,0,0,0
1681112987.20046687,121628829,1562,1562,1591,1590,0,0,0,0,0,0,0,0,0,0
1681112987.30042696,121728789,1566,1567,1586,1587,0,0,0,0,0,0,0,0,0,0
1681112987.40038681,121828749,1570,1570,1582,1582,0,0,0,0,0,0,0,0,0,0
1681112987.50034690,121928709,1575,1574,1578,1579,0,0,0,0,0,0,0,0,0,0
1681112987.60030699,122028669,1578,1577,1574,1574,0,0,0,0,0,0,0,0,0,0
1681112987.70026684,122128629,1581,1580,1570,1571,0,0,0,0,0,0,0,0,0,0
1681112987.80022693,122228589,1583,1582,1568,1569,0,0,0,0,0,0,0,0,0,0
1681112987.90018678,122328549,1585,1584,1568,1569,0,0,0,0,0,0,0,0,0,0
1681112988.00014687,122428509,1584,1584,1568,1569,0,0,0,0,0,0,0,0,0,0
1681112988.10010695,122528469,1583,1582,1570,1570,0,0,0,0,0,0,0,0,0,0
1681112988.20006680,122628429,1580,1580,1571,1571,0,0,0,0,0,0,0,0,0,0
1681112988.30002689,122728389,1580,1580,1574,1574,0,0,0,0,0,0,0,0,0,0
1681112988.39998698,122828349,1578,1578,1577,1576,0,0,0,0,0,0,0,0,0,0
1681112988.49994683,122928309,1577,1577,1579,1579,0,0,0,0,0,0,0,0,0,0
1681112988.59990692,123028269,1575,1576,1581,1580,0,0,0,0,0,0,0,0,0,0
1681112988.69986677,123128229,1574,1574,1582,1582,0,0,0,0,0,0,0,0,0,0
1681112988.79982686,123228189,1574,1574,1583,1582,0,0,0,0,0,0,0,0,0,0
1681112988.90061998,123328982,1573,1574,1582,1583,0,0,0,0,0,0,0,0,0,0
1681112989.00057983,123428942,1574,1575,1583,1583,0,0,0,0,0,0,0,0,0,0
1681112989.10053992,123528902,1576,1575,1582,1582,0,0,0,0,0,0,0,0,0,0
1681112989.20049977,123628862,1577,1576,1581,1581,0,0,0,0,0,0,0,0,0,0
1681112989.30045986,123728822,1577,1577,1579,1580,0,0,0,0,0,0,0,0,0,0
1681112989.40041995,123828782,1579,1579,1579,1579,0,0,0,0,0,0,0,0,0,0
1681112989.50037980,123928742,1580,1579,1579,1579,0,0,0,0,0,0,0,0,0,0
1681112989.60033989,124028702,1581,1581,1579,1579,0,0,0,0,0,0,0,0,0,0
1681112989.70029998,124128662,1581,1581,1578,1578,0,0,0,0,0,0,0,0,0,0
1681112989.80025983,124228622,1581,1581,1577,1578,0,0,0,0,0,0,0,0,0,0
1681112989.90021992,124328582,1581,1581,1577,1578,0,0,0,0,0,0,0,0,0,0
1681112990.00017977,124428542,1581,1581,1579,1578,0,0,0,0,0,0,0,0,0,0
1681112990.10013986,124528502,1582,1582,1579,1579,0,0,0,0,0,0,0,0,0,0
1681112990.20009995,124628462,1581,1582,1580,1580,0,0,0,0,0,0,0,0,0,0
1681112990.30005980,124728422,1582,1582,1581,1581,0,0,0,0,0,0,0,0,0,0
1681112990.40001988,124828382,1581,1581,1581,1581,0,0,0,0,0,0,0,0,0,0
1681112990.49997997,124928342,1581,1580,1581,1581,0,0,0,0,0,0,0,0,0,0
1681112990.59993982,125028302,1580,1580,1581,1582,0,0,0,0,0,0,0,0,0,0
1681112990.69989991,125128262,1579,1580,1581,1581,0,0,0,0,0,0,0,0,0,0
1681112990.79985976,125228222,1579,1579,1580,1581,0,0,0,0,0,0,0,0,0,0
1681112990.89981985,125328182,1580,1580,1581,1582,0,0,0,0,0,0,0,0,0,0
1681112991.00061297,125428975,1580,1580,1581,1581,0,0,0,0,0,0,0,0,0,0
1681112991.10057282,125528935,1581,1581,1582,1581,0,0,0,0,0,0,0,0,0,0
1681112991.20053291,125628895,1580,1581,1581,1581,0,0,0,0,0,0,0,0,0,0
1681112991.30049276,125728855,1581,1581,1581,1581,0,0,0,0,0,0,0,0,0,0
1681112991.40045285,125828815,1581,1581,1581,1581,0,0,0,0,0,0,0,0,0,0
1681112991.50041294,125928775,1581,1581,1581,1581,0,0,0,0,0,0,0,0,0,0
1681112991.60037279,126028735,1582,1583,1586,1576,0,0,0,0,0,0,0,0,0,0
1681112991.70033288,126128695,1581,1584,1587,1573,0,0,0,0,0,0,0,0,0,0
1681112991.80029297,126228655,1580,1584,1581,1574,0,0,0,0,0,0,0,0,0,0
1681112991.90025282,126328615,1578,1581,1572,1573,0,0,0,0,0,0,0,0,0,0
1681112992.00021291,126428575,1577,1579,1565,1571,0,0,0,0,0,0,0,0,0,0
1681112992.10017276,126528535,1577,1578,1558,1566,0,0,0,0,0,0,0,0,0,0
1681112992.20013285,126628495,1578,1577,1555,1561,0,0,0,0,0,0,0,0,0,0
1681112992.30009294,126728455,1580,1577,1554,1557,0,0,0,0,0,0,0,0,0,0
1681112992.40005279,126828415,1580,1578,1555,1554,0,0,0,0,0,0,0,0,0,0
1681112992.50001287,126928375,1579,1578,1554,1552,0,0,0,0,0,0,0,0,0,0
1681112992.59997296,127028335,1577,1578,1554,1552,0,0,0,0,0,0,0,0,0,0
1681112992.69993281,127128295,1577,1578,1555,1553,0,0,0,0,0,0,0,0,0,0
1681112992.79989290,127228255,1576,1577,1554,1553,0,0,0,0,0,0,0,0,0,0
1681112992.89985275,127328215,1575,1577,1553,1553,0,0,0,0,0,0,0,0,0,0
1681112992.99981284,127428175,1576,1577,1553,1553,0,0,0,0,0,0,0,0,0,0
1681112993.10060596,127528968,1576,1578,1551,1552,0,0,0,0,0,0,0,0,0,0
1681112993.20056581,127628928,1578,1579,1550,1550,0,0,0,0,0,0,0,0,0,0
1681112993.30052590,127728888,1581,1582,1548,1549,0,0,0,0,0,0,0,0,0,0
1681112993.40048575,127828848,1583,1584,1546,1546,0,0,0,0,0,0,0,0,0,0
1681112993.50044584,127928808,1585,1586,1543,1543,0,0,0,0,0,0,0,0,0,0
1681112993.60040593,128028768,1588,1589,1541,1541,0,0,0,0,0,0,0,0,0,0
1681112993.70036578,128128728,1590,1591,1538,1538,0,0,0,0,0,0,0,0,0,0
1681112993.80032587,128228688,1591,1592,1536,1536,0,0,0,0,0,0,0,0,0,0
1681112993.90028596,128328648,1594,1595,1536,1537,0,0,0,0,0,0,0,0,0,0
1681112994.00024581,128428608,1595,1595,1536,1539,0,0,0,0,0,0,0,0,0,0
1681112994.10020590,128528568,1594,1593,1537,1540,0,0,0,0,0,0,0,0,0,0
1681112994.20016599,128628528,1592,1590,1543,1545,0,0,0,0,0,0,0,0,0,0
1681112994.30012584,128728488,1587,1584,1550,1552,0,0,0,0,0,0,0,0,0,0
1681112994.40008593,128828448,1580,1575,1560,1562,0,0,0,0,0,0,0,0,0,0
1681112994.50004578,128928408,1569,1565,1571,1573,0,0,0,0,0,0,0,0,0,0
1681112994.60000587,129028368,1558,1555,1583,1584,0,0,0,0,0,0,0,0,0,0
1681112994.69996595,129128328,1547,1544,1594,1595,0,0,0,0,0,0,0,0,0,0
1681112994.79992580,129228288,1538,1538,1605,1604,0,0,0,0,0,0,0,0,0,0
1681112994.89988589,129328248,1534,1536,1613,1611,0,0,0,0,0,0,0,0,0,0
1681112994.99984598,129428208,1532,1535,1615,1612,0,0,0,0,0,0,0,0,0,0
1681112995.09980583,129528168,1535,1537,1614,1612,0,0,0,0,0,0,0,0,0,0
1681112995.20059896,129628961,1540,1541,1611,1609,0,0,0,0,0,0,0,0,0,0
1681112995.30055881,129728921,1545,1546,1606,1606,0,0,0,0,0,0,0,0,0,0
1681112995.40051889,129828881,1552,1553,1601,1601,0,0,0,0,0,0,0,0,0,0
1681112995.50047898,129928841,1558,1558,1594,1594,0,0,0,0,0,0,0,0,0,0
1681112995.60043883,130028801,1564,1564,1587,1587,0,0,0,0,0,0,0,0,0,0
1681112995.70039892,130128761,1571,1571,1581,1581,0,0,0,0,0,0,0,0,0,0
1681112995.80035877,130228721,1577,1577,1574,1575,0,0,0,0,0,0,0,0,0,0
1681112995.90031886,130328681,1583,1582,1570,1571,0,0,0,0,0,0,0,0,0,0
1681112996.00027895,130428641,1586,1585,1567,1568,0,0,0,0,0,0,0,0,0,0
1681112996.10023880,130528601,1587,1585,1565,1565,0,0,0,0,0,0,0,0,0,0
1681112996.20019889,130628561,1587,1586,1565,1566,0,0,0,0,0,0,0,0,0,0
1681112996.30015898,130728521,1586,1584,1567,1567,0,0,0,0,0,0,0,0,0,0
1681112996.40011883,130828481,1583,1583,1569,1569,0,0,0,0,0,0,0,0,0,0
1681112996.50007892,130928441,1581,1581,1572,1573,0,0,0,0,0,0,0,0,0,0
1681112996.60003877,131028401,1579,1579,1576,1576,0,0,0,0,0,0,0,0,0,0
1681112996.69999886,131128361,1576,1576,1579,1578,0,0,0,0,0,0,0,0,0,0
1681112996.79995894,131228321,1574,1575,1581,1580,0,0,0,0,0,0,0,0,0,0
1681112996.89991879,131328281,1573,1574,1583,1583,0,0,0,0,0,0,0,0,0,0
1681112996.99987888,131428241,1573,1574,1585,1584,0,0,0,0,0,0,0,0,0,0
1681112997.09983897,131528201,1572,1573,1584,1585,0,0,0,0,0,0,0,0,0,0
1681112997.19979882,131628161,1574,1574,1584,1584,0,0,0,0,0,0,0,0,0,0
1681112997.30059195,131728954,1576,1575,1584,1584,0,0,0,0,0,0,0,0,0,0
1681112997.40055180,131828914,1576,1576,1582,1583,0,0,0,0,0,0,0,0,0,0
1681112997.50051188,131928874,1578,1578,1582,1582,0,0,0,0,0,0,0,0,0,0
1681112997.60047197,132028834,1579,1580,1581,1581,0,0,0,0,0,0,0,0,0,0
1681112997.70043182,132128794,1580,1580,1579,1579,0,0,0,0,0,0,0,0,0,0
1681112997.80039191,132228754,1580,1581,1578,1578,0,0,0,0,0,0,0,0,0,0
1681112997.90035176,132328714,1580,1580,1576,1577,0,0,0,0,0,0,0,0,0,0
1681112998.00031185,132428674,1581,1581,1577,1577,0,0,0,0,0,0,0,0,0,0
1681112998.10027194,132528634,1581,1581,1577,1577,0,0,0,0,0,0,0,0,0,0
1681112998.20023179,132628594,1581,1581,1577,1577,0,0,0,0,0,0,0,0,0,0
1681112998.30019188,132728554,1581,1580,1577,1577,0,0,0,0,0,0,0,0,0,0
1681112998.40015197,132828514,1581,1581,1579,1579,0,0,0,0,0,0,0,0,0,0
1681112998.50011182,132928474,1581,1581,1579,1579,0,0,0,0,0,0,0,0,0,0
1681112998.60007191,133028434,1581,1581,1581,1580,0,0,0,0,0,0,0,0,0,0
1681112998.70003176,133128394,1580,1580,1581,1581,0,0,0,0,0,0,0,0,0,0
1681112998.79999185,133228354,1579,1579,1581,1580,0,0,0,0,0,0,0,0,0,0
1681112998.89995193,133328314,1579,1579,1581,1581,0,0,0,0,0,0,0,0,0,0
1681112998.99991179,133428274,1578,1579,1580,1581,0,0,0,0,0,0,0,0,0,0
1681112999.09987187,133528234,1579,1579,1581,1581,0,0,0,0,0,0,0,0,0,0
1681112999.19983196,133628194,1580,1580,1581,1581,0,0,0,0,0,0,0,0,0,0
1681112999.29979181,133728154,1580,1580,1581,1581,0,0,0,0,0,0,0,0,0,0
1681112999.40058494,133828947,1580,1580,1581,1581,0,0,0,0,0,0,0,0,0,0
1681112999.50054479,133928907,1580,1581,1582,1579,0,0,0,0,0,0,0,0,0,0
1681112999.60050488,134028867,1578,1580,1585,1570,0,0,0,0,0,0,0,0,0,0
1681112999.70046496,134128827,1580,1581,1584,1573,0,0,0,0,0,0,0,0,0,0
1681112999.80042481,134228787,1577,1578,1577,1575,0,0,0,0,0,0,0,0,0,0
1681112999.90038490,134328747,1574,1573,1571,1575,0,0,0,0,0,0,0,0,0,0
1681113000.00034475,134428707,1571,1570,1567,1574,0,0,0,0,0,0,0,0,0,0
1681113000.10030484,134528667,1569,1568,1564,1572,0,0,0,0,0,0,0,0,0,0
1681113000.20026493,134628627,1567,1567,1564,1569,0,0,0,0,0,0,0,0,0,0
1681113000.30022478,134728587,1566,1565,1565,1566,0,0,0,0,0,0,0,0,0,0
1681113000.40018487,134828547,1566,1566,1567,1565,0,0,0,0,0,0,0,0,0,0
1681113000.50014496,134928507,1565,1566,1567,1563,0,0,0,0,0,0,0,0,0,0
1681113000.60010481,135028467,1565,1566,1567,1564,0,0,0,0,0,0,0,0,0,0
1681113000.70006490,135128427,1564,1564,1565,1563,0,0,0,0,0,0,0,0,0,0
1681113000.80002499,135228387,1563,1563,1564,1563,0,0,0,0,0,0,0,0,0,0
1681113000.89998484,135328347,1563,1563,1563,1564,0,0,0,0,0,0,0,0,0,0
1681113000.99994493,135428307,1562,1562,1562,1563,0,0,0,0,0,0,0,0,0,0
1681113001.09990478,135528267,1562,1562,1562,1562,0,0,0,0,0,0,0,0,0,0
1681113001.19986486,135628227,1562,1562,1562,1562,0,0,0,0,0,0,0,0,0,0
1681113001.29982495,135728187,1561,1561,1562,1561,0,0,0,0,0,0,0,0,0,0
1681113001.40061784,135828980,1559,1560,1560,1560,0,0,0,0,0,0,0,0,0,0
1681113001.50057793,135928940,1560,1560,1560,1560,0,0,0,0,0,0,0,0,0,0
1681113001.60053778,136028900,1560,1559,1560,1559,0,0,0,0,0,0,0,0,0,0
1681113001.70049787,136128860,1559,1559,1560,1558,0,0,0,0,0,0,0,0,0,0
1681113001.80045795,136228820,1558,1559,1540,1579,0,0,0,0,0,0,0,0,0,0
1681113001.90041780,136328780,1558,1557,1562,1550,0,0,0,0,0,0,0,0,0,0
1681113002.00037789,136428740,1554,1553,1567,1538,0,0,0,0,0,0,0,0,0,0
1681113002.10033798,136528700,1548,1547,1557,1540,0,0,0,0,0,0,0,0,0,0
1681113002.20029783,136628660,1542,1543,1545,1544,0,0,0,0,0,0,0,0,0,0
1681113002.30025792,136728620,1536,1537,1534,1544,0,0,0,0,0,0,0,0,0,0
1681113002.40021777,136828580,1529,1530,1525,1539,0,0,0,0,0,0,0,0,0,0
1681113002.50017786,136928540,1524,1523,1519,1532,0,0,0,0,0,0,0,0,0,0
1681113002.60013795,137028500,1522,1522,1518,1526,0,0,0,0,0,0,0,0,0,0
1681113002.70009780,137128460,1522,1522,1519,1523,0,0,0,0,0,0,0,0,0,0
1681113002.80005789,137228420,1523,1522,1521,1521,0,0,0,0,0,0,0,0,0,0
1681113002.90001798,137328380,1526,1525,1524,1523,0,0,0,0,0,0,0,0,0,0
1681113002.99997783,137428340,1528,1528,1527,1524,0,0,0,0,0,0,0,0,0,0
1681113003.09993792,137528300,1533,1533,1531,1530,0,0,0,0,0,0,0,0,0,0
1681113003.19989777,137628260,1538,1539,1536,1536,0,0,0,0,0,0,0,0,0,0
1681113003.29985785,137728220,1541,1541,1539,1539,0,0,0,0,0,0,0,0,0,0
1681113003.39981794,137828180,1543,1543,1542,1542,0,0,0,0,0,0,0,0,0,0
1681113003.50061083,137928973,1545,1545,1544,1544,0,0,0,0,0,0,0,0,0,0
1681113003.60057092,138028933,1546,1546,1545,1546,0,0,0,0,0,0,0,0,0,0
1681113003.70053077,138128893,1545,1545,1545,1546,0,0,0,0,0,0,0,0,0,0
1681113003.80049086,138228853,1546,1546,1547,1547,0,0,0,0,0,0,0,0,0,0
1681113003.90045094,138328813,1546,1546,1548,1548,0,0,0,0,0,0,0,0,0,0
1681113004.00041080,138428773,1546,1546,1548,1548,0,0,0,0,0,0,0,0,0,0
1681113004.10037088,138528733,1545,1546,1548,1547,0,0,0,0,0,0,0,0,0,0
1681113004.20033097,138628693,1546,1546,1548,1547,0,0,0,0,0,0,0,0,0,0
1681113004.30029082,138728653,1546,1546,1547,1547,0,0,0,0,0,0,0,0,0,0
1681113004.40025091,138828613,1545,1545,1546,1546,0,0,0,0,0,0,0,0,0,0
1681113004.50021076,138928573,1545,1545,1546,1545,0,0,0,0,0,0,0,0,0,0
1681113004.60017085,139028533,1545,1545,1545,1545,0,0,0,0,0,0,0,0,0,0
1681113004.70013094,139128493,1545,1545,1544,1545,0,0,0,0,0,0,0,0,0,0
1681113004.80009079,139228453,1545,1545,1544,1544,0,0,0,0,0,0,0,0,0,0
1681113004.90005088,139328413,1545,1546,1545,1545,0,0,0,0,0,0,0,0,0,0
1681113005.00001097,139428373,1544,1544,1544,1544,0,0,0,0,0,0,0,0,0,0
1681113005.09997082,139528333,1544,1544,1544,1543,0,0,0,0,0,0,0,0,0,0
1681113005.19993091,139628293,1545,1545,1544,1544,0,0,0,0,0,0,0,0,0,0
1681113005.29989076,139728253,1544,1544,1544,1544,0,0,0,0,0,0,0,0,0,0
1681113005.39985085,139828213,1544,1544,1544,1544,0,0,0,0,0,0,0,0,0,0
1681113005.49981093,139928173,1544,1543,1543,1543,0,0,0,0,0,0,0,0,0,0
1681113005.60060382,140028966,1544,1544,1544,1544,0,0,0,0,0,0,0,0,0,0
1681113005.70056391,140128926,1544,1543,1544,1544,0,0,0,0,0,0,0,0,0,0
1681113005.80052376,140228886,1543,1543,1543,1543,0,0,0,0,0,0,0,0,0,0
1681113005.90048385,140328846,1543,1543,1543,1543,0,0,0,0,0,0,0,0,0,0
1681113006.00044394,140428806,1544,1543,1544,1544,0,0,0,0,0,0,0,0,0,0
1681113006.10040379,140528766,1543,1543,1544,1543,0,0,0,0,0,0,0,0,0,0
1681113006.20036387,140628726,1544,1544,1544,1544,0,0,0,0,0,0,0,0,0,0
1681113006.30032396,140728686,1544,1544,1544,1544,0,0,0,0,0,0,0,0,0,0
1681113006.40028381,140828646,1544,1545,1544,1545,0,0,0,0,0,0,0,0,0,0
1681113006.50024390,140928606,1544,1544,1544,1544,0,0,0,0,0,0,0,0,0,0
1681113006.60020375,141028566,1544,1544,1544,1544,0,0,0,0,0,0,0,0,0,0
1681113006.70016384,141128526,1544,1545,1544,1545,0,0,0,0,0,0,0,0,0,0
1681113006.80012393,141228486,1544,1544,1544,1544,0,0,0,0,0,0,0,0,0,0
1681113006.90008378,141328446,1545,1544,1544,1544,0,0,0,0,0,0,0,0,0,0
1681113007.00004387,141428406,1544,1545,1545,1544,0,0,0,0,0,0,0,0,0,0
1681113007.10000396,141528366,1545,1544,1545,1544,0,0,0,0,0,0,0,0,0,0
1681113007.19996381,141628326,1545,1545,1545,1545,0,0,0,0,0,0,0,0,0,0
1681113007.29992390,141728286,1545,1544,1544,1544,0,0,0,0,0,0,0,0,0,0
1681113007.39988399,141828246,1544,1545,1544,1545,0,0,0,0,0,0,0,0,0,0
1681113007.49984384,141928206,1545,1544,1544,1545,0,0,0,0,0,0,0,0,0,0
1681113007.59980392,142028166,1544,1544,1544,1544,0,0,0,0,0,0,0,0,0,0
1681113007.70059681,142128959,1544,1543,1544,1544,0,0,0,0,0,0,0,0,0,0
1681113007.80055690,142228919,1543,1543,1544,1543,0,0,0,0,0,0,0,0,0,0
1681113007.90051699,142328879,1545,1545,1545,1545,0,0,0,0,0,0,0,0,0,0
1681113008.00047684,142428839,1544,1544,1544,1544,0,0,0,0,0,0,0,0,0,0
1681113008.10043693,142528799,1545,1545,1545,1545,0,0,0,0,0,0,0,0,0,0
1681113008.20039678,142628759,1544,1544,1544,1543,0,0,0,0,0,0,0,0,0,0
1681113008.30035686,142728719,1544,1544,1544,1545,0,0,0,0,0,0,0,0,0,0
1681113008.40031695,142828679,1544,1545,1544,1545,0,0,0,0,0,0,0,0,0,0
1681113008.50027680,142928639,1545,1545,1545,1545,0,0,0,0,0,0,0,0,0,0
1681113008.60023689,143028599,1544,1544,1544,1544,0,0,0,0,0,0,0,0,0,0
1681113008.70019698,143128559,1545,1545,1545,1545,0,0,0,0,0,0,0,0,0,0
1681113008.80015683,143228519,1544,1545,1545,1544,0,0,0,0,0,0,0,0,0,0
1681113008.90011692,143328479,1544,1543,1544,1544,0,0,0,0,0,0,0,0,0,0
1681113009.00007677,143428439,1544,1544,1544,1544,0,0,0,0,0,0,0,0,0,0
1681113009.10003686,143528399,1545,1544,1544,1545,0,0,0,0,0,0,0,0,0,0
1681113009.19999695,143628359,1544,1544,1544,1544,0,0,0,0,0,0,0,0,0,0
1681113009.29995680,143728319,1544,1544,1544,1545,0,0,0,0,0,0,0,0,0,0
1681113009.39991689,143828279,1544,1545,1545,1545,0,0,0,0,0,0,0,0,0,0
1681113009.49987698,143928239,1544,1544,1544,1544,0,0,0,0,0,0,0,0,0,0
1681113009.59983683,144028199,1545,1545,1545,1545,0,0,0,0,0,0,0,0,0,0
1681113009.69979692,144128159,1545,1545,1545,1545,0,0,0,0,0,0,0,0,0,0
1681113009.80058980,144228952,1544,1545,1545,1545,0,0,0,0,0,0,0,0,0,0
1681113009.90054989,144328912,1545,1545,1545,1546,0,0,0,0,0,0,0,0,0,0
1681113010.00050998,144428872,1543,1543,1544,1543,0,0,0,0,0,0,0,0,0,0
1681113010.10046983,144528832,1544,1544,1544,1544,0,0,0,0,0,0,0,0,0,0
1681113010.20042992,144628792,1544,1544,1544,1544,0,0,0,0,0,0,0,0,0,0
1681113010.30038977,144728752,1544,1544,1544,1544,0,0,0,0,0,0,0,0,0,0
1681113010.40034986,144828712,1545,1545,1545,1545,0,0,0,0,0,0,0,0,0,0
1681113010.50030994,144928672,1544,1543,1544,1544,0,0,0,0,0,0,0,0,0,0
1681113010.60026979,145028632,1545,1544,1544,1545,0,0,0,0,0,0,0,0,0,0
1681113010.70022988,145128592,1545,1545,1545,1545,0,0,0,0,0,0,0,0,0,0
1681113010.80018997,145228552,1545,1545,1545,1545,0,0,0,0,0,0,0,0,0,0
1681113010.90014982,145328512,1544,1544,1544,1544,0,0,0,0,0,0,0,0,0,0
1681113011.00010991,145428472,1544,1544,1544,1544,0,0,0,0,0,0,0,0,0,0
1681113011.10006976,145528432,1545,1544,1545,1545,0,0,0,0,0,0,0,0,0,0
1681113011.20002985,145628392,1545,1545,1545,1545,0,0,0,0,0,0,0,0,0,0
1681113011.29998994,145728352,1544,1544,1544,1544,0,0,0,0,0,0,0,0,0,0
1681113011.39994979,145828312,1544,1544,1544,1544,0,0,0,0,0,0,0,0,0,0
1681113011.49990988,145928272,1544,1544,1544,1545,0,0,0,0,0,0,0,0,0,0
1681113011.59986997,146028232,1544,1544,1544,1544,0,0,0,0,0,0,0,0,0,0
1681113011.69982982,146128192,1544,1544,1544,1544,0,0,0,0,0,0,0,0,0,0
1681113011.80062294,146228985,1544,1545,1545,1544,0,0,0,0,0,0,0,0,0,0
1681113011.90058279,146328945,1545,1544,1545,1545,0,0,0,0,0,0,0,0,0,0
1681113012.00054288,146428905,1544,1544,1544,1544,0,0,0,0,0,0,0,0,0,0
1681113012.10050297,146528865,1544,1544,1544,1544,0,0,0,0,0,0,0,0,0,0
1681113012.20046282,146628825,1544,1544,1544,1544,0,0,0,0,0,0,0,0,0,0
1681113012.30042291,146728785,1474,1472,1485,1473,0,0,0,0,0,0,0,0,0,0
1681113012.40038276,146828745,1304,1305,1355,1303,0,0,0,0,0,0,0,0,0,0
1681113012.50034285,146928705,1230,1231,1302,1230,0,0,0,0,0,0,0,0,0,0
1681113012.60030293,147028665,1207,1208,1287,1206,0,0,0,0,0,0,0,0,0,0
1681113012.70026278,147128625,1177,1176,1266,1176,0,0,0,0,0,0,0,0,0,0
1681113012.80022287,147228585,1150,1151,1251,1150,0,0,0,0,0,0,0,0,0,0
1681113012.90018296,147328545,1151,1150,1250,1150,0,0,0,0,0,0,0,0,0,0
1681113013.00014281,147428505,1151,1151,1251,1150,0,0,0,0,0,0,0,0,0,0
1681113013.10010290,147528465,1187,1150,1229,1188,0,0,0,0,0,0,0,0,0,0
1681113013.20006275,147628425,1184,1150,1232,1187,0,0,0,0,0,0,0,0,0,0
1681113013.30002284,147728385,1173,1150,1246,1177,0,0,0,0,0,0,0,0,0,0
1681113013.39998293,147828345,1172,1150,1247,1175,0,0,0,0,0,0,0,0,0,0
1681113013.49994278,147928305,1173,1150,1246,1177,0,0,0,0,0,0,0,0,0,0
1681113013.59990287,148028265,1173,1150,1245,1179,0,0,0,0,0,0,0,0,0,0
1681113013.69986296,148128225,1174,1150,1243,1181,0,0,0,0,0,0,0,0,0,0
1681113013.79982281,148228185,1175,1150,1242,1182,0,0,0,0,0,0,0,0,0,0
1681113013.90061593,148328978,1150,1152,1246,1158,0,0,0,0,0,0,0,0,0,0
1681113014.00057578,148428938,1155,1150,1244,1163,0,0,0,0,0,0,0,0,0,0
1681113014.10053587,148528898,1156,1150,1244,1165,0,0,0,0,0,0,0,0,0,0
1681113014.20049596,148628858,1157,1150,1244,1166,0,0,0,0,0,0,0,0,0,0
1681113014.30045581,148728818,1158,1150,1244,1167,0,0,0,0,0,0,0,0,0,0
1681113014.40041590,148828778,1000,1000,1000,1000,0,0,0,0,0,0,0,0,0,0
1681113014.50037599,148928738,1000,1000,1000,1000,0,0,0,0,0,0,0,0,0,0
1681113014.60033584,149028698,1000,1000,1000,1000,0,0,0,0,0,0,0,0,0,0
1681113014.70029593,149128658,1000,1000,1000,1000,0,0,0,0,0,0,0,0,0,0
1681113014.80025578,149228618,1000,1000,1000,1000,0,0,0,0,0,0,0,0,0,0
1681113014.90021586,149328578,1000,1000,1000,1000,0,0,0,0,0,0,0,0,0,0
1681113015.00017595,149428538,1000,1000,1000,1000,0,0,0,0,0,0,0,0,0,0
1681113015.10013580,149528498,1000,1000,1000,1000,0,0,0,0,0,0,0,0,0,0
1681113015.20009589,149628458,1000,1000,1000,1000,0,0,0,0,0,0,0,0,0,0
1681113015.30005598,149728418,1000,1000,1000,1000,0,0,0,0,0,0,0,0,0,0
1681113015.40001583,149828378,1000,1000,1000,1000,0,0,0,0,0,0,0,0,0,0
1681113015.49997592,149928338,1000,1000,1000,1000,0,0,0,0,0,0,0,0,0,0
1681113015.59993577,150028298,1000,1000,1000,1000,0,0,0,0,0,0,0,0,0,0
1681113015.69989586,150128258,1000,1000,1000,1000,0,0,0,0,0,0,0,0,0,0
1681113015.79985595,150228218,1000,1000,1000,1000,0,0,0,0,0,0,0,0,0,0
1681113015.89981580,150328178,1000,1000,1000,1000,0,0,0,0,0,0,0,0,0,0
1681113016.00060892,150428971,1000,1000,1000,1000,0,0,0,0,0,0,0,0,0,0
1681113016.10056877,150528931,1000,1000,1000,1000,0,0,0,0,0,0,0,0,0,0
1681113016.20052886,150628891,1000,1000,1000,1000,0,0,0,0,0,0,0,0,0,0
1681113016.30048895,150728851,1000,1000,1000,1000,0,0,0,0,0,0,0,0,0,0
1681113016.40044880,150828811,1000,1000,1000,1000,0,0,0,0,0,0,0,0,0,0
1681113016.50040889,150928771,1000,1000,1000,1000,0,0,0,0,0,0,0,0,0,0
1681113016.60036898,151028731,1000,1000,1000,1000,0,0,0,0,0,0,0,0,0,0
1681113016.70032883,151128691,1000,1000,1000,1000,0,0,0,0,0,0,0,0,0,0
1681113016.80028892,151228651,1000,1000,1000,1000,0,0,0,0,0,0,0,0,0,0
1681113016.90024877,151328611,1000,1000,1000,1000,0,0,0,0,0,0,0,0,0,0
1681113017.00020885,151428571,1000,1000,1000,1000,0,0,0,0,0,0,0,0,0,0
1681113017.10016894,151528531,1000,1000,1000,1000,0,0,0,0,0,0,0,0,0,0
1681113017.20012879,151628491,1000,1000,1000,1000,0,0,0,0,0,0,0,0,0,0
1681113017.30008888,151728451,1000,1000,1000,1000,0,0,0,0,0,0,0,0,0,0
1681113017.40004897,151828411,1000,1000,1000,1000,0,0,0,0,0,0,0,0,0,0
1681113017.50000882,151928371,1000,1000,1000,1000,0,0,0,0,0,0,0,0,0,0
1681113017.59996891,152028331,1000,1000,1000,1000,0,0,0,0,0,0,0,0,0,0
1681113017.69992876,152128291,1000,1000,1000,1000,0,0,0,0,0,0,0,0,0,0
1681113017.79988885,152228251,1000,1000,1000,1000,0,0,0,0,0,0,0,0,0,0
1681113017.89984894,152328211,1000,1000,1000,1000,0,0,0,0,0,0,0,0,0,0
1681113017.99980879,152428171,1000,1000,1000,1000,0,0,0,0,0,0,0,0,0,0
1681113018.10060191,152528964,1000,1000,1000,1000,0,0,0,0,0,0,0,0,0,0
1681113018.20056176,152628924,1000,1000,1000,1000,0,0,0,0,0,0,0,0,0,0
1681113018.30052185,152728884,1000,1000,1000,1000,0,0,0,0,0,0,0,0,0,0
1681113018.40048194,152828844,1000,1000,1000,1000,0,0,0,0,0,0,0,0,0,0
1681113018.50044179,152928804,1000,1000,1000,1000,0,0,0,0,0,0,0,0,0,0
1681113018.60040188,153028764,1000,1000,1000,1000,0,0,0,0,0,0,0,0,0,0
1681113018.70036197,153128724,1000,1000,1000,1000,0,0,0,0,0,0,0,0,0,0
1681113018.80032182,153228684,1000,1000,1000,1000,0,0,0,0,0,0,0,0,0,0
1681113018.90028191,153328644,1000,1000,1000,1000,0,0,0,0,0,0,0,0,0,0
1681113019.00024176,153428604,1000,1000,1000,1000,0,0,0,0,0,0,0,0,0,0
1681113019.10020185,153528564,1000,1000,1000,1000,0,0,0,0,0,0,0,0,0,0
1681113019.20016193,153628524,1000,1000,1000,1000,0,0,0,0,0,0,0,0,0,0
1681113019.30012178,153728484,1000,1000,1000,1000,0,0,0,0,0,0,0,0,0,0
1681113019.40008187,153828444,1000,1000,1000,1000,0,0,0,0,0,0,0,0,0,0
1681113019.50004196,153928404,1000,1000,1000,1000,0,0,0,0,0,0,0,0,0,0
1681113019.60000181,154028364,1000,1000,1000,1000,0,0,0,0,0,0,0,0,0,0
1681113019.69996190,154128324,1000,1000,1000,1000,0,0,0,0,0,0,0,0,0,0
1681113019.79992175,154228284,1000,1000,1000,1000,0,0,0,0,0,0,0,0,0,0
1681113019.89988184,154328244,1000,1000,1000,1000,0,0,0,0,0,0,0,0,0,0
1681113019.99984193,154428204,1000,1000,1000,1000,0,0,0,0,0,0,0,0,0,0
1681113020.09980178,154528164,1000,1000,1000,1000,0,0,0,0,0,0,0,0,0,0
1681113020.20059490,154628957,1000,1000,1000,1000,0,0,0,0,0,0,0,0,0,0
1681113020.30055475,154728917,1000,1000,1000,1000,0,0,0,0,0,0,0,0,0,0
1681113020.40051484,154828877,1000,1000,1000,1000,0,0,0,0,0,0,0,0,0,0
1681113020.50047493,154928837,1000,1000,1000,1000,0,0,0,0,0,0,0,0,0,0
1681113020.60043478,155028797,1000,1000,1000,1000,0,0,0,0,0,0,0,0,0,0
1681113020.70039487,155128757,1000,1000,1000,1000,0,0,0,0,0,0,0,0,0,0
1681113020.80035496,155228717,1000,1000,1000,1000,0,0,0,0,0,0,0,0,0,0
1681113020.90031481,155328677,1000,1000,1000,1000,0,0,0,0,0,0,0,0,0,0
1681113021.00027490,155428637,1000,1000,1000,1000,0,0,0,0,0,0,0,0,0,0
1681113021.10023499,155528597,1000,1000,1000,1000,0,0,0,0,0,0,0,0,0,0
1681113021.20019484,155628557,1000,1000,1000,1000,0,0,0,0,0,0,0,0,0,0
1681113021.30015492,155728517,1000,1000,1000,1000,0,0,0,0,0,0,0,0,0,0
1681113021.40011477,155828477,1000,1000,1000,1000,0,0,0,0,0,0,0,0,0,0
1681113021.50007486,155928437,1000,1000,1000,1000,0,0,0,0,0,0,0,0,0,0
1681113021.60003495,156028397,1000,1000,1000,1000,0,0,0,0,0,0,0,0,0,0
1681113021.69999480,156128357,1000,1000,1000,1000,0,0,0,0,0,0,0,0,0,0
1681113021.79995489,156228317,1000,1000,1000,1000,0,0,0,0,0,0,0,0,0,0
1681113021.89991498,156328277,1000,1000,1000,1000,0,0,0,0,0,0,0,0,0,0
1681113021.99987483,156428237,1000,1000,1000,1000,0,0,0,0,0,0,0,0,0,0
1681113022.09983492,156528197,1000,1000,1000,1000,0,0,0,0,0,0,0,0,0,0
1681113022.19979477,156628157,1000,1000,1000,1000,0,0,0,0,0,0,0,0,0,0
1681113022.30058789,156728950,1000,1000,1000,1000,0,0,0,0,0,0,0,0,0,0
1681113022.40054798,156828910,1000,1000,1000,1000,0,0,0,0,0,0,0,0,0,0
1681113022.50050783,156928870,1000,1000,1000,1000,0,0,0,0,0,0,0,0,0,0
1681113022.60046792,157028830,1000,1000,1000,1000,0,0,0,0,0,0,0,0,0,0
1681113022.70042777,157128790,1000,1000,1000,1000,0,0,0,0,0,0,0,0,0,0
1681113022.80038786,157228750,1000,1000,1000,1000,0,0,0,0,0,0,0,0,0,0
1681113022.90034795,157328710,1000,1000,1000,1000,0,0,0,0,0,0,0,0,0,0
1681113023.00030780,157428670,1000,1000,1000,1000,0,0,0,0,0,0,0,0,0,0
1681113023.10026789,157528630,1000,1000,1000,1000,0,0,0,0,0,0,0,0,0,0
1681113023.20022798,157628590,1000,1000,1000,1000,0,0,0,0,0,0,0,0,0,0
1681113023.30018783,157728550,1000,1000,1000,1000,0,0,0,0,0,0,0,0,0,0
1681113023.40014791,157828510,1000,1000,1000,1000,0,0,0,0,0,0,0,0,0,0
1681113023.50010777,157928470,1000,1000,1000,1000,0,0,0,0,0,0,0,0,0,0
1681113023.60006785,158028430,1000,1000,1000,1000,0,0,0,0,0,0,0,0,0,0
1681113023.70002794,158128390,1000,1000,1000,1000,0,0,0,0,0,0,0,0,0,0
1681113023.79998779,158228350,1000,1000,1000,1000,0,0,0,0,0,0,0,0,0,0
1681113023.89994788,158328310,1000,1000,1000,1000,0,0,0,0,0,0,0,0,0,0
1681113023.99990797,158428270,1000,1000,1000,1000,0,0,0,0,0,0,0,0,0,0
1681113024.09986782,158528230,1000,1000,1000,1000,0,0,0,0,0,0,0,0,0,0
1681113024.19982791,158628190,1000,1000,1000,1000,0,0,0,0,0,0,0,0,0,0
1681113024.30062079,158728983,1000,1000,1000,1000,0,0,0,0,0,0,0,0,0,0
1681113024.40058088,158828943,1000,1000,1000,1000,0,0,0,0,0,0,0,0,0,0
1681113024.50054097,158928903,1000,1000,1000,1000,0,0,0,0,0,0,0,0,0,0
1681113024.60050082,159028863,1000,1000,1000,1000,0,0,0,0,0,0,0,0,0,0
1681113024.70046091,159128823,1000,1000,1000,1000,0,0,0,0,0,0,0,0,0,0
1681113024.80042076,159228783,1000,1000,1000,1000,0,0,0,0,0,0,0,0,0,0
1681113024.90038085,159328743,1000,1000,1000,1000,0,0,0,0,0,0,0,0,0,0
1681113025.00034094,159428703,1000,1000,1000,1000,0,0,0,0,0,0,0,0,0,0
1681113025.10030079,159528663,1000,1000,1000,1000,0,0,0,0,0,0,0,0,0,0
1681113025.20026088,159628623,1000,1000,1000,1000,0,0,0,0,0,0,0,0,0,0
1681113025.30022097,159728583,1000,1000,1000,1000,0,0,0,0,0,0,0,0,0,0
1681113025.40018082,159828543,1000,1000,1000,1000,0,0,0,0,0,0,0,0,0,0
1681113025.50014091,159928503,1000,1000,1000,1000,0,0,0,0,0,0,0,0,0,0
1681113025.60010076,160028463,1000,1000,1000,1000,0,0,0,0,0,0,0,0,0,0
1681113025.70006084,160128423,1000,1000,1000,1000,0,0,0,0,0,0,0,0,0,0
1681113025.80002093,160228383,1000,1000,1000,1000,0,0,0,0,0,0,0,0,0,0
1681113025.89998078,160328343,1000,1000,1000,1000,0,0,0,0,0,0,0,0,0,0
1681113025.99994087,160428303,1000,1000,1000,1000,0,0,0,0,0,0,0,0,0,0
1681113026.09990096,160528263,1000,1000,1000,1000,0,0,0,0,0,0,0,0,0,0
1681113026.19986081,160628223,1000,1000,1000,1000,0,0,0,0,0,0,0,0,0,0
1681113026.29982090,160728183,1000,1000,1000,1000,0,0,0,0,0,0,0,0,0,0
1681113026.40061378,160828976,1000,1000,1000,1000,0,0,0,0,0,0,0,0,0,0
1681113026.50057387,160928936,1000,1000,1000,1000,0,0,0,0,0,0,0,0,0,0
1681113026.60053396,161028896,1000,1000,1000,1000,0,0,0,0,0,0,0,0,0,0
1681113026.70049381,161128856,1000,1000,1000,1000,0,0,0,0,0,0,0,0,0,0
1681113026.80045390,161228816,1000,1000,1000,1000,0,0,0,0,0,0,0,0,0,0
1681113026.90041375,161328776,1000,1000,1000,1000,0,0,0,0,0,0,0,0,0,0
1681113027.00037384,161428736,1000,1000,1000,1000,0,0,0,0,0,0,0,0,0,0
1681113027.10033393,161528696,1000,1000,1000,1000,0,0,0,0,0,0,0,0,0,0
1681113027.20029378,161628656,1000,1000,1000,1000,0,0,0,0,0,0,0,0,0,0
1681113027.30025387,161728616,1000,1000,1000,1000,0,0,0,0,0,0,0,0,0,0
1681113027.40021396,161828576,1000,1000,1000,1000,0,0,0,0,0,0,0,0,0,0
1681113027.50017381,161928536,1000,1000,1000,1000,0,0,0,0,0,0,0,0,0,0
1681113027.60013390,162028496,1000,1000,1000,1000,0,0,0,0,0,0,0,0,0,0
1681113027.70009398,162128456,1000,1000,1000,1000,0,0,0,0,0,0,0,0,0,0
1681113027.80005383,162228416,1000,1000,1000,1000,0,0,0,0,0,0,0,0,0,0
1681113027.90001392,162328376,1000,1000,1000,1000,0,0,0,0,0,0,0,0,0,0
1681113027.99997377,162428336,1000,1000,1000,1000,0,0,0,0,0,0,0,0,0,0
1681113028.09993386,162528296,1000,1000,1000,1000,0,0,0,0,0,0,0,0,0,0
1681113028.19989395,162628256,1000,1000,1000,1000,0,0,0,0,0,0,0,0,0,0
1681113028.29985380,162728216,1000,1000,1000,1000,0,0,0,0,0,0,0,0,0,0
1681113028.39981389,162828176,1000,1000,1000,1000,0,0,0,0,0,0,0,0,0,0
1681113028.50060678,162928969,1000,1000,1000,1000,0,0,0,0,0,0,0,0,0,0
1681113028.60056686,163028929,1000,1000,1000,1000,0,0,0,0,0,0,0,0,0,0
1681113028.70052695,163128889,1000,1000,1000,1000,0,0,0,0,0,0,0,0,0,0
1681113028.80048680,163228849,1000,1000,1000,1000,0,0,0,0,0,0,0,0,0,0
1681113028.90044689,163328809,1000,1000,1000,1000,0,0,0,0,0,0,0,0,0,0
1681113029.00040698,163428769,1000,1000,1000,1000,0,0,0,0,0,0,0,0,0,0
1681113029.10036683,163528729,1000,1000,1000,1000,0,0,0,0,0,0,0,0,0,0
1681113029.20032692,163628689,1000,1000,1000,1000,0,0,0,0,0,0,0,0,0,0
1681113029.30028677,163728649,1000,1000,1000,1000,0,0,0,0,0,0,0,0,0,0
