timestamp,TimeUS,C1,C2,C3,C4,C5,C6,C7,C8,C9,C10,C11,C12,C13,C14
1681546722.30004001,49528514,1000,1000,1000,1000,0,0,0,0,0,0,0,0,0,0
1681546722.40000010,49628474,1000,1000,1000,1000,0,0,0,0,0,0,0,0,0,0
1681546722.49996018,49728434,1000,1000,1000,1000,0,0,0,0,0,0,0,0,0,0
1681546722.59992003,49828394,1000,1000,1000,1000,0,0,0,0,0,0,0,0,0,0
1681546722.69988012,49928354,1000,1000,1000,1000,0,0,0,0,0,0,0,0,0,0
1681546722.79984021,50028314,1000,1000,1000,1000,0,0,0,0,0,0,0,0,0,0
1681546722.89980006,50128274,1000,1000,1000,1000,0,0,0,0,0,0,0,0,0,0
1681546722.99976015,50228234,1000,1000,1000,1000,0,0,0,0,0,0,0,0,0,0
1681546723.09972000,50328194,1000,1000,1000,1000,0,0,0,0,0,0,0,0,0,0
1681546723.19968009,50428154,1000,1000,1000,1000,0,0,0,0,0,0,0,0,0,0
1681546723.30047321,50528947,1000,1000,1000,1000,0,0,0,0,0,0,0,0,0,0
1681546723.40043306,50628907,1000,1000,1000,1000,0,0,0,0,0,0,0,0,0,0
1681546723.50039315,50728867,1000,1000,1000,1000,0,0,0,0,0,0,0,0,0,0
1681546723.60035300,50828827,1000,1000,1000,1000,0,0,0,0,0,0,0,0,0,0
1681546723.70031309,50928787,1000,1000,1000,1000,0,0,0,0,0,0,0,0,0,0
1681546723.80027318,51028747,1000,1000,1000,1000,0,0,0,0,0,0,0,0,0,0
1681546723.90023303,51128707,1000,1000,1000,1000,0,0,0,0,0,0,0,0,0,0
1681546724.00019312,51228667,1000,1000,1000,1000,0,0,0,0,0,0,0,0,0,0
1681546724.10015321,51328627,1000,1000,1000,1000,0,0,0,0,0,0,0,0,0,0
1681546724.20011306,51428587,1000,1000,1000,1000,0,0,0,0,0,0,0,0,0,0
1681546724.30007315,51528547,1013,1013,1013,1013,0,0,0,0,0,0,0,0,0,0
1681546724.40003300,51628507,1043,1043,1043,1043,0,0,0,0,0,0,0,0,0,0
1681546724.49999309,51728467,1073,1073,1073,1073,0,0,0,0,0,0,0,0,0,0
1681546724.59995317,51828427,1103,1103,1103,1103,0,0,0,0,0,0,0,0,0,0
1681546724.69991302,51928387,1133,1133,1133,1133,0,0,0,0,0,0,0,0,0,0
1681546724.79987311,52028347,1275,1268,1269,1275,0,0,0,0,0,0,0,0,0,0
1681546724.89983320,52128307,1486,1481,1481,1486,0,0,0,0,0,0,0,0,0,0
1681546724.99979305,52228267,1648,1644,1644,1648,0,0,0,0,0,0,0,0,0,0
1681546725.09975314,52328227,1786,1781,1782,1786,0,0,0,0,0,0,0,0,0,0
1681546725.19971299,52428187,1884,1880,1880,1884,0,0,0,0,0,0,0,0,0,0
1681546725.30050611,52528980,1870,1867,1868,1871,0,0,0,0,0,0,0,0,0,0
1681546725.40046620,52628940,1747,1747,1747,1748,0,0,0,0,0,0,0,0,0,0
1681546725.50042605,52728900,1649,1650,1651,1649,0,0,0,0,0,0,0,0,0,0
1681546725.60038614,52828860,1622,1624,1624,1621,0,0,0,0,0,0,0,0,0,0
1681546725.70034599,52928820,1629,1631,1631,1629,0,0,0,0,0,0,0,0,0,0
1681546725.80030608,53028780,1639,1641,1640,1639,0,0,0,0,0,0,0,0,0,0
1681546725.90026617,53128740,1634,1632,1630,1636,0,0,0,0,0,0,0,0,0,0
1681546726.00022602,53228700,1621,1621,1613,1628,0,0,0,0,0,0,0,0,0,0
1681546726.10018611,53328660,1613,1613,1607,1618,0,0,0,0,0,0,0,0,0,0
1681546726.20014620,53428620,1610,1610,1609,1611,0,0,0,0,0,0,0,0,0,0
1681546726.30010605,53528580,1613,1613,1614,1611,0,0,0,0,0,0,0,0,0,0
1681546726.40006614,53628540,1615,1616,1619,1611,0,0,0,0,0,0,0,0,0,0
1681546726.50002599,53728500,1619,1619,1623,1615,0,0,0,0,0,0,0,0,0,0
1681546726.59998608,53828460,1598,1599,1608,1590,0,0,0,0,0,0,0,0,0,0
1681546726.69994617,53928420,1580,1581,1593,1568,0,0,0,0,0,0,0,0,0,0
1681546726.79990602,54028380,1568,1569,1573,1564,0,0,0,0,0,0,0,0,0,0
1681546726.89986610,54128340,1558,1558,1555,1560,0,0,0,0,0,0,0,0,0,0
1681546726.99982619,54228300,1549,1548,1539,1559,0,0,0,0,0,0,0,0,0,0
1681546727.09978604,54328260,1542,1541,1530,1553,0,0,0,0,0,0,0,0,0,0
1681546727.19974613,54428220,1536,1537,1528,1544,0,0,0,0,0,0,0,0,0,0
1681546727.29970598,54528180,1531,1531,1527,1534,0,0,0,0,0,0,0,0,0,0
1681546727.40049911,54628973,1528,1528,1528,1528,0,0,0,0,0,0,0,0,0,0
1681546727.50045919,54728933,1528,1528,1530,1526,0,0,0,0,0,0,0,0,0,0
1681546727.60041904,54828893,1531,1531,1534,1528,0,0,0,0,0,0,0,0,0,0
1681546727.70037913,54928853,1533,1534,1537,1530,0,0,0,0,0,0,0,0,0,0
1681546727.80033898,55028813,1536,1536,1539,1533,0,0,0,0,0,0,0,0,0,0
1681546727.90029907,55128773,1540,1540,1542,1539,0,0,0,0,0,0,0,0,0,0
1681546728.00025916,55228733,1544,1543,1544,1543,0,0,0,0,0,0,0,0,0,0
1681546728.10021901,55328693,1547,1547,1547,1547,0,0,0,0,0,0,0,0,0,0
1681546728.20017910,55428653,1549,1549,1548,1550,0,0,0,0,0,0,0,0,0,0
1681546728.30013919,55528613,1552,1551,1550,1553,0,0,0,0,0,0,0,0,0,0
1681546728.40009904,55628573,1553,1553,1555,1558,0,0,0,0,0,0,0,0,0,0
1681546728.50005913,55728533,1552,1553,1559,1561,0,0,0,0,0,0,0,0,0,0
1681546728.60001922,55828493,1554,1554,1561,1562,0,0,0,0,0,0,0,0,0,0
1681546728.69997907,55928453,1557,1558,1563,1564,0,0,0,0,0,0,0,0,0,0
1681546728.79993916,56028413,1560,1561,1564,1564,0,0,0,0,0,0,0,0,0,0
1681546728.89989901,56128373,1564,1565,1566,1565,0,0,0,0,0,0,0,0,0,0
1681546728.99985909,56228333,1567,1567,1566,1565,0,0,0,0,0,0,0,0,0,0
1681546729.09981918,56328293,1569,1569,1566,1565,0,0,0,0,0,0,0,0,0,0
1681546729.19977903,56428253,1570,1569,1565,1565,0,0,0,0,0,0,0,0,0,0
1681546729.29973912,56528213,1571,1571,1566,1566,0,0,0,0,0,0,0,0,0,0
1681546729.39969921,56628173,1572,1572,1567,1567,0,0,0,0,0,0,0,0,0,0
1681546729.50049210,56728966,1573,1573,1568,1569,0,0,0,0,0,0,0,0,0,0
1681546729.60045218,56828926,1573,1573,1570,1570,0,0,0,0,0,0,0,0,0,0
1681546729.70041203,56928886,1574,1574,1572,1572,0,0,0,0,0,0,0,0,0,0
1681546729.80037212,57028846,1574,1575,1574,1573,0,0,0,0,0,0,0,0,0,0
1681546729.90033221,57128806,1575,1575,1576,1574,0,0,0,0,0,0,0,0,0,0
1681546730.00029206,57228766,1575,1575,1577,1575,0,0,0,0,0,0,0,0,0,0
1681546730.10025215,57328726,1575,1575,1576,1576,0,0,0,0,0,0,0,0,0,0
1681546730.20021200,57428686,1576,1576,1577,1577,0,0,0,0,0,0,0,0,0,0
1681546730.30017209,57528646,1575,1575,1577,1577,0,0,0,0,0,0,0,0,0,0
1681546730.40013218,57628606,1576,1576,1577,1578,0,0,0,0,0,0,0,0,0,0
1681546730.50009203,57728566,1576,1576,1577,1577,0,0,0,0,0,0,0,0,0,0
1681546730.60005212,57828526,1575,1576,1577,1576,0,0,0,0,0,0,0,0,0,0
1681546730.70001221,57928486,1576,1576,1577,1577,0,0,0,0,0,0,0,0,0,0
1681546730.79997206,58028446,1577,1577,1577,1576,0,0,0,0,0,0,0,0,0,0
1681546730.89993215,58128406,1578,1578,1577,1577,0,0,0,0,0,0,0,0,0,0
1681546730.99989200,58228366,1578,1578,1577,1577,0,0,0,0,0,0,0,0,0,0
1681546731.09985209,58328326,1578,1577,1577,1577,0,0,0,0,0,0,0,0,0,0
1681546731.19981217,58428286,1578,1578,1578,1577,0,0,0,0,0,0,0,0,0,0
1681546731.29977202,58528246,1577,1578,1577,1577,0,0,0,0,0,0,0,0,0,0
1681546731.39973211,58628206,1578,1578,1578,1578,0,0,0,0,0,0,0,0,0,0
1681546731.49969220,58728166,1578,1578,1577,1577,0,0,0,0,0,0,0,0,0,0
1681546731.60048509,58828959,1579,1580,1579,1579,0,0,0,0,0,0,0,0,0,0
1681546731.70044518,58928919,1579,1579,1579,1579,0,0,0,0,0,0,0,0,0,0
1681546731.80040503,59028879,1578,1578,1578,1578,0,0,0,0,0,0,0,0,0,0
1681546731.90036511,59128839,1579,1579,1579,1579,0,0,0,0,0,0,0,0,0,0
1681546732.00032520,59228799,1579,1579,1579,1579,0,0,0,0,0,0,0,0,0,0
1681546732.10028505,59328759,1578,1579,1579,1579,0,0,0,0,0,0,0,0,0,0
1681546732.20024514,59428719,1579,1579,1579,1580,0,0,0,0,0,0,0,0,0,0
1681546732.30020499,59528679,1580,1579,1580,1580,0,0,0,0,0,0,0,0,0,0
1681546732.40016508,59628639,1578,1579,1579,1578,0,0,0,0,0,0,0,0,0,0
1681546732.50012517,59728599,1579,1580,1580,1580,0,0,0,0,0,0,0,0,0,0
1681546732.60008502,59828559,1579,1579,1579,1579,0,0,0,0,0,0,0,0,0,0
1681546732.70004511,59928519,1580,1579,1579,1580,0,0,0,0,0,0,0,0,0,0
1681546732.80000520,60028479,1579,1579,1579,1579,0,0,0,0,0,0,0,0,0,0
1681546732.89996505,60128439,1579,1579,1579,1579,0,0,0,0,0,0,0,0,0,0
1681546732.99992514,60228399,1579,1580,1580,1580,0,0,0,0,0,0,0,0,0,0
1681546733.09988499,60328359,1580,1580,1580,1580,0,0,0,0,0,0,0,0,0,0
1681546733.19984508,60428319,1580,1580,1580,1580,0,0,0,0,0,0,0,0,0,0
1681546733.29980516,60528279,1580,1580,1580,1580,0,0,0,0,0,0,0,0,0,0
1681546733.39976501,60628239,1580,1580,1580,1580,0,0,0,0,0,0,0,0,0,0
1681546733.49972510,60728199,1580,1580,1580,1579,0,0,0,0,0,0,0,0,0,0
1681546733.59968519,60828159,1580,1580,1580,1580,0,0,0,0,0,0,0,0,0,0
1681546733.70047808,60928952,1580,1580,1580,1580,0,0,0,0,0,0,0,0,0,0
1681546733.80043817,61028912,1580,1580,1580,1581,0,0,0,0,0,0,0,0,0,0
1681546733.90039802,61128872,1580,1580,1580,1581,0,0,0,0,0,0,0,0,0,0
1681546734.00035810,61228832,1580,1580,1580,1580,0,0,0,0,0,0,0,0,0,0
1681546734.10031819,61328792,1580,1580,1580,1581,0,0,0,0,0,0,0,0,0,0
1681546734.20027804,61428752,1580,1580,1580,1580,0,0,0,0,0,0,0,0,0,0
1681546734.30023813,61528712,1580,1580,1580,1581,0,0,0,0,0,0,0,0,0,0
1681546734.40019798,61628672,1581,1581,1581,1581,0,0,0,0,0,0,0,0,0,0
1681546734.50015807,61728632,1580,1581,1581,1580,0,0,0,0,0,0,0,0,0,0
1681546734.60011816,61828592,1580,1581,1583,1579,0,0,0,0,0,0,0,0,0,0
1681546734.70007801,61928552,1581,1582,1588,1573,0,0,0,0,0,0,0,0,0,0
1681546734.80003810,62028512,1579,1582,1583,1573,0,0,0,0,0,0,0,0,0,0
1681546734.89999819,62128472,1578,1580,1574,1573,0,0,0,0,0,0,0,0,0,0
1681546734.99995804,62228432,1577,1580,1566,1571,0,0,0,0,0,0,0,0,0,0
1681546735.09991813,62328392,1577,1579,1560,1567,0,0,0,0,0,0,0,0,0,0
1681546735.19987822,62428352,1578,1577,1556,1562,0,0,0,0,0,0,0,0,0,0
1681546735.29983807,62528312,1579,1577,1555,1558,0,0,0,0,0,0,0,0,0,0
1681546735.39979815,62628272,1578,1577,1555,1555,0,0,0,0,0,0,0,0,0,0
1681546735.49975801,62728232,1578,1577,1555,1553,0,0,0,0,0,0,0,0,0,0
1681546735.59971809,62828192,1577,1577,1556,1553,0,0,0,0,0,0,0,0,0,0
1681546735.70051122,62928985,1575,1576,1555,1553,0,0,0,0,0,0,0,0,0,0
1681546735.80047107,63028945,1574,1576,1555,1553,0,0,0,0,0,0,0,0,0,0
1681546735.90043116,63128905,1574,1576,1554,1554,0,0,0,0,0,0,0,0,0,0
1681546736.00039101,63228865,1573,1575,1552,1552,0,0,0,0,0,0,0,0,0,0
1681546736.10035110,63328825,1575,1576,1551,1551,0,0,0,0,0,0,0,0,0,0
1681546736.20031118,63428785,1577,1577,1549,1549,0,0,0,0,0,0,0,0,0,0
1681546736.30027103,63528745,1578,1579,1547,1547,0,0,0,0,0,0,0,0,0,0
1681546736.40023112,63628705,1581,1583,1545,1545,0,0,0,0,0,0,0,0,0,0
1681546736.50019121,63728665,1584,1585,1543,1542,0,0,0,0,0,0,0,0,0,0
1681546736.60015106,63828625,1588,1588,1540,1539,0,0,0,0,0,0,0,0,0,0
1681546736.70011115,63928585,1591,1591,1537,1537,0,0,0,0,0,0,0,0,0,0
1681546736.80007100,64028545,1594,1594,1535,1535,0,0,0,0,0,0,0,0,0,0
1681546736.90003109,64128505,1594,1594,1533,1534,0,0,0,0,0,0,0,0,0,0
1681546736.99999118,64228465,1595,1595,1534,1535,0,0,0,0,0,0,0,0,0,0
1681546737.09995103,64328425,1594,1594,1536,1538,0,0,0,0,0,0,0,0,0,0
1681546737.19991112,64428385,1592,1591,1539,1541,0,0,0,0,0,0,0,0,0,0
1681546737.29987121,64528345,1588,1586,1545,1548,0,0,0,0,0,0,0,0,0,0
1681546737.39983106,64628305,1582,1579,1553,1556,0,0,0,0,0,0,0,0,0,0
1681546737.49979115,64728265,1572,1568,1562,1565,0,0,0,0,0,0,0,0,0,0
1681546737.59975100,64828225,1563,1559,1575,1578,0,0,0,0,0,0,0,0,0,0
1681546737.69971108,64928185,1552,1548,1588,1589,0,0,0,0,0,0,0,0,0,0
1681546737.80050421,65028978,1541,1539,1599,1599,0,0,0,0,0,0,0,0,0,0
1681546737.90046406,65128938,1533,1532,1608,1608,0,0,0,0,0,0,0,0,0,0
1681546738.00042415,65228898,1528,1530,1614,1613,0,0,0,0,0,0,0,0,0,0
1681546738.10038400,65328858,1527,1529,1615,1614,0,0,0,0,0,0,0,0,0,0
1681546738.20034409,65428818,1531,1534,1613,1613,0,0,0,0,0,0,0,0,0,0
1681546738.30030417,65528778,1538,1540,1609,1609,0,0,0,0,0,0,0,0,0,0
1681546738.40026402,65628738,1544,1546,1601,1602,0,0,0,0,0,0,0,0,0,0
1681546738.50022411,65728698,1554,1555,1594,1594,0,0,0,0,0,0,0,0,0,0
1681546738.60018420,65828658,1563,1563,1587,1587,0,0,0,0,0,0,0,0,0,0
1681546738.70014405,65928618,1571,1571,1580,1579,0,0,0,0,0,0,0,0,0,0
1681546738.80010414,66028578,1578,1577,1574,1573,0,0,0,0,0,0,0,0,0,0
1681546738.90006399,66128538,1583,1582,1570,1569,0,0,0,0,0,0,0,0,0,0
1681546739.00002408,66228498,1586,1585,1567,1566,0,0,0,0,0,0,0,0,0,0
1681546739.09998417,66328458,1587,1586,1564,1566,0,0,0,0,0,0,0,0,0,0
1681546739.19994402,66428418,1586,1585,1565,1566,0,0,0,0,0,0,0,0,0,0
1681546739.29990411,66528378,1584,1583,1566,1567,0,0,0,0,0,0,0,0,0,0
1681546739.39986420,66628338,1583,1582,1570,1571,0,0,0,0,0,0,0,0,0,0
1681546739.49982405,66728298,1580,1580,1574,1574,0,0,0,0,0,0,0,0,0,0
1681546739.59978414,66828258,1580,1580,1297,1538,0,0,0,0,0,0,0,0,0,0
1681546739.69974399,66928218,1624,1626,1459,1503,0,0,0,0,0,0,0,0,0,0
1681546739.79970407,67028178,1656,1664,1576,1529,0,0,0,0,0,0,0,0,0,0
1681546739.90049720,67128971,1626,1642,1628,1518,0,0,0,0,0,0,0,0,0,0
1681546740.00045705,67228931,1602,1627,1628,1545,0,0,0,0,0,0,0,0,0,0
1681546740.10041714,67328891,1614,1639,1628,1576,0,0,0,0,0,0,0,0,0,0
1681546740.20037699,67428851,1616,1635,1628,1601,0,0,0,0,0,0,0,0,0,0
1681546740.30033708,67528811,1592,1608,1628,1621,0,0,0,0,0,0,0,0,0,0
1681546740.40029716,67628771,1534,1534,1628,1639,0,0,0,0,0,0,0,0,0,0
1681546740.50025702,67728731,1473,1435,1628,1655,0,0,0,0,0,0,0,0,0,0
1681546740.60021710,67828691,1471,1410,1628,1656,0,0,0,0,0,0,0,0,0,0
1681546740.70017719,67928651,1486,1435,1628,1647,0,0,0,0,0,0,0,0,0,0
1681546740.80013704,68028611,1501,1473,1628,1638,0,0,0,0,0,0,0,0,0,0
1681546740.90009713,68128571,1527,1517,1628,1641,0,0,0,0,0,0,0,0,0,0
1681546741.00005698,68228531,1576,1584,1628,1644,0,0,0,0,0,0,0,0,0,0
1681546741.10001707,68328491,1621,1642,1628,1639,0,0,0,0,0,0,0,0,0,0
1681546741.19997716,68428451,1653,1681,1628,1633,0,0,0,0,0,0,0,0,0,0
1681546741.29993701,68528411,1676,1705,1628,1628,0,0,0,0,0,0,0,0,0,0
1681546741.39989710,68628371,1693,1714,1628,1625,0,0,0,0,0,0,0,0,0,0
1681546741.49985719,68728331,1703,1714,1628,1625,0,0,0,0,0,0,0,0,0,0
1681546741.59981704,68828291,1706,1707,1628,1625,0,0,0,0,0,0,0,0,0,0
1681546741.69977713,68928251,1682,1674,1609,1603,0,0,0,0,0,0,0,0,0,0
1681546741.79973722,69028211,1652,1640,1589,1584,0,0,0,0,0,0,0,0,0,0
1681546741.89969707,69128171,1625,1614,1574,1573,0,0,0,0,0,0,0,0,0,0
1681546742.00049019,69228964,1600,1593,1563,1566,0,0,0,0,0,0,0,0,0,0
1681546742.10045004,69328924,1579,1577,1556,1561,0,0,0,0,0,0,0,0,0,0
1681546742.20041013,69428884,1563,1565,1552,1557,0,0,0,0,0,0,0,0,0,0
1681546742.30037022,69528844,1554,1557,1552,1555,0,0,0,0,0,0,0,0,0,0
1681546742.40033007,69628804,1550,1552,1553,1556,0,0,0,0,0,0,0,0,0,0
1681546742.50029016,69728764,1548,1549,1556,1556,0,0,0,0,0,0,0,0,0,0
1681546742.60025001,69828724,1548,1549,1558,1558,0,0,0,0,0,0,0,0,0,0
1681546742.70021009,69928684,1551,1553,1567,1553,0,0,0,0,0,0,0,0,0,0
1681546742.80017018,70028644,1552,1558,1569,1554,0,0,0,0,0,0,0,0,0,0
1681546742.90013003,70128604,1553,1562,1566,1559,0,0,0,0,0,0,0,0,0,0
1681546743.00009012,70228564,1555,1561,1561,1562,0,0,0,0,0,0,0,0,0,0
1681546743.10005021,70328524,1557,1559,1556,1563,0,0,0,0,0,0,0,0,0,0
1681546743.20001006,70428484,1560,1558,1554,1563,0,0,0,0,0,0,0,0,0,0
1681546743.29997015,70528444,1564,1560,1555,1561,0,0,0,0,0,0,0,0,0,0
1681546743.39993000,70628404,1566,1561,1556,1557,0,0,0,0,0,0,0,0,0,0
1681546743.49989009,70728364,1568,1565,1557,1556,0,0,0,0,0,0,0,0,0,0
1681546743.59985018,70828324,1571,1570,1558,1555,0,0,0,0,0,0,0,0,0,0
1681546743.69981003,70928284,1572,1573,1558,1555,0,0,0,0,0,0,0,0,0,0
1681546743.79977012,71028244,1573,1576,1558,1554,0,0,0,0,0,0,0,0,0,0
1681546743.89973021,71128204,1574,1577,1556,1554,0,0,0,0,0,0,0,0,0,0
1681546743.99969006,71228164,1576,1578,1554,1554,0,0,0,0,0,0,0,0,0,0
1681546744.10048318,71328957,1578,1579,1552,1553,0,0,0,0,0,0,0,0,0,0
1681546744.20044303,71428917,1580,1580,1551,1552,0,0,0,0,0,0,0,0,0,0
1681546744.30040312,71528877,1581,1581,1549,1550,0,0,0,0,0,0,0,0,0,0
1681546744.40036321,71628837,1582,1583,1547,1547,0,0,0,0,0,0,0,0,0,0
1681546744.50032306,71728797,1584,1584,1546,1545,0,0,0,0,0,0,0,0,0,0
1681546744.60028315,71828757,1585,1585,1544,1544,0,0,0,0,0,0,0,0,0,0
1681546744.70024300,71928717,1587,1587,1543,1543,0,0,0,0,0,0,0,0,0,0
1681546744.80020308,72028677,1588,1588,1542,1542,0,0,0,0,0,0,0,0,0,0
1681546744.90016317,72128637,1589,1588,1542,1543,0,0,0,0,0,0,0,0,0,0
1681546745.00012302,72228597,1588,1588,1542,1543,0,0,0,0,0,0,0,0,0,0
1681546745.10008311,72328557,1588,1588,1544,1546,0,0,0,0,0,0,0,0,0,0
1681546745.20004320,72428517,1587,1587,1546,1548,0,0,0,0,0,0,0,0,0,0
1681546745.30000305,72528477,1585,1584,1549,1552,0,0,0,0,0,0,0,0,0,0
1681546745.39996314,72628437,1582,1580,1554,1556,0,0,0,0,0,0,0,0,0,0
1681546745.49992299,72728397,1577,1575,1560,1562,0,0,0,0,0,0,0,0,0,0
1681546745.59988308,72828357,1572,1570,1567,1569,0,0,0,0,0,0,0,0,0,0
1681546745.69984317,72928317,1567,1564,1575,1575,0,0,0,0,0,0,0,0,0,0
1681546745.79980302,73028277,1561,1559,1582,1581,0,0,0,0,0,0,0,0,0,0
1681546745.89976311,73128237,1558,1557,1589,1588,0,0,0,0,0,0,0,0,0,0
1681546745.99972320,73228197,1554,1554,1593,1592,0,0,0,0,0,0,0,0,0,0
1681546746.09968305,73328157,1552,1552,1597,1595,0,0,0,0,0,0,0,0,0,0
1681546746.20047617,73428950,1552,1552,1599,1598,0,0,0,0,0,0,0,0,0,0
1681546746.30043602,73528910,1553,1553,1600,1599,0,0,0,0,0,0,0,0,0,0
1681546746.40039611,73628870,1554,1555,1601,1600,0,0,0,0,0,0,0,0,0,0
1681546746.50035620,73728830,1554,1555,1598,1598,0,0,0,0,0,0,0,0,0,0
1681546746.60031605,73828790,1556,1557,1597,1596,0,0,0,0,0,0,0,0,0,0
1681546746.70027614,73928750,1559,1559,1595,1594,0,0,0,0,0,0,0,0,0,0
1681546746.80023599,74028710,1562,1562,1592,1592,0,0,0,0,0,0,0,0,0,0
1681546746.90019608,74128670,1563,1563,1589,1589,0,0,0,0,0,0,0,0,0,0
1681546747.00015616,74228630,1566,1567,1587,1587,0,0,0,0,0,0,0,0,0,0
1681546747.10011601,74328590,1568,1569,1583,1584,0,0,0,0,0,0,0,0,0,0
1681546747.20007610,74428550,1571,1571,1581,1581,0,0,0,0,0,0,0,0,0,0
1681546747.30003619,74528510,1573,1573,1578,1579,0,0,0,0,0,0,0,0,0,0
1681546747.39999604,74628470,1574,1574,1575,1576,0,0,0,0,0,0,0,0,0,0
1681546747.49995613,74728430,1576,1576,1573,1574,0,0,0,0,0,0,0,0,0,0
1681546747.59991598,74828390,1578,1577,1572,1573,0,0,0,0,0,0,0,0,0,0
1681546747.69987607,74928350,1580,1579,1572,1573,0,0,0,0,0,0,0,0,0,0
1681546747.79983616,75028310,1581,1581,1572,1572,0,0,0,0,0,0,0,0,0,0
1681546747.89979601,75128270,1582,1581,1571,1572,0,0,0,0,0,0,0,0,0,0
1681546747.99975610,75228230,1582,1581,1572,1572,0,0,0,0,0,0,0,0,0,0
1681546748.09971619,75328190,1581,1581,1573,1572,0,0,0,0,0,0,0,0,0,0
1681546748.20050907,75428983,1581,1581,1574,1574,0,0,0,0,0,0,0,0,0,0
1681546748.30046916,75528943,1580,1580,1575,1575,0,0,0,0,0,0,0,0,0,0
1681546748.40042901,75628903,1580,1580,1577,1577,0,0,0,0,0,0,0,0,0,0
1681546748.50038910,75728863,1579,1579,1578,1578,0,0,0,0,0,0,0,0,0,0
1681546748.60034919,75828823,1578,1578,1580,1580,0,0,0,0,0,0,0,0,0,0
1681546748.70030904,75928783,1577,1578,1580,1581,0,0,0,0,0,0,0,0,0,0
1681546748.80026913,76028743,1576,1577,1580,1581,0,0,0,0,0,0,0,0,0,0
1681546748.90022922,76128703,1577,1577,1582,1581,0,0,0,0,0,0,0,0,0,0
1681546749.00018907,76228663,1576,1577,1581,1581,0,0,0,0,0,0,0,0,0,0
1681546749.10014915,76328623,1577,1577,1582,1581,0,0,0,0,0,0,0,0,0,0
1681546749.20010900,76428583,1577,1578,1582,1581,0,0,0,0,0,0,0,0,0,0
1681546749.30006909,76528543,1579,1579,1583,1582,0,0,0,0,0,0,0,0,0,0
1681546749.40002918,76628503,1579,1579,1582,1582,0,0,0,0,0,0,0,0,0,0
1681546749.49998903,76728463,1580,1579,1581,1581,0,0,0,0,0,0,0,0,0,0
1681546749.59994912,76828423,1580,1580,1581,1581,0,0,0,0,0,0,0,0,0,0
1681546749.69990921,76928383,1580,1580,1580,1581,0,0,0,0,0,0,0,0,0,0
1681546749.79986906,77028343,1581,1581,1580,1580,0,0,0,0,0,0,0,0,0,0
1681546749.89982915,77128303,1581,1581,1580,1580,0,0,0,0,0,0,0,0,0,0
1681546749.99978900,77228263,1581,1581,1580,1580,0,0,0,0,0,0,0,0,0,0
1681546750.09974909,77328223,1581,1581,1580,1580,0,0,0,0,0,0,0,0,0,0
1681546750.19970918,77428183,1579,1580,1578,1578,0,0,0,0,0,0,0,0,0,0
1681546750.30050206,77528976,1581,1581,1579,1580,0,0,0,0,0,0,0,0,0,0
1681546750.40046215,77628936,1580,1580,1579,1580,0,0,0,0,0,0,0,0,0,0
1681546750.50042200,77728896,1581,1581,1580,1580,0,0,0,0,0,0,0,0,0,0
1681546750.60038209,77828856,1580,1581,1580,1580,0,0,0,0,0,0,0,0,0,0
1681546750.70034218,77928816,1580,1580,1580,1580,0,0,0,0,0,0,0,0,0,0
1681546750.80030203,78028776,1581,1581,1581,1581,0,0,0,0,0,0,0,0,0,0
1681546750.90026212,78128736,1581,1581,1581,1581,0,0,0,0,0,0,0,0,0,0
1681546751.00022221,78228696,1581,1581,1581,1581,0,0,0,0,0,0,0,0,0,0
1681546751.10018206,78328656,1581,1581,1582,1582,0,0,0,0,0,0,0,0,0,0
1681546751.20014215,78428616,1580,1581,1584,1578,0,0,0,0,0,0,0,0,0,0
1681546751.30010200,78528576,1579,1583,1586,1572,0,0,0,0,0,0,0,0,0,0
1681546751.40006208,78628536,1578,1583,1582,1573,0,0,0,0,0,0,0,0,0,0
1681546751.50002217,78728496,1577,1581,1575,1573,0,0,0,0,0,0,0,0,0,0
1681546751.59998202,78828456,1577,1580,1567,1572,0,0,0,0,0,0,0,0,0,0
1681546751.69994211,78928416,1577,1577,1561,1567,0,0,0,0,0,0,0,0,0,0
1681546751.79990220,79028376,1578,1577,1556,1563,0,0,0,0,0,0,0,0,0,0
1681546751.89986205,79128336,1579,1576,1554,1558,0,0,0,0,0,0,0,0,0,0
1681546751.99982214,79228296,1581,1577,1554,1555,0,0,0,0,0,0,0,0,0,0
1681546752.09978199,79328256,1580,1578,1553,1552,0,0,0,0,0,0,0,0,0,0
1681546752.19974208,79428216,1579,1579,1554,1552,0,0,0,0,0,0,0,0,0,0
1681546752.29970217,79528176,1578,1580,1554,1552,0,0,0,0,0,0,0,0,0,0
1681546752.40049505,79628969,1576,1579,1554,1552,0,0,0,0,0,0,0,0,0,0
1681546752.50045514,79728929,1576,1579,1553,1553,0,0,0,0,0,0,0,0,0,0
1681546752.60041499,79828889,1576,1578,1553,1552,0,0,0,0,0,0,0,0,0,0
1681546752.70037508,79928849,1576,1578,1552,1552,0,0,0,0,0,0,0,0,0,0
1681546752.80033517,80028809,1577,1578,1550,1550,0,0,0,0,0,0,0,0,0,0
1681546752.90029502,80128769,1580,1580,1549,1549,0,0,0,0,0,0,0,0,0,0
1681546753.00025511,80228729,1582,1582,1546,1547,0,0,0,0,0,0,0,0,0,0
1681546753.10021520,80328689,1584,1585,1545,1545,0,0,0,0,0,0,0,0,0,0
1681546753.20017505,80428649,1586,1586,1542,1541,0,0,0,0,0,0,0,0,0,0
1681546753.30013514,80528609,1589,1589,1540,1541,0,0,0,0,0,0,0,0,0,0
1681546753.40009499,80628569,1590,1591,1537,1538,0,0,0,0,0,0,0,0,0,0
1681546753.50005507,80728529,1592,1593,1536,1538,0,0,0,0,0,0,0,0,0,0
1681546753.60001516,80828489,1594,1595,1536,1538,0,0,0,0,0,0,0,0,0,0
1681546753.69997501,80928449,1593,1593,1536,1539,0,0,0,0,0,0,0,0,0,0
1681546753.79993510,81028409,1593,1591,1541,1545,0,0,0,0,0,0,0,0,0,0
1681546753.89989519,81128369,1589,1585,1548,1552,0,0,0,0,0,0,0,0,0,0
1681546753.99985504,81228329,1582,1577,1557,1560,0,0,0,0,0,0,0,0,0,0
1681546754.09981513,81328289,1573,1569,1569,1571,0,0,0,0,0,0,0,0,0,0
1681546754.19977498,81428249,1561,1558,1580,1581,0,0,0,0,0,0,0,0,0,0
1681546754.29973507,81528209,1550,1549,1593,1592,0,0,0,0,0,0,0,0,0,0
1681546754.39969516,81628169,1543,1544,1604,1602,0,0,0,0,0,0,0,0,0,0
1681546754.50048804,81728962,1539,1540,1611,1607,0,0,0,0,0,0,0,0,0,0
1681546754.60044813,81828922,1539,1540,1615,1611,0,0,0,0,0,0,0,0,0,0
1681546754.70040798,81928882,1541,1542,1615,1612,0,0,0,0,0,0,0,0,0,0
1681546754.80036807,82028842,1543,1545,1612,1610,0,0,0,0,0,0,0,0,0,0
1681546754.90032816,82128802,1548,1549,1609,1608,0,0,0,0,0,0,0,0,0,0
1681546755.00028801,82228762,1551,1552,1603,1603,0,0,0,0,0,0,0,0,0,0
1681546755.10024810,82328722,1556,1556,1598,1598,0,0,0,0,0,0,0,0,0,0
1681546755.20020819,82428682,1561,1560,1592,1593,0,0,0,0,0,0,0,0,0,0
1681546755.30016804,82528642,1565,1565,1587,1588,0,0,0,0,0,0,0,0,0,0
1681546755.40012813,82628602,1569,1569,1580,1581,0,0,0,0,0,0,0,0,0,0
1681546755.50008821,82728562,1574,1573,1574,1575,0,0,0,0,0,0,0,0,0,0
1681546755.60004807,82828522,1579,1579,1570,1570,0,0,0,0,0,0,0,0,0,0
1681546755.70000815,82928482,1583,1582,1566,1567,0,0,0,0,0,0,0,0,0,0
1681546755.79996800,83028442,1584,1583,1563,1564,0,0,0,0,0,0,0,0,0,0
1681546755.89992809,83128402,1585,1584,1563,1563,0,0,0,0,0,0,0,0,0,0
1681546755.99988818,83228362,1585,1584,1564,1565,0,0,0,0,0,0,0,0,0,0
1681546756.09984803,83328322,1584,1582,1566,1567,0,0,0,0,0,0,0,0,0,0
1681546756.19980812,83428282,1582,1581,1570,1569,0,0,0,0,0,0,0,0,0,0
1681546756.29976821,83528242,1580,1580,1573,1573,0,0,0,0,0,0,0,0,0,0
1681546756.39972806,83628202,1577,1578,1577,1576,0,0,0,0,0,0,0,0,0,0
1681546756.49968815,83728162,1575,1577,1580,1579,0,0,0,0,0,0,0,0,0,0
1681546756.60048103,83828955,1574,1575,1582,1581,0,0,0,0,0,0,0,0,0,0
1681546756.70044112,83928915,1573,1573,1584,1583,0,0,0,0,0,0,0,0,0,0
1681546756.80040121,84028875,1572,1573,1584,1584,0,0,0,0,0,0,0,0,0,0
1681546756.90036106,84128835,1573,1574,1585,1585,0,0,0,0,0,0,0,0,0,0
1681546757.00032115,84228795,1574,1575,1585,1585,0,0,0,0,0,0,0,0,0,0
1681546757.10028100,84328755,1575,1576,1585,1584,0,0,0,0,0,0,0,0,0,0
1681546757.20024109,84428715,1577,1577,1584,1583,0,0,0,0,0,0,0,0,0,0
1681546757.30020118,84528675,1577,1577,1582,1581,0,0,0,0,0,0,0,0,0,0
1681546757.40016103,84628635,1579,1579,1580,1581,0,0,0,0,0,0,0,0,0,0
1681546757.50012112,84728595,1580,1579,1578,1580,0,0,0,0,0,0,0,0,0,0
1681546757.60008121,84828555,1580,1579,1577,1578,0,0,0,0,0,0,0,0,0,0
1681546757.70004106,84928515,1580,1580,1576,1577,0,0,0,0,0,0,0,0,0,0
1681546757.80000114,85028475,1581,1581,1576,1577,0,0,0,0,0,0,0,0,0,0
1681546757.89996099,85128435,1581,1581,1577,1576,0,0,0,0,0,0,0,0,0,0
1681546757.99992108,85228395,1581,1581,1576,1576,0,0,0,0,0,0,0,0,0,0
1681546758.09988117,85328355,1581,1581,1577,1577,0,0,0,0,0,0,0,0,0,0
1681546758.19984102,85428315,1581,1581,1578,1578,0,0,0,0,0,0,0,0,0,0
1681546758.29980111,85528275,1581,1580,1579,1579,0,0,0,0,0,0,0,0,0,0
1681546758.39976120,85628235,1580,1580,1580,1579,0,0,0,0,0,0,0,0,0,0
1681546758.49972105,85728195,1579,1580,1580,1580,0,0,0,0,0,0,0,0,0,0
1681546758.59968114,85828155,1580,1580,1581,1581,0,0,0,0,0,0,0,0,0,0
1681546758.70047402,85928948,1580,1580,1581,1581,0,0,0,0,0,0,0,0,0,0
1681546758.80043411,86028908,1579,1579,1581,1581,0,0,0,0,0,0,0,0,0,0
1681546758.90039420,86128868,1580,1580,1582,1582,0,0,0,0,0,0,0,0,0,0
1681546759.00035405,86228828,1580,1580,1582,1582,0,0,0,0,0,0,0,0,0,0
1681546759.10031414,86328788,1581,1581,1585,1578,0,0,0,0,0,0,0,0,0,0
1681546759.20027399,86428748,1582,1583,1588,1574,0,0,0,0,0,0,0,0,0,0
1681546759.30023408,86528708,1580,1581,1584,1575,0,0,0,0,0,0,0,0,0,0
1681546759.40019417,86628668,1578,1578,1579,1577,0,0,0,0,0,0,0,0,0,0
1681546759.50015402,86728628,1574,1573,1572,1577,0,0,0,0,0,0,0,0,0,0
1681546759.60011411,86828588,1569,1568,1566,1574,0,0,0,0,0,0,0,0,0,0
1681546759.70007420,86928548,1567,1566,1564,1571,0,0,0,0,0,0,0,0,0,0
1681546759.80003405,87028508,1565,1564,1563,1567,0,0,0,0,0,0,0,0,0,0
1681546759.89999413,87128468,1565,1566,1564,1566,0,0,0,0,0,0,0,0,0,0
1681546759.99995399,87228428,1566,1567,1566,1565,0,0,0,0,0,0,0,0,0,0
1681546760.09991407,87328388,1566,1566,1565,1562,0,0,0,0,0,0,0,0,0,0
1681546760.19987416,87428348,1566,1566,1565,1563,0,0,0,0,0,0,0,0,0,0
1681546760.29983401,87528308,1565,1565,1565,1562,0,0,0,0,0,0,0,0,0,0
1681546760.39979410,87628268,1564,1564,1563,1562,0,0,0,0,0,0,0,0,0,0
1681546760.49975419,87728228,1563,1562,1562,1562,0,0,0,0,0,0,0,0,0,0
1681546760.59971404,87828188,1562,1562,1562,1562,0,0,0,0,0,0,0,0,0,0
1681546760.70050716,87928981,1561,1561,1561,1561,0,0,0,0,0,0,0,0,0,0
1681546760.80046701,88028941,1561,1562,1562,1562,0,0,0,0,0,0,0,0,0,0
1681546760.90042710,88128901,1560,1560,1561,1560,0,0,0,0,0,0,0,0,0,0
1681546761.00038719,88228861,1560,1560,1560,1560,0,0,0,0,0,0,0,0,0,0
1681546761.10034704,88328821,1559,1559,1560,1559,0,0,0,0,0,0,0,0,0,0
1681546761.20030713,88428781,1559,1559,1560,1560,0,0,0,0,0,0,0,0,0,0
1681546761.30026698,88528741,1558,1559,1559,1559,0,0,0,0,0,0,0,0,0,0
1681546761.40022707,88628701,1557,1558,1558,1557,0,0,0,0,0,0,0,0,0,0
1681546761.50018716,88728661,1557,1558,1558,1557,0,0,0,0,0,0,0,0,0,0
1681546761.60014701,88828621,1558,1558,1559,1557,0,0,0,0,0,0,0,0,0,0
1681546761.70010710,88928581,1558,1558,1559,1557,0,0,0,0,0,0,0,0,0,0
1681546761.80006719,89028541,1558,1558,1560,1557,0,0,0,0,0,0,0,0,0,0
1681546761.90002704,89128501,1559,1559,1559,1558,0,0,0,0,0,0,0,0,0,0
1681546761.99998713,89228461,1560,1560,1559,1561,0,0,0,0,0,0,0,0,0,0
1681546762.09994721,89328421,1560,1560,1557,1563,0,0,0,0,0,0,0,0,0,0
1681546762.19990706,89428381,1561,1561,1558,1564,0,0,0,0,0,0,0,0,0,0
1681546762.29986715,89528341,1560,1561,1558,1563,0,0,0,0,0,0,0,0,0,0
1681546762.39982700,89628301,1560,1560,1559,1561,0,0,0,0,0,0,0,0,0,0
1681546762.49978709,89728261,1560,1559,1559,1558,0,0,0,0,0,0,0,0,0,0
1681546762.59974718,89828221,1560,1560,1560,1560,0,0,0,0,0,0,0,0,0,0
1681546762.69970703,89928181,1557,1557,1557,1558,0,0,0,0,0,0,0,0,0,0
1681546762.80050015,90028974,1553,1553,1554,1554,0,0,0,0,0,0,0,0,0,0
1681546762.90046000,90128934,1547,1547,1549,1549,0,0,0,0,0,0,0,0,0,0
1681546763.00042009,90228894,1540,1541,1543,1543,0,0,0,0,0,0,0,0,0,0
1681546763.10038018,90328854,1533,1533,1537,1536,0,0,0,0,0,0,0,0,0,0
1681546763.20034003,90428814,1526,1525,1529,1529,0,0,0,0,0,0,0,0,0,0
1681546763.30030012,90528774,1520,1520,1523,1524,0,0,0,0,0,0,0,0,0,0
1681546763.40026021,90628734,1520,1520,1520,1522,0,0,0,0,0,0,0,0,0,0
1681546763.50022006,90728694,1520,1520,1519,1522,0,0,0,0,0,0,0,0,0,0
1681546763.60018015,90828654,1522,1522,1519,1521,0,0,0,0,0,0,0,0,0,0
1681546763.70014000,90928614,1525,1525,1521,1523,0,0,0,0,0,0,0,0,0,0
1681546763.80010009,91028574,1529,1529,1525,1525,0,0,0,0,0,0,0,0,0,0
1681546763.90006018,91128534,1534,1535,1529,1530,0,0,0,0,0,0,0,0,0,0
1681546764.00002003,91228494,1538,1539,1534,1533,0,0,0,0,0,0,0,0,0,0
1681546764.09998012,91328454,1541,1541,1537,1536,0,0,0,0,0,0,0,0,0,0
1681546764.19994020,91428414,1544,1543,1541,1539,0,0,0,0,0,0,0,0,0,0
1681546764.29990005,91528374,1545,1544,1543,1542,0,0,0,0,0,0,0,0,0,0
1681546764.39986014,91628334,1545,1545,1545,1544,0,0,0,0,0,0,0,0,0,0
1681546764.49981999,91728294,1545,1546,1547,1546,0,0,0,0,0,0,0,0,0,0
1681546764.59978008,91828254,1545,1545,1547,1547,0,0,0,0,0,0,0,0,0,0
1681546764.69974017,91928214,1545,1545,1548,1547,0,0,0,0,0,0,0,0,0,0
1681546764.79970002,92028174,1545,1544,1548,1548,0,0,0,0,0,0,0,0,0,0
1681546764.90049314,92128967,1545,1545,1548,1548,0,0,0,0,0,0,0,0,0,0
1681546765.00045300,92228927,1546,1545,1548,1548,0,0,0,0,0,0,0,0,0,0
1681546765.10041308,92328887,1545,1545,1548,1547,0,0,0,0,0,0,0,0,0,0
1681546765.20037317,92428847,1544,1545,1547,1546,0,0,0,0,0,0,0,0,0,0
1681546765.30033302,92528807,1545,1546,1547,1547,0,0,0,0,0,0,0,0,0,0
1681546765.40029311,92628767,1545,1545,1545,1545,0,0,0,0,0,0,0,0,0,0
1681546765.50025320,92728727,1545,1545,1544,1545,0,0,0,0,0,0,0,0,0,0
1681546765.60021305,92828687,1545,1545,1544,1544,0,0,0,0,0,0,0,0,0,0
1681546765.70017314,92928647,1545,1545,1544,1544,0,0,0,0,0,0,0,0,0,0
1681546765.80013299,93028607,1544,1544,1543,1543,0,0,0,0,0,0,0,0,0,0
1681546765.90009308,93128567,1545,1545,1543,1543,0,0,0,0,0,0,0,0,0,0
1681546766.00005317,93228527,1544,1544,1543,1543,0,0,0,0,0,0,0,0,0,0
1681546766.10001302,93328487,1545,1544,1543,1543,0,0,0,0,0,0,0,0,0,0
1681546766.19997311,93428447,1544,1544,1543,1543,0,0,0,0,0,0,0,0,0,0
1681546766.29993320,93528407,1543,1544,1543,1542,0,0,0,0,0,0,0,0,0,0
1681546766.39989305,93628367,1543,1544,1543,1543,0,0,0,0,0,0,0,0,0,0
1681546766.49985313,93728327,1543,1543,1543,1543,0,0,0,0,0,0,0,0,0,0
1681546766.59981298,93828287,1544,1544,1544,1544,0,0,0,0,0,0,0,0,0,0
1681546766.69977307,93928247,1544,1544,1544,1545,0,0,0,0,0,0,0,0,0,0
1681546766.79973316,94028207,1544,1544,1545,1545,0,0,0,0,0,0,0,0,0,0
1681546766.89969301,94128167,1543,1543,1544,1544,0,0,0,0,0,0,0,0,0,0
1681546767.00048614,94228960,1544,1544,1544,1544,0,0,0,0,0,0,0,0,0,0
1681546767.10044599,94328920,1544,1543,1544,1544,0,0,0,0,0,0,0,0,0,0
1681546767.20040607,94428880,1543,1543,1544,1543,0,0,0,0,0,0,0,0,0,0
1681546767.30036616,94528840,1544,1544,1544,1544,0,0,0,0,0,0,0,0,0,0
1681546767.40032601,94628800,1545,1544,1544,1544,0,0,0,0,0,0,0,0,0,0
1681546767.50028610,94728760,1545,1545,1544,1545,0,0,0,0,0,0,0,0,0,0
1681546767.60024619,94828720,1544,1544,1544,1544,0,0,0,0,0,0,0,0,0,0
1681546767.70020604,94928680,1545,1544,1544,1545,0,0,0,0,0,0,0,0,0,0
1681546767.80016613,95028640,1544,1545,1544,1544,0,0,0,0,0,0,0,0,0,0
1681546767.90012598,95128600,1544,1544,1544,1544,0,0,0,0,0,0,0,0,0,0
1681546768.00008607,95228560,1544,1544,1543,1543,0,0,0,0,0,0,0,0,0,0
1681546768.10004616,95328520,1544,1544,1543,1544,0,0,0,0,0,0,0,0,0,0
1681546768.20000601,95428480,1543,1544,1543,1544,0,0,0,0,0,0,0,0,0,0
1681546768.29996610,95528440,1544,1543,1543,1543,0,0,0,0,0,0,0,0,0,0
1681546768.39992619,95628400,1543,1544,1544,1543,0,0,0,0,0,0,0,0,0,0
1681546768.49988604,95728360,1545,1545,1545,1545,0,0,0,0,0,0,0,0,0,0
1681546768.59984612,95828320,1545,1545,1545,1544,0,0,0,0,0,0,0,0,0,0
1681546768.69980621,95928280,1545,1544,1545,1545,0,0,0,0,0,0,0,0,0,0
1681546768.79976606,96028240,1544,1543,1544,1543,0,0,0,0,0,0,0,0,0,0
1681546768.89972615,96128200,1545,1544,1545,1544,0,0,0,0,0,0,0,0,0,0
1681546768.99968600,96228160,1544,1545,1544,1545,0,0,0,0,0,0,0,0,0,0
1681546769.10047913,96328953,1544,1544,1544,1545,0,0,0,0,0,0,0,0,0,0
1681546769.20043921,96428913,1544,1544,1544,1544,0,0,0,0,0,0,0,0,0,0
1681546769.30039907,96528873,1544,1544,1545,1544,0,0,0,0,0,0,0,0,0,0
1681546769.40035915,96628833,1544,1545,1544,1545,0,0,0,0,0,0,0,0,0,0
1681546769.50031900,96728793,1544,1544,1544,1545,0,0,0,0,0,0,0,0,0,0
1681546769.60027909,96828753,1544,1544,1544,1544,0,0,0,0,0,0,0,0,0,0
1681546769.70023918,96928713,1544,1544,1544,1544,0,0,0,0,0,0,0,0,0,0
1681546769.80019903,97028673,1544,1544,1544,1544,0,0,0,0,0,0,0,0,0,0
1681546769.90015912,97128633,1543,1543,1544,1543,0,0,0,0,0,0,0,0,0,0
1681546770.00011921,97228593,1544,1544,1544,1544,0,0,0,0,0,0,0,0,0,0
1681546770.10007906,97328553,1544,1544,1544,1544,0,0,0,0,0,0,0,0,0,0
1681546770.20003915,97428513,1544,1544,1544,1544,0,0,0,0,0,0,0,0,0,0
1681546770.29999900,97528473,1544,1544,1543,1544,0,0,0,0,0,0,0,0,0,0
1681546770.39995909,97628433,1544,1545,1544,1545,0,0,0,0,0,0,0,0,0,0
1681546770.49991918,97728393,1545,1544,1544,1545,0,0,0,0,0,0,0,0,0,0
1681546770.59987903,97828353,1545,1545,1545,1544,0,0,0,0,0,0,0,0,0,0
1681546770.69983912,97928313,1545,1544,1544,1545,0,0,0,0,0,0,0,0,0,0
1681546770.79979920,98028273,1544,1544,1544,1544,0,0,0,0,0,0,0,0,0,0
1681546770.89975905,98128233,1544,1544,1544,1544,0,0,0,0,0,0,0,0,0,0
1681546770.99971914,98228193,1544,1544,1545,1544,0,0,0,0,0,0,0,0,0,0
1681546771.10051203,98328986,1544,1544,1545,1545,0,0,0,0,0,0,0,0,0,0
1681546771.20047212,98428946,1545,1544,1544,1545,0,0,0,0,0,0,0,0,0,0
1681546771.30043221,98528906,1544,1543,1544,1544,0,0,0,0,0,0,0,0,0,0
1681546771.40039206,98628866,1544,1544,1544,1544,0,0,0,0,0,0,0,0,0,0
1681546771.50035214,98728826,1546,1546,1545,1546,0,0,0,0,0,0,0,0,0,0
1681546771.60031199,98828786,1545,1545,1545,1544,0,0,0,0,0,0,0,0,0,0
1681546771.70027208,98928746,1544,1544,1544,1544,0,0,0,0,0,0,0,0,0,0
1681546771.80023217,99028706,1544,1544,1544,1544,0,0,0,0,0,0,0,0,0,0
1681546771.90019202,99128666,1545,1544,1544,1544,0,0,0,0,0,0,0,0,0,0
1681546772.00015211,99228626,1545,1545,1545,1545,0,0,0,0,0,0,0,0,0,0
1681546772.10011220,99328586,1544,1544,1544,1544,0,0,0,0,0,0,0,0,0,0
1681546772.20007205,99428546,1545,1545,1545,1545,0,0,0,0,0,0,0,0,0,0
1681546772.30003214,99528506,1545,1544,1544,1544,0,0,0,0,0,0,0,0,0,0
1681546772.39999199,99628466,1545,1545,1545,1545,0,0,0,0,0,0,0,0,0,0
1681546772.49995208,99728426,1544,1543,1544,1544,0,0,0,0,0,0,0,0,0,0
1681546772.59991217,99828386,1544,1545,1545,1544,0,0,0,0,0,0,0,0,0,0
1681546772.69987202,99928346,1543,1544,1543,1544,0,0,0,0,0,0,0,0,0,0
1681546772.79983211,100028306,1544,1545,1544,1545,0,0,0,0,0,0,0,0,0,0
1681546772.89979219,100128266,1544,1544,1544,1544,0,0,0,0,0,0,0,0,0,0
1681546772.99975204,100228226,1544,1543,1544,1543,0,0,0,0,0,0,0,0,0,0
1681546773.09971213,100328186,1393,1391,1442,1392,0,0,0,0,0,0,0,0,0,0
1681546773.20050502,100428979,1267,1264,1367,1265,0,0,0,0,0,0,0,0,0,0
1681546773.30046511,100528939,1223,1220,1344,1221,0,0,0,0,0,0,0,0,0,0
1681546773.40042520,100628899,1203,1202,1334,1201,0,0,0,0,0,0,0,0,0,0
1681546773.50038505,100728859,1162,1160,1314,1160,0,0,0,0,0,0,0,0,0,0
1681546773.60034513,100828819,1193,1192,1192,1150,0,0,0,0,0,0,0,0,0,0
1681546773.70030499,100928779,1178,1177,1084,1150,0,0,0,0,0,0,0,0,0,0
1681546773.80026507,101028739,1178,1177,1083,1150,0,0,0,0,0,0,0,0,0,0
1681546773.90022516,101128699,1178,1177,1084,1150,0,0,0,0,0,0,0,0,0,0
1681546774.00018501,101228659,1179,1164,1091,1150,0,0,0,0,0,0,0,0,0,0
1681546774.10014510,101328619,1178,1168,1089,1150,0,0,0,0,0,0,0,0,0,0
1681546774.20010519,101428579,1178,1171,1088,1150,0,0,0,0,0,0,0,0,0,0
1681546774.30006504,101528539,1177,1171,1088,1150,0,0,0,0,0,0,0,0,0,0
1681546774.40002513,101628499,1177,1171,1088,1150,0,0,0,0,0,0,0,0,0,0
1681546774.49998498,101728459,1177,1170,1088,1150,0,0,0,0,0,0,0,0,0,0
1681546774.59994507,101828419,1177,1170,1089,1150,0,0,0,0,0,0,0,0,0,0
1681546774.69990516,101928379,1177,1169,1089,1150,0,0,0,0,0,0,0,0,0,0
1681546774.79986501,102028339,1175,1175,1086,1150,0,0,0,0,0,0,0,0,0,0
1681546774.89982510,102128299,1176,1174,1087,1150,0,0,0,0,0,0,0,0,0,0
1681546774.99978518,102228259,1176,1174,1087,1150,0,0,0,0,0,0,0,0,0,0
1681546775.09974504,102328219,1176,1174,1087,1150,0,0,0,0,0,0,0,0,0,0
1681546775.19970512,102428179,1175,1174,1087,1150,0,0,0,0,0,0,0,0,0,0
1681546775.30049801,102528972,1000,1000,1000,1000,0,0,0,0,0,0,0,0,0,0
1681546775.40045810,102628932,1000,1000,1000,1000,0,0,0,0,0,0,0,0,0,0
1681546775.50041819,102728892,1000,1000,1000,1000,0,0,0,0,0,0,0,0,0,0
1681546775.60037804,102828852,1000,1000,1000,1000,0,0,0,0,0,0,0,0,0,0
1681546775.70033813,102928812,1000,1000,1000,1000,0,0,0,0,0,0,0,0,0,0
1681546775.80029821,103028772,1000,1000,1000,1000,0,0,0,0,0,0,0,0,0,0
1681546775.90025806,103128732,1000,1000,1000,1000,0,0,0,0,0,0,0,0,0,0
1681546776.00021815,103228692,1000,1000,1000,1000,0,0,0,0,0,0,0,0,0,0
1681546776.10017800,103328652,1000,1000,1000,1000,0,0,0,0,0,0,0,0,0,0
1681546776.20013809,103428612,1000,1000,1000,1000,0,0,0,0,0,0,0,0,0,0
1681546776.30009818,103528572,1000,1000,1000,1000,0,0,0,0,0,0,0,0,0,0
1681546776.40005803,103628532,1000,1000,1000,1000,0,0,0,0,0,0,0,0,0,0
1681546776.50001812,103728492,1000,1000,1000,1000,0,0,0,0,0,0,0,0,0,0
1681546776.59997821,103828452,1000,1000,1000,1000,0,0,0,0,0,0,0,0,0,0
1681546776.69993806,103928412,1000,1000,1000,1000,0,0,0,0,0,0,0,0,0,0
1681546776.79989815,104028372,1000,1000,1000,1000,0,0,0,0,0,0,0,0,0,0
1681546776.89985800,104128332,1000,1000,1000,1000,0,0,0,0,0,0,0,0,0,0
1681546776.99981809,104228292,1000,1000,1000,1000,0,0,0,0,0,0,0,0,0,0
1681546777.09977818,104328252,1000,1000,1000,1000,0,0,0,0,0,0,0,0,0,0
1681546777.19973803,104428212,1000,1000,1000,1000,0,0,0,0,0,0,0,0,0,0
1681546777.29969811,104528172,1000,1000,1000,1000,0,0,0,0,0,0,0,0,0,0
1681546777.40049100,104628965,1000,1000,1000,1000,0,0,0,0,0,0,0,0,0,0
1681546777.50045109,104728925,1000,1000,1000,1000,0,0,0,0,0,0,0,0,0,0
1681546777.60041118,104828885,1000,1000,1000,1000,0,0,0,0,0,0,0,0,0,0
1681546777.70037103,104928845,1000,1000,1000,1000,0,0,0,0,0,0,0,0,0,0
1681546777.80033112,105028805,1000,1000,1000,1000,0,0,0,0,0,0,0,0,0,0
1681546777.90029120,105128765,1000,1000,1000,1000,0,0,0,0,0,0,0,0,0,0
1681546778.00025105,105228725,1000,1000,1000,1000,0,0,0,0,0,0,0,0,0,0
1681546778.10021114,105328685,1000,1000,1000,1000,0,0,0,0,0,0,0,0,0,0
1681546778.20017099,105428645,1000,1000,1000,1000,0,0,0,0,0,0,0,0,0,0
1681546778.30013108,105528605,1000,1000,1000,1000,0,0,0,0,0,0,0,0,0,0
1681546778.40009117,105628565,1000,1000,1000,1000,0,0,0,0,0,0,0,0,0,0
1681546778.50005102,105728525,1000,1000,1000,1000,0,0,0,0,0,0,0,0,0,0
1681546778.60001111,105828485,1000,1000,1000,1000,0,0,0,0,0,0,0,0,0,0
1681546778.69997120,105928445,1000,1000,1000,1000,0,0,0,0,0,0,0,0,0,0
1681546778.79993105,106028405,1000,1000,1000,1000,0,0,0,0,0,0,0,0,0,0
1681546778.89989114,106128365,1000,1000,1000,1000,0,0,0,0,0,0,0,0,0,0
1681546778.99985099,106228325,1000,1000,1000,1000,0,0,0,0,0,0,0,0,0,0
1681546779.09981108,106328285,1000,1000,1000,1000,0,0,0,0,0,0,0,0,0,0
1681546779.19977117,106428245,1000,1000,1000,1000,0,0,0,0,0,0,0,0,0,0
1681546779.29973102,106528205,1000,1000,1000,1000,0,0,0,0,0,0,0,0,0,0
1681546779.39969110,106628165,1000,1000,1000,1000,0,0,0,0,0,0,0,0,0,0
1681546779.50048399,106728958,1000,1000,1000,1000,0,0,0,0,0,0,0,0,0,0
1681546779.60044408,106828918,1000,1000,1000,1000,0,0,0,0,0,0,0,0,0,0
1681546779.70040417,106928878,1000,1000,1000,1000,0,0,0,0,0,0,0,0,0,0
1681546779.80036402,107028838,1000,1000,1000,1000,0,0,0,0,0,0,0,0,0,0
1681546779.90032411,107128798,1000,1000,1000,1000,0,0,0,0,0,0,0,0,0,0
1681546780.00028419,107228758,1000,1000,1000,1000,0,0,0,0,0,0,0,0,0,0
1681546780.10024405,107328718,1000,1000,1000,1000,0,0,0,0,0,0,0,0,0,0
1681546780.20020413,107428678,1000,1000,1000,1000,0,0,0,0,0,0,0,0,0,0
1681546780.30016398,107528638,1000,1000,1000,1000,0,0,0,0,0,0,0,0,0,0
1681546780.40012407,107628598,1000,1000,1000,1000,0,0,0,0,0,0,0,0,0,0
1681546780.50008416,107728558,1000,1000,1000,1000,0,0,0,0,0,0,0,0,0,0
1681546780.60004401,107828518,1000,1000,1000,1000,0,0,0,0,0,0,0,0,0,0
1681546780.70000410,107928478,1000,1000,1000,1000,0,0,0,0,0,0,0,0,0,0
1681546780.79996419,108028438,1000,1000,1000,1000,0,0,0,0,0,0,0,0,0,0
1681546780.89992404,108128398,1000,1000,1000,1000,0,0,0,0,0,0,0,0,0,0
1681546780.99988413,108228358,1000,1000,1000,1000,0,0,0,0,0,0,0,0,0,0
1681546781.09984422,108328318,1000,1000,1000,1000,0,0,0,0,0,0,0,0,0,0
1681546781.19980407,108428278,1000,1000,1000,1000,0,0,0,0,0,0,0,0,0,0
1681546781.29976416,108528238,1000,1000,1000,1000,0,0,0,0,0,0,0,0,0,0
1681546781.39972401,108628198,1000,1000,1000,1000,0,0,0,0,0,0,0,0,0,0
1681546781.49968410,108728158,1000,1000,1000,1000,0,0,0,0,0,0,0,0,0,0
1681546781.60047698,108828951,1000,1000,1000,1000,0,0,0,0,0,0,0,0,0,0
1681546781.70043707,108928911,1000,1000,1000,1000,0,0,0,0,0,0,0,0,0,0
1681546781.80039716,109028871,1000,1000,1000,1000,0,0,0,0,0,0,0,0,0,0
1681546781.90035701,109128831,1000,1000,1000,1000,0,0,0,0,0,0,0,0,0,0
1681546782.00031710,109228791,1000,1000,1000,1000,0,0,0,0,0,0,0,0,0,0
1681546782.10027719,109328751,1000,1000,1000,1000,0,0,0,0,0,0,0,0,0,0
1681546782.20023704,109428711,1000,1000,1000,1000,0,0,0,0,0,0,0,0,0,0
1681546782.30019712,109528671,1000,1000,1000,1000,0,0,0,0,0,0,0,0,0,0
1681546782.40015721,109628631,1000,1000,1000,1000,0,0,0,0,0,0,0,0,0,0
1681546782.50011706,109728591,1000,1000,1000,1000,0,0,0,0,0,0,0,0,0,0
1681546782.60007715,109828551,1000,1000,1000,1000,0,0,0,0,0,0,0,0,0,0
1681546782.70003700,109928511,1000,1000,1000,1000,0,0,0,0,0,0,0,0,0,0
1681546782.79999709,110028471,1000,1000,1000,1000,0,0,0,0,0,0,0,0,0,0
1681546782.89995718,110128431,1000,1000,1000,1000,0,0,0,0,0,0,0,0,0,0
1681546782.99991703,110228391,1000,1000,1000,1000,0,0,0,0,0,0,0,0,0,0
1681546783.09987712,110328351,1000,1000,1000,1000,0,0,0,0,0,0,0,0,0,0
1681546783.19983721,110428311,1000,1000,1000,1000,0,0,0,0,0,0,0,0,0,0
1681546783.29979706,110528271,1000,1000,1000,1000,0,0,0,0,0,0,0,0,0,0
1681546783.39975715,110628231,1000,1000,1000,1000,0,0,0,0,0,0,0,0,0,0
1681546783.49971700,110728191,1000,1000,1000,1000,0,0,0,0,0,0,0,0,0,0
1681546783.60051012,110828984,1000,1000,1000,1000,0,0,0,0,0,0,0,0,0,0
1681546783.70047021,110928944,1000,1000,1000,1000,0,0,0,0,0,0,0,0,0,0
1681546783.80043006,111028904,1000,1000,1000,1000,0,0,0,0,0,0,0,0,0,0
1681546783.90039015,111128864,1000,1000,1000,1000,0,0,0,0,0,0,0,0,0,0
1681546784.00035000,111228824,1000,1000,1000,1000,0,0,0,0,0,0,0,0,0,0
1681546784.10031009,111328784,1000,1000,1000,1000,0,0,0,0,0,0,0,0,0,0
1681546784.20027018,111428744,1000,1000,1000,1000,0,0,0,0,0,0,0,0,0,0
1681546784.30023003,111528704,1000,1000,1000,1000,0,0,0,0,0,0,0,0,0,0
1681546784.40019011,111628664,1000,1000,1000,1000,0,0,0,0,0,0,0,0,0,0
1681546784.50015020,111728624,1000,1000,1000,1000,0,0,0,0,0,0,0,0,0,0
1681546784.60011005,111828584,1000,1000,1000,1000,0,0,0,0,0,0,0,0,0,0
1681546784.70007014,111928544,1000,1000,1000,1000,0,0,0,0,0,0,0,0,0,0
1681546784.80002999,112028504,1000,1000,1000,1000,0,0,0,0,0,0,0,0,0,0
1681546784.89999008,112128464,1000,1000,1000,1000,0,0,0,0,0,0,0,0,0,0
1681546784.99995017,112228424,1000,1000,1000,1000,0,0,0,0,0,0,0,0,0,0
1681546785.09991002,112328384,1000,1000,1000,1000,0,0,0,0,0,0,0,0,0,0
1681546785.19987011,112428344,1000,1000,1000,1000,0,0,0,0,0,0,0,0,0,0
1681546785.29983020,112528304,1000,1000,1000,1000,0,0,0,0,0,0,0,0,0,0
1681546785.39979005,112628264,1000,1000,1000,1000,0,0,0,0,0,0,0,0,0,0
1681546785.49975014,112728224,1000,1000,1000,1000,0,0,0,0,0,0,0,0,0,0
1681546785.59970999,112828184,1000,1000,1000,1000,0,0,0,0,0,0,0,0,0,0
1681546785.70050311,112928977,1000,1000,1000,1000,0,0,0,0,0,0,0,0,0,0
1681546785.80046320,113028937,1000,1000,1000,1000,0,0,0,0,0,0,0,0,0,0
1681546785.90042305,113128897,1000,1000,1000,1000,0,0,0,0,0,0,0,0,0,0
1681546786.00038314,113228857,1000,1000,1000,1000,0,0,0,0,0,0,0,0,0,0
1681546786.10034299,113328817,1000,1000,1000,1000,0,0,0,0,0,0,0,0,0,0
1681546786.20030308,113428777,1000,1000,1000,1000,0,0,0,0,0,0,0,0,0,0
1681546786.30026317,113528737,1000,1000,1000,1000,0,0,0,0,0,0,0,0,0,0
1681546786.40022302,113628697,1000,1000,1000,1000,0,0,0,0,0,0,0,0,0,0
1681546786.50018311,113728657,1000,1000,1000,1000,0,0,0,0,0,0,0,0,0,0
1681546786.60014319,113828617,1000,1000,1000,1000,0,0,0,0,0,0,0,0,0,0
1681546786.70010304,113928577,1000,1000,1000,1000,0,0,0,0,0,0,0,0,0,0
1681546786.80006313,114028537,1000,1000,1000,1000,0,0,0,0,0,0,0,0,0,0
1681546786.90002298,114128497,1000,1000,1000,1000,0,0,0,0,0,0,0,0,0,0
1681546786.99998307,114228457,1000,1000,1000,1000,0,0,0,0,0,0,0,0,0,0
1681546787.09994316,114328417,1000,1000,1000,1000,0,0,0,0,0,0,0,0,0,0
1681546787.19990301,114428377,1000,1000,1000,1000,0,0,0,0,0,0,0,0,0,0
1681546787.29986310,114528337,1000,1000,1000,1000,0,0,0,0,0,0,0,0,0,0
1681546787.39982319,114628297,1000,1000,1000,1000,0,0,0,0,0,0,0,0,0,0
1681546787.49978304,114728257,1000,1000,1000,1000,0,0,0,0,0,0,0,0,0,0
1681546787.59974313,114828217,1000,1000,1000,1000,0,0,0,0,0,0,0,0,0,0
1681546787.69970322,114928177,1000,1000,1000,1000,0,0,0,0,0,0,0,0,0,0
1681546787.80049610,115028970,1000,1000,1000,1000,0,0,0,0,0,0,0,0,0,0
1681546787.90045619,115128930,1000,1000,1000,1000,0,0,0,0,0,0,0,0,0,0
1681546788.00041604,115228890,1000,1000,1000,1000,0,0,0,0,0,0,0,0,0,0
1681546788.10037613,115328850,1000,1000,1000,1000,0,0,0,0,0,0,0,0,0,0
1681546788.20033598,115428810,1000,1000,1000,1000,0,0,0,0,0,0,0,0,0,0
1681546788.30029607,115528770,1000,1000,1000,1000,0,0,0,0,0,0,0,0,0,0
1681546788.40025616,115628730,1000,1000,1000,1000,0,0,0,0,0,0,0,0,0,0
1681546788.50021601,115728690,1000,1000,1000,1000,0,0,0,0,0,0,0,0,0,0
1681546788.60017610,115828650,1000,1000,1000,1000,0,0,0,0,0,0,0,0,0,0
1681546788.70013618,115928610,1000,1000,1000,1000,0,0,0,0,0,0,0,0,0,0
1681546788.80009604,116028570,1000,1000,1000,1000,0,0,0,0,0,0,0,0,0,0
1681546788.90005612,116128530,1000,1000,1000,1000,0,0,0,0,0,0,0,0,0,0
1681546789.00001621,116228490,1000,1000,1000,1000,0,0,0,0,0,0,0,0,0,0
1681546789.09997606,116328450,1000,1000,1000,1000,0,0,0,0,0,0,0,0,0,0
1681546789.19993615,116428410,1000,1000,1000,1000,0,0,0,0,0,0,0,0,0,0
1681546789.29989600,116528370,1000,1000,1000,1000,0,0,0,0,0,0,0,0,0,0
1681546789.39985609,116628330,1000,1000,1000,1000,0,0,0,0,0,0,0,0,0,0
1681546789.49981618,116728290,1000,1000,1000,1000,0,0,0,0,0,0,0,0,0,0
1681546789.59977603,116828250,1000,1000,1000,1000,0,0,0,0,0,0,0,0,0,0
1681546789.69973612,116928210,1000,1000,1000,1000,0,0,0,0,0,0,0,0,0,0
1681546789.79969621,117028170,1000,1000,1000,1000,0,0,0,0,0,0,0,0,0,0
1681546789.90048909,117128963,1000,1000,1000,1000,0,0,0,0,0,0,0,0,0,0
1681546790.00044918,117228923,1000,1000,1000,1000,0,0,0,0,0,0,0,0,0,0
1681546790.10040903,117328883,1000,1000,1000,1000,0,0,0,0,0,0,0,0,0,0
1681546790.20036912,117428843,1000,1000,1000,1000,0,0,0,0,0,0,0,0,0,0
