TimeUS,M1,M2,M3,M4,TimeUS,C1,C2,C3,C4
47550972,1000,1000,1000,1000,47628441,1000,1000,1000,1000
47553471,1000,1000,1000,1000,47728401,1000,1000,1000,1000
47555970,1000,1000,1000,1000,47828361,1000,1000,1000,1000
47558469,1000,1000,1000,1000,47928321,1000,1000,1000,1000
47560968,1000,1000,1000,1000,48028281,1000,1000,1000,1000
47563467,1000,1000,1000,1000,48128241,1000,1000,1000,1000
47565966,1000,1000,1000,1000,48228201,1000,1000,1000,1000
47568465,1000,1000,1000,1000,48328161,1000,1000,1000,1000
47570964,1000,1000,1000,1000,48428954,1000,1000,1000,1000
47573463,1000,1000,1000,1000,48528914,1000,1000,1000,1000
47575962,1000,1000,1000,1000,48628874,1000,1000,1000,1000
47578461,1000,1000,1000,1000,48728834,1000,1000,1000,1000
47580960,1000,1000,1000,1000,48828794,1000,1000,1000,1000
47583459,1000,1000,1000,1000,48928754,1000,1000,1000,1000
47585958,1000,1000,1000,1000,49028714,1000,1000,1000,1000
47588457,1000,1000,1000,1000,49128674,1000,1000,1000,1000
47590956,1000,1000,1000,1000,49228634,1000,1000,1000,1000
47593455,1000,1000,1000,1000,49328594,1000,1000,1000,1000
47595954,1000,1000,1000,1000,49428554,1000,1000,1000,1000
47598453,1000,1000,1000,1000,49528514,1000,1000,1000,1000
47600952,1000,1000,1000,1000,49628474,1023,1023,1023,1023
47603451,1000,1000,1000,1000,49728434,1053,1053,1053,1053
47605950,1000,1000,1000,1000,49828394,1083,1083,1083,1083
47608449,1000,1000,1000,1000,49928354,1113,1113,1113,1113
47610948,1000,1000,1000,1000,50028314,1143,1143,1143,1143
47613447,1000,1000,1000,1000,50128274,1351,1346,1346,1352
47615946,1000,1000,1000,1000,50228234,1542,1537,1538,1542
47618445,1000,1000,1000,1000,50328194,1695,1691,1691,1695
47620944,1000,1000,1000,1000,50428154,1827,1822,1823,1827
47623443,1000,1000,1000,1000,50528947,1881,1876,1877,1881
47625942,1000,1000,1000,1000,50628907,1837,1835,1836,1837
47628441,1000,1000,1000,1000,50728867,1710,1710,1710,1710
47630940,1000,1000,1000,1000,50828827,1637,1639,1639,1637
47633439,1000,1000,1000,1000,50928787,1628,1621,1621,1628
47635938,1000,1000,1000,1000,51028747,1629,1631,1625,1635
47638437,1000,1000,1000,1000,51128707,1634,1636,1630,1640
47640936,1000,1000,1000,1000,51228667,1632,1634,1632,1634
47643435,1000,1000,1000,1000,51328627,1627,1628,1629,1626
47645934,1000,1000,1000,1000,51428587,1622,1622,1626,1618
47648433,1000,1000,1000,1000,51528547,1621,1619,1623,1616
47650932,1000,1000,1000,1000,51628507,1619,1618,1621,1616
47653431,1000,1000,1000,1000,51728467,1620,1619,1620,1618
47655930,1000,1000,1000,1000,51828427,1598,1598,1602,1595
47658429,1000,1000,1000,1000,51928387,1580,1580,1587,1573
47660928,1000,1000,1000,1000,52028347,1567,1568,1570,1565
47663427,1000,1000,1000,1000,52128307,1557,1558,1556,1560
47665926,1000,1000,1000,1000,52228267,1548,1549,1543,1554
47668425,1000,1000,1000,1000,52328227,1542,1541,1532,1551
47670924,1000,1000,1000,1000,52428187,1536,1535,1528,1542
47673423,1000,1000,1000,1000,52528980,1530,1530,1526,1534
47675922,1000,1000,1000,1000,52628940,1527,1527,1526,1527
47678421,1000,1000,1000,1000,52728900,1527,1526,1528,1525
47680920,1000,1000,1000,1000,52828860,1529,1529,1532,1526
47683419,1000,1000,1000,1000,52928820,1531,1531,1534,1529
47685918,1000,1000,1000,1000,53028780,1535,1535,1537,1533
47688417,1000,1000,1000,1000,53128740,1539,1540,1542,1538
47690916,1000,1000,1000,1000,53228700,1542,1542,1544,1541
47693415,1000,1000,1000,1000,53328660,1545,1545,1545,1545
47695914,1000,1000,1000,1000,53428620,1547,1547,1547,1548
47698413,1000,1000,1000,1000,53528580,1551,1551,1550,1552
47700912,1000,1000,1000,1000,53628540,1554,1554,1552,1555
47703411,1000,1000,1000,1000,53728500,1555,1555,1557,1559
47705910,1000,1000,1000,1000,53828460,1555,1556,1560,1561
47708409,1000,1000,1000,1000,53928420,1557,1558,1562,1563
47710908,1000,1000,1000,1000,54028380,1559,1560,1564,1564
47713407,1000,1000,1000,1000,54128340,1561,1561,1565,1564
47715906,1000,1000,1000,1000,54228300,1564,1564,1566,1565
47718405,1000,1000,1000,1000,54328260,1566,1566,1566,1566
47720904,1000,1000,1000,1000,54428220,1568,1568,1567,1567
47723403,1000,1000,1000,1000,54528180,1570,1570,1567,1568
47725902,1000,1000,1000,1000,54628973,1571,1571,1567,1567
47728401,1000,1000,1000,1000,54728933,1572,1572,1568,1569
47730900,1000,1000,1000,1000,54828893,1573,1573,1570,1570
47733399,1000,1000,1000,1000,54928853,1574,1573,1570,1571
47735898,1000,1000,1000,1000,55028813,1574,1574,1572,1572
47738397,1000,1000,1000,1000,55128773,1575,1575,1574,1573
47740896,1000,1000,1000,1000,55228733,1575,1575,1575,1573
47743395,1000,1000,1000,1000,55328693,1574,1575,1575,1574
47745894,1000,1000,1000,1000,55428653,1576,1576,1577,1576
47748393,1000,1000,1000,1000,55528613,1575,1575,1576,1576
47750892,1000,1000,1000,1000,55628573,1575,1575,1576,1576
47753391,1000,1000,1000,1000,55728533,1575,1576,1577,1577
47755890,1000,1000,1000,1000,55828493,1575,1575,1576,1576
47758389,1000,1000,1000,1000,55928453,1577,1576,1577,1577
47760888,1000,1000,1000,1000,56028413,1576,1575,1576,1576
47763387,1000,1000,1000,1000,56128373,1577,1577,1577,1577
47765886,1000,1000,1000,1000,56228333,1577,1577,1577,1577
47768385,1000,1000,1000,1000,56328293,1578,1578,1578,1577
47770884,1000,1000,1000,1000,56428253,1578,1578,1577,1577
47773383,1000,1000,1000,1000,56528213,1578,1578,1578,1578
47775882,1000,1000,1000,1000,56628173,1578,1578,1578,1578
47778381,1000,1000,1000,1000,56728966,1579,1578,1578,1578
47780880,1000,1000,1000,1000,56828926,1578,1578,1578,1577
47783379,1000,1000,1000,1000,56928886,1578,1577,1577,1578
47785878,1000,1000,1000,1000,57028846,1579,1578,1578,1579
47788377,1000,1000,1000,1000,57128806,1579,1579,1579,1579
47790876,1000,1000,1000,1000,57228766,1578,1579,1579,1578
47793375,1000,1000,1000,1000,57328726,1579,1579,1579,1579
47795874,1000,1000,1000,1000,57428686,1579,1579,1579,1579
47798373,1000,1000,1000,1000,57528646,1579,1579,1579,1579
47800872,1000,1000,1000,1000,57628606,1579,1579,1579,1579
47803371,1000,1000,1000,1000,57728566,1578,1578,1578,1579
47805870,1000,1000,1000,1000,57828526,1579,1579,1579,1580
47808369,1000,1000,1000,1000,57928486,1580,1580,1580,1580
47810868,1000,1000,1000,1000,58028446,1580,1580,1580,1580
47813367,1000,1000,1000,1000,58128406,1580,1581,1580,1580
47815866,1000,1000,1000,1000,58228366,1579,1579,1579,1578
47818365,1000,1000,1000,1000,58328326,1580,1579,1579,1579
47820864,1000,1000,1000,1000,58428286,1580,1580,1580,1580
47823363,1000,1000,1000,1000,58528246,1580,1580,1580,1580
47825862,1000,1000,1000,1000,58628206,1579,1579,1579,1579
47828361,1000,1000,1000,1000,58728166,1579,1578,1578,1579
47830860,1000,1000,1000,1000,58828959,1580,1579,1579,1580
47833359,1000,1000,1000,1000,58928919,1580,1580,1580,1580
47835858,1000,1000,1000,1000,59028879,1581,1581,1581,1581
47838357,1000,1000,1000,1000,59128839,1580,1580,1580,1580
47840856,1000,1000,1000,1000,59228799,1581,1581,1581,1581
47843355,1000,1000,1000,1000,59328759,1581,1581,1582,1582
47845854,1000,1000,1000,1000,59428719,1580,1581,1581,1581
47848353,1000,1000,1000,1000,59528679,1581,1582,1582,1582
47850852,1000,1000,1000,1000,59628639,1581,1582,1582,1582
47853351,1000,1000,1000,1000,59728599,1580,1581,1581,1581
47855850,1000,1000,1000,1000,59828559,1581,1580,1581,1581
47858349,1000,1000,1000,1000,59928519,1581,1581,1587,1574
47860848,1000,1000,1000,1000,60028479,1581,1582,1586,1573
47863347,1000,1000,1000,1000,60128439,1579,1582,1578,1573
47865846,1000,1000,1000,1000,60228399,1577,1580,1569,1572
47868345,1000,1000,1000,1000,60328359,1576,1579,1561,1568
47870844,1000,1000,1000,1000,60428319,1577,1578,1557,1563
47873343,1000,1000,1000,1000,60528279,1578,1578,1555,1559
47875842,1000,1000,1000,1000,60628239,1578,1577,1554,1556
47878341,1000,1000,1000,1000,60728199,1578,1577,1555,1554
47880840,1000,1000,1000,1000,60828159,1578,1577,1556,1554
47883339,1000,1000,1000,1000,60928952,1577,1577,1555,1554
47885838,1000,1000,1000,1000,61028912,1575,1576,1555,1554
47888337,1000,1000,1000,1000,61128872,1574,1576,1554,1553
47890836,1000,1000,1000,1000,61228832,1574,1575,1553,1553
47893335,1000,1000,1000,1000,61328792,1575,1577,1552,1552
47895834,1000,1000,1000,1000,61428752,1576,1578,1550,1551
47898333,1000,1000,1000,1000,61528712,1578,1579,1548,1548
47900832,1000,1000,1000,1000,61628672,1579,1580,1545,1544
47903331,1000,1000,1000,1000,61728632,1583,1583,1543,1543
47905830,1000,1000,1000,1000,61828592,1586,1587,1540,1540
47908329,1000,1000,1000,1000,61928552,1590,1590,1538,1538
47910828,1000,1000,1000,1000,62028512,1592,1592,1535,1535
47913327,1000,1000,1000,1000,62128472,1594,1594,1534,1535
47915826,1000,1000,1000,1000,62228432,1595,1595,1535,1536
47918325,1000,1000,1000,1000,62328392,1594,1594,1535,1537
47920824,1000,1000,1000,1000,62428352,1592,1592,1539,1541
47923323,1000,1000,1000,1000,62528312,1589,1588,1543,1547
47925822,1000,1000,1000,1000,62628272,1584,1582,1551,1555
47928321,1000,1000,1000,1000,62728232,1576,1573,1561,1563
47930820,1000,1000,1000,1000,62828192,1566,1563,1572,1573
47933319,1000,1000,1000,1000,62928985,1555,1552,1584,1585
47935818,1000,1000,1000,1000,63028945,1545,1542,1595,1595
47938317,1000,1000,1000,1000,63128905,1536,1535,1605,1605
47940816,1000,1000,1000,1000,63228865,1530,1530,1611,1610
47943315,1000,1000,1000,1000,63328825,1528,1530,1614,1613
47945814,1000,1000,1000,1000,63428785,1531,1533,1614,1613
47948313,1000,1000,1000,1000,63528745,1536,1538,1610,1610
47950812,1000,1000,1000,1000,63628705,1543,1545,1604,1604
47953311,1000,1000,1000,1000,63728665,1551,1552,1596,1597
47955810,1000,1000,1000,1000,63828625,1559,1560,1589,1589
47958309,1000,1000,1000,1000,63928585,1569,1569,1583,1582
47960808,1000,1000,1000,1000,64028545,1577,1576,1577,1576
47963307,1000,1000,1000,1000,64128505,1581,1580,1571,1570
47965806,1000,1000,1000,1000,64228465,1585,1584,1568,1567
47968305,1000,1000,1000,1000,64328425,1587,1585,1566,1566
47970804,1000,1000,1000,1000,64428385,1588,1586,1566,1566
47973303,1000,1000,1000,1000,64528345,1587,1585,1568,1568
47975802,1000,1000,1000,1000,64628305,1585,1584,1571,1571
47978301,1000,1000,1000,1000,64728265,1582,1582,1574,1575
47980800,1000,1000,1000,1000,64828225,1580,1580,1577,1578
47983299,1000,1000,1000,1000,64928185,1576,1577,1579,1579
47985798,1000,1000,1000,1000,65028978,1575,1576,1583,1582
47988297,1000,1000,1000,1000,65128938,1573,1574,1583,1583
47990796,1000,1000,1000,1000,65228898,1573,1574,1585,1585
47993295,1000,1000,1000,1000,65328858,1573,1573,1584,1584
47995794,1000,1000,1000,1000,65428818,1573,1574,1583,1583
47998293,1000,1000,1000,1000,65528778,1574,1575,1582,1582
48000792,1000,1000,1000,1000,65628738,1576,1576,1581,1582
48003291,1000,1000,1000,1000,65728698,1606,1605,1484,1531
48005790,1000,1000,1000,1000,65828658,1626,1627,1562,1534
48008289,1000,1000,1000,1000,65928618,1649,1652,1631,1567
48010788,1000,1000,1000,1000,66028578,1662,1668,1676,1605
48013287,1000,1000,1000,1000,66128538,1654,1663,1688,1633
48015786,1000,1000,1000,1000,66228498,1627,1635,1670,1644
48018285,1000,1000,1000,1000,66328458,1598,1600,1639,1646
48020784,1000,1000,1000,1000,66428418,1572,1567,1609,1640
48023283,1000,1000,1000,1000,66528378,1560,1549,1593,1630
48025782,1000,1000,1000,1000,66628338,1555,1541,1588,1618
48028281,1000,1000,1000,1000,66728298,1553,1541,1588,1604
48030780,1000,1000,1000,1000,66828258,1555,1547,1590,1592
48033279,1000,1000,1000,1000,66928218,1558,1557,1590,1583
48035778,1000,1000,1000,1000,67028178,1561,1567,1587,1576
48038277,1000,1000,1000,1000,67128971,1566,1575,1581,1574
48040776,1000,1000,1000,1000,67228931,1569,1578,1574,1573
48043275,1000,1000,1000,1000,67328891,1572,1578,1567,1571
48045774,1000,1000,1000,1000,67428851,1574,1576,1563,1568
48048273,1000,1000,1000,1000,67528811,1576,1575,1560,1566
48050772,1000,1000,1000,1000,67628771,1577,1575,1560,1564
48053271,1000,1000,1000,1000,67728731,1578,1575,1561,1562
48055770,1000,1000,1000,1000,67828691,1579,1577,1562,1561
48058269,1000,1000,1000,1000,67928651,1580,1580,1570,1557
48060768,1000,1000,1000,1000,68028611,1579,1584,1572,1554
48063267,1000,1000,1000,1000,68128571,1578,1585,1567,1558
48065766,1000,1000,1000,1000,68228531,1576,1582,1560,1561
48068265,1000,1000,1000,1000,68328491,1574,1578,1554,1561
48070764,1000,1000,1000,1000,68428451,1574,1575,1550,1559
48073263,1000,1000,1000,1000,68528411,1575,1572,1549,1556
48075762,1000,1000,1000,1000,68628371,1576,1572,1549,1553
48078261,1000,1000,1000,1000,68728331,1576,1573,1552,1551
48080760,1000,1000,1000,1000,68828291,1576,1575,1554,1551
48083259,1000,1000,1000,1000,68928251,1574,1575,1554,1550
48085758,1000,1000,1000,1000,69028211,1575,1577,1555,1552
48088257,1000,1000,1000,1000,69128171,1574,1576,1554,1552
48090756,1000,1000,1000,1000,69228964,1574,1576,1552,1552
48093255,1000,1000,1000,1000,69328924,1575,1576,1550,1551
48095754,1000,1000,1000,1000,69428884,1576,1577,1549,1550
48098253,1000,1000,1000,1000,69528844,1579,1580,1548,1549
48100752,1000,1000,1000,1000,69628804,1581,1581,1546,1547
48103251,1000,1000,1000,1000,69728764,1584,1584,1545,1546
48105750,1000,1000,1000,1000,69828724,1585,1585,1544,1544
48108249,1000,1000,1000,1000,69928684,1587,1586,1544,1543
48110748,1000,1000,1000,1000,70028644,1586,1586,1542,1543
48113247,1000,1000,1000,1000,70128604,1588,1587,1544,1545
48115746,1000,1000,1000,1000,70228564,1587,1587,1545,1547
48118245,1000,1000,1000,1000,70328524,1585,1585,1546,1549
48120744,1000,1000,1000,1000,70428484,1583,1583,1550,1553
48123243,1000,1000,1000,1000,70528444,1580,1578,1556,1558
48125742,1000,1000,1000,1000,70628404,1575,1573,1563,1565
48128241,1000,1000,1000,1000,70728364,1568,1565,1571,1572
48130740,1000,1000,1000,1000,70828324,1562,1559,1580,1580
48133239,1000,1000,1000,1000,70928284,1557,1554,1588,1587
48135738,1000,1000,1000,1000,71028244,1553,1552,1595,1593
48138237,1000,1000,1000,1000,71128204,1549,1549,1599,1597
48140736,1000,1000,1000,1000,71228164,1548,1549,1601,1599
48143235,1000,1000,1000,1000,71328957,1549,1549,1601,1600
48145734,1000,1000,1000,1000,71428917,1550,1551,1600,1600
48148233,1000,1000,1000,1000,71528877,1553,1553,1598,1599
48150732,1000,1000,1000,1000,71628837,1555,1556,1596,1596
48153231,1000,1000,1000,1000,71728797,1559,1559,1594,1594
48155730,1000,1000,1000,1000,71828757,1561,1562,1591,1590
48158229,1000,1000,1000,1000,71928717,1565,1565,1587,1587
48160728,1000,1000,1000,1000,72028677,1568,1568,1584,1584
48163227,1000,1000,1000,1000,72128637,1572,1571,1581,1580
48165726,1000,1000,1000,1000,72228597,1574,1574,1577,1578
48168225,1000,1000,1000,1000,72328557,1576,1576,1574,1575
48170724,1000,1000,1000,1000,72428517,1579,1579,1572,1572
48173223,1000,1000,1000,1000,72528477,1582,1581,1571,1571
48175722,1000,1000,1000,1000,72628437,1582,1581,1569,1569
48178221,1000,1000,1000,1000,72728397,1583,1582,1569,1570
48180720,1000,1000,1000,1000,72828357,1581,1580,1569,1569
48183219,1000,1000,1000,1000,72928317,1580,1580,1571,1571
48185718,1000,1000,1000,1000,73028277,1579,1579,1573,1573
48188217,1000,1000,1000,1000,73128237,1578,1579,1576,1576
48190716,1000,1000,1000,1000,73228197,1576,1576,1577,1577
48193215,1000,1000,1000,1000,73328157,1576,1576,1580,1579
48195714,1000,1000,1000,1000,73428950,1576,1576,1582,1581
48198213,1000,1000,1000,1000,73528910,1575,1575,1582,1582
48200712,1000,1000,1000,1000,73628870,1575,1576,1583,1583
48203211,1000,1000,1000,1000,73728830,1575,1576,1583,1582
48205710,1000,1000,1000,1000,73828790,1577,1577,1583,1583
48208209,1000,1000,1000,1000,73928750,1577,1578,1582,1582
48210708,1000,1000,1000,1000,74028710,1578,1578,1582,1582
48213207,1000,1000,1000,1000,74128670,1579,1579,1581,1580
48215706,1000,1000,1000,1000,74228630,1579,1579,1580,1579
48218205,1000,1000,1000,1000,74328590,1579,1579,1578,1578
48220704,1000,1000,1000,1000,74428550,1580,1580,1578,1579
48223203,1000,1000,1000,1000,74528510,1580,1580,1577,1578
48225702,1000,1000,1000,1000,74628470,1581,1581,1578,1578
48228201,1000,1000,1000,1000,74728430,1581,1581,1578,1578
48230700,1000,1000,1000,1000,74828390,1582,1582,1579,1579
48233199,1000,1000,1000,1000,74928350,1581,1581,1579,1579
48235698,1000,1000,1000,1000,75028310,1580,1580,1579,1579
48238197,1000,1000,1000,1000,75128270,1581,1581,1581,1580
48240696,1000,1000,1000,1000,75228230,1581,1581,1581,1581
48243195,1000,1000,1000,1000,75328190,1580,1580,1582,1581
48245694,1000,1000,1000,1000,75428983,1581,1581,1582,1582
48248193,1000,1000,1000,1000,75528943,1581,1581,1582,1582
48250692,1000,1000,1000,1000,75628903,1581,1582,1583,1583
48253191,1000,1000,1000,1000,75728863,1581,1581,1582,1582
48255690,1000,1000,1000,1000,75828823,1580,1580,1581,1581
48258189,1000,1000,1000,1000,75928783,1580,1580,1581,1581
48260688,1000,1000,1000,1000,76028743,1581,1580,1581,1581
48263187,1000,1000,1000,1000,76128703,1580,1580,1580,1580
48265686,1000,1000,1000,1000,76228663,1580,1580,1583,1576
48268185,1000,1000,1000,1000,76328623,1580,1582,1586,1571
48270684,1000,1000,1000,1000,76428583,1580,1584,1582,1573
48273183,1000,1000,1000,1000,76528543,1577,1581,1573,1572
48275682,1000,1000,1000,1000,76628503,1576,1579,1565,1571
48278181,1000,1000,1000,1000,76728463,1577,1578,1559,1567
48280680,1000,1000,1000,1000,76828423,1578,1577,1556,1562
48283179,1000,1000,1000,1000,76928383,1580,1577,1554,1558
48285678,1000,1000,1000,1000,77028343,1580,1577,1554,1554
48288177,1000,1000,1000,1000,77128303,1579,1577,1553,1552
48290676,1000,1000,1000,1000,77228263,1578,1578,1555,1552
48293175,1000,1000,1000,1000,77328223,1576,1577,1554,1552
48295674,1000,1000,1000,1000,77428183,1576,1578,1554,1553
48298173,1000,1000,1000,1000,77528976,1575,1577,1554,1553
48300672,1000,1000,1000,1000,77628936,1575,1576,1552,1552
48303171,1000,1000,1000,1000,77728896,1576,1577,1551,1552
48305670,1000,1000,1000,1000,77828856,1577,1578,1550,1550
48308169,1000,1000,1000,1000,77928816,1580,1580,1549,1549
48310668,1000,1000,1000,1000,78028776,1581,1582,1546,1546
48313167,1000,1000,1000,1000,78128736,1585,1585,1545,1544
48315666,1000,1000,1000,1000,78228696,1588,1589,1542,1542
48318165,1000,1000,1000,1000,78328656,1590,1591,1540,1540
48320664,1000,1000,1000,1000,78428616,1592,1592,1538,1538
48323163,1000,1000,1000,1000,78528576,1593,1593,1536,1537
48325662,1000,1000,1000,1000,78628536,1594,1595,1536,1538
48328161,1000,1000,1000,1000,78728496,1593,1593,1537,1539
48330660,1000,1000,1000,1000,78828456,1592,1591,1541,1544
48333159,1000,1000,1000,1000,78928416,1588,1585,1546,1550
48335658,1000,1000,1000,1000,79028376,1582,1578,1556,1559
48338157,1000,1000,1000,1000,79128336,1573,1568,1567,1569
48340656,1000,1000,1000,1000,79228296,1562,1558,1579,1580
48343155,1000,1000,1000,1000,79328256,1551,1549,1591,1592
48345654,1000,1000,1000,1000,79428216,1541,1541,1602,1601
48348986,1000,1000,1000,1000,79528176,1536,1537,1610,1608
48351485,1000,1000,1000,1000,79628969,1535,1536,1614,1611
48353984,1000,1000,1000,1000,79728929,1536,1538,1615,1612
48356483,1000,1000,1000,1000,79828889,1540,1542,1613,1610
48358982,1000,1000,1000,1000,79928849,1545,1547,1609,1608
48361481,1000,1000,1000,1000,80028809,1551,1551,1603,1604
48363980,1000,1000,1000,1000,80128769,1556,1556,1597,1598
48366479,1000,1000,1000,1000,80228729,1563,1563,1592,1592
48368978,1000,1000,1000,1000,80328689,1567,1567,1584,1585
48371477,1000,1000,1000,1000,80428649,1574,1573,1578,1579
48373976,1000,1000,1000,1000,80528609,1578,1578,1572,1572
48376475,1000,1000,1000,1000,80628569,1583,1582,1568,1568
48378974,1000,1000,1000,1000,80728529,1586,1585,1565,1566
48381473,1000,1000,1000,1000,80828489,1586,1585,1564,1565
48383972,1000,1000,1000,1000,80928449,1585,1584,1564,1565
48386471,1000,1000,1000,1000,81028409,1585,1583,1567,1567
48388970,1000,1000,1000,1000,81128369,1583,1582,1570,1570
48391469,1000,1000,1000,1000,81228329,1579,1579,1572,1572
48393968,1000,1000,1000,1000,81328289,1578,1578,1576,1576
48396467,1000,1000,1000,1000,81428249,1577,1577,1580,1580
48398966,1000,1000,1000,1000,81528209,1574,1574,1582,1581
48401465,1000,1000,1000,1000,81628169,1573,1574,1583,1583
48403964,1000,1000,1000,1000,81728962,1573,1573,1585,1584
48406463,1000,1000,1000,1000,81828922,1573,1574,1585,1585
48408962,1000,1000,1000,1000,81928882,1574,1575,1585,1585
48411461,1000,1000,1000,1000,82028842,1575,1576,1584,1584
48413960,1000,1000,1000,1000,82128802,1576,1576,1582,1582
48416459,1000,1000,1000,1000,82228762,1577,1577,1581,1581
48418958,1000,1000,1000,1000,82328722,1578,1578,1580,1579
48421457,1000,1000,1000,1000,82428682,1579,1579,1578,1578
48423956,1000,1000,1000,1000,82528642,1581,1580,1577,1578
48426455,1000,1000,1000,1000,82628602,1581,1581,1577,1577
48428954,1000,1000,1000,1000,82728562,1582,1582,1577,1578
48431453,1000,1000,1000,1000,82828522,1582,1582,1577,1578
48433952,1000,1000,1000,1000,82928482,1582,1582,1578,1578
48436451,1000,1000,1000,1000,83028442,1581,1581,1578,1578
48438950,1000,1000,1000,1000,83128402,1581,1581,1579,1579
48441449,1000,1000,1000,1000,83228362,1581,1581,1580,1579
48443948,1000,1000,1000,1000,83328322,1580,1581,1580,1581
48446447,1000,1000,1000,1000,83428282,1581,1581,1582,1582
48448946,1000,1000,1000,1000,83528242,1580,1580,1581,1581
48451445,1000,1000,1000,1000,83628202,1580,1580,1582,1581
48453944,1000,1000,1000,1000,83728162,1580,1579,1582,1581
48456443,1000,1000,1000,1000,83828955,1580,1581,1582,1582
48458942,1000,1000,1000,1000,83928915,1581,1581,1582,1582
48461441,1000,1000,1000,1000,84028875,1579,1579,1581,1581
48463940,1000,1000,1000,1000,84128835,1580,1579,1581,1581
48466439,1000,1000,1000,1000,84228795,1580,1581,1586,1574
48468938,1000,1000,1000,1000,84328755,1580,1581,1585,1572
48471437,1000,1000,1000,1000,84428715,1578,1578,1580,1574
48473936,1000,1000,1000,1000,84528675,1575,1575,1573,1576
48476435,1000,1000,1000,1000,84628635,1571,1571,1568,1575
48478934,1000,1000,1000,1000,84728595,1569,1568,1565,1572
48481433,1000,1000,1000,1000,84828555,1567,1567,1565,1570
48483932,1000,1000,1000,1000,84928515,1568,1567,1566,1568
48486431,1000,1000,1000,1000,85028475,1566,1566,1566,1565
48488930,1000,1000,1000,1000,85128435,1567,1566,1567,1564
48491429,1000,1000,1000,1000,85228395,1566,1566,1566,1564
48493928,1000,1000,1000,1000,85328355,1564,1566,1566,1564
48496427,1000,1000,1000,1000,85428315,1563,1564,1564,1563
48498926,1000,1000,1000,1000,85528275,1563,1563,1564,1564
48501425,1000,1000,1000,1000,85628235,1563,1563,1563,1564
48503924,1000,1000,1000,1000,85728195,1563,1562,1563,1564
48506423,1000,1000,1000,1000,85828155,1562,1561,1562,1562
48508922,1000,1000,1000,1000,85928948,1561,1560,1561,1561
48511421,1000,1000,1000,1000,86028908,1560,1560,1561,1560
48513920,1000,1000,1000,1000,86128868,1559,1559,1560,1559
48516419,1000,1000,1000,1000,86228828,1559,1559,1560,1558
48518918,1000,1000,1000,1000,86328788,1558,1558,1558,1558
48521417,1000,1000,1000,1000,86428748,1556,1556,1557,1556
48523916,1000,1000,1000,1000,86528708,1557,1557,1557,1557
48526415,1000,1000,1000,1000,86628668,1556,1557,1557,1556
48528914,1000,1000,1000,1000,86728628,1557,1557,1557,1556
48531413,1000,1000,1000,1000,86828588,1558,1558,1558,1556
48533912,1000,1000,1000,1000,86928548,1558,1558,1559,1556
48536411,1000,1000,1000,1000,87028508,1560,1559,1559,1559
48538910,1000,1000,1000,1000,87128468,1559,1559,1558,1561
48541409,1000,1000,1000,1000,87228428,1560,1560,1557,1563
48543908,1000,1000,1000,1000,87328388,1560,1560,1558,1563
48546407,1000,1000,1000,1000,87428348,1561,1562,1559,1563
48548906,1000,1000,1000,1000,87528308,1562,1562,1560,1563
48551405,1000,1000,1000,1000,87628268,1561,1561,1562,1560
48553904,1000,1000,1000,1000,87728228,1560,1560,1562,1558
48556403,1000,1000,1000,1000,87828188,1559,1559,1561,1558
48558902,1000,1000,1000,1000,87928981,1558,1558,1557,1561
48561401,1000,1000,1000,1000,88028941,1555,1555,1554,1559
48563900,1000,1000,1000,1000,88128901,1551,1551,1550,1554
48566399,1000,1000,1000,1000,88228861,1545,1545,1546,1547
48568898,1000,1000,1000,1000,88328821,1539,1538,1541,1540
48571397,1000,1000,1000,1000,88428781,1531,1531,1534,1532
48573896,1000,1000,1000,1000,88528741,1525,1524,1527,1525
48576395,1000,1000,1000,1000,88628701,1520,1521,1522,1521
48578894,1000,1000,1000,1000,88728661,1519,1519,1519,1520
48581393,1000,1000,1000,1000,88828621,1521,1522,1520,1522
48583892,1000,1000,1000,1000,88928581,1523,1523,1521,1522
48586391,1000,1000,1000,1000,89028541,1526,1526,1523,1524
48588890,1000,1000,1000,1000,89128501,1531,1531,1528,1528
48591389,1000,1000,1000,1000,89228461,1536,1536,1533,1532
48593888,1000,1000,1000,1000,89328421,1539,1539,1536,1535
48596387,1000,1000,1000,1000,89428381,1541,1541,1539,1538
48598886,1000,1000,1000,1000,89528341,1543,1543,1542,1540
48601385,1000,1000,1000,1000,89628301,1544,1544,1544,1543
48603884,1000,1000,1000,1000,89728261,1545,1545,1546,1545
48606383,1000,1000,1000,1000,89828221,1544,1545,1546,1545
48608882,1000,1000,1000,1000,89928181,1544,1545,1547,1547
48611381,1000,1000,1000,1000,90028974,1545,1545,1547,1547
48613880,1000,1000,1000,1000,90128934,1546,1545,1548,1548
48616379,1000,1000,1000,1000,90228894,1545,1545,1547,1547
48618878,1000,1000,1000,1000,90328854,1545,1545,1546,1547
48621377,1000,1000,1000,1000,90428814,1545,1546,1547,1547
48623876,1000,1000,1000,1000,90528774,1546,1545,1546,1546
48626375,1000,1000,1000,1000,90628734,1545,1545,1545,1544
48628874,1000,1000,1000,1000,90728694,1545,1545,1545,1544
48631373,1000,1000,1000,1000,90828654,1545,1545,1544,1544
48633872,1000,1000,1000,1000,90928614,1545,1545,1544,1545
48636371,1000,1000,1000,1000,91028574,1545,1545,1544,1545
48638870,1000,1000,1000,1000,91128534,1545,1545,1544,1544
48641369,1000,1000,1000,1000,91228494,1544,1544,1544,1543
48643868,1000,1000,1000,1000,91328454,1544,1544,1543,1543
48646367,1000,1000,1000,1000,91428414,1544,1544,1544,1544
48648866,1000,1000,1000,1000,91528374,1544,1544,1544,1544
48651365,1000,1000,1000,1000,91628334,1543,1544,1544,1543
48653864,1000,1000,1000,1000,91728294,1545,1544,1544,1545
48656363,1000,1000,1000,1000,91828254,1544,1544,1545,1544
48658862,1000,1000,1000,1000,91928214,1544,1544,1544,1544
48661361,1000,1000,1000,1000,92028174,1544,1544,1544,1544
48663860,1000,1000,1000,1000,92128967,1544,1544,1544,1544
48666359,1000,1000,1000,1000,92228927,1544,1544,1544,1544
48668858,1000,1000,1000,1000,92328887,1544,1545,1545,1545
48671357,1000,1000,1000,1000,92428847,1544,1544,1545,1545
48673856,1000,1000,1000,1000,92528807,1543,1543,1544,1544
48676355,1000,1000,1000,1000,92628767,1544,1544,1544,1544
48678854,1000,1000,1000,1000,92728727,1544,1544,1544,1545
48681353,1000,1000,1000,1000,92828687,1544,1545,1544,1544
48683852,1000,1000,1000,1000,92928647,1545,1545,1545,1544
48686351,1000,1000,1000,1000,93028607,1544,1544,1543,1543
48688850,1000,1000,1000,1000,93128567,1544,1544,1544,1544
48691349,1000,1000,1000,1000,93228527,1544,1544,1544,1544
48693848,1000,1000,1000,1000,93328487,1545,1544,1544,1545
48696347,1000,1000,1000,1000,93428447,1545,1544,1545,1544
48698846,1000,1000,1000,1000,93528407,1544,1545,1545,1544
48701345,1000,1000,1000,1000,93628367,1544,1544,1544,1544
48703844,1000,1000,1000,1000,93728327,1544,1543,1544,1544
48706343,1000,1000,1000,1000,93828287,1543,1544,1544,1544
48708842,1000,1000,1000,1000,93928247,1543,1543,1543,1543
48711341,1000,1000,1000,1000,94028207,1544,1543,1544,1544
48713840,1000,1000,1000,1000,94128167,1543,1543,1543,1543
48716339,1000,1000,1000,1000,94228960,1544,1544,1544,1544
48718838,1000,1000,1000,1000,94328920,1544,1544,1544,1545
48721337,1000,1000,1000,1000,94428880,1544,1545,1545,1545
48723836,1000,1000,1000,1000,94528840,1544,1544,1544,1544
48726335,1000,1000,1000,1000,94628800,1545,1544,1544,1544
48728834,1000,1000,1000,1000,94728760,1545,1544,1544,1544
48731333,1000,1000,1000,1000,94828720,1544,1543,1544,1543
48733832,1000,1000,1000,1000,94928680,1544,1544,1544,1544
48736331,1000,1000,1000,1000,95028640,1545,1545,1545,1544
48738830,1000,1000,1000,1000,95128600,1544,1545,1544,1545
48741329,1000,1000,1000,1000,95228560,1544,1545,1545,1544
48743828,1000,1000,1000,1000,95328520,1545,1545,1545,1545
48746327,1000,1000,1000,1000,95428480,1545,1545,1545,1545
48748826,1000,1000,1000,1000,95528440,1545,1544,1544,1545
48751325,1000,1000,1000,1000,95628400,1544,1544,1544,1545
48753824,1000,1000,1000,1000,95728360,1544,1544,1544,1545
48756323,1000,1000,1000,1000,95828320,1544,1544,1544,1544
48758822,1000,1000,1000,1000,95928280,1545,1545,1545,1545
48761321,1000,1000,1000,1000,96028240,1544,1544,1544,1544
48763820,1000,1000,1000,1000,96128200,1544,1544,1545,1544
48766319,1000,1000,1000,1000,96228160,1544,1544,1544,1544
48768818,1000,1000,1000,1000,96328953,1544,1544,1544,1544
48771317,1000,1000,1000,1000,96428913,1543,1544,1544,1543
48773816,1000,1000,1000,1000,96528873,1544,1543,1544,1544
48776315,1000,1000,1000,1000,96628833,1544,1545,1545,1544
48778814,1000,1000,1000,1000,96728793,1544,1544,1544,1544
48781313,1000,1000,1000,1000,96828753,1545,1545,1544,1544
48783812,1000,1000,1000,1000,96928713,1544,1544,1544,1544
48786311,1000,1000,1000,1000,97028673,1543,1543,1543,1544
48788810,1000,1000,1000,1000,97128633,1544,1544,1544,1544
48791309,1000,1000,1000,1000,97228593,1545,1544,1544,1544
48793808,1000,1000,1000,1000,97328553,1545,1544,1545,1545
48796307,1000,1000,1000,1000,97428513,1544,1544,1544,1544
48798806,1000,1000,1000,1000,97528473,1544,1544,1544,1544
48801305,1000,1000,1000,1000,97628433,1545,1545,1545,1544
48803804,1000,1000,1000,1000,97728393,1544,1544,1544,1544
48806303,1000,1000,1000,1000,97828353,1545,1545,1545,1544
48808802,1000,1000,1000,1000,97928313,1544,1544,1544,1545
48811301,1000,1000,1000,1000,98028273,1545,1545,1545,1545
48813800,1000,1000,1000,1000,98128233,1545,1545,1545,1545
48816299,1000,1000,1000,1000,98228193,1545,1545,1545,1545
48818798,1000,1000,1000,1000,98328986,1491,1490,1503,1491
48821297,1000,1000,1000,1000,98428946,1316,1313,1375,1316
48823796,1000,1000,1000,1000,98528906,1236,1233,1323,1236
48826295,1000,1000,1000,1000,98628866,1210,1208,1308,1210
48828794,1000,1000,1000,1000,98728826,1182,1179,1292,1182
48831293,1000,1000,1000,1000,98828786,1153,1150,1276,1152
48833792,1000,1000,1000,1000,98928746,1153,1150,1217,1152
48836291,1000,1000,1000,1000,99028706,1152,1150,1217,1151
48838790,1000,1000,1000,1000,99128666,1153,1150,1217,1152
48841289,1000,1000,1000,1000,99228626,1171,1150,1192,1173
48843788,1000,1000,1000,1000,99328586,1164,1150,1201,1166
48846287,1000,1000,1000,1000,99428546,1161,1150,1205,1163
48848786,1000,1000,1000,1000,99528506,1161,1150,1204,1164
48851285,1000,1000,1000,1000,99628466,1161,1150,1204,1164
48853784,1000,1000,1000,1000,99728426,1162,1150,1203,1165
48856283,1000,1000,1000,1000,99828386,1161,1150,1203,1165
48858782,1000,1000,1000,1000,99928346,1162,1150,1203,1166
48861281,1000,1000,1000,1000,100028306,1151,1150,1215,1156
48863780,1000,1000,1000,1000,100128266,1152,1150,1214,1157
48866279,1000,1000,1000,1000,100228226,1153,1150,1213,1158
48868778,1000,1000,1000,1000,100328186,1153,1150,1213,1158
48871277,1000,1000,1000,1000,100428979,1151,1150,1072,1153
48873776,1000,1000,1000,1000,100528939,1000,1000,1000,1000
48876275,1000,1000,1000,1000,100628899,1000,1000,1000,1000
48878774,1000,1000,1000,1000,100728859,1000,1000,1000,1000
48881273,1000,1000,1000,1000,100828819,1000,1000,1000,1000
48883772,1000,1000,1000,1000,100928779,1000,1000,1000,1000
48886271,1000,1000,1000,1000,101028739,1000,1000,1000,1000
48888770,1000,1000,1000,1000,101128699,1000,1000,1000,1000
48891269,1000,1000,1000,1000,101228659,1000,1000,1000,1000
48893768,1000,1000,1000,1000,101328619,1000,1000,1000,1000
48896267,1000,1000,1000,1000,101428579,1000,1000,1000,1000
48898766,1000,1000,1000,1000,101528539,1000,1000,1000,1000
48901265,1000,1000,1000,1000,101628499,1000,1000,1000,1000
48903764,1000,1000,1000,1000,101728459,1000,1000,1000,1000
48906263,1000,1000,1000,1000,101828419,1000,1000,1000,1000
48908762,1000,1000,1000,1000,101928379,1000,1000,1000,1000
48911261,1000,1000,1000,1000,102028339,1000,1000,1000,1000
48913760,1000,1000,1000,1000,102128299,1000,1000,1000,1000
48916259,1000,1000,1000,1000,102228259,1000,1000,1000,1000
48918758,1000,1000,1000,1000,102328219,1000,1000,1000,1000
48921257,1000,1000,1000,1000,102428179,1000,1000,1000,1000
48923756,1000,1000,1000,1000,102528972,1000,1000,1000,1000
48926255,1000,1000,1000,1000,102628932,1000,1000,1000,1000
48928754,1000,1000,1000,1000,102728892,1000,1000,1000,1000
48931253,1000,1000,1000,1000,102828852,1000,1000,1000,1000
48933752,1000,1000,1000,1000,102928812,1000,1000,1000,1000
48936251,1000,1000,1000,1000,103028772,1000,1000,1000,1000
48938750,1000,1000,1000,1000,103128732,1000,1000,1000,1000
48941249,1000,1000,1000,1000,103228692,1000,1000,1000,1000
48943748,1000,1000,1000,1000,103328652,1000,1000,1000,1000
48946247,1000,1000,1000,1000,103428612,1000,1000,1000,1000
48948746,1000,1000,1000,1000,103528572,1000,1000,1000,1000
48951245,1000,1000,1000,1000,103628532,1000,1000,1000,1000
48953744,1000,1000,1000,1000,103728492,1000,1000,1000,1000
48956243,1000,1000,1000,1000,103828452,1000,1000,1000,1000
48958742,1000,1000,1000,1000,103928412,1000,1000,1000,1000
48961241,1000,1000,1000,1000,104028372,1000,1000,1000,1000
48963740,1000,1000,1000,1000,104128332,1000,1000,1000,1000
48966239,1000,1000,1000,1000,104228292,1000,1000,1000,1000
48968738,1000,1000,1000,1000,104328252,1000,1000,1000,1000
48971237,1000,1000,1000,1000,104428212,1000,1000,1000,1000
48973736,1000,1000,1000,1000,104528172,1000,1000,1000,1000
48976235,1000,1000,1000,1000,104628965,1000,1000,1000,1000
48978734,1000,1000,1000,1000,104728925,1000,1000,1000,1000
48981233,1000,1000,1000,1000,104828885,1000,1000,1000,1000
48983732,1000,1000,1000,1000,104928845,1000,1000,1000,1000
48986231,1000,1000,1000,1000,105028805,1000,1000,1000,1000
48988730,1000,1000,1000,1000,105128765,1000,1000,1000,1000
48991229,1000,1000,1000,1000,105228725,1000,1000,1000,1000
48993728,1000,1000,1000,1000,105328685,1000,1000,1000,1000
48996227,1000,1000,1000,1000,105428645,1000,1000,1000,1000
48998726,1000,1000,1000,1000,105528605,1000,1000,1000,1000
49001225,1000,1000,1000,1000,105628565,1000,1000,1000,1000
49003724,1000,1000,1000,1000,105728525,1000,1000,1000,1000
49006223,1000,1000,1000,1000,105828485,1000,1000,1000,1000
49008722,1000,1000,1000,1000,105928445,1000,1000,1000,1000
49011221,1000,1000,1000,1000,106028405,1000,1000,1000,1000
49013720,1000,1000,1000,1000,106128365,1000,1000,1000,1000
49016219,1000,1000,1000,1000,106228325,1000,1000,1000,1000
49018718,1000,1000,1000,1000,106328285,1000,1000,1000,1000
49021217,1000,1000,1000,1000,106428245,1000,1000,1000,1000
49023716,1000,1000,1000,1000,106528205,1000,1000,1000,1000
49026215,1000,1000,1000,1000,106628165,1000,1000,1000,1000
49028714,1000,1000,1000,1000,106728958,1000,1000,1000,1000
49031213,1000,1000,1000,1000,106828918,1000,1000,1000,1000
49033712,1000,1000,1000,1000,106928878,1000,1000,1000,1000
49036211,1000,1000,1000,1000,107028838,1000,1000,1000,1000
49038710,1000,1000,1000,1000,107128798,1000,1000,1000,1000
49041209,1000,1000,1000,1000,107228758,1000,1000,1000,1000
49043708,1000,1000,1000,1000,107328718,1000,1000,1000,1000
49046207,1000,1000,1000,1000,107428678,1000,1000,1000,1000
49048706,1000,1000,1000,1000,107528638,1000,1000,1000,1000
49051205,1000,1000,1000,1000,107628598,1000,1000,1000,1000
49053704,1000,1000,1000,1000,107728558,1000,1000,1000,1000
49056203,1000,1000,1000,1000,107828518,1000,1000,1000,1000
49058702,1000,1000,1000,1000,107928478,1000,1000,1000,1000
49061201,1000,1000,1000,1000,108028438,1000,1000,1000,1000
49063700,1000,1000,1000,1000,108128398,1000,1000,1000,1000
49066199,1000,1000,1000,1000,108228358,1000,1000,1000,1000
49068698,1000,1000,1000,1000,108328318,1000,1000,1000,1000
49071197,1000,1000,1000,1000,108428278,1000,1000,1000,1000
49073696,1000,1000,1000,1000,108528238,1000,1000,1000,1000
49076195,1000,1000,1000,1000,108628198,1000,1000,1000,1000
49078694,1000,1000,1000,1000,108728158,1000,1000,1000,1000
49081193,1000,1000,1000,1000,108828951,1000,1000,1000,1000
49083692,1000,1000,1000,1000,108928911,1000,1000,1000,1000
49086191,1000,1000,1000,1000,109028871,1000,1000,1000,1000
49088690,1000,1000,1000,1000,109128831,1000,1000,1000,1000
49091189,1000,1000,1000,1000,109228791,1000,1000,1000,1000
49093688,1000,1000,1000,1000,109328751,1000,1000,1000,1000
49096187,1000,1000,1000,1000,109428711,1000,1000,1000,1000
49098686,1000,1000,1000,1000,109528671,1000,1000,1000,1000
49101185,1000,1000,1000,1000,109628631,1000,1000,1000,1000
49103684,1000,1000,1000,1000,109728591,1000,1000,1000,1000
49106183,1000,1000,1000,1000,109828551,1000,1000,1000,1000
49108682,1000,1000,1000,1000,109928511,1000,1000,1000,1000
49111181,1000,1000,1000,1000,110028471,1000,1000,1000,1000
49113680,1000,1000,1000,1000,110128431,1000,1000,1000,1000
49116179,1000,1000,1000,1000,110228391,1000,1000,1000,1000
49118678,1000,1000,1000,1000,110328351,1000,1000,1000,1000
49121177,1000,1000,1000,1000,110428311,1000,1000,1000,1000
49123676,1000,1000,1000,1000,110528271,1000,1000,1000,1000
49126175,1000,1000,1000,1000,110628231,1000,1000,1000,1000
49128674,1000,1000,1000,1000,110728191,1000,1000,1000,1000
49131173,1000,1000,1000,1000,110828984,1000,1000,1000,1000
49133672,1000,1000,1000,1000,110928944,1000,1000,1000,1000
49136171,1000,1000,1000,1000,111028904,1000,1000,1000,1000
49138670,1000,1000,1000,1000,111128864,1000,1000,1000,1000
49141169,1000,1000,1000,1000,111228824,1000,1000,1000,1000
49143668,1000,1000,1000,1000,111328784,1000,1000,1000,1000
49146167,1000,1000,1000,1000,111428744,1000,1000,1000,1000
49148666,1000,1000,1000,1000,111528704,1000,1000,1000,1000
49151165,1000,1000,1000,1000,111628664,1000,1000,1000,1000
49153664,1000,1000,1000,1000,111728624,1000,1000,1000,1000
49156163,1000,1000,1000,1000,111828584,1000,1000,1000,1000
49158662,1000,1000,1000,1000,111928544,1000,1000,1000,1000
49161161,1000,1000,1000,1000,112028504,1000,1000,1000,1000
49163660,1000,1000,1000,1000,112128464,1000,1000,1000,1000
49166159,1000,1000,1000,1000,112228424,1000,1000,1000,1000
49168658,1000,1000,1000,1000,112328384,1000,1000,1000,1000
49171157,1000,1000,1000,1000,112428344,1000,1000,1000,1000
49173656,1000,1000,1000,1000,112528304,1000,1000,1000,1000
49176155,1000,1000,1000,1000,112628264,1000,1000,1000,1000
49178654,1000,1000,1000,1000,112728224,1000,1000,1000,1000
49181153,1000,1000,1000,1000,112828184,1000,1000,1000,1000
49183652,1000,1000,1000,1000,112928977,1000,1000,1000,1000
49186151,1000,1000,1000,1000,113028937,1000,1000,1000,1000
49188650,1000,1000,1000,1000,113128897,1000,1000,1000,1000
49191149,1000,1000,1000,1000,113228857,1000,1000,1000,1000
49193648,1000,1000,1000,1000,113328817,1000,1000,1000,1000
49196147,1000,1000,1000,1000,113428777,1000,1000,1000,1000
49198646,1000,1000,1000,1000,113528737,1000,1000,1000,1000
49201145,1000,1000,1000,1000,113628697,1000,1000,1000,1000
49203644,1000,1000,1000,1000,113728657,1000,1000,1000,1000
49206143,1000,1000,1000,1000,113828617,1000,1000,1000,1000
49208642,1000,1000,1000,1000,113928577,1000,1000,1000,1000
49211141,1000,1000,1000,1000,114028537,1000,1000,1000,1000
49213640,1000,1000,1000,1000,114128497,1000,1000,1000,1000
49216139,1000,1000,1000,1000,114228457,1000,1000,1000,1000
49218638,1000,1000,1000,1000,114328417,1000,1000,1000,1000
49221137,1000,1000,1000,1000,114428377,1000,1000,1000,1000
49223636,1000,1000,1000,1000,114528337,1000,1000,1000,1000
49226135,1000,1000,1000,1000,114628297,1000,1000,1000,1000
49228634,1000,1000,1000,1000,114728257,1000,1000,1000,1000
49231133,1000,1000,1000,1000,114828217,1000,1000,1000,1000
49233632,1000,1000,1000,1000,114928177,1000,1000,1000,1000
49236131,1000,1000,1000,1000,115028970,1000,1000,1000,1000
49238630,1000,1000,1000,1000,115128930,1000,1000,1000,1000
49241129,1000,1000,1000,1000,115228890,1000,1000,1000,1000
49243628,1000,1000,1000,1000,115328850,1000,1000,1000,1000
49246127,1000,1000,1000,1000,115428810,1000,1000,1000,1000
49248626,1000,1000,1000,1000,,,,,
49251125,1000,1000,1000,1000,,,,,
49253624,1000,1000,1000,1000,,,,,
49256123,1000,1000,1000,1000,,,,,
49258622,1000,1000,1000,1000,,,,,
49261121,1000,1000,1000,1000,,,,,
49263620,1000,1000,1000,1000,,,,,
49266119,1000,1000,1000,1000,,,,,
49268618,1000,1000,1000,1000,,,,,
49271117,1000,1000,1000,1000,,,,,
49273616,1000,1000,1000,1000,,,,,
49276115,1000,1000,1000,1000,,,,,
49278614,1000,1000,1000,1000,,,,,
49281113,1000,1000,1000,1000,,,,,
49283612,1000,1000,1000,1000,,,,,
49286111,1000,1000,1000,1000,,,,,
49288610,1000,1000,1000,1000,,,,,
49291109,1000,1000,1000,1000,,,,,
49293608,1000,1000,1000,1000,,,,,
49296107,1000,1000,1000,1000,,,,,
49298606,1000,1000,1000,1000,,,,,
49301105,1000,1000,1000,1000,,,,,
49303604,1000,1000,1000,1000,,,,,
49306103,1000,1000,1000,1000,,,,,
49308602,1000,1000,1000,1000,,,,,
49311101,1000,1000,1000,1000,,,,,
49313600,1000,1000,1000,1000,,,,,
49316099,1000,1000,1000,1000,,,,,
49318598,1000,1000,1000,1000,,,,,
49321097,1000,1000,1000,1000,,,,,
49323596,1000,1000,1000,1000,,,,,
49326095,1000,1000,1000,1000,,,,,
49328594,1000,1000,1000,1000,,,,,
49331093,1000,1000,1000,1000,,,,,
49333592,1000,1000,1000,1000,,,,,
49336091,1000,1000,1000,1000,,,,,
49338590,1000,1000,1000,1000,,,,,
49341089,1000,1000,1000,1000,,,,,
49343588,1000,1000,1000,1000,,,,,
49346087,1000,1000,1000,1000,,,,,
49348586,1000,1000,1000,1000,,,,,
49351085,1000,1000,1000,1000,,,,,
49353584,1000,1000,1000,1000,,,,,
49356083,1000,1000,1000,1000,,,,,
49358582,1000,1000,1000,1000,,,,,
49361081,1000,1000,1000,1000,,,,,
49363580,1000,1000,1000,1000,,,,,
49366079,1000,1000,1000,1000,,,,,
49368578,1000,1000,1000,1000,,,,,
49371077,1000,1000,1000,1000,,,,,
49373576,1000,1000,1000,1000,,,,,
49376075,1000,1000,1000,1000,,,,,
49378574,1000,1000,1000,1000,,,,,
49381073,1000,1000,1000,1000,,,,,
49383572,1000,1000,1000,1000,,,,,
49386071,1000,1000,1000,1000,,,,,
49388570,1000,1000,1000,1000,,,,,
49391069,1000,1000,1000,1000,,,,,
49393568,1000,1000,1000,1000,,,,,
49396067,1000,1000,1000,1000,,,,,
49398566,1000,1000,1000,1000,,,,,
49401065,1000,1000,1000,1000,,,,,
49403564,1000,1000,1000,1000,,,,,
49406063,1000,1000,1000,1000,,,,,
49408562,1000,1000,1000,1000,,,,,
49411061,1000,1000,1000,1000,,,,,
49413560,1000,1000,1000,1000,,,,,
49416059,1000,1000,1000,1000,,,,,
49418558,1000,1000,1000,1000,,,,,
49421057,1000,1000,1000,1000,,,,,
49423556,1000,1000,1000,1000,,,,,
49426055,1000,1000,1000,1000,,,,,
49428554,1000,1000,1000,1000,,,,,
49431053,1000,1000,1000,1000,,,,,
49433552,1000,1000,1000,1000,,,,,
49436051,1000,1000,1000,1000,,,,,
49438550,1000,1000,1000,1000,,,,,
49441049,1000,1000,1000,1000,,,,,
49443548,1000,1000,1000,1000,,,,,
49446047,1000,1000,1000,1000,,,,,
49448546,1000,1000,1000,1000,,,,,
49451045,1000,1000,1000,1000,,,,,
49453544,1000,1000,1000,1000,,,,,
49456043,1000,1000,1000,1000,,,,,
49458542,1000,1000,1000,1000,,,,,
49461041,1000,1000,1000,1000,,,,,
49463540,1000,1000,1000,1000,,,,,
49466039,1000,1000,1000,1000,,,,,
49468538,1000,1000,1000,1000,,,,,
49471037,1000,1000,1000,1000,,,,,
49473536,1000,1000,1000,1000,,,,,
49476035,1000,1000,1000,1000,,,,,
49478534,1000,1000,1000,1000,,,,,
49481033,1000,1000,1000,1000,,,,,
49483532,1000,1000,1000,1000,,,,,
49486031,1000,1000,1000,1000,,,,,
49488530,1000,1000,1000,1000,,,,,
49491029,1000,1000,1000,1000,,,,,
49493528,1000,1000,1000,1000,,,,,
49496027,1000,1000,1000,1000,,,,,
49498526,1000,1000,1000,1000,,,,,
49501025,1000,1000,1000,1000,,,,,
49503524,1000,1000,1000,1000,,,,,
49506023,1000,1000,1000,1000,,,,,
49508522,1000,1000,1000,1000,,,,,
49511021,1000,1000,1000,1000,,,,,
49513520,1000,1000,1000,1000,,,,,
49516019,1000,1000,1000,1000,,,,,
49518518,1000,1000,1000,1000,,,,,
49521017,1000,1000,1000,1000,,,,,
49523516,1000,1000,1000,1000,,,,,
49526015,1000,1000,1000,1000,,,,,
49528514,1000,1000,1000,1000,,,,,
49531013,1000,1000,1000,1000,,,,,
49533512,1000,1000,1000,1000,,,,,
49536011,1000,1000,1000,1000,,,,,
49538510,1000,1000,1000,1000,,,,,
49541009,1000,1000,1000,1000,,,,,
49543508,1000,1000,1000,1000,,,,,
49546007,1000,1000,1000,1000,,,,,
49548506,1000,1000,1000,1000,,,,,
49551005,1000,1000,1000,1000,,,,,
49553504,1000,1000,1000,1000,,,,,
49556003,1000,1000,1000,1000,,,,,
49558502,1001,1001,1001,1001,,,,,
49561001,1002,1002,1002,1002,,,,,
49563500,1003,1003,1003,1003,,,,,
49565999,1003,1003,1003,1003,,,,,
49568498,1004,1004,1004,1004,,,,,
49570997,1005,1005,1005,1005,,,,,
49573496,1006,1006,1006,1006,,,,,
49575995,1006,1006,1006,1006,,,,,
49578494,1007,1007,1007,1007,,,,,
49580993,1008,1008,1008,1008,,,,,
49583492,1009,1009,1009,1009,,,,,
49585991,1009,1009,1009,1009,,,,,
49588490,1010,1010,1010,1010,,,,,
49590989,1011,1011,1011,1011,,,,,
49593488,1012,1012,1012,1012,,,,,
49595987,1012,1012,1012,1012,,,,,
49598486,1013,1013,1013,1013,,,,,
49600985,1014,1014,1014,1014,,,,,
49603484,1015,1015,1015,1015,,,,,
49605983,1015,1015,1015,1015,,,,,
49608482,1016,1016,1016,1016,,,,,
49610981,1017,1017,1017,1017,,,,,
49613480,1018,1018,1018,1018,,,,,
49615979,1018,1018,1018,1018,,,,,
49618478,1019,1019,1019,1019,,,,,
49620977,1020,1020,1020,1020,,,,,
49623476,1021,1021,1021,1021,,,,,
49625975,1021,1021,1021,1021,,,,,
49628474,1022,1022,1022,1022,,,,,
49630973,1023,1023,1023,1023,,,,,
49633472,1024,1024,1024,1024,,,,,
49635971,1024,1024,1024,1024,,,,,
49638470,1025,1025,1025,1025,,,,,
49640969,1026,1026,1026,1026,,,,,
49643468,1027,1027,1027,1027,,,,,
49645967,1027,1027,1027,1027,,,,,
49648466,1028,1028,1028,1028,,,,,
49650965,1029,1029,1029,1029,,,,,
49653464,1030,1030,1030,1030,,,,,
49655963,1030,1030,1030,1030,,,,,
49658462,1031,1031,1031,1031,,,,,
49660961,1032,1032,1032,1032,,,,,
49663460,1033,1033,1033,1033,,,,,
49665959,1033,1033,1033,1033,,,,,
49668458,1034,1034,1034,1034,,,,,
49670957,1035,1035,1035,1035,,,,,
49673456,1036,1036,1036,1036,,,,,
49675955,1036,1036,1036,1036,,,,,
49678454,1037,1037,1037,1037,,,,,
49680953,1038,1038,1038,1038,,,,,
49683452,1039,1039,1039,1039,,,,,
49685951,1039,1039,1039,1039,,,,,
49688450,1040,1040,1040,1040,,,,,
49690949,1041,1041,1041,1041,,,,,
49693448,1042,1042,1042,1042,,,,,
49695947,1042,1042,1042,1042,,,,,
49698446,1043,1043,1043,1043,,,,,
49700945,1044,1044,1044,1044,,,,,
49703444,1045,1045,1045,1045,,,,,
49705943,1045,1045,1045,1045,,,,,
49708442,1046,1046,1046,1046,,,,,
49710941,1047,1047,1047,1047,,,,,
49713440,1048,1048,1048,1048,,,,,
49715939,1048,1048,1048,1048,,,,,
49718438,1049,1049,1049,1049,,,,,
49720937,1050,1050,1050,1050,,,,,
49723436,1051,1051,1051,1051,,,,,
49725935,1051,1051,1051,1051,,,,,
49728434,1052,1052,1052,1052,,,,,
49730933,1053,1053,1053,1053,,,,,
49733432,1054,1054,1054,1054,,,,,
49735931,1054,1054,1054,1054,,,,,
49738430,1055,1055,1055,1055,,,,,
49740929,1056,1056,1056,1056,,,,,
49743428,1057,1057,1057,1057,,,,,
49745927,1057,1057,1057,1057,,,,,
49748426,1058,1058,1058,1058,,,,,
49750925,1059,1059,1059,1059,,,,,
49753424,1060,1060,1060,1060,,,,,
49755923,1060,1060,1060,1060,,,,,
49758422,1061,1061,1061,1061,,,,,
49760921,1062,1062,1062,1062,,,,,
49763420,1063,1063,1063,1063,,,,,
49765919,1063,1063,1063,1063,,,,,
49768418,1064,1064,1064,1064,,,,,
49770917,1065,1065,1065,1065,,,,,
49773416,1066,1066,1066,1066,,,,,
49775915,1066,1066,1066,1066,,,,,
49778414,1067,1067,1067,1067,,,,,
49780913,1068,1068,1068,1068,,,,,
49783412,1069,1069,1069,1069,,,,,
49785911,1069,1069,1069,1069,,,,,
49788410,1070,1070,1070,1070,,,,,
49790909,1071,1071,1071,1071,,,,,
49793408,1072,1072,1072,1072,,,,,
49795907,1072,1072,1072,1072,,,,,
49798406,1073,1073,1073,1073,,,,,
49800905,1074,1074,1074,1074,,,,,
49803404,1075,1075,1075,1075,,,,,
49805903,1075,1075,1075,1075,,,,,
49808402,1076,1076,1076,1076,,,,,
49810901,1077,1077,1077,1077,,,,,
49813400,1078,1078,1078,1078,,,,,
49815899,1078,1078,1078,1078,,,,,
49818398,1079,1079,1079,1079,,,,,
49820897,1080,1080,1080,1080,,,,,
49823396,1081,1081,1081,1081,,,,,
49825895,1081,1081,1081,1081,,,,,
49828394,1082,1082,1082,1082,,,,,
49830893,1083,1083,1083,1083,,,,,
49833392,1084,1084,1084,1084,,,,,
49835891,1084,1084,1084,1084,,,,,
49838390,1085,1085,1085,1085,,,,,
49840889,1086,1086,1086,1086,,,,,
49843388,1087,1087,1087,1087,,,,,
49845887,1087,1087,1087,1087,,,,,
49848386,1088,1088,1088,1088,,,,,
49850885,1089,1089,1089,1089,,,,,
49853384,1090,1090,1090,1090,,,,,
49855883,1090,1090,1090,1090,,,,,
49858382,1091,1091,1091,1091,,,,,
49860881,1092,1092,1092,1092,,,,,
49863380,1093,1093,1093,1093,,,,,
49865879,1093,1093,1093,1093,,,,,
49868378,1094,1094,1094,1094,,,,,
49870877,1095,1095,1095,1095,,,,,
49873376,1096,1096,1096,1096,,,,,
49875875,1096,1096,1096,1096,,,,,
49878374,1097,1097,1097,1097,,,,,
49880873,1098,1098,1098,1098,,,,,
49883372,1099,1099,1099,1099,,,,,
49885871,1099,1099,1099,1099,,,,,
49888370,1100,1100,1100,1100,,,,,
49890869,1101,1101,1101,1101,,,,,
49893368,1101,1101,1101,1101,,,,,
49895867,1102,1102,1102,1102,,,,,
49898366,1103,1103,1103,1103,,,,,
49900865,1104,1104,1104,1104,,,,,
49903364,1104,1104,1104,1104,,,,,
49905863,1105,1105,1105,1105,,,,,
49908362,1106,1106,1106,1106,,,,,
49910861,1107,1107,1107,1107,,,,,
49913360,1107,1107,1107,1107,,,,,
49915859,1108,1108,1108,1108,,,,,
49918358,1109,1109,1109,1109,,,,,
49920857,1110,1110,1110,1110,,,,,
49923356,1110,1110,1110,1110,,,,,
49925855,1111,1111,1111,1111,,,,,
49928354,1112,1112,1112,1112,,,,,
49930853,1113,1113,1113,1113,,,,,
49933352,1113,1113,1113,1113,,,,,
49935851,1114,1114,1114,1114,,,,,
49938350,1115,1115,1115,1115,,,,,
49940849,1116,1116,1116,1116,,,,,
49943348,1116,1116,1116,1116,,,,,
49945847,1117,1117,1117,1117,,,,,
49948346,1118,1118,1118,1118,,,,,
49950845,1119,1119,1119,1119,,,,,
49953344,1119,1119,1119,1119,,,,,
49955843,1120,1120,1120,1120,,,,,
49958342,1121,1121,1121,1121,,,,,
49960841,1122,1122,1122,1122,,,,,
49963340,1122,1122,1122,1122,,,,,
49965839,1123,1123,1123,1123,,,,,
49968338,1124,1124,1124,1124,,,,,
49970837,1125,1125,1125,1125,,,,,
49973336,1125,1125,1125,1125,,,,,
49975835,1126,1126,1126,1126,,,,,
49978334,1127,1127,1127,1127,,,,,
49980833,1128,1128,1128,1128,,,,,
49983332,1128,1128,1128,1128,,,,,
49985831,1129,1129,1129,1129,,,,,
49988330,1130,1130,1130,1130,,,,,
49990829,1131,1131,1131,1131,,,,,
49993328,1131,1131,1131,1131,,,,,
49995827,1132,1132,1132,1132,,,,,
49998326,1133,1133,1133,1133,,,,,
50000825,1134,1134,1134,1134,,,,,
50003324,1134,1134,1134,1134,,,,,
50005823,1135,1135,1135,1135,,,,,
50008322,1136,1136,1136,1136,,,,,
50010821,1137,1137,1137,1137,,,,,
50013320,1137,1137,1137,1137,,,,,
50015819,1138,1138,1138,1138,,,,,
50018318,1139,1139,1139,1139,,,,,
50020817,1140,1140,1140,1140,,,,,
50023316,1140,1140,1140,1140,,,,,
50025815,1141,1141,1141,1141,,,,,
50028314,1142,1142,1142,1142,,,,,
50030813,1143,1143,1143,1143,,,,,
50033312,1143,1143,1143,1143,,,,,
50035811,1144,1144,1144,1144,,,,,
50038310,1145,1145,1145,1145,,,,,
50040809,1146,1146,1146,1146,,,,,
50043308,1146,1146,1146,1146,,,,,
50045807,1147,1147,1147,1147,,,,,
50048306,1148,1148,1148,1148,,,,,
50050805,1149,1149,1149,1149,,,,,
50053304,1149,1149,1149,1149,,,,,
50055803,1150,1150,1150,1150,,,,,
50058302,1161,1154,1154,1161,,,,,
50060801,1169,1162,1163,1169,,,,,
50063300,1177,1170,1171,1177,,,,,
50065799,1185,1178,1178,1185,,,,,
50068298,1192,1185,1186,1192,,,,,
50070797,1200,1193,1194,1200,,,,,
50073296,1207,1200,1201,1207,,,,,
50075795,1214,1208,1208,1214,,,,,
50078294,1221,1215,1215,1222,,,,,
50080793,1228,1222,1222,1229,,,,,
50083292,1235,1229,1229,1235,,,,,
50085791,1242,1236,1236,1242,,,,,
50088290,1249,1242,1243,1249,,,,,
50090789,1255,1249,1250,1256,,,,,
50093288,1262,1256,1256,1262,,,,,
50095787,1268,1262,1263,1269,,,,,
50098286,1275,1269,1269,1275,,,,,
50100785,1281,1275,1276,1281,,,,,
50103284,1287,1281,1282,1287,,,,,
50105783,1293,1287,1288,1294,,,,,
50108282,1299,1294,1294,1300,,,,,
50110781,1305,1300,1300,1306,,,,,
50113280,1311,1306,1306,1312,,,,,
50115779,1317,1312,1312,1317,,,,,
50118278,1323,1317,1318,1323,,,,,
50120777,1329,1323,1324,1329,,,,,
50123276,1335,1329,1329,1335,,,,,
50125775,1340,1335,1335,1340,,,,,
50128274,1346,1340,1341,1346,,,,,
50130773,1351,1346,1346,1352,,,,,
50133272,1357,1351,1352,1357,,,,,
50135771,1362,1357,1357,1362,,,,,
50138270,1368,1362,1363,1368,,,,,
50140769,1373,1368,1368,1373,,,,,
50143268,1378,1373,1374,1379,,,,,
50145767,1384,1378,1379,1384,,,,,
50148266,1389,1384,1384,1389,,,,,
50150765,1394,1389,1389,1394,,,,,
50153264,1399,1394,1394,1399,,,,,
50155763,1404,1399,1400,1404,,,,,
50158262,1409,1404,1405,1409,,,,,
50160761,1414,1409,1410,1414,,,,,
50163260,1419,1414,1415,1419,,,,,
50165759,1424,1419,1420,1424,,,,,
50168258,1429,1424,1425,1429,,,,,
50170757,1434,1429,1430,1434,,,,,
50173256,1439,1434,1434,1439,,,,,
50175755,1444,1439,1439,1444,,,,,
50178254,1448,1444,1444,1448,,,,,
50180753,1453,1448,1449,1453,,,,,
50183252,1458,1453,1454,1458,,,,,
50185751,1463,1458,1458,1463,,,,,
50188250,1467,1462,1463,1467,,,,,
50190749,1472,1467,1468,1472,,,,,
50193248,1476,1472,1472,1476,,,,,
50195747,1481,1476,1477,1481,,,,,
50198246,1486,1481,1481,1486,,,,,
50200745,1490,1485,1486,1490,,,,,
50203244,1494,1490,1490,1495,,,,,
50205743,1499,1494,1495,1499,,,,,
50208242,1503,1499,1499,1503,,,,,
50210741,1508,1503,1504,1508,,,,,
50213240,1512,1507,1508,1512,,,,,
50215739,1516,1512,1512,1517,,,,,
50218238,1521,1516,1517,1521,,,,,
50220737,1525,1520,1521,1525,,,,,
50223236,1529,1525,1525,1529,,,,,
50225735,1534,1529,1529,1534,,,,,
50228234,1538,1533,1534,1538,,,,,
50230733,1542,1537,1538,1542,,,,,
50233232,1546,1542,1542,1546,,,,,
50235731,1550,1546,1546,1550,,,,,
50238230,1555,1550,1550,1555,,,,,
50240729,1559,1554,1555,1559,,,,,
50243228,1563,1558,1559,1563,,,,,
50245727,1567,1562,1563,1567,,,,,
50248226,1571,1566,1567,1571,,,,,
50250725,1575,1570,1571,1575,,,,,
50253224,1579,1574,1575,1579,,,,,
50255723,1583,1578,1579,1583,,,,,
50258222,1587,1582,1583,1587,,,,,
50260721,1591,1586,1587,1591,,,,,
50263220,1595,1590,1591,1595,,,,,
50265719,1599,1594,1595,1599,,,,,
50268218,1603,1598,1599,1603,,,,,
50270717,1606,1602,1602,1607,,,,,
50273216,1610,1606,1606,1611,,,,,
50275715,1614,1610,1610,1614,,,,,
50278214,1618,1614,1614,1618,,,,,
50280713,1622,1618,1618,1622,,,,,
50283212,1626,1621,1622,1626,,,,,
50285711,1629,1625,1625,1630,,,,,
50288210,1633,1629,1629,1634,,,,,
50290709,1637,1633,1633,1637,,,,,
50293208,1641,1637,1637,1641,,,,,
50295707,1644,1640,1640,1645,,,,,
50298206,1648,1644,1644,1648,,,,,
50300705,1652,1648,1648,1652,,,,,
50303204,1655,1651,1651,1656,,,,,
50305703,1659,1655,1655,1659,,,,,
50308202,1663,1659,1659,1663,,,,,
50310701,1666,1662,1662,1667,,,,,
50313200,1670,1666,1666,1670,,,,,
50315699,1674,1670,1670,1674,,,,,
50318198,1677,1673,1673,1678,,,,,
50320697,1681,1677,1677,1681,,,,,
50323196,1684,1680,1680,1685,,,,,
50325695,1688,1684,1684,1688,,,,,
50328194,1691,1687,1687,1692,,,,,
50330693,1695,1691,1691,1695,,,,,
50333192,1698,1694,1695,1699,,,,,
50335691,1702,1698,1698,1702,,,,,
50338190,1705,1701,1701,1706,,,,,
50340689,1709,1705,1705,1709,,,,,
50343188,1712,1708,1708,1713,,,,,
50345687,1716,1712,1712,1716,,,,,
50348186,1719,1715,1715,1720,,,,,
50350685,1723,1719,1719,1723,,,,,
50353184,1726,1722,1722,1726,,,,,
50355683,1730,1725,1726,1730,,,,,
50358182,1733,1729,1729,1733,,,,,
50360681,1736,1732,1732,1737,,,,,
50363180,1740,1735,1736,1740,,,,,
50365679,1743,1739,1739,1743,,,,,
50368178,1746,1742,1742,1747,,,,,
50370677,1750,1746,1746,1750,,,,,
50373176,1753,1749,1749,1753,,,,,
50375675,1756,1752,1752,1757,,,,,
50378174,1760,1755,1756,1760,,,,,
50380673,1763,1759,1759,1763,,,,,
50383172,1766,1762,1762,1767,,,,,
50385671,1770,1765,1765,1770,,,,,
50388170,1773,1769,1769,1773,,,,,
50390669,1776,1772,1772,1776,,,,,
50393168,1779,1775,1775,1780,,,,,
50395667,1782,1778,1778,1783,,,,,
50398166,1786,1781,1782,1786,,,,,
50400665,1789,1785,1785,1789,,,,,
50403164,1792,1788,1788,1792,,,,,
50405663,1795,1791,1791,1796,,,,,
50408162,1798,1794,1794,1799,,,,,
50410661,1802,1797,1798,1802,,,,,
50413160,1805,1801,1801,1805,,,,,
50415659,1808,1804,1804,1808,,,,,
50418158,1811,1807,1807,1811,,,,,
50420657,1814,1810,1810,1814,,,,,
50423156,1817,1813,1813,1818,,,,,
50425655,1820,1816,1816,1821,,,,,
50428154,1823,1819,1819,1824,,,,,
50431486,1827,1822,1823,1827,,,,,
50433985,1830,1825,1826,1830,,,,,
50436484,1833,1829,1829,1833,,,,,
50438983,1836,1832,1832,1836,,,,,
50441482,1839,1835,1835,1839,,,,,
50443981,1842,1838,1838,1842,,,,,
50446480,1845,1841,1841,1845,,,,,
50448979,1848,1844,1844,1848,,,,,
50451478,1851,1847,1847,1851,,,,,
50453977,1854,1850,1850,1854,,,,,
50456476,1857,1853,1853,1857,,,,,
50458975,1860,1856,1856,1860,,,,,
50461474,1863,1859,1859,1863,,,,,
50463973,1866,1862,1862,1866,,,,,
50466472,1869,1865,1865,1869,,,,,
50468971,1872,1867,1868,1872,,,,,
50471470,1875,1870,1871,1875,,,,,
50473969,1878,1873,1874,1878,,,,,
50476468,1881,1876,1877,1881,,,,,
50478967,1884,1879,1880,1884,,,,,
50481466,1887,1882,1883,1887,,,,,
50483965,1890,1885,1886,1890,,,,,
50486464,1893,1888,1889,1893,,,,,
50488963,1892,1887,1888,1892,,,,,
50491462,1891,1886,1887,1891,,,,,
50493961,1890,1885,1886,1890,,,,,
50496460,1889,1884,1885,1889,,,,,
50498959,1888,1883,1884,1888,,,,,
50501458,1887,1882,1883,1887,,,,,
50503957,1886,1881,1882,1886,,,,,
50506456,1885,1881,1881,1885,,,,,
50508955,1885,1880,1880,1885,,,,,
50511454,1884,1879,1879,1884,,,,,
50513953,1883,1878,1879,1883,,,,,
50516452,1883,1878,1878,1883,,,,,
50518951,1882,1877,1878,1882,,,,,
50521450,1882,1877,1877,1882,,,,,
50523949,1882,1877,1877,1882,,,,,
50526448,1881,1877,1877,1881,,,,,
50528947,1881,1876,1877,1881,,,,,
50531446,1881,1876,1877,1881,,,,,
50533945,1881,1876,1877,1881,,,,,
50536444,1881,1876,1877,1881,,,,,
50538943,1881,1877,1877,1881,,,,,
50541442,1881,1877,1877,1882,,,,,
50543941,1882,1877,1877,1882,,,,,
50546440,1882,1878,1878,1882,,,,,
50548939,1883,1878,1878,1883,,,,,
50551438,1883,1879,1879,1883,,,,,
50553937,1883,1879,1879,1884,,,,,
50556436,1884,1880,1880,1884,,,,,
50558935,1884,1880,1881,1884,,,,,
50561434,1885,1881,1881,1885,,,,,
50563933,1885,1881,1882,1885,,,,,
50566432,1885,1882,1882,1885,,,,,
50568931,1885,1882,1882,1885,,,,,
50571430,1885,1882,1882,1885,,,,,
50573929,1884,1881,1881,1885,,,,,
50576428,1884,1881,1881,1884,,,,,
50578927,1883,1880,1880,1883,,,,,
50581426,1882,1879,1880,1882,,,,,
50583925,1881,1878,1879,1881,,,,,
50586424,1880,1877,1877,1880,,,,,
50588923,1879,1876,1876,1879,,,,,
50591422,1877,1875,1875,1877,,,,,
50593921,1875,1873,1873,1876,,,,,
50596420,1874,1871,1871,1874,,,,,
50598919,1872,1869,1869,1872,,,,,
50601418,1870,1867,1867,1870,,,,,
50603917,1868,1865,1865,1868,,,,,
50606416,1865,1863,1863,1865,,,,,
50608915,1863,1860,1861,1863,,,,,
50611414,1860,1858,1858,1860,,,,,
50613913,1858,1855,1856,1858,,,,,
50616412,1855,1853,1853,1855,,,,,
50618911,1852,1850,1850,1852,,,,,
50621410,1849,1847,1848,1849,,,,,
50623909,1846,1844,1845,1846,,,,,
50626408,1843,1841,1842,1843,,,,,
50628907,1840,1838,1839,1840,,,,,
50631406,1837,1835,1836,1837,,,,,
50633905,1834,1832,1833,1834,,,,,
50636404,1831,1829,1830,1831,,,,,
50638903,1828,1826,1827,1828,,,,,
50641402,1825,1823,1823,1825,,,,,
50643901,1822,1820,1820,1822,,,,,
50646400,1818,1817,1817,1819,,,,,
50648899,1815,1814,1814,1815,,,,,
50651398,1812,1810,1811,1812,,,,,
50653897,1809,1807,1808,1809,,,,,
50656396,1805,1804,1804,1805,,,,,
50658895,1802,1801,1801,1802,,,,,
50661394,1799,1797,1798,1799,,,,,
50663893,1795,1794,1794,1795,,,,,
50666392,1792,1791,1791,1792,,,,,
50668891,1789,1787,1788,1789,,,,,
50671390,1785,1784,1784,1785,,,,,
50673889,1782,1781,1781,1782,,,,,
50676388,1778,1777,1778,1778,,,,,
50678887,1775,1774,1774,1775,,,,,
50681386,1771,1770,1771,1771,,,,,
50683885,1768,1767,1767,1768,,,,,
50686384,1765,1764,1764,1764,,,,,
50688883,1761,1760,1761,1761,,,,,
50691382,1758,1757,1757,1758,,,,,
50693881,1754,1754,1754,1754,,,,,
50696380,1751,1750,1751,1751,,,,,
50698879,1748,1747,1748,1748,,,,,
50701378,1745,1744,1745,1745,,,,,
50703877,1742,1741,1741,1742,,,,,
50706376,1738,1738,1738,1738,,,,,
50708875,1735,1735,1735,1735,,,,,
50711374,1732,1732,1732,1732,,,,,
50713873,1729,1729,1729,1729,,,,,
50716372,1726,1726,1727,1726,,,,,
50718871,1724,1723,1724,1724,,,,,
50721370,1721,1720,1721,1721,,,,,
50723869,1718,1718,1718,1718,,,,,
50726368,1715,1715,1715,1715,,,,,
50728867,1712,1712,1713,1712,,,,,
50731366,1710,1710,1710,1710,,,,,
50733865,1707,1707,1707,1707,,,,,
50736364,1704,1704,1705,1704,,,,,
50738863,1702,1702,1702,1702,,,,,
50741362,1699,1699,1700,1699,,,,,
50743861,1697,1697,1697,1697,,,,,
50746360,1694,1694,1695,1694,,,,,
