TimeUS,M1,M2,M3,M4,TimeUS,C1,C2,C3,C4
54648965,1000,1000,1000,1000,54728933,1000,1000,1000,1000
54651464,1000,1000,1000,1000,54828893,1000,1000,1000,1000
54653963,1000,1000,1000,1000,54928853,1000,1000,1000,1000
54656462,1000,1000,1000,1000,55028813,1000,1000,1000,1000
54658961,1000,1000,1000,1000,55128773,1000,1000,1000,1000
54661460,1000,1000,1000,1000,55228733,1000,1000,1000,1000
54663959,1000,1000,1000,1000,55328693,1000,1000,1000,1000
54666458,1000,1000,1000,1000,55428653,1000,1000,1000,1000
54668957,1000,1000,1000,1000,55528613,1000,1000,1000,1000
54671456,1000,1000,1000,1000,55628573,1000,1000,1000,1000
54673955,1000,1000,1000,1000,55728533,1000,1000,1000,1000
54676454,1000,1000,1000,1000,55828493,1000,1000,1000,1000
54678953,1000,1000,1000,1000,55928453,1000,1000,1000,1000
54681452,1000,1000,1000,1000,56028413,1000,1000,1000,1000
54683951,1000,1000,1000,1000,56128373,1000,1000,1000,1000
54686450,1000,1000,1000,1000,56228333,1000,1000,1000,1000
54688949,1000,1000,1000,1000,56328293,1000,1000,1000,1000
54691448,1000,1000,1000,1000,56428253,1000,1000,1000,1000
54693947,1000,1000,1000,1000,56528213,1000,1000,1000,1000
54696446,1000,1000,1000,1000,56628173,1000,1000,1000,1000
54698945,1000,1000,1000,1000,56728966,1024,1024,1024,1024
54701444,1000,1000,1000,1000,56828926,1054,1054,1054,1054
54703943,1000,1000,1000,1000,56928886,1084,1084,1084,1084
54706442,1000,1000,1000,1000,57028846,1113,1113,1113,1113
54708941,1000,1000,1000,1000,57128806,1143,1143,1143,1143
54711440,1000,1000,1000,1000,57228766,1357,1351,1352,1357
54713939,1000,1000,1000,1000,57328726,1547,1541,1542,1547
54716438,1000,1000,1000,1000,57428686,1699,1694,1694,1699
54718937,1000,1000,1000,1000,57528646,1830,1825,1826,1830
54721436,1000,1000,1000,1000,57628606,1884,1879,1880,1884
54723935,1000,1000,1000,1000,57728566,1835,1834,1834,1836
54726434,1000,1000,1000,1000,57828526,1706,1706,1705,1707
54728933,1000,1000,1000,1000,57928486,1631,1633,1629,1635
54731432,1000,1000,1000,1000,58028446,1615,1618,1615,1619
54733931,1000,1000,1000,1000,58128406,1625,1626,1626,1626
54736430,1000,1000,1000,1000,58228366,1632,1632,1633,1631
54738929,1000,1000,1000,1000,58328326,1631,1631,1632,1629
54741428,1000,1000,1000,1000,58428286,1626,1625,1627,1624
54743927,1000,1000,1000,1000,58528246,1621,1620,1622,1619
54746426,1000,1000,1000,1000,58628206,1618,1617,1618,1617
54748925,1000,1000,1000,1000,58728166,1619,1618,1618,1618
54751424,1000,1000,1000,1000,58828959,1620,1620,1620,1619
54753923,1000,1000,1000,1000,58928919,1598,1598,1601,1594
54756422,1000,1000,1000,1000,59028879,1579,1580,1586,1573
54758921,1000,1000,1000,1000,59128839,1567,1569,1571,1565
54761420,1000,1000,1000,1000,59228799,1558,1559,1557,1559
54763919,1000,1000,1000,1000,59328759,1550,1550,1545,1555
54766418,1000,1000,1000,1000,59428719,1544,1544,1535,1553
54768917,1000,1000,1000,1000,59528679,1538,1537,1530,1544
54771416,1000,1000,1000,1000,59628639,1532,1532,1528,1536
54773915,1000,1000,1000,1000,59728599,1528,1527,1526,1528
54776414,1000,1000,1000,1000,59828559,1528,1528,1529,1526
54778913,1000,1000,1000,1000,59928519,1529,1529,1532,1527
54781412,1000,1000,1000,1000,60028479,1532,1533,1536,1530
54783911,1000,1000,1000,1000,60128439,1535,1536,1538,1533
54786410,1000,1000,1000,1000,60228399,1539,1540,1541,1538
54788909,1000,1000,1000,1000,60328359,1543,1542,1544,1542
54791408,1000,1000,1000,1000,60428319,1545,1545,1545,1545
54793907,1000,1000,1000,1000,60528279,1549,1548,1548,1549
54796406,1000,1000,1000,1000,60628239,1552,1551,1551,1552
54798905,1000,1000,1000,1000,60728199,1554,1554,1553,1555
54801404,1000,1000,1000,1000,60828159,1554,1554,1557,1559
54803903,1000,1000,1000,1000,60928952,1555,1554,1562,1564
54806402,1000,1000,1000,1000,61028912,1557,1557,1564,1565
54808901,1000,1000,1000,1000,61128872,1559,1560,1565,1565
54811400,1000,1000,1000,1000,61228832,1561,1562,1565,1564
54813899,1000,1000,1000,1000,61328792,1565,1565,1565,1565
54816398,1000,1000,1000,1000,61428752,1567,1567,1565,1565
54818897,1000,1000,1000,1000,61528712,1569,1569,1565,1565
54821396,1000,1000,1000,1000,61628672,1571,1570,1565,1565
54823895,1000,1000,1000,1000,61728632,1572,1571,1566,1567
54826394,1000,1000,1000,1000,61828592,1573,1573,1568,1568
54828893,1000,1000,1000,1000,61928552,1573,1573,1569,1569
54831392,1000,1000,1000,1000,62028512,1573,1573,1570,1570
54833891,1000,1000,1000,1000,62128472,1573,1573,1571,1572
54836390,1000,1000,1000,1000,62228432,1573,1574,1573,1573
54838889,1000,1000,1000,1000,62328392,1574,1574,1575,1574
54841388,1000,1000,1000,1000,62428352,1575,1575,1576,1575
54843887,1000,1000,1000,1000,62528312,1576,1575,1577,1576
54846386,1000,1000,1000,1000,62628272,1575,1575,1577,1576
54848885,1000,1000,1000,1000,62728232,1575,1575,1576,1576
54851384,1000,1000,1000,1000,62828192,1574,1575,1576,1576
54853883,1000,1000,1000,1000,62928985,1574,1574,1575,1576
54856382,1000,1000,1000,1000,63028945,1576,1576,1577,1576
54858881,1000,1000,1000,1000,63128905,1577,1577,1577,1577
54861380,1000,1000,1000,1000,63228865,1576,1576,1576,1576
54863879,1000,1000,1000,1000,63328825,1578,1578,1577,1577
54866378,1000,1000,1000,1000,63428785,1577,1577,1577,1577
54868877,1000,1000,1000,1000,63528745,1578,1578,1577,1577
54871376,1000,1000,1000,1000,63628705,1579,1578,1578,1578
54873875,1000,1000,1000,1000,63728665,1579,1579,1579,1578
54876374,1000,1000,1000,1000,63828625,1578,1579,1578,1578
54878873,1000,1000,1000,1000,63928585,1578,1578,1578,1578
54881372,1000,1000,1000,1000,64028545,1579,1579,1579,1579
54883871,1000,1000,1000,1000,64128505,1578,1578,1578,1578
54886370,1000,1000,1000,1000,64228465,1578,1578,1578,1578
54888869,1000,1000,1000,1000,64328425,1578,1577,1578,1578
54891368,1000,1000,1000,1000,64428385,1578,1579,1579,1578
54893867,1000,1000,1000,1000,64528345,1579,1579,1579,1579
54896366,1000,1000,1000,1000,64628305,1579,1579,1579,1579
54898865,1000,1000,1000,1000,64728265,1578,1578,1578,1578
54901364,1000,1000,1000,1000,64828225,1579,1579,1579,1579
54903863,1000,1000,1000,1000,64928185,1579,1578,1579,1579
54906362,1000,1000,1000,1000,65028978,1579,1579,1580,1580
54908861,1000,1000,1000,1000,65128938,1579,1579,1580,1580
54911360,1000,1000,1000,1000,65228898,1580,1579,1580,1579
54913859,1000,1000,1000,1000,65328858,1579,1580,1580,1579
54916358,1000,1000,1000,1000,65428818,1580,1580,1580,1580
54918857,1000,1000,1000,1000,65528778,1580,1580,1580,1580
54921356,1000,1000,1000,1000,65628738,1581,1581,1581,1580
54923855,1000,1000,1000,1000,65728698,1580,1580,1580,1580
54926354,1000,1000,1000,1000,65828658,1581,1581,1580,1580
54928853,1000,1000,1000,1000,65928618,1581,1581,1581,1581
54931352,1000,1000,1000,1000,66028578,1581,1581,1581,1581
54933851,1000,1000,1000,1000,66128538,1581,1580,1580,1580
54936350,1000,1000,1000,1000,66228498,1580,1580,1580,1580
54938849,1000,1000,1000,1000,66328458,1579,1580,1580,1580
54941348,1000,1000,1000,1000,66428418,1580,1580,1580,1580
54943847,1000,1000,1000,1000,66528378,1580,1580,1580,1581
54946346,1000,1000,1000,1000,66628338,1579,1580,1580,1580
54948845,1000,1000,1000,1000,66728298,1580,1581,1580,1581
54951344,1000,1000,1000,1000,66828258,1581,1581,1581,1581
54953843,1000,1000,1000,1000,66928218,1580,1580,1581,1580
54956342,1000,1000,1000,1000,67028178,1581,1581,1585,1577
54958841,1000,1000,1000,1000,67128971,1581,1582,1588,1573
54961340,1000,1000,1000,1000,67228931,1580,1582,1582,1574
54963839,1000,1000,1000,1000,67328891,1578,1581,1573,1573
54966338,1000,1000,1000,1000,67428851,1577,1579,1564,1570
54968837,1000,1000,1000,1000,67528811,1577,1579,1559,1566
54971336,1000,1000,1000,1000,67628771,1578,1578,1556,1561
54973835,1000,1000,1000,1000,67728731,1579,1577,1554,1557
54976334,1000,1000,1000,1000,67828691,1580,1578,1556,1555
54978833,1000,1000,1000,1000,67928651,1578,1577,1556,1553
54981332,1000,1000,1000,1000,68028611,1578,1578,1557,1554
54983831,1000,1000,1000,1000,68128571,1577,1578,1557,1554
54986330,1000,1000,1000,1000,68228531,1576,1578,1556,1555
54988829,1000,1000,1000,1000,68328491,1575,1577,1554,1554
54991328,1000,1000,1000,1000,68428451,1574,1575,1552,1552
54993827,1000,1000,1000,1000,68528411,1576,1577,1551,1551
54996326,1000,1000,1000,1000,68628371,1577,1578,1548,1549
54998825,1000,1000,1000,1000,68728331,1579,1580,1547,1546
55001324,1000,1000,1000,1000,68828291,1582,1583,1545,1544
55003823,1000,1000,1000,1000,68928251,1586,1587,1542,1542
55006322,1000,1000,1000,1000,69028211,1588,1589,1539,1538
55008821,1000,1000,1000,1000,69128171,1592,1592,1537,1537
55011320,1000,1000,1000,1000,69228964,1594,1594,1535,1535
55013819,1000,1000,1000,1000,69328924,1595,1595,1534,1536
55016318,1000,1000,1000,1000,69428884,1595,1595,1535,1536
55018817,1000,1000,1000,1000,69528844,1594,1594,1537,1539
55021316,1000,1000,1000,1000,69628804,1592,1591,1541,1544
55023815,1000,1000,1000,1000,69728764,1587,1585,1548,1550
55026314,1000,1000,1000,1000,69828724,1581,1578,1557,1560
55028813,1000,1000,1000,1000,69928684,1571,1567,1568,1570
55031312,1000,1000,1000,1000,70028644,1560,1556,1579,1581
55033811,1000,1000,1000,1000,70128604,1549,1545,1591,1592
55036310,1000,1000,1000,1000,70228564,1539,1537,1603,1603
55038809,1000,1000,1000,1000,70328524,1533,1532,1612,1611
55041308,1000,1000,1000,1000,70428484,1528,1530,1616,1614
55043807,1000,1000,1000,1000,70528444,1529,1532,1616,1615
55046306,1000,1000,1000,1000,70628404,1534,1536,1614,1613
55048805,1000,1000,1000,1000,70728364,1540,1542,1608,1608
55051304,1000,1000,1000,1000,70828324,1548,1549,1600,1601
55053803,1000,1000,1000,1000,70928284,1557,1558,1594,1593
55056302,1000,1000,1000,1000,71028244,1566,1566,1586,1585
55058801,1000,1000,1000,1000,71128204,1574,1573,1578,1577
55061300,1000,1000,1000,1000,71228164,1580,1579,1572,1572
55063799,1000,1000,1000,1000,71328957,1585,1584,1569,1569
55066298,1000,1000,1000,1000,71428917,1588,1587,1567,1567
55068797,1000,1000,1000,1000,71528877,1588,1586,1565,1565
55071296,1000,1000,1000,1000,71628837,1587,1586,1566,1567
55073795,1000,1000,1000,1000,71728797,1585,1585,1569,1569
55076294,1000,1000,1000,1000,71828757,1583,1583,1572,1572
55078793,1000,1000,1000,1000,71928717,1580,1580,1575,1575
55081292,1000,1000,1000,1000,72028677,1577,1577,1578,1578
55083791,1000,1000,1000,1000,72128637,1574,1575,1580,1580
55086290,1000,1000,1000,1000,72228597,1572,1572,1581,1581
55088789,1000,1000,1000,1000,72328557,1571,1572,1582,1582
55091288,1000,1000,1000,1000,72428517,1571,1572,1583,1583
55093787,1000,1000,1000,1000,72528477,1572,1573,1583,1583
55096286,1000,1000,1000,1000,72628437,1574,1574,1584,1582
55098785,1000,1000,1000,1000,72728397,1575,1576,1583,1582
55101284,1000,1000,1000,1000,72828357,1577,1577,1581,1581
55103783,1000,1000,1000,1000,72928317,1578,1578,1580,1580
55106282,1000,1000,1000,1000,73028277,1580,1580,1579,1579
55108781,1000,1000,1000,1000,73128237,1581,1581,1578,1578
55111280,1000,1000,1000,1000,73228197,1581,1581,1578,1577
55113779,1000,1000,1000,1000,73328157,1604,1603,1386,1513
55116278,1000,1000,1000,1000,73428950,1636,1638,1502,1507
55118777,1000,1000,1000,1000,73528910,1673,1679,1611,1547
55121276,1000,1000,1000,1000,73628870,1644,1658,1650,1543
55123775,1000,1000,1000,1000,73728830,1625,1647,1650,1576
55126274,1000,1000,1000,1000,73828790,1630,1650,1650,1607
55128773,1000,1000,1000,1000,73928750,1626,1638,1650,1633
55131272,1000,1000,1000,1000,74028710,1608,1605,1650,1659
55133771,1000,1000,1000,1000,74128670,1574,1568,1650,1679
55136270,1000,1000,1000,1000,74228630,1548,1524,1650,1682
55138769,1000,1000,1000,1000,74328590,1533,1494,1650,1673
55141268,1000,1000,1000,1000,74428550,1536,1498,1650,1663
55143767,1000,1000,1000,1000,74528510,1562,1536,1650,1658
55146266,1000,1000,1000,1000,74628470,1598,1590,1650,1653
55148765,1000,1000,1000,1000,74728430,1628,1638,1650,1651
55151264,1000,1000,1000,1000,74828390,1619,1640,1624,1618
55153763,1000,1000,1000,1000,74928350,1606,1632,1596,1594
55156262,1000,1000,1000,1000,75028310,1599,1621,1576,1577
55158761,1000,1000,1000,1000,75128270,1593,1609,1562,1556
55161260,1000,1000,1000,1000,75228230,1587,1596,1545,1545
55163759,1000,1000,1000,1000,75328190,1581,1583,1531,1538
55166258,1000,1000,1000,1000,75428983,1577,1571,1523,1532
55168757,1000,1000,1000,1000,75528943,1574,1565,1522,1528
55171256,1000,1000,1000,1000,75628903,1570,1562,1523,1525
55173755,1000,1000,1000,1000,75728863,1568,1564,1527,1525
55176254,1000,1000,1000,1000,75828823,1564,1564,1529,1526
55178753,1000,1000,1000,1000,75928783,1564,1566,1534,1530
55181252,1000,1000,1000,1000,76028743,1562,1566,1537,1534
55183751,1000,1000,1000,1000,76128703,1562,1565,1539,1538
55186250,1000,1000,1000,1000,76228663,1563,1565,1542,1542
55188749,1000,1000,1000,1000,76328623,1564,1566,1544,1545
55191248,1000,1000,1000,1000,76428583,1565,1566,1545,1546
55193747,1000,1000,1000,1000,76528543,1568,1568,1547,1548
55196246,1000,1000,1000,1000,76628503,1570,1570,1548,1547
55198745,1000,1000,1000,1000,76728463,1573,1573,1548,1547
55201244,1000,1000,1000,1000,76828423,1576,1577,1547,1546
55203743,1000,1000,1000,1000,76928383,1579,1580,1545,1545
55206242,1000,1000,1000,1000,77028343,1582,1584,1544,1544
55208741,1000,1000,1000,1000,77128303,1587,1586,1543,1543
55211240,1000,1000,1000,1000,77228263,1589,1589,1541,1542
55213739,1000,1000,1000,1000,77328223,1591,1590,1540,1542
55216238,1000,1000,1000,1000,77428183,1590,1589,1540,1542
55218737,1000,1000,1000,1000,77528976,1589,1587,1543,1545
55221236,1000,1000,1000,1000,77628936,1586,1584,1547,1549
55223735,1000,1000,1000,1000,77728896,1581,1579,1553,1554
55226234,1000,1000,1000,1000,77828856,1576,1574,1559,1561
55228733,1000,1000,1000,1000,77928816,1569,1567,1566,1568
55231232,1000,1000,1000,1000,78028776,1562,1561,1572,1574
55233731,1000,1000,1000,1000,78128736,1557,1556,1580,1580
55236230,1000,1000,1000,1000,78228696,1553,1552,1586,1585
55238729,1000,1000,1000,1000,78328656,1550,1549,1592,1590
55241228,1000,1000,1000,1000,78428616,1547,1547,1595,1593
55243727,1000,1000,1000,1000,78528576,1547,1548,1598,1596
55246226,1000,1000,1000,1000,78628536,1547,1548,1598,1597
55248725,1000,1000,1000,1000,78728496,1548,1548,1597,1597
55251224,1000,1000,1000,1000,78828456,1551,1551,1597,1597
55253723,1000,1000,1000,1000,78928416,1553,1553,1594,1595
55256222,1000,1000,1000,1000,79028376,1555,1555,1592,1593
55258721,1000,1000,1000,1000,79128336,1558,1558,1589,1591
55261220,1000,1000,1000,1000,79228296,1561,1561,1588,1587
55263719,1000,1000,1000,1000,79328256,1564,1564,1586,1585
55266218,1000,1000,1000,1000,79428216,1566,1567,1583,1582
55268717,1000,1000,1000,1000,79528176,1569,1570,1581,1580
55271216,1000,1000,1000,1000,79628969,1571,1572,1578,1577
55273715,1000,1000,1000,1000,79728929,1574,1574,1576,1576
55276214,1000,1000,1000,1000,79828889,1576,1576,1574,1574
55278713,1000,1000,1000,1000,79928849,1579,1578,1573,1574
55281212,1000,1000,1000,1000,80028809,1579,1578,1571,1572
55283711,1000,1000,1000,1000,80128769,1581,1580,1571,1571
55286210,1000,1000,1000,1000,80228729,1582,1582,1571,1572
55288709,1000,1000,1000,1000,80328689,1582,1581,1571,1571
55291208,1000,1000,1000,1000,80428649,1582,1582,1572,1573
55293707,1000,1000,1000,1000,80528609,1581,1581,1573,1573
55296206,1000,1000,1000,1000,80628569,1581,1581,1575,1574
55298705,1000,1000,1000,1000,80728529,1580,1581,1577,1576
55301204,1000,1000,1000,1000,80828489,1579,1579,1577,1577
55303703,1000,1000,1000,1000,80928449,1579,1578,1579,1578
55306202,1000,1000,1000,1000,81028409,1578,1577,1579,1579
55308701,1000,1000,1000,1000,81128369,1577,1577,1580,1580
55311200,1000,1000,1000,1000,81228329,1578,1579,1582,1582
55313699,1000,1000,1000,1000,81328289,1578,1578,1582,1582
55316198,1000,1000,1000,1000,81428249,1577,1577,1582,1581
55318697,1000,1000,1000,1000,81528209,1577,1578,1582,1581
55321196,1000,1000,1000,1000,81628169,1578,1578,1582,1582
55323695,1000,1000,1000,1000,81728962,1578,1578,1581,1581
55326194,1000,1000,1000,1000,81828922,1578,1578,1580,1581
55328693,1000,1000,1000,1000,81928882,1578,1579,1580,1581
55331192,1000,1000,1000,1000,82028842,1579,1579,1579,1580
55333691,1000,1000,1000,1000,82128802,1580,1580,1580,1580
55336190,1000,1000,1000,1000,82228762,1580,1580,1580,1579
55338689,1000,1000,1000,1000,82328722,1580,1579,1579,1578
55341188,1000,1000,1000,1000,82428682,1580,1580,1578,1578
55343687,1000,1000,1000,1000,82528642,1581,1581,1579,1579
55346186,1000,1000,1000,1000,82628602,1581,1580,1579,1579
55348685,1000,1000,1000,1000,82728562,1580,1581,1579,1579
55351184,1000,1000,1000,1000,82828522,1581,1581,1580,1580
55353683,1000,1000,1000,1000,82928482,1581,1581,1580,1580
55356182,1000,1000,1000,1000,83028442,1581,1581,1581,1581
55358681,1000,1000,1000,1000,83128402,1580,1580,1580,1580
55361180,1000,1000,1000,1000,83228362,1581,1580,1581,1581
55363679,1000,1000,1000,1000,83328322,1581,1581,1581,1581
55366178,1000,1000,1000,1000,83428282,1580,1580,1581,1581
55368677,1000,1000,1000,1000,83528242,1580,1580,1581,1581
55371176,1000,1000,1000,1000,83628202,1580,1580,1581,1581
55373675,1000,1000,1000,1000,83728162,1581,1581,1583,1579
55376174,1000,1000,1000,1000,83828955,1580,1582,1587,1573
55378673,1000,1000,1000,1000,83928915,1579,1584,1584,1574
55381172,1000,1000,1000,1000,84028875,1577,1582,1576,1574
55383671,1000,1000,1000,1000,84128835,1577,1579,1568,1573
55386170,1000,1000,1000,1000,84228795,1577,1578,1562,1569
55388669,1000,1000,1000,1000,84328755,1577,1577,1557,1564
55391168,1000,1000,1000,1000,84428715,1579,1576,1554,1559
55393667,1000,1000,1000,1000,84528675,1579,1576,1553,1555
55396166,1000,1000,1000,1000,84628635,1580,1577,1553,1553
55398665,1000,1000,1000,1000,84728595,1579,1579,1554,1552
55401164,1000,1000,1000,1000,84828555,1578,1579,1555,1552
55403663,1000,1000,1000,1000,84928515,1577,1579,1554,1553
55406162,1000,1000,1000,1000,85028475,1576,1578,1554,1552
55408661,1000,1000,1000,1000,85128435,1575,1578,1553,1553
55411160,1000,1000,1000,1000,85228395,1576,1577,1552,1552
55413659,1000,1000,1000,1000,85328355,1578,1579,1551,1552
55416158,1000,1000,1000,1000,85428315,1579,1580,1549,1549
55418657,1000,1000,1000,1000,85528275,1581,1582,1547,1547
55421156,1000,1000,1000,1000,85628235,1584,1585,1546,1545
55423655,1000,1000,1000,1000,85728195,1587,1587,1543,1543
55426154,1000,1000,1000,1000,85828155,1590,1590,1542,1541
55428653,1000,1000,1000,1000,85928948,1591,1591,1539,1539
55431152,1000,1000,1000,1000,86028908,1593,1595,1537,1539
55433651,1000,1000,1000,1000,86128868,1594,1596,1536,1538
55436150,1000,1000,1000,1000,86228828,1595,1595,1537,1539
55438649,1000,1000,1000,1000,86328788,1594,1592,1539,1543
55441148,1000,1000,1000,1000,86428748,1591,1587,1545,1549
55443647,1000,1000,1000,1000,86528708,1585,1580,1553,1557
55446146,1000,1000,1000,1000,86628668,1576,1572,1564,1567
55448645,1000,1000,1000,1000,86728628,1565,1561,1576,1578
55451144,1000,1000,1000,1000,86828588,1554,1552,1589,1589
55453643,1000,1000,1000,1000,86928548,1545,1544,1601,1599
55456142,1000,1000,1000,1000,87028508,1539,1540,1609,1606
55458641,1000,1000,1000,1000,87128468,1538,1540,1614,1611
55461140,1000,1000,1000,1000,87228428,1539,1541,1615,1612
55463639,1000,1000,1000,1000,87328388,1541,1543,1613,1611
55466138,1000,1000,1000,1000,87428348,1545,1546,1610,1609
55468637,1000,1000,1000,1000,87528308,1550,1551,1606,1605
55471136,1000,1000,1000,1000,87628268,1554,1555,1600,1601
55473635,1000,1000,1000,1000,87728228,1559,1559,1595,1595
55476134,1000,1000,1000,1000,87828188,1564,1564,1589,1590
55478633,1000,1000,1000,1000,87928981,1569,1569,1583,1584
55481132,1000,1000,1000,1000,88028941,1573,1573,1577,1578
55483631,1000,1000,1000,1000,88128901,1578,1578,1572,1573
55486130,1000,1000,1000,1000,88228861,1583,1582,1568,1569
55488629,1000,1000,1000,1000,88328821,1586,1585,1565,1567
55491128,1000,1000,1000,1000,88428781,1586,1584,1563,1564
55493627,1000,1000,1000,1000,88528741,1586,1585,1564,1565
55496126,1000,1000,1000,1000,88628701,1584,1583,1565,1566
55498625,1000,1000,1000,1000,88728661,1583,1582,1569,1569
55501124,1000,1000,1000,1000,88828621,1580,1580,1572,1571
55503623,1000,1000,1000,1000,88928581,1577,1578,1575,1575
55506122,1000,1000,1000,1000,89028541,1575,1575,1577,1577
55508621,1000,1000,1000,1000,89128501,1574,1574,1581,1580
55511120,1000,1000,1000,1000,89228461,1573,1574,1583,1583
55513619,1000,1000,1000,1000,89328421,1572,1573,1584,1583
55516118,1000,1000,1000,1000,89428381,1572,1573,1585,1584
55518617,1000,1000,1000,1000,89528341,1573,1573,1584,1583
55521116,1000,1000,1000,1000,89628301,1573,1574,1583,1583
55523615,1000,1000,1000,1000,89728261,1576,1576,1583,1583
55526114,1000,1000,1000,1000,89828221,1577,1577,1581,1582
55528613,1000,1000,1000,1000,89928181,1578,1578,1580,1580
55531112,1000,1000,1000,1000,90028974,1580,1580,1579,1580
55533611,1000,1000,1000,1000,90128934,1581,1580,1578,1579
55536110,1000,1000,1000,1000,90228894,1581,1580,1577,1577
55538609,1000,1000,1000,1000,90328854,1581,1581,1577,1577
55541108,1000,1000,1000,1000,90428814,1582,1582,1577,1577
55543607,1000,1000,1000,1000,90528774,1582,1582,1578,1578
55546106,1000,1000,1000,1000,90628734,1582,1581,1578,1578
55548605,1000,1000,1000,1000,90728694,1581,1581,1578,1578
55551104,1000,1000,1000,1000,90828654,1581,1582,1580,1580
55553603,1000,1000,1000,1000,90928614,1581,1581,1580,1580
55556102,1000,1000,1000,1000,91028574,1579,1579,1580,1580
55558601,1000,1000,1000,1000,91128534,1580,1580,1581,1581
55561100,1000,1000,1000,1000,91228494,1580,1580,1581,1582
55563599,1000,1000,1000,1000,91328454,1580,1580,1582,1582
55566098,1000,1000,1000,1000,91428414,1580,1580,1582,1582
55568597,1000,1000,1000,1000,91528374,1580,1580,1582,1582
55571096,1000,1000,1000,1000,91628334,1580,1580,1582,1581
55573595,1000,1000,1000,1000,91728294,1581,1582,1587,1573
55576094,1000,1000,1000,1000,91828254,1580,1581,1585,1573
55578593,1000,1000,1000,1000,91928214,1577,1577,1579,1575
55581092,1000,1000,1000,1000,92028174,1574,1574,1573,1576
55583591,1000,1000,1000,1000,92128967,1571,1570,1568,1575
55586090,1000,1000,1000,1000,92228927,1568,1567,1565,1572
55588589,1000,1000,1000,1000,92328887,1567,1566,1564,1570
55591088,1000,1000,1000,1000,92428847,1566,1565,1564,1567
55593587,1000,1000,1000,1000,92528807,1566,1565,1565,1564
55596086,1000,1000,1000,1000,92628767,1566,1566,1566,1564
55598585,1000,1000,1000,1000,92728727,1567,1567,1567,1564
55601084,1000,1000,1000,1000,92828687,1565,1566,1566,1563
55603583,1000,1000,1000,1000,92928647,1565,1565,1565,1563
55606082,1000,1000,1000,1000,93028607,1564,1564,1564,1564
55608581,1000,1000,1000,1000,93128567,1563,1563,1563,1563
55611080,1000,1000,1000,1000,93228527,1563,1562,1563,1563
55613579,1000,1000,1000,1000,93328487,1562,1561,1562,1563
55616078,1000,1000,1000,1000,93428447,1561,1560,1562,1561
55618577,1000,1000,1000,1000,93528407,1560,1560,1561,1561
55621076,1000,1000,1000,1000,93628367,1559,1559,1561,1560
55623575,1000,1000,1000,1000,93728327,1559,1559,1560,1559
55626074,1000,1000,1000,1000,93828287,1558,1558,1559,1558
55628573,1000,1000,1000,1000,93928247,1559,1559,1559,1558
55631072,1000,1000,1000,1000,94028207,1558,1558,1559,1557
55633571,1000,1000,1000,1000,94128167,1559,1559,1559,1558
55636070,1000,1000,1000,1000,94228960,1558,1558,1559,1557
55638569,1000,1000,1000,1000,94328920,1558,1558,1559,1557
55641068,1000,1000,1000,1000,94428880,1559,1559,1560,1557
55643567,1000,1000,1000,1000,94528840,1560,1560,1559,1560
55646066,1000,1000,1000,1000,94628800,1560,1560,1558,1562
55648565,1000,1000,1000,1000,94728760,1560,1560,1556,1563
55651064,1000,1000,1000,1000,94828720,1560,1560,1557,1563
55653563,1000,1000,1000,1000,94928680,1561,1561,1558,1563
55656062,1000,1000,1000,1000,95028640,1561,1561,1560,1561
55658561,1000,1000,1000,1000,95128600,1561,1561,1561,1559
55661060,1000,1000,1000,1000,95228560,1560,1561,1561,1559
55663559,1000,1000,1000,1000,95328520,1557,1557,1557,1558
55666058,1000,1000,1000,1000,95428480,1554,1553,1554,1556
55668557,1000,1000,1000,1000,95528440,1549,1549,1550,1551
55671056,1000,1000,1000,1000,95628400,1544,1544,1546,1546
55673555,1000,1000,1000,1000,95728360,1536,1536,1539,1539
55676054,1000,1000,1000,1000,95828320,1528,1528,1532,1531
55678553,1000,1000,1000,1000,95928280,1521,1521,1524,1524
55681052,1000,1000,1000,1000,96028240,1518,1518,1520,1521
55683551,1000,1000,1000,1000,96128200,1519,1518,1518,1520
55686050,1000,1000,1000,1000,96228160,1521,1521,1518,1520
55688549,1000,1000,1000,1000,96328953,1524,1524,1520,1522
55691048,1000,1000,1000,1000,96428913,1528,1528,1523,1524
55693547,1000,1000,1000,1000,96528873,1533,1533,1528,1528
55696046,1000,1000,1000,1000,96628833,1538,1538,1533,1532
55698545,1000,1000,1000,1000,96728793,1541,1541,1537,1535
55701044,1000,1000,1000,1000,96828753,1543,1543,1540,1538
55703543,1000,1000,1000,1000,96928713,1544,1544,1543,1541
55706042,1000,1000,1000,1000,97028673,1545,1545,1545,1544
55708541,1000,1000,1000,1000,97128633,1545,1545,1546,1546
55711040,1000,1000,1000,1000,97228593,1545,1546,1547,1547
55713539,1000,1000,1000,1000,97328553,1546,1546,1548,1548
55716038,1000,1000,1000,1000,97428513,1544,1545,1548,1548
55718537,1000,1000,1000,1000,97528473,1545,1544,1548,1547
55721036,1000,1000,1000,1000,97628433,1545,1544,1548,1548
55723535,1000,1000,1000,1000,97728393,1545,1545,1548,1548
55726034,1000,1000,1000,1000,97828353,1545,1545,1547,1547
55728533,1000,1000,1000,1000,97928313,1544,1544,1546,1546
55731032,1000,1000,1000,1000,98028273,1545,1545,1545,1545
55733531,1000,1000,1000,1000,98128233,1545,1545,1545,1544
55736030,1000,1000,1000,1000,98228193,1544,1544,1544,1543
55738529,1000,1000,1000,1000,98328986,1545,1545,1544,1544
55741028,1000,1000,1000,1000,98428946,1543,1544,1543,1542
55743527,1000,1000,1000,1000,98528906,1544,1545,1543,1543
55746026,1000,1000,1000,1000,98628866,1545,1545,1544,1544
55748525,1000,1000,1000,1000,98728826,1545,1544,1543,1544
55751024,1000,1000,1000,1000,98828786,1544,1544,1543,1543
55753523,1000,1000,1000,1000,98928746,1544,1544,1543,1543
55756022,1000,1000,1000,1000,99028706,1544,1543,1544,1543
55758521,1000,1000,1000,1000,99128666,1544,1544,1544,1544
55761020,1000,1000,1000,1000,99228626,1544,1543,1544,1544
55763519,1000,1000,1000,1000,99328586,1543,1543,1543,1544
55766018,1000,1000,1000,1000,99428546,1544,1544,1544,1544
55768517,1000,1000,1000,1000,99528506,1543,1544,1544,1544
55771016,1000,1000,1000,1000,99628466,1544,1544,1544,1544
55773515,1000,1000,1000,1000,99728426,1544,1544,1544,1544
55776014,1000,1000,1000,1000,99828386,1544,1545,1545,1545
55778513,1000,1000,1000,1000,99928346,1544,1544,1544,1544
55781012,1000,1000,1000,1000,100028306,1544,1544,1544,1544
55783511,1000,1000,1000,1000,100128266,1545,1544,1544,1544
55786010,1000,1000,1000,1000,100228226,1544,1544,1544,1544
55788509,1000,1000,1000,1000,100328186,1544,1544,1544,1544
55791008,1000,1000,1000,1000,100428979,1544,1545,1544,1544
55793507,1000,1000,1000,1000,100528939,1543,1543,1544,1544
55796006,1000,1000,1000,1000,100628899,1544,1544,1544,1544
55798505,1000,1000,1000,1000,100728859,1543,1543,1543,1543
55801004,1000,1000,1000,1000,100828819,1543,1543,1543,1543
55803503,1000,1000,1000,1000,100928779,1544,1544,1544,1544
55806002,1000,1000,1000,1000,101028739,1544,1544,1544,1544
55808501,1000,1000,1000,1000,101128699,1543,1543,1543,1543
55811000,1000,1000,1000,1000,101228659,1543,1543,1543,1543
55813499,1000,1000,1000,1000,101328619,1545,1544,1544,1544
55815998,1000,1000,1000,1000,101428579,1544,1545,1544,1544
55818497,1000,1000,1000,1000,101528539,1545,1545,1544,1545
55820996,1000,1000,1000,1000,101628499,1544,1544,1544,1544
55823495,1000,1000,1000,1000,101728459,1544,1544,1545,1544
55825994,1000,1000,1000,1000,101828419,1545,1545,1545,1545
55828493,1000,1000,1000,1000,101928379,1545,1545,1545,1545
55830992,1000,1000,1000,1000,102028339,1544,1544,1544,1544
55833491,1000,1000,1000,1000,102128299,1545,1544,1545,1545
55835990,1000,1000,1000,1000,102228259,1543,1543,1544,1543
55838489,1000,1000,1000,1000,102328219,1544,1544,1544,1545
55840988,1000,1000,1000,1000,102428179,1545,1544,1545,1545
55843487,1000,1000,1000,1000,102528972,1544,1544,1544,1544
55845986,1000,1000,1000,1000,102628932,1543,1544,1544,1544
55848485,1000,1000,1000,1000,102728892,1544,1543,1544,1544
55850984,1000,1000,1000,1000,102828852,1544,1544,1544,1544
55853483,1000,1000,1000,1000,102928812,1544,1544,1544,1544
55855982,1000,1000,1000,1000,103028772,1545,1545,1544,1545
55858481,1000,1000,1000,1000,103128732,1544,1544,1543,1544
55860980,1000,1000,1000,1000,103228692,1544,1544,1544,1544
55863479,1000,1000,1000,1000,103328652,1544,1544,1544,1544
55865978,1000,1000,1000,1000,103428612,1544,1544,1544,1544
55868477,1000,1000,1000,1000,103528572,1544,1544,1544,1544
55870976,1000,1000,1000,1000,103628532,1545,1545,1545,1545
55873475,1000,1000,1000,1000,103728492,1545,1544,1544,1545
55875974,1000,1000,1000,1000,103828452,1544,1544,1544,1544
55878473,1000,1000,1000,1000,103928412,1544,1544,1544,1544
55880972,1000,1000,1000,1000,104028372,1544,1545,1545,1544
55883471,1000,1000,1000,1000,104128332,1543,1543,1544,1544
55885970,1000,1000,1000,1000,104228292,1544,1544,1544,1544
55888469,1000,1000,1000,1000,104328252,1543,1543,1543,1544
55890968,1000,1000,1000,1000,104428212,1544,1544,1544,1544
55893467,1000,1000,1000,1000,104528172,1544,1544,1544,1545
55895966,1000,1000,1000,1000,104628965,1544,1544,1543,1544
55898465,1000,1000,1000,1000,104728925,1544,1544,1544,1544
55900964,1000,1000,1000,1000,104828885,1545,1544,1544,1543
55903463,1000,1000,1000,1000,104928845,1544,1543,1544,1543
55905962,1000,1000,1000,1000,105028805,1545,1544,1544,1544
55908461,1000,1000,1000,1000,105128765,1544,1544,1544,1544
55910960,1000,1000,1000,1000,105228725,1544,1545,1544,1545
55913459,1000,1000,1000,1000,105328685,1543,1543,1543,1543
55915958,1000,1000,1000,1000,105428645,1543,1544,1544,1544
55918457,1000,1000,1000,1000,105528605,1544,1544,1543,1544
55920956,1000,1000,1000,1000,105628565,1544,1544,1544,1544
55923455,1000,1000,1000,1000,105728525,1531,1532,1535,1532
55925954,1000,1000,1000,1000,105828485,1343,1341,1407,1343
55928453,1000,1000,1000,1000,105928445,1246,1242,1350,1245
55930952,1000,1000,1000,1000,106028405,1214,1212,1333,1214
55933451,1000,1000,1000,1000,106128365,1191,1188,1321,1191
55935950,1000,1000,1000,1000,106228325,1151,1150,1302,1151
55938449,1000,1000,1000,1000,106328285,1168,1166,1134,1150
55940948,1000,1000,1000,1000,106428245,1166,1165,1114,1150
55943447,1000,1000,1000,1000,106528205,1166,1165,1114,1150
55945946,1000,1000,1000,1000,106628165,1166,1163,1115,1150
55948445,1000,1000,1000,1000,106728958,1167,1150,1123,1150
55950944,1000,1000,1000,1000,106828918,1166,1156,1120,1150
55953443,1000,1000,1000,1000,106928878,1165,1157,1120,1150
55955942,1000,1000,1000,1000,107028838,1165,1157,1120,1150
55958441,1000,1000,1000,1000,107128798,1165,1156,1121,1150
55960940,1000,1000,1000,1000,107228758,1164,1156,1121,1150
55963439,1000,1000,1000,1000,107328718,1164,1155,1122,1150
55965938,1000,1000,1000,1000,107428678,1163,1169,1114,1150
55968437,1000,1000,1000,1000,107528638,1163,1162,1118,1150
55970936,1000,1000,1000,1000,107628598,1163,1161,1118,1150
55973435,1000,1000,1000,1000,107728558,1163,1161,1118,1150
55975934,1000,1000,1000,1000,107828518,1163,1161,1119,1150
55978433,1000,1000,1000,1000,107928478,1148,1148,848,1148
55980932,1000,1000,1000,1000,108028438,1000,1000,1000,1000
55983431,1000,1000,1000,1000,108128398,1000,1000,1000,1000
55985930,1000,1000,1000,1000,108228358,1000,1000,1000,1000
55988429,1000,1000,1000,1000,108328318,1000,1000,1000,1000
55990928,1000,1000,1000,1000,108428278,1000,1000,1000,1000
55993427,1000,1000,1000,1000,108528238,1000,1000,1000,1000
55995926,1000,1000,1000,1000,108628198,1000,1000,1000,1000
55998425,1000,1000,1000,1000,108728158,1000,1000,1000,1000
56000924,1000,1000,1000,1000,108828951,1000,1000,1000,1000
56003423,1000,1000,1000,1000,108928911,1000,1000,1000,1000
56005922,1000,1000,1000,1000,109028871,1000,1000,1000,1000
56008421,1000,1000,1000,1000,109128831,1000,1000,1000,1000
56010920,1000,1000,1000,1000,109228791,1000,1000,1000,1000
56013419,1000,1000,1000,1000,109328751,1000,1000,1000,1000
56015918,1000,1000,1000,1000,109428711,1000,1000,1000,1000
56018417,1000,1000,1000,1000,109528671,1000,1000,1000,1000
56020916,1000,1000,1000,1000,109628631,1000,1000,1000,1000
56023415,1000,1000,1000,1000,109728591,1000,1000,1000,1000
56025914,1000,1000,1000,1000,109828551,1000,1000,1000,1000
56028413,1000,1000,1000,1000,109928511,1000,1000,1000,1000
56030912,1000,1000,1000,1000,110028471,1000,1000,1000,1000
56033411,1000,1000,1000,1000,110128431,1000,1000,1000,1000
56035910,1000,1000,1000,1000,110228391,1000,1000,1000,1000
56038409,1000,1000,1000,1000,110328351,1000,1000,1000,1000
56040908,1000,1000,1000,1000,110428311,1000,1000,1000,1000
56043407,1000,1000,1000,1000,110528271,1000,1000,1000,1000
56045906,1000,1000,1000,1000,110628231,1000,1000,1000,1000
56048405,1000,1000,1000,1000,110728191,1000,1000,1000,1000
56050904,1000,1000,1000,1000,110828984,1000,1000,1000,1000
56053403,1000,1000,1000,1000,110928944,1000,1000,1000,1000
56055902,1000,1000,1000,1000,111028904,1000,1000,1000,1000
56058401,1000,1000,1000,1000,111128864,1000,1000,1000,1000
56060900,1000,1000,1000,1000,111228824,1000,1000,1000,1000
56063399,1000,1000,1000,1000,111328784,1000,1000,1000,1000
56065898,1000,1000,1000,1000,111428744,1000,1000,1000,1000
56068397,1000,1000,1000,1000,111528704,1000,1000,1000,1000
56070896,1000,1000,1000,1000,111628664,1000,1000,1000,1000
56073395,1000,1000,1000,1000,111728624,1000,1000,1000,1000
56075894,1000,1000,1000,1000,111828584,1000,1000,1000,1000
56078393,1000,1000,1000,1000,111928544,1000,1000,1000,1000
56080892,1000,1000,1000,1000,112028504,1000,1000,1000,1000
56083391,1000,1000,1000,1000,112128464,1000,1000,1000,1000
56085890,1000,1000,1000,1000,112228424,1000,1000,1000,1000
56088389,1000,1000,1000,1000,112328384,1000,1000,1000,1000
56090888,1000,1000,1000,1000,112428344,1000,1000,1000,1000
56093387,1000,1000,1000,1000,112528304,1000,1000,1000,1000
56095886,1000,1000,1000,1000,112628264,1000,1000,1000,1000
56098385,1000,1000,1000,1000,112728224,1000,1000,1000,1000
56100884,1000,1000,1000,1000,112828184,1000,1000,1000,1000
56103383,1000,1000,1000,1000,112928977,1000,1000,1000,1000
56105882,1000,1000,1000,1000,113028937,1000,1000,1000,1000
56108381,1000,1000,1000,1000,113128897,1000,1000,1000,1000
56110880,1000,1000,1000,1000,113228857,1000,1000,1000,1000
56113379,1000,1000,1000,1000,113328817,1000,1000,1000,1000
56115878,1000,1000,1000,1000,113428777,1000,1000,1000,1000
56118377,1000,1000,1000,1000,113528737,1000,1000,1000,1000
56120876,1000,1000,1000,1000,113628697,1000,1000,1000,1000
56123375,1000,1000,1000,1000,113728657,1000,1000,1000,1000
56125874,1000,1000,1000,1000,113828617,1000,1000,1000,1000
56128373,1000,1000,1000,1000,113928577,1000,1000,1000,1000
56130872,1000,1000,1000,1000,114028537,1000,1000,1000,1000
56133371,1000,1000,1000,1000,114128497,1000,1000,1000,1000
56135870,1000,1000,1000,1000,114228457,1000,1000,1000,1000
56138369,1000,1000,1000,1000,114328417,1000,1000,1000,1000
56140868,1000,1000,1000,1000,114428377,1000,1000,1000,1000
56143367,1000,1000,1000,1000,114528337,1000,1000,1000,1000
56145866,1000,1000,1000,1000,114628297,1000,1000,1000,1000
56148365,1000,1000,1000,1000,114728257,1000,1000,1000,1000
56150864,1000,1000,1000,1000,114828217,1000,1000,1000,1000
56153363,1000,1000,1000,1000,114928177,1000,1000,1000,1000
56155862,1000,1000,1000,1000,115028970,1000,1000,1000,1000
56158361,1000,1000,1000,1000,115128930,1000,1000,1000,1000
56160860,1000,1000,1000,1000,115228890,1000,1000,1000,1000
56163359,1000,1000,1000,1000,115328850,1000,1000,1000,1000
56165858,1000,1000,1000,1000,115428810,1000,1000,1000,1000
56168357,1000,1000,1000,1000,115528770,1000,1000,1000,1000
56170856,1000,1000,1000,1000,115628730,1000,1000,1000,1000
56173355,1000,1000,1000,1000,115728690,1000,1000,1000,1000
56175854,1000,1000,1000,1000,115828650,1000,1000,1000,1000
56178353,1000,1000,1000,1000,115928610,1000,1000,1000,1000
56180852,1000,1000,1000,1000,116028570,1000,1000,1000,1000
56183351,1000,1000,1000,1000,116128530,1000,1000,1000,1000
56185850,1000,1000,1000,1000,116228490,1000,1000,1000,1000
56188349,1000,1000,1000,1000,116328450,1000,1000,1000,1000
56190848,1000,1000,1000,1000,116428410,1000,1000,1000,1000
56193347,1000,1000,1000,1000,116528370,1000,1000,1000,1000
56195846,1000,1000,1000,1000,116628330,1000,1000,1000,1000
56198345,1000,1000,1000,1000,116728290,1000,1000,1000,1000
56200844,1000,1000,1000,1000,116828250,1000,1000,1000,1000
56203343,1000,1000,1000,1000,116928210,1000,1000,1000,1000
56205842,1000,1000,1000,1000,117028170,1000,1000,1000,1000
56208341,1000,1000,1000,1000,117128963,1000,1000,1000,1000
56210840,1000,1000,1000,1000,117228923,1000,1000,1000,1000
56213339,1000,1000,1000,1000,117328883,1000,1000,1000,1000
56215838,1000,1000,1000,1000,117428843,1000,1000,1000,1000
56218337,1000,1000,1000,1000,117528803,1000,1000,1000,1000
56220836,1000,1000,1000,1000,117628763,1000,1000,1000,1000
56223335,1000,1000,1000,1000,117728723,1000,1000,1000,1000
56225834,1000,1000,1000,1000,117828683,1000,1000,1000,1000
56228333,1000,1000,1000,1000,117928643,1000,1000,1000,1000
56230832,1000,1000,1000,1000,118028603,1000,1000,1000,1000
56233331,1000,1000,1000,1000,118128563,1000,1000,1000,1000
56235830,1000,1000,1000,1000,118228523,1000,1000,1000,1000
56238329,1000,1000,1000,1000,118328483,1000,1000,1000,1000
56240828,1000,1000,1000,1000,118428443,1000,1000,1000,1000
56243327,1000,1000,1000,1000,118528403,1000,1000,1000,1000
56245826,1000,1000,1000,1000,118628363,1000,1000,1000,1000
56248325,1000,1000,1000,1000,118728323,1000,1000,1000,1000
56250824,1000,1000,1000,1000,118828283,1000,1000,1000,1000
56253323,1000,1000,1000,1000,118928243,1000,1000,1000,1000
56255822,1000,1000,1000,1000,119028203,1000,1000,1000,1000
56258321,1000,1000,1000,1000,119128163,1000,1000,1000,1000
56260820,1000,1000,1000,1000,119228956,1000,1000,1000,1000
56263319,1000,1000,1000,1000,119328916,1000,1000,1000,1000
56265818,1000,1000,1000,1000,119428876,1000,1000,1000,1000
56268317,1000,1000,1000,1000,119528836,1000,1000,1000,1000
56270816,1000,1000,1000,1000,119628796,1000,1000,1000,1000
56273315,1000,1000,1000,1000,119728756,1000,1000,1000,1000
56275814,1000,1000,1000,1000,119828716,1000,1000,1000,1000
56278313,1000,1000,1000,1000,119928676,1000,1000,1000,1000
56280812,1000,1000,1000,1000,120028636,1000,1000,1000,1000
56283311,1000,1000,1000,1000,120128596,1000,1000,1000,1000
56285810,1000,1000,1000,1000,120228556,1000,1000,1000,1000
56288309,1000,1000,1000,1000,120328516,1000,1000,1000,1000
56290808,1000,1000,1000,1000,120428476,1000,1000,1000,1000
56293307,1000,1000,1000,1000,120528436,1000,1000,1000,1000
56295806,1000,1000,1000,1000,120628396,1000,1000,1000,1000
56298305,1000,1000,1000,1000,120728356,1000,1000,1000,1000
56300804,1000,1000,1000,1000,120828316,1000,1000,1000,1000
56303303,1000,1000,1000,1000,120928276,1000,1000,1000,1000
56305802,1000,1000,1000,1000,121028236,1000,1000,1000,1000
56308301,1000,1000,1000,1000,121128196,1000,1000,1000,1000
56310800,1000,1000,1000,1000,121228156,1000,1000,1000,1000
56313299,1000,1000,1000,1000,121328949,1000,1000,1000,1000
56315798,1000,1000,1000,1000,121428909,1000,1000,1000,1000
56318297,1000,1000,1000,1000,121528869,1000,1000,1000,1000
56320796,1000,1000,1000,1000,121628829,1000,1000,1000,1000
56323295,1000,1000,1000,1000,121728789,1000,1000,1000,1000
56325794,1000,1000,1000,1000,121828749,1000,1000,1000,1000
56328293,1000,1000,1000,1000,121928709,1000,1000,1000,1000
56330792,1000,1000,1000,1000,122028669,1000,1000,1000,1000
56333291,1000,1000,1000,1000,122128629,1000,1000,1000,1000
56335790,1000,1000,1000,1000,122228589,1000,1000,1000,1000
56338289,1000,1000,1000,1000,122328549,1000,1000,1000,1000
56340788,1000,1000,1000,1000,122428509,1000,1000,1000,1000
56343287,1000,1000,1000,1000,122528469,1000,1000,1000,1000
56345786,1000,1000,1000,1000,122628429,1000,1000,1000,1000
56348285,1000,1000,1000,1000,122728389,1000,1000,1000,1000
56350784,1000,1000,1000,1000,122828349,1000,1000,1000,1000
56353283,1000,1000,1000,1000,,,,,
56355782,1000,1000,1000,1000,,,,,
56358281,1000,1000,1000,1000,,,,,
56360780,1000,1000,1000,1000,,,,,
56363279,1000,1000,1000,1000,,,,,
56365778,1000,1000,1000,1000,,,,,
56368277,1000,1000,1000,1000,,,,,
56370776,1000,1000,1000,1000,,,,,
56373275,1000,1000,1000,1000,,,,,
56375774,1000,1000,1000,1000,,,,,
56378273,1000,1000,1000,1000,,,,,
56380772,1000,1000,1000,1000,,,,,
56383271,1000,1000,1000,1000,,,,,
56385770,1000,1000,1000,1000,,,,,
56388269,1000,1000,1000,1000,,,,,
56390768,1000,1000,1000,1000,,,,,
56393267,1000,1000,1000,1000,,,,,
56395766,1000,1000,1000,1000,,,,,
56398265,1000,1000,1000,1000,,,,,
56400764,1000,1000,1000,1000,,,,,
56403263,1000,1000,1000,1000,,,,,
56405762,1000,1000,1000,1000,,,,,
56408261,1000,1000,1000,1000,,,,,
56410760,1000,1000,1000,1000,,,,,
56413259,1000,1000,1000,1000,,,,,
56415758,1000,1000,1000,1000,,,,,
56418257,1000,1000,1000,1000,,,,,
56420756,1000,1000,1000,1000,,,,,
56423255,1000,1000,1000,1000,,,,,
56425754,1000,1000,1000,1000,,,,,
56428253,1000,1000,1000,1000,,,,,
56430752,1000,1000,1000,1000,,,,,
56433251,1000,1000,1000,1000,,,,,
56435750,1000,1000,1000,1000,,,,,
56438249,1000,1000,1000,1000,,,,,
56440748,1000,1000,1000,1000,,,,,
56443247,1000,1000,1000,1000,,,,,
56445746,1000,1000,1000,1000,,,,,
56448245,1000,1000,1000,1000,,,,,
56450744,1000,1000,1000,1000,,,,,
56453243,1000,1000,1000,1000,,,,,
56455742,1000,1000,1000,1000,,,,,
56458241,1000,1000,1000,1000,,,,,
56460740,1000,1000,1000,1000,,,,,
56463239,1000,1000,1000,1000,,,,,
56465738,1000,1000,1000,1000,,,,,
56468237,1000,1000,1000,1000,,,,,
56470736,1000,1000,1000,1000,,,,,
56473235,1000,1000,1000,1000,,,,,
56475734,1000,1000,1000,1000,,,,,
56478233,1000,1000,1000,1000,,,,,
56480732,1000,1000,1000,1000,,,,,
56483231,1000,1000,1000,1000,,,,,
56485730,1000,1000,1000,1000,,,,,
56488229,1000,1000,1000,1000,,,,,
56490728,1000,1000,1000,1000,,,,,
56493227,1000,1000,1000,1000,,,,,
56495726,1000,1000,1000,1000,,,,,
56498225,1000,1000,1000,1000,,,,,
56500724,1000,1000,1000,1000,,,,,
56503223,1000,1000,1000,1000,,,,,
56505722,1000,1000,1000,1000,,,,,
56508221,1000,1000,1000,1000,,,,,
56510720,1000,1000,1000,1000,,,,,
56513219,1000,1000,1000,1000,,,,,
56515718,1000,1000,1000,1000,,,,,
56518217,1000,1000,1000,1000,,,,,
56520716,1000,1000,1000,1000,,,,,
56523215,1000,1000,1000,1000,,,,,
56525714,1000,1000,1000,1000,,,,,
56528213,1000,1000,1000,1000,,,,,
56530712,1000,1000,1000,1000,,,,,
56533211,1000,1000,1000,1000,,,,,
56535710,1000,1000,1000,1000,,,,,
56538209,1000,1000,1000,1000,,,,,
56540708,1000,1000,1000,1000,,,,,
56543207,1000,1000,1000,1000,,,,,
56545706,1000,1000,1000,1000,,,,,
56548205,1000,1000,1000,1000,,,,,
56550704,1000,1000,1000,1000,,,,,
56553203,1000,1000,1000,1000,,,,,
56555702,1000,1000,1000,1000,,,,,
56558201,1000,1000,1000,1000,,,,,
56560700,1000,1000,1000,1000,,,,,
56563199,1000,1000,1000,1000,,,,,
56565698,1000,1000,1000,1000,,,,,
56568197,1000,1000,1000,1000,,,,,
56570696,1000,1000,1000,1000,,,,,
56573195,1000,1000,1000,1000,,,,,
56575694,1000,1000,1000,1000,,,,,
56578193,1000,1000,1000,1000,,,,,
56580692,1000,1000,1000,1000,,,,,
56583191,1000,1000,1000,1000,,,,,
56585690,1000,1000,1000,1000,,,,,
56588189,1000,1000,1000,1000,,,,,
56590688,1000,1000,1000,1000,,,,,
56593187,1000,1000,1000,1000,,,,,
56595686,1000,1000,1000,1000,,,,,
56598185,1000,1000,1000,1000,,,,,
56600684,1000,1000,1000,1000,,,,,
56603183,1000,1000,1000,1000,,,,,
56605682,1000,1000,1000,1000,,,,,
56608181,1000,1000,1000,1000,,,,,
56610680,1000,1000,1000,1000,,,,,
56613179,1000,1000,1000,1000,,,,,
56615678,1000,1000,1000,1000,,,,,
56618177,1000,1000,1000,1000,,,,,
56620676,1000,1000,1000,1000,,,,,
56623175,1000,1000,1000,1000,,,,,
56625674,1000,1000,1000,1000,,,,,
56628173,1000,1000,1000,1000,,,,,
56630672,1000,1000,1000,1000,,,,,
56633171,1000,1000,1000,1000,,,,,
56635670,1000,1000,1000,1000,,,,,
56638169,1000,1000,1000,1000,,,,,
56640668,1000,1000,1000,1000,,,,,
56643167,1000,1000,1000,1000,,,,,
56645666,1000,1000,1000,1000,,,,,
56648165,1000,1000,1000,1000,,,,,
56650664,1000,1000,1000,1000,,,,,
56653163,1000,1000,1000,1000,,,,,
56655662,1001,1001,1001,1001,,,,,
56658161,1002,1002,1002,1002,,,,,
56660660,1003,1003,1003,1003,,,,,
56663159,1003,1003,1003,1003,,,,,
56665658,1004,1004,1004,1004,,,,,
56668157,1005,1005,1005,1005,,,,,
56670656,1006,1006,1006,1006,,,,,
56673155,1006,1006,1006,1006,,,,,
56675654,1007,1007,1007,1007,,,,,
56678986,1008,1008,1008,1008,,,,,
56681485,1009,1009,1009,1009,,,,,
56683984,1009,1009,1009,1009,,,,,
56686483,1010,1010,1010,1010,,,,,
56688982,1011,1011,1011,1011,,,,,
56691481,1012,1012,1012,1012,,,,,
56693980,1012,1012,1012,1012,,,,,
56696479,1013,1013,1013,1013,,,,,
56698978,1014,1014,1014,1014,,,,,
56701477,1015,1015,1015,1015,,,,,
56703976,1015,1015,1015,1015,,,,,
56706475,1016,1016,1016,1016,,,,,
56708974,1017,1017,1017,1017,,,,,
56711473,1018,1018,1018,1018,,,,,
56713972,1018,1018,1018,1018,,,,,
56716471,1019,1019,1019,1019,,,,,
56718970,1020,1020,1020,1020,,,,,
56721469,1021,1021,1021,1021,,,,,
56723968,1021,1021,1021,1021,,,,,
56726467,1022,1022,1022,1022,,,,,
56728966,1023,1023,1023,1023,,,,,
56731465,1024,1024,1024,1024,,,,,
56733964,1024,1024,1024,1024,,,,,
56736463,1025,1025,1025,1025,,,,,
56738962,1026,1026,1026,1026,,,,,
56741461,1027,1027,1027,1027,,,,,
56743960,1027,1027,1027,1027,,,,,
56746459,1028,1028,1028,1028,,,,,
56748958,1029,1029,1029,1029,,,,,
56751457,1030,1030,1030,1030,,,,,
56753956,1030,1030,1030,1030,,,,,
56756455,1031,1031,1031,1031,,,,,
56758954,1032,1032,1032,1032,,,,,
56761453,1033,1033,1033,1033,,,,,
56763952,1033,1033,1033,1033,,,,,
56766451,1034,1034,1034,1034,,,,,
56768950,1035,1035,1035,1035,,,,,
56771449,1036,1036,1036,1036,,,,,
56773948,1036,1036,1036,1036,,,,,
56776447,1037,1037,1037,1037,,,,,
56778946,1038,1038,1038,1038,,,,,
56781445,1039,1039,1039,1039,,,,,
56783944,1039,1039,1039,1039,,,,,
56786443,1040,1040,1040,1040,,,,,
56788942,1041,1041,1041,1041,,,,,
56791441,1042,1042,1042,1042,,,,,
56793940,1042,1042,1042,1042,,,,,
56796439,1043,1043,1043,1043,,,,,
56798938,1044,1044,1044,1044,,,,,
56801437,1045,1045,1045,1045,,,,,
56803936,1045,1045,1045,1045,,,,,
56806435,1046,1046,1046,1046,,,,,
56808934,1047,1047,1047,1047,,,,,
56811433,1048,1048,1048,1048,,,,,
56813932,1048,1048,1048,1048,,,,,
56816431,1049,1049,1049,1049,,,,,
56818930,1050,1050,1050,1050,,,,,
56821429,1051,1051,1051,1051,,,,,
56823928,1051,1051,1051,1051,,,,,
56826427,1052,1052,1052,1052,,,,,
56828926,1053,1053,1053,1053,,,,,
56831425,1054,1054,1054,1054,,,,,
56833924,1054,1054,1054,1054,,,,,
56836423,1055,1055,1055,1055,,,,,
56838922,1056,1056,1056,1056,,,,,
56841421,1057,1057,1057,1057,,,,,
56843920,1057,1057,1057,1057,,,,,
56846419,1058,1058,1058,1058,,,,,
56848918,1059,1059,1059,1059,,,,,
56851417,1060,1060,1060,1060,,,,,
56853916,1060,1060,1060,1060,,,,,
56856415,1061,1061,1061,1061,,,,,
56858914,1062,1062,1062,1062,,,,,
56861413,1063,1063,1063,1063,,,,,
56863912,1063,1063,1063,1063,,,,,
56866411,1064,1064,1064,1064,,,,,
56868910,1065,1065,1065,1065,,,,,
56871409,1066,1066,1066,1066,,,,,
56873908,1066,1066,1066,1066,,,,,
56876407,1067,1067,1067,1067,,,,,
56878906,1068,1068,1068,1068,,,,,
56881405,1069,1069,1069,1069,,,,,
56883904,1069,1069,1069,1069,,,,,
56886403,1070,1070,1070,1070,,,,,
56888902,1071,1071,1071,1071,,,,,
56891401,1072,1072,1072,1072,,,,,
56893900,1072,1072,1072,1072,,,,,
56896399,1073,1073,1073,1073,,,,,
56898898,1074,1074,1074,1074,,,,,
56901397,1075,1075,1075,1075,,,,,
56903896,1075,1075,1075,1075,,,,,
56906395,1076,1076,1076,1076,,,,,
56908894,1077,1077,1077,1077,,,,,
56911393,1078,1078,1078,1078,,,,,
56913892,1078,1078,1078,1078,,,,,
56916391,1079,1079,1079,1079,,,,,
56918890,1080,1080,1080,1080,,,,,
56921389,1081,1081,1081,1081,,,,,
56923888,1081,1081,1081,1081,,,,,
56926387,1082,1082,1082,1082,,,,,
56928886,1083,1083,1083,1083,,,,,
56931385,1084,1084,1084,1084,,,,,
56933884,1084,1084,1084,1084,,,,,
56936383,1085,1085,1085,1085,,,,,
56938882,1086,1086,1086,1086,,,,,
56941381,1087,1087,1087,1087,,,,,
56943880,1087,1087,1087,1087,,,,,
56946379,1088,1088,1088,1088,,,,,
56948878,1089,1089,1089,1089,,,,,
56951377,1090,1090,1090,1090,,,,,
56953876,1090,1090,1090,1090,,,,,
56956375,1091,1091,1091,1091,,,,,
56958874,1092,1092,1092,1092,,,,,
56961373,1093,1093,1093,1093,,,,,
56963872,1093,1093,1093,1093,,,,,
56966371,1094,1094,1094,1094,,,,,
56968870,1095,1095,1095,1095,,,,,
56971369,1096,1096,1096,1096,,,,,
56973868,1096,1096,1096,1096,,,,,
56976367,1097,1097,1097,1097,,,,,
56978866,1098,1098,1098,1098,,,,,
56981365,1099,1099,1099,1099,,,,,
56983864,1099,1099,1099,1099,,,,,
56986363,1100,1100,1100,1100,,,,,
56988862,1101,1101,1101,1101,,,,,
56991361,1101,1101,1101,1101,,,,,
56993860,1102,1102,1102,1102,,,,,
56996359,1103,1103,1103,1103,,,,,
56998858,1104,1104,1104,1104,,,,,
57001357,1104,1104,1104,1104,,,,,
57003856,1105,1105,1105,1105,,,,,
57006355,1106,1106,1106,1106,,,,,
57008854,1107,1107,1107,1107,,,,,
57011353,1107,1107,1107,1107,,,,,
57013852,1108,1108,1108,1108,,,,,
57016351,1109,1109,1109,1109,,,,,
57018850,1110,1110,1110,1110,,,,,
57021349,1110,1110,1110,1110,,,,,
57023848,1111,1111,1111,1111,,,,,
57026347,1112,1112,1112,1112,,,,,
57028846,1113,1113,1113,1113,,,,,
57031345,1113,1113,1113,1113,,,,,
57033844,1114,1114,1114,1114,,,,,
57036343,1115,1115,1115,1115,,,,,
57038842,1116,1116,1116,1116,,,,,
57041341,1116,1116,1116,1116,,,,,
57043840,1117,1117,1117,1117,,,,,
57046339,1118,1118,1118,1118,,,,,
57048838,1119,1119,1119,1119,,,,,
57051337,1119,1119,1119,1119,,,,,
57053836,1120,1120,1120,1120,,,,,
57056335,1121,1121,1121,1121,,,,,
57058834,1122,1122,1122,1122,,,,,
57061333,1122,1122,1122,1122,,,,,
57063832,1123,1123,1123,1123,,,,,
57066331,1124,1124,1124,1124,,,,,
57068830,1125,1125,1125,1125,,,,,
57071329,1125,1125,1125,1125,,,,,
57073828,1126,1126,1126,1126,,,,,
57076327,1127,1127,1127,1127,,,,,
57078826,1128,1128,1128,1128,,,,,
57081325,1128,1128,1128,1128,,,,,
57083824,1129,1129,1129,1129,,,,,
57086323,1130,1130,1130,1130,,,,,
57088822,1131,1131,1131,1131,,,,,
57091321,1131,1131,1131,1131,,,,,
57093820,1132,1132,1132,1132,,,,,
57096319,1133,1133,1133,1133,,,,,
57098818,1134,1134,1134,1134,,,,,
57101317,1134,1134,1134,1134,,,,,
57103816,1135,1135,1135,1135,,,,,
57106315,1136,1136,1136,1136,,,,,
57108814,1137,1137,1137,1137,,,,,
57111313,1137,1137,1137,1137,,,,,
57113812,1138,1138,1138,1138,,,,,
57116311,1139,1139,1139,1139,,,,,
57118810,1140,1140,1140,1140,,,,,
57121309,1140,1140,1140,1140,,,,,
57123808,1141,1141,1141,1141,,,,,
57126307,1142,1142,1142,1142,,,,,
57128806,1143,1143,1143,1143,,,,,
57131305,1143,1143,1143,1143,,,,,
57133804,1144,1144,1144,1144,,,,,
57136303,1145,1145,1145,1145,,,,,
57138802,1146,1146,1146,1146,,,,,
57141301,1146,1146,1146,1146,,,,,
57143800,1147,1147,1147,1147,,,,,
57146299,1148,1148,1148,1148,,,,,
57148798,1149,1149,1149,1149,,,,,
57151297,1149,1149,1149,1149,,,,,
57153796,1150,1150,1150,1150,,,,,
57156295,1162,1153,1154,1162,,,,,
57158794,1170,1161,1162,1170,,,,,
57161293,1178,1169,1170,1178,,,,,
57163792,1185,1177,1178,1186,,,,,
57166291,1193,1185,1185,1193,,,,,
57168790,1200,1192,1193,1201,,,,,
57171289,1208,1200,1200,1208,,,,,
57173788,1215,1207,1208,1215,,,,,
57176287,1222,1214,1215,1222,,,,,
57178786,1229,1221,1222,1229,,,,,
57181285,1236,1228,1229,1236,,,,,
57183784,1243,1235,1236,1243,,,,,
57186283,1249,1242,1243,1250,,,,,
57188782,1256,1248,1249,1256,,,,,
57191281,1262,1255,1256,1263,,,,,
57193780,1269,1262,1262,1269,,,,,
57196279,1275,1268,1269,1275,,,,,
57198778,1282,1274,1275,1282,,,,,
57201277,1288,1281,1281,1288,,,,,
57203776,1294,1287,1288,1294,,,,,
57206275,1300,1293,1294,1300,,,,,
57208774,1306,1299,1300,1306,,,,,
57211273,1312,1305,1306,1312,,,,,
57213772,1318,1311,1312,1318,,,,,
57216271,1324,1317,1318,1324,,,,,
57218770,1329,1323,1323,1329,,,,,
57221269,1335,1328,1329,1335,,,,,
57223768,1341,1334,1335,1341,,,,,
57226267,1346,1340,1341,1346,,,,,
57228766,1352,1345,1346,1352,,,,,
57231265,1357,1351,1352,1357,,,,,
57233764,1363,1356,1357,1363,,,,,
57236263,1368,1362,1362,1368,,,,,
57238762,1373,1367,1368,1374,,,,,
57241261,1379,1373,1373,1379,,,,,
57243760,1384,1378,1378,1384,,,,,
57246259,1389,1383,1384,1389,,,,,
57248758,1394,1388,1389,1395,,,,,
57251257,1400,1394,1394,1400,,,,,
57253756,1405,1399,1399,1405,,,,,
57256255,1410,1404,1404,1410,,,,,
57258754,1415,1409,1409,1415,,,,,
57261253,1420,1414,1414,1420,,,,,
57263752,1425,1419,1419,1425,,,,,
57266251,1430,1424,1424,1430,,,,,
57268750,1434,1429,1429,1435,,,,,
57271249,1439,1433,1434,1439,,,,,
57273748,1444,1438,1439,1444,,,,,
57276247,1449,1443,1444,1449,,,,,
57278746,1454,1448,1448,1454,,,,,
57281245,1458,1453,1453,1458,,,,,
57283744,1463,1457,1458,1463,,,,,
57286243,1468,1462,1462,1468,,,,,
57288742,1472,1467,1467,1472,,,,,
57291241,1477,1471,1472,1477,,,,,
57293740,1481,1476,1476,1482,,,,,
57296239,1486,1480,1481,1486,,,,,
57298738,1490,1485,1485,1491,,,,,
57301237,1495,1489,1490,1495,,,,,
57303736,1499,1494,1494,1499,,,,,
57306235,1504,1498,1499,1504,,,,,
57308734,1508,1503,1503,1508,,,,,
57311233,1513,1507,1508,1513,,,,,
57313732,1517,1511,1512,1517,,,,,
57316231,1521,1516,1516,1521,,,,,
57318730,1526,1520,1521,1526,,,,,
57321229,1530,1524,1525,1530,,,,,
57323728,1534,1528,1529,1534,,,,,
57326227,1538,1533,1533,1538,,,,,
57328726,1543,1537,1538,1543,,,,,
57331225,1547,1541,1542,1547,,,,,
57333724,1551,1545,1546,1551,,,,,
57336223,1555,1549,1550,1555,,,,,
57338722,1559,1554,1554,1559,,,,,
57341221,1563,1558,1558,1563,,,,,
57343720,1567,1562,1562,1567,,,,,
57346219,1571,1566,1566,1571,,,,,
57348718,1575,1570,1571,1575,,,,,
57351217,1579,1574,1575,1579,,,,,
57353716,1583,1578,1579,1583,,,,,
57356215,1587,1582,1583,1587,,,,,
57358714,1591,1586,1587,1591,,,,,
57361213,1595,1590,1591,1595,,,,,
57363712,1599,1594,1595,1599,,,,,
57366211,1603,1598,1598,1603,,,,,
57368710,1607,1602,1602,1607,,,,,
57371209,1611,1605,1606,1611,,,,,
57373708,1615,1609,1610,1615,,,,,
57376207,1619,1613,1614,1618,,,,,
57378706,1622,1617,1618,1622,,,,,
57381205,1626,1621,1622,1626,,,,,
57383704,1630,1625,1625,1630,,,,,
57386203,1634,1628,1629,1634,,,,,
57388702,1637,1632,1633,1637,,,,,
57391201,1641,1636,1637,1641,,,,,
57393700,1645,1640,1640,1645,,,,,
57396199,1649,1643,1644,1648,,,,,
57398698,1652,1647,1648,1652,,,,,
57401197,1656,1651,1651,1656,,,,,
57403696,1660,1654,1655,1660,,,,,
57406195,1663,1658,1659,1663,,,,,
57408694,1667,1662,1662,1667,,,,,
57411193,1670,1665,1666,1670,,,,,
57413692,1674,1669,1670,1674,,,,,
57416191,1678,1673,1673,1678,,,,,
57418690,1681,1676,1677,1681,,,,,
57421189,1685,1680,1680,1685,,,,,
57423688,1688,1683,1684,1688,,,,,
57426187,1692,1687,1687,1692,,,,,
57428686,1695,1691,1691,1695,,,,,
57431185,1699,1694,1694,1699,,,,,
57433684,1702,1698,1698,1702,,,,,
57436183,1706,1701,1701,1706,,,,,
57438682,1709,1705,1705,1709,,,,,
57441181,1713,1708,1708,1713,,,,,
57443680,1716,1712,1712,1716,,,,,
57446179,1719,1715,1715,1720,,,,,
57448678,1723,1718,1719,1723,,,,,
57451177,1726,1722,1722,1727,,,,,
57453676,1730,1725,1725,1730,,,,,
57456175,1733,1729,1729,1733,,,,,
57458674,1736,1732,1732,1737,,,,,
57461173,1740,1735,1736,1740,,,,,
57463672,1743,1739,1739,1743,,,,,
57466171,1746,1742,1742,1747,,,,,
57468670,1750,1745,1746,1750,,,,,
57471169,1753,1749,1749,1753,,,,,
57473668,1756,1752,1752,1757,,,,,
57476167,1760,1755,1756,1760,,,,,
57478666,1763,1759,1759,1763,,,,,
57481165,1766,1762,1762,1767,,,,,
57483664,1769,1765,1765,1770,,,,,
57486163,1773,1768,1769,1773,,,,,
57488662,1776,1772,1772,1776,,,,,
57491161,1779,1775,1775,1780,,,,,
57493660,1782,1778,1778,1783,,,,,
57496159,1786,1781,1782,1786,,,,,
57498658,1789,1785,1785,1789,,,,,
57501157,1792,1788,1788,1792,,,,,
57503656,1795,1791,1791,1796,,,,,
57506155,1798,1794,1794,1799,,,,,
57508654,1802,1797,1798,1802,,,,,
57511153,1805,1800,1801,1805,,,,,
57513652,1808,1804,1804,1808,,,,,
57516151,1811,1807,1807,1811,,,,,
57518650,1814,1810,1810,1815,,,,,
57521149,1817,1813,1813,1818,,,,,
57523648,1821,1816,1816,1821,,,,,
57526147,1824,1819,1819,1824,,,,,
57528646,1827,1822,1823,1827,,,,,
57531145,1830,1825,1826,1830,,,,,
57533644,1833,1828,1829,1833,,,,,
57536143,1836,1831,1832,1836,,,,,
57538642,1839,1834,1835,1839,,,,,
57541141,1842,1837,1838,1842,,,,,
57543640,1845,1840,1841,1845,,,,,
57546139,1848,1843,1844,1848,,,,,
57548638,1851,1846,1847,1851,,,,,
57551137,1854,1849,1850,1854,,,,,
57553636,1857,1852,1853,1857,,,,,
57556135,1860,1855,1856,1860,,,,,
57558634,1863,1858,1859,1863,,,,,
57561133,1866,1861,1862,1866,,,,,
57563632,1869,1864,1865,1869,,,,,
57566131,1872,1867,1868,1872,,,,,
57568630,1875,1870,1871,1875,,,,,
57571129,1878,1873,1874,1878,,,,,
57573628,1881,1876,1877,1881,,,,,
57576127,1884,1879,1880,1884,,,,,
57578626,1887,1882,1883,1887,,,,,
57581125,1890,1885,1886,1890,,,,,
57583624,1893,1888,1889,1893,,,,,
57586123,1895,1890,1891,1895,,,,,
57588622,1894,1889,1890,1894,,,,,
57591121,1893,1888,1889,1893,,,,,
57593620,1892,1887,1888,1892,,,,,
57596119,1891,1886,1887,1891,,,,,
57598618,1890,1885,1886,1890,,,,,
57601117,1889,1884,1885,1889,,,,,
57603616,1888,1883,1884,1888,,,,,
57606115,1888,1882,1883,1887,,,,,
57608614,1887,1882,1883,1887,,,,,
57611113,1886,1881,1882,1886,,,,,
57613612,1886,1881,1881,1885,,,,,
57616111,1885,1880,1881,1885,,,,,
57618610,1885,1880,1881,1885,,,,,
57621109,1885,1879,1880,1884,,,,,
57623608,1885,1879,1880,1884,,,,,
57626107,1884,1879,1880,1884,,,,,
57628606,1884,1879,1880,1884,,,,,
57631105,1884,1879,1880,1884,,,,,
57633604,1885,1879,1880,1884,,,,,
57636103,1885,1879,1880,1885,,,,,
57638602,1885,1880,1881,1885,,,,,
57641101,1886,1880,1881,1885,,,,,
57643600,1886,1881,1881,1886,,,,,
57646099,1886,1881,1882,1886,,,,,
57648598,1887,1882,1882,1886,,,,,
57651097,1887,1882,1883,1887,,,,,
57653596,1887,1883,1883,1887,,,,,
57656095,1888,1883,1884,1887,,,,,
57658594,1888,1883,1884,1888,,,,,
57661093,1888,1883,1884,1888,,,,,
57663592,1888,1884,1884,1887,,,,,
57666091,1887,1883,1884,1887,,,,,
57668590,1887,1883,1884,1887,,,,,
57671089,1886,1883,1883,1886,,,,,
57673588,1886,1882,1883,1886,,,,,
57676087,1885,1881,1882,1885,,,,,
57678586,1884,1880,1881,1884,,,,,
57681085,1883,1879,1880,1883,,,,,
57683584,1881,1878,1879,1881,,,,,
57686083,1880,1877,1877,1880,,,,,
57688582,1878,1875,1876,1878,,,,,
57691081,1876,1873,1874,1877,,,,,
57693580,1875,1872,1872,1875,,,,,
57696079,1873,1870,1870,1873,,,,,
57698578,1870,1868,1868,1871,,,,,
57701077,1868,1866,1866,1869,,,,,
57703576,1866,1864,1864,1866,,,,,
57706075,1864,1861,1861,1864,,,,,
57708574,1861,1859,1859,1861,,,,,
57711073,1859,1856,1856,1859,,,,,
57713572,1856,1854,1854,1856,,,,,
57716071,1853,1851,1851,1854,,,,,
57718570,1850,1848,1849,1851,,,,,
57721069,1848,1846,1846,1848,,,,,
57723568,1845,1843,1843,1845,,,,,
57726067,1842,1840,1840,1842,,,,,
57728566,1839,1837,1837,1839,,,,,
57731065,1835,1834,1834,1836,,,,,
57733564,1832,1831,1831,1833,,,,,
57736063,1829,1828,1828,1830,,,,,
57738562,1826,1824,1824,1827,,,,,
57741061,1823,1821,1821,1823,,,,,
57743560,1819,1818,1818,1820,,,,,
57746059,1816,1815,1815,1817,,,,,
57748558,1813,1812,1811,1813,,,,,
57751057,1809,1808,1808,1810,,,,,
57753556,1806,1805,1805,1807,,,,,
57756055,1803,1802,1802,1803,,,,,
57758554,1800,1798,1798,1800,,,,,
57761053,1796,1795,1795,1797,,,,,
57763552,1793,1792,1792,1793,,,,,
57766051,1789,1788,1788,1790,,,,,
57768550,1786,1785,1785,1787,,,,,
57771049,1783,1782,1782,1783,,,,,
57773548,1779,1778,1778,1780,,,,,
57776047,1776,1775,1775,1776,,,,,
57778546,1773,1772,1772,1773,,,,,
57781045,1769,1769,1769,1770,,,,,
57783544,1766,1765,1765,1766,,,,,
57786043,1763,1762,1762,1763,,,,,
57788542,1760,1758,1759,1760,,,,,
57791041,1757,1755,1755,1757,,,,,
57793540,1754,1752,1752,1754,,,,,
57796039,1750,1748,1749,1750,,,,,
57798538,1747,1745,1746,1747,,,,,
57801037,1744,1742,1742,1744,,,,,
57803536,1740,1739,1739,1740,,,,,
57806035,1737,1736,1736,1737,,,,,
57808534,1734,1732,1733,1734,,,,,
57811033,1730,1729,1729,1731,,,,,
57813532,1727,1726,1726,1728,,,,,
57816031,1724,1723,1723,1725,,,,,
57818530,1721,1720,1720,1722,,,,,
57821029,1718,1717,1717,1719,,,,,
57823528,1715,1714,1714,1716,,,,,
57826027,1712,1711,1711,1713,,,,,
57828526,1709,1709,1708,1710,,,,,
57831025,1706,1706,1705,1707,,,,,
57833524,1703,1703,1702,1705,,,,,
