TimeUS,M1,M2,M3,M4,TimeUS,C1,C2,C3,C4
51783445,1000,1000,1000,1000,51828427,1000,1000,1000,1000
51785944,1000,1000,1000,1000,51928387,1000,1000,1000,1000
51788443,1000,1000,1000,1000,52028347,1000,1000,1000,1000
51790942,1000,1000,1000,1000,52128307,1000,1000,1000,1000
51793441,1000,1000,1000,1000,52228267,1000,1000,1000,1000
51795940,1000,1000,1000,1000,52328227,1000,1000,1000,1000
51798439,1000,1000,1000,1000,52428187,1000,1000,1000,1000
51800938,1000,1000,1000,1000,52528980,1000,1000,1000,1000
51803437,1000,1000,1000,1000,52628940,1000,1000,1000,1000
51805936,1000,1000,1000,1000,52728900,1000,1000,1000,1000
51808435,1000,1000,1000,1000,52828860,1000,1000,1000,1000
51810934,1000,1000,1000,1000,52928820,1000,1000,1000,1000
51813433,1000,1000,1000,1000,53028780,1000,1000,1000,1000
51815932,1000,1000,1000,1000,53128740,1000,1000,1000,1000
51818431,1000,1000,1000,1000,53228700,1000,1000,1000,1000
51820930,1000,1000,1000,1000,53328660,1000,1000,1000,1000
51823429,1000,1000,1000,1000,53428620,1000,1000,1000,1000
51825928,1000,1000,1000,1000,53528580,1000,1000,1000,1000
51828427,1000,1000,1000,1000,53628540,1000,1000,1000,1000
51830926,1000,1000,1000,1000,53728500,1000,1000,1000,1000
51833425,1000,1000,1000,1000,53828460,1013,1013,1013,1013
51835924,1000,1000,1000,1000,53928420,1043,1043,1043,1043
51838423,1000,1000,1000,1000,54028380,1073,1073,1073,1073
51840922,1000,1000,1000,1000,54128340,1103,1103,1103,1103
51843421,1000,1000,1000,1000,54228300,1133,1133,1133,1133
51845920,1000,1000,1000,1000,54328260,1275,1268,1269,1276
51848419,1000,1000,1000,1000,54428220,1486,1481,1481,1486
51850918,1000,1000,1000,1000,54528180,1648,1643,1644,1649
51853417,1000,1000,1000,1000,54628973,1786,1781,1782,1786
51855916,1000,1000,1000,1000,54728933,1906,1902,1902,1907
51858415,1000,1000,1000,1000,54828893,1881,1878,1879,1881
51860914,1000,1000,1000,1000,54928853,1757,1755,1756,1756
51863413,1000,1000,1000,1000,55028813,1661,1662,1662,1661
51865912,1000,1000,1000,1000,55128773,1631,1634,1634,1632
51868411,1000,1000,1000,1000,55228733,1637,1640,1639,1637
51870910,1000,1000,1000,1000,55328693,1645,1646,1646,1645
51873409,1000,1000,1000,1000,55428653,1643,1644,1643,1644
51875908,1000,1000,1000,1000,55528613,1627,1625,1623,1629
51878407,1000,1000,1000,1000,55628573,1610,1609,1600,1619
51880906,1000,1000,1000,1000,55728533,1603,1602,1595,1609
51883405,1000,1000,1000,1000,55828493,1600,1600,1598,1602
51885904,1000,1000,1000,1000,55928453,1603,1602,1604,1600
51888403,1000,1000,1000,1000,56028413,1607,1608,1612,1604
51890902,1000,1000,1000,1000,56128373,1581,1582,1599,1564
51893401,1000,1000,1000,1000,56228333,1570,1571,1587,1554
51895900,1000,1000,1000,1000,56328293,1559,1560,1566,1554
51898399,1000,1000,1000,1000,56428253,1550,1549,1545,1555
51900898,1000,1000,1000,1000,56528213,1542,1541,1530,1554
51903397,1000,1000,1000,1000,56628173,1536,1536,1524,1548
51905896,1000,1000,1000,1000,56728966,1530,1530,1522,1539
51908395,1000,1000,1000,1000,56828926,1527,1527,1523,1530
51910894,1000,1000,1000,1000,56928886,1527,1527,1527,1526
51913393,1000,1000,1000,1000,57028846,1528,1528,1531,1526
51915892,1000,1000,1000,1000,57128806,1532,1531,1534,1528
51918391,1000,1000,1000,1000,57228766,1535,1535,1539,1532
51920890,1000,1000,1000,1000,57328726,1540,1540,1543,1537
51923389,1000,1000,1000,1000,57428686,1543,1543,1545,1541
51925888,1000,1000,1000,1000,57528646,1547,1547,1548,1546
51928387,1000,1000,1000,1000,57628606,1550,1550,1549,1550
51930886,1000,1000,1000,1000,57728566,1552,1551,1551,1553
51933385,1000,1000,1000,1000,57828526,1554,1554,1552,1556
51935884,1000,1000,1000,1000,57928486,1552,1552,1558,1562
51938383,1000,1000,1000,1000,58028446,1554,1554,1562,1563
51940882,1000,1000,1000,1000,58128406,1557,1557,1563,1564
51943381,1000,1000,1000,1000,58228366,1559,1560,1564,1563
51945880,1000,1000,1000,1000,58328326,1562,1562,1565,1564
51948379,1000,1000,1000,1000,58428286,1566,1566,1566,1565
51950878,1000,1000,1000,1000,58528246,1568,1568,1565,1565
51953377,1000,1000,1000,1000,58628206,1570,1570,1565,1565
51955876,1000,1000,1000,1000,58728166,1572,1571,1566,1567
51958375,1000,1000,1000,1000,58828959,1572,1572,1567,1567
51960874,1000,1000,1000,1000,58928919,1572,1572,1567,1568
51963373,1000,1000,1000,1000,59028879,1573,1573,1569,1569
51965872,1000,1000,1000,1000,59128839,1574,1574,1571,1571
51968371,1000,1000,1000,1000,59228799,1573,1573,1572,1571
51970870,1000,1000,1000,1000,59328759,1574,1573,1573,1573
51973369,1000,1000,1000,1000,59428719,1575,1574,1575,1574
51975868,1000,1000,1000,1000,59528679,1576,1575,1577,1576
51978367,1000,1000,1000,1000,59628639,1574,1575,1576,1576
51980866,1000,1000,1000,1000,59728599,1575,1575,1577,1577
51983365,1000,1000,1000,1000,59828559,1575,1575,1577,1577
51985864,1000,1000,1000,1000,59928519,1574,1574,1575,1575
51988363,1000,1000,1000,1000,60028479,1575,1575,1577,1576
51990862,1000,1000,1000,1000,60128439,1575,1576,1576,1576
51993361,1000,1000,1000,1000,60228399,1576,1576,1576,1576
51995860,1000,1000,1000,1000,60328359,1577,1577,1577,1577
51998359,1000,1000,1000,1000,60428319,1577,1577,1577,1577
52000858,1000,1000,1000,1000,60528279,1578,1577,1577,1577
52003357,1000,1000,1000,1000,60628239,1578,1578,1578,1577
52005856,1000,1000,1000,1000,60728199,1579,1579,1578,1578
52008355,1000,1000,1000,1000,60828159,1579,1579,1579,1578
52010854,1000,1000,1000,1000,60928952,1578,1578,1578,1578
52013353,1000,1000,1000,1000,61028912,1578,1578,1577,1578
52015852,1000,1000,1000,1000,61128872,1578,1578,1578,1578
52018351,1000,1000,1000,1000,61228832,1578,1578,1578,1578
52020850,1000,1000,1000,1000,61328792,1578,1578,1578,1579
52023349,1000,1000,1000,1000,61428752,1579,1579,1580,1580
52025848,1000,1000,1000,1000,61528712,1579,1579,1580,1579
52028347,1000,1000,1000,1000,61628672,1580,1580,1581,1580
52030846,1000,1000,1000,1000,61728632,1579,1579,1579,1580
52033345,1000,1000,1000,1000,61828592,1579,1579,1580,1580
52035844,1000,1000,1000,1000,61928552,1580,1580,1580,1580
52038343,1000,1000,1000,1000,62028512,1580,1580,1580,1580
52040842,1000,1000,1000,1000,62128472,1579,1579,1579,1580
52043341,1000,1000,1000,1000,62228432,1580,1579,1579,1579
52045840,1000,1000,1000,1000,62328392,1579,1579,1579,1579
52048339,1000,1000,1000,1000,62428352,1580,1580,1580,1580
52050838,1000,1000,1000,1000,62528312,1580,1580,1580,1580
52053337,1000,1000,1000,1000,62628272,1581,1581,1580,1580
52055836,1000,1000,1000,1000,62728232,1582,1581,1581,1581
52058335,1000,1000,1000,1000,62828192,1581,1581,1581,1581
52060834,1000,1000,1000,1000,62928985,1581,1580,1580,1580
52063333,1000,1000,1000,1000,63028945,1580,1580,1580,1580
52065832,1000,1000,1000,1000,63128905,1581,1581,1581,1581
52068331,1000,1000,1000,1000,63228865,1580,1580,1581,1580
52070830,1000,1000,1000,1000,63328825,1581,1581,1581,1581
52073329,1000,1000,1000,1000,63428785,1581,1581,1582,1581
52075828,1000,1000,1000,1000,63528745,1581,1581,1581,1581
52078327,1000,1000,1000,1000,63628705,1580,1580,1580,1581
52080826,1000,1000,1000,1000,63728665,1580,1580,1580,1580
52083325,1000,1000,1000,1000,63828625,1580,1581,1581,1581
52085824,1000,1000,1000,1000,63928585,1580,1580,1580,1580
52088323,1000,1000,1000,1000,64028545,1581,1581,1581,1581
52090822,1000,1000,1000,1000,64128505,1580,1580,1586,1574
52093321,1000,1000,1000,1000,64228465,1580,1582,1585,1573
52095820,1000,1000,1000,1000,64328425,1579,1581,1578,1573
52098319,1000,1000,1000,1000,64428385,1577,1580,1569,1572
52100818,1000,1000,1000,1000,64528345,1576,1578,1561,1568
52103317,1000,1000,1000,1000,64628305,1578,1578,1558,1564
52105816,1000,1000,1000,1000,64728265,1579,1579,1556,1561
52108315,1000,1000,1000,1000,64828225,1580,1578,1556,1557
52110814,1000,1000,1000,1000,64928185,1580,1578,1556,1555
52113313,1000,1000,1000,1000,65028978,1579,1578,1556,1554
52115812,1000,1000,1000,1000,65128938,1576,1577,1555,1553
52118311,1000,1000,1000,1000,65228898,1575,1577,1556,1554
52120810,1000,1000,1000,1000,65328858,1574,1575,1554,1553
52123309,1000,1000,1000,1000,65428818,1574,1576,1553,1553
52125808,1000,1000,1000,1000,65528778,1575,1577,1552,1553
52128307,1000,1000,1000,1000,65628738,1575,1577,1550,1550
52130806,1000,1000,1000,1000,65728698,1578,1579,1548,1548
52133305,1000,1000,1000,1000,65828658,1581,1581,1547,1546
52135804,1000,1000,1000,1000,65928618,1585,1585,1545,1545
52138303,1000,1000,1000,1000,66028578,1588,1588,1542,1541
52140802,1000,1000,1000,1000,66128538,1590,1591,1539,1539
52143301,1000,1000,1000,1000,66228498,1594,1594,1537,1538
52145800,1000,1000,1000,1000,66328458,1595,1595,1535,1536
52148299,1000,1000,1000,1000,66428418,1596,1596,1535,1536
52150798,1000,1000,1000,1000,66528378,1595,1595,1535,1538
52153297,1000,1000,1000,1000,66628338,1594,1593,1538,1541
52155796,1000,1000,1000,1000,66728298,1591,1589,1543,1546
52158295,1000,1000,1000,1000,66828258,1585,1582,1550,1553
52160794,1000,1000,1000,1000,66928218,1577,1573,1559,1562
52163293,1000,1000,1000,1000,67028178,1567,1563,1571,1573
52165792,1000,1000,1000,1000,67128971,1556,1552,1584,1585
52168291,1000,1000,1000,1000,67228931,1545,1542,1596,1596
52170790,1000,1000,1000,1000,67328891,1535,1534,1604,1604
52173289,1000,1000,1000,1000,67428851,1530,1531,1613,1612
52175788,1000,1000,1000,1000,67528811,1528,1529,1615,1614
52178287,1000,1000,1000,1000,67628771,1529,1532,1614,1613
52180786,1000,1000,1000,1000,67728731,1535,1537,1610,1610
52183285,1000,1000,1000,1000,67828691,1543,1544,1605,1605
52185784,1000,1000,1000,1000,67928651,1551,1552,1598,1598
52188283,1000,1000,1000,1000,68028611,1560,1560,1590,1589
52190782,1000,1000,1000,1000,68128571,1568,1568,1583,1582
52193281,1000,1000,1000,1000,68228531,1576,1576,1577,1576
52195780,1000,1000,1000,1000,68328491,1582,1581,1572,1571
52198279,1000,1000,1000,1000,68428451,1585,1584,1568,1568
52200778,1000,1000,1000,1000,68528411,1588,1587,1566,1567
52203277,1000,1000,1000,1000,68628371,1587,1586,1566,1566
52205776,1000,1000,1000,1000,68728331,1586,1585,1567,1568
52208275,1000,1000,1000,1000,68828291,1584,1583,1570,1570
52210774,1000,1000,1000,1000,68928251,1582,1581,1573,1573
52213273,1000,1000,1000,1000,69028211,1579,1579,1576,1576
52215772,1000,1000,1000,1000,69128171,1576,1576,1579,1578
52218271,1000,1000,1000,1000,69228964,1574,1574,1581,1580
52220770,1000,1000,1000,1000,69328924,1573,1574,1583,1583
52223269,1000,1000,1000,1000,69428884,1572,1573,1583,1583
52225768,1000,1000,1000,1000,69528844,1576,1577,1649,1541
52228267,1000,1000,1000,1000,69628804,1576,1576,1619,1584
52230766,1000,1000,1000,1000,69728764,1574,1574,1605,1591
52233265,1000,1000,1000,1000,69828724,1573,1573,1591,1593
52235764,1000,1000,1000,1000,69928684,1571,1572,1578,1590
52238263,1000,1000,1000,1000,70028644,1571,1572,1572,1585
52240762,1000,1000,1000,1000,70128604,1573,1573,1568,1578
52243261,1000,1000,1000,1000,70228564,1576,1575,1569,1573
52245760,1000,1000,1000,1000,70328524,1580,1579,1571,1570
52248259,1000,1000,1000,1000,70428484,1582,1581,1573,1568
52250758,1000,1000,1000,1000,70528444,1584,1583,1575,1570
52253257,1000,1000,1000,1000,70628404,1585,1584,1576,1572
52255756,1000,1000,1000,1000,70728364,1583,1583,1575,1573
52258255,1000,1000,1000,1000,70828324,1583,1583,1576,1576
52260754,1000,1000,1000,1000,70928284,1583,1582,1578,1579
52263253,1000,1000,1000,1000,71028244,1581,1581,1579,1580
52265752,1000,1000,1000,1000,71128204,1579,1579,1580,1581
52268251,1000,1000,1000,1000,71228164,1579,1580,1582,1583
52270750,1000,1000,1000,1000,71328957,1579,1579,1583,1583
52273249,1000,1000,1000,1000,71428917,1578,1578,1583,1582
52275748,1000,1000,1000,1000,71528877,1579,1579,1584,1583
52278247,1000,1000,1000,1000,71628837,1580,1580,1584,1584
52280746,1000,1000,1000,1000,71728797,1580,1580,1583,1583
52283245,1000,1000,1000,1000,71828757,1580,1580,1582,1582
52285744,1000,1000,1000,1000,71928717,1581,1581,1581,1582
52288243,1000,1000,1000,1000,72028677,1581,1580,1580,1580
52290742,1000,1000,1000,1000,72128637,1581,1583,1586,1575
52293241,1000,1000,1000,1000,72228597,1582,1585,1586,1571
52295740,1000,1000,1000,1000,72328557,1581,1584,1577,1570
52298239,1000,1000,1000,1000,72428517,1580,1583,1567,1569
52300738,1000,1000,1000,1000,72528477,1581,1582,1560,1566
52303237,1000,1000,1000,1000,72628437,1581,1581,1555,1562
52305736,1000,1000,1000,1000,72728397,1582,1580,1553,1557
52308235,1000,1000,1000,1000,72828357,1582,1580,1553,1554
52310734,1000,1000,1000,1000,72928317,1581,1580,1553,1552
52313233,1000,1000,1000,1000,73028277,1579,1579,1554,1552
52315732,1000,1000,1000,1000,73128237,1578,1579,1555,1553
52318231,1000,1000,1000,1000,73228197,1576,1578,1554,1552
52320730,1000,1000,1000,1000,73328157,1576,1578,1554,1554
52323229,1000,1000,1000,1000,73428950,1575,1577,1553,1553
52325728,1000,1000,1000,1000,73528910,1577,1578,1553,1553
52328227,1000,1000,1000,1000,73628870,1577,1579,1551,1551
52330726,1000,1000,1000,1000,73728830,1579,1580,1549,1549
52333225,1000,1000,1000,1000,73828790,1581,1581,1547,1546
52335724,1000,1000,1000,1000,73928750,1583,1584,1545,1544
52338223,1000,1000,1000,1000,74028710,1586,1586,1543,1543
52340722,1000,1000,1000,1000,74128670,1587,1588,1541,1541
52343221,1000,1000,1000,1000,74228630,1590,1592,1539,1540
52345720,1000,1000,1000,1000,74328590,1592,1593,1538,1539
52348219,1000,1000,1000,1000,74428550,1593,1593,1538,1540
52350718,1000,1000,1000,1000,74528510,1593,1591,1542,1544
52353217,1000,1000,1000,1000,74628470,1589,1587,1546,1549
52355716,1000,1000,1000,1000,74728430,1584,1580,1554,1556
52358215,1000,1000,1000,1000,74828390,1575,1571,1563,1565
52360714,1000,1000,1000,1000,74928350,1566,1562,1575,1576
52363213,1000,1000,1000,1000,75028310,1557,1554,1586,1587
52365712,1000,1000,1000,1000,75128270,1547,1546,1596,1597
52368211,1000,1000,1000,1000,75228230,1540,1540,1604,1604
52370710,1000,1000,1000,1000,75328190,1536,1537,1609,1608
52373209,1000,1000,1000,1000,75428983,1536,1538,1612,1611
52375708,1000,1000,1000,1000,75528943,1538,1541,1611,1610
52378207,1000,1000,1000,1000,75628903,1544,1546,1608,1607
52380706,1000,1000,1000,1000,75728863,1550,1551,1602,1601
52383205,1000,1000,1000,1000,75828823,1557,1558,1596,1594
52385704,1000,1000,1000,1000,75928783,1565,1565,1589,1588
52388203,1000,1000,1000,1000,76028743,1572,1572,1582,1582
52390702,1000,1000,1000,1000,76128703,1578,1577,1577,1577
52393201,1000,1000,1000,1000,76228663,1583,1582,1573,1573
52395700,1000,1000,1000,1000,76328623,1586,1585,1571,1570
52398199,1000,1000,1000,1000,76428583,1587,1585,1569,1569
52400698,1000,1000,1000,1000,76528543,1587,1586,1570,1570
52403197,1000,1000,1000,1000,76628503,1586,1585,1572,1572
52405696,1000,1000,1000,1000,76728463,1583,1582,1572,1573
52408195,1000,1000,1000,1000,76828423,1580,1581,1576,1575
52410694,1000,1000,1000,1000,76928383,1578,1578,1578,1577
52413193,1000,1000,1000,1000,77028343,1575,1576,1579,1580
52415692,1000,1000,1000,1000,77128303,1573,1574,1580,1580
52418191,1000,1000,1000,1000,77228263,1573,1573,1582,1583
52420690,1000,1000,1000,1000,77328223,1573,1573,1583,1583
52423189,1000,1000,1000,1000,77428183,1573,1574,1583,1584
52425688,1000,1000,1000,1000,77528976,1574,1574,1583,1583
52428187,1000,1000,1000,1000,77628936,1575,1575,1582,1582
52430686,1000,1000,1000,1000,77728896,1576,1576,1581,1581
52433185,1000,1000,1000,1000,77828856,1577,1577,1580,1579
52435684,1000,1000,1000,1000,77928816,1579,1579,1579,1579
52438183,1000,1000,1000,1000,78028776,1580,1580,1579,1578
52440682,1000,1000,1000,1000,78128736,1580,1580,1577,1577
52443181,1000,1000,1000,1000,78228696,1580,1579,1576,1576
52445680,1000,1000,1000,1000,78328656,1581,1581,1577,1578
52448179,1000,1000,1000,1000,78428616,1582,1581,1578,1578
52450678,1000,1000,1000,1000,78528576,1581,1580,1578,1578
52453177,1000,1000,1000,1000,78628536,1582,1581,1579,1579
52455676,1000,1000,1000,1000,78728496,1581,1581,1580,1580
52458175,1000,1000,1000,1000,78828456,1580,1580,1580,1580
52460674,1000,1000,1000,1000,78928416,1580,1581,1581,1581
52463173,1000,1000,1000,1000,79028376,1581,1581,1582,1582
52465672,1000,1000,1000,1000,79128336,1580,1580,1581,1581
52468171,1000,1000,1000,1000,79228296,1579,1580,1581,1581
52470670,1000,1000,1000,1000,79328256,1580,1580,1581,1581
52473169,1000,1000,1000,1000,79428216,1580,1580,1581,1581
52475668,1000,1000,1000,1000,79528176,1580,1580,1581,1581
52478167,1000,1000,1000,1000,79628969,1580,1581,1581,1580
52480666,1000,1000,1000,1000,79728929,1581,1581,1581,1581
52483165,1000,1000,1000,1000,79828889,1581,1581,1581,1581
52485664,1000,1000,1000,1000,79928849,1581,1581,1581,1581
52488163,1000,1000,1000,1000,80028809,1581,1581,1580,1580
52490662,1000,1000,1000,1000,80128769,1581,1581,1580,1580
52493161,1000,1000,1000,1000,80228729,1581,1581,1582,1578
52495660,1000,1000,1000,1000,80328689,1580,1583,1587,1572
52498159,1000,1000,1000,1000,80428649,1581,1583,1583,1573
52500658,1000,1000,1000,1000,80528609,1579,1582,1574,1573
52503157,1000,1000,1000,1000,80628569,1579,1581,1566,1570
52505656,1000,1000,1000,1000,80728529,1579,1580,1560,1566
52508155,1000,1000,1000,1000,80828489,1579,1579,1556,1561
52510654,1000,1000,1000,1000,80928449,1580,1579,1555,1558
52513986,1000,1000,1000,1000,81028409,1580,1579,1555,1555
52516485,1000,1000,1000,1000,81128369,1580,1579,1556,1554
52518984,1000,1000,1000,1000,81228329,1579,1578,1557,1553
52521483,1000,1000,1000,1000,81328289,1577,1577,1556,1553
52523982,1000,1000,1000,1000,81428249,1576,1577,1555,1555
52526481,1000,1000,1000,1000,81528209,1574,1576,1553,1554
52528980,1000,1000,1000,1000,81628169,1574,1576,1552,1552
52531479,1000,1000,1000,1000,81728962,1575,1577,1551,1552
52533978,1000,1000,1000,1000,81828922,1576,1577,1549,1549
52536477,1000,1000,1000,1000,81928882,1578,1579,1547,1547
52538976,1000,1000,1000,1000,82028842,1581,1581,1546,1545
52541475,1000,1000,1000,1000,82128802,1583,1583,1542,1542
52543974,1000,1000,1000,1000,82228762,1586,1587,1541,1540
52546473,1000,1000,1000,1000,82328722,1589,1590,1540,1540
52548972,1000,1000,1000,1000,82428682,1590,1591,1538,1538
52551471,1000,1000,1000,1000,82528642,1592,1592,1537,1538
52553970,1000,1000,1000,1000,82628602,1592,1593,1536,1539
52556469,1000,1000,1000,1000,82728562,1592,1592,1538,1540
52558968,1000,1000,1000,1000,82828522,1590,1589,1543,1545
52561467,1000,1000,1000,1000,82928482,1586,1583,1549,1551
52563966,1000,1000,1000,1000,83028442,1579,1575,1557,1560
52566465,1000,1000,1000,1000,83128402,1571,1566,1568,1571
52568964,1000,1000,1000,1000,83228362,1560,1556,1580,1582
52571463,1000,1000,1000,1000,83328322,1550,1548,1592,1592
52573962,1000,1000,1000,1000,83428282,1542,1541,1602,1602
52576461,1000,1000,1000,1000,83528242,1536,1536,1609,1608
52578960,1000,1000,1000,1000,83628202,1533,1534,1613,1611
52581459,1000,1000,1000,1000,83728162,1534,1536,1613,1612
52583958,1000,1000,1000,1000,83828955,1538,1540,1610,1610
52586457,1000,1000,1000,1000,83928915,1544,1546,1605,1606
52588956,1000,1000,1000,1000,84028875,1552,1553,1599,1599
52591455,1000,1000,1000,1000,84128835,1560,1560,1592,1591
52593954,1000,1000,1000,1000,84228795,1568,1568,1585,1585
52596453,1000,1000,1000,1000,84328755,1574,1574,1578,1578
52598952,1000,1000,1000,1000,84428715,1581,1580,1574,1574
52601451,1000,1000,1000,1000,84528675,1585,1583,1570,1570
52603950,1000,1000,1000,1000,84628635,1586,1585,1567,1568
52606449,1000,1000,1000,1000,84728595,1587,1585,1568,1568
52608948,1000,1000,1000,1000,84828555,1586,1586,1569,1569
52611447,1000,1000,1000,1000,84928515,1584,1584,1571,1571
52613946,1000,1000,1000,1000,85028475,1583,1582,1573,1574
52616445,1000,1000,1000,1000,85128435,1580,1580,1576,1577
52618944,1000,1000,1000,1000,85228395,1578,1578,1579,1579
52621443,1000,1000,1000,1000,85328355,1575,1576,1581,1581
52623942,1000,1000,1000,1000,85428315,1573,1574,1582,1582
52626441,1000,1000,1000,1000,85528275,1572,1573,1583,1582
52628940,1000,1000,1000,1000,85628235,1574,1574,1585,1584
52631439,1000,1000,1000,1000,85728195,1573,1573,1583,1583
52633938,1000,1000,1000,1000,85828155,1574,1575,1583,1583
52636437,1000,1000,1000,1000,85928948,1576,1576,1582,1582
52638936,1000,1000,1000,1000,86028908,1577,1578,1581,1581
52641435,1000,1000,1000,1000,86128868,1578,1578,1579,1579
52643934,1000,1000,1000,1000,86228828,1581,1580,1579,1579
52646433,1000,1000,1000,1000,86328788,1581,1581,1578,1579
52648932,1000,1000,1000,1000,86428748,1582,1581,1578,1578
52651431,1000,1000,1000,1000,86528708,1582,1581,1578,1578
52653930,1000,1000,1000,1000,86628668,1582,1581,1578,1578
52656429,1000,1000,1000,1000,86728628,1581,1581,1578,1578
52658928,1000,1000,1000,1000,86828588,1582,1582,1579,1579
52661427,1000,1000,1000,1000,86928548,1581,1581,1579,1579
52663926,1000,1000,1000,1000,87028508,1581,1581,1580,1580
52666425,1000,1000,1000,1000,87128468,1580,1580,1580,1580
52668924,1000,1000,1000,1000,87228428,1580,1580,1581,1581
52671423,1000,1000,1000,1000,87328388,1580,1579,1581,1581
52673922,1000,1000,1000,1000,87428348,1580,1581,1582,1582
52676421,1000,1000,1000,1000,87528308,1580,1580,1581,1582
52678920,1000,1000,1000,1000,87628268,1579,1579,1581,1581
52681419,1000,1000,1000,1000,87728228,1580,1580,1581,1581
52683918,1000,1000,1000,1000,87828188,1580,1579,1580,1580
52686417,1000,1000,1000,1000,87928981,1580,1580,1580,1580
52688916,1000,1000,1000,1000,88028941,1580,1580,1580,1580
52691415,1000,1000,1000,1000,88128901,1580,1580,1580,1580
52693914,1000,1000,1000,1000,88228861,1580,1581,1586,1573
52696413,1000,1000,1000,1000,88328821,1580,1580,1585,1572
52698912,1000,1000,1000,1000,88428781,1578,1578,1579,1574
52701411,1000,1000,1000,1000,88528741,1575,1574,1571,1574
52703910,1000,1000,1000,1000,88628701,1572,1572,1567,1574
52706409,1000,1000,1000,1000,88728661,1569,1569,1564,1572
52708908,1000,1000,1000,1000,88828621,1568,1568,1565,1570
52711407,1000,1000,1000,1000,88928581,1567,1566,1566,1567
52713906,1000,1000,1000,1000,89028541,1566,1566,1567,1565
52716405,1000,1000,1000,1000,89128501,1565,1565,1567,1564
52718904,1000,1000,1000,1000,89228461,1566,1565,1568,1565
52721403,1000,1000,1000,1000,89328421,1564,1564,1565,1565
52723902,1000,1000,1000,1000,89428381,1563,1563,1564,1564
52726401,1000,1000,1000,1000,89528341,1563,1563,1563,1564
52728900,1000,1000,1000,1000,89628301,1562,1562,1563,1562
52731399,1000,1000,1000,1000,89728261,1563,1563,1563,1563
52733898,1000,1000,1000,1000,89828221,1562,1561,1562,1561
52736397,1000,1000,1000,1000,89928181,1561,1562,1562,1561
52738896,1000,1000,1000,1000,90028974,1561,1561,1561,1560
52741395,1000,1000,1000,1000,90128934,1559,1559,1559,1559
52743894,1000,1000,1000,1000,90228894,1559,1558,1558,1558
52746393,1000,1000,1000,1000,90328854,1558,1557,1557,1557
52748892,1000,1000,1000,1000,90428814,1557,1558,1558,1556
52751391,1000,1000,1000,1000,90528774,1557,1558,1558,1557
52753890,1000,1000,1000,1000,90628734,1557,1557,1558,1556
52756389,1000,1000,1000,1000,90728694,1557,1557,1558,1556
52758888,1000,1000,1000,1000,90828654,1557,1557,1558,1556
52761387,1000,1000,1000,1000,90928614,1557,1557,1559,1556
52763886,1000,1000,1000,1000,91028574,1559,1558,1559,1559
52766385,1000,1000,1000,1000,91128534,1560,1560,1558,1563
52768884,1000,1000,1000,1000,91228494,1560,1561,1557,1563
52771383,1000,1000,1000,1000,91328454,1561,1561,1558,1564
52773882,1000,1000,1000,1000,91428414,1562,1562,1560,1564
52776381,1000,1000,1000,1000,91528374,1562,1562,1561,1563
52778880,1000,1000,1000,1000,91628334,1561,1561,1563,1560
52781379,1000,1000,1000,1000,91728294,1561,1561,1561,1561
52783878,1000,1000,1000,1000,91828254,1558,1557,1556,1558
52786377,1000,1000,1000,1000,91928214,1552,1552,1551,1553
52788876,1000,1000,1000,1000,92028174,1547,1547,1547,1547
52791375,1000,1000,1000,1000,92128967,1541,1541,1541,1540
52793874,1000,1000,1000,1000,92228927,1533,1534,1533,1533
52796373,1000,1000,1000,1000,92328887,1526,1526,1526,1525
52798872,1000,1000,1000,1000,92428847,1521,1521,1521,1521
52801371,1000,1000,1000,1000,92528807,1520,1519,1519,1520
52803870,1000,1000,1000,1000,92628767,1520,1520,1519,1520
52806369,1000,1000,1000,1000,92728727,1522,1522,1522,1522
52808868,1000,1000,1000,1000,92828687,1524,1524,1525,1525
52811367,1000,1000,1000,1000,92928647,1528,1528,1528,1529
52813866,1000,1000,1000,1000,93028607,1534,1534,1535,1535
52816365,1000,1000,1000,1000,93128567,1538,1538,1539,1538
52818864,1000,1000,1000,1000,93228527,1541,1541,1542,1541
52821363,1000,1000,1000,1000,93328487,1543,1543,1543,1543
52823862,1000,1000,1000,1000,93428447,1544,1544,1544,1545
52826361,1000,1000,1000,1000,93528407,1547,1546,1546,1547
52828860,1000,1000,1000,1000,93628367,1546,1546,1546,1546
52831359,1000,1000,1000,1000,93728327,1547,1547,1547,1547
52833858,1000,1000,1000,1000,93828287,1547,1547,1547,1547
52836357,1000,1000,1000,1000,93928247,1546,1546,1546,1546
52838856,1000,1000,1000,1000,94028207,1547,1547,1547,1546
52841355,1000,1000,1000,1000,94128167,1546,1546,1546,1546
52843854,1000,1000,1000,1000,94228960,1547,1547,1547,1547
52846353,1000,1000,1000,1000,94328920,1546,1546,1546,1546
52848852,1000,1000,1000,1000,94428880,1546,1546,1546,1546
52851351,1000,1000,1000,1000,94528840,1546,1544,1545,1545
52853850,1000,1000,1000,1000,94628800,1545,1545,1545,1545
52856349,1000,1000,1000,1000,94728760,1545,1545,1545,1545
52858848,1000,1000,1000,1000,94828720,1545,1545,1545,1545
52861347,1000,1000,1000,1000,94928680,1544,1544,1545,1544
52863846,1000,1000,1000,1000,95028640,1544,1544,1544,1544
52866345,1000,1000,1000,1000,95128600,1543,1544,1544,1543
52868844,1000,1000,1000,1000,95228560,1543,1544,1544,1543
52871343,1000,1000,1000,1000,95328520,1544,1545,1544,1544
52873842,1000,1000,1000,1000,95428480,1544,1544,1543,1544
52876341,1000,1000,1000,1000,95528440,1543,1543,1543,1543
52878840,1000,1000,1000,1000,95628400,1544,1543,1544,1544
52881339,1000,1000,1000,1000,95728360,1544,1543,1543,1543
52883838,1000,1000,1000,1000,95828320,1543,1544,1543,1543
52886337,1000,1000,1000,1000,95928280,1545,1545,1544,1545
52888836,1000,1000,1000,1000,96028240,1544,1544,1544,1544
52891335,1000,1000,1000,1000,96128200,1544,1544,1544,1544
52893834,1000,1000,1000,1000,96228160,1544,1544,1544,1544
52896333,1000,1000,1000,1000,96328953,1543,1544,1543,1544
52898832,1000,1000,1000,1000,96428913,1543,1543,1543,1543
52901331,1000,1000,1000,1000,96528873,1544,1544,1544,1544
52903830,1000,1000,1000,1000,96628833,1544,1544,1544,1544
52906329,1000,1000,1000,1000,96728793,1544,1544,1544,1544
52908828,1000,1000,1000,1000,96828753,1544,1544,1544,1544
52911327,1000,1000,1000,1000,96928713,1544,1544,1544,1544
52913826,1000,1000,1000,1000,97028673,1545,1544,1544,1544
52916325,1000,1000,1000,1000,97128633,1544,1544,1544,1544
52918824,1000,1000,1000,1000,97228593,1544,1544,1544,1544
52921323,1000,1000,1000,1000,97328553,1544,1544,1544,1544
52923822,1000,1000,1000,1000,97428513,1544,1544,1544,1544
52926321,1000,1000,1000,1000,97528473,1544,1544,1544,1544
52928820,1000,1000,1000,1000,97628433,1544,1545,1544,1544
52931319,1000,1000,1000,1000,97728393,1544,1544,1545,1544
52933818,1000,1000,1000,1000,97828353,1544,1544,1544,1543
52936317,1000,1000,1000,1000,97928313,1545,1544,1544,1544
52938816,1000,1000,1000,1000,98028273,1544,1544,1544,1544
52941315,1000,1000,1000,1000,98128233,1544,1544,1543,1544
52943814,1000,1000,1000,1000,98228193,1544,1544,1544,1544
52946313,1000,1000,1000,1000,98328986,1544,1544,1544,1544
52948812,1000,1000,1000,1000,98428946,1544,1544,1544,1544
52951311,1000,1000,1000,1000,98528906,1544,1544,1544,1544
52953810,1000,1000,1000,1000,98628866,1544,1544,1544,1544
52956309,1000,1000,1000,1000,98728826,1545,1544,1545,1545
52958808,1000,1000,1000,1000,98828786,1544,1544,1545,1544
52961307,1000,1000,1000,1000,98928746,1545,1544,1545,1545
52963806,1000,1000,1000,1000,99028706,1543,1544,1544,1544
52966305,1000,1000,1000,1000,99128666,1544,1544,1544,1544
52968804,1000,1000,1000,1000,99228626,1544,1544,1544,1543
52971303,1000,1000,1000,1000,99328586,1544,1544,1544,1544
52973802,1000,1000,1000,1000,99428546,1543,1544,1544,1543
52976301,1000,1000,1000,1000,99528506,1544,1543,1543,1543
52978800,1000,1000,1000,1000,99628466,1545,1544,1544,1544
52981299,1000,1000,1000,1000,99728426,1544,1544,1544,1544
52983798,1000,1000,1000,1000,99828386,1545,1545,1545,1545
52986297,1000,1000,1000,1000,99928346,1544,1545,1544,1545
52988796,1000,1000,1000,1000,100028306,1544,1544,1544,1544
52991295,1000,1000,1000,1000,100128266,1544,1544,1545,1544
52993794,1000,1000,1000,1000,100228226,1544,1544,1544,1544
52996293,1000,1000,1000,1000,100328186,1544,1544,1544,1544
52998792,1000,1000,1000,1000,100428979,1545,1544,1545,1544
53001291,1000,1000,1000,1000,100528939,1545,1545,1545,1545
53003790,1000,1000,1000,1000,100628899,1545,1545,1545,1545
53006289,1000,1000,1000,1000,100728859,1544,1544,1544,1544
53008788,1000,1000,1000,1000,100828819,1545,1545,1545,1545
53011287,1000,1000,1000,1000,100928779,1544,1544,1544,1544
53013786,1000,1000,1000,1000,101028739,1545,1545,1545,1545
53016285,1000,1000,1000,1000,101128699,1544,1545,1544,1545
53018784,1000,1000,1000,1000,101228659,1544,1545,1545,1544
53021283,1000,1000,1000,1000,101328619,1545,1544,1544,1545
53023782,1000,1000,1000,1000,101428579,1543,1543,1543,1544
53026281,1000,1000,1000,1000,101528539,1544,1544,1544,1544
53028780,1000,1000,1000,1000,101628499,1544,1544,1543,1544
53031279,1000,1000,1000,1000,101728459,1543,1543,1543,1543
53033778,1000,1000,1000,1000,101828419,1543,1544,1544,1543
53036277,1000,1000,1000,1000,101928379,1544,1544,1545,1544
53038776,1000,1000,1000,1000,102028339,1544,1544,1544,1544
53041275,1000,1000,1000,1000,102128299,1534,1532,1533,1533
53043774,1000,1000,1000,1000,102228259,1344,1342,1338,1342
53046273,1000,1000,1000,1000,102328219,1244,1241,1233,1242
53048772,1000,1000,1000,1000,102428179,1211,1208,1199,1209
53051271,1000,1000,1000,1000,102528972,1187,1183,1171,1185
53053770,1000,1000,1000,1000,102628932,1182,1179,1167,1180
53056269,1000,1000,1000,1000,102728892,1183,1179,1167,1181
53058768,1000,1000,1000,1000,102828852,1203,1179,1167,1202
53061267,1000,1000,1000,1000,102928812,1208,1179,1167,1206
53063766,1000,1000,1000,1000,103028772,1201,1178,1167,1199
53066265,1000,1000,1000,1000,103128732,1200,1178,1167,1198
53068764,1000,1000,1000,1000,103228692,1201,1178,1167,1199
53071263,1000,1000,1000,1000,103328652,1203,1178,1167,1201
53073762,1000,1000,1000,1000,103428612,1205,1178,1167,1203
53076261,1000,1000,1000,1000,103528572,1207,1178,1167,1205
53078760,1000,1000,1000,1000,103628532,1188,1179,1167,1188
53081259,1000,1000,1000,1000,103728492,1195,1179,1167,1194
53083758,1000,1000,1000,1000,103828452,1196,1179,1167,1195
53086257,1000,1000,1000,1000,103928412,1197,1178,1167,1195
53088756,1000,1000,1000,1000,104028372,1197,1178,1167,1196
53091255,1000,1000,1000,1000,104128332,1000,1000,1000,1000
53093754,1000,1000,1000,1000,104228292,1000,1000,1000,1000
53096253,1000,1000,1000,1000,104328252,1000,1000,1000,1000
53098752,1000,1000,1000,1000,104428212,1000,1000,1000,1000
53101251,1000,1000,1000,1000,104528172,1000,1000,1000,1000
53103750,1000,1000,1000,1000,104628965,1000,1000,1000,1000
53106249,1000,1000,1000,1000,104728925,1000,1000,1000,1000
53108748,1000,1000,1000,1000,104828885,1000,1000,1000,1000
53111247,1000,1000,1000,1000,104928845,1000,1000,1000,1000
53113746,1000,1000,1000,1000,105028805,1000,1000,1000,1000
53116245,1000,1000,1000,1000,105128765,1000,1000,1000,1000
53118744,1000,1000,1000,1000,105228725,1000,1000,1000,1000
53121243,1000,1000,1000,1000,105328685,1000,1000,1000,1000
53123742,1000,1000,1000,1000,105428645,1000,1000,1000,1000
53126241,1000,1000,1000,1000,105528605,1000,1000,1000,1000
53128740,1000,1000,1000,1000,105628565,1000,1000,1000,1000
53131239,1000,1000,1000,1000,105728525,1000,1000,1000,1000
53133738,1000,1000,1000,1000,105828485,1000,1000,1000,1000
53136237,1000,1000,1000,1000,105928445,1000,1000,1000,1000
53138736,1000,1000,1000,1000,106028405,1000,1000,1000,1000
53141235,1000,1000,1000,1000,106128365,1000,1000,1000,1000
53143734,1000,1000,1000,1000,106228325,1000,1000,1000,1000
53146233,1000,1000,1000,1000,106328285,1000,1000,1000,1000
53148732,1000,1000,1000,1000,106428245,1000,1000,1000,1000
53151231,1000,1000,1000,1000,106528205,1000,1000,1000,1000
53153730,1000,1000,1000,1000,106628165,1000,1000,1000,1000
53156229,1000,1000,1000,1000,106728958,1000,1000,1000,1000
53158728,1000,1000,1000,1000,106828918,1000,1000,1000,1000
53161227,1000,1000,1000,1000,106928878,1000,1000,1000,1000
53163726,1000,1000,1000,1000,107028838,1000,1000,1000,1000
53166225,1000,1000,1000,1000,107128798,1000,1000,1000,1000
53168724,1000,1000,1000,1000,107228758,1000,1000,1000,1000
53171223,1000,1000,1000,1000,107328718,1000,1000,1000,1000
53173722,1000,1000,1000,1000,107428678,1000,1000,1000,1000
53176221,1000,1000,1000,1000,107528638,1000,1000,1000,1000
53178720,1000,1000,1000,1000,107628598,1000,1000,1000,1000
53181219,1000,1000,1000,1000,107728558,1000,1000,1000,1000
53183718,1000,1000,1000,1000,107828518,1000,1000,1000,1000
53186217,1000,1000,1000,1000,107928478,1000,1000,1000,1000
53188716,1000,1000,1000,1000,108028438,1000,1000,1000,1000
53191215,1000,1000,1000,1000,108128398,1000,1000,1000,1000
53193714,1000,1000,1000,1000,108228358,1000,1000,1000,1000
53196213,1000,1000,1000,1000,108328318,1000,1000,1000,1000
53198712,1000,1000,1000,1000,108428278,1000,1000,1000,1000
53201211,1000,1000,1000,1000,108528238,1000,1000,1000,1000
53203710,1000,1000,1000,1000,108628198,1000,1000,1000,1000
53206209,1000,1000,1000,1000,108728158,1000,1000,1000,1000
53208708,1000,1000,1000,1000,108828951,1000,1000,1000,1000
53211207,1000,1000,1000,1000,108928911,1000,1000,1000,1000
53213706,1000,1000,1000,1000,109028871,1000,1000,1000,1000
53216205,1000,1000,1000,1000,109128831,1000,1000,1000,1000
53218704,1000,1000,1000,1000,109228791,1000,1000,1000,1000
53221203,1000,1000,1000,1000,109328751,1000,1000,1000,1000
53223702,1000,1000,1000,1000,109428711,1000,1000,1000,1000
53226201,1000,1000,1000,1000,109528671,1000,1000,1000,1000
53228700,1000,1000,1000,1000,109628631,1000,1000,1000,1000
53231199,1000,1000,1000,1000,109728591,1000,1000,1000,1000
53233698,1000,1000,1000,1000,109828551,1000,1000,1000,1000
53236197,1000,1000,1000,1000,109928511,1000,1000,1000,1000
53238696,1000,1000,1000,1000,110028471,1000,1000,1000,1000
53241195,1000,1000,1000,1000,110128431,1000,1000,1000,1000
53243694,1000,1000,1000,1000,110228391,1000,1000,1000,1000
53246193,1000,1000,1000,1000,110328351,1000,1000,1000,1000
53248692,1000,1000,1000,1000,110428311,1000,1000,1000,1000
53251191,1000,1000,1000,1000,110528271,1000,1000,1000,1000
53253690,1000,1000,1000,1000,110628231,1000,1000,1000,1000
53256189,1000,1000,1000,1000,110728191,1000,1000,1000,1000
53258688,1000,1000,1000,1000,110828984,1000,1000,1000,1000
53261187,1000,1000,1000,1000,110928944,1000,1000,1000,1000
53263686,1000,1000,1000,1000,111028904,1000,1000,1000,1000
53266185,1000,1000,1000,1000,111128864,1000,1000,1000,1000
53268684,1000,1000,1000,1000,111228824,1000,1000,1000,1000
53271183,1000,1000,1000,1000,111328784,1000,1000,1000,1000
53273682,1000,1000,1000,1000,111428744,1000,1000,1000,1000
53276181,1000,1000,1000,1000,111528704,1000,1000,1000,1000
53278680,1000,1000,1000,1000,111628664,1000,1000,1000,1000
53281179,1000,1000,1000,1000,111728624,1000,1000,1000,1000
53283678,1000,1000,1000,1000,111828584,1000,1000,1000,1000
53286177,1000,1000,1000,1000,111928544,1000,1000,1000,1000
53288676,1000,1000,1000,1000,112028504,1000,1000,1000,1000
53291175,1000,1000,1000,1000,112128464,1000,1000,1000,1000
53293674,1000,1000,1000,1000,112228424,1000,1000,1000,1000
53296173,1000,1000,1000,1000,112328384,1000,1000,1000,1000
53298672,1000,1000,1000,1000,112428344,1000,1000,1000,1000
53301171,1000,1000,1000,1000,112528304,1000,1000,1000,1000
53303670,1000,1000,1000,1000,112628264,1000,1000,1000,1000
53306169,1000,1000,1000,1000,112728224,1000,1000,1000,1000
53308668,1000,1000,1000,1000,112828184,1000,1000,1000,1000
53311167,1000,1000,1000,1000,112928977,1000,1000,1000,1000
53313666,1000,1000,1000,1000,113028937,1000,1000,1000,1000
53316165,1000,1000,1000,1000,113128897,1000,1000,1000,1000
53318664,1000,1000,1000,1000,113228857,1000,1000,1000,1000
53321163,1000,1000,1000,1000,113328817,1000,1000,1000,1000
53323662,1000,1000,1000,1000,113428777,1000,1000,1000,1000
53326161,1000,1000,1000,1000,113528737,1000,1000,1000,1000
53328660,1000,1000,1000,1000,113628697,1000,1000,1000,1000
53331159,1000,1000,1000,1000,113728657,1000,1000,1000,1000
53333658,1000,1000,1000,1000,113828617,1000,1000,1000,1000
53336157,1000,1000,1000,1000,113928577,1000,1000,1000,1000
53338656,1000,1000,1000,1000,114028537,1000,1000,1000,1000
53341155,1000,1000,1000,1000,114128497,1000,1000,1000,1000
53343654,1000,1000,1000,1000,114228457,1000,1000,1000,1000
53346153,1000,1000,1000,1000,114328417,1000,1000,1000,1000
53348652,1000,1000,1000,1000,114428377,1000,1000,1000,1000
53351151,1000,1000,1000,1000,114528337,1000,1000,1000,1000
53353650,1000,1000,1000,1000,114628297,1000,1000,1000,1000
53356149,1000,1000,1000,1000,114728257,1000,1000,1000,1000
53358648,1000,1000,1000,1000,114828217,1000,1000,1000,1000
53361147,1000,1000,1000,1000,114928177,1000,1000,1000,1000
53363646,1000,1000,1000,1000,115028970,1000,1000,1000,1000
53366145,1000,1000,1000,1000,115128930,1000,1000,1000,1000
53368644,1000,1000,1000,1000,115228890,1000,1000,1000,1000
53371143,1000,1000,1000,1000,115328850,1000,1000,1000,1000
53373642,1000,1000,1000,1000,115428810,1000,1000,1000,1000
53376141,1000,1000,1000,1000,115528770,1000,1000,1000,1000
53378640,1000,1000,1000,1000,115628730,1000,1000,1000,1000
53381139,1000,1000,1000,1000,115728690,1000,1000,1000,1000
53383638,1000,1000,1000,1000,115828650,1000,1000,1000,1000
53386137,1000,1000,1000,1000,115928610,1000,1000,1000,1000
53388636,1000,1000,1000,1000,116028570,1000,1000,1000,1000
53391135,1000,1000,1000,1000,116128530,1000,1000,1000,1000
53393634,1000,1000,1000,1000,116228490,1000,1000,1000,1000
53396133,1000,1000,1000,1000,116328450,1000,1000,1000,1000
53398632,1000,1000,1000,1000,116428410,1000,1000,1000,1000
53401131,1000,1000,1000,1000,116528370,1000,1000,1000,1000
53403630,1000,1000,1000,1000,116628330,1000,1000,1000,1000
53406129,1000,1000,1000,1000,116728290,1000,1000,1000,1000
53408628,1000,1000,1000,1000,116828250,1000,1000,1000,1000
53411127,1000,1000,1000,1000,116928210,1000,1000,1000,1000
53413626,1000,1000,1000,1000,117028170,1000,1000,1000,1000
53416125,1000,1000,1000,1000,,,,,
53418624,1000,1000,1000,1000,,,,,
53421123,1000,1000,1000,1000,,,,,
53423622,1000,1000,1000,1000,,,,,
53426121,1000,1000,1000,1000,,,,,
53428620,1000,1000,1000,1000,,,,,
53431119,1000,1000,1000,1000,,,,,
53433618,1000,1000,1000,1000,,,,,
53436117,1000,1000,1000,1000,,,,,
53438616,1000,1000,1000,1000,,,,,
53441115,1000,1000,1000,1000,,,,,
53443614,1000,1000,1000,1000,,,,,
53446113,1000,1000,1000,1000,,,,,
53448612,1000,1000,1000,1000,,,,,
53451111,1000,1000,1000,1000,,,,,
53453610,1000,1000,1000,1000,,,,,
53456109,1000,1000,1000,1000,,,,,
53458608,1000,1000,1000,1000,,,,,
53461107,1000,1000,1000,1000,,,,,
53463606,1000,1000,1000,1000,,,,,
53466105,1000,1000,1000,1000,,,,,
53468604,1000,1000,1000,1000,,,,,
53471103,1000,1000,1000,1000,,,,,
53473602,1000,1000,1000,1000,,,,,
53476101,1000,1000,1000,1000,,,,,
53478600,1000,1000,1000,1000,,,,,
53481099,1000,1000,1000,1000,,,,,
53483598,1000,1000,1000,1000,,,,,
53486097,1000,1000,1000,1000,,,,,
53488596,1000,1000,1000,1000,,,,,
53491095,1000,1000,1000,1000,,,,,
53493594,1000,1000,1000,1000,,,,,
53496093,1000,1000,1000,1000,,,,,
53498592,1000,1000,1000,1000,,,,,
53501091,1000,1000,1000,1000,,,,,
53503590,1000,1000,1000,1000,,,,,
53506089,1000,1000,1000,1000,,,,,
53508588,1000,1000,1000,1000,,,,,
53511087,1000,1000,1000,1000,,,,,
53513586,1000,1000,1000,1000,,,,,
53516085,1000,1000,1000,1000,,,,,
53518584,1000,1000,1000,1000,,,,,
53521083,1000,1000,1000,1000,,,,,
53523582,1000,1000,1000,1000,,,,,
53526081,1000,1000,1000,1000,,,,,
53528580,1000,1000,1000,1000,,,,,
53531079,1000,1000,1000,1000,,,,,
53533578,1000,1000,1000,1000,,,,,
53536077,1000,1000,1000,1000,,,,,
53538576,1000,1000,1000,1000,,,,,
53541075,1000,1000,1000,1000,,,,,
53543574,1000,1000,1000,1000,,,,,
53546073,1000,1000,1000,1000,,,,,
53548572,1000,1000,1000,1000,,,,,
53551071,1000,1000,1000,1000,,,,,
53553570,1000,1000,1000,1000,,,,,
53556069,1000,1000,1000,1000,,,,,
53558568,1000,1000,1000,1000,,,,,
53561067,1000,1000,1000,1000,,,,,
53563566,1000,1000,1000,1000,,,,,
53566065,1000,1000,1000,1000,,,,,
53568564,1000,1000,1000,1000,,,,,
53571063,1000,1000,1000,1000,,,,,
53573562,1000,1000,1000,1000,,,,,
53576061,1000,1000,1000,1000,,,,,
53578560,1000,1000,1000,1000,,,,,
53581059,1000,1000,1000,1000,,,,,
53583558,1000,1000,1000,1000,,,,,
53586057,1000,1000,1000,1000,,,,,
53588556,1000,1000,1000,1000,,,,,
53591055,1000,1000,1000,1000,,,,,
53593554,1000,1000,1000,1000,,,,,
53596053,1000,1000,1000,1000,,,,,
53598552,1000,1000,1000,1000,,,,,
53601051,1000,1000,1000,1000,,,,,
53603550,1000,1000,1000,1000,,,,,
53606049,1000,1000,1000,1000,,,,,
53608548,1000,1000,1000,1000,,,,,
53611047,1000,1000,1000,1000,,,,,
53613546,1000,1000,1000,1000,,,,,
53616045,1000,1000,1000,1000,,,,,
53618544,1000,1000,1000,1000,,,,,
53621043,1000,1000,1000,1000,,,,,
53623542,1000,1000,1000,1000,,,,,
53626041,1000,1000,1000,1000,,,,,
53628540,1000,1000,1000,1000,,,,,
53631039,1000,1000,1000,1000,,,,,
53633538,1000,1000,1000,1000,,,,,
53636037,1000,1000,1000,1000,,,,,
53638536,1000,1000,1000,1000,,,,,
53641035,1000,1000,1000,1000,,,,,
53643534,1000,1000,1000,1000,,,,,
53646033,1000,1000,1000,1000,,,,,
53648532,1000,1000,1000,1000,,,,,
53651031,1000,1000,1000,1000,,,,,
53653530,1000,1000,1000,1000,,,,,
53656029,1000,1000,1000,1000,,,,,
53658528,1000,1000,1000,1000,,,,,
53661027,1000,1000,1000,1000,,,,,
53663526,1000,1000,1000,1000,,,,,
53666025,1000,1000,1000,1000,,,,,
53668524,1000,1000,1000,1000,,,,,
53671023,1000,1000,1000,1000,,,,,
53673522,1000,1000,1000,1000,,,,,
53676021,1000,1000,1000,1000,,,,,
53678520,1000,1000,1000,1000,,,,,
53681019,1000,1000,1000,1000,,,,,
53683518,1000,1000,1000,1000,,,,,
53686017,1000,1000,1000,1000,,,,,
53688516,1000,1000,1000,1000,,,,,
53691015,1000,1000,1000,1000,,,,,
53693514,1000,1000,1000,1000,,,,,
53696013,1000,1000,1000,1000,,,,,
53698512,1000,1000,1000,1000,,,,,
53701011,1000,1000,1000,1000,,,,,
53703510,1000,1000,1000,1000,,,,,
53706009,1000,1000,1000,1000,,,,,
53708508,1000,1000,1000,1000,,,,,
53711007,1000,1000,1000,1000,,,,,
53713506,1000,1000,1000,1000,,,,,
53716005,1000,1000,1000,1000,,,,,
53718504,1000,1000,1000,1000,,,,,
53721003,1000,1000,1000,1000,,,,,
53723502,1000,1000,1000,1000,,,,,
53726001,1000,1000,1000,1000,,,,,
53728500,1000,1000,1000,1000,,,,,
53730999,1000,1000,1000,1000,,,,,
53733498,1000,1000,1000,1000,,,,,
53735997,1000,1000,1000,1000,,,,,
53738496,1000,1000,1000,1000,,,,,
53740995,1000,1000,1000,1000,,,,,
53743494,1000,1000,1000,1000,,,,,
53745993,1000,1000,1000,1000,,,,,
53748492,1000,1000,1000,1000,,,,,
53750991,1000,1000,1000,1000,,,,,
53753490,1000,1000,1000,1000,,,,,
53755989,1000,1000,1000,1000,,,,,
53758488,1000,1000,1000,1000,,,,,
53760987,1000,1000,1000,1000,,,,,
53763486,1000,1000,1000,1000,,,,,
53765985,1000,1000,1000,1000,,,,,
53768484,1000,1000,1000,1000,,,,,
53770983,1000,1000,1000,1000,,,,,
53773482,1000,1000,1000,1000,,,,,
53775981,1000,1000,1000,1000,,,,,
53778480,1000,1000,1000,1000,,,,,
53780979,1000,1000,1000,1000,,,,,
53783478,1000,1000,1000,1000,,,,,
53785977,1000,1000,1000,1000,,,,,
53788476,1000,1000,1000,1000,,,,,
53790975,1001,1001,1001,1001,,,,,
53793474,1002,1002,1002,1002,,,,,
53795973,1003,1003,1003,1003,,,,,
53798472,1003,1003,1003,1003,,,,,
53800971,1004,1004,1004,1004,,,,,
53803470,1005,1005,1005,1005,,,,,
53805969,1006,1006,1006,1006,,,,,
53808468,1006,1006,1006,1006,,,,,
53810967,1007,1007,1007,1007,,,,,
53813466,1008,1008,1008,1008,,,,,
53815965,1009,1009,1009,1009,,,,,
53818464,1009,1009,1009,1009,,,,,
53820963,1010,1010,1010,1010,,,,,
53823462,1011,1011,1011,1011,,,,,
53825961,1012,1012,1012,1012,,,,,
53828460,1012,1012,1012,1012,,,,,
53830959,1013,1013,1013,1013,,,,,
53833458,1014,1014,1014,1014,,,,,
53835957,1015,1015,1015,1015,,,,,
53838456,1015,1015,1015,1015,,,,,
53840955,1016,1016,1016,1016,,,,,
53843454,1017,1017,1017,1017,,,,,
53845953,1018,1018,1018,1018,,,,,
53848452,1018,1018,1018,1018,,,,,
53850951,1019,1019,1019,1019,,,,,
53853450,1020,1020,1020,1020,,,,,
53855949,1021,1021,1021,1021,,,,,
53858448,1021,1021,1021,1021,,,,,
53860947,1022,1022,1022,1022,,,,,
53863446,1023,1023,1023,1023,,,,,
53865945,1024,1024,1024,1024,,,,,
53868444,1024,1024,1024,1024,,,,,
53870943,1025,1025,1025,1025,,,,,
53873442,1026,1026,1026,1026,,,,,
53875941,1027,1027,1027,1027,,,,,
53878440,1027,1027,1027,1027,,,,,
53880939,1028,1028,1028,1028,,,,,
53883438,1029,1029,1029,1029,,,,,
53885937,1030,1030,1030,1030,,,,,
53888436,1030,1030,1030,1030,,,,,
53890935,1031,1031,1031,1031,,,,,
53893434,1032,1032,1032,1032,,,,,
53895933,1033,1033,1033,1033,,,,,
53898432,1033,1033,1033,1033,,,,,
53900931,1034,1034,1034,1034,,,,,
53903430,1035,1035,1035,1035,,,,,
53905929,1036,1036,1036,1036,,,,,
53908428,1036,1036,1036,1036,,,,,
53910927,1037,1037,1037,1037,,,,,
53913426,1038,1038,1038,1038,,,,,
53915925,1039,1039,1039,1039,,,,,
53918424,1039,1039,1039,1039,,,,,
53920923,1040,1040,1040,1040,,,,,
53923422,1041,1041,1041,1041,,,,,
53925921,1042,1042,1042,1042,,,,,
53928420,1042,1042,1042,1042,,,,,
53930919,1043,1043,1043,1043,,,,,
53933418,1044,1044,1044,1044,,,,,
53935917,1045,1045,1045,1045,,,,,
53938416,1045,1045,1045,1045,,,,,
53940915,1046,1046,1046,1046,,,,,
53943414,1047,1047,1047,1047,,,,,
53945913,1048,1048,1048,1048,,,,,
53948412,1048,1048,1048,1048,,,,,
53950911,1049,1049,1049,1049,,,,,
53953410,1050,1050,1050,1050,,,,,
53955909,1051,1051,1051,1051,,,,,
53958408,1051,1051,1051,1051,,,,,
53960907,1052,1052,1052,1052,,,,,
53963406,1053,1053,1053,1053,,,,,
53965905,1054,1054,1054,1054,,,,,
53968404,1054,1054,1054,1054,,,,,
53970903,1055,1055,1055,1055,,,,,
53973402,1056,1056,1056,1056,,,,,
53975901,1057,1057,1057,1057,,,,,
53978400,1057,1057,1057,1057,,,,,
53980899,1058,1058,1058,1058,,,,,
53983398,1059,1059,1059,1059,,,,,
53985897,1060,1060,1060,1060,,,,,
53988396,1060,1060,1060,1060,,,,,
53990895,1061,1061,1061,1061,,,,,
53993394,1062,1062,1062,1062,,,,,
53995893,1063,1063,1063,1063,,,,,
53998392,1063,1063,1063,1063,,,,,
54000891,1064,1064,1064,1064,,,,,
54003390,1065,1065,1065,1065,,,,,
54005889,1066,1066,1066,1066,,,,,
54008388,1066,1066,1066,1066,,,,,
54010887,1067,1067,1067,1067,,,,,
54013386,1068,1068,1068,1068,,,,,
54015885,1069,1069,1069,1069,,,,,
54018384,1069,1069,1069,1069,,,,,
54020883,1070,1070,1070,1070,,,,,
54023382,1071,1071,1071,1071,,,,,
54025881,1072,1072,1072,1072,,,,,
54028380,1072,1072,1072,1072,,,,,
54030879,1073,1073,1073,1073,,,,,
54033378,1074,1074,1074,1074,,,,,
54035877,1075,1075,1075,1075,,,,,
54038376,1075,1075,1075,1075,,,,,
54040875,1076,1076,1076,1076,,,,,
54043374,1077,1077,1077,1077,,,,,
54045873,1078,1078,1078,1078,,,,,
54048372,1078,1078,1078,1078,,,,,
54050871,1079,1079,1079,1079,,,,,
54053370,1080,1080,1080,1080,,,,,
54055869,1081,1081,1081,1081,,,,,
54058368,1081,1081,1081,1081,,,,,
54060867,1082,1082,1082,1082,,,,,
54063366,1083,1083,1083,1083,,,,,
54065865,1084,1084,1084,1084,,,,,
54068364,1084,1084,1084,1084,,,,,
54070863,1085,1085,1085,1085,,,,,
54073362,1086,1086,1086,1086,,,,,
54075861,1087,1087,1087,1087,,,,,
54078360,1087,1087,1087,1087,,,,,
54080859,1088,1088,1088,1088,,,,,
54083358,1089,1089,1089,1089,,,,,
54085857,1090,1090,1090,1090,,,,,
54088356,1090,1090,1090,1090,,,,,
54090855,1091,1091,1091,1091,,,,,
54093354,1092,1092,1092,1092,,,,,
54095853,1093,1093,1093,1093,,,,,
54098352,1093,1093,1093,1093,,,,,
54100851,1094,1094,1094,1094,,,,,
54103350,1095,1095,1095,1095,,,,,
54105849,1096,1096,1096,1096,,,,,
54108348,1096,1096,1096,1096,,,,,
54110847,1097,1097,1097,1097,,,,,
54113346,1098,1098,1098,1098,,,,,
54115845,1099,1099,1099,1099,,,,,
54118344,1099,1099,1099,1099,,,,,
54120843,1100,1100,1100,1100,,,,,
54123342,1101,1101,1101,1101,,,,,
54125841,1101,1101,1101,1101,,,,,
54128340,1102,1102,1102,1102,,,,,
54130839,1103,1103,1103,1103,,,,,
54133338,1104,1104,1104,1104,,,,,
54135837,1104,1104,1104,1104,,,,,
54138336,1105,1105,1105,1105,,,,,
54140835,1106,1106,1106,1106,,,,,
54143334,1107,1107,1107,1107,,,,,
54145833,1107,1107,1107,1107,,,,,
54148332,1108,1108,1108,1108,,,,,
54150831,1109,1109,1109,1109,,,,,
54153330,1110,1110,1110,1110,,,,,
54155829,1110,1110,1110,1110,,,,,
54158328,1111,1111,1111,1111,,,,,
54160827,1112,1112,1112,1112,,,,,
54163326,1113,1113,1113,1113,,,,,
54165825,1113,1113,1113,1113,,,,,
54168324,1114,1114,1114,1114,,,,,
54170823,1115,1115,1115,1115,,,,,
54173322,1116,1116,1116,1116,,,,,
54175821,1116,1116,1116,1116,,,,,
54178320,1117,1117,1117,1117,,,,,
54180819,1118,1118,1118,1118,,,,,
54183318,1119,1119,1119,1119,,,,,
54185817,1119,1119,1119,1119,,,,,
54188316,1120,1120,1120,1120,,,,,
54190815,1121,1121,1121,1121,,,,,
54193314,1122,1122,1122,1122,,,,,
54195813,1122,1122,1122,1122,,,,,
54198312,1123,1123,1123,1123,,,,,
54200811,1124,1124,1124,1124,,,,,
54203310,1125,1125,1125,1125,,,,,
54205809,1125,1125,1125,1125,,,,,
54208308,1126,1126,1126,1126,,,,,
54210807,1127,1127,1127,1127,,,,,
54213306,1128,1128,1128,1128,,,,,
54215805,1128,1128,1128,1128,,,,,
54218304,1129,1129,1129,1129,,,,,
54220803,1130,1130,1130,1130,,,,,
54223302,1131,1131,1131,1131,,,,,
54225801,1131,1131,1131,1131,,,,,
54228300,1132,1132,1132,1132,,,,,
54230799,1133,1133,1133,1133,,,,,
54233298,1134,1134,1134,1134,,,,,
54235797,1134,1134,1134,1134,,,,,
54238296,1135,1135,1135,1135,,,,,
54240795,1136,1136,1136,1136,,,,,
54243294,1137,1137,1137,1137,,,,,
54245793,1137,1137,1137,1137,,,,,
54248292,1138,1138,1138,1138,,,,,
54250791,1139,1139,1139,1139,,,,,
54253290,1140,1140,1140,1140,,,,,
54255789,1140,1140,1140,1140,,,,,
54258288,1141,1141,1141,1141,,,,,
54260787,1142,1142,1142,1142,,,,,
54263286,1143,1143,1143,1143,,,,,
54265785,1143,1143,1143,1143,,,,,
54268284,1144,1144,1144,1144,,,,,
54270783,1145,1145,1145,1145,,,,,
54273282,1146,1146,1146,1146,,,,,
54275781,1146,1146,1146,1146,,,,,
54278280,1147,1147,1147,1147,,,,,
54280779,1148,1148,1148,1148,,,,,
54283278,1149,1149,1149,1149,,,,,
54285777,1149,1149,1149,1149,,,,,
54288276,1150,1150,1150,1150,,,,,
54290775,1162,1153,1154,1162,,,,,
54293274,1170,1161,1162,1170,,,,,
54295773,1177,1169,1170,1178,,,,,
54298272,1185,1177,1178,1186,,,,,
54300771,1193,1185,1185,1193,,,,,
54303270,1200,1192,1193,1201,,,,,
54305769,1207,1200,1200,1208,,,,,
54308268,1215,1207,1208,1215,,,,,
54310767,1222,1214,1215,1222,,,,,
54313266,1229,1221,1222,1229,,,,,
54315765,1236,1228,1229,1236,,,,,
54318264,1242,1235,1236,1243,,,,,
54320763,1249,1242,1242,1250,,,,,
54323262,1256,1249,1249,1256,,,,,
54325761,1262,1255,1256,1263,,,,,
54328260,1269,1262,1262,1269,,,,,
54330759,1275,1268,1269,1276,,,,,
54333258,1281,1274,1275,1282,,,,,
54335757,1288,1281,1281,1288,,,,,
54338256,1294,1287,1287,1294,,,,,
54340755,1300,1293,1294,1300,,,,,
54343254,1306,1299,1300,1306,,,,,
54345753,1312,1305,1306,1312,,,,,
54348252,1318,1311,1312,1318,,,,,
54350751,1323,1317,1317,1324,,,,,
54353250,1329,1323,1323,1330,,,,,
54355749,1335,1329,1329,1335,,,,,
54358248,1341,1334,1335,1341,,,,,
54360747,1346,1340,1340,1347,,,,,
54363246,1352,1345,1346,1352,,,,,
54365745,1357,1351,1351,1358,,,,,
54368244,1363,1357,1357,1363,,,,,
54370743,1368,1362,1362,1368,,,,,
54373242,1373,1367,1368,1374,,,,,
54375741,1379,1373,1373,1379,,,,,
54378240,1384,1378,1378,1384,,,,,
54380739,1389,1383,1384,1390,,,,,
54383238,1394,1388,1389,1395,,,,,
54385737,1399,1394,1394,1400,,,,,
54388236,1405,1399,1399,1405,,,,,
54390735,1410,1404,1404,1410,,,,,
54393234,1415,1409,1409,1415,,,,,
54395733,1420,1414,1414,1420,,,,,
54398232,1424,1419,1419,1425,,,,,
54400731,1429,1424,1424,1430,,,,,
54403230,1434,1429,1429,1435,,,,,
54405729,1439,1434,1434,1440,,,,,
54408228,1444,1438,1439,1444,,,,,
54410727,1449,1443,1443,1449,,,,,
54413226,1453,1448,1448,1454,,,,,
54415725,1458,1453,1453,1459,,,,,
54418224,1463,1457,1458,1463,,,,,
54420723,1467,1462,1462,1468,,,,,
54423222,1472,1467,1467,1473,,,,,
54425721,1477,1471,1472,1477,,,,,
54428220,1481,1476,1476,1482,,,,,
54430719,1486,1481,1481,1486,,,,,
54433218,1490,1485,1485,1491,,,,,
54435717,1495,1490,1490,1495,,,,,
54438216,1499,1494,1494,1500,,,,,
54440715,1503,1498,1499,1504,,,,,
54443214,1508,1503,1503,1508,,,,,
54445713,1512,1507,1507,1513,,,,,
54448212,1517,1512,1512,1517,,,,,
54450711,1521,1516,1516,1521,,,,,
54453210,1525,1520,1520,1526,,,,,
54455709,1529,1525,1525,1530,,,,,
54458208,1534,1529,1529,1534,,,,,
54460707,1538,1533,1533,1538,,,,,
54463206,1542,1537,1538,1543,,,,,
54465705,1546,1542,1542,1547,,,,,
54468204,1550,1546,1546,1551,,,,,
54470703,1555,1550,1550,1555,,,,,
54473202,1559,1554,1554,1559,,,,,
54475701,1563,1558,1558,1563,,,,,
54478200,1567,1562,1562,1567,,,,,
54480699,1571,1566,1566,1571,,,,,
54483198,1575,1570,1570,1575,,,,,
54485697,1579,1574,1574,1579,,,,,
54488196,1583,1578,1578,1583,,,,,
54490695,1587,1582,1582,1587,,,,,
54493194,1591,1586,1586,1591,,,,,
54495693,1595,1590,1590,1595,,,,,
54498192,1599,1594,1594,1599,,,,,
54500691,1603,1598,1598,1603,,,,,
54503190,1607,1602,1602,1607,,,,,
54505689,1611,1606,1606,1611,,,,,
54508188,1615,1610,1610,1615,,,,,
54510687,1618,1613,1614,1619,,,,,
54513186,1622,1617,1618,1622,,,,,
54515685,1626,1621,1621,1626,,,,,
54518184,1630,1625,1625,1630,,,,,
54520683,1634,1629,1629,1634,,,,,
54523182,1637,1632,1633,1637,,,,,
54525681,1641,1636,1636,1641,,,,,
54528180,1645,1640,1640,1645,,,,,
54530679,1648,1643,1644,1649,,,,,
54533178,1652,1647,1648,1652,,,,,
54535677,1656,1651,1651,1656,,,,,
54538176,1660,1655,1655,1660,,,,,
54540675,1663,1658,1659,1663,,,,,
54543174,1667,1662,1662,1667,,,,,
54545673,1670,1665,1666,1671,,,,,
54548172,1674,1669,1670,1674,,,,,
54550671,1678,1673,1673,1678,,,,,
54553170,1681,1676,1677,1681,,,,,
54555669,1685,1680,1680,1685,,,,,
54558168,1688,1683,1684,1688,,,,,
54560667,1692,1687,1687,1692,,,,,
54563166,1695,1691,1691,1695,,,,,
54565665,1699,1694,1694,1699,,,,,
54568164,1702,1698,1698,1702,,,,,
54570663,1706,1701,1701,1706,,,,,
54573162,1709,1705,1705,1709,,,,,
54575661,1713,1708,1708,1713,,,,,
54578160,1716,1711,1712,1716,,,,,
54580659,1719,1715,1715,1720,,,,,
54583158,1723,1718,1719,1723,,,,,
54585657,1726,1722,1722,1727,,,,,
54588156,1730,1725,1726,1730,,,,,
54590655,1733,1729,1729,1733,,,,,
54593154,1736,1732,1732,1737,,,,,
54596486,1740,1735,1736,1740,,,,,
54598985,1743,1739,1739,1743,,,,,
54601484,1746,1742,1742,1747,,,,,
54603983,1750,1745,1746,1750,,,,,
54606482,1753,1749,1749,1753,,,,,
54608981,1756,1752,1752,1757,,,,,
54611480,1760,1755,1756,1760,,,,,
54613979,1763,1759,1759,1763,,,,,
54616478,1766,1762,1762,1767,,,,,
54618977,1770,1765,1765,1770,,,,,
54621476,1773,1768,1769,1773,,,,,
54623975,1776,1772,1772,1776,,,,,
54626474,1779,1775,1775,1780,,,,,
54628973,1782,1778,1778,1783,,,,,
54631472,1786,1781,1782,1786,,,,,
54633971,1789,1785,1785,1789,,,,,
54636470,1792,1788,1788,1793,,,,,
54638969,1795,1791,1791,1796,,,,,
54641468,1799,1794,1794,1799,,,,,
54643967,1802,1797,1797,1802,,,,,
54646466,1805,1800,1800,1805,,,,,
54648965,1808,1804,1804,1808,,,,,
54651464,1811,1807,1807,1812,,,,,
54653963,1814,1810,1810,1815,,,,,
54656462,1817,1813,1813,1818,,,,,
54658961,1821,1816,1816,1821,,,,,
54661460,1824,1819,1819,1824,,,,,
54663959,1827,1822,1822,1827,,,,,
54666458,1830,1825,1825,1830,,,,,
54668957,1833,1828,1828,1833,,,,,
54671456,1836,1831,1831,1836,,,,,
54673955,1839,1834,1834,1840,,,,,
54676454,1842,1837,1838,1843,,,,,
54678953,1845,1840,1841,1846,,,,,
54681452,1848,1843,1844,1849,,,,,
54683951,1851,1847,1847,1852,,,,,
54686450,1854,1850,1850,1855,,,,,
54688949,1857,1853,1853,1858,,,,,
54691448,1860,1856,1856,1861,,,,,
54693947,1863,1859,1859,1864,,,,,
54696446,1866,1861,1862,1867,,,,,
54698945,1869,1864,1865,1870,,,,,
54701444,1872,1867,1868,1873,,,,,
54703943,1875,1870,1870,1876,,,,,
54706442,1878,1873,1873,1879,,,,,
54708941,1881,1876,1876,1881,,,,,
54711440,1884,1879,1879,1884,,,,,
54713939,1887,1882,1882,1887,,,,,
54716438,1890,1885,1885,1890,,,,,
54718937,1893,1888,1888,1893,,,,,
54721436,1896,1891,1891,1896,,,,,
54723935,1899,1894,1894,1899,,,,,
54726434,1901,1897,1897,1902,,,,,
54728933,1904,1900,1900,1905,,,,,
54731432,1906,1902,1902,1907,,,,,
54733931,1905,1901,1901,1906,,,,,
54736430,1905,1900,1900,1905,,,,,
54738929,1904,1899,1899,1904,,,,,
54741428,1903,1898,1898,1903,,,,,
54743927,1902,1897,1897,1903,,,,,
54746426,1901,1897,1897,1902,,,,,
54748925,1901,1896,1896,1901,,,,,
54751424,1900,1895,1895,1900,,,,,
54753923,1899,1895,1895,1900,,,,,
54756422,1899,1894,1894,1899,,,,,
54758921,1898,1894,1894,1899,,,,,
54761420,1898,1893,1893,1898,,,,,
54763919,1898,1893,1893,1898,,,,,
54766418,1897,1893,1893,1898,,,,,
54768917,1897,1892,1892,1898,,,,,
54771416,1897,1892,1892,1898,,,,,
54773915,1897,1892,1892,1898,,,,,
54776414,1897,1892,1892,1898,,,,,
54778913,1897,1893,1893,1898,,,,,
54781412,1897,1893,1893,1898,,,,,
54783911,1897,1893,1893,1898,,,,,
54786410,1898,1893,1893,1898,,,,,
54788909,1898,1894,1894,1898,,,,,
54791408,1898,1894,1894,1898,,,,,
54793907,1898,1894,1894,1898,,,,,
54796406,1898,1894,1894,1898,,,,,
54798905,1897,1894,1894,1898,,,,,
54801404,1897,1894,1894,1897,,,,,
54803903,1897,1893,1893,1897,,,,,
54806402,1896,1893,1893,1896,,,,,
54808901,1895,1892,1892,1895,,,,,
54811400,1894,1891,1891,1894,,,,,
54813899,1893,1890,1890,1893,,,,,
54816398,1892,1889,1889,1892,,,,,
54818897,1890,1887,1888,1890,,,,,
54821396,1889,1886,1886,1889,,,,,
54823895,1887,1884,1885,1887,,,,,
54826394,1885,1882,1883,1885,,,,,
54828893,1883,1880,1881,1883,,,,,
54831392,1881,1878,1879,1881,,,,,
54833891,1879,1876,1877,1879,,,,,
54836390,1876,1874,1874,1877,,,,,
54838889,1874,1871,1872,1874,,,,,
54841388,1871,1869,1869,1872,,,,,
54843887,1869,1866,1867,1869,,,,,
54846386,1866,1864,1864,1866,,,,,
54848885,1863,1861,1861,1863,,,,,
54851384,1860,1858,1858,1861,,,,,
54853883,1857,1855,1856,1858,,,,,
54856382,1854,1852,1853,1855,,,,,
54858881,1851,1849,1850,1852,,,,,
54861380,1848,1846,1847,1849,,,,,
54863879,1845,1843,1844,1845,,,,,
54866378,1842,1840,1840,1842,,,,,
54868877,1839,1837,1837,1839,,,,,
54871376,1836,1834,1834,1836,,,,,
54873875,1832,1831,1831,1832,,,,,
54876374,1829,1827,1828,1829,,,,,
54878873,1826,1824,1824,1826,,,,,
54881372,1822,1821,1821,1822,,,,,
54883871,1819,1817,1818,1819,,,,,
54886370,1816,1814,1815,1816,,,,,
54888869,1812,1811,1811,1812,,,,,
54891368,1809,1807,1808,1809,,,,,
54893867,1806,1804,1805,1806,,,,,
54896366,1802,1801,1801,1802,,,,,
54898865,1799,1797,1798,1799,,,,,
54901364,1795,1794,1794,1795,,,,,
54903863,1792,1791,1791,1792,,,,,
54906362,1789,1787,1788,1789,,,,,
54908861,1786,1784,1785,1785,,,,,
54911360,1782,1781,1781,1782,,,,,
54913859,1779,1777,1778,1779,,,,,
54916358,1776,1774,1775,1776,,,,,
54918857,1773,1771,1772,1772,,,,,
54921356,1769,1768,1769,1769,,,,,
54923855,1766,1765,1765,1766,,,,,
54926354,1763,1761,1762,1763,,,,,
54928853,1760,1758,1759,1759,,,,,
54931352,1757,1755,1756,1756,,,,,
54933851,1753,1752,1753,1753,,,,,
54936350,1750,1749,1750,1750,,,,,
54938849,1747,1746,1747,1747,,,,,
54941348,1744,1743,1744,1744,,,,,
54943847,1741,1740,1741,1741,,,,,
54946346,1738,1737,1738,1738,,,,,
54948845,1735,1734,1735,1735,,,,,
54951344,1732,1731,1732,1732,,,,,
54953843,1730,1729,1730,1729,,,,,
54956342,1727,1726,1727,1726,,,,,
54958841,1724,1723,1724,1723,,,,,
54961340,1721,1721,1721,1721,,,,,
54963839,1718,1718,1719,1718,,,,,
54966338,1716,1715,1716,1715,,,,,
54968837,1713,1713,1714,1713,,,,,
54971336,1711,1710,1711,1710,,,,,
54973835,1708,1708,1709,1707,,,,,
54976334,1705,1705,1706,1705,,,,,
54978833,1703,1703,1704,1702,,,,,
54981332,1700,1700,1701,1700,,,,,
54983831,1698,1698,1699,1698,,,,,
54986330,1696,1696,1697,1695,,,,,
54988829,1693,1694,1694,1693,,,,,
54991328,1691,1691,1692,1691,,,,,
54993827,1689,1689,1690,1689,,,,,
54996326,1687,1687,1688,1686,,,,,
54998825,1685,1685,1686,1684,,,,,
55001324,1682,1683,1684,1682,,,,,
55003823,1680,1681,1682,1680,,,,,
55006322,1678,1679,1680,1678,,,,,
55008821,1676,1677,1678,1676,,,,,
55011320,1674,1675,1676,1674,,,,,
55013819,1673,1674,1674,1673,,,,,
55016318,1671,1672,1672,1671,,,,,
55018817,1669,1670,1670,1669,,,,,
55021316,1667,1668,1669,1667,,,,,
55023815,1666,1667,1667,1666,,,,,
