TimeUS,M1,M2,M3,M4,TimeUS,C1,C2,C3,C4
49483532,1000,1000,1000,1000,49528514,1000,1000,1000,1000
49486031,1000,1000,1000,1000,49628474,1000,1000,1000,1000
49488530,1000,1000,1000,1000,49728434,1000,1000,1000,1000
49491029,1000,1000,1000,1000,49828394,1000,1000,1000,1000
49493528,1000,1000,1000,1000,49928354,1000,1000,1000,1000
49496027,1000,1000,1000,1000,50028314,1000,1000,1000,1000
49498526,1000,1000,1000,1000,50128274,1000,1000,1000,1000
49501025,1000,1000,1000,1000,50228234,1000,1000,1000,1000
49503524,1000,1000,1000,1000,50328194,1000,1000,1000,1000
49506023,1000,1000,1000,1000,50428154,1000,1000,1000,1000
49508522,1000,1000,1000,1000,50528947,1000,1000,1000,1000
49511021,1000,1000,1000,1000,50628907,1000,1000,1000,1000
49513520,1000,1000,1000,1000,50728867,1000,1000,1000,1000
49516019,1000,1000,1000,1000,50828827,1000,1000,1000,1000
49518518,1000,1000,1000,1000,50928787,1000,1000,1000,1000
49521017,1000,1000,1000,1000,51028747,1000,1000,1000,1000
49523516,1000,1000,1000,1000,51128707,1000,1000,1000,1000
49526015,1000,1000,1000,1000,51228667,1000,1000,1000,1000
49528514,1000,1000,1000,1000,51328627,1000,1000,1000,1000
49531013,1000,1000,1000,1000,51428587,1000,1000,1000,1000
49533512,1000,1000,1000,1000,51528547,1013,1013,1013,1013
49536011,1000,1000,1000,1000,51628507,1043,1043,1043,1043
49538510,1000,1000,1000,1000,51728467,1073,1073,1073,1073
49541009,1000,1000,1000,1000,51828427,1103,1103,1103,1103
49543508,1000,1000,1000,1000,51928387,1133,1133,1133,1133
49546007,1000,1000,1000,1000,52028347,1275,1268,1269,1275
49548506,1000,1000,1000,1000,52128307,1486,1481,1481,1486
49551005,1000,1000,1000,1000,52228267,1648,1644,1644,1648
49553504,1000,1000,1000,1000,52328227,1786,1781,1782,1786
49556003,1000,1000,1000,1000,52428187,1884,1880,1880,1884
49558502,1000,1000,1000,1000,52528980,1870,1867,1868,1871
49561001,1000,1000,1000,1000,52628940,1747,1747,1747,1748
49563500,1000,1000,1000,1000,52728900,1649,1650,1651,1649
49565999,1000,1000,1000,1000,52828860,1622,1624,1624,1621
49568498,1000,1000,1000,1000,52928820,1629,1631,1631,1629
49570997,1000,1000,1000,1000,53028780,1639,1641,1640,1639
49573496,1000,1000,1000,1000,53128740,1634,1632,1630,1636
49575995,1000,1000,1000,1000,53228700,1621,1621,1613,1628
49578494,1000,1000,1000,1000,53328660,1613,1613,1607,1618
49580993,1000,1000,1000,1000,53428620,1610,1610,1609,1611
49583492,1000,1000,1000,1000,53528580,1613,1613,1614,1611
49585991,1000,1000,1000,1000,53628540,1615,1616,1619,1611
49588490,1000,1000,1000,1000,53728500,1619,1619,1623,1615
49590989,1000,1000,1000,1000,53828460,1598,1599,1608,1590
49593488,1000,1000,1000,1000,53928420,1580,1581,1593,1568
49595987,1000,1000,1000,1000,54028380,1568,1569,1573,1564
49598486,1000,1000,1000,1000,54128340,1558,1558,1555,1560
49600985,1000,1000,1000,1000,54228300,1549,1548,1539,1559
49603484,1000,1000,1000,1000,54328260,1542,1541,1530,1553
49605983,1000,1000,1000,1000,54428220,1536,1537,1528,1544
49608482,1000,1000,1000,1000,54528180,1531,1531,1527,1534
49610981,1000,1000,1000,1000,54628973,1528,1528,1528,1528
49613480,1000,1000,1000,1000,54728933,1528,1528,1530,1526
49615979,1000,1000,1000,1000,54828893,1531,1531,1534,1528
49618478,1000,1000,1000,1000,54928853,1533,1534,1537,1530
49620977,1000,1000,1000,1000,55028813,1536,1536,1539,1533
49623476,1000,1000,1000,1000,55128773,1540,1540,1542,1539
49625975,1000,1000,1000,1000,55228733,1544,1543,1544,1543
49628474,1000,1000,1000,1000,55328693,1547,1547,1547,1547
49630973,1000,1000,1000,1000,55428653,1549,1549,1548,1550
49633472,1000,1000,1000,1000,55528613,1552,1551,1550,1553
49635971,1000,1000,1000,1000,55628573,1553,1553,1555,1558
49638470,1000,1000,1000,1000,55728533,1552,1553,1559,1561
49640969,1000,1000,1000,1000,55828493,1554,1554,1561,1562
49643468,1000,1000,1000,1000,55928453,1557,1558,1563,1564
49645967,1000,1000,1000,1000,56028413,1560,1561,1564,1564
49648466,1000,1000,1000,1000,56128373,1564,1565,1566,1565
49650965,1000,1000,1000,1000,56228333,1567,1567,1566,1565
49653464,1000,1000,1000,1000,56328293,1569,1569,1566,1565
49655963,1000,1000,1000,1000,56428253,1570,1569,1565,1565
49658462,1000,1000,1000,1000,56528213,1571,1571,1566,1566
49660961,1000,1000,1000,1000,56628173,1572,1572,1567,1567
49663460,1000,1000,1000,1000,56728966,1573,1573,1568,1569
49665959,1000,1000,1000,1000,56828926,1573,1573,1570,1570
49668458,1000,1000,1000,1000,56928886,1574,1574,1572,1572
49670957,1000,1000,1000,1000,57028846,1574,1575,1574,1573
49673456,1000,1000,1000,1000,57128806,1575,1575,1576,1574
49675955,1000,1000,1000,1000,57228766,1575,1575,1577,1575
49678454,1000,1000,1000,1000,57328726,1575,1575,1576,1576
49680953,1000,1000,1000,1000,57428686,1576,1576,1577,1577
49683452,1000,1000,1000,1000,57528646,1575,1575,1577,1577
49685951,1000,1000,1000,1000,57628606,1576,1576,1577,1578
49688450,1000,1000,1000,1000,57728566,1576,1576,1577,1577
49690949,1000,1000,1000,1000,57828526,1575,1576,1577,1576
49693448,1000,1000,1000,1000,57928486,1576,1576,1577,1577
49695947,1000,1000,1000,1000,58028446,1577,1577,1577,1576
49698446,1000,1000,1000,1000,58128406,1578,1578,1577,1577
49700945,1000,1000,1000,1000,58228366,1578,1578,1577,1577
49703444,1000,1000,1000,1000,58328326,1578,1577,1577,1577
49705943,1000,1000,1000,1000,58428286,1578,1578,1578,1577
49708442,1000,1000,1000,1000,58528246,1577,1578,1577,1577
49710941,1000,1000,1000,1000,58628206,1578,1578,1578,1578
49713440,1000,1000,1000,1000,58728166,1578,1578,1577,1577
49715939,1000,1000,1000,1000,58828959,1579,1580,1579,1579
49718438,1000,1000,1000,1000,58928919,1579,1579,1579,1579
49720937,1000,1000,1000,1000,59028879,1578,1578,1578,1578
49723436,1000,1000,1000,1000,59128839,1579,1579,1579,1579
49725935,1000,1000,1000,1000,59228799,1579,1579,1579,1579
49728434,1000,1000,1000,1000,59328759,1578,1579,1579,1579
49730933,1000,1000,1000,1000,59428719,1579,1579,1579,1580
49733432,1000,1000,1000,1000,59528679,1580,1579,1580,1580
49735931,1000,1000,1000,1000,59628639,1578,1579,1579,1578
49738430,1000,1000,1000,1000,59728599,1579,1580,1580,1580
49740929,1000,1000,1000,1000,59828559,1579,1579,1579,1579
49743428,1000,1000,1000,1000,59928519,1580,1579,1579,1580
49745927,1000,1000,1000,1000,60028479,1579,1579,1579,1579
49748426,1000,1000,1000,1000,60128439,1579,1579,1579,1579
49750925,1000,1000,1000,1000,60228399,1579,1580,1580,1580
49753424,1000,1000,1000,1000,60328359,1580,1580,1580,1580
49755923,1000,1000,1000,1000,60428319,1580,1580,1580,1580
49758422,1000,1000,1000,1000,60528279,1580,1580,1580,1580
49760921,1000,1000,1000,1000,60628239,1580,1580,1580,1580
49763420,1000,1000,1000,1000,60728199,1580,1580,1580,1579
49765919,1000,1000,1000,1000,60828159,1580,1580,1580,1580
49768418,1000,1000,1000,1000,60928952,1580,1580,1580,1580
49770917,1000,1000,1000,1000,61028912,1580,1580,1580,1581
49773416,1000,1000,1000,1000,61128872,1580,1580,1580,1581
49775915,1000,1000,1000,1000,61228832,1580,1580,1580,1580
49778414,1000,1000,1000,1000,61328792,1580,1580,1580,1581
49780913,1000,1000,1000,1000,61428752,1580,1580,1580,1580
49783412,1000,1000,1000,1000,61528712,1580,1580,1580,1581
49785911,1000,1000,1000,1000,61628672,1581,1581,1581,1581
49788410,1000,1000,1000,1000,61728632,1580,1581,1581,1580
49790909,1000,1000,1000,1000,61828592,1580,1581,1583,1579
49793408,1000,1000,1000,1000,61928552,1581,1582,1588,1573
49795907,1000,1000,1000,1000,62028512,1579,1582,1583,1573
49798406,1000,1000,1000,1000,62128472,1578,1580,1574,1573
49800905,1000,1000,1000,1000,62228432,1577,1580,1566,1571
49803404,1000,1000,1000,1000,62328392,1577,1579,1560,1567
49805903,1000,1000,1000,1000,62428352,1578,1577,1556,1562
49808402,1000,1000,1000,1000,62528312,1579,1577,1555,1558
49810901,1000,1000,1000,1000,62628272,1578,1577,1555,1555
49813400,1000,1000,1000,1000,62728232,1578,1577,1555,1553
49815899,1000,1000,1000,1000,62828192,1577,1577,1556,1553
49818398,1000,1000,1000,1000,62928985,1575,1576,1555,1553
49820897,1000,1000,1000,1000,63028945,1574,1576,1555,1553
49823396,1000,1000,1000,1000,63128905,1574,1576,1554,1554
49825895,1000,1000,1000,1000,63228865,1573,1575,1552,1552
49828394,1000,1000,1000,1000,63328825,1575,1576,1551,1551
49830893,1000,1000,1000,1000,63428785,1577,1577,1549,1549
49833392,1000,1000,1000,1000,63528745,1578,1579,1547,1547
49835891,1000,1000,1000,1000,63628705,1581,1583,1545,1545
49838390,1000,1000,1000,1000,63728665,1584,1585,1543,1542
49840889,1000,1000,1000,1000,63828625,1588,1588,1540,1539
49843388,1000,1000,1000,1000,63928585,1591,1591,1537,1537
49845887,1000,1000,1000,1000,64028545,1594,1594,1535,1535
49848386,1000,1000,1000,1000,64128505,1594,1594,1533,1534
49850885,1000,1000,1000,1000,64228465,1595,1595,1534,1535
49853384,1000,1000,1000,1000,64328425,1594,1594,1536,1538
49855883,1000,1000,1000,1000,64428385,1592,1591,1539,1541
49858382,1000,1000,1000,1000,64528345,1588,1586,1545,1548
49860881,1000,1000,1000,1000,64628305,1582,1579,1553,1556
49863380,1000,1000,1000,1000,64728265,1572,1568,1562,1565
49865879,1000,1000,1000,1000,64828225,1563,1559,1575,1578
49868378,1000,1000,1000,1000,64928185,1552,1548,1588,1589
49870877,1000,1000,1000,1000,65028978,1541,1539,1599,1599
49873376,1000,1000,1000,1000,65128938,1533,1532,1608,1608
49875875,1000,1000,1000,1000,65228898,1528,1530,1614,1613
49878374,1000,1000,1000,1000,65328858,1527,1529,1615,1614
49880873,1000,1000,1000,1000,65428818,1531,1534,1613,1613
49883372,1000,1000,1000,1000,65528778,1538,1540,1609,1609
49885871,1000,1000,1000,1000,65628738,1544,1546,1601,1602
49888370,1000,1000,1000,1000,65728698,1554,1555,1594,1594
49890869,1000,1000,1000,1000,65828658,1563,1563,1587,1587
49893368,1000,1000,1000,1000,65928618,1571,1571,1580,1579
49895867,1000,1000,1000,1000,66028578,1578,1577,1574,1573
49898366,1000,1000,1000,1000,66128538,1583,1582,1570,1569
49900865,1000,1000,1000,1000,66228498,1586,1585,1567,1566
49903364,1000,1000,1000,1000,66328458,1587,1586,1564,1566
49905863,1000,1000,1000,1000,66428418,1586,1585,1565,1566
49908362,1000,1000,1000,1000,66528378,1584,1583,1566,1567
49910861,1000,1000,1000,1000,66628338,1583,1582,1570,1571
49913360,1000,1000,1000,1000,66728298,1580,1580,1574,1574
49915859,1000,1000,1000,1000,66828258,1580,1580,1297,1538
49918358,1000,1000,1000,1000,66928218,1624,1626,1459,1503
49920857,1000,1000,1000,1000,67028178,1656,1664,1576,1529
49923356,1000,1000,1000,1000,67128971,1626,1642,1628,1518
49925855,1000,1000,1000,1000,67228931,1602,1627,1628,1545
49928354,1000,1000,1000,1000,67328891,1614,1639,1628,1576
49930853,1000,1000,1000,1000,67428851,1616,1635,1628,1601
49933352,1000,1000,1000,1000,67528811,1592,1608,1628,1621
49935851,1000,1000,1000,1000,67628771,1534,1534,1628,1639
49938350,1000,1000,1000,1000,67728731,1473,1435,1628,1655
49940849,1000,1000,1000,1000,67828691,1471,1410,1628,1656
49943348,1000,1000,1000,1000,67928651,1486,1435,1628,1647
49945847,1000,1000,1000,1000,68028611,1501,1473,1628,1638
49948346,1000,1000,1000,1000,68128571,1527,1517,1628,1641
49950845,1000,1000,1000,1000,68228531,1576,1584,1628,1644
49953344,1000,1000,1000,1000,68328491,1621,1642,1628,1639
49955843,1000,1000,1000,1000,68428451,1653,1681,1628,1633
49958342,1000,1000,1000,1000,68528411,1676,1705,1628,1628
49960841,1000,1000,1000,1000,68628371,1693,1714,1628,1625
49963340,1000,1000,1000,1000,68728331,1703,1714,1628,1625
49965839,1000,1000,1000,1000,68828291,1706,1707,1628,1625
49968338,1000,1000,1000,1000,68928251,1682,1674,1609,1603
49970837,1000,1000,1000,1000,69028211,1652,1640,1589,1584
49973336,1000,1000,1000,1000,69128171,1625,1614,1574,1573
49975835,1000,1000,1000,1000,69228964,1600,1593,1563,1566
49978334,1000,1000,1000,1000,69328924,1579,1577,1556,1561
49980833,1000,1000,1000,1000,69428884,1563,1565,1552,1557
49983332,1000,1000,1000,1000,69528844,1554,1557,1552,1555
49985831,1000,1000,1000,1000,69628804,1550,1552,1553,1556
49988330,1000,1000,1000,1000,69728764,1548,1549,1556,1556
49990829,1000,1000,1000,1000,69828724,1548,1549,1558,1558
49993328,1000,1000,1000,1000,69928684,1551,1553,1567,1553
49995827,1000,1000,1000,1000,70028644,1552,1558,1569,1554
49998326,1000,1000,1000,1000,70128604,1553,1562,1566,1559
50000825,1000,1000,1000,1000,70228564,1555,1561,1561,1562
50003324,1000,1000,1000,1000,70328524,1557,1559,1556,1563
50005823,1000,1000,1000,1000,70428484,1560,1558,1554,1563
50008322,1000,1000,1000,1000,70528444,1564,1560,1555,1561
50010821,1000,1000,1000,1000,70628404,1566,1561,1556,1557
50013320,1000,1000,1000,1000,70728364,1568,1565,1557,1556
50015819,1000,1000,1000,1000,70828324,1571,1570,1558,1555
50018318,1000,1000,1000,1000,70928284,1572,1573,1558,1555
50020817,1000,1000,1000,1000,71028244,1573,1576,1558,1554
50023316,1000,1000,1000,1000,71128204,1574,1577,1556,1554
50025815,1000,1000,1000,1000,71228164,1576,1578,1554,1554
50028314,1000,1000,1000,1000,71328957,1578,1579,1552,1553
50030813,1000,1000,1000,1000,71428917,1580,1580,1551,1552
50033312,1000,1000,1000,1000,71528877,1581,1581,1549,1550
50035811,1000,1000,1000,1000,71628837,1582,1583,1547,1547
50038310,1000,1000,1000,1000,71728797,1584,1584,1546,1545
50040809,1000,1000,1000,1000,71828757,1585,1585,1544,1544
50043308,1000,1000,1000,1000,71928717,1587,1587,1543,1543
50045807,1000,1000,1000,1000,72028677,1588,1588,1542,1542
50048306,1000,1000,1000,1000,72128637,1589,1588,1542,1543
50050805,1000,1000,1000,1000,72228597,1588,1588,1542,1543
50053304,1000,1000,1000,1000,72328557,1588,1588,1544,1546
50055803,1000,1000,1000,1000,72428517,1587,1587,1546,1548
50058302,1000,1000,1000,1000,72528477,1585,1584,1549,1552
50060801,1000,1000,1000,1000,72628437,1582,1580,1554,1556
50063300,1000,1000,1000,1000,72728397,1577,1575,1560,1562
50065799,1000,1000,1000,1000,72828357,1572,1570,1567,1569
50068298,1000,1000,1000,1000,72928317,1567,1564,1575,1575
50070797,1000,1000,1000,1000,73028277,1561,1559,1582,1581
50073296,1000,1000,1000,1000,73128237,1558,1557,1589,1588
50075795,1000,1000,1000,1000,73228197,1554,1554,1593,1592
50078294,1000,1000,1000,1000,73328157,1552,1552,1597,1595
50080793,1000,1000,1000,1000,73428950,1552,1552,1599,1598
50083292,1000,1000,1000,1000,73528910,1553,1553,1600,1599
50085791,1000,1000,1000,1000,73628870,1554,1555,1601,1600
50088290,1000,1000,1000,1000,73728830,1554,1555,1598,1598
50090789,1000,1000,1000,1000,73828790,1556,1557,1597,1596
50093288,1000,1000,1000,1000,73928750,1559,1559,1595,1594
50095787,1000,1000,1000,1000,74028710,1562,1562,1592,1592
50098286,1000,1000,1000,1000,74128670,1563,1563,1589,1589
50100785,1000,1000,1000,1000,74228630,1566,1567,1587,1587
50103284,1000,1000,1000,1000,74328590,1568,1569,1583,1584
50105783,1000,1000,1000,1000,74428550,1571,1571,1581,1581
50108282,1000,1000,1000,1000,74528510,1573,1573,1578,1579
50110781,1000,1000,1000,1000,74628470,1574,1574,1575,1576
50113280,1000,1000,1000,1000,74728430,1576,1576,1573,1574
50115779,1000,1000,1000,1000,74828390,1578,1577,1572,1573
50118278,1000,1000,1000,1000,74928350,1580,1579,1572,1573
50120777,1000,1000,1000,1000,75028310,1581,1581,1572,1572
50123276,1000,1000,1000,1000,75128270,1582,1581,1571,1572
50125775,1000,1000,1000,1000,75228230,1582,1581,1572,1572
50128274,1000,1000,1000,1000,75328190,1581,1581,1573,1572
50130773,1000,1000,1000,1000,75428983,1581,1581,1574,1574
50133272,1000,1000,1000,1000,75528943,1580,1580,1575,1575
50135771,1000,1000,1000,1000,75628903,1580,1580,1577,1577
50138270,1000,1000,1000,1000,75728863,1579,1579,1578,1578
50140769,1000,1000,1000,1000,75828823,1578,1578,1580,1580
50143268,1000,1000,1000,1000,75928783,1577,1578,1580,1581
50145767,1000,1000,1000,1000,76028743,1576,1577,1580,1581
50148266,1000,1000,1000,1000,76128703,1577,1577,1582,1581
50150765,1000,1000,1000,1000,76228663,1576,1577,1581,1581
50153264,1000,1000,1000,1000,76328623,1577,1577,1582,1581
50155763,1000,1000,1000,1000,76428583,1577,1578,1582,1581
50158262,1000,1000,1000,1000,76528543,1579,1579,1583,1582
50160761,1000,1000,1000,1000,76628503,1579,1579,1582,1582
50163260,1000,1000,1000,1000,76728463,1580,1579,1581,1581
50165759,1000,1000,1000,1000,76828423,1580,1580,1581,1581
50168258,1000,1000,1000,1000,76928383,1580,1580,1580,1581
50170757,1000,1000,1000,1000,77028343,1581,1581,1580,1580
50173256,1000,1000,1000,1000,77128303,1581,1581,1580,1580
50175755,1000,1000,1000,1000,77228263,1581,1581,1580,1580
50178254,1000,1000,1000,1000,77328223,1581,1581,1580,1580
50180753,1000,1000,1000,1000,77428183,1579,1580,1578,1578
50183252,1000,1000,1000,1000,77528976,1581,1581,1579,1580
50185751,1000,1000,1000,1000,77628936,1580,1580,1579,1580
50188250,1000,1000,1000,1000,77728896,1581,1581,1580,1580
50190749,1000,1000,1000,1000,77828856,1580,1581,1580,1580
50193248,1000,1000,1000,1000,77928816,1580,1580,1580,1580
50195747,1000,1000,1000,1000,78028776,1581,1581,1581,1581
50198246,1000,1000,1000,1000,78128736,1581,1581,1581,1581
50200745,1000,1000,1000,1000,78228696,1581,1581,1581,1581
50203244,1000,1000,1000,1000,78328656,1581,1581,1582,1582
50205743,1000,1000,1000,1000,78428616,1580,1581,1584,1578
50208242,1000,1000,1000,1000,78528576,1579,1583,1586,1572
50210741,1000,1000,1000,1000,78628536,1578,1583,1582,1573
50213240,1000,1000,1000,1000,78728496,1577,1581,1575,1573
50215739,1000,1000,1000,1000,78828456,1577,1580,1567,1572
50218238,1000,1000,1000,1000,78928416,1577,1577,1561,1567
50220737,1000,1000,1000,1000,79028376,1578,1577,1556,1563
50223236,1000,1000,1000,1000,79128336,1579,1576,1554,1558
50225735,1000,1000,1000,1000,79228296,1581,1577,1554,1555
50228234,1000,1000,1000,1000,79328256,1580,1578,1553,1552
50230733,1000,1000,1000,1000,79428216,1579,1579,1554,1552
50233232,1000,1000,1000,1000,79528176,1578,1580,1554,1552
50235731,1000,1000,1000,1000,79628969,1576,1579,1554,1552
50238230,1000,1000,1000,1000,79728929,1576,1579,1553,1553
50240729,1000,1000,1000,1000,79828889,1576,1578,1553,1552
50243228,1000,1000,1000,1000,79928849,1576,1578,1552,1552
50245727,1000,1000,1000,1000,80028809,1577,1578,1550,1550
50248226,1000,1000,1000,1000,80128769,1580,1580,1549,1549
50250725,1000,1000,1000,1000,80228729,1582,1582,1546,1547
50253224,1000,1000,1000,1000,80328689,1584,1585,1545,1545
50255723,1000,1000,1000,1000,80428649,1586,1586,1542,1541
50258222,1000,1000,1000,1000,80528609,1589,1589,1540,1541
50260721,1000,1000,1000,1000,80628569,1590,1591,1537,1538
50263220,1000,1000,1000,1000,80728529,1592,1593,1536,1538
50265719,1000,1000,1000,1000,80828489,1594,1595,1536,1538
50268218,1000,1000,1000,1000,80928449,1593,1593,1536,1539
50270717,1000,1000,1000,1000,81028409,1593,1591,1541,1545
50273216,1000,1000,1000,1000,81128369,1589,1585,1548,1552
50275715,1000,1000,1000,1000,81228329,1582,1577,1557,1560
50278214,1000,1000,1000,1000,81328289,1573,1569,1569,1571
50280713,1000,1000,1000,1000,81428249,1561,1558,1580,1581
50283212,1000,1000,1000,1000,81528209,1550,1549,1593,1592
50285711,1000,1000,1000,1000,81628169,1543,1544,1604,1602
50288210,1000,1000,1000,1000,81728962,1539,1540,1611,1607
50290709,1000,1000,1000,1000,81828922,1539,1540,1615,1611
50293208,1000,1000,1000,1000,81928882,1541,1542,1615,1612
50295707,1000,1000,1000,1000,82028842,1543,1545,1612,1610
50298206,1000,1000,1000,1000,82128802,1548,1549,1609,1608
50300705,1000,1000,1000,1000,82228762,1551,1552,1603,1603
50303204,1000,1000,1000,1000,82328722,1556,1556,1598,1598
50305703,1000,1000,1000,1000,82428682,1561,1560,1592,1593
50308202,1000,1000,1000,1000,82528642,1565,1565,1587,1588
50310701,1000,1000,1000,1000,82628602,1569,1569,1580,1581
50313200,1000,1000,1000,1000,82728562,1574,1573,1574,1575
50315699,1000,1000,1000,1000,82828522,1579,1579,1570,1570
50318198,1000,1000,1000,1000,82928482,1583,1582,1566,1567
50320697,1000,1000,1000,1000,83028442,1584,1583,1563,1564
50323196,1000,1000,1000,1000,83128402,1585,1584,1563,1563
50325695,1000,1000,1000,1000,83228362,1585,1584,1564,1565
50328194,1000,1000,1000,1000,83328322,1584,1582,1566,1567
50330693,1000,1000,1000,1000,83428282,1582,1581,1570,1569
50333192,1000,1000,1000,1000,83528242,1580,1580,1573,1573
50335691,1000,1000,1000,1000,83628202,1577,1578,1577,1576
50338190,1000,1000,1000,1000,83728162,1575,1577,1580,1579
50340689,1000,1000,1000,1000,83828955,1574,1575,1582,1581
50343188,1000,1000,1000,1000,83928915,1573,1573,1584,1583
50345687,1000,1000,1000,1000,84028875,1572,1573,1584,1584
50348186,1000,1000,1000,1000,84128835,1573,1574,1585,1585
50350685,1000,1000,1000,1000,84228795,1574,1575,1585,1585
50353184,1000,1000,1000,1000,84328755,1575,1576,1585,1584
50355683,1000,1000,1000,1000,84428715,1577,1577,1584,1583
50358182,1000,1000,1000,1000,84528675,1577,1577,1582,1581
50360681,1000,1000,1000,1000,84628635,1579,1579,1580,1581
50363180,1000,1000,1000,1000,84728595,1580,1579,1578,1580
50365679,1000,1000,1000,1000,84828555,1580,1579,1577,1578
50368178,1000,1000,1000,1000,84928515,1580,1580,1576,1577
50370677,1000,1000,1000,1000,85028475,1581,1581,1576,1577
50373176,1000,1000,1000,1000,85128435,1581,1581,1577,1576
50375675,1000,1000,1000,1000,85228395,1581,1581,1576,1576
50378174,1000,1000,1000,1000,85328355,1581,1581,1577,1577
50380673,1000,1000,1000,1000,85428315,1581,1581,1578,1578
50383172,1000,1000,1000,1000,85528275,1581,1580,1579,1579
50385671,1000,1000,1000,1000,85628235,1580,1580,1580,1579
50388170,1000,1000,1000,1000,85728195,1579,1580,1580,1580
50390669,1000,1000,1000,1000,85828155,1580,1580,1581,1581
50393168,1000,1000,1000,1000,85928948,1580,1580,1581,1581
50395667,1000,1000,1000,1000,86028908,1579,1579,1581,1581
50398166,1000,1000,1000,1000,86128868,1580,1580,1582,1582
50400665,1000,1000,1000,1000,86228828,1580,1580,1582,1582
50403164,1000,1000,1000,1000,86328788,1581,1581,1585,1578
50405663,1000,1000,1000,1000,86428748,1582,1583,1588,1574
50408162,1000,1000,1000,1000,86528708,1580,1581,1584,1575
50410661,1000,1000,1000,1000,86628668,1578,1578,1579,1577
50413160,1000,1000,1000,1000,86728628,1574,1573,1572,1577
50415659,1000,1000,1000,1000,86828588,1569,1568,1566,1574
50418158,1000,1000,1000,1000,86928548,1567,1566,1564,1571
50420657,1000,1000,1000,1000,87028508,1565,1564,1563,1567
50423156,1000,1000,1000,1000,87128468,1565,1566,1564,1566
50425655,1000,1000,1000,1000,87228428,1566,1567,1566,1565
50428154,1000,1000,1000,1000,87328388,1566,1566,1565,1562
50431486,1000,1000,1000,1000,87428348,1566,1566,1565,1563
50433985,1000,1000,1000,1000,87528308,1565,1565,1565,1562
50436484,1000,1000,1000,1000,87628268,1564,1564,1563,1562
50438983,1000,1000,1000,1000,87728228,1563,1562,1562,1562
50441482,1000,1000,1000,1000,87828188,1562,1562,1562,1562
50443981,1000,1000,1000,1000,87928981,1561,1561,1561,1561
50446480,1000,1000,1000,1000,88028941,1561,1562,1562,1562
50448979,1000,1000,1000,1000,88128901,1560,1560,1561,1560
50451478,1000,1000,1000,1000,88228861,1560,1560,1560,1560
50453977,1000,1000,1000,1000,88328821,1559,1559,1560,1559
50456476,1000,1000,1000,1000,88428781,1559,1559,1560,1560
50458975,1000,1000,1000,1000,88528741,1558,1559,1559,1559
50461474,1000,1000,1000,1000,88628701,1557,1558,1558,1557
50463973,1000,1000,1000,1000,88728661,1557,1558,1558,1557
50466472,1000,1000,1000,1000,88828621,1558,1558,1559,1557
50468971,1000,1000,1000,1000,88928581,1558,1558,1559,1557
50471470,1000,1000,1000,1000,89028541,1558,1558,1560,1557
50473969,1000,1000,1000,1000,89128501,1559,1559,1559,1558
50476468,1000,1000,1000,1000,89228461,1560,1560,1559,1561
50478967,1000,1000,1000,1000,89328421,1560,1560,1557,1563
50481466,1000,1000,1000,1000,89428381,1561,1561,1558,1564
50483965,1000,1000,1000,1000,89528341,1560,1561,1558,1563
50486464,1000,1000,1000,1000,89628301,1560,1560,1559,1561
50488963,1000,1000,1000,1000,89728261,1560,1559,1559,1558
50491462,1000,1000,1000,1000,89828221,1560,1560,1560,1560
50493961,1000,1000,1000,1000,89928181,1557,1557,1557,1558
50496460,1000,1000,1000,1000,90028974,1553,1553,1554,1554
50498959,1000,1000,1000,1000,90128934,1547,1547,1549,1549
50501458,1000,1000,1000,1000,90228894,1540,1541,1543,1543
50503957,1000,1000,1000,1000,90328854,1533,1533,1537,1536
50506456,1000,1000,1000,1000,90428814,1526,1525,1529,1529
50508955,1000,1000,1000,1000,90528774,1520,1520,1523,1524
50511454,1000,1000,1000,1000,90628734,1520,1520,1520,1522
50513953,1000,1000,1000,1000,90728694,1520,1520,1519,1522
50516452,1000,1000,1000,1000,90828654,1522,1522,1519,1521
50518951,1000,1000,1000,1000,90928614,1525,1525,1521,1523
50521450,1000,1000,1000,1000,91028574,1529,1529,1525,1525
50523949,1000,1000,1000,1000,91128534,1534,1535,1529,1530
50526448,1000,1000,1000,1000,91228494,1538,1539,1534,1533
50528947,1000,1000,1000,1000,91328454,1541,1541,1537,1536
50531446,1000,1000,1000,1000,91428414,1544,1543,1541,1539
50533945,1000,1000,1000,1000,91528374,1545,1544,1543,1542
50536444,1000,1000,1000,1000,91628334,1545,1545,1545,1544
50538943,1000,1000,1000,1000,91728294,1545,1546,1547,1546
50541442,1000,1000,1000,1000,91828254,1545,1545,1547,1547
50543941,1000,1000,1000,1000,91928214,1545,1545,1548,1547
50546440,1000,1000,1000,1000,92028174,1545,1544,1548,1548
50548939,1000,1000,1000,1000,92128967,1545,1545,1548,1548
50551438,1000,1000,1000,1000,92228927,1546,1545,1548,1548
50553937,1000,1000,1000,1000,92328887,1545,1545,1548,1547
50556436,1000,1000,1000,1000,92428847,1544,1545,1547,1546
50558935,1000,1000,1000,1000,92528807,1545,1546,1547,1547
50561434,1000,1000,1000,1000,92628767,1545,1545,1545,1545
50563933,1000,1000,1000,1000,92728727,1545,1545,1544,1545
50566432,1000,1000,1000,1000,92828687,1545,1545,1544,1544
50568931,1000,1000,1000,1000,92928647,1545,1545,1544,1544
50571430,1000,1000,1000,1000,93028607,1544,1544,1543,1543
50573929,1000,1000,1000,1000,93128567,1545,1545,1543,1543
50576428,1000,1000,1000,1000,93228527,1544,1544,1543,1543
50578927,1000,1000,1000,1000,93328487,1545,1544,1543,1543
50581426,1000,1000,1000,1000,93428447,1544,1544,1543,1543
50583925,1000,1000,1000,1000,93528407,1543,1544,1543,1542
50586424,1000,1000,1000,1000,93628367,1543,1544,1543,1543
50588923,1000,1000,1000,1000,93728327,1543,1543,1543,1543
50591422,1000,1000,1000,1000,93828287,1544,1544,1544,1544
50593921,1000,1000,1000,1000,93928247,1544,1544,1544,1545
50596420,1000,1000,1000,1000,94028207,1544,1544,1545,1545
50598919,1000,1000,1000,1000,94128167,1543,1543,1544,1544
50601418,1000,1000,1000,1000,94228960,1544,1544,1544,1544
50603917,1000,1000,1000,1000,94328920,1544,1543,1544,1544
50606416,1000,1000,1000,1000,94428880,1543,1543,1544,1543
50608915,1000,1000,1000,1000,94528840,1544,1544,1544,1544
50611414,1000,1000,1000,1000,94628800,1545,1544,1544,1544
50613913,1000,1000,1000,1000,94728760,1545,1545,1544,1545
50616412,1000,1000,1000,1000,94828720,1544,1544,1544,1544
50618911,1000,1000,1000,1000,94928680,1545,1544,1544,1545
50621410,1000,1000,1000,1000,95028640,1544,1545,1544,1544
50623909,1000,1000,1000,1000,95128600,1544,1544,1544,1544
50626408,1000,1000,1000,1000,95228560,1544,1544,1543,1543
50628907,1000,1000,1000,1000,95328520,1544,1544,1543,1544
50631406,1000,1000,1000,1000,95428480,1543,1544,1543,1544
50633905,1000,1000,1000,1000,95528440,1544,1543,1543,1543
50636404,1000,1000,1000,1000,95628400,1543,1544,1544,1543
50638903,1000,1000,1000,1000,95728360,1545,1545,1545,1545
50641402,1000,1000,1000,1000,95828320,1545,1545,1545,1544
50643901,1000,1000,1000,1000,95928280,1545,1544,1545,1545
50646400,1000,1000,1000,1000,96028240,1544,1543,1544,1543
50648899,1000,1000,1000,1000,96128200,1545,1544,1545,1544
50651398,1000,1000,1000,1000,96228160,1544,1545,1544,1545
50653897,1000,1000,1000,1000,96328953,1544,1544,1544,1545
50656396,1000,1000,1000,1000,96428913,1544,1544,1544,1544
50658895,1000,1000,1000,1000,96528873,1544,1544,1545,1544
50661394,1000,1000,1000,1000,96628833,1544,1545,1544,1545
50663893,1000,1000,1000,1000,96728793,1544,1544,1544,1545
50666392,1000,1000,1000,1000,96828753,1544,1544,1544,1544
50668891,1000,1000,1000,1000,96928713,1544,1544,1544,1544
50671390,1000,1000,1000,1000,97028673,1544,1544,1544,1544
50673889,1000,1000,1000,1000,97128633,1543,1543,1544,1543
50676388,1000,1000,1000,1000,97228593,1544,1544,1544,1544
50678887,1000,1000,1000,1000,97328553,1544,1544,1544,1544
50681386,1000,1000,1000,1000,97428513,1544,1544,1544,1544
50683885,1000,1000,1000,1000,97528473,1544,1544,1543,1544
50686384,1000,1000,1000,1000,97628433,1544,1545,1544,1545
50688883,1000,1000,1000,1000,97728393,1545,1544,1544,1545
50691382,1000,1000,1000,1000,97828353,1545,1545,1545,1544
50693881,1000,1000,1000,1000,97928313,1545,1544,1544,1545
50696380,1000,1000,1000,1000,98028273,1544,1544,1544,1544
50698879,1000,1000,1000,1000,98128233,1544,1544,1544,1544
50701378,1000,1000,1000,1000,98228193,1544,1544,1545,1544
50703877,1000,1000,1000,1000,98328986,1544,1544,1545,1545
50706376,1000,1000,1000,1000,98428946,1545,1544,1544,1545
50708875,1000,1000,1000,1000,98528906,1544,1543,1544,1544
50711374,1000,1000,1000,1000,98628866,1544,1544,1544,1544
50713873,1000,1000,1000,1000,98728826,1546,1546,1545,1546
50716372,1000,1000,1000,1000,98828786,1545,1545,1545,1544
50718871,1000,1000,1000,1000,98928746,1544,1544,1544,1544
50721370,1000,1000,1000,1000,99028706,1544,1544,1544,1544
50723869,1000,1000,1000,1000,99128666,1545,1544,1544,1544
50726368,1000,1000,1000,1000,99228626,1545,1545,1545,1545
50728867,1000,1000,1000,1000,99328586,1544,1544,1544,1544
50731366,1000,1000,1000,1000,99428546,1545,1545,1545,1545
50733865,1000,1000,1000,1000,99528506,1545,1544,1544,1544
50736364,1000,1000,1000,1000,99628466,1545,1545,1545,1545
50738863,1000,1000,1000,1000,99728426,1544,1543,1544,1544
50741362,1000,1000,1000,1000,99828386,1544,1545,1545,1544
50743861,1000,1000,1000,1000,99928346,1543,1544,1543,1544
50746360,1000,1000,1000,1000,100028306,1544,1545,1544,1545
50748859,1000,1000,1000,1000,100128266,1544,1544,1544,1544
50751358,1000,1000,1000,1000,100228226,1544,1543,1544,1543
50753857,1000,1000,1000,1000,100328186,1393,1391,1442,1392
50756356,1000,1000,1000,1000,100428979,1267,1264,1367,1265
50758855,1000,1000,1000,1000,100528939,1223,1220,1344,1221
50761354,1000,1000,1000,1000,100628899,1203,1202,1334,1201
50763853,1000,1000,1000,1000,100728859,1162,1160,1314,1160
50766352,1000,1000,1000,1000,100828819,1193,1192,1192,1150
50768851,1000,1000,1000,1000,100928779,1178,1177,1084,1150
50771350,1000,1000,1000,1000,101028739,1178,1177,1083,1150
50773849,1000,1000,1000,1000,101128699,1178,1177,1084,1150
50776348,1000,1000,1000,1000,101228659,1179,1164,1091,1150
50778847,1000,1000,1000,1000,101328619,1178,1168,1089,1150
50781346,1000,1000,1000,1000,101428579,1178,1171,1088,1150
50783845,1000,1000,1000,1000,101528539,1177,1171,1088,1150
50786344,1000,1000,1000,1000,101628499,1177,1171,1088,1150
50788843,1000,1000,1000,1000,101728459,1177,1170,1088,1150
50791342,1000,1000,1000,1000,101828419,1177,1170,1089,1150
50793841,1000,1000,1000,1000,101928379,1177,1169,1089,1150
50796340,1000,1000,1000,1000,102028339,1175,1175,1086,1150
50798839,1000,1000,1000,1000,102128299,1176,1174,1087,1150
50801338,1000,1000,1000,1000,102228259,1176,1174,1087,1150
50803837,1000,1000,1000,1000,102328219,1176,1174,1087,1150
50806336,1000,1000,1000,1000,102428179,1175,1174,1087,1150
50808835,1000,1000,1000,1000,102528972,1000,1000,1000,1000
50811334,1000,1000,1000,1000,102628932,1000,1000,1000,1000
50813833,1000,1000,1000,1000,102728892,1000,1000,1000,1000
50816332,1000,1000,1000,1000,102828852,1000,1000,1000,1000
50818831,1000,1000,1000,1000,102928812,1000,1000,1000,1000
50821330,1000,1000,1000,1000,103028772,1000,1000,1000,1000
50823829,1000,1000,1000,1000,103128732,1000,1000,1000,1000
50826328,1000,1000,1000,1000,103228692,1000,1000,1000,1000
50828827,1000,1000,1000,1000,103328652,1000,1000,1000,1000
50831326,1000,1000,1000,1000,103428612,1000,1000,1000,1000
50833825,1000,1000,1000,1000,103528572,1000,1000,1000,1000
50836324,1000,1000,1000,1000,103628532,1000,1000,1000,1000
50838823,1000,1000,1000,1000,103728492,1000,1000,1000,1000
50841322,1000,1000,1000,1000,103828452,1000,1000,1000,1000
50843821,1000,1000,1000,1000,103928412,1000,1000,1000,1000
50846320,1000,1000,1000,1000,104028372,1000,1000,1000,1000
50848819,1000,1000,1000,1000,104128332,1000,1000,1000,1000
50851318,1000,1000,1000,1000,104228292,1000,1000,1000,1000
50853817,1000,1000,1000,1000,104328252,1000,1000,1000,1000
50856316,1000,1000,1000,1000,104428212,1000,1000,1000,1000
50858815,1000,1000,1000,1000,104528172,1000,1000,1000,1000
50861314,1000,1000,1000,1000,104628965,1000,1000,1000,1000
50863813,1000,1000,1000,1000,104728925,1000,1000,1000,1000
50866312,1000,1000,1000,1000,104828885,1000,1000,1000,1000
50868811,1000,1000,1000,1000,104928845,1000,1000,1000,1000
50871310,1000,1000,1000,1000,105028805,1000,1000,1000,1000
50873809,1000,1000,1000,1000,105128765,1000,1000,1000,1000
50876308,1000,1000,1000,1000,105228725,1000,1000,1000,1000
50878807,1000,1000,1000,1000,105328685,1000,1000,1000,1000
50881306,1000,1000,1000,1000,105428645,1000,1000,1000,1000
50883805,1000,1000,1000,1000,105528605,1000,1000,1000,1000
50886304,1000,1000,1000,1000,105628565,1000,1000,1000,1000
50888803,1000,1000,1000,1000,105728525,1000,1000,1000,1000
50891302,1000,1000,1000,1000,105828485,1000,1000,1000,1000
50893801,1000,1000,1000,1000,105928445,1000,1000,1000,1000
50896300,1000,1000,1000,1000,106028405,1000,1000,1000,1000
50898799,1000,1000,1000,1000,106128365,1000,1000,1000,1000
50901298,1000,1000,1000,1000,106228325,1000,1000,1000,1000
50903797,1000,1000,1000,1000,106328285,1000,1000,1000,1000
50906296,1000,1000,1000,1000,106428245,1000,1000,1000,1000
50908795,1000,1000,1000,1000,106528205,1000,1000,1000,1000
50911294,1000,1000,1000,1000,106628165,1000,1000,1000,1000
50913793,1000,1000,1000,1000,106728958,1000,1000,1000,1000
50916292,1000,1000,1000,1000,106828918,1000,1000,1000,1000
50918791,1000,1000,1000,1000,106928878,1000,1000,1000,1000
50921290,1000,1000,1000,1000,107028838,1000,1000,1000,1000
50923789,1000,1000,1000,1000,107128798,1000,1000,1000,1000
50926288,1000,1000,1000,1000,107228758,1000,1000,1000,1000
50928787,1000,1000,1000,1000,107328718,1000,1000,1000,1000
50931286,1000,1000,1000,1000,107428678,1000,1000,1000,1000
50933785,1000,1000,1000,1000,107528638,1000,1000,1000,1000
50936284,1000,1000,1000,1000,107628598,1000,1000,1000,1000
50938783,1000,1000,1000,1000,107728558,1000,1000,1000,1000
50941282,1000,1000,1000,1000,107828518,1000,1000,1000,1000
50943781,1000,1000,1000,1000,107928478,1000,1000,1000,1000
50946280,1000,1000,1000,1000,108028438,1000,1000,1000,1000
50948779,1000,1000,1000,1000,108128398,1000,1000,1000,1000
50951278,1000,1000,1000,1000,108228358,1000,1000,1000,1000
50953777,1000,1000,1000,1000,108328318,1000,1000,1000,1000
50956276,1000,1000,1000,1000,108428278,1000,1000,1000,1000
50958775,1000,1000,1000,1000,108528238,1000,1000,1000,1000
50961274,1000,1000,1000,1000,108628198,1000,1000,1000,1000
50963773,1000,1000,1000,1000,108728158,1000,1000,1000,1000
50966272,1000,1000,1000,1000,108828951,1000,1000,1000,1000
50968771,1000,1000,1000,1000,108928911,1000,1000,1000,1000
50971270,1000,1000,1000,1000,109028871,1000,1000,1000,1000
50973769,1000,1000,1000,1000,109128831,1000,1000,1000,1000
50976268,1000,1000,1000,1000,109228791,1000,1000,1000,1000
50978767,1000,1000,1000,1000,109328751,1000,1000,1000,1000
50981266,1000,1000,1000,1000,109428711,1000,1000,1000,1000
50983765,1000,1000,1000,1000,109528671,1000,1000,1000,1000
50986264,1000,1000,1000,1000,109628631,1000,1000,1000,1000
50988763,1000,1000,1000,1000,109728591,1000,1000,1000,1000
50991262,1000,1000,1000,1000,109828551,1000,1000,1000,1000
50993761,1000,1000,1000,1000,109928511,1000,1000,1000,1000
50996260,1000,1000,1000,1000,110028471,1000,1000,1000,1000
50998759,1000,1000,1000,1000,110128431,1000,1000,1000,1000
51001258,1000,1000,1000,1000,110228391,1000,1000,1000,1000
51003757,1000,1000,1000,1000,110328351,1000,1000,1000,1000
51006256,1000,1000,1000,1000,110428311,1000,1000,1000,1000
51008755,1000,1000,1000,1000,110528271,1000,1000,1000,1000
51011254,1000,1000,1000,1000,110628231,1000,1000,1000,1000
51013753,1000,1000,1000,1000,110728191,1000,1000,1000,1000
51016252,1000,1000,1000,1000,110828984,1000,1000,1000,1000
51018751,1000,1000,1000,1000,110928944,1000,1000,1000,1000
51021250,1000,1000,1000,1000,111028904,1000,1000,1000,1000
51023749,1000,1000,1000,1000,111128864,1000,1000,1000,1000
51026248,1000,1000,1000,1000,111228824,1000,1000,1000,1000
51028747,1000,1000,1000,1000,111328784,1000,1000,1000,1000
51031246,1000,1000,1000,1000,111428744,1000,1000,1000,1000
51033745,1000,1000,1000,1000,111528704,1000,1000,1000,1000
51036244,1000,1000,1000,1000,111628664,1000,1000,1000,1000
51038743,1000,1000,1000,1000,111728624,1000,1000,1000,1000
51041242,1000,1000,1000,1000,111828584,1000,1000,1000,1000
51043741,1000,1000,1000,1000,111928544,1000,1000,1000,1000
51046240,1000,1000,1000,1000,112028504,1000,1000,1000,1000
51048739,1000,1000,1000,1000,112128464,1000,1000,1000,1000
51051238,1000,1000,1000,1000,112228424,1000,1000,1000,1000
51053737,1000,1000,1000,1000,112328384,1000,1000,1000,1000
51056236,1000,1000,1000,1000,112428344,1000,1000,1000,1000
51058735,1000,1000,1000,1000,112528304,1000,1000,1000,1000
51061234,1000,1000,1000,1000,112628264,1000,1000,1000,1000
51063733,1000,1000,1000,1000,112728224,1000,1000,1000,1000
51066232,1000,1000,1000,1000,112828184,1000,1000,1000,1000
51068731,1000,1000,1000,1000,112928977,1000,1000,1000,1000
51071230,1000,1000,1000,1000,113028937,1000,1000,1000,1000
51073729,1000,1000,1000,1000,113128897,1000,1000,1000,1000
51076228,1000,1000,1000,1000,113228857,1000,1000,1000,1000
51078727,1000,1000,1000,1000,113328817,1000,1000,1000,1000
51081226,1000,1000,1000,1000,113428777,1000,1000,1000,1000
51083725,1000,1000,1000,1000,113528737,1000,1000,1000,1000
51086224,1000,1000,1000,1000,113628697,1000,1000,1000,1000
51088723,1000,1000,1000,1000,113728657,1000,1000,1000,1000
51091222,1000,1000,1000,1000,113828617,1000,1000,1000,1000
51093721,1000,1000,1000,1000,113928577,1000,1000,1000,1000
51096220,1000,1000,1000,1000,114028537,1000,1000,1000,1000
51098719,1000,1000,1000,1000,114128497,1000,1000,1000,1000
51101218,1000,1000,1000,1000,114228457,1000,1000,1000,1000
51103717,1000,1000,1000,1000,114328417,1000,1000,1000,1000
51106216,1000,1000,1000,1000,114428377,1000,1000,1000,1000
51108715,1000,1000,1000,1000,114528337,1000,1000,1000,1000
51111214,1000,1000,1000,1000,114628297,1000,1000,1000,1000
51113713,1000,1000,1000,1000,114728257,1000,1000,1000,1000
51116212,1000,1000,1000,1000,114828217,1000,1000,1000,1000
51118711,1000,1000,1000,1000,114928177,1000,1000,1000,1000
51121210,1000,1000,1000,1000,115028970,1000,1000,1000,1000
51123709,1000,1000,1000,1000,115128930,1000,1000,1000,1000
51126208,1000,1000,1000,1000,115228890,1000,1000,1000,1000
51128707,1000,1000,1000,1000,115328850,1000,1000,1000,1000
51131206,1000,1000,1000,1000,115428810,1000,1000,1000,1000
51133705,1000,1000,1000,1000,115528770,1000,1000,1000,1000
51136204,1000,1000,1000,1000,115628730,1000,1000,1000,1000
51138703,1000,1000,1000,1000,115728690,1000,1000,1000,1000
51141202,1000,1000,1000,1000,115828650,1000,1000,1000,1000
51143701,1000,1000,1000,1000,115928610,1000,1000,1000,1000
51146200,1000,1000,1000,1000,116028570,1000,1000,1000,1000
51148699,1000,1000,1000,1000,116128530,1000,1000,1000,1000
51151198,1000,1000,1000,1000,116228490,1000,1000,1000,1000
51153697,1000,1000,1000,1000,116328450,1000,1000,1000,1000
51156196,1000,1000,1000,1000,116428410,1000,1000,1000,1000
51158695,1000,1000,1000,1000,116528370,1000,1000,1000,1000
51161194,1000,1000,1000,1000,116628330,1000,1000,1000,1000
51163693,1000,1000,1000,1000,116728290,1000,1000,1000,1000
51166192,1000,1000,1000,1000,116828250,1000,1000,1000,1000
51168691,1000,1000,1000,1000,116928210,1000,1000,1000,1000
51171190,1000,1000,1000,1000,117028170,1000,1000,1000,1000
51173689,1000,1000,1000,1000,117128963,1000,1000,1000,1000
51176188,1000,1000,1000,1000,117228923,1000,1000,1000,1000
51178687,1000,1000,1000,1000,117328883,1000,1000,1000,1000
51181186,1000,1000,1000,1000,117428843,1000,1000,1000,1000
51183685,1000,1000,1000,1000,,,,,
51186184,1000,1000,1000,1000,,,,,
51188683,1000,1000,1000,1000,,,,,
51191182,1000,1000,1000,1000,,,,,
51193681,1000,1000,1000,1000,,,,,
51196180,1000,1000,1000,1000,,,,,
51198679,1000,1000,1000,1000,,,,,
51201178,1000,1000,1000,1000,,,,,
51203677,1000,1000,1000,1000,,,,,
51206176,1000,1000,1000,1000,,,,,
51208675,1000,1000,1000,1000,,,,,
51211174,1000,1000,1000,1000,,,,,
51213673,1000,1000,1000,1000,,,,,
51216172,1000,1000,1000,1000,,,,,
51218671,1000,1000,1000,1000,,,,,
51221170,1000,1000,1000,1000,,,,,
51223669,1000,1000,1000,1000,,,,,
51226168,1000,1000,1000,1000,,,,,
51228667,1000,1000,1000,1000,,,,,
51231166,1000,1000,1000,1000,,,,,
51233665,1000,1000,1000,1000,,,,,
51236164,1000,1000,1000,1000,,,,,
51238663,1000,1000,1000,1000,,,,,
51241162,1000,1000,1000,1000,,,,,
51243661,1000,1000,1000,1000,,,,,
51246160,1000,1000,1000,1000,,,,,
51248659,1000,1000,1000,1000,,,,,
51251158,1000,1000,1000,1000,,,,,
51253657,1000,1000,1000,1000,,,,,
51256156,1000,1000,1000,1000,,,,,
51258655,1000,1000,1000,1000,,,,,
51261154,1000,1000,1000,1000,,,,,
51263653,1000,1000,1000,1000,,,,,
51266152,1000,1000,1000,1000,,,,,
51268651,1000,1000,1000,1000,,,,,
51271150,1000,1000,1000,1000,,,,,
51273649,1000,1000,1000,1000,,,,,
51276148,1000,1000,1000,1000,,,,,
51278647,1000,1000,1000,1000,,,,,
51281146,1000,1000,1000,1000,,,,,
51283645,1000,1000,1000,1000,,,,,
51286144,1000,1000,1000,1000,,,,,
51288643,1000,1000,1000,1000,,,,,
51291142,1000,1000,1000,1000,,,,,
51293641,1000,1000,1000,1000,,,,,
51296140,1000,1000,1000,1000,,,,,
51298639,1000,1000,1000,1000,,,,,
51301138,1000,1000,1000,1000,,,,,
51303637,1000,1000,1000,1000,,,,,
51306136,1000,1000,1000,1000,,,,,
51308635,1000,1000,1000,1000,,,,,
51311134,1000,1000,1000,1000,,,,,
51313633,1000,1000,1000,1000,,,,,
51316132,1000,1000,1000,1000,,,,,
51318631,1000,1000,1000,1000,,,,,
51321130,1000,1000,1000,1000,,,,,
51323629,1000,1000,1000,1000,,,,,
51326128,1000,1000,1000,1000,,,,,
51328627,1000,1000,1000,1000,,,,,
51331126,1000,1000,1000,1000,,,,,
51333625,1000,1000,1000,1000,,,,,
51336124,1000,1000,1000,1000,,,,,
51338623,1000,1000,1000,1000,,,,,
51341122,1000,1000,1000,1000,,,,,
51343621,1000,1000,1000,1000,,,,,
51346120,1000,1000,1000,1000,,,,,
51348619,1000,1000,1000,1000,,,,,
51351118,1000,1000,1000,1000,,,,,
51353617,1000,1000,1000,1000,,,,,
51356116,1000,1000,1000,1000,,,,,
51358615,1000,1000,1000,1000,,,,,
51361114,1000,1000,1000,1000,,,,,
51363613,1000,1000,1000,1000,,,,,
51366112,1000,1000,1000,1000,,,,,
51368611,1000,1000,1000,1000,,,,,
51371110,1000,1000,1000,1000,,,,,
51373609,1000,1000,1000,1000,,,,,
51376108,1000,1000,1000,1000,,,,,
51378607,1000,1000,1000,1000,,,,,
51381106,1000,1000,1000,1000,,,,,
51383605,1000,1000,1000,1000,,,,,
51386104,1000,1000,1000,1000,,,,,
51388603,1000,1000,1000,1000,,,,,
51391102,1000,1000,1000,1000,,,,,
51393601,1000,1000,1000,1000,,,,,
51396100,1000,1000,1000,1000,,,,,
51398599,1000,1000,1000,1000,,,,,
51401098,1000,1000,1000,1000,,,,,
51403597,1000,1000,1000,1000,,,,,
51406096,1000,1000,1000,1000,,,,,
51408595,1000,1000,1000,1000,,,,,
51411094,1000,1000,1000,1000,,,,,
51413593,1000,1000,1000,1000,,,,,
51416092,1000,1000,1000,1000,,,,,
51418591,1000,1000,1000,1000,,,,,
51421090,1000,1000,1000,1000,,,,,
51423589,1000,1000,1000,1000,,,,,
51426088,1000,1000,1000,1000,,,,,
51428587,1000,1000,1000,1000,,,,,
51431086,1000,1000,1000,1000,,,,,
51433585,1000,1000,1000,1000,,,,,
51436084,1000,1000,1000,1000,,,,,
51438583,1000,1000,1000,1000,,,,,
51441082,1000,1000,1000,1000,,,,,
51443581,1000,1000,1000,1000,,,,,
51446080,1000,1000,1000,1000,,,,,
51448579,1000,1000,1000,1000,,,,,
51451078,1000,1000,1000,1000,,,,,
51453577,1000,1000,1000,1000,,,,,
51456076,1000,1000,1000,1000,,,,,
51458575,1000,1000,1000,1000,,,,,
51461074,1000,1000,1000,1000,,,,,
51463573,1000,1000,1000,1000,,,,,
51466072,1000,1000,1000,1000,,,,,
51468571,1000,1000,1000,1000,,,,,
51471070,1000,1000,1000,1000,,,,,
51473569,1000,1000,1000,1000,,,,,
51476068,1000,1000,1000,1000,,,,,
51478567,1000,1000,1000,1000,,,,,
51481066,1000,1000,1000,1000,,,,,
51483565,1000,1000,1000,1000,,,,,
51486064,1000,1000,1000,1000,,,,,
51488563,1000,1000,1000,1000,,,,,
51491062,1001,1001,1001,1001,,,,,
51493561,1002,1002,1002,1002,,,,,
51496060,1003,1003,1003,1003,,,,,
51498559,1003,1003,1003,1003,,,,,
51501058,1004,1004,1004,1004,,,,,
51503557,1005,1005,1005,1005,,,,,
51506056,1006,1006,1006,1006,,,,,
51508555,1006,1006,1006,1006,,,,,
51511054,1007,1007,1007,1007,,,,,
51513553,1008,1008,1008,1008,,,,,
51516052,1009,1009,1009,1009,,,,,
51518551,1009,1009,1009,1009,,,,,
51521050,1010,1010,1010,1010,,,,,
51523549,1011,1011,1011,1011,,,,,
51526048,1012,1012,1012,1012,,,,,
51528547,1012,1012,1012,1012,,,,,
51531046,1013,1013,1013,1013,,,,,
51533545,1014,1014,1014,1014,,,,,
51536044,1015,1015,1015,1015,,,,,
51538543,1015,1015,1015,1015,,,,,
51541042,1016,1016,1016,1016,,,,,
51543541,1017,1017,1017,1017,,,,,
51546040,1018,1018,1018,1018,,,,,
51548539,1018,1018,1018,1018,,,,,
51551038,1019,1019,1019,1019,,,,,
51553537,1020,1020,1020,1020,,,,,
51556036,1021,1021,1021,1021,,,,,
51558535,1021,1021,1021,1021,,,,,
51561034,1022,1022,1022,1022,,,,,
51563533,1023,1023,1023,1023,,,,,
51566032,1024,1024,1024,1024,,,,,
51568531,1024,1024,1024,1024,,,,,
51571030,1025,1025,1025,1025,,,,,
51573529,1026,1026,1026,1026,,,,,
51576028,1027,1027,1027,1027,,,,,
51578527,1027,1027,1027,1027,,,,,
51581026,1028,1028,1028,1028,,,,,
51583525,1029,1029,1029,1029,,,,,
51586024,1030,1030,1030,1030,,,,,
51588523,1030,1030,1030,1030,,,,,
51591022,1031,1031,1031,1031,,,,,
51593521,1032,1032,1032,1032,,,,,
51596020,1033,1033,1033,1033,,,,,
51598519,1033,1033,1033,1033,,,,,
51601018,1034,1034,1034,1034,,,,,
51603517,1035,1035,1035,1035,,,,,
51606016,1036,1036,1036,1036,,,,,
51608515,1036,1036,1036,1036,,,,,
51611014,1037,1037,1037,1037,,,,,
51613513,1038,1038,1038,1038,,,,,
51616012,1039,1039,1039,1039,,,,,
51618511,1039,1039,1039,1039,,,,,
51621010,1040,1040,1040,1040,,,,,
51623509,1041,1041,1041,1041,,,,,
51626008,1042,1042,1042,1042,,,,,
51628507,1042,1042,1042,1042,,,,,
51631006,1043,1043,1043,1043,,,,,
51633505,1044,1044,1044,1044,,,,,
51636004,1045,1045,1045,1045,,,,,
51638503,1045,1045,1045,1045,,,,,
51641002,1046,1046,1046,1046,,,,,
51643501,1047,1047,1047,1047,,,,,
51646000,1048,1048,1048,1048,,,,,
51648499,1048,1048,1048,1048,,,,,
51650998,1049,1049,1049,1049,,,,,
51653497,1050,1050,1050,1050,,,,,
51655996,1051,1051,1051,1051,,,,,
51658495,1051,1051,1051,1051,,,,,
51660994,1052,1052,1052,1052,,,,,
51663493,1053,1053,1053,1053,,,,,
51665992,1054,1054,1054,1054,,,,,
51668491,1054,1054,1054,1054,,,,,
51670990,1055,1055,1055,1055,,,,,
51673489,1056,1056,1056,1056,,,,,
51675988,1057,1057,1057,1057,,,,,
51678487,1057,1057,1057,1057,,,,,
51680986,1058,1058,1058,1058,,,,,
51683485,1059,1059,1059,1059,,,,,
51685984,1060,1060,1060,1060,,,,,
51688483,1060,1060,1060,1060,,,,,
51690982,1061,1061,1061,1061,,,,,
51693481,1062,1062,1062,1062,,,,,
51695980,1063,1063,1063,1063,,,,,
51698479,1063,1063,1063,1063,,,,,
51700978,1064,1064,1064,1064,,,,,
51703477,1065,1065,1065,1065,,,,,
51705976,1066,1066,1066,1066,,,,,
51708475,1066,1066,1066,1066,,,,,
51710974,1067,1067,1067,1067,,,,,
51713473,1068,1068,1068,1068,,,,,
51715972,1069,1069,1069,1069,,,,,
51718471,1069,1069,1069,1069,,,,,
51720970,1070,1070,1070,1070,,,,,
51723469,1071,1071,1071,1071,,,,,
51725968,1072,1072,1072,1072,,,,,
51728467,1072,1072,1072,1072,,,,,
51730966,1073,1073,1073,1073,,,,,
51733465,1074,1074,1074,1074,,,,,
51735964,1075,1075,1075,1075,,,,,
51738463,1075,1075,1075,1075,,,,,
51740962,1076,1076,1076,1076,,,,,
51743461,1077,1077,1077,1077,,,,,
51745960,1078,1078,1078,1078,,,,,
51748459,1078,1078,1078,1078,,,,,
51750958,1079,1079,1079,1079,,,,,
51753457,1080,1080,1080,1080,,,,,
51755956,1081,1081,1081,1081,,,,,
51758455,1081,1081,1081,1081,,,,,
51760954,1082,1082,1082,1082,,,,,
51763453,1083,1083,1083,1083,,,,,
51765952,1084,1084,1084,1084,,,,,
51768451,1084,1084,1084,1084,,,,,
51770950,1085,1085,1085,1085,,,,,
51773449,1086,1086,1086,1086,,,,,
51775948,1087,1087,1087,1087,,,,,
51778447,1087,1087,1087,1087,,,,,
51780946,1088,1088,1088,1088,,,,,
51783445,1089,1089,1089,1089,,,,,
51785944,1090,1090,1090,1090,,,,,
51788443,1090,1090,1090,1090,,,,,
51790942,1091,1091,1091,1091,,,,,
51793441,1092,1092,1092,1092,,,,,
51795940,1093,1093,1093,1093,,,,,
51798439,1093,1093,1093,1093,,,,,
51800938,1094,1094,1094,1094,,,,,
51803437,1095,1095,1095,1095,,,,,
51805936,1096,1096,1096,1096,,,,,
51808435,1096,1096,1096,1096,,,,,
51810934,1097,1097,1097,1097,,,,,
51813433,1098,1098,1098,1098,,,,,
51815932,1099,1099,1099,1099,,,,,
51818431,1099,1099,1099,1099,,,,,
51820930,1100,1100,1100,1100,,,,,
51823429,1101,1101,1101,1101,,,,,
51825928,1101,1101,1101,1101,,,,,
51828427,1102,1102,1102,1102,,,,,
51830926,1103,1103,1103,1103,,,,,
51833425,1104,1104,1104,1104,,,,,
51835924,1104,1104,1104,1104,,,,,
51838423,1105,1105,1105,1105,,,,,
51840922,1106,1106,1106,1106,,,,,
51843421,1107,1107,1107,1107,,,,,
51845920,1107,1107,1107,1107,,,,,
51848419,1108,1108,1108,1108,,,,,
51850918,1109,1109,1109,1109,,,,,
51853417,1110,1110,1110,1110,,,,,
51855916,1110,1110,1110,1110,,,,,
51858415,1111,1111,1111,1111,,,,,
51860914,1112,1112,1112,1112,,,,,
51863413,1113,1113,1113,1113,,,,,
51865912,1113,1113,1113,1113,,,,,
51868411,1114,1114,1114,1114,,,,,
51870910,1115,1115,1115,1115,,,,,
51873409,1116,1116,1116,1116,,,,,
51875908,1116,1116,1116,1116,,,,,
51878407,1117,1117,1117,1117,,,,,
51880906,1118,1118,1118,1118,,,,,
51883405,1119,1119,1119,1119,,,,,
51885904,1119,1119,1119,1119,,,,,
51888403,1120,1120,1120,1120,,,,,
51890902,1121,1121,1121,1121,,,,,
51893401,1122,1122,1122,1122,,,,,
51895900,1122,1122,1122,1122,,,,,
51898399,1123,1123,1123,1123,,,,,
51900898,1124,1124,1124,1124,,,,,
51903397,1125,1125,1125,1125,,,,,
51905896,1125,1125,1125,1125,,,,,
51908395,1126,1126,1126,1126,,,,,
51910894,1127,1127,1127,1127,,,,,
51913393,1128,1128,1128,1128,,,,,
51915892,1128,1128,1128,1128,,,,,
51918391,1129,1129,1129,1129,,,,,
51920890,1130,1130,1130,1130,,,,,
51923389,1131,1131,1131,1131,,,,,
51925888,1131,1131,1131,1131,,,,,
51928387,1132,1132,1132,1132,,,,,
51930886,1133,1133,1133,1133,,,,,
51933385,1134,1134,1134,1134,,,,,
51935884,1134,1134,1134,1134,,,,,
51938383,1135,1135,1135,1135,,,,,
51940882,1136,1136,1136,1136,,,,,
51943381,1137,1137,1137,1137,,,,,
51945880,1137,1137,1137,1137,,,,,
51948379,1138,1138,1138,1138,,,,,
51950878,1139,1139,1139,1139,,,,,
51953377,1140,1140,1140,1140,,,,,
51955876,1140,1140,1140,1140,,,,,
51958375,1141,1141,1141,1141,,,,,
51960874,1142,1142,1142,1142,,,,,
51963373,1143,1143,1143,1143,,,,,
51965872,1143,1143,1143,1143,,,,,
51968371,1144,1144,1144,1144,,,,,
51970870,1145,1145,1145,1145,,,,,
51973369,1146,1146,1146,1146,,,,,
51975868,1146,1146,1146,1146,,,,,
51978367,1147,1147,1147,1147,,,,,
51980866,1148,1148,1148,1148,,,,,
51983365,1149,1149,1149,1149,,,,,
51985864,1149,1149,1149,1149,,,,,
51988363,1150,1150,1150,1150,,,,,
51990862,1161,1154,1154,1162,,,,,
51993361,1169,1162,1162,1170,,,,,
51995860,1177,1170,1170,1177,,,,,
51998359,1185,1177,1178,1185,,,,,
52000858,1192,1185,1186,1193,,,,,
52003357,1200,1193,1193,1200,,,,,
52005856,1207,1200,1201,1207,,,,,
52008355,1214,1207,1208,1215,,,,,
52010854,1221,1215,1215,1222,,,,,
52013353,1228,1222,1222,1229,,,,,
52015852,1235,1229,1229,1236,,,,,
52018351,1242,1235,1236,1242,,,,,
52020850,1249,1242,1243,1249,,,,,
52023349,1255,1249,1250,1256,,,,,
52025848,1262,1256,1256,1262,,,,,
52028347,1268,1262,1263,1269,,,,,
52030846,1275,1268,1269,1275,,,,,
52033345,1281,1275,1275,1281,,,,,
52035844,1287,1281,1282,1288,,,,,
52038343,1293,1287,1288,1294,,,,,
52040842,1300,1293,1294,1300,,,,,
52043341,1306,1299,1300,1306,,,,,
52045840,1311,1305,1306,1312,,,,,
52048339,1317,1311,1312,1318,,,,,
52050838,1323,1317,1318,1323,,,,,
52053337,1329,1323,1324,1329,,,,,
52055836,1335,1329,1329,1335,,,,,
52058335,1340,1335,1335,1341,,,,,
52060834,1346,1340,1341,1346,,,,,
52063333,1351,1346,1346,1352,,,,,
52065832,1357,1351,1352,1357,,,,,
52068331,1362,1357,1357,1363,,,,,
52070830,1368,1362,1363,1368,,,,,
52073329,1373,1368,1368,1373,,,,,
52075828,1378,1373,1373,1379,,,,,
52078327,1384,1378,1379,1384,,,,,
52080826,1389,1383,1384,1389,,,,,
52083325,1394,1389,1389,1394,,,,,
52085824,1399,1394,1394,1400,,,,,
52088323,1404,1399,1399,1405,,,,,
52090822,1409,1404,1404,1410,,,,,
52093321,1414,1409,1409,1415,,,,,
52095820,1419,1414,1414,1420,,,,,
52098319,1424,1419,1419,1425,,,,,
52100818,1429,1424,1424,1430,,,,,
52103317,1434,1429,1429,1434,,,,,
52105816,1439,1434,1434,1439,,,,,
52108315,1444,1439,1439,1444,,,,,
52110814,1449,1443,1444,1449,,,,,
52113313,1453,1448,1449,1454,,,,,
52115812,1458,1453,1453,1458,,,,,
52118311,1463,1457,1458,1463,,,,,
52120810,1467,1462,1463,1468,,,,,
52123309,1472,1467,1467,1472,,,,,
52125808,1477,1471,1472,1477,,,,,
52128307,1481,1476,1476,1481,,,,,
52130806,1486,1481,1481,1486,,,,,
52133305,1490,1485,1486,1490,,,,,
52135804,1495,1490,1490,1495,,,,,
52138303,1499,1494,1494,1499,,,,,
52140802,1504,1498,1499,1504,,,,,
52143301,1508,1503,1503,1508,,,,,
52145800,1512,1507,1508,1512,,,,,
52148299,1517,1512,1512,1517,,,,,
52150798,1521,1516,1516,1521,,,,,
52153297,1525,1520,1521,1525,,,,,
52155796,1530,1525,1525,1530,,,,,
52158295,1534,1529,1529,1534,,,,,
52160794,1538,1533,1534,1538,,,,,
52163293,1542,1537,1538,1542,,,,,
52165792,1546,1541,1542,1546,,,,,
52168291,1551,1546,1546,1551,,,,,
52170790,1555,1550,1550,1555,,,,,
52173289,1559,1554,1554,1559,,,,,
52175788,1563,1558,1559,1563,,,,,
52178287,1567,1562,1563,1567,,,,,
52180786,1571,1566,1567,1571,,,,,
52183285,1575,1570,1571,1575,,,,,
52185784,1579,1574,1575,1579,,,,,
52188283,1583,1578,1579,1583,,,,,
52190782,1587,1582,1583,1587,,,,,
52193281,1591,1586,1587,1591,,,,,
52195780,1595,1590,1591,1595,,,,,
52198279,1599,1594,1595,1599,,,,,
52200778,1603,1598,1599,1603,,,,,
52203277,1607,1602,1602,1607,,,,,
52205776,1611,1606,1606,1611,,,,,
52208275,1614,1610,1610,1614,,,,,
52210774,1618,1614,1614,1618,,,,,
52213273,1622,1617,1618,1622,,,,,
52215772,1626,1621,1622,1626,,,,,
52218271,1630,1625,1625,1630,,,,,
52220770,1633,1629,1629,1633,,,,,
52223269,1637,1633,1633,1637,,,,,
52225768,1641,1636,1637,1641,,,,,
52228267,1645,1640,1640,1645,,,,,
52230766,1648,1644,1644,1648,,,,,
52233265,1652,1647,1648,1652,,,,,
52235764,1656,1651,1651,1656,,,,,
52238263,1659,1655,1655,1659,,,,,
52240762,1663,1659,1659,1663,,,,,
52243261,1666,1662,1662,1667,,,,,
52245760,1670,1666,1666,1670,,,,,
52248259,1674,1669,1670,1674,,,,,
52250758,1677,1673,1673,1678,,,,,
52253257,1681,1677,1677,1681,,,,,
52255756,1684,1680,1680,1685,,,,,
52258255,1688,1684,1684,1688,,,,,
52260754,1692,1687,1687,1692,,,,,
52263253,1695,1691,1691,1695,,,,,
52265752,1699,1694,1695,1699,,,,,
52268251,1702,1698,1698,1702,,,,,
52270750,1706,1701,1702,1706,,,,,
52273249,1709,1705,1705,1709,,,,,
52275748,1713,1708,1709,1713,,,,,
52278247,1716,1712,1712,1716,,,,,
52280746,1719,1715,1715,1720,,,,,
52283245,1723,1718,1719,1723,,,,,
52285744,1726,1722,1722,1726,,,,,
52288243,1730,1725,1726,1730,,,,,
52290742,1733,1729,1729,1733,,,,,
52293241,1736,1732,1732,1737,,,,,
52295740,1740,1735,1736,1740,,,,,
52298239,1743,1739,1739,1743,,,,,
52300738,1747,1742,1742,1747,,,,,
52303237,1750,1745,1746,1750,,,,,
52305736,1753,1749,1749,1753,,,,,
52308235,1756,1752,1752,1757,,,,,
52310734,1760,1755,1756,1760,,,,,
52313233,1763,1759,1759,1763,,,,,
52315732,1766,1762,1762,1766,,,,,
52318231,1770,1765,1766,1770,,,,,
52320730,1773,1768,1769,1773,,,,,
52323229,1776,1772,1772,1776,,,,,
52325728,1779,1775,1775,1779,,,,,
52328227,1783,1778,1779,1783,,,,,
52330726,1786,1781,1782,1786,,,,,
52333225,1789,1785,1785,1789,,,,,
52335724,1792,1788,1788,1792,,,,,
52338223,1795,1791,1791,1795,,,,,
52340722,1798,1794,1795,1799,,,,,
52343221,1802,1797,1798,1802,,,,,
52345720,1805,1801,1801,1805,,,,,
52348219,1808,1804,1804,1808,,,,,
52350718,1811,1807,1807,1811,,,,,
52353217,1814,1810,1810,1814,,,,,
52355716,1817,1813,1814,1817,,,,,
52358215,1820,1816,1817,1820,,,,,
52360714,1824,1819,1820,1823,,,,,
52363213,1827,1822,1823,1826,,,,,
52365712,1830,1825,1826,1830,,,,,
52368211,1833,1829,1829,1833,,,,,
52370710,1836,1832,1832,1836,,,,,
52373209,1839,1835,1835,1839,,,,,
52375708,1842,1838,1838,1842,,,,,
52378207,1845,1841,1841,1845,,,,,
52380706,1848,1844,1844,1848,,,,,
52383205,1851,1847,1847,1851,,,,,
52385704,1854,1850,1850,1854,,,,,
52388203,1857,1853,1853,1857,,,,,
52390702,1860,1856,1856,1860,,,,,
52393201,1863,1859,1859,1863,,,,,
52395700,1866,1862,1862,1866,,,,,
52398199,1869,1865,1865,1869,,,,,
52400698,1872,1868,1868,1872,,,,,
52403197,1875,1871,1871,1875,,,,,
52405696,1878,1874,1874,1878,,,,,
52408195,1881,1877,1877,1881,,,,,
52410694,1884,1880,1880,1884,,,,,
52413193,1887,1882,1883,1887,,,,,
52415692,1890,1885,1886,1889,,,,,
52418191,1889,1885,1885,1889,,,,,
52420690,1888,1884,1884,1888,,,,,
52423189,1887,1883,1883,1887,,,,,
52425688,1886,1882,1882,1886,,,,,
52428187,1885,1881,1881,1885,,,,,
52430686,1884,1880,1880,1884,,,,,
52433185,1883,1879,1879,1883,,,,,
52435684,1882,1878,1879,1883,,,,,
52438183,1882,1877,1878,1882,,,,,
52440682,1881,1877,1877,1881,,,,,
52443181,1880,1876,1876,1880,,,,,
52445680,1880,1875,1876,1880,,,,,
52448179,1879,1875,1875,1879,,,,,
52450678,1879,1875,1875,1879,,,,,
52453177,1879,1874,1874,1879,,,,,
52455676,1878,1874,1874,1878,,,,,
52458175,1878,1874,1874,1878,,,,,
52460674,1878,1874,1874,1878,,,,,
52463173,1878,1873,1874,1878,,,,,
52465672,1878,1873,1874,1878,,,,,
52468171,1878,1874,1874,1878,,,,,
52470670,1878,1874,1874,1878,,,,,
52473169,1878,1874,1874,1879,,,,,
52475668,1879,1874,1874,1879,,,,,
52478167,1879,1875,1875,1879,,,,,
52480666,1880,1875,1875,1880,,,,,
52483165,1880,1875,1876,1880,,,,,
52485664,1880,1876,1876,1881,,,,,
52488163,1881,1877,1877,1881,,,,,
52490662,1881,1877,1877,1881,,,,,
52493161,1882,1878,1878,1882,,,,,
52495660,1882,1878,1878,1882,,,,,
52498159,1882,1878,1878,1882,,,,,
52500658,1882,1878,1878,1882,,,,,
52503157,1882,1878,1878,1882,,,,,
52505656,1881,1878,1878,1882,,,,,
52508155,1881,1878,1878,1881,,,,,
52510654,1880,1877,1877,1881,,,,,
52513986,1880,1877,1877,1880,,,,,
52516485,1879,1876,1876,1879,,,,,
52518984,1878,1875,1875,1878,,,,,
52521483,1876,1874,1874,1877,,,,,
52523982,1875,1872,1872,1875,,,,,
52526481,1874,1871,1871,1874,,,,,
52528980,1872,1869,1869,1872,,,,,
52531479,1870,1867,1868,1871,,,,,
52533978,1868,1866,1866,1869,,,,,
52536477,1866,1864,1864,1867,,,,,
52538976,1864,1862,1862,1865,,,,,
52541475,1862,1859,1859,1862,,,,,
52543974,1859,1857,1857,1860,,,,,
52546473,1857,1855,1855,1858,,,,,
52548972,1854,1852,1852,1855,,,,,
52551471,1852,1850,1850,1852,,,,,
52553970,1849,1847,1847,1850,,,,,
52556469,1846,1844,1844,1847,,,,,
52558968,1843,1842,1842,1844,,,,,
52561467,1840,1839,1839,1841,,,,,
52563966,1837,1836,1836,1838,,,,,
52566465,1834,1833,1833,1835,,,,,
52568964,1831,1830,1830,1832,,,,,
52571463,1828,1827,1826,1829,,,,,
52573962,1825,1823,1823,1825,,,,,
52576461,1822,1820,1820,1822,,,,,
52578960,1818,1817,1817,1819,,,,,
52581459,1815,1814,1814,1816,,,,,
52583958,1812,1810,1810,1812,,,,,
52586457,1808,1807,1807,1809,,,,,
52588956,1805,1804,1804,1805,,,,,
52591455,1801,1800,1800,1802,,,,,
52593954,1798,1797,1797,1799,,,,,
52596453,1795,1794,1794,1795,,,,,
52598952,1791,1790,1790,1792,,,,,
52601451,1788,1787,1787,1788,,,,,
52603950,1784,1784,1784,1785,,,,,
52606449,1781,1780,1780,1782,,,,,
52608948,1778,1777,1777,1778,,,,,
52611447,1774,1774,1774,1775,,,,,
52613946,1771,1770,1770,1771,,,,,
52616445,1767,1767,1767,1768,,,,,
52618944,1764,1764,1763,1764,,,,,
52621443,1760,1760,1760,1761,,,,,
52623942,1757,1757,1757,1758,,,,,
52626441,1754,1754,1754,1754,,,,,
52628940,1751,1750,1750,1751,,,,,
52631439,1747,1747,1747,1748,,,,,
52633938,1744,1744,1744,1745,,,,,
52636437,1741,1741,1741,1741,,,,,
52638936,1738,1738,1738,1738,,,,,
52641435,1735,1735,1735,1735,,,,,
52643934,1732,1731,1732,1732,,,,,
52646433,1729,1728,1728,1729,,,,,
52648932,1726,1725,1726,1726,,,,,
52651431,1722,1722,1723,1723,,,,,
52653930,1720,1719,1720,1720,,,,,
52656429,1717,1717,1717,1717,,,,,
52658928,1714,1714,1714,1714,,,,,
52661427,1711,1711,1711,1711,,,,,
52663926,1708,1708,1708,1708,,,,,
52666425,1705,1705,1706,1706,,,,,
52668924,1703,1703,1703,1703,,,,,
52671423,1700,1700,1700,1700,,,,,
52673922,1697,1697,1698,1697,,,,,
52676421,1694,1695,1695,1695,,,,,
