timestamp,TimeUS,C1,C2,C3,C4,C5,C6,C7,C8,C9,C10,C11,C12,C13,C14
1681124915.30004025,35728203,1000,1000,1000,1000,0,0,0,0,0,0,0,0,0,0
1681124915.40000010,35828163,1000,1000,1000,1000,0,0,0,0,0,0,0,0,0,0
1681124915.50079322,35928956,1000,1000,1000,1000,0,0,0,0,0,0,0,0,0,0
1681124915.60075307,36028916,1000,1000,1000,1000,0,0,0,0,0,0,0,0,0,0
1681124915.70071316,36128876,1000,1000,1000,1000,0,0,0,0,0,0,0,0,0,0
1681124915.80067325,36228836,1000,1000,1000,1000,0,0,0,0,0,0,0,0,0,0
1681124915.90063310,36328796,1000,1000,1000,1000,0,0,0,0,0,0,0,0,0,0
1681124916.00059319,36428756,1000,1000,1000,1000,0,0,0,0,0,0,0,0,0,0
1681124916.10055327,36528716,1000,1000,1000,1000,0,0,0,0,0,0,0,0,0,0
1681124916.20051312,36628676,1000,1000,1000,1000,0,0,0,0,0,0,0,0,0,0
1681124916.30047321,36728636,1000,1000,1000,1000,0,0,0,0,0,0,0,0,0,0
1681124916.40043330,36828596,1000,1000,1000,1000,0,0,0,0,0,0,0,0,0,0
1681124916.50039315,36928556,1000,1000,1000,1000,0,0,0,0,0,0,0,0,0,0
1681124916.60035324,37028516,1000,1000,1000,1000,0,0,0,0,0,0,0,0,0,0
1681124916.70031309,37128476,1000,1000,1000,1000,0,0,0,0,0,0,0,0,0,0
1681124916.80027318,37228436,1000,1000,1000,1000,0,0,0,0,0,0,0,0,0,0
1681124916.90023327,37328396,1000,1000,1000,1000,0,0,0,0,0,0,0,0,0,0
1681124917.00019312,37428356,1000,1000,1000,1000,0,0,0,0,0,0,0,0,0,0
1681124917.10015321,37528316,1000,1000,1000,1000,0,0,0,0,0,0,0,0,0,0
1681124917.20011330,37628276,1000,1000,1000,1000,0,0,0,0,0,0,0,0,0,0
1681124917.30007315,37728236,1000,1000,1000,1000,0,0,0,0,0,0,0,0,0,0
1681124917.40003324,37828196,1000,1000,1000,1000,0,0,0,0,0,0,0,0,0,0
1681124917.49999309,37928156,1000,1000,1000,1000,0,0,0,0,0,0,0,0,0,0
1681124917.60078621,38028949,1000,1000,1000,1000,0,0,0,0,0,0,0,0,0,0
1681124917.70074630,38128909,1000,1000,1000,1000,0,0,0,0,0,0,0,0,0,0
1681124917.80070615,38228869,1000,1000,1000,1000,0,0,0,0,0,0,0,0,0,0
1681124917.90066624,38328829,1000,1000,1000,1000,0,0,0,0,0,0,0,0,0,0
1681124918.00062609,38428789,1000,1000,1000,1000,0,0,0,0,0,0,0,0,0,0
1681124918.10058618,38528749,1000,1000,1000,1000,0,0,0,0,0,0,0,0,0,0
1681124918.20054626,38628709,1000,1000,1000,1000,0,0,0,0,0,0,0,0,0,0
1681124918.30050611,38728669,1000,1000,1000,1000,0,0,0,0,0,0,0,0,0,0
1681124918.40046620,38828629,1000,1000,1000,1000,0,0,0,0,0,0,0,0,0,0
1681124918.50042629,38928589,1000,1000,1000,1000,0,0,0,0,0,0,0,0,0,0
1681124918.60038614,39028549,1000,1000,1000,1000,0,0,0,0,0,0,0,0,0,0
1681124918.70034623,39128509,1000,1000,1000,1000,0,0,0,0,0,0,0,0,0,0
1681124918.80030608,39228469,1000,1000,1000,1000,0,0,0,0,0,0,0,0,0,0
1681124918.90026617,39328429,1000,1000,1000,1000,0,0,0,0,0,0,0,0,0,0
1681124919.00022626,39428389,1000,1000,1000,1000,0,0,0,0,0,0,0,0,0,0
1681124919.10018611,39528349,1000,1000,1000,1000,0,0,0,0,0,0,0,0,0,0
1681124919.20014620,39628309,1000,1000,1000,1000,0,0,0,0,0,0,0,0,0,0
1681124919.30010629,39728269,1000,1000,1000,1000,0,0,0,0,0,0,0,0,0,0
1681124919.40006614,39828229,1000,1000,1000,1000,0,0,0,0,0,0,0,0,0,0
1681124919.50002623,39928189,1000,1000,1000,1000,0,0,0,0,0,0,0,0,0,0
1681124919.60081911,40028982,1000,1000,1000,1000,0,0,0,0,0,0,0,0,0,0
1681124919.70077920,40128942,1000,1000,1000,1000,0,0,0,0,0,0,0,0,0,0
1681124919.80073929,40228902,1000,1000,1000,1000,0,0,0,0,0,0,0,0,0,0
1681124919.90069914,40328862,1000,1000,1000,1000,0,0,0,0,0,0,0,0,0,0
1681124920.00065923,40428822,1000,1000,1000,1000,0,0,0,0,0,0,0,0,0,0
1681124920.10061908,40528782,1000,1000,1000,1000,0,0,0,0,0,0,0,0,0,0
1681124920.20057917,40628742,1000,1000,1000,1000,0,0,0,0,0,0,0,0,0,0
1681124920.30053926,40728702,1000,1000,1000,1000,0,0,0,0,0,0,0,0,0,0
1681124920.40049911,40828662,1000,1000,1000,1000,0,0,0,0,0,0,0,0,0,0
1681124920.50045919,40928622,1000,1000,1000,1000,0,0,0,0,0,0,0,0,0,0
1681124920.60041928,41028582,1000,1000,1000,1000,0,0,0,0,0,0,0,0,0,0
1681124920.70037913,41128542,1000,1000,1000,1000,0,0,0,0,0,0,0,0,0,0
1681124920.80033922,41228502,1000,1000,1000,1000,0,0,0,0,0,0,0,0,0,0
1681124920.90029907,41328462,1000,1000,1000,1000,0,0,0,0,0,0,0,0,0,0
1681124921.00025916,41428422,1000,1000,1000,1000,0,0,0,0,0,0,0,0,0,0
1681124921.10021925,41528382,1000,1000,1000,1000,0,0,0,0,0,0,0,0,0,0
1681124921.20017910,41628342,1000,1000,1000,1000,0,0,0,0,0,0,0,0,0,0
1681124921.30013919,41728302,1000,1000,1000,1000,0,0,0,0,0,0,0,0,0,0
1681124921.40009928,41828262,1000,1000,1000,1000,0,0,0,0,0,0,0,0,0,0
1681124921.50005913,41928222,1000,1000,1000,1000,0,0,0,0,0,0,0,0,0,0
1681124921.60001922,42028182,1000,1000,1000,1000,0,0,0,0,0,0,0,0,0,0
1681124921.70081210,42128975,1000,1000,1000,1000,0,0,0,0,0,0,0,0,0,0
1681124921.80077219,42228935,1000,1000,1000,1000,0,0,0,0,0,0,0,0,0,0
1681124921.90073228,42328895,1000,1000,1000,1000,0,0,0,0,0,0,0,0,0,0
1681124922.00069213,42428855,1000,1000,1000,1000,0,0,0,0,0,0,0,0,0,0
1681124922.10065222,42528815,1000,1000,1000,1000,0,0,0,0,0,0,0,0,0,0
1681124922.20061207,42628775,1000,1000,1000,1000,0,0,0,0,0,0,0,0,0,0
1681124922.30057216,42728735,1000,1000,1000,1000,0,0,0,0,0,0,0,0,0,0
1681124922.40053225,42828695,1000,1000,1000,1000,0,0,0,0,0,0,0,0,0,0
1681124922.50049210,42928655,1000,1000,1000,1000,0,0,0,0,0,0,0,0,0,0
1681124922.60045218,43028615,1000,1000,1000,1000,0,0,0,0,0,0,0,0,0,0
1681124922.70041227,43128575,1000,1000,1000,1000,0,0,0,0,0,0,0,0,0,0
1681124922.80037212,43228535,1000,1000,1000,1000,0,0,0,0,0,0,0,0,0,0
1681124922.90033221,43328495,1000,1000,1000,1000,0,0,0,0,0,0,0,0,0,0
1681124923.00029230,43428455,1000,1000,1000,1000,0,0,0,0,0,0,0,0,0,0
1681124923.10025215,43528415,1000,1000,1000,1000,0,0,0,0,0,0,0,0,0,0
1681124923.20021224,43628375,1000,1000,1000,1000,0,0,0,0,0,0,0,0,0,0
1681124923.30017209,43728335,1000,1000,1000,1000,0,0,0,0,0,0,0,0,0,0
1681124923.40013218,43828295,1000,1000,1000,1000,0,0,0,0,0,0,0,0,0,0
1681124923.50009227,43928255,1000,1000,1000,1000,0,0,0,0,0,0,0,0,0,0
1681124923.60005212,44028215,1000,1000,1000,1000,0,0,0,0,0,0,0,0,0,0
1681124923.70001221,44128175,1000,1000,1000,1000,0,0,0,0,0,0,0,0,0,0
1681124923.80080509,44228968,1000,1000,1000,1000,0,0,0,0,0,0,0,0,0,0
1681124923.90076518,44328928,1000,1000,1000,1000,0,0,0,0,0,0,0,0,0,0
1681124924.00072527,44428888,1000,1000,1000,1000,0,0,0,0,0,0,0,0,0,0
1681124924.10068512,44528848,1000,1000,1000,1000,0,0,0,0,0,0,0,0,0,0
1681124924.20064521,44628808,1000,1000,1000,1000,0,0,0,0,0,0,0,0,0,0
1681124924.30060530,44728768,1000,1000,1000,1000,0,0,0,0,0,0,0,0,0,0
1681124924.40056515,44828728,1000,1000,1000,1000,0,0,0,0,0,0,0,0,0,0
1681124924.50052524,44928688,1000,1000,1000,1000,0,0,0,0,0,0,0,0,0,0
1681124924.60048509,45028648,1000,1000,1000,1000,0,0,0,0,0,0,0,0,0,0
1681124924.70044518,45128608,1000,1000,1000,1000,0,0,0,0,0,0,0,0,0,0
1681124924.80040526,45228568,1000,1000,1000,1000,0,0,0,0,0,0,0,0,0,0
1681124924.90036511,45328528,1000,1000,1000,1000,0,0,0,0,0,0,0,0,0,0
1681124925.00032520,45428488,1000,1000,1000,1000,0,0,0,0,0,0,0,0,0,0
1681124925.10028529,45528448,1000,1000,1000,1000,0,0,0,0,0,0,0,0,0,0
1681124925.20024514,45628408,1000,1000,1000,1000,0,0,0,0,0,0,0,0,0,0
1681124925.30020523,45728368,1000,1000,1000,1000,0,0,0,0,0,0,0,0,0,0
1681124925.40016508,45828328,1000,1000,1000,1000,0,0,0,0,0,0,0,0,0,0
1681124925.50012517,45928288,1000,1000,1000,1000,0,0,0,0,0,0,0,0,0,0
1681124925.60008526,46028248,1000,1000,1000,1000,0,0,0,0,0,0,0,0,0,0
1681124925.70004511,46128208,1000,1000,1000,1000,0,0,0,0,0,0,0,0,0,0
1681124925.80000520,46228168,1000,1000,1000,1000,0,0,0,0,0,0,0,0,0,0
1681124925.90079808,46328961,1000,1000,1000,1000,0,0,0,0,0,0,0,0,0,0
1681124926.00075817,46428921,1000,1000,1000,1000,0,0,0,0,0,0,0,0,0,0
1681124926.10071826,46528881,1000,1000,1000,1000,0,0,0,0,0,0,0,0,0,0
1681124926.20067811,46628841,1000,1000,1000,1000,0,0,0,0,0,0,0,0,0,0
1681124926.30063820,46728801,1000,1000,1000,1000,0,0,0,0,0,0,0,0,0,0
1681124926.40059829,46828761,1000,1000,1000,1000,0,0,0,0,0,0,0,0,0,0
1681124926.50055814,46928721,1000,1000,1000,1000,0,0,0,0,0,0,0,0,0,0
1681124926.60051823,47028681,1000,1000,1000,1000,0,0,0,0,0,0,0,0,0,0
1681124926.70047808,47128641,1000,1000,1000,1000,0,0,0,0,0,0,0,0,0,0
1681124926.80043817,47228601,1000,1000,1000,1000,0,0,0,0,0,0,0,0,0,0
1681124926.90039825,47328561,1000,1000,1000,1000,0,0,0,0,0,0,0,0,0,0
1681124927.00035810,47428521,1000,1000,1000,1000,0,0,0,0,0,0,0,0,0,0
1681124927.10031819,47528481,1000,1000,1000,1000,0,0,0,0,0,0,0,0,0,0
1681124927.20027828,47628441,1000,1000,1000,1000,0,0,0,0,0,0,0,0,0,0
1681124927.30023813,47728401,1000,1000,1000,1000,0,0,0,0,0,0,0,0,0,0
1681124927.40019822,47828361,1000,1000,1000,1000,0,0,0,0,0,0,0,0,0,0
1681124927.50015807,47928321,1000,1000,1000,1000,0,0,0,0,0,0,0,0,0,0
1681124927.60011816,48028281,1000,1000,1000,1000,0,0,0,0,0,0,0,0,0,0
1681124927.70007825,48128241,1000,1000,1000,1000,0,0,0,0,0,0,0,0,0,0
1681124927.80003810,48228201,1000,1000,1000,1000,0,0,0,0,0,0,0,0,0,0
1681124927.89999819,48328161,1000,1000,1000,1000,0,0,0,0,0,0,0,0,0,0
1681124928.00079107,48428954,1000,1000,1000,1000,0,0,0,0,0,0,0,0,0,0
1681124928.10075116,48528914,1000,1000,1000,1000,0,0,0,0,0,0,0,0,0,0
1681124928.20071125,48628874,1000,1000,1000,1000,0,0,0,0,0,0,0,0,0,0
1681124928.30067110,48728834,1000,1000,1000,1000,0,0,0,0,0,0,0,0,0,0
1681124928.40063119,48828794,1000,1000,1000,1000,0,0,0,0,0,0,0,0,0,0
1681124928.50059128,48928754,1000,1000,1000,1000,0,0,0,0,0,0,0,0,0,0
1681124928.60055113,49028714,1000,1000,1000,1000,0,0,0,0,0,0,0,0,0,0
1681124928.70051122,49128674,1000,1000,1000,1000,0,0,0,0,0,0,0,0,0,0
1681124928.80047131,49228634,1000,1000,1000,1000,0,0,0,0,0,0,0,0,0,0
1681124928.90043116,49328594,1000,1000,1000,1000,0,0,0,0,0,0,0,0,0,0
1681124929.00039124,49428554,1000,1000,1000,1000,0,0,0,0,0,0,0,0,0,0
1681124929.10035110,49528514,1000,1000,1000,1000,0,0,0,0,0,0,0,0,0,0
1681124929.20031118,49628474,1000,1000,1000,1000,0,0,0,0,0,0,0,0,0,0
1681124929.30027127,49728434,1000,1000,1000,1000,0,0,0,0,0,0,0,0,0,0
1681124929.40023112,49828394,1000,1000,1000,1000,0,0,0,0,0,0,0,0,0,0
1681124929.50019121,49928354,1000,1000,1000,1000,0,0,0,0,0,0,0,0,0,0
1681124929.60015130,50028314,1000,1000,1000,1000,0,0,0,0,0,0,0,0,0,0
1681124929.70011115,50128274,1000,1000,1000,1000,0,0,0,0,0,0,0,0,0,0
1681124929.80007124,50228234,1000,1000,1000,1000,0,0,0,0,0,0,0,0,0,0
1681124929.90003109,50328194,1000,1000,1000,1000,0,0,0,0,0,0,0,0,0,0
1681124929.99999118,50428154,1000,1000,1000,1000,0,0,0,0,0,0,0,0,0,0
1681124930.10078430,50528947,1000,1000,1000,1000,0,0,0,0,0,0,0,0,0,0
1681124930.20074415,50628907,1000,1000,1000,1000,0,0,0,0,0,0,0,0,0,0
1681124930.40066409,50828827,1000,1000,1000,1000,0,0,0,0,0,0,0,0,0,0
1681124930.50062418,50928787,1000,1000,1000,1000,0,0,0,0,0,0,0,0,0,0
1681124930.60058427,51028747,1000,1000,1000,1000,0,0,0,0,0,0,0,0,0,0
1681124930.70054412,51128707,1000,1000,1000,1000,0,0,0,0,0,0,0,0,0,0
1681124930.80050421,51228667,1000,1000,1000,1000,0,0,0,0,0,0,0,0,0,0
1681124930.90046430,51328627,1000,1000,1000,1000,0,0,0,0,0,0,0,0,0,0
1681124931.00042415,51428587,1000,1000,1000,1000,0,0,0,0,0,0,0,0,0,0
1681124931.10038424,51528547,1000,1000,1000,1000,0,0,0,0,0,0,0,0,0,0
1681124931.20034409,51628507,1000,1000,1000,1000,0,0,0,0,0,0,0,0,0,0
1681124931.30030417,51728467,1000,1000,1000,1000,0,0,0,0,0,0,0,0,0,0
1681124931.40026426,51828427,1000,1000,1000,1000,0,0,0,0,0,0,0,0,0,0
1681124931.50022411,51928387,1000,1000,1000,1000,0,0,0,0,0,0,0,0,0,0
1681124931.60018420,52028347,1000,1000,1000,1000,0,0,0,0,0,0,0,0,0,0
1681124931.70014429,52128307,1000,1000,1000,1000,0,0,0,0,0,0,0,0,0,0
1681124931.80010414,52228267,1000,1000,1000,1000,0,0,0,0,0,0,0,0,0,0
1681124931.90006423,52328227,1000,1000,1000,1000,0,0,0,0,0,0,0,0,0,0
1681124932.00002408,52428187,1000,1000,1000,1000,0,0,0,0,0,0,0,0,0,0
1681124932.10081720,52528980,1000,1000,1000,1000,0,0,0,0,0,0,0,0,0,0
1681124932.20077729,52628940,1000,1000,1000,1000,0,0,0,0,0,0,0,0,0,0
1681124932.30073714,52728900,1000,1000,1000,1000,0,0,0,0,0,0,0,0,0,0
1681124932.40069723,52828860,1013,1013,1013,1013,0,0,0,0,0,0,0,0,0,0
1681124932.50065708,52928820,1043,1043,1043,1043,0,0,0,0,0,0,0,0,0,0
1681124932.60061717,53028780,1073,1073,1073,1073,0,0,0,0,0,0,0,0,0,0
1681124932.70057726,53128740,1103,1103,1103,1103,0,0,0,0,0,0,0,0,0,0
1681124932.80053711,53228700,1133,1133,1133,1133,0,0,0,0,0,0,0,0,0,0
1681124932.90049720,53328660,1275,1268,1269,1275,0,0,0,0,0,0,0,0,0,0
1681124933.00045729,53428620,1486,1480,1481,1486,0,0,0,0,0,0,0,0,0,0
1681124933.10041714,53528580,1648,1643,1644,1649,0,0,0,0,0,0,0,0,0,0
1681124933.20037723,53628540,1786,1781,1782,1786,0,0,0,0,0,0,0,0,0,0
1681124933.30033708,53728500,1907,1902,1903,1907,0,0,0,0,0,0,0,0,0,0
1681124933.40029716,53828460,1888,1885,1885,1888,0,0,0,0,0,0,0,0,0,0
1681124933.50025725,53928420,1761,1761,1761,1762,0,0,0,0,0,0,0,0,0,0
1681124933.60021710,54028380,1665,1666,1666,1665,0,0,0,0,0,0,0,0,0,0
1681124933.70017719,54128340,1633,1635,1635,1634,0,0,0,0,0,0,0,0,0,0
1681124933.80013728,54228300,1641,1633,1633,1642,0,0,0,0,0,0,0,0,0,0
1681124933.90009713,54328260,1636,1637,1630,1642,0,0,0,0,0,0,0,0,0,0
1681124934.00005722,54428220,1633,1635,1628,1640,0,0,0,0,0,0,0,0,0,0
1681124934.10001707,54528180,1626,1627,1624,1629,0,0,0,0,0,0,0,0,0,0
1681124934.20081019,54628973,1621,1621,1623,1619,0,0,0,0,0,0,0,0,0,0
1681124934.30077028,54728933,1619,1618,1622,1615,0,0,0,0,0,0,0,0,0,0
1681124934.40073013,54828893,1618,1617,1622,1613,0,0,0,0,0,0,0,0,0,0
1681124934.50069022,54928853,1615,1614,1619,1610,0,0,0,0,0,0,0,0,0,0
1681124934.60065007,55028813,1585,1585,1597,1573,0,0,0,0,0,0,0,0,0,0
1681124934.70061016,55128773,1571,1572,1579,1564,0,0,0,0,0,0,0,0,0,0
1681124934.80057025,55228733,1560,1561,1560,1561,0,0,0,0,0,0,0,0,0,0
1681124934.90053010,55328693,1551,1552,1546,1557,0,0,0,0,0,0,0,0,0,0
1681124935.00049019,55428653,1544,1544,1534,1553,0,0,0,0,0,0,0,0,0,0
1681124935.10045028,55528613,1537,1537,1527,1547,0,0,0,0,0,0,0,0,0,0
1681124935.20041013,55628573,1532,1531,1525,1538,0,0,0,0,0,0,0,0,0,0
1681124935.30037022,55728533,1528,1527,1525,1529,0,0,0,0,0,0,0,0,0,0
1681124935.40033031,55828493,1525,1525,1526,1524,0,0,0,0,0,0,0,0,0,0
1681124935.50029016,55928453,1526,1526,1528,1524,0,0,0,0,0,0,0,0,0,0
1681124935.60025024,56028413,1529,1528,1531,1526,0,0,0,0,0,0,0,0,0,0
1681124935.70021009,56128373,1532,1532,1535,1530,0,0,0,0,0,0,0,0,0,0
1681124935.80017018,56228333,1535,1536,1538,1534,0,0,0,0,0,0,0,0,0,0
1681124935.90013027,56328293,1540,1540,1542,1539,0,0,0,0,0,0,0,0,0,0
1681124936.00009012,56428253,1543,1543,1544,1543,0,0,0,0,0,0,0,0,0,0
1681124936.10005021,56528213,1546,1546,1546,1546,0,0,0,0,0,0,0,0,0,0
1681124936.20001030,56628173,1549,1549,1549,1550,0,0,0,0,0,0,0,0,0,0
1681124936.30080318,56728966,1552,1552,1552,1553,0,0,0,0,0,0,0,0,0,0
1681124936.40076327,56828926,1555,1555,1554,1556,0,0,0,0,0,0,0,0,0,0
1681124936.50072312,56928886,1556,1555,1556,1559,0,0,0,0,0,0,0,0,0,0
1681124936.60068321,57028846,1557,1557,1560,1562,0,0,0,0,0,0,0,0,0,0
1681124936.70064330,57128806,1559,1559,1563,1563,0,0,0,0,0,0,0,0,0,0
1681124936.80060315,57228766,1560,1560,1565,1564,0,0,0,0,0,0,0,0,0,0
1681124936.90056324,57328726,1562,1563,1567,1566,0,0,0,0,0,0,0,0,0,0
1681124937.00052309,57428686,1564,1565,1567,1567,0,0,0,0,0,0,0,0,0,0
1681124937.10048318,57528646,1566,1567,1567,1567,0,0,0,0,0,0,0,0,0,0
1681124937.20044327,57628606,1568,1568,1568,1567,0,0,0,0,0,0,0,0,0,0
1681124937.30040312,57728566,1570,1570,1568,1568,0,0,0,0,0,0,0,0,0,0
1681124937.40036321,57828526,1572,1571,1569,1568,0,0,0,0,0,0,0,0,0,0
1681124937.50032330,57928486,1572,1572,1569,1569,0,0,0,0,0,0,0,0,0,0
1681124937.60028315,58028446,1574,1574,1570,1571,0,0,0,0,0,0,0,0,0,0
1681124937.70024323,58128406,1574,1574,1571,1571,0,0,0,0,0,0,0,0,0,0
1681124937.80020308,58228366,1574,1575,1572,1572,0,0,0,0,0,0,0,0,0,0
1681124937.90016317,58328326,1575,1575,1573,1572,0,0,0,0,0,0,0,0,0,0
1681124938.00012326,58428286,1575,1575,1575,1574,0,0,0,0,0,0,0,0,0,0
1681124938.10008311,58528246,1575,1575,1575,1574,0,0,0,0,0,0,0,0,0,0
1681124938.20004320,58628206,1576,1576,1576,1575,0,0,0,0,0,0,0,0,0,0
1681124938.30000329,58728166,1575,1576,1576,1576,0,0,0,0,0,0,0,0,0,0
1681124938.40079618,58828959,1576,1576,1577,1576,0,0,0,0,0,0,0,0,0,0
1681124938.50075626,58928919,1576,1576,1577,1577,0,0,0,0,0,0,0,0,0,0
1681124938.60071611,59028879,1576,1576,1577,1578,0,0,0,0,0,0,0,0,0,0
1681124938.70067620,59128839,1577,1577,1577,1578,0,0,0,0,0,0,0,0,0,0
1681124938.80063629,59228799,1576,1577,1578,1578,0,0,0,0,0,0,0,0,0,0
1681124938.90059614,59328759,1577,1578,1578,1578,0,0,0,0,0,0,0,0,0,0
1681124939.00055623,59428719,1578,1578,1578,1578,0,0,0,0,0,0,0,0,0,0
1681124939.10051608,59528679,1578,1578,1578,1578,0,0,0,0,0,0,0,0,0,0
1681124939.20047617,59628639,1579,1579,1579,1578,0,0,0,0,0,0,0,0,0,0
1681124939.30043626,59728599,1579,1579,1579,1579,0,0,0,0,0,0,0,0,0,0
1681124939.40039611,59828559,1578,1578,1577,1578,0,0,0,0,0,0,0,0,0,0
1681124939.50035620,59928519,1578,1578,1577,1577,0,0,0,0,0,0,0,0,0,0
1681124939.60031629,60028479,1577,1577,1576,1577,0,0,0,0,0,0,0,0,0,0
1681124939.70027614,60128439,1578,1578,1578,1578,0,0,0,0,0,0,0,0,0,0
1681124939.80023623,60228399,1578,1579,1578,1578,0,0,0,0,0,0,0,0,0,0
1681124939.90019608,60328359,1578,1578,1578,1578,0,0,0,0,0,0,0,0,0,0
1681124940.00015616,60428319,1579,1579,1580,1579,0,0,0,0,0,0,0,0,0,0
1681124940.10011625,60528279,1579,1579,1579,1579,0,0,0,0,0,0,0,0,0,0
1681124940.20007610,60628239,1578,1578,1578,1578,0,0,0,0,0,0,0,0,0,0
1681124940.30003619,60728199,1578,1578,1579,1578,0,0,0,0,0,0,0,0,0,0
1681124940.39999628,60828159,1579,1579,1579,1580,0,0,0,0,0,0,0,0,0,0
1681124940.50078917,60928952,1579,1579,1579,1579,0,0,0,0,0,0,0,0,0,0
1681124940.60074925,61028912,1579,1579,1579,1579,0,0,0,0,0,0,0,0,0,0
1681124940.70070910,61128872,1579,1579,1579,1579,0,0,0,0,0,0,0,0,0,0
1681124940.80066919,61228832,1579,1579,1579,1579,0,0,0,0,0,0,0,0,0,0
1681124940.90062928,61328792,1579,1579,1579,1579,0,0,0,0,0,0,0,0,0,0
1681124941.00058913,61428752,1580,1580,1580,1580,0,0,0,0,0,0,0,0,0,0
1681124941.10054922,61528712,1580,1580,1580,1580,0,0,0,0,0,0,0,0,0,0
1681124941.20050907,61628672,1580,1580,1580,1580,0,0,0,0,0,0,0,0,0,0
1681124941.30046916,61728632,1580,1581,1581,1580,0,0,0,0,0,0,0,0,0,0
1681124941.40042925,61828592,1582,1582,1582,1581,0,0,0,0,0,0,0,0,0,0
1681124941.50038910,61928552,1581,1580,1580,1581,0,0,0,0,0,0,0,0,0,0
1681124941.60034919,62028512,1580,1580,1580,1580,0,0,0,0,0,0,0,0,0,0
1681124941.70030928,62128472,1581,1580,1580,1581,0,0,0,0,0,0,0,0,0,0
1681124941.80026913,62228432,1582,1581,1581,1581,0,0,0,0,0,0,0,0,0,0
1681124941.90022922,62328392,1581,1581,1581,1581,0,0,0,0,0,0,0,0,0,0
1681124942.00018930,62428352,1581,1581,1581,1582,0,0,0,0,0,0,0,0,0,0
1681124942.10014915,62528312,1581,1582,1581,1582,0,0,0,0,0,0,0,0,0,0
1681124942.20010924,62628272,1582,1582,1582,1582,0,0,0,0,0,0,0,0,0,0
1681124942.30006909,62728232,1581,1582,1582,1582,0,0,0,0,0,0,0,0,0,0
1681124942.40002918,62828192,1582,1582,1582,1582,0,0,0,0,0,0,0,0,0,0
1681124942.50082231,62928985,1581,1581,1581,1581,0,0,0,0,0,0,0,0,0,0
1681124942.60078216,63028945,1581,1580,1581,1580,0,0,0,0,0,0,0,0,0,0
1681124942.70074224,63128905,1580,1581,1588,1573,0,0,0,0,0,0,0,0,0,0
1681124942.80070210,63228865,1579,1581,1584,1572,0,0,0,0,0,0,0,0,0,0
1681124942.90066218,63328825,1578,1581,1575,1573,0,0,0,0,0,0,0,0,0,0
1681124943.00062227,63428785,1576,1579,1566,1571,0,0,0,0,0,0,0,0,0,0
1681124943.10058212,63528745,1576,1578,1560,1567,0,0,0,0,0,0,0,0,0,0
1681124943.20054221,63628705,1577,1577,1556,1562,0,0,0,0,0,0,0,0,0,0
1681124943.30050230,63728665,1579,1577,1555,1559,0,0,0,0,0,0,0,0,0,0
1681124943.40046215,63828625,1579,1577,1555,1556,0,0,0,0,0,0,0,0,0,0
1681124943.50042224,63928585,1579,1578,1556,1554,0,0,0,0,0,0,0,0,0,0
1681124943.60038209,64028545,1578,1578,1556,1554,0,0,0,0,0,0,0,0,0,0
1681124943.70034218,64128505,1577,1578,1556,1554,0,0,0,0,0,0,0,0,0,0
1681124943.80030227,64228465,1576,1577,1555,1554,0,0,0,0,0,0,0,0,0,0
1681124943.90026212,64328425,1576,1577,1556,1555,0,0,0,0,0,0,0,0,0,0
1681124944.00022221,64428385,1575,1577,1554,1554,0,0,0,0,0,0,0,0,0,0
1681124944.10018229,64528345,1576,1577,1552,1552,0,0,0,0,0,0,0,0,0,0
1681124944.20014215,64628305,1577,1578,1551,1550,0,0,0,0,0,0,0,0,0,0
1681124944.30010223,64728265,1578,1579,1548,1548,0,0,0,0,0,0,0,0,0,0
1681124944.40006208,64828225,1580,1582,1545,1545,0,0,0,0,0,0,0,0,0,0
1681124944.50002217,64928185,1583,1584,1542,1542,0,0,0,0,0,0,0,0,0,0
1681124944.60081530,65028978,1586,1587,1539,1539,0,0,0,0,0,0,0,0,0,0
1681124944.70077515,65128938,1591,1590,1537,1537,0,0,0,0,0,0,0,0,0,0
1681124944.80073524,65228898,1594,1593,1536,1535,0,0,0,0,0,0,0,0,0,0
1681124944.90069509,65328858,1595,1595,1534,1536,0,0,0,0,0,0,0,0,0,0
1681124945.00065517,65428818,1595,1595,1535,1536,0,0,0,0,0,0,0,0,0,0
1681124945.10061526,65528778,1595,1595,1536,1538,0,0,0,0,0,0,0,0,0,0
1681124945.20057511,65628738,1593,1593,1539,1542,0,0,0,0,0,0,0,0,0,0
1681124945.30053520,65728698,1589,1588,1545,1548,0,0,0,0,0,0,0,0,0,0
1681124945.40049529,65828658,1583,1580,1552,1555,0,0,0,0,0,0,0,0,0,0
1681124945.50045514,65928618,1575,1572,1563,1565,0,0,0,0,0,0,0,0,0,0
1681124945.60041523,66028578,1564,1560,1574,1576,0,0,0,0,0,0,0,0,0,0
1681124945.70037508,66128538,1553,1549,1586,1587,0,0,0,0,0,0,0,0,0,0
1681124945.80033517,66228498,1542,1540,1598,1598,0,0,0,0,0,0,0,0,0,0
1681124945.90029526,66328458,1535,1534,1608,1607,0,0,0,0,0,0,0,0,0,0
1681124946.00025511,66428418,1529,1530,1613,1612,0,0,0,0,0,0,0,0,0,0
1681124946.10021520,66528378,1529,1530,1616,1614,0,0,0,0,0,0,0,0,0,0
1681124946.20017529,66628338,1531,1534,1614,1613,0,0,0,0,0,0,0,0,0,0
1681124946.30013514,66728298,1536,1538,1608,1609,0,0,0,0,0,0,0,0,0,0
1681124946.40009522,66828258,1544,1546,1602,1603,0,0,0,0,0,0,0,0,0,0
1681124946.50005507,66928218,1553,1553,1595,1595,0,0,0,0,0,0,0,0,0,0
1681124946.60001516,67028178,1562,1562,1588,1588,0,0,0,0,0,0,0,0,0,0
1681124946.70080829,67128971,1570,1570,1582,1580,0,0,0,0,0,0,0,0,0,0
1681124946.80076814,67228931,1578,1578,1576,1575,0,0,0,0,0,0,0,0,0,0
1681124946.90072823,67328891,1582,1581,1570,1569,0,0,0,0,0,0,0,0,0,0
1681124947.00068808,67428851,1586,1584,1567,1567,0,0,0,0,0,0,0,0,0,0
1681124947.10064816,67528811,1588,1586,1566,1566,0,0,0,0,0,0,0,0,0,0
1681124947.20060825,67628771,1587,1586,1566,1567,0,0,0,0,0,0,0,0,0,0
1681124947.30056810,67728731,1585,1584,1567,1568,0,0,0,0,0,0,0,0,0,0
1681124947.40052819,67828691,1583,1583,1570,1570,0,0,0,0,0,0,0,0,0,0
1681124947.50048828,67928651,1581,1581,1574,1574,0,0,0,0,0,0,0,0,0,0
1681124947.60044813,68028611,1578,1579,1578,1576,0,0,0,0,0,0,0,0,0,0
1681124947.70040822,68128571,1576,1576,1580,1580,0,0,0,0,0,0,0,0,0,0
1681124947.80036807,68228531,1573,1574,1581,1581,0,0,0,0,0,0,0,0,0,0
1681124947.90032816,68328491,1572,1573,1582,1583,0,0,0,0,0,0,0,0,0,0
1681124948.00028825,68428451,1572,1573,1584,1584,0,0,0,0,0,0,0,0,0,0
1681124948.10024810,68528411,1572,1573,1584,1584,0,0,0,0,0,0,0,0,0,0
1681124948.20020819,68628371,1574,1574,1584,1583,0,0,0,0,0,0,0,0,0,0
1681124948.30016828,68728331,1575,1575,1583,1582,0,0,0,0,0,0,0,0,0,0
1681124948.40012813,68828291,1577,1577,1582,1582,0,0,0,0,0,0,0,0,0,0
1681124948.50008821,68928251,1578,1578,1581,1581,0,0,0,0,0,0,0,0,0,0
1681124948.60004830,69028211,1579,1579,1579,1579,0,0,0,0,0,0,0,0,0,0
1681124948.70000815,69128171,1580,1579,1577,1578,0,0,0,0,0,0,0,0,0,0
1681124948.80080128,69228964,1581,1580,1577,1577,0,0,0,0,0,0,0,0,0,0
1681124948.90076113,69328924,1582,1582,1578,1577,0,0,0,0,0,0,0,0,0,0
1681124949.00072122,69428884,1581,1581,1577,1577,0,0,0,0,0,0,0,0,0,0
1681124949.10068130,69528844,1582,1581,1578,1578,0,0,0,0,0,0,0,0,0,0
1681124949.20064116,69628804,1581,1581,1577,1577,0,0,0,0,0,0,0,0,0,0
1681124949.30060124,69728764,1580,1580,1577,1577,0,0,0,0,0,0,0,0,0,0
1681124949.40056109,69828724,1580,1580,1578,1579,0,0,0,0,0,0,0,0,0,0
1681124949.50052118,69928684,1580,1580,1580,1580,0,0,0,0,0,0,0,0,0,0
1681124949.60048127,70028644,1580,1580,1580,1580,0,0,0,0,0,0,0,0,0,0
1681124949.70044112,70128604,1581,1581,1406,1558,0,0,0,0,0,0,0,0,0,0
1681124949.80040121,70228564,1609,1609,1507,1534,0,0,0,0,0,0,0,0,0,0
1681124949.90036130,70328524,1628,1628,1579,1545,0,0,0,0,0,0,0,0,0,0
1681124950.00032115,70428484,1646,1649,1638,1578,0,0,0,0,0,0,0,0,0,0
1681124950.10028124,70528444,1653,1659,1674,1612,0,0,0,0,0,0,0,0,0,0
1681124950.20024109,70628404,1643,1651,1681,1636,0,0,0,0,0,0,0,0,0,0
1681124950.30020118,70728364,1618,1624,1661,1645,0,0,0,0,0,0,0,0,0,0
1681124950.40016127,70828324,1590,1591,1631,1643,0,0,0,0,0,0,0,0,0,0
1681124950.50012112,70928284,1570,1565,1606,1637,0,0,0,0,0,0,0,0,0,0
1681124950.60008121,71028244,1561,1551,1593,1627,0,0,0,0,0,0,0,0,0,0
1681124950.70004129,71128204,1556,1546,1593,1607,0,0,0,0,0,0,0,0,0,0
1681124950.80000114,71228164,1556,1553,1592,1589,0,0,0,0,0,0,0,0,0,0
1681124950.90079427,71328957,1558,1561,1585,1578,0,0,0,0,0,0,0,0,0,0
1681124951.00075412,71428917,1561,1568,1576,1571,0,0,0,0,0,0,0,0,0,0
1681124951.10071421,71528877,1565,1573,1567,1566,0,0,0,0,0,0,0,0,0,0
1681124951.20067430,71628837,1568,1574,1556,1558,0,0,0,0,0,0,0,0,0,0
1681124951.30063415,71728797,1573,1575,1549,1554,0,0,0,0,0,0,0,0,0,0
1681124951.40059423,71828757,1577,1577,1544,1548,0,0,0,0,0,0,0,0,0,0
1681124951.50055408,71928717,1582,1579,1541,1544,0,0,0,0,0,0,0,0,0,0
1681124951.60051417,72028677,1583,1581,1538,1538,0,0,0,0,0,0,0,0,0,0
1681124951.70047426,72128637,1585,1584,1535,1535,0,0,0,0,0,0,0,0,0,0
1681124951.80043411,72228597,1586,1586,1534,1532,0,0,0,0,0,0,0,0,0,0
1681124951.90039420,72328557,1586,1588,1534,1533,0,0,0,0,0,0,0,0,0,0
1681124952.00035429,72428517,1587,1589,1535,1534,0,0,0,0,0,0,0,0,0,0
1681124952.10031414,72528477,1584,1586,1534,1534,0,0,0,0,0,0,0,0,0,0
1681124952.20027423,72628437,1584,1586,1536,1536,0,0,0,0,0,0,0,0,0,0
1681124952.30023408,72728397,1584,1584,1537,1539,0,0,0,0,0,0,0,0,0,0
1681124952.40019417,72828357,1584,1584,1539,1540,0,0,0,0,0,0,0,0,0,0
1681124952.50015426,72928317,1584,1584,1542,1543,0,0,0,0,0,0,0,0,0,0
1681124952.60011411,73028277,1584,1583,1544,1545,0,0,0,0,0,0,0,0,0,0
1681124952.70007420,73128237,1583,1582,1547,1547,0,0,0,0,0,0,0,0,0,0
1681124952.80003428,73228197,1582,1582,1548,1549,0,0,0,0,0,0,0,0,0,0
1681124952.89999413,73328157,1582,1582,1551,1553,0,0,0,0,0,0,0,0,0,0
1681124953.00078726,73428950,1581,1580,1554,1557,0,0,0,0,0,0,0,0,0,0
1681124953.10074711,73528910,1578,1576,1558,1561,0,0,0,0,0,0,0,0,0,0
1681124953.20070720,73628870,1572,1570,1563,1566,0,0,0,0,0,0,0,0,0,0
1681124953.30066729,73728830,1568,1565,1571,1573,0,0,0,0,0,0,0,0,0,0
1681124953.40062714,73828790,1562,1558,1579,1579,0,0,0,0,0,0,0,0,0,0
1681124953.50058722,73928750,1556,1554,1586,1586,0,0,0,0,0,0,0,0,0,0
1681124953.60054708,74028710,1550,1549,1591,1590,0,0,0,0,0,0,0,0,0,0
1681124953.70050716,74128670,1547,1547,1596,1594,0,0,0,0,0,0,0,0,0,0
1681124953.80046725,74228630,1546,1547,1599,1597,0,0,0,0,0,0,0,0,0,0
1681124953.90042710,74328590,1547,1548,1600,1599,0,0,0,0,0,0,0,0,0,0
1681124954.00038719,74428550,1549,1549,1600,1599,0,0,0,0,0,0,0,0,0,0
1681124954.10034728,74528510,1549,1550,1597,1597,0,0,0,0,0,0,0,0,0,0
1681124954.20030713,74628470,1554,1554,1596,1596,0,0,0,0,0,0,0,0,0,0
1681124954.30026722,74728430,1556,1556,1593,1592,0,0,0,0,0,0,0,0,0,0
1681124954.40022707,74828390,1559,1560,1590,1589,0,0,0,0,0,0,0,0,0,0
1681124954.50018716,74928350,1563,1563,1587,1587,0,0,0,0,0,0,0,0,0,0
1681124954.60014725,75028310,1568,1568,1585,1585,0,0,0,0,0,0,0,0,0,0
1681124954.70010710,75128270,1571,1571,1582,1582,0,0,0,0,0,0,0,0,0,0
1681124954.80006719,75228230,1573,1573,1577,1578,0,0,0,0,0,0,0,0,0,0
1681124954.90002728,75328190,1576,1575,1574,1575,0,0,0,0,0,0,0,0,0,0
1681124955.00082016,75428983,1578,1577,1572,1572,0,0,0,0,0,0,0,0,0,0
1681124955.10078025,75528943,1580,1580,1570,1571,0,0,0,0,0,0,0,0,0,0
1681124955.20074010,75628903,1582,1582,1570,1570,0,0,0,0,0,0,0,0,0,0
1681124955.30070019,75728863,1582,1582,1568,1569,0,0,0,0,0,0,0,0,0,0
1681124955.40066028,75828823,1583,1582,1570,1570,0,0,0,0,0,0,0,0,0,0
1681124955.50062013,75928783,1582,1582,1571,1571,0,0,0,0,0,0,0,0,0,0
1681124955.60058022,76028743,1580,1580,1572,1573,0,0,0,0,0,0,0,0,0,0
1681124955.70054030,76128703,1578,1579,1574,1574,0,0,0,0,0,0,0,0,0,0
1681124955.80050015,76228663,1578,1578,1577,1576,0,0,0,0,0,0,0,0,0,0
1681124955.90046024,76328623,1576,1576,1578,1578,0,0,0,0,0,0,0,0,0,0
1681124956.00042009,76428583,1576,1576,1580,1580,0,0,0,0,0,0,0,0,0,0
1681124956.10038018,76528543,1575,1575,1581,1581,0,0,0,0,0,0,0,0,0,0
1681124956.20034027,76628503,1575,1575,1582,1582,0,0,0,0,0,0,0,0,0,0
1681124956.30030012,76728463,1574,1575,1582,1582,0,0,0,0,0,0,0,0,0,0
1681124956.40026021,76828423,1576,1576,1583,1582,0,0,0,0,0,0,0,0,0,0
1681124956.50022030,76928383,1577,1577,1582,1582,0,0,0,0,0,0,0,0,0,0
1681124956.60018015,77028343,1578,1577,1581,1581,0,0,0,0,0,0,0,0,0,0
1681124956.70014024,77128303,1578,1578,1580,1580,0,0,0,0,0,0,0,0,0,0
1681124956.80010009,77228263,1579,1578,1579,1580,0,0,0,0,0,0,0,0,0,0
1681124956.90006018,77328223,1579,1579,1578,1578,0,0,0,0,0,0,0,0,0,0
1681124957.00002027,77428183,1581,1581,1579,1579,0,0,0,0,0,0,0,0,0,0
1681124957.10081315,77528976,1580,1580,1577,1578,0,0,0,0,0,0,0,0,0,0
1681124957.20077324,77628936,1581,1581,1578,1578,0,0,0,0,0,0,0,0,0,0
1681124957.30073309,77728896,1580,1580,1578,1578,0,0,0,0,0,0,0,0,0,0
1681124957.40069318,77828856,1581,1581,1579,1578,0,0,0,0,0,0,0,0,0,0
1681124957.50065327,77928816,1580,1580,1579,1578,0,0,0,0,0,0,0,0,0,0
1681124957.60061312,78028776,1581,1580,1579,1579,0,0,0,0,0,0,0,0,0,0
1681124957.70057321,78128736,1581,1581,1580,1580,0,0,0,0,0,0,0,0,0,0
1681124957.80053329,78228696,1579,1580,1580,1580,0,0,0,0,0,0,0,0,0,0
1681124957.90049314,78328656,1580,1581,1581,1581,0,0,0,0,0,0,0,0,0,0
1681124958.00045323,78428616,1579,1579,1580,1580,0,0,0,0,0,0,0,0,0,0
1681124958.10041308,78528576,1580,1580,1581,1581,0,0,0,0,0,0,0,0,0,0
1681124958.20037317,78628536,1580,1580,1582,1581,0,0,0,0,0,0,0,0,0,0
1681124958.30033326,78728496,1580,1580,1581,1581,0,0,0,0,0,0,0,0,0,0
1681124958.40029311,78828456,1580,1580,1581,1582,0,0,0,0,0,0,0,0,0,0
1681124958.50025320,78928416,1580,1580,1581,1581,0,0,0,0,0,0,0,0,0,0
1681124958.60021329,79028376,1581,1580,1581,1581,0,0,0,0,0,0,0,0,0,0
1681124958.70017314,79128336,1582,1582,1582,1582,0,0,0,0,0,0,0,0,0,0
1681124958.80013323,79228296,1581,1581,1582,1579,0,0,0,0,0,0,0,0,0,0
1681124958.90009308,79328256,1581,1583,1588,1573,0,0,0,0,0,0,0,0,0,0
1681124959.00005317,79428216,1579,1583,1583,1573,0,0,0,0,0,0,0,0,0,0
1681124959.10001326,79528176,1577,1581,1576,1573,0,0,0,0,0,0,0,0,0,0
1681124959.20080614,79628969,1576,1579,1568,1572,0,0,0,0,0,0,0,0,0,0
1681124959.30076623,79728929,1575,1577,1561,1568,0,0,0,0,0,0,0,0,0,0
1681124959.40072608,79828889,1577,1576,1556,1563,0,0,0,0,0,0,0,0,0,0
1681124959.50068617,79928849,1578,1575,1553,1558,0,0,0,0,0,0,0,0,0,0
1681124959.60064626,80028809,1579,1576,1553,1554,0,0,0,0,0,0,0,0,0,0
1681124959.70060611,80128769,1579,1577,1554,1553,0,0,0,0,0,0,0,0,0,0
1681124959.80056620,80228729,1578,1578,1555,1552,0,0,0,0,0,0,0,0,0,0
1681124959.90052629,80328689,1577,1578,1554,1552,0,0,0,0,0,0,0,0,0,0
1681124960.00048614,80428649,1576,1578,1554,1552,0,0,0,0,0,0,0,0,0,0
1681124960.10044622,80528609,1575,1576,1553,1552,0,0,0,0,0,0,0,0,0,0
1681124960.20040607,80628569,1575,1576,1552,1552,0,0,0,0,0,0,0,0,0,0
1681124960.30036616,80728529,1576,1577,1552,1552,0,0,0,0,0,0,0,0,0,0
1681124960.40032625,80828489,1577,1578,1550,1550,0,0,0,0,0,0,0,0,0,0
1681124960.50028610,80928449,1579,1580,1549,1549,0,0,0,0,0,0,0,0,0,0
1681124960.60024619,81028409,1581,1582,1547,1546,0,0,0,0,0,0,0,0,0,0
1681124960.70020628,81128369,1583,1584,1545,1544,0,0,0,0,0,0,0,0,0,0
1681124960.80016613,81228329,1586,1587,1542,1542,0,0,0,0,0,0,0,0,0,0
1681124960.90012622,81328289,1589,1589,1540,1540,0,0,0,0,0,0,0,0,0,0
1681124961.00008607,81428249,1591,1591,1538,1538,0,0,0,0,0,0,0,0,0,0
1681124961.10004616,81528209,1594,1594,1537,1539,0,0,0,0,0,0,0,0,0,0
1681124961.20000625,81628169,1594,1595,1535,1538,0,0,0,0,0,0,0,0,0,0
1681124961.30079913,81728962,1594,1593,1536,1538,0,0,0,0,0,0,0,0,0,0
1681124961.40075922,81828922,1593,1592,1540,1543,0,0,0,0,0,0,0,0,0,0
1681124961.50071907,81928882,1590,1587,1545,1549,0,0,0,0,0,0,0,0,0,0
1681124961.60067916,82028842,1583,1580,1553,1556,0,0,0,0,0,0,0,0,0,0
1681124961.70063925,82128802,1576,1572,1564,1567,0,0,0,0,0,0,0,0,0,0
1681124961.80059910,82228762,1565,1562,1577,1578,0,0,0,0,0,0,0,0,0,0
1681124961.90055919,82328722,1553,1551,1588,1588,0,0,0,0,0,0,0,0,0,0
1681124962.00051928,82428682,1545,1544,1601,1600,0,0,0,0,0,0,0,0,0,0
1681124962.10047913,82528642,1538,1538,1609,1607,0,0,0,0,0,0,0,0,0,0
1681124962.20043921,82628602,1536,1536,1614,1611,0,0,0,0,0,0,0,0,0,0
1681124962.30039930,82728562,1536,1538,1615,1612,0,0,0,0,0,0,0,0,0,0
1681124962.40035915,82828522,1539,1541,1613,1612,0,0,0,0,0,0,0,0,0,0
1681124962.50031924,82928482,1544,1546,1610,1609,0,0,0,0,0,0,0,0,0,0
1681124962.60027909,83028442,1549,1549,1604,1604,0,0,0,0,0,0,0,0,0,0
1681124962.70023918,83128402,1554,1555,1599,1599,0,0,0,0,0,0,0,0,0,0
1681124962.80019927,83228362,1560,1560,1593,1593,0,0,0,0,0,0,0,0,0,0
1681124962.90015912,83328322,1566,1566,1587,1587,0,0,0,0,0,0,0,0,0,0
1681124963.00011921,83428282,1573,1572,1581,1581,0,0,0,0,0,0,0,0,0,0
1681124963.10007930,83528242,1578,1577,1575,1575,0,0,0,0,0,0,0,0,0,0
1681124963.20003915,83628202,1583,1582,1570,1571,0,0,0,0,0,0,0,0,0,0
1681124963.29999924,83728162,1586,1585,1567,1568,0,0,0,0,0,0,0,0,0,0
1681124963.40079212,83828955,1587,1586,1565,1566,0,0,0,0,0,0,0,0,0,0
1681124963.50075221,83928915,1586,1585,1565,1565,0,0,0,0,0,0,0,0,0,0
1681124963.60071230,84028875,1586,1586,1567,1569,0,0,0,0,0,0,0,0,0,0
1681124963.70067215,84128835,1583,1583,1569,1570,0,0,0,0,0,0,0,0,0,0
1681124963.80063224,84228795,1581,1581,1572,1572,0,0,0,0,0,0,0,0,0,0
1681124963.90059209,84328755,1578,1577,1575,1575,0,0,0,0,0,0,0,0,0,0
1681124964.00055218,84428715,1576,1576,1578,1578,0,0,0,0,0,0,0,0,0,0
1681124964.10051227,84528675,1574,1575,1581,1580,0,0,0,0,0,0,0,0,0,0
1681124964.20047212,84628635,1572,1573,1582,1581,0,0,0,0,0,0,0,0,0,0
1681124964.30043221,84728595,1573,1574,1584,1583,0,0,0,0,0,0,0,0,0,0
1681124964.40039229,84828555,1574,1575,1586,1585,0,0,0,0,0,0,0,0,0,0
1681124964.50035214,84928515,1574,1574,1585,1585,0,0,0,0,0,0,0,0,0,0
1681124964.60031223,85028475,1575,1575,1584,1584,0,0,0,0,0,0,0,0,0,0
1681124964.70027208,85128435,1575,1575,1582,1582,0,0,0,0,0,0,0,0,0,0
1681124964.80023217,85228395,1576,1576,1580,1581,0,0,0,0,0,0,0,0,0,0
1681124964.90019226,85328355,1578,1578,1580,1580,0,0,0,0,0,0,0,0,0,0
1681124965.00015211,85428315,1579,1579,1578,1578,0,0,0,0,0,0,0,0,0,0
1681124965.10011220,85528275,1580,1580,1578,1578,0,0,0,0,0,0,0,0,0,0
1681124965.20007229,85628235,1581,1581,1578,1578,0,0,0,0,0,0,0,0,0,0
1681124965.30003214,85728195,1583,1582,1578,1578,0,0,0,0,0,0,0,0,0,0
1681124965.39999223,85828155,1582,1582,1577,1577,0,0,0,0,0,0,0,0,0,0
1681124965.50078511,85928948,1582,1582,1578,1578,0,0,0,0,0,0,0,0,0,0
1681124965.60074520,86028908,1581,1581,1577,1577,0,0,0,0,0,0,0,0,0,0
1681124965.70070529,86128868,1581,1582,1579,1579,0,0,0,0,0,0,0,0,0,0
1681124965.80066514,86228828,1580,1580,1579,1579,0,0,0,0,0,0,0,0,0,0
1681124965.90062523,86328788,1580,1579,1579,1579,0,0,0,0,0,0,0,0,0,0
1681124966.00058508,86428748,1580,1580,1581,1581,0,0,0,0,0,0,0,0,0,0
1681124966.10054517,86528708,1579,1580,1581,1581,0,0,0,0,0,0,0,0,0,0
1681124966.20050526,86628668,1580,1580,1582,1581,0,0,0,0,0,0,0,0,0,0
1681124966.30046511,86728628,1580,1580,1582,1582,0,0,0,0,0,0,0,0,0,0
1681124966.40042520,86828588,1579,1580,1582,1581,0,0,0,0,0,0,0,0,0,0
1681124966.50038528,86928548,1580,1579,1581,1581,0,0,0,0,0,0,0,0,0,0
1681124966.60034513,87028508,1581,1581,1582,1582,0,0,0,0,0,0,0,0,0,0
1681124966.70030522,87128468,1581,1581,1581,1582,0,0,0,0,0,0,0,0,0,0
1681124966.80026507,87228428,1580,1581,1585,1575,0,0,0,0,0,0,0,0,0,0
1681124966.90022516,87328388,1580,1581,1585,1572,0,0,0,0,0,0,0,0,0,0
1681124967.00018525,87428348,1578,1579,1581,1573,0,0,0,0,0,0,0,0,0,0
1681124967.10014510,87528308,1575,1575,1574,1575,0,0,0,0,0,0,0,0,0,0
1681124967.20010519,87628268,1572,1571,1569,1574,0,0,0,0,0,0,0,0,0,0
1681124967.30006528,87728228,1569,1568,1565,1572,0,0,0,0,0,0,0,0,0,0
1681124967.40002513,87828188,1568,1567,1564,1570,0,0,0,0,0,0,0,0,0,0
1681124967.50081825,87928981,1566,1566,1564,1567,0,0,0,0,0,0,0,0,0,0
1681124967.60077810,88028941,1565,1566,1565,1565,0,0,0,0,0,0,0,0,0,0
1681124967.70073819,88128901,1565,1565,1565,1563,0,0,0,0,0,0,0,0,0,0
1681124967.80069828,88228861,1564,1565,1565,1563,0,0,0,0,0,0,0,0,0,0
1681124967.90065813,88328821,1564,1564,1565,1563,0,0,0,0,0,0,0,0,0,0
1681124968.00061822,88428781,1563,1563,1564,1563,0,0,0,0,0,0,0,0,0,0
1681124968.10057807,88528741,1563,1562,1563,1563,0,0,0,0,0,0,0,0,0,0
1681124968.20053816,88628701,1562,1562,1563,1562,0,0,0,0,0,0,0,0,0,0
1681124968.30049825,88728661,1561,1561,1562,1562,0,0,0,0,0,0,0,0,0,0
1681124968.40045810,88828621,1562,1561,1562,1562,0,0,0,0,0,0,0,0,0,0
1681124968.50041819,88928581,1561,1561,1561,1561,0,0,0,0,0,0,0,0,0,0
1681124968.60037827,89028541,1561,1561,1562,1561,0,0,0,0,0,0,0,0,0,0
1681124968.70033813,89128501,1561,1560,1561,1560,0,0,0,0,0,0,0,0,0,0
1681124968.80029821,89228461,1560,1560,1560,1559,0,0,0,0,0,0,0,0,0,0
1681124968.90025830,89328421,1559,1560,1560,1559,0,0,0,0,0,0,0,0,0,0
1681124969.00021815,89428381,1558,1559,1559,1558,0,0,0,0,0,0,0,0,0,0
1681124969.10017824,89528341,1560,1559,1559,1559,0,0,0,0,0,0,0,0,0,0
1681124969.20013809,89628301,1558,1557,1558,1557,0,0,0,0,0,0,0,0,0,0
1681124969.30009818,89728261,1558,1558,1558,1557,0,0,0,0,0,0,0,0,0,0
1681124969.40005827,89828221,1558,1559,1559,1557,0,0,0,0,0,0,0,0,0,0
1681124969.50001812,89928181,1559,1559,1560,1557,0,0,0,0,0,0,0,0,0,0
1681124969.60081124,90028974,1558,1558,1559,1558,0,0,0,0,0,0,0,0,0,0
1681124969.70077109,90128934,1560,1560,1558,1562,0,0,0,0,0,0,0,0,0,0
1681124969.80073118,90228894,1560,1560,1558,1564,0,0,0,0,0,0,0,0,0,0
1681124969.90069127,90328854,1560,1560,1557,1564,0,0,0,0,0,0,0,0,0,0
1681124970.00065112,90428814,1561,1561,1558,1563,0,0,0,0,0,0,0,0,0,0
1681124970.10061121,90528774,1562,1561,1560,1563,0,0,0,0,0,0,0,0,0,0
1681124970.20057130,90628734,1562,1561,1562,1561,0,0,0,0,0,0,0,0,0,0
1681124970.30053115,90728694,1560,1560,1562,1558,0,0,0,0,0,0,0,0,0,0
1681124970.40049124,90828654,1560,1560,1560,1560,0,0,0,0,0,0,0,0,0,0
1681124970.50045109,90928614,1556,1556,1556,1558,0,0,0,0,0,0,0,0,0,0
1681124970.60041118,91028574,1551,1552,1551,1554,0,0,0,0,0,0,0,0,0,0
1681124970.70037127,91128534,1547,1547,1548,1549,0,0,0,0,0,0,0,0,0,0
1681124970.80033112,91228494,1540,1540,1542,1541,0,0,0,0,0,0,0,0,0,0
1681124970.90029120,91328454,1533,1533,1535,1535,0,0,0,0,0,0,0,0,0,0
1681124971.00025129,91428414,1526,1527,1528,1528,0,0,0,0,0,0,0,0,0,0
1681124971.10021114,91528374,1521,1521,1522,1522,0,0,0,0,0,0,0,0,0,0
1681124971.20017123,91628334,1519,1519,1520,1521,0,0,0,0,0,0,0,0,0,0
1681124971.30013108,91728294,1520,1520,1519,1521,0,0,0,0,0,0,0,0,0,0
1681124971.40009117,91828254,1522,1522,1520,1521,0,0,0,0,0,0,0,0,0,0
1681124971.50005126,91928214,1525,1525,1523,1524,0,0,0,0,0,0,0,0,0,0
1681124971.60001111,92028174,1529,1530,1527,1527,0,0,0,0,0,0,0,0,0,0
1681124971.70080423,92128967,1534,1534,1531,1531,0,0,0,0,0,0,0,0,0,0
1681124971.80076408,92228927,1539,1539,1536,1536,0,0,0,0,0,0,0,0,0,0
1681124971.90072417,92328887,1541,1541,1539,1538,0,0,0,0,0,0,0,0,0,0
1681124972.00068426,92428847,1543,1542,1542,1540,0,0,0,0,0,0,0,0,0,0
1681124972.10064411,92528807,1545,1544,1544,1543,0,0,0,0,0,0,0,0,0,0
1681124972.20060420,92628767,1545,1545,1545,1545,0,0,0,0,0,0,0,0,0,0
1681124972.30056429,92728727,1546,1546,1547,1547,0,0,0,0,0,0,0,0,0,0
1681124972.40052414,92828687,1546,1546,1547,1547,0,0,0,0,0,0,0,0,0,0
1681124972.50048423,92928647,1545,1544,1547,1546,0,0,0,0,0,0,0,0,0,0
1681124972.60044408,93028607,1545,1545,1547,1547,0,0,0,0,0,0,0,0,0,0
1681124972.70040417,93128567,1544,1544,1546,1546,0,0,0,0,0,0,0,0,0,0
1681124972.80036426,93228527,1544,1544,1546,1546,0,0,0,0,0,0,0,0,0,0
1681124972.90032411,93328487,1544,1543,1545,1545,0,0,0,0,0,0,0,0,0,0
1681124973.00028419,93428447,1544,1545,1545,1545,0,0,0,0,0,0,0,0,0,0
1681124973.10024428,93528407,1545,1545,1546,1546,0,0,0,0,0,0,0,0,0,0
1681124973.20020413,93628367,1545,1546,1545,1546,0,0,0,0,0,0,0,0,0,0
1681124973.30016422,93728327,1546,1546,1546,1545,0,0,0,0,0,0,0,0,0,0
1681124973.40012407,93828287,1546,1546,1545,1545,0,0,0,0,0,0,0,0,0,0
1681124973.50008416,93928247,1546,1546,1545,1545,0,0,0,0,0,0,0,0,0,0
1681124973.60004425,94028207,1545,1545,1544,1544,0,0,0,0,0,0,0,0,0,0
1681124973.70000410,94128167,1545,1544,1544,1544,0,0,0,0,0,0,0,0,0,0
1681124973.80079722,94228960,1544,1544,1543,1543,0,0,0,0,0,0,0,0,0,0
1681124973.90075707,94328920,1544,1544,1543,1544,0,0,0,0,0,0,0,0,0,0
1681124974.00071716,94428880,1544,1544,1544,1544,0,0,0,0,0,0,0,0,0,0
1681124974.10067725,94528840,1543,1544,1544,1543,0,0,0,0,0,0,0,0,0,0
1681124974.20063710,94628800,1543,1543,1543,1543,0,0,0,0,0,0,0,0,0,0
1681124974.30059719,94728760,1544,1544,1544,1545,0,0,0,0,0,0,0,0,0,0
1681124974.40055728,94828720,1543,1543,1543,1544,0,0,0,0,0,0,0,0,0,0
1681124974.50051713,94928680,1544,1543,1544,1544,0,0,0,0,0,0,0,0,0,0
1681124974.60047722,95028640,1544,1544,1544,1544,0,0,0,0,0,0,0,0,0,0
1681124974.70043707,95128600,1544,1544,1544,1544,0,0,0,0,0,0,0,0,0,0
1681124974.80039716,95228560,1543,1543,1544,1543,0,0,0,0,0,0,0,0,0,0
1681124974.90035725,95328520,1543,1543,1543,1543,0,0,0,0,0,0,0,0,0,0
1681124975.00031710,95428480,1543,1543,1543,1543,0,0,0,0,0,0,0,0,0,0
1681124975.10027719,95528440,1544,1543,1544,1543,0,0,0,0,0,0,0,0,0,0
1681124975.20023727,95628400,1544,1544,1544,1544,0,0,0,0,0,0,0,0,0,0
1681124975.30019712,95728360,1544,1545,1544,1545,0,0,0,0,0,0,0,0,0,0
1681124975.40015721,95828320,1545,1544,1545,1544,0,0,0,0,0,0,0,0,0,0
1681124975.50011730,95928280,1546,1545,1545,1545,0,0,0,0,0,0,0,0,0,0
1681124975.60007715,96028240,1545,1545,1545,1545,0,0,0,0,0,0,0,0,0,0
1681124975.70003724,96128200,1544,1544,1544,1544,0,0,0,0,0,0,0,0,0,0
1681124975.79999709,96228160,1545,1545,1545,1545,0,0,0,0,0,0,0,0,0,0
1681124975.90079021,96328953,1544,1545,1545,1545,0,0,0,0,0,0,0,0,0,0
1681124976.00075030,96428913,1544,1544,1545,1544,0,0,0,0,0,0,0,0,0,0
1681124976.10071015,96528873,1545,1544,1545,1545,0,0,0,0,0,0,0,0,0,0
1681124976.20067024,96628833,1545,1545,1545,1545,0,0,0,0,0,0,0,0,0,0
1681124976.30063009,96728793,1545,1545,1545,1545,0,0,0,0,0,0,0,0,0,0
1681124976.40059018,96828753,1545,1545,1545,1545,0,0,0,0,0,0,0,0,0,0
1681124976.50055027,96928713,1544,1545,1545,1545,0,0,0,0,0,0,0,0,0,0
1681124976.60051012,97028673,1544,1543,1544,1543,0,0,0,0,0,0,0,0,0,0
1681124976.70047021,97128633,1545,1544,1544,1545,0,0,0,0,0,0,0,0,0,0
1681124976.80043030,97228593,1543,1543,1544,1544,0,0,0,0,0,0,0,0,0,0
1681124976.90039015,97328553,1544,1544,1544,1545,0,0,0,0,0,0,0,0,0,0
1681124977.00035024,97428513,1544,1545,1544,1544,0,0,0,0,0,0,0,0,0,0
1681124977.10031009,97528473,1544,1544,1544,1543,0,0,0,0,0,0,0,0,0,0
1681124977.20027018,97628433,1544,1544,1544,1544,0,0,0,0,0,0,0,0,0,0
1681124977.30023026,97728393,1544,1544,1544,1544,0,0,0,0,0,0,0,0,0,0
1681124977.40019011,97828353,1544,1544,1544,1544,0,0,0,0,0,0,0,0,0,0
1681124977.50015020,97928313,1544,1544,1544,1544,0,0,0,0,0,0,0,0,0,0
1681124977.60011029,98028273,1545,1545,1545,1545,0,0,0,0,0,0,0,0,0,0
1681124977.70007014,98128233,1544,1543,1543,1544,0,0,0,0,0,0,0,0,0,0
1681124977.80003023,98228193,1544,1544,1544,1544,0,0,0,0,0,0,0,0,0,0
1681124977.90082312,98328986,1545,1545,1544,1545,0,0,0,0,0,0,0,0,0,0
1681124978.00078321,98428946,1545,1545,1545,1544,0,0,0,0,0,0,0,0,0,0
1681124978.10074329,98528906,1544,1544,1544,1544,0,0,0,0,0,0,0,0,0,0
1681124978.20070314,98628866,1545,1545,1545,1545,0,0,0,0,0,0,0,0,0,0
1681124978.30066323,98728826,1545,1545,1545,1545,0,0,0,0,0,0,0,0,0,0
1681124978.40062308,98828786,1544,1544,1544,1545,0,0,0,0,0,0,0,0,0,0
1681124978.50058317,98928746,1545,1545,1545,1545,0,0,0,0,0,0,0,0,0,0
1681124978.60054326,99028706,1544,1544,1544,1544,0,0,0,0,0,0,0,0,0,0
1681124978.70050311,99128666,1545,1545,1545,1545,0,0,0,0,0,0,0,0,0,0
1681124978.80046320,99228626,1544,1545,1545,1545,0,0,0,0,0,0,0,0,0,0
1681124978.90042329,99328586,1545,1545,1545,1545,0,0,0,0,0,0,0,0,0,0
1681124979.00038314,99428546,1545,1545,1545,1545,0,0,0,0,0,0,0,0,0,0
1681124979.10034323,99528506,1545,1544,1545,1545,0,0,0,0,0,0,0,0,0,0
1681124979.20030308,99628466,1544,1544,1544,1544,0,0,0,0,0,0,0,0,0,0
1681124979.30026317,99728426,1544,1543,1544,1543,0,0,0,0,0,0,0,0,0,0
1681124979.40022326,99828386,1544,1544,1544,1544,0,0,0,0,0,0,0,0,0,0
1681124979.50018311,99928346,1544,1544,1544,1544,0,0,0,0,0,0,0,0,0,0
1681124979.60014319,100028306,1544,1545,1544,1544,0,0,0,0,0,0,0,0,0,0
1681124979.70010328,100128266,1544,1544,1544,1544,0,0,0,0,0,0,0,0,0,0
1681124979.80006313,100228226,1545,1545,1545,1545,0,0,0,0,0,0,0,0,0,0
1681124979.90002322,100328186,1544,1544,1544,1544,0,0,0,0,0,0,0,0,0,0
1681124980.00081611,100428979,1544,1545,1545,1544,0,0,0,0,0,0,0,0,0,0
1681124980.10077620,100528939,1545,1545,1544,1545,0,0,0,0,0,0,0,0,0,0
1681124980.20073628,100628899,1545,1545,1545,1545,0,0,0,0,0,0,0,0,0,0
1681124980.30069613,100728859,1544,1544,1544,1544,0,0,0,0,0,0,0,0,0,0
1681124980.40065622,100828819,1545,1545,1545,1545,0,0,0,0,0,0,0,0,0,0
1681124980.50061607,100928779,1544,1543,1544,1543,0,0,0,0,0,0,0,0,0,0
1681124980.60057616,101028739,1544,1544,1544,1544,0,0,0,0,0,0,0,0,0,0
1681124980.70053625,101128699,1544,1544,1544,1544,0,0,0,0,0,0,0,0,0,0
1681124980.80049610,101228659,1544,1542,1543,1543,0,0,0,0,0,0,0,0,0,0
1681124980.90045619,101328619,1365,1362,1407,1364,0,0,0,0,0,0,0,0,0,0
1681124981.00041628,101428579,1255,1250,1331,1253,0,0,0,0,0,0,0,0,0,0
1681124981.10037613,101528539,1220,1214,1309,1218,0,0,0,0,0,0,0,0,0,0
1681124981.20033622,101628499,1200,1196,1297,1199,0,0,0,0,0,0,0,0,0,0
1681124981.30029607,101728459,1156,1150,1271,1154,0,0,0,0,0,0,0,0,0,0
1681124981.40025616,101828419,1154,1150,1238,1152,0,0,0,0,0,0,0,0,0,0
1681124981.50021625,101928379,1155,1150,1237,1153,0,0,0,0,0,0,0,0,0,0
1681124981.60017610,102028339,1154,1150,1238,1152,0,0,0,0,0,0,0,0,0,0
1681124981.70013618,102128299,1176,1150,1210,1177,0,0,0,0,0,0,0,0,0,0
1681124981.80009627,102228259,1170,1150,1217,1171,0,0,0,0,0,0,0,0,0,0
1681124981.90005612,102328219,1165,1150,1223,1166,0,0,0,0,0,0,0,0,0,0
1681124982.00001621,102428179,1164,1150,1224,1166,0,0,0,0,0,0,0,0,0,0
1681124982.10080910,102528972,1165,1150,1223,1167,0,0,0,0,0,0,0,0,0,0
1681124982.20076919,102628932,1165,1150,1223,1167,0,0,0,0,0,0,0,0,0,0
1681124982.30072927,102728892,1165,1150,1222,1168,0,0,0,0,0,0,0,0,0,0
1681124982.40068913,102828852,1165,1150,1222,1169,0,0,0,0,0,0,0,0,0,0
1681124982.50064921,102928812,1151,1150,1238,1156,0,0,0,0,0,0,0,0,0,0
1681124982.60060930,103028772,1153,1150,1235,1158,0,0,0,0,0,0,0,0,0,0
1681124982.70056915,103128732,1154,1150,1234,1159,0,0,0,0,0,0,0,0,0,0
1681124982.80052924,103228692,1154,1150,1234,1159,0,0,0,0,0,0,0,0,0,0
1681124982.90048909,103328652,1155,1150,1234,1159,0,0,0,0,0,0,0,0,0,0
1681124983.00044918,103428612,1000,1000,1000,1000,0,0,0,0,0,0,0,0,0,0
1681124983.10040927,103528572,1000,1000,1000,1000,0,0,0,0,0,0,0,0,0,0
1681124983.20036912,103628532,1000,1000,1000,1000,0,0,0,0,0,0,0,0,0,0
1681124983.30032921,103728492,1000,1000,1000,1000,0,0,0,0,0,0,0,0,0,0
1681124983.40028930,103828452,1000,1000,1000,1000,0,0,0,0,0,0,0,0,0,0
1681124983.50024915,103928412,1000,1000,1000,1000,0,0,0,0,0,0,0,0,0,0
1681124983.60020924,104028372,1000,1000,1000,1000,0,0,0,0,0,0,0,0,0,0
1681124983.70016909,104128332,1000,1000,1000,1000,0,0,0,0,0,0,0,0,0,0
1681124983.80012918,104228292,1000,1000,1000,1000,0,0,0,0,0,0,0,0,0,0
1681124983.90008926,104328252,1000,1000,1000,1000,0,0,0,0,0,0,0,0,0,0
1681124984.00004911,104428212,1000,1000,1000,1000,0,0,0,0,0,0,0,0,0,0
1681124984.10000920,104528172,1000,1000,1000,1000,0,0,0,0,0,0,0,0,0,0
1681124984.20080209,104628965,1000,1000,1000,1000,0,0,0,0,0,0,0,0,0,0
1681124984.30076218,104728925,1000,1000,1000,1000,0,0,0,0,0,0,0,0,0,0
1681124984.40072227,104828885,1000,1000,1000,1000,0,0,0,0,0,0,0,0,0,0
1681124984.50068212,104928845,1000,1000,1000,1000,0,0,0,0,0,0,0,0,0,0
1681124984.60064220,105028805,1000,1000,1000,1000,0,0,0,0,0,0,0,0,0,0
1681124984.70060229,105128765,1000,1000,1000,1000,0,0,0,0,0,0,0,0,0,0
1681124984.80056214,105228725,1000,1000,1000,1000,0,0,0,0,0,0,0,0,0,0
1681124984.90052223,105328685,1000,1000,1000,1000,0,0,0,0,0,0,0,0,0,0
1681124985.00048208,105428645,1000,1000,1000,1000,0,0,0,0,0,0,0,0,0,0
1681124985.10044217,105528605,1000,1000,1000,1000,0,0,0,0,0,0,0,0,0,0
1681124985.20040226,105628565,1000,1000,1000,1000,0,0,0,0,0,0,0,0,0,0
1681124985.30036211,105728525,1000,1000,1000,1000,0,0,0,0,0,0,0,0,0,0
1681124985.40032220,105828485,1000,1000,1000,1000,0,0,0,0,0,0,0,0,0,0
1681124985.50028229,105928445,1000,1000,1000,1000,0,0,0,0,0,0,0,0,0,0
1681124985.60024214,106028405,1000,1000,1000,1000,0,0,0,0,0,0,0,0,0,0
1681124985.70020223,106128365,1000,1000,1000,1000,0,0,0,0,0,0,0,0,0,0
1681124985.80016208,106228325,1000,1000,1000,1000,0,0,0,0,0,0,0,0,0,0
1681124985.90012217,106328285,1000,1000,1000,1000,0,0,0,0,0,0,0,0,0,0
1681124986.00008225,106428245,1000,1000,1000,1000,0,0,0,0,0,0,0,0,0,0
1681124986.10004210,106528205,1000,1000,1000,1000,0,0,0,0,0,0,0,0,0,0
1681124986.20000219,106628165,1000,1000,1000,1000,0,0,0,0,0,0,0,0,0,0
1681124986.30079508,106728958,1000,1000,1000,1000,0,0,0,0,0,0,0,0,0,0
1681124986.40075517,106828918,1000,1000,1000,1000,0,0,0,0,0,0,0,0,0,0
1681124986.50071526,106928878,1000,1000,1000,1000,0,0,0,0,0,0,0,0,0,0
1681124986.60067511,107028838,1000,1000,1000,1000,0,0,0,0,0,0,0,0,0,0
1681124986.70063519,107128798,1000,1000,1000,1000,0,0,0,0,0,0,0,0,0,0
1681124986.80059528,107228758,1000,1000,1000,1000,0,0,0,0,0,0,0,0,0,0
1681124986.90055513,107328718,1000,1000,1000,1000,0,0,0,0,0,0,0,0,0,0
1681124987.00051522,107428678,1000,1000,1000,1000,0,0,0,0,0,0,0,0,0,0
1681124987.10047507,107528638,1000,1000,1000,1000,0,0,0,0,0,0,0,0,0,0
1681124987.20043516,107628598,1000,1000,1000,1000,0,0,0,0,0,0,0,0,0,0
1681124987.30039525,107728558,1000,1000,1000,1000,0,0,0,0,0,0,0,0,0,0
1681124987.40035510,107828518,1000,1000,1000,1000,0,0,0,0,0,0,0,0,0,0
1681124987.50031519,107928478,1000,1000,1000,1000,0,0,0,0,0,0,0,0,0,0
1681124987.60027528,108028438,1000,1000,1000,1000,0,0,0,0,0,0,0,0,0,0
1681124987.70023513,108128398,1000,1000,1000,1000,0,0,0,0,0,0,0,0,0,0
1681124987.80019522,108228358,1000,1000,1000,1000,0,0,0,0,0,0,0,0,0,0
1681124987.90015531,108328318,1000,1000,1000,1000,0,0,0,0,0,0,0,0,0,0
1681124988.00011516,108428278,1000,1000,1000,1000,0,0,0,0,0,0,0,0,0,0
1681124988.10007524,108528238,1000,1000,1000,1000,0,0,0,0,0,0,0,0,0,0
1681124988.20003510,108628198,1000,1000,1000,1000,0,0,0,0,0,0,0,0,0,0
1681124988.29999518,108728158,1000,1000,1000,1000,0,0,0,0,0,0,0,0,0,0
1681124988.40078807,108828951,1000,1000,1000,1000,0,0,0,0,0,0,0,0,0,0
1681124988.50074816,108928911,1000,1000,1000,1000,0,0,0,0,0,0,0,0,0,0
1681124988.60070825,109028871,1000,1000,1000,1000,0,0,0,0,0,0,0,0,0,0
1681124988.70066810,109128831,1000,1000,1000,1000,0,0,0,0,0,0,0,0,0,0
1681124988.80062819,109228791,1000,1000,1000,1000,0,0,0,0,0,0,0,0,0,0
1681124988.90058827,109328751,1000,1000,1000,1000,0,0,0,0,0,0,0,0,0,0
1681124989.00054812,109428711,1000,1000,1000,1000,0,0,0,0,0,0,0,0,0,0
1681124989.10050821,109528671,1000,1000,1000,1000,0,0,0,0,0,0,0,0,0,0
1681124989.20046830,109628631,1000,1000,1000,1000,0,0,0,0,0,0,0,0,0,0
1681124989.30042815,109728591,1000,1000,1000,1000,0,0,0,0,0,0,0,0,0,0
1681124989.40038824,109828551,1000,1000,1000,1000,0,0,0,0,0,0,0,0,0,0
1681124989.50034809,109928511,1000,1000,1000,1000,0,0,0,0,0,0,0,0,0,0
1681124989.60030818,110028471,1000,1000,1000,1000,0,0,0,0,0,0,0,0,0,0
1681124989.70026827,110128431,1000,1000,1000,1000,0,0,0,0,0,0,0,0,0,0
1681124989.80022812,110228391,1000,1000,1000,1000,0,0,0,0,0,0,0,0,0,0
1681124989.90018821,110328351,1000,1000,1000,1000,0,0,0,0,0,0,0,0,0,0
1681124990.00014830,110428311,1000,1000,1000,1000,0,0,0,0,0,0,0,0,0,0
1681124990.10010815,110528271,1000,1000,1000,1000,0,0,0,0,0,0,0,0,0,0
1681124990.20006824,110628231,1000,1000,1000,1000,0,0,0,0,0,0,0,0,0,0
1681124990.30002809,110728191,1000,1000,1000,1000,0,0,0,0,0,0,0,0,0,0
1681124990.40082121,110828984,1000,1000,1000,1000,0,0,0,0,0,0,0,0,0,0
1681124990.50078130,110928944,1000,1000,1000,1000,0,0,0,0,0,0,0,0,0,0
1681124990.60074115,111028904,1000,1000,1000,1000,0,0,0,0,0,0,0,0,0,0
1681124990.70070124,111128864,1000,1000,1000,1000,0,0,0,0,0,0,0,0,0,0
1681124990.80066109,111228824,1000,1000,1000,1000,0,0,0,0,0,0,0,0,0,0
1681124990.90062118,111328784,1000,1000,1000,1000,0,0,0,0,0,0,0,0,0,0
1681124991.00058126,111428744,1000,1000,1000,1000,0,0,0,0,0,0,0,0,0,0
1681124991.10054111,111528704,1000,1000,1000,1000,0,0,0,0,0,0,0,0,0,0
1681124991.20050120,111628664,1000,1000,1000,1000,0,0,0,0,0,0,0,0,0,0
1681124991.30046129,111728624,1000,1000,1000,1000,0,0,0,0,0,0,0,0,0,0
1681124991.40042114,111828584,1000,1000,1000,1000,0,0,0,0,0,0,0,0,0,0
1681124991.50038123,111928544,1000,1000,1000,1000,0,0,0,0,0,0,0,0,0,0
1681124991.60034108,112028504,1000,1000,1000,1000,0,0,0,0,0,0,0,0,0,0
1681124991.70030117,112128464,1000,1000,1000,1000,0,0,0,0,0,0,0,0,0,0
1681124991.80026126,112228424,1000,1000,1000,1000,0,0,0,0,0,0,0,0,0,0
1681124991.90022111,112328384,1000,1000,1000,1000,0,0,0,0,0,0,0,0,0,0
1681124992.00018120,112428344,1000,1000,1000,1000,0,0,0,0,0,0,0,0,0,0
1681124992.10014129,112528304,1000,1000,1000,1000,0,0,0,0,0,0,0,0,0,0
1681124992.20010114,112628264,1000,1000,1000,1000,0,0,0,0,0,0,0,0,0,0
1681124992.30006123,112728224,1000,1000,1000,1000,0,0,0,0,0,0,0,0,0,0
1681124992.40002108,112828184,1000,1000,1000,1000,0,0,0,0,0,0,0,0,0,0
1681124992.50081420,112928977,1000,1000,1000,1000,0,0,0,0,0,0,0,0,0,0
1681124992.60077429,113028937,1000,1000,1000,1000,0,0,0,0,0,0,0,0,0,0
1681124992.70073414,113128897,1000,1000,1000,1000,0,0,0,0,0,0,0,0,0,0
1681124992.80069423,113228857,1000,1000,1000,1000,0,0,0,0,0,0,0,0,0,0
1681124992.90065408,113328817,1000,1000,1000,1000,0,0,0,0,0,0,0,0,0,0
1681124993.00061417,113428777,1000,1000,1000,1000,0,0,0,0,0,0,0,0,0,0
1681124993.10057425,113528737,1000,1000,1000,1000,0,0,0,0,0,0,0,0,0,0
1681124993.20053411,113628697,1000,1000,1000,1000,0,0,0,0,0,0,0,0,0,0
1681124993.30049419,113728657,1000,1000,1000,1000,0,0,0,0,0,0,0,0,0,0
1681124993.40045428,113828617,1000,1000,1000,1000,0,0,0,0,0,0,0,0,0,0
1681124993.50041413,113928577,1000,1000,1000,1000,0,0,0,0,0,0,0,0,0,0
1681124993.60037422,114028537,1000,1000,1000,1000,0,0,0,0,0,0,0,0,0,0
1681124993.70033407,114128497,1000,1000,1000,1000,0,0,0,0,0,0,0,0,0,0
1681124993.80029416,114228457,1000,1000,1000,1000,0,0,0,0,0,0,0,0,0,0
1681124993.90025425,114328417,1000,1000,1000,1000,0,0,0,0,0,0,0,0,0,0
1681124994.00021410,114428377,1000,1000,1000,1000,0,0,0,0,0,0,0,0,0,0
1681124994.10017419,114528337,1000,1000,1000,1000,0,0,0,0,0,0,0,0,0,0
1681124994.20013428,114628297,1000,1000,1000,1000,0,0,0,0,0,0,0,0,0,0
1681124994.30009413,114728257,1000,1000,1000,1000,0,0,0,0,0,0,0,0,0,0
1681124994.40005422,114828217,1000,1000,1000,1000,0,0,0,0,0,0,0,0,0,0
1681124994.50001431,114928177,1000,1000,1000,1000,0,0,0,0,0,0,0,0,0,0
1681124994.60080719,115028970,1000,1000,1000,1000,0,0,0,0,0,0,0,0,0,0
1681124994.70076728,115128930,1000,1000,1000,1000,0,0,0,0,0,0,0,0,0,0
1681124994.80072713,115228890,1000,1000,1000,1000,0,0,0,0,0,0,0,0,0,0
1681124994.90068722,115328850,1000,1000,1000,1000,0,0,0,0,0,0,0,0,0,0
1681124995.00064707,115428810,1000,1000,1000,1000,0,0,0,0,0,0,0,0,0,0
1681124995.10060716,115528770,1000,1000,1000,1000,0,0,0,0,0,0,0,0,0,0
1681124995.20056725,115628730,1000,1000,1000,1000,0,0,0,0,0,0,0,0,0,0
1681124995.30052710,115728690,1000,1000,1000,1000,0,0,0,0,0,0,0,0,0,0
1681124995.40048718,115828650,1000,1000,1000,1000,0,0,0,0,0,0,0,0,0,0
1681124995.50044727,115928610,1000,1000,1000,1000,0,0,0,0,0,0,0,0,0,0
1681124995.60040712,116028570,1000,1000,1000,1000,0,0,0,0,0,0,0,0,0,0
1681124995.70036721,116128530,1000,1000,1000,1000,0,0,0,0,0,0,0,0,0,0
1681124995.80032730,116228490,1000,1000,1000,1000,0,0,0,0,0,0,0,0,0,0
1681124995.90028715,116328450,1000,1000,1000,1000,0,0,0,0,0,0,0,0,0,0
1681124996.00024724,116428410,1000,1000,1000,1000,0,0,0,0,0,0,0,0,0,0
1681124996.10020709,116528370,1000,1000,1000,1000,0,0,0,0,0,0,0,0,0,0
1681124996.20016718,116628330,1000,1000,1000,1000,0,0,0,0,0,0,0,0,0,0
1681124996.30012727,116728290,1000,1000,1000,1000,0,0,0,0,0,0,0,0,0,0
1681124996.40008712,116828250,1000,1000,1000,1000,0,0,0,0,0,0,0,0,0,0
1681124996.50004721,116928210,1000,1000,1000,1000,0,0,0,0,0,0,0,0,0,0
1681124996.60000730,117028170,1000,1000,1000,1000,0,0,0,0,0,0,0,0,0,0
1681124996.70080018,117128963,1000,1000,1000,1000,0,0,0,0,0,0,0,0,0,0
1681124996.80076027,117228923,1000,1000,1000,1000,0,0,0,0,0,0,0,0,0,0
1681124996.90072012,117328883,1000,1000,1000,1000,0,0,0,0,0,0,0,0,0,0
1681124997.00068021,117428843,1000,1000,1000,1000,0,0,0,0,0,0,0,0,0,0
1681124997.10064030,117528803,1000,1000,1000,1000,0,0,0,0,0,0,0,0,0,0
1681124997.20060015,117628763,1000,1000,1000,1000,0,0,0,0,0,0,0,0,0,0
1681124997.30056024,117728723,1000,1000,1000,1000,0,0,0,0,0,0,0,0,0,0
1681124997.40052009,117828683,1000,1000,1000,1000,0,0,0,0,0,0,0,0,0,0
1681124997.50048018,117928643,1000,1000,1000,1000,0,0,0,0,0,0,0,0,0,0
1681124997.60044026,118028603,1000,1000,1000,1000,0,0,0,0,0,0,0,0,0,0
1681124997.70040011,118128563,1000,1000,1000,1000,0,0,0,0,0,0,0,0,0,0
1681124997.80036020,118228523,1000,1000,1000,1000,0,0,0,0,0,0,0,0,0,0
1681124997.90032029,118328483,1000,1000,1000,1000,0,0,0,0,0,0,0,0,0,0
