TimeUS,M1,M2,M3,M4,TimeUS,C1,C2,C3,C4
74605979,1000,1000,1000,1000,74628470,1000,1000,1000,1000
74608478,1000,1000,1000,1000,74728430,1000,1000,1000,1000
74610977,1000,1000,1000,1000,74828390,1000,1000,1000,1000
74613476,1000,1000,1000,1000,74928350,1000,1000,1000,1000
74615975,1000,1000,1000,1000,75028310,1000,1000,1000,1000
74618474,1000,1000,1000,1000,75128270,1000,1000,1000,1000
74620973,1000,1000,1000,1000,75228230,1000,1000,1000,1000
74623472,1000,1000,1000,1000,75328190,1000,1000,1000,1000
74625971,1000,1000,1000,1000,75428983,1000,1000,1000,1000
74628470,1000,1000,1000,1000,75528943,1000,1000,1000,1000
74630969,1000,1000,1000,1000,75628903,1000,1000,1000,1000
74633468,1000,1000,1000,1000,75728863,1000,1000,1000,1000
74635967,1000,1000,1000,1000,75828823,1000,1000,1000,1000
74638466,1000,1000,1000,1000,75928783,1000,1000,1000,1000
74640965,1000,1000,1000,1000,76028743,1000,1000,1000,1000
74643464,1000,1000,1000,1000,76128703,1000,1000,1000,1000
74645963,1000,1000,1000,1000,76228663,1000,1000,1000,1000
74648462,1000,1000,1000,1000,76328623,1000,1000,1000,1000
74650961,1000,1000,1000,1000,76428583,1000,1000,1000,1000
74653460,1000,1000,1000,1000,76528543,1000,1000,1000,1000
74655959,1000,1000,1000,1000,76628503,1006,1006,1006,1006
74658458,1000,1000,1000,1000,76728463,1036,1036,1036,1036
74660957,1000,1000,1000,1000,76828423,1066,1066,1066,1066
74663456,1000,1000,1000,1000,76928383,1096,1096,1096,1096
74665955,1000,1000,1000,1000,77028343,1126,1126,1126,1126
74668454,1000,1000,1000,1000,77128303,1216,1205,1206,1217
74670953,1000,1000,1000,1000,77228263,1445,1437,1438,1446
74673452,1000,1000,1000,1000,77328223,1616,1608,1609,1616
74675951,1000,1000,1000,1000,77428183,1757,1751,1751,1758
74678450,1000,1000,1000,1000,77528976,1882,1875,1876,1882
74680949,1000,1000,1000,1000,77628936,1889,1885,1885,1890
74683448,1000,1000,1000,1000,77728896,1782,1780,1780,1782
74685947,1000,1000,1000,1000,77828856,1670,1672,1672,1671
74688446,1000,1000,1000,1000,77928816,1626,1628,1629,1626
74690945,1000,1000,1000,1000,78028776,1628,1631,1631,1628
74693444,1000,1000,1000,1000,78128736,1638,1639,1639,1638
74695943,1000,1000,1000,1000,78228696,1634,1633,1629,1637
74698442,1000,1000,1000,1000,78328656,1622,1623,1615,1630
74700941,1000,1000,1000,1000,78428616,1614,1616,1610,1619
74703440,1000,1000,1000,1000,78528576,1610,1611,1610,1611
74705939,1000,1000,1000,1000,78628536,1612,1612,1614,1609
74708438,1000,1000,1000,1000,78728496,1615,1614,1619,1611
74710937,1000,1000,1000,1000,78828456,1617,1617,1621,1613
74713436,1000,1000,1000,1000,78928416,1597,1597,1606,1589
74715935,1000,1000,1000,1000,79028376,1579,1580,1592,1567
74718434,1000,1000,1000,1000,79128336,1568,1568,1573,1564
74720933,1000,1000,1000,1000,79228296,1557,1557,1555,1560
74723432,1000,1000,1000,1000,79328256,1549,1548,1539,1558
74725931,1000,1000,1000,1000,79428216,1542,1542,1530,1553
74728430,1000,1000,1000,1000,79528176,1536,1535,1527,1544
74730929,1000,1000,1000,1000,79628969,1530,1529,1525,1533
74733428,1000,1000,1000,1000,79728929,1527,1526,1526,1526
74735927,1000,1000,1000,1000,79828889,1528,1527,1529,1525
74738426,1000,1000,1000,1000,79928849,1530,1530,1533,1526
74740925,1000,1000,1000,1000,80028809,1533,1533,1536,1529
74743424,1000,1000,1000,1000,80128769,1537,1537,1540,1534
74745923,1000,1000,1000,1000,80228729,1540,1540,1542,1539
74748422,1000,1000,1000,1000,80328689,1544,1544,1545,1544
74750921,1000,1000,1000,1000,80428649,1546,1546,1546,1547
74753420,1000,1000,1000,1000,80528609,1550,1550,1549,1551
74755919,1000,1000,1000,1000,80628569,1552,1553,1551,1554
74758418,1000,1000,1000,1000,80728529,1554,1555,1553,1556
74760917,1000,1000,1000,1000,80828489,1558,1557,1553,1556
74763416,1000,1000,1000,1000,80928449,1559,1558,1558,1559
74765915,1000,1000,1000,1000,81028409,1559,1559,1562,1562
74768414,1000,1000,1000,1000,81128369,1560,1560,1565,1564
74770913,1000,1000,1000,1000,81228329,1561,1561,1567,1566
74773412,1000,1000,1000,1000,81328289,1563,1563,1569,1568
74775911,1000,1000,1000,1000,81428249,1564,1565,1569,1569
74778410,1000,1000,1000,1000,81528209,1566,1567,1570,1569
74780909,1000,1000,1000,1000,81628169,1568,1569,1570,1570
74783408,1000,1000,1000,1000,81728962,1570,1570,1570,1570
74785907,1000,1000,1000,1000,81828922,1573,1572,1570,1571
74788406,1000,1000,1000,1000,81928882,1573,1573,1570,1570
74790905,1000,1000,1000,1000,82028842,1574,1574,1571,1571
74793404,1000,1000,1000,1000,82128802,1576,1575,1572,1572
74795903,1000,1000,1000,1000,82228762,1577,1576,1574,1572
74798402,1000,1000,1000,1000,82328722,1577,1577,1575,1573
74800901,1000,1000,1000,1000,82428682,1576,1577,1575,1574
74803400,1000,1000,1000,1000,82528642,1576,1576,1575,1574
74805899,1000,1000,1000,1000,82628602,1576,1576,1575,1575
74808398,1000,1000,1000,1000,82728562,1576,1576,1576,1576
74810897,1000,1000,1000,1000,82828522,1575,1576,1576,1576
74813396,1000,1000,1000,1000,82928482,1575,1575,1576,1576
74815895,1000,1000,1000,1000,83028442,1575,1575,1577,1576
74818394,1000,1000,1000,1000,83128402,1576,1576,1577,1577
74820893,1000,1000,1000,1000,83228362,1576,1576,1577,1577
74823392,1000,1000,1000,1000,83328322,1576,1576,1577,1577
74825891,1000,1000,1000,1000,83428282,1576,1577,1577,1576
74828390,1000,1000,1000,1000,83528242,1578,1578,1578,1578
74830889,1000,1000,1000,1000,83628202,1577,1577,1577,1577
74833388,1000,1000,1000,1000,83728162,1578,1578,1578,1578
74835887,1000,1000,1000,1000,83828955,1578,1578,1578,1578
74838386,1000,1000,1000,1000,83928915,1579,1578,1578,1578
74840885,1000,1000,1000,1000,84028875,1579,1579,1578,1578
74843384,1000,1000,1000,1000,84128835,1578,1579,1578,1578
74845883,1000,1000,1000,1000,84228795,1578,1579,1578,1578
74848382,1000,1000,1000,1000,84328755,1578,1578,1578,1579
74850881,1000,1000,1000,1000,84428715,1578,1578,1578,1579
74853380,1000,1000,1000,1000,84528675,1579,1578,1579,1579
74855879,1000,1000,1000,1000,84628635,1578,1578,1579,1578
74858378,1000,1000,1000,1000,84728595,1579,1579,1579,1579
74860877,1000,1000,1000,1000,84828555,1580,1579,1580,1580
74863376,1000,1000,1000,1000,84928515,1579,1579,1579,1579
74865875,1000,1000,1000,1000,85028475,1579,1579,1579,1579
74868374,1000,1000,1000,1000,85128435,1580,1579,1580,1580
74870873,1000,1000,1000,1000,85228395,1579,1579,1579,1579
74873372,1000,1000,1000,1000,85328355,1579,1579,1580,1579
74875871,1000,1000,1000,1000,85428315,1579,1579,1579,1579
74878370,1000,1000,1000,1000,85528275,1580,1580,1580,1580
74880869,1000,1000,1000,1000,85628235,1580,1580,1580,1580
74883368,1000,1000,1000,1000,85728195,1580,1579,1580,1580
74885867,1000,1000,1000,1000,85828155,1580,1580,1580,1580
74888366,1000,1000,1000,1000,85928948,1579,1579,1579,1579
74890865,1000,1000,1000,1000,86028908,1579,1580,1580,1580
74893364,1000,1000,1000,1000,86128868,1580,1580,1580,1580
74895863,1000,1000,1000,1000,86228828,1580,1580,1580,1580
74898362,1000,1000,1000,1000,86328788,1580,1579,1580,1580
74900861,1000,1000,1000,1000,86428748,1579,1580,1580,1580
74903360,1000,1000,1000,1000,86528708,1580,1580,1580,1580
74905859,1000,1000,1000,1000,86628668,1581,1581,1581,1581
74908358,1000,1000,1000,1000,86728628,1581,1581,1581,1581
74910857,1000,1000,1000,1000,86828588,1582,1582,1582,1582
74913356,1000,1000,1000,1000,86928548,1582,1582,1583,1580
74915855,1000,1000,1000,1000,87028508,1581,1583,1589,1573
74918354,1000,1000,1000,1000,87128468,1580,1582,1583,1573
74920853,1000,1000,1000,1000,87228428,1579,1581,1574,1574
74923352,1000,1000,1000,1000,87328388,1577,1580,1566,1571
74925851,1000,1000,1000,1000,87428348,1576,1578,1559,1566
74928350,1000,1000,1000,1000,87528308,1578,1578,1556,1562
74930849,1000,1000,1000,1000,87628268,1580,1578,1556,1558
74933348,1000,1000,1000,1000,87728228,1580,1578,1555,1555
74935847,1000,1000,1000,1000,87828188,1579,1578,1556,1554
74938346,1000,1000,1000,1000,87928981,1578,1578,1556,1553
74940845,1000,1000,1000,1000,88028941,1576,1577,1555,1553
74943344,1000,1000,1000,1000,88128901,1576,1577,1555,1554
74945843,1000,1000,1000,1000,88228861,1575,1576,1553,1554
74948342,1000,1000,1000,1000,88328821,1574,1576,1552,1552
74950841,1000,1000,1000,1000,88428781,1576,1577,1551,1551
74953340,1000,1000,1000,1000,88528741,1576,1577,1548,1549
74955839,1000,1000,1000,1000,88628701,1578,1580,1546,1546
74958338,1000,1000,1000,1000,88728661,1582,1582,1544,1544
74960837,1000,1000,1000,1000,88828621,1584,1585,1541,1541
74963336,1000,1000,1000,1000,88928581,1588,1589,1539,1539
74965835,1000,1000,1000,1000,89028541,1592,1592,1537,1537
74968334,1000,1000,1000,1000,89128501,1593,1594,1535,1535
74970833,1000,1000,1000,1000,89228461,1595,1595,1535,1535
74973332,1000,1000,1000,1000,89328421,1595,1595,1535,1536
74975831,1000,1000,1000,1000,89428381,1594,1595,1537,1540
74978330,1000,1000,1000,1000,89528341,1593,1591,1541,1545
74980829,1000,1000,1000,1000,89628301,1589,1586,1548,1550
74983328,1000,1000,1000,1000,89728261,1580,1577,1555,1558
74985827,1000,1000,1000,1000,89828221,1571,1568,1566,1569
74988326,1000,1000,1000,1000,89928181,1561,1557,1579,1581
74990825,1000,1000,1000,1000,90028974,1551,1547,1593,1593
74993324,1000,1000,1000,1000,90128934,1539,1537,1603,1602
74995823,1000,1000,1000,1000,90228894,1531,1532,1611,1609
74998322,1000,1000,1000,1000,90328854,1527,1529,1615,1614
75000821,1000,1000,1000,1000,90428814,1528,1530,1615,1614
75003320,1000,1000,1000,1000,90528774,1532,1534,1612,1611
75005819,1000,1000,1000,1000,90628734,1539,1541,1606,1607
75008318,1000,1000,1000,1000,90728694,1548,1549,1600,1601
75010817,1000,1000,1000,1000,90828654,1557,1558,1593,1593
75013316,1000,1000,1000,1000,90928614,1566,1566,1586,1585
75015815,1000,1000,1000,1000,91028574,1574,1574,1579,1579
75018314,1000,1000,1000,1000,91128534,1581,1580,1574,1573
75020813,1000,1000,1000,1000,91228494,1585,1584,1569,1569
75023312,1000,1000,1000,1000,91328454,1588,1586,1567,1567
75025811,1000,1000,1000,1000,91428414,1588,1587,1566,1566
75028310,1000,1000,1000,1000,91528374,1587,1586,1566,1567
75030809,1000,1000,1000,1000,91628334,1585,1584,1569,1569
75033308,1000,1000,1000,1000,91728294,1583,1583,1573,1572
75035807,1000,1000,1000,1000,91828254,1579,1579,1575,1574
75038306,1000,1000,1000,1000,91928214,1577,1578,1578,1578
75040805,1000,1000,1000,1000,92028174,1576,1576,1581,1581
75043304,1000,1000,1000,1000,92128967,1573,1574,1583,1582
75045803,1000,1000,1000,1000,92228927,1574,1574,1585,1584
75048302,1000,1000,1000,1000,92328887,1573,1574,1585,1585
75050801,1000,1000,1000,1000,92428847,1573,1574,1584,1584
75053300,1000,1000,1000,1000,92528807,1574,1574,1583,1583
75055799,1000,1000,1000,1000,92628767,1575,1575,1582,1582
75058298,1000,1000,1000,1000,92728727,1577,1576,1580,1581
75060797,1000,1000,1000,1000,92828687,1578,1577,1579,1579
75063296,1000,1000,1000,1000,92928647,1578,1578,1578,1578
75065795,1000,1000,1000,1000,93028607,1580,1580,1578,1577
75068294,1000,1000,1000,1000,93128567,1581,1581,1577,1577
75070793,1000,1000,1000,1000,93228527,1581,1581,1577,1576
75073292,1000,1000,1000,1000,93328487,1581,1581,1577,1576
75075791,1000,1000,1000,1000,93428447,1582,1581,1578,1577
75078290,1000,1000,1000,1000,93528407,1580,1580,1577,1577
75080789,1000,1000,1000,1000,93628367,1580,1581,1578,1578
75083288,1000,1000,1000,1000,93728327,1580,1580,1579,1579
75085787,1000,1000,1000,1000,93828287,1579,1579,1579,1579
75088286,1000,1000,1000,1000,93928247,1579,1580,1580,1580
75090785,1000,1000,1000,1000,94028207,1579,1579,1581,1581
75093284,1000,1000,1000,1000,94128167,1580,1580,1581,1582
75095783,1000,1000,1000,1000,94228960,1580,1580,1581,1581
75098282,1000,1000,1000,1000,94328920,1579,1579,1581,1580
75100781,1000,1000,1000,1000,94428880,1554,1555,1751,1634
75103280,1000,1000,1000,1000,94528840,1535,1542,1617,1647
75105779,1000,1000,1000,1000,94628800,1537,1548,1538,1633
75108278,1000,1000,1000,1000,94728760,1548,1558,1513,1598
75110777,1000,1000,1000,1000,94828720,1560,1566,1513,1555
75113276,1000,1000,1000,1000,94928680,1572,1574,1528,1524
75115775,1000,1000,1000,1000,95028640,1584,1580,1547,1510
75118274,1000,1000,1000,1000,95128600,1597,1586,1555,1520
75120773,1000,1000,1000,1000,95228560,1606,1590,1555,1534
75123272,1000,1000,1000,1000,95328520,1608,1592,1552,1546
75125771,1000,1000,1000,1000,95428480,1603,1593,1551,1554
75128270,1000,1000,1000,1000,95528440,1596,1593,1553,1560
75130769,1000,1000,1000,1000,95628400,1587,1591,1557,1562
75133268,1000,1000,1000,1000,95728360,1580,1588,1563,1563
75135767,1000,1000,1000,1000,95828320,1577,1585,1567,1564
75138266,1000,1000,1000,1000,95928280,1577,1583,1570,1566
75140765,1000,1000,1000,1000,96028240,1577,1580,1570,1565
75143264,1000,1000,1000,1000,96128200,1578,1578,1569,1566
75145763,1000,1000,1000,1000,96228160,1578,1578,1567,1565
75148262,1000,1000,1000,1000,96328953,1578,1579,1566,1565
75150761,1000,1000,1000,1000,96428913,1578,1578,1562,1562
75153260,1000,1000,1000,1000,96528873,1578,1579,1559,1560
75155759,1000,1000,1000,1000,96628833,1579,1581,1557,1557
75158258,1000,1000,1000,1000,96728793,1580,1582,1554,1554
75160757,1000,1000,1000,1000,96828753,1581,1583,1551,1550
75163256,1000,1000,1000,1000,96928713,1582,1584,1547,1546
75165755,1000,1000,1000,1000,97028673,1584,1586,1544,1543
75168254,1000,1000,1000,1000,97128633,1587,1589,1541,1540
75170753,1000,1000,1000,1000,97228593,1591,1593,1537,1537
75173252,1000,1000,1000,1000,97328553,1593,1595,1534,1534
75175751,1000,1000,1000,1000,97428513,1595,1596,1533,1533
75178250,1000,1000,1000,1000,97528473,1596,1595,1536,1537
75180749,1000,1000,1000,1000,97628433,1595,1592,1540,1541
75183248,1000,1000,1000,1000,97728393,1590,1587,1544,1548
75185747,1000,1000,1000,1000,97828353,1584,1580,1552,1556
75188246,1000,1000,1000,1000,97928313,1577,1573,1563,1568
75190745,1000,1000,1000,1000,98028273,1567,1563,1573,1578
75193244,1000,1000,1000,1000,98128233,1556,1552,1585,1588
75195743,1000,1000,1000,1000,98228193,1543,1542,1595,1597
75198242,1000,1000,1000,1000,98328986,1534,1534,1607,1607
75200741,1000,1000,1000,1000,98428946,1528,1528,1614,1614
75203240,1000,1000,1000,1000,98528906,1525,1527,1615,1616
75205739,1000,1000,1000,1000,98628866,1529,1532,1615,1615
75208238,1000,1000,1000,1000,98728826,1535,1538,1610,1610
75210737,1000,1000,1000,1000,98828786,1544,1547,1603,1603
75213236,1000,1000,1000,1000,98928746,1555,1557,1595,1594
75215735,1000,1000,1000,1000,99028706,1567,1567,1588,1586
75218234,1000,1000,1000,1000,99128666,1577,1576,1580,1579
75220733,1000,1000,1000,1000,99228626,1585,1583,1575,1573
75223232,1000,1000,1000,1000,99328586,1590,1588,1571,1570
75225731,1000,1000,1000,1000,99428546,1593,1591,1570,1569
75228230,1000,1000,1000,1000,99528506,1594,1592,1571,1570
75230729,1000,1000,1000,1000,99628466,1592,1590,1572,1571
75233228,1000,1000,1000,1000,99728426,1589,1589,1575,1574
75235727,1000,1000,1000,1000,99828386,1585,1585,1576,1576
75238226,1000,1000,1000,1000,99928346,1582,1582,1578,1578
75240725,1000,1000,1000,1000,100028306,1579,1580,1581,1581
75243224,1000,1000,1000,1000,100128266,1576,1576,1581,1582
75245723,1000,1000,1000,1000,100228226,1575,1575,1584,1584
75248222,1000,1000,1000,1000,100328186,1574,1574,1584,1585
75250721,1000,1000,1000,1000,100428979,1573,1574,1585,1585
75253220,1000,1000,1000,1000,100528939,1573,1574,1584,1584
75255719,1000,1000,1000,1000,100628899,1574,1574,1583,1583
75258218,1000,1000,1000,1000,100728859,1576,1576,1583,1583
75260717,1000,1000,1000,1000,100828819,1578,1578,1582,1581
75263216,1000,1000,1000,1000,100928779,1580,1580,1581,1581
75265715,1000,1000,1000,1000,101028739,1581,1580,1580,1580
75268214,1000,1000,1000,1000,101128699,1582,1582,1579,1579
75270713,1000,1000,1000,1000,101228659,1583,1583,1580,1579
75273212,1000,1000,1000,1000,101328619,1583,1583,1579,1578
75275711,1000,1000,1000,1000,101428579,1583,1582,1579,1579
75278210,1000,1000,1000,1000,101528539,1583,1583,1579,1579
75280709,1000,1000,1000,1000,101628499,1583,1583,1581,1581
75283208,1000,1000,1000,1000,101728459,1581,1581,1579,1580
75285707,1000,1000,1000,1000,101828419,1581,1581,1581,1581
75288206,1000,1000,1000,1000,101928379,1580,1581,1580,1581
75290705,1000,1000,1000,1000,102028339,1580,1581,1581,1582
75293204,1000,1000,1000,1000,102128299,1580,1580,1582,1582
75295703,1000,1000,1000,1000,102228259,1580,1580,1581,1582
75298202,1000,1000,1000,1000,102328219,1579,1579,1581,1581
75300701,1000,1000,1000,1000,102428179,1579,1580,1581,1581
75303200,1000,1000,1000,1000,102528972,1580,1581,1582,1581
75305699,1000,1000,1000,1000,102628932,1581,1581,1582,1581
75308198,1000,1000,1000,1000,102728892,1580,1580,1579,1580
75310697,1000,1000,1000,1000,102828852,1581,1582,1582,1581
75313196,1000,1000,1000,1000,102928812,1583,1582,1582,1582
75315695,1000,1000,1000,1000,103028772,1581,1582,1583,1579
75318194,1000,1000,1000,1000,103128732,1582,1584,1589,1574
75320693,1000,1000,1000,1000,103228692,1581,1584,1580,1572
75323192,1000,1000,1000,1000,103328652,1582,1584,1570,1572
75325691,1000,1000,1000,1000,103428612,1582,1584,1562,1568
75328190,1000,1000,1000,1000,103528572,1582,1583,1558,1564
75330689,1000,1000,1000,1000,103628532,1583,1583,1556,1560
75333188,1000,1000,1000,1000,103728492,1582,1581,1556,1556
75335687,1000,1000,1000,1000,103828452,1582,1581,1558,1555
75338186,1000,1000,1000,1000,103928412,1580,1579,1557,1555
75340685,1000,1000,1000,1000,104028372,1578,1579,1558,1556
75343184,1000,1000,1000,1000,104128332,1577,1577,1557,1556
75345683,1000,1000,1000,1000,104228292,1576,1576,1556,1557
75348182,1000,1000,1000,1000,104328252,1575,1576,1555,1556
75350681,1000,1000,1000,1000,104428212,1575,1577,1555,1555
75353180,1000,1000,1000,1000,104528172,1576,1577,1553,1553
75355679,1000,1000,1000,1000,104628965,1578,1579,1551,1551
75358178,1000,1000,1000,1000,104728925,1579,1580,1547,1548
75360677,1000,1000,1000,1000,104828885,1582,1583,1546,1546
75363176,1000,1000,1000,1000,104928845,1585,1586,1545,1545
75365675,1000,1000,1000,1000,105028805,1587,1587,1542,1541
75368174,1000,1000,1000,1000,105128765,1589,1589,1542,1541
75370673,1000,1000,1000,1000,105228725,1590,1591,1541,1541
75373172,1000,1000,1000,1000,105328685,1591,1592,1540,1541
75375671,1000,1000,1000,1000,105428645,1592,1592,1541,1543
75378170,1000,1000,1000,1000,105528605,1591,1591,1543,1546
75380669,1000,1000,1000,1000,105628565,1588,1587,1548,1550
75383168,1000,1000,1000,1000,105728525,1584,1581,1556,1557
75385667,1000,1000,1000,1000,105828485,1577,1574,1566,1567
75388166,1000,1000,1000,1000,105928445,1568,1564,1575,1576
75390665,1000,1000,1000,1000,106028405,1558,1554,1584,1586
75393164,1000,1000,1000,1000,106128365,1549,1546,1593,1595
75395663,1000,1000,1000,1000,106228325,1541,1540,1600,1602
75398162,1000,1000,1000,1000,106328285,1535,1536,1603,1605
75400661,1000,1000,1000,1000,106428245,1535,1536,1607,1608
75403160,1000,1000,1000,1000,106528205,1536,1539,1606,1606
75405659,1000,1000,1000,1000,106628165,1541,1543,1602,1603
75408158,1000,1000,1000,1000,106728958,1548,1549,1597,1597
75410657,1000,1000,1000,1000,106828918,1557,1557,1594,1592
75413156,1000,1000,1000,1000,106928878,1565,1565,1588,1586
75415655,1000,1000,1000,1000,107028838,1572,1572,1582,1581
75418154,1000,1000,1000,1000,107128798,1578,1577,1578,1576
75421486,1000,1000,1000,1000,107228758,1582,1581,1574,1573
75423985,1000,1000,1000,1000,107328718,1586,1584,1572,1572
75426484,1000,1000,1000,1000,107428678,1588,1586,1573,1572
75428983,1000,1000,1000,1000,107528638,1587,1586,1573,1572
75431482,1000,1000,1000,1000,107628598,1585,1585,1574,1573
75433981,1000,1000,1000,1000,107728558,1583,1584,1577,1576
75436480,1000,1000,1000,1000,107828518,1581,1581,1578,1578
75438979,1000,1000,1000,1000,107928478,1578,1578,1579,1579
75441478,1000,1000,1000,1000,108028438,1576,1577,1581,1582
75443977,1000,1000,1000,1000,108128398,1575,1575,1582,1582
75446476,1000,1000,1000,1000,108228358,1574,1575,1583,1583
75448975,1000,1000,1000,1000,108328318,1574,1574,1583,1582
75451474,1000,1000,1000,1000,108428278,1575,1575,1583,1583
75453973,1000,1000,1000,1000,108528238,1575,1576,1582,1582
75456472,1000,1000,1000,1000,108628198,1576,1576,1581,1581
75458971,1000,1000,1000,1000,108728158,1578,1578,1581,1581
75461470,1000,1000,1000,1000,108828951,1579,1579,1580,1580
75463969,1000,1000,1000,1000,108928911,1579,1579,1579,1578
75466468,1000,1000,1000,1000,109028871,1581,1580,1579,1578
75468967,1000,1000,1000,1000,109128831,1581,1580,1578,1578
75471466,1000,1000,1000,1000,109228791,1581,1580,1577,1578
75473965,1000,1000,1000,1000,109328751,1581,1581,1579,1578
75476464,1000,1000,1000,1000,109428711,1581,1581,1579,1579
75478963,1000,1000,1000,1000,109528671,1581,1581,1579,1580
75481462,1000,1000,1000,1000,109628631,1581,1581,1580,1580
75483961,1000,1000,1000,1000,109728591,1580,1580,1580,1580
75486460,1000,1000,1000,1000,109828551,1580,1580,1580,1580
75488959,1000,1000,1000,1000,109928511,1579,1579,1580,1580
75491458,1000,1000,1000,1000,110028471,1580,1580,1582,1581
75493957,1000,1000,1000,1000,110128431,1580,1580,1581,1581
75496456,1000,1000,1000,1000,110228391,1580,1580,1581,1581
75498955,1000,1000,1000,1000,110328351,1581,1580,1581,1581
75501454,1000,1000,1000,1000,110428311,1580,1580,1580,1581
75503953,1000,1000,1000,1000,110528271,1581,1581,1581,1581
75506452,1000,1000,1000,1000,110628231,1582,1582,1582,1581
75508951,1000,1000,1000,1000,110728191,1581,1581,1581,1581
75511450,1000,1000,1000,1000,110828984,1582,1581,1581,1581
75513949,1000,1000,1000,1000,110928944,1581,1582,1583,1579
75516448,1000,1000,1000,1000,111028904,1580,1581,1589,1572
75518947,1000,1000,1000,1000,111128864,1581,1580,1583,1575
75521446,1000,1000,1000,1000,111228824,1577,1577,1572,1575
75523945,1000,1000,1000,1000,111328784,1575,1574,1568,1574
75526444,1000,1000,1000,1000,111428744,1573,1573,1567,1573
75528943,1000,1000,1000,1000,111528704,1570,1570,1566,1570
75531442,1000,1000,1000,1000,111628664,1567,1568,1567,1568
75533941,1000,1000,1000,1000,111728624,1566,1567,1568,1567
75536440,1000,1000,1000,1000,111828584,1566,1566,1569,1567
75538939,1000,1000,1000,1000,111928544,1564,1564,1567,1565
75541438,1000,1000,1000,1000,112028504,1565,1565,1567,1566
75543937,1000,1000,1000,1000,112128464,1563,1563,1564,1564
75546436,1000,1000,1000,1000,112228424,1562,1562,1563,1564
75548935,1000,1000,1000,1000,112328384,1563,1563,1564,1563
75551434,1000,1000,1000,1000,112428344,1562,1563,1564,1563
75553933,1000,1000,1000,1000,112528304,1561,1562,1562,1562
75556432,1000,1000,1000,1000,112628264,1562,1562,1563,1562
75558931,1000,1000,1000,1000,112728224,1561,1561,1560,1561
75561430,1000,1000,1000,1000,112828184,1561,1560,1560,1560
75563929,1000,1000,1000,1000,112928977,1560,1559,1559,1558
75566428,1000,1000,1000,1000,113028937,1558,1558,1558,1557
75568927,1000,1000,1000,1000,113128897,1557,1557,1557,1556
75571426,1000,1000,1000,1000,113228857,1557,1557,1558,1556
75573925,1000,1000,1000,1000,113328817,1557,1557,1558,1556
75576424,1000,1000,1000,1000,113428777,1557,1557,1558,1557
75578923,1000,1000,1000,1000,113528737,1557,1557,1558,1557
75581422,1000,1000,1000,1000,113628697,1558,1557,1560,1557
75583921,1000,1000,1000,1000,113728657,1559,1558,1561,1558
75586420,1000,1000,1000,1000,113828617,1560,1559,1558,1561
75588919,1000,1000,1000,1000,113928577,1560,1561,1557,1563
75591418,1000,1000,1000,1000,114028537,1561,1561,1557,1564
75593917,1000,1000,1000,1000,114128497,1562,1562,1559,1564
75596416,1000,1000,1000,1000,114228457,1563,1563,1562,1564
75598915,1000,1000,1000,1000,114328417,1564,1564,1564,1564
75601414,1000,1000,1000,1000,114428377,1563,1563,1565,1562
75603913,1000,1000,1000,1000,114528337,1563,1564,1565,1562
75606412,1000,1000,1000,1000,114628297,1564,1563,1563,1563
75608911,1000,1000,1000,1000,114728257,1562,1561,1555,1564
75611410,1000,1000,1000,1000,114828217,1556,1556,1551,1557
75613909,1000,1000,1000,1000,114928177,1551,1551,1547,1550
75616408,1000,1000,1000,1000,115028970,1545,1546,1544,1542
75618907,1000,1000,1000,1000,115128930,1538,1538,1537,1535
75621406,1000,1000,1000,1000,115228890,1531,1531,1529,1527
75623905,1000,1000,1000,1000,115328850,1523,1523,1521,1520
75626404,1000,1000,1000,1000,115428810,1520,1519,1520,1517
75628903,1000,1000,1000,1000,115528770,1518,1517,1519,1518
75631402,1000,1000,1000,1000,115628730,1519,1519,1522,1521
75633901,1000,1000,1000,1000,115728690,1521,1521,1525,1525
75636400,1000,1000,1000,1000,115828650,1524,1524,1529,1529
75638899,1000,1000,1000,1000,115928610,1529,1529,1534,1535
75641398,1000,1000,1000,1000,116028570,1534,1534,1538,1539
75643897,1000,1000,1000,1000,116128530,1537,1537,1540,1542
75646396,1000,1000,1000,1000,116228490,1540,1540,1541,1543
75648895,1000,1000,1000,1000,116328450,1543,1543,1544,1544
75651394,1000,1000,1000,1000,116428410,1544,1544,1543,1543
75653893,1000,1000,1000,1000,116528370,1546,1545,1543,1543
75656392,1000,1000,1000,1000,116628330,1547,1547,1545,1544
75658891,1000,1000,1000,1000,116728290,1548,1548,1545,1544
75661390,1000,1000,1000,1000,116828250,1547,1548,1544,1544
75663889,1000,1000,1000,1000,116928210,1548,1547,1545,1545
75666388,1000,1000,1000,1000,117028170,1546,1546,1544,1544
75668887,1000,1000,1000,1000,117128963,1546,1546,1545,1545
75671386,1000,1000,1000,1000,117228923,1545,1546,1545,1545
75673885,1000,1000,1000,1000,117328883,1546,1546,1546,1545
75676384,1000,1000,1000,1000,117428843,1543,1544,1544,1544
75678883,1000,1000,1000,1000,117528803,1545,1545,1546,1546
75681382,1000,1000,1000,1000,117628763,1544,1544,1545,1545
75683881,1000,1000,1000,1000,117728723,1544,1544,1545,1545
75686380,1000,1000,1000,1000,117828683,1544,1545,1545,1546
75688879,1000,1000,1000,1000,117928643,1543,1543,1544,1544
75691378,1000,1000,1000,1000,118028603,1544,1544,1545,1545
75693877,1000,1000,1000,1000,118128563,1544,1544,1545,1544
75696376,1000,1000,1000,1000,118228523,1544,1543,1544,1543
75698875,1000,1000,1000,1000,118328483,1543,1543,1542,1543
75701374,1000,1000,1000,1000,118428443,1544,1545,1545,1544
75703873,1000,1000,1000,1000,118528403,1545,1545,1544,1544
75706372,1000,1000,1000,1000,118628363,1544,1544,1544,1544
75708871,1000,1000,1000,1000,118728323,1544,1544,1543,1544
75711370,1000,1000,1000,1000,118828283,1544,1544,1544,1544
75713869,1000,1000,1000,1000,118928243,1544,1544,1544,1543
75716368,1000,1000,1000,1000,119028203,1544,1544,1544,1544
75718867,1000,1000,1000,1000,119128163,1545,1545,1545,1545
75721366,1000,1000,1000,1000,119228956,1544,1544,1543,1544
75723865,1000,1000,1000,1000,119328916,1544,1544,1543,1544
75726364,1000,1000,1000,1000,119428876,1543,1543,1543,1543
75728863,1000,1000,1000,1000,119528836,1544,1544,1545,1544
75731362,1000,1000,1000,1000,119628796,1543,1543,1544,1543
75733861,1000,1000,1000,1000,119728756,1544,1544,1545,1544
75736360,1000,1000,1000,1000,119828716,1544,1544,1545,1544
75738859,1000,1000,1000,1000,119928676,1544,1544,1544,1544
75741358,1000,1000,1000,1000,120028636,1545,1544,1545,1545
75743857,1000,1000,1000,1000,120128596,1545,1545,1545,1545
75746356,1000,1000,1000,1000,120228556,1544,1545,1544,1544
75748855,1000,1000,1000,1000,120328516,1545,1545,1545,1544
75751354,1000,1000,1000,1000,120428476,1544,1544,1543,1543
75753853,1000,1000,1000,1000,120528436,1544,1544,1544,1544
75756352,1000,1000,1000,1000,120628396,1544,1544,1544,1544
75758851,1000,1000,1000,1000,120728356,1544,1545,1545,1544
75761350,1000,1000,1000,1000,120828316,1545,1545,1545,1545
75763849,1000,1000,1000,1000,120928276,1545,1544,1544,1545
75766348,1000,1000,1000,1000,121028236,1545,1544,1545,1544
75768847,1000,1000,1000,1000,121128196,1545,1544,1544,1544
75771346,1000,1000,1000,1000,121228156,1545,1545,1545,1545
75773845,1000,1000,1000,1000,121328949,1544,1545,1544,1545
75776344,1000,1000,1000,1000,121428909,1545,1545,1545,1545
75778843,1000,1000,1000,1000,121528869,1545,1544,1544,1545
75781342,1000,1000,1000,1000,121628829,1545,1544,1545,1544
75783841,1000,1000,1000,1000,121728789,1544,1544,1544,1544
75786340,1000,1000,1000,1000,121828749,1544,1544,1545,1544
75788839,1000,1000,1000,1000,121928709,1544,1544,1544,1544
75791338,1000,1000,1000,1000,122028669,1545,1545,1545,1545
75793837,1000,1000,1000,1000,122128629,1544,1544,1544,1544
75796336,1000,1000,1000,1000,122228589,1544,1544,1543,1545
75798835,1000,1000,1000,1000,122328549,1545,1545,1545,1545
75801334,1000,1000,1000,1000,122428509,1544,1544,1544,1544
75803833,1000,1000,1000,1000,122528469,1544,1544,1544,1544
75806332,1000,1000,1000,1000,122628429,1544,1544,1544,1543
75808831,1000,1000,1000,1000,122728389,1546,1545,1545,1546
75811330,1000,1000,1000,1000,122828349,1545,1545,1546,1545
75813829,1000,1000,1000,1000,122928309,1545,1545,1546,1545
75816328,1000,1000,1000,1000,123028269,1544,1545,1544,1544
75818827,1000,1000,1000,1000,123128229,1544,1544,1544,1544
75821326,1000,1000,1000,1000,123228189,1545,1544,1544,1545
75823825,1000,1000,1000,1000,123328982,1545,1544,1544,1545
75826324,1000,1000,1000,1000,123428942,1544,1544,1544,1544
75828823,1000,1000,1000,1000,123528902,1544,1544,1543,1544
75831322,1000,1000,1000,1000,123628862,1543,1543,1542,1543
75833821,1000,1000,1000,1000,123728822,1543,1543,1543,1543
75836320,1000,1000,1000,1000,123828782,1543,1544,1544,1543
75838819,1000,1000,1000,1000,123928742,1545,1544,1545,1545
75841318,1000,1000,1000,1000,124028702,1544,1544,1544,1544
75843817,1000,1000,1000,1000,124128662,1545,1544,1544,1545
75846316,1000,1000,1000,1000,124228622,1544,1544,1544,1544
75848815,1000,1000,1000,1000,124328582,1545,1544,1544,1545
75851314,1000,1000,1000,1000,124428542,1544,1544,1543,1544
75853813,1000,1000,1000,1000,124528502,1544,1544,1544,1545
75856312,1000,1000,1000,1000,124628462,1543,1544,1544,1543
75858811,1000,1000,1000,1000,124728422,1544,1544,1544,1544
75861310,1000,1000,1000,1000,124828382,1544,1544,1545,1544
75863809,1000,1000,1000,1000,124928342,1544,1544,1544,1545
75866308,1000,1000,1000,1000,125028302,1544,1544,1544,1544
75868807,1000,1000,1000,1000,125128262,1506,1506,1481,1506
75871306,1000,1000,1000,1000,125228222,1456,1457,1439,1456
75873805,1000,1000,1000,1000,125328182,1424,1425,1439,1424
75876304,1000,1000,1000,1000,125428975,1386,1386,1439,1386
75878803,1000,1000,1000,1000,125528935,1345,1345,1439,1345
75881302,1000,1000,1000,1000,125628895,1300,1300,1439,1300
75883801,1000,1000,1000,1000,125728855,1261,1261,1439,1261
75886300,1000,1000,1000,1000,125828815,1261,1261,1439,1261
75888799,1000,1000,1000,1000,125928775,1264,1255,1439,1264
75891298,1000,1000,1000,1000,126028735,1263,1257,1439,1263
75893797,1000,1000,1000,1000,126128695,1262,1258,1439,1262
75896296,1000,1000,1000,1000,126228655,1262,1259,1439,1262
75898795,1000,1000,1000,1000,126328615,1262,1259,1439,1262
75901294,1000,1000,1000,1000,126428575,1262,1258,1439,1262
75903793,1000,1000,1000,1000,126528535,1262,1258,1439,1262
75906292,1000,1000,1000,1000,126628495,1262,1258,1439,1262
75908791,1000,1000,1000,1000,126728455,1261,1261,1439,1261
75911290,1000,1000,1000,1000,126828415,1261,1261,1439,1261
75913789,1000,1000,1000,1000,126928375,1261,1261,1439,1261
75916288,1000,1000,1000,1000,127028335,1261,1261,1439,1261
75918787,1000,1000,1000,1000,127128295,1261,1260,1439,1261
75921286,1000,1000,1000,1000,127228255,1000,1000,1000,1000
75923785,1000,1000,1000,1000,127328215,1000,1000,1000,1000
75926284,1000,1000,1000,1000,127428175,1000,1000,1000,1000
75928783,1000,1000,1000,1000,127528968,1000,1000,1000,1000
75931282,1000,1000,1000,1000,127628928,1000,1000,1000,1000
75933781,1000,1000,1000,1000,127728888,1000,1000,1000,1000
75936280,1000,1000,1000,1000,127828848,1000,1000,1000,1000
75938779,1000,1000,1000,1000,127928808,1000,1000,1000,1000
75941278,1000,1000,1000,1000,128028768,1000,1000,1000,1000
75943777,1000,1000,1000,1000,128128728,1000,1000,1000,1000
75946276,1000,1000,1000,1000,128228688,1000,1000,1000,1000
75948775,1000,1000,1000,1000,128328648,1000,1000,1000,1000
75951274,1000,1000,1000,1000,128428608,1000,1000,1000,1000
75953773,1000,1000,1000,1000,128528568,1000,1000,1000,1000
75956272,1000,1000,1000,1000,128628528,1000,1000,1000,1000
75958771,1000,1000,1000,1000,128728488,1000,1000,1000,1000
75961270,1000,1000,1000,1000,128828448,1000,1000,1000,1000
75963769,1000,1000,1000,1000,128928408,1000,1000,1000,1000
75966268,1000,1000,1000,1000,129028368,1000,1000,1000,1000
75968767,1000,1000,1000,1000,129128328,1000,1000,1000,1000
75971266,1000,1000,1000,1000,129228288,1000,1000,1000,1000
75973765,1000,1000,1000,1000,129328248,1000,1000,1000,1000
75976264,1000,1000,1000,1000,129428208,1000,1000,1000,1000
75978763,1000,1000,1000,1000,129528168,1000,1000,1000,1000
75981262,1000,1000,1000,1000,129628961,1000,1000,1000,1000
75983761,1000,1000,1000,1000,129728921,1000,1000,1000,1000
75986260,1000,1000,1000,1000,129828881,1000,1000,1000,1000
75988759,1000,1000,1000,1000,129928841,1000,1000,1000,1000
75991258,1000,1000,1000,1000,130028801,1000,1000,1000,1000
75993757,1000,1000,1000,1000,130128761,1000,1000,1000,1000
75996256,1000,1000,1000,1000,130228721,1000,1000,1000,1000
75998755,1000,1000,1000,1000,130328681,1000,1000,1000,1000
76001254,1000,1000,1000,1000,130428641,1000,1000,1000,1000
76003753,1000,1000,1000,1000,130528601,1000,1000,1000,1000
76006252,1000,1000,1000,1000,130628561,1000,1000,1000,1000
76008751,1000,1000,1000,1000,130728521,1000,1000,1000,1000
76011250,1000,1000,1000,1000,130828481,1000,1000,1000,1000
76013749,1000,1000,1000,1000,130928441,1000,1000,1000,1000
76016248,1000,1000,1000,1000,131028401,1000,1000,1000,1000
76018747,1000,1000,1000,1000,131128361,1000,1000,1000,1000
76021246,1000,1000,1000,1000,131228321,1000,1000,1000,1000
76023745,1000,1000,1000,1000,131328281,1000,1000,1000,1000
76026244,1000,1000,1000,1000,131428241,1000,1000,1000,1000
76028743,1000,1000,1000,1000,131528201,1000,1000,1000,1000
76031242,1000,1000,1000,1000,131628161,1000,1000,1000,1000
76033741,1000,1000,1000,1000,131728954,1000,1000,1000,1000
76036240,1000,1000,1000,1000,131828914,1000,1000,1000,1000
76038739,1000,1000,1000,1000,131928874,1000,1000,1000,1000
76041238,1000,1000,1000,1000,132028834,1000,1000,1000,1000
76043737,1000,1000,1000,1000,132128794,1000,1000,1000,1000
76046236,1000,1000,1000,1000,132228754,1000,1000,1000,1000
76048735,1000,1000,1000,1000,132328714,1000,1000,1000,1000
76051234,1000,1000,1000,1000,132428674,1000,1000,1000,1000
76053733,1000,1000,1000,1000,132528634,1000,1000,1000,1000
76056232,1000,1000,1000,1000,132628594,1000,1000,1000,1000
76058731,1000,1000,1000,1000,132728554,1000,1000,1000,1000
76061230,1000,1000,1000,1000,132828514,1000,1000,1000,1000
76063729,1000,1000,1000,1000,132928474,1000,1000,1000,1000
76066228,1000,1000,1000,1000,133028434,1000,1000,1000,1000
76068727,1000,1000,1000,1000,133128394,1000,1000,1000,1000
76071226,1000,1000,1000,1000,133228354,1000,1000,1000,1000
76073725,1000,1000,1000,1000,133328314,1000,1000,1000,1000
76076224,1000,1000,1000,1000,133428274,1000,1000,1000,1000
76078723,1000,1000,1000,1000,133528234,1000,1000,1000,1000
76081222,1000,1000,1000,1000,133628194,1000,1000,1000,1000
76083721,1000,1000,1000,1000,133728154,1000,1000,1000,1000
76086220,1000,1000,1000,1000,133828947,1000,1000,1000,1000
76088719,1000,1000,1000,1000,133928907,1000,1000,1000,1000
76091218,1000,1000,1000,1000,134028867,1000,1000,1000,1000
76093717,1000,1000,1000,1000,134128827,1000,1000,1000,1000
76096216,1000,1000,1000,1000,134228787,1000,1000,1000,1000
76098715,1000,1000,1000,1000,134328747,1000,1000,1000,1000
76101214,1000,1000,1000,1000,134428707,1000,1000,1000,1000
76103713,1000,1000,1000,1000,134528667,1000,1000,1000,1000
76106212,1000,1000,1000,1000,134628627,1000,1000,1000,1000
76108711,1000,1000,1000,1000,134728587,1000,1000,1000,1000
76111210,1000,1000,1000,1000,134828547,1000,1000,1000,1000
76113709,1000,1000,1000,1000,134928507,1000,1000,1000,1000
76116208,1000,1000,1000,1000,135028467,1000,1000,1000,1000
76118707,1000,1000,1000,1000,135128427,1000,1000,1000,1000
76121206,1000,1000,1000,1000,135228387,1000,1000,1000,1000
76123705,1000,1000,1000,1000,135328347,1000,1000,1000,1000
76126204,1000,1000,1000,1000,135428307,1000,1000,1000,1000
76128703,1000,1000,1000,1000,135528267,1000,1000,1000,1000
76131202,1000,1000,1000,1000,135628227,1000,1000,1000,1000
76133701,1000,1000,1000,1000,135728187,1000,1000,1000,1000
76136200,1000,1000,1000,1000,135828980,1000,1000,1000,1000
76138699,1000,1000,1000,1000,135928940,1000,1000,1000,1000
76141198,1000,1000,1000,1000,136028900,1000,1000,1000,1000
76143697,1000,1000,1000,1000,136128860,1000,1000,1000,1000
76146196,1000,1000,1000,1000,136228820,1000,1000,1000,1000
76148695,1000,1000,1000,1000,136328780,1000,1000,1000,1000
76151194,1000,1000,1000,1000,136428740,1000,1000,1000,1000
76153693,1000,1000,1000,1000,136528700,1000,1000,1000,1000
76156192,1000,1000,1000,1000,136628660,1000,1000,1000,1000
76158691,1000,1000,1000,1000,136728620,1000,1000,1000,1000
76161190,1000,1000,1000,1000,136828580,1000,1000,1000,1000
76163689,1000,1000,1000,1000,136928540,1000,1000,1000,1000
76166188,1000,1000,1000,1000,137028500,1000,1000,1000,1000
76168687,1000,1000,1000,1000,137128460,1000,1000,1000,1000
76171186,1000,1000,1000,1000,137228420,1000,1000,1000,1000
76173685,1000,1000,1000,1000,137328380,1000,1000,1000,1000
76176184,1000,1000,1000,1000,137428340,1000,1000,1000,1000
76178683,1000,1000,1000,1000,137528300,1000,1000,1000,1000
76181182,1000,1000,1000,1000,137628260,1000,1000,1000,1000
76183681,1000,1000,1000,1000,137728220,1000,1000,1000,1000
76186180,1000,1000,1000,1000,137828180,1000,1000,1000,1000
76188679,1000,1000,1000,1000,137928973,1000,1000,1000,1000
76191178,1000,1000,1000,1000,,,,,
76193677,1000,1000,1000,1000,,,,,
76196176,1000,1000,1000,1000,,,,,
76198675,1000,1000,1000,1000,,,,,
76201174,1000,1000,1000,1000,,,,,
76203673,1000,1000,1000,1000,,,,,
76206172,1000,1000,1000,1000,,,,,
76208671,1000,1000,1000,1000,,,,,
76211170,1000,1000,1000,1000,,,,,
76213669,1000,1000,1000,1000,,,,,
76216168,1000,1000,1000,1000,,,,,
76218667,1000,1000,1000,1000,,,,,
76221166,1000,1000,1000,1000,,,,,
76223665,1000,1000,1000,1000,,,,,
76226164,1000,1000,1000,1000,,,,,
76228663,1000,1000,1000,1000,,,,,
76231162,1000,1000,1000,1000,,,,,
76233661,1000,1000,1000,1000,,,,,
76236160,1000,1000,1000,1000,,,,,
76238659,1000,1000,1000,1000,,,,,
76241158,1000,1000,1000,1000,,,,,
76243657,1000,1000,1000,1000,,,,,
76246156,1000,1000,1000,1000,,,,,
76248655,1000,1000,1000,1000,,,,,
76251154,1000,1000,1000,1000,,,,,
76253653,1000,1000,1000,1000,,,,,
76256152,1000,1000,1000,1000,,,,,
76258651,1000,1000,1000,1000,,,,,
76261150,1000,1000,1000,1000,,,,,
76263649,1000,1000,1000,1000,,,,,
76266148,1000,1000,1000,1000,,,,,
76268647,1000,1000,1000,1000,,,,,
76271146,1000,1000,1000,1000,,,,,
76273645,1000,1000,1000,1000,,,,,
76276144,1000,1000,1000,1000,,,,,
76278643,1000,1000,1000,1000,,,,,
76281142,1000,1000,1000,1000,,,,,
76283641,1000,1000,1000,1000,,,,,
76286140,1000,1000,1000,1000,,,,,
76288639,1000,1000,1000,1000,,,,,
76291138,1000,1000,1000,1000,,,,,
76293637,1000,1000,1000,1000,,,,,
76296136,1000,1000,1000,1000,,,,,
76298635,1000,1000,1000,1000,,,,,
76301134,1000,1000,1000,1000,,,,,
76303633,1000,1000,1000,1000,,,,,
76306132,1000,1000,1000,1000,,,,,
76308631,1000,1000,1000,1000,,,,,
76311130,1000,1000,1000,1000,,,,,
76313629,1000,1000,1000,1000,,,,,
76316128,1000,1000,1000,1000,,,,,
76318627,1000,1000,1000,1000,,,,,
76321126,1000,1000,1000,1000,,,,,
76323625,1000,1000,1000,1000,,,,,
76326124,1000,1000,1000,1000,,,,,
76328623,1000,1000,1000,1000,,,,,
76331122,1000,1000,1000,1000,,,,,
76333621,1000,1000,1000,1000,,,,,
76336120,1000,1000,1000,1000,,,,,
76338619,1000,1000,1000,1000,,,,,
76341118,1000,1000,1000,1000,,,,,
76343617,1000,1000,1000,1000,,,,,
76346116,1000,1000,1000,1000,,,,,
76348615,1000,1000,1000,1000,,,,,
76351114,1000,1000,1000,1000,,,,,
76353613,1000,1000,1000,1000,,,,,
76356112,1000,1000,1000,1000,,,,,
76358611,1000,1000,1000,1000,,,,,
76361110,1000,1000,1000,1000,,,,,
76363609,1000,1000,1000,1000,,,,,
76366108,1000,1000,1000,1000,,,,,
76368607,1000,1000,1000,1000,,,,,
76371106,1000,1000,1000,1000,,,,,
76373605,1000,1000,1000,1000,,,,,
76376104,1000,1000,1000,1000,,,,,
76378603,1000,1000,1000,1000,,,,,
76381102,1000,1000,1000,1000,,,,,
76383601,1000,1000,1000,1000,,,,,
76386100,1000,1000,1000,1000,,,,,
76388599,1000,1000,1000,1000,,,,,
76391098,1000,1000,1000,1000,,,,,
76393597,1000,1000,1000,1000,,,,,
76396096,1000,1000,1000,1000,,,,,
76398595,1000,1000,1000,1000,,,,,
76401094,1000,1000,1000,1000,,,,,
76403593,1000,1000,1000,1000,,,,,
76406092,1000,1000,1000,1000,,,,,
76408591,1000,1000,1000,1000,,,,,
76411090,1000,1000,1000,1000,,,,,
76413589,1000,1000,1000,1000,,,,,
76416088,1000,1000,1000,1000,,,,,
76418587,1000,1000,1000,1000,,,,,
76421086,1000,1000,1000,1000,,,,,
76423585,1000,1000,1000,1000,,,,,
76426084,1000,1000,1000,1000,,,,,
76428583,1000,1000,1000,1000,,,,,
76431082,1000,1000,1000,1000,,,,,
76433581,1000,1000,1000,1000,,,,,
76436080,1000,1000,1000,1000,,,,,
76438579,1000,1000,1000,1000,,,,,
76441078,1000,1000,1000,1000,,,,,
76443577,1000,1000,1000,1000,,,,,
76446076,1000,1000,1000,1000,,,,,
76448575,1000,1000,1000,1000,,,,,
76451074,1000,1000,1000,1000,,,,,
76453573,1000,1000,1000,1000,,,,,
76456072,1000,1000,1000,1000,,,,,
76458571,1000,1000,1000,1000,,,,,
76461070,1000,1000,1000,1000,,,,,
76463569,1000,1000,1000,1000,,,,,
76466068,1000,1000,1000,1000,,,,,
76468567,1000,1000,1000,1000,,,,,
76471066,1000,1000,1000,1000,,,,,
76473565,1000,1000,1000,1000,,,,,
76476064,1000,1000,1000,1000,,,,,
76478563,1000,1000,1000,1000,,,,,
76481062,1000,1000,1000,1000,,,,,
76483561,1000,1000,1000,1000,,,,,
76486060,1000,1000,1000,1000,,,,,
76488559,1000,1000,1000,1000,,,,,
76491058,1000,1000,1000,1000,,,,,
76493557,1000,1000,1000,1000,,,,,
76496056,1000,1000,1000,1000,,,,,
76498555,1000,1000,1000,1000,,,,,
76501054,1000,1000,1000,1000,,,,,
76503553,1000,1000,1000,1000,,,,,
76506052,1000,1000,1000,1000,,,,,
76508551,1000,1000,1000,1000,,,,,
76511050,1000,1000,1000,1000,,,,,
76513549,1000,1000,1000,1000,,,,,
76516048,1000,1000,1000,1000,,,,,
76518547,1000,1000,1000,1000,,,,,
76521046,1000,1000,1000,1000,,,,,
76523545,1000,1000,1000,1000,,,,,
76526044,1000,1000,1000,1000,,,,,
76528543,1000,1000,1000,1000,,,,,
76531042,1000,1000,1000,1000,,,,,
76533541,1000,1000,1000,1000,,,,,
76536040,1000,1000,1000,1000,,,,,
76538539,1000,1000,1000,1000,,,,,
76541038,1000,1000,1000,1000,,,,,
76543537,1000,1000,1000,1000,,,,,
76546036,1000,1000,1000,1000,,,,,
76548535,1000,1000,1000,1000,,,,,
76551034,1000,1000,1000,1000,,,,,
76553533,1000,1000,1000,1000,,,,,
76556032,1000,1000,1000,1000,,,,,
76558531,1000,1000,1000,1000,,,,,
76561030,1000,1000,1000,1000,,,,,
76563529,1000,1000,1000,1000,,,,,
76566028,1000,1000,1000,1000,,,,,
76568527,1000,1000,1000,1000,,,,,
76571026,1000,1000,1000,1000,,,,,
76573525,1000,1000,1000,1000,,,,,
76576024,1000,1000,1000,1000,,,,,
76578523,1000,1000,1000,1000,,,,,
76581022,1000,1000,1000,1000,,,,,
76583521,1000,1000,1000,1000,,,,,
76586020,1000,1000,1000,1000,,,,,
76588519,1000,1000,1000,1000,,,,,
76591018,1000,1000,1000,1000,,,,,
76593517,1000,1000,1000,1000,,,,,
76596016,1000,1000,1000,1000,,,,,
76598515,1000,1000,1000,1000,,,,,
76601014,1000,1000,1000,1000,,,,,
76603513,1000,1000,1000,1000,,,,,
76606012,1000,1000,1000,1000,,,,,
76608511,1000,1000,1000,1000,,,,,
76611010,1000,1000,1000,1000,,,,,
76613509,1001,1001,1001,1001,,,,,
76616008,1002,1002,1002,1002,,,,,
76618507,1003,1003,1003,1003,,,,,
76621006,1003,1003,1003,1003,,,,,
76623505,1004,1004,1004,1004,,,,,
76626004,1005,1005,1005,1005,,,,,
76628503,1006,1006,1006,1006,,,,,
76631002,1006,1006,1006,1006,,,,,
76633501,1007,1007,1007,1007,,,,,
76636000,1008,1008,1008,1008,,,,,
76638499,1009,1009,1009,1009,,,,,
76640998,1009,1009,1009,1009,,,,,
76643497,1010,1010,1010,1010,,,,,
76645996,1011,1011,1011,1011,,,,,
76648495,1012,1012,1012,1012,,,,,
76650994,1012,1012,1012,1012,,,,,
76653493,1013,1013,1013,1013,,,,,
76655992,1014,1014,1014,1014,,,,,
76658491,1015,1015,1015,1015,,,,,
76660990,1015,1015,1015,1015,,,,,
76663489,1016,1016,1016,1016,,,,,
76665988,1017,1017,1017,1017,,,,,
76668487,1018,1018,1018,1018,,,,,
76670986,1018,1018,1018,1018,,,,,
76673485,1019,1019,1019,1019,,,,,
76675984,1020,1020,1020,1020,,,,,
76678483,1021,1021,1021,1021,,,,,
76680982,1021,1021,1021,1021,,,,,
76683481,1022,1022,1022,1022,,,,,
76685980,1023,1023,1023,1023,,,,,
76688479,1024,1024,1024,1024,,,,,
76690978,1024,1024,1024,1024,,,,,
76693477,1025,1025,1025,1025,,,,,
76695976,1026,1026,1026,1026,,,,,
76698475,1027,1027,1027,1027,,,,,
76700974,1027,1027,1027,1027,,,,,
76703473,1028,1028,1028,1028,,,,,
76705972,1029,1029,1029,1029,,,,,
76708471,1030,1030,1030,1030,,,,,
76710970,1030,1030,1030,1030,,,,,
76713469,1031,1031,1031,1031,,,,,
76715968,1032,1032,1032,1032,,,,,
76718467,1033,1033,1033,1033,,,,,
76720966,1033,1033,1033,1033,,,,,
76723465,1034,1034,1034,1034,,,,,
76725964,1035,1035,1035,1035,,,,,
76728463,1036,1036,1036,1036,,,,,
76730962,1036,1036,1036,1036,,,,,
76733461,1037,1037,1037,1037,,,,,
76735960,1038,1038,1038,1038,,,,,
76738459,1039,1039,1039,1039,,,,,
76740958,1039,1039,1039,1039,,,,,
76743457,1040,1040,1040,1040,,,,,
76745956,1041,1041,1041,1041,,,,,
76748455,1042,1042,1042,1042,,,,,
76750954,1042,1042,1042,1042,,,,,
76753453,1043,1043,1043,1043,,,,,
76755952,1044,1044,1044,1044,,,,,
76758451,1045,1045,1045,1045,,,,,
76760950,1045,1045,1045,1045,,,,,
76763449,1046,1046,1046,1046,,,,,
76765948,1047,1047,1047,1047,,,,,
76768447,1048,1048,1048,1048,,,,,
76770946,1048,1048,1048,1048,,,,,
76773445,1049,1049,1049,1049,,,,,
76775944,1050,1050,1050,1050,,,,,
76778443,1051,1051,1051,1051,,,,,
76780942,1051,1051,1051,1051,,,,,
76783441,1052,1052,1052,1052,,,,,
76785940,1053,1053,1053,1053,,,,,
76788439,1054,1054,1054,1054,,,,,
76790938,1054,1054,1054,1054,,,,,
76793437,1055,1055,1055,1055,,,,,
76795936,1056,1056,1056,1056,,,,,
76798435,1057,1057,1057,1057,,,,,
76800934,1057,1057,1057,1057,,,,,
76803433,1058,1058,1058,1058,,,,,
76805932,1059,1059,1059,1059,,,,,
76808431,1060,1060,1060,1060,,,,,
76810930,1060,1060,1060,1060,,,,,
76813429,1061,1061,1061,1061,,,,,
76815928,1062,1062,1062,1062,,,,,
76818427,1063,1063,1063,1063,,,,,
76820926,1063,1063,1063,1063,,,,,
76823425,1064,1064,1064,1064,,,,,
76825924,1065,1065,1065,1065,,,,,
76828423,1066,1066,1066,1066,,,,,
76830922,1066,1066,1066,1066,,,,,
76833421,1067,1067,1067,1067,,,,,
76835920,1068,1068,1068,1068,,,,,
76838419,1069,1069,1069,1069,,,,,
76840918,1069,1069,1069,1069,,,,,
76843417,1070,1070,1070,1070,,,,,
76845916,1071,1071,1071,1071,,,,,
76848415,1072,1072,1072,1072,,,,,
76850914,1072,1072,1072,1072,,,,,
76853413,1073,1073,1073,1073,,,,,
76855912,1074,1074,1074,1074,,,,,
76858411,1075,1075,1075,1075,,,,,
76860910,1075,1075,1075,1075,,,,,
76863409,1076,1076,1076,1076,,,,,
76865908,1077,1077,1077,1077,,,,,
76868407,1078,1078,1078,1078,,,,,
76870906,1078,1078,1078,1078,,,,,
76873405,1079,1079,1079,1079,,,,,
76875904,1080,1080,1080,1080,,,,,
76878403,1081,1081,1081,1081,,,,,
76880902,1081,1081,1081,1081,,,,,
76883401,1082,1082,1082,1082,,,,,
76885900,1083,1083,1083,1083,,,,,
76888399,1084,1084,1084,1084,,,,,
76890898,1084,1084,1084,1084,,,,,
76893397,1085,1085,1085,1085,,,,,
76895896,1086,1086,1086,1086,,,,,
76898395,1087,1087,1087,1087,,,,,
76900894,1087,1087,1087,1087,,,,,
76903393,1088,1088,1088,1088,,,,,
76905892,1089,1089,1089,1089,,,,,
76908391,1090,1090,1090,1090,,,,,
76910890,1090,1090,1090,1090,,,,,
76913389,1091,1091,1091,1091,,,,,
76915888,1092,1092,1092,1092,,,,,
76918387,1093,1093,1093,1093,,,,,
76920886,1093,1093,1093,1093,,,,,
76923385,1094,1094,1094,1094,,,,,
76925884,1095,1095,1095,1095,,,,,
76928383,1096,1096,1096,1096,,,,,
76930882,1096,1096,1096,1096,,,,,
76933381,1097,1097,1097,1097,,,,,
76935880,1098,1098,1098,1098,,,,,
76938379,1099,1099,1099,1099,,,,,
76940878,1099,1099,1099,1099,,,,,
76943377,1100,1100,1100,1100,,,,,
76945876,1101,1101,1101,1101,,,,,
76948375,1101,1101,1101,1101,,,,,
76950874,1102,1102,1102,1102,,,,,
76953373,1103,1103,1103,1103,,,,,
76955872,1104,1104,1104,1104,,,,,
76958371,1104,1104,1104,1104,,,,,
76960870,1105,1105,1105,1105,,,,,
76963369,1106,1106,1106,1106,,,,,
76965868,1107,1107,1107,1107,,,,,
76968367,1107,1107,1107,1107,,,,,
76970866,1108,1108,1108,1108,,,,,
76973365,1109,1109,1109,1109,,,,,
76975864,1110,1110,1110,1110,,,,,
76978363,1110,1110,1110,1110,,,,,
76980862,1111,1111,1111,1111,,,,,
76983361,1112,1112,1112,1112,,,,,
76985860,1113,1113,1113,1113,,,,,
76988359,1113,1113,1113,1113,,,,,
76990858,1114,1114,1114,1114,,,,,
76993357,1115,1115,1115,1115,,,,,
76995856,1116,1116,1116,1116,,,,,
76998355,1116,1116,1116,1116,,,,,
77000854,1117,1117,1117,1117,,,,,
77003353,1118,1118,1118,1118,,,,,
77005852,1119,1119,1119,1119,,,,,
77008351,1119,1119,1119,1119,,,,,
77010850,1120,1120,1120,1120,,,,,
77013349,1121,1121,1121,1121,,,,,
77015848,1122,1122,1122,1122,,,,,
77018347,1122,1122,1122,1122,,,,,
77020846,1123,1123,1123,1123,,,,,
77023345,1124,1124,1124,1124,,,,,
77025844,1125,1125,1125,1125,,,,,
77028343,1125,1125,1125,1125,,,,,
77030842,1126,1126,1126,1126,,,,,
77033341,1127,1127,1127,1127,,,,,
77035840,1128,1128,1128,1128,,,,,
77038339,1128,1128,1128,1128,,,,,
77040838,1129,1129,1129,1129,,,,,
77043337,1130,1130,1130,1130,,,,,
77045836,1131,1131,1131,1131,,,,,
77048335,1131,1131,1131,1131,,,,,
77050834,1132,1132,1132,1132,,,,,
77053333,1133,1133,1133,1133,,,,,
77055832,1134,1134,1134,1134,,,,,
77058331,1134,1134,1134,1134,,,,,
77060830,1135,1135,1135,1135,,,,,
77063329,1136,1136,1136,1136,,,,,
77065828,1137,1137,1137,1137,,,,,
77068327,1137,1137,1137,1137,,,,,
77070826,1138,1138,1138,1138,,,,,
77073325,1139,1139,1139,1139,,,,,
77075824,1140,1140,1140,1140,,,,,
77078323,1140,1140,1140,1140,,,,,
77080822,1141,1141,1141,1141,,,,,
77083321,1142,1142,1142,1142,,,,,
77085820,1143,1143,1143,1143,,,,,
77088319,1143,1143,1143,1143,,,,,
77090818,1144,1144,1144,1144,,,,,
77093317,1145,1145,1145,1145,,,,,
77095816,1146,1146,1146,1146,,,,,
77098315,1146,1146,1146,1146,,,,,
77100814,1147,1147,1147,1147,,,,,
77103313,1148,1148,1148,1148,,,,,
77105812,1149,1149,1149,1149,,,,,
77108311,1149,1149,1149,1149,,,,,
77110810,1150,1150,1150,1150,,,,,
77113309,1163,1151,1152,1164,,,,,
77115808,1171,1159,1160,1172,,,,,
77118307,1179,1167,1168,1180,,,,,
77120806,1187,1175,1176,1188,,,,,
77123305,1195,1183,1184,1195,,,,,
77125804,1202,1190,1191,1203,,,,,
77128303,1209,1198,1199,1210,,,,,
77130802,1216,1205,1206,1217,,,,,
77133301,1223,1212,1213,1224,,,,,
77135800,1230,1219,1220,1231,,,,,
77138299,1237,1226,1227,1238,,,,,
77140798,1244,1233,1234,1245,,,,,
77143297,1251,1240,1241,1251,,,,,
77145796,1257,1247,1248,1258,,,,,
77148295,1264,1254,1254,1264,,,,,
77150794,1270,1260,1261,1271,,,,,
77153293,1277,1267,1267,1277,,,,,
77155792,1283,1273,1274,1283,,,,,
77158291,1289,1279,1280,1289,,,,,
77160790,1295,1285,1286,1296,,,,,
77163289,1301,1292,1292,1302,,,,,
77165788,1307,1298,1298,1308,,,,,
77168287,1313,1304,1304,1314,,,,,
77170786,1319,1310,1310,1319,,,,,
77173285,1325,1316,1316,1325,,,,,
77175784,1330,1321,1322,1331,,,,,
77178283,1336,1327,1328,1337,,,,,
77180782,1342,1333,1333,1342,,,,,
77183281,1347,1338,1339,1348,,,,,
77185780,1353,1344,1345,1353,,,,,
77188279,1358,1350,1350,1359,,,,,
77190778,1364,1355,1356,1364,,,,,
77193277,1369,1361,1361,1370,,,,,
77195776,1375,1366,1367,1375,,,,,
77198275,1380,1371,1372,1380,,,,,
77200774,1385,1377,1377,1386,,,,,
77203273,1390,1382,1382,1391,,,,,
77205772,1396,1387,1388,1396,,,,,
77208271,1401,1392,1393,1401,,,,,
77210770,1406,1397,1398,1406,,,,,
77213269,1411,1402,1403,1411,,,,,
77215768,1416,1408,1408,1416,,,,,
77218267,1421,1413,1413,1421,,,,,
77220766,1426,1418,1418,1426,,,,,
77223265,1431,1422,1423,1431,,,,,
77225764,1435,1427,1428,1436,,,,,
77228263,1440,1432,1433,1441,,,,,
77230762,1445,1437,1438,1446,,,,,
77233261,1450,1442,1442,1450,,,,,
77235760,1455,1447,1447,1455,,,,,
77238259,1459,1451,1452,1460,,,,,
77240758,1464,1456,1457,1464,,,,,
77243257,1469,1461,1461,1469,,,,,
77245756,1473,1465,1466,1474,,,,,
77248255,1478,1470,1471,1478,,,,,
77250754,1482,1475,1475,1483,,,,,
77253253,1487,1479,1480,1487,,,,,
77255752,1491,1484,1484,1492,,,,,
77258251,1496,1488,1489,1496,,,,,
77260750,1500,1493,1493,1501,,,,,
77263249,1505,1497,1498,1505,,,,,
77265748,1509,1502,1502,1510,,,,,
77268247,1513,1506,1506,1514,,,,,
77270746,1518,1510,1511,1518,,,,,
77273245,1522,1515,1515,1523,,,,,
77275744,1526,1519,1519,1527,,,,,
77278243,1531,1523,1524,1531,,,,,
77280742,1535,1527,1528,1535,,,,,
77283241,1539,1532,1532,1540,,,,,
77285740,1543,1536,1536,1544,,,,,
77288239,1548,1540,1541,1548,,,,,
77290738,1552,1544,1545,1552,,,,,
77293237,1556,1548,1549,1556,,,,,
77295736,1560,1553,1553,1560,,,,,
77298235,1564,1557,1557,1564,,,,,
77300734,1568,1561,1561,1569,,,,,
77303233,1572,1565,1565,1573,,,,,
77305732,1576,1569,1569,1577,,,,,
77308231,1580,1573,1573,1581,,,,,
77310730,1584,1577,1577,1585,,,,,
77313229,1588,1581,1581,1589,,,,,
77315728,1592,1585,1585,1593,,,,,
77318227,1596,1589,1589,1596,,,,,
77320726,1600,1593,1593,1600,,,,,
77323225,1604,1597,1597,1604,,,,,
77325724,1608,1601,1601,1608,,,,,
77328223,1612,1604,1605,1612,,,,,
77330722,1616,1608,1609,1616,,,,,
77333221,1619,1612,1613,1620,,,,,
77335720,1623,1616,1617,1624,,,,,
77338219,1627,1620,1620,1627,,,,,
77340718,1631,1624,1624,1631,,,,,
77343217,1634,1628,1628,1635,,,,,
77345716,1638,1631,1632,1639,,,,,
77348215,1642,1635,1635,1642,,,,,
77350714,1646,1639,1639,1646,,,,,
77353213,1649,1642,1643,1650,,,,,
77355712,1653,1646,1647,1653,,,,,
77358211,1657,1650,1650,1657,,,,,
77360710,1660,1654,1654,1661,,,,,
77363209,1664,1657,1658,1664,,,,,
77365708,1668,1661,1661,1668,,,,,
77368207,1671,1664,1665,1672,,,,,
77370706,1675,1668,1669,1675,,,,,
77373205,1678,1672,1672,1679,,,,,
77375704,1682,1675,1676,1682,,,,,
77378203,1686,1679,1679,1686,,,,,
77380702,1689,1682,1683,1690,,,,,
77383201,1693,1686,1686,1693,,,,,
77385700,1696,1689,1690,1697,,,,,
77388199,1700,1693,1693,1700,,,,,
77390698,1703,1697,1697,1704,,,,,
77393197,1707,1700,1700,1707,,,,,
77395696,1710,1704,1704,1711,,,,,
77398195,1714,1707,1707,1714,,,,,
77400694,1717,1710,1711,1717,,,,,
77403193,1720,1714,1714,1721,,,,,
77405692,1724,1717,1718,1724,,,,,
77408191,1727,1721,1721,1728,,,,,
77410690,1731,1724,1725,1731,,,,,
77413189,1734,1728,1728,1734,,,,,
77415688,1737,1731,1731,1738,,,,,
77418187,1741,1734,1735,1741,,,,,
77420686,1744,1738,1738,1744,,,,,
77423185,1747,1741,1741,1748,,,,,
77425684,1751,1744,1745,1751,,,,,
77428183,1754,1748,1748,1754,,,,,
77430682,1757,1751,1751,1758,,,,,
77433181,1761,1754,1755,1761,,,,,
77435680,1764,1757,1758,1764,,,,,
77438179,1767,1761,1761,1768,,,,,
77440678,1771,1764,1765,1771,,,,,
77443177,1774,1767,1768,1774,,,,,
77445676,1777,1770,1771,1777,,,,,
77448175,1780,1774,1774,1781,,,,,
77450674,1784,1777,1778,1784,,,,,
77453173,1787,1780,1781,1787,,,,,
77455672,1790,1783,1784,1790,,,,,
77458171,1793,1787,1787,1793,,,,,
77460670,1796,1790,1790,1797,,,,,
77463169,1800,1793,1794,1800,,,,,
77465668,1803,1796,1797,1803,,,,,
77468167,1806,1799,1800,1806,,,,,
77470666,1809,1802,1803,1809,,,,,
77473165,1812,1805,1806,1812,,,,,
77475664,1815,1809,1809,1815,,,,,
77478163,1818,1812,1812,1819,,,,,
77480662,1822,1815,1816,1822,,,,,
77483161,1825,1818,1819,1825,,,,,
77485660,1828,1821,1822,1828,,,,,
77488159,1831,1824,1825,1831,,,,,
77490658,1834,1827,1828,1834,,,,,
77493157,1837,1830,1831,1837,,,,,
77495656,1840,1833,1834,1840,,,,,
77498155,1843,1836,1837,1843,,,,,
77500654,1846,1839,1840,1846,,,,,
77503986,1849,1842,1843,1849,,,,,
77506485,1852,1845,1846,1852,,,,,
77508984,1855,1848,1849,1855,,,,,
77511483,1858,1851,1852,1858,,,,,
77513982,1861,1854,1855,1861,,,,,
77516481,1864,1857,1858,1864,,,,,
77518980,1867,1860,1861,1867,,,,,
77521479,1870,1863,1864,1870,,,,,
77523978,1873,1866,1867,1873,,,,,
77526477,1876,1869,1870,1876,,,,,
77528976,1879,1872,1873,1879,,,,,
77531475,1882,1875,1876,1882,,,,,
77533974,1885,1878,1879,1885,,,,,
77536473,1888,1881,1882,1888,,,,,
77538972,1891,1884,1885,1891,,,,,
77541471,1894,1887,1888,1894,,,,,
77543970,1897,1890,1891,1897,,,,,
77546469,1900,1893,1893,1900,,,,,
77548968,1900,1893,1894,1900,,,,,
77551467,1899,1892,1892,1899,,,,,
77553966,1898,1891,1891,1898,,,,,
77556465,1897,1890,1891,1897,,,,,
77558964,1896,1889,1890,1896,,,,,
77561463,1895,1888,1889,1895,,,,,
77563962,1894,1887,1888,1894,,,,,
77566461,1893,1886,1887,1893,,,,,
77568960,1893,1886,1886,1893,,,,,
77571459,1892,1885,1886,1892,,,,,
77573958,1891,1884,1885,1891,,,,,
77576457,1891,1884,1885,1891,,,,,
77578956,1890,1883,1884,1890,,,,,
77581455,1890,1883,1884,1890,,,,,
77583954,1890,1883,1883,1890,,,,,
77586453,1890,1883,1883,1890,,,,,
77588952,1889,1882,1883,1889,,,,,
77591451,1889,1882,1883,1889,,,,,
77593950,1889,1882,1883,1889,,,,,
77596449,1890,1883,1883,1890,,,,,
77598948,1890,1883,1884,1890,,,,,
77601447,1890,1883,1884,1890,,,,,
77603946,1890,1883,1884,1890,,,,,
77606445,1891,1884,1885,1890,,,,,
77608944,1891,1884,1885,1891,,,,,
77611443,1891,1885,1886,1891,,,,,
77613942,1891,1885,1886,1891,,,,,
77616441,1891,1886,1886,1891,,,,,
77618940,1891,1886,1887,1891,,,,,
77621439,1891,1886,1887,1891,,,,,
77623938,1891,1886,1887,1891,,,,,
77626437,1891,1886,1886,1891,,,,,
77628936,1890,1885,1886,1890,,,,,
77631435,1889,1885,1885,1890,,,,,
77633934,1889,1884,1885,1889,,,,,
77636433,1887,1883,1884,1888,,,,,
77638932,1886,1882,1882,1887,,,,,
77641431,1885,1881,1881,1885,,,,,
77643930,1883,1879,1880,1884,,,,,
77646429,1882,1878,1878,1882,,,,,
77648928,1880,1876,1876,1880,,,,,
77651427,1878,1874,1875,1879,,,,,
77653926,1876,1872,1873,1877,,,,,
77656425,1874,1870,1871,1874,,,,,
77658924,1872,1868,1868,1872,,,,,
77661423,1869,1866,1866,1870,,,,,
77663922,1867,1863,1864,1867,,,,,
77666421,1864,1861,1861,1865,,,,,
77668920,1862,1858,1858,1862,,,,,
77671419,1859,1855,1856,1859,,,,,
77673918,1856,1853,1853,1856,,,,,
77676417,1853,1850,1850,1853,,,,,
77678916,1850,1847,1847,1851,,,,,
77681415,1847,1844,1844,1847,,,,,
77683914,1844,1841,1841,1844,,,,,
77686413,1841,1838,1838,1841,,,,,
77688912,1838,1835,1835,1838,,,,,
77691411,1834,1832,1832,1835,,,,,
77693910,1831,1828,1829,1832,,,,,
77696409,1828,1825,1825,1829,,,,,
77698908,1825,1822,1822,1825,,,,,
77701407,1821,1819,1819,1822,,,,,
77703906,1818,1816,1816,1819,,,,,
77706405,1815,1812,1813,1816,,,,,
77708904,1812,1809,1809,1812,,,,,
77711403,1808,1806,1806,1809,,,,,
77713902,1805,1803,1803,1806,,,,,
77716401,1802,1800,1800,1802,,,,,
77718900,1798,1796,1796,1799,,,,,
77721399,1795,1793,1793,1796,,,,,
77723898,1792,1790,1790,1792,,,,,
77726397,1788,1787,1787,1789,,,,,
77728896,1785,1783,1783,1786,,,,,
77731395,1782,1780,1780,1782,,,,,
77733894,1778,1777,1777,1779,,,,,
77736393,1775,1773,1774,1776,,,,,
77738892,1772,1770,1770,1772,,,,,
77741391,1768,1767,1767,1769,,,,,
77743890,1765,1764,1764,1766,,,,,
77746389,1762,1760,1761,1762,,,,,
77748888,1758,1757,1757,1759,,,,,
77751387,1755,1754,1754,1756,,,,,
77753886,1752,1751,1751,1752,,,,,
77756385,1748,1748,1748,1749,,,,,
77758884,1745,1745,1745,1746,,,,,
77761383,1742,1742,1742,1743,,,,,
77763882,1739,1739,1739,1740,,,,,
77766381,1736,1736,1736,1737,,,,,
77768880,1733,1733,1733,1734,,,,,
77771379,1730,1730,1730,1731,,,,,
77773878,1727,1727,1727,1728,,,,,
77776377,1724,1724,1724,1725,,,,,
77778876,1721,1721,1721,1722,,,,,
77781375,1718,1718,1718,1719,,,,,
77783874,1715,1716,1716,1716,,,,,
77786373,1713,1713,1713,1713,,,,,
77788872,1710,1710,1710,1710,,,,,
77791371,1707,1708,1708,1708,,,,,
77793870,1705,1705,1705,1705,,,,,
77796369,1702,1702,1703,1702,,,,,
77798868,1699,1700,1700,1700,,,,,
77801367,1697,1697,1698,1697,,,,,
77803866,1694,1695,1695,1695,,,,,
77806365,1692,1693,1693,1692,,,,,
77808864,1690,1690,1691,1690,,,,,
77811363,1687,1688,1688,1688,,,,,
77813862,1685,1686,1686,1685,,,,,
77816361,1683,1684,1684,1683,,,,,
77818860,1681,1682,1682,1681,,,,,
77821359,1678,1680,1680,1679,,,,,
77823858,1676,1678,1678,1677,,,,,
77826357,1674,1676,1676,1675,,,,,
77828856,1672,1674,1674,1673,,,,,
77831355,1670,1672,1672,1671,,,,,
77833854,1668,1670,1670,1669,,,,,
77836353,1667,1668,1668,1667,,,,,
77838852,1665,1666,1667,1665,,,,,
77841351,1663,1664,1665,1663,,,,,
77843850,1661,1663,1663,1662,,,,,
77846349,1659,1661,1661,1660,,,,,
77848848,1658,1659,1660,1658,,,,,
77851347,1656,1658,1658,1656,,,,,
77853846,1654,1656,1657,1655,,,,,
77856345,1653,1655,1655,1653,,,,,
77858844,1651,1653,1654,1652,,,,,
77861343,1650,1652,1652,1650,,,,,
77863842,1648,1650,1651,1649,,,,,
