TimeUS,M1,M2,M3,M4,TimeUS,C1,C2,C3,C4
76798435,1000,1000,1000,1000,76828423,1000,1000,1000,1000
76800934,1000,1000,1000,1000,76928383,1000,1000,1000,1000
76803433,1000,1000,1000,1000,77028343,1000,1000,1000,1000
76805932,1000,1000,1000,1000,77128303,1000,1000,1000,1000
76808431,1000,1000,1000,1000,77228263,1000,1000,1000,1000
76810930,1000,1000,1000,1000,77328223,1000,1000,1000,1000
76813429,1000,1000,1000,1000,77428183,1000,1000,1000,1000
76815928,1000,1000,1000,1000,77528976,1000,1000,1000,1000
76818427,1000,1000,1000,1000,77628936,1000,1000,1000,1000
76820926,1000,1000,1000,1000,77728896,1000,1000,1000,1000
76823425,1000,1000,1000,1000,77828856,1000,1000,1000,1000
76825924,1000,1000,1000,1000,77928816,1000,1000,1000,1000
76828423,1000,1000,1000,1000,78028776,1000,1000,1000,1000
76830922,1000,1000,1000,1000,78128736,1000,1000,1000,1000
76833421,1000,1000,1000,1000,78228696,1000,1000,1000,1000
76835920,1000,1000,1000,1000,78328656,1000,1000,1000,1000
76838419,1000,1000,1000,1000,78428616,1000,1000,1000,1000
76840918,1000,1000,1000,1000,78528576,1000,1000,1000,1000
76843417,1000,1000,1000,1000,78628536,1000,1000,1000,1000
76845916,1000,1000,1000,1000,78728496,1000,1000,1000,1000
76848415,1000,1000,1000,1000,78828456,1009,1009,1009,1009
76850914,1000,1000,1000,1000,78928416,1039,1039,1039,1039
76853413,1000,1000,1000,1000,79028376,1069,1069,1069,1069
76855912,1000,1000,1000,1000,79128336,1099,1099,1099,1099
76858411,1000,1000,1000,1000,79228296,1128,1128,1128,1128
76860910,1000,1000,1000,1000,79328256,1238,1226,1227,1238
76863409,1000,1000,1000,1000,79428216,1459,1451,1452,1460
76865908,1000,1000,1000,1000,79528176,1627,1620,1620,1627
76868407,1000,1000,1000,1000,79628969,1768,1760,1761,1768
76870906,1000,1000,1000,1000,79728929,1891,1884,1885,1891
76873405,1000,1000,1000,1000,79828889,1895,1892,1893,1895
76875904,1000,1000,1000,1000,79928849,1768,1767,1765,1770
76878403,1000,1000,1000,1000,80028809,1657,1658,1656,1659
76880902,1000,1000,1000,1000,80128769,1614,1616,1616,1616
76883401,1000,1000,1000,1000,80228729,1613,1615,1615,1613
76885900,1000,1000,1000,1000,80328689,1619,1621,1622,1619
76888399,1000,1000,1000,1000,80428649,1621,1622,1623,1620
76890898,1000,1000,1000,1000,80528609,1617,1616,1617,1616
76893397,1000,1000,1000,1000,80628569,1612,1611,1611,1611
76895896,1000,1000,1000,1000,80728529,1611,1609,1609,1611
76898395,1000,1000,1000,1000,80828489,1613,1611,1611,1612
76900894,1000,1000,1000,1000,80928449,1614,1615,1614,1614
76903393,1000,1000,1000,1000,81028409,1617,1617,1617,1616
76905892,1000,1000,1000,1000,81128369,1619,1619,1620,1617
76908391,1000,1000,1000,1000,81228329,1588,1589,1595,1581
76910890,1000,1000,1000,1000,81328289,1573,1574,1579,1568
76913389,1000,1000,1000,1000,81428249,1562,1562,1563,1561
76915888,1000,1000,1000,1000,81528209,1554,1553,1549,1558
76918387,1000,1000,1000,1000,81628169,1545,1544,1536,1553
76920886,1000,1000,1000,1000,81728962,1539,1538,1530,1546
76923385,1000,1000,1000,1000,81828922,1533,1532,1528,1537
76925884,1000,1000,1000,1000,81928882,1528,1529,1527,1529
76928383,1000,1000,1000,1000,82028842,1528,1528,1529,1527
76930882,1000,1000,1000,1000,82128802,1530,1530,1532,1528
76933381,1000,1000,1000,1000,82228762,1532,1532,1535,1529
76935880,1000,1000,1000,1000,82328722,1536,1536,1539,1533
76938379,1000,1000,1000,1000,82428682,1538,1539,1541,1537
76940878,1000,1000,1000,1000,82528642,1542,1542,1543,1541
76943377,1000,1000,1000,1000,82628602,1545,1546,1546,1546
76945876,1000,1000,1000,1000,82728562,1548,1547,1547,1548
76948375,1000,1000,1000,1000,82828522,1550,1550,1550,1551
76950874,1000,1000,1000,1000,82928482,1553,1553,1552,1555
76953373,1000,1000,1000,1000,83028442,1554,1554,1555,1557
76955872,1000,1000,1000,1000,83128402,1556,1556,1560,1562
76958371,1000,1000,1000,1000,83228362,1558,1559,1563,1564
76960870,1000,1000,1000,1000,83328322,1560,1559,1563,1564
76963369,1000,1000,1000,1000,83428282,1562,1562,1565,1564
76965868,1000,1000,1000,1000,83528242,1565,1565,1566,1566
76968367,1000,1000,1000,1000,83628202,1566,1566,1566,1566
76970866,1000,1000,1000,1000,83728162,1568,1568,1567,1567
76973365,1000,1000,1000,1000,83828955,1569,1569,1567,1567
76975864,1000,1000,1000,1000,83928915,1570,1570,1567,1567
76978363,1000,1000,1000,1000,84028875,1571,1571,1568,1568
76980862,1000,1000,1000,1000,84128835,1572,1572,1569,1569
76983361,1000,1000,1000,1000,84228795,1573,1573,1571,1571
76985860,1000,1000,1000,1000,84328755,1573,1573,1571,1571
76988359,1000,1000,1000,1000,84428715,1574,1574,1572,1571
76990858,1000,1000,1000,1000,84528675,1575,1574,1574,1573
76993357,1000,1000,1000,1000,84628635,1576,1576,1576,1575
76995856,1000,1000,1000,1000,84728595,1575,1575,1575,1574
76998355,1000,1000,1000,1000,84828555,1575,1575,1576,1575
77000854,1000,1000,1000,1000,84928515,1576,1576,1577,1577
77003353,1000,1000,1000,1000,85028475,1577,1577,1577,1578
77005852,1000,1000,1000,1000,85128435,1575,1575,1576,1577
77008351,1000,1000,1000,1000,85228395,1575,1576,1576,1577
77010850,1000,1000,1000,1000,85328355,1576,1576,1576,1576
77013349,1000,1000,1000,1000,85428315,1576,1576,1577,1576
77015848,1000,1000,1000,1000,85528275,1577,1576,1576,1576
77018347,1000,1000,1000,1000,85628235,1578,1578,1578,1578
77020846,1000,1000,1000,1000,85728195,1578,1577,1577,1577
77023345,1000,1000,1000,1000,85828155,1579,1579,1578,1578
77025844,1000,1000,1000,1000,85928948,1579,1579,1578,1579
77028343,1000,1000,1000,1000,86028908,1579,1579,1579,1579
77030842,1000,1000,1000,1000,86128868,1578,1578,1578,1578
77033341,1000,1000,1000,1000,86228828,1578,1578,1578,1578
77035840,1000,1000,1000,1000,86328788,1578,1579,1578,1579
77038339,1000,1000,1000,1000,86428748,1578,1578,1578,1578
77040838,1000,1000,1000,1000,86528708,1579,1579,1579,1579
77043337,1000,1000,1000,1000,86628668,1578,1578,1578,1578
77045836,1000,1000,1000,1000,86728628,1579,1579,1579,1580
77048335,1000,1000,1000,1000,86828588,1580,1579,1580,1579
77050834,1000,1000,1000,1000,86928548,1580,1579,1580,1580
77053333,1000,1000,1000,1000,87028508,1578,1578,1579,1579
77055832,1000,1000,1000,1000,87128468,1579,1579,1579,1580
77058331,1000,1000,1000,1000,87228428,1579,1578,1579,1579
77060830,1000,1000,1000,1000,87328388,1579,1579,1579,1580
77063329,1000,1000,1000,1000,87428348,1579,1579,1579,1579
77065828,1000,1000,1000,1000,87528308,1580,1580,1580,1580
77068327,1000,1000,1000,1000,87628268,1580,1580,1580,1580
77070826,1000,1000,1000,1000,87728228,1580,1580,1580,1580
77073325,1000,1000,1000,1000,87828188,1580,1581,1581,1580
77075824,1000,1000,1000,1000,87928981,1581,1580,1580,1580
77078323,1000,1000,1000,1000,88028941,1580,1580,1580,1579
77080822,1000,1000,1000,1000,88128901,1580,1580,1580,1580
77083321,1000,1000,1000,1000,88228861,1580,1581,1581,1581
77085820,1000,1000,1000,1000,88328821,1580,1581,1581,1581
77088319,1000,1000,1000,1000,88428781,1580,1580,1580,1580
77090818,1000,1000,1000,1000,88528741,1581,1581,1581,1581
77093317,1000,1000,1000,1000,88628701,1581,1581,1582,1582
77095816,1000,1000,1000,1000,88728661,1581,1581,1582,1582
77098315,1000,1000,1000,1000,88828621,1581,1581,1581,1581
77100814,1000,1000,1000,1000,88928581,1581,1582,1582,1582
77103313,1000,1000,1000,1000,89028541,1581,1581,1581,1581
77105812,1000,1000,1000,1000,89128501,1581,1580,1581,1581
77108311,1000,1000,1000,1000,89228461,1581,1581,1586,1575
77110810,1000,1000,1000,1000,89328421,1579,1581,1586,1572
77113309,1000,1000,1000,1000,89428381,1579,1582,1580,1573
77115808,1000,1000,1000,1000,89528341,1577,1580,1570,1572
77118307,1000,1000,1000,1000,89628301,1577,1579,1563,1569
77120806,1000,1000,1000,1000,89728261,1578,1579,1558,1565
77123305,1000,1000,1000,1000,89828221,1579,1577,1555,1559
77125804,1000,1000,1000,1000,89928181,1579,1577,1554,1556
77128303,1000,1000,1000,1000,90028974,1579,1578,1555,1554
77130802,1000,1000,1000,1000,90128934,1579,1578,1556,1553
77133301,1000,1000,1000,1000,90228894,1578,1578,1556,1553
77135800,1000,1000,1000,1000,90328854,1576,1578,1555,1554
77138299,1000,1000,1000,1000,90428814,1575,1577,1554,1553
77140798,1000,1000,1000,1000,90528774,1575,1577,1554,1554
77143297,1000,1000,1000,1000,90628734,1576,1578,1553,1553
77145796,1000,1000,1000,1000,90728694,1576,1578,1551,1550
77148295,1000,1000,1000,1000,90828654,1578,1579,1549,1548
77150794,1000,1000,1000,1000,90928614,1581,1581,1546,1546
77153293,1000,1000,1000,1000,91028574,1584,1584,1544,1544
77155792,1000,1000,1000,1000,91128534,1586,1587,1541,1540
77158291,1000,1000,1000,1000,91228494,1589,1590,1538,1538
77160790,1000,1000,1000,1000,91328454,1591,1592,1535,1535
77163289,1000,1000,1000,1000,91428414,1594,1594,1534,1535
77165788,1000,1000,1000,1000,91528374,1594,1594,1534,1534
77168287,1000,1000,1000,1000,91628334,1594,1594,1535,1537
77170786,1000,1000,1000,1000,91728294,1592,1592,1538,1540
77173285,1000,1000,1000,1000,91828254,1589,1588,1543,1546
77175784,1000,1000,1000,1000,91928214,1584,1581,1550,1553
77178283,1000,1000,1000,1000,92028174,1575,1573,1560,1562
77180782,1000,1000,1000,1000,92128967,1566,1562,1572,1573
77183281,1000,1000,1000,1000,92228927,1555,1551,1584,1585
77185780,1000,1000,1000,1000,92328887,1544,1542,1596,1596
77188279,1000,1000,1000,1000,92428847,1535,1534,1605,1605
77190778,1000,1000,1000,1000,92528807,1530,1530,1612,1611
77193277,1000,1000,1000,1000,92628767,1528,1530,1615,1614
77195776,1000,1000,1000,1000,92728727,1530,1533,1614,1613
77198275,1000,1000,1000,1000,92828687,1535,1538,1610,1610
77200774,1000,1000,1000,1000,92928647,1543,1544,1604,1604
77203273,1000,1000,1000,1000,93028607,1551,1553,1597,1597
77205772,1000,1000,1000,1000,93128567,1561,1562,1591,1590
77208271,1000,1000,1000,1000,93228527,1570,1570,1583,1583
77210770,1000,1000,1000,1000,93328487,1577,1576,1577,1576
77213269,1000,1000,1000,1000,93428447,1583,1582,1572,1572
77215768,1000,1000,1000,1000,93528407,1587,1585,1569,1569
77218267,1000,1000,1000,1000,93628367,1588,1587,1566,1566
77220766,1000,1000,1000,1000,93728327,1588,1587,1567,1567
77223265,1000,1000,1000,1000,93828287,1587,1586,1568,1568
77225764,1000,1000,1000,1000,93928247,1585,1584,1571,1571
77228263,1000,1000,1000,1000,94028207,1582,1582,1574,1574
77230762,1000,1000,1000,1000,94128167,1579,1579,1577,1577
77233261,1000,1000,1000,1000,94228960,1577,1578,1580,1580
77235760,1000,1000,1000,1000,94328920,1574,1575,1581,1581
77238259,1000,1000,1000,1000,94428880,1574,1574,1584,1584
77240758,1000,1000,1000,1000,94528840,1572,1573,1583,1584
77243257,1000,1000,1000,1000,94628800,1572,1573,1583,1583
77245756,1000,1000,1000,1000,94728760,1573,1574,1583,1583
77248255,1000,1000,1000,1000,94828720,1574,1575,1583,1583
77250754,1000,1000,1000,1000,94928680,1576,1576,1582,1582
77253253,1000,1000,1000,1000,95028640,1578,1578,1581,1581
77255752,1000,1000,1000,1000,95128600,1579,1579,1580,1580
77258251,1000,1000,1000,1000,95228560,1580,1580,1579,1578
77260750,1000,1000,1000,1000,95328520,1581,1581,1578,1578
77263249,1000,1000,1000,1000,95428480,1590,1589,1639,1530
77265748,1000,1000,1000,1000,95528440,1586,1586,1601,1576
77268247,1000,1000,1000,1000,95628400,1584,1584,1595,1582
77270746,1000,1000,1000,1000,95728360,1582,1581,1587,1586
77273245,1000,1000,1000,1000,95828320,1578,1578,1580,1587
77275744,1000,1000,1000,1000,95928280,1576,1576,1576,1585
77278243,1000,1000,1000,1000,96028240,1574,1575,1575,1582
77280742,1000,1000,1000,1000,96128200,1575,1575,1575,1580
77283241,1000,1000,1000,1000,96228160,1576,1576,1577,1577
77285740,1000,1000,1000,1000,96328953,1579,1579,1579,1577
77288239,1000,1000,1000,1000,96428913,1580,1580,1580,1577
77290738,1000,1000,1000,1000,96528873,1581,1580,1580,1577
77293237,1000,1000,1000,1000,96628833,1582,1582,1580,1579
77295736,1000,1000,1000,1000,96728793,1582,1582,1580,1579
77298235,1000,1000,1000,1000,96828753,1581,1581,1578,1579
77300734,1000,1000,1000,1000,96928713,1581,1581,1579,1580
77303233,1000,1000,1000,1000,97028673,1581,1581,1580,1580
77305732,1000,1000,1000,1000,97128633,1581,1581,1580,1580
77308231,1000,1000,1000,1000,97228593,1580,1582,1586,1575
77310730,1000,1000,1000,1000,97328553,1581,1585,1587,1573
77313229,1000,1000,1000,1000,97428513,1580,1584,1579,1573
77315728,1000,1000,1000,1000,97528473,1580,1582,1570,1571
77318227,1000,1000,1000,1000,97628433,1579,1581,1561,1567
77320726,1000,1000,1000,1000,97728393,1580,1581,1557,1564
77323225,1000,1000,1000,1000,97828353,1581,1580,1554,1558
77325724,1000,1000,1000,1000,97928313,1581,1579,1553,1554
77328223,1000,1000,1000,1000,98028273,1581,1580,1554,1553
77330722,1000,1000,1000,1000,98128233,1580,1580,1554,1552
77333221,1000,1000,1000,1000,98228193,1579,1580,1554,1552
77335720,1000,1000,1000,1000,98328986,1578,1579,1554,1553
77338219,1000,1000,1000,1000,98428946,1577,1579,1554,1553
77340718,1000,1000,1000,1000,98528906,1575,1578,1553,1552
77343217,1000,1000,1000,1000,98628866,1577,1578,1552,1552
77345716,1000,1000,1000,1000,98728826,1578,1578,1550,1550
77348215,1000,1000,1000,1000,98828786,1578,1579,1548,1548
77350714,1000,1000,1000,1000,98928746,1581,1581,1547,1547
77353213,1000,1000,1000,1000,99028706,1583,1584,1545,1545
77355712,1000,1000,1000,1000,99128666,1586,1586,1544,1544
77358211,1000,1000,1000,1000,99228626,1588,1589,1542,1543
77360710,1000,1000,1000,1000,99328586,1591,1591,1541,1542
77363209,1000,1000,1000,1000,99428546,1592,1593,1540,1541
77365708,1000,1000,1000,1000,99528506,1593,1593,1540,1541
77368207,1000,1000,1000,1000,99628466,1592,1591,1543,1545
77370706,1000,1000,1000,1000,99728426,1589,1586,1547,1550
77373205,1000,1000,1000,1000,99828386,1584,1581,1556,1558
77375704,1000,1000,1000,1000,99928346,1576,1572,1565,1567
77378203,1000,1000,1000,1000,100028306,1566,1562,1575,1577
77380702,1000,1000,1000,1000,100128266,1558,1554,1587,1588
77383201,1000,1000,1000,1000,100228226,1548,1546,1596,1596
77385700,1000,1000,1000,1000,100328186,1540,1540,1603,1603
77388199,1000,1000,1000,1000,100428979,1537,1539,1609,1608
77390698,1000,1000,1000,1000,100528939,1536,1538,1610,1609
77393197,1000,1000,1000,1000,100628899,1539,1541,1609,1609
77395696,1000,1000,1000,1000,100728859,1544,1545,1606,1605
77398195,1000,1000,1000,1000,100828819,1551,1552,1602,1600
77400694,1000,1000,1000,1000,100928779,1558,1558,1595,1594
77403193,1000,1000,1000,1000,101028739,1565,1565,1588,1587
77405692,1000,1000,1000,1000,101128699,1572,1571,1582,1581
77408191,1000,1000,1000,1000,101228659,1578,1577,1577,1577
77410690,1000,1000,1000,1000,101328619,1582,1581,1572,1573
77413189,1000,1000,1000,1000,101428579,1585,1583,1570,1570
77415688,1000,1000,1000,1000,101528539,1586,1585,1569,1570
77418187,1000,1000,1000,1000,101628499,1584,1584,1568,1568
77420686,1000,1000,1000,1000,101728459,1584,1583,1570,1571
77423185,1000,1000,1000,1000,101828419,1584,1583,1574,1574
77425684,1000,1000,1000,1000,101928379,1580,1580,1575,1575
77428183,1000,1000,1000,1000,102028339,1577,1578,1577,1577
77430682,1000,1000,1000,1000,102128299,1576,1577,1580,1580
77433181,1000,1000,1000,1000,102228259,1574,1575,1581,1581
77435680,1000,1000,1000,1000,102328219,1574,1574,1583,1583
77438179,1000,1000,1000,1000,102428179,1573,1574,1583,1583
77440678,1000,1000,1000,1000,102528972,1574,1574,1584,1584
77443177,1000,1000,1000,1000,102628932,1575,1575,1583,1583
77445676,1000,1000,1000,1000,102728892,1576,1575,1582,1582
77448175,1000,1000,1000,1000,102828852,1576,1576,1581,1581
77450674,1000,1000,1000,1000,102928812,1578,1578,1580,1580
77453173,1000,1000,1000,1000,103028772,1578,1578,1578,1578
77455672,1000,1000,1000,1000,103128732,1580,1579,1578,1578
77458171,1000,1000,1000,1000,103228692,1580,1580,1577,1577
77460670,1000,1000,1000,1000,103328652,1580,1580,1577,1577
77463169,1000,1000,1000,1000,103428612,1580,1580,1577,1577
77465668,1000,1000,1000,1000,103528572,1581,1581,1578,1578
77468167,1000,1000,1000,1000,103628532,1581,1581,1578,1578
77470666,1000,1000,1000,1000,103728492,1579,1580,1578,1578
77473165,1000,1000,1000,1000,103828452,1580,1580,1579,1579
77475664,1000,1000,1000,1000,103928412,1579,1579,1579,1579
77478163,1000,1000,1000,1000,104028372,1579,1579,1580,1580
77480662,1000,1000,1000,1000,104128332,1579,1579,1580,1580
77483161,1000,1000,1000,1000,104228292,1580,1580,1581,1581
77485660,1000,1000,1000,1000,104328252,1580,1579,1581,1581
77488159,1000,1000,1000,1000,104428212,1579,1579,1581,1581
77490658,1000,1000,1000,1000,104528172,1580,1580,1581,1582
77493157,1000,1000,1000,1000,104628965,1581,1581,1582,1582
77495656,1000,1000,1000,1000,104728925,1580,1580,1581,1581
77498155,1000,1000,1000,1000,104828885,1581,1582,1582,1581
77500654,1000,1000,1000,1000,104928845,1582,1581,1581,1581
77503986,1000,1000,1000,1000,105028805,1582,1582,1581,1581
77506485,1000,1000,1000,1000,105128765,1582,1581,1580,1581
77508984,1000,1000,1000,1000,105228725,1582,1581,1580,1581
77511483,1000,1000,1000,1000,105328685,1581,1582,1584,1577
77513982,1000,1000,1000,1000,105428645,1581,1583,1587,1572
77516481,1000,1000,1000,1000,105528605,1579,1583,1580,1572
77518980,1000,1000,1000,1000,105628565,1578,1581,1571,1571
77521479,1000,1000,1000,1000,105728525,1578,1580,1563,1569
77523978,1000,1000,1000,1000,105828485,1577,1579,1557,1564
77526477,1000,1000,1000,1000,105928445,1580,1579,1555,1561
77528976,1000,1000,1000,1000,106028405,1581,1579,1555,1557
77531475,1000,1000,1000,1000,106128365,1581,1579,1556,1554
77533974,1000,1000,1000,1000,106228325,1579,1578,1556,1553
77536473,1000,1000,1000,1000,106328285,1578,1578,1555,1553
77538972,1000,1000,1000,1000,106428245,1576,1578,1555,1553
77541471,1000,1000,1000,1000,106528205,1576,1577,1555,1555
77543970,1000,1000,1000,1000,106628165,1575,1577,1554,1554
77546469,1000,1000,1000,1000,106728958,1575,1577,1552,1553
77548968,1000,1000,1000,1000,106828918,1576,1578,1551,1552
77551467,1000,1000,1000,1000,106928878,1578,1579,1550,1550
77553966,1000,1000,1000,1000,107028838,1579,1580,1547,1547
77556465,1000,1000,1000,1000,107128798,1582,1583,1546,1545
77558964,1000,1000,1000,1000,107228758,1585,1586,1543,1543
77561463,1000,1000,1000,1000,107328718,1587,1588,1542,1541
77563962,1000,1000,1000,1000,107428678,1589,1590,1539,1540
77566461,1000,1000,1000,1000,107528638,1591,1591,1537,1538
77568960,1000,1000,1000,1000,107628598,1593,1594,1537,1538
77571459,1000,1000,1000,1000,107728558,1594,1594,1538,1540
77573958,1000,1000,1000,1000,107828518,1593,1593,1541,1544
77576457,1000,1000,1000,1000,107928478,1591,1588,1546,1549
77578956,1000,1000,1000,1000,108028438,1585,1581,1553,1555
77581455,1000,1000,1000,1000,108128398,1577,1573,1563,1565
77583954,1000,1000,1000,1000,108228358,1567,1563,1574,1576
77586453,1000,1000,1000,1000,108328318,1557,1553,1586,1587
77588952,1000,1000,1000,1000,108428278,1547,1545,1597,1597
77591451,1000,1000,1000,1000,108528238,1539,1539,1606,1605
77593950,1000,1000,1000,1000,108628198,1533,1534,1610,1609
77596449,1000,1000,1000,1000,108728158,1532,1534,1612,1612
77598948,1000,1000,1000,1000,108828951,1535,1537,1612,1611
77601447,1000,1000,1000,1000,108928911,1540,1542,1608,1607
77603946,1000,1000,1000,1000,109028871,1547,1549,1603,1602
77606445,1000,1000,1000,1000,109128831,1555,1556,1596,1595
77608944,1000,1000,1000,1000,109228791,1563,1563,1589,1588
77611443,1000,1000,1000,1000,109328751,1571,1571,1582,1582
77613942,1000,1000,1000,1000,109428711,1578,1577,1576,1577
77616441,1000,1000,1000,1000,109528671,1582,1581,1572,1572
77618940,1000,1000,1000,1000,109628631,1585,1584,1568,1569
77621439,1000,1000,1000,1000,109728591,1587,1585,1567,1568
77623938,1000,1000,1000,1000,109828551,1587,1585,1568,1568
77626437,1000,1000,1000,1000,109928511,1586,1585,1569,1570
77628936,1000,1000,1000,1000,110028471,1583,1583,1571,1572
77631435,1000,1000,1000,1000,110128431,1580,1580,1574,1574
77633934,1000,1000,1000,1000,110228391,1577,1577,1576,1576
77636433,1000,1000,1000,1000,110328351,1576,1576,1579,1579
77638932,1000,1000,1000,1000,110428311,1573,1574,1580,1581
77641431,1000,1000,1000,1000,110528271,1573,1574,1582,1582
77643930,1000,1000,1000,1000,110628231,1572,1573,1583,1583
77646429,1000,1000,1000,1000,110728191,1572,1572,1582,1582
77648928,1000,1000,1000,1000,110828984,1573,1573,1582,1583
77651427,1000,1000,1000,1000,110928944,1574,1574,1581,1582
77653926,1000,1000,1000,1000,111028904,1575,1576,1581,1580
77656425,1000,1000,1000,1000,111128864,1577,1577,1579,1580
77658924,1000,1000,1000,1000,111228824,1579,1579,1579,1579
77661423,1000,1000,1000,1000,111328784,1580,1579,1578,1578
77663922,1000,1000,1000,1000,111428744,1580,1580,1578,1577
77666421,1000,1000,1000,1000,111528704,1580,1580,1577,1577
77668920,1000,1000,1000,1000,111628664,1581,1581,1577,1578
77671419,1000,1000,1000,1000,111728624,1582,1582,1578,1578
77673918,1000,1000,1000,1000,111828584,1581,1582,1578,1579
77676417,1000,1000,1000,1000,111928544,1581,1581,1579,1579
77678916,1000,1000,1000,1000,112028504,1580,1581,1579,1579
77681415,1000,1000,1000,1000,112128464,1581,1581,1580,1580
77683914,1000,1000,1000,1000,112228424,1581,1581,1581,1581
77686413,1000,1000,1000,1000,112328384,1580,1580,1581,1581
77688912,1000,1000,1000,1000,112428344,1579,1580,1581,1581
77691411,1000,1000,1000,1000,112528304,1580,1580,1582,1581
77693910,1000,1000,1000,1000,112628264,1579,1580,1581,1581
77696409,1000,1000,1000,1000,112728224,1579,1579,1581,1581
77698908,1000,1000,1000,1000,112828184,1580,1579,1581,1581
77701407,1000,1000,1000,1000,112928977,1580,1580,1581,1581
77703906,1000,1000,1000,1000,113028937,1581,1582,1582,1582
77706405,1000,1000,1000,1000,113128897,1580,1580,1580,1580
77708904,1000,1000,1000,1000,113228857,1581,1582,1584,1577
77711403,1000,1000,1000,1000,113328817,1581,1582,1587,1572
77713902,1000,1000,1000,1000,113428777,1579,1579,1581,1573
77716401,1000,1000,1000,1000,113528737,1577,1576,1574,1574
77718900,1000,1000,1000,1000,113628697,1574,1573,1569,1574
77721399,1000,1000,1000,1000,113728657,1571,1570,1565,1573
77723898,1000,1000,1000,1000,113828617,1569,1569,1565,1571
77726397,1000,1000,1000,1000,113928577,1568,1567,1565,1569
77728896,1000,1000,1000,1000,114028537,1566,1567,1567,1566
77731395,1000,1000,1000,1000,114128497,1566,1566,1568,1565
77733894,1000,1000,1000,1000,114228457,1564,1565,1567,1564
77736393,1000,1000,1000,1000,114328417,1565,1565,1566,1564
77738892,1000,1000,1000,1000,114428377,1566,1566,1568,1566
77741391,1000,1000,1000,1000,114528337,1563,1564,1564,1564
77743890,1000,1000,1000,1000,114628297,1563,1562,1563,1564
77746389,1000,1000,1000,1000,114728257,1562,1562,1562,1563
77748888,1000,1000,1000,1000,114828217,1561,1562,1562,1562
77751387,1000,1000,1000,1000,114928177,1561,1561,1561,1561
77753886,1000,1000,1000,1000,115028970,1561,1561,1561,1560
77756385,1000,1000,1000,1000,115128930,1561,1560,1560,1560
77758884,1000,1000,1000,1000,115228890,1559,1559,1559,1558
77761383,1000,1000,1000,1000,115328850,1558,1558,1558,1557
77763882,1000,1000,1000,1000,115428810,1557,1558,1558,1557
77766381,1000,1000,1000,1000,115528770,1558,1557,1558,1557
77768880,1000,1000,1000,1000,115628730,1558,1557,1558,1557
77771379,1000,1000,1000,1000,115728690,1558,1557,1558,1557
77773878,1000,1000,1000,1000,115828650,1558,1558,1559,1557
77776377,1000,1000,1000,1000,115928610,1558,1557,1559,1556
77778876,1000,1000,1000,1000,116028570,1558,1558,1558,1557
77781375,1000,1000,1000,1000,116128530,1559,1559,1557,1561
77783874,1000,1000,1000,1000,116228490,1559,1560,1557,1562
77786373,1000,1000,1000,1000,116328450,1559,1560,1557,1563
77788872,1000,1000,1000,1000,116428410,1561,1561,1558,1563
77791371,1000,1000,1000,1000,116528370,1564,1563,1561,1565
77793870,1000,1000,1000,1000,116628330,1564,1563,1564,1562
77796369,1000,1000,1000,1000,116728290,1563,1563,1564,1561
77798868,1000,1000,1000,1000,116828250,1561,1562,1562,1561
77801367,1000,1000,1000,1000,116928210,1559,1559,1557,1561
77803866,1000,1000,1000,1000,117028170,1556,1556,1554,1558
77806365,1000,1000,1000,1000,117128963,1550,1551,1549,1552
77808864,1000,1000,1000,1000,117228923,1544,1544,1544,1545
77811363,1000,1000,1000,1000,117328883,1538,1538,1538,1538
77813862,1000,1000,1000,1000,117428843,1530,1529,1530,1529
77816361,1000,1000,1000,1000,117528803,1523,1523,1523,1522
77818860,1000,1000,1000,1000,117628763,1519,1520,1520,1519
77821359,1000,1000,1000,1000,117728723,1518,1519,1519,1519
77823858,1000,1000,1000,1000,117828683,1520,1520,1520,1520
77826357,1000,1000,1000,1000,117928643,1523,1524,1523,1524
77828856,1000,1000,1000,1000,118028603,1527,1527,1527,1528
77831355,1000,1000,1000,1000,118128563,1531,1531,1531,1531
77833854,1000,1000,1000,1000,118228523,1536,1536,1536,1536
77836353,1000,1000,1000,1000,118328483,1539,1539,1540,1539
77838852,1000,1000,1000,1000,118428443,1542,1542,1542,1542
77841351,1000,1000,1000,1000,118528403,1543,1543,1543,1543
77843850,1000,1000,1000,1000,118628363,1544,1544,1544,1544
77846349,1000,1000,1000,1000,118728323,1545,1546,1545,1545
77848848,1000,1000,1000,1000,118828283,1546,1546,1546,1546
77851347,1000,1000,1000,1000,118928243,1546,1546,1546,1546
77853846,1000,1000,1000,1000,119028203,1546,1546,1546,1546
77856345,1000,1000,1000,1000,119128163,1546,1546,1546,1545
77858844,1000,1000,1000,1000,119228956,1546,1546,1546,1546
77861343,1000,1000,1000,1000,119328916,1545,1546,1546,1545
77863842,1000,1000,1000,1000,119428876,1546,1546,1546,1545
77866341,1000,1000,1000,1000,119528836,1545,1545,1546,1545
77868840,1000,1000,1000,1000,119628796,1546,1546,1546,1546
77871339,1000,1000,1000,1000,119728756,1546,1545,1545,1545
77873838,1000,1000,1000,1000,119828716,1544,1545,1545,1545
77876337,1000,1000,1000,1000,119928676,1544,1544,1544,1545
77878836,1000,1000,1000,1000,120028636,1543,1544,1544,1544
77881335,1000,1000,1000,1000,120128596,1544,1544,1544,1544
77883834,1000,1000,1000,1000,120228556,1544,1544,1545,1544
77886333,1000,1000,1000,1000,120328516,1544,1543,1544,1544
77888832,1000,1000,1000,1000,120428476,1544,1545,1544,1544
77891331,1000,1000,1000,1000,120528436,1544,1544,1544,1544
77893830,1000,1000,1000,1000,120628396,1544,1544,1544,1543
77896329,1000,1000,1000,1000,120728356,1544,1544,1543,1544
77898828,1000,1000,1000,1000,120828316,1543,1544,1543,1543
77901327,1000,1000,1000,1000,120928276,1544,1543,1543,1544
77903826,1000,1000,1000,1000,121028236,1543,1544,1544,1544
77906325,1000,1000,1000,1000,121128196,1544,1544,1544,1545
77908824,1000,1000,1000,1000,121228156,1545,1544,1545,1545
77911323,1000,1000,1000,1000,121328949,1544,1543,1544,1544
77913822,1000,1000,1000,1000,121428909,1543,1543,1543,1543
77916321,1000,1000,1000,1000,121528869,1544,1544,1544,1544
77918820,1000,1000,1000,1000,121628829,1544,1544,1544,1544
77921319,1000,1000,1000,1000,121728789,1545,1543,1544,1544
77923818,1000,1000,1000,1000,121828749,1544,1545,1545,1544
77926317,1000,1000,1000,1000,121928709,1543,1543,1543,1543
77928816,1000,1000,1000,1000,122028669,1544,1545,1544,1545
77931315,1000,1000,1000,1000,122128629,1545,1544,1544,1544
77933814,1000,1000,1000,1000,122228589,1544,1544,1544,1544
77936313,1000,1000,1000,1000,122328549,1544,1543,1544,1544
77938812,1000,1000,1000,1000,122428509,1544,1544,1544,1544
77941311,1000,1000,1000,1000,122528469,1544,1544,1544,1544
77943810,1000,1000,1000,1000,122628429,1544,1544,1544,1544
77946309,1000,1000,1000,1000,122728389,1545,1544,1544,1545
77948808,1000,1000,1000,1000,122828349,1544,1545,1544,1545
77951307,1000,1000,1000,1000,122928309,1544,1544,1544,1544
77953806,1000,1000,1000,1000,123028269,1544,1544,1544,1544
77956305,1000,1000,1000,1000,123128229,1543,1543,1543,1543
77958804,1000,1000,1000,1000,123228189,1544,1544,1545,1544
77961303,1000,1000,1000,1000,123328982,1544,1545,1545,1545
77963802,1000,1000,1000,1000,123428942,1544,1544,1544,1544
77966301,1000,1000,1000,1000,123528902,1545,1545,1544,1545
77968800,1000,1000,1000,1000,123628862,1544,1543,1544,1544
77971299,1000,1000,1000,1000,123728822,1544,1543,1543,1543
77973798,1000,1000,1000,1000,123828782,1545,1545,1545,1544
77976297,1000,1000,1000,1000,123928742,1544,1543,1544,1544
77978796,1000,1000,1000,1000,124028702,1544,1544,1544,1544
77981295,1000,1000,1000,1000,124128662,1545,1544,1545,1545
77983794,1000,1000,1000,1000,124228622,1544,1544,1544,1544
77986293,1000,1000,1000,1000,124328582,1544,1544,1544,1544
77988792,1000,1000,1000,1000,124428542,1544,1545,1545,1544
77991291,1000,1000,1000,1000,124528502,1544,1545,1544,1545
77993790,1000,1000,1000,1000,124628462,1544,1544,1544,1544
77996289,1000,1000,1000,1000,124728422,1544,1544,1544,1545
77998788,1000,1000,1000,1000,124828382,1544,1544,1544,1544
78001287,1000,1000,1000,1000,124928342,1544,1543,1544,1544
78003786,1000,1000,1000,1000,125028302,1544,1544,1544,1544
78006285,1000,1000,1000,1000,125128262,1545,1545,1545,1545
78008784,1000,1000,1000,1000,125228222,1545,1545,1545,1545
78011283,1000,1000,1000,1000,125328182,1545,1544,1544,1545
78013782,1000,1000,1000,1000,125428975,1544,1544,1544,1544
78016281,1000,1000,1000,1000,125528935,1544,1544,1544,1544
78018780,1000,1000,1000,1000,125628895,1544,1544,1544,1544
78021279,1000,1000,1000,1000,125728855,1544,1544,1544,1544
78023778,1000,1000,1000,1000,125828815,1545,1545,1545,1545
78026277,1000,1000,1000,1000,125928775,1545,1544,1545,1545
78028776,1000,1000,1000,1000,126028735,1544,1545,1545,1544
78031275,1000,1000,1000,1000,126128695,1545,1544,1544,1545
78033774,1000,1000,1000,1000,126228655,1544,1544,1544,1544
78036273,1000,1000,1000,1000,126328615,1544,1544,1544,1544
78038772,1000,1000,1000,1000,126428575,1544,1544,1544,1544
78041271,1000,1000,1000,1000,126528535,1545,1545,1544,1545
78043770,1000,1000,1000,1000,126628495,1544,1544,1544,1544
78046269,1000,1000,1000,1000,126728455,1544,1544,1544,1544
78048768,1000,1000,1000,1000,126828415,1545,1545,1545,1545
78051267,1000,1000,1000,1000,126928375,1545,1544,1544,1544
78053766,1000,1000,1000,1000,127028335,1544,1544,1544,1544
78056265,1000,1000,1000,1000,127128295,1544,1544,1543,1544
78058764,1000,1000,1000,1000,127228255,1544,1544,1545,1544
78061263,1000,1000,1000,1000,127328215,1394,1395,1395,1395
78063762,1000,1000,1000,1000,127428175,1264,1267,1266,1265
78066261,1000,1000,1000,1000,127528968,1219,1220,1220,1220
78068760,1000,1000,1000,1000,127628928,1200,1202,1201,1201
78071259,1000,1000,1000,1000,127728888,1159,1161,1160,1161
78073758,1000,1000,1000,1000,127828848,1150,1153,1152,1151
78076257,1000,1000,1000,1000,127928808,1150,1152,1151,1152
78078756,1000,1000,1000,1000,128028768,1192,1150,1150,1193
78081255,1000,1000,1000,1000,128128728,1178,1150,1150,1180
78083754,1000,1000,1000,1000,128228688,1172,1150,1150,1175
78086253,1000,1000,1000,1000,128328648,1173,1150,1150,1176
78088752,1000,1000,1000,1000,128428608,1175,1150,1150,1177
78091251,1000,1000,1000,1000,128528568,1178,1150,1150,1180
78093750,1000,1000,1000,1000,128628528,1180,1150,1150,1183
78096249,1000,1000,1000,1000,128728488,1183,1150,1150,1185
78098748,1000,1000,1000,1000,128828448,1166,1150,1150,1167
78101247,1000,1000,1000,1000,128928408,1168,1150,1150,1169
78103746,1000,1000,1000,1000,129028368,1169,1150,1150,1171
78106245,1000,1000,1000,1000,129128328,1169,1150,1150,1171
78108744,1000,1000,1000,1000,129228288,1170,1150,1150,1172
78111243,1000,1000,1000,1000,129328248,1000,1000,1000,1000
78113742,1000,1000,1000,1000,129428208,1000,1000,1000,1000
78116241,1000,1000,1000,1000,129528168,1000,1000,1000,1000
78118740,1000,1000,1000,1000,129628961,1000,1000,1000,1000
78121239,1000,1000,1000,1000,129728921,1000,1000,1000,1000
78123738,1000,1000,1000,1000,129828881,1000,1000,1000,1000
78126237,1000,1000,1000,1000,129928841,1000,1000,1000,1000
78128736,1000,1000,1000,1000,130028801,1000,1000,1000,1000
78131235,1000,1000,1000,1000,130128761,1000,1000,1000,1000
78133734,1000,1000,1000,1000,130228721,1000,1000,1000,1000
78136233,1000,1000,1000,1000,130328681,1000,1000,1000,1000
78138732,1000,1000,1000,1000,130428641,1000,1000,1000,1000
78141231,1000,1000,1000,1000,130528601,1000,1000,1000,1000
78143730,1000,1000,1000,1000,130628561,1000,1000,1000,1000
78146229,1000,1000,1000,1000,130728521,1000,1000,1000,1000
78148728,1000,1000,1000,1000,130828481,1000,1000,1000,1000
78151227,1000,1000,1000,1000,130928441,1000,1000,1000,1000
78153726,1000,1000,1000,1000,131028401,1000,1000,1000,1000
78156225,1000,1000,1000,1000,131128361,1000,1000,1000,1000
78158724,1000,1000,1000,1000,131228321,1000,1000,1000,1000
78161223,1000,1000,1000,1000,131328281,1000,1000,1000,1000
78163722,1000,1000,1000,1000,131428241,1000,1000,1000,1000
78166221,1000,1000,1000,1000,131528201,1000,1000,1000,1000
78168720,1000,1000,1000,1000,131628161,1000,1000,1000,1000
78171219,1000,1000,1000,1000,131728954,1000,1000,1000,1000
78173718,1000,1000,1000,1000,131828914,1000,1000,1000,1000
78176217,1000,1000,1000,1000,131928874,1000,1000,1000,1000
78178716,1000,1000,1000,1000,132028834,1000,1000,1000,1000
78181215,1000,1000,1000,1000,132128794,1000,1000,1000,1000
78183714,1000,1000,1000,1000,132228754,1000,1000,1000,1000
78186213,1000,1000,1000,1000,132328714,1000,1000,1000,1000
78188712,1000,1000,1000,1000,132428674,1000,1000,1000,1000
78191211,1000,1000,1000,1000,132528634,1000,1000,1000,1000
78193710,1000,1000,1000,1000,132628594,1000,1000,1000,1000
78196209,1000,1000,1000,1000,132728554,1000,1000,1000,1000
78198708,1000,1000,1000,1000,132828514,1000,1000,1000,1000
78201207,1000,1000,1000,1000,132928474,1000,1000,1000,1000
78203706,1000,1000,1000,1000,133028434,1000,1000,1000,1000
78206205,1000,1000,1000,1000,133128394,1000,1000,1000,1000
78208704,1000,1000,1000,1000,133228354,1000,1000,1000,1000
78211203,1000,1000,1000,1000,133328314,1000,1000,1000,1000
78213702,1000,1000,1000,1000,133428274,1000,1000,1000,1000
78216201,1000,1000,1000,1000,133528234,1000,1000,1000,1000
78218700,1000,1000,1000,1000,133628194,1000,1000,1000,1000
78221199,1000,1000,1000,1000,133728154,1000,1000,1000,1000
78223698,1000,1000,1000,1000,133828947,1000,1000,1000,1000
78226197,1000,1000,1000,1000,133928907,1000,1000,1000,1000
78228696,1000,1000,1000,1000,134028867,1000,1000,1000,1000
78231195,1000,1000,1000,1000,134128827,1000,1000,1000,1000
78233694,1000,1000,1000,1000,134228787,1000,1000,1000,1000
78236193,1000,1000,1000,1000,134328747,1000,1000,1000,1000
78238692,1000,1000,1000,1000,134428707,1000,1000,1000,1000
78241191,1000,1000,1000,1000,134528667,1000,1000,1000,1000
78243690,1000,1000,1000,1000,134628627,1000,1000,1000,1000
78246189,1000,1000,1000,1000,134728587,1000,1000,1000,1000
78248688,1000,1000,1000,1000,134828547,1000,1000,1000,1000
78251187,1000,1000,1000,1000,134928507,1000,1000,1000,1000
78253686,1000,1000,1000,1000,135028467,1000,1000,1000,1000
78256185,1000,1000,1000,1000,135128427,1000,1000,1000,1000
78258684,1000,1000,1000,1000,135228387,1000,1000,1000,1000
78261183,1000,1000,1000,1000,135328347,1000,1000,1000,1000
78263682,1000,1000,1000,1000,135428307,1000,1000,1000,1000
78266181,1000,1000,1000,1000,135528267,1000,1000,1000,1000
78268680,1000,1000,1000,1000,135628227,1000,1000,1000,1000
78271179,1000,1000,1000,1000,135728187,1000,1000,1000,1000
78273678,1000,1000,1000,1000,135828980,1000,1000,1000,1000
78276177,1000,1000,1000,1000,135928940,1000,1000,1000,1000
78278676,1000,1000,1000,1000,136028900,1000,1000,1000,1000
78281175,1000,1000,1000,1000,136128860,1000,1000,1000,1000
78283674,1000,1000,1000,1000,136228820,1000,1000,1000,1000
78286173,1000,1000,1000,1000,136328780,1000,1000,1000,1000
78288672,1000,1000,1000,1000,136428740,1000,1000,1000,1000
78291171,1000,1000,1000,1000,136528700,1000,1000,1000,1000
78293670,1000,1000,1000,1000,136628660,1000,1000,1000,1000
78296169,1000,1000,1000,1000,136728620,1000,1000,1000,1000
78298668,1000,1000,1000,1000,136828580,1000,1000,1000,1000
78301167,1000,1000,1000,1000,136928540,1000,1000,1000,1000
78303666,1000,1000,1000,1000,137028500,1000,1000,1000,1000
78306165,1000,1000,1000,1000,137128460,1000,1000,1000,1000
78308664,1000,1000,1000,1000,137228420,1000,1000,1000,1000
78311163,1000,1000,1000,1000,137328380,1000,1000,1000,1000
78313662,1000,1000,1000,1000,137428340,1000,1000,1000,1000
78316161,1000,1000,1000,1000,137528300,1000,1000,1000,1000
78318660,1000,1000,1000,1000,137628260,1000,1000,1000,1000
78321159,1000,1000,1000,1000,137728220,1000,1000,1000,1000
78323658,1000,1000,1000,1000,137828180,1000,1000,1000,1000
78326157,1000,1000,1000,1000,137928973,1000,1000,1000,1000
78328656,1000,1000,1000,1000,138028933,1000,1000,1000,1000
78331155,1000,1000,1000,1000,138128893,1000,1000,1000,1000
78333654,1000,1000,1000,1000,138228853,1000,1000,1000,1000
78336153,1000,1000,1000,1000,138328813,1000,1000,1000,1000
78338652,1000,1000,1000,1000,138428773,1000,1000,1000,1000
78341151,1000,1000,1000,1000,138528733,1000,1000,1000,1000
78343650,1000,1000,1000,1000,138628693,1000,1000,1000,1000
78346149,1000,1000,1000,1000,138728653,1000,1000,1000,1000
78348648,1000,1000,1000,1000,138828613,1000,1000,1000,1000
78351147,1000,1000,1000,1000,138928573,1000,1000,1000,1000
78353646,1000,1000,1000,1000,139028533,1000,1000,1000,1000
78356145,1000,1000,1000,1000,139128493,1000,1000,1000,1000
78358644,1000,1000,1000,1000,139228453,1000,1000,1000,1000
78361143,1000,1000,1000,1000,139328413,1000,1000,1000,1000
78363642,1000,1000,1000,1000,139428373,1000,1000,1000,1000
78366141,1000,1000,1000,1000,139528333,1000,1000,1000,1000
78368640,1000,1000,1000,1000,139628293,1000,1000,1000,1000
78371139,1000,1000,1000,1000,139728253,1000,1000,1000,1000
78373638,1000,1000,1000,1000,139828213,1000,1000,1000,1000
78376137,1000,1000,1000,1000,139928173,1000,1000,1000,1000
78378636,1000,1000,1000,1000,140028966,1000,1000,1000,1000
78381135,1000,1000,1000,1000,140128926,1000,1000,1000,1000
78383634,1000,1000,1000,1000,140228886,1000,1000,1000,1000
78386133,1000,1000,1000,1000,140328846,1000,1000,1000,1000
78388632,1000,1000,1000,1000,140428806,1000,1000,1000,1000
78391131,1000,1000,1000,1000,140528766,1000,1000,1000,1000
78393630,1000,1000,1000,1000,140628726,1000,1000,1000,1000
78396129,1000,1000,1000,1000,140728686,1000,1000,1000,1000
78398628,1000,1000,1000,1000,140828646,1000,1000,1000,1000
78401127,1000,1000,1000,1000,140928606,1000,1000,1000,1000
78403626,1000,1000,1000,1000,141028566,1000,1000,1000,1000
78406125,1000,1000,1000,1000,141128526,1000,1000,1000,1000
78408624,1000,1000,1000,1000,141228486,1000,1000,1000,1000
78411123,1000,1000,1000,1000,141328446,1000,1000,1000,1000
78413622,1000,1000,1000,1000,141428406,1000,1000,1000,1000
78416121,1000,1000,1000,1000,141528366,1000,1000,1000,1000
78418620,1000,1000,1000,1000,141628326,1000,1000,1000,1000
78421119,1000,1000,1000,1000,141728286,1000,1000,1000,1000
78423618,1000,1000,1000,1000,141828246,1000,1000,1000,1000
78426117,1000,1000,1000,1000,141928206,1000,1000,1000,1000
78428616,1000,1000,1000,1000,142028166,1000,1000,1000,1000
78431115,1000,1000,1000,1000,142128959,1000,1000,1000,1000
78433614,1000,1000,1000,1000,142228919,1000,1000,1000,1000
78436113,1000,1000,1000,1000,142328879,1000,1000,1000,1000
78438612,1000,1000,1000,1000,142428839,1000,1000,1000,1000
78441111,1000,1000,1000,1000,142528799,1000,1000,1000,1000
78443610,1000,1000,1000,1000,142628759,1000,1000,1000,1000
78446109,1000,1000,1000,1000,142728719,1000,1000,1000,1000
78448608,1000,1000,1000,1000,142828679,1000,1000,1000,1000
78451107,1000,1000,1000,1000,142928639,1000,1000,1000,1000
78453606,1000,1000,1000,1000,143028599,1000,1000,1000,1000
78456105,1000,1000,1000,1000,143128559,1000,1000,1000,1000
78458604,1000,1000,1000,1000,143228519,1000,1000,1000,1000
78461103,1000,1000,1000,1000,143328479,1000,1000,1000,1000
78463602,1000,1000,1000,1000,143428439,1000,1000,1000,1000
78466101,1000,1000,1000,1000,143528399,1000,1000,1000,1000
78468600,1000,1000,1000,1000,143628359,1000,1000,1000,1000
78471099,1000,1000,1000,1000,143728319,1000,1000,1000,1000
78473598,1000,1000,1000,1000,143828279,1000,1000,1000,1000
78476097,1000,1000,1000,1000,143928239,1000,1000,1000,1000
78478596,1000,1000,1000,1000,144028199,1000,1000,1000,1000
78481095,1000,1000,1000,1000,144128159,1000,1000,1000,1000
78483594,1000,1000,1000,1000,144228952,1000,1000,1000,1000
78486093,1000,1000,1000,1000,,,,,
78488592,1000,1000,1000,1000,,,,,
78491091,1000,1000,1000,1000,,,,,
78493590,1000,1000,1000,1000,,,,,
78496089,1000,1000,1000,1000,,,,,
78498588,1000,1000,1000,1000,,,,,
78501087,1000,1000,1000,1000,,,,,
78503586,1000,1000,1000,1000,,,,,
78506085,1000,1000,1000,1000,,,,,
78508584,1000,1000,1000,1000,,,,,
78511083,1000,1000,1000,1000,,,,,
78513582,1000,1000,1000,1000,,,,,
78516081,1000,1000,1000,1000,,,,,
78518580,1000,1000,1000,1000,,,,,
78521079,1000,1000,1000,1000,,,,,
78523578,1000,1000,1000,1000,,,,,
78526077,1000,1000,1000,1000,,,,,
78528576,1000,1000,1000,1000,,,,,
78531075,1000,1000,1000,1000,,,,,
78533574,1000,1000,1000,1000,,,,,
78536073,1000,1000,1000,1000,,,,,
78538572,1000,1000,1000,1000,,,,,
78541071,1000,1000,1000,1000,,,,,
78543570,1000,1000,1000,1000,,,,,
78546069,1000,1000,1000,1000,,,,,
78548568,1000,1000,1000,1000,,,,,
78551067,1000,1000,1000,1000,,,,,
78553566,1000,1000,1000,1000,,,,,
78556065,1000,1000,1000,1000,,,,,
78558564,1000,1000,1000,1000,,,,,
78561063,1000,1000,1000,1000,,,,,
78563562,1000,1000,1000,1000,,,,,
78566061,1000,1000,1000,1000,,,,,
78568560,1000,1000,1000,1000,,,,,
78571059,1000,1000,1000,1000,,,,,
78573558,1000,1000,1000,1000,,,,,
78576057,1000,1000,1000,1000,,,,,
78578556,1000,1000,1000,1000,,,,,
78581055,1000,1000,1000,1000,,,,,
78583554,1000,1000,1000,1000,,,,,
78586053,1000,1000,1000,1000,,,,,
78588552,1000,1000,1000,1000,,,,,
78591051,1000,1000,1000,1000,,,,,
78593550,1000,1000,1000,1000,,,,,
78596049,1000,1000,1000,1000,,,,,
78598548,1000,1000,1000,1000,,,,,
78601047,1000,1000,1000,1000,,,,,
78603546,1000,1000,1000,1000,,,,,
78606045,1000,1000,1000,1000,,,,,
78608544,1000,1000,1000,1000,,,,,
78611043,1000,1000,1000,1000,,,,,
78613542,1000,1000,1000,1000,,,,,
78616041,1000,1000,1000,1000,,,,,
78618540,1000,1000,1000,1000,,,,,
78621039,1000,1000,1000,1000,,,,,
78623538,1000,1000,1000,1000,,,,,
78626037,1000,1000,1000,1000,,,,,
78628536,1000,1000,1000,1000,,,,,
78631035,1000,1000,1000,1000,,,,,
78633534,1000,1000,1000,1000,,,,,
78636033,1000,1000,1000,1000,,,,,
78638532,1000,1000,1000,1000,,,,,
78641031,1000,1000,1000,1000,,,,,
78643530,1000,1000,1000,1000,,,,,
78646029,1000,1000,1000,1000,,,,,
78648528,1000,1000,1000,1000,,,,,
78651027,1000,1000,1000,1000,,,,,
78653526,1000,1000,1000,1000,,,,,
78656025,1000,1000,1000,1000,,,,,
78658524,1000,1000,1000,1000,,,,,
78661023,1000,1000,1000,1000,,,,,
78663522,1000,1000,1000,1000,,,,,
78666021,1000,1000,1000,1000,,,,,
78668520,1000,1000,1000,1000,,,,,
78671019,1000,1000,1000,1000,,,,,
78673518,1000,1000,1000,1000,,,,,
78676017,1000,1000,1000,1000,,,,,
78678516,1000,1000,1000,1000,,,,,
78681015,1000,1000,1000,1000,,,,,
78683514,1000,1000,1000,1000,,,,,
78686013,1000,1000,1000,1000,,,,,
78688512,1000,1000,1000,1000,,,,,
78691011,1000,1000,1000,1000,,,,,
78693510,1000,1000,1000,1000,,,,,
78696009,1000,1000,1000,1000,,,,,
78698508,1000,1000,1000,1000,,,,,
78701007,1000,1000,1000,1000,,,,,
78703506,1000,1000,1000,1000,,,,,
78706005,1000,1000,1000,1000,,,,,
78708504,1000,1000,1000,1000,,,,,
78711003,1000,1000,1000,1000,,,,,
78713502,1000,1000,1000,1000,,,,,
78716001,1000,1000,1000,1000,,,,,
78718500,1000,1000,1000,1000,,,,,
78720999,1000,1000,1000,1000,,,,,
78723498,1000,1000,1000,1000,,,,,
78725997,1000,1000,1000,1000,,,,,
78728496,1000,1000,1000,1000,,,,,
78730995,1000,1000,1000,1000,,,,,
78733494,1000,1000,1000,1000,,,,,
78735993,1000,1000,1000,1000,,,,,
78738492,1000,1000,1000,1000,,,,,
78740991,1000,1000,1000,1000,,,,,
78743490,1000,1000,1000,1000,,,,,
78745989,1000,1000,1000,1000,,,,,
78748488,1000,1000,1000,1000,,,,,
78750987,1000,1000,1000,1000,,,,,
78753486,1000,1000,1000,1000,,,,,
78755985,1000,1000,1000,1000,,,,,
78758484,1000,1000,1000,1000,,,,,
78760983,1000,1000,1000,1000,,,,,
78763482,1000,1000,1000,1000,,,,,
78765981,1000,1000,1000,1000,,,,,
78768480,1000,1000,1000,1000,,,,,
78770979,1000,1000,1000,1000,,,,,
78773478,1000,1000,1000,1000,,,,,
78775977,1000,1000,1000,1000,,,,,
78778476,1000,1000,1000,1000,,,,,
78780975,1000,1000,1000,1000,,,,,
78783474,1000,1000,1000,1000,,,,,
78785973,1000,1000,1000,1000,,,,,
78788472,1000,1000,1000,1000,,,,,
78790971,1000,1000,1000,1000,,,,,
78793470,1000,1000,1000,1000,,,,,
78795969,1000,1000,1000,1000,,,,,
78798468,1000,1000,1000,1000,,,,,
78800967,1000,1000,1000,1000,,,,,
78803466,1000,1000,1000,1000,,,,,
78805965,1001,1001,1001,1001,,,,,
78808464,1002,1002,1002,1002,,,,,
78810963,1003,1003,1003,1003,,,,,
78813462,1003,1003,1003,1003,,,,,
78815961,1004,1004,1004,1004,,,,,
78818460,1005,1005,1005,1005,,,,,
78820959,1006,1006,1006,1006,,,,,
78823458,1006,1006,1006,1006,,,,,
78825957,1007,1007,1007,1007,,,,,
78828456,1008,1008,1008,1008,,,,,
78830955,1009,1009,1009,1009,,,,,
78833454,1009,1009,1009,1009,,,,,
78835953,1010,1010,1010,1010,,,,,
78838452,1011,1011,1011,1011,,,,,
78840951,1012,1012,1012,1012,,,,,
78843450,1012,1012,1012,1012,,,,,
78845949,1013,1013,1013,1013,,,,,
78848448,1014,1014,1014,1014,,,,,
78850947,1015,1015,1015,1015,,,,,
78853446,1015,1015,1015,1015,,,,,
78855945,1016,1016,1016,1016,,,,,
78858444,1017,1017,1017,1017,,,,,
78860943,1018,1018,1018,1018,,,,,
78863442,1018,1018,1018,1018,,,,,
78865941,1019,1019,1019,1019,,,,,
78868440,1020,1020,1020,1020,,,,,
78870939,1021,1021,1021,1021,,,,,
78873438,1021,1021,1021,1021,,,,,
78875937,1022,1022,1022,1022,,,,,
78878436,1023,1023,1023,1023,,,,,
78880935,1024,1024,1024,1024,,,,,
78883434,1024,1024,1024,1024,,,,,
78885933,1025,1025,1025,1025,,,,,
78888432,1026,1026,1026,1026,,,,,
78890931,1027,1027,1027,1027,,,,,
78893430,1027,1027,1027,1027,,,,,
78895929,1028,1028,1028,1028,,,,,
78898428,1029,1029,1029,1029,,,,,
78900927,1030,1030,1030,1030,,,,,
78903426,1030,1030,1030,1030,,,,,
78905925,1031,1031,1031,1031,,,,,
78908424,1032,1032,1032,1032,,,,,
78910923,1033,1033,1033,1033,,,,,
78913422,1033,1033,1033,1033,,,,,
78915921,1034,1034,1034,1034,,,,,
78918420,1035,1035,1035,1035,,,,,
78920919,1036,1036,1036,1036,,,,,
78923418,1036,1036,1036,1036,,,,,
78925917,1037,1037,1037,1037,,,,,
78928416,1038,1038,1038,1038,,,,,
78930915,1039,1039,1039,1039,,,,,
78933414,1039,1039,1039,1039,,,,,
78935913,1040,1040,1040,1040,,,,,
78938412,1041,1041,1041,1041,,,,,
78940911,1042,1042,1042,1042,,,,,
78943410,1042,1042,1042,1042,,,,,
78945909,1043,1043,1043,1043,,,,,
78948408,1044,1044,1044,1044,,,,,
78950907,1045,1045,1045,1045,,,,,
78953406,1045,1045,1045,1045,,,,,
78955905,1046,1046,1046,1046,,,,,
78958404,1047,1047,1047,1047,,,,,
78960903,1048,1048,1048,1048,,,,,
78963402,1048,1048,1048,1048,,,,,
78965901,1049,1049,1049,1049,,,,,
78968400,1050,1050,1050,1050,,,,,
78970899,1051,1051,1051,1051,,,,,
78973398,1051,1051,1051,1051,,,,,
78975897,1052,1052,1052,1052,,,,,
78978396,1053,1053,1053,1053,,,,,
78980895,1054,1054,1054,1054,,,,,
78983394,1054,1054,1054,1054,,,,,
78985893,1055,1055,1055,1055,,,,,
78988392,1056,1056,1056,1056,,,,,
78990891,1057,1057,1057,1057,,,,,
78993390,1057,1057,1057,1057,,,,,
78995889,1058,1058,1058,1058,,,,,
78998388,1059,1059,1059,1059,,,,,
79000887,1060,1060,1060,1060,,,,,
79003386,1060,1060,1060,1060,,,,,
79005885,1061,1061,1061,1061,,,,,
79008384,1062,1062,1062,1062,,,,,
79010883,1063,1063,1063,1063,,,,,
79013382,1063,1063,1063,1063,,,,,
79015881,1064,1064,1064,1064,,,,,
79018380,1065,1065,1065,1065,,,,,
79020879,1066,1066,1066,1066,,,,,
79023378,1066,1066,1066,1066,,,,,
79025877,1067,1067,1067,1067,,,,,
79028376,1068,1068,1068,1068,,,,,
79030875,1069,1069,1069,1069,,,,,
79033374,1069,1069,1069,1069,,,,,
79035873,1070,1070,1070,1070,,,,,
79038372,1071,1071,1071,1071,,,,,
79040871,1072,1072,1072,1072,,,,,
79043370,1072,1072,1072,1072,,,,,
79045869,1073,1073,1073,1073,,,,,
79048368,1074,1074,1074,1074,,,,,
79050867,1075,1075,1075,1075,,,,,
79053366,1075,1075,1075,1075,,,,,
79055865,1076,1076,1076,1076,,,,,
79058364,1077,1077,1077,1077,,,,,
79060863,1078,1078,1078,1078,,,,,
79063362,1078,1078,1078,1078,,,,,
79065861,1079,1079,1079,1079,,,,,
79068360,1080,1080,1080,1080,,,,,
79070859,1081,1081,1081,1081,,,,,
79073358,1081,1081,1081,1081,,,,,
79075857,1082,1082,1082,1082,,,,,
79078356,1083,1083,1083,1083,,,,,
79080855,1084,1084,1084,1084,,,,,
79083354,1084,1084,1084,1084,,,,,
79085853,1085,1085,1085,1085,,,,,
79088352,1086,1086,1086,1086,,,,,
79090851,1087,1087,1087,1087,,,,,
79093350,1087,1087,1087,1087,,,,,
79095849,1088,1088,1088,1088,,,,,
79098348,1089,1089,1089,1089,,,,,
79100847,1090,1090,1090,1090,,,,,
79103346,1090,1090,1090,1090,,,,,
79105845,1091,1091,1091,1091,,,,,
79108344,1092,1092,1092,1092,,,,,
79110843,1093,1093,1093,1093,,,,,
79113342,1093,1093,1093,1093,,,,,
79115841,1094,1094,1094,1094,,,,,
79118340,1095,1095,1095,1095,,,,,
79120839,1096,1096,1096,1096,,,,,
79123338,1096,1096,1096,1096,,,,,
79125837,1097,1097,1097,1097,,,,,
79128336,1098,1098,1098,1098,,,,,
79130835,1099,1099,1099,1099,,,,,
79133334,1099,1099,1099,1099,,,,,
79135833,1100,1100,1100,1100,,,,,
79138332,1101,1101,1101,1101,,,,,
79140831,1101,1101,1101,1101,,,,,
79143330,1102,1102,1102,1102,,,,,
79145829,1103,1103,1103,1103,,,,,
79148328,1104,1104,1104,1104,,,,,
79150827,1104,1104,1104,1104,,,,,
79153326,1105,1105,1105,1105,,,,,
79155825,1106,1106,1106,1106,,,,,
79158324,1107,1107,1107,1107,,,,,
79160823,1107,1107,1107,1107,,,,,
79163322,1108,1108,1108,1108,,,,,
79165821,1109,1109,1109,1109,,,,,
79168320,1110,1110,1110,1110,,,,,
79170819,1110,1110,1110,1110,,,,,
79173318,1111,1111,1111,1111,,,,,
79175817,1112,1112,1112,1112,,,,,
79178316,1113,1113,1113,1113,,,,,
79180815,1113,1113,1113,1113,,,,,
79183314,1114,1114,1114,1114,,,,,
79185813,1115,1115,1115,1115,,,,,
79188312,1116,1116,1116,1116,,,,,
79190811,1116,1116,1116,1116,,,,,
79193310,1117,1117,1117,1117,,,,,
79195809,1118,1118,1118,1118,,,,,
79198308,1119,1119,1119,1119,,,,,
79200807,1119,1119,1119,1119,,,,,
79203306,1120,1120,1120,1120,,,,,
79205805,1121,1121,1121,1121,,,,,
79208304,1122,1122,1122,1122,,,,,
79210803,1122,1122,1122,1122,,,,,
79213302,1123,1123,1123,1123,,,,,
79215801,1124,1124,1124,1124,,,,,
79218300,1125,1125,1125,1125,,,,,
79220799,1125,1125,1125,1125,,,,,
79223298,1126,1126,1126,1126,,,,,
79225797,1127,1127,1127,1127,,,,,
79228296,1128,1128,1128,1128,,,,,
79230795,1128,1128,1128,1128,,,,,
79233294,1129,1129,1129,1129,,,,,
79235793,1130,1130,1130,1130,,,,,
79238292,1131,1131,1131,1131,,,,,
79240791,1131,1131,1131,1131,,,,,
79243290,1132,1132,1132,1132,,,,,
79245789,1133,1133,1133,1133,,,,,
79248288,1134,1134,1134,1134,,,,,
79250787,1134,1134,1134,1134,,,,,
79253286,1135,1135,1135,1135,,,,,
79255785,1136,1136,1136,1136,,,,,
79258284,1137,1137,1137,1137,,,,,
79260783,1137,1137,1137,1137,,,,,
79263282,1138,1138,1138,1138,,,,,
79265781,1139,1139,1139,1139,,,,,
79268280,1140,1140,1140,1140,,,,,
79270779,1140,1140,1140,1140,,,,,
79273278,1141,1141,1141,1141,,,,,
79275777,1142,1142,1142,1142,,,,,
79278276,1143,1143,1143,1143,,,,,
79280775,1143,1143,1143,1143,,,,,
79283274,1144,1144,1144,1144,,,,,
79285773,1145,1145,1145,1145,,,,,
79288272,1146,1146,1146,1146,,,,,
79290771,1146,1146,1146,1146,,,,,
79293270,1147,1147,1147,1147,,,,,
79295769,1148,1148,1148,1148,,,,,
79298268,1149,1149,1149,1149,,,,,
79300767,1149,1149,1149,1149,,,,,
79303266,1150,1150,1150,1150,,,,,
79305765,1164,1151,1152,1164,,,,,
79308264,1172,1159,1160,1172,,,,,
79310763,1180,1167,1168,1180,,,,,
79313262,1187,1175,1176,1188,,,,,
79315761,1195,1182,1184,1195,,,,,
79318260,1202,1190,1191,1203,,,,,
79320759,1209,1197,1199,1210,,,,,
79323258,1217,1205,1206,1217,,,,,
79325757,1224,1212,1213,1224,,,,,
79328256,1231,1219,1220,1231,,,,,
79330755,1238,1226,1227,1238,,,,,
79333254,1244,1233,1234,1245,,,,,
79335753,1251,1240,1241,1251,,,,,
79338252,1258,1246,1248,1258,,,,,
79340751,1264,1253,1254,1264,,,,,
79343250,1270,1260,1261,1271,,,,,
79345749,1277,1266,1267,1277,,,,,
79348248,1283,1273,1274,1283,,,,,
79350747,1289,1279,1280,1290,,,,,
79353246,1295,1285,1286,1296,,,,,
79355745,1301,1291,1292,1302,,,,,
79358244,1307,1297,1298,1308,,,,,
79360743,1313,1303,1304,1314,,,,,
79363242,1319,1309,1310,1320,,,,,
79365741,1325,1315,1316,1325,,,,,
79368240,1331,1321,1322,1331,,,,,
79370739,1336,1327,1328,1337,,,,,
79373238,1342,1333,1333,1342,,,,,
79375737,1347,1338,1339,1348,,,,,
79378236,1353,1344,1345,1354,,,,,
79380735,1358,1349,1350,1359,,,,,
79383234,1364,1355,1356,1364,,,,,
79385733,1369,1360,1361,1370,,,,,
79388232,1375,1366,1367,1375,,,,,
79390731,1380,1371,1372,1380,,,,,
79393230,1385,1377,1377,1386,,,,,
79395729,1390,1382,1383,1391,,,,,
79398228,1396,1387,1388,1396,,,,,
79400727,1401,1392,1393,1401,,,,,
79403226,1406,1397,1398,1406,,,,,
79405725,1411,1402,1403,1411,,,,,
79408224,1416,1408,1408,1416,,,,,
79410723,1421,1413,1413,1421,,,,,
79413222,1426,1418,1418,1426,,,,,
79415721,1431,1422,1423,1431,,,,,
79418220,1435,1427,1428,1436,,,,,
79420719,1440,1432,1433,1441,,,,,
79423218,1445,1437,1438,1445,,,,,
79425717,1450,1442,1443,1450,,,,,
79428216,1455,1447,1447,1455,,,,,
79430715,1459,1451,1452,1460,,,,,
79433214,1464,1456,1457,1464,,,,,
79435713,1469,1461,1461,1469,,,,,
79438212,1473,1465,1466,1474,,,,,
79440711,1478,1470,1471,1478,,,,,
79443210,1482,1474,1475,1483,,,,,
79445709,1487,1479,1480,1487,,,,,
79448208,1491,1484,1484,1492,,,,,
79450707,1496,1488,1489,1496,,,,,
79453206,1500,1493,1493,1501,,,,,
79455705,1505,1497,1498,1505,,,,,
79458204,1509,1501,1502,1509,,,,,
79460703,1514,1506,1507,1514,,,,,
79463202,1518,1510,1511,1518,,,,,
79465701,1522,1514,1515,1522,,,,,
79468200,1527,1519,1520,1527,,,,,
79470699,1531,1523,1524,1531,,,,,
79473198,1535,1527,1528,1535,,,,,
79475697,1539,1532,1532,1540,,,,,
79478196,1543,1536,1537,1544,,,,,
79480695,1548,1540,1541,1548,,,,,
79483194,1552,1544,1545,1552,,,,,
79485693,1556,1548,1549,1556,,,,,
79488192,1560,1552,1553,1560,,,,,
79490691,1564,1556,1557,1564,,,,,
79493190,1568,1561,1561,1569,,,,,
79495689,1572,1565,1565,1573,,,,,
79498188,1576,1569,1569,1577,,,,,
79500687,1580,1573,1574,1581,,,,,
79503186,1584,1577,1578,1585,,,,,
79505685,1588,1581,1582,1589,,,,,
79508184,1592,1585,1585,1593,,,,,
79510683,1596,1589,1589,1596,,,,,
79513182,1600,1592,1593,1600,,,,,
79515681,1604,1596,1597,1604,,,,,
79518180,1608,1600,1601,1608,,,,,
79520679,1612,1604,1605,1612,,,,,
79523178,1616,1608,1609,1616,,,,,
79525677,1620,1612,1613,1620,,,,,
79528176,1623,1616,1617,1624,,,,,
79530675,1627,1620,1620,1627,,,,,
79533174,1631,1623,1624,1631,,,,,
79535673,1635,1627,1628,1635,,,,,
79538172,1639,1631,1632,1639,,,,,
79540671,1642,1635,1635,1642,,,,,
79543170,1646,1638,1639,1646,,,,,
79545669,1650,1642,1643,1650,,,,,
79548168,1653,1646,1647,1654,,,,,
79550667,1657,1649,1650,1657,,,,,
79553166,1661,1653,1654,1661,,,,,
79555665,1664,1657,1658,1665,,,,,
79558164,1668,1660,1661,1668,,,,,
79560663,1672,1664,1665,1672,,,,,
79563162,1675,1668,1668,1675,,,,,
79565661,1679,1671,1672,1679,,,,,
79568160,1682,1675,1676,1683,,,,,
79570659,1686,1678,1679,1686,,,,,
79573158,1689,1682,1683,1690,,,,,
79575657,1693,1686,1686,1693,,,,,
79578156,1697,1689,1690,1697,,,,,
79580655,1700,1693,1693,1700,,,,,
79583154,1704,1696,1697,1704,,,,,
79586486,1707,1700,1700,1707,,,,,
79588985,1710,1703,1704,1711,,,,,
79591484,1714,1707,1707,1714,,,,,
79593983,1717,1710,1711,1717,,,,,
79596482,1721,1714,1714,1721,,,,,
79598981,1724,1717,1718,1724,,,,,
79601480,1728,1720,1721,1728,,,,,
79603979,1731,1724,1724,1731,,,,,
79606478,1734,1727,1728,1735,,,,,
79608977,1738,1731,1731,1738,,,,,
79611476,1741,1734,1735,1741,,,,,
79613975,1744,1737,1738,1745,,,,,
79616474,1748,1741,1741,1748,,,,,
79618973,1751,1744,1745,1751,,,,,
79621472,1754,1747,1748,1755,,,,,
79623971,1758,1751,1751,1758,,,,,
79626470,1761,1754,1755,1761,,,,,
79628969,1764,1757,1758,1765,,,,,
79631468,1768,1760,1761,1768,,,,,
79633967,1771,1764,1764,1771,,,,,
79636466,1774,1767,1768,1774,,,,,
79638965,1777,1770,1771,1778,,,,,
79641464,1781,1773,1774,1781,,,,,
79643963,1784,1777,1777,1784,,,,,
79646462,1787,1780,1781,1787,,,,,
79648961,1790,1783,1784,1790,,,,,
79651460,1793,1786,1787,1794,,,,,
79653959,1797,1790,1790,1797,,,,,
79656458,1800,1793,1793,1800,,,,,
79658957,1803,1796,1796,1803,,,,,
79661456,1806,1799,1800,1806,,,,,
79663955,1809,1802,1803,1809,,,,,
79666454,1812,1805,1806,1813,,,,,
79668953,1815,1808,1809,1816,,,,,
79671452,1819,1812,1812,1819,,,,,
79673951,1822,1815,1815,1822,,,,,
79676450,1825,1818,1818,1825,,,,,
79678949,1828,1821,1821,1828,,,,,
79681448,1831,1824,1825,1831,,,,,
79683947,1834,1827,1828,1834,,,,,
79686446,1837,1830,1831,1837,,,,,
79688945,1840,1833,1834,1840,,,,,
79691444,1843,1836,1837,1843,,,,,
79693943,1846,1839,1840,1846,,,,,
79696442,1849,1842,1843,1849,,,,,
79698941,1852,1845,1846,1852,,,,,
79701440,1855,1848,1849,1855,,,,,
79703939,1858,1851,1852,1858,,,,,
79706438,1861,1854,1855,1861,,,,,
79708937,1864,1857,1858,1864,,,,,
79711436,1867,1860,1861,1867,,,,,
79713935,1870,1863,1864,1870,,,,,
79716434,1873,1866,1867,1873,,,,,
79718933,1876,1869,1870,1876,,,,,
79721432,1879,1872,1873,1879,,,,,
79723931,1882,1875,1876,1882,,,,,
79726430,1885,1878,1879,1885,,,,,
79728929,1888,1881,1882,1888,,,,,
79731428,1891,1884,1885,1891,,,,,
79733927,1894,1887,1887,1894,,,,,
79736426,1897,1890,1890,1897,,,,,
79738925,1900,1893,1893,1900,,,,,
79741424,1903,1895,1896,1903,,,,,
79743923,1905,1898,1899,1905,,,,,
79746422,1908,1901,1902,1908,,,,,
79748921,1911,1904,1905,1911,,,,,
79751420,1914,1907,1908,1914,,,,,
79753919,1915,1908,1909,1915,,,,,
79756418,1914,1907,1908,1914,,,,,
79758917,1913,1906,1907,1913,,,,,
79761416,1913,1905,1906,1913,,,,,
79763915,1912,1905,1905,1912,,,,,
79766414,1911,1904,1905,1911,,,,,
79768913,1910,1903,1904,1910,,,,,
79771412,1910,1902,1903,1910,,,,,
79773911,1909,1902,1903,1909,,,,,
79776410,1908,1901,1902,1908,,,,,
79778909,1908,1901,1902,1908,,,,,
79781408,1907,1900,1901,1907,,,,,
79783907,1907,1900,1901,1907,,,,,
79786406,1907,1899,1900,1907,,,,,
79788905,1907,1899,1900,1906,,,,,
79791404,1906,1899,1900,1906,,,,,
79793903,1906,1899,1900,1906,,,,,
79796402,1906,1899,1900,1906,,,,,
79798901,1906,1899,1900,1906,,,,,
79801400,1906,1899,1900,1906,,,,,
79803899,1906,1900,1901,1906,,,,,
79806398,1906,1900,1901,1906,,,,,
79808897,1905,1900,1901,1905,,,,,
79811396,1904,1901,1901,1904,,,,,
79813895,1903,1900,1901,1904,,,,,
79816394,1902,1900,1900,1903,,,,,
79818893,1902,1899,1900,1902,,,,,
79821392,1901,1898,1899,1901,,,,,
79823891,1899,1897,1897,1900,,,,,
79826390,1898,1896,1896,1898,,,,,
79828889,1897,1894,1894,1897,,,,,
79831388,1895,1892,1893,1895,,,,,
79833887,1893,1891,1891,1894,,,,,
79836386,1891,1888,1889,1892,,,,,
79838885,1889,1886,1887,1890,,,,,
79841384,1887,1884,1884,1888,,,,,
79843883,1885,1882,1882,1885,,,,,
79846382,1882,1879,1879,1883,,,,,
79848881,1880,1877,1877,1881,,,,,
79851380,1877,1874,1874,1878,,,,,
79853879,1874,1871,1871,1875,,,,,
79856378,1872,1868,1868,1872,,,,,
79858877,1869,1866,1865,1870,,,,,
79861376,1866,1863,1862,1867,,,,,
79863875,1863,1860,1859,1864,,,,,
79866374,1859,1856,1856,1861,,,,,
79868873,1856,1853,1853,1857,,,,,
79871372,1853,1850,1850,1854,,,,,
79873871,1849,1847,1846,1851,,,,,
79876370,1846,1843,1843,1847,,,,,
79878869,1843,1840,1839,1844,,,,,
79881368,1839,1837,1836,1840,,,,,
79883867,1835,1833,1832,1837,,,,,
79886366,1832,1829,1829,1833,,,,,
79888865,1828,1826,1825,1830,,,,,
79891364,1825,1822,1821,1826,,,,,
79893863,1821,1819,1818,1823,,,,,
79896362,1817,1815,1814,1819,,,,,
79898861,1814,1812,1811,1816,,,,,
79901360,1810,1808,1807,1812,,,,,
79903859,1807,1805,1804,1809,,,,,
79906358,1803,1801,1800,1805,,,,,
79908857,1799,1798,1796,1801,,,,,
79911356,1796,1794,1793,1798,,,,,
79913855,1792,1791,1789,1794,,,,,
79916354,1789,1787,1786,1791,,,,,
79918853,1785,1784,1782,1787,,,,,
79921352,1782,1780,1779,1784,,,,,
79923851,1778,1777,1776,1781,,,,,
79926350,1775,1774,1772,1777,,,,,
79928849,1771,1770,1769,1774,,,,,
79931348,1768,1767,1765,1770,,,,,
79933847,1765,1763,1762,1767,,,,,
79936346,1761,1760,1759,1764,,,,,
79938845,1758,1757,1755,1760,,,,,
79941344,1755,1754,1752,1757,,,,,
79943843,1751,1750,1749,1754,,,,,
79946342,1748,1747,1745,1750,,,,,
79948841,1745,1744,1742,1747,,,,,
79951340,1741,1741,1739,1744,,,,,
79953839,1738,1737,1736,1741,,,,,
79956338,1735,1734,1733,1738,,,,,
79958837,1732,1731,1729,1734,,,,,
79961336,1729,1728,1726,1731,,,,,
79963835,1726,1725,1723,1728,,,,,
79966334,1722,1722,1720,1725,,,,,
79968833,1719,1719,1717,1722,,,,,
79971332,1716,1716,1714,1719,,,,,
79973831,1713,1713,1711,1716,,,,,
79976330,1711,1710,1708,1713,,,,,
79978829,1708,1707,1706,1710,,,,,
79981328,1705,1705,1703,1707,,,,,
