timestamp,TimeUS,C1,C2,C3,C4,C5,C6,C7,C8,C9,C10,C11,C12,C13,C14
1681132822.70004010,127528968,1000,1000,1000,1000,0,0,0,0,0,0,0,0,0,0
1681132822.79999995,127628928,1000,1000,1000,1000,0,0,0,0,0,0,0,0,0,0
1681132822.89996004,127728888,1000,1000,1000,1000,0,0,0,0,0,0,0,0,0,0
1681132822.99991989,127828848,1000,1000,1000,1000,0,0,0,0,0,0,0,0,0,0
1681132823.09987998,127928808,1000,1000,1000,1000,0,0,0,0,0,0,0,0,0,0
1681132823.19984007,128028768,1000,1000,1000,1000,0,0,0,0,0,0,0,0,0,0
1681132823.29979992,128128728,1000,1000,1000,1000,0,0,0,0,0,0,0,0,0,0
1681132823.39976001,128228688,1000,1000,1000,1000,0,0,0,0,0,0,0,0,0,0
1681132823.49972010,128328648,1000,1000,1000,1000,0,0,0,0,0,0,0,0,0,0
1681132823.59967995,128428608,1000,1000,1000,1000,0,0,0,0,0,0,0,0,0,0
1681132823.69964004,128528568,1000,1000,1000,1000,0,0,0,0,0,0,0,0,0,0
1681132823.79960012,128628528,1000,1000,1000,1000,0,0,0,0,0,0,0,0,0,0
1681132823.89955997,128728488,1000,1000,1000,1000,0,0,0,0,0,0,0,0,0,0
1681132823.99952006,128828448,1000,1000,1000,1000,0,0,0,0,0,0,0,0,0,0
1681132824.09947991,128928408,1000,1000,1000,1000,0,0,0,0,0,0,0,0,0,0
1681132824.19944000,129028368,1000,1000,1000,1000,0,0,0,0,0,0,0,0,0,0
1681132824.29940009,129128328,1000,1000,1000,1000,0,0,0,0,0,0,0,0,0,0
1681132824.39935994,129228288,1000,1000,1000,1000,0,0,0,0,0,0,0,0,0,0
1681132824.49932003,129328248,1000,1000,1000,1000,0,0,0,0,0,0,0,0,0,0
1681132824.59928012,129428208,1000,1000,1000,1000,0,0,0,0,0,0,0,0,0,0
1681132824.69923997,129528168,1012,1012,1012,1012,0,0,0,0,0,0,0,0,0,0
1681132824.80003309,129628961,1042,1042,1042,1042,0,0,0,0,0,0,0,0,0,0
1681132824.89999294,129728921,1072,1072,1072,1072,0,0,0,0,0,0,0,0,0,0
1681132824.99995303,129828881,1102,1102,1102,1102,0,0,0,0,0,0,0,0,0,0
1681132825.09991312,129928841,1132,1132,1132,1132,0,0,0,0,0,0,0,0,0,0
1681132825.19987297,130028801,1273,1257,1257,1274,0,0,0,0,0,0,0,0,0,0
1681132825.29983306,130128761,1485,1471,1472,1486,0,0,0,0,0,0,0,0,0,0
1681132825.39979291,130228721,1648,1636,1637,1649,0,0,0,0,0,0,0,0,0,0
1681132825.49975300,130328681,1786,1774,1774,1787,0,0,0,0,0,0,0,0,0,0
1681132825.59971309,130428641,1894,1883,1883,1895,0,0,0,0,0,0,0,0,0,0
1681132825.69967294,130528601,1876,1869,1869,1877,0,0,0,0,0,0,0,0,0,0
1681132825.79963303,130628561,1752,1750,1751,1752,0,0,0,0,0,0,0,0,0,0
1681132825.89959311,130728521,1651,1654,1655,1651,0,0,0,0,0,0,0,0,0,0
1681132825.99955297,130828481,1618,1624,1625,1618,0,0,0,0,0,0,0,0,0,0
1681132826.09951305,130928441,1626,1630,1630,1626,0,0,0,0,0,0,0,0,0,0
1681132826.19947290,131028401,1636,1640,1639,1637,0,0,0,0,0,0,0,0,0,0
1681132826.29943299,131128361,1637,1637,1636,1637,0,0,0,0,0,0,0,0,0,0
1681132826.39939308,131228321,1631,1630,1629,1631,0,0,0,0,0,0,0,0,0,0
1681132826.49935293,131328281,1625,1622,1622,1625,0,0,0,0,0,0,0,0,0,0
1681132826.59931302,131428241,1620,1618,1618,1619,0,0,0,0,0,0,0,0,0,0
1681132826.69927311,131528201,1617,1615,1615,1617,0,0,0,0,0,0,0,0,0,0
1681132826.79923296,131628161,1616,1616,1616,1616,0,0,0,0,0,0,0,0,0,0
1681132826.90002608,131728954,1618,1618,1618,1617,0,0,0,0,0,0,0,0,0,0
1681132826.99998593,131828914,1619,1619,1619,1619,0,0,0,0,0,0,0,0,0,0
1681132827.09994602,131928874,1620,1620,1620,1620,0,0,0,0,0,0,0,0,0,0
1681132827.19990611,132028834,1620,1621,1621,1621,0,0,0,0,0,0,0,0,0,0
1681132827.29986596,132128794,1622,1622,1622,1622,0,0,0,0,0,0,0,0,0,0
1681132827.39982605,132228754,1624,1624,1623,1624,0,0,0,0,0,0,0,0,0,0
1681132827.49978590,132328714,1608,1609,1609,1608,0,0,0,0,0,0,0,0,0,0
1681132827.59974599,132428674,1589,1588,1588,1589,0,0,0,0,0,0,0,0,0,0
1681132827.69970608,132528634,1577,1575,1575,1578,0,0,0,0,0,0,0,0,0,0
1681132827.79966593,132628594,1568,1566,1567,1568,0,0,0,0,0,0,0,0,0,0
1681132827.89962602,132728554,1560,1559,1559,1560,0,0,0,0,0,0,0,0,0,0
1681132827.99958611,132828514,1552,1551,1552,1551,0,0,0,0,0,0,0,0,0,0
1681132828.09954596,132928474,1545,1546,1546,1545,0,0,0,0,0,0,0,0,0,0
1681132828.19950604,133028434,1540,1541,1541,1540,0,0,0,0,0,0,0,0,0,0
1681132828.29946589,133128394,1534,1535,1534,1534,0,0,0,0,0,0,0,0,0,0
1681132828.39942598,133228354,1527,1527,1527,1527,0,0,0,0,0,0,0,0,0,0
1681132828.49938607,133328314,1522,1522,1521,1523,0,0,0,0,0,0,0,0,0,0
1681132828.59934592,133428274,1519,1519,1518,1520,0,0,0,0,0,0,0,0,0,0
1681132828.69930601,133528234,1516,1516,1515,1517,0,0,0,0,0,0,0,0,0,0
1681132828.79926610,133628194,1514,1514,1514,1514,0,0,0,0,0,0,0,0,0,0
1681132828.89922595,133728154,1510,1510,1510,1510,0,0,0,0,0,0,0,0,0,0
1681132829.00001907,133828947,1508,1508,1508,1507,0,0,0,0,0,0,0,0,0,0
1681132829.09997892,133928907,1505,1505,1505,1505,0,0,0,0,0,0,0,0,0,0
1681132829.19993901,134028867,1503,1504,1504,1504,0,0,0,0,0,0,0,0,0,0
1681132829.29989910,134128827,1502,1502,1502,1502,0,0,0,0,0,0,0,0,0,0
1681132829.39985895,134228787,1500,1500,1500,1500,0,0,0,0,0,0,0,0,0,0
1681132829.49981904,134328747,1498,1498,1498,1498,0,0,0,0,0,0,0,0,0,0
1681132829.59977889,134428707,1496,1495,1495,1496,0,0,0,0,0,0,0,0,0,0
1681132829.69973898,134528667,1495,1495,1495,1496,0,0,0,0,0,0,0,0,0,0
1681132829.79969907,134628627,1493,1493,1493,1493,0,0,0,0,0,0,0,0,0,0
1681132829.89965892,134728587,1496,1495,1496,1495,0,0,0,0,0,0,0,0,0,0
1681132829.99961901,134828547,1504,1504,1505,1503,0,0,0,0,0,0,0,0,0,0
1681132830.09957910,134928507,1544,1544,1549,1539,0,0,0,0,0,0,0,0,0,0
1681132830.19953895,135028467,1557,1557,1560,1554,0,0,0,0,0,0,0,0,0,0
1681132830.29949903,135128427,1567,1566,1565,1567,0,0,0,0,0,0,0,0,0,0
1681132830.39945912,135228387,1572,1572,1568,1576,0,0,0,0,0,0,0,0,0,0
1681132830.49941897,135328347,1576,1575,1571,1580,0,0,0,0,0,0,0,0,0,0
1681132830.59937906,135428307,1578,1577,1574,1581,0,0,0,0,0,0,0,0,0,0
1681132830.69933891,135528267,1579,1579,1577,1580,0,0,0,0,0,0,0,0,0,0
1681132830.79929900,135628227,1580,1580,1581,1579,0,0,0,0,0,0,0,0,0,0
1681132830.89925909,135728187,1580,1580,1583,1578,0,0,0,0,0,0,0,0,0,0
1681132831.00005198,135828980,1579,1580,1583,1576,0,0,0,0,0,0,0,0,0,0
1681132831.10001206,135928940,1578,1578,1580,1576,0,0,0,0,0,0,0,0,0,0
1681132831.19997191,136028900,1576,1577,1577,1576,0,0,0,0,0,0,0,0,0,0
1681132831.29993200,136128860,1574,1574,1573,1575,0,0,0,0,0,0,0,0,0,0
1681132831.39989209,136228820,1573,1573,1571,1575,0,0,0,0,0,0,0,0,0,0
1681132831.49985194,136328780,1573,1573,1569,1573,0,0,0,0,0,0,0,0,0,0
1681132831.59981203,136428740,1570,1570,1568,1570,0,0,0,0,0,0,0,0,0,0
1681132831.69977212,136528700,1569,1569,1569,1570,0,0,0,0,0,0,0,0,0,0
1681132831.79973197,136628660,1568,1568,1570,1569,0,0,0,0,0,0,0,0,0,0
1681132831.89969206,136728620,1569,1568,1572,1571,0,0,0,0,0,0,0,0,0,0
1681132831.99965191,136828580,1569,1570,1573,1572,0,0,0,0,0,0,0,0,0,0
1681132832.09961200,136928540,1568,1568,1571,1571,0,0,0,0,0,0,0,0,0,0
1681132832.19957209,137028500,1569,1569,1571,1571,0,0,0,0,0,0,0,0,0,0
1681132832.29953194,137128460,1570,1569,1571,1572,0,0,0,0,0,0,0,0,0,0
1681132832.39949203,137228420,1569,1570,1571,1571,0,0,0,0,0,0,0,0,0,0
1681132832.49945211,137328380,1571,1571,1572,1572,0,0,0,0,0,0,0,0,0,0
1681132832.59941196,137428340,1571,1572,1571,1571,0,0,0,0,0,0,0,0,0,0
1681132832.69937205,137528300,1573,1573,1572,1573,0,0,0,0,0,0,0,0,0,0
1681132832.79933190,137628260,1575,1574,1573,1573,0,0,0,0,0,0,0,0,0,0
1681132832.89929199,137728220,1575,1574,1573,1573,0,0,0,0,0,0,0,0,0,0
1681132832.99925208,137828180,1576,1576,1575,1573,0,0,0,0,0,0,0,0,0,0
1681132833.10004497,137928973,1576,1576,1575,1574,0,0,0,0,0,0,0,0,0,0
1681132833.20000505,138028933,1576,1577,1576,1575,0,0,0,0,0,0,0,0,0,0
1681132833.29996490,138128893,1577,1577,1576,1576,0,0,0,0,0,0,0,0,0,0
1681132833.39992499,138228853,1577,1577,1576,1576,0,0,0,0,0,0,0,0,0,0
1681132833.49988508,138328813,1577,1576,1576,1577,0,0,0,0,0,0,0,0,0,0
1681132833.59984493,138428773,1577,1577,1577,1577,0,0,0,0,0,0,0,0,0,0
1681132833.69980502,138528733,1576,1576,1576,1576,0,0,0,0,0,0,0,0,0,0
1681132833.79976511,138628693,1576,1576,1577,1576,0,0,0,0,0,0,0,0,0,0
1681132833.89972496,138728653,1577,1577,1577,1578,0,0,0,0,0,0,0,0,0,0
1681132833.99968505,138828613,1577,1577,1578,1578,0,0,0,0,0,0,0,0,0,0
1681132834.09964490,138928573,1578,1578,1579,1579,0,0,0,0,0,0,0,0,0,0
1681132834.19960499,139028533,1578,1579,1579,1579,0,0,0,0,0,0,0,0,0,0
1681132834.29956508,139128493,1578,1578,1579,1579,0,0,0,0,0,0,0,0,0,0
1681132834.39952493,139228453,1579,1578,1579,1579,0,0,0,0,0,0,0,0,0,0
1681132834.49948502,139328413,1579,1579,1579,1578,0,0,0,0,0,0,0,0,0,0
1681132834.59944510,139428373,1579,1580,1579,1579,0,0,0,0,0,0,0,0,0,0
1681132834.69940495,139528333,1580,1580,1579,1579,0,0,0,0,0,0,0,0,0,0
1681132834.79936504,139628293,1580,1581,1580,1580,0,0,0,0,0,0,0,0,0,0
1681132834.89932489,139728253,1580,1580,1579,1580,0,0,0,0,0,0,0,0,0,0
1681132834.99928498,139828213,1580,1579,1579,1579,0,0,0,0,0,0,0,0,0,0
1681132835.09924507,139928173,1580,1579,1578,1579,0,0,0,0,0,0,0,0,0,0
1681132835.20003796,140028966,1580,1580,1580,1580,0,0,0,0,0,0,0,0,0,0
1681132835.29999804,140128926,1580,1580,1580,1580,0,0,0,0,0,0,0,0,0,0
1681132835.39995790,140228886,1579,1580,1579,1579,0,0,0,0,0,0,0,0,0,0
1681132835.49991798,140328846,1579,1579,1580,1580,0,0,0,0,0,0,0,0,0,0
1681132835.59987807,140428806,1579,1579,1580,1579,0,0,0,0,0,0,0,0,0,0
1681132835.69983792,140528766,1580,1580,1580,1581,0,0,0,0,0,0,0,0,0,0
1681132835.79979801,140628726,1580,1580,1581,1581,0,0,0,0,0,0,0,0,0,0
1681132835.89975810,140728686,1580,1580,1580,1580,0,0,0,0,0,0,0,0,0,0
1681132835.99971795,140828646,1580,1580,1581,1580,0,0,0,0,0,0,0,0,0,0
1681132836.09967804,140928606,1581,1581,1581,1581,0,0,0,0,0,0,0,0,0,0
1681132836.19963789,141028566,1581,1581,1581,1581,0,0,0,0,0,0,0,0,0,0
1681132836.29959798,141128526,1581,1581,1581,1581,0,0,0,0,0,0,0,0,0,0
1681132836.39955807,141228486,1582,1582,1582,1582,0,0,0,0,0,0,0,0,0,0
1681132836.49951792,141328446,1580,1580,1580,1580,0,0,0,0,0,0,0,0,0,0
1681132836.59947801,141428406,1581,1581,1581,1581,0,0,0,0,0,0,0,0,0,0
1681132836.69943810,141528366,1582,1582,1582,1582,0,0,0,0,0,0,0,0,0,0
1681132836.79939795,141628326,1582,1581,1581,1581,0,0,0,0,0,0,0,0,0,0
1681132836.89935803,141728286,1580,1581,1580,1580,0,0,0,0,0,0,0,0,0,0
1681132836.99931812,141828246,1581,1581,1581,1581,0,0,0,0,0,0,0,0,0,0
1681132837.09927797,141928206,1582,1582,1582,1582,0,0,0,0,0,0,0,0,0,0
1681132837.19923806,142028166,1582,1582,1582,1582,0,0,0,0,0,0,0,0,0,0
1681132837.30003095,142128959,1581,1581,1581,1581,0,0,0,0,0,0,0,0,0,0
1681132837.39999104,142228919,1581,1581,1582,1581,0,0,0,0,0,0,0,0,0,0
1681132837.49995112,142328879,1581,1581,1581,1581,0,0,0,0,0,0,0,0,0,0
1681132837.59991097,142428839,1581,1581,1581,1581,0,0,0,0,0,0,0,0,0,0
1681132837.69987106,142528799,1580,1581,1585,1575,0,0,0,0,0,0,0,0,0,0
1681132837.79983091,142628759,1580,1582,1586,1572,0,0,0,0,0,0,0,0,0,0
1681132837.89979100,142728719,1579,1582,1580,1573,0,0,0,0,0,0,0,0,0,0
1681132837.99975109,142828679,1577,1580,1571,1572,0,0,0,0,0,0,0,0,0,0
1681132838.09971094,142928639,1578,1579,1563,1570,0,0,0,0,0,0,0,0,0,0
1681132838.19967103,143028599,1578,1579,1558,1565,0,0,0,0,0,0,0,0,0,0
1681132838.29963112,143128559,1580,1579,1555,1561,0,0,0,0,0,0,0,0,0,0
1681132838.39959097,143228519,1580,1579,1555,1556,0,0,0,0,0,0,0,0,0,0
1681132838.49955106,143328479,1581,1580,1556,1555,0,0,0,0,0,0,0,0,0,0
1681132838.59951091,143428439,1579,1580,1556,1553,0,0,0,0,0,0,0,0,0,0
1681132838.69947100,143528399,1580,1580,1556,1554,0,0,0,0,0,0,0,0,0,0
1681132838.79943109,143628359,1578,1579,1555,1554,0,0,0,0,0,0,0,0,0,0
1681132838.89939094,143728319,1577,1578,1554,1554,0,0,0,0,0,0,0,0,0,0
1681132838.99935102,143828279,1576,1577,1553,1552,0,0,0,0,0,0,0,0,0,0
1681132839.09931111,143928239,1577,1577,1551,1552,0,0,0,0,0,0,0,0,0,0
1681132839.19927096,144028199,1578,1579,1550,1550,0,0,0,0,0,0,0,0,0,0
1681132839.29923105,144128159,1579,1581,1548,1548,0,0,0,0,0,0,0,0,0,0
1681132839.40002394,144228952,1582,1583,1546,1546,0,0,0,0,0,0,0,0,0,0
1681132839.49998403,144328912,1585,1585,1543,1543,0,0,0,0,0,0,0,0,0,0
1681132839.59994411,144428872,1588,1588,1540,1540,0,0,0,0,0,0,0,0,0,0
1681132839.69990396,144528832,1591,1592,1537,1538,0,0,0,0,0,0,0,0,0,0
1681132839.79986405,144628792,1593,1594,1535,1535,0,0,0,0,0,0,0,0,0,0
1681132839.89982390,144728752,1595,1595,1535,1535,0,0,0,0,0,0,0,0,0,0
1681132839.99978399,144828712,1596,1595,1535,1535,0,0,0,0,0,0,0,0,0,0
1681132840.09974408,144928672,1595,1594,1537,1539,0,0,0,0,0,0,0,0,0,0
1681132840.19970393,145028632,1592,1591,1539,1542,0,0,0,0,0,0,0,0,0,0
1681132840.29966402,145128592,1589,1587,1546,1550,0,0,0,0,0,0,0,0,0,0
1681132840.39962411,145228552,1582,1580,1554,1558,0,0,0,0,0,0,0,0,0,0
1681132840.49958396,145328512,1573,1569,1565,1568,0,0,0,0,0,0,0,0,0,0
1681132840.59954405,145428472,1563,1560,1579,1580,0,0,0,0,0,0,0,0,0,0
1681132840.69950390,145528432,1551,1547,1590,1591,0,0,0,0,0,0,0,0,0,0
1681132840.79946399,145628392,1541,1539,1601,1601,0,0,0,0,0,0,0,0,0,0
1681132840.89942408,145728352,1533,1532,1610,1609,0,0,0,0,0,0,0,0,0,0
1681132840.99938393,145828312,1529,1530,1615,1614,0,0,0,0,0,0,0,0,0,0
1681132841.09934402,145928272,1529,1530,1616,1615,0,0,0,0,0,0,0,0,0,0
1681132841.19930410,146028232,1532,1534,1614,1613,0,0,0,0,0,0,0,0,0,0
1681132841.29926395,146128192,1538,1540,1609,1608,0,0,0,0,0,0,0,0,0,0
1681132841.40005708,146228985,1545,1547,1601,1602,0,0,0,0,0,0,0,0,0,0
1681132841.50001693,146328945,1554,1555,1594,1594,0,0,0,0,0,0,0,0,0,0
1681132841.59997702,146428905,1564,1564,1587,1586,0,0,0,0,0,0,0,0,0,0
1681132841.69993711,146528865,1574,1573,1581,1580,0,0,0,0,0,0,0,0,0,0
1681132841.79989696,146628825,1579,1578,1574,1573,0,0,0,0,0,0,0,0,0,0
1681132841.89985704,146728785,1585,1583,1570,1570,0,0,0,0,0,0,0,0,0,0
1681132841.99981689,146828745,1587,1586,1567,1566,0,0,0,0,0,0,0,0,0,0
1681132842.09977698,146928705,1588,1586,1565,1566,0,0,0,0,0,0,0,0,0,0
1681132842.19973707,147028665,1587,1586,1566,1566,0,0,0,0,0,0,0,0,0,0
1681132842.29969692,147128625,1585,1586,1569,1569,0,0,0,0,0,0,0,0,0,0
1681132842.39965701,147228585,1583,1583,1571,1571,0,0,0,0,0,0,0,0,0,0
1681132842.49961710,147328545,1580,1580,1574,1574,0,0,0,0,0,0,0,0,0,0
1681132842.59957695,147428505,1578,1578,1578,1578,0,0,0,0,0,0,0,0,0,0
1681132842.69953704,147528465,1575,1575,1580,1580,0,0,0,0,0,0,0,0,0,0
1681132842.79949689,147628425,1574,1574,1582,1582,0,0,0,0,0,0,0,0,0,0
1681132842.89945698,147728385,1572,1572,1583,1583,0,0,0,0,0,0,0,0,0,0
1681132842.99941707,147828345,1571,1572,1583,1583,0,0,0,0,0,0,0,0,0,0
1681132843.09937692,147928305,1572,1573,1583,1584,0,0,0,0,0,0,0,0,0,0
1681132843.19933701,148028265,1573,1574,1583,1583,0,0,0,0,0,0,0,0,0,0
1681132843.29929709,148128225,1575,1575,1583,1583,0,0,0,0,0,0,0,0,0,0
1681132843.39925694,148228185,1576,1576,1580,1581,0,0,0,0,0,0,0,0,0,0
1681132843.50005007,148328978,1578,1578,1580,1580,0,0,0,0,0,0,0,0,0,0
1681132843.60000992,148428938,1579,1578,1579,1579,0,0,0,0,0,0,0,0,0,0
1681132843.69997001,148528898,1580,1580,1578,1578,0,0,0,0,0,0,0,0,0,0
1681132843.79993010,148628858,1581,1581,1577,1577,0,0,0,0,0,0,0,0,0,0
1681132843.89988995,148728818,1581,1581,1576,1576,0,0,0,0,0,0,0,0,0,0
1681132843.99985003,148828778,1583,1583,1306,1550,0,0,0,0,0,0,0,0,0,0
1681132844.09981012,148928738,1625,1625,1460,1505,0,0,0,0,0,0,0,0,0,0
1681132844.19976997,149028698,1656,1661,1569,1526,0,0,0,0,0,0,0,0,0,0
1681132844.29973006,149128658,1668,1679,1650,1555,0,0,0,0,0,0,0,0,0,0
1681132844.39968991,149228618,1626,1646,1650,1563,0,0,0,0,0,0,0,0,0,0
1681132844.49965000,149328578,1627,1649,1650,1596,0,0,0,0,0,0,0,0,0,0
1681132844.59961009,149428538,1628,1644,1650,1624,0,0,0,0,0,0,0,0,0,0
1681132844.69956994,149528498,1615,1618,1650,1649,0,0,0,0,0,0,0,0,0,0
1681132844.79953003,149628458,1584,1582,1650,1673,0,0,0,0,0,0,0,0,0,0
1681132844.89949012,149728418,1554,1537,1650,1681,0,0,0,0,0,0,0,0,0,0
1681132844.99944997,149828378,1535,1500,1650,1676,0,0,0,0,0,0,0,0,0,0
1681132845.09941006,149928338,1532,1492,1650,1668,0,0,0,0,0,0,0,0,0,0
1681132845.19936991,150028298,1550,1519,1650,1660,0,0,0,0,0,0,0,0,0,0
1681132845.29933000,150128258,1586,1572,1650,1656,0,0,0,0,0,0,0,0,0,0
1681132845.39929008,150228218,1619,1623,1650,1650,0,0,0,0,0,0,0,0,0,0
1681132845.49924994,150328178,1625,1644,1634,1629,0,0,0,0,0,0,0,0,0,0
1681132845.60004306,150428971,1611,1637,1604,1600,0,0,0,0,0,0,0,0,0,0
1681132845.70000291,150528931,1602,1632,1584,1572,0,0,0,0,0,0,0,0,0,0
1681132845.79996300,150628891,1597,1622,1560,1556,0,0,0,0,0,0,0,0,0,0
1681132845.89992309,150728851,1592,1605,1539,1547,0,0,0,0,0,0,0,0,0,0
1681132845.99988294,150828811,1587,1585,1526,1540,0,0,0,0,0,0,0,0,0,0
1681132846.09984303,150928771,1581,1571,1520,1532,0,0,0,0,0,0,0,0,0,0
1681132846.19980311,151028731,1577,1563,1519,1525,0,0,0,0,0,0,0,0,0,0
1681132846.29976296,151128691,1572,1562,1522,1522,0,0,0,0,0,0,0,0,0,0
1681132846.39972305,151228651,1569,1564,1526,1521,0,0,0,0,0,0,0,0,0,0
1681132846.49968290,151328611,1566,1567,1530,1523,0,0,0,0,0,0,0,0,0,0
1681132846.59964299,151428571,1563,1568,1533,1527,0,0,0,0,0,0,0,0,0,0
1681132846.69960308,151528531,1562,1568,1535,1533,0,0,0,0,0,0,0,0,0,0
1681132846.79956293,151628491,1562,1567,1538,1538,0,0,0,0,0,0,0,0,0,0
1681132846.89952302,151728451,1564,1565,1540,1541,0,0,0,0,0,0,0,0,0,0
1681132846.99948311,151828411,1565,1565,1542,1544,0,0,0,0,0,0,0,0,0,0
1681132847.09944296,151928371,1567,1566,1544,1545,0,0,0,0,0,0,0,0,0,0
1681132847.19940305,152028331,1570,1569,1546,1546,0,0,0,0,0,0,0,0,0,0
1681132847.29936290,152128291,1573,1572,1547,1546,0,0,0,0,0,0,0,0,0,0
1681132847.39932299,152228251,1576,1576,1547,1546,0,0,0,0,0,0,0,0,0,0
1681132847.49928308,152328211,1579,1580,1547,1546,0,0,0,0,0,0,0,0,0,0
1681132847.59924293,152428171,1582,1583,1547,1546,0,0,0,0,0,0,0,0,0,0
1681132847.70003605,152528964,1584,1585,1545,1545,0,0,0,0,0,0,0,0,0,0
1681132847.79999590,152628924,1587,1587,1545,1546,0,0,0,0,0,0,0,0,0,0
1681132847.89995599,152728884,1588,1587,1544,1546,0,0,0,0,0,0,0,0,0,0
1681132847.99991608,152828844,1588,1586,1545,1547,0,0,0,0,0,0,0,0,0,0
1681132848.09987593,152928804,1586,1584,1548,1550,0,0,0,0,0,0,0,0,0,0
1681132848.19983602,153028764,1583,1581,1551,1553,0,0,0,0,0,0,0,0,0,0
1681132848.29979610,153128724,1578,1577,1556,1558,0,0,0,0,0,0,0,0,0,0
1681132848.39975595,153228684,1573,1572,1561,1563,0,0,0,0,0,0,0,0,0,0
1681132848.49971604,153328644,1569,1567,1567,1569,0,0,0,0,0,0,0,0,0,0
1681132848.59967589,153428604,1564,1562,1574,1575,0,0,0,0,0,0,0,0,0,0
1681132848.69963598,153528564,1559,1558,1581,1581,0,0,0,0,0,0,0,0,0,0
1681132848.79959607,153628524,1554,1554,1586,1585,0,0,0,0,0,0,0,0,0,0
1681132848.89955592,153728484,1551,1550,1591,1589,0,0,0,0,0,0,0,0,0,0
1681132848.99951601,153828444,1551,1551,1595,1594,0,0,0,0,0,0,0,0,0,0
1681132849.09947610,153928404,1550,1550,1597,1595,0,0,0,0,0,0,0,0,0,0
1681132849.19943595,154028364,1550,1550,1597,1597,0,0,0,0,0,0,0,0,0,0
1681132849.29939604,154128324,1550,1551,1597,1596,0,0,0,0,0,0,0,0,0,0
1681132849.39935589,154228284,1553,1553,1596,1596,0,0,0,0,0,0,0,0,0,0
1681132849.49931598,154328244,1555,1555,1594,1595,0,0,0,0,0,0,0,0,0,0
1681132849.59927607,154428204,1557,1556,1591,1592,0,0,0,0,0,0,0,0,0,0
1681132849.69923592,154528164,1559,1559,1588,1589,0,0,0,0,0,0,0,0,0,0
1681132849.80002904,154628957,1562,1562,1587,1587,0,0,0,0,0,0,0,0,0,0
1681132849.89998889,154728917,1565,1565,1585,1585,0,0,0,0,0,0,0,0,0,0
1681132849.99994898,154828877,1567,1568,1583,1582,0,0,0,0,0,0,0,0,0,0
1681132850.09990907,154928837,1570,1570,1580,1579,0,0,0,0,0,0,0,0,0,0
1681132850.19986892,155028797,1572,1573,1578,1577,0,0,0,0,0,0,0,0,0,0
1681132850.29982901,155128757,1575,1575,1576,1576,0,0,0,0,0,0,0,0,0,0
1681132850.39978909,155228717,1576,1576,1573,1574,0,0,0,0,0,0,0,0,0,0
1681132850.49974895,155328677,1578,1577,1572,1573,0,0,0,0,0,0,0,0,0,0
1681132850.59970903,155428637,1580,1579,1572,1573,0,0,0,0,0,0,0,0,0,0
1681132850.69966912,155528597,1580,1580,1571,1571,0,0,0,0,0,0,0,0,0,0
1681132850.79962897,155628557,1581,1580,1571,1571,0,0,0,0,0,0,0,0,0,0
1681132850.89958906,155728517,1581,1581,1572,1572,0,0,0,0,0,0,0,0,0,0
1681132850.99954891,155828477,1582,1581,1573,1573,0,0,0,0,0,0,0,0,0,0
1681132851.09950900,155928437,1582,1581,1574,1574,0,0,0,0,0,0,0,0,0,0
1681132851.19946909,156028397,1581,1581,1575,1575,0,0,0,0,0,0,0,0,0,0
1681132851.29942894,156128357,1579,1580,1576,1576,0,0,0,0,0,0,0,0,0,0
1681132851.39938903,156228317,1580,1580,1578,1578,0,0,0,0,0,0,0,0,0,0
1681132851.49934912,156328277,1578,1578,1579,1578,0,0,0,0,0,0,0,0,0,0
1681132851.59930897,156428237,1578,1578,1580,1579,0,0,0,0,0,0,0,0,0,0
1681132851.69926906,156528197,1577,1578,1581,1580,0,0,0,0,0,0,0,0,0,0
1681132851.79922891,156628157,1577,1577,1581,1581,0,0,0,0,0,0,0,0,0,0
1681132851.90002203,156728950,1577,1577,1581,1581,0,0,0,0,0,0,0,0,0,0
1681132851.99998212,156828910,1577,1577,1581,1581,0,0,0,0,0,0,0,0,0,0
1681132852.09994197,156928870,1578,1578,1582,1582,0,0,0,0,0,0,0,0,0,0
1681132852.19990206,157028830,1579,1579,1582,1582,0,0,0,0,0,0,0,0,0,0
1681132852.29986191,157128790,1579,1579,1582,1582,0,0,0,0,0,0,0,0,0,0
1681132852.39982200,157228750,1580,1580,1582,1582,0,0,0,0,0,0,0,0,0,0
1681132852.49978209,157328710,1579,1579,1580,1581,0,0,0,0,0,0,0,0,0,0
1681132852.59974194,157428670,1579,1579,1580,1580,0,0,0,0,0,0,0,0,0,0
1681132852.69970202,157528630,1580,1580,1580,1580,0,0,0,0,0,0,0,0,0,0
1681132852.79966211,157628590,1580,1580,1579,1580,0,0,0,0,0,0,0,0,0,0
1681132852.89962196,157728550,1581,1581,1580,1580,0,0,0,0,0,0,0,0,0,0
1681132852.99958205,157828510,1581,1581,1580,1580,0,0,0,0,0,0,0,0,0,0
1681132853.09954190,157928470,1582,1581,1580,1580,0,0,0,0,0,0,0,0,0,0
1681132853.19950199,158028430,1581,1581,1580,1579,0,0,0,0,0,0,0,0,0,0
1681132853.29946208,158128390,1581,1581,1580,1579,0,0,0,0,0,0,0,0,0,0
1681132853.39942193,158228350,1581,1581,1580,1580,0,0,0,0,0,0,0,0,0,0
1681132853.49938202,158328310,1581,1581,1580,1580,0,0,0,0,0,0,0,0,0,0
1681132853.59934211,158428270,1581,1581,1581,1581,0,0,0,0,0,0,0,0,0,0
1681132853.69930196,158528230,1582,1582,1582,1582,0,0,0,0,0,0,0,0,0,0
1681132853.79926205,158628190,1581,1581,1582,1581,0,0,0,0,0,0,0,0,0,0
1681132853.90005493,158728983,1582,1582,1583,1582,0,0,0,0,0,0,0,0,0,0
1681132854.00001502,158828943,1581,1581,1582,1582,0,0,0,0,0,0,0,0,0,0
1681132854.09997511,158928903,1580,1580,1581,1581,0,0,0,0,0,0,0,0,0,0
1681132854.19993496,159028863,1581,1582,1584,1578,0,0,0,0,0,0,0,0,0,0
1681132854.29989505,159128823,1579,1583,1586,1572,0,0,0,0,0,0,0,0,0,0
1681132854.39985490,159228783,1578,1584,1582,1574,0,0,0,0,0,0,0,0,0,0
1681132854.49981499,159328743,1578,1582,1575,1574,0,0,0,0,0,0,0,0,0,0
1681132854.59977508,159428703,1577,1579,1567,1571,0,0,0,0,0,0,0,0,0,0
1681132854.69973493,159528663,1577,1578,1560,1567,0,0,0,0,0,0,0,0,0,0
1681132854.79969501,159628623,1579,1577,1556,1563,0,0,0,0,0,0,0,0,0,0
1681132854.89965510,159728583,1581,1578,1554,1559,0,0,0,0,0,0,0,0,0,0
1681132854.99961495,159828543,1582,1579,1554,1555,0,0,0,0,0,0,0,0,0,0
1681132855.09957504,159928503,1582,1580,1554,1554,0,0,0,0,0,0,0,0,0,0
1681132855.19953489,160028463,1580,1580,1555,1552,0,0,0,0,0,0,0,0,0,0
1681132855.29949498,160128423,1580,1581,1555,1553,0,0,0,0,0,0,0,0,0,0
1681132855.39945507,160228383,1578,1580,1554,1552,0,0,0,0,0,0,0,0,0,0
1681132855.49941492,160328343,1577,1579,1554,1553,0,0,0,0,0,0,0,0,0,0
1681132855.59937501,160428303,1577,1579,1553,1553,0,0,0,0,0,0,0,0,0,0
1681132855.69933510,160528263,1577,1579,1552,1552,0,0,0,0,0,0,0,0,0,0
1681132855.79929495,160628223,1579,1580,1551,1551,0,0,0,0,0,0,0,0,0,0
1681132855.89925504,160728183,1580,1580,1548,1549,0,0,0,0,0,0,0,0,0,0
1681132856.00004792,160828976,1583,1584,1548,1547,0,0,0,0,0,0,0,0,0,0
1681132856.10000801,160928936,1585,1586,1545,1545,0,0,0,0,0,0,0,0,0,0
1681132856.19996810,161028896,1588,1589,1544,1544,0,0,0,0,0,0,0,0,0,0
1681132856.29992795,161128856,1591,1591,1541,1542,0,0,0,0,0,0,0,0,0,0
1681132856.39988804,161228816,1593,1594,1539,1540,0,0,0,0,0,0,0,0,0,0
1681132856.49984789,161328776,1595,1596,1538,1539,0,0,0,0,0,0,0,0,0,0
1681132856.59980798,161428736,1597,1597,1538,1540,0,0,0,0,0,0,0,0,0,0
1681132856.69976807,161528696,1598,1596,1541,1544,0,0,0,0,0,0,0,0,0,0
1681132856.79972792,161628656,1594,1591,1544,1548,0,0,0,0,0,0,0,0,0,0
1681132856.89968801,161728616,1588,1584,1552,1555,0,0,0,0,0,0,0,0,0,0
1681132856.99964809,161828576,1580,1576,1561,1565,0,0,0,0,0,0,0,0,0,0
1681132857.09960794,161928536,1570,1566,1573,1575,0,0,0,0,0,0,0,0,0,0
1681132857.19956803,162028496,1558,1556,1585,1586,0,0,0,0,0,0,0,0,0,0
1681132857.29952812,162128456,1548,1547,1597,1596,0,0,0,0,0,0,0,0,0,0
1681132857.39948797,162228416,1542,1543,1607,1604,0,0,0,0,0,0,0,0,0,0
1681132857.49944806,162328376,1539,1540,1612,1608,0,0,0,0,0,0,0,0,0,0
1681132857.59940791,162428336,1539,1541,1615,1611,0,0,0,0,0,0,0,0,0,0
1681132857.69936800,162528296,1542,1543,1614,1611,0,0,0,0,0,0,0,0,0,0
1681132857.79932809,162628256,1546,1547,1612,1610,0,0,0,0,0,0,0,0,0,0
1681132857.89928794,162728216,1550,1550,1607,1607,0,0,0,0,0,0,0,0,0,0
1681132857.99924803,162828176,1553,1554,1602,1602,0,0,0,0,0,0,0,0,0,0
1681132858.10004091,162928969,1558,1558,1597,1597,0,0,0,0,0,0,0,0,0,0
1681132858.20000100,163028929,1562,1563,1591,1592,0,0,0,0,0,0,0,0,0,0
1681132858.29996109,163128889,1567,1567,1585,1586,0,0,0,0,0,0,0,0,0,0
1681132858.39992094,163228849,1571,1571,1579,1580,0,0,0,0,0,0,0,0,0,0
1681132858.49988103,163328809,1576,1575,1573,1574,0,0,0,0,0,0,0,0,0,0
1681132858.59984112,163428769,1581,1580,1569,1570,0,0,0,0,0,0,0,0,0,0
1681132858.69980097,163528729,1584,1583,1566,1567,0,0,0,0,0,0,0,0,0,0
1681132858.79976106,163628689,1585,1584,1563,1564,0,0,0,0,0,0,0,0,0,0
1681132858.89972091,163728649,1586,1584,1564,1564,0,0,0,0,0,0,0,0,0,0
1681132858.99968100,163828609,1584,1583,1564,1565,0,0,0,0,0,0,0,0,0,0
1681132859.09964108,163928569,1582,1582,1567,1567,0,0,0,0,0,0,0,0,0,0
1681132859.19960093,164028529,1580,1580,1570,1570,0,0,0,0,0,0,0,0,0,0
1681132859.29956102,164128489,1579,1579,1574,1574,0,0,0,0,0,0,0,0,0,0
1681132859.39952111,164228449,1577,1577,1577,1576,0,0,0,0,0,0,0,0,0,0
1681132859.49948096,164328409,1575,1575,1580,1580,0,0,0,0,0,0,0,0,0,0
1681132859.59944105,164428369,1573,1574,1582,1581,0,0,0,0,0,0,0,0,0,0
1681132859.69940090,164528329,1573,1573,1584,1583,0,0,0,0,0,0,0,0,0,0
1681132859.79936099,164628289,1573,1574,1585,1584,0,0,0,0,0,0,0,0,0,0
1681132859.89932108,164728249,1573,1574,1585,1585,0,0,0,0,0,0,0,0,0,0
1681132859.99928093,164828209,1573,1574,1583,1584,0,0,0,0,0,0,0,0,0,0
1681132860.09924102,164928169,1576,1576,1583,1584,0,0,0,0,0,0,0,0,0,0
1681132860.20003390,165028962,1577,1577,1582,1582,0,0,0,0,0,0,0,0,0,0
1681132860.29999399,165128922,1578,1578,1581,1581,0,0,0,0,0,0,0,0,0,0
1681132860.39995408,165228882,1579,1579,1579,1580,0,0,0,0,0,0,0,0,0,0
1681132860.49991393,165328842,1580,1579,1578,1579,0,0,0,0,0,0,0,0,0,0
1681132860.59987402,165428802,1581,1580,1578,1578,0,0,0,0,0,0,0,0,0,0
1681132860.69983411,165528762,1581,1581,1577,1578,0,0,0,0,0,0,0,0,0,0
1681132860.79979396,165628722,1581,1580,1577,1577,0,0,0,0,0,0,0,0,0,0
1681132860.89975405,165728682,1582,1581,1577,1578,0,0,0,0,0,0,0,0,0,0
1681132860.99971390,165828642,1581,1581,1577,1577,0,0,0,0,0,0,0,0,0,0
1681132861.09967399,165928602,1581,1581,1578,1578,0,0,0,0,0,0,0,0,0,0
1681132861.19963408,166028562,1581,1580,1579,1578,0,0,0,0,0,0,0,0,0,0
1681132861.29959393,166128522,1581,1581,1580,1580,0,0,0,0,0,0,0,0,0,0
1681132861.39955401,166228482,1580,1580,1580,1580,0,0,0,0,0,0,0,0,0,0
1681132861.49951410,166328442,1580,1580,1581,1580,0,0,0,0,0,0,0,0,0,0
1681132861.53949809,166368426,1579,1580,1581,1581,0,0,0,0,0,0,0,0,0,0
1681132861.63945794,166468386,1579,1579,1581,1581,0,0,0,0,0,0,0,0,0,0
1681132861.73941803,166568346,1579,1579,1581,1581,0,0,0,0,0,0,0,0,0,0
1681132861.83937812,166668306,1580,1580,1582,1582,0,0,0,0,0,0,0,0,0,0
1681132861.93933797,166768266,1579,1580,1581,1581,0,0,0,0,0,0,0,0,0,0
1681132862.03929806,166868226,1580,1581,1583,1580,0,0,0,0,0,0,0,0,0,0
1681132862.13925791,166968186,1580,1581,1586,1572,0,0,0,0,0,0,0,0,0,0
1681132862.24005103,167068979,1579,1580,1584,1573,0,0,0,0,0,0,0,0,0,0
1681132862.34001112,167168939,1576,1577,1578,1575,0,0,0,0,0,0,0,0,0,0
1681132862.43997097,167268899,1573,1572,1571,1576,0,0,0,0,0,0,0,0,0,0
1681132862.53993106,167368859,1570,1569,1567,1575,0,0,0,0,0,0,0,0,0,0
1681132862.63989091,167468819,1567,1567,1564,1571,0,0,0,0,0,0,0,0,0,0
1681132862.73985100,167568779,1567,1566,1564,1569,0,0,0,0,0,0,0,0,0,0
1681132862.83981109,167668739,1567,1567,1565,1567,0,0,0,0,0,0,0,0,0,0
1681132862.93977094,167768699,1567,1566,1566,1565,0,0,0,0,0,0,0,0,0,0
1681132863.03973103,167868659,1567,1567,1567,1564,0,0,0,0,0,0,0,0,0,0
1681132863.13969111,167968619,1566,1566,1566,1563,0,0,0,0,0,0,0,0,0,0
1681132863.23965096,168068579,1565,1565,1566,1563,0,0,0,0,0,0,0,0,0,0
1681132863.33961105,168168539,1565,1564,1565,1564,0,0,0,0,0,0,0,0,0,0
1681132863.43957090,168268499,1564,1564,1564,1564,0,0,0,0,0,0,0,0,0,0
1681132863.53953099,168368459,1563,1562,1563,1563,0,0,0,0,0,0,0,0,0,0
1681132863.63949108,168468419,1562,1562,1562,1563,0,0,0,0,0,0,0,0,0,0
1681132863.73945093,168568379,1562,1562,1562,1562,0,0,0,0,0,0,0,0,0,0
1681132863.83941102,168668339,1560,1561,1561,1561,0,0,0,0,0,0,0,0,0,0
1681132863.93937111,168768299,1560,1560,1561,1560,0,0,0,0,0,0,0,0,0,0
1681132864.03933096,168868259,1560,1560,1561,1561,0,0,0,0,0,0,0,0,0,0
1681132864.13929105,168968219,1559,1559,1560,1559,0,0,0,0,0,0,0,0,0,0
1681132864.23925090,169068179,1558,1559,1560,1559,0,0,0,0,0,0,0,0,0,0
1681132864.34004402,169168972,1558,1558,1559,1558,0,0,0,0,0,0,0,0,0,0
1681132864.44000411,169268932,1559,1558,1559,1557,0,0,0,0,0,0,0,0,0,0
1681132864.53996396,169368892,1558,1558,1559,1557,0,0,0,0,0,0,0,0,0,0
1681132864.63992405,169468852,1559,1559,1560,1558,0,0,0,0,0,0,0,0,0,0
1681132864.73988390,169568812,1560,1560,1561,1557,0,0,0,0,0,0,0,0,0,0
1681132864.83984399,169668772,1560,1560,1560,1559,0,0,0,0,0,0,0,0,0,0
1681132864.93980408,169768732,1559,1559,1558,1561,0,0,0,0,0,0,0,0,0,0
1681132865.03976393,169868692,1561,1561,1558,1564,0,0,0,0,0,0,0,0,0,0
1681132865.13972402,169968652,1562,1562,1558,1565,0,0,0,0,0,0,0,0,0,0
1681132865.23968410,170068612,1562,1562,1559,1564,0,0,0,0,0,0,0,0,0,0
1681132865.33964396,170168572,1562,1562,1560,1562,0,0,0,0,0,0,0,0,0,0
1681132865.43960404,170268532,1562,1561,1561,1560,0,0,0,0,0,0,0,0,0,0
1681132865.53956389,170368492,1561,1561,1562,1558,0,0,0,0,0,0,0,0,0,0
1681132865.63952398,170468452,1560,1560,1562,1557,0,0,0,0,0,0,0,0,0,0
1681132865.73948407,170568412,1560,1560,1559,1561,0,0,0,0,0,0,0,0,0,0
1681132865.83944392,170668372,1557,1556,1555,1561,0,0,0,0,0,0,0,0,0,0
1681132865.93940401,170768332,1552,1551,1551,1556,0,0,0,0,0,0,0,0,0,0
1681132866.03936410,170868292,1547,1547,1548,1550,0,0,0,0,0,0,0,0,0,0
1681132866.13932395,170968252,1541,1541,1543,1543,0,0,0,0,0,0,0,0,0,0
1681132866.23928404,171068212,1533,1534,1537,1535,0,0,0,0,0,0,0,0,0,0
1681132866.33924389,171168172,1526,1526,1530,1528,0,0,0,0,0,0,0,0,0,0
1681132866.44003701,171268965,1520,1521,1523,1523,0,0,0,0,0,0,0,0,0,0
1681132866.53999710,171368925,1519,1519,1520,1521,0,0,0,0,0,0,0,0,0,0
1681132866.63995695,171468885,1519,1520,1519,1521,0,0,0,0,0,0,0,0,0,0
1681132866.73991704,171568845,1521,1521,1519,1521,0,0,0,0,0,0,0,0,0,0
1681132866.83987689,171668805,1525,1525,1521,1523,0,0,0,0,0,0,0,0,0,0
1681132866.93983698,171768765,1530,1529,1524,1526,0,0,0,0,0,0,0,0,0,0
1681132867.03979707,171868725,1534,1534,1529,1529,0,0,0,0,0,0,0,0,0,0
1681132867.13975692,171968685,1538,1539,1534,1533,0,0,0,0,0,0,0,0,0,0
1681132867.23971701,172068645,1541,1541,1537,1536,0,0,0,0,0,0,0,0,0,0
1681132867.33967710,172168605,1543,1543,1541,1539,0,0,0,0,0,0,0,0,0,0
1681132867.43963695,172268565,1544,1544,1543,1541,0,0,0,0,0,0,0,0,0,0
1681132867.53959703,172368525,1544,1544,1545,1543,0,0,0,0,0,0,0,0,0,0
1681132867.63955712,172468485,1545,1545,1547,1546,0,0,0,0,0,0,0,0,0,0
1681132867.73951697,172568445,1545,1545,1547,1547,0,0,0,0,0,0,0,0,0,0
1681132867.83947706,172668405,1544,1544,1547,1547,0,0,0,0,0,0,0,0,0,0
1681132867.93943691,172768365,1544,1545,1548,1548,0,0,0,0,0,0,0,0,0,0
1681132868.03939700,172868325,1544,1544,1547,1548,0,0,0,0,0,0,0,0,0,0
1681132868.13935709,172968285,1545,1545,1548,1547,0,0,0,0,0,0,0,0,0,0
1681132868.23931694,173068245,1546,1546,1548,1548,0,0,0,0,0,0,0,0,0,0
1681132868.33927703,173168205,1545,1545,1547,1547,0,0,0,0,0,0,0,0,0,0
1681132868.43923712,173268165,1546,1546,1546,1546,0,0,0,0,0,0,0,0,0,0
1681132868.54003000,173368958,1545,1546,1546,1546,0,0,0,0,0,0,0,0,0,0
1681132868.63999009,173468918,1545,1545,1545,1544,0,0,0,0,0,0,0,0,0,0
1681132868.73994994,173568878,1544,1545,1544,1543,0,0,0,0,0,0,0,0,0,0
1681132868.83991003,173668838,1545,1545,1544,1544,0,0,0,0,0,0,0,0,0,0
1681132868.93987012,173768798,1545,1544,1543,1543,0,0,0,0,0,0,0,0,0,0
1681132869.03982997,173868758,1545,1545,1543,1544,0,0,0,0,0,0,0,0,0,0
1681132869.13979006,173968718,1544,1545,1543,1543,0,0,0,0,0,0,0,0,0,0
1681132869.23974991,174068678,1544,1545,1543,1543,0,0,0,0,0,0,0,0,0,0
1681132869.33971000,174168638,1543,1544,1543,1543,0,0,0,0,0,0,0,0,0,0
1681132869.43967009,174268598,1544,1544,1544,1544,0,0,0,0,0,0,0,0,0,0
1681132869.53962994,174368558,1543,1543,1543,1543,0,0,0,0,0,0,0,0,0,0
1681132869.63959002,174468518,1544,1543,1543,1544,0,0,0,0,0,0,0,0,0,0
1681132869.73955011,174568478,1544,1544,1544,1544,0,0,0,0,0,0,0,0,0,0
1681132869.83950996,174668438,1543,1543,1544,1544,0,0,0,0,0,0,0,0,0,0
1681132869.93947005,174768398,1544,1544,1544,1544,0,0,0,0,0,0,0,0,0,0
1681132870.03942990,174868358,1544,1543,1544,1544,0,0,0,0,0,0,0,0,0,0
1681132870.13938999,174968318,1543,1544,1545,1544,0,0,0,0,0,0,0,0,0,0
1681132870.23935008,175068278,1544,1544,1545,1545,0,0,0,0,0,0,0,0,0,0
1681132870.33930993,175168238,1544,1544,1545,1545,0,0,0,0,0,0,0,0,0,0
1681132870.43927002,175268198,1545,1545,1545,1545,0,0,0,0,0,0,0,0,0,0
1681132870.53923011,175368158,1545,1544,1545,1545,0,0,0,0,0,0,0,0,0,0
1681132870.64002299,175468951,1544,1544,1544,1544,0,0,0,0,0,0,0,0,0,0
1681132870.73998308,175568911,1544,1545,1544,1544,0,0,0,0,0,0,0,0,0,0
1681132870.83994293,175668871,1544,1544,1544,1544,0,0,0,0,0,0,0,0,0,0
1681132870.93990302,175768831,1543,1544,1544,1543,0,0,0,0,0,0,0,0,0,0
1681132871.03986311,175868791,1544,1544,1544,1544,0,0,0,0,0,0,0,0,0,0
1681132871.13982296,175968751,1545,1545,1544,1544,0,0,0,0,0,0,0,0,0,0
1681132871.23978305,176068711,1545,1544,1544,1544,0,0,0,0,0,0,0,0,0,0
1681132871.33974290,176168671,1545,1545,1544,1545,0,0,0,0,0,0,0,0,0,0
1681132871.43970299,176268631,1545,1544,1544,1544,0,0,0,0,0,0,0,0,0,0
1681132871.53966308,176368591,1544,1544,1544,1544,0,0,0,0,0,0,0,0,0,0
1681132871.63962293,176468551,1544,1545,1545,1544,0,0,0,0,0,0,0,0,0,0
1681132871.73958302,176568511,1545,1545,1545,1545,0,0,0,0,0,0,0,0,0,0
1681132871.83954310,176668471,1545,1544,1545,1545,0,0,0,0,0,0,0,0,0,0
1681132871.93950295,176768431,1544,1544,1544,1544,0,0,0,0,0,0,0,0,0,0
1681132872.03946304,176868391,1545,1545,1545,1545,0,0,0,0,0,0,0,0,0,0
1681132872.13942289,176968351,1544,1544,1544,1544,0,0,0,0,0,0,0,0,0,0
1681132872.23938298,177068311,1545,1545,1545,1545,0,0,0,0,0,0,0,0,0,0
1681132872.33934307,177168271,1545,1545,1545,1545,0,0,0,0,0,0,0,0,0,0
1681132872.43930292,177268231,1545,1545,1545,1545,0,0,0,0,0,0,0,0,0,0
1681132872.53926301,177368191,1543,1543,1544,1544,0,0,0,0,0,0,0,0,0,0
1681132872.64005589,177468984,1544,1543,1544,1544,0,0,0,0,0,0,0,0,0,0
1681132872.74001598,177568944,1544,1544,1544,1544,0,0,0,0,0,0,0,0,0,0
1681132872.83997607,177668904,1544,1544,1544,1544,0,0,0,0,0,0,0,0,0,0
1681132872.93993592,177768864,1544,1544,1544,1543,0,0,0,0,0,0,0,0,0,0
1681132873.03989601,177868824,1543,1544,1544,1544,0,0,0,0,0,0,0,0,0,0
1681132873.13985610,177968784,1544,1544,1544,1544,0,0,0,0,0,0,0,0,0,0
1681132873.23981595,178068744,1544,1544,1544,1544,0,0,0,0,0,0,0,0,0,0
1681132873.33977604,178168704,1543,1544,1544,1543,0,0,0,0,0,0,0,0,0,0
1681132873.43973589,178268664,1544,1544,1544,1544,0,0,0,0,0,0,0,0,0,0
1681132873.53969598,178368624,1544,1544,1544,1544,0,0,0,0,0,0,0,0,0,0
1681132873.63965607,178468584,1545,1545,1545,1545,0,0,0,0,0,0,0,0,0,0
1681132873.73961592,178568544,1545,1545,1545,1545,0,0,0,0,0,0,0,0,0,0
1681132873.83957601,178668504,1544,1544,1544,1544,0,0,0,0,0,0,0,0,0,0
1681132873.93953609,178768464,1544,1545,1544,1544,0,0,0,0,0,0,0,0,0,0
1681132874.03949594,178868424,1544,1544,1545,1545,0,0,0,0,0,0,0,0,0,0
1681132874.13945603,178968384,1545,1545,1545,1545,0,0,0,0,0,0,0,0,0,0
1681132874.23941612,179068344,1544,1544,1544,1545,0,0,0,0,0,0,0,0,0,0
1681132874.33937597,179168304,1544,1544,1544,1544,0,0,0,0,0,0,0,0,0,0
1681132874.43933606,179268264,1544,1544,1544,1544,0,0,0,0,0,0,0,0,0,0
1681132874.53929591,179368224,1543,1543,1544,1543,0,0,0,0,0,0,0,0,0,0
1681132874.63925600,179468184,1543,1543,1544,1543,0,0,0,0,0,0,0,0,0,0
1681132874.74004912,179568977,1543,1542,1543,1543,0,0,0,0,0,0,0,0,0,0
1681132874.84000897,179668937,1543,1543,1543,1544,0,0,0,0,0,0,0,0,0,0
1681132874.93996906,179768897,1545,1545,1544,1545,0,0,0,0,0,0,0,0,0,0
1681132875.03992891,179868857,1544,1545,1544,1544,0,0,0,0,0,0,0,0,0,0
1681132875.13988900,179968817,1544,1544,1544,1543,0,0,0,0,0,0,0,0,0,0
1681132875.23984909,180068777,1544,1544,1544,1543,0,0,0,0,0,0,0,0,0,0
1681132875.33980894,180168737,1543,1544,1544,1544,0,0,0,0,0,0,0,0,0,0
1681132875.43976903,180268697,1544,1544,1544,1544,0,0,0,0,0,0,0,0,0,0
1681132875.53972912,180368657,1545,1544,1544,1544,0,0,0,0,0,0,0,0,0,0
1681132875.63968897,180468617,1544,1544,1544,1544,0,0,0,0,0,0,0,0,0,0
1681132875.73964906,180568577,1544,1544,1544,1544,0,0,0,0,0,0,0,0,0,0
1681132875.83960891,180668537,1544,1544,1544,1544,0,0,0,0,0,0,0,0,0,0
1681132875.93956900,180768497,1544,1544,1544,1544,0,0,0,0,0,0,0,0,0,0
1681132876.03952909,180868457,1544,1544,1544,1544,0,0,0,0,0,0,0,0,0,0
1681132876.13948894,180968417,1544,1544,1544,1545,0,0,0,0,0,0,0,0,0,0
1681132876.23944902,181068377,1469,1470,1492,1469,0,0,0,0,0,0,0,0,0,0
1681132876.33940911,181168337,1300,1301,1383,1301,0,0,0,0,0,0,0,0,0,0
1681132876.43936896,181268297,1225,1228,1342,1227,0,0,0,0,0,0,0,0,0,0
1681132876.53932905,181368257,1205,1207,1331,1207,0,0,0,0,0,0,0,0,0,0
1681132876.63928890,181468217,1177,1180,1317,1179,0,0,0,0,0,0,0,0,0,0
1681132876.73924899,181568177,1159,1162,1284,1150,0,0,0,0,0,0,0,0,0,0
1681132876.84004211,181668970,1165,1167,1111,1150,0,0,0,0,0,0,0,0,0,0
1681132876.94000196,181768930,1165,1167,1111,1150,0,0,0,0,0,0,0,0,0,0
1681132877.03996205,181868890,1165,1167,1111,1150,0,0,0,0,0,0,0,0,0,0
1681132877.13992190,181968850,1173,1150,1112,1157,0,0,0,0,0,0,0,0,0,0
1681132877.23988199,182068810,1174,1150,1110,1159,0,0,0,0,0,0,0,0,0,0
1681132877.33984208,182168770,1165,1150,1122,1150,0,0,0,0,0,0,0,0,0,0
1681132877.43980193,182268730,1164,1151,1121,1150,0,0,0,0,0,0,0,0,0,0
1681132877.53976202,182368690,1164,1150,1122,1150,0,0,0,0,0,0,0,0,0,0
1681132877.63972211,182468650,1163,1150,1122,1150,0,0,0,0,0,0,0,0,0,0
1681132877.73968196,182568610,1164,1150,1121,1152,0,0,0,0,0,0,0,0,0,0
1681132877.83964205,182668570,1165,1150,1120,1153,0,0,0,0,0,0,0,0,0,0
1681132877.93960190,182768530,1161,1165,1115,1150,0,0,0,0,0,0,0,0,0,0
1681132878.03956199,182868490,1161,1159,1119,1150,0,0,0,0,0,0,0,0,0,0
1681132878.13952208,182968450,1161,1158,1119,1150,0,0,0,0,0,0,0,0,0,0
1681132878.23948193,183068410,1161,1158,1120,1150,0,0,0,0,0,0,0,0,0,0
1681132878.33944201,183168370,1161,1157,1120,1150,0,0,0,0,0,0,0,0,0,0
1681132878.43940210,183268330,1000,1000,1000,1000,0,0,0,0,0,0,0,0,0,0
1681132878.53936195,183368290,1000,1000,1000,1000,0,0,0,0,0,0,0,0,0,0
1681132878.63932204,183468250,1000,1000,1000,1000,0,0,0,0,0,0,0,0,0,0
1681132878.73928189,183568210,1000,1000,1000,1000,0,0,0,0,0,0,0,0,0,0
1681132878.83924198,183668170,1000,1000,1000,1000,0,0,0,0,0,0,0,0,0,0
1681132878.94003510,183768963,1000,1000,1000,1000,0,0,0,0,0,0,0,0,0,0
1681132879.03999496,183868923,1000,1000,1000,1000,0,0,0,0,0,0,0,0,0,0
1681132879.13995504,183968883,1000,1000,1000,1000,0,0,0,0,0,0,0,0,0,0
1681132879.23991489,184068843,1000,1000,1000,1000,0,0,0,0,0,0,0,0,0,0
1681132879.33987498,184168803,1000,1000,1000,1000,0,0,0,0,0,0,0,0,0,0
1681132879.43983507,184268763,1000,1000,1000,1000,0,0,0,0,0,0,0,0,0,0
1681132879.53979492,184368723,1000,1000,1000,1000,0,0,0,0,0,0,0,0,0,0
1681132879.63975501,184468683,1000,1000,1000,1000,0,0,0,0,0,0,0,0,0,0
1681132879.73971510,184568643,1000,1000,1000,1000,0,0,0,0,0,0,0,0,0,0
1681132879.83967495,184668603,1000,1000,1000,1000,0,0,0,0,0,0,0,0,0,0
1681132879.93963504,184768563,1000,1000,1000,1000,0,0,0,0,0,0,0,0,0,0
1681132880.03959489,184868523,1000,1000,1000,1000,0,0,0,0,0,0,0,0,0,0
1681132880.13955498,184968483,1000,1000,1000,1000,0,0,0,0,0,0,0,0,0,0
1681132880.23951507,185068443,1000,1000,1000,1000,0,0,0,0,0,0,0,0,0,0
1681132880.33947492,185168403,1000,1000,1000,1000,0,0,0,0,0,0,0,0,0,0
1681132880.43943501,185268363,1000,1000,1000,1000,0,0,0,0,0,0,0,0,0,0
1681132880.53939509,185368323,1000,1000,1000,1000,0,0,0,0,0,0,0,0,0,0
1681132880.63935494,185468283,1000,1000,1000,1000,0,0,0,0,0,0,0,0,0,0
1681132880.73931503,185568243,1000,1000,1000,1000,0,0,0,0,0,0,0,0,0,0
1681132880.83927512,185668203,1000,1000,1000,1000,0,0,0,0,0,0,0,0,0,0
1681132880.93923497,185768163,1000,1000,1000,1000,0,0,0,0,0,0,0,0,0,0
1681132881.04002810,185868956,1000,1000,1000,1000,0,0,0,0,0,0,0,0,0,0
1681132881.13998795,185968916,1000,1000,1000,1000,0,0,0,0,0,0,0,0,0,0
1681132881.23994803,186068876,1000,1000,1000,1000,0,0,0,0,0,0,0,0,0,0
1681132881.33990812,186168836,1000,1000,1000,1000,0,0,0,0,0,0,0,0,0,0
1681132881.43986797,186268796,1000,1000,1000,1000,0,0,0,0,0,0,0,0,0,0
1681132881.53982806,186368756,1000,1000,1000,1000,0,0,0,0,0,0,0,0,0,0
1681132881.63978791,186468716,1000,1000,1000,1000,0,0,0,0,0,0,0,0,0,0
1681132881.73974800,186568676,1000,1000,1000,1000,0,0,0,0,0,0,0,0,0,0
1681132881.83970809,186668636,1000,1000,1000,1000,0,0,0,0,0,0,0,0,0,0
1681132881.93966794,186768596,1000,1000,1000,1000,0,0,0,0,0,0,0,0,0,0
1681132882.03962803,186868556,1000,1000,1000,1000,0,0,0,0,0,0,0,0,0,0
1681132882.13958812,186968516,1000,1000,1000,1000,0,0,0,0,0,0,0,0,0,0
1681132882.23954797,187068476,1000,1000,1000,1000,0,0,0,0,0,0,0,0,0,0
1681132882.33950806,187168436,1000,1000,1000,1000,0,0,0,0,0,0,0,0,0,0
1681132882.43946791,187268396,1000,1000,1000,1000,0,0,0,0,0,0,0,0,0,0
1681132882.53942800,187368356,1000,1000,1000,1000,0,0,0,0,0,0,0,0,0,0
1681132882.63938808,187468316,1000,1000,1000,1000,0,0,0,0,0,0,0,0,0,0
1681132882.73934793,187568276,1000,1000,1000,1000,0,0,0,0,0,0,0,0,0,0
1681132882.83930802,187668236,1000,1000,1000,1000,0,0,0,0,0,0,0,0,0,0
1681132882.93926811,187768196,1000,1000,1000,1000,0,0,0,0,0,0,0,0,0,0
1681132883.03922796,187868156,1000,1000,1000,1000,0,0,0,0,0,0,0,0,0,0
1681132883.14002109,187968949,1000,1000,1000,1000,0,0,0,0,0,0,0,0,0,0
1681132883.23998094,188068909,1000,1000,1000,1000,0,0,0,0,0,0,0,0,0,0
1681132883.33994102,188168869,1000,1000,1000,1000,0,0,0,0,0,0,0,0,0,0
1681132883.43990111,188268829,1000,1000,1000,1000,0,0,0,0,0,0,0,0,0,0
1681132883.53986096,188368789,1000,1000,1000,1000,0,0,0,0,0,0,0,0,0,0
1681132883.63982105,188468749,1000,1000,1000,1000,0,0,0,0,0,0,0,0,0,0
1681132883.73978090,188568709,1000,1000,1000,1000,0,0,0,0,0,0,0,0,0,0
1681132883.83974099,188668669,1000,1000,1000,1000,0,0,0,0,0,0,0,0,0,0
1681132883.93970108,188768629,1000,1000,1000,1000,0,0,0,0,0,0,0,0,0,0
1681132884.03966093,188868589,1000,1000,1000,1000,0,0,0,0,0,0,0,0,0,0
1681132884.13962102,188968549,1000,1000,1000,1000,0,0,0,0,0,0,0,0,0,0
1681132884.23958111,189068509,1000,1000,1000,1000,0,0,0,0,0,0,0,0,0,0
1681132884.33954096,189168469,1000,1000,1000,1000,0,0,0,0,0,0,0,0,0,0
1681132884.43950105,189268429,1000,1000,1000,1000,0,0,0,0,0,0,0,0,0,0
1681132884.53946090,189368389,1000,1000,1000,1000,0,0,0,0,0,0,0,0,0,0
1681132884.63942099,189468349,1000,1000,1000,1000,0,0,0,0,0,0,0,0,0,0
1681132884.73938107,189568309,1000,1000,1000,1000,0,0,0,0,0,0,0,0,0,0
1681132884.83934093,189668269,1000,1000,1000,1000,0,0,0,0,0,0,0,0,0,0
1681132884.93930101,189768229,1000,1000,1000,1000,0,0,0,0,0,0,0,0,0,0
1681132885.03926110,189868189,1000,1000,1000,1000,0,0,0,0,0,0,0,0,0,0
1681132885.14005399,189968982,1000,1000,1000,1000,0,0,0,0,0,0,0,0,0,0
1681132885.24001408,190068942,1000,1000,1000,1000,0,0,0,0,0,0,0,0,0,0
1681132885.33997393,190168902,1000,1000,1000,1000,0,0,0,0,0,0,0,0,0,0
1681132885.43993402,190268862,1000,1000,1000,1000,0,0,0,0,0,0,0,0,0,0
1681132885.53989410,190368822,1000,1000,1000,1000,0,0,0,0,0,0,0,0,0,0
1681132885.63985395,190468782,1000,1000,1000,1000,0,0,0,0,0,0,0,0,0,0
1681132885.73981404,190568742,1000,1000,1000,1000,0,0,0,0,0,0,0,0,0,0
1681132885.83977389,190668702,1000,1000,1000,1000,0,0,0,0,0,0,0,0,0,0
1681132885.93973398,190768662,1000,1000,1000,1000,0,0,0,0,0,0,0,0,0,0
1681132886.03969407,190868622,1000,1000,1000,1000,0,0,0,0,0,0,0,0,0,0
1681132886.13965392,190968582,1000,1000,1000,1000,0,0,0,0,0,0,0,0,0,0
1681132886.23961401,191068542,1000,1000,1000,1000,0,0,0,0,0,0,0,0,0,0
1681132886.33957410,191168502,1000,1000,1000,1000,0,0,0,0,0,0,0,0,0,0
1681132886.43953395,191268462,1000,1000,1000,1000,0,0,0,0,0,0,0,0,0,0
1681132886.53949404,191368422,1000,1000,1000,1000,0,0,0,0,0,0,0,0,0,0
1681132886.63945389,191468382,1000,1000,1000,1000,0,0,0,0,0,0,0,0,0,0
1681132886.73941398,191568342,1000,1000,1000,1000,0,0,0,0,0,0,0,0,0,0
1681132886.83937407,191668302,1000,1000,1000,1000,0,0,0,0,0,0,0,0,0,0
1681132886.93933392,191768262,1000,1000,1000,1000,0,0,0,0,0,0,0,0,0,0
1681132887.03929400,191868222,1000,1000,1000,1000,0,0,0,0,0,0,0,0,0,0
1681132887.13925409,191968182,1000,1000,1000,1000,0,0,0,0,0,0,0,0,0,0
1681132887.24004698,192068975,1000,1000,1000,1000,0,0,0,0,0,0,0,0,0,0
1681132887.34000707,192168935,1000,1000,1000,1000,0,0,0,0,0,0,0,0,0,0
1681132887.43996692,192268895,1000,1000,1000,1000,0,0,0,0,0,0,0,0,0,0
1681132887.53992701,192368855,1000,1000,1000,1000,0,0,0,0,0,0,0,0,0,0
1681132887.63988709,192468815,1000,1000,1000,1000,0,0,0,0,0,0,0,0,0,0
1681132887.73984694,192568775,1000,1000,1000,1000,0,0,0,0,0,0,0,0,0,0
1681132887.83980703,192668735,1000,1000,1000,1000,0,0,0,0,0,0,0,0,0,0
1681132887.93976712,192768695,1000,1000,1000,1000,0,0,0,0,0,0,0,0,0,0
1681132888.03972697,192868655,1000,1000,1000,1000,0,0,0,0,0,0,0,0,0,0
1681132888.13968706,192968615,1000,1000,1000,1000,0,0,0,0,0,0,0,0,0,0
1681132888.23964691,193068575,1000,1000,1000,1000,0,0,0,0,0,0,0,0,0,0
1681132888.33960700,193168535,1000,1000,1000,1000,0,0,0,0,0,0,0,0,0,0
1681132888.43956709,193268495,1000,1000,1000,1000,0,0,0,0,0,0,0,0,0,0
1681132888.53952694,193368455,1000,1000,1000,1000,0,0,0,0,0,0,0,0,0,0
1681132888.63948703,193468415,1000,1000,1000,1000,0,0,0,0,0,0,0,0,0,0
1681132888.73944712,193568375,1000,1000,1000,1000,0,0,0,0,0,0,0,0,0,0
1681132888.83940697,193668335,1000,1000,1000,1000,0,0,0,0,0,0,0,0,0,0
1681132888.93936706,193768295,1000,1000,1000,1000,0,0,0,0,0,0,0,0,0,0
1681132889.03932691,193868255,1000,1000,1000,1000,0,0,0,0,0,0,0,0,0,0
1681132889.13928699,193968215,1000,1000,1000,1000,0,0,0,0,0,0,0,0,0,0
1681132889.23924708,194068175,1000,1000,1000,1000,0,0,0,0,0,0,0,0,0,0
1681132889.34003997,194168968,1000,1000,1000,1000,0,0,0,0,0,0,0,0,0,0
1681132889.44000006,194268928,1000,1000,1000,1000,0,0,0,0,0,0,0,0,0,0
1681132889.53995991,194368888,1000,1000,1000,1000,0,0,0,0,0,0,0,0,0,0
1681132889.63992000,194468848,1000,1000,1000,1000,0,0,0,0,0,0,0,0,0,0
1681132889.73988008,194568808,1000,1000,1000,1000,0,0,0,0,0,0,0,0,0,0
1681132889.83983994,194668768,1000,1000,1000,1000,0,0,0,0,0,0,0,0,0,0
1681132889.93980002,194768728,1000,1000,1000,1000,0,0,0,0,0,0,0,0,0,0
1681132890.03976011,194868688,1000,1000,1000,1000,0,0,0,0,0,0,0,0,0,0
1681132890.13971996,194968648,1000,1000,1000,1000,0,0,0,0,0,0,0,0,0,0
1681132890.23968005,195068608,1000,1000,1000,1000,0,0,0,0,0,0,0,0,0,0
1681132890.33963990,195168568,1000,1000,1000,1000,0,0,0,0,0,0,0,0,0,0
1681132890.43959999,195268528,1000,1000,1000,1000,0,0,0,0,0,0,0,0,0,0
1681132890.53956008,195368488,1000,1000,1000,1000,0,0,0,0,0,0,0,0,0,0
1681132890.63951993,195468448,1000,1000,1000,1000,0,0,0,0,0,0,0,0,0,0
1681132890.73948002,195568408,1000,1000,1000,1000,0,0,0,0,0,0,0,0,0,0
1681132890.83944011,195668368,1000,1000,1000,1000,0,0,0,0,0,0,0,0,0,0
1681132890.93939996,195768328,1000,1000,1000,1000,0,0,0,0,0,0,0,0,0,0
1681132891.03936005,195868288,1000,1000,1000,1000,0,0,0,0,0,0,0,0,0,0
1681132891.13931990,195968248,1000,1000,1000,1000,0,0,0,0,0,0,0,0,0,0
1681132891.23927999,196068208,1000,1000,1000,1000,0,0,0,0,0,0,0,0,0,0
1681132891.33924007,196168168,1000,1000,1000,1000,0,0,0,0,0,0,0,0,0,0
1681132891.44003296,196268961,1000,1000,1000,1000,0,0,0,0,0,0,0,0,0,0
1681132891.53999305,196368921,1000,1000,1000,1000,0,0,0,0,0,0,0,0,0,0
1681132891.63995290,196468881,1000,1000,1000,1000,0,0,0,0,0,0,0,0,0,0
1681132891.73991299,196568841,1000,1000,1000,1000,0,0,0,0,0,0,0,0,0,0
1681132891.83987308,196668801,1000,1000,1000,1000,0,0,0,0,0,0,0,0,0,0
1681132891.93983293,196768761,1000,1000,1000,1000,0,0,0,0,0,0,0,0,0,0
1681132892.03979301,196868721,1000,1000,1000,1000,0,0,0,0,0,0,0,0,0,0
1681132892.13975310,196968681,1000,1000,1000,1000,0,0,0,0,0,0,0,0,0,0
1681132892.23971295,197068641,1000,1000,1000,1000,0,0,0,0,0,0,0,0,0,0
1681132892.33967304,197168601,1000,1000,1000,1000,0,0,0,0,0,0,0,0,0,0
1681132892.43963289,197268561,1000,1000,1000,1000,0,0,0,0,0,0,0,0,0,0
1681132892.53959298,197368521,1000,1000,1000,1000,0,0,0,0,0,0,0,0,0,0
1681132892.63955307,197468481,1000,1000,1000,1000,0,0,0,0,0,0,0,0,0,0
1681132892.73951292,197568441,1000,1000,1000,1000,0,0,0,0,0,0,0,0,0,0
1681132892.83947301,197668401,1000,1000,1000,1000,0,0,0,0,0,0,0,0,0,0
1681132892.93943310,197768361,1000,1000,1000,1000,0,0,0,0,0,0,0,0,0,0
1681132893.03939295,197868321,1000,1000,1000,1000,0,0,0,0,0,0,0,0,0,0
1681132893.13935304,197968281,1000,1000,1000,1000,0,0,0,0,0,0,0,0,0,0
1681132893.23931289,198068241,1000,1000,1000,1000,0,0,0,0,0,0,0,0,0,0
1681132893.33927298,198168201,1000,1000,1000,1000,0,0,0,0,0,0,0,0,0,0
