TimeUS,M1,M2,M3,M4,TimeUS,C1,C2,C3,C4
44786245,1000,1000,1000,1000,44828728,1000,1000,1000,1000
44788744,1000,1000,1000,1000,44928688,1000,1000,1000,1000
44791243,1000,1000,1000,1000,45028648,1000,1000,1000,1000
44793742,1000,1000,1000,1000,45128608,1000,1000,1000,1000
44796241,1000,1000,1000,1000,45228568,1000,1000,1000,1000
44798740,1000,1000,1000,1000,45328528,1000,1000,1000,1000
44801239,1000,1000,1000,1000,45428488,1000,1000,1000,1000
44803738,1000,1000,1000,1000,45528448,1000,1000,1000,1000
44806237,1000,1000,1000,1000,45628408,1000,1000,1000,1000
44808736,1000,1000,1000,1000,45728368,1000,1000,1000,1000
44811235,1000,1000,1000,1000,45828328,1000,1000,1000,1000
44813734,1000,1000,1000,1000,45928288,1000,1000,1000,1000
44816233,1000,1000,1000,1000,46028248,1000,1000,1000,1000
44818732,1000,1000,1000,1000,46128208,1000,1000,1000,1000
44821231,1000,1000,1000,1000,46228168,1000,1000,1000,1000
44823730,1000,1000,1000,1000,46328961,1000,1000,1000,1000
44826229,1000,1000,1000,1000,46428921,1000,1000,1000,1000
44828728,1000,1000,1000,1000,46528881,1000,1000,1000,1000
44831227,1000,1000,1000,1000,46628841,1000,1000,1000,1000
44833726,1000,1000,1000,1000,46728801,1000,1000,1000,1000
44836225,1000,1000,1000,1000,46828761,1012,1012,1012,1012
44838724,1000,1000,1000,1000,46928721,1042,1042,1042,1042
44841223,1000,1000,1000,1000,47028681,1072,1072,1072,1072
44843722,1000,1000,1000,1000,47128641,1102,1102,1102,1102
44846221,1000,1000,1000,1000,47228601,1132,1132,1132,1132
44848720,1000,1000,1000,1000,47328561,1268,1262,1263,1268
44851219,1000,1000,1000,1000,47428521,1481,1477,1477,1481
44853718,1000,1000,1000,1000,47528481,1644,1640,1640,1645
44856217,1000,1000,1000,1000,47628441,1782,1779,1779,1782
44858716,1000,1000,1000,1000,47728401,1904,1900,1901,1903
44861215,1000,1000,1000,1000,47828361,1900,1898,1898,1900
44863714,1000,1000,1000,1000,47928321,1771,1771,1771,1771
44866213,1000,1000,1000,1000,48028281,1670,1671,1671,1671
44868712,1000,1000,1000,1000,48128241,1636,1638,1638,1637
44871211,1000,1000,1000,1000,48228201,1637,1639,1639,1637
44873710,1000,1000,1000,1000,48328161,1641,1642,1642,1641
44876209,1000,1000,1000,1000,48428954,1638,1638,1638,1638
44878708,1000,1000,1000,1000,48528914,1631,1630,1630,1630
44881207,1000,1000,1000,1000,48628874,1622,1621,1620,1621
44883706,1000,1000,1000,1000,48728834,1615,1615,1614,1616
44886205,1000,1000,1000,1000,48828794,1613,1613,1613,1613
44888704,1000,1000,1000,1000,48928754,1613,1613,1613,1613
44891203,1000,1000,1000,1000,49028714,1614,1614,1614,1613
44893702,1000,1000,1000,1000,49128674,1612,1615,1613,1613
44896201,1000,1000,1000,1000,49228634,1582,1583,1583,1582
44898700,1000,1000,1000,1000,49328594,1571,1570,1570,1571
44901199,1000,1000,1000,1000,49428554,1561,1560,1560,1561
44903698,1000,1000,1000,1000,49528514,1552,1551,1550,1553
44906197,1000,1000,1000,1000,49628474,1542,1543,1542,1543
44908696,1000,1000,1000,1000,49728434,1534,1534,1534,1535
44911195,1000,1000,1000,1000,49828394,1526,1527,1526,1527
44913694,1000,1000,1000,1000,49928354,1517,1518,1517,1519
44916193,1000,1000,1000,1000,50028314,1511,1512,1511,1512
44918692,1000,1000,1000,1000,50128274,1509,1509,1509,1510
44921191,1000,1000,1000,1000,50228234,1509,1509,1509,1509
44923690,1000,1000,1000,1000,50328194,1509,1509,1509,1509
44926189,1000,1000,1000,1000,50428154,1507,1507,1507,1508
44928688,1000,1000,1000,1000,50528947,1508,1508,1508,1508
44931187,1000,1000,1000,1000,50628907,1508,1508,1508,1508
44933686,1000,1000,1000,1000,50728867,1508,1509,1508,1509
44936185,1000,1000,1000,1000,50828827,1510,1510,1510,1510
44938684,1000,1000,1000,1000,50928787,1536,1536,1542,1530
44941183,1000,1000,1000,1000,51028747,1547,1547,1552,1542
44943682,1000,1000,1000,1000,51128707,1554,1554,1554,1553
44946181,1000,1000,1000,1000,51228667,1559,1559,1555,1562
44948680,1000,1000,1000,1000,51328627,1562,1562,1557,1566
44951179,1000,1000,1000,1000,51428587,1563,1564,1559,1568
44953678,1000,1000,1000,1000,51528547,1566,1566,1563,1568
44956177,1000,1000,1000,1000,51628507,1568,1568,1569,1568
44958676,1000,1000,1000,1000,51728467,1570,1570,1573,1567
44961175,1000,1000,1000,1000,51828427,1571,1571,1574,1568
44963674,1000,1000,1000,1000,51928387,1571,1571,1573,1569
44966173,1000,1000,1000,1000,52028347,1572,1572,1573,1571
44968672,1000,1000,1000,1000,52128307,1571,1571,1570,1571
44971171,1000,1000,1000,1000,52228267,1565,1566,1573,1577
44973670,1000,1000,1000,1000,52328227,1563,1563,1573,1577
44976169,1000,1000,1000,1000,52428187,1563,1564,1572,1574
44978668,1000,1000,1000,1000,52528980,1565,1566,1570,1571
44981167,1000,1000,1000,1000,52628940,1568,1568,1569,1569
44983666,1000,1000,1000,1000,52728900,1570,1570,1568,1567
44986165,1000,1000,1000,1000,52828860,1571,1571,1567,1566
44988664,1000,1000,1000,1000,52928820,1572,1572,1566,1565
44991163,1000,1000,1000,1000,53028780,1573,1573,1566,1566
44993662,1000,1000,1000,1000,53128740,1574,1574,1567,1567
44996161,1000,1000,1000,1000,53228700,1573,1573,1567,1567
44998660,1000,1000,1000,1000,53328660,1574,1573,1568,1569
45001159,1000,1000,1000,1000,53428620,1573,1573,1570,1571
45003658,1000,1000,1000,1000,53528580,1574,1574,1573,1573
45006157,1000,1000,1000,1000,53628540,1574,1574,1575,1574
45008656,1000,1000,1000,1000,53728500,1574,1574,1576,1575
45011155,1000,1000,1000,1000,53828460,1574,1574,1577,1576
45013654,1000,1000,1000,1000,53928420,1575,1574,1578,1577
45016153,1000,1000,1000,1000,54028380,1574,1575,1578,1577
45018652,1000,1000,1000,1000,54128340,1575,1576,1578,1578
45021151,1000,1000,1000,1000,54228300,1575,1576,1577,1578
45023650,1000,1000,1000,1000,54328260,1577,1577,1578,1579
45026149,1000,1000,1000,1000,54428220,1577,1576,1577,1577
45028648,1000,1000,1000,1000,54528180,1578,1578,1578,1578
45031147,1000,1000,1000,1000,54628973,1578,1578,1577,1577
45033646,1000,1000,1000,1000,54728933,1579,1578,1578,1577
45036145,1000,1000,1000,1000,54828893,1578,1579,1577,1577
45038644,1000,1000,1000,1000,54928853,1579,1579,1578,1578
45041143,1000,1000,1000,1000,55028813,1579,1579,1578,1577
45043642,1000,1000,1000,1000,55128773,1578,1578,1578,1578
45046141,1000,1000,1000,1000,55228733,1579,1580,1579,1579
45048640,1000,1000,1000,1000,55328693,1578,1577,1577,1577
45051139,1000,1000,1000,1000,55428653,1578,1578,1578,1578
45053638,1000,1000,1000,1000,55528613,1578,1578,1578,1578
45056137,1000,1000,1000,1000,55628573,1578,1578,1579,1579
45058636,1000,1000,1000,1000,55728533,1578,1578,1579,1578
45061135,1000,1000,1000,1000,55828493,1578,1579,1579,1579
45063634,1000,1000,1000,1000,55928453,1578,1579,1578,1579
45066133,1000,1000,1000,1000,56028413,1578,1579,1579,1579
45068632,1000,1000,1000,1000,56128373,1579,1579,1579,1579
45071131,1000,1000,1000,1000,56228333,1581,1580,1580,1580
45073630,1000,1000,1000,1000,56328293,1582,1581,1581,1581
45076129,1000,1000,1000,1000,56428253,1580,1580,1580,1580
45078628,1000,1000,1000,1000,56528213,1580,1580,1580,1580
45081127,1000,1000,1000,1000,56628173,1579,1580,1580,1580
45083626,1000,1000,1000,1000,56728966,1579,1580,1580,1580
45086125,1000,1000,1000,1000,56828926,1579,1579,1579,1579
45088624,1000,1000,1000,1000,56928886,1580,1580,1580,1580
45091123,1000,1000,1000,1000,57028846,1580,1580,1580,1580
45093622,1000,1000,1000,1000,57128806,1580,1579,1579,1579
45096121,1000,1000,1000,1000,57228766,1580,1580,1580,1580
45098620,1000,1000,1000,1000,57328726,1580,1580,1580,1580
45101119,1000,1000,1000,1000,57428686,1579,1580,1580,1579
45103618,1000,1000,1000,1000,57528646,1579,1579,1579,1579
45106117,1000,1000,1000,1000,57628606,1581,1581,1581,1581
45108616,1000,1000,1000,1000,57728566,1581,1580,1581,1580
45111115,1000,1000,1000,1000,57828526,1581,1581,1580,1581
45113614,1000,1000,1000,1000,57928486,1580,1580,1580,1580
45116113,1000,1000,1000,1000,58028446,1581,1581,1581,1581
45118612,1000,1000,1000,1000,58128406,1581,1581,1581,1581
45121111,1000,1000,1000,1000,58228366,1582,1581,1582,1582
45123610,1000,1000,1000,1000,58328326,1580,1581,1581,1581
45126109,1000,1000,1000,1000,58428286,1581,1581,1583,1579
45128608,1000,1000,1000,1000,58528246,1580,1581,1587,1573
45131107,1000,1000,1000,1000,58628206,1578,1581,1582,1572
45133606,1000,1000,1000,1000,58728166,1578,1581,1574,1573
45136105,1000,1000,1000,1000,58828959,1577,1580,1566,1571
45138604,1000,1000,1000,1000,58928919,1577,1579,1560,1567
45141103,1000,1000,1000,1000,59028879,1578,1578,1557,1562
45143602,1000,1000,1000,1000,59128839,1578,1578,1555,1558
45146101,1000,1000,1000,1000,59228799,1579,1577,1555,1555
45148600,1000,1000,1000,1000,59328759,1578,1577,1555,1553
45151099,1000,1000,1000,1000,59428719,1579,1578,1557,1554
45153598,1000,1000,1000,1000,59528679,1577,1578,1556,1554
45156097,1000,1000,1000,1000,59628639,1575,1577,1555,1554
45158596,1000,1000,1000,1000,59728599,1575,1576,1554,1554
45161095,1000,1000,1000,1000,59828559,1575,1577,1553,1554
45163594,1000,1000,1000,1000,59928519,1575,1577,1551,1552
45166093,1000,1000,1000,1000,60028479,1577,1578,1550,1550
45168592,1000,1000,1000,1000,60128439,1579,1580,1548,1548
45171091,1000,1000,1000,1000,60228399,1581,1582,1545,1544
45173590,1000,1000,1000,1000,60328359,1584,1585,1542,1542
45176089,1000,1000,1000,1000,60428319,1587,1587,1539,1538
45178588,1000,1000,1000,1000,60528279,1590,1591,1537,1537
45181087,1000,1000,1000,1000,60628239,1592,1593,1535,1535
45183586,1000,1000,1000,1000,60728199,1593,1594,1534,1535
45186085,1000,1000,1000,1000,60828159,1593,1594,1534,1536
45188584,1000,1000,1000,1000,60928952,1593,1592,1535,1538
45191083,1000,1000,1000,1000,61028912,1592,1591,1539,1542
45193582,1000,1000,1000,1000,61128872,1589,1586,1546,1549
45196081,1000,1000,1000,1000,61228832,1582,1578,1554,1557
45198580,1000,1000,1000,1000,61328792,1573,1569,1565,1567
45201079,1000,1000,1000,1000,61428752,1563,1559,1576,1579
45203578,1000,1000,1000,1000,61528712,1552,1549,1589,1590
45206077,1000,1000,1000,1000,61628672,1541,1540,1600,1600
45208576,1000,1000,1000,1000,61728632,1532,1532,1607,1606
45211075,1000,1000,1000,1000,61828592,1530,1530,1613,1612
45213574,1000,1000,1000,1000,61928552,1529,1530,1615,1614
45216073,1000,1000,1000,1000,62028512,1532,1534,1612,1612
45218572,1000,1000,1000,1000,62128472,1538,1540,1608,1608
45221071,1000,1000,1000,1000,62228432,1545,1547,1601,1601
45223570,1000,1000,1000,1000,62328392,1554,1555,1593,1594
45226069,1000,1000,1000,1000,62428352,1563,1564,1587,1586
45228568,1000,1000,1000,1000,62528312,1571,1571,1580,1579
45231067,1000,1000,1000,1000,62628272,1579,1578,1574,1574
45233566,1000,1000,1000,1000,62728232,1584,1582,1570,1570
45236065,1000,1000,1000,1000,62828192,1587,1586,1568,1568
45238564,1000,1000,1000,1000,62928985,1588,1587,1567,1567
45241063,1000,1000,1000,1000,63028945,1588,1586,1567,1567
45243562,1000,1000,1000,1000,63128905,1586,1585,1568,1569
45246061,1000,1000,1000,1000,63228865,1583,1582,1571,1571
45248560,1000,1000,1000,1000,63328825,1580,1580,1574,1574
45251059,1000,1000,1000,1000,63428785,1577,1578,1577,1577
45253558,1000,1000,1000,1000,63528745,1575,1576,1580,1579
45256057,1000,1000,1000,1000,63628705,1574,1575,1582,1582
45258556,1000,1000,1000,1000,63728665,1572,1573,1583,1583
45261055,1000,1000,1000,1000,63828625,1572,1573,1584,1583
45263554,1000,1000,1000,1000,63928585,1573,1573,1584,1584
45266053,1000,1000,1000,1000,64028545,1575,1574,1584,1584
45268552,1000,1000,1000,1000,64128505,1575,1575,1582,1582
45271051,1000,1000,1000,1000,64228465,1576,1576,1580,1581
45273550,1000,1000,1000,1000,64328425,1577,1578,1580,1580
45276049,1000,1000,1000,1000,64428385,1582,1582,1311,1552
45278548,1000,1000,1000,1000,64528345,1586,1585,1606,1578
45281047,1000,1000,1000,1000,64628305,1583,1583,1597,1583
45283546,1000,1000,1000,1000,64728265,1581,1581,1587,1586
45286045,1000,1000,1000,1000,64828225,1578,1578,1578,1586
45288544,1000,1000,1000,1000,64928185,1577,1577,1574,1584
45291043,1000,1000,1000,1000,65028978,1576,1576,1571,1580
45293542,1000,1000,1000,1000,65128938,1577,1577,1573,1577
45296041,1000,1000,1000,1000,65228898,1578,1578,1575,1575
45298540,1000,1000,1000,1000,65328858,1580,1580,1578,1575
45301039,1000,1000,1000,1000,65428818,1580,1581,1579,1575
45303538,1000,1000,1000,1000,65528778,1581,1581,1580,1577
45306037,1000,1000,1000,1000,65628738,1581,1581,1579,1578
45308536,1000,1000,1000,1000,65728698,1581,1581,1580,1579
45311035,1000,1000,1000,1000,65828658,1582,1581,1580,1581
45313534,1000,1000,1000,1000,65928618,1580,1580,1580,1580
45316033,1000,1000,1000,1000,66028578,1580,1580,1580,1581
45318532,1000,1000,1000,1000,66128538,1580,1580,1580,1581
45321031,1000,1000,1000,1000,66228498,1581,1581,1582,1582
45323530,1000,1000,1000,1000,66328458,1581,1581,1582,1582
45326029,1000,1000,1000,1000,66428418,1582,1582,1584,1583
45328528,1000,1000,1000,1000,66528378,1580,1583,1589,1574
45331027,1000,1000,1000,1000,66628338,1579,1583,1584,1572
45333526,1000,1000,1000,1000,66728298,1580,1583,1575,1572
45336025,1000,1000,1000,1000,66828258,1578,1580,1564,1569
45338524,1000,1000,1000,1000,66928218,1579,1580,1558,1565
45341023,1000,1000,1000,1000,67028178,1580,1580,1554,1560
45343522,1000,1000,1000,1000,67128971,1580,1579,1552,1555
45346021,1000,1000,1000,1000,67228931,1581,1580,1553,1553
45348520,1000,1000,1000,1000,67328891,1580,1580,1553,1551
45351019,1000,1000,1000,1000,67428851,1580,1580,1554,1551
45353518,1000,1000,1000,1000,67528811,1578,1578,1554,1551
45356017,1000,1000,1000,1000,67628771,1577,1578,1553,1552
45358516,1000,1000,1000,1000,67728731,1576,1578,1553,1553
45361015,1000,1000,1000,1000,67828691,1575,1578,1552,1552
45363514,1000,1000,1000,1000,67928651,1577,1578,1551,1552
45366013,1000,1000,1000,1000,68028611,1577,1579,1550,1550
45368512,1000,1000,1000,1000,68128571,1579,1580,1548,1548
45371011,1000,1000,1000,1000,68228531,1582,1583,1546,1546
45373510,1000,1000,1000,1000,68328491,1585,1584,1544,1544
45376009,1000,1000,1000,1000,68428451,1587,1587,1543,1542
45378508,1000,1000,1000,1000,68528411,1588,1589,1540,1541
45381007,1000,1000,1000,1000,68628371,1590,1591,1539,1540
45383506,1000,1000,1000,1000,68728331,1592,1592,1538,1540
45386005,1000,1000,1000,1000,68828291,1592,1592,1539,1541
45388504,1000,1000,1000,1000,68928251,1591,1589,1542,1545
45391003,1000,1000,1000,1000,69028211,1587,1584,1548,1551
45393502,1000,1000,1000,1000,69128171,1581,1577,1557,1559
45396001,1000,1000,1000,1000,69228964,1573,1569,1568,1570
45398500,1000,1000,1000,1000,69328924,1564,1560,1580,1581
45400999,1000,1000,1000,1000,69428884,1553,1550,1589,1590
45403498,1000,1000,1000,1000,69528844,1544,1543,1598,1598
45405997,1000,1000,1000,1000,69628804,1537,1538,1605,1604
45408496,1000,1000,1000,1000,69728764,1536,1537,1610,1609
45410995,1000,1000,1000,1000,69828724,1536,1538,1610,1610
45413494,1000,1000,1000,1000,69928684,1539,1541,1609,1608
45415993,1000,1000,1000,1000,70028644,1544,1545,1604,1603
45418492,1000,1000,1000,1000,70128604,1551,1552,1598,1598
45420991,1000,1000,1000,1000,70228564,1559,1560,1592,1592
45423490,1000,1000,1000,1000,70328524,1567,1567,1586,1585
45425989,1000,1000,1000,1000,70428484,1574,1574,1580,1580
45428488,1000,1000,1000,1000,70528444,1579,1578,1575,1575
45430987,1000,1000,1000,1000,70628404,1584,1583,1572,1572
45433486,1000,1000,1000,1000,70728364,1585,1584,1569,1569
45435985,1000,1000,1000,1000,70828324,1586,1585,1568,1569
45438484,1000,1000,1000,1000,70928284,1585,1584,1569,1569
45440983,1000,1000,1000,1000,71028244,1584,1584,1571,1572
45443482,1000,1000,1000,1000,71128204,1581,1581,1573,1572
45445981,1000,1000,1000,1000,71228164,1579,1579,1575,1575
45448480,1000,1000,1000,1000,71328957,1577,1577,1578,1577
45450979,1000,1000,1000,1000,71428917,1576,1576,1580,1580
45453478,1000,1000,1000,1000,71528877,1574,1574,1582,1582
45455977,1000,1000,1000,1000,71628837,1574,1574,1583,1583
45458476,1000,1000,1000,1000,71728797,1573,1574,1584,1583
45460975,1000,1000,1000,1000,71828757,1574,1574,1583,1583
45463474,1000,1000,1000,1000,71928717,1575,1575,1583,1583
45465973,1000,1000,1000,1000,72028677,1576,1576,1583,1583
45468472,1000,1000,1000,1000,72128637,1576,1577,1581,1581
45470971,1000,1000,1000,1000,72228597,1578,1578,1580,1580
45473470,1000,1000,1000,1000,72328557,1580,1579,1580,1579
45475969,1000,1000,1000,1000,72428517,1580,1580,1578,1578
45478468,1000,1000,1000,1000,72528477,1580,1580,1578,1578
45480967,1000,1000,1000,1000,72628437,1581,1581,1577,1577
45483466,1000,1000,1000,1000,72728397,1581,1582,1578,1578
45485965,1000,1000,1000,1000,72828357,1582,1582,1579,1579
45488464,1000,1000,1000,1000,72928317,1582,1582,1579,1579
45490963,1000,1000,1000,1000,73028277,1581,1581,1579,1579
45493462,1000,1000,1000,1000,73128237,1581,1580,1580,1580
45495961,1000,1000,1000,1000,73228197,1580,1581,1580,1580
45498460,1000,1000,1000,1000,73328157,1581,1581,1581,1581
45500959,1000,1000,1000,1000,73428950,1580,1580,1580,1581
45503458,1000,1000,1000,1000,73528910,1579,1579,1580,1580
45505957,1000,1000,1000,1000,73628870,1580,1580,1581,1581
45508456,1000,1000,1000,1000,73728830,1580,1580,1581,1580
45510955,1000,1000,1000,1000,73828790,1579,1579,1580,1580
45513454,1000,1000,1000,1000,73928750,1580,1579,1580,1580
45515953,1000,1000,1000,1000,74028710,1580,1580,1581,1581
45518452,1000,1000,1000,1000,74128670,1580,1580,1581,1580
45520951,1000,1000,1000,1000,74228630,1581,1581,1580,1581
45523450,1000,1000,1000,1000,74328590,1581,1581,1580,1581
45525949,1000,1000,1000,1000,74428550,1580,1581,1580,1580
45528448,1000,1000,1000,1000,74528510,1582,1581,1581,1581
45530947,1000,1000,1000,1000,74628470,1581,1582,1585,1577
45533446,1000,1000,1000,1000,74728430,1581,1584,1587,1573
45535945,1000,1000,1000,1000,74828390,1580,1583,1581,1573
45538444,1000,1000,1000,1000,74928350,1579,1582,1572,1573
45540943,1000,1000,1000,1000,75028310,1578,1579,1563,1569
45543442,1000,1000,1000,1000,75128270,1578,1579,1558,1566
45545941,1000,1000,1000,1000,75228230,1579,1578,1555,1560
45548440,1000,1000,1000,1000,75328190,1580,1579,1556,1557
45550939,1000,1000,1000,1000,75428983,1580,1578,1555,1554
45553438,1000,1000,1000,1000,75528943,1580,1579,1556,1554
45555937,1000,1000,1000,1000,75628903,1578,1578,1556,1554
45558436,1000,1000,1000,1000,75728863,1577,1577,1555,1554
45560935,1000,1000,1000,1000,75828823,1576,1577,1555,1554
45563434,1000,1000,1000,1000,75928783,1575,1577,1554,1554
45565933,1000,1000,1000,1000,76028743,1575,1577,1553,1553
45568432,1000,1000,1000,1000,76128703,1576,1577,1551,1551
45570931,1000,1000,1000,1000,76228663,1577,1578,1549,1549
45573430,1000,1000,1000,1000,76328623,1579,1580,1548,1548
45575929,1000,1000,1000,1000,76428583,1581,1583,1545,1545
45578428,1000,1000,1000,1000,76528543,1585,1585,1543,1543
45580927,1000,1000,1000,1000,76628503,1587,1587,1540,1540
45583426,1000,1000,1000,1000,76728463,1589,1590,1539,1539
45585925,1000,1000,1000,1000,76828423,1592,1592,1538,1538
45588424,1000,1000,1000,1000,76928383,1593,1593,1537,1538
45590923,1000,1000,1000,1000,77028343,1593,1593,1537,1539
45593422,1000,1000,1000,1000,77128303,1592,1592,1539,1542
45595921,1000,1000,1000,1000,77228263,1590,1589,1544,1547
45598420,1000,1000,1000,1000,77328223,1586,1583,1551,1554
45600919,1000,1000,1000,1000,77428183,1578,1574,1559,1561
45603418,1000,1000,1000,1000,77528976,1569,1565,1570,1572
45605917,1000,1000,1000,1000,77628936,1558,1554,1581,1583
45608416,1000,1000,1000,1000,77728896,1549,1546,1593,1594
45610915,1000,1000,1000,1000,77828856,1540,1540,1603,1602
45613414,1000,1000,1000,1000,77928816,1535,1535,1610,1609
45615913,1000,1000,1000,1000,78028776,1533,1535,1613,1612
45618412,1000,1000,1000,1000,78128736,1534,1536,1612,1612
45620911,1000,1000,1000,1000,78228696,1539,1540,1609,1609
45623410,1000,1000,1000,1000,78328656,1545,1546,1603,1603
45625909,1000,1000,1000,1000,78428616,1553,1554,1598,1597
45628408,1000,1000,1000,1000,78528576,1561,1562,1592,1590
45630907,1000,1000,1000,1000,78628536,1568,1569,1584,1583
45633406,1000,1000,1000,1000,78728496,1576,1575,1579,1578
45635905,1000,1000,1000,1000,78828456,1582,1580,1574,1574
45638404,1000,1000,1000,1000,78928416,1585,1583,1570,1570
45640903,1000,1000,1000,1000,79028376,1586,1585,1568,1568
45643402,1000,1000,1000,1000,79128336,1587,1585,1568,1568
45645901,1000,1000,1000,1000,79228296,1586,1585,1570,1570
45648400,1000,1000,1000,1000,79328256,1585,1584,1572,1572
45650899,1000,1000,1000,1000,79428216,1582,1582,1574,1574
45653398,1000,1000,1000,1000,79528176,1579,1579,1576,1576
45655897,1000,1000,1000,1000,79628969,1576,1577,1579,1578
45658396,1000,1000,1000,1000,79728929,1575,1575,1581,1581
45660895,1000,1000,1000,1000,79828889,1574,1574,1583,1582
45663394,1000,1000,1000,1000,79928849,1572,1573,1583,1583
45665893,1000,1000,1000,1000,80028809,1573,1574,1583,1584
45668392,1000,1000,1000,1000,80128769,1573,1573,1582,1582
45670891,1000,1000,1000,1000,80228729,1574,1574,1581,1582
45673390,1000,1000,1000,1000,80328689,1575,1575,1581,1581
45675889,1000,1000,1000,1000,80428649,1578,1577,1581,1581
45678388,1000,1000,1000,1000,80528609,1578,1579,1580,1579
45680887,1000,1000,1000,1000,80628569,1580,1580,1579,1579
45683386,1000,1000,1000,1000,80728529,1581,1581,1579,1579
45685885,1000,1000,1000,1000,80828489,1581,1581,1578,1578
45688384,1000,1000,1000,1000,80928449,1582,1581,1578,1578
45690883,1000,1000,1000,1000,81028409,1582,1582,1578,1578
45693382,1000,1000,1000,1000,81128369,1581,1581,1577,1577
45695881,1000,1000,1000,1000,81228329,1581,1581,1579,1579
45698380,1000,1000,1000,1000,81328289,1581,1581,1579,1579
45700879,1000,1000,1000,1000,81428249,1580,1581,1580,1580
45703378,1000,1000,1000,1000,81528209,1580,1580,1580,1580
45705877,1000,1000,1000,1000,81628169,1579,1578,1580,1580
45708376,1000,1000,1000,1000,81728962,1580,1579,1581,1581
45710875,1000,1000,1000,1000,81828922,1580,1580,1582,1581
45713374,1000,1000,1000,1000,81928882,1579,1580,1581,1581
45715873,1000,1000,1000,1000,82028842,1579,1579,1580,1580
45718372,1000,1000,1000,1000,82128802,1580,1580,1581,1581
45720871,1000,1000,1000,1000,82228762,1581,1581,1582,1582
45723370,1000,1000,1000,1000,82328722,1581,1580,1581,1581
45725869,1000,1000,1000,1000,82428682,1581,1581,1581,1581
45728368,1000,1000,1000,1000,82528642,1580,1580,1580,1580
45730867,1000,1000,1000,1000,82628602,1580,1580,1586,1573
45733366,1000,1000,1000,1000,82728562,1581,1581,1585,1572
45735865,1000,1000,1000,1000,82828522,1578,1579,1579,1574
45738364,1000,1000,1000,1000,82928482,1575,1575,1572,1575
45740863,1000,1000,1000,1000,83028442,1572,1571,1567,1574
45743362,1000,1000,1000,1000,83128402,1569,1569,1565,1572
45745861,1000,1000,1000,1000,83228362,1567,1567,1565,1569
45748360,1000,1000,1000,1000,83328322,1567,1567,1566,1567
45750859,1000,1000,1000,1000,83428282,1566,1566,1567,1565
45753358,1000,1000,1000,1000,83528242,1565,1565,1566,1564
45755857,1000,1000,1000,1000,83628202,1565,1565,1567,1564
45758356,1000,1000,1000,1000,83728162,1565,1565,1566,1565
45760855,1000,1000,1000,1000,83828955,1563,1563,1564,1564
45763354,1000,1000,1000,1000,83928915,1562,1562,1563,1563
45765853,1000,1000,1000,1000,84028875,1562,1562,1563,1563
45768352,1000,1000,1000,1000,84128835,1562,1562,1562,1562
45770851,1000,1000,1000,1000,84228795,1561,1561,1561,1561
45773350,1000,1000,1000,1000,84328755,1561,1561,1561,1561
45775849,1000,1000,1000,1000,84428715,1561,1561,1561,1560
45778348,1000,1000,1000,1000,84528675,1560,1560,1560,1559
45780847,1000,1000,1000,1000,84628635,1558,1558,1558,1558
45783346,1000,1000,1000,1000,84728595,1558,1558,1557,1557
45785845,1000,1000,1000,1000,84828555,1557,1556,1557,1555
45788344,1000,1000,1000,1000,84928515,1555,1556,1556,1555
45790843,1000,1000,1000,1000,85028475,1556,1557,1557,1555
45793342,1000,1000,1000,1000,85128435,1556,1556,1557,1555
45795841,1000,1000,1000,1000,85228395,1558,1557,1559,1556
45798340,1000,1000,1000,1000,85328355,1558,1557,1559,1556
45800839,1000,1000,1000,1000,85428315,1558,1558,1558,1558
45803338,1000,1000,1000,1000,85528275,1559,1559,1557,1561
45805837,1000,1000,1000,1000,85628235,1560,1560,1557,1563
45808336,1000,1000,1000,1000,85728195,1561,1561,1558,1564
45810835,1000,1000,1000,1000,85828155,1562,1563,1561,1565
45813334,1000,1000,1000,1000,85928948,1563,1563,1562,1564
45815833,1000,1000,1000,1000,86028908,1563,1563,1564,1562
45818332,1000,1000,1000,1000,86128868,1563,1562,1564,1560
45820831,1000,1000,1000,1000,86228828,1562,1561,1564,1559
45823330,1000,1000,1000,1000,86328788,1561,1560,1558,1562
45825829,1000,1000,1000,1000,86428748,1557,1557,1553,1561
45828328,1000,1000,1000,1000,86528708,1553,1553,1550,1556
45830827,1000,1000,1000,1000,86628668,1548,1548,1547,1549
45833326,1000,1000,1000,1000,86728628,1542,1543,1543,1542
45835825,1000,1000,1000,1000,86828588,1535,1535,1536,1534
45838324,1000,1000,1000,1000,86928548,1529,1528,1530,1527
45840823,1000,1000,1000,1000,87028508,1522,1522,1523,1521
45843322,1000,1000,1000,1000,87128468,1519,1519,1519,1519
45845821,1000,1000,1000,1000,87228428,1519,1519,1519,1519
45848320,1000,1000,1000,1000,87328388,1521,1521,1521,1522
45850819,1000,1000,1000,1000,87428348,1524,1524,1523,1524
45853318,1000,1000,1000,1000,87528308,1528,1528,1528,1529
45855817,1000,1000,1000,1000,87628268,1532,1533,1533,1533
45858316,1000,1000,1000,1000,87728228,1537,1537,1537,1537
45860815,1000,1000,1000,1000,87828188,1539,1539,1540,1539
45863314,1000,1000,1000,1000,87928981,1542,1542,1542,1542
45865813,1000,1000,1000,1000,88028941,1543,1542,1543,1542
45868312,1000,1000,1000,1000,88128901,1544,1544,1544,1544
45870811,1000,1000,1000,1000,88228861,1545,1545,1545,1545
45873310,1000,1000,1000,1000,88328821,1546,1546,1546,1546
45875809,1000,1000,1000,1000,88428781,1545,1546,1545,1545
45878308,1000,1000,1000,1000,88528741,1546,1546,1546,1545
45880807,1000,1000,1000,1000,88628701,1546,1546,1546,1546
45883306,1000,1000,1000,1000,88728661,1545,1545,1545,1545
45885805,1000,1000,1000,1000,88828621,1546,1545,1546,1545
45888304,1000,1000,1000,1000,88928581,1545,1545,1545,1545
45890803,1000,1000,1000,1000,89028541,1545,1546,1545,1545
45893302,1000,1000,1000,1000,89128501,1545,1545,1545,1545
45895801,1000,1000,1000,1000,89228461,1545,1545,1545,1545
45898300,1000,1000,1000,1000,89328421,1545,1544,1545,1544
45900799,1000,1000,1000,1000,89428381,1544,1545,1545,1545
45903298,1000,1000,1000,1000,89528341,1545,1545,1545,1545
45905797,1000,1000,1000,1000,89628301,1544,1544,1544,1544
45908296,1000,1000,1000,1000,89728261,1545,1544,1544,1544
45910795,1000,1000,1000,1000,89828221,1544,1544,1544,1544
45913294,1000,1000,1000,1000,89928181,1545,1544,1544,1544
45915793,1000,1000,1000,1000,90028974,1544,1544,1544,1544
45918292,1000,1000,1000,1000,90128934,1545,1545,1545,1545
45920791,1000,1000,1000,1000,90228894,1545,1545,1545,1545
45923290,1000,1000,1000,1000,90328854,1545,1544,1545,1544
45925789,1000,1000,1000,1000,90428814,1544,1544,1544,1545
45928288,1000,1000,1000,1000,90528774,1544,1544,1544,1545
45930787,1000,1000,1000,1000,90628734,1544,1544,1544,1544
45933286,1000,1000,1000,1000,90728694,1544,1544,1544,1544
45935785,1000,1000,1000,1000,90828654,1545,1545,1545,1544
45938284,1000,1000,1000,1000,90928614,1545,1545,1545,1544
45940783,1000,1000,1000,1000,91028574,1545,1545,1544,1545
45943282,1000,1000,1000,1000,91128534,1545,1545,1545,1545
45945781,1000,1000,1000,1000,91228494,1545,1545,1545,1545
45948280,1000,1000,1000,1000,91328454,1544,1543,1543,1544
45950779,1000,1000,1000,1000,91428414,1544,1544,1545,1544
45953278,1000,1000,1000,1000,91528374,1545,1544,1545,1545
45955777,1000,1000,1000,1000,91628334,1545,1545,1545,1545
45958276,1000,1000,1000,1000,91728294,1545,1545,1545,1545
45960775,1000,1000,1000,1000,91828254,1544,1544,1544,1544
45963274,1000,1000,1000,1000,91928214,1545,1545,1545,1544
45965773,1000,1000,1000,1000,92028174,1544,1544,1544,1544
45968272,1000,1000,1000,1000,92128967,1544,1543,1543,1544
45970771,1000,1000,1000,1000,92228927,1544,1544,1544,1544
45973270,1000,1000,1000,1000,92328887,1544,1544,1544,1544
45975769,1000,1000,1000,1000,92428847,1544,1545,1544,1544
45978268,1000,1000,1000,1000,92528807,1544,1544,1544,1544
45980767,1000,1000,1000,1000,92628767,1544,1545,1545,1544
45983266,1000,1000,1000,1000,92728727,1544,1544,1544,1544
45985765,1000,1000,1000,1000,92828687,1543,1543,1543,1543
45988264,1000,1000,1000,1000,92928647,1545,1544,1544,1545
45990763,1000,1000,1000,1000,93028607,1544,1544,1544,1544
45993262,1000,1000,1000,1000,93128567,1544,1544,1544,1545
45995761,1000,1000,1000,1000,93228527,1544,1544,1544,1544
45998260,1000,1000,1000,1000,93328487,1543,1543,1543,1543
46000759,1000,1000,1000,1000,93428447,1544,1544,1544,1543
46003258,1000,1000,1000,1000,93528407,1544,1544,1544,1545
46005757,1000,1000,1000,1000,93628367,1545,1544,1545,1545
46008256,1000,1000,1000,1000,93728327,1545,1545,1545,1545
46010755,1000,1000,1000,1000,93828287,1545,1545,1545,1545
46013254,1000,1000,1000,1000,93928247,1544,1544,1543,1544
46015753,1000,1000,1000,1000,94028207,1544,1544,1544,1544
46018252,1000,1000,1000,1000,94128167,1544,1544,1544,1544
46020751,1000,1000,1000,1000,94228960,1544,1544,1544,1544
46023250,1000,1000,1000,1000,94328920,1545,1544,1544,1544
46025749,1000,1000,1000,1000,94428880,1544,1544,1544,1544
46028248,1000,1000,1000,1000,94528840,1545,1545,1545,1545
46030747,1000,1000,1000,1000,94628800,1545,1545,1545,1545
46033246,1000,1000,1000,1000,94728760,1546,1545,1546,1546
46035745,1000,1000,1000,1000,94828720,1545,1545,1545,1545
46038244,1000,1000,1000,1000,94928680,1544,1545,1544,1545
46040743,1000,1000,1000,1000,95028640,1545,1545,1545,1545
46043242,1000,1000,1000,1000,95128600,1544,1544,1544,1544
46045741,1000,1000,1000,1000,95228560,1545,1545,1545,1545
46048240,1000,1000,1000,1000,95328520,1545,1544,1545,1545
46050739,1000,1000,1000,1000,95428480,1545,1545,1545,1545
46053238,1000,1000,1000,1000,95528440,1545,1545,1545,1545
46055737,1000,1000,1000,1000,95628400,1544,1545,1545,1545
46058236,1000,1000,1000,1000,95728360,1544,1544,1544,1544
46060735,1000,1000,1000,1000,95828320,1544,1545,1544,1544
46063234,1000,1000,1000,1000,95928280,1545,1544,1544,1545
46065733,1000,1000,1000,1000,96028240,1544,1544,1544,1544
46068232,1000,1000,1000,1000,96128200,1545,1544,1544,1545
46070731,1000,1000,1000,1000,96228160,1545,1545,1545,1545
46073230,1000,1000,1000,1000,96328953,1545,1544,1544,1544
46075729,1000,1000,1000,1000,96428913,1544,1545,1545,1544
46078228,1000,1000,1000,1000,96528873,1543,1543,1543,1543
46080727,1000,1000,1000,1000,96628833,1544,1544,1544,1544
46083226,1000,1000,1000,1000,96728793,1544,1544,1545,1544
46085725,1000,1000,1000,1000,96828753,1432,1432,1431,1432
46088224,1000,1000,1000,1000,96928713,1284,1283,1280,1284
46090723,1000,1000,1000,1000,97028673,1225,1224,1220,1225
46093222,1000,1000,1000,1000,97128633,1205,1203,1199,1205
46095721,1000,1000,1000,1000,97228593,1172,1171,1166,1172
46098220,1000,1000,1000,1000,97328553,1162,1160,1156,1162
46100719,1000,1000,1000,1000,97428513,1162,1160,1156,1161
46103218,1000,1000,1000,1000,97528473,1192,1161,1156,1192
46105717,1000,1000,1000,1000,97628433,1183,1161,1156,1183
46108216,1000,1000,1000,1000,97728393,1180,1161,1156,1180
46110715,1000,1000,1000,1000,97828353,1180,1161,1156,1180
46113214,1000,1000,1000,1000,97928313,1181,1160,1156,1181
46115713,1000,1000,1000,1000,98028273,1183,1160,1156,1183
46118212,1000,1000,1000,1000,98128233,1185,1160,1156,1185
46120711,1000,1000,1000,1000,98228193,1186,1160,1156,1186
46123210,1000,1000,1000,1000,98328986,1173,1160,1156,1173
46125709,1000,1000,1000,1000,98428946,1175,1160,1156,1175
46128208,1000,1000,1000,1000,98528906,1176,1160,1156,1176
46130707,1000,1000,1000,1000,98628866,1176,1160,1156,1176
46133206,1000,1000,1000,1000,98728826,1177,1160,1156,1177
46135705,1000,1000,1000,1000,98828786,1000,1000,1000,1000
46138204,1000,1000,1000,1000,98928746,1000,1000,1000,1000
46140703,1000,1000,1000,1000,99028706,1000,1000,1000,1000
46143202,1000,1000,1000,1000,99128666,1000,1000,1000,1000
46145701,1000,1000,1000,1000,99228626,1000,1000,1000,1000
46148200,1000,1000,1000,1000,99328586,1000,1000,1000,1000
46150699,1000,1000,1000,1000,99428546,1000,1000,1000,1000
46153198,1000,1000,1000,1000,99528506,1000,1000,1000,1000
46155697,1000,1000,1000,1000,99628466,1000,1000,1000,1000
46158196,1000,1000,1000,1000,99728426,1000,1000,1000,1000
46160695,1000,1000,1000,1000,99828386,1000,1000,1000,1000
46163194,1000,1000,1000,1000,99928346,1000,1000,1000,1000
46165693,1000,1000,1000,1000,100028306,1000,1000,1000,1000
46168192,1000,1000,1000,1000,100128266,1000,1000,1000,1000
46170691,1000,1000,1000,1000,100228226,1000,1000,1000,1000
46173190,1000,1000,1000,1000,100328186,1000,1000,1000,1000
46175689,1000,1000,1000,1000,100428979,1000,1000,1000,1000
46178188,1000,1000,1000,1000,100528939,1000,1000,1000,1000
46180687,1000,1000,1000,1000,100628899,1000,1000,1000,1000
46183186,1000,1000,1000,1000,100728859,1000,1000,1000,1000
46185685,1000,1000,1000,1000,100828819,1000,1000,1000,1000
46188184,1000,1000,1000,1000,100928779,1000,1000,1000,1000
46190683,1000,1000,1000,1000,101028739,1000,1000,1000,1000
46193182,1000,1000,1000,1000,101128699,1000,1000,1000,1000
46195681,1000,1000,1000,1000,101228659,1000,1000,1000,1000
46198180,1000,1000,1000,1000,101328619,1000,1000,1000,1000
46200679,1000,1000,1000,1000,101428579,1000,1000,1000,1000
46203178,1000,1000,1000,1000,101528539,1000,1000,1000,1000
46205677,1000,1000,1000,1000,101628499,1000,1000,1000,1000
46208176,1000,1000,1000,1000,101728459,1000,1000,1000,1000
46210675,1000,1000,1000,1000,101828419,1000,1000,1000,1000
46213174,1000,1000,1000,1000,101928379,1000,1000,1000,1000
46215673,1000,1000,1000,1000,102028339,1000,1000,1000,1000
46218172,1000,1000,1000,1000,102128299,1000,1000,1000,1000
46220671,1000,1000,1000,1000,102228259,1000,1000,1000,1000
46223170,1000,1000,1000,1000,102328219,1000,1000,1000,1000
46225669,1000,1000,1000,1000,102428179,1000,1000,1000,1000
46228168,1000,1000,1000,1000,102528972,1000,1000,1000,1000
46230667,1000,1000,1000,1000,102628932,1000,1000,1000,1000
46233166,1000,1000,1000,1000,102728892,1000,1000,1000,1000
46235665,1000,1000,1000,1000,102828852,1000,1000,1000,1000
46238164,1000,1000,1000,1000,102928812,1000,1000,1000,1000
46240663,1000,1000,1000,1000,103028772,1000,1000,1000,1000
46243162,1000,1000,1000,1000,103128732,1000,1000,1000,1000
46245661,1000,1000,1000,1000,103228692,1000,1000,1000,1000
46248160,1000,1000,1000,1000,103328652,1000,1000,1000,1000
46250659,1000,1000,1000,1000,103428612,1000,1000,1000,1000
46253158,1000,1000,1000,1000,103528572,1000,1000,1000,1000
46255657,1000,1000,1000,1000,103628532,1000,1000,1000,1000
46258156,1000,1000,1000,1000,103728492,1000,1000,1000,1000
46260655,1000,1000,1000,1000,103828452,1000,1000,1000,1000
46263154,1000,1000,1000,1000,103928412,1000,1000,1000,1000
46266486,1000,1000,1000,1000,104028372,1000,1000,1000,1000
46268985,1000,1000,1000,1000,104128332,1000,1000,1000,1000
46271484,1000,1000,1000,1000,104228292,1000,1000,1000,1000
46273983,1000,1000,1000,1000,104328252,1000,1000,1000,1000
46276482,1000,1000,1000,1000,104428212,1000,1000,1000,1000
46278981,1000,1000,1000,1000,104528172,1000,1000,1000,1000
46281480,1000,1000,1000,1000,104628965,1000,1000,1000,1000
46283979,1000,1000,1000,1000,104728925,1000,1000,1000,1000
46286478,1000,1000,1000,1000,104828885,1000,1000,1000,1000
46288977,1000,1000,1000,1000,104928845,1000,1000,1000,1000
46291476,1000,1000,1000,1000,105028805,1000,1000,1000,1000
46293975,1000,1000,1000,1000,105128765,1000,1000,1000,1000
46296474,1000,1000,1000,1000,105228725,1000,1000,1000,1000
46298973,1000,1000,1000,1000,105328685,1000,1000,1000,1000
46301472,1000,1000,1000,1000,105428645,1000,1000,1000,1000
46303971,1000,1000,1000,1000,105528605,1000,1000,1000,1000
46306470,1000,1000,1000,1000,105628565,1000,1000,1000,1000
46308969,1000,1000,1000,1000,105728525,1000,1000,1000,1000
46311468,1000,1000,1000,1000,105828485,1000,1000,1000,1000
46313967,1000,1000,1000,1000,105928445,1000,1000,1000,1000
46316466,1000,1000,1000,1000,106028405,1000,1000,1000,1000
46318965,1000,1000,1000,1000,106128365,1000,1000,1000,1000
46321464,1000,1000,1000,1000,106228325,1000,1000,1000,1000
46323963,1000,1000,1000,1000,106328285,1000,1000,1000,1000
46326462,1000,1000,1000,1000,106428245,1000,1000,1000,1000
46328961,1000,1000,1000,1000,106528205,1000,1000,1000,1000
46331460,1000,1000,1000,1000,106628165,1000,1000,1000,1000
46333959,1000,1000,1000,1000,106728958,1000,1000,1000,1000
46336458,1000,1000,1000,1000,106828918,1000,1000,1000,1000
46338957,1000,1000,1000,1000,106928878,1000,1000,1000,1000
46341456,1000,1000,1000,1000,107028838,1000,1000,1000,1000
46343955,1000,1000,1000,1000,107128798,1000,1000,1000,1000
46346454,1000,1000,1000,1000,107228758,1000,1000,1000,1000
46348953,1000,1000,1000,1000,107328718,1000,1000,1000,1000
46351452,1000,1000,1000,1000,107428678,1000,1000,1000,1000
46353951,1000,1000,1000,1000,107528638,1000,1000,1000,1000
46356450,1000,1000,1000,1000,107628598,1000,1000,1000,1000
46358949,1000,1000,1000,1000,107728558,1000,1000,1000,1000
46361448,1000,1000,1000,1000,107828518,1000,1000,1000,1000
46363947,1000,1000,1000,1000,107928478,1000,1000,1000,1000
46366446,1000,1000,1000,1000,108028438,1000,1000,1000,1000
46368945,1000,1000,1000,1000,108128398,1000,1000,1000,1000
46371444,1000,1000,1000,1000,108228358,1000,1000,1000,1000
46373943,1000,1000,1000,1000,108328318,1000,1000,1000,1000
46376442,1000,1000,1000,1000,108428278,1000,1000,1000,1000
46378941,1000,1000,1000,1000,108528238,1000,1000,1000,1000
46381440,1000,1000,1000,1000,108628198,1000,1000,1000,1000
46383939,1000,1000,1000,1000,108728158,1000,1000,1000,1000
46386438,1000,1000,1000,1000,108828951,1000,1000,1000,1000
46388937,1000,1000,1000,1000,108928911,1000,1000,1000,1000
46391436,1000,1000,1000,1000,109028871,1000,1000,1000,1000
46393935,1000,1000,1000,1000,109128831,1000,1000,1000,1000
46396434,1000,1000,1000,1000,109228791,1000,1000,1000,1000
46398933,1000,1000,1000,1000,109328751,1000,1000,1000,1000
46401432,1000,1000,1000,1000,109428711,1000,1000,1000,1000
46403931,1000,1000,1000,1000,109528671,1000,1000,1000,1000
46406430,1000,1000,1000,1000,109628631,1000,1000,1000,1000
46408929,1000,1000,1000,1000,109728591,1000,1000,1000,1000
46411428,1000,1000,1000,1000,109828551,1000,1000,1000,1000
46413927,1000,1000,1000,1000,109928511,1000,1000,1000,1000
46416426,1000,1000,1000,1000,110028471,1000,1000,1000,1000
46418925,1000,1000,1000,1000,110128431,1000,1000,1000,1000
46421424,1000,1000,1000,1000,110228391,1000,1000,1000,1000
46423923,1000,1000,1000,1000,110328351,1000,1000,1000,1000
46426422,1000,1000,1000,1000,110428311,1000,1000,1000,1000
46428921,1000,1000,1000,1000,110528271,1000,1000,1000,1000
46431420,1000,1000,1000,1000,110628231,1000,1000,1000,1000
46433919,1000,1000,1000,1000,110728191,1000,1000,1000,1000
46436418,1000,1000,1000,1000,110828984,1000,1000,1000,1000
46438917,1000,1000,1000,1000,110928944,1000,1000,1000,1000
46441416,1000,1000,1000,1000,111028904,1000,1000,1000,1000
46443915,1000,1000,1000,1000,111128864,1000,1000,1000,1000
46446414,1000,1000,1000,1000,111228824,1000,1000,1000,1000
46448913,1000,1000,1000,1000,111328784,1000,1000,1000,1000
46451412,1000,1000,1000,1000,111428744,1000,1000,1000,1000
46453911,1000,1000,1000,1000,111528704,1000,1000,1000,1000
46456410,1000,1000,1000,1000,111628664,1000,1000,1000,1000
46458909,1000,1000,1000,1000,111728624,1000,1000,1000,1000
46461408,1000,1000,1000,1000,111828584,1000,1000,1000,1000
46463907,1000,1000,1000,1000,111928544,1000,1000,1000,1000
46466406,1000,1000,1000,1000,112028504,1000,1000,1000,1000
46468905,1000,1000,1000,1000,112128464,1000,1000,1000,1000
46471404,1000,1000,1000,1000,112228424,1000,1000,1000,1000
46473903,1000,1000,1000,1000,112328384,1000,1000,1000,1000
46476402,1000,1000,1000,1000,112428344,1000,1000,1000,1000
46478901,1000,1000,1000,1000,112528304,1000,1000,1000,1000
46481400,1000,1000,1000,1000,112628264,1000,1000,1000,1000
46483899,1000,1000,1000,1000,112728224,1000,1000,1000,1000
46486398,1000,1000,1000,1000,112828184,1000,1000,1000,1000
46488897,1000,1000,1000,1000,112928977,1000,1000,1000,1000
46491396,1000,1000,1000,1000,113028937,1000,1000,1000,1000
46493895,1000,1000,1000,1000,113128897,1000,1000,1000,1000
46496394,1000,1000,1000,1000,113228857,1000,1000,1000,1000
46498893,1000,1000,1000,1000,113328817,1000,1000,1000,1000
46501392,1000,1000,1000,1000,113428777,1000,1000,1000,1000
46503891,1000,1000,1000,1000,113528737,1000,1000,1000,1000
46506390,1000,1000,1000,1000,113628697,1000,1000,1000,1000
46508889,1000,1000,1000,1000,113728657,1000,1000,1000,1000
46511388,1000,1000,1000,1000,,,,,
46513887,1000,1000,1000,1000,,,,,
46516386,1000,1000,1000,1000,,,,,
46518885,1000,1000,1000,1000,,,,,
46521384,1000,1000,1000,1000,,,,,
46523883,1000,1000,1000,1000,,,,,
46526382,1000,1000,1000,1000,,,,,
46528881,1000,1000,1000,1000,,,,,
46531380,1000,1000,1000,1000,,,,,
46533879,1000,1000,1000,1000,,,,,
46536378,1000,1000,1000,1000,,,,,
46538877,1000,1000,1000,1000,,,,,
46541376,1000,1000,1000,1000,,,,,
46543875,1000,1000,1000,1000,,,,,
46546374,1000,1000,1000,1000,,,,,
46548873,1000,1000,1000,1000,,,,,
46551372,1000,1000,1000,1000,,,,,
46553871,1000,1000,1000,1000,,,,,
46556370,1000,1000,1000,1000,,,,,
46558869,1000,1000,1000,1000,,,,,
46561368,1000,1000,1000,1000,,,,,
46563867,1000,1000,1000,1000,,,,,
46566366,1000,1000,1000,1000,,,,,
46568865,1000,1000,1000,1000,,,,,
46571364,1000,1000,1000,1000,,,,,
46573863,1000,1000,1000,1000,,,,,
46576362,1000,1000,1000,1000,,,,,
46578861,1000,1000,1000,1000,,,,,
46581360,1000,1000,1000,1000,,,,,
46583859,1000,1000,1000,1000,,,,,
46586358,1000,1000,1000,1000,,,,,
46588857,1000,1000,1000,1000,,,,,
46591356,1000,1000,1000,1000,,,,,
46593855,1000,1000,1000,1000,,,,,
46596354,1000,1000,1000,1000,,,,,
46598853,1000,1000,1000,1000,,,,,
46601352,1000,1000,1000,1000,,,,,
46603851,1000,1000,1000,1000,,,,,
46606350,1000,1000,1000,1000,,,,,
46608849,1000,1000,1000,1000,,,,,
46611348,1000,1000,1000,1000,,,,,
46613847,1000,1000,1000,1000,,,,,
46616346,1000,1000,1000,1000,,,,,
46618845,1000,1000,1000,1000,,,,,
46621344,1000,1000,1000,1000,,,,,
46623843,1000,1000,1000,1000,,,,,
46626342,1000,1000,1000,1000,,,,,
46628841,1000,1000,1000,1000,,,,,
46631340,1000,1000,1000,1000,,,,,
46633839,1000,1000,1000,1000,,,,,
46636338,1000,1000,1000,1000,,,,,
46638837,1000,1000,1000,1000,,,,,
46641336,1000,1000,1000,1000,,,,,
46643835,1000,1000,1000,1000,,,,,
46646334,1000,1000,1000,1000,,,,,
46648833,1000,1000,1000,1000,,,,,
46651332,1000,1000,1000,1000,,,,,
46653831,1000,1000,1000,1000,,,,,
46656330,1000,1000,1000,1000,,,,,
46658829,1000,1000,1000,1000,,,,,
46661328,1000,1000,1000,1000,,,,,
46663827,1000,1000,1000,1000,,,,,
46666326,1000,1000,1000,1000,,,,,
46668825,1000,1000,1000,1000,,,,,
46671324,1000,1000,1000,1000,,,,,
46673823,1000,1000,1000,1000,,,,,
46676322,1000,1000,1000,1000,,,,,
46678821,1000,1000,1000,1000,,,,,
46681320,1000,1000,1000,1000,,,,,
46683819,1000,1000,1000,1000,,,,,
46686318,1000,1000,1000,1000,,,,,
46688817,1000,1000,1000,1000,,,,,
46691316,1000,1000,1000,1000,,,,,
46693815,1000,1000,1000,1000,,,,,
46696314,1000,1000,1000,1000,,,,,
46698813,1000,1000,1000,1000,,,,,
46701312,1000,1000,1000,1000,,,,,
46703811,1000,1000,1000,1000,,,,,
46706310,1000,1000,1000,1000,,,,,
46708809,1000,1000,1000,1000,,,,,
46711308,1000,1000,1000,1000,,,,,
46713807,1000,1000,1000,1000,,,,,
46716306,1000,1000,1000,1000,,,,,
46718805,1000,1000,1000,1000,,,,,
46721304,1000,1000,1000,1000,,,,,
46723803,1000,1000,1000,1000,,,,,
46726302,1000,1000,1000,1000,,,,,
46728801,1000,1000,1000,1000,,,,,
46731300,1000,1000,1000,1000,,,,,
46733799,1000,1000,1000,1000,,,,,
46736298,1000,1000,1000,1000,,,,,
46738797,1000,1000,1000,1000,,,,,
46741296,1000,1000,1000,1000,,,,,
46743795,1000,1000,1000,1000,,,,,
46746294,1000,1000,1000,1000,,,,,
46748793,1000,1000,1000,1000,,,,,
46751292,1000,1000,1000,1000,,,,,
46753791,1000,1000,1000,1000,,,,,
46756290,1000,1000,1000,1000,,,,,
46758789,1000,1000,1000,1000,,,,,
46761288,1000,1000,1000,1000,,,,,
46763787,1000,1000,1000,1000,,,,,
46766286,1000,1000,1000,1000,,,,,
46768785,1000,1000,1000,1000,,,,,
46771284,1000,1000,1000,1000,,,,,
46773783,1000,1000,1000,1000,,,,,
46776282,1000,1000,1000,1000,,,,,
46778781,1000,1000,1000,1000,,,,,
46781280,1000,1000,1000,1000,,,,,
46783779,1000,1000,1000,1000,,,,,
46786278,1000,1000,1000,1000,,,,,
46788777,1000,1000,1000,1000,,,,,
46791276,1000,1000,1000,1000,,,,,
46793775,1001,1001,1001,1001,,,,,
46796274,1002,1002,1002,1002,,,,,
46798773,1003,1003,1003,1003,,,,,
46801272,1003,1003,1003,1003,,,,,
46803771,1004,1004,1004,1004,,,,,
46806270,1005,1005,1005,1005,,,,,
46808769,1006,1006,1006,1006,,,,,
46811268,1006,1006,1006,1006,,,,,
46813767,1007,1007,1007,1007,,,,,
46816266,1008,1008,1008,1008,,,,,
46818765,1009,1009,1009,1009,,,,,
46821264,1009,1009,1009,1009,,,,,
46823763,1010,1010,1010,1010,,,,,
46826262,1011,1011,1011,1011,,,,,
46828761,1012,1012,1012,1012,,,,,
46831260,1012,1012,1012,1012,,,,,
46833759,1013,1013,1013,1013,,,,,
46836258,1014,1014,1014,1014,,,,,
46838757,1015,1015,1015,1015,,,,,
46841256,1015,1015,1015,1015,,,,,
46843755,1016,1016,1016,1016,,,,,
46846254,1017,1017,1017,1017,,,,,
46848753,1018,1018,1018,1018,,,,,
46851252,1018,1018,1018,1018,,,,,
46853751,1019,1019,1019,1019,,,,,
46856250,1020,1020,1020,1020,,,,,
46858749,1021,1021,1021,1021,,,,,
46861248,1021,1021,1021,1021,,,,,
46863747,1022,1022,1022,1022,,,,,
46866246,1023,1023,1023,1023,,,,,
46868745,1024,1024,1024,1024,,,,,
46871244,1024,1024,1024,1024,,,,,
46873743,1025,1025,1025,1025,,,,,
46876242,1026,1026,1026,1026,,,,,
46878741,1027,1027,1027,1027,,,,,
46881240,1027,1027,1027,1027,,,,,
46883739,1028,1028,1028,1028,,,,,
46886238,1029,1029,1029,1029,,,,,
46888737,1030,1030,1030,1030,,,,,
46891236,1030,1030,1030,1030,,,,,
46893735,1031,1031,1031,1031,,,,,
46896234,1032,1032,1032,1032,,,,,
46898733,1033,1033,1033,1033,,,,,
46901232,1033,1033,1033,1033,,,,,
46903731,1034,1034,1034,1034,,,,,
46906230,1035,1035,1035,1035,,,,,
46908729,1036,1036,1036,1036,,,,,
46911228,1036,1036,1036,1036,,,,,
46913727,1037,1037,1037,1037,,,,,
46916226,1038,1038,1038,1038,,,,,
46918725,1039,1039,1039,1039,,,,,
46921224,1039,1039,1039,1039,,,,,
46923723,1040,1040,1040,1040,,,,,
46926222,1041,1041,1041,1041,,,,,
46928721,1042,1042,1042,1042,,,,,
46931220,1042,1042,1042,1042,,,,,
46933719,1043,1043,1043,1043,,,,,
46936218,1044,1044,1044,1044,,,,,
46938717,1045,1045,1045,1045,,,,,
46941216,1045,1045,1045,1045,,,,,
46943715,1046,1046,1046,1046,,,,,
46946214,1047,1047,1047,1047,,,,,
46948713,1048,1048,1048,1048,,,,,
46951212,1048,1048,1048,1048,,,,,
46953711,1049,1049,1049,1049,,,,,
46956210,1050,1050,1050,1050,,,,,
46958709,1051,1051,1051,1051,,,,,
46961208,1051,1051,1051,1051,,,,,
46963707,1052,1052,1052,1052,,,,,
46966206,1053,1053,1053,1053,,,,,
46968705,1054,1054,1054,1054,,,,,
46971204,1054,1054,1054,1054,,,,,
46973703,1055,1055,1055,1055,,,,,
46976202,1056,1056,1056,1056,,,,,
46978701,1057,1057,1057,1057,,,,,
46981200,1057,1057,1057,1057,,,,,
46983699,1058,1058,1058,1058,,,,,
46986198,1059,1059,1059,1059,,,,,
46988697,1060,1060,1060,1060,,,,,
46991196,1060,1060,1060,1060,,,,,
46993695,1061,1061,1061,1061,,,,,
46996194,1062,1062,1062,1062,,,,,
46998693,1063,1063,1063,1063,,,,,
47001192,1063,1063,1063,1063,,,,,
47003691,1064,1064,1064,1064,,,,,
47006190,1065,1065,1065,1065,,,,,
47008689,1066,1066,1066,1066,,,,,
47011188,1066,1066,1066,1066,,,,,
47013687,1067,1067,1067,1067,,,,,
47016186,1068,1068,1068,1068,,,,,
47018685,1069,1069,1069,1069,,,,,
47021184,1069,1069,1069,1069,,,,,
47023683,1070,1070,1070,1070,,,,,
47026182,1071,1071,1071,1071,,,,,
47028681,1072,1072,1072,1072,,,,,
47031180,1072,1072,1072,1072,,,,,
47033679,1073,1073,1073,1073,,,,,
47036178,1074,1074,1074,1074,,,,,
47038677,1075,1075,1075,1075,,,,,
47041176,1075,1075,1075,1075,,,,,
47043675,1076,1076,1076,1076,,,,,
47046174,1077,1077,1077,1077,,,,,
47048673,1078,1078,1078,1078,,,,,
47051172,1078,1078,1078,1078,,,,,
47053671,1079,1079,1079,1079,,,,,
47056170,1080,1080,1080,1080,,,,,
47058669,1081,1081,1081,1081,,,,,
47061168,1081,1081,1081,1081,,,,,
47063667,1082,1082,1082,1082,,,,,
47066166,1083,1083,1083,1083,,,,,
47068665,1084,1084,1084,1084,,,,,
47071164,1084,1084,1084,1084,,,,,
47073663,1085,1085,1085,1085,,,,,
47076162,1086,1086,1086,1086,,,,,
47078661,1087,1087,1087,1087,,,,,
47081160,1087,1087,1087,1087,,,,,
47083659,1088,1088,1088,1088,,,,,
47086158,1089,1089,1089,1089,,,,,
47088657,1090,1090,1090,1090,,,,,
47091156,1090,1090,1090,1090,,,,,
47093655,1091,1091,1091,1091,,,,,
47096154,1092,1092,1092,1092,,,,,
47098653,1093,1093,1093,1093,,,,,
47101152,1093,1093,1093,1093,,,,,
47103651,1094,1094,1094,1094,,,,,
47106150,1095,1095,1095,1095,,,,,
47108649,1096,1096,1096,1096,,,,,
47111148,1096,1096,1096,1096,,,,,
47113647,1097,1097,1097,1097,,,,,
47116146,1098,1098,1098,1098,,,,,
47118645,1099,1099,1099,1099,,,,,
47121144,1099,1099,1099,1099,,,,,
47123643,1100,1100,1100,1100,,,,,
47126142,1101,1101,1101,1101,,,,,
47128641,1101,1101,1101,1101,,,,,
47131140,1102,1102,1102,1102,,,,,
47133639,1103,1103,1103,1103,,,,,
47136138,1104,1104,1104,1104,,,,,
47138637,1104,1104,1104,1104,,,,,
47141136,1105,1105,1105,1105,,,,,
47143635,1106,1106,1106,1106,,,,,
47146134,1107,1107,1107,1107,,,,,
47148633,1107,1107,1107,1107,,,,,
47151132,1108,1108,1108,1108,,,,,
47153631,1109,1109,1109,1109,,,,,
47156130,1110,1110,1110,1110,,,,,
47158629,1110,1110,1110,1110,,,,,
47161128,1111,1111,1111,1111,,,,,
47163627,1112,1112,1112,1112,,,,,
47166126,1113,1113,1113,1113,,,,,
47168625,1113,1113,1113,1113,,,,,
47171124,1114,1114,1114,1114,,,,,
47173623,1115,1115,1115,1115,,,,,
47176122,1116,1116,1116,1116,,,,,
47178621,1116,1116,1116,1116,,,,,
47181120,1117,1117,1117,1117,,,,,
47183619,1118,1118,1118,1118,,,,,
47186118,1119,1119,1119,1119,,,,,
47188617,1119,1119,1119,1119,,,,,
47191116,1120,1120,1120,1120,,,,,
47193615,1121,1121,1121,1121,,,,,
47196114,1122,1122,1122,1122,,,,,
47198613,1122,1122,1122,1122,,,,,
47201112,1123,1123,1123,1123,,,,,
47203611,1124,1124,1124,1124,,,,,
47206110,1125,1125,1125,1125,,,,,
47208609,1125,1125,1125,1125,,,,,
47211108,1126,1126,1126,1126,,,,,
47213607,1127,1127,1127,1127,,,,,
47216106,1128,1128,1128,1128,,,,,
47218605,1128,1128,1128,1128,,,,,
47221104,1129,1129,1129,1129,,,,,
47223603,1130,1130,1130,1130,,,,,
47226102,1131,1131,1131,1131,,,,,
47228601,1131,1131,1131,1131,,,,,
47231100,1132,1132,1132,1132,,,,,
47233599,1133,1133,1133,1133,,,,,
47236098,1134,1134,1134,1134,,,,,
47238597,1134,1134,1134,1134,,,,,
47241096,1135,1135,1135,1135,,,,,
47243595,1136,1136,1136,1136,,,,,
47246094,1137,1137,1137,1137,,,,,
47248593,1137,1137,1137,1137,,,,,
47251092,1138,1138,1138,1138,,,,,
47253591,1139,1139,1139,1139,,,,,
47256090,1140,1140,1140,1140,,,,,
47258589,1140,1140,1140,1140,,,,,
47261088,1141,1141,1141,1141,,,,,
47263587,1142,1142,1142,1142,,,,,
47266086,1143,1143,1143,1143,,,,,
47268585,1143,1143,1143,1143,,,,,
47271084,1144,1144,1144,1144,,,,,
47273583,1145,1145,1145,1145,,,,,
47276082,1146,1146,1146,1146,,,,,
47278581,1146,1146,1146,1146,,,,,
47281080,1147,1147,1147,1147,,,,,
47283579,1148,1148,1148,1148,,,,,
47286078,1149,1149,1149,1149,,,,,
47288577,1149,1149,1149,1149,,,,,
47291076,1150,1150,1150,1150,,,,,
47293575,1161,1154,1155,1161,,,,,
47296074,1169,1162,1163,1169,,,,,
47298573,1177,1170,1171,1177,,,,,
47301072,1184,1178,1179,1185,,,,,
47303571,1192,1186,1186,1192,,,,,
47306070,1199,1193,1194,1200,,,,,
47308569,1207,1201,1201,1207,,,,,
47311068,1214,1208,1208,1214,,,,,
47313567,1221,1215,1216,1221,,,,,
47316066,1228,1222,1223,1228,,,,,
47318565,1235,1229,1230,1235,,,,,
47321064,1242,1236,1237,1242,,,,,
47323563,1248,1243,1243,1249,,,,,
47326062,1255,1249,1250,1255,,,,,
47328561,1262,1256,1257,1262,,,,,
47331060,1268,1262,1263,1268,,,,,
47333559,1274,1269,1269,1275,,,,,
47336058,1281,1275,1276,1281,,,,,
47338557,1287,1281,1282,1287,,,,,
47341056,1293,1288,1288,1293,,,,,
47343555,1299,1294,1294,1299,,,,,
47346054,1305,1300,1300,1305,,,,,
47348553,1311,1306,1306,1311,,,,,
47351052,1317,1312,1312,1317,,,,,
47353551,1323,1318,1318,1323,,,,,
47356050,1329,1323,1324,1329,,,,,
47358549,1334,1329,1330,1334,,,,,
47361048,1340,1335,1335,1340,,,,,
47363547,1346,1341,1341,1346,,,,,
47366046,1351,1346,1347,1351,,,,,
47368545,1357,1352,1352,1357,,,,,
47371044,1362,1357,1358,1362,,,,,
47373543,1367,1363,1363,1368,,,,,
47376042,1373,1368,1369,1373,,,,,
47378541,1378,1373,1374,1378,,,,,
47381040,1383,1379,1379,1383,,,,,
47383539,1389,1384,1384,1389,,,,,
47386038,1394,1389,1390,1394,,,,,
47388537,1399,1394,1395,1399,,,,,
47391036,1404,1399,1400,1404,,,,,
47393535,1409,1405,1405,1409,,,,,
47396034,1414,1410,1410,1414,,,,,
47398533,1419,1415,1415,1419,,,,,
47401032,1424,1420,1420,1424,,,,,
47403531,1429,1425,1425,1429,,,,,
47406030,1434,1429,1430,1434,,,,,
47408529,1438,1434,1435,1439,,,,,
47411028,1443,1439,1439,1444,,,,,
47413527,1448,1444,1444,1448,,,,,
47416026,1453,1449,1449,1453,,,,,
47418525,1457,1453,1454,1458,,,,,
47421024,1462,1458,1458,1462,,,,,
47423523,1467,1463,1463,1467,,,,,
47426022,1471,1467,1468,1472,,,,,
47428521,1476,1472,1472,1476,,,,,
47431020,1481,1477,1477,1481,,,,,
47433519,1485,1481,1481,1485,,,,,
47436018,1490,1486,1486,1490,,,,,
47438517,1494,1490,1490,1494,,,,,
47441016,1499,1495,1495,1499,,,,,
47443515,1503,1499,1499,1503,,,,,
47446014,1507,1503,1504,1508,,,,,
47448513,1512,1508,1508,1512,,,,,
47451012,1516,1512,1512,1516,,,,,
47453511,1520,1517,1517,1521,,,,,
47456010,1525,1521,1521,1525,,,,,
47458509,1529,1525,1525,1529,,,,,
47461008,1533,1529,1530,1534,,,,,
47463507,1537,1534,1534,1538,,,,,
47466006,1542,1538,1538,1542,,,,,
47468505,1546,1542,1542,1546,,,,,
47471004,1550,1546,1546,1550,,,,,
47473503,1554,1550,1551,1554,,,,,
47476002,1558,1554,1555,1559,,,,,
47478501,1562,1559,1559,1563,,,,,
47481000,1566,1563,1563,1567,,,,,
47483499,1571,1567,1567,1571,,,,,
47485998,1575,1571,1571,1575,,,,,
47488497,1579,1575,1575,1579,,,,,
47490996,1583,1579,1579,1583,,,,,
47493495,1587,1583,1583,1587,,,,,
47495994,1590,1587,1587,1591,,,,,
47498493,1594,1591,1591,1595,,,,,
47500992,1598,1595,1595,1599,,,,,
47503491,1602,1599,1599,1603,,,,,
47505990,1606,1602,1603,1607,,,,,
47508489,1610,1606,1606,1610,,,,,
47510988,1614,1610,1610,1614,,,,,
47513487,1618,1614,1614,1618,,,,,
47515986,1622,1618,1618,1622,,,,,
47518485,1625,1622,1622,1626,,,,,
47520984,1629,1625,1626,1630,,,,,
47523483,1633,1629,1629,1633,,,,,
47525982,1637,1633,1633,1637,,,,,
47528481,1640,1637,1637,1641,,,,,
47530980,1644,1640,1640,1645,,,,,
47533479,1648,1644,1644,1648,,,,,
47535978,1652,1648,1648,1652,,,,,
47538477,1655,1651,1652,1656,,,,,
47540976,1659,1655,1655,1659,,,,,
47543475,1663,1659,1659,1663,,,,,
47545974,1666,1662,1663,1667,,,,,
47548473,1670,1666,1666,1670,,,,,
47550972,1674,1670,1670,1674,,,,,
47553471,1677,1673,1673,1677,,,,,
47555970,1681,1677,1677,1681,,,,,
47558469,1684,1680,1680,1685,,,,,
47560968,1688,1684,1684,1688,,,,,
47563467,1691,1687,1688,1692,,,,,
47565966,1695,1691,1691,1695,,,,,
47568465,1698,1694,1695,1699,,,,,
47570964,1702,1698,1698,1702,,,,,
47573463,1705,1701,1702,1706,,,,,
47575962,1709,1705,1705,1709,,,,,
47578461,1712,1708,1709,1713,,,,,
47580960,1716,1712,1712,1716,,,,,
47583459,1719,1715,1715,1719,,,,,
47585958,1723,1719,1719,1723,,,,,
47588457,1726,1722,1722,1726,,,,,
47590956,1729,1726,1726,1730,,,,,
47593455,1733,1729,1729,1733,,,,,
47595954,1736,1732,1733,1736,,,,,
47598453,1740,1736,1736,1740,,,,,
47600952,1743,1739,1739,1743,,,,,
47603451,1746,1742,1743,1746,,,,,
47605950,1750,1746,1746,1750,,,,,
47608449,1753,1749,1749,1753,,,,,
47610948,1756,1752,1753,1756,,,,,
47613447,1759,1756,1756,1760,,,,,
47615946,1763,1759,1759,1763,,,,,
47618445,1766,1762,1763,1766,,,,,
47620944,1769,1766,1766,1769,,,,,
47623443,1772,1769,1769,1773,,,,,
47625942,1776,1772,1772,1776,,,,,
47628441,1779,1775,1776,1779,,,,,
47630940,1782,1779,1779,1782,,,,,
47633439,1785,1782,1782,1785,,,,,
47635938,1789,1785,1785,1789,,,,,
47638437,1792,1788,1789,1792,,,,,
47640936,1795,1791,1792,1795,,,,,
47643435,1798,1795,1795,1798,,,,,
47645934,1801,1798,1798,1801,,,,,
47648433,1804,1801,1801,1804,,,,,
47650932,1808,1804,1805,1808,,,,,
47653431,1811,1807,1808,1811,,,,,
47655930,1814,1810,1811,1814,,,,,
47658429,1817,1813,1814,1817,,,,,
47660928,1820,1816,1817,1820,,,,,
47663427,1823,1820,1820,1823,,,,,
47665926,1826,1823,1823,1826,,,,,
47668425,1829,1826,1826,1829,,,,,
47670924,1832,1829,1829,1832,,,,,
47673423,1836,1832,1832,1835,,,,,
47675922,1839,1835,1836,1838,,,,,
47678421,1842,1838,1839,1841,,,,,
47680920,1845,1841,1842,1844,,,,,
47683419,1848,1844,1845,1847,,,,,
47685918,1851,1847,1848,1851,,,,,
47688417,1854,1850,1851,1854,,,,,
47690916,1857,1853,1854,1857,,,,,
47693415,1860,1856,1857,1860,,,,,
47695914,1863,1859,1860,1862,,,,,
47698413,1866,1862,1863,1865,,,,,
47700912,1869,1865,1866,1868,,,,,
47703411,1872,1868,1869,1871,,,,,
47705910,1875,1871,1872,1874,,,,,
47708409,1878,1874,1875,1877,,,,,
47710908,1881,1877,1878,1880,,,,,
47713407,1884,1880,1881,1883,,,,,
47715906,1887,1883,1883,1886,,,,,
47718405,1890,1885,1886,1889,,,,,
47720904,1892,1888,1889,1892,,,,,
47723403,1895,1891,1892,1895,,,,,
47725902,1898,1894,1895,1898,,,,,
47728401,1901,1897,1898,1901,,,,,
47730900,1904,1900,1901,1903,,,,,
47733399,1907,1903,1904,1906,,,,,
47735898,1910,1906,1907,1909,,,,,
47738397,1913,1909,1909,1912,,,,,
47740896,1915,1911,1912,1915,,,,,
47743395,1918,1914,1915,1918,,,,,
47745894,1921,1917,1918,1921,,,,,
47748393,1924,1920,1921,1924,,,,,
47750892,1927,1923,1924,1926,,,,,
47753391,1930,1926,1926,1929,,,,,
47755890,1929,1925,1926,1929,,,,,
47758389,1929,1924,1925,1928,,,,,
47760888,1928,1924,1925,1927,,,,,
47763387,1927,1923,1924,1927,,,,,
47765886,1927,1923,1923,1926,,,,,
47768385,1926,1922,1923,1926,,,,,
47770884,1926,1921,1922,1925,,,,,
47773383,1925,1921,1922,1925,,,,,
47775882,1925,1921,1921,1924,,,,,
47778381,1924,1920,1921,1924,,,,,
47780880,1924,1920,1921,1924,,,,,
47783379,1923,1920,1920,1923,,,,,
47785878,1923,1919,1920,1923,,,,,
47788377,1923,1919,1920,1922,,,,,
47790876,1922,1919,1919,1922,,,,,
47793375,1922,1918,1919,1921,,,,,
47795874,1921,1918,1919,1921,,,,,
47798373,1920,1918,1918,1920,,,,,
47800872,1920,1917,1917,1920,,,,,
47803371,1919,1916,1917,1919,,,,,
47805870,1918,1915,1916,1918,,,,,
47808369,1917,1914,1914,1917,,,,,
47810868,1915,1913,1913,1915,,,,,
47813367,1914,1911,1912,1914,,,,,
47815866,1912,1910,1910,1912,,,,,
47818365,1911,1908,1909,1911,,,,,
47820864,1909,1907,1907,1909,,,,,
47823363,1907,1905,1905,1907,,,,,
47825862,1905,1902,1903,1905,,,,,
47828361,1902,1900,1901,1902,,,,,
47830860,1900,1898,1898,1900,,,,,
47833359,1898,1896,1896,1898,,,,,
47835858,1895,1893,1894,1895,,,,,
47838357,1893,1890,1891,1892,,,,,
47840856,1890,1888,1888,1890,,,,,
47843355,1887,1885,1886,1887,,,,,
47845854,1884,1882,1883,1884,,,,,
47848353,1881,1879,1880,1881,,,,,
47850852,1878,1877,1877,1878,,,,,
47853351,1875,1874,1874,1875,,,,,
47855850,1872,1871,1871,1872,,,,,
47858349,1869,1867,1868,1869,,,,,
47860848,1866,1864,1865,1866,,,,,
47863347,1863,1861,1862,1863,,,,,
47865846,1860,1858,1859,1860,,,,,
47868345,1857,1855,1855,1856,,,,,
47870844,1853,1851,1852,1853,,,,,
47873343,1850,1848,1849,1850,,,,,
47875842,1846,1845,1845,1846,,,,,
47878341,1843,1841,1842,1843,,,,,
47880840,1840,1838,1838,1840,,,,,
47883339,1836,1835,1835,1836,,,,,
47885838,1833,1831,1832,1833,,,,,
47888337,1829,1828,1828,1829,,,,,
47890836,1826,1824,1825,1826,,,,,
47893335,1822,1821,1821,1822,,,,,
47895834,1819,1817,1818,1819,,,,,
47898333,1815,1814,1814,1815,,,,,
47900832,1812,1811,1811,1812,,,,,
47903331,1808,1807,1807,1808,,,,,
47905830,1805,1804,1804,1805,,,,,
47908329,1801,1800,1800,1801,,,,,
47910828,1798,1797,1797,1798,,,,,
47913327,1794,1794,1794,1795,,,,,
47915826,1791,1790,1790,1791,,,,,
47918325,1787,1787,1787,1788,,,,,
47920824,1784,1784,1784,1784,,,,,
47923323,1781,1780,1780,1781,,,,,
47925822,1777,1777,1777,1778,,,,,
47928321,1774,1774,1774,1774,,,,,
47930820,1771,1771,1771,1771,,,,,
47933319,1768,1767,1767,1768,,,,,
47935818,1764,1764,1764,1765,,,,,
47938317,1761,1761,1761,1762,,,,,
47940816,1758,1758,1758,1758,,,,,
47943315,1755,1755,1755,1755,,,,,
47945814,1752,1752,1752,1752,,,,,
47948313,1749,1749,1749,1749,,,,,
47950812,1746,1746,1746,1746,,,,,
47953311,1742,1743,1743,1743,,,,,
47955810,1740,1740,1740,1740,,,,,
47958309,1737,1737,1737,1737,,,,,
47960808,1734,1734,1734,1734,,,,,
47963307,1731,1731,1731,1731,,,,,
