TimeUS,M1,M2,M3,M4,TimeUS,C1,C2,C3,C4
81703972,1000,1000,1000,1000,81728962,1000,1000,1000,1000
81706471,1000,1000,1000,1000,81828922,1000,1000,1000,1000
81708970,1000,1000,1000,1000,81928882,1000,1000,1000,1000
81711469,1000,1000,1000,1000,82028842,1000,1000,1000,1000
81713968,1000,1000,1000,1000,82128802,1000,1000,1000,1000
81716467,1000,1000,1000,1000,82228762,1000,1000,1000,1000
81718966,1000,1000,1000,1000,82328722,1000,1000,1000,1000
81721465,1000,1000,1000,1000,82428682,1000,1000,1000,1000
81723964,1000,1000,1000,1000,82528642,1000,1000,1000,1000
81726463,1000,1000,1000,1000,82628602,1000,1000,1000,1000
81728962,1000,1000,1000,1000,82728562,1000,1000,1000,1000
81731461,1000,1000,1000,1000,82828522,1000,1000,1000,1000
81733960,1000,1000,1000,1000,82928482,1000,1000,1000,1000
81736459,1000,1000,1000,1000,83028442,1000,1000,1000,1000
81738958,1000,1000,1000,1000,83128402,1000,1000,1000,1000
81741457,1000,1000,1000,1000,83228362,1000,1000,1000,1000
81743956,1000,1000,1000,1000,83328322,1000,1000,1000,1000
81746455,1000,1000,1000,1000,83428282,1000,1000,1000,1000
81748954,1000,1000,1000,1000,83528242,1000,1000,1000,1000
81751453,1000,1000,1000,1000,83628202,1000,1000,1000,1000
81753952,1000,1000,1000,1000,83728162,1007,1007,1007,1007
81756451,1000,1000,1000,1000,83828955,1037,1037,1037,1037
81758950,1000,1000,1000,1000,83928915,1067,1067,1067,1067
81761449,1000,1000,1000,1000,84028875,1097,1097,1097,1097
81763948,1000,1000,1000,1000,84128835,1127,1127,1127,1127
81766447,1000,1000,1000,1000,84228795,1224,1212,1213,1224
81768946,1000,1000,1000,1000,84328755,1450,1441,1442,1451
81771445,1000,1000,1000,1000,84428715,1620,1612,1612,1620
81773944,1000,1000,1000,1000,84528675,1761,1754,1754,1762
81776443,1000,1000,1000,1000,84628635,1885,1878,1878,1886
81778942,1000,1000,1000,1000,84728595,1899,1893,1894,1899
81781441,1000,1000,1000,1000,84828555,1785,1783,1784,1785
81783940,1000,1000,1000,1000,84928515,1675,1676,1677,1675
81786439,1000,1000,1000,1000,85028475,1632,1636,1636,1632
81788938,1000,1000,1000,1000,85128435,1633,1636,1636,1633
81791437,1000,1000,1000,1000,85228395,1640,1642,1642,1640
81793936,1000,1000,1000,1000,85328355,1642,1634,1633,1643
81796435,1000,1000,1000,1000,85428315,1621,1621,1613,1629
81798934,1000,1000,1000,1000,85528275,1612,1612,1605,1618
81801433,1000,1000,1000,1000,85628235,1607,1607,1605,1609
81803932,1000,1000,1000,1000,85728195,1608,1608,1609,1606
81806431,1000,1000,1000,1000,85828155,1613,1613,1617,1609
81808930,1000,1000,1000,1000,85928948,1618,1617,1622,1613
81811429,1000,1000,1000,1000,86028908,1588,1588,1603,1572
81813928,1000,1000,1000,1000,86128868,1573,1574,1587,1561
81816427,1000,1000,1000,1000,86228828,1562,1562,1566,1559
81818926,1000,1000,1000,1000,86328788,1552,1552,1547,1557
81821425,1000,1000,1000,1000,86428748,1544,1544,1532,1556
81823924,1000,1000,1000,1000,86528708,1538,1537,1525,1549
81826423,1000,1000,1000,1000,86628668,1532,1532,1524,1539
81828922,1000,1000,1000,1000,86728628,1527,1526,1523,1529
81831421,1000,1000,1000,1000,86828588,1526,1526,1527,1524
81833920,1000,1000,1000,1000,86928548,1528,1528,1530,1525
81836419,1000,1000,1000,1000,87028508,1531,1531,1534,1527
81838918,1000,1000,1000,1000,87128468,1535,1535,1538,1532
81841417,1000,1000,1000,1000,87228428,1538,1538,1541,1536
81843916,1000,1000,1000,1000,87328388,1541,1541,1543,1540
81846415,1000,1000,1000,1000,87428348,1544,1544,1545,1544
81848914,1000,1000,1000,1000,87528308,1547,1547,1547,1548
81851413,1000,1000,1000,1000,87628268,1550,1550,1550,1551
81853912,1000,1000,1000,1000,87728228,1553,1553,1552,1555
81856411,1000,1000,1000,1000,87828188,1556,1556,1552,1555
81858910,1000,1000,1000,1000,87928981,1559,1559,1555,1556
81861409,1000,1000,1000,1000,88028941,1560,1560,1560,1560
81863908,1000,1000,1000,1000,88128901,1560,1560,1563,1563
81866407,1000,1000,1000,1000,88228861,1561,1561,1567,1567
81868906,1000,1000,1000,1000,88328821,1562,1562,1569,1568
81871405,1000,1000,1000,1000,88428781,1562,1564,1570,1569
81873904,1000,1000,1000,1000,88528741,1565,1566,1571,1571
81876403,1000,1000,1000,1000,88628701,1567,1567,1570,1570
81878902,1000,1000,1000,1000,88728661,1570,1569,1570,1571
81881401,1000,1000,1000,1000,88828621,1571,1571,1570,1571
81883900,1000,1000,1000,1000,88928581,1572,1572,1570,1571
81886399,1000,1000,1000,1000,89028541,1573,1573,1570,1570
81888898,1000,1000,1000,1000,89128501,1575,1574,1570,1571
81891397,1000,1000,1000,1000,89228461,1575,1575,1571,1570
81893896,1000,1000,1000,1000,89328421,1576,1576,1573,1571
81896395,1000,1000,1000,1000,89428381,1576,1576,1574,1571
81898894,1000,1000,1000,1000,89528341,1577,1576,1575,1574
81901393,1000,1000,1000,1000,89628301,1575,1576,1574,1574
81903892,1000,1000,1000,1000,89728261,1575,1575,1575,1575
81906391,1000,1000,1000,1000,89828221,1575,1576,1576,1576
81908890,1000,1000,1000,1000,89928181,1576,1576,1577,1577
81911389,1000,1000,1000,1000,90028974,1575,1575,1576,1576
81913888,1000,1000,1000,1000,90128934,1576,1575,1577,1577
81916387,1000,1000,1000,1000,90228894,1576,1576,1577,1577
81918886,1000,1000,1000,1000,90328854,1576,1576,1577,1577
81921385,1000,1000,1000,1000,90428814,1577,1578,1579,1578
81923884,1000,1000,1000,1000,90528774,1577,1577,1578,1578
81926383,1000,1000,1000,1000,90628734,1578,1578,1579,1578
81928882,1000,1000,1000,1000,90728694,1579,1578,1579,1578
81931381,1000,1000,1000,1000,90828654,1579,1578,1578,1578
81933880,1000,1000,1000,1000,90928614,1579,1579,1578,1579
81936379,1000,1000,1000,1000,91028574,1578,1578,1578,1578
81938878,1000,1000,1000,1000,91128534,1579,1579,1578,1579
81941377,1000,1000,1000,1000,91228494,1579,1579,1579,1579
81943876,1000,1000,1000,1000,91328454,1579,1579,1579,1579
81946375,1000,1000,1000,1000,91428414,1579,1579,1579,1578
81948874,1000,1000,1000,1000,91528374,1578,1578,1578,1578
81951373,1000,1000,1000,1000,91628334,1579,1579,1578,1579
81953872,1000,1000,1000,1000,91728294,1579,1579,1578,1579
81956371,1000,1000,1000,1000,91828254,1578,1579,1579,1578
81958870,1000,1000,1000,1000,91928214,1579,1579,1579,1579
81961369,1000,1000,1000,1000,92028174,1579,1579,1580,1579
81963868,1000,1000,1000,1000,92128967,1579,1579,1579,1580
81966367,1000,1000,1000,1000,92228927,1578,1579,1579,1579
81968866,1000,1000,1000,1000,92328887,1579,1579,1580,1580
81971365,1000,1000,1000,1000,92428847,1581,1581,1581,1581
81973864,1000,1000,1000,1000,92528807,1580,1580,1580,1580
81976363,1000,1000,1000,1000,92628767,1580,1580,1580,1580
81978862,1000,1000,1000,1000,92728727,1581,1580,1581,1581
81981361,1000,1000,1000,1000,92828687,1581,1581,1581,1581
81983860,1000,1000,1000,1000,92928647,1580,1580,1580,1580
81986359,1000,1000,1000,1000,93028607,1581,1581,1581,1581
81988858,1000,1000,1000,1000,93128567,1581,1581,1581,1581
81991357,1000,1000,1000,1000,93228527,1581,1581,1582,1581
81993856,1000,1000,1000,1000,93328487,1580,1581,1580,1581
81996355,1000,1000,1000,1000,93428447,1580,1580,1580,1580
81998854,1000,1000,1000,1000,93528407,1581,1581,1581,1581
82001353,1000,1000,1000,1000,93628367,1581,1581,1581,1581
82003852,1000,1000,1000,1000,93728327,1580,1580,1580,1580
82006351,1000,1000,1000,1000,93828287,1580,1580,1580,1580
82008850,1000,1000,1000,1000,93928247,1580,1580,1580,1581
82011349,1000,1000,1000,1000,94028207,1580,1581,1584,1576
82013848,1000,1000,1000,1000,94128167,1581,1582,1588,1573
82016347,1000,1000,1000,1000,94228960,1580,1583,1582,1574
82018846,1000,1000,1000,1000,94328920,1578,1581,1572,1573
82021345,1000,1000,1000,1000,94428880,1576,1579,1564,1569
82023844,1000,1000,1000,1000,94528840,1577,1578,1558,1565
82026343,1000,1000,1000,1000,94628800,1578,1578,1555,1561
82028842,1000,1000,1000,1000,94728760,1579,1577,1554,1557
82031341,1000,1000,1000,1000,94828720,1580,1578,1556,1555
82033840,1000,1000,1000,1000,94928680,1579,1578,1556,1554
82036339,1000,1000,1000,1000,95028640,1578,1578,1556,1554
82038838,1000,1000,1000,1000,95128600,1578,1578,1556,1554
82041337,1000,1000,1000,1000,95228560,1576,1577,1555,1554
82043836,1000,1000,1000,1000,95328520,1575,1577,1553,1554
82046335,1000,1000,1000,1000,95428480,1575,1577,1552,1553
82048834,1000,1000,1000,1000,95528440,1577,1578,1551,1551
82051333,1000,1000,1000,1000,95628400,1578,1579,1549,1548
82053832,1000,1000,1000,1000,95728360,1580,1581,1547,1546
82056331,1000,1000,1000,1000,95828320,1583,1583,1544,1543
82058830,1000,1000,1000,1000,95928280,1584,1586,1540,1540
82061329,1000,1000,1000,1000,96028240,1589,1589,1539,1538
82063828,1000,1000,1000,1000,96128200,1592,1592,1536,1536
82066327,1000,1000,1000,1000,96228160,1594,1594,1535,1535
82068826,1000,1000,1000,1000,96328953,1595,1594,1533,1535
82071325,1000,1000,1000,1000,96428913,1595,1596,1535,1537
82073824,1000,1000,1000,1000,96528873,1593,1593,1537,1539
82076323,1000,1000,1000,1000,96628833,1590,1590,1541,1544
82078822,1000,1000,1000,1000,96728793,1586,1583,1548,1551
82081321,1000,1000,1000,1000,96828753,1579,1575,1558,1561
82083820,1000,1000,1000,1000,96928713,1568,1564,1569,1572
82086319,1000,1000,1000,1000,97028673,1557,1554,1582,1584
82088818,1000,1000,1000,1000,97128633,1546,1542,1593,1594
82091317,1000,1000,1000,1000,97228593,1536,1535,1604,1604
82093816,1000,1000,1000,1000,97328553,1530,1530,1612,1610
82096315,1000,1000,1000,1000,97428513,1527,1529,1615,1614
82098814,1000,1000,1000,1000,97528473,1529,1531,1615,1614
82101313,1000,1000,1000,1000,97628433,1533,1536,1611,1611
82103812,1000,1000,1000,1000,97728393,1540,1542,1605,1605
82106311,1000,1000,1000,1000,97828353,1549,1550,1598,1599
82108810,1000,1000,1000,1000,97928313,1559,1559,1591,1591
82111309,1000,1000,1000,1000,98028273,1568,1568,1584,1583
82113808,1000,1000,1000,1000,98128233,1576,1575,1578,1577
82116307,1000,1000,1000,1000,98228193,1581,1580,1572,1571
82118806,1000,1000,1000,1000,98328986,1585,1583,1567,1567
82121305,1000,1000,1000,1000,98428946,1587,1586,1565,1565
82123804,1000,1000,1000,1000,98528906,1588,1586,1565,1566
82126303,1000,1000,1000,1000,98628866,1587,1585,1567,1567
82128802,1000,1000,1000,1000,98728826,1584,1583,1568,1569
82131301,1000,1000,1000,1000,98828786,1581,1581,1571,1572
82133800,1000,1000,1000,1000,98928746,1578,1579,1575,1575
82136299,1000,1000,1000,1000,99028706,1576,1576,1579,1578
82138798,1000,1000,1000,1000,99128666,1574,1575,1581,1581
82141297,1000,1000,1000,1000,99228626,1572,1573,1583,1582
82143796,1000,1000,1000,1000,99328586,1572,1572,1583,1583
82146295,1000,1000,1000,1000,99428546,1572,1573,1584,1584
82148794,1000,1000,1000,1000,99528506,1572,1572,1583,1583
82151293,1000,1000,1000,1000,99628466,1574,1575,1583,1584
82153792,1000,1000,1000,1000,99728426,1590,1589,1558,1567
82156291,1000,1000,1000,1000,99828386,1592,1592,1583,1563
82158790,1000,1000,1000,1000,99928346,1597,1597,1600,1573
82161289,1000,1000,1000,1000,100028306,1598,1598,1608,1585
82163788,1000,1000,1000,1000,100128266,1594,1594,1606,1593
82166287,1000,1000,1000,1000,100228226,1587,1588,1600,1599
82168786,1000,1000,1000,1000,100328186,1580,1581,1592,1601
82171285,1000,1000,1000,1000,100428979,1574,1575,1586,1598
82173784,1000,1000,1000,1000,100528939,1571,1571,1583,1594
82176283,1000,1000,1000,1000,100628899,1571,1570,1582,1589
82178782,1000,1000,1000,1000,100728859,1573,1572,1583,1585
82181281,1000,1000,1000,1000,100828819,1575,1575,1583,1581
82183780,1000,1000,1000,1000,100928779,1576,1576,1580,1578
82186279,1000,1000,1000,1000,101028739,1578,1578,1579,1576
82188778,1000,1000,1000,1000,101128699,1579,1579,1575,1574
82191277,1000,1000,1000,1000,101228659,1580,1581,1574,1574
82193776,1000,1000,1000,1000,101328619,1580,1581,1573,1574
82196275,1000,1000,1000,1000,101428579,1581,1580,1573,1574
82198774,1000,1000,1000,1000,101528539,1580,1579,1572,1573
82201273,1000,1000,1000,1000,101628499,1579,1579,1574,1574
82203772,1000,1000,1000,1000,101728459,1579,1579,1575,1575
82206271,1000,1000,1000,1000,101828419,1578,1578,1576,1575
82208770,1000,1000,1000,1000,101928379,1579,1578,1578,1577
82211269,1000,1000,1000,1000,102028339,1577,1578,1582,1574
82213768,1000,1000,1000,1000,102128299,1576,1581,1585,1569
82216267,1000,1000,1000,1000,102228259,1577,1581,1579,1571
82218766,1000,1000,1000,1000,102328219,1577,1580,1570,1571
82221265,1000,1000,1000,1000,102428179,1576,1578,1562,1568
82223764,1000,1000,1000,1000,102528972,1577,1578,1556,1563
82226263,1000,1000,1000,1000,102628932,1579,1577,1552,1558
82228762,1000,1000,1000,1000,102728892,1581,1578,1551,1555
82231261,1000,1000,1000,1000,102828852,1582,1580,1553,1552
82233760,1000,1000,1000,1000,102928812,1580,1579,1552,1550
82236259,1000,1000,1000,1000,103028772,1580,1580,1553,1550
82238758,1000,1000,1000,1000,103128732,1578,1580,1553,1551
82241257,1000,1000,1000,1000,103228692,1576,1579,1552,1551
82243756,1000,1000,1000,1000,103328652,1577,1579,1551,1552
82246255,1000,1000,1000,1000,103428612,1578,1579,1552,1552
82248754,1000,1000,1000,1000,103528572,1579,1580,1551,1552
82251253,1000,1000,1000,1000,103628532,1580,1580,1549,1550
82253752,1000,1000,1000,1000,103728492,1580,1581,1548,1548
82256251,1000,1000,1000,1000,103828452,1582,1583,1546,1546
82258750,1000,1000,1000,1000,103928412,1584,1584,1545,1546
82261249,1000,1000,1000,1000,104028372,1586,1587,1545,1544
82263748,1000,1000,1000,1000,104128332,1588,1589,1543,1543
82266247,1000,1000,1000,1000,104228292,1589,1591,1542,1543
82268746,1000,1000,1000,1000,104328252,1591,1590,1542,1545
82271245,1000,1000,1000,1000,104428212,1591,1589,1546,1548
82273744,1000,1000,1000,1000,104528172,1588,1584,1550,1552
82276243,1000,1000,1000,1000,104628965,1582,1579,1557,1560
82278742,1000,1000,1000,1000,104728925,1576,1572,1567,1569
82281241,1000,1000,1000,1000,104828885,1566,1564,1577,1578
82283740,1000,1000,1000,1000,104928845,1557,1555,1586,1586
82286239,1000,1000,1000,1000,105028805,1549,1548,1594,1594
82288738,1000,1000,1000,1000,105128765,1544,1544,1602,1602
82291237,1000,1000,1000,1000,105228725,1540,1542,1606,1605
82293736,1000,1000,1000,1000,105328685,1541,1542,1607,1606
82296235,1000,1000,1000,1000,105428645,1544,1545,1606,1606
82298734,1000,1000,1000,1000,105528605,1548,1549,1604,1603
82301233,1000,1000,1000,1000,105628565,1553,1554,1600,1598
82303732,1000,1000,1000,1000,105728525,1560,1560,1596,1595
82306231,1000,1000,1000,1000,105828485,1566,1566,1590,1590
82308730,1000,1000,1000,1000,105928445,1571,1571,1584,1584
82311229,1000,1000,1000,1000,106028405,1576,1576,1578,1579
82313728,1000,1000,1000,1000,106128365,1581,1580,1575,1575
82316227,1000,1000,1000,1000,106228325,1583,1582,1572,1572
82318726,1000,1000,1000,1000,106328285,1585,1584,1571,1571
82321225,1000,1000,1000,1000,106428245,1586,1585,1571,1571
82323724,1000,1000,1000,1000,106528205,1584,1583,1571,1571
82326223,1000,1000,1000,1000,106628165,1584,1583,1573,1574
82328722,1000,1000,1000,1000,106728958,1581,1581,1575,1575
82331221,1000,1000,1000,1000,106828918,1578,1579,1577,1576
82333720,1000,1000,1000,1000,106928878,1576,1577,1578,1579
82336219,1000,1000,1000,1000,107028838,1575,1575,1580,1580
82338718,1000,1000,1000,1000,107128798,1574,1575,1582,1582
82341217,1000,1000,1000,1000,107228758,1573,1573,1582,1582
82343716,1000,1000,1000,1000,107328718,1574,1574,1583,1583
82346215,1000,1000,1000,1000,107428678,1574,1575,1583,1582
82348714,1000,1000,1000,1000,107528638,1574,1575,1582,1582
82351213,1000,1000,1000,1000,107628598,1575,1575,1581,1581
82353712,1000,1000,1000,1000,107728558,1577,1577,1580,1580
82356211,1000,1000,1000,1000,107828518,1578,1578,1580,1579
82358710,1000,1000,1000,1000,107928478,1579,1579,1578,1578
82361209,1000,1000,1000,1000,108028438,1580,1579,1578,1578
82363708,1000,1000,1000,1000,108128398,1581,1580,1578,1578
82366207,1000,1000,1000,1000,108228358,1581,1581,1578,1578
82368706,1000,1000,1000,1000,108328318,1580,1581,1578,1578
82371205,1000,1000,1000,1000,108428278,1580,1580,1577,1577
82373704,1000,1000,1000,1000,108528238,1581,1581,1579,1579
82376203,1000,1000,1000,1000,108628198,1581,1581,1579,1579
82378702,1000,1000,1000,1000,108728158,1580,1580,1579,1580
82381201,1000,1000,1000,1000,108828951,1579,1579,1579,1579
82383700,1000,1000,1000,1000,108928911,1580,1579,1580,1580
82386199,1000,1000,1000,1000,109028871,1580,1580,1581,1581
82388698,1000,1000,1000,1000,109128831,1580,1581,1582,1582
82391197,1000,1000,1000,1000,109228791,1580,1580,1582,1582
82393696,1000,1000,1000,1000,109328751,1580,1580,1582,1581
82396195,1000,1000,1000,1000,109428711,1580,1581,1582,1581
82398694,1000,1000,1000,1000,109528671,1580,1580,1581,1581
82401193,1000,1000,1000,1000,109628631,1581,1580,1581,1581
82403692,1000,1000,1000,1000,109728591,1581,1580,1580,1581
82406191,1000,1000,1000,1000,109828551,1582,1581,1581,1582
82408690,1000,1000,1000,1000,109928511,1581,1581,1580,1581
82411189,1000,1000,1000,1000,110028471,1581,1581,1581,1580
82413688,1000,1000,1000,1000,110128431,1581,1582,1584,1577
82416187,1000,1000,1000,1000,110228391,1581,1583,1587,1572
82418686,1000,1000,1000,1000,110328351,1579,1583,1580,1572
82421185,1000,1000,1000,1000,110428311,1578,1581,1571,1571
82423684,1000,1000,1000,1000,110528271,1577,1579,1564,1569
82426183,1000,1000,1000,1000,110628231,1577,1578,1558,1565
82428682,1000,1000,1000,1000,110728191,1579,1579,1555,1561
82431181,1000,1000,1000,1000,110828984,1581,1579,1555,1557
82433680,1000,1000,1000,1000,110928944,1581,1580,1555,1555
82436179,1000,1000,1000,1000,111028904,1580,1578,1555,1553
82438678,1000,1000,1000,1000,111128864,1579,1579,1555,1553
82441177,1000,1000,1000,1000,111228824,1579,1579,1556,1554
82443676,1000,1000,1000,1000,111328784,1577,1579,1556,1555
82446175,1000,1000,1000,1000,111428744,1575,1578,1554,1554
82448674,1000,1000,1000,1000,111528704,1576,1577,1553,1553
82451173,1000,1000,1000,1000,111628664,1577,1578,1552,1552
82453672,1000,1000,1000,1000,111728624,1579,1579,1550,1550
82456171,1000,1000,1000,1000,111828584,1581,1581,1548,1548
82458670,1000,1000,1000,1000,111928544,1583,1584,1546,1546
82461169,1000,1000,1000,1000,112028504,1585,1586,1543,1543
82463668,1000,1000,1000,1000,112128464,1587,1588,1541,1541
82466167,1000,1000,1000,1000,112228424,1589,1590,1540,1539
82468666,1000,1000,1000,1000,112328384,1591,1592,1538,1538
82471165,1000,1000,1000,1000,112428344,1594,1594,1537,1539
82473664,1000,1000,1000,1000,112528304,1594,1594,1538,1540
82476163,1000,1000,1000,1000,112628264,1593,1593,1540,1542
82478662,1000,1000,1000,1000,112728224,1591,1588,1545,1548
82481161,1000,1000,1000,1000,112828184,1585,1582,1552,1555
82483660,1000,1000,1000,1000,112928977,1578,1574,1562,1564
82486159,1000,1000,1000,1000,113028937,1568,1564,1573,1575
82488658,1000,1000,1000,1000,113128897,1557,1554,1585,1586
82491157,1000,1000,1000,1000,113228857,1548,1546,1596,1596
82493656,1000,1000,1000,1000,113328817,1541,1540,1605,1605
82496155,1000,1000,1000,1000,113428777,1535,1536,1611,1609
82498654,1000,1000,1000,1000,113528737,1532,1534,1613,1611
82501153,1000,1000,1000,1000,113628697,1535,1537,1612,1611
82503652,1000,1000,1000,1000,113728657,1540,1542,1609,1608
82506151,1000,1000,1000,1000,113828617,1547,1549,1604,1604
82508650,1000,1000,1000,1000,113928577,1553,1554,1598,1597
82511149,1000,1000,1000,1000,114028537,1561,1561,1591,1590
82513648,1000,1000,1000,1000,114128497,1569,1569,1584,1584
82516147,1000,1000,1000,1000,114228457,1575,1575,1578,1578
82518646,1000,1000,1000,1000,114328417,1580,1579,1573,1572
82521145,1000,1000,1000,1000,114428377,1583,1582,1569,1569
82523644,1000,1000,1000,1000,114528337,1586,1584,1567,1567
82526143,1000,1000,1000,1000,114628297,1587,1586,1567,1568
82528642,1000,1000,1000,1000,114728257,1585,1584,1567,1568
82531141,1000,1000,1000,1000,114828217,1584,1583,1569,1570
82533640,1000,1000,1000,1000,114928177,1581,1581,1572,1573
82536139,1000,1000,1000,1000,115028970,1579,1580,1576,1575
82538638,1000,1000,1000,1000,115128930,1577,1577,1578,1578
82541137,1000,1000,1000,1000,115228890,1576,1576,1581,1581
82543636,1000,1000,1000,1000,115328850,1574,1574,1582,1582
82546135,1000,1000,1000,1000,115428810,1573,1574,1584,1584
82548634,1000,1000,1000,1000,115528770,1573,1574,1584,1584
82551133,1000,1000,1000,1000,115628730,1574,1574,1584,1584
82553632,1000,1000,1000,1000,115728690,1574,1574,1583,1583
82556131,1000,1000,1000,1000,115828650,1576,1576,1582,1582
82558630,1000,1000,1000,1000,115928610,1577,1578,1581,1582
82561129,1000,1000,1000,1000,116028570,1579,1579,1581,1581
82563628,1000,1000,1000,1000,116128530,1580,1580,1579,1579
82566127,1000,1000,1000,1000,116228490,1581,1581,1579,1579
82568626,1000,1000,1000,1000,116328450,1582,1581,1578,1578
82571125,1000,1000,1000,1000,116428410,1581,1581,1577,1577
82573624,1000,1000,1000,1000,116528370,1582,1581,1577,1578
82576123,1000,1000,1000,1000,116628330,1581,1580,1577,1577
82578622,1000,1000,1000,1000,116728290,1581,1581,1578,1578
82581121,1000,1000,1000,1000,116828250,1580,1581,1578,1578
82583620,1000,1000,1000,1000,116928210,1580,1580,1579,1579
82586119,1000,1000,1000,1000,117028170,1580,1580,1580,1580
82588618,1000,1000,1000,1000,117128963,1581,1581,1581,1581
82591117,1000,1000,1000,1000,117228923,1580,1581,1582,1581
82593616,1000,1000,1000,1000,117328883,1579,1579,1581,1581
82596115,1000,1000,1000,1000,117428843,1579,1579,1581,1581
82598614,1000,1000,1000,1000,117528803,1579,1579,1581,1581
82601113,1000,1000,1000,1000,117628763,1579,1579,1581,1581
82603612,1000,1000,1000,1000,117728723,1581,1581,1581,1582
82606111,1000,1000,1000,1000,117828683,1581,1582,1582,1582
82608610,1000,1000,1000,1000,117928643,1582,1581,1582,1581
82611109,1000,1000,1000,1000,118028603,1581,1582,1584,1576
82613608,1000,1000,1000,1000,118128563,1582,1583,1588,1573
82616107,1000,1000,1000,1000,118228523,1580,1580,1582,1574
82618606,1000,1000,1000,1000,118328483,1577,1577,1575,1576
82621105,1000,1000,1000,1000,118428443,1574,1574,1570,1576
82623604,1000,1000,1000,1000,118528403,1571,1570,1567,1574
82626103,1000,1000,1000,1000,118628363,1569,1568,1566,1571
82628602,1000,1000,1000,1000,118728323,1567,1567,1565,1568
82631101,1000,1000,1000,1000,118828283,1567,1567,1567,1567
82633600,1000,1000,1000,1000,118928243,1566,1566,1568,1565
82636099,1000,1000,1000,1000,119028203,1566,1566,1567,1564
82638598,1000,1000,1000,1000,119128163,1565,1565,1567,1564
82641097,1000,1000,1000,1000,119228956,1564,1564,1566,1564
82643596,1000,1000,1000,1000,119328916,1563,1563,1564,1564
82646095,1000,1000,1000,1000,119428876,1563,1562,1563,1563
82648594,1000,1000,1000,1000,119528836,1562,1561,1562,1562
82651093,1000,1000,1000,1000,119628796,1561,1561,1562,1561
82653592,1000,1000,1000,1000,119728756,1561,1561,1561,1561
82656091,1000,1000,1000,1000,119828716,1560,1560,1561,1560
82658590,1000,1000,1000,1000,119928676,1559,1559,1559,1559
82661089,1000,1000,1000,1000,120028636,1558,1558,1559,1558
82663588,1000,1000,1000,1000,120128596,1558,1558,1558,1557
82666087,1000,1000,1000,1000,120228556,1558,1558,1558,1557
82668586,1000,1000,1000,1000,120328516,1557,1556,1557,1556
82671085,1000,1000,1000,1000,120428476,1558,1557,1558,1557
82673584,1000,1000,1000,1000,120528436,1557,1557,1557,1556
82676083,1000,1000,1000,1000,120628396,1557,1557,1558,1556
82678582,1000,1000,1000,1000,120728356,1558,1558,1560,1557
82681081,1000,1000,1000,1000,120828316,1559,1559,1560,1558
82683580,1000,1000,1000,1000,120928276,1559,1560,1558,1561
82686079,1000,1000,1000,1000,121028236,1560,1560,1557,1563
82688578,1000,1000,1000,1000,121128196,1562,1562,1558,1565
82691077,1000,1000,1000,1000,121228156,1562,1562,1560,1565
82693576,1000,1000,1000,1000,121328949,1563,1563,1561,1563
82696075,1000,1000,1000,1000,121428909,1561,1561,1560,1561
82698574,1000,1000,1000,1000,121528869,1558,1558,1558,1558
82701073,1000,1000,1000,1000,121628829,1553,1553,1554,1553
82703572,1000,1000,1000,1000,121728789,1547,1548,1548,1547
82706071,1000,1000,1000,1000,121828749,1541,1541,1542,1542
82708570,1000,1000,1000,1000,121928709,1534,1533,1534,1535
82711069,1000,1000,1000,1000,122028669,1527,1527,1527,1529
82713568,1000,1000,1000,1000,122128629,1521,1522,1522,1523
82716067,1000,1000,1000,1000,122228589,1519,1519,1519,1520
82718566,1000,1000,1000,1000,122328549,1520,1521,1520,1521
82721065,1000,1000,1000,1000,122428509,1523,1523,1522,1522
82723564,1000,1000,1000,1000,122528469,1525,1525,1524,1524
82726063,1000,1000,1000,1000,122628429,1529,1529,1528,1528
82728562,1000,1000,1000,1000,122728389,1533,1534,1532,1533
82731061,1000,1000,1000,1000,122828349,1538,1538,1537,1537
82733560,1000,1000,1000,1000,122928309,1540,1540,1539,1539
82736059,1000,1000,1000,1000,123028269,1542,1542,1541,1541
82738558,1000,1000,1000,1000,123128229,1544,1544,1544,1543
82741057,1000,1000,1000,1000,123228189,1546,1546,1546,1546
82743556,1000,1000,1000,1000,123328982,1546,1546,1546,1546
82746055,1000,1000,1000,1000,123428942,1546,1546,1547,1546
82748554,1000,1000,1000,1000,123528902,1546,1546,1547,1547
82751053,1000,1000,1000,1000,123628862,1546,1546,1547,1547
82753552,1000,1000,1000,1000,123728822,1547,1547,1547,1548
82756051,1000,1000,1000,1000,123828782,1545,1545,1546,1546
82758550,1000,1000,1000,1000,123928742,1545,1546,1546,1546
82761049,1000,1000,1000,1000,124028702,1545,1546,1546,1545
82763548,1000,1000,1000,1000,124128662,1546,1546,1546,1546
82766047,1000,1000,1000,1000,124228622,1545,1545,1545,1545
82768546,1000,1000,1000,1000,124328582,1545,1545,1545,1545
82771045,1000,1000,1000,1000,124428542,1545,1545,1545,1544
82773544,1000,1000,1000,1000,124528502,1546,1545,1545,1545
82776043,1000,1000,1000,1000,124628462,1544,1544,1544,1544
82778542,1000,1000,1000,1000,124728422,1544,1544,1544,1544
82781041,1000,1000,1000,1000,124828382,1544,1544,1544,1544
82783540,1000,1000,1000,1000,124928342,1544,1544,1544,1544
82786039,1000,1000,1000,1000,125028302,1543,1543,1542,1542
82788538,1000,1000,1000,1000,125128262,1543,1543,1543,1543
82791037,1000,1000,1000,1000,125228222,1544,1544,1544,1544
82793536,1000,1000,1000,1000,125328182,1543,1543,1543,1543
82796035,1000,1000,1000,1000,125428975,1544,1544,1544,1544
82798534,1000,1000,1000,1000,125528935,1544,1544,1544,1544
82801033,1000,1000,1000,1000,125628895,1544,1543,1544,1543
82803532,1000,1000,1000,1000,125728855,1544,1544,1544,1544
82806031,1000,1000,1000,1000,125828815,1544,1544,1544,1544
82808530,1000,1000,1000,1000,125928775,1544,1544,1544,1544
82811029,1000,1000,1000,1000,126028735,1543,1544,1543,1544
82813528,1000,1000,1000,1000,126128695,1544,1544,1544,1544
82816027,1000,1000,1000,1000,126228655,1543,1543,1543,1543
82818526,1000,1000,1000,1000,126328615,1543,1543,1543,1544
82821025,1000,1000,1000,1000,126428575,1544,1544,1544,1544
82823524,1000,1000,1000,1000,126528535,1544,1543,1543,1544
82826023,1000,1000,1000,1000,126628495,1543,1543,1543,1543
82828522,1000,1000,1000,1000,126728455,1543,1543,1543,1543
82831021,1000,1000,1000,1000,126828415,1543,1544,1543,1543
82833520,1000,1000,1000,1000,126928375,1543,1543,1543,1543
82836019,1000,1000,1000,1000,127028335,1545,1544,1544,1544
82838518,1000,1000,1000,1000,127128295,1545,1544,1545,1544
82841017,1000,1000,1000,1000,127228255,1544,1545,1544,1544
82843516,1000,1000,1000,1000,127328215,1545,1545,1545,1545
82846015,1000,1000,1000,1000,127428175,1544,1544,1544,1544
82848514,1000,1000,1000,1000,127528968,1545,1544,1545,1545
82851013,1000,1000,1000,1000,127628928,1544,1544,1545,1544
82853512,1000,1000,1000,1000,127728888,1544,1544,1544,1544
82856011,1000,1000,1000,1000,127828848,1544,1545,1544,1544
82858510,1000,1000,1000,1000,127928808,1544,1544,1544,1544
82861009,1000,1000,1000,1000,128028768,1544,1544,1545,1544
82863508,1000,1000,1000,1000,128128728,1545,1545,1544,1545
82866007,1000,1000,1000,1000,128228688,1544,1545,1544,1545
82868506,1000,1000,1000,1000,128328648,1544,1544,1544,1544
82871005,1000,1000,1000,1000,128428608,1544,1544,1544,1544
82873504,1000,1000,1000,1000,128528568,1545,1544,1545,1545
82876003,1000,1000,1000,1000,128628528,1544,1544,1544,1544
82878502,1000,1000,1000,1000,128728488,1544,1544,1544,1544
82881001,1000,1000,1000,1000,128828448,1544,1545,1545,1544
82883500,1000,1000,1000,1000,128928408,1544,1543,1544,1544
82885999,1000,1000,1000,1000,129028368,1544,1543,1543,1544
82888498,1000,1000,1000,1000,129128328,1545,1544,1544,1544
82890997,1000,1000,1000,1000,129228288,1544,1544,1544,1544
82893496,1000,1000,1000,1000,129328248,1545,1545,1545,1545
82895995,1000,1000,1000,1000,129428208,1544,1544,1544,1544
82898494,1000,1000,1000,1000,129528168,1545,1544,1544,1545
82900993,1000,1000,1000,1000,129628961,1544,1545,1545,1544
82903492,1000,1000,1000,1000,129728921,1545,1545,1545,1544
82905991,1000,1000,1000,1000,129828881,1544,1543,1544,1544
82908490,1000,1000,1000,1000,129928841,1545,1544,1544,1545
82910989,1000,1000,1000,1000,130028801,1544,1543,1544,1543
82913488,1000,1000,1000,1000,130128761,1544,1544,1544,1544
82915987,1000,1000,1000,1000,130228721,1544,1545,1544,1545
82918486,1000,1000,1000,1000,130328681,1544,1544,1544,1545
82920985,1000,1000,1000,1000,130428641,1544,1545,1544,1544
82923484,1000,1000,1000,1000,130528601,1545,1545,1544,1545
82925983,1000,1000,1000,1000,130628561,1544,1544,1544,1544
82928482,1000,1000,1000,1000,130728521,1545,1545,1544,1545
82930981,1000,1000,1000,1000,130828481,1544,1545,1545,1544
82933480,1000,1000,1000,1000,130928441,1545,1544,1544,1544
82935979,1000,1000,1000,1000,131028401,1544,1544,1544,1544
82938478,1000,1000,1000,1000,131128361,1545,1545,1545,1545
82940977,1000,1000,1000,1000,131228321,1545,1545,1545,1545
82943476,1000,1000,1000,1000,131328281,1544,1543,1544,1544
82945975,1000,1000,1000,1000,131428241,1544,1544,1544,1544
82948474,1000,1000,1000,1000,131528201,1544,1543,1543,1544
82950973,1000,1000,1000,1000,131628161,1544,1544,1544,1544
82953472,1000,1000,1000,1000,131728954,1544,1544,1544,1544
82955971,1000,1000,1000,1000,131828914,1544,1544,1544,1544
82958470,1000,1000,1000,1000,131928874,1424,1423,1436,1424
82960969,1000,1000,1000,1000,132028834,1277,1276,1309,1276
82963468,1000,1000,1000,1000,132128794,1220,1218,1262,1219
82965967,1000,1000,1000,1000,132228754,1197,1197,1245,1197
82968466,1000,1000,1000,1000,132328714,1160,1158,1216,1159
82970965,1000,1000,1000,1000,132428674,1151,1150,1210,1150
82973464,1000,1000,1000,1000,132528634,1151,1150,1210,1150
82975963,1000,1000,1000,1000,132628594,1153,1150,1210,1152
82978462,1000,1000,1000,1000,132728554,1193,1150,1209,1194
82980961,1000,1000,1000,1000,132828514,1180,1150,1209,1180
82983460,1000,1000,1000,1000,132928474,1177,1150,1210,1177
82985959,1000,1000,1000,1000,133028434,1178,1150,1210,1178
82988458,1000,1000,1000,1000,133128394,1181,1150,1210,1181
82990957,1000,1000,1000,1000,133228354,1184,1150,1210,1183
82993456,1000,1000,1000,1000,133328314,1186,1150,1210,1186
82995955,1000,1000,1000,1000,133428274,1166,1150,1210,1166
82998454,1000,1000,1000,1000,133528234,1170,1150,1210,1170
83000953,1000,1000,1000,1000,133628194,1172,1150,1210,1171
83003452,1000,1000,1000,1000,133728154,1173,1150,1210,1172
83005951,1000,1000,1000,1000,133828947,1174,1150,1210,1173
83008450,1000,1000,1000,1000,133928907,1150,1150,1076,1150
83010949,1000,1000,1000,1000,134028867,1000,1000,1000,1000
83013448,1000,1000,1000,1000,134128827,1000,1000,1000,1000
83015947,1000,1000,1000,1000,134228787,1000,1000,1000,1000
83018446,1000,1000,1000,1000,134328747,1000,1000,1000,1000
83020945,1000,1000,1000,1000,134428707,1000,1000,1000,1000
83023444,1000,1000,1000,1000,134528667,1000,1000,1000,1000
83025943,1000,1000,1000,1000,134628627,1000,1000,1000,1000
83028442,1000,1000,1000,1000,134728587,1000,1000,1000,1000
83030941,1000,1000,1000,1000,134828547,1000,1000,1000,1000
83033440,1000,1000,1000,1000,134928507,1000,1000,1000,1000
83035939,1000,1000,1000,1000,135028467,1000,1000,1000,1000
83038438,1000,1000,1000,1000,135128427,1000,1000,1000,1000
83040937,1000,1000,1000,1000,135228387,1000,1000,1000,1000
83043436,1000,1000,1000,1000,135328347,1000,1000,1000,1000
83045935,1000,1000,1000,1000,135428307,1000,1000,1000,1000
83048434,1000,1000,1000,1000,135528267,1000,1000,1000,1000
83050933,1000,1000,1000,1000,135628227,1000,1000,1000,1000
83053432,1000,1000,1000,1000,135728187,1000,1000,1000,1000
83055931,1000,1000,1000,1000,135828980,1000,1000,1000,1000
83058430,1000,1000,1000,1000,135928940,1000,1000,1000,1000
83060929,1000,1000,1000,1000,136028900,1000,1000,1000,1000
83063428,1000,1000,1000,1000,136128860,1000,1000,1000,1000
83065927,1000,1000,1000,1000,136228820,1000,1000,1000,1000
83068426,1000,1000,1000,1000,136328780,1000,1000,1000,1000
83070925,1000,1000,1000,1000,136428740,1000,1000,1000,1000
83073424,1000,1000,1000,1000,136528700,1000,1000,1000,1000
83075923,1000,1000,1000,1000,136628660,1000,1000,1000,1000
83078422,1000,1000,1000,1000,136728620,1000,1000,1000,1000
83080921,1000,1000,1000,1000,136828580,1000,1000,1000,1000
83083420,1000,1000,1000,1000,136928540,1000,1000,1000,1000
83085919,1000,1000,1000,1000,137028500,1000,1000,1000,1000
83088418,1000,1000,1000,1000,137128460,1000,1000,1000,1000
83090917,1000,1000,1000,1000,137228420,1000,1000,1000,1000
83093416,1000,1000,1000,1000,137328380,1000,1000,1000,1000
83095915,1000,1000,1000,1000,137428340,1000,1000,1000,1000
83098414,1000,1000,1000,1000,137528300,1000,1000,1000,1000
83100913,1000,1000,1000,1000,137628260,1000,1000,1000,1000
83103412,1000,1000,1000,1000,137728220,1000,1000,1000,1000
83105911,1000,1000,1000,1000,137828180,1000,1000,1000,1000
83108410,1000,1000,1000,1000,137928973,1000,1000,1000,1000
83110909,1000,1000,1000,1000,138028933,1000,1000,1000,1000
83113408,1000,1000,1000,1000,138128893,1000,1000,1000,1000
83115907,1000,1000,1000,1000,138228853,1000,1000,1000,1000
83118406,1000,1000,1000,1000,138328813,1000,1000,1000,1000
83120905,1000,1000,1000,1000,138428773,1000,1000,1000,1000
83123404,1000,1000,1000,1000,138528733,1000,1000,1000,1000
83125903,1000,1000,1000,1000,138628693,1000,1000,1000,1000
83128402,1000,1000,1000,1000,138728653,1000,1000,1000,1000
83130901,1000,1000,1000,1000,138828613,1000,1000,1000,1000
83133400,1000,1000,1000,1000,138928573,1000,1000,1000,1000
83135899,1000,1000,1000,1000,139028533,1000,1000,1000,1000
83138398,1000,1000,1000,1000,139128493,1000,1000,1000,1000
83140897,1000,1000,1000,1000,139228453,1000,1000,1000,1000
83143396,1000,1000,1000,1000,139328413,1000,1000,1000,1000
83145895,1000,1000,1000,1000,139428373,1000,1000,1000,1000
83148394,1000,1000,1000,1000,139528333,1000,1000,1000,1000
83150893,1000,1000,1000,1000,139628293,1000,1000,1000,1000
83153392,1000,1000,1000,1000,139728253,1000,1000,1000,1000
83155891,1000,1000,1000,1000,139828213,1000,1000,1000,1000
83158390,1000,1000,1000,1000,139928173,1000,1000,1000,1000
83160889,1000,1000,1000,1000,140028966,1000,1000,1000,1000
83163388,1000,1000,1000,1000,140128926,1000,1000,1000,1000
83165887,1000,1000,1000,1000,140228886,1000,1000,1000,1000
83168386,1000,1000,1000,1000,140328846,1000,1000,1000,1000
83170885,1000,1000,1000,1000,140428806,1000,1000,1000,1000
83173384,1000,1000,1000,1000,140528766,1000,1000,1000,1000
83175883,1000,1000,1000,1000,140628726,1000,1000,1000,1000
83178382,1000,1000,1000,1000,140728686,1000,1000,1000,1000
83180881,1000,1000,1000,1000,140828646,1000,1000,1000,1000
83183380,1000,1000,1000,1000,140928606,1000,1000,1000,1000
83185879,1000,1000,1000,1000,141028566,1000,1000,1000,1000
83188378,1000,1000,1000,1000,141128526,1000,1000,1000,1000
83190877,1000,1000,1000,1000,141228486,1000,1000,1000,1000
83193376,1000,1000,1000,1000,141328446,1000,1000,1000,1000
83195875,1000,1000,1000,1000,141428406,1000,1000,1000,1000
83198374,1000,1000,1000,1000,141528366,1000,1000,1000,1000
83200873,1000,1000,1000,1000,141628326,1000,1000,1000,1000
83203372,1000,1000,1000,1000,141728286,1000,1000,1000,1000
83205871,1000,1000,1000,1000,141828246,1000,1000,1000,1000
83208370,1000,1000,1000,1000,141928206,1000,1000,1000,1000
83210869,1000,1000,1000,1000,142028166,1000,1000,1000,1000
83213368,1000,1000,1000,1000,142128959,1000,1000,1000,1000
83215867,1000,1000,1000,1000,142228919,1000,1000,1000,1000
83218366,1000,1000,1000,1000,142328879,1000,1000,1000,1000
83220865,1000,1000,1000,1000,142428839,1000,1000,1000,1000
83223364,1000,1000,1000,1000,142528799,1000,1000,1000,1000
83225863,1000,1000,1000,1000,142628759,1000,1000,1000,1000
83228362,1000,1000,1000,1000,142728719,1000,1000,1000,1000
83230861,1000,1000,1000,1000,142828679,1000,1000,1000,1000
83233360,1000,1000,1000,1000,142928639,1000,1000,1000,1000
83235859,1000,1000,1000,1000,143028599,1000,1000,1000,1000
83238358,1000,1000,1000,1000,143128559,1000,1000,1000,1000
83240857,1000,1000,1000,1000,143228519,1000,1000,1000,1000
83243356,1000,1000,1000,1000,143328479,1000,1000,1000,1000
83245855,1000,1000,1000,1000,143428439,1000,1000,1000,1000
83248354,1000,1000,1000,1000,143528399,1000,1000,1000,1000
83250853,1000,1000,1000,1000,143628359,1000,1000,1000,1000
83253352,1000,1000,1000,1000,143728319,1000,1000,1000,1000
83255851,1000,1000,1000,1000,143828279,1000,1000,1000,1000
83258350,1000,1000,1000,1000,143928239,1000,1000,1000,1000
83260849,1000,1000,1000,1000,144028199,1000,1000,1000,1000
83263348,1000,1000,1000,1000,144128159,1000,1000,1000,1000
83265847,1000,1000,1000,1000,144228952,1000,1000,1000,1000
83268346,1000,1000,1000,1000,144328912,1000,1000,1000,1000
83270845,1000,1000,1000,1000,144428872,1000,1000,1000,1000
83273344,1000,1000,1000,1000,144528832,1000,1000,1000,1000
83275843,1000,1000,1000,1000,144628792,1000,1000,1000,1000
83278342,1000,1000,1000,1000,144728752,1000,1000,1000,1000
83280841,1000,1000,1000,1000,144828712,1000,1000,1000,1000
83283340,1000,1000,1000,1000,144928672,1000,1000,1000,1000
83285839,1000,1000,1000,1000,145028632,1000,1000,1000,1000
83288338,1000,1000,1000,1000,145128592,1000,1000,1000,1000
83290837,1000,1000,1000,1000,145228552,1000,1000,1000,1000
83293336,1000,1000,1000,1000,145328512,1000,1000,1000,1000
83295835,1000,1000,1000,1000,145428472,1000,1000,1000,1000
83298334,1000,1000,1000,1000,145528432,1000,1000,1000,1000
83300833,1000,1000,1000,1000,145628392,1000,1000,1000,1000
83303332,1000,1000,1000,1000,145728352,1000,1000,1000,1000
83305831,1000,1000,1000,1000,145828312,1000,1000,1000,1000
83308330,1000,1000,1000,1000,145928272,1000,1000,1000,1000
83310829,1000,1000,1000,1000,146028232,1000,1000,1000,1000
83313328,1000,1000,1000,1000,146128192,1000,1000,1000,1000
83315827,1000,1000,1000,1000,146228985,1000,1000,1000,1000
83318326,1000,1000,1000,1000,146328945,1000,1000,1000,1000
83320825,1000,1000,1000,1000,146428905,1000,1000,1000,1000
83323324,1000,1000,1000,1000,146528865,1000,1000,1000,1000
83325823,1000,1000,1000,1000,146628825,1000,1000,1000,1000
83328322,1000,1000,1000,1000,146728785,1000,1000,1000,1000
83330821,1000,1000,1000,1000,146828745,1000,1000,1000,1000
83333320,1000,1000,1000,1000,146928705,1000,1000,1000,1000
83335819,1000,1000,1000,1000,147028665,1000,1000,1000,1000
83338318,1000,1000,1000,1000,147128625,1000,1000,1000,1000
83340817,1000,1000,1000,1000,147228585,1000,1000,1000,1000
83343316,1000,1000,1000,1000,147328545,1000,1000,1000,1000
83345815,1000,1000,1000,1000,147428505,1000,1000,1000,1000
83348314,1000,1000,1000,1000,147528465,1000,1000,1000,1000
83350813,1000,1000,1000,1000,147628425,1000,1000,1000,1000
83353312,1000,1000,1000,1000,147728385,1000,1000,1000,1000
83355811,1000,1000,1000,1000,147828345,1000,1000,1000,1000
83358310,1000,1000,1000,1000,147928305,1000,1000,1000,1000
83360809,1000,1000,1000,1000,148028265,1000,1000,1000,1000
83363308,1000,1000,1000,1000,148128225,1000,1000,1000,1000
83365807,1000,1000,1000,1000,148228185,1000,1000,1000,1000
83368306,1000,1000,1000,1000,148328978,1000,1000,1000,1000
83370805,1000,1000,1000,1000,148428938,1000,1000,1000,1000
83373304,1000,1000,1000,1000,148528898,1000,1000,1000,1000
83375803,1000,1000,1000,1000,148628858,1000,1000,1000,1000
83378302,1000,1000,1000,1000,148728818,1000,1000,1000,1000
83380801,1000,1000,1000,1000,148828778,1000,1000,1000,1000
83383300,1000,1000,1000,1000,,,,,
83385799,1000,1000,1000,1000,,,,,
83388298,1000,1000,1000,1000,,,,,
83390797,1000,1000,1000,1000,,,,,
83393296,1000,1000,1000,1000,,,,,
83395795,1000,1000,1000,1000,,,,,
83398294,1000,1000,1000,1000,,,,,
83400793,1000,1000,1000,1000,,,,,
83403292,1000,1000,1000,1000,,,,,
83405791,1000,1000,1000,1000,,,,,
83408290,1000,1000,1000,1000,,,,,
83410789,1000,1000,1000,1000,,,,,
83413288,1000,1000,1000,1000,,,,,
83415787,1000,1000,1000,1000,,,,,
83418286,1000,1000,1000,1000,,,,,
83420785,1000,1000,1000,1000,,,,,
83423284,1000,1000,1000,1000,,,,,
83425783,1000,1000,1000,1000,,,,,
83428282,1000,1000,1000,1000,,,,,
83430781,1000,1000,1000,1000,,,,,
83433280,1000,1000,1000,1000,,,,,
83435779,1000,1000,1000,1000,,,,,
83438278,1000,1000,1000,1000,,,,,
83440777,1000,1000,1000,1000,,,,,
83443276,1000,1000,1000,1000,,,,,
83445775,1000,1000,1000,1000,,,,,
83448274,1000,1000,1000,1000,,,,,
83450773,1000,1000,1000,1000,,,,,
83453272,1000,1000,1000,1000,,,,,
83455771,1000,1000,1000,1000,,,,,
83458270,1000,1000,1000,1000,,,,,
83460769,1000,1000,1000,1000,,,,,
83463268,1000,1000,1000,1000,,,,,
83465767,1000,1000,1000,1000,,,,,
83468266,1000,1000,1000,1000,,,,,
83470765,1000,1000,1000,1000,,,,,
83473264,1000,1000,1000,1000,,,,,
83475763,1000,1000,1000,1000,,,,,
83478262,1000,1000,1000,1000,,,,,
83480761,1000,1000,1000,1000,,,,,
83483260,1000,1000,1000,1000,,,,,
83485759,1000,1000,1000,1000,,,,,
83488258,1000,1000,1000,1000,,,,,
83490757,1000,1000,1000,1000,,,,,
83493256,1000,1000,1000,1000,,,,,
83495755,1000,1000,1000,1000,,,,,
83498254,1000,1000,1000,1000,,,,,
83500753,1000,1000,1000,1000,,,,,
83503252,1000,1000,1000,1000,,,,,
83505751,1000,1000,1000,1000,,,,,
83508250,1000,1000,1000,1000,,,,,
83510749,1000,1000,1000,1000,,,,,
83513248,1000,1000,1000,1000,,,,,
83515747,1000,1000,1000,1000,,,,,
83518246,1000,1000,1000,1000,,,,,
83520745,1000,1000,1000,1000,,,,,
83523244,1000,1000,1000,1000,,,,,
83525743,1000,1000,1000,1000,,,,,
83528242,1000,1000,1000,1000,,,,,
83530741,1000,1000,1000,1000,,,,,
83533240,1000,1000,1000,1000,,,,,
83535739,1000,1000,1000,1000,,,,,
83538238,1000,1000,1000,1000,,,,,
83540737,1000,1000,1000,1000,,,,,
83543236,1000,1000,1000,1000,,,,,
83545735,1000,1000,1000,1000,,,,,
83548234,1000,1000,1000,1000,,,,,
83550733,1000,1000,1000,1000,,,,,
83553232,1000,1000,1000,1000,,,,,
83555731,1000,1000,1000,1000,,,,,
83558230,1000,1000,1000,1000,,,,,
83560729,1000,1000,1000,1000,,,,,
83563228,1000,1000,1000,1000,,,,,
83565727,1000,1000,1000,1000,,,,,
83568226,1000,1000,1000,1000,,,,,
83570725,1000,1000,1000,1000,,,,,
83573224,1000,1000,1000,1000,,,,,
83575723,1000,1000,1000,1000,,,,,
83578222,1000,1000,1000,1000,,,,,
83580721,1000,1000,1000,1000,,,,,
83583220,1000,1000,1000,1000,,,,,
83585719,1000,1000,1000,1000,,,,,
83588218,1000,1000,1000,1000,,,,,
83590717,1000,1000,1000,1000,,,,,
83593216,1000,1000,1000,1000,,,,,
83595715,1000,1000,1000,1000,,,,,
83598214,1000,1000,1000,1000,,,,,
83600713,1000,1000,1000,1000,,,,,
83603212,1000,1000,1000,1000,,,,,
83605711,1000,1000,1000,1000,,,,,
83608210,1000,1000,1000,1000,,,,,
83610709,1000,1000,1000,1000,,,,,
83613208,1000,1000,1000,1000,,,,,
83615707,1000,1000,1000,1000,,,,,
83618206,1000,1000,1000,1000,,,,,
83620705,1000,1000,1000,1000,,,,,
83623204,1000,1000,1000,1000,,,,,
83625703,1000,1000,1000,1000,,,,,
83628202,1000,1000,1000,1000,,,,,
83630701,1000,1000,1000,1000,,,,,
83633200,1000,1000,1000,1000,,,,,
83635699,1000,1000,1000,1000,,,,,
83638198,1000,1000,1000,1000,,,,,
83640697,1000,1000,1000,1000,,,,,
83643196,1000,1000,1000,1000,,,,,
83645695,1000,1000,1000,1000,,,,,
83648194,1000,1000,1000,1000,,,,,
83650693,1000,1000,1000,1000,,,,,
83653192,1000,1000,1000,1000,,,,,
83655691,1000,1000,1000,1000,,,,,
83658190,1000,1000,1000,1000,,,,,
83660689,1000,1000,1000,1000,,,,,
83663188,1000,1000,1000,1000,,,,,
83665687,1000,1000,1000,1000,,,,,
83668186,1000,1000,1000,1000,,,,,
83670685,1000,1000,1000,1000,,,,,
83673184,1000,1000,1000,1000,,,,,
83675683,1000,1000,1000,1000,,,,,
83678182,1000,1000,1000,1000,,,,,
83680681,1000,1000,1000,1000,,,,,
83683180,1000,1000,1000,1000,,,,,
83685679,1000,1000,1000,1000,,,,,
83688178,1000,1000,1000,1000,,,,,
83690677,1000,1000,1000,1000,,,,,
83693176,1000,1000,1000,1000,,,,,
83695675,1000,1000,1000,1000,,,,,
83698174,1000,1000,1000,1000,,,,,
83700673,1000,1000,1000,1000,,,,,
83703172,1000,1000,1000,1000,,,,,
83705671,1000,1000,1000,1000,,,,,
83708170,1000,1000,1000,1000,,,,,
83710669,1001,1001,1001,1001,,,,,
83713168,1002,1002,1002,1002,,,,,
83715667,1003,1003,1003,1003,,,,,
83718166,1003,1003,1003,1003,,,,,
83720665,1004,1004,1004,1004,,,,,
83723164,1005,1005,1005,1005,,,,,
83725663,1006,1006,1006,1006,,,,,
83728162,1006,1006,1006,1006,,,,,
83730661,1007,1007,1007,1007,,,,,
83733160,1008,1008,1008,1008,,,,,
83735659,1009,1009,1009,1009,,,,,
83738158,1009,1009,1009,1009,,,,,
83740657,1010,1010,1010,1010,,,,,
83743156,1011,1011,1011,1011,,,,,
83745655,1012,1012,1012,1012,,,,,
83748154,1012,1012,1012,1012,,,,,
83751486,1013,1013,1013,1013,,,,,
83753985,1014,1014,1014,1014,,,,,
83756484,1015,1015,1015,1015,,,,,
83758983,1015,1015,1015,1015,,,,,
83761482,1016,1016,1016,1016,,,,,
83763981,1017,1017,1017,1017,,,,,
83766480,1018,1018,1018,1018,,,,,
83768979,1018,1018,1018,1018,,,,,
83771478,1019,1019,1019,1019,,,,,
83773977,1020,1020,1020,1020,,,,,
83776476,1021,1021,1021,1021,,,,,
83778975,1021,1021,1021,1021,,,,,
83781474,1022,1022,1022,1022,,,,,
83783973,1023,1023,1023,1023,,,,,
83786472,1024,1024,1024,1024,,,,,
83788971,1024,1024,1024,1024,,,,,
83791470,1025,1025,1025,1025,,,,,
83793969,1026,1026,1026,1026,,,,,
83796468,1027,1027,1027,1027,,,,,
83798967,1027,1027,1027,1027,,,,,
83801466,1028,1028,1028,1028,,,,,
83803965,1029,1029,1029,1029,,,,,
83806464,1030,1030,1030,1030,,,,,
83808963,1030,1030,1030,1030,,,,,
83811462,1031,1031,1031,1031,,,,,
83813961,1032,1032,1032,1032,,,,,
83816460,1033,1033,1033,1033,,,,,
83818959,1033,1033,1033,1033,,,,,
83821458,1034,1034,1034,1034,,,,,
83823957,1035,1035,1035,1035,,,,,
83826456,1036,1036,1036,1036,,,,,
83828955,1036,1036,1036,1036,,,,,
83831454,1037,1037,1037,1037,,,,,
83833953,1038,1038,1038,1038,,,,,
83836452,1039,1039,1039,1039,,,,,
83838951,1039,1039,1039,1039,,,,,
83841450,1040,1040,1040,1040,,,,,
83843949,1041,1041,1041,1041,,,,,
83846448,1042,1042,1042,1042,,,,,
83848947,1042,1042,1042,1042,,,,,
83851446,1043,1043,1043,1043,,,,,
83853945,1044,1044,1044,1044,,,,,
83856444,1045,1045,1045,1045,,,,,
83858943,1045,1045,1045,1045,,,,,
83861442,1046,1046,1046,1046,,,,,
83863941,1047,1047,1047,1047,,,,,
83866440,1048,1048,1048,1048,,,,,
83868939,1048,1048,1048,1048,,,,,
83871438,1049,1049,1049,1049,,,,,
83873937,1050,1050,1050,1050,,,,,
83876436,1051,1051,1051,1051,,,,,
83878935,1051,1051,1051,1051,,,,,
83881434,1052,1052,1052,1052,,,,,
83883933,1053,1053,1053,1053,,,,,
83886432,1054,1054,1054,1054,,,,,
83888931,1054,1054,1054,1054,,,,,
83891430,1055,1055,1055,1055,,,,,
83893929,1056,1056,1056,1056,,,,,
83896428,1057,1057,1057,1057,,,,,
83898927,1057,1057,1057,1057,,,,,
83901426,1058,1058,1058,1058,,,,,
83903925,1059,1059,1059,1059,,,,,
83906424,1060,1060,1060,1060,,,,,
83908923,1060,1060,1060,1060,,,,,
83911422,1061,1061,1061,1061,,,,,
83913921,1062,1062,1062,1062,,,,,
83916420,1063,1063,1063,1063,,,,,
83918919,1063,1063,1063,1063,,,,,
83921418,1064,1064,1064,1064,,,,,
83923917,1065,1065,1065,1065,,,,,
83926416,1066,1066,1066,1066,,,,,
83928915,1066,1066,1066,1066,,,,,
83931414,1067,1067,1067,1067,,,,,
83933913,1068,1068,1068,1068,,,,,
83936412,1069,1069,1069,1069,,,,,
83938911,1069,1069,1069,1069,,,,,
83941410,1070,1070,1070,1070,,,,,
83943909,1071,1071,1071,1071,,,,,
83946408,1072,1072,1072,1072,,,,,
83948907,1072,1072,1072,1072,,,,,
83951406,1073,1073,1073,1073,,,,,
83953905,1074,1074,1074,1074,,,,,
83956404,1075,1075,1075,1075,,,,,
83958903,1075,1075,1075,1075,,,,,
83961402,1076,1076,1076,1076,,,,,
83963901,1077,1077,1077,1077,,,,,
83966400,1078,1078,1078,1078,,,,,
83968899,1078,1078,1078,1078,,,,,
83971398,1079,1079,1079,1079,,,,,
83973897,1080,1080,1080,1080,,,,,
83976396,1081,1081,1081,1081,,,,,
83978895,1081,1081,1081,1081,,,,,
83981394,1082,1082,1082,1082,,,,,
83983893,1083,1083,1083,1083,,,,,
83986392,1084,1084,1084,1084,,,,,
83988891,1084,1084,1084,1084,,,,,
83991390,1085,1085,1085,1085,,,,,
83993889,1086,1086,1086,1086,,,,,
83996388,1087,1087,1087,1087,,,,,
83998887,1087,1087,1087,1087,,,,,
84001386,1088,1088,1088,1088,,,,,
84003885,1089,1089,1089,1089,,,,,
84006384,1090,1090,1090,1090,,,,,
84008883,1090,1090,1090,1090,,,,,
84011382,1091,1091,1091,1091,,,,,
84013881,1092,1092,1092,1092,,,,,
84016380,1093,1093,1093,1093,,,,,
84018879,1093,1093,1093,1093,,,,,
84021378,1094,1094,1094,1094,,,,,
84023877,1095,1095,1095,1095,,,,,
84026376,1096,1096,1096,1096,,,,,
84028875,1096,1096,1096,1096,,,,,
84031374,1097,1097,1097,1097,,,,,
84033873,1098,1098,1098,1098,,,,,
84036372,1099,1099,1099,1099,,,,,
84038871,1099,1099,1099,1099,,,,,
84041370,1100,1100,1100,1100,,,,,
84043869,1101,1101,1101,1101,,,,,
84046368,1101,1101,1101,1101,,,,,
84048867,1102,1102,1102,1102,,,,,
84051366,1103,1103,1103,1103,,,,,
84053865,1104,1104,1104,1104,,,,,
84056364,1104,1104,1104,1104,,,,,
84058863,1105,1105,1105,1105,,,,,
84061362,1106,1106,1106,1106,,,,,
84063861,1107,1107,1107,1107,,,,,
84066360,1107,1107,1107,1107,,,,,
84068859,1108,1108,1108,1108,,,,,
84071358,1109,1109,1109,1109,,,,,
84073857,1110,1110,1110,1110,,,,,
84076356,1110,1110,1110,1110,,,,,
84078855,1111,1111,1111,1111,,,,,
84081354,1112,1112,1112,1112,,,,,
84083853,1113,1113,1113,1113,,,,,
84086352,1113,1113,1113,1113,,,,,
84088851,1114,1114,1114,1114,,,,,
84091350,1115,1115,1115,1115,,,,,
84093849,1116,1116,1116,1116,,,,,
84096348,1116,1116,1116,1116,,,,,
84098847,1117,1117,1117,1117,,,,,
84101346,1118,1118,1118,1118,,,,,
84103845,1119,1119,1119,1119,,,,,
84106344,1119,1119,1119,1119,,,,,
84108843,1120,1120,1120,1120,,,,,
84111342,1121,1121,1121,1121,,,,,
84113841,1122,1122,1122,1122,,,,,
84116340,1122,1122,1122,1122,,,,,
84118839,1123,1123,1123,1123,,,,,
84121338,1124,1124,1124,1124,,,,,
84123837,1125,1125,1125,1125,,,,,
84126336,1125,1125,1125,1125,,,,,
84128835,1126,1126,1126,1126,,,,,
84131334,1127,1127,1127,1127,,,,,
84133833,1128,1128,1128,1128,,,,,
84136332,1128,1128,1128,1128,,,,,
84138831,1129,1129,1129,1129,,,,,
84141330,1130,1130,1130,1130,,,,,
84143829,1131,1131,1131,1131,,,,,
84146328,1131,1131,1131,1131,,,,,
84148827,1132,1132,1132,1132,,,,,
84151326,1133,1133,1133,1133,,,,,
84153825,1134,1134,1134,1134,,,,,
84156324,1134,1134,1134,1134,,,,,
84158823,1135,1135,1135,1135,,,,,
84161322,1136,1136,1136,1136,,,,,
84163821,1137,1137,1137,1137,,,,,
84166320,1137,1137,1137,1137,,,,,
84168819,1138,1138,1138,1138,,,,,
84171318,1139,1139,1139,1139,,,,,
84173817,1140,1140,1140,1140,,,,,
84176316,1140,1140,1140,1140,,,,,
84178815,1141,1141,1141,1141,,,,,
84181314,1142,1142,1142,1142,,,,,
84183813,1143,1143,1143,1143,,,,,
84186312,1143,1143,1143,1143,,,,,
84188811,1144,1144,1144,1144,,,,,
84191310,1145,1145,1145,1145,,,,,
84193809,1146,1146,1146,1146,,,,,
84196308,1146,1146,1146,1146,,,,,
84198807,1147,1147,1147,1147,,,,,
84201306,1148,1148,1148,1148,,,,,
84203805,1149,1149,1149,1149,,,,,
84206304,1149,1149,1149,1149,,,,,
84208803,1150,1150,1150,1150,,,,,
84211302,1164,1151,1152,1165,,,,,
84213801,1172,1159,1160,1172,,,,,
84216300,1180,1167,1168,1180,,,,,
84218799,1187,1175,1176,1188,,,,,
84221298,1195,1182,1183,1195,,,,,
84223797,1202,1190,1191,1203,,,,,
84226296,1209,1198,1198,1210,,,,,
84228795,1217,1205,1206,1217,,,,,
84231294,1224,1212,1213,1224,,,,,
84233793,1231,1219,1220,1231,,,,,
84236292,1238,1226,1227,1238,,,,,
84238791,1244,1233,1234,1245,,,,,
84241290,1251,1240,1241,1252,,,,,
84243789,1258,1247,1247,1258,,,,,
84246288,1264,1253,1254,1265,,,,,
84248787,1270,1260,1260,1271,,,,,
84251286,1277,1266,1267,1277,,,,,
84253785,1283,1273,1273,1284,,,,,
84256284,1289,1279,1280,1290,,,,,
84258783,1295,1285,1286,1296,,,,,
84261282,1301,1291,1292,1302,,,,,
84263781,1307,1297,1298,1308,,,,,
84266280,1313,1303,1304,1314,,,,,
84268779,1319,1309,1310,1320,,,,,
84271278,1325,1315,1316,1326,,,,,
84273777,1331,1321,1322,1331,,,,,
84276276,1337,1327,1327,1337,,,,,
84278775,1342,1332,1333,1343,,,,,
84281274,1348,1338,1339,1348,,,,,
84283773,1353,1344,1344,1354,,,,,
84286272,1359,1349,1350,1359,,,,,
84288771,1364,1355,1355,1365,,,,,
84291270,1370,1360,1361,1370,,,,,
84293769,1375,1366,1366,1376,,,,,
84296268,1380,1371,1371,1381,,,,,
84298767,1386,1376,1377,1386,,,,,
84301266,1391,1381,1382,1391,,,,,
84303765,1396,1387,1387,1397,,,,,
84306264,1401,1392,1392,1402,,,,,
84308763,1406,1397,1398,1407,,,,,
84311262,1411,1402,1403,1412,,,,,
84313761,1416,1407,1408,1417,,,,,
84316260,1421,1412,1413,1422,,,,,
84318759,1426,1417,1418,1427,,,,,
84321258,1431,1422,1423,1432,,,,,
84323757,1436,1427,1427,1436,,,,,
84326256,1441,1432,1432,1441,,,,,
84328755,1446,1437,1437,1446,,,,,
84331254,1450,1441,1442,1451,,,,,
84333753,1455,1446,1447,1456,,,,,
84336252,1460,1451,1451,1460,,,,,
84338751,1464,1456,1456,1465,,,,,
84341250,1469,1460,1461,1470,,,,,
84343749,1474,1465,1465,1474,,,,,
84346248,1478,1470,1470,1479,,,,,
84348747,1483,1474,1475,1483,,,,,
84351246,1487,1479,1479,1488,,,,,
84353745,1492,1483,1484,1492,,,,,
84356244,1496,1488,1488,1497,,,,,
84358743,1501,1492,1493,1501,,,,,
84361242,1505,1497,1497,1506,,,,,
84363741,1509,1501,1502,1510,,,,,
84366240,1514,1505,1506,1514,,,,,
84368739,1518,1510,1510,1519,,,,,
84371238,1523,1514,1515,1523,,,,,
84373737,1527,1519,1519,1527,,,,,
84376236,1531,1523,1523,1532,,,,,
84378735,1535,1527,1528,1536,,,,,
84381234,1540,1531,1532,1540,,,,,
84383733,1544,1536,1536,1544,,,,,
84386232,1548,1540,1540,1548,,,,,
84388731,1552,1544,1544,1553,,,,,
84391230,1556,1548,1549,1557,,,,,
84393729,1560,1552,1553,1561,,,,,
84396228,1564,1556,1557,1565,,,,,
84398727,1568,1561,1561,1569,,,,,
84401226,1572,1565,1565,1573,,,,,
84403725,1576,1569,1569,1577,,,,,
84406224,1580,1573,1573,1581,,,,,
84408723,1584,1577,1577,1585,,,,,
84411222,1588,1581,1581,1589,,,,,
84413721,1592,1585,1585,1593,,,,,
84416220,1596,1589,1589,1597,,,,,
84418719,1600,1593,1593,1601,,,,,
84421218,1604,1596,1597,1605,,,,,
84423717,1608,1600,1601,1609,,,,,
84426216,1612,1604,1605,1612,,,,,
84428715,1616,1608,1608,1616,,,,,
84431214,1620,1612,1612,1620,,,,,
84433713,1623,1616,1616,1624,,,,,
84436212,1627,1620,1620,1628,,,,,
84438711,1631,1623,1624,1632,,,,,
84441210,1635,1627,1628,1635,,,,,
84443709,1639,1631,1631,1639,,,,,
84446208,1642,1635,1635,1643,,,,,
84448707,1646,1638,1639,1647,,,,,
84451206,1650,1642,1642,1650,,,,,
84453705,1653,1646,1646,1654,,,,,
84456204,1657,1649,1650,1658,,,,,
84458703,1661,1653,1653,1661,,,,,
84461202,1664,1657,1657,1665,,,,,
84463701,1668,1660,1661,1669,,,,,
84466200,1672,1664,1664,1672,,,,,
84468699,1675,1668,1668,1676,,,,,
84471198,1679,1671,1672,1679,,,,,
84473697,1682,1675,1675,1683,,,,,
84476196,1686,1678,1679,1687,,,,,
84478695,1690,1682,1682,1690,,,,,
84481194,1693,1685,1686,1694,,,,,
84483693,1697,1689,1689,1697,,,,,
84486192,1700,1692,1693,1701,,,,,
84488691,1704,1696,1696,1704,,,,,
84491190,1707,1699,1700,1708,,,,,
84493689,1711,1703,1703,1711,,,,,
84496188,1714,1706,1707,1715,,,,,
84498687,1718,1710,1710,1718,,,,,
84501186,1721,1713,1714,1721,,,,,
84503685,1724,1717,1717,1725,,,,,
84506184,1728,1720,1721,1728,,,,,
84508683,1731,1723,1724,1732,,,,,
84511182,1735,1727,1727,1735,,,,,
84513681,1738,1730,1731,1738,,,,,
84516180,1741,1734,1734,1742,,,,,
84518679,1745,1737,1737,1745,,,,,
84521178,1748,1740,1741,1748,,,,,
84523677,1751,1744,1744,1752,,,,,
84526176,1755,1747,1747,1755,,,,,
84528675,1758,1750,1751,1758,,,,,
84531174,1761,1754,1754,1762,,,,,
84533673,1765,1757,1757,1765,,,,,
84536172,1768,1760,1761,1768,,,,,
84538671,1771,1763,1764,1771,,,,,
84541170,1774,1767,1767,1775,,,,,
84543669,1778,1770,1770,1778,,,,,
84546168,1781,1773,1774,1781,,,,,
84548667,1784,1776,1777,1784,,,,,
84551166,1787,1780,1780,1788,,,,,
84553665,1791,1783,1783,1791,,,,,
84556164,1794,1786,1787,1794,,,,,
84558663,1797,1789,1790,1797,,,,,
84561162,1800,1792,1793,1800,,,,,
84563661,1803,1796,1796,1803,,,,,
84566160,1806,1799,1799,1807,,,,,
84568659,1810,1802,1802,1810,,,,,
84571158,1813,1805,1806,1813,,,,,
84573657,1816,1808,1809,1816,,,,,
84576156,1819,1811,1812,1819,,,,,
84578655,1822,1814,1815,1822,,,,,
84581154,1825,1817,1818,1825,,,,,
84583653,1828,1820,1821,1828,,,,,
84586152,1831,1824,1824,1831,,,,,
84588651,1834,1827,1827,1835,,,,,
84591150,1838,1830,1830,1838,,,,,
84593649,1841,1833,1833,1841,,,,,
84596148,1844,1836,1836,1844,,,,,
84598647,1847,1839,1840,1847,,,,,
84601146,1850,1842,1843,1850,,,,,
84603645,1853,1845,1846,1853,,,,,
84606144,1856,1848,1849,1856,,,,,
84608643,1859,1851,1852,1859,,,,,
84611142,1862,1854,1855,1862,,,,,
84613641,1865,1857,1858,1865,,,,,
84616140,1868,1860,1861,1868,,,,,
84618639,1871,1863,1864,1871,,,,,
84621138,1874,1866,1866,1874,,,,,
84623637,1877,1869,1869,1877,,,,,
84626136,1880,1872,1872,1880,,,,,
84628635,1883,1875,1875,1883,,,,,
84631134,1885,1878,1878,1886,,,,,
84633633,1888,1881,1881,1889,,,,,
84636132,1891,1883,1884,1891,,,,,
84638631,1894,1886,1887,1894,,,,,
84641130,1897,1889,1890,1897,,,,,
84643629,1900,1892,1893,1900,,,,,
84646128,1903,1895,1896,1903,,,,,
84648627,1906,1898,1899,1906,,,,,
84651126,1909,1901,1901,1909,,,,,
84653625,1912,1904,1904,1912,,,,,
84656124,1912,1904,1905,1912,,,,,
84658623,1911,1903,1904,1911,,,,,
84661122,1910,1902,1903,1911,,,,,
84663621,1910,1902,1902,1910,,,,,
84666120,1909,1901,1901,1909,,,,,
84668619,1908,1900,1901,1908,,,,,
84671118,1907,1899,1900,1908,,,,,
84673617,1907,1899,1899,1907,,,,,
84676116,1906,1898,1899,1906,,,,,
84678615,1906,1898,1898,1906,,,,,
84681114,1905,1897,1898,1905,,,,,
84683613,1905,1897,1897,1905,,,,,
84686112,1904,1896,1897,1905,,,,,
84688611,1904,1896,1897,1905,,,,,
84691110,1904,1896,1896,1904,,,,,
84693609,1904,1896,1896,1904,,,,,
84696108,1904,1896,1896,1904,,,,,
84698607,1904,1896,1896,1904,,,,,
84701106,1904,1896,1896,1904,,,,,
84703605,1904,1896,1897,1904,,,,,
84706104,1904,1897,1897,1904,,,,,
84708603,1903,1897,1897,1904,,,,,
84711102,1903,1897,1897,1904,,,,,
84713601,1903,1897,1897,1904,,,,,
84716100,1903,1897,1897,1903,,,,,
84718599,1902,1897,1897,1903,,,,,
84721098,1902,1896,1896,1903,,,,,
84723597,1901,1896,1896,1902,,,,,
84726096,1901,1895,1895,1901,,,,,
84728595,1900,1894,1895,1900,,,,,
84731094,1899,1893,1894,1899,,,,,
84733593,1897,1892,1893,1898,,,,,
84736092,1896,1891,1891,1897,,,,,
84738591,1894,1890,1890,1895,,,,,
84741090,1893,1888,1888,1894,,,,,
84743589,1891,1886,1887,1892,,,,,
84746088,1889,1885,1885,1890,,,,,
84748587,1887,1883,1883,1888,,,,,
84751086,1885,1881,1881,1886,,,,,
84753585,1883,1878,1879,1883,,,,,
84756084,1880,1876,1876,1881,,,,,
84758583,1878,1874,1874,1878,,,,,
84761082,1875,1871,1871,1876,,,,,
84763581,1873,1869,1869,1873,,,,,
84766080,1870,1866,1866,1870,,,,,
84768579,1867,1863,1864,1868,,,,,
84771078,1864,1860,1861,1865,,,,,
84773577,1861,1858,1858,1862,,,,,
84776076,1858,1855,1855,1859,,,,,
84778575,1855,1852,1852,1856,,,,,
84781074,1852,1849,1849,1853,,,,,
84783573,1849,1846,1846,1849,,,,,
84786072,1846,1842,1843,1846,,,,,
84788571,1843,1839,1840,1843,,,,,
84791070,1839,1836,1837,1840,,,,,
84793569,1836,1833,1834,1836,,,,,
84796068,1833,1830,1830,1833,,,,,
84798567,1829,1827,1827,1830,,,,,
84801066,1826,1823,1824,1826,,,,,
84803565,1822,1820,1820,1823,,,,,
84806064,1819,1817,1817,1819,,,,,
84808563,1816,1813,1814,1816,,,,,
84811062,1812,1810,1810,1813,,,,,
84813561,1809,1807,1807,1809,,,,,
84816060,1805,1803,1804,1806,,,,,
84818559,1802,1800,1800,1802,,,,,
84821058,1798,1797,1797,1799,,,,,
84823557,1795,1793,1794,1795,,,,,
84826056,1792,1790,1790,1792,,,,,
84828555,1788,1787,1787,1788,,,,,
84831054,1785,1783,1784,1785,,,,,
84833553,1781,1780,1781,1782,,,,,
84836052,1778,1777,1777,1778,,,,,
84838551,1775,1773,1774,1775,,,,,
84841050,1771,1770,1771,1772,,,,,
84843549,1768,1767,1768,1768,,,,,
84846048,1765,1764,1764,1765,,,,,
84848547,1762,1761,1761,1762,,,,,
84851046,1759,1758,1758,1759,,,,,
84853545,1755,1754,1755,1755,,,,,
84856044,1752,1751,1752,1752,,,,,
84858543,1749,1748,1749,1749,,,,,
84861042,1746,1745,1746,1746,,,,,
84863541,1743,1742,1743,1743,,,,,
84866040,1740,1739,1740,1740,,,,,
84868539,1737,1736,1737,1737,,,,,
84871038,1734,1733,1734,1734,,,,,
84873537,1731,1731,1732,1731,,,,,
84876036,1728,1728,1729,1728,,,,,
84878535,1725,1725,1726,1725,,,,,
84881034,1722,1722,1723,1722,,,,,
84883533,1720,1720,1720,1720,,,,,
84886032,1717,1717,1718,1717,,,,,
