timestamp,TimeUS,C1,C2,C3,C4,C5,C6,C7,C8,C9,C10,C11,C12,C13,C14
1681039580.63998413,1058468943,1000,1000,1000,1000,0,0,0,0,0,0,0,0,0,0
1681039580.73994398,1058568903,1000,1000,1000,1000,0,0,0,0,0,0,0,0,0,0
1681039580.83990407,1058668863,1000,1000,1000,1000,0,0,0,0,0,0,0,0,0,0
1681039580.93986392,1058768823,1000,1000,1000,1000,0,0,0,0,0,0,0,0,0,0
1681039581.03982401,1058868783,1000,1000,1000,1000,0,0,0,0,0,0,0,0,0,0
1681039581.13978410,1058968743,1000,1000,1000,1000,0,0,0,0,0,0,0,0,0,0
1681039581.23974395,1059068703,1000,1000,1000,1000,0,0,0,0,0,0,0,0,0,0
1681039581.33970404,1059168663,1000,1000,1000,1000,0,0,0,0,0,0,0,0,0,0
1681039581.43966413,1059268623,1000,1000,1000,1000,0,0,0,0,0,0,0,0,0,0
1681039581.53962398,1059368583,1000,1000,1000,1000,0,0,0,0,0,0,0,0,0,0
1681039581.63958406,1059468543,1000,1000,1000,1000,0,0,0,0,0,0,0,0,0,0
1681039581.73954391,1059568503,1000,1000,1000,1000,0,0,0,0,0,0,0,0,0,0
1681039581.83950400,1059668463,1000,1000,1000,1000,0,0,0,0,0,0,0,0,0,0
1681039581.93946409,1059768423,1000,1000,1000,1000,0,0,0,0,0,0,0,0,0,0
1681039582.03942394,1059868383,1000,1000,1000,1000,0,0,0,0,0,0,0,0,0,0
1681039582.13938403,1059968343,1000,1000,1000,1000,0,0,0,0,0,0,0,0,0,0
1681039582.23934412,1060068303,1000,1000,1000,1000,0,0,0,0,0,0,0,0,0,0
1681039582.33930397,1060168263,1000,1000,1000,1000,0,0,0,0,0,0,0,0,0,0
1681039582.43926406,1060268223,1000,1000,1000,1000,0,0,0,0,0,0,0,0,0,0
1681039582.53922391,1060368183,1000,1000,1000,1000,0,0,0,0,0,0,0,0,0,0
1681039582.64001703,1060468976,1027,1027,1027,1027,0,0,0,0,0,0,0,0,0,0
1681039582.73997712,1060568936,1057,1057,1057,1057,0,0,0,0,0,0,0,0,0,0
1681039582.83993697,1060668896,1087,1087,1087,1087,0,0,0,0,0,0,0,0,0,0
1681039582.93989706,1060768856,1116,1116,1116,1116,0,0,0,0,0,0,0,0,0,0
1681039583.03985691,1060868816,1146,1146,1146,1146,0,0,0,0,0,0,0,0,0,0
1681039583.13981700,1060968776,1371,1382,1380,1370,0,0,0,0,0,0,0,0,0,0
1681039583.23977709,1061068736,1557,1566,1564,1556,0,0,0,0,0,0,0,0,0,0
1681039583.33973694,1061168696,1707,1715,1714,1706,0,0,0,0,0,0,0,0,0,0
1681039583.43969703,1061268656,1836,1845,1843,1836,0,0,0,0,0,0,0,0,0,0
1681039583.53965712,1061368616,1836,1844,1843,1835,0,0,0,0,0,0,0,0,0,0
1681039583.63961697,1061468576,1815,1818,1817,1813,0,0,0,0,0,0,0,0,0,0
1681039583.73957705,1061568536,1689,1688,1688,1687,0,0,0,0,0,0,0,0,0,0
1681039583.83953691,1061668496,1621,1619,1617,1621,0,0,0,0,0,0,0,0,0,0
1681039583.93949699,1061768456,1616,1613,1612,1616,0,0,0,0,0,0,0,0,0,0
1681039584.03945708,1061868416,1634,1632,1631,1635,0,0,0,0,0,0,0,0,0,0
1681039584.13941693,1061968376,1645,1643,1643,1645,0,0,0,0,0,0,0,0,0,0
1681039584.23937702,1062068336,1643,1642,1643,1643,0,0,0,0,0,0,0,0,0,0
1681039584.33933711,1062168296,1635,1636,1637,1635,0,0,0,0,0,0,0,0,0,0
1681039584.43929696,1062268256,1616,1618,1615,1621,0,0,0,0,0,0,0,0,0,0
1681039584.53925705,1062368216,1605,1606,1599,1614,0,0,0,0,0,0,0,0,0,0
1681039584.63921690,1062468176,1603,1603,1599,1609,0,0,0,0,0,0,0,0,0,0
1681039584.74001002,1062568969,1603,1604,1603,1606,0,0,0,0,0,0,0,0,0,0
1681039584.83997011,1062668929,1608,1608,1610,1606,0,0,0,0,0,0,0,0,0,0
1681039584.93992996,1062768889,1614,1613,1617,1610,0,0,0,0,0,0,0,0,0,0
1681039585.03989005,1062868849,1591,1590,1605,1576,0,0,0,0,0,0,0,0,0,0
1681039585.13984990,1062968809,1578,1577,1593,1560,0,0,0,0,0,0,0,0,0,0
1681039585.23980999,1063068769,1567,1567,1573,1559,0,0,0,0,0,0,0,0,0,0
1681039585.33977008,1063168729,1555,1556,1550,1559,0,0,0,0,0,0,0,0,0,0
1681039585.43972993,1063268689,1546,1547,1534,1557,0,0,0,0,0,0,0,0,0,0
1681039585.53969002,1063368649,1539,1539,1527,1551,0,0,0,0,0,0,0,0,0,0
1681039585.63965011,1063468609,1534,1533,1525,1542,0,0,0,0,0,0,0,0,0,0
1681039585.73960996,1063568569,1529,1529,1526,1532,0,0,0,0,0,0,0,0,0,0
1681039585.83957005,1063668529,1528,1528,1529,1528,0,0,0,0,0,0,0,0,0,0
1681039585.93952990,1063768489,1529,1529,1532,1528,0,0,0,0,0,0,0,0,0,0
1681039586.03948998,1063868449,1532,1532,1536,1530,0,0,0,0,0,0,0,0,0,0
1681039586.13945007,1063968409,1535,1536,1540,1532,0,0,0,0,0,0,0,0,0,0
1681039586.23940992,1064068369,1540,1540,1543,1537,0,0,0,0,0,0,0,0,0,0
1681039586.33937001,1064168329,1543,1543,1545,1542,0,0,0,0,0,0,0,0,0,0
1681039586.43933010,1064268289,1547,1547,1547,1547,0,0,0,0,0,0,0,0,0,0
1681039586.53928995,1064368249,1548,1548,1546,1549,0,0,0,0,0,0,0,0,0,0
1681039586.63925004,1064468209,1549,1544,1554,1557,0,0,0,0,0,0,0,0,0,0
1681039586.73921013,1064568169,1538,1538,1569,1573,0,0,0,0,0,0,0,0,0,0
1681039586.84000301,1064668962,1543,1545,1569,1571,0,0,0,0,0,0,0,0,0,0
1681039586.93996310,1064768922,1551,1554,1566,1566,0,0,0,0,0,0,0,0,0,0
1681039587.03992295,1064868882,1560,1562,1563,1562,0,0,0,0,0,0,0,0,0,0
1681039587.13988304,1064968842,1567,1568,1558,1557,0,0,0,0,0,0,0,0,0,0
1681039587.23984313,1065068802,1573,1572,1556,1556,0,0,0,0,0,0,0,0,0,0
1681039587.33980298,1065168762,1577,1575,1556,1556,0,0,0,0,0,0,0,0,0,0
1681039587.43976307,1065268722,1578,1576,1556,1556,0,0,0,0,0,0,0,0,0,0
1681039587.53972292,1065368682,1578,1577,1558,1558,0,0,0,0,0,0,0,0,0,0
1681039587.63968301,1065468642,1578,1577,1562,1563,0,0,0,0,0,0,0,0,0,0
1681039587.73964310,1065568602,1577,1576,1566,1566,0,0,0,0,0,0,0,0,0,0
1681039587.83960295,1065668562,1574,1574,1569,1570,0,0,0,0,0,0,0,0,0,0
1681039587.93956304,1065768522,1573,1573,1573,1573,0,0,0,0,0,0,0,0,0,0
1681039588.03952312,1065868482,1570,1571,1575,1574,0,0,0,0,0,0,0,0,0,0
1681039588.13948298,1065968442,1571,1571,1579,1577,0,0,0,0,0,0,0,0,0,0
1681039588.23944306,1066068402,1570,1570,1580,1578,0,0,0,0,0,0,0,0,0,0
1681039588.33940291,1066168362,1570,1570,1580,1579,0,0,0,0,0,0,0,0,0,0
1681039588.43936300,1066268322,1570,1571,1580,1579,0,0,0,0,0,0,0,0,0,0
1681039588.53932309,1066368282,1572,1572,1579,1579,0,0,0,0,0,0,0,0,0,0
1681039588.63928294,1066468242,1573,1573,1578,1579,0,0,0,0,0,0,0,0,0,0
1681039588.73924303,1066568202,1573,1574,1576,1577,0,0,0,0,0,0,0,0,0,0
1681039588.83920312,1066668162,1575,1575,1576,1576,0,0,0,0,0,0,0,0,0,0
1681039588.93999600,1066768955,1576,1576,1575,1575,0,0,0,0,0,0,0,0,0,0
1681039589.03995609,1066868915,1577,1577,1575,1575,0,0,0,0,0,0,0,0,0,0
1681039589.13991594,1066968875,1579,1579,1576,1575,0,0,0,0,0,0,0,0,0,0
1681039589.23987603,1067068835,1579,1579,1575,1575,0,0,0,0,0,0,0,0,0,0
1681039589.33983612,1067168795,1580,1579,1576,1576,0,0,0,0,0,0,0,0,0,0
1681039589.43979597,1067268755,1579,1579,1576,1576,0,0,0,0,0,0,0,0,0,0
1681039589.53975606,1067368715,1579,1578,1576,1576,0,0,0,0,0,0,0,0,0,0
1681039589.63971591,1067468675,1578,1578,1577,1576,0,0,0,0,0,0,0,0,0,0
1681039589.73967600,1067568635,1578,1578,1577,1577,0,0,0,0,0,0,0,0,0,0
1681039589.83963609,1067668595,1577,1577,1577,1577,0,0,0,0,0,0,0,0,0,0
1681039589.93959594,1067768555,1577,1577,1577,1578,0,0,0,0,0,0,0,0,0,0
1681039590.03955603,1067868515,1577,1577,1579,1579,0,0,0,0,0,0,0,0,0,0
1681039590.13951612,1067968475,1578,1577,1579,1579,0,0,0,0,0,0,0,0,0,0
1681039590.23947597,1068068435,1577,1578,1579,1579,0,0,0,0,0,0,0,0,0,0
1681039590.33943605,1068168395,1578,1578,1579,1579,0,0,0,0,0,0,0,0,0,0
1681039590.43939590,1068268355,1579,1579,1581,1580,0,0,0,0,0,0,0,0,0,0
1681039590.53935599,1068368315,1579,1579,1579,1579,0,0,0,0,0,0,0,0,0,0
1681039590.63931608,1068468275,1579,1579,1579,1579,0,0,0,0,0,0,0,0,0,0
1681039590.73927593,1068568235,1579,1579,1579,1579,0,0,0,0,0,0,0,0,0,0
1681039590.83923602,1068668195,1580,1579,1579,1579,0,0,0,0,0,0,0,0,0,0
1681039590.93919611,1068768155,1580,1580,1579,1579,0,0,0,0,0,0,0,0,0,0
1681039591.03998899,1068868948,1580,1580,1580,1579,0,0,0,0,0,0,0,0,0,0
1681039591.13994908,1068968908,1580,1580,1580,1579,0,0,0,0,0,0,0,0,0,0
1681039591.23990893,1069068868,1580,1580,1579,1579,0,0,0,0,0,0,0,0,0,0
1681039591.33986902,1069168828,1579,1579,1578,1578,0,0,0,0,0,0,0,0,0,0
1681039591.43982911,1069268788,1580,1581,1580,1580,0,0,0,0,0,0,0,0,0,0
1681039591.53978896,1069368748,1580,1581,1580,1580,0,0,0,0,0,0,0,0,0,0
1681039591.63974905,1069468708,1580,1580,1580,1580,0,0,0,0,0,0,0,0,0,0
1681039591.73970890,1069568668,1581,1580,1580,1580,0,0,0,0,0,0,0,0,0,0
1681039591.83966899,1069668628,1580,1580,1580,1580,0,0,0,0,0,0,0,0,0,0
1681039591.93962908,1069768588,1580,1580,1580,1580,0,0,0,0,0,0,0,0,0,0
1681039592.03958893,1069868548,1580,1579,1580,1580,0,0,0,0,0,0,0,0,0,0
1681039592.13954902,1069968508,1580,1580,1581,1580,0,0,0,0,0,0,0,0,0,0
1681039592.23950911,1070068468,1580,1580,1580,1580,0,0,0,0,0,0,0,0,0,0
1681039592.33946896,1070168428,1580,1580,1581,1580,0,0,0,0,0,0,0,0,0,0
1681039592.43942904,1070268388,1580,1580,1580,1580,0,0,0,0,0,0,0,0,0,0
1681039592.53938890,1070368348,1580,1581,1580,1581,0,0,0,0,0,0,0,0,0,0
1681039592.63934898,1070468308,1581,1581,1581,1581,0,0,0,0,0,0,0,0,0,0
1681039592.73930907,1070568268,1581,1581,1581,1581,0,0,0,0,0,0,0,0,0,0
1681039592.83926892,1070668228,1581,1581,1580,1580,0,0,0,0,0,0,0,0,0,0
1681039592.93922901,1070768188,1582,1581,1586,1576,0,0,0,0,0,0,0,0,0,0
1681039593.04002190,1070868981,1580,1581,1587,1572,0,0,0,0,0,0,0,0,0,0
1681039593.13998199,1070968941,1579,1581,1580,1573,0,0,0,0,0,0,0,0,0,0
1681039593.23994207,1071068901,1577,1580,1571,1573,0,0,0,0,0,0,0,0,0,0
1681039593.33990192,1071168861,1575,1577,1563,1569,0,0,0,0,0,0,0,0,0,0
1681039593.43986201,1071268821,1575,1576,1558,1565,0,0,0,0,0,0,0,0,0,0
1681039593.53982210,1071368781,1577,1576,1557,1562,0,0,0,0,0,0,0,0,0,0
1681039593.63978195,1071468741,1577,1575,1556,1558,0,0,0,0,0,0,0,0,0,0
1681039593.73974204,1071568701,1575,1575,1556,1555,0,0,0,0,0,0,0,0,0,0
1681039593.83970213,1071668661,1575,1575,1557,1555,0,0,0,0,0,0,0,0,0,0
1681039593.93966198,1071768621,1574,1574,1557,1554,0,0,0,0,0,0,0,0,0,0
1681039594.03962207,1071868581,1573,1574,1557,1555,0,0,0,0,0,0,0,0,0,0
1681039594.13958192,1071968541,1572,1574,1556,1555,0,0,0,0,0,0,0,0,0,0
1681039594.23954201,1072068501,1572,1573,1555,1555,0,0,0,0,0,0,0,0,0,0
1681039594.33950210,1072168461,1572,1574,1554,1554,0,0,0,0,0,0,0,0,0,0
1681039594.43946195,1072268421,1573,1574,1552,1552,0,0,0,0,0,0,0,0,0,0
1681039594.53942204,1072368381,1574,1575,1550,1550,0,0,0,0,0,0,0,0,0,0
1681039594.63938212,1072468341,1576,1578,1548,1548,0,0,0,0,0,0,0,0,0,0
1681039594.73934197,1072568301,1578,1580,1546,1545,0,0,0,0,0,0,0,0,0,0
1681039594.83930206,1072668261,1581,1583,1543,1543,0,0,0,0,0,0,0,0,0,0
1681039594.93926191,1072768221,1584,1585,1540,1539,0,0,0,0,0,0,0,0,0,0
1681039595.03922200,1072868181,1587,1588,1537,1537,0,0,0,0,0,0,0,0,0,0
1681039595.14001513,1072968974,1591,1591,1535,1535,0,0,0,0,0,0,0,0,0,0
1681039595.23997498,1073068934,1593,1592,1534,1534,0,0,0,0,0,0,0,0,0,0
1681039595.33993506,1073168894,1594,1594,1534,1535,0,0,0,0,0,0,0,0,0,0
1681039595.43989491,1073268854,1593,1593,1534,1536,0,0,0,0,0,0,0,0,0,0
1681039595.53985500,1073368814,1592,1592,1536,1539,0,0,0,0,0,0,0,0,0,0
1681039595.63981509,1073468774,1590,1589,1541,1544,0,0,0,0,0,0,0,0,0,0
1681039595.73977494,1073568734,1585,1584,1547,1550,0,0,0,0,0,0,0,0,0,0
1681039595.83973503,1073668694,1578,1576,1555,1558,0,0,0,0,0,0,0,0,0,0
1681039595.93969512,1073768654,1571,1567,1565,1568,0,0,0,0,0,0,0,0,0,0
1681039596.03965497,1073868614,1561,1557,1577,1579,0,0,0,0,0,0,0,0,0,0
1681039596.13961506,1073968574,1550,1547,1589,1590,0,0,0,0,0,0,0,0,0,0
1681039596.23957491,1074068534,1540,1538,1599,1599,0,0,0,0,0,0,0,0,0,0
1681039596.33953500,1074168494,1533,1532,1607,1606,0,0,0,0,0,0,0,0,0,0
1681039596.43949509,1074268454,1530,1530,1612,1611,0,0,0,0,0,0,0,0,0,0
1681039596.53945494,1074368414,1530,1532,1614,1613,0,0,0,0,0,0,0,0,0,0
1681039596.63941503,1074468374,1534,1535,1612,1611,0,0,0,0,0,0,0,0,0,0
1681039596.73937511,1074568334,1540,1542,1608,1608,0,0,0,0,0,0,0,0,0,0
1681039596.83933496,1074668294,1547,1548,1601,1601,0,0,0,0,0,0,0,0,0,0
1681039596.93929505,1074768254,1555,1556,1593,1594,0,0,0,0,0,0,0,0,0,0
1681039597.03925490,1074868214,1565,1565,1587,1587,0,0,0,0,0,0,0,0,0,0
1681039597.13921499,1074968174,1572,1572,1580,1580,0,0,0,0,0,0,0,0,0,0
1681039597.24000812,1075068967,1579,1578,1576,1574,0,0,0,0,0,0,0,0,0,0
1681039597.33996797,1075168927,1584,1583,1571,1570,0,0,0,0,0,0,0,0,0,0
1681039597.43992805,1075268887,1587,1585,1569,1568,0,0,0,0,0,0,0,0,0,0
1681039597.53988791,1075368847,1588,1586,1567,1567,0,0,0,0,0,0,0,0,0,0
1681039597.63984799,1075468807,1586,1586,1567,1568,0,0,0,0,0,0,0,0,0,0
1681039597.73980808,1075568767,1585,1584,1569,1569,0,0,0,0,0,0,0,0,0,0
1681039597.83976793,1075668727,1583,1583,1572,1572,0,0,0,0,0,0,0,0,0,0
1681039597.93972802,1075768687,1580,1580,1574,1574,0,0,0,0,0,0,0,0,0,0
1681039598.03968811,1075868647,1578,1578,1577,1577,0,0,0,0,0,0,0,0,0,0
1681039598.13964796,1075968607,1575,1575,1579,1579,0,0,0,0,0,0,0,0,0,0
1681039598.23960805,1076068567,1574,1575,1582,1581,0,0,0,0,0,0,0,0,0,0
1681039598.33956790,1076168527,1573,1573,1583,1582,0,0,0,0,0,0,0,0,0,0
1681039598.43952799,1076268487,1573,1574,1584,1584,0,0,0,0,0,0,0,0,0,0
1681039598.53948808,1076368447,1572,1573,1583,1583,0,0,0,0,0,0,0,0,0,0
1681039598.63944793,1076468407,1573,1574,1582,1583,0,0,0,0,0,0,0,0,0,0
1681039598.73940802,1076568367,1575,1576,1582,1582,0,0,0,0,0,0,0,0,0,0
1681039598.83936810,1076668327,1576,1576,1581,1581,0,0,0,0,0,0,0,0,0,0
1681039598.93932796,1076768287,1579,1579,1581,1581,0,0,0,0,0,0,0,0,0,0
1681039599.03928804,1076868247,1580,1580,1580,1580,0,0,0,0,0,0,0,0,0,0
1681039599.13924789,1076968207,1582,1582,1580,1580,0,0,0,0,0,0,0,0,0,0
1681039599.23920798,1077068167,1582,1582,1579,1579,0,0,0,0,0,0,0,0,0,0
1681039599.34000111,1077168960,1584,1583,1580,1579,0,0,0,0,0,0,0,0,0,0
1681039599.43996096,1077268920,1583,1583,1579,1578,0,0,0,0,0,0,0,0,0,0
1681039599.53992105,1077368880,1583,1583,1579,1579,0,0,0,0,0,0,0,0,0,0
1681039599.63988090,1077468840,1582,1581,1578,1578,0,0,0,0,0,0,0,0,0,0
1681039599.73984098,1077568800,1581,1581,1579,1579,0,0,0,0,0,0,0,0,0,0
1681039599.83980107,1077668760,1581,1581,1580,1580,0,0,0,0,0,0,0,0,0,0
1681039599.93976092,1077768720,1585,1585,1464,1554,0,0,0,0,0,0,0,0,0,0
1681039600.03972101,1077868680,1604,1604,1533,1546,0,0,0,0,0,0,0,0,0,0
1681039600.13968110,1077968640,1616,1616,1585,1554,0,0,0,0,0,0,0,0,0,0
1681039600.23964095,1078068600,1627,1629,1626,1578,0,0,0,0,0,0,0,0,0,0
1681039600.33960104,1078168560,1628,1631,1647,1601,0,0,0,0,0,0,0,0,0,0
1681039600.43956113,1078268520,1617,1621,1648,1619,0,0,0,0,0,0,0,0,0,0
1681039600.53952098,1078368480,1599,1603,1633,1627,0,0,0,0,0,0,0,0,0,0
1681039600.63948107,1078468440,1583,1583,1616,1628,0,0,0,0,0,0,0,0,0,0
1681039600.73944092,1078568400,1570,1567,1600,1623,0,0,0,0,0,0,0,0,0,0
1681039600.83940101,1078668360,1563,1559,1591,1614,0,0,0,0,0,0,0,0,0,0
1681039600.93936110,1078768320,1560,1556,1588,1603,0,0,0,0,0,0,0,0,0,0
1681039601.03932095,1078868280,1562,1558,1587,1594,0,0,0,0,0,0,0,0,0,0
1681039601.13928103,1078968240,1565,1564,1593,1578,0,0,0,0,0,0,0,0,0,0
1681039601.23924112,1079068200,1567,1572,1589,1569,0,0,0,0,0,0,0,0,0,0
1681039601.33920097,1079168160,1569,1577,1577,1566,0,0,0,0,0,0,0,0,0,0
1681039601.43999410,1079268953,1572,1579,1564,1564,0,0,0,0,0,0,0,0,0,0
1681039601.53995395,1079368913,1574,1579,1552,1560,0,0,0,0,0,0,0,0,0,0
1681039601.63991404,1079468873,1578,1579,1544,1554,0,0,0,0,0,0,0,0,0,0
1681039601.73987412,1079568833,1582,1579,1539,1547,0,0,0,0,0,0,0,0,0,0
1681039601.83983397,1079668793,1584,1580,1538,1542,0,0,0,0,0,0,0,0,0,0
1681039601.93979406,1079768753,1584,1580,1538,1539,0,0,0,0,0,0,0,0,0,0
1681039602.03975391,1079868713,1583,1581,1540,1538,0,0,0,0,0,0,0,0,0,0
1681039602.13971400,1079968673,1581,1582,1543,1540,0,0,0,0,0,0,0,0,0,0
1681039602.23967409,1080068633,1579,1580,1545,1542,0,0,0,0,0,0,0,0,0,0
1681039602.33963394,1080168593,1576,1578,1545,1544,0,0,0,0,0,0,0,0,0,0
1681039602.43959403,1080268553,1575,1577,1547,1547,0,0,0,0,0,0,0,0,0,0
1681039602.53955412,1080368513,1574,1576,1547,1547,0,0,0,0,0,0,0,0,0,0
1681039602.63951397,1080468473,1575,1576,1547,1548,0,0,0,0,0,0,0,0,0,0
1681039602.73947406,1080568433,1576,1577,1546,1547,0,0,0,0,0,0,0,0,0,0
1681039602.83943391,1080668393,1578,1579,1546,1546,0,0,0,0,0,0,0,0,0,0
1681039602.93939400,1080768353,1580,1581,1543,1543,0,0,0,0,0,0,0,0,0,0
1681039603.03935409,1080868313,1584,1583,1542,1542,0,0,0,0,0,0,0,0,0,0
1681039603.13931394,1080968273,1585,1585,1540,1540,0,0,0,0,0,0,0,0,0,0
1681039603.23927402,1081068233,1587,1587,1539,1540,0,0,0,0,0,0,0,0,0,0
1681039603.33923411,1081168193,1587,1587,1539,1541,0,0,0,0,0,0,0,0,0,0
1681039603.44002700,1081268986,1588,1588,1541,1544,0,0,0,0,0,0,0,0,0,0
1681039603.53998709,1081368946,1587,1587,1544,1548,0,0,0,0,0,0,0,0,0,0
1681039603.63994694,1081468906,1584,1582,1549,1551,0,0,0,0,0,0,0,0,0,0
1681039603.73990703,1081568866,1579,1576,1556,1558,0,0,0,0,0,0,0,0,0,0
1681039603.83986712,1081668826,1571,1567,1564,1566,0,0,0,0,0,0,0,0,0,0
1681039603.93982697,1081768786,1563,1559,1575,1576,0,0,0,0,0,0,0,0,0,0
1681039604.03978705,1081868746,1553,1550,1585,1585,0,0,0,0,0,0,0,0,0,0
1681039604.13974690,1081968706,1546,1544,1594,1594,0,0,0,0,0,0,0,0,0,0
1681039604.23970699,1082068666,1541,1540,1601,1599,0,0,0,0,0,0,0,0,0,0
1681039604.33966708,1082168626,1539,1540,1605,1603,0,0,0,0,0,0,0,0,0,0
1681039604.43962693,1082268586,1539,1541,1606,1604,0,0,0,0,0,0,0,0,0,0
1681039604.53958702,1082368546,1542,1544,1606,1605,0,0,0,0,0,0,0,0,0,0
1681039604.63954711,1082468506,1546,1547,1603,1603,0,0,0,0,0,0,0,0,0,0
1681039604.73950696,1082568466,1550,1551,1599,1600,0,0,0,0,0,0,0,0,0,0
1681039604.83946705,1082668426,1554,1555,1595,1595,0,0,0,0,0,0,0,0,0,0
1681039604.93942690,1082768386,1560,1560,1592,1592,0,0,0,0,0,0,0,0,0,0
1681039605.03938699,1082868346,1564,1565,1587,1587,0,0,0,0,0,0,0,0,0,0
1681039605.13934708,1082968306,1569,1568,1582,1582,0,0,0,0,0,0,0,0,0,0
1681039605.23930693,1083068266,1572,1572,1577,1577,0,0,0,0,0,0,0,0,0,0
1681039605.33926702,1083168226,1577,1577,1573,1574,0,0,0,0,0,0,0,0,0,0
1681039605.43922710,1083268186,1581,1580,1570,1571,0,0,0,0,0,0,0,0,0,0
1681039605.54001999,1083368979,1584,1582,1568,1568,0,0,0,0,0,0,0,0,0,0
1681039605.63998008,1083468939,1584,1583,1566,1567,0,0,0,0,0,0,0,0,0,0
1681039605.73993993,1083568899,1584,1583,1567,1567,0,0,0,0,0,0,0,0,0,0
1681039605.83990002,1083668859,1583,1583,1568,1569,0,0,0,0,0,0,0,0,0,0
1681039605.93986011,1083768819,1583,1581,1571,1571,0,0,0,0,0,0,0,0,0,0
1681039606.03981996,1083868779,1580,1580,1573,1573,0,0,0,0,0,0,0,0,0,0
1681039606.13978004,1083968739,1578,1578,1576,1576,0,0,0,0,0,0,0,0,0,0
1681039606.23973989,1084068699,1577,1577,1579,1578,0,0,0,0,0,0,0,0,0,0
1681039606.33969998,1084168659,1575,1575,1580,1580,0,0,0,0,0,0,0,0,0,0
1681039606.43966007,1084268619,1574,1575,1582,1582,0,0,0,0,0,0,0,0,0,0
1681039606.53961992,1084368579,1574,1575,1583,1583,0,0,0,0,0,0,0,0,0,0
1681039606.63958001,1084468539,1573,1574,1583,1583,0,0,0,0,0,0,0,0,0,0
1681039606.73954010,1084568499,1574,1574,1582,1582,0,0,0,0,0,0,0,0,0,0
1681039606.83949995,1084668459,1575,1575,1581,1582,0,0,0,0,0,0,0,0,0,0
1681039606.93946004,1084768419,1577,1576,1581,1581,0,0,0,0,0,0,0,0,0,0
1681039607.03942013,1084868379,1578,1578,1580,1580,0,0,0,0,0,0,0,0,0,0
1681039607.13937998,1084968339,1579,1579,1580,1580,0,0,0,0,0,0,0,0,0,0
1681039607.23934007,1085068299,1580,1580,1579,1579,0,0,0,0,0,0,0,0,0,0
1681039607.33929992,1085168259,1581,1581,1579,1579,0,0,0,0,0,0,0,0,0,0
1681039607.43926001,1085268219,1581,1581,1578,1578,0,0,0,0,0,0,0,0,0,0
1681039607.53922009,1085368179,1581,1581,1578,1578,0,0,0,0,0,0,0,0,0,0
1681039607.64001298,1085468972,1581,1581,1577,1577,0,0,0,0,0,0,0,0,0,0
1681039607.73997307,1085568932,1580,1580,1577,1577,0,0,0,0,0,0,0,0,0,0
1681039607.83993292,1085668892,1580,1581,1578,1578,0,0,0,0,0,0,0,0,0,0
1681039607.93989301,1085768852,1580,1581,1579,1579,0,0,0,0,0,0,0,0,0,0
1681039608.03985310,1085868812,1580,1580,1579,1579,0,0,0,0,0,0,0,0,0,0
1681039608.13981295,1085968772,1580,1580,1579,1580,0,0,0,0,0,0,0,0,0,0
1681039608.23977304,1086068732,1579,1579,1579,1579,0,0,0,0,0,0,0,0,0,0
1681039608.33973312,1086168692,1578,1578,1579,1579,0,0,0,0,0,0,0,0,0,0
1681039608.43969297,1086268652,1579,1579,1581,1580,0,0,0,0,0,0,0,0,0,0
1681039608.53965306,1086368612,1579,1580,1581,1581,0,0,0,0,0,0,0,0,0,0
1681039608.63961291,1086468572,1579,1579,1581,1581,0,0,0,0,0,0,0,0,0,0
1681039608.73957300,1086568532,1580,1579,1581,1580,0,0,0,0,0,0,0,0,0,0
1681039608.83953309,1086668492,1580,1580,1581,1581,0,0,0,0,0,0,0,0,0,0
1681039608.93949294,1086768452,1580,1580,1580,1580,0,0,0,0,0,0,0,0,0,0
1681039609.03945303,1086868412,1579,1580,1580,1580,0,0,0,0,0,0,0,0,0,0
1681039609.13941312,1086968372,1580,1580,1580,1580,0,0,0,0,0,0,0,0,0,0
1681039609.23937297,1087068332,1581,1581,1580,1580,0,0,0,0,0,0,0,0,0,0
1681039609.33933306,1087168292,1581,1581,1581,1580,0,0,0,0,0,0,0,0,0,0
1681039609.43929291,1087268252,1582,1581,1583,1577,0,0,0,0,0,0,0,0,0,0
1681039609.53925300,1087368212,1580,1581,1586,1572,0,0,0,0,0,0,0,0,0,0
1681039609.63921309,1087468172,1577,1581,1581,1573,0,0,0,0,0,0,0,0,0,0
1681039609.74000597,1087568965,1576,1579,1573,1573,0,0,0,0,0,0,0,0,0,0
1681039609.83996606,1087668925,1574,1577,1566,1571,0,0,0,0,0,0,0,0,0,0
1681039609.93992591,1087768885,1575,1577,1561,1568,0,0,0,0,0,0,0,0,0,0
1681039610.03988600,1087868845,1575,1575,1556,1563,0,0,0,0,0,0,0,0,0,0
1681039610.13984609,1087968805,1576,1574,1555,1559,0,0,0,0,0,0,0,0,0,0
1681039610.23980594,1088068765,1577,1575,1556,1556,0,0,0,0,0,0,0,0,0,0
1681039610.33976603,1088168725,1578,1576,1557,1555,0,0,0,0,0,0,0,0,0,0
1681039610.43972611,1088268685,1576,1576,1557,1554,0,0,0,0,0,0,0,0,0,0
1681039610.53968596,1088368645,1575,1576,1557,1555,0,0,0,0,0,0,0,0,0,0
1681039610.63964605,1088468605,1574,1576,1556,1554,0,0,0,0,0,0,0,0,0,0
1681039610.73960590,1088568565,1572,1575,1554,1553,0,0,0,0,0,0,0,0,0,0
1681039610.83956599,1088668525,1573,1574,1553,1553,0,0,0,0,0,0,0,0,0,0
1681039610.93952608,1088768485,1574,1575,1552,1552,0,0,0,0,0,0,0,0,0,0
1681039611.03948593,1088868445,1575,1576,1550,1551,0,0,0,0,0,0,0,0,0,0
1681039611.13944602,1088968405,1577,1577,1548,1549,0,0,0,0,0,0,0,0,0,0
1681039611.23940611,1089068365,1578,1580,1546,1545,0,0,0,0,0,0,0,0,0,0
1681039611.33936596,1089168325,1582,1583,1544,1543,0,0,0,0,0,0,0,0,0,0
1681039611.43932605,1089268285,1584,1584,1540,1539,0,0,0,0,0,0,0,0,0,0
1681039611.53928590,1089368245,1587,1588,1537,1537,0,0,0,0,0,0,0,0,0,0
1681039611.63924599,1089468205,1590,1590,1534,1535,0,0,0,0,0,0,0,0,0,0
1681039611.73920608,1089568165,1592,1592,1533,1533,0,0,0,0,0,0,0,0,0,0
1681039611.83999896,1089668958,1594,1593,1533,1534,0,0,0,0,0,0,0,0,0,0
1681039611.93995905,1089768918,1594,1594,1534,1536,0,0,0,0,0,0,0,0,0,0
1681039612.03991890,1089868878,1592,1592,1535,1538,0,0,0,0,0,0,0,0,0,0
1681039612.13987899,1089968838,1590,1590,1540,1543,0,0,0,0,0,0,0,0,0,0
1681039612.23983908,1090068798,1586,1584,1546,1549,0,0,0,0,0,0,0,0,0,0
1681039612.33979893,1090168758,1580,1577,1555,1558,0,0,0,0,0,0,0,0,0,0
1681039612.43975902,1090268718,1571,1567,1565,1568,0,0,0,0,0,0,0,0,0,0
1681039612.53971910,1090368678,1561,1557,1577,1579,0,0,0,0,0,0,0,0,0,0
1681039612.63967896,1090468638,1550,1547,1590,1590,0,0,0,0,0,0,0,0,0,0
1681039612.73963904,1090568598,1541,1539,1601,1600,0,0,0,0,0,0,0,0,0,0
1681039612.83959889,1090668558,1533,1533,1609,1607,0,0,0,0,0,0,0,0,0,0
1681039612.93955898,1090768518,1531,1532,1613,1611,0,0,0,0,0,0,0,0,0,0
1681039613.03951907,1090868478,1531,1533,1613,1611,0,0,0,0,0,0,0,0,0,0
1681039613.13947892,1090968438,1535,1537,1612,1610,0,0,0,0,0,0,0,0,0,0
1681039613.23943901,1091068398,1541,1542,1608,1607,0,0,0,0,0,0,0,0,0,0
1681039613.33939910,1091168358,1547,1548,1602,1602,0,0,0,0,0,0,0,0,0,0
1681039613.43935895,1091268318,1554,1554,1596,1597,0,0,0,0,0,0,0,0,0,0
1681039613.53931904,1091368278,1561,1561,1590,1591,0,0,0,0,0,0,0,0,0,0
1681039613.63927913,1091468238,1568,1568,1584,1584,0,0,0,0,0,0,0,0,0,0
1681039613.73923898,1091568198,1574,1574,1577,1577,0,0,0,0,0,0,0,0,0,0
1681039613.83919907,1091668158,1580,1580,1571,1571,0,0,0,0,0,0,0,0,0,0
1681039613.93999195,1091768951,1584,1583,1568,1568,0,0,0,0,0,0,0,0,0,0
1681039614.03995204,1091868911,1587,1586,1566,1567,0,0,0,0,0,0,0,0,0,0
1681039614.13991213,1091968871,1588,1586,1565,1565,0,0,0,0,0,0,0,0,0,0
1681039614.23987198,1092068831,1587,1585,1566,1567,0,0,0,0,0,0,0,0,0,0
1681039614.33983207,1092168791,1586,1585,1569,1569,0,0,0,0,0,0,0,0,0,0
1681039614.43979192,1092268751,1582,1581,1570,1570,0,0,0,0,0,0,0,0,0,0
1681039614.53975201,1092368711,1580,1580,1574,1574,0,0,0,0,0,0,0,0,0,0
1681039614.63971210,1092468671,1577,1577,1577,1577,0,0,0,0,0,0,0,0,0,0
1681039614.73967195,1092568631,1574,1575,1579,1579,0,0,0,0,0,0,0,0,0,0
1681039614.83963203,1092668591,1573,1574,1582,1581,0,0,0,0,0,0,0,0,0,0
1681039614.93959212,1092768551,1572,1573,1583,1583,0,0,0,0,0,0,0,0,0,0
1681039615.03955197,1092868511,1573,1573,1584,1584,0,0,0,0,0,0,0,0,0,0
1681039615.13951206,1092968471,1573,1574,1584,1584,0,0,0,0,0,0,0,0,0,0
1681039615.23947191,1093068431,1574,1574,1583,1583,0,0,0,0,0,0,0,0,0,0
1681039615.33943200,1093168391,1576,1575,1583,1583,0,0,0,0,0,0,0,0,0,0
1681039615.43939209,1093268351,1576,1576,1581,1581,0,0,0,0,0,0,0,0,0,0
1681039615.53935194,1093368311,1577,1578,1580,1580,0,0,0,0,0,0,0,0,0,0
1681039615.63931203,1093468271,1579,1579,1579,1580,0,0,0,0,0,0,0,0,0,0
1681039615.73927212,1093568231,1580,1580,1578,1578,0,0,0,0,0,0,0,0,0,0
1681039615.83923197,1093668191,1581,1581,1578,1577,0,0,0,0,0,0,0,0,0,0
1681039615.94002509,1093768984,1582,1581,1577,1577,0,0,0,0,0,0,0,0,0,0
1681039616.03998494,1093868944,1582,1581,1577,1577,0,0,0,0,0,0,0,0,0,0
1681039616.13994503,1093968904,1581,1580,1576,1577,0,0,0,0,0,0,0,0,0,0
1681039616.23990512,1094068864,1582,1581,1578,1578,0,0,0,0,0,0,0,0,0,0
1681039616.33986497,1094168824,1582,1582,1579,1579,0,0,0,0,0,0,0,0,0,0
1681039616.43982506,1094268784,1580,1581,1579,1579,0,0,0,0,0,0,0,0,0,0
1681039616.53978491,1094368744,1580,1580,1580,1579,0,0,0,0,0,0,0,0,0,0
1681039616.63974500,1094468704,1580,1580,1580,1580,0,0,0,0,0,0,0,0,0,0
1681039616.73970509,1094568664,1580,1580,1581,1581,0,0,0,0,0,0,0,0,0,0
1681039616.83966494,1094668624,1579,1579,1581,1581,0,0,0,0,0,0,0,0,0,0
1681039616.93962502,1094768584,1580,1580,1581,1581,0,0,0,0,0,0,0,0,0,0
1681039617.03958511,1094868544,1580,1580,1581,1582,0,0,0,0,0,0,0,0,0,0
1681039617.13954496,1094968504,1580,1579,1581,1581,0,0,0,0,0,0,0,0,0,0
1681039617.23950505,1095068464,1580,1580,1581,1581,0,0,0,0,0,0,0,0,0,0
1681039617.33946490,1095168424,1580,1579,1580,1580,0,0,0,0,0,0,0,0,0,0
1681039617.43942499,1095268384,1582,1581,1581,1581,0,0,0,0,0,0,0,0,0,0
1681039617.53938508,1095368344,1581,1581,1581,1581,0,0,0,0,0,0,0,0,0,0
1681039617.63934493,1095468304,1581,1581,1586,1573,0,0,0,0,0,0,0,0,0,0
1681039617.73930502,1095568264,1580,1581,1585,1571,0,0,0,0,0,0,0,0,0,0
1681039617.83926511,1095668224,1578,1579,1579,1574,0,0,0,0,0,0,0,0,0,0
1681039617.93922496,1095768184,1574,1574,1572,1575,0,0,0,0,0,0,0,0,0,0
1681039618.04001808,1095868977,1571,1571,1567,1574,0,0,0,0,0,0,0,0,0,0
1681039618.13997793,1095968937,1568,1567,1564,1572,0,0,0,0,0,0,0,0,0,0
1681039618.23993802,1096068897,1567,1566,1564,1570,0,0,0,0,0,0,0,0,0,0
1681039618.33989811,1096168857,1566,1565,1565,1567,0,0,0,0,0,0,0,0,0,0
1681039618.43985796,1096268817,1565,1564,1565,1564,0,0,0,0,0,0,0,0,0,0
1681039618.53981805,1096368777,1565,1565,1566,1563,0,0,0,0,0,0,0,0,0,0
1681039618.63977790,1096468737,1565,1565,1566,1563,0,0,0,0,0,0,0,0,0,0
1681039618.73973799,1096568697,1563,1564,1565,1563,0,0,0,0,0,0,0,0,0,0
1681039618.83969808,1096668657,1564,1564,1564,1563,0,0,0,0,0,0,0,0,0,0
1681039618.93965793,1096768617,1563,1562,1563,1563,0,0,0,0,0,0,0,0,0,0
1681039619.03961802,1096868577,1562,1562,1562,1562,0,0,0,0,0,0,0,0,0,0
1681039619.13957810,1096968537,1562,1561,1561,1562,0,0,0,0,0,0,0,0,0,0
1681039619.23953795,1097068497,1561,1560,1561,1561,0,0,0,0,0,0,0,0,0,0
1681039619.33949804,1097168457,1560,1560,1560,1559,0,0,0,0,0,0,0,0,0,0
1681039619.43945789,1097268417,1560,1560,1560,1560,0,0,0,0,0,0,0,0,0,0
1681039619.53941798,1097368377,1559,1559,1559,1558,0,0,0,0,0,0,0,0,0,0
1681039619.63937807,1097468337,1558,1558,1558,1558,0,0,0,0,0,0,0,0,0,0
1681039619.73933792,1097568297,1558,1558,1558,1557,0,0,0,0,0,0,0,0,0,0
1681039619.83929801,1097668257,1558,1558,1558,1558,0,0,0,0,0,0,0,0,0,0
1681039619.93925810,1097768217,1559,1559,1559,1559,0,0,0,0,0,0,0,0,0,0
1681039620.03921795,1097868177,1559,1559,1559,1558,0,0,0,0,0,0,0,0,0,0
1681039620.14001107,1097968970,1558,1559,1559,1557,0,0,0,0,0,0,0,0,0,0
1681039620.23997092,1098068930,1559,1559,1559,1557,0,0,0,0,0,0,0,0,0,0
1681039620.33993101,1098168890,1558,1558,1559,1557,0,0,0,0,0,0,0,0,0,0
1681039620.43989110,1098268850,1558,1559,1559,1557,0,0,0,0,0,0,0,0,0,0
1681039620.53985095,1098368810,1559,1559,1559,1560,0,0,0,0,0,0,0,0,0,0
1681039620.63981104,1098468770,1560,1559,1557,1562,0,0,0,0,0,0,0,0,0,0
1681039620.73977113,1098568730,1559,1558,1557,1562,0,0,0,0,0,0,0,0,0,0
1681039620.83973098,1098668690,1557,1556,1556,1559,0,0,0,0,0,0,0,0,0,0
1681039620.93969107,1098768650,1557,1557,1556,1559,0,0,0,0,0,0,0,0,0,0
1681039621.03965092,1098868610,1556,1556,1555,1559,0,0,0,0,0,0,0,0,0,0
1681039621.13961101,1098968570,1554,1554,1553,1556,0,0,0,0,0,0,0,0,0,0
1681039621.23957109,1099068530,1549,1549,1549,1550,0,0,0,0,0,0,0,0,0,0
1681039621.33953094,1099168490,1544,1544,1545,1544,0,0,0,0,0,0,0,0,0,0
1681039621.43949103,1099268450,1538,1538,1540,1538,0,0,0,0,0,0,0,0,0,0
1681039621.53945112,1099368410,1530,1531,1532,1531,0,0,0,0,0,0,0,0,0,0
1681039621.63941097,1099468370,1523,1523,1525,1524,0,0,0,0,0,0,0,0,0,0
1681039621.73937106,1099568330,1520,1520,1521,1522,0,0,0,0,0,0,0,0,0,0
1681039621.83933091,1099668290,1520,1520,1519,1521,0,0,0,0,0,0,0,0,0,0
1681039621.93929100,1099768250,1521,1521,1520,1522,0,0,0,0,0,0,0,0,0,0
1681039622.03925109,1099868210,1523,1523,1521,1523,0,0,0,0,0,0,0,0,0,0
1681039622.13921094,1099968170,1528,1528,1525,1527,0,0,0,0,0,0,0,0,0,0
1681039622.24000406,1100068963,1532,1531,1529,1529,0,0,0,0,0,0,0,0,0,0
1681039622.33996391,1100168923,1537,1536,1534,1534,0,0,0,0,0,0,0,0,0,0
1681039622.43992400,1100268883,1540,1540,1539,1537,0,0,0,0,0,0,0,0,0,0
1681039622.53988409,1100368843,1542,1542,1541,1540,0,0,0,0,0,0,0,0,0,0
1681039622.63984394,1100468803,1544,1544,1543,1543,0,0,0,0,0,0,0,0,0,0
1681039622.73980403,1100568763,1545,1545,1545,1544,0,0,0,0,0,0,0,0,0,0
1681039622.83976412,1100668723,1545,1545,1546,1546,0,0,0,0,0,0,0,0,0,0
1681039622.93972397,1100768683,1546,1546,1546,1547,0,0,0,0,0,0,0,0,0,0
1681039623.03968406,1100868643,1546,1547,1548,1548,0,0,0,0,0,0,0,0,0,0
1681039623.13964391,1100968603,1547,1546,1548,1548,0,0,0,0,0,0,0,0,0,0
1681039623.23960400,1101068563,1546,1546,1547,1548,0,0,0,0,0,0,0,0,0,0
1681039623.33956409,1101168523,1545,1545,1547,1547,0,0,0,0,0,0,0,0,0,0
1681039623.43952394,1101268483,1545,1545,1546,1546,0,0,0,0,0,0,0,0,0,0
1681039623.53948402,1101368443,1546,1546,1547,1546,0,0,0,0,0,0,0,0,0,0
1681039623.63944411,1101468403,1546,1545,1546,1546,0,0,0,0,0,0,0,0,0,0
1681039623.73940396,1101568363,1546,1545,1546,1546,0,0,0,0,0,0,0,0,0,0
1681039623.83936405,1101668323,1546,1546,1546,1545,0,0,0,0,0,0,0,0,0,0
1681039623.93932390,1101768283,1546,1546,1545,1545,0,0,0,0,0,0,0,0,0,0
1681039624.03928399,1101868243,1546,1546,1545,1545,0,0,0,0,0,0,0,0,0,0
1681039624.13924408,1101968203,1546,1546,1545,1546,0,0,0,0,0,0,0,0,0,0
1681039624.23920393,1102068163,1546,1546,1545,1545,0,0,0,0,0,0,0,0,0,0
1681039624.33999705,1102168956,1545,1545,1544,1545,0,0,0,0,0,0,0,0,0,0
1681039624.43995690,1102268916,1544,1544,1544,1543,0,0,0,0,0,0,0,0,0,0
1681039624.53991699,1102368876,1545,1544,1545,1544,0,0,0,0,0,0,0,0,0,0
1681039624.63987708,1102468836,1545,1545,1545,1545,0,0,0,0,0,0,0,0,0,0
1681039624.73983693,1102568796,1544,1545,1545,1545,0,0,0,0,0,0,0,0,0,0
1681039624.83979702,1102668756,1544,1544,1544,1544,0,0,0,0,0,0,0,0,0,0
1681039624.93975711,1102768716,1544,1545,1545,1545,0,0,0,0,0,0,0,0,0,0
1681039625.03971696,1102868676,1545,1545,1545,1545,0,0,0,0,0,0,0,0,0,0
1681039625.13967705,1102968636,1544,1544,1544,1545,0,0,0,0,0,0,0,0,0,0
1681039625.23963690,1103068596,1544,1543,1544,1544,0,0,0,0,0,0,0,0,0,0
1681039625.33959699,1103168556,1545,1544,1544,1544,0,0,0,0,0,0,0,0,0,0
1681039625.43955708,1103268516,1544,1544,1544,1544,0,0,0,0,0,0,0,0,0,0
1681039625.53951693,1103368476,1545,1545,1545,1545,0,0,0,0,0,0,0,0,0,0
1681039625.63947701,1103468436,1544,1544,1544,1544,0,0,0,0,0,0,0,0,0,0
1681039625.73943710,1103568396,1544,1544,1544,1544,0,0,0,0,0,0,0,0,0,0
1681039625.83939695,1103668356,1545,1545,1545,1544,0,0,0,0,0,0,0,0,0,0
1681039625.93935704,1103768316,1545,1545,1545,1545,0,0,0,0,0,0,0,0,0,0
1681039626.03931689,1103868276,1546,1546,1546,1546,0,0,0,0,0,0,0,0,0,0
1681039626.13927698,1103968236,1544,1544,1544,1544,0,0,0,0,0,0,0,0,0,0
1681039626.23923707,1104068196,1544,1544,1544,1544,0,0,0,0,0,0,0,0,0,0
1681039626.33919692,1104168156,1545,1544,1544,1545,0,0,0,0,0,0,0,0,0,0
1681039626.43999004,1104268949,1545,1545,1545,1545,0,0,0,0,0,0,0,0,0,0
1681039626.53994989,1104368909,1545,1544,1545,1544,0,0,0,0,0,0,0,0,0,0
1681039626.63990998,1104468869,1543,1544,1544,1543,0,0,0,0,0,0,0,0,0,0
1681039626.73987007,1104568829,1544,1545,1544,1544,0,0,0,0,0,0,0,0,0,0
1681039626.83982992,1104668789,1544,1544,1544,1544,0,0,0,0,0,0,0,0,0,0
1681039626.93979001,1104768749,1545,1544,1544,1544,0,0,0,0,0,0,0,0,0,0
1681039627.03975010,1104868709,1543,1543,1543,1543,0,0,0,0,0,0,0,0,0,0
1681039627.13970995,1104968669,1544,1544,1543,1544,0,0,0,0,0,0,0,0,0,0
1681039627.23967004,1105068629,1544,1544,1544,1543,0,0,0,0,0,0,0,0,0,0
1681039627.33963013,1105168589,1544,1544,1544,1544,0,0,0,0,0,0,0,0,0,0
1681039627.43958998,1105268549,1544,1544,1544,1544,0,0,0,0,0,0,0,0,0,0
1681039627.53955007,1105368509,1544,1544,1544,1544,0,0,0,0,0,0,0,0,0,0
1681039627.63950992,1105468469,1544,1544,1544,1543,0,0,0,0,0,0,0,0,0,0
1681039627.73947001,1105568429,1544,1545,1544,1544,0,0,0,0,0,0,0,0,0,0
1681039627.83943009,1105668389,1544,1544,1544,1544,0,0,0,0,0,0,0,0,0,0
1681039627.93938994,1105768349,1544,1544,1544,1544,0,0,0,0,0,0,0,0,0,0
1681039628.03935003,1105868309,1544,1545,1544,1544,0,0,0,0,0,0,0,0,0,0
1681039628.13931012,1105968269,1544,1544,1544,1544,0,0,0,0,0,0,0,0,0,0
1681039628.23926997,1106068229,1543,1544,1544,1544,0,0,0,0,0,0,0,0,0,0
1681039628.33923006,1106168189,1544,1544,1544,1544,0,0,0,0,0,0,0,0,0,0
1681039628.44002295,1106268982,1544,1544,1544,1544,0,0,0,0,0,0,0,0,0,0
1681039628.53998303,1106368942,1545,1543,1544,1544,0,0,0,0,0,0,0,0,0,0
1681039628.63994312,1106468902,1545,1544,1545,1545,0,0,0,0,0,0,0,0,0,0
1681039628.73990297,1106568862,1544,1544,1544,1544,0,0,0,0,0,0,0,0,0,0
1681039628.83986306,1106668822,1544,1544,1544,1545,0,0,0,0,0,0,0,0,0,0
1681039628.93982291,1106768782,1544,1544,1544,1544,0,0,0,0,0,0,0,0,0,0
1681039629.03978300,1106868742,1544,1545,1545,1544,0,0,0,0,0,0,0,0,0,0
1681039629.13974309,1106968702,1545,1545,1545,1544,0,0,0,0,0,0,0,0,0,0
1681039629.23970294,1107068662,1545,1544,1544,1545,0,0,0,0,0,0,0,0,0,0
1681039629.33966303,1107168622,1544,1544,1544,1545,0,0,0,0,0,0,0,0,0,0
1681039629.43962312,1107268582,1545,1544,1544,1545,0,0,0,0,0,0,0,0,0,0
1681039629.53958297,1107368542,1545,1545,1545,1545,0,0,0,0,0,0,0,0,0,0
1681039629.63954306,1107468502,1543,1544,1544,1544,0,0,0,0,0,0,0,0,0,0
1681039629.73950291,1107568462,1544,1544,1544,1544,0,0,0,0,0,0,0,0,0,0
1681039629.83946300,1107668422,1544,1544,1544,1544,0,0,0,0,0,0,0,0,0,0
1681039629.93942308,1107768382,1545,1544,1544,1545,0,0,0,0,0,0,0,0,0,0
1681039630.03938293,1107868342,1544,1543,1543,1544,0,0,0,0,0,0,0,0,0,0
1681039630.13934302,1107968302,1545,1544,1544,1544,0,0,0,0,0,0,0,0,0,0
1681039630.23930311,1108068262,1544,1544,1544,1544,0,0,0,0,0,0,0,0,0,0
1681039630.33926296,1108168222,1544,1544,1543,1544,0,0,0,0,0,0,0,0,0,0
1681039630.43922305,1108268182,1544,1544,1544,1544,0,0,0,0,0,0,0,0,0,0
1681039630.54001594,1108368975,1544,1544,1544,1543,0,0,0,0,0,0,0,0,0,0
1681039630.63997602,1108468935,1544,1544,1544,1544,0,0,0,0,0,0,0,0,0,0
1681039630.73993611,1108568895,1544,1543,1543,1544,0,0,0,0,0,0,0,0,0,0
1681039630.83989596,1108668855,1544,1544,1544,1543,0,0,0,0,0,0,0,0,0,0
1681039630.93985605,1108768815,1544,1543,1543,1544,0,0,0,0,0,0,0,0,0,0
1681039631.03981590,1108868775,1544,1545,1544,1544,0,0,0,0,0,0,0,0,0,0
1681039631.13977599,1108968735,1544,1544,1544,1544,0,0,0,0,0,0,0,0,0,0
1681039631.23973608,1109068695,1544,1544,1544,1544,0,0,0,0,0,0,0,0,0,0
1681039631.33969593,1109168655,1540,1538,1540,1539,0,0,0,0,0,0,0,0,0,0
1681039631.43965602,1109268615,1350,1348,1388,1348,0,0,0,0,0,0,0,0,0,0
1681039631.53961611,1109368575,1244,1242,1311,1240,0,0,0,0,0,0,0,0,0,0
1681039631.63957596,1109468535,1209,1207,1287,1205,0,0,0,0,0,0,0,0,0,0
1681039631.73953605,1109568495,1188,1186,1273,1184,0,0,0,0,0,0,0,0,0,0
1681039631.83949590,1109668455,1154,1151,1251,1150,0,0,0,0,0,0,0,0,0,0
1681039631.93945599,1109768415,1155,1152,1252,1150,0,0,0,0,0,0,0,0,0,0
1681039632.03941607,1109868375,1155,1152,1249,1150,0,0,0,0,0,0,0,0,0,0
1681039632.13937593,1109968335,1155,1158,1246,1150,0,0,0,0,0,0,0,0,0,0
1681039632.23933601,1110068295,1152,1189,1226,1150,0,0,0,0,0,0,0,0,0,0
1681039632.33929610,1110168255,1153,1176,1235,1150,0,0,0,0,0,0,0,0,0,0
1681039632.43925595,1110268215,1154,1172,1237,1150,0,0,0,0,0,0,0,0,0,0
1681039632.53921604,1110368175,1154,1172,1237,1150,0,0,0,0,0,0,0,0,0,0
1681039632.64000893,1110468968,1154,1173,1236,1150,0,0,0,0,0,0,0,0,0,0
1681039632.73996902,1110568928,1154,1173,1236,1150,0,0,0,0,0,0,0,0,0,0
1681039632.83992910,1110668888,1154,1174,1235,1150,0,0,0,0,0,0,0,0,0,0
1681039632.93988895,1110768848,1161,1150,1241,1158,0,0,0,0,0,0,0,0,0,0
1681039633.03984904,1110868808,1153,1155,1248,1150,0,0,0,0,0,0,0,0,0,0
1681039633.13980889,1110968768,1154,1157,1247,1150,0,0,0,0,0,0,0,0,0,0
1681039633.23976898,1111068728,1154,1158,1246,1150,0,0,0,0,0,0,0,0,0,0
1681039633.33972907,1111168688,1154,1159,1246,1150,0,0,0,0,0,0,0,0,0,0
1681039633.43968892,1111268648,1149,1149,999,1149,0,0,0,0,0,0,0,0,0,0
1681039633.53964901,1111368608,1000,1000,1000,1000,0,0,0,0,0,0,0,0,0,0
1681039633.63960910,1111468568,1000,1000,1000,1000,0,0,0,0,0,0,0,0,0,0
1681039633.73956895,1111568528,1000,1000,1000,1000,0,0,0,0,0,0,0,0,0,0
1681039633.83952904,1111668488,1000,1000,1000,1000,0,0,0,0,0,0,0,0,0,0
1681039633.93948913,1111768448,1000,1000,1000,1000,0,0,0,0,0,0,0,0,0,0
1681039634.03944898,1111868408,1000,1000,1000,1000,0,0,0,0,0,0,0,0,0,0
1681039634.13940907,1111968368,1000,1000,1000,1000,0,0,0,0,0,0,0,0,0,0
1681039634.23936892,1112068328,1000,1000,1000,1000,0,0,0,0,0,0,0,0,0,0
1681039634.33932900,1112168288,1000,1000,1000,1000,0,0,0,0,0,0,0,0,0,0
1681039634.43928909,1112268248,1000,1000,1000,1000,0,0,0,0,0,0,0,0,0,0
1681039634.53924894,1112368208,1000,1000,1000,1000,0,0,0,0,0,0,0,0,0,0
1681039634.63920903,1112468168,1000,1000,1000,1000,0,0,0,0,0,0,0,0,0,0
1681039634.74000192,1112568961,1000,1000,1000,1000,0,0,0,0,0,0,0,0,0,0
1681039634.83996201,1112668921,1000,1000,1000,1000,0,0,0,0,0,0,0,0,0,0
1681039634.93992209,1112768881,1000,1000,1000,1000,0,0,0,0,0,0,0,0,0,0
1681039635.03988194,1112868841,1000,1000,1000,1000,0,0,0,0,0,0,0,0,0,0
1681039635.13984203,1112968801,1000,1000,1000,1000,0,0,0,0,0,0,0,0,0,0
1681039635.23980212,1113068761,1000,1000,1000,1000,0,0,0,0,0,0,0,0,0,0
1681039635.33976197,1113168721,1000,1000,1000,1000,0,0,0,0,0,0,0,0,0,0
1681039635.43972206,1113268681,1000,1000,1000,1000,0,0,0,0,0,0,0,0,0,0
1681039635.53968191,1113368641,1000,1000,1000,1000,0,0,0,0,0,0,0,0,0,0
1681039635.63964200,1113468601,1000,1000,1000,1000,0,0,0,0,0,0,0,0,0,0
1681039635.73960209,1113568561,1000,1000,1000,1000,0,0,0,0,0,0,0,0,0,0
1681039635.83956194,1113668521,1000,1000,1000,1000,0,0,0,0,0,0,0,0,0,0
1681039635.93952203,1113768481,1000,1000,1000,1000,0,0,0,0,0,0,0,0,0,0
1681039636.03948212,1113868441,1000,1000,1000,1000,0,0,0,0,0,0,0,0,0,0
1681039636.13944197,1113968401,1000,1000,1000,1000,0,0,0,0,0,0,0,0,0,0
1681039636.23940206,1114068361,1000,1000,1000,1000,0,0,0,0,0,0,0,0,0,0
1681039636.33936191,1114168321,1000,1000,1000,1000,0,0,0,0,0,0,0,0,0,0
1681039636.43932199,1114268281,1000,1000,1000,1000,0,0,0,0,0,0,0,0,0,0
1681039636.53928208,1114368241,1000,1000,1000,1000,0,0,0,0,0,0,0,0,0,0
1681039636.63924193,1114468201,1000,1000,1000,1000,0,0,0,0,0,0,0,0,0,0
1681039636.73920202,1114568161,1000,1000,1000,1000,0,0,0,0,0,0,0,0,0,0
1681039636.83999491,1114668954,1000,1000,1000,1000,0,0,0,0,0,0,0,0,0,0
1681039636.93995500,1114768914,1000,1000,1000,1000,0,0,0,0,0,0,0,0,0,0
1681039637.03991508,1114868874,1000,1000,1000,1000,0,0,0,0,0,0,0,0,0,0
1681039637.13987494,1114968834,1000,1000,1000,1000,0,0,0,0,0,0,0,0,0,0
1681039637.23983502,1115068794,1000,1000,1000,1000,0,0,0,0,0,0,0,0,0,0
1681039637.33979511,1115168754,1000,1000,1000,1000,0,0,0,0,0,0,0,0,0,0
1681039637.43975496,1115268714,1000,1000,1000,1000,0,0,0,0,0,0,0,0,0,0
1681039637.53971505,1115368674,1000,1000,1000,1000,0,0,0,0,0,0,0,0,0,0
1681039637.63967490,1115468634,1000,1000,1000,1000,0,0,0,0,0,0,0,0,0,0
1681039637.73963499,1115568594,1000,1000,1000,1000,0,0,0,0,0,0,0,0,0,0
1681039637.83959508,1115668554,1000,1000,1000,1000,0,0,0,0,0,0,0,0,0,0
1681039637.93955493,1115768514,1000,1000,1000,1000,0,0,0,0,0,0,0,0,0,0
1681039638.03951502,1115868474,1000,1000,1000,1000,0,0,0,0,0,0,0,0,0,0
1681039638.13947511,1115968434,1000,1000,1000,1000,0,0,0,0,0,0,0,0,0,0
1681039638.23943496,1116068394,1000,1000,1000,1000,0,0,0,0,0,0,0,0,0,0
1681039638.33939505,1116168354,1000,1000,1000,1000,0,0,0,0,0,0,0,0,0,0
1681039638.43935490,1116268314,1000,1000,1000,1000,0,0,0,0,0,0,0,0,0,0
1681039638.53931499,1116368274,1000,1000,1000,1000,0,0,0,0,0,0,0,0,0,0
1681039638.63927507,1116468234,1000,1000,1000,1000,0,0,0,0,0,0,0,0,0,0
1681039638.73923492,1116568194,1000,1000,1000,1000,0,0,0,0,0,0,0,0,0,0
1681039638.83919501,1116668154,1000,1000,1000,1000,0,0,0,0,0,0,0,0,0,0
1681039638.93998790,1116768947,1000,1000,1000,1000,0,0,0,0,0,0,0,0,0,0
1681039639.03994799,1116868907,1000,1000,1000,1000,0,0,0,0,0,0,0,0,0,0
1681039639.13990808,1116968867,1000,1000,1000,1000,0,0,0,0,0,0,0,0,0,0
1681039639.23986793,1117068827,1000,1000,1000,1000,0,0,0,0,0,0,0,0,0,0
1681039639.33982801,1117168787,1000,1000,1000,1000,0,0,0,0,0,0,0,0,0,0
1681039639.43978810,1117268747,1000,1000,1000,1000,0,0,0,0,0,0,0,0,0,0
1681039639.53974795,1117368707,1000,1000,1000,1000,0,0,0,0,0,0,0,0,0,0
1681039639.63970804,1117468667,1000,1000,1000,1000,0,0,0,0,0,0,0,0,0,0
1681039639.73966813,1117568627,1000,1000,1000,1000,0,0,0,0,0,0,0,0,0,0
1681039639.83962798,1117668587,1000,1000,1000,1000,0,0,0,0,0,0,0,0,0,0
1681039639.93958807,1117768547,1000,1000,1000,1000,0,0,0,0,0,0,0,0,0,0
1681039640.03954792,1117868507,1000,1000,1000,1000,0,0,0,0,0,0,0,0,0,0
1681039640.13950801,1117968467,1000,1000,1000,1000,0,0,0,0,0,0,0,0,0,0
1681039640.23946810,1118068427,1000,1000,1000,1000,0,0,0,0,0,0,0,0,0,0
1681039640.33942795,1118168387,1000,1000,1000,1000,0,0,0,0,0,0,0,0,0,0
1681039640.43938804,1118268347,1000,1000,1000,1000,0,0,0,0,0,0,0,0,0,0
1681039640.53934813,1118368307,1000,1000,1000,1000,0,0,0,0,0,0,0,0,0,0
1681039640.63930798,1118468267,1000,1000,1000,1000,0,0,0,0,0,0,0,0,0,0
1681039640.73926806,1118568227,1000,1000,1000,1000,0,0,0,0,0,0,0,0,0,0
1681039640.83922791,1118668187,1000,1000,1000,1000,0,0,0,0,0,0,0,0,0,0
1681039640.94002104,1118768980,1000,1000,1000,1000,0,0,0,0,0,0,0,0,0,0
1681039641.03998113,1118868940,1000,1000,1000,1000,0,0,0,0,0,0,0,0,0,0
1681039641.13994098,1118968900,1000,1000,1000,1000,0,0,0,0,0,0,0,0,0,0
1681039641.23990107,1119068860,1000,1000,1000,1000,0,0,0,0,0,0,0,0,0,0
1681039641.33986092,1119168820,1000,1000,1000,1000,0,0,0,0,0,0,0,0,0,0
1681039641.43982100,1119268780,1000,1000,1000,1000,0,0,0,0,0,0,0,0,0,0
1681039641.53978109,1119368740,1000,1000,1000,1000,0,0,0,0,0,0,0,0,0,0
1681039641.63974094,1119468700,1000,1000,1000,1000,0,0,0,0,0,0,0,0,0,0
1681039641.73970103,1119568660,1000,1000,1000,1000,0,0,0,0,0,0,0,0,0,0
1681039641.83966112,1119668620,1000,1000,1000,1000,0,0,0,0,0,0,0,0,0,0
1681039641.93962097,1119768580,1000,1000,1000,1000,0,0,0,0,0,0,0,0,0,0
1681039642.03958106,1119868540,1000,1000,1000,1000,0,0,0,0,0,0,0,0,0,0
1681039642.13954091,1119968500,1000,1000,1000,1000,0,0,0,0,0,0,0,0,0,0
1681039642.23950100,1120068460,1000,1000,1000,1000,0,0,0,0,0,0,0,0,0,0
1681039642.33946109,1120168420,1000,1000,1000,1000,0,0,0,0,0,0,0,0,0,0
1681039642.43942094,1120268380,1000,1000,1000,1000,0,0,0,0,0,0,0,0,0,0
1681039642.53938103,1120368340,1000,1000,1000,1000,0,0,0,0,0,0,0,0,0,0
1681039642.63934112,1120468300,1000,1000,1000,1000,0,0,0,0,0,0,0,0,0,0
1681039642.73930097,1120568260,1000,1000,1000,1000,0,0,0,0,0,0,0,0,0,0
1681039642.83926105,1120668220,1000,1000,1000,1000,0,0,0,0,0,0,0,0,0,0
1681039642.93922091,1120768180,1000,1000,1000,1000,0,0,0,0,0,0,0,0,0,0
1681039643.04001403,1120868973,1000,1000,1000,1000,0,0,0,0,0,0,0,0,0,0
1681039643.13997412,1120968933,1000,1000,1000,1000,0,0,0,0,0,0,0,0,0,0
1681039643.23993397,1121068893,1000,1000,1000,1000,0,0,0,0,0,0,0,0,0,0
1681039643.33989406,1121168853,1000,1000,1000,1000,0,0,0,0,0,0,0,0,0,0
1681039643.43985391,1121268813,1000,1000,1000,1000,0,0,0,0,0,0,0,0,0,0
1681039643.53981400,1121368773,1000,1000,1000,1000,0,0,0,0,0,0,0,0,0,0
1681039643.63977408,1121468733,1000,1000,1000,1000,0,0,0,0,0,0,0,0,0,0
1681039643.73973393,1121568693,1000,1000,1000,1000,0,0,0,0,0,0,0,0,0,0
1681039643.83969402,1121668653,1000,1000,1000,1000,0,0,0,0,0,0,0,0,0,0
1681039643.93965411,1121768613,1000,1000,1000,1000,0,0,0,0,0,0,0,0,0,0
1681039644.03961396,1121868573,1000,1000,1000,1000,0,0,0,0,0,0,0,0,0,0
1681039644.13957405,1121968533,1000,1000,1000,1000,0,0,0,0,0,0,0,0,0,0
1681039644.23953390,1122068493,1000,1000,1000,1000,0,0,0,0,0,0,0,0,0,0
1681039644.33949399,1122168453,1000,1000,1000,1000,0,0,0,0,0,0,0,0,0,0
1681039644.43945408,1122268413,1000,1000,1000,1000,0,0,0,0,0,0,0,0,0,0
1681039644.53941393,1122368373,1000,1000,1000,1000,0,0,0,0,0,0,0,0,0,0
1681039644.63937402,1122468333,1000,1000,1000,1000,0,0,0,0,0,0,0,0,0,0
1681039644.73933411,1122568293,1000,1000,1000,1000,0,0,0,0,0,0,0,0,0,0
1681039644.83929396,1122668253,1000,1000,1000,1000,0,0,0,0,0,0,0,0,0,0
1681039644.93925405,1122768213,1000,1000,1000,1000,0,0,0,0,0,0,0,0,0,0
1681039645.03921390,1122868173,1000,1000,1000,1000,0,0,0,0,0,0,0,0,0,0
1681039645.14000702,1122968966,1000,1000,1000,1000,0,0,0,0,0,0,0,0,0,0
1681039645.23996711,1123068926,1000,1000,1000,1000,0,0,0,0,0,0,0,0,0,0
1681039645.33992696,1123168886,1000,1000,1000,1000,0,0,0,0,0,0,0,0,0,0
1681039645.43988705,1123268846,1000,1000,1000,1000,0,0,0,0,0,0,0,0,0,0
1681039645.53984690,1123368806,1000,1000,1000,1000,0,0,0,0,0,0,0,0,0,0
1681039645.63980699,1123468766,1000,1000,1000,1000,0,0,0,0,0,0,0,0,0,0
1681039645.73976707,1123568726,1000,1000,1000,1000,0,0,0,0,0,0,0,0,0,0
1681039645.83972692,1123668686,1000,1000,1000,1000,0,0,0,0,0,0,0,0,0,0
1681039645.93968701,1123768646,1000,1000,1000,1000,0,0,0,0,0,0,0,0,0,0
1681039646.03964710,1123868606,1000,1000,1000,1000,0,0,0,0,0,0,0,0,0,0
1681039646.13960695,1123968566,1000,1000,1000,1000,0,0,0,0,0,0,0,0,0,0
1681039646.23956704,1124068526,1000,1000,1000,1000,0,0,0,0,0,0,0,0,0,0
1681039646.33952713,1124168486,1000,1000,1000,1000,0,0,0,0,0,0,0,0,0,0
1681039646.43948698,1124268446,1000,1000,1000,1000,0,0,0,0,0,0,0,0,0,0
1681039646.53944707,1124368406,1000,1000,1000,1000,0,0,0,0,0,0,0,0,0,0
1681039646.63940692,1124468366,1000,1000,1000,1000,0,0,0,0,0,0,0,0,0,0
1681039646.73936701,1124568326,1000,1000,1000,1000,0,0,0,0,0,0,0,0,0,0
1681039646.83932710,1124668286,1000,1000,1000,1000,0,0,0,0,0,0,0,0,0,0
1681039646.93928695,1124768246,1000,1000,1000,1000,0,0,0,0,0,0,0,0,0,0
1681039647.03924704,1124868206,1000,1000,1000,1000,0,0,0,0,0,0,0,0,0,0
1681039647.13920712,1124968166,1000,1000,1000,1000,0,0,0,0,0,0,0,0,0,0
1681039647.24000001,1125068959,1000,1000,1000,1000,0,0,0,0,0,0,0,0,0,0
1681039647.33996010,1125168919,1000,1000,1000,1000,0,0,0,0,0,0,0,0,0,0
1681039647.43991995,1125268879,1000,1000,1000,1000,0,0,0,0,0,0,0,0,0,0
1681039647.53988004,1125368839,1000,1000,1000,1000,0,0,0,0,0,0,0,0,0,0
1681039647.63984013,1125468799,1000,1000,1000,1000,0,0,0,0,0,0,0,0,0,0
1681039647.73979998,1125568759,1000,1000,1000,1000,0,0,0,0,0,0,0,0,0,0
1681039647.83976007,1125668719,1000,1000,1000,1000,0,0,0,0,0,0,0,0,0,0
1681039647.93971992,1125768679,1000,1000,1000,1000,0,0,0,0,0,0,0,0,0,0
1681039648.03968000,1125868639,1000,1000,1000,1000,0,0,0,0,0,0,0,0,0,0
1681039648.13964009,1125968599,1000,1000,1000,1000,0,0,0,0,0,0,0,0,0,0
1681039648.23959994,1126068559,1000,1000,1000,1000,0,0,0,0,0,0,0,0,0,0
1681039648.33956003,1126168519,1000,1000,1000,1000,0,0,0,0,0,0,0,0,0,0
