TimeUS,M1,M2,M3,M4,TimeUS,C1,C2,C3,C4
64243459,1000,1000,1000,1000,64328425,1000,1000,1000,1000
64245958,1000,1000,1000,1000,64428385,1000,1000,1000,1000
64248457,1000,1000,1000,1000,64528345,1000,1000,1000,1000
64250956,1000,1000,1000,1000,64628305,1000,1000,1000,1000
64253455,1000,1000,1000,1000,64728265,1000,1000,1000,1000
64255954,1000,1000,1000,1000,64828225,1000,1000,1000,1000
64258453,1000,1000,1000,1000,64928185,1000,1000,1000,1000
64260952,1000,1000,1000,1000,65028978,1000,1000,1000,1000
64263451,1000,1000,1000,1000,65128938,1000,1000,1000,1000
64265950,1000,1000,1000,1000,65228898,1000,1000,1000,1000
64268449,1000,1000,1000,1000,65328858,1000,1000,1000,1000
64270948,1000,1000,1000,1000,65428818,1000,1000,1000,1000
64273447,1000,1000,1000,1000,65528778,1000,1000,1000,1000
64275946,1000,1000,1000,1000,65628738,1000,1000,1000,1000
64278445,1000,1000,1000,1000,65728698,1000,1000,1000,1000
64280944,1000,1000,1000,1000,65828658,1000,1000,1000,1000
64283443,1000,1000,1000,1000,65928618,1000,1000,1000,1000
64285942,1000,1000,1000,1000,66028578,1000,1000,1000,1000
64288441,1000,1000,1000,1000,66128538,1000,1000,1000,1000
64290940,1000,1000,1000,1000,66228498,1000,1000,1000,1000
64293439,1000,1000,1000,1000,66328458,1025,1025,1025,1025
64295938,1000,1000,1000,1000,66428418,1055,1055,1055,1055
64298437,1000,1000,1000,1000,66528378,1085,1085,1085,1085
64300936,1000,1000,1000,1000,66628338,1115,1115,1115,1115
64303435,1000,1000,1000,1000,66728298,1145,1145,1145,1145
64305934,1000,1000,1000,1000,66828258,1368,1361,1362,1369
64308433,1000,1000,1000,1000,66928218,1555,1549,1549,1556
64310932,1000,1000,1000,1000,67028178,1706,1701,1701,1707
64313431,1000,1000,1000,1000,67128971,1836,1831,1831,1837
64315930,1000,1000,1000,1000,67228931,1869,1863,1863,1869
64318429,1000,1000,1000,1000,67328891,1821,1819,1819,1821
64320928,1000,1000,1000,1000,67428851,1692,1694,1694,1692
64323427,1000,1000,1000,1000,67528811,1622,1624,1624,1623
64325926,1000,1000,1000,1000,67628771,1615,1617,1617,1615
64328425,1000,1000,1000,1000,67728731,1628,1629,1629,1628
64330924,1000,1000,1000,1000,67828691,1637,1631,1630,1637
64333423,1000,1000,1000,1000,67928651,1623,1623,1617,1630
64335922,1000,1000,1000,1000,68028611,1615,1616,1611,1620
64338421,1000,1000,1000,1000,68128571,1611,1612,1610,1613
64340920,1000,1000,1000,1000,68228531,1611,1612,1613,1610
64343419,1000,1000,1000,1000,68328491,1614,1614,1617,1611
64345918,1000,1000,1000,1000,68428451,1617,1617,1621,1613
64348417,1000,1000,1000,1000,68528411,1620,1619,1623,1616
64350916,1000,1000,1000,1000,68628371,1608,1608,1612,1604
64353415,1000,1000,1000,1000,68728331,1584,1585,1594,1575
64355914,1000,1000,1000,1000,68828291,1570,1571,1575,1566
64358413,1000,1000,1000,1000,68928251,1560,1560,1559,1561
64360912,1000,1000,1000,1000,69028211,1551,1551,1543,1560
64363411,1000,1000,1000,1000,69128171,1544,1543,1533,1553
64365910,1000,1000,1000,1000,69228964,1537,1536,1529,1544
64368409,1000,1000,1000,1000,69328924,1532,1531,1528,1535
64370908,1000,1000,1000,1000,69428884,1529,1529,1528,1528
64373407,1000,1000,1000,1000,69528844,1529,1529,1531,1527
64375906,1000,1000,1000,1000,69628804,1530,1530,1533,1527
64378405,1000,1000,1000,1000,69728764,1534,1534,1537,1531
64380904,1000,1000,1000,1000,69828724,1537,1537,1540,1535
64383403,1000,1000,1000,1000,69928684,1541,1541,1543,1539
64385902,1000,1000,1000,1000,70028644,1543,1543,1544,1542
64388401,1000,1000,1000,1000,70128604,1547,1546,1547,1547
64390900,1000,1000,1000,1000,70228564,1550,1550,1549,1551
64393399,1000,1000,1000,1000,70328524,1553,1553,1551,1554
64395898,1000,1000,1000,1000,70428484,1554,1555,1553,1557
64398397,1000,1000,1000,1000,70528444,1556,1556,1557,1559
64400896,1000,1000,1000,1000,70628404,1557,1557,1560,1561
64403395,1000,1000,1000,1000,70728364,1559,1559,1563,1563
64405894,1000,1000,1000,1000,70828324,1561,1561,1565,1565
64408393,1000,1000,1000,1000,70928284,1563,1563,1567,1566
64410892,1000,1000,1000,1000,71028244,1565,1566,1568,1567
64413391,1000,1000,1000,1000,71128204,1567,1567,1568,1568
64415890,1000,1000,1000,1000,71228164,1569,1570,1569,1569
64418389,1000,1000,1000,1000,71328957,1570,1570,1569,1568
64420888,1000,1000,1000,1000,71428917,1571,1571,1569,1569
64423387,1000,1000,1000,1000,71528877,1572,1571,1569,1569
64425886,1000,1000,1000,1000,71628837,1573,1573,1570,1570
64428385,1000,1000,1000,1000,71728797,1575,1574,1572,1572
64430884,1000,1000,1000,1000,71828757,1574,1574,1573,1571
64433383,1000,1000,1000,1000,71928717,1575,1576,1574,1573
64435882,1000,1000,1000,1000,72028677,1575,1576,1575,1574
64438381,1000,1000,1000,1000,72128637,1575,1575,1575,1574
64440880,1000,1000,1000,1000,72228597,1577,1576,1576,1576
64443379,1000,1000,1000,1000,72328557,1577,1577,1577,1577
64445878,1000,1000,1000,1000,72428517,1576,1577,1577,1577
64448377,1000,1000,1000,1000,72528477,1576,1576,1577,1577
64450876,1000,1000,1000,1000,72628437,1576,1577,1577,1577
64453375,1000,1000,1000,1000,72728397,1577,1576,1577,1577
64455874,1000,1000,1000,1000,72828357,1577,1577,1577,1577
64458373,1000,1000,1000,1000,72928317,1577,1577,1578,1577
64460872,1000,1000,1000,1000,73028277,1577,1577,1578,1577
64463371,1000,1000,1000,1000,73128237,1578,1578,1578,1578
64465870,1000,1000,1000,1000,73228197,1577,1577,1577,1577
64468369,1000,1000,1000,1000,73328157,1577,1577,1577,1577
64470868,1000,1000,1000,1000,73428950,1578,1577,1578,1578
64473367,1000,1000,1000,1000,73528910,1578,1578,1578,1578
64475866,1000,1000,1000,1000,73628870,1578,1579,1578,1578
64478365,1000,1000,1000,1000,73728830,1579,1579,1579,1579
64480864,1000,1000,1000,1000,73828790,1578,1579,1579,1579
64483363,1000,1000,1000,1000,73928750,1579,1579,1578,1579
64485862,1000,1000,1000,1000,74028710,1579,1578,1579,1579
64488361,1000,1000,1000,1000,74128670,1580,1579,1579,1579
64490860,1000,1000,1000,1000,74228630,1579,1579,1579,1579
64493359,1000,1000,1000,1000,74328590,1580,1580,1580,1580
64495858,1000,1000,1000,1000,74428550,1580,1580,1580,1580
64498357,1000,1000,1000,1000,74528510,1579,1579,1579,1579
64500856,1000,1000,1000,1000,74628470,1579,1580,1580,1580
64503355,1000,1000,1000,1000,74728430,1579,1579,1579,1580
64505854,1000,1000,1000,1000,74828390,1579,1579,1579,1579
64508353,1000,1000,1000,1000,74928350,1580,1580,1580,1580
64510852,1000,1000,1000,1000,75028310,1580,1581,1581,1581
64513351,1000,1000,1000,1000,75128270,1580,1580,1580,1580
64515850,1000,1000,1000,1000,75228230,1579,1579,1579,1579
64518349,1000,1000,1000,1000,75328190,1580,1580,1580,1580
64520848,1000,1000,1000,1000,75428983,1580,1580,1580,1580
64523347,1000,1000,1000,1000,75528943,1580,1580,1580,1580
64525846,1000,1000,1000,1000,75628903,1580,1580,1580,1580
64528345,1000,1000,1000,1000,75728863,1581,1581,1581,1581
64530844,1000,1000,1000,1000,75828823,1580,1581,1580,1581
64533343,1000,1000,1000,1000,75928783,1580,1580,1580,1580
64535842,1000,1000,1000,1000,76028743,1580,1580,1580,1580
64538341,1000,1000,1000,1000,76128703,1580,1580,1580,1580
64540840,1000,1000,1000,1000,76228663,1581,1581,1581,1581
64543339,1000,1000,1000,1000,76328623,1581,1581,1581,1581
64545838,1000,1000,1000,1000,76428583,1581,1581,1581,1581
64548337,1000,1000,1000,1000,76528543,1580,1581,1581,1580
64550836,1000,1000,1000,1000,76628503,1581,1581,1585,1577
64553335,1000,1000,1000,1000,76728463,1580,1582,1587,1573
64555834,1000,1000,1000,1000,76828423,1579,1582,1581,1573
64558333,1000,1000,1000,1000,76928383,1577,1580,1572,1573
64560832,1000,1000,1000,1000,77028343,1576,1579,1564,1569
64563331,1000,1000,1000,1000,77128303,1577,1579,1559,1565
64565830,1000,1000,1000,1000,77228263,1579,1580,1557,1562
64568329,1000,1000,1000,1000,77328223,1579,1578,1555,1557
64570828,1000,1000,1000,1000,77428183,1580,1578,1556,1555
64573327,1000,1000,1000,1000,77528976,1578,1578,1555,1553
64575826,1000,1000,1000,1000,77628936,1578,1577,1556,1553
64578325,1000,1000,1000,1000,77728896,1576,1577,1555,1554
64580824,1000,1000,1000,1000,77828856,1576,1577,1555,1554
64583323,1000,1000,1000,1000,77928816,1575,1577,1554,1554
64585822,1000,1000,1000,1000,78028776,1575,1577,1553,1553
64588321,1000,1000,1000,1000,78128736,1576,1577,1551,1551
64590820,1000,1000,1000,1000,78228696,1577,1579,1549,1549
64593319,1000,1000,1000,1000,78328656,1580,1580,1546,1547
64595818,1000,1000,1000,1000,78428616,1582,1582,1543,1543
64598317,1000,1000,1000,1000,78528576,1586,1587,1542,1541
64600816,1000,1000,1000,1000,78628536,1589,1590,1539,1539
64603315,1000,1000,1000,1000,78728496,1592,1593,1537,1537
64605814,1000,1000,1000,1000,78828456,1593,1594,1534,1534
64608313,1000,1000,1000,1000,78928416,1595,1594,1535,1535
64610812,1000,1000,1000,1000,79028376,1594,1594,1535,1536
64613311,1000,1000,1000,1000,79128336,1594,1594,1538,1541
64615810,1000,1000,1000,1000,79228296,1591,1591,1542,1545
64618309,1000,1000,1000,1000,79328256,1586,1584,1547,1551
64620808,1000,1000,1000,1000,79428216,1580,1576,1557,1559
64623307,1000,1000,1000,1000,79528176,1571,1567,1569,1572
64625806,1000,1000,1000,1000,79628969,1559,1555,1581,1582
64628305,1000,1000,1000,1000,79728929,1548,1545,1593,1594
64630804,1000,1000,1000,1000,79828889,1538,1537,1603,1603
64633303,1000,1000,1000,1000,79928849,1532,1532,1611,1610
64635802,1000,1000,1000,1000,80028809,1528,1529,1614,1613
64638301,1000,1000,1000,1000,80128769,1529,1531,1615,1614
64640800,1000,1000,1000,1000,80228729,1533,1536,1612,1611
64643299,1000,1000,1000,1000,80328689,1540,1542,1606,1606
64645798,1000,1000,1000,1000,80428649,1548,1550,1599,1600
64648297,1000,1000,1000,1000,80528609,1558,1559,1592,1592
64650796,1000,1000,1000,1000,80628569,1567,1567,1585,1584
64653295,1000,1000,1000,1000,80728529,1574,1574,1578,1577
64655794,1000,1000,1000,1000,80828489,1581,1580,1573,1572
64658293,1000,1000,1000,1000,80928449,1586,1583,1569,1568
64660792,1000,1000,1000,1000,81028409,1588,1586,1567,1566
64663291,1000,1000,1000,1000,81128369,1589,1587,1567,1566
64665790,1000,1000,1000,1000,81228329,1587,1586,1567,1568
64668289,1000,1000,1000,1000,81328289,1585,1585,1569,1570
64670788,1000,1000,1000,1000,81428249,1582,1581,1571,1572
64673287,1000,1000,1000,1000,81528209,1580,1579,1575,1575
64675786,1000,1000,1000,1000,81628169,1576,1576,1578,1577
64678285,1000,1000,1000,1000,81728962,1574,1575,1581,1580
64680784,1000,1000,1000,1000,81828922,1573,1574,1584,1582
64683283,1000,1000,1000,1000,81928882,1573,1574,1584,1584
64685782,1000,1000,1000,1000,82028842,1572,1573,1584,1584
64688281,1000,1000,1000,1000,82128802,1539,1541,1822,1660
64690780,1000,1000,1000,1000,82228762,1512,1526,1619,1673
64693279,1000,1000,1000,1000,82328722,1550,1570,1560,1679
64695778,1000,1000,1000,1000,82428682,1591,1609,1560,1661
64698277,1000,1000,1000,1000,82528642,1609,1619,1560,1614
64700776,1000,1000,1000,1000,82628602,1617,1619,1560,1565
64703275,1000,1000,1000,1000,82728562,1620,1613,1560,1535
64705774,1000,1000,1000,1000,82828522,1622,1607,1560,1527
64708273,1000,1000,1000,1000,82928482,1624,1603,1560,1534
64710772,1000,1000,1000,1000,83028442,1619,1595,1560,1546
64713271,1000,1000,1000,1000,83128402,1606,1587,1560,1558
64715770,1000,1000,1000,1000,83228362,1599,1588,1560,1565
64718269,1000,1000,1000,1000,83328322,1588,1586,1560,1567
64720768,1000,1000,1000,1000,83428282,1571,1576,1560,1565
64723267,1000,1000,1000,1000,83528242,1555,1564,1560,1560
64725766,1000,1000,1000,1000,83628202,1544,1554,1560,1556
64728265,1000,1000,1000,1000,83728162,1538,1546,1560,1554
64730764,1000,1000,1000,1000,83828955,1537,1542,1560,1554
64733263,1000,1000,1000,1000,83928915,1540,1541,1560,1554
64735762,1000,1000,1000,1000,84028875,1544,1544,1560,1556
64738261,1000,1000,1000,1000,84128835,1548,1547,1560,1558
64740760,1000,1000,1000,1000,84228795,1551,1551,1560,1559
64743259,1000,1000,1000,1000,84328755,1577,1578,1598,1585
64745758,1000,1000,1000,1000,84428715,1600,1601,1620,1610
64748257,1000,1000,1000,1000,84528675,1614,1615,1624,1623
64750756,1000,1000,1000,1000,84628635,1621,1620,1623,1625
64753255,1000,1000,1000,1000,84728595,1625,1623,1624,1620
64755754,1000,1000,1000,1000,84828555,1625,1623,1613,1616
64758253,1000,1000,1000,1000,84928515,1621,1622,1603,1609
64760752,1000,1000,1000,1000,85028475,1617,1618,1594,1600
64763251,1000,1000,1000,1000,85128435,1613,1615,1590,1592
64765750,1000,1000,1000,1000,85228395,1609,1611,1587,1585
64768249,1000,1000,1000,1000,85328355,1606,1606,1583,1579
64770748,1000,1000,1000,1000,85428315,1600,1599,1576,1573
64773247,1000,1000,1000,1000,85528275,1595,1594,1570,1568
64775746,1000,1000,1000,1000,85628235,1589,1589,1566,1565
64778245,1000,1000,1000,1000,85728195,1584,1584,1562,1562
64780744,1000,1000,1000,1000,85828155,1579,1581,1560,1559
64783243,1000,1000,1000,1000,85928948,1578,1580,1560,1558
64785742,1000,1000,1000,1000,86028908,1578,1580,1560,1559
64788241,1000,1000,1000,1000,86128868,1579,1582,1560,1560
64790740,1000,1000,1000,1000,86228828,1582,1584,1560,1560
64793239,1000,1000,1000,1000,86328788,1587,1588,1560,1560
64795738,1000,1000,1000,1000,86428748,1592,1594,1560,1560
64798237,1000,1000,1000,1000,86528708,1600,1601,1560,1559
64800736,1000,1000,1000,1000,86628668,1608,1610,1560,1559
64803235,1000,1000,1000,1000,86728628,1619,1619,1560,1559
64805734,1000,1000,1000,1000,86828588,1630,1630,1560,1559
64808233,1000,1000,1000,1000,86928548,1608,1607,1560,1560
64810732,1000,1000,1000,1000,87028508,1586,1585,1560,1561
64813231,1000,1000,1000,1000,87128468,1585,1583,1560,1563
64815730,1000,1000,1000,1000,87228428,1584,1583,1560,1563
64818229,1000,1000,1000,1000,87328388,1585,1583,1560,1563
64820728,1000,1000,1000,1000,87428348,1585,1582,1560,1563
64823227,1000,1000,1000,1000,87528308,1585,1583,1560,1563
64825726,1000,1000,1000,1000,87628268,1585,1582,1560,1564
64828225,1000,1000,1000,1000,87728228,1585,1581,1560,1565
64830724,1000,1000,1000,1000,87828188,1584,1581,1560,1565
64833223,1000,1000,1000,1000,87928981,1585,1582,1560,1565
64835722,1000,1000,1000,1000,88028941,1584,1583,1560,1563
64838221,1000,1000,1000,1000,88128901,1560,1559,1560,1561
64840720,1000,1000,1000,1000,88228861,1533,1531,1560,1559
64843219,1000,1000,1000,1000,88328821,1508,1508,1560,1558
64845718,1000,1000,1000,1000,88428781,1488,1488,1560,1558
64848217,1000,1000,1000,1000,88528741,1470,1470,1560,1558
64850716,1000,1000,1000,1000,88628701,1457,1459,1560,1558
64853215,1000,1000,1000,1000,88728661,1456,1459,1560,1559
64855714,1000,1000,1000,1000,88828621,1466,1470,1560,1560
64858213,1000,1000,1000,1000,88928581,1485,1488,1560,1559
64860712,1000,1000,1000,1000,89028541,1508,1511,1560,1558
64863211,1000,1000,1000,1000,89128501,1532,1534,1560,1558
64865710,1000,1000,1000,1000,89228461,1555,1555,1560,1559
64868209,1000,1000,1000,1000,89328421,1573,1572,1560,1559
64870708,1000,1000,1000,1000,89428381,1585,1583,1560,1559
64873207,1000,1000,1000,1000,89528341,1592,1590,1561,1560
64875706,1000,1000,1000,1000,89628301,1607,1605,1582,1577
64878205,1000,1000,1000,1000,89728261,1613,1611,1590,1588
64880704,1000,1000,1000,1000,89828221,1615,1612,1591,1594
64883203,1000,1000,1000,1000,89928181,1612,1611,1591,1596
64885702,1000,1000,1000,1000,90028974,1609,1609,1593,1598
64888201,1000,1000,1000,1000,90128934,1604,1605,1594,1596
64890700,1000,1000,1000,1000,90228894,1598,1600,1592,1593
64893199,1000,1000,1000,1000,90328854,1594,1596,1593,1592
64895698,1000,1000,1000,1000,90428814,1592,1593,1594,1592
64898197,1000,1000,1000,1000,90528774,1588,1588,1592,1590
64900696,1000,1000,1000,1000,90628734,1585,1585,1589,1588
64903195,1000,1000,1000,1000,90728694,1582,1582,1587,1587
64905694,1000,1000,1000,1000,90828654,1580,1580,1585,1585
64908193,1000,1000,1000,1000,90928614,1578,1578,1583,1584
64910692,1000,1000,1000,1000,91028574,1578,1578,1583,1583
64913191,1000,1000,1000,1000,91128534,1577,1578,1581,1581
64915690,1000,1000,1000,1000,91228494,1578,1578,1581,1580
64918189,1000,1000,1000,1000,91328454,1578,1578,1579,1579
64920688,1000,1000,1000,1000,91428414,1579,1579,1580,1579
64923187,1000,1000,1000,1000,91528374,1581,1580,1580,1580
64925686,1000,1000,1000,1000,91628334,1580,1580,1579,1578
64928185,1000,1000,1000,1000,91728294,1581,1581,1579,1578
64930684,1000,1000,1000,1000,91828254,1581,1581,1578,1578
64933183,1000,1000,1000,1000,91928214,1581,1580,1578,1578
64935682,1000,1000,1000,1000,92028174,1581,1580,1578,1578
64938181,1000,1000,1000,1000,92128967,1579,1579,1577,1577
64940680,1000,1000,1000,1000,92228927,1580,1580,1579,1578
64943179,1000,1000,1000,1000,92328887,1579,1579,1579,1579
64945678,1000,1000,1000,1000,92428847,1579,1579,1580,1579
64948177,1000,1000,1000,1000,92528807,1579,1579,1580,1580
64950676,1000,1000,1000,1000,92628767,1579,1579,1579,1580
64953175,1000,1000,1000,1000,92728727,1579,1579,1580,1580
64955674,1000,1000,1000,1000,92828687,1579,1580,1580,1580
64958173,1000,1000,1000,1000,92928647,1580,1579,1580,1580
64960672,1000,1000,1000,1000,93028607,1581,1580,1581,1581
64963171,1000,1000,1000,1000,93128567,1582,1582,1582,1582
64965670,1000,1000,1000,1000,93228527,1582,1581,1581,1582
64968169,1000,1000,1000,1000,93328487,1582,1582,1581,1582
64970668,1000,1000,1000,1000,93428447,1581,1582,1580,1581
64973167,1000,1000,1000,1000,93528407,1582,1582,1582,1581
64975666,1000,1000,1000,1000,93628367,1582,1582,1581,1581
64978165,1000,1000,1000,1000,93728327,1583,1582,1582,1582
64980664,1000,1000,1000,1000,93828287,1581,1581,1588,1576
64983163,1000,1000,1000,1000,93928247,1580,1581,1585,1572
64985662,1000,1000,1000,1000,94028207,1580,1581,1574,1572
64988161,1000,1000,1000,1000,94128167,1579,1580,1563,1569
64990660,1000,1000,1000,1000,94228960,1580,1581,1560,1566
64993159,1000,1000,1000,1000,94328920,1581,1583,1560,1563
64995658,1000,1000,1000,1000,94428880,1582,1583,1560,1560
64998157,1000,1000,1000,1000,94528840,1582,1582,1560,1558
65000656,1000,1000,1000,1000,94628800,1582,1581,1560,1557
65003155,1000,1000,1000,1000,94728760,1582,1580,1560,1558
65005654,1000,1000,1000,1000,94828720,1580,1580,1560,1559
65008986,1000,1000,1000,1000,94928680,1580,1581,1560,1561
65011485,1000,1000,1000,1000,95028640,1580,1582,1560,1561
65013984,1000,1000,1000,1000,95128600,1581,1583,1560,1561
65016483,1000,1000,1000,1000,95228560,1583,1585,1560,1560
65018982,1000,1000,1000,1000,95328520,1586,1587,1560,1560
65021481,1000,1000,1000,1000,95428480,1589,1591,1560,1560
65023980,1000,1000,1000,1000,95528440,1594,1595,1560,1559
65026479,1000,1000,1000,1000,95628400,1599,1600,1560,1560
65028978,1000,1000,1000,1000,95728360,1604,1604,1560,1559
65031477,1000,1000,1000,1000,95828320,1609,1609,1560,1560
65033976,1000,1000,1000,1000,95928280,1613,1612,1560,1560
65036475,1000,1000,1000,1000,96028240,1614,1614,1560,1561
65038974,1000,1000,1000,1000,96128200,1597,1597,1560,1562
65041473,1000,1000,1000,1000,96228160,1584,1585,1560,1563
65043972,1000,1000,1000,1000,96328953,1584,1584,1560,1563
65046471,1000,1000,1000,1000,96428913,1584,1584,1560,1562
65048970,1000,1000,1000,1000,96528873,1585,1583,1560,1562
65051469,1000,1000,1000,1000,96628833,1586,1582,1560,1562
65053968,1000,1000,1000,1000,96728793,1586,1582,1560,1563
65056467,1000,1000,1000,1000,96828753,1572,1569,1560,1562
65058966,1000,1000,1000,1000,96928713,1547,1543,1560,1562
65061465,1000,1000,1000,1000,97028673,1520,1519,1560,1562
65063964,1000,1000,1000,1000,97128633,1498,1497,1560,1561
65066463,1000,1000,1000,1000,97228593,1482,1483,1560,1560
65068962,1000,1000,1000,1000,97328553,1475,1477,1560,1559
65071461,1000,1000,1000,1000,97428513,1478,1480,1560,1558
65073960,1000,1000,1000,1000,97528473,1487,1490,1560,1559
65076459,1000,1000,1000,1000,97628433,1502,1503,1560,1558
65078958,1000,1000,1000,1000,97728393,1519,1520,1560,1557
65081457,1000,1000,1000,1000,97828353,1536,1536,1560,1557
65083956,1000,1000,1000,1000,97928313,1552,1551,1560,1558
65086455,1000,1000,1000,1000,98028273,1572,1571,1572,1567
65088954,1000,1000,1000,1000,98128233,1594,1592,1588,1583
65091453,1000,1000,1000,1000,98228193,1607,1605,1594,1592
65093952,1000,1000,1000,1000,98328986,1613,1611,1594,1597
65096451,1000,1000,1000,1000,98428946,1615,1614,1593,1599
65098950,1000,1000,1000,1000,98528906,1613,1612,1592,1597
65101449,1000,1000,1000,1000,98628866,1610,1610,1595,1598
65103948,1000,1000,1000,1000,98728826,1606,1606,1596,1596
65106447,1000,1000,1000,1000,98828786,1600,1601,1596,1595
65108946,1000,1000,1000,1000,98928746,1595,1596,1596,1594
65111445,1000,1000,1000,1000,99028706,1590,1591,1594,1593
65113944,1000,1000,1000,1000,99128666,1586,1587,1593,1592
65116443,1000,1000,1000,1000,99228626,1583,1583,1591,1591
65118942,1000,1000,1000,1000,99328586,1580,1580,1588,1588
65121441,1000,1000,1000,1000,99428546,1579,1579,1586,1586
65123940,1000,1000,1000,1000,99528506,1578,1578,1584,1585
65126439,1000,1000,1000,1000,99628466,1578,1578,1582,1583
65128938,1000,1000,1000,1000,99728426,1578,1578,1581,1581
65131437,1000,1000,1000,1000,99828386,1578,1579,1580,1579
65133936,1000,1000,1000,1000,99928346,1579,1579,1579,1578
65136435,1000,1000,1000,1000,100028306,1581,1581,1580,1579
65138934,1000,1000,1000,1000,100128266,1581,1581,1578,1579
65141433,1000,1000,1000,1000,100228226,1581,1581,1578,1578
65143932,1000,1000,1000,1000,100328186,1581,1581,1578,1578
65146431,1000,1000,1000,1000,100428979,1580,1580,1578,1578
65148930,1000,1000,1000,1000,100528939,1580,1580,1578,1578
65151429,1000,1000,1000,1000,100628899,1581,1581,1580,1580
65153928,1000,1000,1000,1000,100728859,1580,1580,1579,1580
65156427,1000,1000,1000,1000,100828819,1579,1580,1579,1580
65158926,1000,1000,1000,1000,100928779,1579,1579,1580,1580
65161425,1000,1000,1000,1000,101028739,1579,1580,1580,1580
65163924,1000,1000,1000,1000,101128699,1579,1579,1580,1580
65166423,1000,1000,1000,1000,101228659,1580,1580,1580,1581
65168922,1000,1000,1000,1000,101328619,1580,1580,1580,1580
65171421,1000,1000,1000,1000,101428579,1580,1580,1581,1580
65173920,1000,1000,1000,1000,101528539,1581,1580,1581,1581
65176419,1000,1000,1000,1000,101628499,1580,1580,1580,1580
65178918,1000,1000,1000,1000,101728459,1581,1581,1581,1581
65181417,1000,1000,1000,1000,101828419,1580,1581,1588,1576
65183916,1000,1000,1000,1000,101928379,1580,1580,1587,1574
65186415,1000,1000,1000,1000,102028339,1579,1578,1577,1574
65188914,1000,1000,1000,1000,102128299,1577,1576,1569,1575
65191413,1000,1000,1000,1000,102228259,1574,1574,1566,1573
65193912,1000,1000,1000,1000,102328219,1572,1571,1566,1570
65196411,1000,1000,1000,1000,102428179,1569,1570,1568,1569
65198910,1000,1000,1000,1000,102528972,1568,1568,1569,1568
65201409,1000,1000,1000,1000,102628932,1567,1567,1569,1567
65203908,1000,1000,1000,1000,102728892,1567,1567,1570,1568
65206407,1000,1000,1000,1000,102828852,1564,1566,1568,1566
65208906,1000,1000,1000,1000,102928812,1564,1565,1567,1566
65211405,1000,1000,1000,1000,103028772,1563,1563,1564,1564
65213904,1000,1000,1000,1000,103128732,1562,1562,1562,1563
65216403,1000,1000,1000,1000,103228692,1562,1562,1564,1563
65218902,1000,1000,1000,1000,103328652,1561,1561,1561,1561
65221401,1000,1000,1000,1000,103428612,1561,1561,1562,1561
65223900,1000,1000,1000,1000,103528572,1561,1561,1561,1561
65226399,1000,1000,1000,1000,103628532,1560,1561,1560,1560
65228898,1000,1000,1000,1000,103728492,1560,1560,1560,1560
65231397,1000,1000,1000,1000,103828452,1560,1560,1560,1560
65233896,1000,1000,1000,1000,103928412,1560,1560,1560,1560
65236395,1000,1000,1000,1000,104028372,1560,1560,1560,1559
65238894,1000,1000,1000,1000,104128332,1560,1559,1560,1559
65241393,1000,1000,1000,1000,104228292,1559,1559,1560,1558
65243892,1000,1000,1000,1000,104328252,1559,1559,1560,1559
65246391,1000,1000,1000,1000,104428212,1559,1558,1560,1558
65248890,1000,1000,1000,1000,104528172,1559,1558,1560,1557
65251389,1000,1000,1000,1000,104628965,1560,1560,1560,1560
65253888,1000,1000,1000,1000,104728925,1562,1562,1560,1565
65256387,1000,1000,1000,1000,104828885,1563,1563,1560,1566
65258886,1000,1000,1000,1000,104928845,1563,1563,1560,1566
65261385,1000,1000,1000,1000,105028805,1562,1562,1560,1564
65263884,1000,1000,1000,1000,105128765,1560,1560,1560,1560
65266383,1000,1000,1000,1000,105228725,1559,1559,1560,1557
65268882,1000,1000,1000,1000,105328685,1560,1560,1560,1560
65271381,1000,1000,1000,1000,105428645,1562,1562,1560,1563
65273880,1000,1000,1000,1000,105528605,1562,1562,1560,1563
65276379,1000,1000,1000,1000,105628565,1561,1561,1560,1561
65278878,1000,1000,1000,1000,105728525,1551,1551,1560,1552
65281377,1000,1000,1000,1000,105828485,1518,1519,1560,1530
65283876,1000,1000,1000,1000,105928445,1491,1491,1560,1520
65286375,1000,1000,1000,1000,106028405,1472,1472,1560,1523
65288874,1000,1000,1000,1000,106128365,1470,1473,1560,1543
65291373,1000,1000,1000,1000,106228325,1499,1506,1560,1594
65293872,1000,1000,1000,1000,106328285,1551,1564,1560,1662
65296371,1000,1000,1000,1000,106428245,1587,1605,1560,1685
65298870,1000,1000,1000,1000,106528205,1578,1593,1560,1636
65301369,1000,1000,1000,1000,106628165,1593,1600,1560,1549
65303868,1000,1000,1000,1000,106728958,1618,1611,1560,1481
65306367,1000,1000,1000,1000,106828918,1621,1601,1560,1469
65308866,1000,1000,1000,1000,106928878,1611,1579,1560,1494
65311365,1000,1000,1000,1000,107028838,1586,1551,1560,1531
65313864,1000,1000,1000,1000,107128798,1557,1533,1560,1544
65316363,1000,1000,1000,1000,107228758,1511,1504,1560,1535
65318862,1000,1000,1000,1000,107328718,1476,1481,1560,1531
65321361,1000,1000,1000,1000,107428678,1452,1467,1560,1533
65323860,1000,1000,1000,1000,107528638,1446,1469,1560,1548
65326359,1000,1000,1000,1000,107628598,1496,1533,1560,1626
65328858,1000,1000,1000,1000,107728558,1543,1593,1560,1677
65331357,1000,1000,1000,1000,107828518,1551,1595,1560,1659
65333856,1000,1000,1000,1000,107928478,1562,1581,1560,1629
65336355,1000,1000,1000,1000,108028438,1582,1565,1560,1596
65338854,1000,1000,1000,1000,108128398,1620,1584,1560,1526
65341353,1000,1000,1000,1000,108228358,1649,1610,1560,1491
65343852,1000,1000,1000,1000,108328318,1664,1625,1560,1493
65346351,1000,1000,1000,1000,108428278,1668,1632,1560,1512
65348850,1000,1000,1000,1000,108528238,1658,1628,1560,1534
65351349,1000,1000,1000,1000,108628198,1634,1615,1560,1553
65353848,1000,1000,1000,1000,108728158,1612,1607,1560,1564
65356347,1000,1000,1000,1000,108828951,1592,1603,1560,1568
65358846,1000,1000,1000,1000,108928911,1583,1604,1560,1563
65361345,1000,1000,1000,1000,109028871,1576,1601,1560,1558
65363844,1000,1000,1000,1000,109128831,1570,1593,1560,1553
65366343,1000,1000,1000,1000,109228791,1567,1583,1560,1551
65368842,1000,1000,1000,1000,109328751,1554,1563,1560,1551
65371341,1000,1000,1000,1000,109428711,1530,1533,1560,1535
65373840,1000,1000,1000,1000,109528671,1505,1505,1560,1529
65376339,1000,1000,1000,1000,109628631,1491,1488,1560,1536
65378838,1000,1000,1000,1000,109728591,1484,1481,1560,1549
65381337,1000,1000,1000,1000,109828551,1548,1548,1560,1639
65383836,1000,1000,1000,1000,109928511,1570,1576,1560,1659
65386335,1000,1000,1000,1000,110028471,1570,1577,1560,1634
65388834,1000,1000,1000,1000,110128431,1560,1566,1560,1589
65391333,1000,1000,1000,1000,110228391,1548,1550,1560,1538
65393832,1000,1000,1000,1000,110328351,1541,1538,1560,1504
65396331,1000,1000,1000,1000,110428311,1536,1529,1560,1497
65398830,1000,1000,1000,1000,110528271,1521,1514,1560,1501
65401329,1000,1000,1000,1000,110628231,1513,1506,1560,1519
65403828,1000,1000,1000,1000,110728191,1499,1494,1560,1533
65406327,1000,1000,1000,1000,110828984,1498,1497,1560,1556
65408826,1000,1000,1000,1000,110928944,1510,1514,1560,1588
65411325,1000,1000,1000,1000,111028904,1524,1533,1560,1614
65413824,1000,1000,1000,1000,111128864,1540,1554,1560,1633
65416323,1000,1000,1000,1000,111228824,1546,1564,1560,1626
65418822,1000,1000,1000,1000,111328784,1576,1592,1560,1626
65421321,1000,1000,1000,1000,111428744,1665,1668,1560,1552
65423820,1000,1000,1000,1000,111528704,1704,1688,1560,1501
65426319,1000,1000,1000,1000,111628664,1698,1670,1560,1491
65428818,1000,1000,1000,1000,111728624,1676,1641,1560,1509
65431317,1000,1000,1000,1000,111828584,1640,1607,1560,1536
65433816,1000,1000,1000,1000,111928544,1574,1555,1560,1561
65436315,1000,1000,1000,1000,112028504,1526,1527,1560,1542
65438814,1000,1000,1000,1000,112128464,1488,1501,1560,1533
65441313,1000,1000,1000,1000,112228424,1463,1481,1560,1531
65443812,1000,1000,1000,1000,112328384,1455,1475,1560,1543
65446311,1000,1000,1000,1000,112428344,1478,1499,1560,1586
65448810,1000,1000,1000,1000,112528304,1549,1573,1560,1670
65451309,1000,1000,1000,1000,112628264,1565,1590,1560,1669
65453808,1000,1000,1000,1000,112728224,1562,1581,1560,1634
65456307,1000,1000,1000,1000,112828184,1566,1571,1560,1594
65458806,1000,1000,1000,1000,112928977,1597,1587,1560,1517
65461305,1000,1000,1000,1000,113028937,1621,1598,1560,1476
65463804,1000,1000,1000,1000,113128897,1629,1595,1560,1480
65466303,1000,1000,1000,1000,113228857,1622,1583,1560,1507
65468802,1000,1000,1000,1000,113328817,1595,1563,1560,1539
65471301,1000,1000,1000,1000,113428777,1568,1554,1560,1559
65473800,1000,1000,1000,1000,113528737,1550,1554,1560,1564
65476299,1000,1000,1000,1000,113628697,1540,1558,1560,1571
65478798,1000,1000,1000,1000,113728657,1530,1553,1560,1568
65481297,1000,1000,1000,1000,113828617,1497,1518,1560,1543
65483796,1000,1000,1000,1000,113928577,1478,1494,1560,1535
65486295,1000,1000,1000,1000,114028537,1467,1477,1560,1536
65488794,1000,1000,1000,1000,114128497,1461,1468,1560,1543
65491293,1000,1000,1000,1000,114228457,1473,1482,1560,1570
65493792,1000,1000,1000,1000,114328417,1552,1568,1560,1665
65496291,1000,1000,1000,1000,114428377,1573,1593,1560,1668
65498790,1000,1000,1000,1000,114528337,1578,1589,1560,1635
65501289,1000,1000,1000,1000,114628297,1597,1589,1560,1579
65503788,1000,1000,1000,1000,114728257,1629,1609,1560,1505
65506287,1000,1000,1000,1000,114828217,1643,1615,1560,1484
65508786,1000,1000,1000,1000,114928177,1646,1614,1560,1496
65511285,1000,1000,1000,1000,115028970,1633,1599,1560,1521
65513784,1000,1000,1000,1000,115128930,1606,1580,1560,1548
65516283,1000,1000,1000,1000,115228890,1578,1568,1560,1567
65518782,1000,1000,1000,1000,115328850,1559,1566,1560,1566
65521281,1000,1000,1000,1000,115428810,1546,1566,1560,1565
65523780,1000,1000,1000,1000,115528770,1541,1564,1560,1564
65526279,1000,1000,1000,1000,115628730,1542,1563,1560,1564
65528778,1000,1000,1000,1000,115728690,1520,1535,1560,1542
65531277,1000,1000,1000,1000,115828650,1499,1505,1560,1530
65533776,1000,1000,1000,1000,115928610,1561,1432,1560,1490
65536275,1000,1000,1000,1000,116028570,1574,1491,1560,1599
65538774,1000,1000,1000,1000,116128530,1560,1504,1560,1601
65541273,1000,1000,1000,1000,116228490,1553,1522,1560,1592
65543772,1000,1000,1000,1000,116328450,1555,1531,1560,1582
65546271,1000,1000,1000,1000,116428410,1561,1529,1560,1578
65548770,1000,1000,1000,1000,116528370,1566,1522,1560,1579
65551269,1000,1000,1000,1000,116628330,1568,1517,1560,1582
65553768,1000,1000,1000,1000,116728290,1570,1514,1560,1584
65556267,1000,1000,1000,1000,116828250,1570,1513,1560,1584
65558766,1000,1000,1000,1000,116928210,1571,1512,1560,1584
65561265,1000,1000,1000,1000,117028170,1572,1512,1560,1583
65563764,1000,1000,1000,1000,117128963,1574,1510,1560,1583
65566263,1000,1000,1000,1000,117228923,1574,1509,1560,1583
65568762,1000,1000,1000,1000,117328883,1576,1507,1560,1583
65571261,1000,1000,1000,1000,117428843,1577,1506,1560,1583
65573760,1000,1000,1000,1000,117528803,1578,1505,1560,1583
65576259,1000,1000,1000,1000,117628763,1579,1504,1560,1583
65578758,1000,1000,1000,1000,117728723,1580,1503,1560,1583
65581257,1000,1000,1000,1000,117828683,1581,1502,1560,1583
65583756,1000,1000,1000,1000,117928643,1583,1500,1560,1583
65586255,1000,1000,1000,1000,118028603,1584,1499,1560,1583
65588754,1000,1000,1000,1000,118128563,1585,1497,1560,1583
65591253,1000,1000,1000,1000,118228523,1586,1497,1560,1583
65593752,1000,1000,1000,1000,118328483,1587,1495,1560,1583
65596251,1000,1000,1000,1000,118428443,1588,1494,1560,1583
65598750,1000,1000,1000,1000,118528403,1590,1493,1560,1583
65601249,1000,1000,1000,1000,118628363,1591,1491,1560,1583
65603748,1000,1000,1000,1000,118728323,1592,1490,1560,1583
65606247,1000,1000,1000,1000,118828283,1593,1489,1560,1583
65608746,1000,1000,1000,1000,118928243,1594,1487,1560,1583
65611245,1000,1000,1000,1000,119028203,1595,1486,1560,1583
65613744,1000,1000,1000,1000,119128163,1597,1485,1560,1583
65616243,1000,1000,1000,1000,119228956,1597,1484,1560,1583
65618742,1000,1000,1000,1000,119328916,1599,1482,1560,1583
65621241,1000,1000,1000,1000,119428876,1600,1481,1560,1582
65623740,1000,1000,1000,1000,119528836,1601,1480,1560,1583
65626239,1000,1000,1000,1000,119628796,1602,1479,1560,1582
65628738,1000,1000,1000,1000,119728756,1603,1477,1560,1582
65631237,1000,1000,1000,1000,119828716,1604,1476,1560,1583
65633736,1000,1000,1000,1000,119928676,1605,1475,1560,1583
65636235,1000,1000,1000,1000,120028636,1606,1474,1560,1582
65638734,1000,1000,1000,1000,120128596,1608,1472,1560,1582
65641233,1000,1000,1000,1000,120228556,1608,1471,1560,1582
65643732,1000,1000,1000,1000,120328516,1610,1470,1560,1583
65646231,1000,1000,1000,1000,120428476,1611,1469,1560,1582
65648730,1000,1000,1000,1000,120528436,1612,1467,1560,1582
65651229,1000,1000,1000,1000,120628396,1612,1466,1560,1582
65653728,1000,1000,1000,1000,120728356,1614,1465,1560,1582
65656227,1000,1000,1000,1000,120828316,1614,1464,1560,1582
65658726,1000,1000,1000,1000,120928276,1616,1463,1560,1582
65661225,1000,1000,1000,1000,121028236,1617,1461,1560,1582
65663724,1000,1000,1000,1000,121128196,1618,1460,1560,1582
65666223,1000,1000,1000,1000,121228156,1618,1459,1560,1582
65668722,1000,1000,1000,1000,121328949,1620,1458,1560,1582
65671221,1000,1000,1000,1000,121428909,1620,1457,1560,1582
65673720,1000,1000,1000,1000,121528869,1622,1455,1560,1582
65676219,1000,1000,1000,1000,121628829,1622,1454,1560,1582
65678718,1000,1000,1000,1000,121728789,1624,1453,1560,1582
65681217,1000,1000,1000,1000,121828749,1625,1452,1560,1582
65683716,1000,1000,1000,1000,121928709,1625,1451,1560,1582
65686215,1000,1000,1000,1000,122028669,1626,1450,1560,1582
65688714,1000,1000,1000,1000,122128629,1627,1448,1560,1582
65691213,1000,1000,1000,1000,122228589,1628,1447,1560,1582
65693712,1000,1000,1000,1000,122328549,1629,1446,1560,1582
65696211,1000,1000,1000,1000,122428509,1630,1445,1560,1582
65698710,1000,1000,1000,1000,122528469,1631,1444,1560,1582
65701209,1000,1000,1000,1000,122628429,1632,1443,1560,1582
65703708,1000,1000,1000,1000,122728389,1633,1441,1560,1582
65706207,1000,1000,1000,1000,122828349,1634,1440,1560,1582
65708706,1000,1000,1000,1000,122928309,1635,1439,1560,1582
65711205,1000,1000,1000,1000,123028269,1636,1438,1560,1582
65713704,1000,1000,1000,1000,123128229,1637,1437,1560,1582
65716203,1000,1000,1000,1000,123228189,1637,1436,1560,1582
65718702,1000,1000,1000,1000,123328982,1638,1434,1560,1582
65721201,1000,1000,1000,1000,123428942,1639,1434,1560,1582
65723700,1000,1000,1000,1000,123528902,1640,1432,1560,1582
65726199,1000,1000,1000,1000,123628862,1641,1431,1560,1582
65728698,1000,1000,1000,1000,123728822,1642,1430,1560,1582
65731197,1000,1000,1000,1000,123828782,1642,1429,1560,1582
65733696,1000,1000,1000,1000,123928742,1643,1428,1560,1582
65736195,1000,1000,1000,1000,124028702,1644,1427,1560,1582
65738694,1000,1000,1000,1000,124128662,1645,1426,1560,1582
65741193,1000,1000,1000,1000,124228622,1000,1000,1000,1000
65743692,1000,1000,1000,1000,124328582,1000,1000,1000,1000
65746191,1000,1000,1000,1000,124428542,1000,1000,1000,1000
65748690,1000,1000,1000,1000,124528502,1000,1000,1000,1000
65751189,1000,1000,1000,1000,124628462,1000,1000,1000,1000
65753688,1000,1000,1000,1000,124728422,1000,1000,1000,1000
65756187,1000,1000,1000,1000,124828382,1000,1000,1000,1000
65758686,1000,1000,1000,1000,124928342,1000,1000,1000,1000
65761185,1000,1000,1000,1000,125028302,1000,1000,1000,1000
65763684,1000,1000,1000,1000,125128262,1000,1000,1000,1000
65766183,1000,1000,1000,1000,125228222,1000,1000,1000,1000
65768682,1000,1000,1000,1000,125328182,1000,1000,1000,1000
65771181,1000,1000,1000,1000,125428975,1000,1000,1000,1000
65773680,1000,1000,1000,1000,125528935,1000,1000,1000,1000
65776179,1000,1000,1000,1000,125628895,1000,1000,1000,1000
65778678,1000,1000,1000,1000,125728855,1000,1000,1000,1000
65781177,1000,1000,1000,1000,125828815,1000,1000,1000,1000
65783676,1000,1000,1000,1000,125928775,1000,1000,1000,1000
65786175,1000,1000,1000,1000,126028735,1000,1000,1000,1000
65788674,1000,1000,1000,1000,126128695,1000,1000,1000,1000
65791173,1000,1000,1000,1000,126228655,1000,1000,1000,1000
65793672,1000,1000,1000,1000,126328615,1000,1000,1000,1000
65796171,1000,1000,1000,1000,126428575,1000,1000,1000,1000
65798670,1000,1000,1000,1000,126528535,1000,1000,1000,1000
65801169,1000,1000,1000,1000,126628495,1000,1000,1000,1000
65803668,1000,1000,1000,1000,126728455,1000,1000,1000,1000
65806167,1000,1000,1000,1000,126828415,1000,1000,1000,1000
65808666,1000,1000,1000,1000,126928375,1000,1000,1000,1000
65811165,1000,1000,1000,1000,127028335,1000,1000,1000,1000
65813664,1000,1000,1000,1000,127128295,1000,1000,1000,1000
65816163,1000,1000,1000,1000,127228255,1000,1000,1000,1000
65818662,1000,1000,1000,1000,127328215,1000,1000,1000,1000
65821161,1000,1000,1000,1000,127428175,1000,1000,1000,1000
65823660,1000,1000,1000,1000,127528968,1000,1000,1000,1000
65826159,1000,1000,1000,1000,127628928,1000,1000,1000,1000
65828658,1000,1000,1000,1000,127728888,1000,1000,1000,1000
65831157,1000,1000,1000,1000,127828848,1000,1000,1000,1000
65833656,1000,1000,1000,1000,127928808,1000,1000,1000,1000
65836155,1000,1000,1000,1000,128028768,1000,1000,1000,1000
65838654,1000,1000,1000,1000,128128728,1000,1000,1000,1000
65841153,1000,1000,1000,1000,128228688,1000,1000,1000,1000
65843652,1000,1000,1000,1000,128328648,1000,1000,1000,1000
65846151,1000,1000,1000,1000,128428608,1000,1000,1000,1000
65848650,1000,1000,1000,1000,128528568,1000,1000,1000,1000
65851149,1000,1000,1000,1000,128628528,1000,1000,1000,1000
65853648,1000,1000,1000,1000,128728488,1000,1000,1000,1000
65856147,1000,1000,1000,1000,128828448,1000,1000,1000,1000
65858646,1000,1000,1000,1000,128928408,1000,1000,1000,1000
65861145,1000,1000,1000,1000,129028368,1000,1000,1000,1000
65863644,1000,1000,1000,1000,129128328,1000,1000,1000,1000
65866143,1000,1000,1000,1000,129228288,1000,1000,1000,1000
65868642,1000,1000,1000,1000,129328248,1000,1000,1000,1000
65871141,1000,1000,1000,1000,129428208,1000,1000,1000,1000
65873640,1000,1000,1000,1000,129528168,1000,1000,1000,1000
65876139,1000,1000,1000,1000,129628961,1000,1000,1000,1000
65878638,1000,1000,1000,1000,129728921,1000,1000,1000,1000
65881137,1000,1000,1000,1000,129828881,1000,1000,1000,1000
65883636,1000,1000,1000,1000,129928841,1000,1000,1000,1000
65886135,1000,1000,1000,1000,130028801,1000,1000,1000,1000
65888634,1000,1000,1000,1000,130128761,1000,1000,1000,1000
65891133,1000,1000,1000,1000,130228721,1000,1000,1000,1000
65893632,1000,1000,1000,1000,130328681,1000,1000,1000,1000
65896131,1000,1000,1000,1000,130428641,1000,1000,1000,1000
65898630,1000,1000,1000,1000,130528601,1000,1000,1000,1000
65901129,1000,1000,1000,1000,130628561,1000,1000,1000,1000
65903628,1000,1000,1000,1000,130728521,1000,1000,1000,1000
65906127,1000,1000,1000,1000,130828481,1000,1000,1000,1000
65908626,1000,1000,1000,1000,130928441,1000,1000,1000,1000
65911125,1000,1000,1000,1000,131028401,1000,1000,1000,1000
65913624,1000,1000,1000,1000,131128361,1000,1000,1000,1000
65916123,1000,1000,1000,1000,131228321,1000,1000,1000,1000
65918622,1000,1000,1000,1000,131328281,1000,1000,1000,1000
65921121,1000,1000,1000,1000,131428241,1000,1000,1000,1000
65923620,1000,1000,1000,1000,131528201,1000,1000,1000,1000
65926119,1000,1000,1000,1000,131628161,1000,1000,1000,1000
65928618,1000,1000,1000,1000,131728954,1000,1000,1000,1000
65931117,1000,1000,1000,1000,131828914,1000,1000,1000,1000
65933616,1000,1000,1000,1000,131928874,1000,1000,1000,1000
65936115,1000,1000,1000,1000,132028834,1000,1000,1000,1000
65938614,1000,1000,1000,1000,132128794,1000,1000,1000,1000
65941113,1000,1000,1000,1000,132228754,1000,1000,1000,1000
65943612,1000,1000,1000,1000,132328714,1000,1000,1000,1000
65946111,1000,1000,1000,1000,132428674,1000,1000,1000,1000
65948610,1000,1000,1000,1000,132528634,1000,1000,1000,1000
65951109,1000,1000,1000,1000,132628594,1000,1000,1000,1000
65953608,1000,1000,1000,1000,132728554,1000,1000,1000,1000
65956107,1000,1000,1000,1000,132828514,1000,1000,1000,1000
65958606,1000,1000,1000,1000,132928474,1000,1000,1000,1000
65961105,1000,1000,1000,1000,133028434,1000,1000,1000,1000
65963604,1000,1000,1000,1000,133128394,1000,1000,1000,1000
65966103,1000,1000,1000,1000,133228354,1000,1000,1000,1000
65968602,1000,1000,1000,1000,133328314,1000,1000,1000,1000
65971101,1000,1000,1000,1000,133428274,1000,1000,1000,1000
65973600,1000,1000,1000,1000,133528234,1000,1000,1000,1000
65976099,1000,1000,1000,1000,133628194,1000,1000,1000,1000
65978598,1000,1000,1000,1000,133728154,1000,1000,1000,1000
65981097,1000,1000,1000,1000,133828947,1000,1000,1000,1000
65983596,1000,1000,1000,1000,133928907,1000,1000,1000,1000
65986095,1000,1000,1000,1000,134028867,1000,1000,1000,1000
65988594,1000,1000,1000,1000,134128827,1000,1000,1000,1000
65991093,1000,1000,1000,1000,134228787,1000,1000,1000,1000
65993592,1000,1000,1000,1000,134328747,1000,1000,1000,1000
65996091,1000,1000,1000,1000,134428707,1000,1000,1000,1000
65998590,1000,1000,1000,1000,134528667,1000,1000,1000,1000
66001089,1000,1000,1000,1000,134628627,1000,1000,1000,1000
66003588,1000,1000,1000,1000,134728587,1000,1000,1000,1000
66006087,1000,1000,1000,1000,134828547,1000,1000,1000,1000
66008586,1000,1000,1000,1000,134928507,1000,1000,1000,1000
66011085,1000,1000,1000,1000,135028467,1000,1000,1000,1000
66013584,1000,1000,1000,1000,135128427,1000,1000,1000,1000
66016083,1000,1000,1000,1000,135228387,1000,1000,1000,1000
66018582,1000,1000,1000,1000,135328347,1000,1000,1000,1000
66021081,1000,1000,1000,1000,135428307,1000,1000,1000,1000
66023580,1000,1000,1000,1000,135528267,1000,1000,1000,1000
66026079,1000,1000,1000,1000,135628227,1000,1000,1000,1000
66028578,1000,1000,1000,1000,135728187,1000,1000,1000,1000
66031077,1000,1000,1000,1000,135828980,1000,1000,1000,1000
66033576,1000,1000,1000,1000,135928940,1000,1000,1000,1000
66036075,1000,1000,1000,1000,136028900,1000,1000,1000,1000
66038574,1000,1000,1000,1000,136128860,1000,1000,1000,1000
66041073,1000,1000,1000,1000,136228820,1000,1000,1000,1000
66043572,1000,1000,1000,1000,136328780,1000,1000,1000,1000
66046071,1000,1000,1000,1000,136428740,1000,1000,1000,1000
66048570,1000,1000,1000,1000,136528700,1000,1000,1000,1000
66051069,1000,1000,1000,1000,136628660,1000,1000,1000,1000
66053568,1000,1000,1000,1000,136728620,1000,1000,1000,1000
66056067,1000,1000,1000,1000,136828580,1000,1000,1000,1000
66058566,1000,1000,1000,1000,136928540,1000,1000,1000,1000
66061065,1000,1000,1000,1000,137028500,1000,1000,1000,1000
66063564,1000,1000,1000,1000,137128460,1000,1000,1000,1000
66066063,1000,1000,1000,1000,137228420,1000,1000,1000,1000
66068562,1000,1000,1000,1000,137328380,1000,1000,1000,1000
66071061,1000,1000,1000,1000,137428340,1000,1000,1000,1000
66073560,1000,1000,1000,1000,137528300,1000,1000,1000,1000
66076059,1000,1000,1000,1000,137628260,1000,1000,1000,1000
66078558,1000,1000,1000,1000,137728220,1000,1000,1000,1000
66081057,1000,1000,1000,1000,137828180,1000,1000,1000,1000
66083556,1000,1000,1000,1000,137928973,1000,1000,1000,1000
66086055,1000,1000,1000,1000,138028933,1000,1000,1000,1000
66088554,1000,1000,1000,1000,138128893,1000,1000,1000,1000
66091053,1000,1000,1000,1000,138228853,1000,1000,1000,1000
66093552,1000,1000,1000,1000,138328813,1000,1000,1000,1000
66096051,1000,1000,1000,1000,138428773,1000,1000,1000,1000
66098550,1000,1000,1000,1000,138528733,1000,1000,1000,1000
66101049,1000,1000,1000,1000,138628693,1000,1000,1000,1000
66103548,1000,1000,1000,1000,138728653,1000,1000,1000,1000
66106047,1000,1000,1000,1000,138828613,1000,1000,1000,1000
66108546,1000,1000,1000,1000,138928573,1000,1000,1000,1000
66111045,1000,1000,1000,1000,139028533,1000,1000,1000,1000
66113544,1000,1000,1000,1000,139128493,1000,1000,1000,1000
66116043,1000,1000,1000,1000,139228453,1000,1000,1000,1000
66118542,1000,1000,1000,1000,139328413,1000,1000,1000,1000
66121041,1000,1000,1000,1000,139428373,1000,1000,1000,1000
66123540,1000,1000,1000,1000,139528333,1000,1000,1000,1000
66126039,1000,1000,1000,1000,139628293,1000,1000,1000,1000
66128538,1000,1000,1000,1000,139728253,1000,1000,1000,1000
66131037,1000,1000,1000,1000,139828213,1000,1000,1000,1000
66133536,1000,1000,1000,1000,139928173,1000,1000,1000,1000
66136035,1000,1000,1000,1000,140028966,1000,1000,1000,1000
66138534,1000,1000,1000,1000,140128926,1000,1000,1000,1000
66141033,1000,1000,1000,1000,140228886,1000,1000,1000,1000
66143532,1000,1000,1000,1000,140328846,1000,1000,1000,1000
66146031,1000,1000,1000,1000,140428806,1000,1000,1000,1000
66148530,1000,1000,1000,1000,140528766,1000,1000,1000,1000
66151029,1000,1000,1000,1000,140628726,1000,1000,1000,1000
66153528,1000,1000,1000,1000,140728686,1000,1000,1000,1000
66156027,1000,1000,1000,1000,140828646,1000,1000,1000,1000
66158526,1000,1000,1000,1000,140928606,1000,1000,1000,1000
66161025,1000,1000,1000,1000,141028566,1000,1000,1000,1000
66163524,1000,1000,1000,1000,141128526,1000,1000,1000,1000
66166023,1000,1000,1000,1000,141228486,1000,1000,1000,1000
66168522,1000,1000,1000,1000,141328446,1000,1000,1000,1000
66171021,1000,1000,1000,1000,141428406,1000,1000,1000,1000
66173520,1000,1000,1000,1000,141528366,1000,1000,1000,1000
66176019,1000,1000,1000,1000,141628326,1000,1000,1000,1000
66178518,1000,1000,1000,1000,141728286,1000,1000,1000,1000
66181017,1000,1000,1000,1000,141828246,1000,1000,1000,1000
66183516,1000,1000,1000,1000,141928206,1000,1000,1000,1000
66186015,1000,1000,1000,1000,142028166,1000,1000,1000,1000
66188514,1000,1000,1000,1000,142128959,1000,1000,1000,1000
66191013,1000,1000,1000,1000,142228919,1000,1000,1000,1000
66193512,1000,1000,1000,1000,142328879,1000,1000,1000,1000
66196011,1000,1000,1000,1000,142428839,1000,1000,1000,1000
66198510,1000,1000,1000,1000,142528799,1000,1000,1000,1000
66201009,1000,1000,1000,1000,142628759,1000,1000,1000,1000
66203508,1000,1000,1000,1000,142728719,1000,1000,1000,1000
66206007,1000,1000,1000,1000,142828679,1000,1000,1000,1000
66208506,1000,1000,1000,1000,142928639,1000,1000,1000,1000
66211005,1000,1000,1000,1000,143028599,1000,1000,1000,1000
66213504,1000,1000,1000,1000,143128559,1000,1000,1000,1000
66216003,1000,1000,1000,1000,143228519,1000,1000,1000,1000
66218502,1000,1000,1000,1000,143328479,1000,1000,1000,1000
66221001,1000,1000,1000,1000,143428439,1000,1000,1000,1000
66223500,1000,1000,1000,1000,143528399,1000,1000,1000,1000
66225999,1000,1000,1000,1000,143628359,1000,1000,1000,1000
66228498,1000,1000,1000,1000,143728319,1000,1000,1000,1000
66230997,1000,1000,1000,1000,143828279,1000,1000,1000,1000
66233496,1000,1000,1000,1000,143928239,1000,1000,1000,1000
66235995,1000,1000,1000,1000,144028199,1000,1000,1000,1000
66238494,1000,1000,1000,1000,144128159,1000,1000,1000,1000
66240993,1000,1000,1000,1000,144228952,1000,1000,1000,1000
66243492,1000,1000,1000,1000,144328912,1000,1000,1000,1000
66245991,1000,1000,1000,1000,144428872,1000,1000,1000,1000
66248490,1000,1000,1000,1000,144528832,1000,1000,1000,1000
66250989,1001,1001,1001,1001,144628792,1000,1000,1000,1000
66253488,1002,1002,1002,1002,144728752,1000,1000,1000,1000
66255987,1003,1003,1003,1003,144828712,1000,1000,1000,1000
66258486,1003,1003,1003,1003,144928672,1000,1000,1000,1000
66260985,1004,1004,1004,1004,145028632,1000,1000,1000,1000
66263484,1005,1005,1005,1005,145128592,1000,1000,1000,1000
66265983,1006,1006,1006,1006,145228552,1000,1000,1000,1000
66268482,1006,1006,1006,1006,145328512,1000,1000,1000,1000
66270981,1007,1007,1007,1007,145428472,1000,1000,1000,1000
66273480,1008,1008,1008,1008,145528432,1000,1000,1000,1000
66275979,1009,1009,1009,1009,145628392,1000,1000,1000,1000
66278478,1009,1009,1009,1009,145728352,1000,1000,1000,1000
66280977,1010,1010,1010,1010,145828312,1000,1000,1000,1000
66283476,1011,1011,1011,1011,145928272,1000,1000,1000,1000
66285975,1012,1012,1012,1012,146028232,1000,1000,1000,1000
66288474,1012,1012,1012,1012,146128192,1000,1000,1000,1000
66290973,1013,1013,1013,1013,146228985,1000,1000,1000,1000
66293472,1014,1014,1014,1014,146328945,1000,1000,1000,1000
66295971,1015,1015,1015,1015,146428905,1000,1000,1000,1000
66298470,1015,1015,1015,1015,146528865,1000,1000,1000,1000
66300969,1016,1016,1016,1016,146628825,1000,1000,1000,1000
66303468,1017,1017,1017,1017,146728785,1000,1000,1000,1000
66305967,1018,1018,1018,1018,146828745,1000,1000,1000,1000
66308466,1018,1018,1018,1018,146928705,1000,1000,1000,1000
66310965,1019,1019,1019,1019,147028665,1000,1000,1000,1000
66313464,1020,1020,1020,1020,147128625,1000,1000,1000,1000
66315963,1021,1021,1021,1021,147228585,1000,1000,1000,1000
66318462,1021,1021,1021,1021,147328545,1000,1000,1000,1000
66320961,1022,1022,1022,1022,147428505,1000,1000,1000,1000
66323460,1023,1023,1023,1023,147528465,1000,1000,1000,1000
66325959,1024,1024,1024,1024,147628425,1000,1000,1000,1000
66328458,1024,1024,1024,1024,147728385,1000,1000,1000,1000
66330957,1025,1025,1025,1025,147828345,1000,1000,1000,1000
66333456,1026,1026,1026,1026,147928305,1000,1000,1000,1000
66335955,1027,1027,1027,1027,148028265,1000,1000,1000,1000
66338454,1027,1027,1027,1027,148128225,1000,1000,1000,1000
66340953,1028,1028,1028,1028,148228185,1000,1000,1000,1000
66343452,1029,1029,1029,1029,148328978,1000,1000,1000,1000
66345951,1030,1030,1030,1030,148428938,1000,1000,1000,1000
66348450,1030,1030,1030,1030,148528898,1000,1000,1000,1000
66350949,1031,1031,1031,1031,148628858,1000,1000,1000,1000
66353448,1032,1032,1032,1032,148728818,1000,1000,1000,1000
66355947,1033,1033,1033,1033,148828778,1000,1000,1000,1000
66358446,1033,1033,1033,1033,148928738,1000,1000,1000,1000
66360945,1034,1034,1034,1034,149028698,1000,1000,1000,1000
66363444,1035,1035,1035,1035,149128658,1000,1000,1000,1000
66365943,1036,1036,1036,1036,149228618,1000,1000,1000,1000
66368442,1036,1036,1036,1036,149328578,1000,1000,1000,1000
66370941,1037,1037,1037,1037,149428538,1000,1000,1000,1000
66373440,1038,1038,1038,1038,149528498,1000,1000,1000,1000
66375939,1039,1039,1039,1039,149628458,1000,1000,1000,1000
66378438,1039,1039,1039,1039,149728418,1000,1000,1000,1000
66380937,1040,1040,1040,1040,149828378,1000,1000,1000,1000
66383436,1041,1041,1041,1041,149928338,1000,1000,1000,1000
66385935,1042,1042,1042,1042,150028298,1000,1000,1000,1000
66388434,1042,1042,1042,1042,150128258,1000,1000,1000,1000
66390933,1043,1043,1043,1043,150228218,1000,1000,1000,1000
66393432,1044,1044,1044,1044,150328178,1000,1000,1000,1000
66395931,1045,1045,1045,1045,150428971,1000,1000,1000,1000
66398430,1045,1045,1045,1045,150528931,1000,1000,1000,1000
66400929,1046,1046,1046,1046,150628891,1000,1000,1000,1000
66403428,1047,1047,1047,1047,150728851,1000,1000,1000,1000
66405927,1048,1048,1048,1048,150828811,1000,1000,1000,1000
66408426,1048,1048,1048,1048,150928771,1000,1000,1000,1000
66410925,1049,1049,1049,1049,151028731,1000,1000,1000,1000
66413424,1050,1050,1050,1050,151128691,1000,1000,1000,1000
66415923,1051,1051,1051,1051,151228651,1000,1000,1000,1000
66418422,1051,1051,1051,1051,151328611,1000,1000,1000,1000
66420921,1052,1052,1052,1052,151428571,1000,1000,1000,1000
66423420,1053,1053,1053,1053,151528531,1000,1000,1000,1000
66425919,1054,1054,1054,1054,151628491,1000,1000,1000,1000
66428418,1054,1054,1054,1054,151728451,1000,1000,1000,1000
66430917,1055,1055,1055,1055,151828411,1000,1000,1000,1000
66433416,1056,1056,1056,1056,151928371,1000,1000,1000,1000
66435915,1057,1057,1057,1057,152028331,1000,1000,1000,1000
66438414,1057,1057,1057,1057,152128291,1000,1000,1000,1000
66440913,1058,1058,1058,1058,152228251,1000,1000,1000,1000
66443412,1059,1059,1059,1059,152328211,1000,1000,1000,1000
66445911,1060,1060,1060,1060,152428171,1000,1000,1000,1000
66448410,1060,1060,1060,1060,152528964,1000,1000,1000,1000
66450909,1061,1061,1061,1061,152628924,1000,1000,1000,1000
66453408,1062,1062,1062,1062,152728884,1000,1000,1000,1000
66455907,1063,1063,1063,1063,152828844,1000,1000,1000,1000
66458406,1063,1063,1063,1063,152928804,1000,1000,1000,1000
66460905,1064,1064,1064,1064,153028764,1000,1000,1000,1000
66463404,1065,1065,1065,1065,153128724,1000,1000,1000,1000
66465903,1066,1066,1066,1066,153228684,1000,1000,1000,1000
66468402,1066,1066,1066,1066,153328644,1000,1000,1000,1000
66470901,1067,1067,1067,1067,153428604,1000,1000,1000,1000
66473400,1068,1068,1068,1068,153528564,1000,1000,1000,1000
66475899,1069,1069,1069,1069,153628524,1000,1000,1000,1000
66478398,1069,1069,1069,1069,153728484,1000,1000,1000,1000
66480897,1070,1070,1070,1070,153828444,1000,1000,1000,1000
66483396,1071,1071,1071,1071,153928404,1000,1000,1000,1000
66485895,1072,1072,1072,1072,154028364,1000,1000,1000,1000
66488394,1072,1072,1072,1072,154128324,1000,1000,1000,1000
66490893,1073,1073,1073,1073,154228284,1000,1000,1000,1000
66493392,1074,1074,1074,1074,154328244,1000,1000,1000,1000
66495891,1075,1075,1075,1075,154428204,1000,1000,1000,1000
66498390,1075,1075,1075,1075,154528164,1000,1000,1000,1000
66500889,1076,1076,1076,1076,154628957,1000,1000,1000,1000
66503388,1077,1077,1077,1077,154728917,1000,1000,1000,1000
66505887,1078,1078,1078,1078,154828877,1000,1000,1000,1000
66508386,1078,1078,1078,1078,154928837,1000,1000,1000,1000
66510885,1079,1079,1079,1079,155028797,1000,1000,1000,1000
66513384,1080,1080,1080,1080,155128757,1000,1000,1000,1000
66515883,1081,1081,1081,1081,155228717,1000,1000,1000,1000
66518382,1081,1081,1081,1081,155328677,1000,1000,1000,1000
66520881,1082,1082,1082,1082,155428637,1000,1000,1000,1000
66523380,1083,1083,1083,1083,155528597,1000,1000,1000,1000
66525879,1084,1084,1084,1084,155628557,1000,1000,1000,1000
66528378,1084,1084,1084,1084,155728517,1000,1000,1000,1000
66530877,1085,1085,1085,1085,155828477,1000,1000,1000,1000
66533376,1086,1086,1086,1086,155928437,1000,1000,1000,1000
66535875,1087,1087,1087,1087,156028397,1000,1000,1000,1000
66538374,1087,1087,1087,1087,156128357,1000,1000,1000,1000
66540873,1088,1088,1088,1088,156228317,1000,1000,1000,1000
66543372,1089,1089,1089,1089,156328277,1000,1000,1000,1000
66545871,1090,1090,1090,1090,156428237,1000,1000,1000,1000
66548370,1090,1090,1090,1090,156528197,1000,1000,1000,1000
66550869,1091,1091,1091,1091,156628157,1000,1000,1000,1000
66553368,1092,1092,1092,1092,156728950,1000,1000,1000,1000
66555867,1093,1093,1093,1093,156828910,1000,1000,1000,1000
66558366,1093,1093,1093,1093,156928870,1000,1000,1000,1000
66560865,1094,1094,1094,1094,157028830,1000,1000,1000,1000
66563364,1095,1095,1095,1095,157128790,1000,1000,1000,1000
66565863,1096,1096,1096,1096,157228750,1000,1000,1000,1000
66568362,1096,1096,1096,1096,157328710,1000,1000,1000,1000
66570861,1097,1097,1097,1097,157428670,1000,1000,1000,1000
66573360,1098,1098,1098,1098,157528630,1000,1000,1000,1000
66575859,1099,1099,1099,1099,157628590,1000,1000,1000,1000
66578358,1099,1099,1099,1099,157728550,1000,1000,1000,1000
66580857,1100,1100,1100,1100,157828510,1000,1000,1000,1000
66583356,1101,1101,1101,1101,157928470,1000,1000,1000,1000
66585855,1101,1101,1101,1101,158028430,1000,1000,1000,1000
66588354,1102,1102,1102,1102,158128390,1000,1000,1000,1000
66590853,1103,1103,1103,1103,158228350,1000,1000,1000,1000
66593352,1104,1104,1104,1104,158328310,1000,1000,1000,1000
66595851,1104,1104,1104,1104,158428270,1000,1000,1000,1000
66598350,1105,1105,1105,1105,158528230,1000,1000,1000,1000
66600849,1106,1106,1106,1106,158628190,1000,1000,1000,1000
66603348,1107,1107,1107,1107,158728983,1000,1000,1000,1000
66605847,1107,1107,1107,1107,158828943,1000,1000,1000,1000
66608346,1108,1108,1108,1108,158928903,1000,1000,1000,1000
66610845,1109,1109,1109,1109,159028863,1000,1000,1000,1000
66613344,1110,1110,1110,1110,159128823,1000,1000,1000,1000
66615843,1110,1110,1110,1110,159228783,1000,1000,1000,1000
66618342,1111,1111,1111,1111,159328743,1000,1000,1000,1000
66620841,1112,1112,1112,1112,159428703,1000,1000,1000,1000
66623340,1113,1113,1113,1113,159528663,1000,1000,1000,1000
66625839,1113,1113,1113,1113,159628623,1000,1000,1000,1000
66628338,1114,1114,1114,1114,159728583,1000,1000,1000,1000
66630837,1115,1115,1115,1115,159828543,1000,1000,1000,1000
66633336,1116,1116,1116,1116,159928503,1000,1000,1000,1000
66635835,1116,1116,1116,1116,160028463,1000,1000,1000,1000
66638334,1117,1117,1117,1117,160128423,1000,1000,1000,1000
66640833,1118,1118,1118,1118,160228383,1000,1000,1000,1000
66643332,1119,1119,1119,1119,160328343,1000,1000,1000,1000
66645831,1119,1119,1119,1119,160428303,1000,1000,1000,1000
66648330,1120,1120,1120,1120,160528263,1000,1000,1000,1000
66650829,1121,1121,1121,1121,160628223,1000,1000,1000,1000
66653328,1122,1122,1122,1122,160728183,1000,1000,1000,1000
66655827,1122,1122,1122,1122,160828976,1000,1000,1000,1000
66658326,1123,1123,1123,1123,160928936,1000,1000,1000,1000
66660825,1124,1124,1124,1124,161028896,1000,1000,1000,1000
66663324,1125,1125,1125,1125,161128856,1000,1000,1000,1000
66665823,1125,1125,1125,1125,161228816,1000,1000,1000,1000
66668322,1126,1126,1126,1126,161328776,1000,1000,1000,1000
66670821,1127,1127,1127,1127,161428736,1000,1000,1000,1000
66673320,1128,1128,1128,1128,161528696,1000,1000,1000,1000
66675819,1128,1128,1128,1128,161628656,1000,1000,1000,1000
66678318,1129,1129,1129,1129,161728616,1000,1000,1000,1000
66680817,1130,1130,1130,1130,161828576,1000,1000,1000,1000
66683316,1131,1131,1131,1131,161928536,1000,1000,1000,1000
66685815,1131,1131,1131,1131,162028496,1000,1000,1000,1000
66688314,1132,1132,1132,1132,162128456,1000,1000,1000,1000
66690813,1133,1133,1133,1133,162228416,1000,1000,1000,1000
66693312,1134,1134,1134,1134,162328376,1000,1000,1000,1000
66695811,1134,1134,1134,1134,162428336,1000,1000,1000,1000
66698310,1135,1135,1135,1135,162528296,1000,1000,1000,1000
66700809,1136,1136,1136,1136,162628256,1000,1000,1000,1000
66703308,1137,1137,1137,1137,,,,,
66705807,1137,1137,1137,1137,,,,,
66708306,1138,1138,1138,1138,,,,,
66710805,1139,1139,1139,1139,,,,,
66713304,1140,1140,1140,1140,,,,,
66715803,1140,1140,1140,1140,,,,,
66718302,1141,1141,1141,1141,,,,,
66720801,1142,1142,1142,1142,,,,,
66723300,1143,1143,1143,1143,,,,,
66725799,1143,1143,1143,1143,,,,,
66728298,1144,1144,1144,1144,,,,,
66730797,1145,1145,1145,1145,,,,,
66733296,1146,1146,1146,1146,,,,,
66735795,1146,1146,1146,1146,,,,,
66738294,1147,1147,1147,1147,,,,,
66740793,1148,1148,1148,1148,,,,,
66743292,1149,1149,1149,1149,,,,,
66745791,1149,1149,1149,1149,,,,,
66748290,1150,1150,1150,1150,,,,,
66750789,1162,1152,1153,1163,,,,,
66753288,1170,1160,1161,1171,,,,,
66755787,1178,1168,1169,1179,,,,,
66758286,1186,1176,1177,1187,,,,,
66760785,1193,1184,1184,1194,,,,,
66763284,1201,1192,1192,1202,,,,,
66765783,1208,1199,1199,1209,,,,,
66768282,1215,1206,1207,1216,,,,,
66770781,1222,1214,1214,1223,,,,,
66773280,1229,1221,1221,1230,,,,,
66775779,1236,1228,1228,1237,,,,,
66778278,1243,1235,1235,1244,,,,,
66780777,1250,1241,1242,1250,,,,,
66783276,1256,1248,1248,1257,,,,,
66785775,1263,1255,1255,1263,,,,,
66788274,1269,1261,1262,1270,,,,,
66790773,1276,1268,1268,1276,,,,,
66793272,1282,1274,1274,1282,,,,,
66795771,1288,1280,1281,1289,,,,,
66798270,1294,1286,1287,1295,,,,,
66800769,1300,1293,1293,1301,,,,,
66803268,1306,1299,1299,1307,,,,,
66805767,1312,1305,1305,1313,,,,,
66808266,1318,1311,1311,1319,,,,,
66810765,1324,1316,1317,1324,,,,,
66813264,1330,1322,1323,1330,,,,,
66815763,1335,1328,1328,1336,,,,,
66818262,1341,1334,1334,1342,,,,,
66820761,1347,1339,1340,1347,,,,,
66823260,1352,1345,1345,1353,,,,,
66825759,1358,1351,1351,1358,,,,,
66828258,1363,1356,1356,1364,,,,,
66830757,1368,1361,1362,1369,,,,,
66833256,1374,1367,1367,1374,,,,,
66835755,1379,1372,1373,1380,,,,,
66838254,1384,1378,1378,1385,,,,,
66840753,1390,1383,1383,1390,,,,,
66843252,1395,1388,1388,1395,,,,,
66845751,1400,1393,1393,1400,,,,,
66848250,1405,1398,1399,1406,,,,,
66850749,1410,1403,1404,1411,,,,,
66853248,1415,1408,1409,1416,,,,,
66855747,1420,1413,1414,1421,,,,,
66858246,1425,1418,1419,1425,,,,,
66860745,1430,1423,1424,1430,,,,,
66863244,1435,1428,1429,1435,,,,,
66865743,1440,1433,1433,1440,,,,,
