TimeUS,M1,M2,M3,M4,TimeUS,C1,C2,C3,C4
114823219,1000,1000,1000,1000,114828217,1000,1000,1000,1000
114825718,1000,1000,1000,1000,114928177,1000,1000,1000,1000
114828217,1000,1000,1000,1000,115028970,1000,1000,1000,1000
114830716,1000,1000,1000,1000,115128930,1000,1000,1000,1000
114833215,1000,1000,1000,1000,115228890,1000,1000,1000,1000
114835714,1000,1000,1000,1000,115328850,1000,1000,1000,1000
114838213,1000,1000,1000,1000,115428810,1000,1000,1000,1000
114840712,1000,1000,1000,1000,115528770,1000,1000,1000,1000
114843211,1000,1000,1000,1000,115628730,1000,1000,1000,1000
114845710,1000,1000,1000,1000,115728690,1000,1000,1000,1000
114848209,1000,1000,1000,1000,115828650,1000,1000,1000,1000
114850708,1000,1000,1000,1000,115928610,1000,1000,1000,1000
114853207,1000,1000,1000,1000,116028570,1000,1000,1000,1000
114855706,1000,1000,1000,1000,116128530,1000,1000,1000,1000
114858205,1000,1000,1000,1000,116228490,1000,1000,1000,1000
114860704,1000,1000,1000,1000,116328450,1000,1000,1000,1000
114863203,1000,1000,1000,1000,116428410,1000,1000,1000,1000
114865702,1000,1000,1000,1000,116528370,1000,1000,1000,1000
114868201,1000,1000,1000,1000,116628330,1000,1000,1000,1000
114870700,1000,1000,1000,1000,116728290,1000,1000,1000,1000
114873199,1000,1000,1000,1000,116828250,1001,1001,1001,1001
114875698,1000,1000,1000,1000,116928210,1031,1031,1031,1031
114878197,1000,1000,1000,1000,117028170,1061,1061,1061,1061
114880696,1000,1000,1000,1000,117128963,1091,1091,1091,1091
114883195,1000,1000,1000,1000,117228923,1121,1121,1121,1121
114885694,1000,1000,1000,1000,117328883,1165,1150,1150,1166
114888193,1000,1000,1000,1000,117428843,1413,1400,1401,1414
114890692,1000,1000,1000,1000,117528803,1590,1579,1579,1591
114893191,1000,1000,1000,1000,117628763,1736,1725,1726,1736
114895690,1000,1000,1000,1000,117728723,1863,1852,1853,1863
114898189,1000,1000,1000,1000,117828683,1897,1887,1887,1897
114900688,1000,1000,1000,1000,117928643,1810,1807,1807,1811
114903187,1000,1000,1000,1000,118028603,1689,1691,1692,1690
114905686,1000,1000,1000,1000,118128563,1634,1638,1639,1634
114908185,1000,1000,1000,1000,118228523,1632,1636,1636,1632
114910684,1000,1000,1000,1000,118328483,1641,1644,1644,1641
114913183,1000,1000,1000,1000,118428443,1644,1645,1645,1644
114915682,1000,1000,1000,1000,118528403,1639,1638,1638,1639
114918181,1000,1000,1000,1000,118628363,1630,1629,1628,1630
114920680,1000,1000,1000,1000,118728323,1624,1623,1622,1624
114923179,1000,1000,1000,1000,118828283,1604,1605,1605,1604
114925678,1000,1000,1000,1000,118928243,1581,1580,1579,1581
114928177,1000,1000,1000,1000,119028203,1568,1567,1567,1568
114930676,1000,1000,1000,1000,119128163,1558,1557,1557,1558
114933175,1000,1000,1000,1000,119228956,1553,1552,1549,1556
114935674,1000,1000,1000,1000,119328916,1549,1548,1542,1555
114938173,1000,1000,1000,1000,119428876,1548,1548,1543,1552
114940672,1000,1000,1000,1000,119528836,1548,1548,1545,1549
114943171,1000,1000,1000,1000,119628796,1548,1548,1549,1547
114945670,1000,1000,1000,1000,119728756,1549,1549,1552,1546
114948169,1000,1000,1000,1000,119828716,1551,1552,1556,1548
114950668,1000,1000,1000,1000,119928676,1551,1552,1556,1549
114953167,1000,1000,1000,1000,120028636,1541,1542,1552,1533
114955666,1000,1000,1000,1000,120128596,1541,1541,1546,1537
114958165,1000,1000,1000,1000,120228556,1539,1539,1538,1542
114960664,1000,1000,1000,1000,120328516,1540,1539,1533,1546
114963163,1000,1000,1000,1000,120428476,1540,1539,1533,1547
114965662,1000,1000,1000,1000,120528436,1541,1541,1535,1547
114968161,1000,1000,1000,1000,120628396,1543,1543,1541,1546
114970660,1000,1000,1000,1000,120728356,1547,1547,1548,1545
114973159,1000,1000,1000,1000,120828316,1549,1550,1553,1546
114975658,1000,1000,1000,1000,120928276,1553,1553,1556,1549
114978157,1000,1000,1000,1000,121028236,1556,1557,1559,1553
114980656,1000,1000,1000,1000,121128196,1558,1558,1559,1557
114983155,1000,1000,1000,1000,121228156,1560,1559,1558,1560
114985654,1000,1000,1000,1000,121328949,1558,1558,1561,1565
114988986,1000,1000,1000,1000,121428909,1558,1558,1563,1567
114991485,1000,1000,1000,1000,121528869,1559,1560,1565,1568
114993984,1000,1000,1000,1000,121628829,1561,1562,1565,1566
114996483,1000,1000,1000,1000,121728789,1563,1564,1566,1566
114998982,1000,1000,1000,1000,121828749,1566,1566,1567,1565
115001481,1000,1000,1000,1000,121928709,1568,1568,1568,1566
115003980,1000,1000,1000,1000,122028669,1570,1570,1568,1567
115006479,1000,1000,1000,1000,122128629,1571,1572,1568,1567
115008978,1000,1000,1000,1000,122228589,1572,1573,1567,1568
115011477,1000,1000,1000,1000,122328549,1573,1572,1567,1569
115013976,1000,1000,1000,1000,122428509,1573,1573,1569,1569
115016475,1000,1000,1000,1000,122528469,1573,1572,1569,1570
115018974,1000,1000,1000,1000,122628429,1574,1573,1571,1571
115021473,1000,1000,1000,1000,122728389,1575,1575,1574,1573
115023972,1000,1000,1000,1000,122828349,1575,1575,1576,1574
115026471,1000,1000,1000,1000,122928309,1574,1575,1576,1574
115028970,1000,1000,1000,1000,123028269,1574,1575,1577,1575
115031469,1000,1000,1000,1000,123128229,1576,1576,1577,1577
115033968,1000,1000,1000,1000,123228189,1576,1576,1577,1577
115036467,1000,1000,1000,1000,123328982,1576,1575,1577,1577
115038966,1000,1000,1000,1000,123428942,1576,1577,1578,1578
115041465,1000,1000,1000,1000,123528902,1576,1576,1577,1577
115043964,1000,1000,1000,1000,123628862,1576,1577,1577,1577
115046463,1000,1000,1000,1000,123728822,1577,1577,1577,1577
115048962,1000,1000,1000,1000,123828782,1577,1576,1577,1576
115051461,1000,1000,1000,1000,123928742,1578,1578,1578,1578
115053960,1000,1000,1000,1000,124028702,1579,1579,1578,1578
115056459,1000,1000,1000,1000,124128662,1577,1578,1577,1577
115058958,1000,1000,1000,1000,124228622,1578,1579,1578,1578
115061457,1000,1000,1000,1000,124328582,1579,1579,1578,1579
115063956,1000,1000,1000,1000,124428542,1579,1579,1579,1579
115066455,1000,1000,1000,1000,124528502,1578,1578,1578,1578
115068954,1000,1000,1000,1000,124628462,1579,1579,1579,1579
115071453,1000,1000,1000,1000,124728422,1579,1578,1579,1579
115073952,1000,1000,1000,1000,124828382,1579,1579,1579,1579
115076451,1000,1000,1000,1000,124928342,1577,1577,1577,1577
115078950,1000,1000,1000,1000,125028302,1577,1578,1578,1578
115081449,1000,1000,1000,1000,125128262,1578,1578,1578,1579
115083948,1000,1000,1000,1000,125228222,1579,1579,1579,1580
115086447,1000,1000,1000,1000,125328182,1578,1578,1579,1578
115088946,1000,1000,1000,1000,125428975,1580,1579,1580,1579
115091445,1000,1000,1000,1000,125528935,1579,1579,1579,1579
115093944,1000,1000,1000,1000,125628895,1578,1579,1579,1578
115096443,1000,1000,1000,1000,125728855,1580,1579,1580,1580
115098942,1000,1000,1000,1000,125828815,1580,1580,1580,1580
115101441,1000,1000,1000,1000,125928775,1580,1580,1580,1580
115103940,1000,1000,1000,1000,126028735,1580,1580,1580,1580
115106439,1000,1000,1000,1000,126128695,1580,1581,1580,1580
115108938,1000,1000,1000,1000,126228655,1580,1580,1580,1580
115111437,1000,1000,1000,1000,126328615,1581,1580,1580,1580
115113936,1000,1000,1000,1000,126428575,1580,1580,1580,1580
115116435,1000,1000,1000,1000,126528535,1580,1581,1581,1581
115118934,1000,1000,1000,1000,126628495,1581,1581,1581,1581
115121433,1000,1000,1000,1000,126728455,1581,1580,1581,1580
115123932,1000,1000,1000,1000,126828415,1581,1581,1582,1581
115126431,1000,1000,1000,1000,126928375,1581,1581,1581,1581
115128930,1000,1000,1000,1000,127028335,1581,1581,1581,1581
115131429,1000,1000,1000,1000,127128295,1580,1580,1580,1580
115133928,1000,1000,1000,1000,127228255,1580,1580,1581,1580
115136427,1000,1000,1000,1000,127328215,1580,1580,1580,1580
115138926,1000,1000,1000,1000,127428175,1581,1581,1581,1581
115141425,1000,1000,1000,1000,127528968,1581,1581,1581,1580
115143924,1000,1000,1000,1000,127628928,1580,1582,1588,1573
115146423,1000,1000,1000,1000,127728888,1580,1582,1584,1572
115148922,1000,1000,1000,1000,127828848,1579,1582,1576,1573
115151421,1000,1000,1000,1000,127928808,1577,1580,1567,1571
115153920,1000,1000,1000,1000,128028768,1576,1578,1559,1566
115156419,1000,1000,1000,1000,128128728,1577,1578,1555,1562
115158918,1000,1000,1000,1000,128228688,1578,1578,1553,1557
115161417,1000,1000,1000,1000,128328648,1580,1578,1554,1554
115163916,1000,1000,1000,1000,128428608,1580,1579,1555,1553
115166415,1000,1000,1000,1000,128528568,1579,1578,1555,1553
115168914,1000,1000,1000,1000,128628528,1578,1578,1555,1553
115171413,1000,1000,1000,1000,128728488,1577,1578,1555,1554
115173912,1000,1000,1000,1000,128828448,1576,1578,1554,1553
115176411,1000,1000,1000,1000,128928408,1576,1578,1553,1553
115178910,1000,1000,1000,1000,129028368,1576,1578,1551,1551
115181409,1000,1000,1000,1000,129128328,1578,1580,1550,1550
115183908,1000,1000,1000,1000,129228288,1580,1581,1547,1547
115186407,1000,1000,1000,1000,129328248,1583,1583,1544,1545
115188906,1000,1000,1000,1000,129428208,1585,1586,1542,1541
115191405,1000,1000,1000,1000,129528168,1589,1589,1539,1540
115193904,1000,1000,1000,1000,129628961,1592,1593,1538,1538
115196403,1000,1000,1000,1000,129728921,1593,1593,1535,1536
115198902,1000,1000,1000,1000,129828881,1595,1595,1536,1536
115201401,1000,1000,1000,1000,129928841,1595,1595,1536,1538
115203900,1000,1000,1000,1000,130028801,1594,1594,1538,1541
115206399,1000,1000,1000,1000,130128761,1592,1591,1542,1545
115208898,1000,1000,1000,1000,130228721,1586,1583,1548,1551
115211397,1000,1000,1000,1000,130328681,1580,1575,1559,1561
115213896,1000,1000,1000,1000,130428641,1570,1566,1570,1572
115216395,1000,1000,1000,1000,130528601,1558,1554,1582,1584
115218894,1000,1000,1000,1000,130628561,1548,1546,1595,1596
115221393,1000,1000,1000,1000,130728521,1538,1536,1605,1604
115223892,1000,1000,1000,1000,130828481,1530,1531,1611,1610
115226391,1000,1000,1000,1000,130928441,1528,1529,1614,1613
115228890,1000,1000,1000,1000,131028401,1529,1531,1614,1613
115231389,1000,1000,1000,1000,131128361,1534,1535,1610,1610
115233888,1000,1000,1000,1000,131228321,1542,1543,1606,1606
115236387,1000,1000,1000,1000,131328281,1550,1551,1599,1599
115238886,1000,1000,1000,1000,131428241,1560,1561,1592,1592
115241385,1000,1000,1000,1000,131528201,1568,1569,1585,1584
115243884,1000,1000,1000,1000,131628161,1575,1575,1578,1577
115246383,1000,1000,1000,1000,131728954,1581,1580,1572,1571
115248882,1000,1000,1000,1000,131828914,1584,1583,1567,1567
115251381,1000,1000,1000,1000,131928874,1587,1585,1565,1566
115253880,1000,1000,1000,1000,132028834,1587,1586,1565,1566
115256379,1000,1000,1000,1000,132128794,1587,1586,1567,1567
115258878,1000,1000,1000,1000,132228754,1585,1584,1570,1570
115261377,1000,1000,1000,1000,132328714,1582,1581,1573,1572
115263876,1000,1000,1000,1000,132428674,1579,1579,1575,1575
115266375,1000,1000,1000,1000,132528634,1576,1576,1578,1578
115268874,1000,1000,1000,1000,132628594,1573,1574,1580,1580
115271373,1000,1000,1000,1000,132728554,1572,1572,1582,1581
115273872,1000,1000,1000,1000,132828514,1572,1573,1584,1583
115276371,1000,1000,1000,1000,132928474,1571,1572,1583,1583
115278870,1000,1000,1000,1000,133028434,1573,1573,1583,1583
115281369,1000,1000,1000,1000,133128394,1574,1574,1582,1582
115283868,1000,1000,1000,1000,133228354,1575,1575,1582,1582
115286367,1000,1000,1000,1000,133328314,1577,1577,1581,1581
115288866,1000,1000,1000,1000,133428274,1578,1578,1580,1580
115291365,1000,1000,1000,1000,133528234,1580,1580,1579,1579
115293864,1000,1000,1000,1000,133628194,1581,1581,1578,1578
115296363,1000,1000,1000,1000,133728154,1582,1581,1577,1577
115298862,1000,1000,1000,1000,133828947,1583,1582,1578,1578
115301361,1000,1000,1000,1000,133928907,1582,1581,1578,1577
115303860,1000,1000,1000,1000,134028867,1582,1582,1578,1578
115306359,1000,1000,1000,1000,134128827,1581,1582,1579,1579
115308858,1000,1000,1000,1000,134228787,1581,1581,1579,1579
115311357,1000,1000,1000,1000,134328747,1581,1581,1580,1580
115313856,1000,1000,1000,1000,134428707,1580,1581,1581,1580
115316355,1000,1000,1000,1000,134528667,1596,1596,1375,1518
115318854,1000,1000,1000,1000,134628627,1631,1633,1494,1510
115321353,1000,1000,1000,1000,134728587,1666,1672,1602,1543
115323852,1000,1000,1000,1000,134828547,1645,1659,1650,1545
115326351,1000,1000,1000,1000,134928507,1623,1644,1650,1573
115328850,1000,1000,1000,1000,135028467,1629,1649,1650,1605
115331349,1000,1000,1000,1000,135128427,1626,1638,1650,1631
115333848,1000,1000,1000,1000,135228387,1609,1608,1650,1656
115336347,1000,1000,1000,1000,135328347,1575,1570,1650,1676
115338846,1000,1000,1000,1000,135428307,1548,1526,1650,1681
115341345,1000,1000,1000,1000,135528267,1531,1497,1650,1669
115343844,1000,1000,1000,1000,135628227,1542,1515,1650,1657
115346343,1000,1000,1000,1000,135728187,1583,1566,1650,1657
115348842,1000,1000,1000,1000,135828980,1625,1623,1650,1656
115351341,1000,1000,1000,1000,135928940,1645,1655,1641,1643
115353840,1000,1000,1000,1000,136028900,1621,1640,1602,1598
115356339,1000,1000,1000,1000,136128860,1608,1629,1573,1572
115358838,1000,1000,1000,1000,136228820,1599,1614,1551,1554
115361337,1000,1000,1000,1000,136328780,1591,1597,1534,1541
115363836,1000,1000,1000,1000,136428740,1585,1584,1524,1531
115366335,1000,1000,1000,1000,136528700,1578,1573,1517,1522
115368834,1000,1000,1000,1000,136628660,1574,1569,1514,1516
115371333,1000,1000,1000,1000,136728620,1572,1569,1514,1513
115373832,1000,1000,1000,1000,136828580,1570,1569,1514,1512
115376331,1000,1000,1000,1000,136928540,1568,1571,1515,1513
115378830,1000,1000,1000,1000,137028500,1570,1572,1517,1516
115381329,1000,1000,1000,1000,137128460,1570,1572,1519,1519
115383828,1000,1000,1000,1000,137228420,1572,1573,1522,1523
115386327,1000,1000,1000,1000,137328380,1574,1573,1526,1527
115388826,1000,1000,1000,1000,137428340,1576,1575,1531,1532
115391325,1000,1000,1000,1000,137528300,1578,1576,1536,1537
115393824,1000,1000,1000,1000,137628260,1578,1576,1541,1541
115396323,1000,1000,1000,1000,137728220,1577,1575,1547,1548
115398822,1000,1000,1000,1000,137828180,1575,1573,1553,1553
115401321,1000,1000,1000,1000,137928973,1573,1573,1560,1560
115403820,1000,1000,1000,1000,138028933,1570,1570,1565,1565
115406319,1000,1000,1000,1000,138128893,1568,1567,1570,1572
115408818,1000,1000,1000,1000,138228853,1564,1563,1575,1576
115411317,1000,1000,1000,1000,138328813,1561,1559,1581,1581
115413816,1000,1000,1000,1000,138428773,1558,1556,1586,1585
115416315,1000,1000,1000,1000,138528733,1555,1553,1589,1589
115418814,1000,1000,1000,1000,138628693,1553,1552,1593,1592
115421313,1000,1000,1000,1000,138728653,1551,1551,1594,1593
115423812,1000,1000,1000,1000,138828613,1551,1551,1595,1594
115426311,1000,1000,1000,1000,138928573,1551,1551,1595,1594
115428810,1000,1000,1000,1000,139028533,1553,1553,1594,1594
115431309,1000,1000,1000,1000,139128493,1554,1555,1593,1593
115433808,1000,1000,1000,1000,139228453,1557,1558,1592,1593
115436307,1000,1000,1000,1000,139328413,1558,1558,1589,1590
115438806,1000,1000,1000,1000,139428373,1561,1561,1587,1587
115441305,1000,1000,1000,1000,139528333,1563,1564,1585,1585
115443804,1000,1000,1000,1000,139628293,1567,1568,1584,1584
115446303,1000,1000,1000,1000,139728253,1568,1568,1581,1580
115448802,1000,1000,1000,1000,139828213,1572,1573,1580,1580
115451301,1000,1000,1000,1000,139928173,1573,1573,1577,1577
115453800,1000,1000,1000,1000,140028966,1575,1575,1575,1576
115456299,1000,1000,1000,1000,140128926,1577,1576,1574,1574
115458798,1000,1000,1000,1000,140228886,1579,1578,1573,1574
115461297,1000,1000,1000,1000,140328846,1579,1579,1573,1573
115463796,1000,1000,1000,1000,140428806,1580,1580,1572,1572
115466295,1000,1000,1000,1000,140528766,1581,1580,1573,1572
115468794,1000,1000,1000,1000,140628726,1581,1581,1573,1573
115471293,1000,1000,1000,1000,140728686,1580,1581,1573,1573
115473792,1000,1000,1000,1000,140828646,1580,1580,1574,1574
115476291,1000,1000,1000,1000,140928606,1581,1580,1575,1575
115478790,1000,1000,1000,1000,141028566,1580,1579,1576,1575
115481289,1000,1000,1000,1000,141128526,1579,1579,1577,1577
115483788,1000,1000,1000,1000,141228486,1579,1580,1579,1578
115486287,1000,1000,1000,1000,141328446,1578,1579,1580,1579
115488786,1000,1000,1000,1000,141428406,1578,1578,1580,1579
115491285,1000,1000,1000,1000,141528366,1578,1578,1580,1580
115493784,1000,1000,1000,1000,141628326,1579,1579,1582,1582
115496283,1000,1000,1000,1000,141728286,1579,1579,1582,1582
115498782,1000,1000,1000,1000,141828246,1578,1578,1582,1581
115501281,1000,1000,1000,1000,141928206,1579,1579,1582,1582
115503780,1000,1000,1000,1000,142028166,1579,1580,1582,1582
115506279,1000,1000,1000,1000,142128959,1579,1580,1581,1582
115508778,1000,1000,1000,1000,142228919,1579,1579,1580,1581
115511277,1000,1000,1000,1000,142328879,1580,1580,1581,1581
115513776,1000,1000,1000,1000,142428839,1580,1580,1581,1581
115516275,1000,1000,1000,1000,142528799,1580,1580,1580,1579
115518774,1000,1000,1000,1000,142628759,1581,1580,1580,1580
115521273,1000,1000,1000,1000,142728719,1581,1581,1580,1580
115523772,1000,1000,1000,1000,142828679,1582,1581,1580,1581
115526271,1000,1000,1000,1000,142928639,1581,1581,1580,1580
115528770,1000,1000,1000,1000,143028599,1581,1581,1580,1580
115531269,1000,1000,1000,1000,143128559,1581,1581,1580,1580
115533768,1000,1000,1000,1000,143228519,1581,1581,1580,1580
115536267,1000,1000,1000,1000,143328479,1582,1582,1582,1582
115538766,1000,1000,1000,1000,143428439,1583,1583,1582,1582
115541265,1000,1000,1000,1000,143528399,1582,1582,1582,1582
115543764,1000,1000,1000,1000,143628359,1581,1582,1582,1581
115546263,1000,1000,1000,1000,143728319,1583,1582,1582,1583
115548762,1000,1000,1000,1000,143828279,1581,1583,1587,1575
115551261,1000,1000,1000,1000,143928239,1580,1584,1586,1574
115553760,1000,1000,1000,1000,144028199,1578,1582,1579,1574
115556259,1000,1000,1000,1000,144128159,1576,1580,1572,1573
115558758,1000,1000,1000,1000,144228952,1576,1578,1565,1570
115561257,1000,1000,1000,1000,144328912,1577,1577,1559,1566
115563756,1000,1000,1000,1000,144428872,1579,1577,1555,1561
115566255,1000,1000,1000,1000,144528832,1581,1578,1554,1558
115568754,1000,1000,1000,1000,144628792,1581,1579,1554,1555
115571253,1000,1000,1000,1000,144728752,1581,1580,1555,1553
115573752,1000,1000,1000,1000,144828712,1579,1580,1555,1552
115576251,1000,1000,1000,1000,144928672,1579,1581,1555,1554
115578750,1000,1000,1000,1000,145028632,1578,1580,1555,1553
115581249,1000,1000,1000,1000,145128592,1578,1580,1554,1554
115583748,1000,1000,1000,1000,145228552,1578,1579,1554,1553
115586247,1000,1000,1000,1000,145328512,1578,1579,1552,1552
115588746,1000,1000,1000,1000,145428472,1579,1581,1551,1551
115591245,1000,1000,1000,1000,145528432,1582,1582,1549,1549
115593744,1000,1000,1000,1000,145628392,1583,1584,1547,1546
115596243,1000,1000,1000,1000,145728352,1585,1586,1544,1544
115598742,1000,1000,1000,1000,145828312,1588,1589,1542,1542
115601241,1000,1000,1000,1000,145928272,1591,1591,1540,1540
115603740,1000,1000,1000,1000,146028232,1593,1594,1538,1539
115606239,1000,1000,1000,1000,146128192,1595,1596,1537,1539
115608738,1000,1000,1000,1000,146228985,1596,1596,1536,1539
115611237,1000,1000,1000,1000,146328945,1595,1593,1539,1542
115613736,1000,1000,1000,1000,146428905,1592,1589,1544,1547
115616235,1000,1000,1000,1000,146528865,1586,1582,1552,1555
115618734,1000,1000,1000,1000,146628825,1578,1575,1562,1566
115621233,1000,1000,1000,1000,146728785,1568,1564,1574,1576
115623732,1000,1000,1000,1000,146828745,1557,1555,1587,1587
115626231,1000,1000,1000,1000,146928705,1548,1547,1599,1598
115628730,1000,1000,1000,1000,147028665,1542,1543,1608,1605
115631229,1000,1000,1000,1000,147128625,1540,1541,1613,1609
115633728,1000,1000,1000,1000,147228585,1540,1541,1614,1610
115636227,1000,1000,1000,1000,147328545,1542,1544,1613,1611
115638726,1000,1000,1000,1000,147428505,1546,1547,1611,1609
115641225,1000,1000,1000,1000,147528465,1549,1550,1606,1606
115643724,1000,1000,1000,1000,147628425,1554,1554,1602,1602
115646223,1000,1000,1000,1000,147728385,1558,1558,1596,1596
115648722,1000,1000,1000,1000,147828345,1562,1562,1590,1591
115651221,1000,1000,1000,1000,147928305,1568,1567,1586,1587
115653720,1000,1000,1000,1000,148028265,1572,1572,1580,1581
115656219,1000,1000,1000,1000,148128225,1577,1576,1575,1576
115658718,1000,1000,1000,1000,148228185,1580,1580,1570,1571
115661217,1000,1000,1000,1000,148328978,1584,1583,1567,1567
115663716,1000,1000,1000,1000,148428938,1586,1585,1565,1565
115666215,1000,1000,1000,1000,148528898,1586,1585,1564,1565
115668714,1000,1000,1000,1000,148628858,1585,1584,1566,1566
115671213,1000,1000,1000,1000,148728818,1584,1583,1568,1569
115673712,1000,1000,1000,1000,148828778,1582,1581,1571,1571
115676211,1000,1000,1000,1000,148928738,1578,1578,1573,1573
115678710,1000,1000,1000,1000,149028698,1576,1577,1576,1576
115681209,1000,1000,1000,1000,149128658,1575,1575,1580,1579
115683708,1000,1000,1000,1000,149228618,1573,1575,1582,1581
115686207,1000,1000,1000,1000,149328578,1574,1574,1584,1583
115688706,1000,1000,1000,1000,149428538,1573,1574,1585,1584
115691205,1000,1000,1000,1000,149528498,1573,1573,1584,1584
115693704,1000,1000,1000,1000,149628458,1574,1574,1584,1583
115696203,1000,1000,1000,1000,149728418,1575,1575,1583,1583
115698702,1000,1000,1000,1000,149828378,1575,1576,1581,1582
115701201,1000,1000,1000,1000,149928338,1577,1577,1580,1581
115703700,1000,1000,1000,1000,150028298,1578,1579,1580,1580
115706199,1000,1000,1000,1000,150128258,1580,1580,1579,1579
115708698,1000,1000,1000,1000,150228218,1580,1580,1578,1578
115711197,1000,1000,1000,1000,150328178,1581,1581,1577,1577
115713696,1000,1000,1000,1000,150428971,1582,1581,1577,1577
115716195,1000,1000,1000,1000,150528931,1581,1581,1577,1577
115718694,1000,1000,1000,1000,150628891,1582,1581,1578,1577
115721193,1000,1000,1000,1000,150728851,1582,1581,1578,1578
115723692,1000,1000,1000,1000,150828811,1580,1581,1578,1578
115726191,1000,1000,1000,1000,150928771,1580,1580,1579,1579
115728690,1000,1000,1000,1000,151028731,1580,1580,1580,1580
115731189,1000,1000,1000,1000,151128691,1579,1579,1580,1580
115733688,1000,1000,1000,1000,151228651,1580,1580,1581,1581
115736187,1000,1000,1000,1000,151328611,1580,1580,1581,1581
115738686,1000,1000,1000,1000,151428571,1579,1579,1581,1581
115741185,1000,1000,1000,1000,151528531,1580,1580,1582,1582
115743684,1000,1000,1000,1000,151628491,1580,1580,1582,1581
115746183,1000,1000,1000,1000,151728451,1580,1581,1587,1573
115748682,1000,1000,1000,1000,151828411,1580,1581,1585,1573
115751181,1000,1000,1000,1000,151928371,1577,1578,1579,1575
115753680,1000,1000,1000,1000,152028331,1573,1573,1573,1575
115756179,1000,1000,1000,1000,152128291,1571,1571,1569,1576
115758678,1000,1000,1000,1000,152228251,1568,1567,1565,1572
115761177,1000,1000,1000,1000,152328211,1566,1565,1563,1569
115763676,1000,1000,1000,1000,152428171,1566,1565,1564,1566
115766175,1000,1000,1000,1000,152528964,1566,1566,1565,1565
115768674,1000,1000,1000,1000,152628924,1565,1566,1565,1563
115771173,1000,1000,1000,1000,152728884,1565,1565,1565,1563
115773672,1000,1000,1000,1000,152828844,1565,1565,1565,1563
115776171,1000,1000,1000,1000,152928804,1564,1565,1564,1563
115778670,1000,1000,1000,1000,153028764,1563,1563,1563,1562
115781169,1000,1000,1000,1000,153128724,1563,1563,1563,1563
115783668,1000,1000,1000,1000,153228684,1563,1562,1563,1563
115786167,1000,1000,1000,1000,153328644,1562,1562,1562,1563
115788666,1000,1000,1000,1000,153428604,1561,1561,1562,1561
115791165,1000,1000,1000,1000,153528564,1560,1560,1561,1561
115793664,1000,1000,1000,1000,153628524,1560,1559,1561,1560
115796163,1000,1000,1000,1000,153728484,1558,1559,1560,1559
115798662,1000,1000,1000,1000,153828444,1558,1559,1559,1558
115801161,1000,1000,1000,1000,153928404,1559,1559,1560,1558
115803660,1000,1000,1000,1000,154028364,1558,1558,1559,1558
115806159,1000,1000,1000,1000,154128324,1559,1559,1559,1559
115808658,1000,1000,1000,1000,154228284,1559,1558,1559,1557
115811157,1000,1000,1000,1000,154328244,1559,1558,1559,1557
115813656,1000,1000,1000,1000,154428204,1559,1559,1560,1557
115816155,1000,1000,1000,1000,154528164,1559,1559,1558,1560
115818654,1000,1000,1000,1000,154628957,1560,1560,1557,1562
115821153,1000,1000,1000,1000,154728917,1560,1560,1557,1564
115823652,1000,1000,1000,1000,154828877,1561,1561,1558,1564
115826151,1000,1000,1000,1000,154928837,1562,1562,1559,1563
115828650,1000,1000,1000,1000,155028797,1562,1562,1561,1561
115831149,1000,1000,1000,1000,155128757,1562,1561,1562,1559
115833648,1000,1000,1000,1000,155228717,1558,1558,1559,1558
115836147,1000,1000,1000,1000,155328677,1555,1554,1555,1556
115838646,1000,1000,1000,1000,155428637,1549,1550,1551,1551
115841145,1000,1000,1000,1000,155528597,1543,1543,1545,1546
115843644,1000,1000,1000,1000,155628557,1537,1537,1540,1539
115846143,1000,1000,1000,1000,155728517,1528,1529,1532,1532
115848642,1000,1000,1000,1000,155828477,1521,1521,1525,1525
115851141,1000,1000,1000,1000,155928437,1519,1519,1520,1522
115853640,1000,1000,1000,1000,156028397,1519,1519,1519,1521
115856139,1000,1000,1000,1000,156128357,1520,1520,1518,1520
115858638,1000,1000,1000,1000,156228317,1524,1524,1521,1522
115861137,1000,1000,1000,1000,156328277,1528,1529,1524,1525
115863636,1000,1000,1000,1000,156428237,1533,1533,1528,1528
115866135,1000,1000,1000,1000,156528197,1538,1538,1533,1533
115868634,1000,1000,1000,1000,156628157,1541,1541,1537,1536
115871133,1000,1000,1000,1000,156728950,1542,1542,1539,1538
115873632,1000,1000,1000,1000,156828910,1544,1543,1542,1540
115876131,1000,1000,1000,1000,156928870,1545,1545,1545,1543
115878630,1000,1000,1000,1000,157028830,1544,1544,1545,1544
115881129,1000,1000,1000,1000,157128790,1544,1545,1547,1546
115883628,1000,1000,1000,1000,157228750,1545,1545,1548,1547
115886127,1000,1000,1000,1000,157328710,1545,1545,1547,1548
115888626,1000,1000,1000,1000,157428670,1543,1543,1547,1547
115891125,1000,1000,1000,1000,157528630,1544,1544,1547,1548
115893624,1000,1000,1000,1000,157628590,1544,1544,1547,1547
115896123,1000,1000,1000,1000,157728550,1544,1544,1546,1546
115898622,1000,1000,1000,1000,157828510,1544,1544,1546,1545
115901121,1000,1000,1000,1000,157928470,1545,1545,1545,1545
115903620,1000,1000,1000,1000,158028430,1544,1544,1544,1544
115906119,1000,1000,1000,1000,158128390,1546,1545,1544,1544
115908618,1000,1000,1000,1000,158228350,1545,1545,1544,1544
115911117,1000,1000,1000,1000,158328310,1545,1545,1544,1544
115913616,1000,1000,1000,1000,158428270,1545,1545,1544,1544
115916115,1000,1000,1000,1000,158528230,1545,1545,1544,1544
115918614,1000,1000,1000,1000,158628190,1544,1545,1543,1543
115921113,1000,1000,1000,1000,158728983,1545,1544,1544,1544
115923612,1000,1000,1000,1000,158828943,1544,1544,1544,1544
115926111,1000,1000,1000,1000,158928903,1544,1544,1544,1544
115928610,1000,1000,1000,1000,159028863,1544,1544,1544,1544
115931109,1000,1000,1000,1000,159128823,1545,1543,1544,1544
115933608,1000,1000,1000,1000,159228783,1544,1544,1544,1544
115936107,1000,1000,1000,1000,159328743,1544,1543,1544,1544
115938606,1000,1000,1000,1000,159428703,1543,1544,1545,1544
115941105,1000,1000,1000,1000,159528663,1544,1544,1545,1544
115943604,1000,1000,1000,1000,159628623,1543,1543,1544,1544
115946103,1000,1000,1000,1000,159728583,1544,1544,1544,1544
115948602,1000,1000,1000,1000,159828543,1544,1544,1545,1544
115951101,1000,1000,1000,1000,159928503,1544,1544,1544,1544
115953600,1000,1000,1000,1000,160028463,1544,1544,1544,1544
115956099,1000,1000,1000,1000,160128423,1545,1545,1545,1545
115958598,1000,1000,1000,1000,160228383,1544,1545,1544,1545
115961097,1000,1000,1000,1000,160328343,1545,1544,1544,1545
115963596,1000,1000,1000,1000,160428303,1545,1545,1545,1545
115966095,1000,1000,1000,1000,160528263,1545,1544,1545,1544
115968594,1000,1000,1000,1000,160628223,1545,1545,1545,1545
115971093,1000,1000,1000,1000,160728183,1544,1544,1544,1545
115973592,1000,1000,1000,1000,160828976,1544,1545,1544,1544
115976091,1000,1000,1000,1000,160928936,1544,1543,1543,1544
115978590,1000,1000,1000,1000,161028896,1544,1544,1544,1544
115981089,1000,1000,1000,1000,161128856,1544,1544,1544,1544
115983588,1000,1000,1000,1000,161228816,1544,1544,1544,1543
115986087,1000,1000,1000,1000,161328776,1544,1543,1544,1544
115988586,1000,1000,1000,1000,161428736,1544,1545,1545,1544
115991085,1000,1000,1000,1000,161528696,1544,1544,1544,1544
115993584,1000,1000,1000,1000,161628656,1544,1544,1544,1545
115996083,1000,1000,1000,1000,161728616,1545,1545,1545,1545
115998582,1000,1000,1000,1000,161828576,1544,1544,1544,1544
116001081,1000,1000,1000,1000,161928536,1545,1544,1544,1545
116003580,1000,1000,1000,1000,162028496,1545,1545,1545,1545
116006079,1000,1000,1000,1000,162128456,1546,1546,1546,1546
116008578,1000,1000,1000,1000,162228416,1544,1544,1544,1544
116011077,1000,1000,1000,1000,162328376,1545,1545,1545,1545
116013576,1000,1000,1000,1000,162428336,1544,1544,1545,1544
116016075,1000,1000,1000,1000,162528296,1545,1544,1545,1545
116018574,1000,1000,1000,1000,162628256,1544,1544,1544,1544
116021073,1000,1000,1000,1000,162728216,1544,1544,1544,1545
116023572,1000,1000,1000,1000,162828176,1543,1544,1543,1544
116026071,1000,1000,1000,1000,162928969,1544,1543,1543,1544
116028570,1000,1000,1000,1000,163028929,1544,1544,1544,1544
116031069,1000,1000,1000,1000,163128889,1544,1544,1544,1544
116033568,1000,1000,1000,1000,163228849,1543,1544,1544,1543
116036067,1000,1000,1000,1000,163328809,1544,1544,1544,1544
116038566,1000,1000,1000,1000,163428769,1545,1545,1545,1545
116041065,1000,1000,1000,1000,163528729,1545,1544,1544,1545
116043564,1000,1000,1000,1000,163628689,1544,1544,1544,1544
116046063,1000,1000,1000,1000,163728649,1545,1544,1544,1545
116048562,1000,1000,1000,1000,163828609,1545,1545,1545,1544
116051061,1000,1000,1000,1000,163928569,1544,1544,1544,1544
116053560,1000,1000,1000,1000,164028529,1544,1544,1544,1545
116056059,1000,1000,1000,1000,164128489,1544,1544,1544,1544
116058558,1000,1000,1000,1000,164228449,1544,1545,1545,1544
116061057,1000,1000,1000,1000,164328409,1545,1545,1545,1545
116063556,1000,1000,1000,1000,164428369,1544,1544,1544,1544
116066055,1000,1000,1000,1000,164528329,1545,1544,1545,1545
116068554,1000,1000,1000,1000,164628289,1544,1544,1545,1544
116071053,1000,1000,1000,1000,164728249,1545,1545,1545,1545
116073552,1000,1000,1000,1000,164828209,1545,1545,1545,1545
116076051,1000,1000,1000,1000,164928169,1544,1544,1544,1545
116078550,1000,1000,1000,1000,165028962,1544,1544,1544,1544
116081049,1000,1000,1000,1000,165128922,1544,1543,1544,1544
116083548,1000,1000,1000,1000,165228882,1544,1544,1544,1544
116086047,1000,1000,1000,1000,165328842,1545,1545,1544,1544
116088546,1000,1000,1000,1000,165428802,1545,1545,1545,1545
116091045,1000,1000,1000,1000,165528762,1545,1545,1545,1545
116093544,1000,1000,1000,1000,165628722,1543,1544,1544,1544
116096043,1000,1000,1000,1000,165728682,1367,1365,1422,1367
116098542,1000,1000,1000,1000,165828642,1256,1253,1356,1256
116101041,1000,1000,1000,1000,165928602,1221,1217,1336,1221
116103540,1000,1000,1000,1000,166028562,1201,1200,1327,1202
116106039,1000,1000,1000,1000,166128522,1157,1154,1305,1158
116108538,1000,1000,1000,1000,166228482,1172,1171,1183,1150
116111037,1000,1000,1000,1000,166328442,1166,1165,1111,1150
116113536,1000,1000,1000,1000,166368426,1166,1165,1111,1150
116116035,1000,1000,1000,1000,166468386,1166,1165,1111,1150
116118534,1000,1000,1000,1000,166568346,1167,1152,1119,1150
116121033,1000,1000,1000,1000,166668306,1174,1150,1110,1158
116123532,1000,1000,1000,1000,166768266,1165,1150,1121,1150
116126031,1000,1000,1000,1000,166868226,1164,1151,1121,1150
116128530,1000,1000,1000,1000,166968186,1164,1150,1121,1150
116131029,1000,1000,1000,1000,167068979,1164,1150,1122,1150
116133528,1000,1000,1000,1000,167168939,1164,1150,1121,1151
116136027,1000,1000,1000,1000,167268899,1164,1150,1120,1152
116138526,1000,1000,1000,1000,167368859,1161,1170,1112,1150
116141025,1000,1000,1000,1000,167468819,1161,1159,1118,1150
116143524,1000,1000,1000,1000,167568779,1161,1158,1118,1150
116146023,1000,1000,1000,1000,167668739,1161,1158,1119,1150
116148522,1000,1000,1000,1000,167768699,1161,1158,1119,1150
116151021,1000,1000,1000,1000,167868659,1144,1144,844,1144
116153520,1000,1000,1000,1000,167968619,1000,1000,1000,1000
116156019,1000,1000,1000,1000,168068579,1000,1000,1000,1000
116158518,1000,1000,1000,1000,168168539,1000,1000,1000,1000
116161017,1000,1000,1000,1000,168268499,1000,1000,1000,1000
116163516,1000,1000,1000,1000,168368459,1000,1000,1000,1000
116166015,1000,1000,1000,1000,168468419,1000,1000,1000,1000
116168514,1000,1000,1000,1000,168568379,1000,1000,1000,1000
116171013,1000,1000,1000,1000,168668339,1000,1000,1000,1000
116173512,1000,1000,1000,1000,168768299,1000,1000,1000,1000
116176011,1000,1000,1000,1000,168868259,1000,1000,1000,1000
116178510,1000,1000,1000,1000,168968219,1000,1000,1000,1000
116181009,1000,1000,1000,1000,169068179,1000,1000,1000,1000
116183508,1000,1000,1000,1000,169168972,1000,1000,1000,1000
116186007,1000,1000,1000,1000,169268932,1000,1000,1000,1000
116188506,1000,1000,1000,1000,169368892,1000,1000,1000,1000
116191005,1000,1000,1000,1000,169468852,1000,1000,1000,1000
116193504,1000,1000,1000,1000,169568812,1000,1000,1000,1000
116196003,1000,1000,1000,1000,169668772,1000,1000,1000,1000
116198502,1000,1000,1000,1000,169768732,1000,1000,1000,1000
116201001,1000,1000,1000,1000,169868692,1000,1000,1000,1000
116203500,1000,1000,1000,1000,169968652,1000,1000,1000,1000
116205999,1000,1000,1000,1000,170068612,1000,1000,1000,1000
116208498,1000,1000,1000,1000,170168572,1000,1000,1000,1000
116210997,1000,1000,1000,1000,170268532,1000,1000,1000,1000
116213496,1000,1000,1000,1000,170368492,1000,1000,1000,1000
116215995,1000,1000,1000,1000,170468452,1000,1000,1000,1000
116218494,1000,1000,1000,1000,170568412,1000,1000,1000,1000
116220993,1000,1000,1000,1000,170668372,1000,1000,1000,1000
116223492,1000,1000,1000,1000,170768332,1000,1000,1000,1000
116225991,1000,1000,1000,1000,170868292,1000,1000,1000,1000
116228490,1000,1000,1000,1000,170968252,1000,1000,1000,1000
116230989,1000,1000,1000,1000,171068212,1000,1000,1000,1000
116233488,1000,1000,1000,1000,171168172,1000,1000,1000,1000
116235987,1000,1000,1000,1000,171268965,1000,1000,1000,1000
116238486,1000,1000,1000,1000,171368925,1000,1000,1000,1000
116240985,1000,1000,1000,1000,171468885,1000,1000,1000,1000
116243484,1000,1000,1000,1000,171568845,1000,1000,1000,1000
116245983,1000,1000,1000,1000,171668805,1000,1000,1000,1000
116248482,1000,1000,1000,1000,171768765,1000,1000,1000,1000
116250981,1000,1000,1000,1000,171868725,1000,1000,1000,1000
116253480,1000,1000,1000,1000,171968685,1000,1000,1000,1000
116255979,1000,1000,1000,1000,172068645,1000,1000,1000,1000
116258478,1000,1000,1000,1000,172168605,1000,1000,1000,1000
116260977,1000,1000,1000,1000,172268565,1000,1000,1000,1000
116263476,1000,1000,1000,1000,172368525,1000,1000,1000,1000
116265975,1000,1000,1000,1000,172468485,1000,1000,1000,1000
116268474,1000,1000,1000,1000,172568445,1000,1000,1000,1000
116270973,1000,1000,1000,1000,172668405,1000,1000,1000,1000
116273472,1000,1000,1000,1000,172768365,1000,1000,1000,1000
116275971,1000,1000,1000,1000,172868325,1000,1000,1000,1000
116278470,1000,1000,1000,1000,172968285,1000,1000,1000,1000
116280969,1000,1000,1000,1000,173068245,1000,1000,1000,1000
116283468,1000,1000,1000,1000,173168205,1000,1000,1000,1000
116285967,1000,1000,1000,1000,173268165,1000,1000,1000,1000
116288466,1000,1000,1000,1000,173368958,1000,1000,1000,1000
116290965,1000,1000,1000,1000,173468918,1000,1000,1000,1000
116293464,1000,1000,1000,1000,173568878,1000,1000,1000,1000
116295963,1000,1000,1000,1000,173668838,1000,1000,1000,1000
116298462,1000,1000,1000,1000,173768798,1000,1000,1000,1000
116300961,1000,1000,1000,1000,173868758,1000,1000,1000,1000
116303460,1000,1000,1000,1000,173968718,1000,1000,1000,1000
116305959,1000,1000,1000,1000,174068678,1000,1000,1000,1000
116308458,1000,1000,1000,1000,174168638,1000,1000,1000,1000
116310957,1000,1000,1000,1000,174268598,1000,1000,1000,1000
116313456,1000,1000,1000,1000,174368558,1000,1000,1000,1000
116315955,1000,1000,1000,1000,174468518,1000,1000,1000,1000
116318454,1000,1000,1000,1000,174568478,1000,1000,1000,1000
116320953,1000,1000,1000,1000,174668438,1000,1000,1000,1000
116323452,1000,1000,1000,1000,174768398,1000,1000,1000,1000
116325951,1000,1000,1000,1000,174868358,1000,1000,1000,1000
116328450,1000,1000,1000,1000,174968318,1000,1000,1000,1000
116330949,1000,1000,1000,1000,175068278,1000,1000,1000,1000
116333448,1000,1000,1000,1000,175168238,1000,1000,1000,1000
116335947,1000,1000,1000,1000,175268198,1000,1000,1000,1000
116338446,1000,1000,1000,1000,175368158,1000,1000,1000,1000
116340945,1000,1000,1000,1000,175468951,1000,1000,1000,1000
116343444,1000,1000,1000,1000,175568911,1000,1000,1000,1000
116345943,1000,1000,1000,1000,175668871,1000,1000,1000,1000
116348442,1000,1000,1000,1000,175768831,1000,1000,1000,1000
116350941,1000,1000,1000,1000,175868791,1000,1000,1000,1000
116353440,1000,1000,1000,1000,175968751,1000,1000,1000,1000
116355939,1000,1000,1000,1000,176068711,1000,1000,1000,1000
116358438,1000,1000,1000,1000,176168671,1000,1000,1000,1000
116360937,1000,1000,1000,1000,176268631,1000,1000,1000,1000
116363436,1000,1000,1000,1000,176368591,1000,1000,1000,1000
116365935,1000,1000,1000,1000,176468551,1000,1000,1000,1000
116368434,1000,1000,1000,1000,176568511,1000,1000,1000,1000
116370933,1000,1000,1000,1000,176668471,1000,1000,1000,1000
116373432,1000,1000,1000,1000,176768431,1000,1000,1000,1000
116375931,1000,1000,1000,1000,176868391,1000,1000,1000,1000
116378430,1000,1000,1000,1000,176968351,1000,1000,1000,1000
116380929,1000,1000,1000,1000,177068311,1000,1000,1000,1000
116383428,1000,1000,1000,1000,177168271,1000,1000,1000,1000
116385927,1000,1000,1000,1000,177268231,1000,1000,1000,1000
116388426,1000,1000,1000,1000,177368191,1000,1000,1000,1000
116390925,1000,1000,1000,1000,177468984,1000,1000,1000,1000
116393424,1000,1000,1000,1000,177568944,1000,1000,1000,1000
116395923,1000,1000,1000,1000,177668904,1000,1000,1000,1000
116398422,1000,1000,1000,1000,177768864,1000,1000,1000,1000
116400921,1000,1000,1000,1000,177868824,1000,1000,1000,1000
116403420,1000,1000,1000,1000,177968784,1000,1000,1000,1000
116405919,1000,1000,1000,1000,178068744,1000,1000,1000,1000
116408418,1000,1000,1000,1000,178168704,1000,1000,1000,1000
116410917,1000,1000,1000,1000,178268664,1000,1000,1000,1000
116413416,1000,1000,1000,1000,178368624,1000,1000,1000,1000
116415915,1000,1000,1000,1000,178468584,1000,1000,1000,1000
116418414,1000,1000,1000,1000,178568544,1000,1000,1000,1000
116420913,1000,1000,1000,1000,178668504,1000,1000,1000,1000
116423412,1000,1000,1000,1000,178768464,1000,1000,1000,1000
116425911,1000,1000,1000,1000,178868424,1000,1000,1000,1000
116428410,1000,1000,1000,1000,178968384,1000,1000,1000,1000
116430909,1000,1000,1000,1000,179068344,1000,1000,1000,1000
116433408,1000,1000,1000,1000,179168304,1000,1000,1000,1000
116435907,1000,1000,1000,1000,179268264,1000,1000,1000,1000
116438406,1000,1000,1000,1000,179368224,1000,1000,1000,1000
116440905,1000,1000,1000,1000,179468184,1000,1000,1000,1000
116443404,1000,1000,1000,1000,179568977,1000,1000,1000,1000
116445903,1000,1000,1000,1000,179668937,1000,1000,1000,1000
116448402,1000,1000,1000,1000,179768897,1000,1000,1000,1000
116450901,1000,1000,1000,1000,179868857,1000,1000,1000,1000
116453400,1000,1000,1000,1000,179968817,1000,1000,1000,1000
116455899,1000,1000,1000,1000,180068777,1000,1000,1000,1000
116458398,1000,1000,1000,1000,180168737,1000,1000,1000,1000
116460897,1000,1000,1000,1000,180268697,1000,1000,1000,1000
116463396,1000,1000,1000,1000,180368657,1000,1000,1000,1000
116465895,1000,1000,1000,1000,180468617,1000,1000,1000,1000
116468394,1000,1000,1000,1000,180568577,1000,1000,1000,1000
116470893,1000,1000,1000,1000,180668537,1000,1000,1000,1000
116473392,1000,1000,1000,1000,180768497,1000,1000,1000,1000
116475891,1000,1000,1000,1000,180868457,1000,1000,1000,1000
116478390,1000,1000,1000,1000,180968417,1000,1000,1000,1000
116480889,1000,1000,1000,1000,181068377,1000,1000,1000,1000
116483388,1000,1000,1000,1000,181168337,1000,1000,1000,1000
116485887,1000,1000,1000,1000,181268297,1000,1000,1000,1000
116488386,1000,1000,1000,1000,181368257,1000,1000,1000,1000
116490885,1000,1000,1000,1000,181468217,1000,1000,1000,1000
116493384,1000,1000,1000,1000,181568177,1000,1000,1000,1000
116495883,1000,1000,1000,1000,181668970,1000,1000,1000,1000
116498382,1000,1000,1000,1000,181768930,1000,1000,1000,1000
116500881,1000,1000,1000,1000,181868890,1000,1000,1000,1000
116503380,1000,1000,1000,1000,181968850,1000,1000,1000,1000
116505879,1000,1000,1000,1000,182068810,1000,1000,1000,1000
116508378,1000,1000,1000,1000,182168770,1000,1000,1000,1000
116510877,1000,1000,1000,1000,182268730,1000,1000,1000,1000
116513376,1000,1000,1000,1000,182368690,1000,1000,1000,1000
116515875,1000,1000,1000,1000,182468650,1000,1000,1000,1000
116518374,1000,1000,1000,1000,182568610,1000,1000,1000,1000
116520873,1000,1000,1000,1000,182668570,1000,1000,1000,1000
116523372,1000,1000,1000,1000,182768530,1000,1000,1000,1000
116525871,1000,1000,1000,1000,,,,,
116528370,1000,1000,1000,1000,,,,,
116530869,1000,1000,1000,1000,,,,,
116533368,1000,1000,1000,1000,,,,,
116535867,1000,1000,1000,1000,,,,,
116538366,1000,1000,1000,1000,,,,,
116540865,1000,1000,1000,1000,,,,,
116543364,1000,1000,1000,1000,,,,,
116545863,1000,1000,1000,1000,,,,,
116548362,1000,1000,1000,1000,,,,,
116550861,1000,1000,1000,1000,,,,,
116553360,1000,1000,1000,1000,,,,,
116555859,1000,1000,1000,1000,,,,,
116558358,1000,1000,1000,1000,,,,,
116560857,1000,1000,1000,1000,,,,,
116563356,1000,1000,1000,1000,,,,,
116565855,1000,1000,1000,1000,,,,,
116568354,1000,1000,1000,1000,,,,,
116570853,1000,1000,1000,1000,,,,,
116573352,1000,1000,1000,1000,,,,,
116575851,1000,1000,1000,1000,,,,,
116578350,1000,1000,1000,1000,,,,,
116580849,1000,1000,1000,1000,,,,,
116583348,1000,1000,1000,1000,,,,,
116585847,1000,1000,1000,1000,,,,,
116588346,1000,1000,1000,1000,,,,,
116590845,1000,1000,1000,1000,,,,,
116593344,1000,1000,1000,1000,,,,,
116595843,1000,1000,1000,1000,,,,,
116598342,1000,1000,1000,1000,,,,,
116600841,1000,1000,1000,1000,,,,,
116603340,1000,1000,1000,1000,,,,,
116605839,1000,1000,1000,1000,,,,,
116608338,1000,1000,1000,1000,,,,,
116610837,1000,1000,1000,1000,,,,,
116613336,1000,1000,1000,1000,,,,,
116615835,1000,1000,1000,1000,,,,,
116618334,1000,1000,1000,1000,,,,,
116620833,1000,1000,1000,1000,,,,,
116623332,1000,1000,1000,1000,,,,,
116625831,1000,1000,1000,1000,,,,,
116628330,1000,1000,1000,1000,,,,,
116630829,1000,1000,1000,1000,,,,,
116633328,1000,1000,1000,1000,,,,,
116635827,1000,1000,1000,1000,,,,,
116638326,1000,1000,1000,1000,,,,,
116640825,1000,1000,1000,1000,,,,,
116643324,1000,1000,1000,1000,,,,,
116645823,1000,1000,1000,1000,,,,,
116648322,1000,1000,1000,1000,,,,,
116650821,1000,1000,1000,1000,,,,,
116653320,1000,1000,1000,1000,,,,,
116655819,1000,1000,1000,1000,,,,,
116658318,1000,1000,1000,1000,,,,,
116660817,1000,1000,1000,1000,,,,,
116663316,1000,1000,1000,1000,,,,,
116665815,1000,1000,1000,1000,,,,,
116668314,1000,1000,1000,1000,,,,,
116670813,1000,1000,1000,1000,,,,,
116673312,1000,1000,1000,1000,,,,,
116675811,1000,1000,1000,1000,,,,,
116678310,1000,1000,1000,1000,,,,,
116680809,1000,1000,1000,1000,,,,,
116683308,1000,1000,1000,1000,,,,,
116685807,1000,1000,1000,1000,,,,,
116688306,1000,1000,1000,1000,,,,,
116690805,1000,1000,1000,1000,,,,,
116693304,1000,1000,1000,1000,,,,,
116695803,1000,1000,1000,1000,,,,,
116698302,1000,1000,1000,1000,,,,,
116700801,1000,1000,1000,1000,,,,,
116703300,1000,1000,1000,1000,,,,,
116705799,1000,1000,1000,1000,,,,,
116708298,1000,1000,1000,1000,,,,,
116710797,1000,1000,1000,1000,,,,,
116713296,1000,1000,1000,1000,,,,,
116715795,1000,1000,1000,1000,,,,,
116718294,1000,1000,1000,1000,,,,,
116720793,1000,1000,1000,1000,,,,,
116723292,1000,1000,1000,1000,,,,,
116725791,1000,1000,1000,1000,,,,,
116728290,1000,1000,1000,1000,,,,,
116730789,1000,1000,1000,1000,,,,,
116733288,1000,1000,1000,1000,,,,,
116735787,1000,1000,1000,1000,,,,,
116738286,1000,1000,1000,1000,,,,,
116740785,1000,1000,1000,1000,,,,,
116743284,1000,1000,1000,1000,,,,,
116745783,1000,1000,1000,1000,,,,,
116748282,1000,1000,1000,1000,,,,,
116750781,1000,1000,1000,1000,,,,,
116753280,1000,1000,1000,1000,,,,,
116755779,1000,1000,1000,1000,,,,,
116758278,1000,1000,1000,1000,,,,,
116760777,1000,1000,1000,1000,,,,,
116763276,1000,1000,1000,1000,,,,,
116765775,1000,1000,1000,1000,,,,,
116768274,1000,1000,1000,1000,,,,,
116770773,1000,1000,1000,1000,,,,,
116773272,1000,1000,1000,1000,,,,,
116775771,1000,1000,1000,1000,,,,,
116778270,1000,1000,1000,1000,,,,,
116780769,1000,1000,1000,1000,,,,,
116783268,1000,1000,1000,1000,,,,,
116785767,1000,1000,1000,1000,,,,,
116788266,1000,1000,1000,1000,,,,,
116790765,1000,1000,1000,1000,,,,,
116793264,1000,1000,1000,1000,,,,,
116795763,1000,1000,1000,1000,,,,,
116798262,1000,1000,1000,1000,,,,,
116800761,1000,1000,1000,1000,,,,,
116803260,1000,1000,1000,1000,,,,,
116805759,1000,1000,1000,1000,,,,,
116808258,1000,1000,1000,1000,,,,,
116810757,1000,1000,1000,1000,,,,,
116813256,1000,1000,1000,1000,,,,,
116815755,1000,1000,1000,1000,,,,,
116818254,1000,1000,1000,1000,,,,,
116820753,1000,1000,1000,1000,,,,,
116823252,1000,1000,1000,1000,,,,,
116825751,1000,1000,1000,1000,,,,,
116828250,1000,1000,1000,1000,,,,,
116830749,1001,1001,1001,1001,,,,,
116833248,1002,1002,1002,1002,,,,,
116835747,1003,1003,1003,1003,,,,,
116838246,1003,1003,1003,1003,,,,,
116840745,1004,1004,1004,1004,,,,,
116843244,1005,1005,1005,1005,,,,,
116845743,1006,1006,1006,1006,,,,,
116848242,1006,1006,1006,1006,,,,,
116850741,1007,1007,1007,1007,,,,,
116853240,1008,1008,1008,1008,,,,,
116855739,1009,1009,1009,1009,,,,,
116858238,1009,1009,1009,1009,,,,,
116860737,1010,1010,1010,1010,,,,,
116863236,1011,1011,1011,1011,,,,,
116865735,1012,1012,1012,1012,,,,,
116868234,1012,1012,1012,1012,,,,,
116870733,1013,1013,1013,1013,,,,,
116873232,1014,1014,1014,1014,,,,,
116875731,1015,1015,1015,1015,,,,,
116878230,1015,1015,1015,1015,,,,,
116880729,1016,1016,1016,1016,,,,,
116883228,1017,1017,1017,1017,,,,,
116885727,1018,1018,1018,1018,,,,,
116888226,1018,1018,1018,1018,,,,,
116890725,1019,1019,1019,1019,,,,,
116893224,1020,1020,1020,1020,,,,,
116895723,1021,1021,1021,1021,,,,,
116898222,1021,1021,1021,1021,,,,,
116900721,1022,1022,1022,1022,,,,,
116903220,1023,1023,1023,1023,,,,,
116905719,1024,1024,1024,1024,,,,,
116908218,1024,1024,1024,1024,,,,,
116910717,1025,1025,1025,1025,,,,,
116913216,1026,1026,1026,1026,,,,,
116915715,1027,1027,1027,1027,,,,,
116918214,1027,1027,1027,1027,,,,,
116920713,1028,1028,1028,1028,,,,,
116923212,1029,1029,1029,1029,,,,,
116925711,1030,1030,1030,1030,,,,,
116928210,1030,1030,1030,1030,,,,,
116930709,1031,1031,1031,1031,,,,,
116933208,1032,1032,1032,1032,,,,,
116935707,1033,1033,1033,1033,,,,,
116938206,1033,1033,1033,1033,,,,,
116940705,1034,1034,1034,1034,,,,,
116943204,1035,1035,1035,1035,,,,,
116945703,1036,1036,1036,1036,,,,,
116948202,1036,1036,1036,1036,,,,,
116950701,1037,1037,1037,1037,,,,,
116953200,1038,1038,1038,1038,,,,,
116955699,1039,1039,1039,1039,,,,,
116958198,1039,1039,1039,1039,,,,,
116960697,1040,1040,1040,1040,,,,,
116963196,1041,1041,1041,1041,,,,,
116965695,1042,1042,1042,1042,,,,,
116968194,1042,1042,1042,1042,,,,,
116970693,1043,1043,1043,1043,,,,,
116973192,1044,1044,1044,1044,,,,,
116975691,1045,1045,1045,1045,,,,,
116978190,1045,1045,1045,1045,,,,,
116980689,1046,1046,1046,1046,,,,,
116983188,1047,1047,1047,1047,,,,,
116985687,1048,1048,1048,1048,,,,,
116988186,1048,1048,1048,1048,,,,,
116990685,1049,1049,1049,1049,,,,,
116993184,1050,1050,1050,1050,,,,,
116995683,1051,1051,1051,1051,,,,,
116998182,1051,1051,1051,1051,,,,,
117000681,1052,1052,1052,1052,,,,,
117003180,1053,1053,1053,1053,,,,,
117005679,1054,1054,1054,1054,,,,,
117008178,1054,1054,1054,1054,,,,,
117010677,1055,1055,1055,1055,,,,,
117013176,1056,1056,1056,1056,,,,,
117015675,1057,1057,1057,1057,,,,,
117018174,1057,1057,1057,1057,,,,,
117020673,1058,1058,1058,1058,,,,,
117023172,1059,1059,1059,1059,,,,,
117025671,1060,1060,1060,1060,,,,,
117028170,1060,1060,1060,1060,,,,,
117030669,1061,1061,1061,1061,,,,,
117033168,1062,1062,1062,1062,,,,,
117035667,1063,1063,1063,1063,,,,,
117038166,1063,1063,1063,1063,,,,,
117040665,1064,1064,1064,1064,,,,,
117043164,1065,1065,1065,1065,,,,,
117045663,1066,1066,1066,1066,,,,,
117048162,1066,1066,1066,1066,,,,,
117050661,1067,1067,1067,1067,,,,,
117053160,1068,1068,1068,1068,,,,,
117055659,1069,1069,1069,1069,,,,,
117058158,1069,1069,1069,1069,,,,,
117060657,1070,1070,1070,1070,,,,,
117063156,1071,1071,1071,1071,,,,,
117065655,1072,1072,1072,1072,,,,,
117068154,1072,1072,1072,1072,,,,,
117071486,1073,1073,1073,1073,,,,,
117073985,1074,1074,1074,1074,,,,,
117076484,1075,1075,1075,1075,,,,,
117078983,1075,1075,1075,1075,,,,,
117081482,1076,1076,1076,1076,,,,,
117083981,1077,1077,1077,1077,,,,,
117086480,1078,1078,1078,1078,,,,,
117088979,1078,1078,1078,1078,,,,,
117091478,1079,1079,1079,1079,,,,,
117093977,1080,1080,1080,1080,,,,,
117096476,1081,1081,1081,1081,,,,,
117098975,1081,1081,1081,1081,,,,,
117101474,1082,1082,1082,1082,,,,,
117103973,1083,1083,1083,1083,,,,,
117106472,1084,1084,1084,1084,,,,,
117108971,1084,1084,1084,1084,,,,,
117111470,1085,1085,1085,1085,,,,,
117113969,1086,1086,1086,1086,,,,,
117116468,1087,1087,1087,1087,,,,,
117118967,1087,1087,1087,1087,,,,,
117121466,1088,1088,1088,1088,,,,,
117123965,1089,1089,1089,1089,,,,,
117126464,1090,1090,1090,1090,,,,,
117128963,1090,1090,1090,1090,,,,,
117131462,1091,1091,1091,1091,,,,,
117133961,1092,1092,1092,1092,,,,,
117136460,1093,1093,1093,1093,,,,,
117138959,1093,1093,1093,1093,,,,,
117141458,1094,1094,1094,1094,,,,,
117143957,1095,1095,1095,1095,,,,,
117146456,1096,1096,1096,1096,,,,,
117148955,1096,1096,1096,1096,,,,,
117151454,1097,1097,1097,1097,,,,,
117153953,1098,1098,1098,1098,,,,,
117156452,1099,1099,1099,1099,,,,,
117158951,1099,1099,1099,1099,,,,,
117161450,1100,1100,1100,1100,,,,,
117163949,1101,1101,1101,1101,,,,,
117166448,1101,1101,1101,1101,,,,,
117168947,1102,1102,1102,1102,,,,,
117171446,1103,1103,1103,1103,,,,,
117173945,1104,1104,1104,1104,,,,,
117176444,1104,1104,1104,1104,,,,,
117178943,1105,1105,1105,1105,,,,,
117181442,1106,1106,1106,1106,,,,,
117183941,1107,1107,1107,1107,,,,,
117186440,1107,1107,1107,1107,,,,,
117188939,1108,1108,1108,1108,,,,,
117191438,1109,1109,1109,1109,,,,,
117193937,1110,1110,1110,1110,,,,,
117196436,1110,1110,1110,1110,,,,,
117198935,1111,1111,1111,1111,,,,,
117201434,1112,1112,1112,1112,,,,,
117203933,1113,1113,1113,1113,,,,,
117206432,1113,1113,1113,1113,,,,,
117208931,1114,1114,1114,1114,,,,,
117211430,1115,1115,1115,1115,,,,,
117213929,1116,1116,1116,1116,,,,,
117216428,1116,1116,1116,1116,,,,,
117218927,1117,1117,1117,1117,,,,,
117221426,1118,1118,1118,1118,,,,,
117223925,1119,1119,1119,1119,,,,,
117226424,1119,1119,1119,1119,,,,,
117228923,1120,1120,1120,1120,,,,,
117231422,1121,1121,1121,1121,,,,,
117233921,1122,1122,1122,1122,,,,,
117236420,1122,1122,1122,1122,,,,,
117238919,1123,1123,1123,1123,,,,,
117241418,1124,1124,1124,1124,,,,,
117243917,1125,1125,1125,1125,,,,,
117246416,1125,1125,1125,1125,,,,,
117248915,1126,1126,1126,1126,,,,,
117251414,1127,1127,1127,1127,,,,,
117253913,1128,1128,1128,1128,,,,,
117256412,1128,1128,1128,1128,,,,,
117258911,1129,1129,1129,1129,,,,,
117261410,1130,1130,1130,1130,,,,,
117263909,1131,1131,1131,1131,,,,,
117266408,1131,1131,1131,1131,,,,,
117268907,1132,1132,1132,1132,,,,,
117271406,1133,1133,1133,1133,,,,,
117273905,1134,1134,1134,1134,,,,,
117276404,1134,1134,1134,1134,,,,,
117278903,1135,1135,1135,1135,,,,,
117281402,1136,1136,1136,1136,,,,,
117283901,1137,1137,1137,1137,,,,,
117286400,1137,1137,1137,1137,,,,,
117288899,1138,1138,1138,1138,,,,,
117291398,1139,1139,1139,1139,,,,,
117293897,1140,1140,1140,1140,,,,,
117296396,1140,1140,1140,1140,,,,,
117298895,1141,1141,1141,1141,,,,,
117301394,1142,1142,1142,1142,,,,,
117303893,1143,1143,1143,1143,,,,,
117306392,1143,1143,1143,1143,,,,,
117308891,1144,1144,1144,1144,,,,,
117311390,1145,1145,1145,1145,,,,,
117313889,1146,1146,1146,1146,,,,,
117316388,1146,1146,1146,1146,,,,,
117318887,1147,1147,1147,1147,,,,,
117321386,1148,1148,1148,1148,,,,,
117323885,1149,1149,1149,1149,,,,,
117326384,1149,1149,1149,1149,,,,,
117328883,1150,1150,1150,1150,,,,,
117331382,1165,1150,1150,1166,,,,,
117333881,1175,1155,1157,1176,,,,,
117336380,1182,1164,1165,1184,,,,,
117338879,1190,1171,1173,1191,,,,,
117341378,1197,1179,1180,1199,,,,,
117343877,1205,1187,1188,1206,,,,,
117346376,1212,1194,1196,1213,,,,,
117348875,1219,1202,1203,1220,,,,,
117351374,1226,1209,1210,1227,,,,,
117353873,1233,1216,1217,1234,,,,,
117356372,1240,1223,1224,1241,,,,,
117358871,1247,1230,1231,1248,,,,,
117361370,1253,1237,1238,1254,,,,,
117363869,1260,1244,1245,1261,,,,,
117366368,1266,1250,1252,1267,,,,,
117368867,1273,1257,1258,1274,,,,,
117371366,1279,1264,1265,1280,,,,,
117373865,1285,1270,1271,1286,,,,,
117376364,1291,1276,1277,1292,,,,,
117378863,1298,1283,1283,1299,,,,,
117381362,1304,1289,1290,1305,,,,,
117383861,1310,1295,1296,1311,,,,,
117386360,1315,1301,1302,1316,,,,,
117388859,1321,1307,1308,1322,,,,,
117391358,1327,1313,1314,1328,,,,,
117393857,1333,1319,1320,1334,,,,,
117396356,1338,1324,1325,1339,,,,,
117398855,1344,1330,1331,1345,,,,,
117401354,1350,1336,1337,1351,,,,,
117403853,1355,1341,1342,1356,,,,,
117406352,1361,1347,1348,1362,,,,,
117408851,1366,1353,1353,1367,,,,,
117411350,1371,1358,1359,1372,,,,,
117413849,1377,1363,1364,1378,,,,,
117416348,1382,1369,1370,1383,,,,,
117418847,1387,1374,1375,1388,,,,,
117421346,1393,1379,1380,1393,,,,,
117423845,1398,1385,1385,1398,,,,,
117426344,1403,1390,1391,1404,,,,,
117428843,1408,1395,1396,1409,,,,,
117431342,1413,1400,1401,1414,,,,,
117433841,1418,1405,1406,1419,,,,,
117436340,1423,1410,1411,1424,,,,,
117438839,1428,1415,1416,1429,,,,,
117441338,1433,1420,1421,1433,,,,,
117443837,1438,1425,1426,1438,,,,,
117446336,1442,1430,1431,1443,,,,,
117448835,1447,1435,1436,1448,,,,,
117451334,1452,1440,1440,1453,,,,,
117453833,1457,1444,1445,1457,,,,,
117456332,1461,1449,1450,1462,,,,,
117458831,1466,1454,1455,1467,,,,,
117461330,1471,1458,1459,1471,,,,,
117463829,1475,1463,1464,1476,,,,,
117466328,1480,1468,1469,1480,,,,,
117468827,1484,1472,1473,1485,,,,,
117471326,1489,1477,1478,1490,,,,,
117473825,1493,1481,1482,1494,,,,,
117476324,1498,1486,1487,1499,,,,,
117478823,1502,1490,1491,1503,,,,,
117481322,1507,1495,1495,1507,,,,,
117483821,1511,1499,1500,1512,,,,,
117486320,1516,1503,1504,1516,,,,,
117488819,1520,1508,1509,1521,,,,,
117491318,1524,1512,1513,1525,,,,,
117493817,1529,1516,1517,1529,,,,,
117496316,1533,1521,1522,1533,,,,,
117498815,1537,1525,1526,1538,,,,,
117501314,1541,1529,1530,1542,,,,,
117503813,1546,1534,1534,1546,,,,,
117506312,1550,1538,1538,1550,,,,,
117508811,1554,1542,1543,1554,,,,,
117511310,1558,1546,1547,1559,,,,,
117513809,1562,1550,1551,1563,,,,,
117516308,1566,1554,1555,1567,,,,,
117518807,1570,1558,1559,1571,,,,,
117521306,1574,1563,1563,1575,,,,,
117523805,1578,1567,1567,1579,,,,,
117526304,1582,1571,1571,1583,,,,,
117528803,1586,1575,1575,1587,,,,,
117531302,1590,1579,1579,1591,,,,,
117533801,1594,1583,1583,1595,,,,,
117536300,1598,1587,1587,1599,,,,,
117538799,1602,1591,1591,1603,,,,,
117541298,1606,1595,1595,1607,,,,,
117543797,1610,1598,1599,1611,,,,,
117546296,1614,1602,1603,1614,,,,,
117548795,1617,1606,1607,1618,,,,,
117551294,1621,1610,1611,1622,,,,,
117553793,1625,1614,1614,1626,,,,,
117556292,1629,1618,1618,1630,,,,,
117558791,1633,1622,1622,1633,,,,,
117561290,1636,1625,1626,1637,,,,,
117563789,1640,1629,1630,1641,,,,,
117566288,1644,1633,1633,1645,,,,,
117568787,1648,1637,1637,1648,,,,,
117571286,1651,1640,1641,1652,,,,,
117573785,1655,1644,1645,1656,,,,,
117576284,1659,1648,1648,1659,,,,,
117578783,1662,1652,1652,1663,,,,,
117581282,1666,1655,1656,1667,,,,,
117583781,1669,1659,1659,1670,,,,,
117586280,1673,1662,1663,1674,,,,,
117588779,1677,1666,1667,1677,,,,,
117591278,1680,1670,1670,1681,,,,,
117593777,1684,1673,1674,1685,,,,,
117596276,1687,1677,1677,1688,,,,,
117598775,1691,1680,1681,1692,,,,,
117601274,1694,1684,1684,1695,,,,,
117603773,1698,1688,1688,1699,,,,,
117606272,1701,1691,1692,1702,,,,,
117608771,1705,1695,1695,1706,,,,,
117611270,1708,1698,1699,1709,,,,,
117613769,1712,1702,1702,1713,,,,,
117616268,1715,1705,1705,1716,,,,,
117618767,1719,1708,1709,1719,,,,,
117621266,1722,1712,1712,1723,,,,,
117623765,1726,1715,1716,1726,,,,,
117626264,1729,1719,1719,1730,,,,,
117628763,1732,1722,1723,1733,,,,,
117631262,1736,1725,1726,1736,,,,,
117633761,1739,1729,1729,1740,,,,,
117636260,1743,1732,1733,1743,,,,,
117638759,1746,1736,1736,1747,,,,,
117641258,1749,1739,1739,1750,,,,,
117643757,1753,1742,1743,1753,,,,,
117646256,1756,1745,1746,1757,,,,,
117648755,1759,1749,1749,1760,,,,,
117651254,1763,1752,1753,1763,,,,,
117653753,1766,1755,1756,1766,,,,,
117656252,1769,1759,1759,1770,,,,,
117658751,1773,1762,1763,1773,,,,,
117661250,1776,1765,1766,1776,,,,,
117663749,1779,1768,1769,1779,,,,,
117666248,1782,1772,1772,1783,,,,,
117668747,1786,1775,1776,1786,,,,,
117671246,1789,1778,1779,1789,,,,,
117673745,1792,1781,1782,1792,,,,,
117676244,1795,1784,1785,1795,,,,,
117678743,1798,1787,1788,1799,,,,,
117681242,1802,1791,1792,1802,,,,,
117683741,1805,1794,1795,1805,,,,,
117686240,1808,1797,1798,1808,,,,,
117688739,1811,1800,1801,1811,,,,,
117691238,1814,1803,1804,1814,,,,,
117693737,1817,1806,1807,1817,,,,,
117696236,1821,1809,1811,1821,,,,,
117698735,1824,1813,1814,1824,,,,,
117701234,1827,1816,1817,1827,,,,,
117703733,1830,1819,1820,1830,,,,,
117706232,1833,1822,1823,1833,,,,,
117708731,1836,1825,1826,1836,,,,,
117711230,1839,1828,1829,1839,,,,,
117713729,1842,1831,1832,1842,,,,,
117716228,1845,1834,1835,1845,,,,,
117718727,1848,1837,1838,1848,,,,,
117721226,1851,1840,1841,1851,,,,,
117723725,1854,1843,1844,1854,,,,,
117726224,1857,1846,1847,1857,,,,,
117728723,1860,1849,1850,1860,,,,,
117731222,1863,1852,1853,1863,,,,,
117733721,1866,1855,1856,1866,,,,,
117736220,1869,1858,1859,1869,,,,,
117738719,1872,1861,1862,1872,,,,,
117741218,1875,1864,1865,1875,,,,,
117743717,1878,1867,1868,1878,,,,,
117746216,1881,1870,1871,1881,,,,,
117748715,1884,1873,1874,1884,,,,,
117751214,1887,1876,1877,1887,,,,,
117753713,1890,1879,1880,1890,,,,,
117756212,1893,1882,1883,1893,,,,,
117758711,1896,1885,1886,1896,,,,,
117761210,1899,1888,1889,1899,,,,,
117763709,1902,1891,1891,1902,,,,,
117766208,1904,1893,1894,1905,,,,,
117768707,1905,1894,1895,1906,,,,,
117771206,1904,1893,1894,1905,,,,,
117773705,1903,1893,1893,1904,,,,,
117776204,1903,1892,1892,1903,,,,,
117778703,1902,1891,1891,1902,,,,,
117781202,1901,1890,1891,1901,,,,,
117783701,1900,1889,1890,1900,,,,,
117786200,1899,1888,1889,1900,,,,,
117788699,1899,1888,1888,1899,,,,,
117791198,1898,1887,1888,1898,,,,,
117793697,1897,1886,1887,1898,,,,,
117796196,1897,1886,1886,1898,,,,,
117798695,1897,1886,1886,1897,,,,,
117801194,1896,1885,1886,1897,,,,,
117803693,1896,1885,1885,1897,,,,,
117806192,1896,1885,1885,1897,,,,,
117808691,1896,1885,1885,1897,,,,,
117811190,1896,1885,1885,1897,,,,,
117813689,1896,1885,1885,1897,,,,,
117816188,1896,1885,1885,1897,,,,,
117818687,1896,1885,1885,1897,,,,,
117821186,1896,1885,1886,1897,,,,,
117823685,1896,1886,1886,1897,,,,,
117826184,1896,1886,1886,1897,,,,,
117828683,1896,1887,1887,1897,,,,,
117831182,1897,1887,1887,1897,,,,,
117833681,1896,1887,1888,1897,,,,,
117836180,1896,1887,1888,1897,,,,,
117838679,1896,1888,1888,1897,,,,,
117841178,1896,1888,1888,1897,,,,,
117843677,1895,1887,1888,1896,,,,,
117846176,1895,1887,1887,1896,,,,,
117848675,1894,1887,1887,1895,,,,,
117851174,1893,1886,1886,1894,,,,,
117853673,1892,1885,1885,1893,,,,,
117856172,1891,1884,1884,1892,,,,,
117858671,1889,1883,1883,1890,,,,,
117861170,1888,1882,1882,1889,,,,,
117863669,1886,1880,1880,1887,,,,,
117866168,1885,1878,1879,1886,,,,,
117868667,1883,1877,1877,1884,,,,,
117871166,1881,1875,1875,1882,,,,,
117873665,1879,1873,1873,1879,,,,,
117876164,1876,1871,1871,1877,,,,,
117878663,1874,1868,1869,1875,,,,,
117881162,1871,1866,1866,1872,,,,,
117883661,1869,1864,1864,1870,,,,,
117886160,1866,1861,1861,1867,,,,,
