TimeUS,M1,M2,M3,M4,TimeUS,C1,C2,C3,C4
53316165,1000,1000,1000,1000,53328660,1000,1000,1000,1000
53318664,1000,1000,1000,1000,53428620,1000,1000,1000,1000
53321163,1000,1000,1000,1000,53528580,1000,1000,1000,1000
53323662,1000,1000,1000,1000,53628540,1000,1000,1000,1000
53326161,1000,1000,1000,1000,53728500,1000,1000,1000,1000
53328660,1000,1000,1000,1000,53828460,1000,1000,1000,1000
53331159,1000,1000,1000,1000,53928420,1000,1000,1000,1000
53333658,1000,1000,1000,1000,54028380,1000,1000,1000,1000
53336157,1000,1000,1000,1000,54128340,1000,1000,1000,1000
53338656,1000,1000,1000,1000,54228300,1000,1000,1000,1000
53341155,1000,1000,1000,1000,54328260,1000,1000,1000,1000
53343654,1000,1000,1000,1000,54428220,1000,1000,1000,1000
53346153,1000,1000,1000,1000,54528180,1000,1000,1000,1000
53348652,1000,1000,1000,1000,54628973,1000,1000,1000,1000
53351151,1000,1000,1000,1000,54728933,1000,1000,1000,1000
53353650,1000,1000,1000,1000,54828893,1000,1000,1000,1000
53356149,1000,1000,1000,1000,54928853,1000,1000,1000,1000
53358648,1000,1000,1000,1000,55028813,1000,1000,1000,1000
53361147,1000,1000,1000,1000,55128773,1000,1000,1000,1000
53363646,1000,1000,1000,1000,55228733,1000,1000,1000,1000
53366145,1000,1000,1000,1000,55328693,1003,1003,1003,1003
53368644,1000,1000,1000,1000,55428653,1033,1033,1033,1033
53371143,1000,1000,1000,1000,55528613,1063,1063,1063,1063
53373642,1000,1000,1000,1000,55628573,1093,1093,1093,1093
53376141,1000,1000,1000,1000,55728533,1123,1123,1123,1123
53378640,1000,1000,1000,1000,55828493,1185,1177,1178,1186
53381139,1000,1000,1000,1000,55928453,1425,1419,1419,1425
53383638,1000,1000,1000,1000,56028413,1599,1594,1594,1600
53386137,1000,1000,1000,1000,56128373,1743,1739,1739,1744
53388636,1000,1000,1000,1000,56228333,1844,1839,1839,1844
53391135,1000,1000,1000,1000,56328293,1852,1847,1847,1852
53393634,1000,1000,1000,1000,56428253,1785,1784,1784,1786
53396133,1000,1000,1000,1000,56528213,1665,1665,1665,1665
53398632,1000,1000,1000,1000,56628173,1612,1614,1614,1612
53401131,1000,1000,1000,1000,56728966,1615,1618,1617,1616
53403630,1000,1000,1000,1000,56828926,1634,1636,1636,1634
53406129,1000,1000,1000,1000,56928886,1642,1643,1643,1642
53408628,1000,1000,1000,1000,57028846,1640,1640,1640,1640
53411127,1000,1000,1000,1000,57128806,1631,1629,1629,1632
53413626,1000,1000,1000,1000,57228766,1611,1610,1602,1618
53416125,1000,1000,1000,1000,57328726,1606,1606,1598,1613
53418624,1000,1000,1000,1000,57428686,1605,1605,1602,1609
53421123,1000,1000,1000,1000,57528646,1608,1608,1608,1607
53423622,1000,1000,1000,1000,57628606,1612,1612,1615,1608
53426121,1000,1000,1000,1000,57728566,1619,1618,1622,1615
53428620,1000,1000,1000,1000,57828526,1589,1590,1605,1573
53431119,1000,1000,1000,1000,57928486,1576,1576,1590,1563
53433618,1000,1000,1000,1000,58028446,1565,1565,1569,1561
53436117,1000,1000,1000,1000,58128406,1555,1554,1549,1561
53438616,1000,1000,1000,1000,58228366,1546,1545,1534,1558
53441115,1000,1000,1000,1000,58328326,1540,1539,1529,1551
53443614,1000,1000,1000,1000,58428286,1534,1533,1526,1541
53446113,1000,1000,1000,1000,58528246,1529,1529,1526,1531
53448612,1000,1000,1000,1000,58628206,1529,1529,1529,1528
53451111,1000,1000,1000,1000,58728166,1530,1530,1532,1527
53453610,1000,1000,1000,1000,58828959,1533,1534,1537,1530
53456109,1000,1000,1000,1000,58928919,1537,1536,1540,1533
53458608,1000,1000,1000,1000,59028879,1541,1541,1544,1538
53461107,1000,1000,1000,1000,59128839,1543,1543,1545,1542
53463606,1000,1000,1000,1000,59228799,1546,1547,1546,1547
53466105,1000,1000,1000,1000,59328759,1549,1549,1548,1550
53468604,1000,1000,1000,1000,59428719,1551,1551,1549,1552
53471103,1000,1000,1000,1000,59528679,1552,1551,1554,1557
53473602,1000,1000,1000,1000,59628639,1551,1551,1559,1562
53476101,1000,1000,1000,1000,59728599,1554,1554,1562,1564
53478600,1000,1000,1000,1000,59828559,1557,1558,1564,1564
53481099,1000,1000,1000,1000,59928519,1561,1562,1565,1564
53483598,1000,1000,1000,1000,60028479,1564,1564,1565,1564
53486097,1000,1000,1000,1000,60128439,1566,1566,1564,1564
53488596,1000,1000,1000,1000,60228399,1569,1569,1565,1564
53491095,1000,1000,1000,1000,60328359,1571,1571,1565,1566
53493594,1000,1000,1000,1000,60428319,1571,1571,1565,1566
53496093,1000,1000,1000,1000,60528279,1572,1572,1566,1567
53498592,1000,1000,1000,1000,60628239,1572,1573,1568,1568
53501091,1000,1000,1000,1000,60728199,1573,1573,1570,1570
53503590,1000,1000,1000,1000,60828159,1574,1574,1571,1572
53506089,1000,1000,1000,1000,60928952,1573,1573,1573,1572
53508588,1000,1000,1000,1000,61028912,1573,1573,1574,1572
53511087,1000,1000,1000,1000,61128872,1573,1574,1576,1574
53513586,1000,1000,1000,1000,61228832,1575,1575,1577,1576
53516085,1000,1000,1000,1000,61328792,1576,1575,1578,1577
53518584,1000,1000,1000,1000,61428752,1576,1575,1577,1577
53521083,1000,1000,1000,1000,61528712,1575,1575,1576,1577
53523582,1000,1000,1000,1000,61628672,1575,1575,1576,1577
53526081,1000,1000,1000,1000,61728632,1576,1576,1577,1577
53528580,1000,1000,1000,1000,61828592,1576,1576,1576,1576
53531079,1000,1000,1000,1000,61928552,1577,1576,1577,1576
53533578,1000,1000,1000,1000,62028512,1577,1577,1577,1577
53536077,1000,1000,1000,1000,62128472,1579,1579,1578,1578
53538576,1000,1000,1000,1000,62228432,1577,1577,1577,1576
53541075,1000,1000,1000,1000,62328392,1578,1577,1577,1577
53543574,1000,1000,1000,1000,62428352,1578,1578,1577,1577
53546073,1000,1000,1000,1000,62528312,1578,1579,1578,1578
53548572,1000,1000,1000,1000,62628272,1578,1578,1577,1577
53551071,1000,1000,1000,1000,62728232,1579,1578,1578,1579
53553570,1000,1000,1000,1000,62828192,1578,1577,1578,1578
53556069,1000,1000,1000,1000,62928985,1577,1577,1578,1578
53558568,1000,1000,1000,1000,63028945,1579,1579,1580,1579
53561067,1000,1000,1000,1000,63128905,1578,1578,1579,1579
53563566,1000,1000,1000,1000,63228865,1579,1579,1579,1579
53566065,1000,1000,1000,1000,63328825,1578,1579,1579,1579
53568564,1000,1000,1000,1000,63428785,1578,1579,1579,1579
53571063,1000,1000,1000,1000,63528745,1579,1579,1579,1580
53573562,1000,1000,1000,1000,63628705,1579,1579,1579,1579
53576061,1000,1000,1000,1000,63728665,1579,1578,1579,1579
53578560,1000,1000,1000,1000,63828625,1579,1579,1579,1579
53581059,1000,1000,1000,1000,63928585,1579,1579,1579,1579
53583558,1000,1000,1000,1000,64028545,1580,1579,1579,1580
53586057,1000,1000,1000,1000,64128505,1580,1580,1580,1580
53588556,1000,1000,1000,1000,64228465,1580,1580,1580,1580
53591055,1000,1000,1000,1000,64328425,1580,1580,1580,1580
53593554,1000,1000,1000,1000,64428385,1580,1581,1581,1580
53596053,1000,1000,1000,1000,64528345,1581,1581,1581,1581
53598552,1000,1000,1000,1000,64628305,1581,1580,1580,1581
53601051,1000,1000,1000,1000,64728265,1581,1581,1581,1581
53603550,1000,1000,1000,1000,64828225,1580,1580,1581,1581
53606049,1000,1000,1000,1000,64928185,1580,1581,1581,1581
53608548,1000,1000,1000,1000,65028978,1580,1581,1581,1581
53611047,1000,1000,1000,1000,65128938,1580,1580,1580,1580
53613546,1000,1000,1000,1000,65228898,1580,1580,1581,1581
53616045,1000,1000,1000,1000,65328858,1581,1580,1581,1581
53618544,1000,1000,1000,1000,65428818,1580,1580,1580,1580
53621043,1000,1000,1000,1000,65528778,1581,1581,1581,1581
53623542,1000,1000,1000,1000,65628738,1580,1581,1581,1581
53626041,1000,1000,1000,1000,65728698,1581,1582,1582,1581
53628540,1000,1000,1000,1000,65828658,1581,1582,1589,1574
53631039,1000,1000,1000,1000,65928618,1581,1582,1585,1573
53633538,1000,1000,1000,1000,66028578,1578,1582,1576,1574
53636037,1000,1000,1000,1000,66128538,1578,1580,1568,1572
53638536,1000,1000,1000,1000,66228498,1577,1579,1561,1568
53641035,1000,1000,1000,1000,66328458,1577,1578,1556,1563
53643534,1000,1000,1000,1000,66428418,1579,1578,1556,1559
53646033,1000,1000,1000,1000,66528378,1579,1577,1555,1555
53648532,1000,1000,1000,1000,66628338,1579,1578,1556,1554
53651031,1000,1000,1000,1000,66728298,1578,1578,1556,1554
53653530,1000,1000,1000,1000,66828258,1577,1577,1556,1554
53656029,1000,1000,1000,1000,66928218,1576,1577,1556,1555
53658528,1000,1000,1000,1000,67028178,1575,1577,1555,1555
53661027,1000,1000,1000,1000,67128971,1575,1576,1554,1554
53663526,1000,1000,1000,1000,67228931,1575,1577,1552,1552
53666025,1000,1000,1000,1000,67328891,1577,1578,1551,1551
53668524,1000,1000,1000,1000,67428851,1578,1579,1548,1548
53671023,1000,1000,1000,1000,67528811,1581,1582,1546,1545
53673522,1000,1000,1000,1000,67628771,1584,1585,1543,1542
53676021,1000,1000,1000,1000,67728731,1587,1588,1540,1540
53678520,1000,1000,1000,1000,67828691,1591,1591,1538,1538
53681019,1000,1000,1000,1000,67928651,1594,1594,1536,1537
53683518,1000,1000,1000,1000,68028611,1595,1595,1534,1535
53686017,1000,1000,1000,1000,68128571,1596,1596,1535,1536
53688516,1000,1000,1000,1000,68228531,1594,1594,1536,1538
53691015,1000,1000,1000,1000,68328491,1593,1592,1539,1542
53693514,1000,1000,1000,1000,68428451,1589,1588,1544,1547
53696013,1000,1000,1000,1000,68528411,1584,1581,1553,1555
53698512,1000,1000,1000,1000,68628371,1575,1571,1562,1564
53701011,1000,1000,1000,1000,68728331,1565,1561,1574,1576
53703510,1000,1000,1000,1000,68828291,1554,1550,1587,1588
53706009,1000,1000,1000,1000,68928251,1543,1540,1597,1598
53708508,1000,1000,1000,1000,69028211,1533,1533,1606,1606
53711007,1000,1000,1000,1000,69128171,1530,1531,1614,1612
53713506,1000,1000,1000,1000,69228964,1527,1529,1615,1614
53716005,1000,1000,1000,1000,69328924,1530,1532,1613,1612
53718504,1000,1000,1000,1000,69428884,1536,1538,1609,1609
53721003,1000,1000,1000,1000,69528844,1544,1546,1603,1603
53723502,1000,1000,1000,1000,69628804,1553,1554,1596,1596
53726001,1000,1000,1000,1000,69728764,1562,1562,1588,1588
53728500,1000,1000,1000,1000,69828724,1570,1569,1581,1580
53730999,1000,1000,1000,1000,69928684,1578,1577,1575,1575
53733498,1000,1000,1000,1000,70028644,1582,1581,1570,1570
53735997,1000,1000,1000,1000,70128604,1585,1584,1566,1567
53738496,1000,1000,1000,1000,70228564,1587,1586,1566,1566
53740995,1000,1000,1000,1000,70328524,1587,1585,1566,1566
53743494,1000,1000,1000,1000,70428484,1586,1585,1568,1568
53745993,1000,1000,1000,1000,70528444,1584,1583,1570,1570
53748492,1000,1000,1000,1000,70628404,1580,1580,1573,1572
53750991,1000,1000,1000,1000,70728364,1578,1578,1576,1576
53753490,1000,1000,1000,1000,70828324,1576,1576,1580,1579
53755989,1000,1000,1000,1000,70928284,1573,1574,1581,1581
53758488,1000,1000,1000,1000,71028244,1580,1581,1519,1563
53760987,1000,1000,1000,1000,71128204,1589,1589,1560,1560
53763486,1000,1000,1000,1000,71228164,1596,1596,1592,1567
53765985,1000,1000,1000,1000,71328957,1600,1600,1614,1580
53768484,1000,1000,1000,1000,71428917,1600,1600,1622,1596
53770983,1000,1000,1000,1000,71528877,1594,1595,1620,1606
53773482,1000,1000,1000,1000,71628837,1584,1585,1609,1610
53775981,1000,1000,1000,1000,71728797,1575,1576,1599,1609
53778480,1000,1000,1000,1000,71828757,1570,1570,1591,1606
53780979,1000,1000,1000,1000,71928717,1568,1567,1586,1599
53783478,1000,1000,1000,1000,72028677,1568,1567,1583,1592
53785977,1000,1000,1000,1000,72128637,1571,1570,1583,1585
53788476,1000,1000,1000,1000,72228597,1574,1573,1581,1578
53790975,1000,1000,1000,1000,72328557,1576,1576,1577,1574
53793474,1000,1000,1000,1000,72428517,1579,1580,1576,1572
53795973,1000,1000,1000,1000,72528477,1581,1582,1572,1571
53798472,1000,1000,1000,1000,72628437,1583,1583,1571,1571
53800971,1000,1000,1000,1000,72728397,1582,1582,1569,1570
53803470,1000,1000,1000,1000,72828357,1581,1581,1568,1571
53805969,1000,1000,1000,1000,72928317,1580,1579,1569,1571
53808468,1000,1000,1000,1000,73028277,1580,1579,1572,1573
53810967,1000,1000,1000,1000,73128237,1578,1577,1573,1573
53813466,1000,1000,1000,1000,73228197,1576,1577,1575,1574
53815965,1000,1000,1000,1000,73328157,1577,1577,1578,1577
53818464,1000,1000,1000,1000,73428950,1575,1576,1579,1578
53820963,1000,1000,1000,1000,73528910,1575,1576,1580,1580
53823462,1000,1000,1000,1000,73628870,1575,1575,1580,1580
53825961,1000,1000,1000,1000,73728830,1575,1575,1580,1580
53828460,1000,1000,1000,1000,73828790,1575,1577,1585,1574
53830959,1000,1000,1000,1000,73928750,1575,1580,1585,1570
53833458,1000,1000,1000,1000,74028710,1575,1580,1577,1570
53835957,1000,1000,1000,1000,74128670,1576,1580,1568,1570
53838456,1000,1000,1000,1000,74228630,1576,1578,1559,1566
53840955,1000,1000,1000,1000,74328590,1578,1578,1553,1561
53843454,1000,1000,1000,1000,74428550,1581,1579,1550,1556
53845953,1000,1000,1000,1000,74528510,1582,1579,1550,1553
53848452,1000,1000,1000,1000,74628470,1582,1581,1551,1550
53850951,1000,1000,1000,1000,74728430,1581,1580,1551,1549
53853450,1000,1000,1000,1000,74828390,1580,1580,1552,1550
53855949,1000,1000,1000,1000,74928350,1578,1580,1552,1551
53858448,1000,1000,1000,1000,75028310,1577,1580,1553,1552
53860947,1000,1000,1000,1000,75128270,1576,1578,1553,1553
53863446,1000,1000,1000,1000,75228230,1577,1578,1552,1553
53865945,1000,1000,1000,1000,75328190,1577,1578,1552,1552
53868444,1000,1000,1000,1000,75428983,1579,1579,1551,1551
53870943,1000,1000,1000,1000,75528943,1580,1580,1549,1549
53873442,1000,1000,1000,1000,75628903,1581,1582,1547,1547
53875941,1000,1000,1000,1000,75728863,1583,1584,1546,1546
53878440,1000,1000,1000,1000,75828823,1585,1586,1544,1545
53880939,1000,1000,1000,1000,75928783,1587,1589,1543,1543
53883438,1000,1000,1000,1000,76028743,1589,1591,1541,1543
53885937,1000,1000,1000,1000,76128703,1591,1591,1542,1544
53888436,1000,1000,1000,1000,76228663,1591,1590,1545,1547
53890935,1000,1000,1000,1000,76328623,1589,1585,1549,1552
53893434,1000,1000,1000,1000,76428583,1584,1580,1556,1559
53895933,1000,1000,1000,1000,76528543,1577,1572,1565,1567
53898432,1000,1000,1000,1000,76628503,1569,1565,1575,1577
53900931,1000,1000,1000,1000,76728463,1559,1557,1585,1586
53903430,1000,1000,1000,1000,76828423,1551,1550,1595,1594
53905929,1000,1000,1000,1000,76928383,1545,1545,1602,1601
53908428,1000,1000,1000,1000,77028343,1541,1543,1607,1605
53910927,1000,1000,1000,1000,77128303,1541,1543,1608,1607
53913426,1000,1000,1000,1000,77228263,1544,1546,1608,1607
53915925,1000,1000,1000,1000,77328223,1548,1549,1605,1604
53918424,1000,1000,1000,1000,77428183,1553,1553,1601,1600
53920923,1000,1000,1000,1000,77528976,1558,1558,1597,1596
53923422,1000,1000,1000,1000,77628936,1564,1564,1592,1591
53925921,1000,1000,1000,1000,77728896,1569,1569,1585,1585
53928420,1000,1000,1000,1000,77828856,1575,1575,1580,1580
53930919,1000,1000,1000,1000,77928816,1580,1578,1575,1576
53933418,1000,1000,1000,1000,78028776,1583,1582,1572,1573
53935917,1000,1000,1000,1000,78128736,1584,1583,1570,1571
53938416,1000,1000,1000,1000,78228696,1585,1584,1569,1570
53940915,1000,1000,1000,1000,78328656,1584,1583,1569,1569
53943414,1000,1000,1000,1000,78428616,1584,1583,1571,1571
53945913,1000,1000,1000,1000,78528576,1583,1582,1575,1574
53948412,1000,1000,1000,1000,78628536,1580,1580,1576,1576
53950911,1000,1000,1000,1000,78728496,1578,1578,1579,1578
53953410,1000,1000,1000,1000,78828456,1576,1576,1580,1580
53955909,1000,1000,1000,1000,78928416,1574,1575,1582,1581
53958408,1000,1000,1000,1000,79028376,1574,1575,1583,1583
53960907,1000,1000,1000,1000,79128336,1573,1574,1583,1583
53963406,1000,1000,1000,1000,79228296,1574,1574,1583,1583
53965905,1000,1000,1000,1000,79328256,1575,1575,1583,1583
53968404,1000,1000,1000,1000,79428216,1575,1576,1582,1582
53970903,1000,1000,1000,1000,79528176,1577,1577,1581,1581
53973402,1000,1000,1000,1000,79628969,1578,1578,1580,1580
53975901,1000,1000,1000,1000,79728929,1578,1578,1579,1579
53978400,1000,1000,1000,1000,79828889,1580,1579,1579,1579
53980899,1000,1000,1000,1000,79928849,1579,1579,1577,1577
53983398,1000,1000,1000,1000,80028809,1581,1580,1578,1578
53985897,1000,1000,1000,1000,80128769,1582,1581,1578,1578
53988396,1000,1000,1000,1000,80228729,1583,1582,1579,1579
53990895,1000,1000,1000,1000,80328689,1581,1581,1578,1579
53993394,1000,1000,1000,1000,80428649,1582,1582,1580,1580
53995893,1000,1000,1000,1000,80528609,1581,1581,1580,1580
53998392,1000,1000,1000,1000,80628569,1581,1581,1580,1580
54000891,1000,1000,1000,1000,80728529,1581,1581,1582,1581
54003390,1000,1000,1000,1000,80828489,1580,1580,1581,1581
54005889,1000,1000,1000,1000,80928449,1579,1579,1580,1580
54008388,1000,1000,1000,1000,81028409,1579,1580,1581,1581
54010887,1000,1000,1000,1000,81128369,1579,1580,1581,1581
54013386,1000,1000,1000,1000,81228329,1579,1579,1580,1581
54015885,1000,1000,1000,1000,81328289,1580,1580,1580,1581
54018384,1000,1000,1000,1000,81428249,1580,1580,1581,1581
54020883,1000,1000,1000,1000,81528209,1580,1580,1581,1581
54023382,1000,1000,1000,1000,81628169,1581,1581,1581,1581
54025881,1000,1000,1000,1000,81728962,1582,1582,1582,1581
54028380,1000,1000,1000,1000,81828922,1582,1582,1581,1580
54030879,1000,1000,1000,1000,81928882,1582,1582,1583,1579
54033378,1000,1000,1000,1000,82028842,1581,1584,1588,1573
54035877,1000,1000,1000,1000,82128802,1580,1583,1583,1573
54038376,1000,1000,1000,1000,82228762,1578,1581,1574,1572
54040875,1000,1000,1000,1000,82328722,1577,1579,1565,1571
54043374,1000,1000,1000,1000,82428682,1577,1579,1559,1567
54045873,1000,1000,1000,1000,82528642,1578,1578,1556,1562
54048372,1000,1000,1000,1000,82628602,1579,1578,1554,1557
54050871,1000,1000,1000,1000,82728562,1580,1578,1554,1555
54053370,1000,1000,1000,1000,82828522,1580,1579,1555,1554
54055869,1000,1000,1000,1000,82928482,1579,1578,1555,1553
54058368,1000,1000,1000,1000,83028442,1578,1579,1556,1554
54060867,1000,1000,1000,1000,83128402,1576,1578,1555,1553
54063366,1000,1000,1000,1000,83228362,1575,1578,1554,1553
54065865,1000,1000,1000,1000,83328322,1575,1577,1553,1553
54068364,1000,1000,1000,1000,83428282,1575,1577,1551,1552
54070863,1000,1000,1000,1000,83528242,1578,1578,1550,1551
54073362,1000,1000,1000,1000,83628202,1580,1580,1549,1549
54075861,1000,1000,1000,1000,83728162,1581,1582,1547,1546
54078360,1000,1000,1000,1000,83828955,1583,1584,1544,1543
54080859,1000,1000,1000,1000,83928915,1586,1587,1541,1541
54083358,1000,1000,1000,1000,84028875,1590,1590,1540,1540
54085857,1000,1000,1000,1000,84128835,1592,1592,1539,1539
54088356,1000,1000,1000,1000,84228795,1593,1594,1537,1538
54090855,1000,1000,1000,1000,84328755,1594,1594,1536,1539
54093354,1000,1000,1000,1000,84428715,1594,1594,1538,1541
54095853,1000,1000,1000,1000,84528675,1591,1590,1541,1544
54098352,1000,1000,1000,1000,84628635,1588,1585,1548,1551
54100851,1000,1000,1000,1000,84728595,1582,1578,1557,1560
54103350,1000,1000,1000,1000,84828555,1572,1568,1568,1570
54105849,1000,1000,1000,1000,84928515,1561,1557,1580,1580
54108348,1000,1000,1000,1000,85028475,1551,1549,1592,1592
54110847,1000,1000,1000,1000,85128435,1543,1541,1602,1602
54113346,1000,1000,1000,1000,85228395,1536,1536,1609,1608
54115845,1000,1000,1000,1000,85328355,1533,1535,1614,1612
54118344,1000,1000,1000,1000,85428315,1534,1536,1614,1612
54120843,1000,1000,1000,1000,85528275,1538,1539,1611,1610
54123342,1000,1000,1000,1000,85628235,1543,1545,1607,1606
54125841,1000,1000,1000,1000,85728195,1551,1552,1602,1601
54128340,1000,1000,1000,1000,85828155,1557,1557,1594,1594
54130839,1000,1000,1000,1000,85928948,1566,1566,1588,1588
54133338,1000,1000,1000,1000,86028908,1573,1573,1581,1581
54135837,1000,1000,1000,1000,86128868,1580,1578,1575,1576
54138336,1000,1000,1000,1000,86228828,1583,1582,1570,1571
54140835,1000,1000,1000,1000,86328788,1585,1584,1567,1567
54143334,1000,1000,1000,1000,86428748,1587,1586,1566,1567
54145833,1000,1000,1000,1000,86528708,1587,1586,1567,1567
54148332,1000,1000,1000,1000,86628668,1585,1584,1568,1569
54150831,1000,1000,1000,1000,86728628,1583,1582,1571,1571
54153330,1000,1000,1000,1000,86828588,1580,1579,1573,1573
54155829,1000,1000,1000,1000,86928548,1578,1579,1578,1577
54158328,1000,1000,1000,1000,87028508,1576,1576,1579,1579
54160827,1000,1000,1000,1000,87128468,1574,1574,1581,1581
54163326,1000,1000,1000,1000,87228428,1572,1573,1583,1582
54165825,1000,1000,1000,1000,87328388,1572,1573,1583,1583
54168324,1000,1000,1000,1000,87428348,1572,1573,1583,1583
54170823,1000,1000,1000,1000,87528308,1573,1573,1582,1582
54173322,1000,1000,1000,1000,87628268,1574,1574,1582,1582
54175821,1000,1000,1000,1000,87728228,1575,1575,1581,1581
54178320,1000,1000,1000,1000,87828188,1577,1578,1581,1581
54180819,1000,1000,1000,1000,87928981,1579,1579,1580,1580
54183318,1000,1000,1000,1000,88028941,1580,1580,1579,1578
54185817,1000,1000,1000,1000,88128901,1581,1581,1578,1578
54188316,1000,1000,1000,1000,88228861,1582,1581,1578,1578
54190815,1000,1000,1000,1000,88328821,1581,1580,1577,1577
54193314,1000,1000,1000,1000,88428781,1581,1581,1577,1578
54195813,1000,1000,1000,1000,88528741,1581,1582,1578,1578
54198312,1000,1000,1000,1000,88628701,1581,1581,1578,1578
54200811,1000,1000,1000,1000,88728661,1581,1581,1580,1579
54203310,1000,1000,1000,1000,88828621,1581,1581,1580,1580
54205809,1000,1000,1000,1000,88928581,1580,1580,1580,1580
54208308,1000,1000,1000,1000,89028541,1579,1579,1580,1580
54210807,1000,1000,1000,1000,89128501,1580,1581,1582,1582
54213306,1000,1000,1000,1000,89228461,1580,1580,1582,1582
54215805,1000,1000,1000,1000,89328421,1581,1581,1582,1582
54218304,1000,1000,1000,1000,89428381,1580,1581,1582,1582
54220803,1000,1000,1000,1000,89528341,1580,1580,1581,1581
54223302,1000,1000,1000,1000,89628301,1580,1580,1581,1581
54225801,1000,1000,1000,1000,89728261,1582,1581,1582,1582
54228300,1000,1000,1000,1000,89828221,1582,1582,1582,1582
54230799,1000,1000,1000,1000,89928181,1581,1582,1586,1574
54233298,1000,1000,1000,1000,90028974,1580,1581,1585,1572
54235797,1000,1000,1000,1000,90128934,1578,1579,1579,1574
54238296,1000,1000,1000,1000,90228894,1575,1575,1573,1575
54240795,1000,1000,1000,1000,90328854,1571,1571,1567,1574
54243294,1000,1000,1000,1000,90428814,1569,1569,1565,1572
54245793,1000,1000,1000,1000,90528774,1569,1568,1565,1570
54248292,1000,1000,1000,1000,90628734,1568,1567,1566,1568
54250791,1000,1000,1000,1000,90728694,1567,1567,1567,1566
54253290,1000,1000,1000,1000,90828654,1566,1567,1568,1565
54255789,1000,1000,1000,1000,90928614,1566,1566,1568,1565
54258288,1000,1000,1000,1000,91028574,1564,1564,1566,1564
54260787,1000,1000,1000,1000,91128534,1563,1564,1564,1563
54263286,1000,1000,1000,1000,91228494,1564,1564,1565,1564
54265785,1000,1000,1000,1000,91328454,1562,1562,1562,1562
54268284,1000,1000,1000,1000,91428414,1562,1562,1562,1563
54270783,1000,1000,1000,1000,91528374,1561,1561,1561,1561
54273282,1000,1000,1000,1000,91628334,1560,1560,1561,1561
54275781,1000,1000,1000,1000,91728294,1560,1560,1560,1560
54278280,1000,1000,1000,1000,91828254,1558,1558,1558,1557
54280779,1000,1000,1000,1000,91928214,1559,1559,1559,1558
54283278,1000,1000,1000,1000,92028174,1558,1558,1558,1557
54285777,1000,1000,1000,1000,92128967,1557,1558,1558,1557
54288276,1000,1000,1000,1000,92228927,1558,1558,1558,1557
54290775,1000,1000,1000,1000,92328887,1559,1558,1559,1557
54293274,1000,1000,1000,1000,92428847,1559,1559,1560,1557
54295773,1000,1000,1000,1000,92528807,1559,1559,1560,1557
54298272,1000,1000,1000,1000,92628767,1558,1558,1559,1556
54300771,1000,1000,1000,1000,92728727,1559,1559,1558,1559
54303270,1000,1000,1000,1000,92828687,1559,1559,1557,1562
54305769,1000,1000,1000,1000,92928647,1560,1560,1557,1563
54308268,1000,1000,1000,1000,93028607,1560,1560,1557,1564
54310767,1000,1000,1000,1000,93128567,1560,1560,1558,1563
54313266,1000,1000,1000,1000,93228527,1560,1560,1559,1560
54315765,1000,1000,1000,1000,93328487,1559,1559,1560,1557
54318264,1000,1000,1000,1000,93428447,1558,1558,1561,1556
54320763,1000,1000,1000,1000,93528407,1559,1559,1559,1559
54323262,1000,1000,1000,1000,93628367,1556,1556,1555,1558
54325761,1000,1000,1000,1000,93728327,1553,1553,1551,1555
54328260,1000,1000,1000,1000,93828287,1548,1548,1548,1550
54330759,1000,1000,1000,1000,93928247,1543,1542,1543,1544
54333258,1000,1000,1000,1000,94028207,1535,1535,1536,1535
54335757,1000,1000,1000,1000,94128167,1528,1528,1529,1528
54338256,1000,1000,1000,1000,94228960,1521,1522,1523,1522
54340755,1000,1000,1000,1000,94328920,1518,1519,1519,1519
54343254,1000,1000,1000,1000,94428880,1519,1519,1518,1519
54345753,1000,1000,1000,1000,94528840,1521,1521,1520,1521
54348252,1000,1000,1000,1000,94628800,1524,1524,1522,1523
54350751,1000,1000,1000,1000,94728760,1527,1527,1525,1526
54353250,1000,1000,1000,1000,94828720,1532,1532,1530,1530
54355749,1000,1000,1000,1000,94928680,1537,1536,1535,1535
54358248,1000,1000,1000,1000,95028640,1539,1539,1538,1538
54360747,1000,1000,1000,1000,95128600,1542,1542,1541,1541
54363246,1000,1000,1000,1000,95228560,1543,1543,1543,1542
54365745,1000,1000,1000,1000,95328520,1544,1544,1544,1543
54368244,1000,1000,1000,1000,95428480,1545,1545,1546,1545
54370743,1000,1000,1000,1000,95528440,1546,1546,1547,1546
54373242,1000,1000,1000,1000,95628400,1546,1546,1547,1547
54375741,1000,1000,1000,1000,95728360,1546,1545,1547,1547
54378240,1000,1000,1000,1000,95828320,1546,1545,1547,1546
54380739,1000,1000,1000,1000,95928280,1546,1546,1547,1547
54383238,1000,1000,1000,1000,96028240,1546,1546,1546,1546
54385737,1000,1000,1000,1000,96128200,1546,1546,1546,1547
54388236,1000,1000,1000,1000,96228160,1546,1546,1546,1546
54390735,1000,1000,1000,1000,96328953,1545,1545,1545,1545
54393234,1000,1000,1000,1000,96428913,1545,1545,1545,1545
54395733,1000,1000,1000,1000,96528873,1545,1545,1545,1544
54398232,1000,1000,1000,1000,96628833,1545,1545,1545,1544
54400731,1000,1000,1000,1000,96728793,1544,1544,1543,1544
54403230,1000,1000,1000,1000,96828753,1544,1544,1544,1544
54405729,1000,1000,1000,1000,96928713,1544,1544,1543,1544
54408228,1000,1000,1000,1000,97028673,1543,1543,1543,1543
54410727,1000,1000,1000,1000,97128633,1544,1544,1544,1543
54413226,1000,1000,1000,1000,97228593,1543,1544,1544,1543
54415725,1000,1000,1000,1000,97328553,1544,1544,1544,1544
54418224,1000,1000,1000,1000,97428513,1544,1544,1544,1544
54420723,1000,1000,1000,1000,97528473,1544,1544,1544,1545
54423222,1000,1000,1000,1000,97628433,1544,1544,1544,1544
54425721,1000,1000,1000,1000,97728393,1544,1543,1544,1544
54428220,1000,1000,1000,1000,97828353,1544,1544,1544,1544
54430719,1000,1000,1000,1000,97928313,1544,1544,1544,1544
54433218,1000,1000,1000,1000,98028273,1543,1544,1544,1544
54435717,1000,1000,1000,1000,98128233,1543,1544,1544,1543
54438216,1000,1000,1000,1000,98228193,1544,1544,1544,1544
54440715,1000,1000,1000,1000,98328986,1544,1543,1543,1543
54443214,1000,1000,1000,1000,98428946,1544,1545,1544,1544
54445713,1000,1000,1000,1000,98528906,1545,1545,1545,1544
54448212,1000,1000,1000,1000,98628866,1544,1545,1544,1544
54450711,1000,1000,1000,1000,98728826,1544,1544,1544,1544
54453210,1000,1000,1000,1000,98828786,1543,1543,1543,1543
54455709,1000,1000,1000,1000,98928746,1544,1543,1544,1544
54458208,1000,1000,1000,1000,99028706,1544,1544,1544,1544
54460707,1000,1000,1000,1000,99128666,1544,1544,1544,1544
54463206,1000,1000,1000,1000,99228626,1543,1544,1544,1544
54465705,1000,1000,1000,1000,99328586,1545,1544,1544,1544
54468204,1000,1000,1000,1000,99428546,1545,1545,1545,1545
54470703,1000,1000,1000,1000,99528506,1543,1543,1543,1544
54473202,1000,1000,1000,1000,99628466,1544,1544,1544,1544
54475701,1000,1000,1000,1000,99728426,1544,1544,1544,1544
54478200,1000,1000,1000,1000,99828386,1543,1544,1544,1544
54480699,1000,1000,1000,1000,99928346,1544,1543,1544,1544
54483198,1000,1000,1000,1000,100028306,1544,1544,1544,1544
54485697,1000,1000,1000,1000,100128266,1544,1544,1544,1544
54488196,1000,1000,1000,1000,100228226,1544,1545,1544,1544
54490695,1000,1000,1000,1000,100328186,1545,1544,1544,1544
54493194,1000,1000,1000,1000,100428979,1544,1544,1544,1544
54495693,1000,1000,1000,1000,100528939,1544,1544,1544,1544
54498192,1000,1000,1000,1000,100628899,1544,1544,1544,1544
54500691,1000,1000,1000,1000,100728859,1545,1545,1545,1545
54503190,1000,1000,1000,1000,100828819,1545,1544,1545,1544
54505689,1000,1000,1000,1000,100928779,1544,1544,1544,1544
54508188,1000,1000,1000,1000,101028739,1544,1545,1544,1544
54510687,1000,1000,1000,1000,101128699,1545,1545,1545,1545
54513186,1000,1000,1000,1000,101228659,1545,1545,1545,1545
54515685,1000,1000,1000,1000,101328619,1545,1544,1544,1545
54518184,1000,1000,1000,1000,101428579,1544,1544,1544,1544
54520683,1000,1000,1000,1000,101528539,1544,1544,1544,1544
54523182,1000,1000,1000,1000,101628499,1543,1544,1544,1543
54525681,1000,1000,1000,1000,101728459,1544,1544,1544,1544
54528180,1000,1000,1000,1000,101828419,1544,1545,1545,1544
54530679,1000,1000,1000,1000,101928379,1544,1544,1544,1544
54533178,1000,1000,1000,1000,102028339,1545,1545,1545,1545
54535677,1000,1000,1000,1000,102128299,1544,1544,1543,1544
54538176,1000,1000,1000,1000,102228259,1544,1544,1544,1544
54540675,1000,1000,1000,1000,102328219,1545,1545,1545,1545
54543174,1000,1000,1000,1000,102428179,1545,1545,1545,1545
54545673,1000,1000,1000,1000,102528972,1545,1544,1544,1544
54548172,1000,1000,1000,1000,102628932,1545,1545,1545,1545
54550671,1000,1000,1000,1000,102728892,1545,1545,1545,1545
54553170,1000,1000,1000,1000,102828852,1545,1545,1545,1545
54555669,1000,1000,1000,1000,102928812,1544,1544,1544,1544
54558168,1000,1000,1000,1000,103028772,1544,1545,1544,1544
54560667,1000,1000,1000,1000,103128732,1544,1544,1544,1544
54563166,1000,1000,1000,1000,103228692,1543,1544,1543,1544
54565665,1000,1000,1000,1000,103328652,1543,1543,1543,1544
54568164,1000,1000,1000,1000,103428612,1544,1544,1544,1544
54570663,1000,1000,1000,1000,103528572,1544,1543,1544,1544
54573162,1000,1000,1000,1000,103628532,1543,1544,1544,1543
54575661,1000,1000,1000,1000,103728492,1543,1543,1543,1543
54578160,1000,1000,1000,1000,103828452,1543,1544,1543,1543
54580659,1000,1000,1000,1000,103928412,1545,1544,1544,1545
54583158,1000,1000,1000,1000,104028372,1418,1416,1433,1417
54585657,1000,1000,1000,1000,104128332,1275,1269,1314,1272
54588156,1000,1000,1000,1000,104228292,1220,1214,1272,1216
54590655,1000,1000,1000,1000,104328252,1200,1193,1257,1196
54593154,1000,1000,1000,1000,104428212,1165,1158,1232,1161
54596486,1000,1000,1000,1000,104528172,1157,1150,1226,1153
54598985,1000,1000,1000,1000,104628965,1157,1150,1226,1153
54601484,1000,1000,1000,1000,104728925,1160,1150,1227,1155
54603983,1000,1000,1000,1000,104828885,1185,1150,1224,1183
54606482,1000,1000,1000,1000,104928845,1178,1150,1226,1175
54608981,1000,1000,1000,1000,105028805,1176,1150,1226,1173
54611480,1000,1000,1000,1000,105128765,1178,1150,1226,1174
54613979,1000,1000,1000,1000,105228725,1180,1150,1226,1176
54616478,1000,1000,1000,1000,105328685,1182,1150,1226,1178
54618977,1000,1000,1000,1000,105428645,1184,1150,1226,1180
54621476,1000,1000,1000,1000,105528605,1177,1150,1226,1173
54623975,1000,1000,1000,1000,105628565,1169,1150,1225,1166
54626474,1000,1000,1000,1000,105728525,1171,1150,1225,1168
54628973,1000,1000,1000,1000,105828485,1172,1150,1225,1169
54631472,1000,1000,1000,1000,105928445,1173,1150,1225,1169
54633971,1000,1000,1000,1000,106028405,1150,1150,1050,1150
54636470,1000,1000,1000,1000,106128365,1000,1000,1000,1000
54638969,1000,1000,1000,1000,106228325,1000,1000,1000,1000
54641468,1000,1000,1000,1000,106328285,1000,1000,1000,1000
54643967,1000,1000,1000,1000,106428245,1000,1000,1000,1000
54646466,1000,1000,1000,1000,106528205,1000,1000,1000,1000
54648965,1000,1000,1000,1000,106628165,1000,1000,1000,1000
54651464,1000,1000,1000,1000,106728958,1000,1000,1000,1000
54653963,1000,1000,1000,1000,106828918,1000,1000,1000,1000
54656462,1000,1000,1000,1000,106928878,1000,1000,1000,1000
54658961,1000,1000,1000,1000,107028838,1000,1000,1000,1000
54661460,1000,1000,1000,1000,107128798,1000,1000,1000,1000
54663959,1000,1000,1000,1000,107228758,1000,1000,1000,1000
54666458,1000,1000,1000,1000,107328718,1000,1000,1000,1000
54668957,1000,1000,1000,1000,107428678,1000,1000,1000,1000
54671456,1000,1000,1000,1000,107528638,1000,1000,1000,1000
54673955,1000,1000,1000,1000,107628598,1000,1000,1000,1000
54676454,1000,1000,1000,1000,107728558,1000,1000,1000,1000
54678953,1000,1000,1000,1000,107828518,1000,1000,1000,1000
54681452,1000,1000,1000,1000,107928478,1000,1000,1000,1000
54683951,1000,1000,1000,1000,108028438,1000,1000,1000,1000
54686450,1000,1000,1000,1000,108128398,1000,1000,1000,1000
54688949,1000,1000,1000,1000,108228358,1000,1000,1000,1000
54691448,1000,1000,1000,1000,108328318,1000,1000,1000,1000
54693947,1000,1000,1000,1000,108428278,1000,1000,1000,1000
54696446,1000,1000,1000,1000,108528238,1000,1000,1000,1000
54698945,1000,1000,1000,1000,108628198,1000,1000,1000,1000
54701444,1000,1000,1000,1000,108728158,1000,1000,1000,1000
54703943,1000,1000,1000,1000,108828951,1000,1000,1000,1000
54706442,1000,1000,1000,1000,108928911,1000,1000,1000,1000
54708941,1000,1000,1000,1000,109028871,1000,1000,1000,1000
54711440,1000,1000,1000,1000,109128831,1000,1000,1000,1000
54713939,1000,1000,1000,1000,109228791,1000,1000,1000,1000
54716438,1000,1000,1000,1000,109328751,1000,1000,1000,1000
54718937,1000,1000,1000,1000,109428711,1000,1000,1000,1000
54721436,1000,1000,1000,1000,109528671,1000,1000,1000,1000
54723935,1000,1000,1000,1000,109628631,1000,1000,1000,1000
54726434,1000,1000,1000,1000,109728591,1000,1000,1000,1000
54728933,1000,1000,1000,1000,109828551,1000,1000,1000,1000
54731432,1000,1000,1000,1000,109928511,1000,1000,1000,1000
54733931,1000,1000,1000,1000,110028471,1000,1000,1000,1000
54736430,1000,1000,1000,1000,110128431,1000,1000,1000,1000
54738929,1000,1000,1000,1000,110228391,1000,1000,1000,1000
54741428,1000,1000,1000,1000,110328351,1000,1000,1000,1000
54743927,1000,1000,1000,1000,110428311,1000,1000,1000,1000
54746426,1000,1000,1000,1000,110528271,1000,1000,1000,1000
54748925,1000,1000,1000,1000,110628231,1000,1000,1000,1000
54751424,1000,1000,1000,1000,110728191,1000,1000,1000,1000
54753923,1000,1000,1000,1000,110828984,1000,1000,1000,1000
54756422,1000,1000,1000,1000,110928944,1000,1000,1000,1000
54758921,1000,1000,1000,1000,111028904,1000,1000,1000,1000
54761420,1000,1000,1000,1000,111128864,1000,1000,1000,1000
54763919,1000,1000,1000,1000,111228824,1000,1000,1000,1000
54766418,1000,1000,1000,1000,111328784,1000,1000,1000,1000
54768917,1000,1000,1000,1000,111428744,1000,1000,1000,1000
54771416,1000,1000,1000,1000,111528704,1000,1000,1000,1000
54773915,1000,1000,1000,1000,111628664,1000,1000,1000,1000
54776414,1000,1000,1000,1000,111728624,1000,1000,1000,1000
54778913,1000,1000,1000,1000,111828584,1000,1000,1000,1000
54781412,1000,1000,1000,1000,111928544,1000,1000,1000,1000
54783911,1000,1000,1000,1000,112028504,1000,1000,1000,1000
54786410,1000,1000,1000,1000,112128464,1000,1000,1000,1000
54788909,1000,1000,1000,1000,112228424,1000,1000,1000,1000
54791408,1000,1000,1000,1000,112328384,1000,1000,1000,1000
54793907,1000,1000,1000,1000,112428344,1000,1000,1000,1000
54796406,1000,1000,1000,1000,112528304,1000,1000,1000,1000
54798905,1000,1000,1000,1000,112628264,1000,1000,1000,1000
54801404,1000,1000,1000,1000,112728224,1000,1000,1000,1000
54803903,1000,1000,1000,1000,112828184,1000,1000,1000,1000
54806402,1000,1000,1000,1000,112928977,1000,1000,1000,1000
54808901,1000,1000,1000,1000,113028937,1000,1000,1000,1000
54811400,1000,1000,1000,1000,113128897,1000,1000,1000,1000
54813899,1000,1000,1000,1000,113228857,1000,1000,1000,1000
54816398,1000,1000,1000,1000,113328817,1000,1000,1000,1000
54818897,1000,1000,1000,1000,113428777,1000,1000,1000,1000
54821396,1000,1000,1000,1000,113528737,1000,1000,1000,1000
54823895,1000,1000,1000,1000,113628697,1000,1000,1000,1000
54826394,1000,1000,1000,1000,113728657,1000,1000,1000,1000
54828893,1000,1000,1000,1000,113828617,1000,1000,1000,1000
54831392,1000,1000,1000,1000,113928577,1000,1000,1000,1000
54833891,1000,1000,1000,1000,114028537,1000,1000,1000,1000
54836390,1000,1000,1000,1000,114128497,1000,1000,1000,1000
54838889,1000,1000,1000,1000,114228457,1000,1000,1000,1000
54841388,1000,1000,1000,1000,114328417,1000,1000,1000,1000
54843887,1000,1000,1000,1000,114428377,1000,1000,1000,1000
54846386,1000,1000,1000,1000,114528337,1000,1000,1000,1000
54848885,1000,1000,1000,1000,114628297,1000,1000,1000,1000
54851384,1000,1000,1000,1000,114728257,1000,1000,1000,1000
54853883,1000,1000,1000,1000,114828217,1000,1000,1000,1000
54856382,1000,1000,1000,1000,114928177,1000,1000,1000,1000
54858881,1000,1000,1000,1000,115028970,1000,1000,1000,1000
54861380,1000,1000,1000,1000,115128930,1000,1000,1000,1000
54863879,1000,1000,1000,1000,115228890,1000,1000,1000,1000
54866378,1000,1000,1000,1000,115328850,1000,1000,1000,1000
54868877,1000,1000,1000,1000,115428810,1000,1000,1000,1000
54871376,1000,1000,1000,1000,115528770,1000,1000,1000,1000
54873875,1000,1000,1000,1000,115628730,1000,1000,1000,1000
54876374,1000,1000,1000,1000,115728690,1000,1000,1000,1000
54878873,1000,1000,1000,1000,115828650,1000,1000,1000,1000
54881372,1000,1000,1000,1000,115928610,1000,1000,1000,1000
54883871,1000,1000,1000,1000,116028570,1000,1000,1000,1000
54886370,1000,1000,1000,1000,116128530,1000,1000,1000,1000
54888869,1000,1000,1000,1000,116228490,1000,1000,1000,1000
54891368,1000,1000,1000,1000,116328450,1000,1000,1000,1000
54893867,1000,1000,1000,1000,116428410,1000,1000,1000,1000
54896366,1000,1000,1000,1000,116528370,1000,1000,1000,1000
54898865,1000,1000,1000,1000,116628330,1000,1000,1000,1000
54901364,1000,1000,1000,1000,116728290,1000,1000,1000,1000
54903863,1000,1000,1000,1000,116828250,1000,1000,1000,1000
54906362,1000,1000,1000,1000,116928210,1000,1000,1000,1000
54908861,1000,1000,1000,1000,117028170,1000,1000,1000,1000
54911360,1000,1000,1000,1000,117128963,1000,1000,1000,1000
54913859,1000,1000,1000,1000,117228923,1000,1000,1000,1000
54916358,1000,1000,1000,1000,117328883,1000,1000,1000,1000
54918857,1000,1000,1000,1000,117428843,1000,1000,1000,1000
54921356,1000,1000,1000,1000,117528803,1000,1000,1000,1000
54923855,1000,1000,1000,1000,117628763,1000,1000,1000,1000
54926354,1000,1000,1000,1000,117728723,1000,1000,1000,1000
54928853,1000,1000,1000,1000,117828683,1000,1000,1000,1000
54931352,1000,1000,1000,1000,117928643,1000,1000,1000,1000
54933851,1000,1000,1000,1000,118028603,1000,1000,1000,1000
54936350,1000,1000,1000,1000,118128563,1000,1000,1000,1000
54938849,1000,1000,1000,1000,118228523,1000,1000,1000,1000
54941348,1000,1000,1000,1000,118328483,1000,1000,1000,1000
54943847,1000,1000,1000,1000,118428443,1000,1000,1000,1000
54946346,1000,1000,1000,1000,118528403,1000,1000,1000,1000
54948845,1000,1000,1000,1000,118628363,1000,1000,1000,1000
54951344,1000,1000,1000,1000,118728323,1000,1000,1000,1000
54953843,1000,1000,1000,1000,118828283,1000,1000,1000,1000
54956342,1000,1000,1000,1000,118928243,1000,1000,1000,1000
54958841,1000,1000,1000,1000,119028203,1000,1000,1000,1000
54961340,1000,1000,1000,1000,119128163,1000,1000,1000,1000
54963839,1000,1000,1000,1000,119228956,1000,1000,1000,1000
54966338,1000,1000,1000,1000,119328916,1000,1000,1000,1000
54968837,1000,1000,1000,1000,119428876,1000,1000,1000,1000
54971336,1000,1000,1000,1000,119528836,1000,1000,1000,1000
54973835,1000,1000,1000,1000,119628796,1000,1000,1000,1000
54976334,1000,1000,1000,1000,119728756,1000,1000,1000,1000
54978833,1000,1000,1000,1000,119828716,1000,1000,1000,1000
54981332,1000,1000,1000,1000,119928676,1000,1000,1000,1000
54983831,1000,1000,1000,1000,120028636,1000,1000,1000,1000
54986330,1000,1000,1000,1000,120128596,1000,1000,1000,1000
54988829,1000,1000,1000,1000,120228556,1000,1000,1000,1000
54991328,1000,1000,1000,1000,120328516,1000,1000,1000,1000
54993827,1000,1000,1000,1000,120428476,1000,1000,1000,1000
54996326,1000,1000,1000,1000,120528436,1000,1000,1000,1000
54998825,1000,1000,1000,1000,120628396,1000,1000,1000,1000
55001324,1000,1000,1000,1000,120728356,1000,1000,1000,1000
55003823,1000,1000,1000,1000,120828316,1000,1000,1000,1000
55006322,1000,1000,1000,1000,120928276,1000,1000,1000,1000
55008821,1000,1000,1000,1000,121028236,1000,1000,1000,1000
55011320,1000,1000,1000,1000,,,,,
55013819,1000,1000,1000,1000,,,,,
55016318,1000,1000,1000,1000,,,,,
55018817,1000,1000,1000,1000,,,,,
55021316,1000,1000,1000,1000,,,,,
55023815,1000,1000,1000,1000,,,,,
55026314,1000,1000,1000,1000,,,,,
55028813,1000,1000,1000,1000,,,,,
55031312,1000,1000,1000,1000,,,,,
55033811,1000,1000,1000,1000,,,,,
55036310,1000,1000,1000,1000,,,,,
55038809,1000,1000,1000,1000,,,,,
55041308,1000,1000,1000,1000,,,,,
55043807,1000,1000,1000,1000,,,,,
55046306,1000,1000,1000,1000,,,,,
55048805,1000,1000,1000,1000,,,,,
55051304,1000,1000,1000,1000,,,,,
55053803,1000,1000,1000,1000,,,,,
55056302,1000,1000,1000,1000,,,,,
55058801,1000,1000,1000,1000,,,,,
55061300,1000,1000,1000,1000,,,,,
55063799,1000,1000,1000,1000,,,,,
55066298,1000,1000,1000,1000,,,,,
55068797,1000,1000,1000,1000,,,,,
55071296,1000,1000,1000,1000,,,,,
55073795,1000,1000,1000,1000,,,,,
55076294,1000,1000,1000,1000,,,,,
55078793,1000,1000,1000,1000,,,,,
55081292,1000,1000,1000,1000,,,,,
55083791,1000,1000,1000,1000,,,,,
55086290,1000,1000,1000,1000,,,,,
55088789,1000,1000,1000,1000,,,,,
55091288,1000,1000,1000,1000,,,,,
55093787,1000,1000,1000,1000,,,,,
55096286,1000,1000,1000,1000,,,,,
55098785,1000,1000,1000,1000,,,,,
55101284,1000,1000,1000,1000,,,,,
55103783,1000,1000,1000,1000,,,,,
55106282,1000,1000,1000,1000,,,,,
55108781,1000,1000,1000,1000,,,,,
55111280,1000,1000,1000,1000,,,,,
55113779,1000,1000,1000,1000,,,,,
55116278,1000,1000,1000,1000,,,,,
55118777,1000,1000,1000,1000,,,,,
55121276,1000,1000,1000,1000,,,,,
55123775,1000,1000,1000,1000,,,,,
55126274,1000,1000,1000,1000,,,,,
55128773,1000,1000,1000,1000,,,,,
55131272,1000,1000,1000,1000,,,,,
55133771,1000,1000,1000,1000,,,,,
55136270,1000,1000,1000,1000,,,,,
55138769,1000,1000,1000,1000,,,,,
55141268,1000,1000,1000,1000,,,,,
55143767,1000,1000,1000,1000,,,,,
55146266,1000,1000,1000,1000,,,,,
55148765,1000,1000,1000,1000,,,,,
55151264,1000,1000,1000,1000,,,,,
55153763,1000,1000,1000,1000,,,,,
55156262,1000,1000,1000,1000,,,,,
55158761,1000,1000,1000,1000,,,,,
55161260,1000,1000,1000,1000,,,,,
55163759,1000,1000,1000,1000,,,,,
55166258,1000,1000,1000,1000,,,,,
55168757,1000,1000,1000,1000,,,,,
55171256,1000,1000,1000,1000,,,,,
55173755,1000,1000,1000,1000,,,,,
55176254,1000,1000,1000,1000,,,,,
55178753,1000,1000,1000,1000,,,,,
55181252,1000,1000,1000,1000,,,,,
55183751,1000,1000,1000,1000,,,,,
55186250,1000,1000,1000,1000,,,,,
55188749,1000,1000,1000,1000,,,,,
55191248,1000,1000,1000,1000,,,,,
55193747,1000,1000,1000,1000,,,,,
55196246,1000,1000,1000,1000,,,,,
55198745,1000,1000,1000,1000,,,,,
55201244,1000,1000,1000,1000,,,,,
55203743,1000,1000,1000,1000,,,,,
55206242,1000,1000,1000,1000,,,,,
55208741,1000,1000,1000,1000,,,,,
55211240,1000,1000,1000,1000,,,,,
55213739,1000,1000,1000,1000,,,,,
55216238,1000,1000,1000,1000,,,,,
55218737,1000,1000,1000,1000,,,,,
55221236,1000,1000,1000,1000,,,,,
55223735,1000,1000,1000,1000,,,,,
55226234,1000,1000,1000,1000,,,,,
55228733,1000,1000,1000,1000,,,,,
55231232,1000,1000,1000,1000,,,,,
55233731,1000,1000,1000,1000,,,,,
55236230,1000,1000,1000,1000,,,,,
55238729,1000,1000,1000,1000,,,,,
55241228,1000,1000,1000,1000,,,,,
55243727,1000,1000,1000,1000,,,,,
55246226,1000,1000,1000,1000,,,,,
55248725,1000,1000,1000,1000,,,,,
55251224,1000,1000,1000,1000,,,,,
55253723,1000,1000,1000,1000,,,,,
55256222,1000,1000,1000,1000,,,,,
55258721,1000,1000,1000,1000,,,,,
55261220,1000,1000,1000,1000,,,,,
55263719,1000,1000,1000,1000,,,,,
55266218,1000,1000,1000,1000,,,,,
55268717,1000,1000,1000,1000,,,,,
55271216,1000,1000,1000,1000,,,,,
55273715,1000,1000,1000,1000,,,,,
55276214,1000,1000,1000,1000,,,,,
55278713,1000,1000,1000,1000,,,,,
55281212,1000,1000,1000,1000,,,,,
55283711,1000,1000,1000,1000,,,,,
55286210,1000,1000,1000,1000,,,,,
55288709,1000,1000,1000,1000,,,,,
55291208,1000,1000,1000,1000,,,,,
55293707,1000,1000,1000,1000,,,,,
55296206,1000,1000,1000,1000,,,,,
55298705,1000,1000,1000,1000,,,,,
55301204,1000,1000,1000,1000,,,,,
55303703,1000,1000,1000,1000,,,,,
55306202,1000,1000,1000,1000,,,,,
55308701,1000,1000,1000,1000,,,,,
55311200,1000,1000,1000,1000,,,,,
55313699,1000,1000,1000,1000,,,,,
55316198,1000,1000,1000,1000,,,,,
55318697,1000,1000,1000,1000,,,,,
55321196,1000,1000,1000,1000,,,,,
55323695,1001,1001,1001,1001,,,,,
55326194,1002,1002,1002,1002,,,,,
55328693,1003,1003,1003,1003,,,,,
55331192,1003,1003,1003,1003,,,,,
55333691,1004,1004,1004,1004,,,,,
55336190,1005,1005,1005,1005,,,,,
55338689,1006,1006,1006,1006,,,,,
55341188,1006,1006,1006,1006,,,,,
55343687,1007,1007,1007,1007,,,,,
55346186,1008,1008,1008,1008,,,,,
55348685,1009,1009,1009,1009,,,,,
55351184,1009,1009,1009,1009,,,,,
55353683,1010,1010,1010,1010,,,,,
55356182,1011,1011,1011,1011,,,,,
55358681,1012,1012,1012,1012,,,,,
55361180,1012,1012,1012,1012,,,,,
55363679,1013,1013,1013,1013,,,,,
55366178,1014,1014,1014,1014,,,,,
55368677,1015,1015,1015,1015,,,,,
55371176,1015,1015,1015,1015,,,,,
55373675,1016,1016,1016,1016,,,,,
55376174,1017,1017,1017,1017,,,,,
55378673,1018,1018,1018,1018,,,,,
55381172,1018,1018,1018,1018,,,,,
55383671,1019,1019,1019,1019,,,,,
55386170,1020,1020,1020,1020,,,,,
55388669,1021,1021,1021,1021,,,,,
55391168,1021,1021,1021,1021,,,,,
55393667,1022,1022,1022,1022,,,,,
55396166,1023,1023,1023,1023,,,,,
55398665,1024,1024,1024,1024,,,,,
55401164,1024,1024,1024,1024,,,,,
55403663,1025,1025,1025,1025,,,,,
55406162,1026,1026,1026,1026,,,,,
55408661,1027,1027,1027,1027,,,,,
55411160,1027,1027,1027,1027,,,,,
55413659,1028,1028,1028,1028,,,,,
55416158,1029,1029,1029,1029,,,,,
55418657,1030,1030,1030,1030,,,,,
55421156,1030,1030,1030,1030,,,,,
55423655,1031,1031,1031,1031,,,,,
55426154,1032,1032,1032,1032,,,,,
55428653,1033,1033,1033,1033,,,,,
55431152,1033,1033,1033,1033,,,,,
55433651,1034,1034,1034,1034,,,,,
55436150,1035,1035,1035,1035,,,,,
55438649,1036,1036,1036,1036,,,,,
55441148,1036,1036,1036,1036,,,,,
55443647,1037,1037,1037,1037,,,,,
55446146,1038,1038,1038,1038,,,,,
55448645,1039,1039,1039,1039,,,,,
55451144,1039,1039,1039,1039,,,,,
55453643,1040,1040,1040,1040,,,,,
55456142,1041,1041,1041,1041,,,,,
55458641,1042,1042,1042,1042,,,,,
55461140,1042,1042,1042,1042,,,,,
55463639,1043,1043,1043,1043,,,,,
55466138,1044,1044,1044,1044,,,,,
55468637,1045,1045,1045,1045,,,,,
55471136,1045,1045,1045,1045,,,,,
55473635,1046,1046,1046,1046,,,,,
55476134,1047,1047,1047,1047,,,,,
55478633,1048,1048,1048,1048,,,,,
55481132,1048,1048,1048,1048,,,,,
55483631,1049,1049,1049,1049,,,,,
55486130,1050,1050,1050,1050,,,,,
55488629,1051,1051,1051,1051,,,,,
55491128,1051,1051,1051,1051,,,,,
55493627,1052,1052,1052,1052,,,,,
55496126,1053,1053,1053,1053,,,,,
55498625,1054,1054,1054,1054,,,,,
55501124,1054,1054,1054,1054,,,,,
55503623,1055,1055,1055,1055,,,,,
55506122,1056,1056,1056,1056,,,,,
55508621,1057,1057,1057,1057,,,,,
55511120,1057,1057,1057,1057,,,,,
55513619,1058,1058,1058,1058,,,,,
55516118,1059,1059,1059,1059,,,,,
55518617,1060,1060,1060,1060,,,,,
55521116,1060,1060,1060,1060,,,,,
55523615,1061,1061,1061,1061,,,,,
55526114,1062,1062,1062,1062,,,,,
55528613,1063,1063,1063,1063,,,,,
55531112,1063,1063,1063,1063,,,,,
55533611,1064,1064,1064,1064,,,,,
55536110,1065,1065,1065,1065,,,,,
55538609,1066,1066,1066,1066,,,,,
55541108,1066,1066,1066,1066,,,,,
55543607,1067,1067,1067,1067,,,,,
55546106,1068,1068,1068,1068,,,,,
55548605,1069,1069,1069,1069,,,,,
55551104,1069,1069,1069,1069,,,,,
55553603,1070,1070,1070,1070,,,,,
55556102,1071,1071,1071,1071,,,,,
55558601,1072,1072,1072,1072,,,,,
55561100,1072,1072,1072,1072,,,,,
55563599,1073,1073,1073,1073,,,,,
55566098,1074,1074,1074,1074,,,,,
55568597,1075,1075,1075,1075,,,,,
55571096,1075,1075,1075,1075,,,,,
55573595,1076,1076,1076,1076,,,,,
55576094,1077,1077,1077,1077,,,,,
55578593,1078,1078,1078,1078,,,,,
55581092,1078,1078,1078,1078,,,,,
55583591,1079,1079,1079,1079,,,,,
55586090,1080,1080,1080,1080,,,,,
55588589,1081,1081,1081,1081,,,,,
55591088,1081,1081,1081,1081,,,,,
55593587,1082,1082,1082,1082,,,,,
55596086,1083,1083,1083,1083,,,,,
55598585,1084,1084,1084,1084,,,,,
55601084,1084,1084,1084,1084,,,,,
55603583,1085,1085,1085,1085,,,,,
55606082,1086,1086,1086,1086,,,,,
55608581,1087,1087,1087,1087,,,,,
55611080,1087,1087,1087,1087,,,,,
55613579,1088,1088,1088,1088,,,,,
55616078,1089,1089,1089,1089,,,,,
55618577,1090,1090,1090,1090,,,,,
55621076,1090,1090,1090,1090,,,,,
55623575,1091,1091,1091,1091,,,,,
55626074,1092,1092,1092,1092,,,,,
55628573,1093,1093,1093,1093,,,,,
55631072,1093,1093,1093,1093,,,,,
55633571,1094,1094,1094,1094,,,,,
55636070,1095,1095,1095,1095,,,,,
55638569,1096,1096,1096,1096,,,,,
55641068,1096,1096,1096,1096,,,,,
55643567,1097,1097,1097,1097,,,,,
55646066,1098,1098,1098,1098,,,,,
55648565,1099,1099,1099,1099,,,,,
55651064,1099,1099,1099,1099,,,,,
55653563,1100,1100,1100,1100,,,,,
55656062,1101,1101,1101,1101,,,,,
55658561,1101,1101,1101,1101,,,,,
55661060,1102,1102,1102,1102,,,,,
55663559,1103,1103,1103,1103,,,,,
55666058,1104,1104,1104,1104,,,,,
55668557,1104,1104,1104,1104,,,,,
55671056,1105,1105,1105,1105,,,,,
55673555,1106,1106,1106,1106,,,,,
55676054,1107,1107,1107,1107,,,,,
55678553,1107,1107,1107,1107,,,,,
55681052,1108,1108,1108,1108,,,,,
55683551,1109,1109,1109,1109,,,,,
55686050,1110,1110,1110,1110,,,,,
55688549,1110,1110,1110,1110,,,,,
55691048,1111,1111,1111,1111,,,,,
55693547,1112,1112,1112,1112,,,,,
55696046,1113,1113,1113,1113,,,,,
55698545,1113,1113,1113,1113,,,,,
55701044,1114,1114,1114,1114,,,,,
55703543,1115,1115,1115,1115,,,,,
55706042,1116,1116,1116,1116,,,,,
55708541,1116,1116,1116,1116,,,,,
55711040,1117,1117,1117,1117,,,,,
55713539,1118,1118,1118,1118,,,,,
55716038,1119,1119,1119,1119,,,,,
55718537,1119,1119,1119,1119,,,,,
55721036,1120,1120,1120,1120,,,,,
55723535,1121,1121,1121,1121,,,,,
55726034,1122,1122,1122,1122,,,,,
55728533,1122,1122,1122,1122,,,,,
55731032,1123,1123,1123,1123,,,,,
55733531,1124,1124,1124,1124,,,,,
55736030,1125,1125,1125,1125,,,,,
55738529,1125,1125,1125,1125,,,,,
55741028,1126,1126,1126,1126,,,,,
55743527,1127,1127,1127,1127,,,,,
55746026,1128,1128,1128,1128,,,,,
55748525,1128,1128,1128,1128,,,,,
55751024,1129,1129,1129,1129,,,,,
55753523,1130,1130,1130,1130,,,,,
55756022,1131,1131,1131,1131,,,,,
55758521,1131,1131,1131,1131,,,,,
55761020,1132,1132,1132,1132,,,,,
55763519,1133,1133,1133,1133,,,,,
55766018,1134,1134,1134,1134,,,,,
55768517,1134,1134,1134,1134,,,,,
55771016,1135,1135,1135,1135,,,,,
55773515,1136,1136,1136,1136,,,,,
55776014,1137,1137,1137,1137,,,,,
55778513,1137,1137,1137,1137,,,,,
55781012,1138,1138,1138,1138,,,,,
55783511,1139,1139,1139,1139,,,,,
55786010,1140,1140,1140,1140,,,,,
55788509,1140,1140,1140,1140,,,,,
55791008,1141,1141,1141,1141,,,,,
55793507,1142,1142,1142,1142,,,,,
55796006,1143,1143,1143,1143,,,,,
55798505,1143,1143,1143,1143,,,,,
55801004,1144,1144,1144,1144,,,,,
55803503,1145,1145,1145,1145,,,,,
55806002,1146,1146,1146,1146,,,,,
55808501,1146,1146,1146,1146,,,,,
55811000,1147,1147,1147,1147,,,,,
55813499,1148,1148,1148,1148,,,,,
55815998,1149,1149,1149,1149,,,,,
55818497,1149,1149,1149,1149,,,,,
55820996,1150,1150,1150,1150,,,,,
55823495,1162,1153,1154,1162,,,,,
55825994,1170,1161,1162,1170,,,,,
55828493,1177,1169,1170,1178,,,,,
55830992,1185,1177,1178,1186,,,,,
55833491,1193,1185,1185,1193,,,,,
55835990,1200,1193,1193,1201,,,,,
55838489,1207,1200,1200,1208,,,,,
55840988,1215,1207,1208,1215,,,,,
55843487,1222,1214,1215,1222,,,,,
55845986,1229,1221,1222,1229,,,,,
55848485,1236,1228,1229,1236,,,,,
55850984,1242,1235,1236,1243,,,,,
55853483,1249,1242,1242,1250,,,,,
55855982,1256,1249,1249,1256,,,,,
55858481,1262,1255,1256,1263,,,,,
55860980,1269,1262,1262,1269,,,,,
55863479,1275,1268,1269,1275,,,,,
55865978,1281,1275,1275,1282,,,,,
55868477,1288,1281,1281,1288,,,,,
55870976,1294,1287,1287,1294,,,,,
55873475,1300,1293,1294,1300,,,,,
55875974,1306,1299,1300,1306,,,,,
55878473,1312,1305,1306,1312,,,,,
55880972,1318,1311,1312,1318,,,,,
55883471,1323,1317,1317,1324,,,,,
55885970,1329,1323,1323,1330,,,,,
55888469,1335,1329,1329,1335,,,,,
55890968,1341,1334,1335,1341,,,,,
55893467,1346,1340,1340,1347,,,,,
55895966,1352,1346,1346,1352,,,,,
55898465,1357,1351,1351,1358,,,,,
55900964,1363,1357,1357,1363,,,,,
55903463,1368,1362,1362,1368,,,,,
55905962,1373,1367,1368,1374,,,,,
55908461,1379,1373,1373,1379,,,,,
55910960,1384,1378,1378,1384,,,,,
55913459,1389,1383,1384,1390,,,,,
55915958,1394,1388,1389,1395,,,,,
55918457,1400,1394,1394,1400,,,,,
55920956,1405,1399,1399,1405,,,,,
55923455,1410,1404,1404,1410,,,,,
55925954,1415,1409,1409,1415,,,,,
55928453,1420,1414,1414,1420,,,,,
55930952,1425,1419,1419,1425,,,,,
55933451,1430,1424,1424,1430,,,,,
55935950,1434,1429,1429,1435,,,,,
55938449,1439,1433,1434,1440,,,,,
55940948,1444,1438,1439,1444,,,,,
55943447,1449,1443,1443,1449,,,,,
55945946,1454,1448,1448,1454,,,,,
55948445,1458,1453,1453,1459,,,,,
55950944,1463,1457,1458,1463,,,,,
55953443,1468,1462,1462,1468,,,,,
55955942,1472,1467,1467,1473,,,,,
55958441,1477,1471,1471,1477,,,,,
55960940,1481,1476,1476,1482,,,,,
55963439,1486,1480,1481,1486,,,,,
55965938,1490,1485,1485,1491,,,,,
55968437,1495,1489,1490,1495,,,,,
55970936,1499,1494,1494,1500,,,,,
55973435,1504,1498,1498,1504,,,,,
55975934,1508,1503,1503,1509,,,,,
55978433,1513,1507,1507,1513,,,,,
55980932,1517,1511,1512,1517,,,,,
55983431,1521,1516,1516,1522,,,,,
55985930,1525,1520,1520,1526,,,,,
55988429,1530,1524,1524,1530,,,,,
55990928,1534,1529,1529,1534,,,,,
55993427,1538,1533,1533,1539,,,,,
55995926,1542,1537,1537,1543,,,,,
55998425,1546,1541,1541,1547,,,,,
56000924,1551,1546,1545,1551,,,,,
56003423,1555,1550,1550,1555,,,,,
56005922,1559,1554,1554,1560,,,,,
56008421,1563,1558,1558,1564,,,,,
56010920,1567,1562,1562,1568,,,,,
56013419,1571,1566,1566,1572,,,,,
56015918,1575,1570,1570,1576,,,,,
56018417,1579,1574,1574,1580,,,,,
56020916,1583,1578,1578,1584,,,,,
56023415,1587,1582,1582,1588,,,,,
56025914,1591,1586,1586,1592,,,,,
56028413,1595,1590,1590,1596,,,,,
56030912,1599,1594,1594,1600,,,,,
56033411,1603,1598,1598,1604,,,,,
56035910,1607,1602,1602,1607,,,,,
56038409,1610,1606,1606,1611,,,,,
56040908,1614,1610,1609,1615,,,,,
56043407,1618,1614,1613,1619,,,,,
56045906,1622,1617,1617,1623,,,,,
56048405,1626,1621,1621,1627,,,,,
56050904,1630,1625,1625,1630,,,,,
56053403,1633,1629,1629,1634,,,,,
56055902,1637,1633,1632,1638,,,,,
56058401,1641,1636,1636,1642,,,,,
56060900,1645,1640,1640,1645,,,,,
56063399,1648,1644,1644,1649,,,,,
56065898,1652,1647,1647,1653,,,,,
56068397,1656,1651,1651,1656,,,,,
56070896,1659,1655,1655,1660,,,,,
56073395,1663,1658,1658,1664,,,,,
56075894,1667,1662,1662,1667,,,,,
56078393,1670,1666,1666,1671,,,,,
56080892,1674,1669,1669,1674,,,,,
56083391,1677,1673,1673,1678,,,,,
56085890,1681,1676,1676,1682,,,,,
56088389,1685,1680,1680,1685,,,,,
56090888,1688,1684,1684,1689,,,,,
56093387,1692,1687,1687,1692,,,,,
56095886,1695,1691,1691,1696,,,,,
56098385,1699,1694,1694,1699,,,,,
56100884,1702,1698,1698,1703,,,,,
56103383,1706,1701,1701,1706,,,,,
56105882,1709,1705,1705,1710,,,,,
56108381,1713,1708,1708,1713,,,,,
56110880,1716,1711,1712,1716,,,,,
56113379,1720,1715,1715,1720,,,,,
56115878,1723,1718,1719,1723,,,,,
56118377,1726,1722,1722,1727,,,,,
56120876,1730,1725,1725,1730,,,,,
56123375,1733,1729,1729,1733,,,,,
56125874,1737,1732,1732,1737,,,,,
56128373,1740,1735,1735,1740,,,,,
56130872,1743,1739,1739,1744,,,,,
56133371,1747,1742,1742,1747,,,,,
56135870,1750,1745,1746,1750,,,,,
56138369,1753,1749,1749,1753,,,,,
56140868,1757,1752,1752,1757,,,,,
56143367,1760,1755,1755,1760,,,,,
56145866,1763,1758,1759,1763,,,,,
56148365,1767,1762,1762,1767,,,,,
56150864,1770,1765,1765,1770,,,,,
56153363,1773,1768,1769,1773,,,,,
56155862,1776,1771,1772,1776,,,,,
56158361,1780,1775,1775,1780,,,,,
56160860,1783,1778,1778,1783,,,,,
56163359,1786,1781,1782,1786,,,,,
56165858,1789,1784,1785,1789,,,,,
56168357,1792,1787,1788,1792,,,,,
56170856,1796,1791,1791,1796,,,,,
56173355,1799,1794,1794,1799,,,,,
56175854,1802,1797,1797,1802,,,,,
56178353,1805,1800,1801,1805,,,,,
56180852,1808,1803,1804,1808,,,,,
56183351,1811,1806,1807,1811,,,,,
56185850,1815,1810,1810,1815,,,,,
56188349,1818,1813,1813,1818,,,,,
56190848,1821,1816,1816,1821,,,,,
56193347,1824,1819,1819,1824,,,,,
56195846,1827,1822,1822,1827,,,,,
56198345,1830,1825,1826,1830,,,,,
56200844,1833,1828,1829,1833,,,,,
56203343,1836,1831,1832,1836,,,,,
56205842,1839,1834,1835,1839,,,,,
56208341,1842,1837,1838,1842,,,,,
56210840,1845,1840,1841,1845,,,,,
56213339,1848,1843,1844,1848,,,,,
56215838,1851,1846,1847,1851,,,,,
56218337,1850,1845,1845,1850,,,,,
56220836,1849,1844,1844,1849,,,,,
56223335,1847,1843,1843,1848,,,,,
56225834,1846,1841,1842,1846,,,,,
56228333,1845,1840,1840,1845,,,,,
56230832,1844,1839,1839,1844,,,,,
56233331,1843,1838,1838,1843,,,,,
56235830,1842,1837,1837,1842,,,,,
56238329,1841,1836,1836,1841,,,,,
56240828,1840,1835,1835,1840,,,,,
56243327,1839,1834,1834,1839,,,,,
56245826,1838,1833,1833,1838,,,,,
56248325,1837,1832,1832,1837,,,,,
56250824,1836,1832,1832,1837,,,,,
56253323,1836,1831,1831,1836,,,,,
56255822,1835,1831,1831,1836,,,,,
56258321,1835,1830,1830,1835,,,,,
56260820,1835,1830,1830,1835,,,,,
56263319,1835,1830,1830,1835,,,,,
56265818,1835,1830,1830,1835,,,,,
56268317,1835,1830,1830,1835,,,,,
56270816,1835,1830,1830,1835,,,,,
56273315,1835,1830,1830,1835,,,,,
56275814,1835,1830,1830,1835,,,,,
56278313,1835,1830,1831,1836,,,,,
56280812,1836,1831,1831,1836,,,,,
56283311,1836,1831,1831,1836,,,,,
56285810,1837,1831,1832,1837,,,,,
56288309,1837,1832,1832,1837,,,,,
56290808,1838,1833,1833,1838,,,,,
56293307,1838,1833,1833,1839,,,,,
56295806,1839,1834,1834,1839,,,,,
56298305,1840,1835,1835,1840,,,,,
56300804,1840,1835,1835,1841,,,,,
56303303,1841,1836,1836,1842,,,,,
56305802,1842,1837,1837,1842,,,,,
56308301,1843,1838,1838,1843,,,,,
56310800,1844,1839,1839,1844,,,,,
56313299,1845,1840,1840,1845,,,,,
56315798,1846,1841,1841,1846,,,,,
56318297,1847,1842,1842,1847,,,,,
56320796,1848,1843,1843,1848,,,,,
56323295,1849,1844,1844,1849,,,,,
56325794,1850,1845,1845,1850,,,,,
56328293,1851,1846,1846,1851,,,,,
56330792,1852,1847,1847,1852,,,,,
56333291,1853,1848,1848,1853,,,,,
56335790,1854,1849,1849,1854,,,,,
56338289,1855,1850,1850,1855,,,,,
56340788,1855,1851,1851,1856,,,,,
56343287,1856,1852,1852,1856,,,,,
56345786,1856,1853,1853,1857,,,,,
56348285,1857,1853,1853,1857,,,,,
56350784,1857,1853,1853,1857,,,,,
56353283,1857,1853,1853,1857,,,,,
56355782,1856,1853,1853,1857,,,,,
56358281,1856,1853,1853,1856,,,,,
56360780,1855,1852,1852,1856,,,,,
56363279,1854,1852,1852,1855,,,,,
56365778,1853,1851,1851,1854,,,,,
56368277,1852,1850,1850,1853,,,,,
56370776,1851,1848,1848,1851,,,,,
56373275,1849,1847,1847,1850,,,,,
56375774,1848,1845,1845,1848,,,,,
56378273,1846,1843,1844,1846,,,,,
56380772,1844,1842,1842,1844,,,,,
56383271,1842,1840,1840,1842,,,,,
56385770,1840,1837,1838,1840,,,,,
56388269,1837,1835,1835,1838,,,,,
56390768,1835,1833,1833,1835,,,,,
56393267,1832,1830,1830,1833,,,,,
56395766,1830,1828,1828,1830,,,,,
56398265,1827,1825,1825,1827,,,,,
56400764,1824,1822,1822,1825,,,,,
56403263,1821,1819,1819,1822,,,,,
56405762,1818,1817,1817,1819,,,,,
56408261,1815,1814,1814,1816,,,,,
56410760,1812,1810,1810,1813,,,,,
56413259,1809,1807,1807,1809,,,,,
56415758,1806,1804,1804,1806,,,,,
56418257,1802,1801,1801,1803,,,,,
56420756,1799,1797,1797,1799,,,,,
56423255,1796,1794,1794,1796,,,,,
56425754,1792,1791,1791,1793,,,,,
56428253,1789,1787,1787,1789,,,,,
56430752,1785,1784,1784,1786,,,,,
56433251,1782,1781,1781,1782,,,,,
56435750,1779,1777,1777,1779,,,,,
56438249,1775,1774,1774,1776,,,,,
56440748,1772,1771,1771,1772,,,,,
56443247,1769,1767,1767,1769,,,,,
56445746,1765,1764,1764,1766,,,,,
56448245,1762,1761,1761,1762,,,,,
56450744,1759,1757,1758,1759,,,,,
56453243,1755,1754,1754,1756,,,,,
56455742,1752,1751,1751,1753,,,,,
56458241,1749,1748,1748,1749,,,,,
56460740,1746,1745,1745,1746,,,,,
56463239,1742,1741,1741,1743,,,,,
56465738,1739,1738,1738,1740,,,,,
56468237,1736,1735,1735,1736,,,,,
56470736,1733,1732,1732,1733,,,,,
56473235,1729,1728,1729,1730,,,,,
56475734,1726,1725,1726,1727,,,,,
56478233,1723,1722,1722,1723,,,,,
56480732,1720,1719,1719,1720,,,,,
56483231,1717,1716,1716,1717,,,,,
56485730,1714,1713,1713,1714,,,,,
56488229,1711,1710,1710,1711,,,,,
56490728,1708,1707,1707,1708,,,,,
56493227,1705,1704,1704,1705,,,,,
56495726,1702,1701,1701,1702,,,,,
56498225,1699,1698,1699,1699,,,,,
56500724,1696,1695,1696,1696,,,,,
56503223,1693,1692,1693,1693,,,,,
56505722,1690,1690,1690,1690,,,,,
56508221,1687,1687,1687,1687,,,,,
