timestamp,TimeUS,C1,C2,C3,C4,C5,C6,C7,C8,C9,C10,C11,C12,C13,C14
1681030168.30004001,64328425,1000,1000,1000,1000,0,0,0,0,0,0,0,0,0,0
1681030168.40000010,64428385,1000,1000,1000,1000,0,0,0,0,0,0,0,0,0,0
1681030168.49996018,64528345,1000,1000,1000,1000,0,0,0,0,0,0,0,0,0,0
1681030168.59992003,64628305,1000,1000,1000,1000,0,0,0,0,0,0,0,0,0,0
1681030168.69988012,64728265,1000,1000,1000,1000,0,0,0,0,0,0,0,0,0,0
1681030168.79983997,64828225,1000,1000,1000,1000,0,0,0,0,0,0,0,0,0,0
1681030168.89980006,64928185,1000,1000,1000,1000,0,0,0,0,0,0,0,0,0,0
1681030169.00059319,65028978,1000,1000,1000,1000,0,0,0,0,0,0,0,0,0,0
1681030169.10055304,65128938,1000,1000,1000,1000,0,0,0,0,0,0,0,0,0,0
1681030169.20051312,65228898,1000,1000,1000,1000,0,0,0,0,0,0,0,0,0,0
1681030169.30047297,65328858,1000,1000,1000,1000,0,0,0,0,0,0,0,0,0,0
1681030169.40043306,65428818,1000,1000,1000,1000,0,0,0,0,0,0,0,0,0,0
1681030169.50039315,65528778,1000,1000,1000,1000,0,0,0,0,0,0,0,0,0,0
1681030169.60035300,65628738,1000,1000,1000,1000,0,0,0,0,0,0,0,0,0,0
1681030169.70031309,65728698,1000,1000,1000,1000,0,0,0,0,0,0,0,0,0,0
1681030169.80027318,65828658,1000,1000,1000,1000,0,0,0,0,0,0,0,0,0,0
1681030169.90023303,65928618,1000,1000,1000,1000,0,0,0,0,0,0,0,0,0,0
1681030170.00019312,66028578,1000,1000,1000,1000,0,0,0,0,0,0,0,0,0,0
1681030170.10015297,66128538,1000,1000,1000,1000,0,0,0,0,0,0,0,0,0,0
1681030170.20011306,66228498,1000,1000,1000,1000,0,0,0,0,0,0,0,0,0,0
1681030170.30007315,66328458,1005,1005,1005,1005,0,0,0,0,0,0,0,0,0,0
1681030170.40003300,66428418,1035,1035,1035,1035,0,0,0,0,0,0,0,0,0,0
1681030170.49999309,66528378,1065,1065,1065,1065,0,0,0,0,0,0,0,0,0,0
1681030170.59995317,66628338,1095,1095,1095,1095,0,0,0,0,0,0,0,0,0,0
1681030170.69991302,66728298,1125,1125,1125,1125,0,0,0,0,0,0,0,0,0,0
1681030170.79987311,66828258,1201,1192,1192,1201,0,0,0,0,0,0,0,0,0,0
1681030170.89983296,66928218,1435,1428,1429,1435,0,0,0,0,0,0,0,0,0,0
1681030170.99979305,67028178,1607,1601,1602,1607,0,0,0,0,0,0,0,0,0,0
1681030171.10058618,67128971,1751,1745,1745,1751,0,0,0,0,0,0,0,0,0,0
1681030171.20054603,67228931,1842,1836,1837,1842,0,0,0,0,0,0,0,0,0,0
1681030171.30050611,67328891,1855,1849,1849,1855,0,0,0,0,0,0,0,0,0,0
1681030171.40046597,67428851,1781,1779,1779,1781,0,0,0,0,0,0,0,0,0,0
1681030171.50042605,67528811,1661,1661,1662,1660,0,0,0,0,0,0,0,0,0,0
1681030171.60038614,67628771,1610,1611,1612,1609,0,0,0,0,0,0,0,0,0,0
1681030171.70034599,67728731,1616,1619,1619,1616,0,0,0,0,0,0,0,0,0,0
1681030171.80030608,67828691,1634,1636,1636,1634,0,0,0,0,0,0,0,0,0,0
1681030171.90026617,67928651,1641,1642,1642,1641,0,0,0,0,0,0,0,0,0,0
1681030172.00022602,68028611,1628,1628,1622,1633,0,0,0,0,0,0,0,0,0,0
1681030172.10018611,68128571,1617,1617,1610,1624,0,0,0,0,0,0,0,0,0,0
1681030172.20014596,68228531,1613,1614,1610,1617,0,0,0,0,0,0,0,0,0,0
1681030172.30010605,68328491,1613,1613,1612,1613,0,0,0,0,0,0,0,0,0,0
1681030172.40006614,68428451,1617,1617,1619,1614,0,0,0,0,0,0,0,0,0,0
1681030172.50002599,68528411,1621,1620,1624,1617,0,0,0,0,0,0,0,0,0,0
1681030172.59998608,68628371,1624,1624,1628,1620,0,0,0,0,0,0,0,0,0,0
1681030172.69994617,68728331,1603,1603,1611,1595,0,0,0,0,0,0,0,0,0,0
1681030172.79990602,68828291,1583,1584,1595,1573,0,0,0,0,0,0,0,0,0,0
1681030172.89986610,68928251,1570,1571,1575,1566,0,0,0,0,0,0,0,0,0,0
1681030172.99982619,69028211,1560,1560,1558,1563,0,0,0,0,0,0,0,0,0,0
1681030173.09978604,69128171,1551,1551,1542,1560,0,0,0,0,0,0,0,0,0,0
1681030173.20057917,69228964,1544,1543,1532,1555,0,0,0,0,0,0,0,0,0,0
1681030173.30053902,69328924,1538,1537,1529,1546,0,0,0,0,0,0,0,0,0,0
1681030173.40049911,69428884,1532,1531,1527,1535,0,0,0,0,0,0,0,0,0,0
1681030173.50045919,69528844,1528,1527,1527,1527,0,0,0,0,0,0,0,0,0,0
1681030173.60041904,69628804,1528,1528,1530,1526,0,0,0,0,0,0,0,0,0,0
1681030173.70037913,69728764,1530,1530,1533,1527,0,0,0,0,0,0,0,0,0,0
1681030173.80033898,69828724,1533,1533,1536,1530,0,0,0,0,0,0,0,0,0,0
1681030173.90029907,69928684,1537,1537,1540,1534,0,0,0,0,0,0,0,0,0,0
1681030174.00025916,70028644,1539,1540,1541,1538,0,0,0,0,0,0,0,0,0,0
1681030174.10021901,70128604,1543,1543,1544,1543,0,0,0,0,0,0,0,0,0,0
1681030174.20017910,70228564,1546,1546,1547,1547,0,0,0,0,0,0,0,0,0,0
1681030174.30013919,70328524,1549,1549,1548,1550,0,0,0,0,0,0,0,0,0,0
1681030174.40009904,70428484,1552,1553,1551,1554,0,0,0,0,0,0,0,0,0,0
1681030174.50005913,70528444,1555,1554,1553,1556,0,0,0,0,0,0,0,0,0,0
1681030174.60001898,70628404,1556,1556,1556,1559,0,0,0,0,0,0,0,0,0,0
1681030174.69997907,70728364,1558,1557,1560,1561,0,0,0,0,0,0,0,0,0,0
1681030174.79993916,70828324,1559,1559,1563,1563,0,0,0,0,0,0,0,0,0,0
1681030174.89989901,70928284,1561,1561,1566,1565,0,0,0,0,0,0,0,0,0,0
1681030174.99985909,71028244,1561,1562,1566,1566,0,0,0,0,0,0,0,0,0,0
1681030175.09981918,71128204,1564,1565,1568,1567,0,0,0,0,0,0,0,0,0,0
1681030175.19977903,71228164,1566,1566,1568,1568,0,0,0,0,0,0,0,0,0,0
1681030175.30057216,71328957,1568,1568,1568,1568,0,0,0,0,0,0,0,0,0,0
1681030175.40053201,71428917,1569,1569,1568,1568,0,0,0,0,0,0,0,0,0,0
1681030175.50049210,71528877,1572,1571,1569,1569,0,0,0,0,0,0,0,0,0,0
1681030175.60045218,71628837,1573,1573,1569,1570,0,0,0,0,0,0,0,0,0,0
1681030175.70041203,71728797,1573,1574,1570,1570,0,0,0,0,0,0,0,0,0,0
1681030175.80037212,71828757,1575,1575,1571,1571,0,0,0,0,0,0,0,0,0,0
1681030175.90033197,71928717,1575,1574,1572,1571,0,0,0,0,0,0,0,0,0,0
1681030176.00029206,72028677,1576,1576,1574,1573,0,0,0,0,0,0,0,0,0,0
1681030176.10025215,72128637,1576,1576,1575,1573,0,0,0,0,0,0,0,0,0,0
1681030176.20021200,72228597,1576,1576,1576,1575,0,0,0,0,0,0,0,0,0,0
1681030176.30017209,72328557,1576,1575,1576,1575,0,0,0,0,0,0,0,0,0,0
1681030176.40013218,72428517,1575,1576,1576,1576,0,0,0,0,0,0,0,0,0,0
1681030176.50009203,72528477,1575,1575,1576,1577,0,0,0,0,0,0,0,0,0,0
1681030176.60005212,72628437,1575,1576,1576,1577,0,0,0,0,0,0,0,0,0,0
1681030176.70001197,72728397,1576,1576,1577,1577,0,0,0,0,0,0,0,0,0,0
1681030176.79997206,72828357,1576,1576,1578,1577,0,0,0,0,0,0,0,0,0,0
1681030176.89993215,72928317,1577,1576,1578,1578,0,0,0,0,0,0,0,0,0,0
1681030176.99989200,73028277,1578,1577,1578,1578,0,0,0,0,0,0,0,0,0,0
1681030177.09985209,73128237,1577,1577,1578,1578,0,0,0,0,0,0,0,0,0,0
1681030177.19981217,73228197,1577,1577,1577,1577,0,0,0,0,0,0,0,0,0,0
1681030177.29977202,73328157,1579,1579,1579,1579,0,0,0,0,0,0,0,0,0,0
1681030177.40056515,73428950,1578,1578,1578,1578,0,0,0,0,0,0,0,0,0,0
1681030177.50052500,73528910,1579,1578,1578,1578,0,0,0,0,0,0,0,0,0,0
1681030177.60048509,73628870,1579,1578,1578,1578,0,0,0,0,0,0,0,0,0,0
1681030177.70044518,73728830,1579,1578,1578,1578,0,0,0,0,0,0,0,0,0,0
1681030177.80040503,73828790,1579,1578,1578,1578,0,0,0,0,0,0,0,0,0,0
1681030177.90036511,73928750,1580,1580,1580,1580,0,0,0,0,0,0,0,0,0,0
1681030178.00032496,74028710,1579,1579,1579,1579,0,0,0,0,0,0,0,0,0,0
1681030178.10028505,74128670,1579,1579,1579,1580,0,0,0,0,0,0,0,0,0,0
1681030178.20024514,74228630,1579,1580,1580,1580,0,0,0,0,0,0,0,0,0,0
1681030178.30020499,74328590,1579,1579,1580,1579,0,0,0,0,0,0,0,0,0,0
1681030178.40016508,74428550,1580,1579,1580,1580,0,0,0,0,0,0,0,0,0,0
1681030178.50012517,74528510,1580,1580,1580,1580,0,0,0,0,0,0,0,0,0,0
1681030178.60008502,74628470,1580,1580,1580,1580,0,0,0,0,0,0,0,0,0,0
1681030178.70004511,74728430,1579,1579,1580,1580,0,0,0,0,0,0,0,0,0,0
1681030178.80000496,74828390,1580,1580,1580,1580,0,0,0,0,0,0,0,0,0,0
1681030178.89996505,74928350,1579,1580,1579,1580,0,0,0,0,0,0,0,0,0,0
1681030178.99992514,75028310,1579,1579,1579,1579,0,0,0,0,0,0,0,0,0,0
1681030179.09988499,75128270,1580,1580,1580,1579,0,0,0,0,0,0,0,0,0,0
1681030179.19984508,75228230,1579,1579,1579,1579,0,0,0,0,0,0,0,0,0,0
1681030179.29980516,75328190,1579,1580,1580,1580,0,0,0,0,0,0,0,0,0,0
1681030179.40059805,75428983,1579,1579,1579,1579,0,0,0,0,0,0,0,0,0,0
1681030179.50055814,75528943,1579,1579,1579,1579,0,0,0,0,0,0,0,0,0,0
1681030179.60051799,75628903,1580,1580,1580,1580,0,0,0,0,0,0,0,0,0,0
1681030179.70047808,75728863,1580,1579,1580,1580,0,0,0,0,0,0,0,0,0,0
1681030179.80043817,75828823,1580,1580,1580,1580,0,0,0,0,0,0,0,0,0,0
1681030179.90039802,75928783,1581,1581,1581,1581,0,0,0,0,0,0,0,0,0,0
1681030180.00035810,76028743,1579,1580,1580,1579,0,0,0,0,0,0,0,0,0,0
1681030180.10031819,76128703,1580,1580,1580,1580,0,0,0,0,0,0,0,0,0,0
1681030180.20027804,76228663,1581,1581,1581,1581,0,0,0,0,0,0,0,0,0,0
1681030180.30023813,76328623,1580,1581,1580,1581,0,0,0,0,0,0,0,0,0,0
1681030180.40019798,76428583,1582,1581,1581,1581,0,0,0,0,0,0,0,0,0,0
1681030180.50015807,76528543,1581,1581,1581,1581,0,0,0,0,0,0,0,0,0,0
1681030180.60011816,76628503,1582,1582,1582,1582,0,0,0,0,0,0,0,0,0,0
1681030180.70007801,76728463,1581,1581,1581,1582,0,0,0,0,0,0,0,0,0,0
1681030180.80003810,76828423,1581,1583,1589,1574,0,0,0,0,0,0,0,0,0,0
1681030180.89999819,76928383,1579,1581,1584,1572,0,0,0,0,0,0,0,0,0,0
1681030180.99995804,77028343,1578,1580,1575,1572,0,0,0,0,0,0,0,0,0,0
1681030181.09991813,77128303,1576,1579,1567,1571,0,0,0,0,0,0,0,0,0,0
1681030181.19987798,77228263,1576,1578,1560,1567,0,0,0,0,0,0,0,0,0,0
1681030181.29983807,77328223,1577,1578,1556,1562,0,0,0,0,0,0,0,0,0,0
1681030181.39979815,77428183,1579,1578,1555,1559,0,0,0,0,0,0,0,0,0,0
1681030181.50059104,77528976,1579,1577,1555,1555,0,0,0,0,0,0,0,0,0,0
1681030181.60055113,77628936,1579,1578,1556,1554,0,0,0,0,0,0,0,0,0,0
1681030181.70051098,77728896,1578,1577,1556,1553,0,0,0,0,0,0,0,0,0,0
1681030181.80047107,77828856,1577,1577,1556,1554,0,0,0,0,0,0,0,0,0,0
1681030181.90043116,77928816,1575,1576,1555,1554,0,0,0,0,0,0,0,0,0,0
1681030182.00039101,78028776,1575,1577,1555,1554,0,0,0,0,0,0,0,0,0,0
1681030182.10035110,78128736,1574,1576,1552,1553,0,0,0,0,0,0,0,0,0,0
1681030182.20031118,78228696,1575,1577,1551,1551,0,0,0,0,0,0,0,0,0,0
1681030182.30027103,78328656,1576,1578,1549,1550,0,0,0,0,0,0,0,0,0,0
1681030182.40023112,78428616,1579,1580,1548,1548,0,0,0,0,0,0,0,0,0,0
1681030182.50019097,78528576,1582,1583,1546,1546,0,0,0,0,0,0,0,0,0,0
1681030182.60015106,78628536,1584,1585,1543,1542,0,0,0,0,0,0,0,0,0,0
1681030182.70011115,78728496,1587,1587,1539,1539,0,0,0,0,0,0,0,0,0,0
1681030182.80007100,78828456,1591,1591,1538,1537,0,0,0,0,0,0,0,0,0,0
1681030182.90003109,78928416,1593,1593,1535,1535,0,0,0,0,0,0,0,0,0,0
1681030182.99999118,79028376,1594,1594,1533,1534,0,0,0,0,0,0,0,0,0,0
1681030183.09995103,79128336,1596,1595,1535,1536,0,0,0,0,0,0,0,0,0,0
1681030183.19991112,79228296,1595,1595,1537,1539,0,0,0,0,0,0,0,0,0,0
1681030183.29987097,79328256,1593,1592,1540,1543,0,0,0,0,0,0,0,0,0,0
1681030183.39983106,79428216,1588,1586,1545,1547,0,0,0,0,0,0,0,0,0,0
1681030183.49979115,79528176,1582,1580,1553,1556,0,0,0,0,0,0,0,0,0,0
1681030183.60058403,79628969,1574,1570,1563,1566,0,0,0,0,0,0,0,0,0,0
1681030183.70054412,79728929,1564,1560,1575,1578,0,0,0,0,0,0,0,0,0,0
1681030183.80050397,79828889,1553,1549,1588,1589,0,0,0,0,0,0,0,0,0,0
1681030183.90046406,79928849,1542,1539,1599,1599,0,0,0,0,0,0,0,0,0,0
1681030184.00042415,80028809,1534,1533,1608,1607,0,0,0,0,0,0,0,0,0,0
1681030184.10038400,80128769,1529,1530,1613,1612,0,0,0,0,0,0,0,0,0,0
1681030184.20034409,80228729,1529,1531,1616,1614,0,0,0,0,0,0,0,0,0,0
1681030184.30030417,80328689,1532,1534,1613,1613,0,0,0,0,0,0,0,0,0,0
1681030184.40026402,80428649,1538,1540,1609,1610,0,0,0,0,0,0,0,0,0,0
1681030184.50022411,80528609,1546,1547,1603,1603,0,0,0,0,0,0,0,0,0,0
1681030184.60018396,80628569,1555,1555,1596,1596,0,0,0,0,0,0,0,0,0,0
1681030184.70014405,80728529,1562,1563,1588,1587,0,0,0,0,0,0,0,0,0,0
1681030184.80010414,80828489,1571,1571,1582,1580,0,0,0,0,0,0,0,0,0,0
1681030184.90006399,80928449,1578,1577,1575,1574,0,0,0,0,0,0,0,0,0,0
1681030185.00002408,81028409,1583,1582,1571,1570,0,0,0,0,0,0,0,0,0,0
1681030185.09998417,81128369,1586,1585,1567,1568,0,0,0,0,0,0,0,0,0,0
1681030185.19994402,81228329,1588,1587,1567,1567,0,0,0,0,0,0,0,0,0,0
1681030185.29990411,81328289,1587,1586,1566,1567,0,0,0,0,0,0,0,0,0,0
1681030185.39986396,81428249,1586,1585,1568,1569,0,0,0,0,0,0,0,0,0,0
1681030185.49982405,81528209,1584,1584,1572,1571,0,0,0,0,0,0,0,0,0,0
1681030185.59978414,81628169,1580,1580,1574,1573,0,0,0,0,0,0,0,0,0,0
1681030185.70057702,81728962,1578,1578,1577,1577,0,0,0,0,0,0,0,0,0,0
1681030185.80053711,81828922,1575,1575,1579,1579,0,0,0,0,0,0,0,0,0,0
1681030185.90049696,81928882,1574,1574,1582,1581,0,0,0,0,0,0,0,0,0,0
1681030186.00045705,82028842,1572,1573,1583,1583,0,0,0,0,0,0,0,0,0,0
1681030186.10041714,82128802,1571,1572,1583,1583,0,0,0,0,0,0,0,0,0,0
1681030186.20037699,82228762,1572,1572,1583,1583,0,0,0,0,0,0,0,0,0,0
1681030186.30033708,82328722,1573,1573,1583,1583,0,0,0,0,0,0,0,0,0,0
1681030186.40029716,82428682,1574,1575,1582,1582,0,0,0,0,0,0,0,0,0,0
1681030186.50025702,82528642,1576,1576,1582,1581,0,0,0,0,0,0,0,0,0,0
1681030186.60021710,82628602,1578,1578,1581,1580,0,0,0,0,0,0,0,0,0,0
1681030186.70017719,82728562,1579,1579,1579,1579,0,0,0,0,0,0,0,0,0,0
1681030186.80013704,82828522,1580,1580,1578,1578,0,0,0,0,0,0,0,0,0,0
1681030186.90009713,82928482,1580,1580,1576,1577,0,0,0,0,0,0,0,0,0,0
1681030187.00005698,83028442,1575,1575,2906,1642,0,0,0,0,0,0,0,0,0,0
1681030187.10001707,83128402,1540,1555,2566,1742,0,0,0,0,0,0,0,0,0,0
1681030187.19997716,83228362,1520,1558,2566,1712,0,0,0,0,0,0,0,0,0,0
1681030187.29993701,83328322,1611,1717,2566,1947,0,0,0,0,0,0,0,0,0,0
1681030187.39989710,83428282,1504,1781,2566,1950,0,0,0,0,0,0,0,0,0,0
1681030187.49985719,83528242,1542,1429,2566,1697,0,0,0,0,0,0,0,0,0,0
1681030187.59981704,83628202,1686,1529,2566,1888,0,0,0,0,0,0,0,0,0,0
1681030187.69977713,83728162,1785,1749,2566,1950,0,0,0,0,0,0,0,0,0,0
1681030187.80057001,83828955,1672,1747,2566,1950,0,0,0,0,0,0,0,0,0,0
1681030187.90053010,83928915,1626,1784,2566,1950,0,0,0,0,0,0,0,0,0,0
1681030188.00049019,84028875,1630,1725,2566,1950,0,0,0,0,0,0,0,0,0,0
1681030188.10045004,84128835,1750,1530,2566,1931,0,0,0,0,0,0,0,0,0,0
1681030188.20041013,84228795,1726,1729,2566,1950,0,0,0,0,0,0,0,0,0,0
1681030188.30036998,84328755,1613,1786,2566,1950,0,0,0,0,0,0,0,0,0,0
1681030188.40033007,84428715,1846,1609,3366,1150,0,0,0,0,0,0,0,0,0,0
1681030188.50029016,84528675,1739,1772,3175,1699,0,0,0,0,0,0,0,0,0,0
1681030188.60025001,84628635,1726,1863,3186,1665,0,0,0,0,0,0,0,0,0,0
1681030188.70021009,84728595,1903,1950,3167,1813,0,0,0,0,0,0,0,0,0,0
1681030188.80017018,84828555,1943,1950,2920,1885,0,0,0,0,0,0,0,0,0,0
1681030188.90013003,84928515,1774,1780,2566,1950,0,0,0,0,0,0,0,0,0,0
1681030189.00009012,85028475,1740,1762,2566,1950,0,0,0,0,0,0,0,0,0,0
1681030189.10004997,85128435,1722,1746,2566,1950,0,0,0,0,0,0,0,0,0,0
1681030189.20001006,85228395,1654,1680,2566,1950,0,0,0,0,0,0,0,0,0,0
1681030189.29997015,85328355,1615,1693,2566,1950,0,0,0,0,0,0,0,0,0,0
1681030189.39993000,85428315,1514,1773,2566,1950,0,0,0,0,0,0,0,0,0,0
1681030189.49989009,85528275,1488,1415,2566,1635,0,0,0,0,0,0,0,0,0,0
1681030189.59985018,85628235,1645,1467,2566,1803,0,0,0,0,0,0,0,0,0,0
1681030189.69981003,85728195,1950,1279,2777,1721,0,0,0,0,0,0,0,0,0,0
1681030189.79977012,85828155,1662,1667,2686,1826,0,0,0,0,0,0,0,0,0,0
1681030189.90056300,85928948,1714,1771,2814,1836,0,0,0,0,0,0,0,0,0,0
1681030190.00052309,86028908,1880,1900,2971,1950,0,0,0,0,0,0,0,0,0,0
1681030190.10048318,86128868,1898,1887,2885,1950,0,0,0,0,0,0,0,0,0,0
1681030190.20044303,86228828,1821,1811,2734,1950,0,0,0,0,0,0,0,0,0,0
1681030190.30040312,86328788,1758,1771,2566,1950,0,0,0,0,0,0,0,0,0,0
1681030190.40036297,86428748,1714,1770,2566,1941,0,0,0,0,0,0,0,0,0,0
1681030190.50032306,86528708,1687,1748,2566,1935,0,0,0,0,0,0,0,0,0,0
1681030190.60028315,86628668,1617,1721,2566,1950,0,0,0,0,0,0,0,0,0,0
1681030190.70024300,86728628,1576,1735,2566,1950,0,0,0,0,0,0,0,0,0,0
1681030190.80020308,86828588,1587,1722,2566,1950,0,0,0,0,0,0,0,0,0,0
1681030190.90016317,86928548,1605,1707,2566,1950,0,0,0,0,0,0,0,0,0,0
1681030191.00012302,87028508,1672,1648,2566,1950,0,0,0,0,0,0,0,0,0,0
1681030191.10008311,87128468,1778,1733,2726,1950,0,0,0,0,0,0,0,0,0,0
1681030191.20004296,87228428,1792,1722,2566,1950,0,0,0,0,0,0,0,0,0,0
1681030191.30000305,87328388,1725,1730,2566,1950,0,0,0,0,0,0,0,0,0,0
1681030191.39996314,87428348,1683,1766,2566,1950,0,0,0,0,0,0,0,0,0,0
1681030191.49992299,87528308,1614,1761,2566,1950,0,0,0,0,0,0,0,0,0,0
1681030191.59988308,87628268,1620,1707,2566,1950,0,0,0,0,0,0,0,0,0,0
1681030191.69984317,87728228,1690,1630,2566,1950,0,0,0,0,0,0,0,0,0,0
1681030191.79980302,87828188,1778,1736,2566,1950,0,0,0,0,0,0,0,0,0,0
1681030191.90059614,87928981,1724,1738,2566,1950,0,0,0,0,0,0,0,0,0,0
1681030192.00055599,88028941,1672,1782,2566,1950,0,0,0,0,0,0,0,0,0,0
1681030192.10051608,88128901,1633,1765,2566,1950,0,0,0,0,0,0,0,0,0,0
1681030192.20047617,88228861,1676,1658,2566,1950,0,0,0,0,0,0,0,0,0,0
1681030192.30043602,88328821,1762,1721,2566,1950,0,0,0,0,0,0,0,0,0,0
1681030192.40039611,88428781,1722,1740,2566,1950,0,0,0,0,0,0,0,0,0,0
1681030192.50035596,88528741,1664,1792,2566,1950,0,0,0,0,0,0,0,0,0,0
1681030192.60031605,88628701,1654,1737,2566,1950,0,0,0,0,0,0,0,0,0,0
1681030192.70027614,88728661,1947,1930,3204,1950,0,0,0,0,0,0,0,0,0,0
1681030192.80023599,88828621,1896,1950,3022,1836,0,0,0,0,0,0,0,0,0,0
1681030192.90019608,88928581,1919,1950,2899,1918,0,0,0,0,0,0,0,0,0,0
1681030193.00015616,89028541,1812,1824,2741,1950,0,0,0,0,0,0,0,0,0,0
1681030193.10011601,89128501,1760,1768,2566,1950,0,0,0,0,0,0,0,0,0,0
1681030193.20007610,89228461,1738,1751,2566,1950,0,0,0,0,0,0,0,0,0,0
1681030193.30003619,89328421,1729,1742,2566,1950,0,0,0,0,0,0,0,0,0,0
1681030193.39999604,89428381,1670,1714,2566,1950,0,0,0,0,0,0,0,0,0,0
1681030193.49995613,89528341,1620,1705,2566,1950,0,0,0,0,0,0,0,0,0,0
1681030193.59991598,89628301,1582,1729,2566,1950,0,0,0,0,0,0,0,0,0,0
1681030193.69987607,89728261,1549,1756,2566,1950,0,0,0,0,0,0,0,0,0,0
1681030193.79983616,89828221,1630,1578,2566,1858,0,0,0,0,0,0,0,0,0,0
1681030193.89979601,89928181,1801,1664,2820,1950,0,0,0,0,0,0,0,0,0,0
1681030194.00058913,90028974,1813,1718,2566,1950,0,0,0,0,0,0,0,0,0,0
1681030194.10054898,90128934,1691,1756,2566,1950,0,0,0,0,0,0,0,0,0,0
1681030194.20050907,90228894,1776,1725,3366,1150,0,0,0,0,0,0,0,0,0,0
1681030194.30046916,90328854,1903,1950,2909,1679,0,0,0,0,0,0,0,0,0,0
1681030194.40042901,90428814,1915,1950,2909,1732,0,0,0,0,0,0,0,0,0,0
1681030194.50038910,90528774,1920,1934,2908,1950,0,0,0,0,0,0,0,0,0,0
1681030194.60034919,90628734,1781,1793,2613,1950,0,0,0,0,0,0,0,0,0,0
1681030194.70030904,90728694,1741,1761,2566,1950,0,0,0,0,0,0,0,0,0,0
1681030194.80026913,90828654,1723,1755,2566,1950,0,0,0,0,0,0,0,0,0,0
1681030194.90022898,90928614,1715,1749,2566,1950,0,0,0,0,0,0,0,0,0,0
1681030195.00018907,91028574,1635,1715,2566,1950,0,0,0,0,0,0,0,0,0,0
1681030195.10014915,91128534,1605,1720,2566,1950,0,0,0,0,0,0,0,0,0,0
1681030195.20010900,91228494,1572,1745,2566,1950,0,0,0,0,0,0,0,0,0,0
1681030195.30006909,91328454,1602,1730,2566,1950,0,0,0,0,0,0,0,0,0,0
1681030195.40002918,91428414,1667,1555,2566,1858,0,0,0,0,0,0,0,0,0,0
1681030195.49998903,91528374,1825,1721,2736,1950,0,0,0,0,0,0,0,0,0,0
1681030195.59994912,91628334,1769,1719,2566,1950,0,0,0,0,0,0,0,0,0,0
1681030195.69990897,91728294,1674,1760,2566,1950,0,0,0,0,0,0,0,0,0,0
1681030195.79986906,91828254,1860,1950,2848,1774,0,0,0,0,0,0,0,0,0,0
1681030195.89982915,91928214,1849,1950,2875,1761,0,0,0,0,0,0,0,0,0,0
1681030195.99978900,92028174,1918,1950,2912,1945,0,0,0,0,0,0,0,0,0,0
1681030196.10058212,92128967,1807,1808,2701,1950,0,0,0,0,0,0,0,0,0,0
1681030196.20054197,92228927,1763,1758,2566,1950,0,0,0,0,0,0,0,0,0,0
1681030196.30050206,92328887,1734,1753,2566,1950,0,0,0,0,0,0,0,0,0,0
1681030196.40046215,92428847,1724,1747,2566,1950,0,0,0,0,0,0,0,0,0,0
1681030196.50042200,92528807,1671,1721,2566,1950,0,0,0,0,0,0,0,0,0,0
1681030196.60038209,92628767,1614,1725,2566,1950,0,0,0,0,0,0,0,0,0,0
1681030196.70034218,92728727,1588,1740,2566,1950,0,0,0,0,0,0,0,0,0,0
1681030196.80030203,92828687,1569,1757,2566,1950,0,0,0,0,0,0,0,0,0,0
1681030196.90026212,92928647,1655,1643,2566,1905,0,0,0,0,0,0,0,0,0,0
1681030197.00022197,93028607,1800,1679,2802,1950,0,0,0,0,0,0,0,0,0,0
1681030197.10018206,93128567,1816,1725,2566,1950,0,0,0,0,0,0,0,0,0,0
1681030197.20014215,93228527,1752,1718,2566,1950,0,0,0,0,0,0,0,0,0,0
1681030197.30010200,93328487,1668,1768,2566,1950,0,0,0,0,0,0,0,0,0,0
1681030197.40006208,93428447,1647,1806,2566,1950,0,0,0,0,0,0,0,0,0,0
1681030197.50002217,93528407,1950,1936,3169,1892,0,0,0,0,0,0,0,0,0,0
1681030197.59998202,93628367,1950,1910,3035,1661,0,0,0,0,0,0,0,0,0,0
1681030197.69994211,93728327,1939,1929,2915,1950,0,0,0,0,0,0,0,0,0,0
1681030197.79990196,93828287,1741,1768,2566,1950,0,0,0,0,0,0,0,0,0,0
1681030197.89986205,93928247,1713,1776,2566,1950,0,0,0,0,0,0,0,0,0,0
1681030197.99982214,94028207,1716,1762,2566,1950,0,0,0,0,0,0,0,0,0,0
1681030198.09978199,94128167,1657,1728,2566,1950,0,0,0,0,0,0,0,0,0,0
1681030198.20057511,94228960,1615,1730,2566,1950,0,0,0,0,0,0,0,0,0,0
1681030198.30053496,94328920,1598,1738,2566,1950,0,0,0,0,0,0,0,0,0,0
1681030198.40049505,94428880,1591,1749,2566,1950,0,0,0,0,0,0,0,0,0,0
1681030198.50045514,94528840,1671,1647,2566,1913,0,0,0,0,0,0,0,0,0,0
1681030198.60041499,94628800,1764,1669,2710,1950,0,0,0,0,0,0,0,0,0,0
1681030198.70037508,94728760,1794,1730,2566,1950,0,0,0,0,0,0,0,0,0,0
1681030198.80033517,94828720,1733,1726,2566,1950,0,0,0,0,0,0,0,0,0,0
1681030198.90029502,94928680,1950,1719,2756,1580,0,0,0,0,0,0,0,0,0,0
1681030199.00025511,95028640,1950,1894,2970,1930,0,0,0,0,0,0,0,0,0,0
1681030199.10021496,95128600,1859,1839,2941,1950,0,0,0,0,0,0,0,0,0,0
1681030199.20017505,95228560,1824,1796,2858,1950,0,0,0,0,0,0,0,0,0,0
1681030199.30013514,95328520,1785,1783,2729,1950,0,0,0,0,0,0,0,0,0,0
1681030199.40009499,95428480,1748,1774,2566,1950,0,0,0,0,0,0,0,0,0,0
1681030199.50005507,95528440,1726,1786,2566,1950,0,0,0,0,0,0,0,0,0,0
1681030199.60001516,95628400,1704,1788,2566,1950,0,0,0,0,0,0,0,0,0,0
1681030199.69997501,95728360,1655,1757,2566,1950,0,0,0,0,0,0,0,0,0,0
1681030199.79993510,95828320,1622,1740,2566,1950,0,0,0,0,0,0,0,0,0,0
1681030199.89989519,95928280,1616,1738,2566,1950,0,0,0,0,0,0,0,0,0,0
1681030199.99985504,96028240,1627,1728,2566,1950,0,0,0,0,0,0,0,0,0,0
1681030200.09981513,96128200,1658,1704,2566,1950,0,0,0,0,0,0,0,0,0,0
1681030200.19977498,96228160,1682,1684,2566,1950,0,0,0,0,0,0,0,0,0,0
1681030200.30056810,96328953,1761,1755,2566,1950,0,0,0,0,0,0,0,0,0,0
1681030200.40052819,96428913,1743,1740,2566,1950,0,0,0,0,0,0,0,0,0,0
1681030200.50048804,96528873,1713,1753,2566,1950,0,0,0,0,0,0,0,0,0,0
1681030200.60044813,96628833,1666,1753,2566,1950,0,0,0,0,0,0,0,0,0,0
1681030200.70040798,96728793,1636,1731,2566,1950,0,0,0,0,0,0,0,0,0,0
1681030200.80036807,96828753,1683,1679,2566,1950,0,0,0,0,0,0,0,0,0,0
1681030200.90032816,96928713,1754,1741,2566,1950,0,0,0,0,0,0,0,0,0,0
1681030201.00028801,97028673,1733,1744,2566,1950,0,0,0,0,0,0,0,0,0,0
1681030201.10024810,97128633,1693,1769,2566,1950,0,0,0,0,0,0,0,0,0,0
1681030201.20020819,97228593,1666,1762,2566,1950,0,0,0,0,0,0,0,0,0,0
1681030201.30016804,97328553,1681,1690,2566,1950,0,0,0,0,0,0,0,0,0,0
1681030201.40012813,97428513,1728,1711,2566,1950,0,0,0,0,0,0,0,0,0,0
1681030201.50008798,97528473,1731,1745,2566,1950,0,0,0,0,0,0,0,0,0,0
1681030201.60004807,97628433,1692,1770,2566,1950,0,0,0,0,0,0,0,0,0,0
1681030201.70000815,97728393,1677,1751,2566,1950,0,0,0,0,0,0,0,0,0,0
1681030201.79996800,97828353,1689,1680,2566,1950,0,0,0,0,0,0,0,0,0,0
1681030201.89992809,97928313,1746,1742,2566,1950,0,0,0,0,0,0,0,0,0,0
1681030201.99988818,98028273,1716,1749,2566,1950,0,0,0,0,0,0,0,0,0,0
1681030202.09984803,98128233,1688,1781,2566,1950,0,0,0,0,0,0,0,0,0,0
1681030202.19980812,98228193,1686,1706,2566,1950,0,0,0,0,0,0,0,0,0,0
1681030202.30060101,98328986,1726,1709,2566,1950,0,0,0,0,0,0,0,0,0,0
1681030202.40056109,98428946,1730,1738,2566,1950,0,0,0,0,0,0,0,0,0,0
1681030202.50052118,98528906,1683,1776,2566,1950,0,0,0,0,0,0,0,0,0,0
1681030202.60048103,98628866,1692,1737,2566,1950,0,0,0,0,0,0,0,0,0,0
1681030202.70044112,98728826,1950,1922,3204,1882,0,0,0,0,0,0,0,0,0,0
1681030202.80040097,98828786,1912,1950,2985,1724,0,0,0,0,0,0,0,0,0,0
1681030202.90036106,98928746,1921,1950,2889,1898,0,0,0,0,0,0,0,0,0,0
1681030203.00032115,99028706,1810,1825,2739,1950,0,0,0,0,0,0,0,0,0,0
1681030203.10028100,99128666,1748,1775,2566,1950,0,0,0,0,0,0,0,0,0,0
1681030203.20024109,99228626,1730,1754,2566,1950,0,0,0,0,0,0,0,0,0,0
1681030203.30020118,99328586,1727,1741,2566,1950,0,0,0,0,0,0,0,0,0,0
1681030203.40016103,99428546,1668,1731,2566,1950,0,0,0,0,0,0,0,0,0,0
1681030203.50012112,99528506,1637,1717,2566,1950,0,0,0,0,0,0,0,0,0,0
1681030203.60008097,99628466,1592,1751,2566,1950,0,0,0,0,0,0,0,0,0,0
1681030203.70004106,99728426,1567,1786,2566,1950,0,0,0,0,0,0,0,0,0,0
1681030203.80000114,99828386,1665,1529,2566,1803,0,0,0,0,0,0,0,0,0,0
1681030203.89996099,99928346,1817,1689,2800,1950,0,0,0,0,0,0,0,0,0,0
1681030203.99992108,100028306,1777,1734,2566,1950,0,0,0,0,0,0,0,0,0,0
1681030204.09988117,100128266,1913,1878,2774,1772,0,0,0,0,0,0,0,0,0,0
1681030204.19984102,100228226,1885,1906,2743,1715,0,0,0,0,0,0,0,0,0,0
1681030204.29980111,100328186,1929,1950,2919,1947,0,0,0,0,0,0,0,0,0,0
1681030204.40059400,100428979,1825,1839,2790,1950,0,0,0,0,0,0,0,0,0,0
1681030204.50055408,100528939,1763,1779,2566,1950,0,0,0,0,0,0,0,0,0,0
1681030204.60051417,100628899,1731,1757,2566,1950,0,0,0,0,0,0,0,0,0,0
1681030204.70047402,100728859,1719,1754,2566,1950,0,0,0,0,0,0,0,0,0,0
1681030204.80043411,100828819,1689,1748,2566,1950,0,0,0,0,0,0,0,0,0,0
1681030204.90039396,100928779,1624,1741,2566,1950,0,0,0,0,0,0,0,0,0,0
1681030205.00035405,101028739,1614,1738,2566,1950,0,0,0,0,0,0,0,0,0,0
1681030205.10031414,101128699,1596,1754,2566,1950,0,0,0,0,0,0,0,0,0,0
1681030205.20027399,101228659,1689,1695,2566,1950,0,0,0,0,0,0,0,0,0,0
1681030205.30023408,101328619,1796,1686,2762,1950,0,0,0,0,0,0,0,0,0,0
1681030205.40019417,101428579,1819,1724,2566,1950,0,0,0,0,0,0,0,0,0,0
1681030205.50015402,101528539,1752,1716,2566,1950,0,0,0,0,0,0,0,0,0,0
1681030205.60011411,101628499,1669,1771,2566,1950,0,0,0,0,0,0,0,0,0,0
1681030205.70007396,101728459,1652,1805,2566,1950,0,0,0,0,0,0,0,0,0,0
1681030205.80003405,101828419,1610,1768,2566,1950,0,0,0,0,0,0,0,0,0,0
1681030205.89999413,101928379,1950,1150,3311,1226,0,0,0,0,0,0,0,0,0,0
1681030205.99995399,102028339,1950,1700,2882,1590,0,0,0,0,0,0,0,0,0,0
1681030206.09991407,102128299,1950,1720,2607,1602,0,0,0,0,0,0,0,0,0,0
1681030206.19987416,102228259,1950,1889,2879,1911,0,0,0,0,0,0,0,0,0,0
1681030206.29983401,102328219,1818,1856,2809,1950,0,0,0,0,0,0,0,0,0,0
1681030206.39979410,102428179,1748,1803,2566,1950,0,0,0,0,0,0,0,0,0,0
1681030206.50058699,102528972,1732,1780,2566,1950,0,0,0,0,0,0,0,0,0,0
1681030206.60054708,102628932,1727,1760,2566,1950,0,0,0,0,0,0,0,0,0,0
1681030206.70050716,102728892,1698,1773,2566,1950,0,0,0,0,0,0,0,0,0,0
1681030206.80046701,102828852,1626,1759,2566,1950,0,0,0,0,0,0,0,0,0,0
1681030206.90042710,102928812,1605,1757,2566,1950,0,0,0,0,0,0,0,0,0,0
1681030207.00038719,103028772,1612,1753,2566,1950,0,0,0,0,0,0,0,0,0,0
1681030207.10034704,103128732,1689,1699,2566,1950,0,0,0,0,0,0,0,0,0,0
1681030207.20030713,103228692,1734,1677,2607,1950,0,0,0,0,0,0,0,0,0,0
1681030207.30026698,103328652,1780,1750,2566,1950,0,0,0,0,0,0,0,0,0,0
1681030207.40022707,103428612,1736,1742,2566,1950,0,0,0,0,0,0,0,0,0,0
1681030207.50018716,103528572,1702,1748,2566,1950,0,0,0,0,0,0,0,0,0,0
1681030207.60014701,103628532,1676,1785,2566,1950,0,0,0,0,0,0,0,0,0,0
1681030207.70010710,103728492,1629,1759,2566,1950,0,0,0,0,0,0,0,0,0,0
1681030207.80006719,103828452,1701,1681,2566,1950,0,0,0,0,0,0,0,0,0,0
1681030207.90002704,103928412,1751,1717,2566,1950,0,0,0,0,0,0,0,0,0,0
1681030207.99998713,104028372,1950,1520,3266,1227,0,0,0,0,0,0,0,0,0,0
1681030208.09994698,104128332,1950,1869,2756,1678,0,0,0,0,0,0,0,0,0,0
1681030208.19990706,104228292,1950,1936,2898,1900,0,0,0,0,0,0,0,0,0,0
1681030208.29986715,104328252,1940,1950,2885,1870,0,0,0,0,0,0,0,0,0,0
1681030208.39982700,104428212,1858,1810,2799,1950,0,0,0,0,0,0,0,0,0,0
1681030208.49978709,104528172,1777,1762,2566,1950,0,0,0,0,0,0,0,0,0,0
1681030208.60057998,104628965,1741,1754,2566,1950,0,0,0,0,0,0,0,0,0,0
1681030208.70054007,104728925,1698,1769,2566,1950,0,0,0,0,0,0,0,0,0,0
1681030208.80050015,104828885,1636,1753,2566,1950,0,0,0,0,0,0,0,0,0,0
1681030208.90046000,104928845,1597,1764,2566,1950,0,0,0,0,0,0,0,0,0,0
1681030209.00042009,105028805,1593,1765,2566,1950,0,0,0,0,0,0,0,0,0,0
1681030209.10038018,105128765,1643,1736,2566,1950,0,0,0,0,0,0,0,0,0,0
1681030209.20034003,105228725,1701,1659,2566,1919,0,0,0,0,0,0,0,0,0,0
1681030209.30030012,105328685,1770,1708,2658,1950,0,0,0,0,0,0,0,0,0,0
1681030209.40025997,105428645,1772,1744,2566,1950,0,0,0,0,0,0,0,0,0,0
1681030209.50022006,105528605,1720,1743,2566,1950,0,0,0,0,0,0,0,0,0,0
1681030209.60018015,105628565,1697,1748,2566,1950,0,0,0,0,0,0,0,0,0,0
1681030209.70014000,105728525,1660,1795,2566,1950,0,0,0,0,0,0,0,0,0,0
1681030209.80010009,105828485,1635,1753,2566,1950,0,0,0,0,0,0,0,0,0,0
1681030209.90006018,105928445,1725,1665,2566,1950,0,0,0,0,0,0,0,0,0,0
1681030210.00002003,106028405,1779,1742,2566,1950,0,0,0,0,0,0,0,0,0,0
1681030210.09998012,106128365,1716,1750,2566,1950,0,0,0,0,0,0,0,0,0,0
1681030210.19993997,106228325,1950,1556,2994,1400,0,0,0,0,0,0,0,0,0,0
1681030210.29990005,106328285,1950,1837,2778,1665,0,0,0,0,0,0,0,0,0,0
1681030210.39986014,106428245,1950,1865,2913,1797,0,0,0,0,0,0,0,0,0,0
1681030210.49981999,106528205,1922,1879,2915,1950,0,0,0,0,0,0,0,0,0,0
1681030210.59978008,106628165,1779,1771,2678,1950,0,0,0,0,0,0,0,0,0,0
1681030210.70057297,106728958,1720,1745,2566,1950,0,0,0,0,0,0,0,0,0,0
1681030210.80053306,106828918,1697,1770,2566,1950,0,0,0,0,0,0,0,0,0,0
1681030210.90049314,106928878,1657,1774,2566,1950,0,0,0,0,0,0,0,0,0,0
1681030211.00045300,107028838,1622,1762,2566,1950,0,0,0,0,0,0,0,0,0,0
1681030211.10041308,107128798,1617,1760,2566,1950,0,0,0,0,0,0,0,0,0,0
1681030211.20037317,107228758,1627,1754,2566,1950,0,0,0,0,0,0,0,0,0,0
1681030211.30033302,107328718,1670,1724,2566,1950,0,0,0,0,0,0,0,0,0,0
1681030211.40029311,107428678,1707,1696,2566,1950,0,0,0,0,0,0,0,0,0,0
1681030211.50025296,107528638,1767,1757,2566,1950,0,0,0,0,0,0,0,0,0,0
1681030211.60021305,107628598,1737,1748,2566,1950,0,0,0,0,0,0,0,0,0,0
1681030211.70017314,107728558,1713,1748,2566,1950,0,0,0,0,0,0,0,0,0,0
1681030211.80013299,107828518,1696,1769,2566,1950,0,0,0,0,0,0,0,0,0,0
1681030211.90009308,107928478,1646,1751,2566,1950,0,0,0,0,0,0,0,0,0,0
1681030212.00005317,108028438,1696,1698,2566,1950,0,0,0,0,0,0,0,0,0,0
1681030212.10001302,108128398,1730,1706,2566,1950,0,0,0,0,0,0,0,0,0,0
1681030212.19997311,108228358,1732,1749,2566,1950,0,0,0,0,0,0,0,0,0,0
1681030212.29993320,108328318,1702,1760,2566,1950,0,0,0,0,0,0,0,0,0,0
1681030212.39989305,108428278,1694,1776,2566,1950,0,0,0,0,0,0,0,0,0,0
1681030212.49985313,108528238,1679,1722,2566,1950,0,0,0,0,0,0,0,0,0,0
1681030212.59981298,108628198,1707,1685,2566,1950,0,0,0,0,0,0,0,0,0,0
1681030212.69977307,108728158,1731,1747,2566,1950,0,0,0,0,0,0,0,0,0,0
1681030212.80056596,108828951,1705,1761,2566,1950,0,0,0,0,0,0,0,0,0,0
1681030212.90052605,108928911,1950,1582,3073,1722,0,0,0,0,0,0,0,0,0,0
1681030213.00048614,109028871,1950,1832,2900,1822,0,0,0,0,0,0,0,0,0,0
1681030213.10044599,109128831,1950,1896,2955,1934,0,0,0,0,0,0,0,0,0,0
1681030213.20040607,109228791,1854,1841,2857,1950,0,0,0,0,0,0,0,0,0,0
1681030213.30036616,109328751,1773,1784,2672,1950,0,0,0,0,0,0,0,0,0,0
1681030213.40032601,109428711,1731,1762,2566,1941,0,0,0,0,0,0,0,0,0,0
1681030213.50028610,109528671,1651,1710,2566,1874,0,0,0,0,0,0,0,0,0,0
1681030213.60024619,109628631,1659,1765,2566,1950,0,0,0,0,0,0,0,0,0,0
1681030213.70020604,109728591,1616,1767,2566,1950,0,0,0,0,0,0,0,0,0,0
1681030213.80016613,109828551,1607,1770,2566,1950,0,0,0,0,0,0,0,0,0,0
1681030213.90012598,109928511,1638,1753,2566,1950,0,0,0,0,0,0,0,0,0,0
1681030214.00008607,110028471,1703,1708,2566,1950,0,0,0,0,0,0,0,0,0,0
1681030214.10004616,110128431,1727,1697,2566,1950,0,0,0,0,0,0,0,0,0,0
1681030214.20000601,110228391,1765,1753,2566,1950,0,0,0,0,0,0,0,0,0,0
1681030214.29996610,110328351,1740,1730,2566,1950,0,0,0,0,0,0,0,0,0,0
1681030214.39992619,110428311,1703,1745,2566,1950,0,0,0,0,0,0,0,0,0,0
1681030214.49988604,110528271,1678,1781,2566,1950,0,0,0,0,0,0,0,0,0,0
1681030214.59984612,110628231,1639,1760,2566,1950,0,0,0,0,0,0,0,0,0,0
1681030214.69980597,110728191,1706,1695,2566,1950,0,0,0,0,0,0,0,0,0,0
1681030214.80059910,110828984,1742,1703,2566,1950,0,0,0,0,0,0,0,0,0,0
1681030214.90055919,110928944,1737,1736,2566,1950,0,0,0,0,0,0,0,0,0,0
1681030215.00051904,111028904,1686,1763,2566,1950,0,0,0,0,0,0,0,0,0,0
1681030215.10047913,111128864,1678,1785,2566,1950,0,0,0,0,0,0,0,0,0,0
1681030215.20043898,111228824,1686,1722,2566,1950,0,0,0,0,0,0,0,0,0,0
1681030215.30039907,111328784,1724,1675,2566,1950,0,0,0,0,0,0,0,0,0,0
1681030215.40035915,111428744,1742,1732,2566,1950,0,0,0,0,0,0,0,0,0,0
1681030215.50031900,111528704,1950,1150,3069,1317,0,0,0,0,0,0,0,0,0,0
1681030215.60027909,111628664,1950,1702,2773,1744,0,0,0,0,0,0,0,0,0,0
1681030215.70023918,111728624,1950,1757,2926,1864,0,0,0,0,0,0,0,0,0,0
1681030215.80019903,111828584,1891,1835,2929,1950,0,0,0,0,0,0,0,0,0,0
1681030215.90015912,111928544,1797,1804,2782,1950,0,0,0,0,0,0,0,0,0,0
1681030216.00011897,112028504,1729,1761,2566,1950,0,0,0,0,0,0,0,0,0,0
1681030216.10007906,112128464,1671,1731,2566,1891,0,0,0,0,0,0,0,0,0,0
1681030216.20003915,112228424,1655,1769,2566,1919,0,0,0,0,0,0,0,0,0,0
1681030216.29999900,112328384,1629,1778,2566,1950,0,0,0,0,0,0,0,0,0,0
1681030216.39995909,112428344,1617,1774,2566,1950,0,0,0,0,0,0,0,0,0,0
1681030216.49991918,112528304,1634,1764,2566,1950,0,0,0,0,0,0,0,0,0,0
1681030216.59987903,112628264,1694,1721,2566,1950,0,0,0,0,0,0,0,0,0,0
1681030216.69983912,112728224,1717,1712,2566,1950,0,0,0,0,0,0,0,0,0,0
1681030216.79979897,112828184,1741,1757,2566,1950,0,0,0,0,0,0,0,0,0,0
1681030216.90059209,112928977,1724,1753,2566,1950,0,0,0,0,0,0,0,0,0,0
1681030217.00055218,113028937,1716,1750,2566,1950,0,0,0,0,0,0,0,0,0,0
1681030217.10051203,113128897,1681,1751,2566,1950,0,0,0,0,0,0,0,0,0,0
1681030217.20047212,113228857,1660,1740,2566,1950,0,0,0,0,0,0,0,0,0,0
1681030217.30043197,113328817,1689,1709,2566,1950,0,0,0,0,0,0,0,0,0,0
1681030217.40039206,113428777,1691,1709,2566,1950,0,0,0,0,0,0,0,0,0,0
1681030217.50035214,113528737,1696,1732,2566,1950,0,0,0,0,0,0,0,0,0,0
1681030217.60031199,113628697,1683,1720,2566,1950,0,0,0,0,0,0,0,0,0,0
1681030217.70027208,113728657,1674,1719,2566,1950,0,0,0,0,0,0,0,0,0,0
1681030217.80023217,113828617,1682,1710,2566,1950,0,0,0,0,0,0,0,0,0,0
1681030217.90019202,113928577,1699,1729,2566,1950,0,0,0,0,0,0,0,0,0,0
1681030218.00015211,114028537,1688,1740,2566,1950,0,0,0,0,0,0,0,0,0,0
1681030218.10011196,114128497,1679,1718,2566,1950,0,0,0,0,0,0,0,0,0,0
1681030218.20007205,114228457,1688,1704,2566,1950,0,0,0,0,0,0,0,0,0,0
1681030218.30003214,114328417,1743,1737,2566,1950,0,0,0,0,0,0,0,0,0,0
1681030218.39999199,114428377,1709,1752,2566,1950,0,0,0,0,0,0,0,0,0,0
1681030218.49995208,114528337,1686,1780,2566,1950,0,0,0,0,0,0,0,0,0,0
1681030218.59991217,114628297,1950,1811,2918,1925,0,0,0,0,0,0,0,0,0,0
1681030218.69987202,114728257,1885,1822,2828,1950,0,0,0,0,0,0,0,0,0,0
1681030218.79983211,114828217,1833,1830,2791,1950,0,0,0,0,0,0,0,0,0,0
1681030218.89979219,114928177,1823,1820,2755,1950,0,0,0,0,0,0,0,0,0,0
1681030219.00058508,115028970,1804,1792,2661,1950,0,0,0,0,0,0,0,0,0,0
1681030219.10054517,115128930,1693,1691,2566,1864,0,0,0,0,0,0,0,0,0,0
1681030219.20050502,115228890,1626,1678,2566,1846,0,0,0,0,0,0,0,0,0,0
1681030219.30046511,115328850,1663,1760,2566,1950,0,0,0,0,0,0,0,0,0,0
1681030219.40042496,115428810,1595,1786,2566,1950,0,0,0,0,0,0,0,0,0,0
1681030219.50038505,115528770,1585,1794,2566,1950,0,0,0,0,0,0,0,0,0,0
1681030219.60034513,115628730,1698,1733,2566,1950,0,0,0,0,0,0,0,0,0,0
1681030219.70030499,115728690,1720,1644,2566,1894,0,0,0,0,0,0,0,0,0,0
1681030219.80026507,115828650,1777,1718,2649,1950,0,0,0,0,0,0,0,0,0,0
1681030219.90022516,115928610,1755,1752,2566,1950,0,0,0,0,0,0,0,0,0,0
1681030220.00018501,116028570,1716,1736,2566,1950,0,0,0,0,0,0,0,0,0,0
1681030220.10014510,116128530,1678,1755,2566,1950,0,0,0,0,0,0,0,0,0,0
1681030220.20010519,116228490,1651,1794,2566,1950,0,0,0,0,0,0,0,0,0,0
1681030220.30006504,116328450,1654,1755,2566,1950,0,0,0,0,0,0,0,0,0,0
1681030220.40002513,116428410,1744,1671,2566,1950,0,0,0,0,0,0,0,0,0,0
1681030220.49998498,116528370,1781,1729,2566,1950,0,0,0,0,0,0,0,0,0,0
1681030220.59994507,116628330,1723,1733,2566,1950,0,0,0,0,0,0,0,0,0,0
1681030220.69990516,116728290,1793,1828,1298,1950,0,0,0,0,0,0,0,0,0,0
1681030220.79986501,116828250,1950,1859,1307,1656,0,0,0,0,0,0,0,0,0,0
1681030220.89982510,116928210,1950,1791,1296,1363,0,0,0,0,0,0,0,0,0,0
1681030220.99978518,117028170,1950,1805,1353,1280,0,0,0,0,0,0,0,0,0,0
1681030221.10057807,117128963,1524,1855,1150,1950,0,0,0,0,0,0,0,0,0,0
1681030221.20053816,117228923,1735,1950,1402,1944,0,0,0,0,0,0,0,0,0,0
1681030221.30049801,117328883,1734,1950,1338,1840,0,0,0,0,0,0,0,0,0,0
1681030221.40045810,117428843,1722,1950,1286,1768,0,0,0,0,0,0,0,0,0,0
1681030221.50041819,117528803,1728,1950,1266,1731,0,0,0,0,0,0,0,0,0,0
1681030221.60037804,117628763,1806,1950,1399,1642,0,0,0,0,0,0,0,0,0,0
1681030221.70033813,117728723,1920,1950,1632,1658,0,0,0,0,0,0,0,0,0,0
1681030221.80029798,117828683,1950,1938,1735,1674,0,0,0,0,0,0,0,0,0,0
1681030221.90025806,117928643,1950,1942,1805,1730,0,0,0,0,0,0,0,0,0,0
1681030222.00021815,118028603,1946,1950,1884,1825,0,0,0,0,0,0,0,0,0,0
1681030222.10017800,118128563,1948,1950,1944,1901,0,0,0,0,0,0,0,0,0,0
1681030222.20013809,118228523,1887,1857,1950,1882,0,0,0,0,0,0,0,0,0,0
1681030222.30009818,118328483,1824,1779,1950,1888,0,0,0,0,0,0,0,0,0,0
1681030222.40005803,118428443,1798,1782,1938,1918,0,0,0,0,0,0,0,0,0,0
1681030222.50001812,118528403,1645,1619,1806,1811,0,0,0,0,0,0,0,0,0,0
1681030222.59997797,118628363,1525,1497,1723,1748,0,0,0,0,0,0,0,0,0,0
1681030222.69993806,118728323,1440,1440,1657,1710,0,0,0,0,0,0,0,0,0,0
1681030222.79989815,118828283,1417,1415,1608,1663,0,0,0,0,0,0,0,0,0,0
1681030222.89985800,118928243,1423,1415,1567,1610,0,0,0,0,0,0,0,0,0,0
1681030222.99981809,119028203,1436,1431,1533,1555,0,0,0,0,0,0,0,0,0,0
1681030223.09977818,119128163,1459,1459,1508,1513,0,0,0,0,0,0,0,0,0,0
1681030223.20057106,119228956,1488,1497,1496,1485,0,0,0,0,0,0,0,0,0,0
1681030223.30053115,119328916,1521,1534,1490,1473,0,0,0,0,0,0,0,0,0,0
1681030223.40049100,119428876,1551,1566,1490,1470,0,0,0,0,0,0,0,0,0,0
1681030223.50045109,119528836,1578,1590,1494,1467,0,0,0,0,0,0,0,0,0,0
1681030223.60041118,119628796,1595,1602,1495,1471,0,0,0,0,0,0,0,0,0,0
1681030223.70037103,119728756,1600,1600,1495,1489,0,0,0,0,0,0,0,0,0,0
1681030223.80033112,119828716,1596,1591,1503,1508,0,0,0,0,0,0,0,0,0,0
1681030223.90029097,119928676,1585,1577,1515,1528,0,0,0,0,0,0,0,0,0,0
1681030224.00025105,120028636,1573,1566,1533,1544,0,0,0,0,0,0,0,0,0,0
1681030224.10021114,120128596,1560,1556,1551,1560,0,0,0,0,0,0,0,0,0,0
1681030224.20017099,120228556,1550,1549,1567,1571,0,0,0,0,0,0,0,0,0,0
1681030224.30013108,120328516,1543,1543,1580,1580,0,0,0,0,0,0,0,0,0,0
1681030224.40009117,120428476,1539,1540,1589,1586,0,0,0,0,0,0,0,0,0,0
1681030224.50005102,120528436,1539,1541,1591,1590,0,0,0,0,0,0,0,0,0,0
1681030224.60001111,120628396,1540,1542,1593,1590,0,0,0,0,0,0,0,0,0,0
1681030224.69997096,120728356,1544,1544,1590,1591,0,0,0,0,0,0,0,0,0,0
1681030224.79993105,120828316,1546,1546,1588,1588,0,0,0,0,0,0,0,0,0,0
1681030224.89989114,120928276,1548,1547,1583,1586,0,0,0,0,0,0,0,0,0,0
1681030224.99985099,121028236,1551,1549,1582,1582,0,0,0,0,0,0,0,0,0,0
1681030225.09981108,121128196,1553,1552,1580,1580,0,0,0,0,0,0,0,0,0,0
1681030225.19977117,121228156,1555,1553,1578,1578,0,0,0,0,0,0,0,0,0,0
1681030225.30056405,121328949,1555,1554,1576,1576,0,0,0,0,0,0,0,0,0,0
1681030225.40052414,121428909,1555,1553,1575,1574,0,0,0,0,0,0,0,0,0,0
1681030225.50048399,121528869,1553,1553,1574,1574,0,0,0,0,0,0,0,0,0,0
1681030225.60044408,121628829,1553,1551,1575,1575,0,0,0,0,0,0,0,0,0,0
1681030225.70040417,121728789,1550,1550,1576,1577,0,0,0,0,0,0,0,0,0,0
1681030225.80036402,121828749,1548,1547,1579,1579,0,0,0,0,0,0,0,0,0,0
1681030225.90032411,121928709,1546,1545,1582,1583,0,0,0,0,0,0,0,0,0,0
1681030226.00028419,122028669,1544,1542,1587,1587,0,0,0,0,0,0,0,0,0,0
1681030226.10024405,122128629,1540,1540,1588,1589,0,0,0,0,0,0,0,0,0,0
1681030226.20020413,122228589,1540,1540,1589,1591,0,0,0,0,0,0,0,0,0,0
1681030226.30016398,122328549,1542,1544,1590,1592,0,0,0,0,0,0,0,0,0,0
1681030226.40012407,122428509,1546,1548,1587,1590,0,0,0,0,0,0,0,0,0,0
1681030226.50008416,122528469,1552,1556,1583,1586,0,0,0,0,0,0,0,0,0,0
1681030226.60004401,122628429,1561,1564,1577,1580,0,0,0,0,0,0,0,0,0,0
1681030226.70000410,122728389,1570,1574,1569,1570,0,0,0,0,0,0,0,0,0,0
1681030226.79996419,122828349,1580,1583,1559,1560,0,0,0,0,0,0,0,0,0,0
1681030226.89992404,122928309,1590,1592,1550,1551,0,0,0,0,0,0,0,0,0,0
1681030226.99988413,123028269,1598,1599,1543,1544,0,0,0,0,0,0,0,0,0,0
1681030227.09984398,123128229,1605,1605,1540,1540,0,0,0,0,0,0,0,0,0,0
1681030227.19980407,123228189,1608,1607,1539,1539,0,0,0,0,0,0,0,0,0,0
1681030227.30059719,123328982,1608,1607,1542,1540,0,0,0,0,0,0,0,0,0,0
1681030227.40055704,123428942,1606,1605,1546,1544,0,0,0,0,0,0,0,0,0,0
1681030227.50051713,123528902,1601,1600,1551,1548,0,0,0,0,0,0,0,0,0,0
1681030227.60047698,123628862,1596,1595,1557,1556,0,0,0,0,0,0,0,0,0,0
1681030227.70043707,123728822,1589,1589,1563,1563,0,0,0,0,0,0,0,0,0,0
1681030227.80039716,123828782,1583,1583,1569,1570,0,0,0,0,0,0,0,0,0,0
1681030227.90035701,123928742,1578,1578,1575,1576,0,0,0,0,0,0,0,0,0,0
1681030228.00031710,124028702,1573,1575,1580,1581,0,0,0,0,0,0,0,0,0,0
1681030228.10027719,124128662,1569,1570,1582,1583,0,0,0,0,0,0,0,0,0,0
1681030228.20023704,124228622,1568,1569,1584,1585,0,0,0,0,0,0,0,0,0,0
1681030228.30019712,124328582,1569,1570,1586,1585,0,0,0,0,0,0,0,0,0,0
1681030228.40015697,124428542,1571,1572,1586,1585,0,0,0,0,0,0,0,0,0,0
1681030228.50011706,124528502,1574,1574,1585,1584,0,0,0,0,0,0,0,0,0,0
1681030228.60007715,124628462,1575,1576,1582,1583,0,0,0,0,0,0,0,0,0,0
1681030228.70003700,124728422,1578,1578,1581,1581,0,0,0,0,0,0,0,0,0,0
1681030228.79999709,124828382,1581,1581,1579,1580,0,0,0,0,0,0,0,0,0,0
1681030228.89995718,124928342,1582,1582,1577,1577,0,0,0,0,0,0,0,0,0,0
1681030228.99991703,125028302,1584,1583,1576,1577,0,0,0,0,0,0,0,0,0,0
1681030229.09987712,125128262,1585,1584,1576,1576,0,0,0,0,0,0,0,0,0,0
1681030229.19983697,125228222,1586,1586,1578,1577,0,0,0,0,0,0,0,0,0,0
1681030229.29979706,125328182,1586,1585,1578,1577,0,0,0,0,0,0,0,0,0,0
1681030229.40059018,125428975,1586,1585,1579,1579,0,0,0,0,0,0,0,0,0,0
1681030229.50055003,125528935,1584,1583,1579,1579,0,0,0,0,0,0,0,0,0,0
1681030229.60051012,125628895,1584,1585,1582,1582,0,0,0,0,0,0,0,0,0,0
1681030229.70046997,125728855,1583,1583,1582,1582,0,0,0,0,0,0,0,0,0,0
1681030229.80043006,125828815,1582,1582,1583,1583,0,0,0,0,0,0,0,0,0,0
1681030229.90039015,125928775,1581,1581,1584,1584,0,0,0,0,0,0,0,0,0,0
1681030230.00035000,126028735,1580,1581,1584,1584,0,0,0,0,0,0,0,0,0,0
1681030230.10031009,126128695,1580,1580,1584,1584,0,0,0,0,0,0,0,0,0,0
1681030230.20027018,126228655,1580,1580,1584,1584,0,0,0,0,0,0,0,0,0,0
1681030230.30023003,126328615,1581,1581,1585,1584,0,0,0,0,0,0,0,0,0,0
1681030230.40019011,126428575,1581,1581,1584,1584,0,0,0,0,0,0,0,0,0,0
1681030230.50014997,126528535,1582,1582,1584,1584,0,0,0,0,0,0,0,0,0,0
1681030230.60011005,126628495,1582,1583,1583,1584,0,0,0,0,0,0,0,0,0,0
1681030230.70007014,126728455,1583,1583,1583,1583,0,0,0,0,0,0,0,0,0,0
1681030230.80002999,126828415,1583,1584,1587,1579,0,0,0,0,0,0,0,0,0,0
1681030230.89999008,126928375,1583,1587,1589,1574,0,0,0,0,0,0,0,0,0,0
1681030230.99995017,127028335,1582,1586,1581,1573,0,0,0,0,0,0,0,0,0,0
1681030231.09991002,127128295,1583,1586,1572,1573,0,0,0,0,0,0,0,0,0,0
1681030231.19987011,127228255,1582,1584,1563,1570,0,0,0,0,0,0,0,0,0,0
1681030231.29982996,127328215,1583,1583,1558,1565,0,0,0,0,0,0,0,0,0,0
1681030231.39979005,127428175,1583,1582,1554,1559,0,0,0,0,0,0,0,0,0,0
1681030231.50058317,127528968,1585,1583,1555,1557,0,0,0,0,0,0,0,0,0,0
1681030231.60054302,127628928,1585,1583,1555,1554,0,0,0,0,0,0,0,0,0,0
1681030231.70050311,127728888,1583,1582,1555,1553,0,0,0,0,0,0,0,0,0,0
1681030231.80046296,127828848,1582,1582,1557,1554,0,0,0,0,0,0,0,0,0,0
1681030231.90042305,127928808,1580,1580,1556,1554,0,0,0,0,0,0,0,0,0,0
1681030232.00038314,128028768,1578,1581,1556,1555,0,0,0,0,0,0,0,0,0,0
1681030232.10034299,128128728,1578,1580,1555,1555,0,0,0,0,0,0,0,0,0,0
1681030232.20030308,128228688,1578,1579,1554,1555,0,0,0,0,0,0,0,0,0,0
1681030232.30026317,128328648,1578,1579,1552,1553,0,0,0,0,0,0,0,0,0,0
1681030232.40022302,128428608,1580,1582,1551,1551,0,0,0,0,0,0,0,0,0,0
1681030232.50018311,128528568,1583,1584,1549,1550,0,0,0,0,0,0,0,0,0,0
1681030232.60014319,128628528,1585,1586,1548,1547,0,0,0,0,0,0,0,0,0,0
1681030232.70010304,128728488,1588,1589,1547,1546,0,0,0,0,0,0,0,0,0,0
1681030232.80006313,128828448,1591,1592,1544,1544,0,0,0,0,0,0,0,0,0,0
1681030232.90002298,128928408,1593,1594,1540,1541,0,0,0,0,0,0,0,0,0,0
1681030232.99998307,129028368,1595,1597,1539,1540,0,0,0,0,0,0,0,0,0,0
1681030233.09994316,129128328,1597,1597,1538,1541,0,0,0,0,0,0,0,0,0,0
1681030233.19990301,129228288,1597,1595,1541,1543,0,0,0,0,0,0,0,0,0,0
1681030233.29986310,129328248,1595,1591,1546,1549,0,0,0,0,0,0,0,0,0,0
1681030233.39982319,129428208,1590,1586,1555,1557,0,0,0,0,0,0,0,0,0,0
1681030233.49978304,129528168,1581,1576,1564,1566,0,0,0,0,0,0,0,0,0,0
1681030233.60057616,129628961,1570,1566,1575,1577,0,0,0,0,0,0,0,0,0,0
1681030233.70053601,129728921,1559,1556,1586,1588,0,0,0,0,0,0,0,0,0,0
1681030233.80049610,129828881,1549,1548,1598,1598,0,0,0,0,0,0,0,0,0,0
1681030233.90045619,129928841,1540,1540,1606,1606,0,0,0,0,0,0,0,0,0,0
1681030234.00041604,130028801,1536,1538,1612,1611,0,0,0,0,0,0,0,0,0,0
1681030234.10037613,130128761,1536,1538,1614,1613,0,0,0,0,0,0,0,0,0,0
1681030234.20033598,130228721,1537,1540,1611,1611,0,0,0,0,0,0,0,0,0,0
1681030234.30029607,130328681,1542,1544,1609,1608,0,0,0,0,0,0,0,0,0,0
1681030234.40025616,130428641,1549,1551,1605,1604,0,0,0,0,0,0,0,0,0,0
1681030234.50021601,130528601,1555,1556,1599,1597,0,0,0,0,0,0,0,0,0,0
1681030234.60017610,130628561,1562,1563,1592,1591,0,0,0,0,0,0,0,0,0,0
1681030234.70013618,130728521,1570,1570,1585,1585,0,0,0,0,0,0,0,0,0,0
1681030234.80009604,130828481,1575,1575,1578,1578,0,0,0,0,0,0,0,0,0,0
1681030234.90005612,130928441,1582,1580,1573,1574,0,0,0,0,0,0,0,0,0,0
1681030235.00001597,131028401,1585,1584,1570,1570,0,0,0,0,0,0,0,0,0,0
1681030235.09997606,131128361,1587,1586,1568,1569,0,0,0,0,0,0,0,0,0,0
1681030235.19993615,131228321,1587,1586,1568,1568,0,0,0,0,0,0,0,0,0,0
1681030235.29989600,131328281,1586,1584,1568,1569,0,0,0,0,0,0,0,0,0,0
1681030235.39985609,131428241,1583,1583,1570,1570,0,0,0,0,0,0,0,0,0,0
1681030235.49981618,131528201,1581,1580,1572,1573,0,0,0,0,0,0,0,0,0,0
1681030235.59977603,131628161,1578,1578,1576,1576,0,0,0,0,0,0,0,0,0,0
1681030235.70056915,131728954,1576,1576,1578,1578,0,0,0,0,0,0,0,0,0,0
1681030235.80052900,131828914,1574,1575,1581,1580,0,0,0,0,0,0,0,0,0,0
1681030235.90048909,131928874,1572,1572,1582,1582,0,0,0,0,0,0,0,0,0,0
1681030236.00044918,132028834,1571,1572,1582,1582,0,0,0,0,0,0,0,0,0,0
1681030236.10040903,132128794,1572,1572,1583,1584,0,0,0,0,0,0,0,0,0,0
1681030236.20036912,132228754,1573,1573,1583,1583,0,0,0,0,0,0,0,0,0,0
1681030236.30032897,132328714,1573,1572,1581,1582,0,0,0,0,0,0,0,0,0,0
1681030236.40028906,132428674,1575,1575,1582,1581,0,0,0,0,0,0,0,0,0,0
1681030236.50024915,132528634,1576,1576,1580,1580,0,0,0,0,0,0,0,0,0,0
1681030236.60020900,132628594,1577,1577,1579,1579,0,0,0,0,0,0,0,0,0,0
1681030236.70016909,132728554,1578,1577,1577,1578,0,0,0,0,0,0,0,0,0,0
1681030236.80012918,132828514,1579,1579,1577,1577,0,0,0,0,0,0,0,0,0,0
1681030236.90008903,132928474,1579,1579,1576,1576,0,0,0,0,0,0,0,0,0,0
1681030237.00004911,133028434,1579,1579,1576,1576,0,0,0,0,0,0,0,0,0,0
1681030237.10000896,133128394,1579,1579,1576,1576,0,0,0,0,0,0,0,0,0,0
1681030237.19996905,133228354,1579,1580,1576,1577,0,0,0,0,0,0,0,0,0,0
1681030237.29992914,133328314,1579,1579,1577,1577,0,0,0,0,0,0,0,0,0,0
1681030237.39988899,133428274,1579,1579,1578,1578,0,0,0,0,0,0,0,0,0,0
1681030237.49984908,133528234,1580,1579,1579,1579,0,0,0,0,0,0,0,0,0,0
1681030237.59980917,133628194,1579,1580,1580,1579,0,0,0,0,0,0,0,0,0,0
1681030237.69976902,133728154,1579,1579,1580,1580,0,0,0,0,0,0,0,0,0,0
1681030237.80056214,133828947,1579,1578,1580,1580,0,0,0,0,0,0,0,0,0,0
1681030237.90052199,133928907,1579,1579,1581,1581,0,0,0,0,0,0,0,0,0,0
1681030238.00048208,134028867,1579,1579,1580,1581,0,0,0,0,0,0,0,0,0,0
1681030238.10044217,134128827,1579,1579,1581,1581,0,0,0,0,0,0,0,0,0,0
1681030238.20040202,134228787,1579,1579,1580,1581,0,0,0,0,0,0,0,0,0,0
1681030238.30036211,134328747,1581,1580,1581,1581,0,0,0,0,0,0,0,0,0,0
1681030238.40032196,134428707,1581,1581,1582,1582,0,0,0,0,0,0,0,0,0,0
1681030238.50028205,134528667,1580,1581,1582,1578,0,0,0,0,0,0,0,0,0,0
1681030238.60024214,134628627,1580,1583,1587,1571,0,0,0,0,0,0,0,0,0,0
1681030238.70020199,134728587,1580,1581,1582,1573,0,0,0,0,0,0,0,0,0,0
1681030238.80016208,134828547,1577,1577,1575,1574,0,0,0,0,0,0,0,0,0,0
1681030238.90012217,134928507,1574,1573,1569,1574,0,0,0,0,0,0,0,0,0,0
1681030239.00008202,135028467,1571,1569,1564,1572,0,0,0,0,0,0,0,0,0,0
1681030239.10004210,135128427,1568,1567,1563,1569,0,0,0,0,0,0,0,0,0,0
1681030239.20000219,135228387,1567,1567,1564,1567,0,0,0,0,0,0,0,0,0,0
1681030239.29996204,135328347,1566,1566,1565,1565,0,0,0,0,0,0,0,0,0,0
1681030239.39992213,135428307,1565,1566,1567,1564,0,0,0,0,0,0,0,0,0,0
1681030239.49988198,135528267,1564,1564,1566,1563,0,0,0,0,0,0,0,0,0,0
1681030239.59984207,135628227,1564,1564,1566,1564,0,0,0,0,0,0,0,0,0,0
1681030239.69980216,135728187,1563,1563,1565,1564,0,0,0,0,0,0,0,0,0,0
1681030239.80059505,135828980,1563,1563,1565,1564,0,0,0,0,0,0,0,0,0,0
1681030239.90055513,135928940,1563,1562,1563,1564,0,0,0,0,0,0,0,0,0,0
1681030240.00051498,136028900,1562,1562,1563,1563,0,0,0,0,0,0,0,0,0,0
1681030240.10047507,136128860,1561,1561,1562,1562,0,0,0,0,0,0,0,0,0,0
1681030240.20043516,136228820,1561,1561,1561,1562,0,0,0,0,0,0,0,0,0,0
1681030240.30039501,136328780,1561,1561,1561,1561,0,0,0,0,0,0,0,0,0,0
1681030240.40035510,136428740,1560,1560,1560,1560,0,0,0,0,0,0,0,0,0,0
1681030240.50031519,136528700,1559,1559,1559,1558,0,0,0,0,0,0,0,0,0,0
1681030240.60027504,136628660,1559,1559,1559,1558,0,0,0,0,0,0,0,0,0,0
1681030240.70023513,136728620,1558,1559,1559,1557,0,0,0,0,0,0,0,0,0,0
1681030240.80019498,136828580,1558,1558,1558,1557,0,0,0,0,0,0,0,0,0,0
1681030240.90015507,136928540,1559,1559,1559,1557,0,0,0,0,0,0,0,0,0,0
1681030241.00011516,137028500,1558,1558,1559,1557,0,0,0,0,0,0,0,0,0,0
1681030241.10007501,137128460,1558,1558,1558,1557,0,0,0,0,0,0,0,0,0,0
1681030241.20003510,137228420,1559,1559,1560,1558,0,0,0,0,0,0,0,0,0,0
1681030241.29999518,137328380,1556,1557,1556,1557,0,0,0,0,0,0,0,0,0,0
1681030241.39995503,137428340,1558,1558,1556,1560,0,0,0,0,0,0,0,0,0,0
1681030241.49991512,137528300,1558,1558,1554,1562,0,0,0,0,0,0,0,0,0,0
1681030241.59987497,137628260,1555,1555,1552,1558,0,0,0,0,0,0,0,0,0,0
1681030241.69983506,137728220,1551,1551,1549,1553,0,0,0,0,0,0,0,0,0,0
1681030241.79979515,137828180,1545,1545,1544,1546,0,0,0,0,0,0,0,0,0,0
1681030241.90058804,137928973,1538,1538,1538,1538,0,0,0,0,0,0,0,0,0,0
1681030242.00054812,138028933,1532,1532,1533,1531,0,0,0,0,0,0,0,0,0,0
1681030242.10050797,138128893,1524,1524,1525,1524,0,0,0,0,0,0,0,0,0,0
1681030242.20046806,138228853,1521,1521,1521,1521,0,0,0,0,0,0,0,0,0,0
1681030242.30042815,138328813,1521,1521,1521,1521,0,0,0,0,0,0,0,0,0,0
1681030242.40038800,138428773,1521,1521,1520,1522,0,0,0,0,0,0,0,0,0,0
1681030242.50034809,138528733,1524,1524,1523,1525,0,0,0,0,0,0,0,0,0,0
1681030242.60030818,138628693,1527,1527,1527,1528,0,0,0,0,0,0,0,0,0,0
1681030242.70026803,138728653,1532,1531,1531,1532,0,0,0,0,0,0,0,0,0,0
1681030242.80022812,138828613,1536,1536,1537,1536,0,0,0,0,0,0,0,0,0,0
1681030242.90018797,138928573,1539,1540,1540,1540,0,0,0,0,0,0,0,0,0,0
1681030243.00014806,139028533,1542,1542,1543,1542,0,0,0,0,0,0,0,0,0,0
1681030243.10010815,139128493,1544,1544,1544,1544,0,0,0,0,0,0,0,0,0,0
1681030243.20006800,139228453,1545,1545,1545,1545,0,0,0,0,0,0,0,0,0,0
1681030243.30002809,139328413,1546,1546,1546,1546,0,0,0,0,0,0,0,0,0,0
1681030243.39998817,139428373,1546,1546,1546,1547,0,0,0,0,0,0,0,0,0,0
1681030243.49994802,139528333,1546,1546,1546,1546,0,0,0,0,0,0,0,0,0,0
1681030243.59990811,139628293,1546,1545,1546,1545,0,0,0,0,0,0,0,0,0,0
1681030243.69986796,139728253,1545,1545,1545,1545,0,0,0,0,0,0,0,0,0,0
1681030243.79982805,139828213,1546,1546,1546,1546,0,0,0,0,0,0,0,0,0,0
1681030243.89978814,139928173,1545,1546,1546,1545,0,0,0,0,0,0,0,0,0,0
1681030244.00058103,140028966,1545,1546,1546,1546,0,0,0,0,0,0,0,0,0,0
1681030244.10054111,140128926,1545,1545,1545,1545,0,0,0,0,0,0,0,0,0,0
1681030244.20050097,140228886,1544,1544,1544,1544,0,0,0,0,0,0,0,0,0,0
1681030244.30046105,140328846,1543,1544,1544,1544,0,0,0,0,0,0,0,0,0,0
1681030244.40042114,140428806,1544,1544,1544,1544,0,0,0,0,0,0,0,0,0,0
1681030244.50038099,140528766,1544,1544,1544,1544,0,0,0,0,0,0,0,0,0,0
1681030244.60034108,140628726,1544,1544,1544,1544,0,0,0,0,0,0,0,0,0,0
1681030244.70030117,140728686,1544,1544,1544,1544,0,0,0,0,0,0,0,0,0,0
1681030244.80026102,140828646,1544,1544,1545,1544,0,0,0,0,0,0,0,0,0,0
1681030244.90022111,140928606,1544,1544,1544,1544,0,0,0,0,0,0,0,0,0,0
1681030245.00018096,141028566,1544,1544,1544,1544,0,0,0,0,0,0,0,0,0,0
1681030245.10014105,141128526,1544,1544,1544,1544,0,0,0,0,0,0,0,0,0,0
1681030245.20010114,141228486,1545,1545,1544,1545,0,0,0,0,0,0,0,0,0,0
1681030245.30006099,141328446,1544,1545,1544,1544,0,0,0,0,0,0,0,0,0,0
1681030245.40002108,141428406,1545,1544,1545,1544,0,0,0,0,0,0,0,0,0,0
1681030245.49998116,141528366,1544,1544,1544,1544,0,0,0,0,0,0,0,0,0,0
1681030245.59994102,141628326,1543,1543,1543,1543,0,0,0,0,0,0,0,0,0,0
1681030245.69990110,141728286,1544,1544,1544,1544,0,0,0,0,0,0,0,0,0,0
1681030245.79986119,141828246,1544,1544,1544,1544,0,0,0,0,0,0,0,0,0,0
1681030245.89982104,141928206,1545,1545,1545,1545,0,0,0,0,0,0,0,0,0,0
1681030245.99978113,142028166,1545,1545,1545,1545,0,0,0,0,0,0,0,0,0,0
1681030246.10057402,142128959,1544,1544,1544,1544,0,0,0,0,0,0,0,0,0,0
1681030246.20053411,142228919,1544,1545,1544,1545,0,0,0,0,0,0,0,0,0,0
1681030246.30049419,142328879,1544,1544,1544,1544,0,0,0,0,0,0,0,0,0,0
1681030246.40045404,142428839,1544,1544,1544,1544,0,0,0,0,0,0,0,0,0,0
1681030246.50041413,142528799,1544,1544,1544,1544,0,0,0,0,0,0,0,0,0,0
1681030246.60037398,142628759,1543,1544,1543,1543,0,0,0,0,0,0,0,0,0,0
1681030246.70033407,142728719,1544,1544,1544,1544,0,0,0,0,0,0,0,0,0,0
1681030246.80029416,142828679,1543,1544,1543,1544,0,0,0,0,0,0,0,0,0,0
1681030246.90025401,142928639,1544,1543,1543,1544,0,0,0,0,0,0,0,0,0,0
1681030247.00021410,143028599,1543,1543,1543,1543,0,0,0,0,0,0,0,0,0,0
1681030247.10017419,143128559,1543,1543,1543,1543,0,0,0,0,0,0,0,0,0,0
1681030247.20013404,143228519,1544,1544,1544,1544,0,0,0,0,0,0,0,0,0,0
1681030247.30009413,143328479,1543,1543,1543,1544,0,0,0,0,0,0,0,0,0,0
1681030247.40005398,143428439,1544,1544,1544,1544,0,0,0,0,0,0,0,0,0,0
1681030247.50001407,143528399,1545,1544,1544,1545,0,0,0,0,0,0,0,0,0,0
1681030247.59997416,143628359,1544,1545,1545,1545,0,0,0,0,0,0,0,0,0,0
1681030247.69993401,143728319,1545,1544,1545,1545,0,0,0,0,0,0,0,0,0,0
1681030247.79989409,143828279,1544,1544,1545,1544,0,0,0,0,0,0,0,0,0,0
1681030247.89985418,143928239,1545,1545,1544,1545,0,0,0,0,0,0,0,0,0,0
1681030247.99981403,144028199,1543,1544,1544,1543,0,0,0,0,0,0,0,0,0,0
1681030248.09977412,144128159,1544,1544,1544,1544,0,0,0,0,0,0,0,0,0,0
1681030248.20056701,144228952,1544,1544,1544,1544,0,0,0,0,0,0,0,0,0,0
1681030248.30052710,144328912,1544,1544,1544,1545,0,0,0,0,0,0,0,0,0,0
1681030248.40048718,144428872,1544,1545,1545,1544,0,0,0,0,0,0,0,0,0,0
1681030248.50044703,144528832,1545,1545,1545,1545,0,0,0,0,0,0,0,0,0,0
1681030248.60040712,144628792,1545,1545,1545,1545,0,0,0,0,0,0,0,0,0,0
1681030248.70036697,144728752,1545,1545,1545,1545,0,0,0,0,0,0,0,0,0,0
1681030248.80032706,144828712,1544,1544,1544,1544,0,0,0,0,0,0,0,0,0,0
1681030248.90028715,144928672,1545,1545,1544,1545,0,0,0,0,0,0,0,0,0,0
1681030249.00024700,145028632,1544,1544,1544,1544,0,0,0,0,0,0,0,0,0,0
1681030249.10020709,145128592,1545,1544,1544,1545,0,0,0,0,0,0,0,0,0,0
1681030249.20016718,145228552,1545,1545,1544,1545,0,0,0,0,0,0,0,0,0,0
1681030249.30012703,145328512,1544,1544,1543,1544,0,0,0,0,0,0,0,0,0,0
1681030249.40008712,145428472,1544,1544,1544,1544,0,0,0,0,0,0,0,0,0,0
1681030249.50004697,145528432,1544,1543,1544,1544,0,0,0,0,0,0,0,0,0,0
1681030249.60000706,145628392,1544,1544,1544,1543,0,0,0,0,0,0,0,0,0,0
1681030249.69996715,145728352,1544,1543,1543,1543,0,0,0,0,0,0,0,0,0,0
1681030249.79992700,145828312,1544,1543,1543,1543,0,0,0,0,0,0,0,0,0,0
1681030249.89988708,145928272,1544,1544,1543,1544,0,0,0,0,0,0,0,0,0,0
1681030249.99984717,146028232,1543,1544,1544,1544,0,0,0,0,0,0,0,0,0,0
1681030250.09980702,146128192,1543,1544,1543,1544,0,0,0,0,0,0,0,0,0,0
1681030250.20060015,146228985,1544,1545,1545,1544,0,0,0,0,0,0,0,0,0,0
1681030250.30056000,146328945,1545,1544,1544,1544,0,0,0,0,0,0,0,0,0,0
1681030250.40052009,146428905,1545,1545,1545,1545,0,0,0,0,0,0,0,0,0,0
1681030250.50048018,146528865,1545,1544,1544,1545,0,0,0,0,0,0,0,0,0,0
1681030250.60044003,146628825,1545,1545,1545,1545,0,0,0,0,0,0,0,0,0,0
1681030250.70040011,146728785,1545,1545,1545,1545,0,0,0,0,0,0,0,0,0,0
1681030250.80035996,146828745,1544,1545,1545,1545,0,0,0,0,0,0,0,0,0,0
1681030250.90032005,146928705,1545,1544,1544,1545,0,0,0,0,0,0,0,0,0,0
1681030251.00028014,147028665,1544,1545,1544,1544,0,0,0,0,0,0,0,0,0,0
1681030251.10023999,147128625,1544,1543,1544,1544,0,0,0,0,0,0,0,0,0,0
1681030251.20020008,147228585,1544,1544,1544,1544,0,0,0,0,0,0,0,0,0,0
1681030251.30016017,147328545,1545,1544,1544,1544,0,0,0,0,0,0,0,0,0,0
1681030251.40012002,147428505,1545,1544,1545,1544,0,0,0,0,0,0,0,0,0,0
1681030251.50008011,147528465,1544,1544,1544,1545,0,0,0,0,0,0,0,0,0,0
1681030251.60003996,147628425,1543,1544,1544,1544,0,0,0,0,0,0,0,0,0,0
1681030251.70000005,147728385,1543,1542,1542,1543,0,0,0,0,0,0,0,0,0,0
1681030251.79996014,147828345,1543,1543,1543,1543,0,0,0,0,0,0,0,0,0,0
1681030251.89991999,147928305,1543,1544,1543,1544,0,0,0,0,0,0,0,0,0,0
1681030251.99988008,148028265,1366,1370,1370,1366,0,0,0,0,0,0,0,0,0,0
1681030252.09984016,148128225,1248,1253,1253,1249,0,0,0,0,0,0,0,0,0,0
1681030252.19980001,148228185,1209,1214,1214,1209,0,0,0,0,0,0,0,0,0,0
1681030252.30059314,148328978,1187,1191,1191,1188,0,0,0,0,0,0,0,0,0,0
1681030252.40055299,148428938,1150,1156,1155,1150,0,0,0,0,0,0,0,0,0,0
1681030252.50051308,148528898,1150,1156,1155,1150,0,0,0,0,0,0,0,0,0,0
1681030252.60047317,148628858,1150,1155,1154,1150,0,0,0,0,0,0,0,0,0,0
1681030252.70043302,148728818,1197,1161,1150,1207,0,0,0,0,0,0,0,0,0,0
1681030252.80039310,148828778,1179,1157,1150,1186,0,0,0,0,0,0,0,0,0,0
1681030252.90035319,148928738,1175,1157,1150,1181,0,0,0,0,0,0,0,0,0,0
1681030253.00031304,149028698,1176,1157,1150,1182,0,0,0,0,0,0,0,0,0,0
1681030253.10027313,149128658,1179,1158,1150,1186,0,0,0,0,0,0,0,0,0,0
1681030253.20023298,149228618,1181,1159,1150,1189,0,0,0,0,0,0,0,0,0,0
1681030253.30019307,149328578,1184,1160,1150,1193,0,0,0,0,0,0,0,0,0,0
1681030253.40015316,149428538,1166,1158,1150,1174,0,0,0,0,0,0,0,0,0,0
1681030253.50011301,149528498,1168,1155,1150,1172,0,0,0,0,0,0,0,0,0,0
1681030253.60007310,149628458,1170,1156,1150,1174,0,0,0,0,0,0,0,0,0,0
1681030253.70003319,149728418,1171,1156,1150,1175,0,0,0,0,0,0,0,0,0,0
1681030253.79999304,149828378,1172,1156,1150,1176,0,0,0,0,0,0,0,0,0,0
1681030253.89995313,149928338,1150,1150,1150,1150,0,0,0,0,0,0,0,0,0,0
1681030253.99991298,150028298,1000,1000,1000,1000,0,0,0,0,0,0,0,0,0,0
1681030254.09987307,150128258,1000,1000,1000,1000,0,0,0,0,0,0,0,0,0,0
1681030254.19983315,150228218,1000,1000,1000,1000,0,0,0,0,0,0,0,0,0,0
1681030254.29979300,150328178,1000,1000,1000,1000,0,0,0,0,0,0,0,0,0,0
