TimeUS,M1,M2,M3,M4,TimeUS,C1,C2,C3,C4
72608445,1000,1000,1000,1000,72628437,1000,1000,1000,1000
72610944,1000,1000,1000,1000,72728397,1000,1000,1000,1000
72613443,1000,1000,1000,1000,72828357,1000,1000,1000,1000
72615942,1000,1000,1000,1000,72928317,1000,1000,1000,1000
72618441,1000,1000,1000,1000,73028277,1000,1000,1000,1000
72620940,1000,1000,1000,1000,73128237,1000,1000,1000,1000
72623439,1000,1000,1000,1000,73228197,1000,1000,1000,1000
72625938,1000,1000,1000,1000,73328157,1000,1000,1000,1000
72628437,1000,1000,1000,1000,73428950,1000,1000,1000,1000
72630936,1000,1000,1000,1000,73528910,1000,1000,1000,1000
72633435,1000,1000,1000,1000,73628870,1000,1000,1000,1000
72635934,1000,1000,1000,1000,73728830,1000,1000,1000,1000
72638433,1000,1000,1000,1000,73828790,1000,1000,1000,1000
72640932,1000,1000,1000,1000,73928750,1000,1000,1000,1000
72643431,1000,1000,1000,1000,74028710,1000,1000,1000,1000
72645930,1000,1000,1000,1000,74128670,1000,1000,1000,1000
72648429,1000,1000,1000,1000,74228630,1000,1000,1000,1000
72650928,1000,1000,1000,1000,74328590,1000,1000,1000,1000
72653427,1000,1000,1000,1000,74428550,1000,1000,1000,1000
72655926,1000,1000,1000,1000,74528510,1000,1000,1000,1000
72658425,1000,1000,1000,1000,74628470,1006,1006,1006,1006
72660924,1000,1000,1000,1000,74728430,1036,1036,1036,1036
72663423,1000,1000,1000,1000,74828390,1066,1066,1066,1066
72665922,1000,1000,1000,1000,74928350,1096,1096,1096,1096
72668421,1000,1000,1000,1000,75028310,1125,1125,1125,1125
72670920,1000,1000,1000,1000,75128270,1209,1198,1199,1210
72673419,1000,1000,1000,1000,75228230,1440,1432,1433,1441
72675918,1000,1000,1000,1000,75328190,1612,1605,1605,1612
72678417,1000,1000,1000,1000,75428983,1754,1748,1748,1755
72680916,1000,1000,1000,1000,75528943,1879,1872,1873,1879
72683415,1000,1000,1000,1000,75628903,1895,1890,1891,1895
72685914,1000,1000,1000,1000,75728863,1787,1785,1785,1787
72688413,1000,1000,1000,1000,75828823,1673,1675,1675,1674
72690912,1000,1000,1000,1000,75928783,1628,1631,1631,1628
72693411,1000,1000,1000,1000,76028743,1628,1632,1632,1628
72695910,1000,1000,1000,1000,76128703,1637,1639,1640,1637
72698409,1000,1000,1000,1000,76228663,1641,1634,1633,1641
72700908,1000,1000,1000,1000,76328623,1621,1620,1612,1628
72703407,1000,1000,1000,1000,76428583,1611,1611,1604,1617
72705906,1000,1000,1000,1000,76528543,1607,1607,1604,1609
72708405,1000,1000,1000,1000,76628503,1608,1607,1609,1606
72710904,1000,1000,1000,1000,76728463,1612,1612,1616,1609
72713403,1000,1000,1000,1000,76828423,1616,1616,1621,1611
72715902,1000,1000,1000,1000,76928383,1589,1590,1602,1577
72718401,1000,1000,1000,1000,77028343,1575,1576,1589,1563
72720900,1000,1000,1000,1000,77128303,1564,1564,1569,1560
72723399,1000,1000,1000,1000,77228263,1554,1554,1551,1558
72725898,1000,1000,1000,1000,77328223,1546,1545,1535,1557
72728397,1000,1000,1000,1000,77428183,1539,1538,1527,1550
72730896,1000,1000,1000,1000,77528976,1533,1532,1524,1540
72733395,1000,1000,1000,1000,77628936,1527,1527,1524,1530
72735894,1000,1000,1000,1000,77728896,1526,1526,1526,1525
72738393,1000,1000,1000,1000,77828856,1528,1528,1530,1525
72740892,1000,1000,1000,1000,77928816,1530,1530,1533,1527
72743391,1000,1000,1000,1000,78028776,1534,1534,1537,1530
72745890,1000,1000,1000,1000,78128736,1537,1538,1540,1535
72748389,1000,1000,1000,1000,78228696,1540,1541,1542,1539
72750888,1000,1000,1000,1000,78328656,1545,1545,1545,1545
72753387,1000,1000,1000,1000,78428616,1547,1547,1547,1548
72755886,1000,1000,1000,1000,78528576,1550,1550,1550,1552
72758385,1000,1000,1000,1000,78628536,1552,1552,1551,1554
72760884,1000,1000,1000,1000,78728496,1556,1556,1555,1557
72763383,1000,1000,1000,1000,78828456,1557,1556,1557,1559
72765882,1000,1000,1000,1000,78928416,1558,1557,1560,1561
72768381,1000,1000,1000,1000,79028376,1560,1559,1564,1564
72770880,1000,1000,1000,1000,79128336,1561,1561,1566,1566
72773379,1000,1000,1000,1000,79228296,1563,1564,1568,1567
72775878,1000,1000,1000,1000,79328256,1565,1565,1568,1568
72778377,1000,1000,1000,1000,79428216,1566,1567,1568,1568
72780876,1000,1000,1000,1000,79528176,1569,1569,1568,1569
72783375,1000,1000,1000,1000,79628969,1571,1571,1569,1569
72785874,1000,1000,1000,1000,79728929,1571,1570,1568,1568
72788373,1000,1000,1000,1000,79828889,1572,1572,1569,1569
72790872,1000,1000,1000,1000,79928849,1572,1572,1569,1569
72793371,1000,1000,1000,1000,80028809,1574,1574,1571,1571
72795870,1000,1000,1000,1000,80128769,1574,1575,1572,1571
72798369,1000,1000,1000,1000,80228729,1575,1575,1574,1572
72800868,1000,1000,1000,1000,80328689,1576,1576,1575,1573
72803367,1000,1000,1000,1000,80428649,1577,1577,1577,1575
72805866,1000,1000,1000,1000,80528609,1576,1577,1577,1576
72808365,1000,1000,1000,1000,80628569,1575,1576,1576,1576
72810864,1000,1000,1000,1000,80728529,1576,1576,1577,1577
72813363,1000,1000,1000,1000,80828489,1576,1575,1576,1576
72815862,1000,1000,1000,1000,80928449,1576,1575,1576,1577
72818361,1000,1000,1000,1000,81028409,1577,1576,1577,1577
72820860,1000,1000,1000,1000,81128369,1576,1577,1577,1577
72823359,1000,1000,1000,1000,81228329,1577,1577,1578,1577
72825858,1000,1000,1000,1000,81328289,1576,1576,1577,1577
72828357,1000,1000,1000,1000,81428249,1577,1577,1577,1577
72830856,1000,1000,1000,1000,81528209,1578,1577,1577,1578
72833355,1000,1000,1000,1000,81628169,1578,1578,1578,1578
72835854,1000,1000,1000,1000,81728962,1578,1578,1578,1578
72838353,1000,1000,1000,1000,81828922,1579,1578,1578,1578
72840852,1000,1000,1000,1000,81928882,1579,1579,1579,1579
72843351,1000,1000,1000,1000,82028842,1579,1579,1579,1578
72845850,1000,1000,1000,1000,82128802,1579,1579,1579,1579
72848349,1000,1000,1000,1000,82228762,1580,1580,1580,1580
72850848,1000,1000,1000,1000,82328722,1579,1580,1579,1580
72853347,1000,1000,1000,1000,82428682,1579,1579,1579,1579
72855846,1000,1000,1000,1000,82528642,1580,1580,1580,1580
72858345,1000,1000,1000,1000,82628602,1579,1580,1580,1580
72860844,1000,1000,1000,1000,82728562,1580,1580,1580,1580
72863343,1000,1000,1000,1000,82828522,1579,1579,1579,1579
72865842,1000,1000,1000,1000,82928482,1579,1580,1580,1580
72868341,1000,1000,1000,1000,83028442,1578,1578,1579,1578
72870840,1000,1000,1000,1000,83128402,1579,1578,1579,1579
72873339,1000,1000,1000,1000,83228362,1579,1580,1580,1580
72875838,1000,1000,1000,1000,83328322,1580,1580,1579,1580
72878337,1000,1000,1000,1000,83428282,1579,1579,1579,1579
72880836,1000,1000,1000,1000,83528242,1580,1580,1580,1580
72883335,1000,1000,1000,1000,83628202,1580,1580,1580,1580
72885834,1000,1000,1000,1000,83728162,1580,1580,1580,1580
72888333,1000,1000,1000,1000,83828955,1580,1580,1580,1580
72890832,1000,1000,1000,1000,83928915,1580,1580,1580,1580
72893331,1000,1000,1000,1000,84028875,1581,1580,1580,1580
72895830,1000,1000,1000,1000,84128835,1581,1581,1581,1581
72898329,1000,1000,1000,1000,84228795,1582,1582,1582,1582
72900828,1000,1000,1000,1000,84328755,1581,1581,1581,1581
72903327,1000,1000,1000,1000,84428715,1581,1581,1581,1581
72905826,1000,1000,1000,1000,84528675,1581,1581,1581,1581
72908325,1000,1000,1000,1000,84628635,1581,1581,1581,1581
72910824,1000,1000,1000,1000,84728595,1580,1580,1581,1580
72913323,1000,1000,1000,1000,84828555,1581,1581,1581,1581
72915822,1000,1000,1000,1000,84928515,1581,1581,1584,1577
72918321,1000,1000,1000,1000,85028475,1581,1583,1589,1574
72920820,1000,1000,1000,1000,85128435,1580,1582,1582,1574
72923319,1000,1000,1000,1000,85228395,1578,1581,1573,1574
72925818,1000,1000,1000,1000,85328355,1577,1580,1564,1571
72928317,1000,1000,1000,1000,85428315,1577,1579,1559,1566
72930816,1000,1000,1000,1000,85528275,1579,1578,1556,1561
72933315,1000,1000,1000,1000,85628235,1580,1578,1555,1557
72935814,1000,1000,1000,1000,85728195,1581,1579,1556,1555
72938313,1000,1000,1000,1000,85828155,1580,1579,1557,1555
72940812,1000,1000,1000,1000,85928948,1579,1579,1557,1555
72943311,1000,1000,1000,1000,86028908,1577,1578,1556,1554
72945810,1000,1000,1000,1000,86128868,1576,1577,1555,1554
72948309,1000,1000,1000,1000,86228828,1575,1576,1553,1553
72950808,1000,1000,1000,1000,86328788,1575,1577,1552,1553
72953307,1000,1000,1000,1000,86428748,1576,1578,1551,1551
72955806,1000,1000,1000,1000,86528708,1578,1580,1549,1549
72958305,1000,1000,1000,1000,86628668,1581,1582,1548,1547
72960804,1000,1000,1000,1000,86728628,1584,1584,1545,1545
72963303,1000,1000,1000,1000,86828588,1587,1588,1543,1542
72965802,1000,1000,1000,1000,86928548,1589,1590,1539,1539
72968301,1000,1000,1000,1000,87028508,1592,1593,1537,1537
72970800,1000,1000,1000,1000,87128468,1595,1595,1536,1536
72973299,1000,1000,1000,1000,87228428,1595,1594,1534,1535
72975798,1000,1000,1000,1000,87328388,1596,1595,1536,1538
72978297,1000,1000,1000,1000,87428348,1593,1593,1537,1540
72980796,1000,1000,1000,1000,87528308,1590,1589,1542,1545
72983295,1000,1000,1000,1000,87628268,1585,1583,1548,1552
72985794,1000,1000,1000,1000,87728228,1577,1574,1558,1561
72988293,1000,1000,1000,1000,87828188,1568,1564,1569,1571
72990792,1000,1000,1000,1000,87928981,1558,1554,1583,1584
72993291,1000,1000,1000,1000,88028941,1547,1544,1594,1595
72995790,1000,1000,1000,1000,88128901,1538,1536,1605,1605
72998289,1000,1000,1000,1000,88228861,1531,1531,1611,1610
73000788,1000,1000,1000,1000,88328821,1528,1529,1614,1613
73003287,1000,1000,1000,1000,88428781,1530,1532,1614,1614
73005786,1000,1000,1000,1000,88528741,1534,1537,1611,1610
73008285,1000,1000,1000,1000,88628701,1541,1544,1606,1605
73010784,1000,1000,1000,1000,88728661,1551,1552,1600,1599
73013283,1000,1000,1000,1000,88828621,1560,1561,1592,1592
73015782,1000,1000,1000,1000,88928581,1567,1567,1584,1583
73018281,1000,1000,1000,1000,89028541,1575,1574,1577,1577
73020780,1000,1000,1000,1000,89128501,1581,1580,1571,1571
73023279,1000,1000,1000,1000,89228461,1585,1584,1568,1568
73025778,1000,1000,1000,1000,89328421,1587,1585,1566,1566
73028277,1000,1000,1000,1000,89428381,1588,1586,1566,1566
73030776,1000,1000,1000,1000,89528341,1586,1585,1567,1567
73033275,1000,1000,1000,1000,89628301,1585,1584,1570,1570
73035774,1000,1000,1000,1000,89728261,1581,1581,1572,1572
73038273,1000,1000,1000,1000,89828221,1579,1579,1576,1576
73040772,1000,1000,1000,1000,89928181,1577,1577,1579,1579
73043271,1000,1000,1000,1000,90028974,1574,1575,1581,1580
73045770,1000,1000,1000,1000,90128934,1573,1573,1582,1582
73048269,1000,1000,1000,1000,90228894,1572,1572,1583,1582
73050768,1000,1000,1000,1000,90328854,1572,1573,1584,1584
73053267,1000,1000,1000,1000,90428814,1573,1573,1584,1584
73055766,1000,1000,1000,1000,90528774,1573,1574,1582,1582
73058265,1000,1000,1000,1000,90628734,1574,1575,1581,1582
73060764,1000,1000,1000,1000,90728694,1576,1576,1579,1580
73063263,1000,1000,1000,1000,90828654,1578,1578,1579,1579
73065762,1000,1000,1000,1000,90928614,1578,1578,1577,1577
73068261,1000,1000,1000,1000,91028574,1580,1579,1577,1577
73070760,1000,1000,1000,1000,91128534,1581,1580,1577,1577
73073259,1000,1000,1000,1000,91228494,1581,1581,1577,1577
73075758,1000,1000,1000,1000,91328454,1581,1581,1577,1577
73078257,1000,1000,1000,1000,91428414,1581,1581,1577,1577
73080756,1000,1000,1000,1000,91528374,1581,1581,1578,1578
73083255,1000,1000,1000,1000,91628334,1580,1580,1578,1578
73085754,1000,1000,1000,1000,91728294,1581,1580,1580,1579
73088253,1000,1000,1000,1000,91828254,1580,1580,1580,1580
73090752,1000,1000,1000,1000,91928214,1580,1580,1581,1581
73093251,1000,1000,1000,1000,92028174,1581,1581,1582,1583
73095750,1000,1000,1000,1000,92128967,1580,1580,1582,1582
73098249,1000,1000,1000,1000,92228927,1580,1580,1582,1582
73100748,1000,1000,1000,1000,92328887,1580,1580,1582,1582
73103247,1000,1000,1000,1000,92428847,1580,1581,1582,1582
73105746,1000,1000,1000,1000,92528807,1580,1580,1581,1581
73108245,1000,1000,1000,1000,92628767,1580,1580,1581,1581
73110744,1000,1000,1000,1000,92728727,1581,1581,1581,1581
73113243,1000,1000,1000,1000,92828687,1580,1580,1580,1580
73115742,1000,1000,1000,1000,92928647,1580,1581,1583,1576
73118241,1000,1000,1000,1000,93028607,1580,1583,1585,1570
73120740,1000,1000,1000,1000,93128567,1580,1583,1578,1570
73123239,1000,1000,1000,1000,93228527,1579,1583,1569,1570
73125738,1000,1000,1000,1000,93328487,1579,1581,1561,1567
73128237,1000,1000,1000,1000,93428447,1580,1581,1556,1563
73130736,1000,1000,1000,1000,93528407,1581,1580,1553,1558
73133235,1000,1000,1000,1000,93628367,1582,1580,1553,1555
73135734,1000,1000,1000,1000,93728327,1582,1580,1554,1552
73138233,1000,1000,1000,1000,93828287,1581,1580,1554,1551
73140732,1000,1000,1000,1000,93928247,1580,1580,1555,1553
73143231,1000,1000,1000,1000,94028207,1579,1580,1556,1554
73145730,1000,1000,1000,1000,94128167,1577,1579,1555,1554
73148229,1000,1000,1000,1000,94228960,1576,1578,1553,1553
73150728,1000,1000,1000,1000,94328920,1577,1578,1553,1553
73153227,1000,1000,1000,1000,94428880,1578,1579,1551,1552
73155726,1000,1000,1000,1000,94528840,1579,1580,1549,1550
73158225,1000,1000,1000,1000,94628800,1581,1582,1548,1548
73160724,1000,1000,1000,1000,94728760,1583,1583,1545,1545
73163223,1000,1000,1000,1000,94828720,1585,1586,1544,1544
73165722,1000,1000,1000,1000,94928680,1588,1588,1543,1543
73168221,1000,1000,1000,1000,95028640,1589,1591,1541,1541
73170720,1000,1000,1000,1000,95128600,1591,1593,1540,1541
73173219,1000,1000,1000,1000,95228560,1592,1593,1539,1541
73175718,1000,1000,1000,1000,95328520,1592,1591,1542,1545
73178217,1000,1000,1000,1000,95428480,1589,1587,1546,1549
73180716,1000,1000,1000,1000,95528440,1585,1581,1554,1556
73183215,1000,1000,1000,1000,95628400,1577,1574,1564,1565
73185714,1000,1000,1000,1000,95728360,1568,1564,1574,1576
73188213,1000,1000,1000,1000,95828320,1559,1556,1586,1586
73190712,1000,1000,1000,1000,95928280,1550,1548,1596,1595
73193211,1000,1000,1000,1000,96028240,1541,1541,1602,1602
73195710,1000,1000,1000,1000,96128200,1537,1538,1608,1608
73198209,1000,1000,1000,1000,96228160,1537,1539,1611,1610
73200708,1000,1000,1000,1000,96328953,1538,1539,1609,1608
73203207,1000,1000,1000,1000,96428913,1543,1545,1607,1606
73205706,1000,1000,1000,1000,96528873,1550,1551,1603,1601
73208205,1000,1000,1000,1000,96628833,1557,1558,1596,1596
73210704,1000,1000,1000,1000,96728793,1564,1564,1589,1588
73213203,1000,1000,1000,1000,96828753,1571,1571,1582,1582
73215702,1000,1000,1000,1000,96928713,1576,1574,1576,1576
73218201,1000,1000,1000,1000,97028673,1581,1580,1572,1573
73220700,1000,1000,1000,1000,97128633,1584,1583,1569,1570
73223199,1000,1000,1000,1000,97228593,1586,1585,1569,1569
73225698,1000,1000,1000,1000,97328553,1587,1585,1570,1569
73228197,1000,1000,1000,1000,97428513,1586,1585,1571,1571
73230696,1000,1000,1000,1000,97528473,1583,1582,1573,1572
73233195,1000,1000,1000,1000,97628433,1580,1580,1574,1575
73235694,1000,1000,1000,1000,97728393,1578,1578,1577,1577
73238193,1000,1000,1000,1000,97828353,1576,1577,1580,1580
73240692,1000,1000,1000,1000,97928313,1574,1575,1581,1581
73243191,1000,1000,1000,1000,98028273,1573,1574,1582,1582
73245690,1000,1000,1000,1000,98128233,1573,1573,1583,1583
73248189,1000,1000,1000,1000,98228193,1573,1573,1583,1583
73250688,1000,1000,1000,1000,98328986,1574,1574,1583,1583
73253187,1000,1000,1000,1000,98428946,1576,1576,1583,1583
73255686,1000,1000,1000,1000,98528906,1577,1577,1582,1582
73258185,1000,1000,1000,1000,98628866,1578,1578,1581,1581
73260684,1000,1000,1000,1000,98728826,1579,1579,1580,1579
73263183,1000,1000,1000,1000,98828786,1581,1581,1580,1580
73265682,1000,1000,1000,1000,98928746,1581,1581,1579,1579
73268181,1000,1000,1000,1000,99028706,1581,1581,1578,1578
73270680,1000,1000,1000,1000,99128666,1581,1581,1577,1578
73273179,1000,1000,1000,1000,99228626,1582,1581,1578,1578
73275678,1000,1000,1000,1000,99328586,1581,1581,1578,1578
73278177,1000,1000,1000,1000,99428546,1581,1581,1579,1579
73280676,1000,1000,1000,1000,99528506,1581,1581,1580,1579
73283175,1000,1000,1000,1000,99628466,1580,1581,1580,1580
73285674,1000,1000,1000,1000,99728426,1581,1581,1581,1581
73288173,1000,1000,1000,1000,99828386,1579,1579,1580,1580
73290672,1000,1000,1000,1000,99928346,1580,1580,1581,1582
73293171,1000,1000,1000,1000,100028306,1579,1580,1581,1581
73295670,1000,1000,1000,1000,100128266,1579,1579,1581,1581
73298169,1000,1000,1000,1000,100228226,1579,1579,1580,1581
73300668,1000,1000,1000,1000,100328186,1580,1580,1581,1581
73303167,1000,1000,1000,1000,100428979,1580,1580,1581,1581
73305666,1000,1000,1000,1000,100528939,1581,1581,1581,1581
73308165,1000,1000,1000,1000,100628899,1581,1581,1581,1581
73310664,1000,1000,1000,1000,100728859,1581,1581,1581,1580
73313163,1000,1000,1000,1000,100828819,1581,1581,1581,1581
73315662,1000,1000,1000,1000,100928779,1582,1582,1582,1581
73318161,1000,1000,1000,1000,101028739,1581,1582,1582,1579
73320660,1000,1000,1000,1000,101128699,1580,1582,1587,1572
73323159,1000,1000,1000,1000,101228659,1579,1582,1581,1571
73325658,1000,1000,1000,1000,101328619,1579,1582,1573,1572
73328157,1000,1000,1000,1000,101428579,1578,1580,1564,1569
73330656,1000,1000,1000,1000,101528539,1577,1579,1558,1565
73333155,1000,1000,1000,1000,101628499,1579,1579,1555,1561
73335654,1000,1000,1000,1000,101728459,1579,1579,1554,1557
73338986,1000,1000,1000,1000,101828419,1581,1579,1555,1554
73341485,1000,1000,1000,1000,101928379,1579,1579,1555,1553
73343984,1000,1000,1000,1000,102028339,1579,1579,1556,1553
73346483,1000,1000,1000,1000,102128299,1577,1578,1555,1553
73348982,1000,1000,1000,1000,102228259,1576,1577,1555,1554
73351481,1000,1000,1000,1000,102328219,1574,1576,1553,1553
73353980,1000,1000,1000,1000,102428179,1575,1577,1553,1553
73356479,1000,1000,1000,1000,102528972,1576,1577,1552,1552
73358978,1000,1000,1000,1000,102628932,1578,1579,1550,1550
73361477,1000,1000,1000,1000,102728892,1580,1581,1549,1548
73363976,1000,1000,1000,1000,102828852,1582,1584,1547,1546
73366475,1000,1000,1000,1000,102928812,1584,1585,1544,1544
73368974,1000,1000,1000,1000,103028772,1587,1588,1541,1542
73371473,1000,1000,1000,1000,103128732,1589,1589,1539,1539
73373972,1000,1000,1000,1000,103228692,1591,1591,1538,1538
73376471,1000,1000,1000,1000,103328652,1593,1593,1538,1539
73378970,1000,1000,1000,1000,103428612,1593,1593,1537,1539
73381469,1000,1000,1000,1000,103528572,1593,1592,1539,1542
73383968,1000,1000,1000,1000,103628532,1591,1589,1545,1547
73386467,1000,1000,1000,1000,103728492,1586,1583,1551,1554
73388966,1000,1000,1000,1000,103828452,1579,1575,1561,1563
73391465,1000,1000,1000,1000,103928412,1569,1565,1571,1573
73393964,1000,1000,1000,1000,104028372,1558,1555,1582,1584
73396463,1000,1000,1000,1000,104128332,1549,1546,1594,1594
73398962,1000,1000,1000,1000,104228292,1542,1541,1604,1603
73401461,1000,1000,1000,1000,104328252,1536,1536,1610,1609
73403960,1000,1000,1000,1000,104428212,1534,1536,1613,1612
73406459,1000,1000,1000,1000,104528172,1535,1537,1613,1612
73408958,1000,1000,1000,1000,104628965,1539,1541,1609,1609
73411457,1000,1000,1000,1000,104728925,1545,1547,1604,1604
73413956,1000,1000,1000,1000,104828885,1553,1554,1598,1597
73416455,1000,1000,1000,1000,104928845,1561,1562,1591,1590
73418954,1000,1000,1000,1000,105028805,1569,1569,1585,1584
73421453,1000,1000,1000,1000,105128765,1576,1575,1578,1578
73423952,1000,1000,1000,1000,105228725,1582,1581,1574,1574
73426451,1000,1000,1000,1000,105328685,1585,1584,1570,1570
73428950,1000,1000,1000,1000,105428645,1586,1585,1568,1568
73431449,1000,1000,1000,1000,105528605,1587,1586,1568,1568
73433948,1000,1000,1000,1000,105628565,1586,1586,1570,1570
73436447,1000,1000,1000,1000,105728525,1583,1582,1570,1570
73438946,1000,1000,1000,1000,105828485,1582,1581,1573,1574
73441445,1000,1000,1000,1000,105928445,1578,1578,1575,1575
73443944,1000,1000,1000,1000,106028405,1576,1577,1578,1578
73446443,1000,1000,1000,1000,106128365,1574,1575,1580,1580
73448942,1000,1000,1000,1000,106228325,1572,1573,1581,1581
73451441,1000,1000,1000,1000,106328285,1571,1572,1582,1582
73453940,1000,1000,1000,1000,106428245,1573,1573,1584,1583
73456439,1000,1000,1000,1000,106528205,1572,1573,1582,1582
73458938,1000,1000,1000,1000,106628165,1574,1575,1582,1582
73461437,1000,1000,1000,1000,106728958,1575,1576,1582,1582
73463936,1000,1000,1000,1000,106828918,1576,1577,1580,1580
73466435,1000,1000,1000,1000,106928878,1577,1577,1578,1579
73468934,1000,1000,1000,1000,107028838,1579,1579,1578,1578
73471433,1000,1000,1000,1000,107128798,1581,1580,1578,1578
73473932,1000,1000,1000,1000,107228758,1581,1581,1578,1578
73476431,1000,1000,1000,1000,107328718,1582,1581,1578,1577
73478930,1000,1000,1000,1000,107428678,1582,1582,1579,1578
73481429,1000,1000,1000,1000,107528638,1582,1581,1578,1578
73483928,1000,1000,1000,1000,107628598,1580,1580,1577,1577
73486427,1000,1000,1000,1000,107728558,1580,1580,1578,1578
73488926,1000,1000,1000,1000,107828518,1580,1580,1580,1579
73491425,1000,1000,1000,1000,107928478,1580,1580,1580,1580
73493924,1000,1000,1000,1000,108028438,1579,1580,1580,1581
73496423,1000,1000,1000,1000,108128398,1580,1580,1582,1581
73498922,1000,1000,1000,1000,108228358,1580,1580,1582,1582
73501421,1000,1000,1000,1000,108328318,1581,1581,1582,1583
73503920,1000,1000,1000,1000,108428278,1580,1580,1582,1582
73506419,1000,1000,1000,1000,108528238,1581,1580,1582,1582
73508918,1000,1000,1000,1000,108628198,1581,1581,1582,1582
73511417,1000,1000,1000,1000,108728158,1580,1580,1580,1580
73513916,1000,1000,1000,1000,108828951,1580,1580,1580,1580
73516415,1000,1000,1000,1000,108928911,1581,1582,1581,1580
73518914,1000,1000,1000,1000,109028871,1580,1582,1587,1572
73521413,1000,1000,1000,1000,109128831,1581,1582,1586,1573
73523912,1000,1000,1000,1000,109228791,1578,1578,1577,1574
73526411,1000,1000,1000,1000,109328751,1574,1574,1569,1575
73528910,1000,1000,1000,1000,109428711,1572,1571,1566,1574
73531409,1000,1000,1000,1000,109528671,1569,1569,1565,1572
73533908,1000,1000,1000,1000,109628631,1568,1568,1566,1569
73536407,1000,1000,1000,1000,109728591,1567,1567,1567,1567
73538906,1000,1000,1000,1000,109828551,1567,1567,1568,1566
73541405,1000,1000,1000,1000,109928511,1566,1566,1568,1565
73543904,1000,1000,1000,1000,110028471,1564,1564,1566,1564
73546403,1000,1000,1000,1000,110128431,1564,1563,1565,1564
73548902,1000,1000,1000,1000,110228391,1564,1563,1565,1564
73551401,1000,1000,1000,1000,110328351,1563,1563,1564,1564
73553900,1000,1000,1000,1000,110428311,1562,1562,1562,1563
73556399,1000,1000,1000,1000,110528271,1561,1561,1561,1562
73558898,1000,1000,1000,1000,110628231,1561,1562,1562,1561
73561397,1000,1000,1000,1000,110728191,1561,1561,1561,1561
73563896,1000,1000,1000,1000,110828984,1561,1561,1561,1560
73566395,1000,1000,1000,1000,110928944,1560,1559,1560,1559
73568894,1000,1000,1000,1000,111028904,1559,1558,1559,1558
73571393,1000,1000,1000,1000,111128864,1557,1557,1558,1557
73573892,1000,1000,1000,1000,111228824,1557,1558,1558,1557
73576391,1000,1000,1000,1000,111328784,1557,1556,1557,1555
73578890,1000,1000,1000,1000,111428744,1557,1557,1557,1556
73581389,1000,1000,1000,1000,111528704,1557,1557,1557,1556
73583888,1000,1000,1000,1000,111628664,1557,1558,1559,1556
73586387,1000,1000,1000,1000,111728624,1558,1558,1559,1557
73588886,1000,1000,1000,1000,111828584,1559,1559,1558,1559
73591385,1000,1000,1000,1000,111928544,1559,1559,1556,1562
73593884,1000,1000,1000,1000,112028504,1560,1561,1557,1563
73596383,1000,1000,1000,1000,112128464,1561,1561,1558,1564
73598882,1000,1000,1000,1000,112228424,1562,1562,1560,1563
73601381,1000,1000,1000,1000,112328384,1562,1561,1561,1562
73603880,1000,1000,1000,1000,112428344,1562,1562,1563,1560
73606379,1000,1000,1000,1000,112528304,1560,1560,1562,1558
73608878,1000,1000,1000,1000,112628264,1561,1561,1560,1562
73611377,1000,1000,1000,1000,112728224,1558,1558,1555,1562
73613876,1000,1000,1000,1000,112828184,1554,1554,1552,1556
73616375,1000,1000,1000,1000,112928977,1548,1548,1547,1549
73618874,1000,1000,1000,1000,113028937,1541,1541,1541,1541
73621373,1000,1000,1000,1000,113128897,1534,1534,1535,1533
73623872,1000,1000,1000,1000,113228857,1527,1527,1528,1526
73626371,1000,1000,1000,1000,113328817,1520,1520,1521,1520
73628870,1000,1000,1000,1000,113428777,1519,1519,1519,1519
73631369,1000,1000,1000,1000,113528737,1519,1519,1519,1520
73633868,1000,1000,1000,1000,113628697,1520,1520,1520,1521
73636367,1000,1000,1000,1000,113728657,1524,1524,1523,1524
73638866,1000,1000,1000,1000,113828617,1528,1528,1528,1528
73641365,1000,1000,1000,1000,113928577,1533,1533,1533,1533
73643864,1000,1000,1000,1000,114028537,1537,1537,1537,1537
73646363,1000,1000,1000,1000,114128497,1539,1539,1539,1539
73648862,1000,1000,1000,1000,114228457,1542,1542,1542,1542
73651361,1000,1000,1000,1000,114328417,1544,1543,1544,1544
73653860,1000,1000,1000,1000,114428377,1545,1545,1546,1545
73656359,1000,1000,1000,1000,114528337,1546,1545,1545,1545
73658858,1000,1000,1000,1000,114628297,1546,1547,1547,1546
73661357,1000,1000,1000,1000,114728257,1547,1546,1547,1546
73663856,1000,1000,1000,1000,114828217,1546,1547,1547,1546
73666355,1000,1000,1000,1000,114928177,1546,1546,1546,1546
73668854,1000,1000,1000,1000,115028970,1546,1546,1546,1546
73671353,1000,1000,1000,1000,115128930,1546,1546,1545,1546
73673852,1000,1000,1000,1000,115228890,1545,1545,1545,1545
73676351,1000,1000,1000,1000,115328850,1546,1546,1546,1545
73678850,1000,1000,1000,1000,115428810,1545,1545,1545,1545
73681349,1000,1000,1000,1000,115528770,1545,1545,1545,1545
73683848,1000,1000,1000,1000,115628730,1544,1545,1545,1544
73686347,1000,1000,1000,1000,115728690,1544,1545,1544,1544
73688846,1000,1000,1000,1000,115828650,1544,1544,1544,1544
73691345,1000,1000,1000,1000,115928610,1543,1543,1543,1543
73693844,1000,1000,1000,1000,116028570,1545,1544,1545,1544
73696343,1000,1000,1000,1000,116128530,1544,1543,1543,1543
73698842,1000,1000,1000,1000,116228490,1544,1544,1544,1544
73701341,1000,1000,1000,1000,116328450,1544,1544,1544,1544
73703840,1000,1000,1000,1000,116428410,1544,1545,1544,1544
73706339,1000,1000,1000,1000,116528370,1544,1544,1544,1544
73708838,1000,1000,1000,1000,116628330,1544,1543,1543,1543
73711337,1000,1000,1000,1000,116728290,1544,1544,1544,1544
73713836,1000,1000,1000,1000,116828250,1544,1544,1544,1544
73716335,1000,1000,1000,1000,116928210,1545,1545,1545,1545
73718834,1000,1000,1000,1000,117028170,1544,1544,1544,1544
73721333,1000,1000,1000,1000,117128963,1544,1543,1544,1543
73723832,1000,1000,1000,1000,117228923,1544,1544,1544,1544
73726331,1000,1000,1000,1000,117328883,1544,1544,1544,1544
73728830,1000,1000,1000,1000,117428843,1543,1543,1543,1543
73731329,1000,1000,1000,1000,117528803,1544,1544,1544,1544
73733828,1000,1000,1000,1000,117628763,1544,1544,1545,1544
73736327,1000,1000,1000,1000,117728723,1544,1544,1544,1544
73738826,1000,1000,1000,1000,117828683,1544,1544,1543,1544
73741325,1000,1000,1000,1000,117928643,1544,1544,1544,1544
73743824,1000,1000,1000,1000,118028603,1545,1544,1544,1545
73746323,1000,1000,1000,1000,118128563,1544,1544,1544,1544
73748822,1000,1000,1000,1000,118228523,1544,1544,1545,1545
73751321,1000,1000,1000,1000,118328483,1543,1543,1544,1543
73753820,1000,1000,1000,1000,118428443,1544,1544,1544,1543
73756319,1000,1000,1000,1000,118528403,1545,1544,1544,1544
73758818,1000,1000,1000,1000,118628363,1545,1545,1545,1545
73761317,1000,1000,1000,1000,118728323,1546,1545,1545,1545
73763816,1000,1000,1000,1000,118828283,1544,1545,1544,1544
73766315,1000,1000,1000,1000,118928243,1545,1544,1545,1545
73768814,1000,1000,1000,1000,119028203,1545,1545,1545,1545
73771313,1000,1000,1000,1000,119128163,1545,1545,1545,1545
73773812,1000,1000,1000,1000,119228956,1545,1545,1545,1544
73776311,1000,1000,1000,1000,119328916,1545,1545,1545,1545
73778810,1000,1000,1000,1000,119428876,1544,1545,1544,1544
73781309,1000,1000,1000,1000,119528836,1543,1543,1543,1544
73783808,1000,1000,1000,1000,119628796,1544,1544,1543,1544
73786307,1000,1000,1000,1000,119728756,1545,1544,1544,1545
73788806,1000,1000,1000,1000,119828716,1543,1543,1544,1543
73791305,1000,1000,1000,1000,119928676,1545,1544,1544,1545
73793804,1000,1000,1000,1000,120028636,1544,1545,1545,1544
73796303,1000,1000,1000,1000,120128596,1545,1544,1545,1545
73798802,1000,1000,1000,1000,120228556,1545,1545,1545,1545
73801301,1000,1000,1000,1000,120328516,1544,1543,1543,1544
73803800,1000,1000,1000,1000,120428476,1544,1544,1544,1544
73806299,1000,1000,1000,1000,120528436,1544,1545,1544,1544
73808798,1000,1000,1000,1000,120628396,1544,1543,1543,1543
73811297,1000,1000,1000,1000,120728356,1544,1543,1543,1544
73813796,1000,1000,1000,1000,120828316,1543,1543,1543,1543
73816295,1000,1000,1000,1000,120928276,1543,1543,1543,1543
73818794,1000,1000,1000,1000,121028236,1544,1544,1544,1544
73821293,1000,1000,1000,1000,121128196,1544,1543,1544,1544
73823792,1000,1000,1000,1000,121228156,1544,1545,1544,1545
73826291,1000,1000,1000,1000,121328949,1544,1545,1544,1545
73828790,1000,1000,1000,1000,121428909,1544,1544,1544,1544
73831289,1000,1000,1000,1000,121528869,1544,1544,1544,1544
73833788,1000,1000,1000,1000,121628829,1544,1544,1544,1544
73836287,1000,1000,1000,1000,121728789,1545,1545,1545,1545
73838786,1000,1000,1000,1000,121828749,1544,1544,1545,1544
73841285,1000,1000,1000,1000,121928709,1545,1544,1544,1544
73843784,1000,1000,1000,1000,122028669,1544,1544,1544,1544
73846283,1000,1000,1000,1000,122128629,1545,1544,1544,1545
73848782,1000,1000,1000,1000,122228589,1544,1545,1545,1544
73851281,1000,1000,1000,1000,122328549,1544,1544,1544,1544
73853780,1000,1000,1000,1000,122428509,1545,1545,1545,1545
73856279,1000,1000,1000,1000,122528469,1544,1544,1543,1544
73858778,1000,1000,1000,1000,122628429,1543,1543,1543,1543
73861277,1000,1000,1000,1000,122728389,1544,1544,1544,1544
73863776,1000,1000,1000,1000,122828349,1544,1544,1544,1544
73866275,1000,1000,1000,1000,122928309,1544,1544,1544,1544
73868774,1000,1000,1000,1000,123028269,1519,1520,1520,1518
73871273,1000,1000,1000,1000,123128229,1331,1333,1334,1330
73873772,1000,1000,1000,1000,123228189,1238,1242,1243,1237
73876271,1000,1000,1000,1000,123328982,1211,1213,1215,1210
73878770,1000,1000,1000,1000,123428942,1190,1193,1194,1189
73881269,1000,1000,1000,1000,123528902,1150,1152,1154,1150
73883768,1000,1000,1000,1000,123628862,1150,1154,1156,1150
73886267,1000,1000,1000,1000,123728822,1156,1150,1151,1155
73888766,1000,1000,1000,1000,123828782,1186,1150,1150,1187
73891265,1000,1000,1000,1000,123928742,1174,1150,1151,1174
73893764,1000,1000,1000,1000,124028702,1171,1150,1151,1171
73896263,1000,1000,1000,1000,124128662,1173,1150,1151,1173
73898762,1000,1000,1000,1000,124228622,1174,1150,1151,1174
73901261,1000,1000,1000,1000,124328582,1177,1150,1151,1177
73903760,1000,1000,1000,1000,124428542,1179,1150,1152,1179
73906259,1000,1000,1000,1000,124528502,1150,1151,1153,1150
73908758,1000,1000,1000,1000,124628462,1166,1150,1151,1166
73911257,1000,1000,1000,1000,124728422,1167,1150,1152,1167
73913756,1000,1000,1000,1000,124828382,1168,1150,1152,1168
73916255,1000,1000,1000,1000,124928342,1169,1150,1152,1169
73918754,1000,1000,1000,1000,125028302,1147,1147,1147,1147
73921253,1000,1000,1000,1000,125128262,1000,1000,1000,1000
73923752,1000,1000,1000,1000,125228222,1000,1000,1000,1000
73926251,1000,1000,1000,1000,125328182,1000,1000,1000,1000
73928750,1000,1000,1000,1000,125428975,1000,1000,1000,1000
73931249,1000,1000,1000,1000,125528935,1000,1000,1000,1000
73933748,1000,1000,1000,1000,125628895,1000,1000,1000,1000
73936247,1000,1000,1000,1000,125728855,1000,1000,1000,1000
73938746,1000,1000,1000,1000,125828815,1000,1000,1000,1000
73941245,1000,1000,1000,1000,125928775,1000,1000,1000,1000
73943744,1000,1000,1000,1000,126028735,1000,1000,1000,1000
73946243,1000,1000,1000,1000,126128695,1000,1000,1000,1000
73948742,1000,1000,1000,1000,126228655,1000,1000,1000,1000
73951241,1000,1000,1000,1000,126328615,1000,1000,1000,1000
73953740,1000,1000,1000,1000,126428575,1000,1000,1000,1000
73956239,1000,1000,1000,1000,126528535,1000,1000,1000,1000
73958738,1000,1000,1000,1000,126628495,1000,1000,1000,1000
73961237,1000,1000,1000,1000,126728455,1000,1000,1000,1000
73963736,1000,1000,1000,1000,126828415,1000,1000,1000,1000
73966235,1000,1000,1000,1000,126928375,1000,1000,1000,1000
73968734,1000,1000,1000,1000,127028335,1000,1000,1000,1000
73971233,1000,1000,1000,1000,127128295,1000,1000,1000,1000
73973732,1000,1000,1000,1000,127228255,1000,1000,1000,1000
73976231,1000,1000,1000,1000,127328215,1000,1000,1000,1000
73978730,1000,1000,1000,1000,127428175,1000,1000,1000,1000
73981229,1000,1000,1000,1000,127528968,1000,1000,1000,1000
73983728,1000,1000,1000,1000,127628928,1000,1000,1000,1000
73986227,1000,1000,1000,1000,127728888,1000,1000,1000,1000
73988726,1000,1000,1000,1000,127828848,1000,1000,1000,1000
73991225,1000,1000,1000,1000,127928808,1000,1000,1000,1000
73993724,1000,1000,1000,1000,128028768,1000,1000,1000,1000
73996223,1000,1000,1000,1000,128128728,1000,1000,1000,1000
73998722,1000,1000,1000,1000,128228688,1000,1000,1000,1000
74001221,1000,1000,1000,1000,128328648,1000,1000,1000,1000
74003720,1000,1000,1000,1000,128428608,1000,1000,1000,1000
74006219,1000,1000,1000,1000,128528568,1000,1000,1000,1000
74008718,1000,1000,1000,1000,128628528,1000,1000,1000,1000
74011217,1000,1000,1000,1000,128728488,1000,1000,1000,1000
74013716,1000,1000,1000,1000,128828448,1000,1000,1000,1000
74016215,1000,1000,1000,1000,128928408,1000,1000,1000,1000
74018714,1000,1000,1000,1000,129028368,1000,1000,1000,1000
74021213,1000,1000,1000,1000,129128328,1000,1000,1000,1000
74023712,1000,1000,1000,1000,129228288,1000,1000,1000,1000
74026211,1000,1000,1000,1000,129328248,1000,1000,1000,1000
74028710,1000,1000,1000,1000,129428208,1000,1000,1000,1000
74031209,1000,1000,1000,1000,129528168,1000,1000,1000,1000
74033708,1000,1000,1000,1000,129628961,1000,1000,1000,1000
74036207,1000,1000,1000,1000,129728921,1000,1000,1000,1000
74038706,1000,1000,1000,1000,129828881,1000,1000,1000,1000
74041205,1000,1000,1000,1000,129928841,1000,1000,1000,1000
74043704,1000,1000,1000,1000,130028801,1000,1000,1000,1000
74046203,1000,1000,1000,1000,130128761,1000,1000,1000,1000
74048702,1000,1000,1000,1000,130228721,1000,1000,1000,1000
74051201,1000,1000,1000,1000,130328681,1000,1000,1000,1000
74053700,1000,1000,1000,1000,130428641,1000,1000,1000,1000
74056199,1000,1000,1000,1000,130528601,1000,1000,1000,1000
74058698,1000,1000,1000,1000,130628561,1000,1000,1000,1000
74061197,1000,1000,1000,1000,130728521,1000,1000,1000,1000
74063696,1000,1000,1000,1000,130828481,1000,1000,1000,1000
74066195,1000,1000,1000,1000,130928441,1000,1000,1000,1000
74068694,1000,1000,1000,1000,131028401,1000,1000,1000,1000
74071193,1000,1000,1000,1000,131128361,1000,1000,1000,1000
74073692,1000,1000,1000,1000,131228321,1000,1000,1000,1000
74076191,1000,1000,1000,1000,131328281,1000,1000,1000,1000
74078690,1000,1000,1000,1000,131428241,1000,1000,1000,1000
74081189,1000,1000,1000,1000,131528201,1000,1000,1000,1000
74083688,1000,1000,1000,1000,131628161,1000,1000,1000,1000
74086187,1000,1000,1000,1000,131728954,1000,1000,1000,1000
74088686,1000,1000,1000,1000,131828914,1000,1000,1000,1000
74091185,1000,1000,1000,1000,131928874,1000,1000,1000,1000
74093684,1000,1000,1000,1000,132028834,1000,1000,1000,1000
74096183,1000,1000,1000,1000,132128794,1000,1000,1000,1000
74098682,1000,1000,1000,1000,132228754,1000,1000,1000,1000
74101181,1000,1000,1000,1000,132328714,1000,1000,1000,1000
74103680,1000,1000,1000,1000,132428674,1000,1000,1000,1000
74106179,1000,1000,1000,1000,132528634,1000,1000,1000,1000
74108678,1000,1000,1000,1000,132628594,1000,1000,1000,1000
74111177,1000,1000,1000,1000,132728554,1000,1000,1000,1000
74113676,1000,1000,1000,1000,132828514,1000,1000,1000,1000
74116175,1000,1000,1000,1000,132928474,1000,1000,1000,1000
74118674,1000,1000,1000,1000,133028434,1000,1000,1000,1000
74121173,1000,1000,1000,1000,133128394,1000,1000,1000,1000
74123672,1000,1000,1000,1000,133228354,1000,1000,1000,1000
74126171,1000,1000,1000,1000,133328314,1000,1000,1000,1000
74128670,1000,1000,1000,1000,133428274,1000,1000,1000,1000
74131169,1000,1000,1000,1000,133528234,1000,1000,1000,1000
74133668,1000,1000,1000,1000,133628194,1000,1000,1000,1000
74136167,1000,1000,1000,1000,133728154,1000,1000,1000,1000
74138666,1000,1000,1000,1000,133828947,1000,1000,1000,1000
74141165,1000,1000,1000,1000,133928907,1000,1000,1000,1000
74143664,1000,1000,1000,1000,134028867,1000,1000,1000,1000
74146163,1000,1000,1000,1000,134128827,1000,1000,1000,1000
74148662,1000,1000,1000,1000,134228787,1000,1000,1000,1000
74151161,1000,1000,1000,1000,134328747,1000,1000,1000,1000
74153660,1000,1000,1000,1000,134428707,1000,1000,1000,1000
74156159,1000,1000,1000,1000,134528667,1000,1000,1000,1000
74158658,1000,1000,1000,1000,134628627,1000,1000,1000,1000
74161157,1000,1000,1000,1000,134728587,1000,1000,1000,1000
74163656,1000,1000,1000,1000,134828547,1000,1000,1000,1000
74166155,1000,1000,1000,1000,134928507,1000,1000,1000,1000
74168654,1000,1000,1000,1000,135028467,1000,1000,1000,1000
74171153,1000,1000,1000,1000,135128427,1000,1000,1000,1000
74173652,1000,1000,1000,1000,135228387,1000,1000,1000,1000
74176151,1000,1000,1000,1000,135328347,1000,1000,1000,1000
74178650,1000,1000,1000,1000,135428307,1000,1000,1000,1000
74181149,1000,1000,1000,1000,135528267,1000,1000,1000,1000
74183648,1000,1000,1000,1000,135628227,1000,1000,1000,1000
74186147,1000,1000,1000,1000,135728187,1000,1000,1000,1000
74188646,1000,1000,1000,1000,135828980,1000,1000,1000,1000
74191145,1000,1000,1000,1000,135928940,1000,1000,1000,1000
74193644,1000,1000,1000,1000,136028900,1000,1000,1000,1000
74196143,1000,1000,1000,1000,136128860,1000,1000,1000,1000
74198642,1000,1000,1000,1000,136228820,1000,1000,1000,1000
74201141,1000,1000,1000,1000,136328780,1000,1000,1000,1000
74203640,1000,1000,1000,1000,136428740,1000,1000,1000,1000
74206139,1000,1000,1000,1000,136528700,1000,1000,1000,1000
74208638,1000,1000,1000,1000,136628660,1000,1000,1000,1000
74211137,1000,1000,1000,1000,136728620,1000,1000,1000,1000
74213636,1000,1000,1000,1000,136828580,1000,1000,1000,1000
74216135,1000,1000,1000,1000,136928540,1000,1000,1000,1000
74218634,1000,1000,1000,1000,137028500,1000,1000,1000,1000
74221133,1000,1000,1000,1000,137128460,1000,1000,1000,1000
74223632,1000,1000,1000,1000,137228420,1000,1000,1000,1000
74226131,1000,1000,1000,1000,137328380,1000,1000,1000,1000
74228630,1000,1000,1000,1000,,,,,
74231129,1000,1000,1000,1000,,,,,
74233628,1000,1000,1000,1000,,,,,
74236127,1000,1000,1000,1000,,,,,
74238626,1000,1000,1000,1000,,,,,
74241125,1000,1000,1000,1000,,,,,
74243624,1000,1000,1000,1000,,,,,
74246123,1000,1000,1000,1000,,,,,
74248622,1000,1000,1000,1000,,,,,
74251121,1000,1000,1000,1000,,,,,
74253620,1000,1000,1000,1000,,,,,
74256119,1000,1000,1000,1000,,,,,
74258618,1000,1000,1000,1000,,,,,
74261117,1000,1000,1000,1000,,,,,
74263616,1000,1000,1000,1000,,,,,
74266115,1000,1000,1000,1000,,,,,
74268614,1000,1000,1000,1000,,,,,
74271113,1000,1000,1000,1000,,,,,
74273612,1000,1000,1000,1000,,,,,
74276111,1000,1000,1000,1000,,,,,
74278610,1000,1000,1000,1000,,,,,
74281109,1000,1000,1000,1000,,,,,
74283608,1000,1000,1000,1000,,,,,
74286107,1000,1000,1000,1000,,,,,
74288606,1000,1000,1000,1000,,,,,
74291105,1000,1000,1000,1000,,,,,
74293604,1000,1000,1000,1000,,,,,
74296103,1000,1000,1000,1000,,,,,
74298602,1000,1000,1000,1000,,,,,
74301101,1000,1000,1000,1000,,,,,
74303600,1000,1000,1000,1000,,,,,
74306099,1000,1000,1000,1000,,,,,
74308598,1000,1000,1000,1000,,,,,
74311097,1000,1000,1000,1000,,,,,
74313596,1000,1000,1000,1000,,,,,
74316095,1000,1000,1000,1000,,,,,
74318594,1000,1000,1000,1000,,,,,
74321093,1000,1000,1000,1000,,,,,
74323592,1000,1000,1000,1000,,,,,
74326091,1000,1000,1000,1000,,,,,
74328590,1000,1000,1000,1000,,,,,
74331089,1000,1000,1000,1000,,,,,
74333588,1000,1000,1000,1000,,,,,
74336087,1000,1000,1000,1000,,,,,
74338586,1000,1000,1000,1000,,,,,
74341085,1000,1000,1000,1000,,,,,
74343584,1000,1000,1000,1000,,,,,
74346083,1000,1000,1000,1000,,,,,
74348582,1000,1000,1000,1000,,,,,
74351081,1000,1000,1000,1000,,,,,
74353580,1000,1000,1000,1000,,,,,
74356079,1000,1000,1000,1000,,,,,
74358578,1000,1000,1000,1000,,,,,
74361077,1000,1000,1000,1000,,,,,
74363576,1000,1000,1000,1000,,,,,
74366075,1000,1000,1000,1000,,,,,
74368574,1000,1000,1000,1000,,,,,
74371073,1000,1000,1000,1000,,,,,
74373572,1000,1000,1000,1000,,,,,
74376071,1000,1000,1000,1000,,,,,
74378570,1000,1000,1000,1000,,,,,
74381069,1000,1000,1000,1000,,,,,
74383568,1000,1000,1000,1000,,,,,
74386067,1000,1000,1000,1000,,,,,
74388566,1000,1000,1000,1000,,,,,
74391065,1000,1000,1000,1000,,,,,
74393564,1000,1000,1000,1000,,,,,
74396063,1000,1000,1000,1000,,,,,
74398562,1000,1000,1000,1000,,,,,
74401061,1000,1000,1000,1000,,,,,
74403560,1000,1000,1000,1000,,,,,
74406059,1000,1000,1000,1000,,,,,
74408558,1000,1000,1000,1000,,,,,
74411057,1000,1000,1000,1000,,,,,
74413556,1000,1000,1000,1000,,,,,
74416055,1000,1000,1000,1000,,,,,
74418554,1000,1000,1000,1000,,,,,
74421053,1000,1000,1000,1000,,,,,
74423552,1000,1000,1000,1000,,,,,
74426051,1000,1000,1000,1000,,,,,
74428550,1000,1000,1000,1000,,,,,
74431049,1000,1000,1000,1000,,,,,
74433548,1000,1000,1000,1000,,,,,
74436047,1000,1000,1000,1000,,,,,
74438546,1000,1000,1000,1000,,,,,
74441045,1000,1000,1000,1000,,,,,
74443544,1000,1000,1000,1000,,,,,
74446043,1000,1000,1000,1000,,,,,
74448542,1000,1000,1000,1000,,,,,
74451041,1000,1000,1000,1000,,,,,
74453540,1000,1000,1000,1000,,,,,
74456039,1000,1000,1000,1000,,,,,
74458538,1000,1000,1000,1000,,,,,
74461037,1000,1000,1000,1000,,,,,
74463536,1000,1000,1000,1000,,,,,
74466035,1000,1000,1000,1000,,,,,
74468534,1000,1000,1000,1000,,,,,
74471033,1000,1000,1000,1000,,,,,
74473532,1000,1000,1000,1000,,,,,
74476031,1000,1000,1000,1000,,,,,
74478530,1000,1000,1000,1000,,,,,
74481029,1000,1000,1000,1000,,,,,
74483528,1000,1000,1000,1000,,,,,
74486027,1000,1000,1000,1000,,,,,
74488526,1000,1000,1000,1000,,,,,
74491025,1000,1000,1000,1000,,,,,
74493524,1000,1000,1000,1000,,,,,
74496023,1000,1000,1000,1000,,,,,
74498522,1000,1000,1000,1000,,,,,
74501021,1000,1000,1000,1000,,,,,
74503520,1000,1000,1000,1000,,,,,
74506019,1000,1000,1000,1000,,,,,
74508518,1000,1000,1000,1000,,,,,
74511017,1000,1000,1000,1000,,,,,
74513516,1000,1000,1000,1000,,,,,
74516015,1000,1000,1000,1000,,,,,
74518514,1000,1000,1000,1000,,,,,
74521013,1000,1000,1000,1000,,,,,
74523512,1000,1000,1000,1000,,,,,
74526011,1000,1000,1000,1000,,,,,
74528510,1000,1000,1000,1000,,,,,
74531009,1000,1000,1000,1000,,,,,
74533508,1000,1000,1000,1000,,,,,
74536007,1000,1000,1000,1000,,,,,
74538506,1000,1000,1000,1000,,,,,
74541005,1000,1000,1000,1000,,,,,
74543504,1000,1000,1000,1000,,,,,
74546003,1000,1000,1000,1000,,,,,
74548502,1000,1000,1000,1000,,,,,
74551001,1000,1000,1000,1000,,,,,
74553500,1000,1000,1000,1000,,,,,
74555999,1000,1000,1000,1000,,,,,
74558498,1000,1000,1000,1000,,,,,
74560997,1000,1000,1000,1000,,,,,
74563496,1000,1000,1000,1000,,,,,
74565995,1000,1000,1000,1000,,,,,
74568494,1000,1000,1000,1000,,,,,
74570993,1000,1000,1000,1000,,,,,
74573492,1000,1000,1000,1000,,,,,
74575991,1000,1000,1000,1000,,,,,
74578490,1000,1000,1000,1000,,,,,
74580989,1000,1000,1000,1000,,,,,
74583488,1000,1000,1000,1000,,,,,
74585987,1000,1000,1000,1000,,,,,
74588486,1000,1000,1000,1000,,,,,
74590985,1000,1000,1000,1000,,,,,
74593484,1000,1000,1000,1000,,,,,
74595983,1000,1000,1000,1000,,,,,
74598482,1000,1000,1000,1000,,,,,
74600981,1000,1000,1000,1000,,,,,
74603480,1000,1000,1000,1000,,,,,
74605979,1000,1000,1000,1000,,,,,
74608478,1000,1000,1000,1000,,,,,
74610977,1000,1000,1000,1000,,,,,
74613476,1000,1000,1000,1000,,,,,
74615975,1001,1001,1001,1001,,,,,
74618474,1002,1002,1002,1002,,,,,
74620973,1003,1003,1003,1003,,,,,
74623472,1003,1003,1003,1003,,,,,
74625971,1004,1004,1004,1004,,,,,
74628470,1005,1005,1005,1005,,,,,
74630969,1006,1006,1006,1006,,,,,
74633468,1006,1006,1006,1006,,,,,
74635967,1007,1007,1007,1007,,,,,
74638466,1008,1008,1008,1008,,,,,
74640965,1009,1009,1009,1009,,,,,
74643464,1009,1009,1009,1009,,,,,
74645963,1010,1010,1010,1010,,,,,
74648462,1011,1011,1011,1011,,,,,
74650961,1012,1012,1012,1012,,,,,
74653460,1012,1012,1012,1012,,,,,
74655959,1013,1013,1013,1013,,,,,
74658458,1014,1014,1014,1014,,,,,
74660957,1015,1015,1015,1015,,,,,
74663456,1015,1015,1015,1015,,,,,
74665955,1016,1016,1016,1016,,,,,
74668454,1017,1017,1017,1017,,,,,
74670953,1018,1018,1018,1018,,,,,
74673452,1018,1018,1018,1018,,,,,
74675951,1019,1019,1019,1019,,,,,
74678450,1020,1020,1020,1020,,,,,
74680949,1021,1021,1021,1021,,,,,
74683448,1021,1021,1021,1021,,,,,
74685947,1022,1022,1022,1022,,,,,
74688446,1023,1023,1023,1023,,,,,
74690945,1024,1024,1024,1024,,,,,
74693444,1024,1024,1024,1024,,,,,
74695943,1025,1025,1025,1025,,,,,
74698442,1026,1026,1026,1026,,,,,
74700941,1027,1027,1027,1027,,,,,
74703440,1027,1027,1027,1027,,,,,
74705939,1028,1028,1028,1028,,,,,
74708438,1029,1029,1029,1029,,,,,
74710937,1030,1030,1030,1030,,,,,
74713436,1030,1030,1030,1030,,,,,
74715935,1031,1031,1031,1031,,,,,
74718434,1032,1032,1032,1032,,,,,
74720933,1033,1033,1033,1033,,,,,
74723432,1033,1033,1033,1033,,,,,
74725931,1034,1034,1034,1034,,,,,
74728430,1035,1035,1035,1035,,,,,
74730929,1036,1036,1036,1036,,,,,
74733428,1036,1036,1036,1036,,,,,
74735927,1037,1037,1037,1037,,,,,
74738426,1038,1038,1038,1038,,,,,
74740925,1039,1039,1039,1039,,,,,
74743424,1039,1039,1039,1039,,,,,
74745923,1040,1040,1040,1040,,,,,
74748422,1041,1041,1041,1041,,,,,
74750921,1042,1042,1042,1042,,,,,
74753420,1042,1042,1042,1042,,,,,
74755919,1043,1043,1043,1043,,,,,
74758418,1044,1044,1044,1044,,,,,
74760917,1045,1045,1045,1045,,,,,
74763416,1045,1045,1045,1045,,,,,
74765915,1046,1046,1046,1046,,,,,
74768414,1047,1047,1047,1047,,,,,
74770913,1048,1048,1048,1048,,,,,
74773412,1048,1048,1048,1048,,,,,
74775911,1049,1049,1049,1049,,,,,
74778410,1050,1050,1050,1050,,,,,
74780909,1051,1051,1051,1051,,,,,
74783408,1051,1051,1051,1051,,,,,
74785907,1052,1052,1052,1052,,,,,
74788406,1053,1053,1053,1053,,,,,
74790905,1054,1054,1054,1054,,,,,
74793404,1054,1054,1054,1054,,,,,
74795903,1055,1055,1055,1055,,,,,
74798402,1056,1056,1056,1056,,,,,
74800901,1057,1057,1057,1057,,,,,
74803400,1057,1057,1057,1057,,,,,
74805899,1058,1058,1058,1058,,,,,
74808398,1059,1059,1059,1059,,,,,
74810897,1060,1060,1060,1060,,,,,
74813396,1060,1060,1060,1060,,,,,
74815895,1061,1061,1061,1061,,,,,
74818394,1062,1062,1062,1062,,,,,
74820893,1063,1063,1063,1063,,,,,
74823392,1063,1063,1063,1063,,,,,
74825891,1064,1064,1064,1064,,,,,
74828390,1065,1065,1065,1065,,,,,
74830889,1066,1066,1066,1066,,,,,
74833388,1066,1066,1066,1066,,,,,
74835887,1067,1067,1067,1067,,,,,
74838386,1068,1068,1068,1068,,,,,
74840885,1069,1069,1069,1069,,,,,
74843384,1069,1069,1069,1069,,,,,
74845883,1070,1070,1070,1070,,,,,
74848382,1071,1071,1071,1071,,,,,
74850881,1072,1072,1072,1072,,,,,
74853380,1072,1072,1072,1072,,,,,
74855879,1073,1073,1073,1073,,,,,
74858378,1074,1074,1074,1074,,,,,
74860877,1075,1075,1075,1075,,,,,
74863376,1075,1075,1075,1075,,,,,
74865875,1076,1076,1076,1076,,,,,
74868374,1077,1077,1077,1077,,,,,
74870873,1078,1078,1078,1078,,,,,
74873372,1078,1078,1078,1078,,,,,
74875871,1079,1079,1079,1079,,,,,
74878370,1080,1080,1080,1080,,,,,
74880869,1081,1081,1081,1081,,,,,
74883368,1081,1081,1081,1081,,,,,
74885867,1082,1082,1082,1082,,,,,
74888366,1083,1083,1083,1083,,,,,
74890865,1084,1084,1084,1084,,,,,
74893364,1084,1084,1084,1084,,,,,
74895863,1085,1085,1085,1085,,,,,
74898362,1086,1086,1086,1086,,,,,
74900861,1087,1087,1087,1087,,,,,
74903360,1087,1087,1087,1087,,,,,
74905859,1088,1088,1088,1088,,,,,
74908358,1089,1089,1089,1089,,,,,
74910857,1090,1090,1090,1090,,,,,
74913356,1090,1090,1090,1090,,,,,
74915855,1091,1091,1091,1091,,,,,
74918354,1092,1092,1092,1092,,,,,
74920853,1093,1093,1093,1093,,,,,
74923352,1093,1093,1093,1093,,,,,
74925851,1094,1094,1094,1094,,,,,
74928350,1095,1095,1095,1095,,,,,
74930849,1096,1096,1096,1096,,,,,
74933348,1096,1096,1096,1096,,,,,
74935847,1097,1097,1097,1097,,,,,
74938346,1098,1098,1098,1098,,,,,
74940845,1099,1099,1099,1099,,,,,
74943344,1099,1099,1099,1099,,,,,
74945843,1100,1100,1100,1100,,,,,
74948342,1101,1101,1101,1101,,,,,
74950841,1101,1101,1101,1101,,,,,
74953340,1102,1102,1102,1102,,,,,
74955839,1103,1103,1103,1103,,,,,
74958338,1104,1104,1104,1104,,,,,
74960837,1104,1104,1104,1104,,,,,
74963336,1105,1105,1105,1105,,,,,
74965835,1106,1106,1106,1106,,,,,
74968334,1107,1107,1107,1107,,,,,
74970833,1107,1107,1107,1107,,,,,
74973332,1108,1108,1108,1108,,,,,
74975831,1109,1109,1109,1109,,,,,
74978330,1110,1110,1110,1110,,,,,
74980829,1110,1110,1110,1110,,,,,
74983328,1111,1111,1111,1111,,,,,
74985827,1112,1112,1112,1112,,,,,
74988326,1113,1113,1113,1113,,,,,
74990825,1113,1113,1113,1113,,,,,
74993324,1114,1114,1114,1114,,,,,
74995823,1115,1115,1115,1115,,,,,
74998322,1116,1116,1116,1116,,,,,
75000821,1116,1116,1116,1116,,,,,
75003320,1117,1117,1117,1117,,,,,
75005819,1118,1118,1118,1118,,,,,
75008318,1119,1119,1119,1119,,,,,
75010817,1119,1119,1119,1119,,,,,
75013316,1120,1120,1120,1120,,,,,
75015815,1121,1121,1121,1121,,,,,
75018314,1122,1122,1122,1122,,,,,
75020813,1122,1122,1122,1122,,,,,
75023312,1123,1123,1123,1123,,,,,
75025811,1124,1124,1124,1124,,,,,
75028310,1125,1125,1125,1125,,,,,
75030809,1125,1125,1125,1125,,,,,
75033308,1126,1126,1126,1126,,,,,
75035807,1127,1127,1127,1127,,,,,
75038306,1128,1128,1128,1128,,,,,
75040805,1128,1128,1128,1128,,,,,
75043304,1129,1129,1129,1129,,,,,
75045803,1130,1130,1130,1130,,,,,
75048302,1131,1131,1131,1131,,,,,
75050801,1131,1131,1131,1131,,,,,
75053300,1132,1132,1132,1132,,,,,
75055799,1133,1133,1133,1133,,,,,
75058298,1134,1134,1134,1134,,,,,
75060797,1134,1134,1134,1134,,,,,
75063296,1135,1135,1135,1135,,,,,
75065795,1136,1136,1136,1136,,,,,
75068294,1137,1137,1137,1137,,,,,
75070793,1137,1137,1137,1137,,,,,
75073292,1138,1138,1138,1138,,,,,
75075791,1139,1139,1139,1139,,,,,
75078290,1140,1140,1140,1140,,,,,
75080789,1140,1140,1140,1140,,,,,
75083288,1141,1141,1141,1141,,,,,
75085787,1142,1142,1142,1142,,,,,
75088286,1143,1143,1143,1143,,,,,
75090785,1143,1143,1143,1143,,,,,
75093284,1144,1144,1144,1144,,,,,
75095783,1145,1145,1145,1145,,,,,
75098282,1146,1146,1146,1146,,,,,
75100781,1146,1146,1146,1146,,,,,
75103280,1147,1147,1147,1147,,,,,
75105779,1148,1148,1148,1148,,,,,
75108278,1149,1149,1149,1149,,,,,
75110777,1149,1149,1149,1149,,,,,
75113276,1150,1150,1150,1150,,,,,
75115775,1163,1151,1152,1164,,,,,
75118274,1171,1159,1160,1172,,,,,
75120773,1179,1167,1168,1180,,,,,
75123272,1187,1175,1176,1187,,,,,
75125771,1194,1183,1184,1195,,,,,
75128270,1202,1190,1191,1202,,,,,
75130769,1209,1198,1199,1210,,,,,
75133268,1216,1205,1206,1217,,,,,
75135767,1223,1212,1213,1224,,,,,
75138266,1230,1220,1220,1231,,,,,
75140765,1237,1227,1227,1238,,,,,
75143264,1244,1233,1234,1244,,,,,
75145763,1251,1240,1241,1251,,,,,
75148262,1257,1247,1248,1258,,,,,
75150761,1264,1254,1254,1264,,,,,
75153260,1270,1260,1261,1271,,,,,
75155759,1277,1267,1267,1277,,,,,
75158258,1283,1273,1274,1283,,,,,
75160757,1289,1279,1280,1289,,,,,
75163256,1295,1285,1286,1296,,,,,
75165755,1301,1292,1292,1302,,,,,
75168254,1307,1298,1298,1308,,,,,
75170753,1313,1304,1304,1314,,,,,
75173252,1319,1310,1310,1319,,,,,
75175751,1325,1316,1316,1325,,,,,
75178250,1330,1321,1322,1331,,,,,
75180749,1336,1327,1328,1337,,,,,
75183248,1342,1333,1334,1342,,,,,
75185747,1347,1339,1339,1348,,,,,
75188246,1353,1344,1345,1353,,,,,
75190745,1358,1350,1350,1359,,,,,
75193244,1364,1355,1356,1364,,,,,
75195743,1369,1361,1361,1370,,,,,
75198242,1374,1366,1367,1375,,,,,
75200741,1380,1371,1372,1380,,,,,
75203240,1385,1377,1377,1385,,,,,
75205739,1390,1382,1383,1391,,,,,
75208238,1395,1387,1388,1396,,,,,
75210737,1401,1392,1393,1401,,,,,
75213236,1406,1398,1398,1406,,,,,
75215735,1411,1403,1403,1411,,,,,
75218234,1416,1408,1408,1416,,,,,
75220733,1421,1413,1413,1421,,,,,
75223232,1426,1418,1418,1426,,,,,
75225731,1431,1423,1423,1431,,,,,
75228230,1435,1427,1428,1436,,,,,
75230729,1440,1432,1433,1441,,,,,
75233228,1445,1437,1438,1446,,,,,
75235727,1450,1442,1442,1450,,,,,
75238226,1455,1447,1447,1455,,,,,
75240725,1459,1451,1452,1460,,,,,
75243224,1464,1456,1457,1464,,,,,
75245723,1469,1461,1461,1469,,,,,
75248222,1473,1465,1466,1474,,,,,
75250721,1478,1470,1471,1478,,,,,
75253220,1482,1475,1475,1483,,,,,
75255719,1487,1479,1480,1487,,,,,
75258218,1491,1484,1484,1492,,,,,
75260717,1496,1488,1489,1496,,,,,
75263216,1500,1493,1493,1501,,,,,
75265715,1505,1497,1498,1505,,,,,
75268214,1509,1502,1502,1510,,,,,
75270713,1513,1506,1506,1514,,,,,
75273212,1518,1510,1511,1518,,,,,
75275711,1522,1515,1515,1523,,,,,
75278210,1526,1519,1519,1527,,,,,
75280709,1531,1523,1524,1531,,,,,
75283208,1535,1528,1528,1535,,,,,
75285707,1539,1532,1532,1540,,,,,
75288206,1543,1536,1536,1544,,,,,
75290705,1548,1540,1541,1548,,,,,
75293204,1552,1544,1545,1552,,,,,
75295703,1556,1548,1549,1556,,,,,
75298202,1560,1553,1553,1560,,,,,
75300701,1564,1557,1557,1565,,,,,
75303200,1568,1561,1561,1569,,,,,
75305699,1572,1565,1565,1573,,,,,
75308198,1576,1569,1569,1577,,,,,
75310697,1580,1573,1573,1581,,,,,
75313196,1584,1577,1577,1585,,,,,
75315695,1588,1581,1581,1589,,,,,
75318194,1592,1585,1585,1593,,,,,
75320693,1596,1589,1589,1597,,,,,
75323192,1600,1593,1593,1601,,,,,
75325691,1604,1597,1597,1605,,,,,
75328190,1608,1601,1601,1608,,,,,
75330689,1612,1605,1605,1612,,,,,
75333188,1616,1608,1609,1616,,,,,
75335687,1619,1612,1612,1620,,,,,
75338186,1623,1616,1616,1624,,,,,
75340685,1627,1620,1620,1628,,,,,
75343184,1631,1624,1624,1631,,,,,
75345683,1634,1628,1628,1635,,,,,
75348182,1638,1631,1631,1639,,,,,
75350681,1642,1635,1635,1643,,,,,
75353180,1646,1639,1639,1646,,,,,
75355679,1649,1643,1643,1650,,,,,
75358178,1653,1646,1646,1654,,,,,
75360677,1657,1650,1650,1657,,,,,
75363176,1660,1654,1654,1661,,,,,
75365675,1664,1657,1657,1665,,,,,
75368174,1668,1661,1661,1668,,,,,
75370673,1671,1665,1665,1672,,,,,
75373172,1675,1668,1668,1676,,,,,
75375671,1678,1672,1672,1679,,,,,
75378170,1682,1675,1675,1683,,,,,
75380669,1686,1679,1679,1686,,,,,
75383168,1689,1682,1683,1690,,,,,
75385667,1693,1686,1686,1693,,,,,
75388166,1696,1690,1690,1697,,,,,
75390665,1700,1693,1693,1700,,,,,
75393164,1703,1697,1697,1704,,,,,
75395663,1707,1700,1700,1707,,,,,
75398162,1710,1703,1704,1711,,,,,
75400661,1714,1707,1707,1714,,,,,
75403160,1717,1710,1711,1718,,,,,
75405659,1721,1714,1714,1721,,,,,
75408158,1724,1717,1718,1724,,,,,
75410657,1727,1721,1721,1728,,,,,
75413156,1731,1724,1724,1731,,,,,
75415655,1734,1727,1728,1735,,,,,
75418154,1737,1731,1731,1738,,,,,
75421486,1741,1734,1735,1741,,,,,
75423985,1744,1738,1738,1745,,,,,
75426484,1748,1741,1741,1748,,,,,
75428983,1751,1744,1745,1751,,,,,
75431482,1754,1748,1748,1755,,,,,
75433981,1758,1751,1751,1758,,,,,
75436480,1761,1754,1755,1761,,,,,
75438979,1764,1757,1758,1764,,,,,
75441478,1767,1761,1761,1768,,,,,
75443977,1771,1764,1764,1771,,,,,
75446476,1774,1767,1768,1774,,,,,
75448975,1777,1771,1771,1777,,,,,
75451474,1780,1774,1774,1781,,,,,
75453973,1784,1777,1777,1784,,,,,
75456472,1787,1780,1781,1787,,,,,
75458971,1790,1783,1784,1790,,,,,
75461470,1793,1787,1787,1794,,,,,
75463969,1796,1790,1790,1797,,,,,
75466468,1800,1793,1793,1800,,,,,
75468967,1803,1796,1797,1803,,,,,
75471466,1806,1799,1800,1806,,,,,
75473965,1809,1802,1803,1809,,,,,
75476464,1812,1806,1806,1812,,,,,
75478963,1815,1809,1809,1816,,,,,
75481462,1818,1812,1812,1819,,,,,
75483961,1822,1815,1815,1822,,,,,
75486460,1825,1818,1818,1825,,,,,
75488959,1828,1821,1822,1828,,,,,
75491458,1831,1824,1825,1831,,,,,
75493957,1834,1827,1828,1834,,,,,
75496456,1837,1830,1831,1837,,,,,
75498955,1840,1833,1834,1840,,,,,
75501454,1843,1836,1837,1843,,,,,
75503953,1846,1839,1840,1846,,,,,
75506452,1849,1842,1843,1849,,,,,
75508951,1852,1846,1846,1852,,,,,
75511450,1855,1849,1849,1855,,,,,
75513949,1858,1852,1852,1858,,,,,
75516448,1861,1855,1855,1861,,,,,
75518947,1864,1857,1858,1864,,,,,
75521446,1867,1860,1861,1867,,,,,
75523945,1870,1863,1864,1870,,,,,
75526444,1873,1866,1867,1873,,,,,
75528943,1876,1869,1870,1876,,,,,
75531442,1879,1872,1873,1879,,,,,
75533941,1882,1875,1876,1882,,,,,
75536440,1885,1878,1879,1885,,,,,
75538939,1888,1881,1882,1888,,,,,
75541438,1891,1884,1885,1891,,,,,
75543937,1894,1887,1888,1894,,,,,
75546436,1897,1890,1891,1897,,,,,
75548935,1900,1893,1893,1900,,,,,
75551434,1902,1896,1896,1902,,,,,
75553933,1905,1898,1899,1905,,,,,
75556432,1906,1899,1900,1906,,,,,
75558931,1905,1898,1899,1905,,,,,
75561430,1904,1897,1898,1904,,,,,
75563929,1903,1896,1897,1903,,,,,
75566428,1902,1895,1896,1902,,,,,
75568927,1901,1894,1895,1901,,,,,
75571426,1901,1894,1894,1901,,,,,
75573925,1900,1893,1894,1900,,,,,
75576424,1899,1892,1893,1899,,,,,
75578923,1899,1892,1892,1899,,,,,
75581422,1898,1891,1892,1898,,,,,
75583921,1898,1891,1891,1898,,,,,
75586420,1897,1890,1891,1897,,,,,
75588919,1897,1890,1891,1897,,,,,
75591418,1897,1890,1891,1897,,,,,
75593917,1897,1890,1890,1897,,,,,
75596416,1897,1890,1890,1897,,,,,
75598915,1897,1890,1890,1897,,,,,
75601414,1897,1890,1891,1897,,,,,
75603913,1897,1890,1891,1897,,,,,
75606412,1897,1890,1891,1897,,,,,
75608911,1897,1891,1891,1897,,,,,
75611410,1898,1891,1892,1897,,,,,
75613909,1898,1891,1892,1897,,,,,
75616408,1898,1891,1892,1897,,,,,
75618907,1897,1891,1892,1897,,,,,
75621406,1897,1891,1892,1897,,,,,
75623905,1897,1891,1892,1897,,,,,
75626404,1896,1891,1892,1896,,,,,
75628903,1896,1891,1891,1896,,,,,
75631402,1895,1890,1891,1895,,,,,
75633901,1894,1889,1890,1894,,,,,
75636400,1893,1888,1889,1893,,,,,
75638899,1892,1887,1888,1892,,,,,
75641398,1891,1886,1887,1891,,,,,
75643897,1889,1885,1885,1889,,,,,
75646396,1888,1883,1884,1887,,,,,
75648895,1886,1881,1882,1886,,,,,
75651394,1884,1880,1880,1884,,,,,
75653893,1882,1878,1878,1882,,,,,
75656392,1880,1875,1876,1880,,,,,
75658891,1877,1873,1874,1877,,,,,
75661390,1875,1871,1872,1875,,,,,
75663889,1873,1869,1869,1873,,,,,
75666388,1870,1866,1867,1870,,,,,
75668887,1867,1864,1864,1867,,,,,
75671386,1865,1861,1862,1865,,,,,
75673885,1862,1858,1859,1862,,,,,
75676384,1859,1855,1856,1859,,,,,
75678883,1856,1853,1853,1856,,,,,
75681382,1853,1850,1850,1853,,,,,
75683881,1850,1847,1847,1850,,,,,
75686380,1847,1844,1844,1847,,,,,
75688879,1844,1841,1841,1844,,,,,
75691378,1841,1838,1838,1841,,,,,
75693877,1838,1835,1835,1838,,,,,
75696376,1834,1831,1832,1835,,,,,
75698875,1831,1828,1829,1831,,,,,
75701374,1828,1825,1825,1828,,,,,
75703873,1825,1822,1822,1825,,,,,
75706372,1821,1819,1819,1822,,,,,
75708871,1818,1815,1816,1818,,,,,
75711370,1814,1812,1812,1815,,,,,
75713869,1811,1809,1809,1812,,,,,
75716368,1807,1806,1805,1808,,,,,
75718867,1804,1802,1802,1805,,,,,
75721366,1801,1799,1799,1801,,,,,
75723865,1797,1796,1795,1798,,,,,
75726364,1794,1792,1792,1794,,,,,
75728863,1790,1789,1789,1791,,,,,
75731362,1787,1785,1785,1787,,,,,
75733861,1783,1782,1782,1784,,,,,
75736360,1780,1779,1779,1781,,,,,
75738859,1776,1775,1775,1777,,,,,
75741358,1773,1772,1772,1774,,,,,
75743857,1770,1769,1769,1770,,,,,
75746356,1766,1766,1766,1767,,,,,
75748855,1763,1762,1762,1764,,,,,
75751354,1760,1759,1759,1760,,,,,
75753853,1756,1756,1756,1757,,,,,
75756352,1753,1752,1753,1754,,,,,
75758851,1750,1749,1749,1750,,,,,
75761350,1746,1746,1746,1747,,,,,
75763849,1743,1743,1743,1744,,,,,
75766348,1740,1740,1740,1740,,,,,
75768847,1737,1737,1737,1737,,,,,
75771346,1734,1734,1734,1734,,,,,
75773845,1731,1731,1731,1731,,,,,
75776344,1727,1728,1728,1728,,,,,
75778843,1725,1725,1725,1725,,,,,
75781342,1722,1722,1722,1722,,,,,
75783841,1719,1719,1720,1720,,,,,
75786340,1716,1717,1717,1717,,,,,
75788839,1713,1714,1714,1714,,,,,
75791338,1711,1711,1712,1711,,,,,
75793837,1708,1709,1709,1709,,,,,
75796336,1705,1706,1707,1706,,,,,
75798835,1703,1704,1704,1703,,,,,
75801334,1700,1701,1702,1701,,,,,
75803833,1698,1699,1699,1698,,,,,
75806332,1695,1697,1697,1696,,,,,
75808831,1693,1694,1694,1694,,,,,
75811330,1691,1692,1692,1691,,,,,
75813829,1688,1690,1690,1689,,,,,
75816328,1686,1687,1688,1687,,,,,
75818827,1684,1685,1685,1684,,,,,
75821326,1682,1683,1683,1682,,,,,
75823825,1679,1681,1681,1680,,,,,
75826324,1677,1679,1679,1678,,,,,
75828823,1675,1677,1677,1676,,,,,
75831322,1673,1675,1675,1674,,,,,
75833821,1671,1673,1673,1672,,,,,
75836320,1669,1671,1671,1670,,,,,
75838819,1667,1669,1669,1668,,,,,
75841318,1665,1668,1668,1666,,,,,
75843817,1664,1666,1666,1664,,,,,
