timestamp,TimeUS,C1,C2,C3,C4,C5,C6,C7,C8,C9,C10,C11,C12,C13,C14
1668242051.59999990,72628437,1000,1000,1000,1000,0,0,0,0,0,0,0,0,0,0
1668242051.69995975,72728397,1000,1000,1000,1000,0,0,0,0,0,0,0,0,0,0
1668242051.79991984,72828357,1000,1000,1000,1000,0,0,0,0,0,0,0,0,0,0
1668242051.89987993,72928317,1000,1000,1000,1000,0,0,0,0,0,0,0,0,0,0
1668242051.99983978,73028277,1000,1000,1000,1000,0,0,0,0,0,0,0,0,0,0
1668242052.09979987,73128237,1000,1000,1000,1000,0,0,0,0,0,0,0,0,0,0
1668242052.19975996,73228197,1000,1000,1000,1000,0,0,0,0,0,0,0,0,0,0
1668242052.29971981,73328157,1000,1000,1000,1000,0,0,0,0,0,0,0,0,0,0
1668242052.40051293,73428950,1000,1000,1000,1000,0,0,0,0,0,0,0,0,0,0
1668242052.50047278,73528910,1000,1000,1000,1000,0,0,0,0,0,0,0,0,0,0
1668242052.60043287,73628870,1000,1000,1000,1000,0,0,0,0,0,0,0,0,0,0
1668242052.70039296,73728830,1000,1000,1000,1000,0,0,0,0,0,0,0,0,0,0
1668242052.80035281,73828790,1000,1000,1000,1000,0,0,0,0,0,0,0,0,0,0
1668242052.90031290,73928750,1000,1000,1000,1000,0,0,0,0,0,0,0,0,0,0
1668242053.00027275,74028710,1000,1000,1000,1000,0,0,0,0,0,0,0,0,0,0
1668242053.10023284,74128670,1000,1000,1000,1000,0,0,0,0,0,0,0,0,0,0
1668242053.20019293,74228630,1000,1000,1000,1000,0,0,0,0,0,0,0,0,0,0
1668242053.30015278,74328590,1000,1000,1000,1000,0,0,0,0,0,0,0,0,0,0
1668242053.40011287,74428550,1000,1000,1000,1000,0,0,0,0,0,0,0,0,0,0
1668242053.50007296,74528510,1000,1000,1000,1000,0,0,0,0,0,0,0,0,0,0
1668242053.60003281,74628470,1006,1006,1006,1006,0,0,0,0,0,0,0,0,0,0
1668242053.69999290,74728430,1036,1036,1036,1036,0,0,0,0,0,0,0,0,0,0
1668242053.79995275,74828390,1066,1066,1066,1066,0,0,0,0,0,0,0,0,0,0
1668242053.89991283,74928350,1096,1096,1096,1096,0,0,0,0,0,0,0,0,0,0
1668242053.99987292,75028310,1125,1125,1125,1125,0,0,0,0,0,0,0,0,0,0
1668242054.09983277,75128270,1209,1198,1199,1210,0,0,0,0,0,0,0,0,0,0
1668242054.19979286,75228230,1440,1432,1433,1441,0,0,0,0,0,0,0,0,0,0
1668242054.29975295,75328190,1612,1605,1605,1612,0,0,0,0,0,0,0,0,0,0
1668242054.40054584,75428983,1754,1748,1748,1755,0,0,0,0,0,0,0,0,0,0
1668242054.50050592,75528943,1879,1872,1873,1879,0,0,0,0,0,0,0,0,0,0
1668242054.60046577,75628903,1895,1890,1891,1895,0,0,0,0,0,0,0,0,0,0
1668242054.70042586,75728863,1787,1785,1785,1787,0,0,0,0,0,0,0,0,0,0
1668242054.80038595,75828823,1673,1675,1675,1674,0,0,0,0,0,0,0,0,0,0
1668242054.90034580,75928783,1628,1631,1631,1628,0,0,0,0,0,0,0,0,0,0
1668242055.00030589,76028743,1628,1632,1632,1628,0,0,0,0,0,0,0,0,0,0
1668242055.10026598,76128703,1637,1639,1640,1637,0,0,0,0,0,0,0,0,0,0
1668242055.20022583,76228663,1641,1634,1633,1641,0,0,0,0,0,0,0,0,0,0
1668242055.30018592,76328623,1621,1620,1612,1628,0,0,0,0,0,0,0,0,0,0
1668242055.40014577,76428583,1611,1611,1604,1617,0,0,0,0,0,0,0,0,0,0
1668242055.50010586,76528543,1607,1607,1604,1609,0,0,0,0,0,0,0,0,0,0
1668242055.60006595,76628503,1608,1607,1609,1606,0,0,0,0,0,0,0,0,0,0
1668242055.70002580,76728463,1612,1612,1616,1609,0,0,0,0,0,0,0,0,0,0
1668242055.79998589,76828423,1616,1616,1621,1611,0,0,0,0,0,0,0,0,0,0
1668242055.89994597,76928383,1589,1590,1602,1577,0,0,0,0,0,0,0,0,0,0
1668242055.99990582,77028343,1575,1576,1589,1563,0,0,0,0,0,0,0,0,0,0
1668242056.09986591,77128303,1564,1564,1569,1560,0,0,0,0,0,0,0,0,0,0
1668242056.19982576,77228263,1554,1554,1551,1558,0,0,0,0,0,0,0,0,0,0
1668242056.29978585,77328223,1546,1545,1535,1557,0,0,0,0,0,0,0,0,0,0
1668242056.39974594,77428183,1539,1538,1527,1550,0,0,0,0,0,0,0,0,0,0
1668242056.50053883,77528976,1533,1532,1524,1540,0,0,0,0,0,0,0,0,0,0
1668242056.60049891,77628936,1527,1527,1524,1530,0,0,0,0,0,0,0,0,0,0
1668242056.70045877,77728896,1526,1526,1526,1525,0,0,0,0,0,0,0,0,0,0
1668242056.80041885,77828856,1528,1528,1530,1525,0,0,0,0,0,0,0,0,0,0
1668242056.90037894,77928816,1530,1530,1533,1527,0,0,0,0,0,0,0,0,0,0
1668242057.00033879,78028776,1534,1534,1537,1530,0,0,0,0,0,0,0,0,0,0
1668242057.10029888,78128736,1537,1538,1540,1535,0,0,0,0,0,0,0,0,0,0
1668242057.20025897,78228696,1540,1541,1542,1539,0,0,0,0,0,0,0,0,0,0
1668242057.30021882,78328656,1545,1545,1545,1545,0,0,0,0,0,0,0,0,0,0
1668242057.40017891,78428616,1547,1547,1547,1548,0,0,0,0,0,0,0,0,0,0
1668242057.50013876,78528576,1550,1550,1550,1552,0,0,0,0,0,0,0,0,0,0
1668242057.60009885,78628536,1552,1552,1551,1554,0,0,0,0,0,0,0,0,0,0
1668242057.70005894,78728496,1556,1556,1555,1557,0,0,0,0,0,0,0,0,0,0
1668242057.80001879,78828456,1557,1556,1557,1559,0,0,0,0,0,0,0,0,0,0
1668242057.89997888,78928416,1558,1557,1560,1561,0,0,0,0,0,0,0,0,0,0
1668242057.99993896,79028376,1560,1559,1564,1564,0,0,0,0,0,0,0,0,0,0
1668242058.09989882,79128336,1561,1561,1566,1566,0,0,0,0,0,0,0,0,0,0
1668242058.19985890,79228296,1563,1564,1568,1567,0,0,0,0,0,0,0,0,0,0
1668242058.29981875,79328256,1565,1565,1568,1568,0,0,0,0,0,0,0,0,0,0
1668242058.39977884,79428216,1566,1567,1568,1568,0,0,0,0,0,0,0,0,0,0
1668242058.49973893,79528176,1569,1569,1568,1569,0,0,0,0,0,0,0,0,0,0
1668242058.60053182,79628969,1571,1571,1569,1569,0,0,0,0,0,0,0,0,0,0
1668242058.70049191,79728929,1571,1570,1568,1568,0,0,0,0,0,0,0,0,0,0
1668242058.80045176,79828889,1572,1572,1569,1569,0,0,0,0,0,0,0,0,0,0
1668242058.90041184,79928849,1572,1572,1569,1569,0,0,0,0,0,0,0,0,0,0
1668242059.00037193,80028809,1574,1574,1571,1571,0,0,0,0,0,0,0,0,0,0
1668242059.10033178,80128769,1574,1575,1572,1571,0,0,0,0,0,0,0,0,0,0
1668242059.20029187,80228729,1575,1575,1574,1572,0,0,0,0,0,0,0,0,0,0
1668242059.30025196,80328689,1576,1576,1575,1573,0,0,0,0,0,0,0,0,0,0
1668242059.40021181,80428649,1577,1577,1577,1575,0,0,0,0,0,0,0,0,0,0
1668242059.50017190,80528609,1576,1577,1577,1576,0,0,0,0,0,0,0,0,0,0
1668242059.60013175,80628569,1575,1576,1576,1576,0,0,0,0,0,0,0,0,0,0
1668242059.70009184,80728529,1576,1576,1577,1577,0,0,0,0,0,0,0,0,0,0
1668242059.80005193,80828489,1576,1575,1576,1576,0,0,0,0,0,0,0,0,0,0
1668242059.90001178,80928449,1576,1575,1576,1577,0,0,0,0,0,0,0,0,0,0
1668242059.99997187,81028409,1577,1576,1577,1577,0,0,0,0,0,0,0,0,0,0
1668242060.09993196,81128369,1576,1577,1577,1577,0,0,0,0,0,0,0,0,0,0
1668242060.19989181,81228329,1577,1577,1578,1577,0,0,0,0,0,0,0,0,0,0
1668242060.29985189,81328289,1576,1576,1577,1577,0,0,0,0,0,0,0,0,0,0
1668242060.39981174,81428249,1577,1577,1577,1577,0,0,0,0,0,0,0,0,0,0
1668242060.49977183,81528209,1578,1577,1577,1578,0,0,0,0,0,0,0,0,0,0
1668242060.59973192,81628169,1578,1578,1578,1578,0,0,0,0,0,0,0,0,0,0
1668242060.70052481,81728962,1578,1578,1578,1578,0,0,0,0,0,0,0,0,0,0
1668242060.80048490,81828922,1579,1578,1578,1578,0,0,0,0,0,0,0,0,0,0
1668242060.90044475,81928882,1579,1579,1579,1579,0,0,0,0,0,0,0,0,0,0
1668242061.00040483,82028842,1579,1579,1579,1578,0,0,0,0,0,0,0,0,0,0
1668242061.10036492,82128802,1579,1579,1579,1579,0,0,0,0,0,0,0,0,0,0
1668242061.20032477,82228762,1580,1580,1580,1580,0,0,0,0,0,0,0,0,0,0
1668242061.30028486,82328722,1579,1580,1579,1580,0,0,0,0,0,0,0,0,0,0
1668242061.40024495,82428682,1579,1579,1579,1579,0,0,0,0,0,0,0,0,0,0
1668242061.50020480,82528642,1580,1580,1580,1580,0,0,0,0,0,0,0,0,0,0
1668242061.60016489,82628602,1579,1580,1580,1580,0,0,0,0,0,0,0,0,0,0
1668242061.70012498,82728562,1580,1580,1580,1580,0,0,0,0,0,0,0,0,0,0
1668242061.80008483,82828522,1579,1579,1579,1579,0,0,0,0,0,0,0,0,0,0
1668242061.90004492,82928482,1579,1580,1580,1580,0,0,0,0,0,0,0,0,0,0
1668242062.00000477,83028442,1578,1578,1579,1578,0,0,0,0,0,0,0,0,0,0
1668242062.09996486,83128402,1579,1578,1579,1579,0,0,0,0,0,0,0,0,0,0
1668242062.19992495,83228362,1579,1580,1580,1580,0,0,0,0,0,0,0,0,0,0
1668242062.29988480,83328322,1580,1580,1579,1580,0,0,0,0,0,0,0,0,0,0
1668242062.39984488,83428282,1579,1579,1579,1579,0,0,0,0,0,0,0,0,0,0
1668242062.49980497,83528242,1580,1580,1580,1580,0,0,0,0,0,0,0,0,0,0
1668242062.59976482,83628202,1580,1580,1580,1580,0,0,0,0,0,0,0,0,0,0
1668242062.69972491,83728162,1580,1580,1580,1580,0,0,0,0,0,0,0,0,0,0
1668242062.80051780,83828955,1580,1580,1580,1580,0,0,0,0,0,0,0,0,0,0
1668242062.90047789,83928915,1580,1580,1580,1580,0,0,0,0,0,0,0,0,0,0
1668242063.00043797,84028875,1581,1580,1580,1580,0,0,0,0,0,0,0,0,0,0
1668242063.10039783,84128835,1581,1581,1581,1581,0,0,0,0,0,0,0,0,0,0
1668242063.20035791,84228795,1582,1582,1582,1582,0,0,0,0,0,0,0,0,0,0
1668242063.30031776,84328755,1581,1581,1581,1581,0,0,0,0,0,0,0,0,0,0
1668242063.40027785,84428715,1581,1581,1581,1581,0,0,0,0,0,0,0,0,0,0
1668242063.50023794,84528675,1581,1581,1581,1581,0,0,0,0,0,0,0,0,0,0
1668242063.60019779,84628635,1581,1581,1581,1581,0,0,0,0,0,0,0,0,0,0
1668242063.70015788,84728595,1580,1580,1581,1580,0,0,0,0,0,0,0,0,0,0
1668242063.80011797,84828555,1581,1581,1581,1581,0,0,0,0,0,0,0,0,0,0
1668242063.90007782,84928515,1581,1581,1584,1577,0,0,0,0,0,0,0,0,0,0
1668242064.00003791,85028475,1581,1583,1589,1574,0,0,0,0,0,0,0,0,0,0
1668242064.09999776,85128435,1580,1582,1582,1574,0,0,0,0,0,0,0,0,0,0
1668242064.19995785,85228395,1578,1581,1573,1574,0,0,0,0,0,0,0,0,0,0
1668242064.29991794,85328355,1577,1580,1564,1571,0,0,0,0,0,0,0,0,0,0
1668242064.39987779,85428315,1577,1579,1559,1566,0,0,0,0,0,0,0,0,0,0
1668242064.49983788,85528275,1579,1578,1556,1561,0,0,0,0,0,0,0,0,0,0
1668242064.59979796,85628235,1580,1578,1555,1557,0,0,0,0,0,0,0,0,0,0
1668242064.69975781,85728195,1581,1579,1556,1555,0,0,0,0,0,0,0,0,0,0
1668242064.79971790,85828155,1580,1579,1557,1555,0,0,0,0,0,0,0,0,0,0
1668242064.90051079,85928948,1579,1579,1557,1555,0,0,0,0,0,0,0,0,0,0
1668242065.00047088,86028908,1577,1578,1556,1554,0,0,0,0,0,0,0,0,0,0
1668242065.10043097,86128868,1576,1577,1555,1554,0,0,0,0,0,0,0,0,0,0
1668242065.20039082,86228828,1575,1576,1553,1553,0,0,0,0,0,0,0,0,0,0
1668242065.30035090,86328788,1575,1577,1552,1553,0,0,0,0,0,0,0,0,0,0
1668242065.40031075,86428748,1576,1578,1551,1551,0,0,0,0,0,0,0,0,0,0
1668242065.50027084,86528708,1578,1580,1549,1549,0,0,0,0,0,0,0,0,0,0
1668242065.60023093,86628668,1581,1582,1548,1547,0,0,0,0,0,0,0,0,0,0
1668242065.70019078,86728628,1584,1584,1545,1545,0,0,0,0,0,0,0,0,0,0
1668242065.80015087,86828588,1587,1588,1543,1542,0,0,0,0,0,0,0,0,0,0
1668242065.90011096,86928548,1589,1590,1539,1539,0,0,0,0,0,0,0,0,0,0
1668242066.00007081,87028508,1592,1593,1537,1537,0,0,0,0,0,0,0,0,0,0
1668242066.10003090,87128468,1595,1595,1536,1536,0,0,0,0,0,0,0,0,0,0
1668242066.19999075,87228428,1595,1594,1534,1535,0,0,0,0,0,0,0,0,0,0
1668242066.29995084,87328388,1596,1595,1536,1538,0,0,0,0,0,0,0,0,0,0
1668242066.39991093,87428348,1593,1593,1537,1540,0,0,0,0,0,0,0,0,0,0
1668242066.49987078,87528308,1590,1589,1542,1545,0,0,0,0,0,0,0,0,0,0
1668242066.59983087,87628268,1585,1583,1548,1552,0,0,0,0,0,0,0,0,0,0
1668242066.69979095,87728228,1577,1574,1558,1561,0,0,0,0,0,0,0,0,0,0
1668242066.79975080,87828188,1568,1564,1569,1571,0,0,0,0,0,0,0,0,0,0
1668242066.90054393,87928981,1558,1554,1583,1584,0,0,0,0,0,0,0,0,0,0
1668242067.00050378,88028941,1547,1544,1594,1595,0,0,0,0,0,0,0,0,0,0
1668242067.10046387,88128901,1538,1536,1605,1605,0,0,0,0,0,0,0,0,0,0
1668242067.20042396,88228861,1531,1531,1611,1610,0,0,0,0,0,0,0,0,0,0
1668242067.30038381,88328821,1528,1529,1614,1613,0,0,0,0,0,0,0,0,0,0
1668242067.40034389,88428781,1530,1532,1614,1614,0,0,0,0,0,0,0,0,0,0
1668242067.50030375,88528741,1534,1537,1611,1610,0,0,0,0,0,0,0,0,0,0
1668242067.60026383,88628701,1541,1544,1606,1605,0,0,0,0,0,0,0,0,0,0
1668242067.70022392,88728661,1551,1552,1600,1599,0,0,0,0,0,0,0,0,0,0
1668242067.80018377,88828621,1560,1561,1592,1592,0,0,0,0,0,0,0,0,0,0
1668242067.90014386,88928581,1567,1567,1584,1583,0,0,0,0,0,0,0,0,0,0
1668242068.00010395,89028541,1575,1574,1577,1577,0,0,0,0,0,0,0,0,0,0
1668242068.10006380,89128501,1581,1580,1571,1571,0,0,0,0,0,0,0,0,0,0
1668242068.20002389,89228461,1585,1584,1568,1568,0,0,0,0,0,0,0,0,0,0
1668242068.29998398,89328421,1587,1585,1566,1566,0,0,0,0,0,0,0,0,0,0
1668242068.39994383,89428381,1588,1586,1566,1566,0,0,0,0,0,0,0,0,0,0
1668242068.49990392,89528341,1586,1585,1567,1567,0,0,0,0,0,0,0,0,0,0
1668242068.59986377,89628301,1585,1584,1570,1570,0,0,0,0,0,0,0,0,0,0
1668242068.69982386,89728261,1581,1581,1572,1572,0,0,0,0,0,0,0,0,0,0
1668242068.79978395,89828221,1579,1579,1576,1576,0,0,0,0,0,0,0,0,0,0
1668242068.89974380,89928181,1577,1577,1579,1579,0,0,0,0,0,0,0,0,0,0
1668242069.00053692,90028974,1574,1575,1581,1580,0,0,0,0,0,0,0,0,0,0
1668242069.10049677,90128934,1573,1573,1582,1582,0,0,0,0,0,0,0,0,0,0
1668242069.20045686,90228894,1572,1572,1583,1582,0,0,0,0,0,0,0,0,0,0
1668242069.30041695,90328854,1572,1573,1584,1584,0,0,0,0,0,0,0,0,0,0
1668242069.40037680,90428814,1573,1573,1584,1584,0,0,0,0,0,0,0,0,0,0
1668242069.50033689,90528774,1573,1574,1582,1582,0,0,0,0,0,0,0,0,0,0
1668242069.60029697,90628734,1574,1575,1581,1582,0,0,0,0,0,0,0,0,0,0
1668242069.70025682,90728694,1576,1576,1579,1580,0,0,0,0,0,0,0,0,0,0
1668242069.80021691,90828654,1578,1578,1579,1579,0,0,0,0,0,0,0,0,0,0
1668242069.90017676,90928614,1578,1578,1577,1577,0,0,0,0,0,0,0,0,0,0
1668242070.00013685,91028574,1580,1579,1577,1577,0,0,0,0,0,0,0,0,0,0
1668242070.10009694,91128534,1581,1580,1577,1577,0,0,0,0,0,0,0,0,0,0
1668242070.20005679,91228494,1581,1581,1577,1577,0,0,0,0,0,0,0,0,0,0
1668242070.30001688,91328454,1581,1581,1577,1577,0,0,0,0,0,0,0,0,0,0
1668242070.39997697,91428414,1581,1581,1577,1577,0,0,0,0,0,0,0,0,0,0
1668242070.49993682,91528374,1581,1581,1578,1578,0,0,0,0,0,0,0,0,0,0
1668242070.59989691,91628334,1580,1580,1578,1578,0,0,0,0,0,0,0,0,0,0
1668242070.69985676,91728294,1581,1580,1580,1579,0,0,0,0,0,0,0,0,0,0
1668242070.79981685,91828254,1580,1580,1580,1580,0,0,0,0,0,0,0,0,0,0
1668242070.89977694,91928214,1580,1580,1581,1581,0,0,0,0,0,0,0,0,0,0
1668242070.99973679,92028174,1581,1581,1582,1583,0,0,0,0,0,0,0,0,0,0
1668242071.10052991,92128967,1580,1580,1582,1582,0,0,0,0,0,0,0,0,0,0
1668242071.20048976,92228927,1580,1580,1582,1582,0,0,0,0,0,0,0,0,0,0
1668242071.30044985,92328887,1580,1580,1582,1582,0,0,0,0,0,0,0,0,0,0
1668242071.40040994,92428847,1580,1581,1582,1582,0,0,0,0,0,0,0,0,0,0
1668242071.50036979,92528807,1580,1580,1581,1581,0,0,0,0,0,0,0,0,0,0
1668242071.60032988,92628767,1580,1580,1581,1581,0,0,0,0,0,0,0,0,0,0
1668242071.70028996,92728727,1581,1581,1581,1581,0,0,0,0,0,0,0,0,0,0
1668242071.80024981,92828687,1580,1580,1580,1580,0,0,0,0,0,0,0,0,0,0
1668242071.90020990,92928647,1580,1581,1583,1576,0,0,0,0,0,0,0,0,0,0
1668242072.00016975,93028607,1580,1583,1585,1570,0,0,0,0,0,0,0,0,0,0
1668242072.10012984,93128567,1580,1583,1578,1570,0,0,0,0,0,0,0,0,0,0
1668242072.20008993,93228527,1579,1583,1569,1570,0,0,0,0,0,0,0,0,0,0
1668242072.30004978,93328487,1579,1581,1561,1567,0,0,0,0,0,0,0,0,0,0
1668242072.40000987,93428447,1580,1581,1556,1563,0,0,0,0,0,0,0,0,0,0
1668242072.49996996,93528407,1581,1580,1553,1558,0,0,0,0,0,0,0,0,0,0
1668242072.59992981,93628367,1582,1580,1553,1555,0,0,0,0,0,0,0,0,0,0
1668242072.69988990,93728327,1582,1580,1554,1552,0,0,0,0,0,0,0,0,0,0
1668242072.79984975,93828287,1581,1580,1554,1551,0,0,0,0,0,0,0,0,0,0
1668242072.89980984,93928247,1580,1580,1555,1553,0,0,0,0,0,0,0,0,0,0
1668242072.99976993,94028207,1579,1580,1556,1554,0,0,0,0,0,0,0,0,0,0
1668242073.09972978,94128167,1577,1579,1555,1554,0,0,0,0,0,0,0,0,0,0
1668242073.20052290,94228960,1576,1578,1553,1553,0,0,0,0,0,0,0,0,0,0
1668242073.30048275,94328920,1577,1578,1553,1553,0,0,0,0,0,0,0,0,0,0
1668242073.40044284,94428880,1578,1579,1551,1552,0,0,0,0,0,0,0,0,0,0
1668242073.50040293,94528840,1579,1580,1549,1550,0,0,0,0,0,0,0,0,0,0
1668242073.60036278,94628800,1581,1582,1548,1548,0,0,0,0,0,0,0,0,0,0
1668242073.70032287,94728760,1583,1583,1545,1545,0,0,0,0,0,0,0,0,0,0
1668242073.80028296,94828720,1585,1586,1544,1544,0,0,0,0,0,0,0,0,0,0
1668242073.90024281,94928680,1588,1588,1543,1543,0,0,0,0,0,0,0,0,0,0
1668242074.00020289,95028640,1589,1591,1541,1541,0,0,0,0,0,0,0,0,0,0
1668242074.10016274,95128600,1591,1593,1540,1541,0,0,0,0,0,0,0,0,0,0
1668242074.20012283,95228560,1592,1593,1539,1541,0,0,0,0,0,0,0,0,0,0
1668242074.30008292,95328520,1592,1591,1542,1545,0,0,0,0,0,0,0,0,0,0
1668242074.40004277,95428480,1589,1587,1546,1549,0,0,0,0,0,0,0,0,0,0
1668242074.50000286,95528440,1585,1581,1554,1556,0,0,0,0,0,0,0,0,0,0
1668242074.59996295,95628400,1577,1574,1564,1565,0,0,0,0,0,0,0,0,0,0
1668242074.69992280,95728360,1568,1564,1574,1576,0,0,0,0,0,0,0,0,0,0
1668242074.79988289,95828320,1559,1556,1586,1586,0,0,0,0,0,0,0,0,0,0
1668242074.89984298,95928280,1550,1548,1596,1595,0,0,0,0,0,0,0,0,0,0
1668242074.99980283,96028240,1541,1541,1602,1602,0,0,0,0,0,0,0,0,0,0
1668242075.09976292,96128200,1537,1538,1608,1608,0,0,0,0,0,0,0,0,0,0
1668242075.19972277,96228160,1537,1539,1611,1610,0,0,0,0,0,0,0,0,0,0
1668242075.30051589,96328953,1538,1539,1609,1608,0,0,0,0,0,0,0,0,0,0
1668242075.40047598,96428913,1543,1545,1607,1606,0,0,0,0,0,0,0,0,0,0
1668242075.50043583,96528873,1550,1551,1603,1601,0,0,0,0,0,0,0,0,0,0
1668242075.60039592,96628833,1557,1558,1596,1596,0,0,0,0,0,0,0,0,0,0
1668242075.70035577,96728793,1564,1564,1589,1588,0,0,0,0,0,0,0,0,0,0
1668242075.80031586,96828753,1571,1571,1582,1582,0,0,0,0,0,0,0,0,0,0
1668242075.90027595,96928713,1576,1574,1576,1576,0,0,0,0,0,0,0,0,0,0
1668242076.00023580,97028673,1581,1580,1572,1573,0,0,0,0,0,0,0,0,0,0
1668242076.10019588,97128633,1584,1583,1569,1570,0,0,0,0,0,0,0,0,0,0
1668242076.20015597,97228593,1586,1585,1569,1569,0,0,0,0,0,0,0,0,0,0
1668242076.30011582,97328553,1587,1585,1570,1569,0,0,0,0,0,0,0,0,0,0
1668242076.40007591,97428513,1586,1585,1571,1571,0,0,0,0,0,0,0,0,0,0
1668242076.50003576,97528473,1583,1582,1573,1572,0,0,0,0,0,0,0,0,0,0
1668242076.59999585,97628433,1580,1580,1574,1575,0,0,0,0,0,0,0,0,0,0
1668242076.69995594,97728393,1578,1578,1577,1577,0,0,0,0,0,0,0,0,0,0
1668242076.79991579,97828353,1576,1577,1580,1580,0,0,0,0,0,0,0,0,0,0
1668242076.89987588,97928313,1574,1575,1581,1581,0,0,0,0,0,0,0,0,0,0
1668242076.99983597,98028273,1573,1574,1582,1582,0,0,0,0,0,0,0,0,0,0
1668242077.09979582,98128233,1573,1573,1583,1583,0,0,0,0,0,0,0,0,0,0
1668242077.19975591,98228193,1573,1573,1583,1583,0,0,0,0,0,0,0,0,0,0
1668242077.30054879,98328986,1574,1574,1583,1583,0,0,0,0,0,0,0,0,0,0
1668242077.40050888,98428946,1576,1576,1583,1583,0,0,0,0,0,0,0,0,0,0
1668242077.50046897,98528906,1577,1577,1582,1582,0,0,0,0,0,0,0,0,0,0
1668242077.60042882,98628866,1578,1578,1581,1581,0,0,0,0,0,0,0,0,0,0
1668242077.70038891,98728826,1579,1579,1580,1579,0,0,0,0,0,0,0,0,0,0
1668242077.80034876,98828786,1581,1581,1580,1580,0,0,0,0,0,0,0,0,0,0
1668242077.90030885,98928746,1581,1581,1579,1579,0,0,0,0,0,0,0,0,0,0
1668242078.00026894,99028706,1581,1581,1578,1578,0,0,0,0,0,0,0,0,0,0
1668242078.10022879,99128666,1581,1581,1577,1578,0,0,0,0,0,0,0,0,0,0
1668242078.20018888,99228626,1582,1581,1578,1578,0,0,0,0,0,0,0,0,0,0
1668242078.30014896,99328586,1581,1581,1578,1578,0,0,0,0,0,0,0,0,0,0
1668242078.40010881,99428546,1581,1581,1579,1579,0,0,0,0,0,0,0,0,0,0
1668242078.50006890,99528506,1581,1581,1580,1579,0,0,0,0,0,0,0,0,0,0
1668242078.60002875,99628466,1580,1581,1580,1580,0,0,0,0,0,0,0,0,0,0
1668242078.69998884,99728426,1581,1581,1581,1581,0,0,0,0,0,0,0,0,0,0
1668242078.79994893,99828386,1579,1579,1580,1580,0,0,0,0,0,0,0,0,0,0
1668242078.89990878,99928346,1580,1580,1581,1582,0,0,0,0,0,0,0,0,0,0
1668242078.99986887,100028306,1579,1580,1581,1581,0,0,0,0,0,0,0,0,0,0
1668242079.09982896,100128266,1579,1579,1581,1581,0,0,0,0,0,0,0,0,0,0
1668242079.19978881,100228226,1579,1579,1580,1581,0,0,0,0,0,0,0,0,0,0
1668242079.29974890,100328186,1580,1580,1581,1581,0,0,0,0,0,0,0,0,0,0
1668242079.40054178,100428979,1580,1580,1581,1581,0,0,0,0,0,0,0,0,0,0
1668242079.50050187,100528939,1581,1581,1581,1581,0,0,0,0,0,0,0,0,0,0
1668242079.60046196,100628899,1581,1581,1581,1581,0,0,0,0,0,0,0,0,0,0
1668242079.70042181,100728859,1581,1581,1581,1580,0,0,0,0,0,0,0,0,0,0
1668242079.80038190,100828819,1581,1581,1581,1581,0,0,0,0,0,0,0,0,0,0
1668242079.90034175,100928779,1582,1582,1582,1581,0,0,0,0,0,0,0,0,0,0
1668242080.00030184,101028739,1581,1582,1582,1579,0,0,0,0,0,0,0,0,0,0
1668242080.10026193,101128699,1580,1582,1587,1572,0,0,0,0,0,0,0,0,0,0
1668242080.20022178,101228659,1579,1582,1581,1571,0,0,0,0,0,0,0,0,0,0
1668242080.30018187,101328619,1579,1582,1573,1572,0,0,0,0,0,0,0,0,0,0
1668242080.40014195,101428579,1578,1580,1564,1569,0,0,0,0,0,0,0,0,0,0
1668242080.50010180,101528539,1577,1579,1558,1565,0,0,0,0,0,0,0,0,0,0
1668242080.60006189,101628499,1579,1579,1555,1561,0,0,0,0,0,0,0,0,0,0
1668242080.70002174,101728459,1579,1579,1554,1557,0,0,0,0,0,0,0,0,0,0
1668242080.79998183,101828419,1581,1579,1555,1554,0,0,0,0,0,0,0,0,0,0
1668242080.89994192,101928379,1579,1579,1555,1553,0,0,0,0,0,0,0,0,0,0
1668242080.99990177,102028339,1579,1579,1556,1553,0,0,0,0,0,0,0,0,0,0
1668242081.09986186,102128299,1577,1578,1555,1553,0,0,0,0,0,0,0,0,0,0
1668242081.19982195,102228259,1576,1577,1555,1554,0,0,0,0,0,0,0,0,0,0
1668242081.29978180,102328219,1574,1576,1553,1553,0,0,0,0,0,0,0,0,0,0
1668242081.39974189,102428179,1575,1577,1553,1553,0,0,0,0,0,0,0,0,0,0
1668242081.50053477,102528972,1576,1577,1552,1552,0,0,0,0,0,0,0,0,0,0
1668242081.60049486,102628932,1578,1579,1550,1550,0,0,0,0,0,0,0,0,0,0
1668242081.70045495,102728892,1580,1581,1549,1548,0,0,0,0,0,0,0,0,0,0
1668242081.80041480,102828852,1582,1584,1547,1546,0,0,0,0,0,0,0,0,0,0
1668242081.90037489,102928812,1584,1585,1544,1544,0,0,0,0,0,0,0,0,0,0
1668242082.00033498,103028772,1587,1588,1541,1542,0,0,0,0,0,0,0,0,0,0
1668242082.10029483,103128732,1589,1589,1539,1539,0,0,0,0,0,0,0,0,0,0
1668242082.20025492,103228692,1591,1591,1538,1538,0,0,0,0,0,0,0,0,0,0
1668242082.30021477,103328652,1593,1593,1538,1539,0,0,0,0,0,0,0,0,0,0
1668242082.40017486,103428612,1593,1593,1537,1539,0,0,0,0,0,0,0,0,0,0
1668242082.50013494,103528572,1593,1592,1539,1542,0,0,0,0,0,0,0,0,0,0
1668242082.60009480,103628532,1591,1589,1545,1547,0,0,0,0,0,0,0,0,0,0
1668242082.70005488,103728492,1586,1583,1551,1554,0,0,0,0,0,0,0,0,0,0
1668242082.80001497,103828452,1579,1575,1561,1563,0,0,0,0,0,0,0,0,0,0
1668242082.89997482,103928412,1569,1565,1571,1573,0,0,0,0,0,0,0,0,0,0
1668242082.99993491,104028372,1558,1555,1582,1584,0,0,0,0,0,0,0,0,0,0
1668242083.09989476,104128332,1549,1546,1594,1594,0,0,0,0,0,0,0,0,0,0
1668242083.19985485,104228292,1542,1541,1604,1603,0,0,0,0,0,0,0,0,0,0
1668242083.29981494,104328252,1536,1536,1610,1609,0,0,0,0,0,0,0,0,0,0
1668242083.39977479,104428212,1534,1536,1613,1612,0,0,0,0,0,0,0,0,0,0
1668242083.49973488,104528172,1535,1537,1613,1612,0,0,0,0,0,0,0,0,0,0
1668242083.60052776,104628965,1539,1541,1609,1609,0,0,0,0,0,0,0,0,0,0
1668242083.70048785,104728925,1545,1547,1604,1604,0,0,0,0,0,0,0,0,0,0
1668242083.80044794,104828885,1553,1554,1598,1597,0,0,0,0,0,0,0,0,0,0
1668242083.90040779,104928845,1561,1562,1591,1590,0,0,0,0,0,0,0,0,0,0
1668242084.00036788,105028805,1569,1569,1585,1584,0,0,0,0,0,0,0,0,0,0
1668242084.10032797,105128765,1576,1575,1578,1578,0,0,0,0,0,0,0,0,0,0
1668242084.20028782,105228725,1582,1581,1574,1574,0,0,0,0,0,0,0,0,0,0
1668242084.30024791,105328685,1585,1584,1570,1570,0,0,0,0,0,0,0,0,0,0
1668242084.40020776,105428645,1586,1585,1568,1568,0,0,0,0,0,0,0,0,0,0
1668242084.50016785,105528605,1587,1586,1568,1568,0,0,0,0,0,0,0,0,0,0
1668242084.60012794,105628565,1586,1586,1570,1570,0,0,0,0,0,0,0,0,0,0
1668242084.70008779,105728525,1583,1582,1570,1570,0,0,0,0,0,0,0,0,0,0
1668242084.80004787,105828485,1582,1581,1573,1574,0,0,0,0,0,0,0,0,0,0
1668242084.90000796,105928445,1578,1578,1575,1575,0,0,0,0,0,0,0,0,0,0
1668242084.99996781,106028405,1576,1577,1578,1578,0,0,0,0,0,0,0,0,0,0
1668242085.09992790,106128365,1574,1575,1580,1580,0,0,0,0,0,0,0,0,0,0
1668242085.19988775,106228325,1572,1573,1581,1581,0,0,0,0,0,0,0,0,0,0
1668242085.29984784,106328285,1571,1572,1582,1582,0,0,0,0,0,0,0,0,0,0
1668242085.39980793,106428245,1573,1573,1584,1583,0,0,0,0,0,0,0,0,0,0
1668242085.49976778,106528205,1572,1573,1582,1582,0,0,0,0,0,0,0,0,0,0
1668242085.59972787,106628165,1574,1575,1582,1582,0,0,0,0,0,0,0,0,0,0
1668242085.70052075,106728958,1575,1576,1582,1582,0,0,0,0,0,0,0,0,0,0
1668242085.80048084,106828918,1576,1577,1580,1580,0,0,0,0,0,0,0,0,0,0
1668242085.90044093,106928878,1577,1577,1578,1579,0,0,0,0,0,0,0,0,0,0
1668242086.00040078,107028838,1579,1579,1578,1578,0,0,0,0,0,0,0,0,0,0
1668242086.10036087,107128798,1581,1580,1578,1578,0,0,0,0,0,0,0,0,0,0
1668242086.20032096,107228758,1581,1581,1578,1578,0,0,0,0,0,0,0,0,0,0
1668242086.30028081,107328718,1582,1581,1578,1577,0,0,0,0,0,0,0,0,0,0
1668242086.40024090,107428678,1582,1582,1579,1578,0,0,0,0,0,0,0,0,0,0
1668242086.50020075,107528638,1582,1581,1578,1578,0,0,0,0,0,0,0,0,0,0
1668242086.60016084,107628598,1580,1580,1577,1577,0,0,0,0,0,0,0,0,0,0
1668242086.70012093,107728558,1580,1580,1578,1578,0,0,0,0,0,0,0,0,0,0
1668242086.80008078,107828518,1580,1580,1580,1579,0,0,0,0,0,0,0,0,0,0
1668242086.90004086,107928478,1580,1580,1580,1580,0,0,0,0,0,0,0,0,0,0
1668242087.00000095,108028438,1579,1580,1580,1581,0,0,0,0,0,0,0,0,0,0
1668242087.09996080,108128398,1580,1580,1582,1581,0,0,0,0,0,0,0,0,0,0
1668242087.19992089,108228358,1580,1580,1582,1582,0,0,0,0,0,0,0,0,0,0
1668242087.29988098,108328318,1581,1581,1582,1583,0,0,0,0,0,0,0,0,0,0
1668242087.39984083,108428278,1580,1580,1582,1582,0,0,0,0,0,0,0,0,0,0
1668242087.49980092,108528238,1581,1580,1582,1582,0,0,0,0,0,0,0,0,0,0
1668242087.59976077,108628198,1581,1581,1582,1582,0,0,0,0,0,0,0,0,0,0
1668242087.69972086,108728158,1580,1580,1580,1580,0,0,0,0,0,0,0,0,0,0
1668242087.80051374,108828951,1580,1580,1580,1580,0,0,0,0,0,0,0,0,0,0
1668242087.90047383,108928911,1581,1582,1581,1580,0,0,0,0,0,0,0,0,0,0
1668242088.00043392,109028871,1580,1582,1587,1572,0,0,0,0,0,0,0,0,0,0
1668242088.10039377,109128831,1581,1582,1586,1573,0,0,0,0,0,0,0,0,0,0
1668242088.20035386,109228791,1578,1578,1577,1574,0,0,0,0,0,0,0,0,0,0
1668242088.30031395,109328751,1574,1574,1569,1575,0,0,0,0,0,0,0,0,0,0
1668242088.40027380,109428711,1572,1571,1566,1574,0,0,0,0,0,0,0,0,0,0
1668242088.50023389,109528671,1569,1569,1565,1572,0,0,0,0,0,0,0,0,0,0
1668242088.60019398,109628631,1568,1568,1566,1569,0,0,0,0,0,0,0,0,0,0
1668242088.70015383,109728591,1567,1567,1567,1567,0,0,0,0,0,0,0,0,0,0
1668242088.80011392,109828551,1567,1567,1568,1566,0,0,0,0,0,0,0,0,0,0
1668242088.90007377,109928511,1566,1566,1568,1565,0,0,0,0,0,0,0,0,0,0
1668242089.00003386,110028471,1564,1564,1566,1564,0,0,0,0,0,0,0,0,0,0
1668242089.09999394,110128431,1564,1563,1565,1564,0,0,0,0,0,0,0,0,0,0
1668242089.19995379,110228391,1564,1563,1565,1564,0,0,0,0,0,0,0,0,0,0
1668242089.29991388,110328351,1563,1563,1564,1564,0,0,0,0,0,0,0,0,0,0
1668242089.39987397,110428311,1562,1562,1562,1563,0,0,0,0,0,0,0,0,0,0
1668242089.49983382,110528271,1561,1561,1561,1562,0,0,0,0,0,0,0,0,0,0
1668242089.59979391,110628231,1561,1562,1562,1561,0,0,0,0,0,0,0,0,0,0
1668242089.69975376,110728191,1561,1561,1561,1561,0,0,0,0,0,0,0,0,0,0
1668242089.80054688,110828984,1561,1561,1561,1560,0,0,0,0,0,0,0,0,0,0
1668242089.90050697,110928944,1560,1559,1560,1559,0,0,0,0,0,0,0,0,0,0
1668242090.00046682,111028904,1559,1558,1559,1558,0,0,0,0,0,0,0,0,0,0
1668242090.10042691,111128864,1557,1557,1558,1557,0,0,0,0,0,0,0,0,0,0
1668242090.20038676,111228824,1557,1558,1558,1557,0,0,0,0,0,0,0,0,0,0
1668242090.30034685,111328784,1557,1556,1557,1555,0,0,0,0,0,0,0,0,0,0
1668242090.40030694,111428744,1557,1557,1557,1556,0,0,0,0,0,0,0,0,0,0
1668242090.50026679,111528704,1557,1557,1557,1556,0,0,0,0,0,0,0,0,0,0
1668242090.60022688,111628664,1557,1558,1559,1556,0,0,0,0,0,0,0,0,0,0
1668242090.70018697,111728624,1558,1558,1559,1557,0,0,0,0,0,0,0,0,0,0
1668242090.80014682,111828584,1559,1559,1558,1559,0,0,0,0,0,0,0,0,0,0
1668242090.90010691,111928544,1559,1559,1556,1562,0,0,0,0,0,0,0,0,0,0
1668242091.00006676,112028504,1560,1561,1557,1563,0,0,0,0,0,0,0,0,0,0
1668242091.10002685,112128464,1561,1561,1558,1564,0,0,0,0,0,0,0,0,0,0
1668242091.19998693,112228424,1562,1562,1560,1563,0,0,0,0,0,0,0,0,0,0
1668242091.29994678,112328384,1562,1561,1561,1562,0,0,0,0,0,0,0,0,0,0
1668242091.39990687,112428344,1562,1562,1563,1560,0,0,0,0,0,0,0,0,0,0
1668242091.49986696,112528304,1560,1560,1562,1558,0,0,0,0,0,0,0,0,0,0
1668242091.59982681,112628264,1561,1561,1560,1562,0,0,0,0,0,0,0,0,0,0
1668242091.69978690,112728224,1558,1558,1555,1562,0,0,0,0,0,0,0,0,0,0
1668242091.79974675,112828184,1554,1554,1552,1556,0,0,0,0,0,0,0,0,0,0
1668242091.90053988,112928977,1548,1548,1547,1549,0,0,0,0,0,0,0,0,0,0
1668242092.00049996,113028937,1541,1541,1541,1541,0,0,0,0,0,0,0,0,0,0
1668242092.10045981,113128897,1534,1534,1535,1533,0,0,0,0,0,0,0,0,0,0
1668242092.20041990,113228857,1527,1527,1528,1526,0,0,0,0,0,0,0,0,0,0
1668242092.30037975,113328817,1520,1520,1521,1520,0,0,0,0,0,0,0,0,0,0
1668242092.40033984,113428777,1519,1519,1519,1519,0,0,0,0,0,0,0,0,0,0
1668242092.50029993,113528737,1519,1519,1519,1520,0,0,0,0,0,0,0,0,0,0
1668242092.60025978,113628697,1520,1520,1520,1521,0,0,0,0,0,0,0,0,0,0
1668242092.70021987,113728657,1524,1524,1523,1524,0,0,0,0,0,0,0,0,0,0
1668242092.80017996,113828617,1528,1528,1528,1528,0,0,0,0,0,0,0,0,0,0
1668242092.90013981,113928577,1533,1533,1533,1533,0,0,0,0,0,0,0,0,0,0
1668242093.00009990,114028537,1537,1537,1537,1537,0,0,0,0,0,0,0,0,0,0
1668242093.10005975,114128497,1539,1539,1539,1539,0,0,0,0,0,0,0,0,0,0
1668242093.20001984,114228457,1542,1542,1542,1542,0,0,0,0,0,0,0,0,0,0
1668242093.29997993,114328417,1544,1543,1544,1544,0,0,0,0,0,0,0,0,0,0
1668242093.39993978,114428377,1545,1545,1546,1545,0,0,0,0,0,0,0,0,0,0
1668242093.49989986,114528337,1546,1545,1545,1545,0,0,0,0,0,0,0,0,0,0
1668242093.59985995,114628297,1546,1547,1547,1546,0,0,0,0,0,0,0,0,0,0
1668242093.69981980,114728257,1547,1546,1547,1546,0,0,0,0,0,0,0,0,0,0
1668242093.79977989,114828217,1546,1547,1547,1546,0,0,0,0,0,0,0,0,0,0
1668242093.89973998,114928177,1546,1546,1546,1546,0,0,0,0,0,0,0,0,0,0
1668242094.00053287,115028970,1546,1546,1546,1546,0,0,0,0,0,0,0,0,0,0
1668242094.10049295,115128930,1546,1546,1545,1546,0,0,0,0,0,0,0,0,0,0
1668242094.20045280,115228890,1545,1545,1545,1545,0,0,0,0,0,0,0,0,0,0
1668242094.30041289,115328850,1546,1546,1546,1545,0,0,0,0,0,0,0,0,0,0
1668242094.40037274,115428810,1545,1545,1545,1545,0,0,0,0,0,0,0,0,0,0
1668242094.50033283,115528770,1545,1545,1545,1545,0,0,0,0,0,0,0,0,0,0
1668242094.60029292,115628730,1544,1545,1545,1544,0,0,0,0,0,0,0,0,0,0
1668242094.70025277,115728690,1544,1545,1544,1544,0,0,0,0,0,0,0,0,0,0
1668242094.80021286,115828650,1544,1544,1544,1544,0,0,0,0,0,0,0,0,0,0
1668242094.90017295,115928610,1543,1543,1543,1543,0,0,0,0,0,0,0,0,0,0
1668242095.00013280,116028570,1545,1544,1545,1544,0,0,0,0,0,0,0,0,0,0
1668242095.10009289,116128530,1544,1543,1543,1543,0,0,0,0,0,0,0,0,0,0
1668242095.20005298,116228490,1544,1544,1544,1544,0,0,0,0,0,0,0,0,0,0
1668242095.30001283,116328450,1544,1544,1544,1544,0,0,0,0,0,0,0,0,0,0
1668242095.39997292,116428410,1544,1545,1544,1544,0,0,0,0,0,0,0,0,0,0
1668242095.49993277,116528370,1544,1544,1544,1544,0,0,0,0,0,0,0,0,0,0
1668242095.59989285,116628330,1544,1543,1543,1543,0,0,0,0,0,0,0,0,0,0
1668242095.69985294,116728290,1544,1544,1544,1544,0,0,0,0,0,0,0,0,0,0
1668242095.79981279,116828250,1544,1544,1544,1544,0,0,0,0,0,0,0,0,0,0
1668242095.89977288,116928210,1545,1545,1545,1545,0,0,0,0,0,0,0,0,0,0
1668242095.99973297,117028170,1544,1544,1544,1544,0,0,0,0,0,0,0,0,0,0
1668242096.10052586,117128963,1544,1543,1544,1543,0,0,0,0,0,0,0,0,0,0
1668242096.20048594,117228923,1544,1544,1544,1544,0,0,0,0,0,0,0,0,0,0
1668242096.30044580,117328883,1544,1544,1544,1544,0,0,0,0,0,0,0,0,0,0
1668242096.40040588,117428843,1543,1543,1543,1543,0,0,0,0,0,0,0,0,0,0
1668242096.50036597,117528803,1544,1544,1544,1544,0,0,0,0,0,0,0,0,0,0
1668242096.60032582,117628763,1544,1544,1545,1544,0,0,0,0,0,0,0,0,0,0
1668242096.70028591,117728723,1544,1544,1544,1544,0,0,0,0,0,0,0,0,0,0
1668242096.80024576,117828683,1544,1544,1543,1544,0,0,0,0,0,0,0,0,0,0
1668242096.90020585,117928643,1544,1544,1544,1544,0,0,0,0,0,0,0,0,0,0
1668242097.00016594,118028603,1545,1544,1544,1545,0,0,0,0,0,0,0,0,0,0
1668242097.10012579,118128563,1544,1544,1544,1544,0,0,0,0,0,0,0,0,0,0
1668242097.20008588,118228523,1544,1544,1545,1545,0,0,0,0,0,0,0,0,0,0
1668242097.30004597,118328483,1543,1543,1544,1543,0,0,0,0,0,0,0,0,0,0
1668242097.40000582,118428443,1544,1544,1544,1543,0,0,0,0,0,0,0,0,0,0
1668242097.49996591,118528403,1545,1544,1544,1544,0,0,0,0,0,0,0,0,0,0
1668242097.59992576,118628363,1545,1545,1545,1545,0,0,0,0,0,0,0,0,0,0
1668242097.69988585,118728323,1546,1545,1545,1545,0,0,0,0,0,0,0,0,0,0
1668242097.79984593,118828283,1544,1545,1544,1544,0,0,0,0,0,0,0,0,0,0
1668242097.89980578,118928243,1545,1544,1545,1545,0,0,0,0,0,0,0,0,0,0
1668242097.99976587,119028203,1545,1545,1545,1545,0,0,0,0,0,0,0,0,0,0
1668242098.09972596,119128163,1545,1545,1545,1545,0,0,0,0,0,0,0,0,0,0
1668242098.20051885,119228956,1545,1545,1545,1544,0,0,0,0,0,0,0,0,0,0
1668242098.30047894,119328916,1545,1545,1545,1545,0,0,0,0,0,0,0,0,0,0
1668242098.40043879,119428876,1544,1545,1544,1544,0,0,0,0,0,0,0,0,0,0
1668242098.50039887,119528836,1543,1543,1543,1544,0,0,0,0,0,0,0,0,0,0
1668242098.60035896,119628796,1544,1544,1543,1544,0,0,0,0,0,0,0,0,0,0
1668242098.70031881,119728756,1545,1544,1544,1545,0,0,0,0,0,0,0,0,0,0
1668242098.80027890,119828716,1543,1543,1544,1543,0,0,0,0,0,0,0,0,0,0
1668242098.90023875,119928676,1545,1544,1544,1545,0,0,0,0,0,0,0,0,0,0
1668242099.00019884,120028636,1544,1545,1545,1544,0,0,0,0,0,0,0,0,0,0
1668242099.10015893,120128596,1545,1544,1545,1545,0,0,0,0,0,0,0,0,0,0
1668242099.20011878,120228556,1545,1545,1545,1545,0,0,0,0,0,0,0,0,0,0
1668242099.30007887,120328516,1544,1543,1543,1544,0,0,0,0,0,0,0,0,0,0
1668242099.40003896,120428476,1544,1544,1544,1544,0,0,0,0,0,0,0,0,0,0
1668242099.49999881,120528436,1544,1545,1544,1544,0,0,0,0,0,0,0,0,0,0
1668242099.59995890,120628396,1544,1543,1543,1543,0,0,0,0,0,0,0,0,0,0
1668242099.69991875,120728356,1544,1543,1543,1544,0,0,0,0,0,0,0,0,0,0
1668242099.79987884,120828316,1543,1543,1543,1543,0,0,0,0,0,0,0,0,0,0
1668242099.89983892,120928276,1543,1543,1543,1543,0,0,0,0,0,0,0,0,0,0
1668242099.99979877,121028236,1544,1544,1544,1544,0,0,0,0,0,0,0,0,0,0
1668242100.09975886,121128196,1544,1543,1544,1544,0,0,0,0,0,0,0,0,0,0
1668242100.19971895,121228156,1544,1545,1544,1545,0,0,0,0,0,0,0,0,0,0
1668242100.30051184,121328949,1544,1545,1544,1545,0,0,0,0,0,0,0,0,0,0
1668242100.40047193,121428909,1544,1544,1544,1544,0,0,0,0,0,0,0,0,0,0
1668242100.50043178,121528869,1544,1544,1544,1544,0,0,0,0,0,0,0,0,0,0
1668242100.60039186,121628829,1544,1544,1544,1544,0,0,0,0,0,0,0,0,0,0
1668242100.70035195,121728789,1545,1545,1545,1545,0,0,0,0,0,0,0,0,0,0
1668242100.80031180,121828749,1544,1544,1545,1544,0,0,0,0,0,0,0,0,0,0
1668242100.90027189,121928709,1545,1544,1544,1544,0,0,0,0,0,0,0,0,0,0
1668242101.00023198,122028669,1544,1544,1544,1544,0,0,0,0,0,0,0,0,0,0
1668242101.10019183,122128629,1545,1544,1544,1545,0,0,0,0,0,0,0,0,0,0
1668242101.20015192,122228589,1544,1545,1545,1544,0,0,0,0,0,0,0,0,0,0
1668242101.30011177,122328549,1544,1544,1544,1544,0,0,0,0,0,0,0,0,0,0
1668242101.40007186,122428509,1545,1545,1545,1545,0,0,0,0,0,0,0,0,0,0
1668242101.50003195,122528469,1544,1544,1543,1544,0,0,0,0,0,0,0,0,0,0
1668242101.59999180,122628429,1543,1543,1543,1543,0,0,0,0,0,0,0,0,0,0
1668242101.69995189,122728389,1544,1544,1544,1544,0,0,0,0,0,0,0,0,0,0
1668242101.79991198,122828349,1544,1544,1544,1544,0,0,0,0,0,0,0,0,0,0
1668242101.89987183,122928309,1544,1544,1544,1544,0,0,0,0,0,0,0,0,0,0
1668242101.99983191,123028269,1519,1520,1520,1518,0,0,0,0,0,0,0,0,0,0
1668242102.09979177,123128229,1331,1333,1334,1330,0,0,0,0,0,0,0,0,0,0
1668242102.19975185,123228189,1238,1242,1243,1237,0,0,0,0,0,0,0,0,0,0
1668242102.30054498,123328982,1211,1213,1215,1210,0,0,0,0,0,0,0,0,0,0
1668242102.40050483,123428942,1190,1193,1194,1189,0,0,0,0,0,0,0,0,0,0
1668242102.50046492,123528902,1150,1152,1154,1150,0,0,0,0,0,0,0,0,0,0
1668242102.60042477,123628862,1150,1154,1156,1150,0,0,0,0,0,0,0,0,0,0
1668242102.70038486,123728822,1156,1150,1151,1155,0,0,0,0,0,0,0,0,0,0
1668242102.80034494,123828782,1186,1150,1150,1187,0,0,0,0,0,0,0,0,0,0
1668242102.90030479,123928742,1174,1150,1151,1174,0,0,0,0,0,0,0,0,0,0
1668242103.00026488,124028702,1171,1150,1151,1171,0,0,0,0,0,0,0,0,0,0
1668242103.10022497,124128662,1173,1150,1151,1173,0,0,0,0,0,0,0,0,0,0
1668242103.20018482,124228622,1174,1150,1151,1174,0,0,0,0,0,0,0,0,0,0
1668242103.30014491,124328582,1177,1150,1151,1177,0,0,0,0,0,0,0,0,0,0
1668242103.40010476,124428542,1179,1150,1152,1179,0,0,0,0,0,0,0,0,0,0
1668242103.50006485,124528502,1150,1151,1153,1150,0,0,0,0,0,0,0,0,0,0
1668242103.60002494,124628462,1166,1150,1151,1166,0,0,0,0,0,0,0,0,0,0
1668242103.69998479,124728422,1167,1150,1152,1167,0,0,0,0,0,0,0,0,0,0
1668242103.79994488,124828382,1168,1150,1152,1168,0,0,0,0,0,0,0,0,0,0
1668242103.89990497,124928342,1169,1150,1152,1169,0,0,0,0,0,0,0,0,0,0
1668242103.99986482,125028302,1147,1147,1147,1147,0,0,0,0,0,0,0,0,0,0
1668242104.09982491,125128262,1000,1000,1000,1000,0,0,0,0,0,0,0,0,0,0
1668242104.19978476,125228222,1000,1000,1000,1000,0,0,0,0,0,0,0,0,0,0
1668242104.29974484,125328182,1000,1000,1000,1000,0,0,0,0,0,0,0,0,0,0
1668242104.40053797,125428975,1000,1000,1000,1000,0,0,0,0,0,0,0,0,0,0
1668242104.50049782,125528935,1000,1000,1000,1000,0,0,0,0,0,0,0,0,0,0
1668242104.60045791,125628895,1000,1000,1000,1000,0,0,0,0,0,0,0,0,0,0
1668242104.70041776,125728855,1000,1000,1000,1000,0,0,0,0,0,0,0,0,0,0
1668242104.80037785,125828815,1000,1000,1000,1000,0,0,0,0,0,0,0,0,0,0
1668242104.90033793,125928775,1000,1000,1000,1000,0,0,0,0,0,0,0,0,0,0
1668242105.00029778,126028735,1000,1000,1000,1000,0,0,0,0,0,0,0,0,0,0
1668242105.10025787,126128695,1000,1000,1000,1000,0,0,0,0,0,0,0,0,0,0
1668242105.20021796,126228655,1000,1000,1000,1000,0,0,0,0,0,0,0,0,0,0
1668242105.30017781,126328615,1000,1000,1000,1000,0,0,0,0,0,0,0,0,0,0
1668242105.40013790,126428575,1000,1000,1000,1000,0,0,0,0,0,0,0,0,0,0
1668242105.50009775,126528535,1000,1000,1000,1000,0,0,0,0,0,0,0,0,0,0
1668242105.60005784,126628495,1000,1000,1000,1000,0,0,0,0,0,0,0,0,0,0
1668242105.70001793,126728455,1000,1000,1000,1000,0,0,0,0,0,0,0,0,0,0
1668242105.79997778,126828415,1000,1000,1000,1000,0,0,0,0,0,0,0,0,0,0
1668242105.89993787,126928375,1000,1000,1000,1000,0,0,0,0,0,0,0,0,0,0
1668242105.99989796,127028335,1000,1000,1000,1000,0,0,0,0,0,0,0,0,0,0
1668242106.09985781,127128295,1000,1000,1000,1000,0,0,0,0,0,0,0,0,0,0
1668242106.19981790,127228255,1000,1000,1000,1000,0,0,0,0,0,0,0,0,0,0
1668242106.29977775,127328215,1000,1000,1000,1000,0,0,0,0,0,0,0,0,0,0
1668242106.39973783,127428175,1000,1000,1000,1000,0,0,0,0,0,0,0,0,0,0
1668242106.50053096,127528968,1000,1000,1000,1000,0,0,0,0,0,0,0,0,0,0
1668242106.60049081,127628928,1000,1000,1000,1000,0,0,0,0,0,0,0,0,0,0
1668242106.70045090,127728888,1000,1000,1000,1000,0,0,0,0,0,0,0,0,0,0
1668242106.80041075,127828848,1000,1000,1000,1000,0,0,0,0,0,0,0,0,0,0
1668242106.90037084,127928808,1000,1000,1000,1000,0,0,0,0,0,0,0,0,0,0
1668242107.00033092,128028768,1000,1000,1000,1000,0,0,0,0,0,0,0,0,0,0
1668242107.10029078,128128728,1000,1000,1000,1000,0,0,0,0,0,0,0,0,0,0
1668242107.20025086,128228688,1000,1000,1000,1000,0,0,0,0,0,0,0,0,0,0
1668242107.30021095,128328648,1000,1000,1000,1000,0,0,0,0,0,0,0,0,0,0
1668242107.40017080,128428608,1000,1000,1000,1000,0,0,0,0,0,0,0,0,0,0
1668242107.50013089,128528568,1000,1000,1000,1000,0,0,0,0,0,0,0,0,0,0
1668242107.60009098,128628528,1000,1000,1000,1000,0,0,0,0,0,0,0,0,0,0
1668242107.70005083,128728488,1000,1000,1000,1000,0,0,0,0,0,0,0,0,0,0
1668242107.80001092,128828448,1000,1000,1000,1000,0,0,0,0,0,0,0,0,0,0
1668242107.89997077,128928408,1000,1000,1000,1000,0,0,0,0,0,0,0,0,0,0
1668242107.99993086,129028368,1000,1000,1000,1000,0,0,0,0,0,0,0,0,0,0
1668242108.09989095,129128328,1000,1000,1000,1000,0,0,0,0,0,0,0,0,0,0
1668242108.19985080,129228288,1000,1000,1000,1000,0,0,0,0,0,0,0,0,0,0
1668242108.29981089,129328248,1000,1000,1000,1000,0,0,0,0,0,0,0,0,0,0
1668242108.39977098,129428208,1000,1000,1000,1000,0,0,0,0,0,0,0,0,0,0
1668242108.49973083,129528168,1000,1000,1000,1000,0,0,0,0,0,0,0,0,0,0
1668242108.60052395,129628961,1000,1000,1000,1000,0,0,0,0,0,0,0,0,0,0
1668242108.70048380,129728921,1000,1000,1000,1000,0,0,0,0,0,0,0,0,0,0
1668242108.80044389,129828881,1000,1000,1000,1000,0,0,0,0,0,0,0,0,0,0
1668242108.90040398,129928841,1000,1000,1000,1000,0,0,0,0,0,0,0,0,0,0
1668242109.00036383,130028801,1000,1000,1000,1000,0,0,0,0,0,0,0,0,0,0
1668242109.10032392,130128761,1000,1000,1000,1000,0,0,0,0,0,0,0,0,0,0
1668242109.20028377,130228721,1000,1000,1000,1000,0,0,0,0,0,0,0,0,0,0
1668242109.30024385,130328681,1000,1000,1000,1000,0,0,0,0,0,0,0,0,0,0
1668242109.40020394,130428641,1000,1000,1000,1000,0,0,0,0,0,0,0,0,0,0
1668242109.50016379,130528601,1000,1000,1000,1000,0,0,0,0,0,0,0,0,0,0
1668242109.60012388,130628561,1000,1000,1000,1000,0,0,0,0,0,0,0,0,0,0
1668242109.70008397,130728521,1000,1000,1000,1000,0,0,0,0,0,0,0,0,0,0
1668242109.80004382,130828481,1000,1000,1000,1000,0,0,0,0,0,0,0,0,0,0
1668242109.90000391,130928441,1000,1000,1000,1000,0,0,0,0,0,0,0,0,0,0
1668242109.99996376,131028401,1000,1000,1000,1000,0,0,0,0,0,0,0,0,0,0
1668242110.09992385,131128361,1000,1000,1000,1000,0,0,0,0,0,0,0,0,0,0
1668242110.19988394,131228321,1000,1000,1000,1000,0,0,0,0,0,0,0,0,0,0
1668242110.29984379,131328281,1000,1000,1000,1000,0,0,0,0,0,0,0,0,0,0
1668242110.39980388,131428241,1000,1000,1000,1000,0,0,0,0,0,0,0,0,0,0
1668242110.49976397,131528201,1000,1000,1000,1000,0,0,0,0,0,0,0,0,0,0
1668242110.59972382,131628161,1000,1000,1000,1000,0,0,0,0,0,0,0,0,0,0
1668242110.70051694,131728954,1000,1000,1000,1000,0,0,0,0,0,0,0,0,0,0
1668242110.80047679,131828914,1000,1000,1000,1000,0,0,0,0,0,0,0,0,0,0
1668242110.90043688,131928874,1000,1000,1000,1000,0,0,0,0,0,0,0,0,0,0
1668242111.00039697,132028834,1000,1000,1000,1000,0,0,0,0,0,0,0,0,0,0
1668242111.10035682,132128794,1000,1000,1000,1000,0,0,0,0,0,0,0,0,0,0
1668242111.20031691,132228754,1000,1000,1000,1000,0,0,0,0,0,0,0,0,0,0
1668242111.30027676,132328714,1000,1000,1000,1000,0,0,0,0,0,0,0,0,0,0
1668242111.40023685,132428674,1000,1000,1000,1000,0,0,0,0,0,0,0,0,0,0
1668242111.50019693,132528634,1000,1000,1000,1000,0,0,0,0,0,0,0,0,0,0
1668242111.60015678,132628594,1000,1000,1000,1000,0,0,0,0,0,0,0,0,0,0
1668242111.70011687,132728554,1000,1000,1000,1000,0,0,0,0,0,0,0,0,0,0
1668242111.80007696,132828514,1000,1000,1000,1000,0,0,0,0,0,0,0,0,0,0
1668242111.90003681,132928474,1000,1000,1000,1000,0,0,0,0,0,0,0,0,0,0
1668242111.99999690,133028434,1000,1000,1000,1000,0,0,0,0,0,0,0,0,0,0
1668242112.09995675,133128394,1000,1000,1000,1000,0,0,0,0,0,0,0,0,0,0
1668242112.19991684,133228354,1000,1000,1000,1000,0,0,0,0,0,0,0,0,0,0
1668242112.29987693,133328314,1000,1000,1000,1000,0,0,0,0,0,0,0,0,0,0
1668242112.39983678,133428274,1000,1000,1000,1000,0,0,0,0,0,0,0,0,0,0
1668242112.49979687,133528234,1000,1000,1000,1000,0,0,0,0,0,0,0,0,0,0
1668242112.59975696,133628194,1000,1000,1000,1000,0,0,0,0,0,0,0,0,0,0
1668242112.69971681,133728154,1000,1000,1000,1000,0,0,0,0,0,0,0,0,0,0
1668242112.80050993,133828947,1000,1000,1000,1000,0,0,0,0,0,0,0,0,0,0
1668242112.90046978,133928907,1000,1000,1000,1000,0,0,0,0,0,0,0,0,0,0
1668242113.00042987,134028867,1000,1000,1000,1000,0,0,0,0,0,0,0,0,0,0
1668242113.10038996,134128827,1000,1000,1000,1000,0,0,0,0,0,0,0,0,0,0
1668242113.20034981,134228787,1000,1000,1000,1000,0,0,0,0,0,0,0,0,0,0
1668242113.30030990,134328747,1000,1000,1000,1000,0,0,0,0,0,0,0,0,0,0
1668242113.40026975,134428707,1000,1000,1000,1000,0,0,0,0,0,0,0,0,0,0
1668242113.50022984,134528667,1000,1000,1000,1000,0,0,0,0,0,0,0,0,0,0
1668242113.60018992,134628627,1000,1000,1000,1000,0,0,0,0,0,0,0,0,0,0
1668242113.70014977,134728587,1000,1000,1000,1000,0,0,0,0,0,0,0,0,0,0
1668242113.80010986,134828547,1000,1000,1000,1000,0,0,0,0,0,0,0,0,0,0
1668242113.90006995,134928507,1000,1000,1000,1000,0,0,0,0,0,0,0,0,0,0
1668242114.00002980,135028467,1000,1000,1000,1000,0,0,0,0,0,0,0,0,0,0
1668242114.09998989,135128427,1000,1000,1000,1000,0,0,0,0,0,0,0,0,0,0
1668242114.19994998,135228387,1000,1000,1000,1000,0,0,0,0,0,0,0,0,0,0
1668242114.29990983,135328347,1000,1000,1000,1000,0,0,0,0,0,0,0,0,0,0
1668242114.39986992,135428307,1000,1000,1000,1000,0,0,0,0,0,0,0,0,0,0
1668242114.49982977,135528267,1000,1000,1000,1000,0,0,0,0,0,0,0,0,0,0
1668242114.59978986,135628227,1000,1000,1000,1000,0,0,0,0,0,0,0,0,0,0
1668242114.69974995,135728187,1000,1000,1000,1000,0,0,0,0,0,0,0,0,0,0
1668242114.80054283,135828980,1000,1000,1000,1000,0,0,0,0,0,0,0,0,0,0
1668242114.90050292,135928940,1000,1000,1000,1000,0,0,0,0,0,0,0,0,0,0
1668242115.00046277,136028900,1000,1000,1000,1000,0,0,0,0,0,0,0,0,0,0
1668242115.10042286,136128860,1000,1000,1000,1000,0,0,0,0,0,0,0,0,0,0
1668242115.20038295,136228820,1000,1000,1000,1000,0,0,0,0,0,0,0,0,0,0
1668242115.30034280,136328780,1000,1000,1000,1000,0,0,0,0,0,0,0,0,0,0
1668242115.40030289,136428740,1000,1000,1000,1000,0,0,0,0,0,0,0,0,0,0
1668242115.50026298,136528700,1000,1000,1000,1000,0,0,0,0,0,0,0,0,0,0
1668242115.60022283,136628660,1000,1000,1000,1000,0,0,0,0,0,0,0,0,0,0
1668242115.70018291,136728620,1000,1000,1000,1000,0,0,0,0,0,0,0,0,0,0
1668242115.80014277,136828580,1000,1000,1000,1000,0,0,0,0,0,0,0,0,0,0
1668242115.90010285,136928540,1000,1000,1000,1000,0,0,0,0,0,0,0,0,0,0
1668242116.00006294,137028500,1000,1000,1000,1000,0,0,0,0,0,0,0,0,0,0
1668242116.10002279,137128460,1000,1000,1000,1000,0,0,0,0,0,0,0,0,0,0
1668242116.19998288,137228420,1000,1000,1000,1000,0,0,0,0,0,0,0,0,0,0
1668242116.29994297,137328380,1000,1000,1000,1000,0,0,0,0,0,0,0,0,0,0
