timestamp,TimeUS,C1,C2,C3,C4,C5,C6,C7,C8,C9,C10,C11,C12,C13,C14
1676886200.59999990,35228403,1000,1000,1000,1000,0,0,0,0,0,0,0,0,0,0
1676886200.69995975,35328363,1000,1000,1000,1000,0,0,0,0,0,0,0,0,0,0
1676886200.79991984,35428323,1000,1000,1000,1000,0,0,0,0,0,0,0,0,0,0
1676886200.89987993,35528283,1000,1000,1000,1000,0,0,0,0,0,0,0,0,0,0
1676886200.99983978,35628243,1000,1000,1000,1000,0,0,0,0,0,0,0,0,0,0
1676886201.09979987,35728203,1000,1000,1000,1000,0,0,0,0,0,0,0,0,0,0
1676886201.19975972,35828163,1000,1000,1000,1000,0,0,0,0,0,0,0,0,0,0
1676886201.30055285,35928956,1000,1000,1000,1000,0,0,0,0,0,0,0,0,0,0
1676886201.40051270,36028916,1000,1000,1000,1000,0,0,0,0,0,0,0,0,0,0
1676886201.50047278,36128876,1000,1000,1000,1000,0,0,0,0,0,0,0,0,0,0
1676886201.60043287,36228836,1000,1000,1000,1000,0,0,0,0,0,0,0,0,0,0
1676886201.70039272,36328796,1000,1000,1000,1000,0,0,0,0,0,0,0,0,0,0
1676886201.80035281,36428756,1000,1000,1000,1000,0,0,0,0,0,0,0,0,0,0
1676886201.90031290,36528716,1000,1000,1000,1000,0,0,0,0,0,0,0,0,0,0
1676886202.00027275,36628676,1000,1000,1000,1000,0,0,0,0,0,0,0,0,0,0
1676886202.10023284,36728636,1000,1000,1000,1000,0,0,0,0,0,0,0,0,0,0
1676886202.20019293,36828596,1000,1000,1000,1000,0,0,0,0,0,0,0,0,0,0
1676886202.30015278,36928556,1000,1000,1000,1000,0,0,0,0,0,0,0,0,0,0
1676886202.40011287,37028516,1000,1000,1000,1000,0,0,0,0,0,0,0,0,0,0
1676886202.50007272,37128476,1000,1000,1000,1000,0,0,0,0,0,0,0,0,0,0
1676886202.60003281,37228436,1000,1000,1000,1000,0,0,0,0,0,0,0,0,0,0
1676886202.69999290,37328396,1000,1000,1000,1000,0,0,0,0,0,0,0,0,0,0
1676886202.79995275,37428356,1000,1000,1000,1000,0,0,0,0,0,0,0,0,0,0
1676886202.89991283,37528316,1000,1000,1000,1000,0,0,0,0,0,0,0,0,0,0
1676886202.99987292,37628276,1000,1000,1000,1000,0,0,0,0,0,0,0,0,0,0
1676886203.09983277,37728236,1000,1000,1000,1000,0,0,0,0,0,0,0,0,0,0
1676886203.19979286,37828196,1000,1000,1000,1000,0,0,0,0,0,0,0,0,0,0
1676886203.29975271,37928156,1000,1000,1000,1000,0,0,0,0,0,0,0,0,0,0
1676886203.40054584,38028949,1000,1000,1000,1000,0,0,0,0,0,0,0,0,0,0
1676886203.50050592,38128909,1000,1000,1000,1000,0,0,0,0,0,0,0,0,0,0
1676886203.60046577,38228869,1000,1000,1000,1000,0,0,0,0,0,0,0,0,0,0
1676886203.70042586,38328829,1000,1000,1000,1000,0,0,0,0,0,0,0,0,0,0
1676886203.80038571,38428789,1000,1000,1000,1000,0,0,0,0,0,0,0,0,0,0
1676886203.90034580,38528749,1000,1000,1000,1000,0,0,0,0,0,0,0,0,0,0
1676886204.00030589,38628709,1000,1000,1000,1000,0,0,0,0,0,0,0,0,0,0
1676886204.10026574,38728669,1000,1000,1000,1000,0,0,0,0,0,0,0,0,0,0
1676886204.20022583,38828629,1000,1000,1000,1000,0,0,0,0,0,0,0,0,0,0
1676886204.30018592,38928589,1000,1000,1000,1000,0,0,0,0,0,0,0,0,0,0
1676886204.40014577,39028549,1000,1000,1000,1000,0,0,0,0,0,0,0,0,0,0
1676886204.50010586,39128509,1000,1000,1000,1000,0,0,0,0,0,0,0,0,0,0
1676886204.60006571,39228469,1000,1000,1000,1000,0,0,0,0,0,0,0,0,0,0
1676886204.70002580,39328429,1000,1000,1000,1000,0,0,0,0,0,0,0,0,0,0
1676886204.79998589,39428389,1000,1000,1000,1000,0,0,0,0,0,0,0,0,0,0
1676886204.89994574,39528349,1000,1000,1000,1000,0,0,0,0,0,0,0,0,0,0
1676886204.99990582,39628309,1000,1000,1000,1000,0,0,0,0,0,0,0,0,0,0
1676886205.09986591,39728269,1000,1000,1000,1000,0,0,0,0,0,0,0,0,0,0
1676886205.19982576,39828229,1000,1000,1000,1000,0,0,0,0,0,0,0,0,0,0
1676886205.29978585,39928189,1000,1000,1000,1000,0,0,0,0,0,0,0,0,0,0
1676886205.40057874,40028982,1000,1000,1000,1000,0,0,0,0,0,0,0,0,0,0
1676886205.50053883,40128942,1000,1000,1000,1000,0,0,0,0,0,0,0,0,0,0
1676886205.60049891,40228902,1000,1000,1000,1000,0,0,0,0,0,0,0,0,0,0
1676886205.70045877,40328862,1000,1000,1000,1000,0,0,0,0,0,0,0,0,0,0
1676886205.80041885,40428822,1000,1000,1000,1000,0,0,0,0,0,0,0,0,0,0
1676886205.90037870,40528782,1000,1000,1000,1000,0,0,0,0,0,0,0,0,0,0
1676886206.00033879,40628742,1000,1000,1000,1000,0,0,0,0,0,0,0,0,0,0
1676886206.10029888,40728702,1000,1000,1000,1000,0,0,0,0,0,0,0,0,0,0
1676886206.20025873,40828662,1000,1000,1000,1000,0,0,0,0,0,0,0,0,0,0
1676886206.30021882,40928622,1000,1000,1000,1000,0,0,0,0,0,0,0,0,0,0
1676886206.40017891,41028582,1000,1000,1000,1000,0,0,0,0,0,0,0,0,0,0
1676886206.50013876,41128542,1000,1000,1000,1000,0,0,0,0,0,0,0,0,0,0
1676886206.60009885,41228502,1000,1000,1000,1000,0,0,0,0,0,0,0,0,0,0
1676886206.70005870,41328462,1000,1000,1000,1000,0,0,0,0,0,0,0,0,0,0
1676886206.80001879,41428422,1000,1000,1000,1000,0,0,0,0,0,0,0,0,0,0
1676886206.89997888,41528382,1000,1000,1000,1000,0,0,0,0,0,0,0,0,0,0
1676886206.99993873,41628342,1000,1000,1000,1000,0,0,0,0,0,0,0,0,0,0
1676886207.09989882,41728302,1000,1000,1000,1000,0,0,0,0,0,0,0,0,0,0
1676886207.19985890,41828262,1000,1000,1000,1000,0,0,0,0,0,0,0,0,0,0
1676886207.29981875,41928222,1000,1000,1000,1000,0,0,0,0,0,0,0,0,0,0
1676886207.39977884,42028182,1000,1000,1000,1000,0,0,0,0,0,0,0,0,0,0
1676886207.50057173,42128975,1000,1000,1000,1000,0,0,0,0,0,0,0,0,0,0
1676886207.60053182,42228935,1000,1000,1000,1000,0,0,0,0,0,0,0,0,0,0
1676886207.70049191,42328895,1000,1000,1000,1000,0,0,0,0,0,0,0,0,0,0
1676886207.80045176,42428855,1000,1000,1000,1000,0,0,0,0,0,0,0,0,0,0
1676886207.90041184,42528815,1000,1000,1000,1000,0,0,0,0,0,0,0,0,0,0
1676886208.00037169,42628775,1000,1000,1000,1000,0,0,0,0,0,0,0,0,0,0
1676886208.10033178,42728735,1000,1000,1000,1000,0,0,0,0,0,0,0,0,0,0
1676886208.20029187,42828695,1000,1000,1000,1000,0,0,0,0,0,0,0,0,0,0
1676886208.30025172,42928655,1000,1000,1000,1000,0,0,0,0,0,0,0,0,0,0
1676886208.40021181,43028615,1000,1000,1000,1000,0,0,0,0,0,0,0,0,0,0
1676886208.50017190,43128575,1000,1000,1000,1000,0,0,0,0,0,0,0,0,0,0
1676886208.60013175,43228535,1000,1000,1000,1000,0,0,0,0,0,0,0,0,0,0
1676886208.70009184,43328495,1000,1000,1000,1000,0,0,0,0,0,0,0,0,0,0
1676886208.80005193,43428455,1000,1000,1000,1000,0,0,0,0,0,0,0,0,0,0
1676886208.90001178,43528415,1000,1000,1000,1000,0,0,0,0,0,0,0,0,0,0
1676886208.99997187,43628375,1000,1000,1000,1000,0,0,0,0,0,0,0,0,0,0
1676886209.09993172,43728335,1000,1000,1000,1000,0,0,0,0,0,0,0,0,0,0
1676886209.19989181,43828295,1000,1000,1000,1000,0,0,0,0,0,0,0,0,0,0
1676886209.29985189,43928255,1000,1000,1000,1000,0,0,0,0,0,0,0,0,0,0
1676886209.39981174,44028215,1000,1000,1000,1000,0,0,0,0,0,0,0,0,0,0
1676886209.49977183,44128175,1000,1000,1000,1000,0,0,0,0,0,0,0,0,0,0
1676886209.60056472,44228968,1000,1000,1000,1000,0,0,0,0,0,0,0,0,0,0
1676886209.70052481,44328928,1000,1000,1000,1000,0,0,0,0,0,0,0,0,0,0
1676886209.80048490,44428888,1000,1000,1000,1000,0,0,0,0,0,0,0,0,0,0
1676886209.90044475,44528848,1000,1000,1000,1000,0,0,0,0,0,0,0,0,0,0
1676886210.00040483,44628808,1000,1000,1000,1000,0,0,0,0,0,0,0,0,0,0
1676886210.10036492,44728768,1000,1000,1000,1000,0,0,0,0,0,0,0,0,0,0
1676886210.20032477,44828728,1000,1000,1000,1000,0,0,0,0,0,0,0,0,0,0
1676886210.30028486,44928688,1000,1000,1000,1000,0,0,0,0,0,0,0,0,0,0
1676886210.40024471,45028648,1000,1000,1000,1000,0,0,0,0,0,0,0,0,0,0
1676886210.50020480,45128608,1000,1000,1000,1000,0,0,0,0,0,0,0,0,0,0
1676886210.60016489,45228568,1000,1000,1000,1000,0,0,0,0,0,0,0,0,0,0
1676886210.70012474,45328528,1000,1000,1000,1000,0,0,0,0,0,0,0,0,0,0
1676886210.80008483,45428488,1000,1000,1000,1000,0,0,0,0,0,0,0,0,0,0
1676886210.90004492,45528448,1000,1000,1000,1000,0,0,0,0,0,0,0,0,0,0
1676886211.00000477,45628408,1000,1000,1000,1000,0,0,0,0,0,0,0,0,0,0
1676886211.09996486,45728368,1000,1000,1000,1000,0,0,0,0,0,0,0,0,0,0
1676886211.19992471,45828328,1000,1000,1000,1000,0,0,0,0,0,0,0,0,0,0
1676886211.29988480,45928288,1000,1000,1000,1000,0,0,0,0,0,0,0,0,0,0
1676886211.39984488,46028248,1000,1000,1000,1000,0,0,0,0,0,0,0,0,0,0
1676886211.49980474,46128208,1000,1000,1000,1000,0,0,0,0,0,0,0,0,0,0
1676886211.59976482,46228168,1012,1012,1012,1012,0,0,0,0,0,0,0,0,0,0
1676886211.70055771,46328961,1042,1042,1042,1042,0,0,0,0,0,0,0,0,0,0
1676886211.80051780,46428921,1072,1072,1072,1072,0,0,0,0,0,0,0,0,0,0
1676886211.90047789,46528881,1102,1102,1102,1102,0,0,0,0,0,0,0,0,0,0
1676886212.00043774,46628841,1132,1132,1132,1132,0,0,0,0,0,0,0,0,0,0
1676886212.10039783,46728801,1268,1263,1263,1268,0,0,0,0,0,0,0,0,0,0
1676886212.20035791,46828761,1481,1477,1477,1481,0,0,0,0,0,0,0,0,0,0
1676886212.30031776,46928721,1644,1640,1641,1644,0,0,0,0,0,0,0,0,0,0
1676886212.40027785,47028681,1782,1778,1779,1782,0,0,0,0,0,0,0,0,0,0
1676886212.50023770,47128641,1812,1808,1809,1812,0,0,0,0,0,0,0,0,0,0
1676886212.60019779,47228601,1846,1843,1843,1846,0,0,0,0,0,0,0,0,0,0
1676886212.70015788,47328561,1747,1746,1746,1747,0,0,0,0,0,0,0,0,0,0
1676886212.80011773,47428521,1635,1636,1636,1635,0,0,0,0,0,0,0,0,0,0
1676886212.90007782,47528481,1601,1602,1602,1601,0,0,0,0,0,0,0,0,0,0
1676886213.00003791,47628441,1615,1616,1616,1615,0,0,0,0,0,0,0,0,0,0
1676886213.09999776,47728401,1634,1636,1635,1634,0,0,0,0,0,0,0,0,0,0
1676886213.19995785,47828361,1641,1642,1641,1641,0,0,0,0,0,0,0,0,0,0
1676886213.29991770,47928321,1638,1637,1637,1637,0,0,0,0,0,0,0,0,0,0
1676886213.39987779,48028281,1631,1631,1631,1631,0,0,0,0,0,0,0,0,0,0
1676886213.49983788,48128241,1613,1612,1607,1618,0,0,0,0,0,0,0,0,0,0
1676886213.59979773,48228201,1606,1605,1597,1613,0,0,0,0,0,0,0,0,0,0
1676886213.69975781,48328161,1606,1605,1600,1609,0,0,0,0,0,0,0,0,0,0
1676886213.80055070,48428954,1607,1606,1606,1606,0,0,0,0,0,0,0,0,0,0
1676886213.90051079,48528914,1611,1611,1613,1608,0,0,0,0,0,0,0,0,0,0
1676886214.00047088,48628874,1616,1616,1619,1612,0,0,0,0,0,0,0,0,0,0
1676886214.10043073,48728834,1607,1607,1614,1601,0,0,0,0,0,0,0,0,0,0
1676886214.20039082,48828794,1584,1585,1601,1569,0,0,0,0,0,0,0,0,0,0
1676886214.30035090,48928754,1571,1572,1582,1562,0,0,0,0,0,0,0,0,0,0
1676886214.40031075,49028714,1561,1561,1561,1562,0,0,0,0,0,0,0,0,0,0
1676886214.50027084,49128674,1552,1552,1542,1562,0,0,0,0,0,0,0,0,0,0
1676886214.60023093,49228634,1544,1543,1531,1556,0,0,0,0,0,0,0,0,0,0
1676886214.70019078,49328594,1536,1536,1527,1546,0,0,0,0,0,0,0,0,0,0
1676886214.80015087,49428554,1531,1531,1526,1536,0,0,0,0,0,0,0,0,0,0
1676886214.90011072,49528514,1529,1528,1529,1529,0,0,0,0,0,0,0,0,0,0
1676886215.00007081,49628474,1530,1530,1532,1528,0,0,0,0,0,0,0,0,0,0
1676886215.10003090,49728434,1532,1531,1534,1529,0,0,0,0,0,0,0,0,0,0
1676886215.19999075,49828394,1534,1534,1538,1530,0,0,0,0,0,0,0,0,0,0
1676886215.29995084,49928354,1538,1539,1542,1535,0,0,0,0,0,0,0,0,0,0
1676886215.39991093,50028314,1542,1542,1544,1540,0,0,0,0,0,0,0,0,0,0
1676886215.49987078,50128274,1545,1545,1546,1545,0,0,0,0,0,0,0,0,0,0
1676886215.59983087,50228234,1548,1548,1547,1548,0,0,0,0,0,0,0,0,0,0
1676886215.69979072,50328194,1550,1550,1548,1552,0,0,0,0,0,0,0,0,0,0
1676886215.79975080,50428154,1552,1550,1552,1556,0,0,0,0,0,0,0,0,0,0
1676886215.90054393,50528947,1548,1548,1560,1563,0,0,0,0,0,0,0,0,0,0
1676886216.00050378,50628907,1551,1552,1563,1564,0,0,0,0,0,0,0,0,0,0
1676886216.10046387,50728867,1555,1556,1563,1563,0,0,0,0,0,0,0,0,0,0
1676886216.20042372,50828827,1560,1561,1564,1563,0,0,0,0,0,0,0,0,0,0
1676886216.30038381,50928787,1564,1564,1563,1562,0,0,0,0,0,0,0,0,0,0
1676886216.40034389,51028747,1567,1567,1563,1562,0,0,0,0,0,0,0,0,0,0
1676886216.50030375,51128707,1570,1570,1563,1563,0,0,0,0,0,0,0,0,0,0
1676886216.60026383,51228667,1573,1572,1564,1564,0,0,0,0,0,0,0,0,0,0
1676886216.70022392,51328627,1573,1572,1564,1565,0,0,0,0,0,0,0,0,0,0
1676886216.80018377,51428587,1573,1573,1565,1566,0,0,0,0,0,0,0,0,0,0
1676886216.90014386,51528547,1573,1573,1568,1568,0,0,0,0,0,0,0,0,0,0
1676886217.00010371,51628507,1574,1574,1570,1570,0,0,0,0,0,0,0,0,0,0
1676886217.10006380,51728467,1573,1572,1571,1571,0,0,0,0,0,0,0,0,0,0
1676886217.20002389,51828427,1574,1574,1574,1573,0,0,0,0,0,0,0,0,0,0
1676886217.29998374,51928387,1574,1574,1575,1574,0,0,0,0,0,0,0,0,0,0
1676886217.39994383,52028347,1574,1573,1577,1575,0,0,0,0,0,0,0,0,0,0
1676886217.49990392,52128307,1575,1574,1578,1577,0,0,0,0,0,0,0,0,0,0
1676886217.59986377,52228267,1574,1574,1577,1577,0,0,0,0,0,0,0,0,0,0
1676886217.69982386,52328227,1574,1575,1578,1577,0,0,0,0,0,0,0,0,0,0
1676886217.79978371,52428187,1574,1575,1577,1577,0,0,0,0,0,0,0,0,0,0
1676886217.90057683,52528980,1575,1575,1577,1577,0,0,0,0,0,0,0,0,0,0
1676886218.00053692,52628940,1576,1576,1577,1577,0,0,0,0,0,0,0,0,0,0
1676886218.10049677,52728900,1576,1576,1576,1576,0,0,0,0,0,0,0,0,0,0
1676886218.20045686,52828860,1577,1576,1576,1576,0,0,0,0,0,0,0,0,0,0
1676886218.30041671,52928820,1578,1578,1577,1577,0,0,0,0,0,0,0,0,0,0
1676886218.40037680,53028780,1577,1577,1576,1576,0,0,0,0,0,0,0,0,0,0
1676886218.50033689,53128740,1578,1578,1577,1577,0,0,0,0,0,0,0,0,0,0
1676886218.60029674,53228700,1578,1578,1577,1577,0,0,0,0,0,0,0,0,0,0
1676886218.70025682,53328660,1578,1578,1577,1576,0,0,0,0,0,0,0,0,0,0
1676886218.80021691,53428620,1578,1578,1577,1577,0,0,0,0,0,0,0,0,0,0
1676886218.90017676,53528580,1579,1579,1578,1578,0,0,0,0,0,0,0,0,0,0
1676886219.00013685,53628540,1579,1579,1578,1578,0,0,0,0,0,0,0,0,0,0
1676886219.10009670,53728500,1577,1577,1577,1578,0,0,0,0,0,0,0,0,0,0
1676886219.20005679,53828460,1578,1577,1578,1578,0,0,0,0,0,0,0,0,0,0
1676886219.30001688,53928420,1579,1578,1579,1579,0,0,0,0,0,0,0,0,0,0
1676886219.39997673,54028380,1578,1578,1579,1578,0,0,0,0,0,0,0,0,0,0
1676886219.49993682,54128340,1578,1578,1578,1579,0,0,0,0,0,0,0,0,0,0
1676886219.59989691,54228300,1578,1578,1579,1579,0,0,0,0,0,0,0,0,0,0
1676886219.69985676,54328260,1579,1579,1579,1580,0,0,0,0,0,0,0,0,0,0
1676886219.79981685,54428220,1579,1579,1580,1580,0,0,0,0,0,0,0,0,0,0
1676886219.89977670,54528180,1579,1579,1579,1579,0,0,0,0,0,0,0,0,0,0
1676886220.00056982,54628973,1580,1579,1580,1580,0,0,0,0,0,0,0,0,0,0
1676886220.10052991,54728933,1580,1580,1580,1580,0,0,0,0,0,0,0,0,0,0
1676886220.20048976,54828893,1579,1579,1579,1579,0,0,0,0,0,0,0,0,0,0
1676886220.30044985,54928853,1579,1580,1580,1580,0,0,0,0,0,0,0,0,0,0
1676886220.40040970,55028813,1580,1580,1580,1580,0,0,0,0,0,0,0,0,0,0
1676886220.50036979,55128773,1580,1580,1580,1580,0,0,0,0,0,0,0,0,0,0
1676886220.60032988,55228733,1580,1581,1581,1580,0,0,0,0,0,0,0,0,0,0
1676886220.70028973,55328693,1581,1581,1581,1581,0,0,0,0,0,0,0,0,0,0
1676886220.80024981,55428653,1580,1580,1580,1580,0,0,0,0,0,0,0,0,0,0
1676886220.90020990,55528613,1580,1581,1580,1580,0,0,0,0,0,0,0,0,0,0
1676886221.00016975,55628573,1580,1580,1580,1580,0,0,0,0,0,0,0,0,0,0
1676886221.10012984,55728533,1580,1580,1579,1580,0,0,0,0,0,0,0,0,0,0
1676886221.20008993,55828493,1580,1580,1580,1580,0,0,0,0,0,0,0,0,0,0
1676886221.30004978,55928453,1581,1581,1581,1581,0,0,0,0,0,0,0,0,0,0
1676886221.40000987,56028413,1581,1580,1581,1581,0,0,0,0,0,0,0,0,0,0
1676886221.49996972,56128373,1582,1582,1582,1582,0,0,0,0,0,0,0,0,0,0
1676886221.59992981,56228333,1581,1582,1581,1582,0,0,0,0,0,0,0,0,0,0
1676886221.69988990,56328293,1581,1581,1581,1581,0,0,0,0,0,0,0,0,0,0
1676886221.79984975,56428253,1582,1582,1582,1582,0,0,0,0,0,0,0,0,0,0
1676886221.89980984,56528213,1581,1581,1581,1581,0,0,0,0,0,0,0,0,0,0
1676886221.99976993,56628173,1581,1581,1582,1581,0,0,0,0,0,0,0,0,0,0
1676886222.10056281,56728966,1580,1581,1588,1573,0,0,0,0,0,0,0,0,0,0
1676886222.20052290,56828926,1579,1581,1583,1572,0,0,0,0,0,0,0,0,0,0
1676886222.30048275,56928886,1578,1580,1575,1573,0,0,0,0,0,0,0,0,0,0
1676886222.40044284,57028846,1577,1579,1567,1571,0,0,0,0,0,0,0,0,0,0
1676886222.50040293,57128806,1576,1578,1560,1567,0,0,0,0,0,0,0,0,0,0
1676886222.60036278,57228766,1577,1578,1556,1562,0,0,0,0,0,0,0,0,0,0
1676886222.70032287,57328726,1578,1577,1555,1559,0,0,0,0,0,0,0,0,0,0
1676886222.80028272,57428686,1579,1578,1555,1556,0,0,0,0,0,0,0,0,0,0
1676886222.90024281,57528646,1579,1578,1556,1554,0,0,0,0,0,0,0,0,0,0
1676886223.00020289,57628606,1579,1578,1557,1554,0,0,0,0,0,0,0,0,0,0
1676886223.10016274,57728566,1577,1577,1556,1554,0,0,0,0,0,0,0,0,0,0
1676886223.20012283,57828526,1576,1577,1556,1555,0,0,0,0,0,0,0,0,0,0
1676886223.30008292,57928486,1575,1577,1555,1555,0,0,0,0,0,0,0,0,0,0
1676886223.40004277,58028446,1574,1576,1552,1553,0,0,0,0,0,0,0,0,0,0
1676886223.50000286,58128406,1575,1577,1552,1552,0,0,0,0,0,0,0,0,0,0
1676886223.59996271,58228366,1577,1579,1551,1551,0,0,0,0,0,0,0,0,0,0
1676886223.69992280,58328326,1579,1580,1549,1549,0,0,0,0,0,0,0,0,0,0
1676886223.79988289,58428286,1581,1582,1546,1545,0,0,0,0,0,0,0,0,0,0
1676886223.89984274,58528246,1583,1584,1543,1543,0,0,0,0,0,0,0,0,0,0
1676886223.99980283,58628206,1586,1587,1539,1539,0,0,0,0,0,0,0,0,0,0
1676886224.09976292,58728166,1589,1589,1537,1537,0,0,0,0,0,0,0,0,0,0
1676886224.20055580,58828959,1592,1592,1535,1535,0,0,0,0,0,0,0,0,0,0
1676886224.30051589,58928919,1594,1593,1534,1535,0,0,0,0,0,0,0,0,0,0
1676886224.40047574,59028879,1595,1595,1535,1536,0,0,0,0,0,0,0,0,0,0
1676886224.50043583,59128839,1594,1594,1536,1538,0,0,0,0,0,0,0,0,0,0
1676886224.60039592,59228799,1592,1592,1539,1541,0,0,0,0,0,0,0,0,0,0
1676886224.70035577,59328759,1589,1588,1544,1547,0,0,0,0,0,0,0,0,0,0
1676886224.80031586,59428719,1584,1581,1551,1554,0,0,0,0,0,0,0,0,0,0
1676886224.90027571,59528679,1577,1573,1562,1565,0,0,0,0,0,0,0,0,0,0
1676886225.00023580,59628639,1565,1561,1573,1575,0,0,0,0,0,0,0,0,0,0
1676886225.10019588,59728599,1554,1549,1585,1586,0,0,0,0,0,0,0,0,0,0
1676886225.20015574,59828559,1543,1540,1597,1597,0,0,0,0,0,0,0,0,0,0
1676886225.30011582,59928519,1535,1534,1606,1606,0,0,0,0,0,0,0,0,0,0
1676886225.40007591,60028479,1529,1530,1612,1611,0,0,0,0,0,0,0,0,0,0
1676886225.50003576,60128439,1528,1530,1615,1615,0,0,0,0,0,0,0,0,0,0
1676886225.59999585,60228399,1529,1532,1613,1612,0,0,0,0,0,0,0,0,0,0
1676886225.69995570,60328359,1535,1537,1609,1609,0,0,0,0,0,0,0,0,0,0
1676886225.79991579,60428319,1543,1544,1603,1603,0,0,0,0,0,0,0,0,0,0
1676886225.89987588,60528279,1551,1552,1595,1595,0,0,0,0,0,0,0,0,0,0
1676886225.99983573,60628239,1561,1562,1589,1588,0,0,0,0,0,0,0,0,0,0
1676886226.09979582,60728199,1571,1571,1583,1582,0,0,0,0,0,0,0,0,0,0
1676886226.19975591,60828159,1578,1578,1577,1576,0,0,0,0,0,0,0,0,0,0
1676886226.30054879,60928952,1583,1583,1572,1571,0,0,0,0,0,0,0,0,0,0
1676886226.40050888,61028912,1587,1586,1568,1568,0,0,0,0,0,0,0,0,0,0
1676886226.50046873,61128872,1589,1587,1566,1567,0,0,0,0,0,0,0,0,0,0
1676886226.60042882,61228832,1588,1587,1567,1567,0,0,0,0,0,0,0,0,0,0
1676886226.70038891,61328792,1587,1586,1568,1569,0,0,0,0,0,0,0,0,0,0
1676886226.80034876,61428752,1585,1584,1571,1571,0,0,0,0,0,0,0,0,0,0
1676886226.90030885,61528712,1582,1581,1574,1574,0,0,0,0,0,0,0,0,0,0
1676886227.00026870,61628672,1579,1579,1577,1577,0,0,0,0,0,0,0,0,0,0
1676886227.10022879,61728632,1575,1576,1579,1579,0,0,0,0,0,0,0,0,0,0
1676886227.20018888,61828592,1574,1575,1582,1582,0,0,0,0,0,0,0,0,0,0
1676886227.30014873,61928552,1572,1573,1583,1583,0,0,0,0,0,0,0,0,0,0
1676886227.40010881,62028512,1572,1573,1584,1584,0,0,0,0,0,0,0,0,0,0
1676886227.50006890,62128472,1572,1572,1583,1583,0,0,0,0,0,0,0,0,0,0
1676886227.60002875,62228432,1572,1572,1582,1582,0,0,0,0,0,0,0,0,0,0
1676886227.69998884,62328392,1574,1574,1582,1582,0,0,0,0,0,0,0,0,0,0
1676886227.79994893,62428352,1576,1576,1581,1581,0,0,0,0,0,0,0,0,0,0
1676886227.89990878,62528312,1578,1578,1581,1581,0,0,0,0,0,0,0,0,0,0
1676886227.99986887,62628272,1580,1580,1580,1580,0,0,0,0,0,0,0,0,0,0
1676886228.09982872,62728232,1580,1580,1578,1578,0,0,0,0,0,0,0,0,0,0
1676886228.19978881,62828192,1581,1581,1578,1577,0,0,0,0,0,0,0,0,0,0
1676886228.30058193,62928985,1581,1581,1577,1577,0,0,0,0,0,0,0,0,0,0
1676886228.40054178,63028945,1582,1582,1577,1577,0,0,0,0,0,0,0,0,0,0
1676886228.50050187,63128905,1583,1582,1578,1578,0,0,0,0,0,0,0,0,0,0
1676886228.60046172,63228865,1581,1581,1578,1577,0,0,0,0,0,0,0,0,0,0
1676886228.70042181,63328825,1581,1581,1578,1579,0,0,0,0,0,0,0,0,0,0
1676886228.80038190,63428785,1580,1579,1578,1578,0,0,0,0,0,0,0,0,0,0
1676886228.90034175,63528745,1580,1580,1580,1580,0,0,0,0,0,0,0,0,0,0
1676886229.00030184,63628705,1580,1580,1581,1580,0,0,0,0,0,0,0,0,0,0
1676886229.10026193,63728665,1580,1580,1581,1581,0,0,0,0,0,0,0,0,0,0
1676886229.20022178,63828625,1580,1580,1582,1582,0,0,0,0,0,0,0,0,0,0
1676886229.30018187,63928585,1579,1580,1581,1581,0,0,0,0,0,0,0,0,0,0
1676886229.40014172,64028545,1579,1579,1581,1581,0,0,0,0,0,0,0,0,0,0
1676886229.50010180,64128505,1579,1579,1581,1581,0,0,0,0,0,0,0,0,0,0
1676886229.60006189,64228465,1579,1579,1580,1581,0,0,0,0,0,0,0,0,0,0
1676886229.70002174,64328425,1580,1580,1581,1581,0,0,0,0,0,0,0,0,0,0
1676886229.79998183,64428385,1581,1581,1581,1581,0,0,0,0,0,0,0,0,0,0
1676886229.89994192,64528345,1581,1582,1581,1581,0,0,0,0,0,0,0,0,0,0
1676886229.99990177,64628305,1582,1582,1581,1581,0,0,0,0,0,0,0,0,0,0
1676886230.09986186,64728265,1581,1583,1586,1573,0,0,0,0,0,0,0,0,0,0
1676886230.19982171,64828225,1581,1585,1584,1572,0,0,0,0,0,0,0,0,0,0
1676886230.29978180,64928185,1579,1584,1575,1571,0,0,0,0,0,0,0,0,0,0
1676886230.40057492,65028978,1579,1582,1566,1569,0,0,0,0,0,0,0,0,0,0
1676886230.50053477,65128938,1579,1581,1559,1566,0,0,0,0,0,0,0,0,0,0
1676886230.60049486,65228898,1580,1580,1554,1561,0,0,0,0,0,0,0,0,0,0
1676886230.70045471,65328858,1582,1581,1553,1558,0,0,0,0,0,0,0,0,0,0
1676886230.80041480,65428818,1582,1581,1554,1555,0,0,0,0,0,0,0,0,0,0
1676886230.90037489,65528778,1582,1580,1555,1553,0,0,0,0,0,0,0,0,0,0
1676886231.00033474,65628738,1580,1579,1554,1552,0,0,0,0,0,0,0,0,0,0
1676886231.10029483,65728698,1578,1579,1554,1552,0,0,0,0,0,0,0,0,0,0
1676886231.20025492,65828658,1577,1578,1553,1553,0,0,0,0,0,0,0,0,0,0
1676886231.30021477,65928618,1576,1577,1553,1552,0,0,0,0,0,0,0,0,0,0
1676886231.40017486,66028578,1575,1577,1552,1552,0,0,0,0,0,0,0,0,0,0
1676886231.50013471,66128538,1577,1578,1552,1552,0,0,0,0,0,0,0,0,0,0
1676886231.60009480,66228498,1578,1580,1551,1551,0,0,0,0,0,0,0,0,0,0
1676886231.70005488,66328458,1579,1581,1548,1549,0,0,0,0,0,0,0,0,0,0
1676886231.80001473,66428418,1583,1584,1548,1548,0,0,0,0,0,0,0,0,0,0
1676886231.89997482,66528378,1585,1585,1546,1545,0,0,0,0,0,0,0,0,0,0
1676886231.99993491,66628338,1586,1586,1543,1542,0,0,0,0,0,0,0,0,0,0
1676886232.09989476,66728298,1587,1588,1540,1541,0,0,0,0,0,0,0,0,0,0
1676886232.19985485,66828258,1591,1592,1539,1541,0,0,0,0,0,0,0,0,0,0
1676886232.29981470,66928218,1592,1592,1538,1540,0,0,0,0,0,0,0,0,0,0
1676886232.39977479,67028178,1592,1592,1539,1541,0,0,0,0,0,0,0,0,0,0
1676886232.50056791,67128971,1591,1590,1543,1545,0,0,0,0,0,0,0,0,0,0
1676886232.60052776,67228931,1588,1585,1549,1551,0,0,0,0,0,0,0,0,0,0
1676886232.70048785,67328891,1581,1578,1557,1559,0,0,0,0,0,0,0,0,0,0
1676886232.80044770,67428851,1574,1570,1567,1569,0,0,0,0,0,0,0,0,0,0
1676886232.90040779,67528811,1565,1560,1579,1580,0,0,0,0,0,0,0,0,0,0
1676886233.00036788,67628771,1555,1551,1589,1590,0,0,0,0,0,0,0,0,0,0
1676886233.10032773,67728731,1546,1544,1599,1599,0,0,0,0,0,0,0,0,0,0
1676886233.20028782,67828691,1540,1540,1606,1606,0,0,0,0,0,0,0,0,0,0
1676886233.30024791,67928651,1536,1538,1610,1609,0,0,0,0,0,0,0,0,0,0
1676886233.40020776,68028611,1536,1538,1610,1610,0,0,0,0,0,0,0,0,0,0
1676886233.50016785,68128571,1540,1542,1609,1609,0,0,0,0,0,0,0,0,0,0
1676886233.60012770,68228531,1545,1546,1605,1604,0,0,0,0,0,0,0,0,0,0
1676886233.70008779,68328491,1551,1553,1599,1599,0,0,0,0,0,0,0,0,0,0
1676886233.80004787,68428451,1560,1560,1594,1593,0,0,0,0,0,0,0,0,0,0
1676886233.90000772,68528411,1567,1566,1587,1586,0,0,0,0,0,0,0,0,0,0
1676886233.99996781,68628371,1573,1572,1580,1580,0,0,0,0,0,0,0,0,0,0
1676886234.09992790,68728331,1579,1578,1575,1575,0,0,0,0,0,0,0,0,0,0
1676886234.19988775,68828291,1583,1582,1572,1572,0,0,0,0,0,0,0,0,0,0
1676886234.29984784,68928251,1585,1584,1569,1570,0,0,0,0,0,0,0,0,0,0
1676886234.39980793,69028211,1585,1585,1568,1568,0,0,0,0,0,0,0,0,0,0
1676886234.49976778,69128171,1586,1585,1569,1570,0,0,0,0,0,0,0,0,0,0
1676886234.60056090,69228964,1584,1583,1571,1570,0,0,0,0,0,0,0,0,0,0
1676886234.70052075,69328924,1582,1581,1573,1572,0,0,0,0,0,0,0,0,0,0
1676886234.80048084,69428884,1580,1580,1576,1576,0,0,0,0,0,0,0,0,0,0
1676886234.90044093,69528844,1578,1578,1578,1578,0,0,0,0,0,0,0,0,0,0
1676886235.00040078,69628804,1576,1576,1580,1580,0,0,0,0,0,0,0,0,0,0
1676886235.10036087,69728764,1575,1575,1582,1582,0,0,0,0,0,0,0,0,0,0
1676886235.20032072,69828724,1573,1574,1583,1583,0,0,0,0,0,0,0,0,0,0
1676886235.30028081,69928684,1572,1573,1583,1583,0,0,0,0,0,0,0,0,0,0
1676886235.40024090,70028644,1573,1575,1584,1583,0,0,0,0,0,0,0,0,0,0
1676886235.50020075,70128604,1575,1575,1583,1583,0,0,0,0,0,0,0,0,0,0
1676886235.60016084,70228564,1576,1576,1583,1583,0,0,0,0,0,0,0,0,0,0
1676886235.70012093,70328524,1577,1577,1580,1581,0,0,0,0,0,0,0,0,0,0
1676886235.80008078,70428484,1578,1578,1580,1580,0,0,0,0,0,0,0,0,0,0
1676886235.90004086,70528444,1579,1579,1579,1579,0,0,0,0,0,0,0,0,0,0
1676886236.00000072,70628404,1581,1580,1579,1579,0,0,0,0,0,0,0,0,0,0
1676886236.09996080,70728364,1581,1581,1578,1578,0,0,0,0,0,0,0,0,0,0
1676886236.19992089,70828324,1582,1581,1578,1578,0,0,0,0,0,0,0,0,0,0
1676886236.29988074,70928284,1581,1582,1578,1578,0,0,0,0,0,0,0,0,0,0
1676886236.39984083,71028244,1582,1581,1578,1578,0,0,0,0,0,0,0,0,0,0
1676886236.49980092,71128204,1582,1581,1579,1579,0,0,0,0,0,0,0,0,0,0
1676886236.59976077,71228164,1581,1581,1579,1579,0,0,0,0,0,0,0,0,0,0
1676886236.70055389,71328957,1581,1581,1580,1580,0,0,0,0,0,0,0,0,0,0
1676886236.80051374,71428917,1581,1581,1581,1581,0,0,0,0,0,0,0,0,0,0
1676886236.90047383,71528877,1580,1580,1581,1581,0,0,0,0,0,0,0,0,0,0
1676886237.00043392,71628837,1581,1581,1582,1582,0,0,0,0,0,0,0,0,0,0
1676886237.10039377,71728797,1581,1581,1582,1582,0,0,0,0,0,0,0,0,0,0
1676886237.20035386,71828757,1580,1581,1582,1582,0,0,0,0,0,0,0,0,0,0
1676886237.30031371,71928717,1580,1580,1581,1581,0,0,0,0,0,0,0,0,0,0
1676886237.40027380,72028677,1580,1579,1580,1581,0,0,0,0,0,0,0,0,0,0
1676886237.50023389,72128637,1580,1580,1581,1581,0,0,0,0,0,0,0,0,0,0
1676886237.60019374,72228597,1580,1581,1581,1581,0,0,0,0,0,0,0,0,0,0
1676886237.70015383,72328557,1580,1580,1580,1580,0,0,0,0,0,0,0,0,0,0
1676886237.80011392,72428517,1581,1581,1580,1581,0,0,0,0,0,0,0,0,0,0
1676886237.90007377,72528477,1581,1581,1580,1581,0,0,0,0,0,0,0,0,0,0
1676886238.00003386,72628437,1581,1582,1581,1581,0,0,0,0,0,0,0,0,0,0
1676886238.09999371,72728397,1582,1582,1581,1581,0,0,0,0,0,0,0,0,0,0
1676886238.19995379,72828357,1581,1581,1584,1576,0,0,0,0,0,0,0,0,0,0
1676886238.29991388,72928317,1580,1582,1586,1572,0,0,0,0,0,0,0,0,0,0
1676886238.39987373,73028277,1580,1583,1580,1573,0,0,0,0,0,0,0,0,0,0
1676886238.49983382,73128237,1579,1582,1572,1573,0,0,0,0,0,0,0,0,0,0
1676886238.59979391,73228197,1577,1580,1564,1569,0,0,0,0,0,0,0,0,0,0
1676886238.69975376,73328157,1578,1579,1558,1566,0,0,0,0,0,0,0,0,0,0
1676886238.80054688,73428950,1578,1578,1555,1560,0,0,0,0,0,0,0,0,0,0
1676886238.90050673,73528910,1579,1578,1554,1557,0,0,0,0,0,0,0,0,0,0
1676886239.00046682,73628870,1580,1578,1555,1554,0,0,0,0,0,0,0,0,0,0
1676886239.10042691,73728830,1579,1578,1556,1553,0,0,0,0,0,0,0,0,0,0
1676886239.20038676,73828790,1578,1578,1557,1554,0,0,0,0,0,0,0,0,0,0
1676886239.30034685,73928750,1576,1577,1556,1554,0,0,0,0,0,0,0,0,0,0
1676886239.40030670,74028710,1575,1576,1555,1554,0,0,0,0,0,0,0,0,0,0
1676886239.50026679,74128670,1575,1576,1554,1554,0,0,0,0,0,0,0,0,0,0
1676886239.60022688,74228630,1574,1576,1552,1553,0,0,0,0,0,0,0,0,0,0
1676886239.70018673,74328590,1575,1577,1550,1551,0,0,0,0,0,0,0,0,0,0
1676886239.80014682,74428550,1577,1579,1549,1550,0,0,0,0,0,0,0,0,0,0
1676886239.90010691,74528510,1580,1581,1548,1548,0,0,0,0,0,0,0,0,0,0
1676886240.00006676,74628470,1582,1583,1545,1545,0,0,0,0,0,0,0,0,0,0
1676886240.10002685,74728430,1585,1585,1543,1542,0,0,0,0,0,0,0,0,0,0
1676886240.19998670,74828390,1588,1589,1541,1541,0,0,0,0,0,0,0,0,0,0
1676886240.29994678,74928350,1591,1591,1539,1539,0,0,0,0,0,0,0,0,0,0
1676886240.39990687,75028310,1592,1592,1538,1538,0,0,0,0,0,0,0,0,0,0
1676886240.49986672,75128270,1593,1594,1537,1538,0,0,0,0,0,0,0,0,0,0
1676886240.59982681,75228230,1594,1594,1537,1539,0,0,0,0,0,0,0,0,0,0
1676886240.69978690,75328190,1593,1592,1538,1541,0,0,0,0,0,0,0,0,0,0
1676886240.80057979,75428983,1591,1589,1543,1546,0,0,0,0,0,0,0,0,0,0
1676886240.90053988,75528943,1587,1584,1551,1553,0,0,0,0,0,0,0,0,0,0
1676886241.00049973,75628903,1579,1575,1560,1562,0,0,0,0,0,0,0,0,0,0
1676886241.10045981,75728863,1570,1566,1571,1573,0,0,0,0,0,0,0,0,0,0
1676886241.20041990,75828823,1559,1555,1582,1583,0,0,0,0,0,0,0,0,0,0
1676886241.30037975,75928783,1548,1546,1593,1594,0,0,0,0,0,0,0,0,0,0
1676886241.40033984,76028743,1539,1539,1603,1603,0,0,0,0,0,0,0,0,0,0
1676886241.50029993,76128703,1533,1534,1609,1608,0,0,0,0,0,0,0,0,0,0
1676886241.60025978,76228663,1531,1533,1612,1611,0,0,0,0,0,0,0,0,0,0
1676886241.70021987,76328623,1533,1534,1612,1611,0,0,0,0,0,0,0,0,0,0
1676886241.80017972,76428583,1537,1539,1609,1608,0,0,0,0,0,0,0,0,0,0
1676886241.90013981,76528543,1544,1545,1605,1603,0,0,0,0,0,0,0,0,0,0
1676886242.00009990,76628503,1552,1553,1599,1597,0,0,0,0,0,0,0,0,0,0
1676886242.10005975,76728463,1560,1561,1591,1591,0,0,0,0,0,0,0,0,0,0
1676886242.20001984,76828423,1568,1568,1584,1584,0,0,0,0,0,0,0,0,0,0
1676886242.29997993,76928383,1576,1575,1579,1578,0,0,0,0,0,0,0,0,0,0
1676886242.39993978,77028343,1582,1581,1574,1574,0,0,0,0,0,0,0,0,0,0
1676886242.49989986,77128303,1585,1583,1569,1570,0,0,0,0,0,0,0,0,0,0
1676886242.59985971,77228263,1586,1585,1567,1567,0,0,0,0,0,0,0,0,0,0
1676886242.69981980,77328223,1588,1586,1568,1568,0,0,0,0,0,0,0,0,0,0
1676886242.79977989,77428183,1586,1585,1569,1569,0,0,0,0,0,0,0,0,0,0
1676886242.90057278,77528976,1584,1583,1570,1570,0,0,0,0,0,0,0,0,0,0
1676886243.00053287,77628936,1581,1581,1573,1573,0,0,0,0,0,0,0,0,0,0
1676886243.10049272,77728896,1579,1580,1576,1576,0,0,0,0,0,0,0,0,0,0
1676886243.20045280,77828856,1577,1577,1579,1579,0,0,0,0,0,0,0,0,0,0
1676886243.30041289,77928816,1574,1575,1580,1581,0,0,0,0,0,0,0,0,0,0
1676886243.40037274,78028776,1573,1574,1582,1582,0,0,0,0,0,0,0,0,0,0
1676886243.50033283,78128736,1572,1573,1583,1582,0,0,0,0,0,0,0,0,0,0
1676886243.60029292,78228696,1572,1572,1583,1582,0,0,0,0,0,0,0,0,0,0
1676886243.70025277,78328656,1574,1574,1584,1584,0,0,0,0,0,0,0,0,0,0
1676886243.80021286,78428616,1574,1574,1582,1582,0,0,0,0,0,0,0,0,0,0
1676886243.90017271,78528576,1575,1576,1581,1581,0,0,0,0,0,0,0,0,0,0
1676886244.00013280,78628536,1577,1577,1580,1581,0,0,0,0,0,0,0,0,0,0
1676886244.10009289,78728496,1579,1578,1579,1579,0,0,0,0,0,0,0,0,0,0
1676886244.20005274,78828456,1580,1579,1579,1579,0,0,0,0,0,0,0,0,0,0
1676886244.30001283,78928416,1580,1581,1578,1578,0,0,0,0,0,0,0,0,0,0
1676886244.39997292,79028376,1581,1581,1577,1577,0,0,0,0,0,0,0,0,0,0
1676886244.49993277,79128336,1581,1581,1577,1577,0,0,0,0,0,0,0,0,0,0
1676886244.59989285,79228296,1582,1581,1578,1578,0,0,0,0,0,0,0,0,0,0
1676886244.69985271,79328256,1582,1582,1579,1578,0,0,0,0,0,0,0,0,0,0
1676886244.79981279,79428216,1581,1581,1578,1578,0,0,0,0,0,0,0,0,0,0
1676886244.89977288,79528176,1581,1581,1580,1579,0,0,0,0,0,0,0,0,0,0
1676886245.00056577,79628969,1580,1580,1580,1579,0,0,0,0,0,0,0,0,0,0
1676886245.10052586,79728929,1580,1580,1580,1580,0,0,0,0,0,0,0,0,0,0
1676886245.20048571,79828889,1579,1579,1580,1580,0,0,0,0,0,0,0,0,0,0
1676886245.30044580,79928849,1579,1580,1581,1581,0,0,0,0,0,0,0,0,0,0
1676886245.40040588,80028809,1580,1580,1582,1582,0,0,0,0,0,0,0,0,0,0
1676886245.50036573,80128769,1580,1580,1582,1582,0,0,0,0,0,0,0,0,0,0
1676886245.60032582,80228729,1580,1580,1581,1581,0,0,0,0,0,0,0,0,0,0
1676886245.70028591,80328689,1580,1580,1581,1581,0,0,0,0,0,0,0,0,0,0
1676886245.80024576,80428649,1580,1580,1581,1581,0,0,0,0,0,0,0,0,0,0
1676886245.90020585,80528609,1580,1580,1581,1580,0,0,0,0,0,0,0,0,0,0
1676886246.00016570,80628569,1581,1580,1581,1580,0,0,0,0,0,0,0,0,0,0
1676886246.10012579,80728529,1581,1581,1581,1581,0,0,0,0,0,0,0,0,0,0
1676886246.20008588,80828489,1581,1582,1587,1574,0,0,0,0,0,0,0,0,0,0
1676886246.30004573,80928449,1581,1581,1586,1573,0,0,0,0,0,0,0,0,0,0
1676886246.40000582,81028409,1578,1578,1579,1574,0,0,0,0,0,0,0,0,0,0
1676886246.49996591,81128369,1574,1573,1571,1574,0,0,0,0,0,0,0,0,0,0
1676886246.59992576,81228329,1571,1570,1566,1573,0,0,0,0,0,0,0,0,0,0
1676886246.69988585,81328289,1569,1569,1565,1572,0,0,0,0,0,0,0,0,0,0
1676886246.79984570,81428249,1568,1568,1566,1569,0,0,0,0,0,0,0,0,0,0
1676886246.89980578,81528209,1566,1567,1566,1567,0,0,0,0,0,0,0,0,0,0
1676886246.99976587,81628169,1566,1567,1567,1566,0,0,0,0,0,0,0,0,0,0
1676886247.10055876,81728962,1566,1566,1568,1565,0,0,0,0,0,0,0,0,0,0
1676886247.20051885,81828922,1566,1566,1567,1565,0,0,0,0,0,0,0,0,0,0
1676886247.30047870,81928882,1565,1565,1567,1565,0,0,0,0,0,0,0,0,0,0
1676886247.40043879,82028842,1564,1564,1565,1564,0,0,0,0,0,0,0,0,0,0
1676886247.50039887,82128802,1562,1562,1562,1563,0,0,0,0,0,0,0,0,0,0
1676886247.60035872,82228762,1562,1562,1562,1563,0,0,0,0,0,0,0,0,0,0
1676886247.70031881,82328722,1562,1563,1563,1563,0,0,0,0,0,0,0,0,0,0
1676886247.80027890,82428682,1562,1562,1562,1562,0,0,0,0,0,0,0,0,0,0
1676886247.90023875,82528642,1562,1562,1562,1562,0,0,0,0,0,0,0,0,0,0
1676886248.00019884,82628602,1561,1560,1561,1560,0,0,0,0,0,0,0,0,0,0
1676886248.10015893,82728562,1560,1560,1560,1559,0,0,0,0,0,0,0,0,0,0
1676886248.20011878,82828522,1559,1559,1559,1559,0,0,0,0,0,0,0,0,0,0
1676886248.30007887,82928482,1559,1559,1559,1558,0,0,0,0,0,0,0,0,0,0
1676886248.40003872,83028442,1559,1559,1559,1558,0,0,0,0,0,0,0,0,0,0
1676886248.49999881,83128402,1558,1558,1559,1558,0,0,0,0,0,0,0,0,0,0
1676886248.59995890,83228362,1558,1558,1558,1557,0,0,0,0,0,0,0,0,0,0
1676886248.69991875,83328322,1558,1558,1559,1557,0,0,0,0,0,0,0,0,0,0
1676886248.79987884,83428282,1558,1558,1559,1556,0,0,0,0,0,0,0,0,0,0
1676886248.89983892,83528242,1558,1558,1559,1557,0,0,0,0,0,0,0,0,0,0
1676886248.99979877,83628202,1559,1558,1559,1558,0,0,0,0,0,0,0,0,0,0
1676886249.09975886,83728162,1560,1559,1557,1562,0,0,0,0,0,0,0,0,0,0
1676886249.20055175,83828955,1561,1561,1557,1564,0,0,0,0,0,0,0,0,0,0
1676886249.30051184,83928915,1560,1561,1557,1564,0,0,0,0,0,0,0,0,0,0
1676886249.40047193,84028875,1561,1561,1559,1563,0,0,0,0,0,0,0,0,0,0
1676886249.50043178,84128835,1561,1561,1561,1561,0,0,0,0,0,0,0,0,0,0
1676886249.60039186,84228795,1561,1561,1562,1560,0,0,0,0,0,0,0,0,0,0
1676886249.70035172,84328755,1559,1558,1558,1559,0,0,0,0,0,0,0,0,0,0
1676886249.80031180,84428715,1555,1555,1554,1556,0,0,0,0,0,0,0,0,0,0
1676886249.90027189,84528675,1550,1549,1549,1550,0,0,0,0,0,0,0,0,0,0
1676886250.00023174,84628635,1545,1545,1545,1545,0,0,0,0,0,0,0,0,0,0
1676886250.10019183,84728595,1538,1538,1538,1538,0,0,0,0,0,0,0,0,0,0
1676886250.20015192,84828555,1531,1531,1531,1531,0,0,0,0,0,0,0,0,0,0
1676886250.30011177,84928515,1523,1524,1524,1524,0,0,0,0,0,0,0,0,0,0
1676886250.40007186,85028475,1520,1520,1520,1520,0,0,0,0,0,0,0,0,0,0
1676886250.50003171,85128435,1520,1520,1520,1520,0,0,0,0,0,0,0,0,0,0
1676886250.59999180,85228395,1522,1521,1521,1522,0,0,0,0,0,0,0,0,0,0
1676886250.69995189,85328355,1523,1523,1523,1523,0,0,0,0,0,0,0,0,0,0
1676886250.79991174,85428315,1527,1527,1527,1527,0,0,0,0,0,0,0,0,0,0
1676886250.89987183,85528275,1530,1531,1530,1531,0,0,0,0,0,0,0,0,0,0
1676886250.99983191,85628235,1536,1536,1536,1537,0,0,0,0,0,0,0,0,0,0
1676886251.09979177,85728195,1539,1539,1539,1539,0,0,0,0,0,0,0,0,0,0
1676886251.19975185,85828155,1541,1541,1542,1541,0,0,0,0,0,0,0,0,0,0
1676886251.30054474,85928948,1543,1543,1543,1543,0,0,0,0,0,0,0,0,0,0
1676886251.40050483,86028908,1544,1544,1544,1544,0,0,0,0,0,0,0,0,0,0
1676886251.50046492,86128868,1545,1545,1545,1545,0,0,0,0,0,0,0,0,0,0
1676886251.60042477,86228828,1546,1546,1546,1546,0,0,0,0,0,0,0,0,0,0
1676886251.70038486,86328788,1546,1546,1546,1546,0,0,0,0,0,0,0,0,0,0
1676886251.80034471,86428748,1547,1548,1547,1548,0,0,0,0,0,0,0,0,0,0
1676886251.90030479,86528708,1546,1546,1547,1546,0,0,0,0,0,0,0,0,0,0
1676886252.00026488,86628668,1546,1546,1547,1546,0,0,0,0,0,0,0,0,0,0
1676886252.10022473,86728628,1546,1547,1547,1547,0,0,0,0,0,0,0,0,0,0
1676886252.20018482,86828588,1546,1546,1546,1546,0,0,0,0,0,0,0,0,0,0
1676886252.30014491,86928548,1546,1545,1545,1545,0,0,0,0,0,0,0,0,0,0
1676886252.40010476,87028508,1545,1545,1545,1545,0,0,0,0,0,0,0,0,0,0
1676886252.50006485,87128468,1545,1544,1544,1544,0,0,0,0,0,0,0,0,0,0
1676886252.60002470,87228428,1544,1544,1544,1544,0,0,0,0,0,0,0,0,0,0
1676886252.69998479,87328388,1544,1544,1544,1543,0,0,0,0,0,0,0,0,0,0
1676886252.79994488,87428348,1544,1544,1544,1544,0,0,0,0,0,0,0,0,0,0
1676886252.89990473,87528308,1545,1544,1545,1544,0,0,0,0,0,0,0,0,0,0
1676886252.99986482,87628268,1544,1544,1543,1544,0,0,0,0,0,0,0,0,0,0
1676886253.09982491,87728228,1544,1544,1544,1544,0,0,0,0,0,0,0,0,0,0
1676886253.19978476,87828188,1544,1544,1544,1544,0,0,0,0,0,0,0,0,0,0
1676886253.30057788,87928981,1544,1544,1544,1545,0,0,0,0,0,0,0,0,0,0
1676886253.40053773,88028941,1545,1544,1545,1544,0,0,0,0,0,0,0,0,0,0
1676886253.50049782,88128901,1544,1544,1545,1544,0,0,0,0,0,0,0,0,0,0
1676886253.60045791,88228861,1544,1544,1544,1544,0,0,0,0,0,0,0,0,0,0
1676886253.70041776,88328821,1544,1544,1544,1543,0,0,0,0,0,0,0,0,0,0
1676886253.80037785,88428781,1544,1545,1545,1544,0,0,0,0,0,0,0,0,0,0
1676886253.90033770,88528741,1544,1543,1544,1544,0,0,0,0,0,0,0,0,0,0
1676886254.00029778,88628701,1544,1544,1544,1544,0,0,0,0,0,0,0,0,0,0
1676886254.10025787,88728661,1543,1543,1543,1543,0,0,0,0,0,0,0,0,0,0
1676886254.20021772,88828621,1544,1544,1544,1544,0,0,0,0,0,0,0,0,0,0
1676886254.30017781,88928581,1544,1544,1544,1544,0,0,0,0,0,0,0,0,0,0
1676886254.40013790,89028541,1544,1544,1545,1544,0,0,0,0,0,0,0,0,0,0
1676886254.50009775,89128501,1545,1544,1544,1544,0,0,0,0,0,0,0,0,0,0
1676886254.60005784,89228461,1544,1544,1544,1544,0,0,0,0,0,0,0,0,0,0
1676886254.70001793,89328421,1545,1544,1544,1544,0,0,0,0,0,0,0,0,0,0
1676886254.79997778,89428381,1545,1545,1545,1545,0,0,0,0,0,0,0,0,0,0
1676886254.89993787,89528341,1544,1544,1544,1544,0,0,0,0,0,0,0,0,0,0
1676886254.99989772,89628301,1544,1544,1544,1544,0,0,0,0,0,0,0,0,0,0
1676886255.09985781,89728261,1544,1544,1544,1544,0,0,0,0,0,0,0,0,0,0
1676886255.19981790,89828221,1544,1544,1544,1544,0,0,0,0,0,0,0,0,0,0
1676886255.29977775,89928181,1544,1544,1544,1544,0,0,0,0,0,0,0,0,0,0
1676886255.40057087,90028974,1544,1544,1544,1544,0,0,0,0,0,0,0,0,0,0
1676886255.50053072,90128934,1544,1544,1544,1544,0,0,0,0,0,0,0,0,0,0
1676886255.60049081,90228894,1545,1545,1545,1545,0,0,0,0,0,0,0,0,0,0
1676886255.70045090,90328854,1544,1544,1544,1544,0,0,0,0,0,0,0,0,0,0
1676886255.80041075,90428814,1544,1544,1544,1544,0,0,0,0,0,0,0,0,0,0
1676886255.90037084,90528774,1545,1545,1545,1545,0,0,0,0,0,0,0,0,0,0
1676886256.00033092,90628734,1545,1545,1545,1545,0,0,0,0,0,0,0,0,0,0
1676886256.10029078,90728694,1545,1545,1545,1545,0,0,0,0,0,0,0,0,0,0
1676886256.20025086,90828654,1544,1545,1544,1545,0,0,0,0,0,0,0,0,0,0
1676886256.30021071,90928614,1545,1545,1545,1545,0,0,0,0,0,0,0,0,0,0
1676886256.40017080,91028574,1544,1544,1544,1544,0,0,0,0,0,0,0,0,0,0
1676886256.50013089,91128534,1545,1544,1545,1544,0,0,0,0,0,0,0,0,0,0
1676886256.60009074,91228494,1545,1545,1545,1545,0,0,0,0,0,0,0,0,0,0
1676886256.70005083,91328454,1544,1544,1544,1544,0,0,0,0,0,0,0,0,0,0
1676886256.80001092,91428414,1544,1545,1544,1544,0,0,0,0,0,0,0,0,0,0
1676886256.89997077,91528374,1544,1544,1544,1545,0,0,0,0,0,0,0,0,0,0
1676886256.99993086,91628334,1545,1545,1545,1545,0,0,0,0,0,0,0,0,0,0
1676886257.09989071,91728294,1545,1544,1544,1544,0,0,0,0,0,0,0,0,0,0
1676886257.19985080,91828254,1544,1544,1544,1543,0,0,0,0,0,0,0,0,0,0
1676886257.29981089,91928214,1544,1544,1544,1544,0,0,0,0,0,0,0,0,0,0
1676886257.39977074,92028174,1544,1543,1544,1544,0,0,0,0,0,0,0,0,0,0
1676886257.50056386,92128967,1544,1544,1544,1544,0,0,0,0,0,0,0,0,0,0
1676886257.60052371,92228927,1544,1544,1544,1544,0,0,0,0,0,0,0,0,0,0
1676886257.70048380,92328887,1544,1545,1544,1544,0,0,0,0,0,0,0,0,0,0
1676886257.80044389,92428847,1544,1545,1544,1544,0,0,0,0,0,0,0,0,0,0
1676886257.90040374,92528807,1544,1544,1544,1544,0,0,0,0,0,0,0,0,0,0
1676886258.00036383,92628767,1544,1545,1545,1544,0,0,0,0,0,0,0,0,0,0
1676886258.10032392,92728727,1544,1544,1544,1544,0,0,0,0,0,0,0,0,0,0
1676886258.20028377,92828687,1545,1545,1544,1544,0,0,0,0,0,0,0,0,0,0
1676886258.30024385,92928647,1544,1544,1543,1544,0,0,0,0,0,0,0,0,0,0
1676886258.40020370,93028607,1544,1544,1544,1544,0,0,0,0,0,0,0,0,0,0
1676886258.50016379,93128567,1544,1544,1544,1544,0,0,0,0,0,0,0,0,0,0
1676886258.60012388,93228527,1544,1544,1545,1544,0,0,0,0,0,0,0,0,0,0
1676886258.70008373,93328487,1544,1544,1544,1544,0,0,0,0,0,0,0,0,0,0
1676886258.80004382,93428447,1544,1544,1545,1544,0,0,0,0,0,0,0,0,0,0
1676886258.90000391,93528407,1544,1544,1544,1544,0,0,0,0,0,0,0,0,0,0
1676886258.99996376,93628367,1544,1544,1544,1544,0,0,0,0,0,0,0,0,0,0
1676886259.09992385,93728327,1544,1544,1543,1544,0,0,0,0,0,0,0,0,0,0
1676886259.19988370,93828287,1544,1545,1544,1545,0,0,0,0,0,0,0,0,0,0
1676886259.29984379,93928247,1545,1545,1545,1545,0,0,0,0,0,0,0,0,0,0
1676886259.39980388,94028207,1543,1544,1544,1544,0,0,0,0,0,0,0,0,0,0
1676886259.49976373,94128167,1544,1544,1544,1544,0,0,0,0,0,0,0,0,0,0
1676886259.60055685,94228960,1543,1543,1544,1543,0,0,0,0,0,0,0,0,0,0
1676886259.70051670,94328920,1544,1544,1544,1544,0,0,0,0,0,0,0,0,0,0
1676886259.80047679,94428880,1544,1543,1543,1544,0,0,0,0,0,0,0,0,0,0
1676886259.90043688,94528840,1544,1544,1544,1544,0,0,0,0,0,0,0,0,0,0
1676886260.00039673,94628800,1545,1545,1545,1545,0,0,0,0,0,0,0,0,0,0
1676886260.10035682,94728760,1516,1513,1514,1515,0,0,0,0,0,0,0,0,0,0
1676886260.20031691,94828720,1331,1328,1330,1329,0,0,0,0,0,0,0,0,0,0
1676886260.30027676,94928680,1243,1238,1240,1240,0,0,0,0,0,0,0,0,0,0
1676886260.40023685,95028640,1215,1209,1212,1212,0,0,0,0,0,0,0,0,0,0
1676886260.50019670,95128600,1189,1184,1186,1187,0,0,0,0,0,0,0,0,0,0
1676886260.60015678,95228560,1155,1150,1152,1152,0,0,0,0,0,0,0,0,0,0
1676886260.70011687,95328520,1156,1150,1153,1153,0,0,0,0,0,0,0,0,0,0
1676886260.80007672,95428480,1168,1150,1152,1166,0,0,0,0,0,0,0,0,0,0
1676886260.90003681,95528440,1179,1150,1151,1178,0,0,0,0,0,0,0,0,0,0
1676886260.99999690,95628400,1173,1150,1152,1171,0,0,0,0,0,0,0,0,0,0
1676886261.09995675,95728360,1173,1150,1152,1170,0,0,0,0,0,0,0,0,0,0
1676886261.19991684,95828320,1174,1150,1152,1171,0,0,0,0,0,0,0,0,0,0
1676886261.29987693,95928280,1176,1150,1153,1174,0,0,0,0,0,0,0,0,0,0
1676886261.39983678,96028240,1177,1150,1153,1175,0,0,0,0,0,0,0,0,0,0
1676886261.49979687,96128200,1179,1150,1153,1177,0,0,0,0,0,0,0,0,0,0
1676886261.59975672,96228160,1155,1150,1151,1154,0,0,0,0,0,0,0,0,0,0
1676886261.70054984,96328953,1167,1150,1152,1165,0,0,0,0,0,0,0,0,0,0
1676886261.80050993,96428913,1168,1150,1152,1166,0,0,0,0,0,0,0,0,0,0
1676886261.90046978,96528873,1169,1150,1152,1167,0,0,0,0,0,0,0,0,0,0
1676886262.00042987,96628833,1169,1150,1152,1167,0,0,0,0,0,0,0,0,0,0
1676886262.10038972,96728793,1144,1144,1144,1144,0,0,0,0,0,0,0,0,0,0
1676886262.20034981,96828753,1000,1000,1000,1000,0,0,0,0,0,0,0,0,0,0
1676886262.30030990,96928713,1000,1000,1000,1000,0,0,0,0,0,0,0,0,0,0
1676886262.40026975,97028673,1000,1000,1000,1000,0,0,0,0,0,0,0,0,0,0
1676886262.50022984,97128633,1000,1000,1000,1000,0,0,0,0,0,0,0,0,0,0
1676886262.60018992,97228593,1000,1000,1000,1000,0,0,0,0,0,0,0,0,0,0
1676886262.70014977,97328553,1000,1000,1000,1000,0,0,0,0,0,0,0,0,0,0
1676886262.80010986,97428513,1000,1000,1000,1000,0,0,0,0,0,0,0,0,0,0
1676886262.90006971,97528473,1000,1000,1000,1000,0,0,0,0,0,0,0,0,0,0
1676886263.00002980,97628433,1000,1000,1000,1000,0,0,0,0,0,0,0,0,0,0
1676886263.09998989,97728393,1000,1000,1000,1000,0,0,0,0,0,0,0,0,0,0
1676886263.19994974,97828353,1000,1000,1000,1000,0,0,0,0,0,0,0,0,0,0
1676886263.29990983,97928313,1000,1000,1000,1000,0,0,0,0,0,0,0,0,0,0
1676886263.39986992,98028273,1000,1000,1000,1000,0,0,0,0,0,0,0,0,0,0
1676886263.49982977,98128233,1000,1000,1000,1000,0,0,0,0,0,0,0,0,0,0
1676886263.59978986,98228193,1000,1000,1000,1000,0,0,0,0,0,0,0,0,0,0
1676886263.70058274,98328986,1000,1000,1000,1000,0,0,0,0,0,0,0,0,0,0
1676886263.80054283,98428946,1000,1000,1000,1000,0,0,0,0,0,0,0,0,0,0
1676886263.90050292,98528906,1000,1000,1000,1000,0,0,0,0,0,0,0,0,0,0
1676886264.00046277,98628866,1000,1000,1000,1000,0,0,0,0,0,0,0,0,0,0
1676886264.10042286,98728826,1000,1000,1000,1000,0,0,0,0,0,0,0,0,0,0
1676886264.20038271,98828786,1000,1000,1000,1000,0,0,0,0,0,0,0,0,0,0
1676886264.30034280,98928746,1000,1000,1000,1000,0,0,0,0,0,0,0,0,0,0
1676886264.40030289,99028706,1000,1000,1000,1000,0,0,0,0,0,0,0,0,0,0
1676886264.50026274,99128666,1000,1000,1000,1000,0,0,0,0,0,0,0,0,0,0
1676886264.60022283,99228626,1000,1000,1000,1000,0,0,0,0,0,0,0,0,0,0
1676886264.70018291,99328586,1000,1000,1000,1000,0,0,0,0,0,0,0,0,0,0
1676886264.80014277,99428546,1000,1000,1000,1000,0,0,0,0,0,0,0,0,0,0
1676886264.90010285,99528506,1000,1000,1000,1000,0,0,0,0,0,0,0,0,0,0
1676886265.00006270,99628466,1000,1000,1000,1000,0,0,0,0,0,0,0,0,0,0
1676886265.10002279,99728426,1000,1000,1000,1000,0,0,0,0,0,0,0,0,0,0
1676886265.19998288,99828386,1000,1000,1000,1000,0,0,0,0,0,0,0,0,0,0
1676886265.29994273,99928346,1000,1000,1000,1000,0,0,0,0,0,0,0,0,0,0
1676886265.39990282,100028306,1000,1000,1000,1000,0,0,0,0,0,0,0,0,0,0
1676886265.49986291,100128266,1000,1000,1000,1000,0,0,0,0,0,0,0,0,0,0
1676886265.59982276,100228226,1000,1000,1000,1000,0,0,0,0,0,0,0,0,0,0
1676886265.69978285,100328186,1000,1000,1000,1000,0,0,0,0,0,0,0,0,0,0
1676886265.80057573,100428979,1000,1000,1000,1000,0,0,0,0,0,0,0,0,0,0
1676886265.90053582,100528939,1000,1000,1000,1000,0,0,0,0,0,0,0,0,0,0
1676886266.00049591,100628899,1000,1000,1000,1000,0,0,0,0,0,0,0,0,0,0
1676886266.10045576,100728859,1000,1000,1000,1000,0,0,0,0,0,0,0,0,0,0
1676886266.20041585,100828819,1000,1000,1000,1000,0,0,0,0,0,0,0,0,0,0
1676886266.30037570,100928779,1000,1000,1000,1000,0,0,0,0,0,0,0,0,0,0
1676886266.40033579,101028739,1000,1000,1000,1000,0,0,0,0,0,0,0,0,0,0
1676886266.50029588,101128699,1000,1000,1000,1000,0,0,0,0,0,0,0,0,0,0
1676886266.60025573,101228659,1000,1000,1000,1000,0,0,0,0,0,0,0,0,0,0
1676886266.70021582,101328619,1000,1000,1000,1000,0,0,0,0,0,0,0,0,0,0
1676886266.80017591,101428579,1000,1000,1000,1000,0,0,0,0,0,0,0,0,0,0
1676886266.90013576,101528539,1000,1000,1000,1000,0,0,0,0,0,0,0,0,0,0
1676886267.00009584,101628499,1000,1000,1000,1000,0,0,0,0,0,0,0,0,0,0
1676886267.10005569,101728459,1000,1000,1000,1000,0,0,0,0,0,0,0,0,0,0
1676886267.20001578,101828419,1000,1000,1000,1000,0,0,0,0,0,0,0,0,0,0
1676886267.29997587,101928379,1000,1000,1000,1000,0,0,0,0,0,0,0,0,0,0
1676886267.39993572,102028339,1000,1000,1000,1000,0,0,0,0,0,0,0,0,0,0
1676886267.49989581,102128299,1000,1000,1000,1000,0,0,0,0,0,0,0,0,0,0
1676886267.59985590,102228259,1000,1000,1000,1000,0,0,0,0,0,0,0,0,0,0
1676886267.69981575,102328219,1000,1000,1000,1000,0,0,0,0,0,0,0,0,0,0
1676886267.79977584,102428179,1000,1000,1000,1000,0,0,0,0,0,0,0,0,0,0
1676886267.90056872,102528972,1000,1000,1000,1000,0,0,0,0,0,0,0,0,0,0
1676886268.00052881,102628932,1000,1000,1000,1000,0,0,0,0,0,0,0,0,0,0
1676886268.10048890,102728892,1000,1000,1000,1000,0,0,0,0,0,0,0,0,0,0
1676886268.20044875,102828852,1000,1000,1000,1000,0,0,0,0,0,0,0,0,0,0
1676886268.30040884,102928812,1000,1000,1000,1000,0,0,0,0,0,0,0,0,0,0
1676886268.40036893,103028772,1000,1000,1000,1000,0,0,0,0,0,0,0,0,0,0
1676886268.50032878,103128732,1000,1000,1000,1000,0,0,0,0,0,0,0,0,0,0
1676886268.60028887,103228692,1000,1000,1000,1000,0,0,0,0,0,0,0,0,0,0
1676886268.70024872,103328652,1000,1000,1000,1000,0,0,0,0,0,0,0,0,0,0
1676886268.80020881,103428612,1000,1000,1000,1000,0,0,0,0,0,0,0,0,0,0
1676886268.90016890,103528572,1000,1000,1000,1000,0,0,0,0,0,0,0,0,0,0
1676886269.00012875,103628532,1000,1000,1000,1000,0,0,0,0,0,0,0,0,0,0
1676886269.10008883,103728492,1000,1000,1000,1000,0,0,0,0,0,0,0,0,0,0
1676886269.20004892,103828452,1000,1000,1000,1000,0,0,0,0,0,0,0,0,0,0
1676886269.30000877,103928412,1000,1000,1000,1000,0,0,0,0,0,0,0,0,0,0
1676886269.39996886,104028372,1000,1000,1000,1000,0,0,0,0,0,0,0,0,0,0
1676886269.49992871,104128332,1000,1000,1000,1000,0,0,0,0,0,0,0,0,0,0
1676886269.59988880,104228292,1000,1000,1000,1000,0,0,0,0,0,0,0,0,0,0
1676886269.69984889,104328252,1000,1000,1000,1000,0,0,0,0,0,0,0,0,0,0
1676886269.79980874,104428212,1000,1000,1000,1000,0,0,0,0,0,0,0,0,0,0
1676886269.89976883,104528172,1000,1000,1000,1000,0,0,0,0,0,0,0,0,0,0
1676886270.00056171,104628965,1000,1000,1000,1000,0,0,0,0,0,0,0,0,0,0
1676886270.10052180,104728925,1000,1000,1000,1000,0,0,0,0,0,0,0,0,0,0
1676886270.20048189,104828885,1000,1000,1000,1000,0,0,0,0,0,0,0,0,0,0
1676886270.30044174,104928845,1000,1000,1000,1000,0,0,0,0,0,0,0,0,0,0
1676886270.40040183,105028805,1000,1000,1000,1000,0,0,0,0,0,0,0,0,0,0
1676886270.50036192,105128765,1000,1000,1000,1000,0,0,0,0,0,0,0,0,0,0
1676886270.60032177,105228725,1000,1000,1000,1000,0,0,0,0,0,0,0,0,0,0
1676886270.70028186,105328685,1000,1000,1000,1000,0,0,0,0,0,0,0,0,0,0
1676886270.80024171,105428645,1000,1000,1000,1000,0,0,0,0,0,0,0,0,0,0
1676886270.90020180,105528605,1000,1000,1000,1000,0,0,0,0,0,0,0,0,0,0
1676886271.00016189,105628565,1000,1000,1000,1000,0,0,0,0,0,0,0,0,0,0
1676886271.10012174,105728525,1000,1000,1000,1000,0,0,0,0,0,0,0,0,0,0
1676886271.20008183,105828485,1000,1000,1000,1000,0,0,0,0,0,0,0,0,0,0
1676886271.30004191,105928445,1000,1000,1000,1000,0,0,0,0,0,0,0,0,0,0
1676886271.40000176,106028405,1000,1000,1000,1000,0,0,0,0,0,0,0,0,0,0
1676886271.49996185,106128365,1000,1000,1000,1000,0,0,0,0,0,0,0,0,0,0
1676886271.59992170,106228325,1000,1000,1000,1000,0,0,0,0,0,0,0,0,0,0
1676886271.69988179,106328285,1000,1000,1000,1000,0,0,0,0,0,0,0,0,0,0
1676886271.79984188,106428245,1000,1000,1000,1000,0,0,0,0,0,0,0,0,0,0
1676886271.89980173,106528205,1000,1000,1000,1000,0,0,0,0,0,0,0,0,0,0
1676886271.99976182,106628165,1000,1000,1000,1000,0,0,0,0,0,0,0,0,0,0
1676886272.10055470,106728958,1000,1000,1000,1000,0,0,0,0,0,0,0,0,0,0
1676886272.20051479,106828918,1000,1000,1000,1000,0,0,0,0,0,0,0,0,0,0
1676886272.30047488,106928878,1000,1000,1000,1000,0,0,0,0,0,0,0,0,0,0
1676886272.40043473,107028838,1000,1000,1000,1000,0,0,0,0,0,0,0,0,0,0
1676886272.50039482,107128798,1000,1000,1000,1000,0,0,0,0,0,0,0,0,0,0
1676886272.60035491,107228758,1000,1000,1000,1000,0,0,0,0,0,0,0,0,0,0
1676886272.70031476,107328718,1000,1000,1000,1000,0,0,0,0,0,0,0,0,0,0
1676886272.80027485,107428678,1000,1000,1000,1000,0,0,0,0,0,0,0,0,0,0
1676886272.90023470,107528638,1000,1000,1000,1000,0,0,0,0,0,0,0,0,0,0
1676886273.00019479,107628598,1000,1000,1000,1000,0,0,0,0,0,0,0,0,0,0
1676886273.10015488,107728558,1000,1000,1000,1000,0,0,0,0,0,0,0,0,0,0
1676886273.20011473,107828518,1000,1000,1000,1000,0,0,0,0,0,0,0,0,0,0
1676886273.30007482,107928478,1000,1000,1000,1000,0,0,0,0,0,0,0,0,0,0
1676886273.40003490,108028438,1000,1000,1000,1000,0,0,0,0,0,0,0,0,0,0
1676886273.49999475,108128398,1000,1000,1000,1000,0,0,0,0,0,0,0,0,0,0
