TimeUS,M1,M2,M3,M4,TimeUS,C1,C2,C3,C4
48816299,1000,1000,1000,1000,48828794,1000,1000,1000,1000
48818798,1000,1000,1000,1000,48928754,1000,1000,1000,1000
48821297,1000,1000,1000,1000,49028714,1000,1000,1000,1000
48823796,1000,1000,1000,1000,49128674,1000,1000,1000,1000
48826295,1000,1000,1000,1000,49228634,1000,1000,1000,1000
48828794,1000,1000,1000,1000,49328594,1000,1000,1000,1000
48831293,1000,1000,1000,1000,49428554,1000,1000,1000,1000
48833792,1000,1000,1000,1000,49528514,1000,1000,1000,1000
48836291,1000,1000,1000,1000,49628474,1000,1000,1000,1000
48838790,1000,1000,1000,1000,49728434,1000,1000,1000,1000
48841289,1000,1000,1000,1000,49828394,1000,1000,1000,1000
48843788,1000,1000,1000,1000,49928354,1000,1000,1000,1000
48846287,1000,1000,1000,1000,50028314,1000,1000,1000,1000
48848786,1000,1000,1000,1000,50128274,1000,1000,1000,1000
48851285,1000,1000,1000,1000,50228234,1000,1000,1000,1000
48853784,1000,1000,1000,1000,50328194,1000,1000,1000,1000
48856283,1000,1000,1000,1000,50428154,1000,1000,1000,1000
48858782,1000,1000,1000,1000,50528947,1000,1000,1000,1000
48861281,1000,1000,1000,1000,50628907,1000,1000,1000,1000
48863780,1000,1000,1000,1000,50728867,1000,1000,1000,1000
48866279,1000,1000,1000,1000,50828827,1003,1003,1003,1003
48868778,1000,1000,1000,1000,50928787,1033,1033,1033,1033
48871277,1000,1000,1000,1000,51028747,1063,1063,1063,1063
48873776,1000,1000,1000,1000,51128707,1093,1093,1093,1093
48876275,1000,1000,1000,1000,51228667,1123,1123,1123,1123
48878774,1000,1000,1000,1000,51328627,1185,1177,1178,1186
48881273,1000,1000,1000,1000,51428587,1424,1419,1419,1425
48883772,1000,1000,1000,1000,51528547,1599,1594,1594,1599
48886271,1000,1000,1000,1000,51628507,1743,1739,1739,1743
48888770,1000,1000,1000,1000,51728467,1869,1865,1865,1869
48891269,1000,1000,1000,1000,51828427,1905,1902,1902,1905
48893768,1000,1000,1000,1000,51928387,1805,1804,1804,1805
48896267,1000,1000,1000,1000,52028347,1689,1690,1690,1689
48898766,1000,1000,1000,1000,52128307,1639,1641,1641,1639
48901265,1000,1000,1000,1000,52228267,1636,1638,1638,1636
48903764,1000,1000,1000,1000,52328227,1643,1644,1644,1643
48906263,1000,1000,1000,1000,52428187,1644,1644,1644,1644
48908762,1000,1000,1000,1000,52528980,1626,1625,1618,1632
48911261,1000,1000,1000,1000,52628940,1612,1612,1603,1621
48913760,1000,1000,1000,1000,52728900,1605,1605,1600,1609
48916259,1000,1000,1000,1000,52828860,1604,1604,1604,1604
48918758,1000,1000,1000,1000,52928820,1606,1607,1610,1603
48921257,1000,1000,1000,1000,53028780,1612,1612,1616,1608
48923756,1000,1000,1000,1000,53128740,1584,1584,1601,1567
48926255,1000,1000,1000,1000,53228700,1571,1571,1587,1556
48928754,1000,1000,1000,1000,53328660,1560,1560,1566,1556
48931253,1000,1000,1000,1000,53428620,1550,1550,1546,1556
48933752,1000,1000,1000,1000,53528580,1543,1542,1531,1555
48936251,1000,1000,1000,1000,53628540,1536,1536,1524,1548
48938750,1000,1000,1000,1000,53728500,1531,1530,1522,1538
48941249,1000,1000,1000,1000,53828460,1526,1526,1523,1529
48943748,1000,1000,1000,1000,53928420,1526,1525,1526,1525
48946247,1000,1000,1000,1000,54028380,1528,1528,1530,1526
48948746,1000,1000,1000,1000,54128340,1531,1531,1533,1528
48951245,1000,1000,1000,1000,54228300,1534,1534,1537,1531
48953744,1000,1000,1000,1000,54328260,1538,1538,1541,1535
48956243,1000,1000,1000,1000,54428220,1542,1542,1544,1540
48958742,1000,1000,1000,1000,54528180,1545,1545,1546,1545
48961241,1000,1000,1000,1000,54628973,1547,1548,1547,1548
48963740,1000,1000,1000,1000,54728933,1551,1551,1550,1552
48966239,1000,1000,1000,1000,54828893,1554,1554,1552,1555
48968738,1000,1000,1000,1000,54928853,1552,1551,1558,1562
48971237,1000,1000,1000,1000,55028813,1552,1552,1562,1564
48973736,1000,1000,1000,1000,55128773,1555,1556,1564,1565
48976235,1000,1000,1000,1000,55228733,1560,1560,1565,1565
48978734,1000,1000,1000,1000,55328693,1563,1563,1565,1564
48981233,1000,1000,1000,1000,55428653,1565,1566,1564,1563
48983732,1000,1000,1000,1000,55528613,1568,1569,1564,1564
48986231,1000,1000,1000,1000,55628573,1570,1570,1565,1565
48988730,1000,1000,1000,1000,55728533,1572,1572,1565,1566
48991229,1000,1000,1000,1000,55828493,1573,1572,1566,1566
48993728,1000,1000,1000,1000,55928453,1573,1573,1567,1567
48996227,1000,1000,1000,1000,56028413,1574,1573,1568,1569
48998726,1000,1000,1000,1000,56128373,1574,1574,1570,1571
49001225,1000,1000,1000,1000,56228333,1575,1575,1573,1573
49003724,1000,1000,1000,1000,56328293,1574,1575,1575,1574
49006223,1000,1000,1000,1000,56428253,1574,1574,1576,1574
49008722,1000,1000,1000,1000,56528213,1575,1575,1577,1576
49011221,1000,1000,1000,1000,56628173,1575,1575,1577,1577
49013720,1000,1000,1000,1000,56728966,1575,1575,1577,1577
49016219,1000,1000,1000,1000,56828926,1575,1575,1578,1577
49018718,1000,1000,1000,1000,56928886,1575,1576,1577,1578
49021217,1000,1000,1000,1000,57028846,1576,1576,1577,1577
49023716,1000,1000,1000,1000,57128806,1576,1577,1577,1578
49026215,1000,1000,1000,1000,57228766,1576,1576,1577,1576
49028714,1000,1000,1000,1000,57328726,1578,1577,1577,1577
49031213,1000,1000,1000,1000,57428686,1577,1577,1577,1576
49033712,1000,1000,1000,1000,57528646,1578,1578,1577,1578
49036211,1000,1000,1000,1000,57628606,1577,1577,1576,1576
49038710,1000,1000,1000,1000,57728566,1577,1578,1577,1576
49041209,1000,1000,1000,1000,57828526,1578,1578,1578,1577
49043708,1000,1000,1000,1000,57928486,1578,1578,1577,1578
49046207,1000,1000,1000,1000,58028446,1578,1577,1577,1577
49048706,1000,1000,1000,1000,58128406,1578,1578,1578,1578
49051205,1000,1000,1000,1000,58228366,1578,1578,1578,1578
49053704,1000,1000,1000,1000,58328326,1578,1578,1578,1578
49056203,1000,1000,1000,1000,58428286,1578,1579,1579,1579
49058702,1000,1000,1000,1000,58528246,1578,1578,1579,1579
49061201,1000,1000,1000,1000,58628206,1578,1578,1579,1579
49063700,1000,1000,1000,1000,58728166,1579,1579,1579,1579
49066199,1000,1000,1000,1000,58828959,1578,1579,1579,1578
49068698,1000,1000,1000,1000,58928919,1579,1579,1579,1579
49071197,1000,1000,1000,1000,59028879,1579,1579,1579,1579
49073696,1000,1000,1000,1000,59128839,1579,1579,1580,1579
49076195,1000,1000,1000,1000,59228799,1579,1579,1579,1579
49078694,1000,1000,1000,1000,59328759,1579,1579,1579,1580
49081193,1000,1000,1000,1000,59428719,1579,1579,1579,1579
49083692,1000,1000,1000,1000,59528679,1579,1579,1579,1579
49086191,1000,1000,1000,1000,59628639,1579,1579,1579,1579
49088690,1000,1000,1000,1000,59728599,1581,1580,1580,1580
49091189,1000,1000,1000,1000,59828559,1580,1580,1580,1579
49093688,1000,1000,1000,1000,59928519,1581,1581,1581,1581
49096187,1000,1000,1000,1000,60028479,1580,1581,1580,1580
49098686,1000,1000,1000,1000,60128439,1580,1580,1580,1580
49101185,1000,1000,1000,1000,60228399,1580,1581,1580,1581
49103684,1000,1000,1000,1000,60328359,1580,1580,1580,1581
49106183,1000,1000,1000,1000,60428319,1581,1581,1581,1581
49108682,1000,1000,1000,1000,60528279,1581,1581,1581,1580
49111181,1000,1000,1000,1000,60628239,1580,1580,1581,1580
49113680,1000,1000,1000,1000,60728199,1580,1580,1580,1581
49116179,1000,1000,1000,1000,60828159,1580,1580,1580,1580
49118678,1000,1000,1000,1000,60928952,1582,1581,1582,1582
49121177,1000,1000,1000,1000,61028912,1581,1581,1581,1581
49123676,1000,1000,1000,1000,61128872,1581,1582,1586,1576
49126175,1000,1000,1000,1000,61228832,1581,1583,1588,1574
49128674,1000,1000,1000,1000,61328792,1579,1582,1580,1574
49131173,1000,1000,1000,1000,61428752,1577,1580,1570,1572
49133672,1000,1000,1000,1000,61528712,1577,1580,1563,1570
49136171,1000,1000,1000,1000,61628672,1578,1580,1559,1566
49138670,1000,1000,1000,1000,61728632,1579,1578,1556,1561
49141169,1000,1000,1000,1000,61828592,1580,1578,1556,1557
49143668,1000,1000,1000,1000,61928552,1580,1579,1557,1555
49146167,1000,1000,1000,1000,62028512,1578,1578,1557,1553
49148666,1000,1000,1000,1000,62128472,1576,1576,1555,1552
49151165,1000,1000,1000,1000,62228432,1576,1577,1555,1554
49153664,1000,1000,1000,1000,62328392,1575,1576,1554,1554
49156163,1000,1000,1000,1000,62428352,1575,1576,1554,1554
49158662,1000,1000,1000,1000,62528312,1574,1576,1552,1552
49161161,1000,1000,1000,1000,62628272,1576,1578,1551,1551
49163660,1000,1000,1000,1000,62728232,1578,1579,1549,1549
49166159,1000,1000,1000,1000,62828192,1579,1580,1546,1546
49168658,1000,1000,1000,1000,62928985,1582,1583,1544,1543
49171157,1000,1000,1000,1000,63028945,1585,1586,1541,1541
49173656,1000,1000,1000,1000,63128905,1589,1589,1539,1539
49176155,1000,1000,1000,1000,63228865,1592,1592,1537,1537
49178654,1000,1000,1000,1000,63328825,1594,1594,1535,1536
49181153,1000,1000,1000,1000,63428785,1595,1595,1535,1536
49183652,1000,1000,1000,1000,63528745,1595,1595,1536,1538
49186151,1000,1000,1000,1000,63628705,1593,1594,1537,1540
49188650,1000,1000,1000,1000,63728665,1591,1590,1542,1545
49191149,1000,1000,1000,1000,63828625,1586,1584,1549,1552
49193648,1000,1000,1000,1000,63928585,1579,1575,1558,1561
49196147,1000,1000,1000,1000,64028545,1570,1566,1570,1571
49198646,1000,1000,1000,1000,64128505,1558,1554,1581,1583
49201145,1000,1000,1000,1000,64228465,1548,1544,1594,1594
49203644,1000,1000,1000,1000,64328425,1537,1536,1603,1603
49206143,1000,1000,1000,1000,64428385,1531,1532,1611,1610
49208642,1000,1000,1000,1000,64528345,1528,1530,1615,1613
49211141,1000,1000,1000,1000,64628305,1529,1531,1614,1613
49213640,1000,1000,1000,1000,64728265,1535,1536,1612,1611
49216139,1000,1000,1000,1000,64828225,1541,1543,1606,1606
49218638,1000,1000,1000,1000,64928185,1549,1550,1598,1599
49221137,1000,1000,1000,1000,65028978,1558,1559,1591,1591
49223636,1000,1000,1000,1000,65128938,1568,1568,1585,1584
49226135,1000,1000,1000,1000,65228898,1575,1574,1577,1576
49228634,1000,1000,1000,1000,65328858,1581,1580,1572,1572
49231133,1000,1000,1000,1000,65428818,1585,1584,1568,1568
49233632,1000,1000,1000,1000,65528778,1588,1587,1567,1567
49236131,1000,1000,1000,1000,65628738,1587,1586,1565,1566
49238630,1000,1000,1000,1000,65728698,1586,1585,1567,1567
49241129,1000,1000,1000,1000,65828658,1584,1583,1569,1568
49243628,1000,1000,1000,1000,65928618,1581,1581,1572,1572
49246127,1000,1000,1000,1000,66028578,1578,1579,1575,1575
49248626,1000,1000,1000,1000,66128538,1576,1576,1578,1578
49251125,1000,1000,1000,1000,66228498,1575,1576,1581,1581
49253624,1000,1000,1000,1000,66328458,1573,1573,1582,1582
49256123,1000,1000,1000,1000,66428418,1572,1573,1584,1583
49258622,1000,1000,1000,1000,66528378,1572,1574,1584,1584
49261121,1000,1000,1000,1000,66628338,1574,1575,1584,1584
49263620,1000,1000,1000,1000,66728298,1575,1575,1583,1583
49266119,1000,1000,1000,1000,66828258,1575,1575,1581,1581
49268618,1000,1000,1000,1000,66928218,1577,1577,1581,1581
49271117,1000,1000,1000,1000,67028178,1578,1578,1579,1579
49273616,1000,1000,1000,1000,67128971,1580,1580,1579,1579
49276115,1000,1000,1000,1000,67228931,1580,1580,1577,1577
49278614,1000,1000,1000,1000,67328891,1582,1581,1577,1577
49281113,1000,1000,1000,1000,67428851,1582,1581,1577,1576
49283612,1000,1000,1000,1000,67528811,1582,1581,1577,1577
49286111,1000,1000,1000,1000,67628771,1582,1581,1577,1577
49288610,1000,1000,1000,1000,67728731,1581,1581,1578,1578
49291109,1000,1000,1000,1000,67828691,1580,1580,1578,1578
49293608,1000,1000,1000,1000,67928651,1580,1579,1579,1579
49296107,1000,1000,1000,1000,68028611,1579,1579,1579,1579
49298606,1000,1000,1000,1000,68128571,1579,1578,1581,1580
49301105,1000,1000,1000,1000,68228531,1578,1579,1580,1581
49303604,1000,1000,1000,1000,68328491,1577,1579,1580,1581
49306103,1000,1000,1000,1000,68428451,1577,1579,1580,1581
49308602,1000,1000,1000,1000,68528411,1578,1579,1579,1581
49311101,1000,1000,1000,1000,68628371,1577,1578,1578,1579
49313600,1000,1000,1000,1000,68728331,1578,1578,1578,1578
49316099,1000,1000,1000,1000,68828291,1579,1578,1578,1578
49318598,1000,1000,1000,1000,68928251,1580,1579,1579,1578
49321097,1000,1000,1000,1000,69028211,1581,1581,1579,1579
49323596,1000,1000,1000,1000,69128171,1580,1582,1582,1575
49326095,1000,1000,1000,1000,69228964,1581,1584,1585,1570
49328594,1000,1000,1000,1000,69328924,1580,1584,1578,1570
49331093,1000,1000,1000,1000,69428884,1579,1582,1568,1569
49333592,1000,1000,1000,1000,69528844,1579,1581,1560,1566
49336091,1000,1000,1000,1000,69628804,1579,1580,1554,1562
49338590,1000,1000,1000,1000,69728764,1580,1579,1552,1557
49341089,1000,1000,1000,1000,69828724,1581,1580,1552,1554
49343588,1000,1000,1000,1000,69928684,1582,1580,1553,1552
49346087,1000,1000,1000,1000,70028644,1581,1580,1554,1551
49348586,1000,1000,1000,1000,70128604,1579,1579,1554,1551
49351085,1000,1000,1000,1000,70228564,1578,1580,1555,1553
49353584,1000,1000,1000,1000,70328524,1577,1578,1554,1553
49356083,1000,1000,1000,1000,70428484,1552,1567,1558,1559
49358582,1000,1000,1000,1000,70528444,1570,1565,1560,1560
49361081,1000,1000,1000,1000,70628404,1581,1568,1558,1558
49363580,1000,1000,1000,1000,70728364,1590,1576,1557,1556
49366079,1000,1000,1000,1000,70828324,1592,1583,1553,1552
49368578,1000,1000,1000,1000,70928284,1593,1591,1548,1548
49371077,1000,1000,1000,1000,71028244,1592,1597,1543,1544
49373576,1000,1000,1000,1000,71128204,1593,1600,1540,1540
49376075,1000,1000,1000,1000,71228164,1595,1602,1537,1538
49378574,1000,1000,1000,1000,71328957,1596,1600,1536,1538
49381073,1000,1000,1000,1000,71428917,1595,1596,1538,1540
49383572,1000,1000,1000,1000,71528877,1595,1592,1545,1546
49386071,1000,1000,1000,1000,71628837,1589,1585,1551,1553
49388570,1000,1000,1000,1000,71728797,1581,1576,1560,1562
49391069,1000,1000,1000,1000,71828757,1572,1568,1571,1573
49393568,1000,1000,1000,1000,71928717,1562,1558,1582,1583
49396067,1000,1000,1000,1000,72028677,1552,1550,1593,1594
49398566,1000,1000,1000,1000,72128637,1542,1542,1601,1601
49401065,1000,1000,1000,1000,72228597,1536,1537,1607,1607
49403564,1000,1000,1000,1000,72328557,1533,1535,1611,1610
49406063,1000,1000,1000,1000,72428517,1534,1535,1611,1610
49408562,1000,1000,1000,1000,72528477,1536,1538,1608,1607
49411061,1000,1000,1000,1000,72628437,1543,1545,1604,1603
49413560,1000,1000,1000,1000,72728397,1551,1552,1599,1598
49416059,1000,1000,1000,1000,72828357,1558,1559,1590,1590
49418558,1000,1000,1000,1000,72928317,1566,1566,1583,1583
49421057,1000,1000,1000,1000,73028277,1574,1573,1576,1577
49423556,1000,1000,1000,1000,73128237,1579,1578,1571,1571
49426055,1000,1000,1000,1000,73228197,1583,1582,1566,1567
49428554,1000,1000,1000,1000,73328157,1585,1584,1564,1564
49431053,1000,1000,1000,1000,73428950,1586,1585,1564,1565
49433552,1000,1000,1000,1000,73528910,1585,1585,1565,1565
49436051,1000,1000,1000,1000,73628870,1584,1583,1567,1567
49438550,1000,1000,1000,1000,73728830,1582,1581,1570,1570
49441049,1000,1000,1000,1000,73828790,1579,1579,1573,1573
49443548,1000,1000,1000,1000,73928750,1576,1576,1575,1575
49446047,1000,1000,1000,1000,74028710,1574,1574,1578,1578
49448546,1000,1000,1000,1000,74128670,1572,1573,1579,1579
49451045,1000,1000,1000,1000,74228630,1571,1572,1581,1581
49453544,1000,1000,1000,1000,74328590,1571,1572,1581,1581
49456043,1000,1000,1000,1000,74428550,1572,1573,1581,1582
49458542,1000,1000,1000,1000,74528510,1573,1574,1581,1581
49461041,1000,1000,1000,1000,74628470,1574,1575,1580,1580
49463540,1000,1000,1000,1000,74728430,1576,1576,1579,1579
49466039,1000,1000,1000,1000,74828390,1579,1578,1578,1579
49468538,1000,1000,1000,1000,74928350,1580,1580,1578,1577
49471037,1000,1000,1000,1000,75028310,1582,1581,1578,1577
49473536,1000,1000,1000,1000,75128270,1582,1582,1577,1577
49476035,1000,1000,1000,1000,75228230,1582,1582,1577,1577
49478534,1000,1000,1000,1000,75328190,1582,1582,1577,1577
49481033,1000,1000,1000,1000,75428983,1582,1581,1577,1577
49483532,1000,1000,1000,1000,75528943,1581,1581,1577,1577
49486031,1000,1000,1000,1000,75628903,1581,1581,1578,1579
49488530,1000,1000,1000,1000,75728863,1581,1581,1580,1579
49491029,1000,1000,1000,1000,75828823,1582,1581,1581,1581
49493528,1000,1000,1000,1000,75928783,1581,1581,1582,1582
49496027,1000,1000,1000,1000,76028743,1581,1581,1581,1582
49498526,1000,1000,1000,1000,76128703,1581,1580,1582,1582
49501025,1000,1000,1000,1000,76228663,1580,1580,1581,1582
49503524,1000,1000,1000,1000,76328623,1580,1580,1582,1582
49506023,1000,1000,1000,1000,76428583,1581,1581,1582,1583
49508522,1000,1000,1000,1000,76528543,1581,1581,1583,1582
49511021,1000,1000,1000,1000,76628503,1582,1581,1582,1582
49513520,1000,1000,1000,1000,76728463,1582,1582,1582,1582
49516019,1000,1000,1000,1000,76828423,1582,1582,1582,1582
49518518,1000,1000,1000,1000,76928383,1582,1582,1582,1582
49521017,1000,1000,1000,1000,77028343,1584,1583,1583,1583
49523516,1000,1000,1000,1000,77128303,1583,1584,1588,1578
49526015,1000,1000,1000,1000,77228263,1583,1585,1589,1576
49528514,1000,1000,1000,1000,77328223,1581,1583,1581,1575
49531013,1000,1000,1000,1000,77428183,1579,1581,1572,1574
49533512,1000,1000,1000,1000,77528976,1578,1581,1565,1571
49536011,1000,1000,1000,1000,77628936,1579,1579,1560,1567
49538510,1000,1000,1000,1000,77728896,1579,1579,1558,1563
49541009,1000,1000,1000,1000,77828856,1579,1577,1557,1558
49543508,1000,1000,1000,1000,77928816,1579,1578,1558,1556
49546007,1000,1000,1000,1000,78028776,1580,1578,1560,1557
49548506,1000,1000,1000,1000,78128736,1578,1577,1558,1556
49551005,1000,1000,1000,1000,78228696,1575,1575,1557,1557
49553504,1000,1000,1000,1000,78328656,1573,1574,1557,1557
49556003,1000,1000,1000,1000,78428616,1572,1573,1556,1558
49558502,1000,1000,1000,1000,78528576,1570,1572,1556,1556
49561001,1000,1000,1000,1000,78628536,1570,1571,1555,1556
49563500,1000,1000,1000,1000,78728496,1571,1572,1555,1555
49565999,1000,1000,1000,1000,78828456,1573,1574,1554,1554
49568498,1000,1000,1000,1000,78928416,1574,1575,1552,1551
49570997,1000,1000,1000,1000,79028376,1577,1577,1550,1549
49573496,1000,1000,1000,1000,79128336,1578,1579,1547,1546
49575995,1000,1000,1000,1000,79228296,1581,1582,1544,1544
49578494,1000,1000,1000,1000,79328256,1584,1585,1542,1542
49580993,1000,1000,1000,1000,79428216,1587,1587,1540,1541
49583492,1000,1000,1000,1000,79528176,1588,1590,1538,1539
49585991,1000,1000,1000,1000,79628969,1591,1592,1537,1538
49588490,1000,1000,1000,1000,79728929,1592,1593,1535,1537
49590989,1000,1000,1000,1000,79828889,1593,1593,1537,1540
49593488,1000,1000,1000,1000,79928849,1591,1590,1540,1543
49595987,1000,1000,1000,1000,80028809,1588,1585,1547,1550
49598486,1000,1000,1000,1000,80128769,1582,1578,1556,1558
49600985,1000,1000,1000,1000,80228729,1573,1569,1567,1569
49603484,1000,1000,1000,1000,80328689,1563,1559,1578,1580
49605983,1000,1000,1000,1000,80428649,1553,1550,1590,1591
49608482,1000,1000,1000,1000,80528609,1544,1542,1599,1599
49610981,1000,1000,1000,1000,80628569,1537,1538,1607,1606
49613480,1000,1000,1000,1000,80728529,1534,1535,1610,1610
49615979,1000,1000,1000,1000,80828489,1534,1536,1612,1611
49618478,1000,1000,1000,1000,80928449,1538,1540,1610,1610
49620977,1000,1000,1000,1000,81028409,1542,1545,1605,1604
49623476,1000,1000,1000,1000,81128369,1551,1552,1600,1599
49625975,1000,1000,1000,1000,81228329,1559,1559,1593,1592
49628474,1000,1000,1000,1000,81328289,1566,1567,1586,1585
49630973,1000,1000,1000,1000,81428249,1572,1572,1579,1579
49633472,1000,1000,1000,1000,81528209,1578,1578,1575,1575
49635971,1000,1000,1000,1000,81628169,1582,1579,1571,1572
49638470,1000,1000,1000,1000,81728962,1584,1582,1571,1570
49640969,1000,1000,1000,1000,81828922,1584,1582,1571,1570
49643468,1000,1000,1000,1000,81928882,1583,1581,1571,1571
49645967,1000,1000,1000,1000,82028842,1582,1580,1573,1572
49648466,1000,1000,1000,1000,82128802,1580,1581,1575,1575
49650965,1000,1000,1000,1000,82228762,1578,1578,1575,1575
49653464,1000,1000,1000,1000,82328722,1577,1577,1576,1577
49655963,1000,1000,1000,1000,82428682,1577,1577,1577,1577
49658462,1000,1000,1000,1000,82528642,1577,1577,1578,1579
49660961,1000,1000,1000,1000,82628602,1578,1579,1578,1579
49663460,1000,1000,1000,1000,82728562,1578,1579,1577,1578
49665959,1000,1000,1000,1000,82828522,1580,1580,1577,1577
49668458,1000,1000,1000,1000,82928482,1580,1581,1577,1577
49670957,1000,1000,1000,1000,83028442,1582,1582,1579,1578
49673456,1000,1000,1000,1000,83128402,1582,1582,1579,1579
49675955,1000,1000,1000,1000,83228362,1582,1581,1581,1579
49678454,1000,1000,1000,1000,83328322,1581,1581,1582,1582
49680953,1000,1000,1000,1000,83428282,1580,1579,1582,1582
49683452,1000,1000,1000,1000,83528242,1579,1579,1584,1584
49685951,1000,1000,1000,1000,83628202,1579,1579,1585,1585
49688450,1000,1000,1000,1000,83728162,1577,1578,1584,1584
49690949,1000,1000,1000,1000,83828955,1577,1579,1585,1584
49693448,1000,1000,1000,1000,83928915,1577,1577,1582,1583
49695947,1000,1000,1000,1000,84028875,1579,1578,1582,1583
49698446,1000,1000,1000,1000,84128835,1579,1579,1582,1582
49700945,1000,1000,1000,1000,84228795,1581,1581,1581,1582
49703444,1000,1000,1000,1000,84328755,1582,1582,1581,1581
49705943,1000,1000,1000,1000,84428715,1582,1582,1580,1579
49708442,1000,1000,1000,1000,84528675,1583,1582,1580,1579
49710941,1000,1000,1000,1000,84628635,1583,1583,1579,1579
49713440,1000,1000,1000,1000,84728595,1583,1583,1579,1580
49715939,1000,1000,1000,1000,84828555,1583,1583,1580,1580
49718438,1000,1000,1000,1000,84928515,1583,1582,1580,1580
49720937,1000,1000,1000,1000,85028475,1583,1582,1580,1580
49723436,1000,1000,1000,1000,85128435,1581,1581,1580,1580
49725935,1000,1000,1000,1000,85228395,1581,1581,1588,1573
49728434,1000,1000,1000,1000,85328355,1580,1579,1585,1573
49730933,1000,1000,1000,1000,85428315,1577,1577,1578,1576
49733432,1000,1000,1000,1000,85528275,1573,1573,1571,1575
49735931,1000,1000,1000,1000,85628235,1570,1570,1567,1574
49738430,1000,1000,1000,1000,85728195,1567,1567,1565,1572
49740929,1000,1000,1000,1000,85828155,1566,1566,1566,1569
49743428,1000,1000,1000,1000,85928948,1565,1566,1566,1567
49745927,1000,1000,1000,1000,86028908,1565,1565,1567,1565
49748426,1000,1000,1000,1000,86128868,1564,1564,1567,1564
49750925,1000,1000,1000,1000,86228828,1564,1564,1566,1563
49753424,1000,1000,1000,1000,86328788,1563,1563,1564,1563
49755923,1000,1000,1000,1000,86428748,1563,1563,1564,1563
49758422,1000,1000,1000,1000,86528708,1562,1563,1562,1562
49760921,1000,1000,1000,1000,86628668,1562,1563,1562,1562
49763420,1000,1000,1000,1000,86728628,1562,1562,1562,1562
49765919,1000,1000,1000,1000,86828588,1562,1562,1562,1561
49768418,1000,1000,1000,1000,86928548,1561,1561,1561,1561
49770917,1000,1000,1000,1000,87028508,1560,1560,1560,1559
49773416,1000,1000,1000,1000,87128468,1558,1559,1559,1558
49775915,1000,1000,1000,1000,87228428,1557,1557,1557,1556
49778414,1000,1000,1000,1000,87328388,1556,1556,1557,1556
49780913,1000,1000,1000,1000,87428348,1556,1556,1557,1556
49783412,1000,1000,1000,1000,87528308,1557,1557,1558,1556
49785911,1000,1000,1000,1000,87628268,1556,1556,1558,1555
49788410,1000,1000,1000,1000,87728228,1557,1557,1559,1557
49790909,1000,1000,1000,1000,87828188,1557,1557,1559,1556
49793408,1000,1000,1000,1000,87928981,1559,1558,1558,1559
49795907,1000,1000,1000,1000,88028941,1557,1557,1555,1560
49798406,1000,1000,1000,1000,88128901,1560,1560,1557,1564
49800905,1000,1000,1000,1000,88228861,1562,1562,1559,1564
49803404,1000,1000,1000,1000,88328821,1563,1563,1561,1565
49805903,1000,1000,1000,1000,88428781,1562,1563,1563,1562
49808402,1000,1000,1000,1000,88528741,1561,1561,1562,1559
49810901,1000,1000,1000,1000,88628701,1560,1561,1561,1561
49813400,1000,1000,1000,1000,88728661,1555,1556,1557,1557
49815899,1000,1000,1000,1000,88828621,1549,1550,1553,1554
49818398,1000,1000,1000,1000,88928581,1544,1543,1549,1550
49820897,1000,1000,1000,1000,89028541,1537,1536,1543,1545
49823396,1000,1000,1000,1000,89128501,1530,1528,1536,1538
49825895,1000,1000,1000,1000,89228461,1522,1520,1528,1530
49828394,1000,1000,1000,1000,89328421,1518,1517,1523,1524
49830893,1000,1000,1000,1000,89428381,1518,1517,1520,1521
49833392,1000,1000,1000,1000,89528341,1520,1520,1519,1521
49835891,1000,1000,1000,1000,89628301,1524,1524,1519,1521
49838390,1000,1000,1000,1000,89728261,1528,1528,1521,1522
49840889,1000,1000,1000,1000,89828221,1532,1533,1523,1523
49843388,1000,1000,1000,1000,89928181,1538,1539,1528,1527
49845887,1000,1000,1000,1000,90028974,1543,1544,1532,1532
49848386,1000,1000,1000,1000,90128934,1546,1547,1535,1534
49850885,1000,1000,1000,1000,90228894,1548,1548,1537,1537
49853384,1000,1000,1000,1000,90328854,1550,1550,1540,1540
49855883,1000,1000,1000,1000,90428814,1549,1550,1542,1542
49858382,1000,1000,1000,1000,90528774,1550,1550,1544,1544
49860881,1000,1000,1000,1000,90628734,1549,1549,1546,1544
49863380,1000,1000,1000,1000,90728694,1548,1547,1548,1545
49865879,1000,1000,1000,1000,90828654,1547,1546,1549,1546
49868378,1000,1000,1000,1000,90928614,1546,1545,1550,1549
49870877,1000,1000,1000,1000,91028574,1544,1543,1551,1550
49873376,1000,1000,1000,1000,91128534,1542,1542,1551,1551
49875875,1000,1000,1000,1000,91228494,1541,1540,1550,1550
49878374,1000,1000,1000,1000,91328454,1541,1541,1550,1551
49880873,1000,1000,1000,1000,91428414,1540,1540,1548,1549
49883372,1000,1000,1000,1000,91528374,1541,1541,1548,1548
49885871,1000,1000,1000,1000,91628334,1542,1542,1547,1546
49888370,1000,1000,1000,1000,91728294,1543,1543,1546,1545
49890869,1000,1000,1000,1000,91828254,1544,1544,1545,1544
49893368,1000,1000,1000,1000,91928214,1545,1545,1543,1544
49895867,1000,1000,1000,1000,92028174,1546,1546,1543,1543
49898366,1000,1000,1000,1000,92128967,1547,1547,1542,1543
49900865,1000,1000,1000,1000,92228927,1547,1547,1542,1542
49903364,1000,1000,1000,1000,92328887,1547,1547,1543,1543
49905863,1000,1000,1000,1000,92428847,1545,1546,1541,1542
49908362,1000,1000,1000,1000,92528807,1546,1545,1542,1543
49910861,1000,1000,1000,1000,92628767,1546,1546,1544,1543
49913360,1000,1000,1000,1000,92728727,1545,1545,1544,1543
49915859,1000,1000,1000,1000,92828687,1544,1544,1544,1544
49918358,1000,1000,1000,1000,92928647,1543,1543,1544,1545
49920857,1000,1000,1000,1000,93028607,1542,1543,1544,1544
49923356,1000,1000,1000,1000,93128567,1543,1543,1544,1544
49925855,1000,1000,1000,1000,93228527,1543,1542,1544,1544
49928354,1000,1000,1000,1000,93328487,1543,1543,1545,1545
49930853,1000,1000,1000,1000,93428447,1544,1544,1545,1545
49933352,1000,1000,1000,1000,93528407,1545,1545,1545,1546
49935851,1000,1000,1000,1000,93628367,1544,1544,1545,1544
49938350,1000,1000,1000,1000,93728327,1544,1544,1544,1544
49940849,1000,1000,1000,1000,93828287,1545,1545,1545,1544
49943348,1000,1000,1000,1000,93928247,1545,1545,1544,1544
49945847,1000,1000,1000,1000,94028207,1545,1545,1544,1545
49948346,1000,1000,1000,1000,94128167,1545,1545,1545,1545
49950845,1000,1000,1000,1000,94228960,1545,1545,1544,1544
49953344,1000,1000,1000,1000,94328920,1545,1545,1544,1544
49955843,1000,1000,1000,1000,94428880,1544,1544,1543,1543
49958342,1000,1000,1000,1000,94528840,1544,1544,1543,1543
49960841,1000,1000,1000,1000,94628800,1544,1544,1543,1544
49963340,1000,1000,1000,1000,94728760,1544,1544,1544,1544
49965839,1000,1000,1000,1000,94828720,1544,1544,1544,1544
49968338,1000,1000,1000,1000,94928680,1544,1544,1544,1543
49970837,1000,1000,1000,1000,95028640,1544,1544,1544,1544
49973336,1000,1000,1000,1000,95128600,1543,1543,1544,1544
49975835,1000,1000,1000,1000,95228560,1543,1543,1544,1544
49978334,1000,1000,1000,1000,95328520,1544,1544,1544,1544
49980833,1000,1000,1000,1000,95428480,1543,1544,1544,1544
49983332,1000,1000,1000,1000,95528440,1544,1544,1544,1545
49985831,1000,1000,1000,1000,95628400,1544,1544,1544,1544
49988330,1000,1000,1000,1000,95728360,1544,1544,1544,1544
49990829,1000,1000,1000,1000,95828320,1544,1544,1544,1544
49993328,1000,1000,1000,1000,95928280,1544,1544,1545,1544
49995827,1000,1000,1000,1000,96028240,1544,1544,1547,1545
49998326,1000,1000,1000,1000,96128200,1542,1542,1547,1545
50000825,1000,1000,1000,1000,96228160,1541,1542,1548,1548
50003324,1000,1000,1000,1000,96328953,1541,1541,1549,1550
50005823,1000,1000,1000,1000,96428913,1540,1539,1548,1550
50008322,1000,1000,1000,1000,96528873,1540,1540,1549,1551
50010821,1000,1000,1000,1000,96628833,1540,1540,1547,1549
50013320,1000,1000,1000,1000,96728793,1541,1541,1547,1548
50015819,1000,1000,1000,1000,96828753,1543,1542,1545,1546
50018318,1000,1000,1000,1000,96928713,1544,1544,1543,1544
50020817,1000,1000,1000,1000,97028673,1547,1547,1542,1543
50023316,1000,1000,1000,1000,97128633,1548,1548,1541,1541
50025815,1000,1000,1000,1000,97228593,1550,1550,1539,1540
50028314,1000,1000,1000,1000,97328553,1550,1550,1538,1539
50030813,1000,1000,1000,1000,97428513,1550,1550,1538,1538
50033312,1000,1000,1000,1000,97528473,1551,1551,1539,1539
50035811,1000,1000,1000,1000,97628433,1550,1551,1539,1540
50038310,1000,1000,1000,1000,97728393,1550,1550,1540,1541
50040809,1000,1000,1000,1000,97828353,1549,1549,1541,1541
50043308,1000,1000,1000,1000,97928313,1547,1547,1541,1541
50045807,1000,1000,1000,1000,98028273,1547,1547,1543,1543
50048306,1000,1000,1000,1000,98128233,1546,1546,1545,1543
50050805,1000,1000,1000,1000,98228193,1545,1544,1546,1543
50053304,1000,1000,1000,1000,98328986,1544,1543,1547,1545
50055803,1000,1000,1000,1000,98428946,1543,1542,1548,1547
50058302,1000,1000,1000,1000,98528906,1541,1541,1549,1548
50060801,1000,1000,1000,1000,98628866,1540,1540,1548,1548
50063300,1000,1000,1000,1000,98728826,1539,1540,1548,1549
50065799,1000,1000,1000,1000,98828786,1540,1541,1549,1549
50068298,1000,1000,1000,1000,98928746,1539,1540,1547,1548
50070797,1000,1000,1000,1000,99028706,1455,1450,1446,1469
50073296,1000,1000,1000,1000,99128666,1306,1295,1264,1335
50075795,1000,1000,1000,1000,99228626,1247,1227,1192,1273
50078294,1000,1000,1000,1000,99328586,1230,1203,1175,1248
50080793,1000,1000,1000,1000,99428546,1208,1170,1150,1217
50083292,1000,1000,1000,1000,99528506,1210,1170,1150,1219
50085791,1000,1000,1000,1000,99628466,1213,1174,1150,1227
50088290,1000,1000,1000,1000,99728426,1217,1179,1150,1236
50090789,1000,1000,1000,1000,99828386,1197,1163,1150,1200
50093288,1000,1000,1000,1000,99928346,1207,1172,1150,1220
50095787,1000,1000,1000,1000,100028306,1212,1175,1150,1229
50098286,1000,1000,1000,1000,100128266,1215,1177,1150,1233
50100785,1000,1000,1000,1000,100228226,1216,1178,1150,1236
50103284,1000,1000,1000,1000,100328186,1218,1179,1150,1239
50105783,1000,1000,1000,1000,100428979,1220,1180,1150,1242
50108282,1000,1000,1000,1000,100528939,1222,1182,1150,1246
50110781,1000,1000,1000,1000,100628899,1204,1163,1150,1211
50113280,1000,1000,1000,1000,100728859,1206,1165,1150,1214
50115779,1000,1000,1000,1000,100828819,1206,1165,1150,1216
50118278,1000,1000,1000,1000,100928779,1207,1165,1150,1217
50120777,1000,1000,1000,1000,101028739,1207,1165,1150,1217
50123276,1000,1000,1000,1000,101128699,1000,1000,1000,1000
50125775,1000,1000,1000,1000,101228659,1000,1000,1000,1000
50128274,1000,1000,1000,1000,101328619,1000,1000,1000,1000
50130773,1000,1000,1000,1000,101428579,1000,1000,1000,1000
50133272,1000,1000,1000,1000,101528539,1000,1000,1000,1000
50135771,1000,1000,1000,1000,101628499,1000,1000,1000,1000
50138270,1000,1000,1000,1000,101728459,1000,1000,1000,1000
50140769,1000,1000,1000,1000,101828419,1000,1000,1000,1000
50143268,1000,1000,1000,1000,101928379,1000,1000,1000,1000
50145767,1000,1000,1000,1000,102028339,1000,1000,1000,1000
50148266,1000,1000,1000,1000,102128299,1000,1000,1000,1000
50150765,1000,1000,1000,1000,102228259,1000,1000,1000,1000
50153264,1000,1000,1000,1000,102328219,1000,1000,1000,1000
50155763,1000,1000,1000,1000,102428179,1000,1000,1000,1000
50158262,1000,1000,1000,1000,102528972,1000,1000,1000,1000
50160761,1000,1000,1000,1000,102628932,1000,1000,1000,1000
50163260,1000,1000,1000,1000,102728892,1000,1000,1000,1000
50165759,1000,1000,1000,1000,102828852,1000,1000,1000,1000
50168258,1000,1000,1000,1000,102928812,1000,1000,1000,1000
50170757,1000,1000,1000,1000,103028772,1000,1000,1000,1000
50173256,1000,1000,1000,1000,103128732,1000,1000,1000,1000
50175755,1000,1000,1000,1000,103228692,1000,1000,1000,1000
50178254,1000,1000,1000,1000,103328652,1000,1000,1000,1000
50180753,1000,1000,1000,1000,103428612,1000,1000,1000,1000
50183252,1000,1000,1000,1000,103528572,1000,1000,1000,1000
50185751,1000,1000,1000,1000,103628532,1000,1000,1000,1000
50188250,1000,1000,1000,1000,103728492,1000,1000,1000,1000
50190749,1000,1000,1000,1000,103828452,1000,1000,1000,1000
50193248,1000,1000,1000,1000,103928412,1000,1000,1000,1000
50195747,1000,1000,1000,1000,104028372,1000,1000,1000,1000
50198246,1000,1000,1000,1000,104128332,1000,1000,1000,1000
50200745,1000,1000,1000,1000,104228292,1000,1000,1000,1000
50203244,1000,1000,1000,1000,104328252,1000,1000,1000,1000
50205743,1000,1000,1000,1000,104428212,1000,1000,1000,1000
50208242,1000,1000,1000,1000,104528172,1000,1000,1000,1000
50210741,1000,1000,1000,1000,104628965,1000,1000,1000,1000
50213240,1000,1000,1000,1000,104728925,1000,1000,1000,1000
50215739,1000,1000,1000,1000,104828885,1000,1000,1000,1000
50218238,1000,1000,1000,1000,104928845,1000,1000,1000,1000
50220737,1000,1000,1000,1000,105028805,1000,1000,1000,1000
50223236,1000,1000,1000,1000,105128765,1000,1000,1000,1000
50225735,1000,1000,1000,1000,105228725,1000,1000,1000,1000
50228234,1000,1000,1000,1000,105328685,1000,1000,1000,1000
50230733,1000,1000,1000,1000,105428645,1000,1000,1000,1000
50233232,1000,1000,1000,1000,105528605,1000,1000,1000,1000
50235731,1000,1000,1000,1000,105628565,1000,1000,1000,1000
50238230,1000,1000,1000,1000,105728525,1000,1000,1000,1000
50240729,1000,1000,1000,1000,105828485,1000,1000,1000,1000
50243228,1000,1000,1000,1000,105928445,1000,1000,1000,1000
50245727,1000,1000,1000,1000,106028405,1000,1000,1000,1000
50248226,1000,1000,1000,1000,106128365,1000,1000,1000,1000
50250725,1000,1000,1000,1000,106228325,1000,1000,1000,1000
50253224,1000,1000,1000,1000,106328285,1000,1000,1000,1000
50255723,1000,1000,1000,1000,106428245,1000,1000,1000,1000
50258222,1000,1000,1000,1000,106528205,1000,1000,1000,1000
50260721,1000,1000,1000,1000,106628165,1000,1000,1000,1000
50263220,1000,1000,1000,1000,106728958,1000,1000,1000,1000
50265719,1000,1000,1000,1000,106828918,1000,1000,1000,1000
50268218,1000,1000,1000,1000,106928878,1000,1000,1000,1000
50270717,1000,1000,1000,1000,107028838,1000,1000,1000,1000
50273216,1000,1000,1000,1000,107128798,1000,1000,1000,1000
50275715,1000,1000,1000,1000,107228758,1000,1000,1000,1000
50278214,1000,1000,1000,1000,107328718,1000,1000,1000,1000
50280713,1000,1000,1000,1000,107428678,1000,1000,1000,1000
50283212,1000,1000,1000,1000,107528638,1000,1000,1000,1000
50285711,1000,1000,1000,1000,107628598,1000,1000,1000,1000
50288210,1000,1000,1000,1000,107728558,1000,1000,1000,1000
50290709,1000,1000,1000,1000,107828518,1000,1000,1000,1000
50293208,1000,1000,1000,1000,107928478,1000,1000,1000,1000
50295707,1000,1000,1000,1000,108028438,1000,1000,1000,1000
50298206,1000,1000,1000,1000,108128398,1000,1000,1000,1000
50300705,1000,1000,1000,1000,108228358,1000,1000,1000,1000
50303204,1000,1000,1000,1000,108328318,1000,1000,1000,1000
50305703,1000,1000,1000,1000,108428278,1000,1000,1000,1000
50308202,1000,1000,1000,1000,108528238,1000,1000,1000,1000
50310701,1000,1000,1000,1000,108628198,1000,1000,1000,1000
50313200,1000,1000,1000,1000,108728158,1000,1000,1000,1000
50315699,1000,1000,1000,1000,108828951,1000,1000,1000,1000
50318198,1000,1000,1000,1000,108928911,1000,1000,1000,1000
50320697,1000,1000,1000,1000,109028871,1000,1000,1000,1000
50323196,1000,1000,1000,1000,109128831,1000,1000,1000,1000
50325695,1000,1000,1000,1000,109228791,1000,1000,1000,1000
50328194,1000,1000,1000,1000,109328751,1000,1000,1000,1000
50330693,1000,1000,1000,1000,109428711,1000,1000,1000,1000
50333192,1000,1000,1000,1000,109528671,1000,1000,1000,1000
50335691,1000,1000,1000,1000,109628631,1000,1000,1000,1000
50338190,1000,1000,1000,1000,109728591,1000,1000,1000,1000
50340689,1000,1000,1000,1000,109828551,1000,1000,1000,1000
50343188,1000,1000,1000,1000,109928511,1000,1000,1000,1000
50345687,1000,1000,1000,1000,110028471,1000,1000,1000,1000
50348186,1000,1000,1000,1000,110128431,1000,1000,1000,1000
50350685,1000,1000,1000,1000,110228391,1000,1000,1000,1000
50353184,1000,1000,1000,1000,110328351,1000,1000,1000,1000
50355683,1000,1000,1000,1000,110428311,1000,1000,1000,1000
50358182,1000,1000,1000,1000,110528271,1000,1000,1000,1000
50360681,1000,1000,1000,1000,110628231,1000,1000,1000,1000
50363180,1000,1000,1000,1000,110728191,1000,1000,1000,1000
50365679,1000,1000,1000,1000,110828984,1000,1000,1000,1000
50368178,1000,1000,1000,1000,110928944,1000,1000,1000,1000
50370677,1000,1000,1000,1000,111028904,1000,1000,1000,1000
50373176,1000,1000,1000,1000,111128864,1000,1000,1000,1000
50375675,1000,1000,1000,1000,111228824,1000,1000,1000,1000
50378174,1000,1000,1000,1000,111328784,1000,1000,1000,1000
50380673,1000,1000,1000,1000,111428744,1000,1000,1000,1000
50383172,1000,1000,1000,1000,111528704,1000,1000,1000,1000
50385671,1000,1000,1000,1000,111628664,1000,1000,1000,1000
50388170,1000,1000,1000,1000,111728624,1000,1000,1000,1000
50390669,1000,1000,1000,1000,111828584,1000,1000,1000,1000
50393168,1000,1000,1000,1000,111928544,1000,1000,1000,1000
50395667,1000,1000,1000,1000,112028504,1000,1000,1000,1000
50398166,1000,1000,1000,1000,112128464,1000,1000,1000,1000
50400665,1000,1000,1000,1000,112228424,1000,1000,1000,1000
50403164,1000,1000,1000,1000,112328384,1000,1000,1000,1000
50405663,1000,1000,1000,1000,112428344,1000,1000,1000,1000
50408162,1000,1000,1000,1000,112528304,1000,1000,1000,1000
50410661,1000,1000,1000,1000,112628264,1000,1000,1000,1000
50413160,1000,1000,1000,1000,112728224,1000,1000,1000,1000
50415659,1000,1000,1000,1000,112828184,1000,1000,1000,1000
50418158,1000,1000,1000,1000,112928977,1000,1000,1000,1000
50420657,1000,1000,1000,1000,113028937,1000,1000,1000,1000
50423156,1000,1000,1000,1000,113128897,1000,1000,1000,1000
50425655,1000,1000,1000,1000,113228857,1000,1000,1000,1000
50428154,1000,1000,1000,1000,113328817,1000,1000,1000,1000
50431486,1000,1000,1000,1000,113428777,1000,1000,1000,1000
50433985,1000,1000,1000,1000,113528737,1000,1000,1000,1000
50436484,1000,1000,1000,1000,113628697,1000,1000,1000,1000
50438983,1000,1000,1000,1000,113728657,1000,1000,1000,1000
50441482,1000,1000,1000,1000,113828617,1000,1000,1000,1000
50443981,1000,1000,1000,1000,113928577,1000,1000,1000,1000
50446480,1000,1000,1000,1000,114028537,1000,1000,1000,1000
50448979,1000,1000,1000,1000,114128497,1000,1000,1000,1000
50451478,1000,1000,1000,1000,114228457,1000,1000,1000,1000
50453977,1000,1000,1000,1000,114328417,1000,1000,1000,1000
50456476,1000,1000,1000,1000,114428377,1000,1000,1000,1000
50458975,1000,1000,1000,1000,114528337,1000,1000,1000,1000
50461474,1000,1000,1000,1000,114628297,1000,1000,1000,1000
50463973,1000,1000,1000,1000,114728257,1000,1000,1000,1000
50466472,1000,1000,1000,1000,114828217,1000,1000,1000,1000
50468971,1000,1000,1000,1000,114928177,1000,1000,1000,1000
50471470,1000,1000,1000,1000,115028970,1000,1000,1000,1000
50473969,1000,1000,1000,1000,115128930,1000,1000,1000,1000
50476468,1000,1000,1000,1000,115228890,1000,1000,1000,1000
50478967,1000,1000,1000,1000,115328850,1000,1000,1000,1000
50481466,1000,1000,1000,1000,115428810,1000,1000,1000,1000
50483965,1000,1000,1000,1000,115528770,1000,1000,1000,1000
50486464,1000,1000,1000,1000,115628730,1000,1000,1000,1000
50488963,1000,1000,1000,1000,115728690,1000,1000,1000,1000
50491462,1000,1000,1000,1000,115828650,1000,1000,1000,1000
50493961,1000,1000,1000,1000,115928610,1000,1000,1000,1000
50496460,1000,1000,1000,1000,116028570,1000,1000,1000,1000
50498959,1000,1000,1000,1000,,,,,
50501458,1000,1000,1000,1000,,,,,
50503957,1000,1000,1000,1000,,,,,
50506456,1000,1000,1000,1000,,,,,
50508955,1000,1000,1000,1000,,,,,
50511454,1000,1000,1000,1000,,,,,
50513953,1000,1000,1000,1000,,,,,
50516452,1000,1000,1000,1000,,,,,
50518951,1000,1000,1000,1000,,,,,
50521450,1000,1000,1000,1000,,,,,
50523949,1000,1000,1000,1000,,,,,
50526448,1000,1000,1000,1000,,,,,
50528947,1000,1000,1000,1000,,,,,
50531446,1000,1000,1000,1000,,,,,
50533945,1000,1000,1000,1000,,,,,
50536444,1000,1000,1000,1000,,,,,
50538943,1000,1000,1000,1000,,,,,
50541442,1000,1000,1000,1000,,,,,
50543941,1000,1000,1000,1000,,,,,
50546440,1000,1000,1000,1000,,,,,
50548939,1000,1000,1000,1000,,,,,
50551438,1000,1000,1000,1000,,,,,
50553937,1000,1000,1000,1000,,,,,
50556436,1000,1000,1000,1000,,,,,
50558935,1000,1000,1000,1000,,,,,
50561434,1000,1000,1000,1000,,,,,
50563933,1000,1000,1000,1000,,,,,
50566432,1000,1000,1000,1000,,,,,
50568931,1000,1000,1000,1000,,,,,
50571430,1000,1000,1000,1000,,,,,
50573929,1000,1000,1000,1000,,,,,
50576428,1000,1000,1000,1000,,,,,
50578927,1000,1000,1000,1000,,,,,
50581426,1000,1000,1000,1000,,,,,
50583925,1000,1000,1000,1000,,,,,
50586424,1000,1000,1000,1000,,,,,
50588923,1000,1000,1000,1000,,,,,
50591422,1000,1000,1000,1000,,,,,
50593921,1000,1000,1000,1000,,,,,
50596420,1000,1000,1000,1000,,,,,
50598919,1000,1000,1000,1000,,,,,
50601418,1000,1000,1000,1000,,,,,
50603917,1000,1000,1000,1000,,,,,
50606416,1000,1000,1000,1000,,,,,
50608915,1000,1000,1000,1000,,,,,
50611414,1000,1000,1000,1000,,,,,
50613913,1000,1000,1000,1000,,,,,
50616412,1000,1000,1000,1000,,,,,
50618911,1000,1000,1000,1000,,,,,
50621410,1000,1000,1000,1000,,,,,
50623909,1000,1000,1000,1000,,,,,
50626408,1000,1000,1000,1000,,,,,
50628907,1000,1000,1000,1000,,,,,
50631406,1000,1000,1000,1000,,,,,
50633905,1000,1000,1000,1000,,,,,
50636404,1000,1000,1000,1000,,,,,
50638903,1000,1000,1000,1000,,,,,
50641402,1000,1000,1000,1000,,,,,
50643901,1000,1000,1000,1000,,,,,
50646400,1000,1000,1000,1000,,,,,
50648899,1000,1000,1000,1000,,,,,
50651398,1000,1000,1000,1000,,,,,
50653897,1000,1000,1000,1000,,,,,
50656396,1000,1000,1000,1000,,,,,
50658895,1000,1000,1000,1000,,,,,
50661394,1000,1000,1000,1000,,,,,
50663893,1000,1000,1000,1000,,,,,
50666392,1000,1000,1000,1000,,,,,
50668891,1000,1000,1000,1000,,,,,
50671390,1000,1000,1000,1000,,,,,
50673889,1000,1000,1000,1000,,,,,
50676388,1000,1000,1000,1000,,,,,
50678887,1000,1000,1000,1000,,,,,
50681386,1000,1000,1000,1000,,,,,
50683885,1000,1000,1000,1000,,,,,
50686384,1000,1000,1000,1000,,,,,
50688883,1000,1000,1000,1000,,,,,
50691382,1000,1000,1000,1000,,,,,
50693881,1000,1000,1000,1000,,,,,
50696380,1000,1000,1000,1000,,,,,
50698879,1000,1000,1000,1000,,,,,
50701378,1000,1000,1000,1000,,,,,
50703877,1000,1000,1000,1000,,,,,
50706376,1000,1000,1000,1000,,,,,
50708875,1000,1000,1000,1000,,,,,
50711374,1000,1000,1000,1000,,,,,
50713873,1000,1000,1000,1000,,,,,
50716372,1000,1000,1000,1000,,,,,
50718871,1000,1000,1000,1000,,,,,
50721370,1000,1000,1000,1000,,,,,
50723869,1000,1000,1000,1000,,,,,
50726368,1000,1000,1000,1000,,,,,
50728867,1000,1000,1000,1000,,,,,
50731366,1000,1000,1000,1000,,,,,
50733865,1000,1000,1000,1000,,,,,
50736364,1000,1000,1000,1000,,,,,
50738863,1000,1000,1000,1000,,,,,
50741362,1000,1000,1000,1000,,,,,
50743861,1000,1000,1000,1000,,,,,
50746360,1000,1000,1000,1000,,,,,
50748859,1000,1000,1000,1000,,,,,
50751358,1000,1000,1000,1000,,,,,
50753857,1000,1000,1000,1000,,,,,
50756356,1000,1000,1000,1000,,,,,
50758855,1000,1000,1000,1000,,,,,
50761354,1000,1000,1000,1000,,,,,
50763853,1000,1000,1000,1000,,,,,
50766352,1000,1000,1000,1000,,,,,
50768851,1000,1000,1000,1000,,,,,
50771350,1000,1000,1000,1000,,,,,
50773849,1000,1000,1000,1000,,,,,
50776348,1000,1000,1000,1000,,,,,
50778847,1000,1000,1000,1000,,,,,
50781346,1000,1000,1000,1000,,,,,
50783845,1000,1000,1000,1000,,,,,
50786344,1000,1000,1000,1000,,,,,
50788843,1000,1000,1000,1000,,,,,
50791342,1000,1000,1000,1000,,,,,
50793841,1000,1000,1000,1000,,,,,
50796340,1000,1000,1000,1000,,,,,
50798839,1000,1000,1000,1000,,,,,
50801338,1000,1000,1000,1000,,,,,
50803837,1000,1000,1000,1000,,,,,
50806336,1000,1000,1000,1000,,,,,
50808835,1000,1000,1000,1000,,,,,
50811334,1000,1000,1000,1000,,,,,
50813833,1000,1000,1000,1000,,,,,
50816332,1000,1000,1000,1000,,,,,
50818831,1000,1000,1000,1000,,,,,
50821330,1000,1000,1000,1000,,,,,
50823829,1001,1001,1001,1001,,,,,
50826328,1002,1002,1002,1002,,,,,
50828827,1003,1003,1003,1003,,,,,
50831326,1003,1003,1003,1003,,,,,
50833825,1004,1004,1004,1004,,,,,
50836324,1005,1005,1005,1005,,,,,
50838823,1006,1006,1006,1006,,,,,
50841322,1006,1006,1006,1006,,,,,
50843821,1007,1007,1007,1007,,,,,
50846320,1008,1008,1008,1008,,,,,
50848819,1009,1009,1009,1009,,,,,
50851318,1009,1009,1009,1009,,,,,
50853817,1010,1010,1010,1010,,,,,
50856316,1011,1011,1011,1011,,,,,
50858815,1012,1012,1012,1012,,,,,
50861314,1012,1012,1012,1012,,,,,
50863813,1013,1013,1013,1013,,,,,
50866312,1014,1014,1014,1014,,,,,
50868811,1015,1015,1015,1015,,,,,
50871310,1015,1015,1015,1015,,,,,
50873809,1016,1016,1016,1016,,,,,
50876308,1017,1017,1017,1017,,,,,
50878807,1018,1018,1018,1018,,,,,
50881306,1018,1018,1018,1018,,,,,
50883805,1019,1019,1019,1019,,,,,
50886304,1020,1020,1020,1020,,,,,
50888803,1021,1021,1021,1021,,,,,
50891302,1021,1021,1021,1021,,,,,
50893801,1022,1022,1022,1022,,,,,
50896300,1023,1023,1023,1023,,,,,
50898799,1024,1024,1024,1024,,,,,
50901298,1024,1024,1024,1024,,,,,
50903797,1025,1025,1025,1025,,,,,
50906296,1026,1026,1026,1026,,,,,
50908795,1027,1027,1027,1027,,,,,
50911294,1027,1027,1027,1027,,,,,
50913793,1028,1028,1028,1028,,,,,
50916292,1029,1029,1029,1029,,,,,
50918791,1030,1030,1030,1030,,,,,
50921290,1030,1030,1030,1030,,,,,
50923789,1031,1031,1031,1031,,,,,
50926288,1032,1032,1032,1032,,,,,
50928787,1033,1033,1033,1033,,,,,
50931286,1033,1033,1033,1033,,,,,
50933785,1034,1034,1034,1034,,,,,
50936284,1035,1035,1035,1035,,,,,
50938783,1036,1036,1036,1036,,,,,
50941282,1036,1036,1036,1036,,,,,
50943781,1037,1037,1037,1037,,,,,
50946280,1038,1038,1038,1038,,,,,
50948779,1039,1039,1039,1039,,,,,
50951278,1039,1039,1039,1039,,,,,
50953777,1040,1040,1040,1040,,,,,
50956276,1041,1041,1041,1041,,,,,
50958775,1042,1042,1042,1042,,,,,
50961274,1042,1042,1042,1042,,,,,
50963773,1043,1043,1043,1043,,,,,
50966272,1044,1044,1044,1044,,,,,
50968771,1045,1045,1045,1045,,,,,
50971270,1045,1045,1045,1045,,,,,
50973769,1046,1046,1046,1046,,,,,
50976268,1047,1047,1047,1047,,,,,
50978767,1048,1048,1048,1048,,,,,
50981266,1048,1048,1048,1048,,,,,
50983765,1049,1049,1049,1049,,,,,
50986264,1050,1050,1050,1050,,,,,
50988763,1051,1051,1051,1051,,,,,
50991262,1051,1051,1051,1051,,,,,
50993761,1052,1052,1052,1052,,,,,
50996260,1053,1053,1053,1053,,,,,
50998759,1054,1054,1054,1054,,,,,
51001258,1054,1054,1054,1054,,,,,
51003757,1055,1055,1055,1055,,,,,
51006256,1056,1056,1056,1056,,,,,
51008755,1057,1057,1057,1057,,,,,
51011254,1057,1057,1057,1057,,,,,
51013753,1058,1058,1058,1058,,,,,
51016252,1059,1059,1059,1059,,,,,
51018751,1060,1060,1060,1060,,,,,
51021250,1060,1060,1060,1060,,,,,
51023749,1061,1061,1061,1061,,,,,
51026248,1062,1062,1062,1062,,,,,
51028747,1063,1063,1063,1063,,,,,
51031246,1063,1063,1063,1063,,,,,
51033745,1064,1064,1064,1064,,,,,
51036244,1065,1065,1065,1065,,,,,
51038743,1066,1066,1066,1066,,,,,
51041242,1066,1066,1066,1066,,,,,
51043741,1067,1067,1067,1067,,,,,
51046240,1068,1068,1068,1068,,,,,
51048739,1069,1069,1069,1069,,,,,
51051238,1069,1069,1069,1069,,,,,
51053737,1070,1070,1070,1070,,,,,
51056236,1071,1071,1071,1071,,,,,
51058735,1072,1072,1072,1072,,,,,
51061234,1072,1072,1072,1072,,,,,
51063733,1073,1073,1073,1073,,,,,
51066232,1074,1074,1074,1074,,,,,
51068731,1075,1075,1075,1075,,,,,
51071230,1075,1075,1075,1075,,,,,
51073729,1076,1076,1076,1076,,,,,
51076228,1077,1077,1077,1077,,,,,
51078727,1078,1078,1078,1078,,,,,
51081226,1078,1078,1078,1078,,,,,
51083725,1079,1079,1079,1079,,,,,
51086224,1080,1080,1080,1080,,,,,
51088723,1081,1081,1081,1081,,,,,
51091222,1081,1081,1081,1081,,,,,
51093721,1082,1082,1082,1082,,,,,
51096220,1083,1083,1083,1083,,,,,
51098719,1084,1084,1084,1084,,,,,
51101218,1084,1084,1084,1084,,,,,
51103717,1085,1085,1085,1085,,,,,
51106216,1086,1086,1086,1086,,,,,
51108715,1087,1087,1087,1087,,,,,
51111214,1087,1087,1087,1087,,,,,
51113713,1088,1088,1088,1088,,,,,
51116212,1089,1089,1089,1089,,,,,
51118711,1090,1090,1090,1090,,,,,
51121210,1090,1090,1090,1090,,,,,
51123709,1091,1091,1091,1091,,,,,
51126208,1092,1092,1092,1092,,,,,
51128707,1093,1093,1093,1093,,,,,
51131206,1093,1093,1093,1093,,,,,
51133705,1094,1094,1094,1094,,,,,
51136204,1095,1095,1095,1095,,,,,
51138703,1096,1096,1096,1096,,,,,
51141202,1096,1096,1096,1096,,,,,
51143701,1097,1097,1097,1097,,,,,
51146200,1098,1098,1098,1098,,,,,
51148699,1099,1099,1099,1099,,,,,
51151198,1099,1099,1099,1099,,,,,
51153697,1100,1100,1100,1100,,,,,
51156196,1101,1101,1101,1101,,,,,
51158695,1101,1101,1101,1101,,,,,
51161194,1102,1102,1102,1102,,,,,
51163693,1103,1103,1103,1103,,,,,
51166192,1104,1104,1104,1104,,,,,
51168691,1104,1104,1104,1104,,,,,
51171190,1105,1105,1105,1105,,,,,
51173689,1106,1106,1106,1106,,,,,
51176188,1107,1107,1107,1107,,,,,
51178687,1107,1107,1107,1107,,,,,
51181186,1108,1108,1108,1108,,,,,
51183685,1109,1109,1109,1109,,,,,
51186184,1110,1110,1110,1110,,,,,
51188683,1110,1110,1110,1110,,,,,
51191182,1111,1111,1111,1111,,,,,
51193681,1112,1112,1112,1112,,,,,
51196180,1113,1113,1113,1113,,,,,
51198679,1113,1113,1113,1113,,,,,
51201178,1114,1114,1114,1114,,,,,
51203677,1115,1115,1115,1115,,,,,
51206176,1116,1116,1116,1116,,,,,
51208675,1116,1116,1116,1116,,,,,
51211174,1117,1117,1117,1117,,,,,
51213673,1118,1118,1118,1118,,,,,
51216172,1119,1119,1119,1119,,,,,
51218671,1119,1119,1119,1119,,,,,
51221170,1120,1120,1120,1120,,,,,
51223669,1121,1121,1121,1121,,,,,
51226168,1122,1122,1122,1122,,,,,
51228667,1122,1122,1122,1122,,,,,
51231166,1123,1123,1123,1123,,,,,
51233665,1124,1124,1124,1124,,,,,
51236164,1125,1125,1125,1125,,,,,
51238663,1125,1125,1125,1125,,,,,
51241162,1126,1126,1126,1126,,,,,
51243661,1127,1127,1127,1127,,,,,
51246160,1128,1128,1128,1128,,,,,
51248659,1128,1128,1128,1128,,,,,
51251158,1129,1129,1129,1129,,,,,
51253657,1130,1130,1130,1130,,,,,
51256156,1131,1131,1131,1131,,,,,
51258655,1131,1131,1131,1131,,,,,
51261154,1132,1132,1132,1132,,,,,
51263653,1133,1133,1133,1133,,,,,
51266152,1134,1134,1134,1134,,,,,
51268651,1134,1134,1134,1134,,,,,
51271150,1135,1135,1135,1135,,,,,
51273649,1136,1136,1136,1136,,,,,
51276148,1137,1137,1137,1137,,,,,
51278647,1137,1137,1137,1137,,,,,
51281146,1138,1138,1138,1138,,,,,
51283645,1139,1139,1139,1139,,,,,
51286144,1140,1140,1140,1140,,,,,
51288643,1140,1140,1140,1140,,,,,
51291142,1141,1141,1141,1141,,,,,
51293641,1142,1142,1142,1142,,,,,
51296140,1143,1143,1143,1143,,,,,
51298639,1143,1143,1143,1143,,,,,
51301138,1144,1144,1144,1144,,,,,
51303637,1145,1145,1145,1145,,,,,
51306136,1146,1146,1146,1146,,,,,
51308635,1146,1146,1146,1146,,,,,
51311134,1147,1147,1147,1147,,,,,
51313633,1148,1148,1148,1148,,,,,
51316132,1149,1149,1149,1149,,,,,
51318631,1149,1149,1149,1149,,,,,
51321130,1150,1150,1150,1150,,,,,
51323629,1161,1153,1154,1162,,,,,
51326128,1169,1162,1162,1170,,,,,
51328627,1177,1170,1170,1178,,,,,
51331126,1185,1177,1178,1186,,,,,
51333625,1192,1185,1185,1193,,,,,
51336124,1200,1193,1193,1201,,,,,
51338623,1207,1200,1200,1208,,,,,
51341122,1214,1207,1208,1215,,,,,
51343621,1221,1215,1215,1222,,,,,
51346120,1228,1222,1222,1229,,,,,
51348619,1235,1229,1229,1236,,,,,
51351118,1242,1235,1236,1243,,,,,
51353617,1249,1242,1243,1249,,,,,
51356116,1255,1249,1249,1256,,,,,
51358615,1262,1256,1256,1263,,,,,
51361114,1268,1262,1262,1269,,,,,
51363613,1275,1268,1269,1275,,,,,
51366112,1281,1275,1275,1282,,,,,
51368611,1287,1281,1281,1288,,,,,
51371110,1293,1287,1288,1294,,,,,
51373609,1300,1293,1294,1300,,,,,
51376108,1306,1300,1300,1306,,,,,
51378607,1311,1306,1306,1312,,,,,
51381106,1317,1311,1312,1318,,,,,
51383605,1323,1317,1318,1324,,,,,
51386104,1329,1323,1323,1329,,,,,
51388603,1335,1329,1329,1335,,,,,
51391102,1340,1335,1335,1341,,,,,
51393601,1346,1340,1341,1346,,,,,
51396100,1351,1346,1346,1352,,,,,
51398599,1357,1351,1352,1357,,,,,
51401098,1362,1357,1357,1363,,,,,
51403597,1368,1362,1363,1368,,,,,
51406096,1373,1368,1368,1373,,,,,
51408595,1378,1373,1373,1379,,,,,
51411094,1384,1378,1379,1384,,,,,
51413593,1389,1383,1384,1389,,,,,
51416092,1394,1389,1389,1394,,,,,
51418591,1399,1394,1394,1400,,,,,
51421090,1404,1399,1399,1405,,,,,
51423589,1409,1404,1404,1410,,,,,
51426088,1414,1409,1410,1415,,,,,
51428587,1419,1414,1415,1420,,,,,
51431086,1424,1419,1419,1425,,,,,
51433585,1429,1424,1424,1430,,,,,
51436084,1434,1429,1429,1434,,,,,
51438583,1439,1434,1434,1439,,,,,
51441082,1444,1438,1439,1444,,,,,
51443581,1449,1443,1444,1449,,,,,
51446080,1453,1448,1448,1454,,,,,
51448579,1458,1453,1453,1458,,,,,
51451078,1463,1457,1458,1463,,,,,
51453577,1467,1462,1463,1468,,,,,
51456076,1472,1467,1467,1472,,,,,
51458575,1477,1471,1472,1477,,,,,
51461074,1481,1476,1476,1481,,,,,
51463573,1486,1480,1481,1486,,,,,
51466072,1490,1485,1485,1490,,,,,
51468571,1495,1490,1490,1495,,,,,
51471070,1499,1494,1494,1499,,,,,
51473569,1504,1498,1499,1504,,,,,
51476068,1508,1503,1503,1508,,,,,
51478567,1512,1507,1508,1513,,,,,
51481066,1517,1512,1512,1517,,,,,
51483565,1521,1516,1516,1521,,,,,
51486064,1525,1520,1520,1526,,,,,
51488563,1530,1525,1525,1530,,,,,
51491062,1534,1529,1529,1534,,,,,
51493561,1538,1533,1533,1538,,,,,
51496060,1542,1537,1537,1543,,,,,
51498559,1546,1541,1542,1547,,,,,
51501058,1551,1546,1546,1551,,,,,
51503557,1555,1550,1550,1555,,,,,
51506056,1559,1554,1554,1559,,,,,
51508555,1563,1558,1558,1563,,,,,
51511054,1567,1562,1562,1568,,,,,
51513553,1571,1566,1566,1572,,,,,
51516052,1575,1570,1570,1576,,,,,
51518551,1579,1574,1574,1580,,,,,
51521050,1583,1578,1578,1584,,,,,
51523549,1587,1582,1582,1588,,,,,
51526048,1591,1586,1586,1592,,,,,
51528547,1595,1590,1590,1596,,,,,
51531046,1599,1594,1594,1599,,,,,
51533545,1603,1598,1598,1603,,,,,
51536044,1607,1602,1602,1607,,,,,
51538543,1611,1606,1606,1611,,,,,
51541042,1614,1610,1610,1615,,,,,
51543541,1618,1614,1614,1619,,,,,
51546040,1622,1617,1617,1623,,,,,
51548539,1626,1621,1621,1626,,,,,
51551038,1630,1625,1625,1630,,,,,
51553537,1633,1629,1629,1634,,,,,
51556036,1637,1632,1633,1638,,,,,
51558535,1641,1636,1636,1641,,,,,
51561034,1645,1640,1640,1645,,,,,
51563533,1648,1644,1644,1649,,,,,
51566032,1652,1647,1648,1652,,,,,
51568531,1656,1651,1651,1656,,,,,
51571030,1659,1655,1655,1660,,,,,
51573529,1663,1658,1659,1663,,,,,
51576028,1667,1662,1662,1667,,,,,
51578527,1670,1666,1666,1670,,,,,
51581026,1674,1669,1670,1674,,,,,
51583525,1677,1673,1673,1678,,,,,
51586024,1681,1677,1677,1681,,,,,
51588523,1684,1680,1680,1685,,,,,
51591022,1688,1684,1684,1688,,,,,
51593521,1691,1687,1687,1692,,,,,
51596020,1695,1691,1691,1695,,,,,
51598519,1698,1694,1695,1699,,,,,
51601018,1702,1698,1698,1702,,,,,
51603517,1705,1701,1702,1706,,,,,
51606016,1709,1705,1705,1709,,,,,
51608515,1712,1708,1709,1713,,,,,
51611014,1716,1712,1712,1716,,,,,
51613513,1719,1715,1715,1720,,,,,
51616012,1723,1719,1719,1723,,,,,
51618511,1726,1722,1722,1726,,,,,
51621010,1729,1725,1726,1730,,,,,
51623509,1733,1729,1729,1733,,,,,
51626008,1736,1732,1733,1736,,,,,
51628507,1740,1736,1736,1740,,,,,
51631006,1743,1739,1739,1743,,,,,
51633505,1746,1742,1743,1746,,,,,
51636004,1750,1746,1746,1750,,,,,
51638503,1753,1749,1749,1753,,,,,
51641002,1756,1752,1753,1756,,,,,
51643501,1760,1755,1756,1760,,,,,
51646000,1763,1759,1759,1763,,,,,
51648499,1766,1762,1762,1766,,,,,
51650998,1770,1765,1766,1770,,,,,
51653497,1773,1768,1769,1773,,,,,
51655996,1776,1772,1772,1776,,,,,
51658495,1779,1775,1775,1779,,,,,
51660994,1783,1778,1779,1782,,,,,
51663493,1786,1781,1782,1786,,,,,
51665992,1789,1785,1785,1789,,,,,
51668491,1792,1788,1788,1792,,,,,
51670990,1795,1791,1791,1795,,,,,
51673489,1799,1794,1795,1798,,,,,
51675988,1802,1797,1798,1802,,,,,
51678487,1805,1800,1801,1805,,,,,
51680986,1808,1804,1804,1808,,,,,
51683485,1811,1807,1807,1811,,,,,
51685984,1814,1810,1810,1814,,,,,
51688483,1817,1813,1813,1817,,,,,
51690982,1821,1816,1817,1820,,,,,
51693481,1824,1819,1820,1824,,,,,
51695980,1827,1822,1823,1827,,,,,
51698479,1830,1825,1826,1830,,,,,
51700978,1833,1828,1829,1833,,,,,
51703477,1836,1831,1832,1836,,,,,
51705976,1839,1834,1835,1839,,,,,
51708475,1842,1838,1838,1842,,,,,
51710974,1845,1841,1841,1845,,,,,
51713473,1848,1844,1844,1848,,,,,
51715972,1851,1847,1847,1851,,,,,
51718471,1854,1850,1850,1854,,,,,
51720970,1857,1853,1853,1857,,,,,
51723469,1860,1856,1856,1860,,,,,
51725968,1863,1859,1859,1863,,,,,
51728467,1866,1862,1862,1866,,,,,
51730966,1869,1865,1865,1869,,,,,
51733465,1872,1868,1868,1872,,,,,
51735964,1875,1870,1871,1875,,,,,
51738463,1878,1873,1874,1878,,,,,
51740962,1881,1876,1877,1881,,,,,
51743461,1884,1879,1880,1884,,,,,
51745960,1887,1882,1883,1887,,,,,
51748459,1890,1885,1886,1890,,,,,
51750958,1893,1888,1888,1893,,,,,
51753457,1896,1891,1891,1896,,,,,
51755956,1898,1894,1894,1899,,,,,
51758455,1901,1897,1897,1902,,,,,
51760954,1904,1900,1900,1904,,,,,
51763453,1907,1903,1903,1907,,,,,
51765952,1910,1906,1906,1910,,,,,
51768451,1913,1908,1909,1913,,,,,
51770950,1915,1911,1911,1915,,,,,
51773449,1914,1910,1910,1915,,,,,
51775948,1913,1909,1909,1914,,,,,
51778447,1913,1908,1908,1913,,,,,
51780946,1912,1907,1907,1912,,,,,
51783445,1911,1907,1907,1911,,,,,
51785944,1910,1906,1906,1911,,,,,
51788443,1910,1905,1905,1910,,,,,
51790942,1909,1904,1905,1909,,,,,
51793441,1908,1904,1904,1909,,,,,
51795940,1908,1903,1903,1908,,,,,
51798439,1907,1903,1903,1908,,,,,
51800938,1907,1902,1903,1907,,,,,
51803437,1907,1902,1902,1907,,,,,
51805936,1906,1902,1902,1907,,,,,
51808435,1906,1902,1902,1907,,,,,
51810934,1906,1902,1902,1907,,,,,
51813433,1906,1902,1902,1906,,,,,
51815932,1906,1902,1902,1906,,,,,
51818431,1906,1902,1902,1906,,,,,
51820930,1906,1902,1902,1906,,,,,
51823429,1906,1902,1902,1906,,,,,
51825928,1906,1902,1902,1906,,,,,
51828427,1905,1902,1902,1906,,,,,
51830926,1905,1902,1902,1905,,,,,
51833425,1904,1901,1901,1905,,,,,
51835924,1904,1901,1901,1904,,,,,
51838423,1903,1900,1900,1903,,,,,
51840922,1902,1899,1899,1902,,,,,
51843421,1901,1898,1898,1901,,,,,
51845920,1900,1897,1897,1900,,,,,
51848419,1898,1896,1896,1899,,,,,
51850918,1897,1894,1894,1897,,,,,
51853417,1895,1893,1893,1895,,,,,
51855916,1893,1891,1891,1894,,,,,
51858415,1891,1889,1889,1892,,,,,
51860914,1889,1887,1887,1890,,,,,
51863413,1887,1885,1885,1887,,,,,
51865912,1885,1883,1883,1885,,,,,
51868411,1882,1880,1880,1883,,,,,
51870910,1880,1878,1878,1880,,,,,
51873409,1877,1875,1876,1878,,,,,
51875908,1875,1873,1873,1875,,,,,
51878407,1872,1870,1870,1872,,,,,
51880906,1869,1867,1868,1870,,,,,
51883405,1866,1865,1865,1867,,,,,
51885904,1863,1862,1862,1864,,,,,
51888403,1861,1859,1859,1861,,,,,
51890902,1857,1856,1856,1858,,,,,
51893401,1854,1853,1853,1855,,,,,
51895900,1851,1850,1850,1852,,,,,
51898399,1848,1846,1847,1848,,,,,
51900898,1845,1843,1844,1845,,,,,
51903397,1842,1840,1840,1842,,,,,
51905896,1838,1837,1837,1839,,,,,
51908395,1835,1834,1834,1835,,,,,
51910894,1832,1830,1831,1832,,,,,
51913393,1828,1827,1827,1829,,,,,
51915892,1825,1824,1824,1825,,,,,
51918391,1822,1821,1821,1822,,,,,
51920890,1818,1817,1818,1819,,,,,
51923389,1815,1814,1814,1815,,,,,
51925888,1812,1811,1811,1812,,,,,
51928387,1808,1807,1808,1809,,,,,
51930886,1805,1804,1804,1805,,,,,
51933385,1802,1801,1801,1802,,,,,
51935884,1798,1797,1798,1798,,,,,
51938383,1795,1794,1794,1795,,,,,
51940882,1791,1791,1791,1792,,,,,
51943381,1788,1787,1788,1788,,,,,
51945880,1785,1784,1784,1785,,,,,
51948379,1781,1781,1781,1782,,,,,
51950878,1778,1777,1778,1778,,,,,
51953377,1775,1774,1775,1775,,,,,
51955876,1772,1771,1771,1772,,,,,
51958375,1768,1768,1768,1768,,,,,
51960874,1765,1765,1765,1765,,,,,
51963373,1762,1762,1762,1762,,,,,
51965872,1759,1759,1759,1759,,,,,
51968371,1756,1756,1756,1756,,,,,
51970870,1753,1753,1753,1753,,,,,
51973369,1750,1750,1750,1750,,,,,
51975868,1747,1747,1747,1747,,,,,
51978367,1744,1744,1744,1744,,,,,
51980866,1741,1741,1741,1741,,,,,
51983365,1738,1738,1738,1738,,,,,
51985864,1735,1735,1735,1735,,,,,
51988363,1732,1732,1732,1732,,,,,
51990862,1729,1729,1730,1729,,,,,
51993361,1726,1727,1727,1726,,,,,
51995860,1723,1724,1724,1724,,,,,
51998359,1720,1721,1721,1721,,,,,
52000858,1718,1719,1719,1718,,,,,
52003357,1715,1716,1716,1716,,,,,
52005856,1713,1714,1714,1713,,,,,
52008355,1710,1711,1711,1710,,,,,
52010854,1707,1709,1709,1708,,,,,
52013353,1705,1706,1706,1705,,,,,
52015852,1703,1704,1704,1703,,,,,
52018351,1700,1701,1701,1701,,,,,
52020850,1698,1699,1699,1698,,,,,
