TimeUS,M1,M2,M3,M4,TimeUS,C1,C2,C3,C4
76675984,1000,1000,1000,1000,76728463,1000,1000,1000,1000
76678483,1000,1000,1000,1000,76828423,1000,1000,1000,1000
76680982,1000,1000,1000,1000,76928383,1000,1000,1000,1000
76683481,1000,1000,1000,1000,77028343,1000,1000,1000,1000
76685980,1000,1000,1000,1000,77128303,1000,1000,1000,1000
76688479,1000,1000,1000,1000,77228263,1000,1000,1000,1000
76690978,1000,1000,1000,1000,77328223,1000,1000,1000,1000
76693477,1000,1000,1000,1000,77428183,1000,1000,1000,1000
76695976,1000,1000,1000,1000,77528976,1000,1000,1000,1000
76698475,1000,1000,1000,1000,77628936,1000,1000,1000,1000
76700974,1000,1000,1000,1000,77728896,1000,1000,1000,1000
76703473,1000,1000,1000,1000,77828856,1000,1000,1000,1000
76705972,1000,1000,1000,1000,77928816,1000,1000,1000,1000
76708471,1000,1000,1000,1000,78028776,1000,1000,1000,1000
76710970,1000,1000,1000,1000,78128736,1000,1000,1000,1000
76713469,1000,1000,1000,1000,78228696,1000,1000,1000,1000
76715968,1000,1000,1000,1000,78328656,1000,1000,1000,1000
76718467,1000,1000,1000,1000,78428616,1000,1000,1000,1000
76720966,1000,1000,1000,1000,78528576,1000,1000,1000,1000
76723465,1000,1000,1000,1000,78628536,1000,1000,1000,1000
76725964,1000,1000,1000,1000,78728496,1015,1015,1015,1015
76728463,1000,1000,1000,1000,78828456,1045,1045,1045,1045
76730962,1000,1000,1000,1000,78928416,1075,1075,1075,1075
76733461,1000,1000,1000,1000,79028376,1105,1105,1105,1105
76735960,1000,1000,1000,1000,79128336,1135,1135,1135,1135
76738459,1000,1000,1000,1000,79228296,1295,1285,1286,1296
76740958,1000,1000,1000,1000,79328256,1501,1492,1493,1501
76743457,1000,1000,1000,1000,79428216,1660,1654,1654,1661
76745956,1000,1000,1000,1000,79528176,1797,1790,1790,1797
76748455,1000,1000,1000,1000,79628969,1900,1893,1893,1901
76750954,1000,1000,1000,1000,79728929,1872,1867,1868,1872
76753453,1000,1000,1000,1000,79828889,1744,1744,1744,1744
76755952,1000,1000,1000,1000,79928849,1652,1655,1655,1652
76758451,1000,1000,1000,1000,80028809,1628,1631,1631,1628
76760950,1000,1000,1000,1000,80128769,1634,1637,1637,1635
76763449,1000,1000,1000,1000,80228729,1643,1644,1644,1642
76765948,1000,1000,1000,1000,80328689,1632,1631,1625,1638
76768447,1000,1000,1000,1000,80428649,1620,1621,1614,1628
76770946,1000,1000,1000,1000,80528609,1613,1614,1610,1617
76773445,1000,1000,1000,1000,80628569,1611,1611,1611,1610
76775944,1000,1000,1000,1000,80728529,1613,1612,1615,1610
76778443,1000,1000,1000,1000,80828489,1617,1617,1621,1612
76780942,1000,1000,1000,1000,80928449,1605,1604,1611,1598
76783441,1000,1000,1000,1000,81028409,1583,1583,1597,1568
76785940,1000,1000,1000,1000,81128369,1570,1570,1578,1563
76788439,1000,1000,1000,1000,81228329,1558,1559,1558,1560
76790938,1000,1000,1000,1000,81328289,1549,1549,1541,1557
76793437,1000,1000,1000,1000,81428249,1542,1541,1529,1553
76795936,1000,1000,1000,1000,81528209,1536,1536,1526,1546
76798435,1000,1000,1000,1000,81628169,1530,1530,1525,1535
76800934,1000,1000,1000,1000,81728962,1527,1525,1525,1526
76803433,1000,1000,1000,1000,81828922,1527,1527,1528,1525
76805932,1000,1000,1000,1000,81928882,1529,1529,1531,1526
76808431,1000,1000,1000,1000,82028842,1532,1532,1535,1528
76810930,1000,1000,1000,1000,82128802,1535,1536,1538,1533
76813429,1000,1000,1000,1000,82228762,1538,1538,1541,1537
76815928,1000,1000,1000,1000,82328722,1542,1542,1543,1541
76818427,1000,1000,1000,1000,82428682,1545,1545,1545,1545
76820926,1000,1000,1000,1000,82528642,1549,1549,1549,1550
76823425,1000,1000,1000,1000,82628602,1551,1551,1551,1553
76825924,1000,1000,1000,1000,82728562,1553,1553,1552,1555
76828423,1000,1000,1000,1000,82828522,1557,1558,1553,1555
76830922,1000,1000,1000,1000,82928482,1560,1559,1557,1559
76833421,1000,1000,1000,1000,83028442,1559,1559,1561,1561
76835920,1000,1000,1000,1000,83128402,1560,1560,1564,1564
76838419,1000,1000,1000,1000,83228362,1561,1561,1567,1566
76840918,1000,1000,1000,1000,83328322,1562,1563,1569,1568
76843417,1000,1000,1000,1000,83428282,1564,1565,1570,1569
76845916,1000,1000,1000,1000,83528242,1566,1566,1570,1570
76848415,1000,1000,1000,1000,83628202,1567,1568,1569,1570
76850914,1000,1000,1000,1000,83728162,1568,1568,1569,1569
76853413,1000,1000,1000,1000,83828955,1570,1570,1569,1569
76855912,1000,1000,1000,1000,83928915,1572,1572,1570,1570
76858411,1000,1000,1000,1000,84028875,1572,1573,1569,1570
76860910,1000,1000,1000,1000,84128835,1574,1574,1571,1571
76863409,1000,1000,1000,1000,84228795,1575,1575,1572,1571
76865908,1000,1000,1000,1000,84328755,1577,1577,1574,1573
76868407,1000,1000,1000,1000,84428715,1576,1576,1574,1573
76870906,1000,1000,1000,1000,84528675,1576,1576,1574,1574
76873405,1000,1000,1000,1000,84628635,1576,1576,1575,1575
76875904,1000,1000,1000,1000,84728595,1575,1576,1575,1575
76878403,1000,1000,1000,1000,84828555,1576,1576,1576,1576
76880902,1000,1000,1000,1000,84928515,1575,1575,1575,1576
76883401,1000,1000,1000,1000,85028475,1576,1576,1577,1577
76885900,1000,1000,1000,1000,85128435,1576,1576,1577,1577
76888399,1000,1000,1000,1000,85228395,1575,1575,1576,1576
76890898,1000,1000,1000,1000,85328355,1576,1576,1577,1577
76893397,1000,1000,1000,1000,85428315,1576,1576,1577,1577
76895896,1000,1000,1000,1000,85528275,1577,1577,1577,1577
76898395,1000,1000,1000,1000,85628235,1577,1577,1578,1578
76900894,1000,1000,1000,1000,85728195,1578,1578,1578,1578
76903393,1000,1000,1000,1000,85828155,1579,1579,1578,1578
76905892,1000,1000,1000,1000,85928948,1577,1577,1577,1577
76908391,1000,1000,1000,1000,86028908,1578,1578,1578,1578
76910890,1000,1000,1000,1000,86128868,1579,1579,1579,1579
76913389,1000,1000,1000,1000,86228828,1578,1578,1578,1578
76915888,1000,1000,1000,1000,86328788,1580,1579,1579,1579
76918387,1000,1000,1000,1000,86428748,1578,1578,1578,1578
76920886,1000,1000,1000,1000,86528708,1579,1579,1579,1580
76923385,1000,1000,1000,1000,86628668,1579,1579,1580,1579
76925884,1000,1000,1000,1000,86728628,1579,1580,1580,1580
76928383,1000,1000,1000,1000,86828588,1579,1579,1580,1579
76930882,1000,1000,1000,1000,86928548,1579,1578,1579,1579
76933381,1000,1000,1000,1000,87028508,1579,1579,1579,1579
76935880,1000,1000,1000,1000,87128468,1580,1580,1580,1580
76938379,1000,1000,1000,1000,87228428,1580,1580,1580,1580
76940878,1000,1000,1000,1000,87328388,1580,1580,1580,1580
76943377,1000,1000,1000,1000,87428348,1580,1580,1580,1580
76945876,1000,1000,1000,1000,87528308,1580,1580,1579,1580
76948375,1000,1000,1000,1000,87628268,1580,1580,1580,1579
76950874,1000,1000,1000,1000,87728228,1581,1581,1581,1581
76953373,1000,1000,1000,1000,87828188,1580,1580,1580,1580
76955872,1000,1000,1000,1000,87928981,1580,1581,1581,1581
76958371,1000,1000,1000,1000,88028941,1581,1581,1581,1581
76960870,1000,1000,1000,1000,88128901,1581,1581,1581,1581
76963369,1000,1000,1000,1000,88228861,1581,1581,1581,1581
76965868,1000,1000,1000,1000,88328821,1581,1581,1581,1581
76968367,1000,1000,1000,1000,88428781,1581,1580,1581,1581
76970866,1000,1000,1000,1000,88528741,1582,1582,1582,1582
76973365,1000,1000,1000,1000,88628701,1581,1581,1581,1581
76975864,1000,1000,1000,1000,88728661,1580,1580,1581,1580
76978363,1000,1000,1000,1000,88828621,1580,1581,1580,1580
76980862,1000,1000,1000,1000,88928581,1580,1580,1581,1580
76983361,1000,1000,1000,1000,89028541,1580,1581,1586,1575
76985860,1000,1000,1000,1000,89128501,1579,1580,1585,1571
76988359,1000,1000,1000,1000,89228461,1579,1581,1579,1573
76990858,1000,1000,1000,1000,89328421,1577,1580,1570,1571
76993357,1000,1000,1000,1000,89428381,1576,1579,1563,1569
76995856,1000,1000,1000,1000,89528341,1577,1579,1558,1565
76998355,1000,1000,1000,1000,89628301,1578,1578,1555,1560
77000854,1000,1000,1000,1000,89728261,1580,1578,1555,1556
77003353,1000,1000,1000,1000,89828221,1579,1578,1556,1554
77005852,1000,1000,1000,1000,89928181,1579,1578,1556,1553
77008351,1000,1000,1000,1000,90028974,1578,1577,1556,1553
77010850,1000,1000,1000,1000,90128934,1576,1578,1555,1554
77013349,1000,1000,1000,1000,90228894,1576,1577,1555,1554
77015848,1000,1000,1000,1000,90328854,1575,1577,1553,1553
77018347,1000,1000,1000,1000,90428814,1575,1577,1552,1552
77020846,1000,1000,1000,1000,90528774,1576,1578,1550,1551
77023345,1000,1000,1000,1000,90628734,1578,1579,1548,1549
77025844,1000,1000,1000,1000,90728694,1581,1582,1547,1546
77028343,1000,1000,1000,1000,90828654,1584,1585,1544,1544
77030842,1000,1000,1000,1000,90928614,1587,1587,1541,1541
77033341,1000,1000,1000,1000,91028574,1590,1591,1539,1539
77035840,1000,1000,1000,1000,91128534,1593,1593,1536,1536
77038339,1000,1000,1000,1000,91228494,1595,1595,1536,1536
77040838,1000,1000,1000,1000,91328454,1595,1595,1535,1535
77043337,1000,1000,1000,1000,91428414,1595,1594,1535,1537
77045836,1000,1000,1000,1000,91528374,1593,1593,1538,1541
77048335,1000,1000,1000,1000,91628334,1590,1589,1543,1546
77050834,1000,1000,1000,1000,91728294,1584,1581,1550,1553
77053333,1000,1000,1000,1000,91828254,1576,1573,1560,1562
77055832,1000,1000,1000,1000,91928214,1567,1562,1572,1574
77058331,1000,1000,1000,1000,92028174,1556,1552,1584,1586
77060830,1000,1000,1000,1000,92128967,1545,1543,1596,1597
77063329,1000,1000,1000,1000,92228927,1535,1535,1605,1605
77065828,1000,1000,1000,1000,92328887,1530,1531,1613,1611
77068327,1000,1000,1000,1000,92428847,1528,1530,1615,1614
77070826,1000,1000,1000,1000,92528807,1531,1532,1615,1614
77073325,1000,1000,1000,1000,92628767,1535,1538,1610,1610
77075824,1000,1000,1000,1000,92728727,1542,1545,1605,1605
77078323,1000,1000,1000,1000,92828687,1551,1553,1598,1598
77080822,1000,1000,1000,1000,92928647,1560,1561,1590,1590
77083321,1000,1000,1000,1000,93028607,1569,1569,1583,1582
77085820,1000,1000,1000,1000,93128567,1576,1575,1576,1576
77088319,1000,1000,1000,1000,93228527,1582,1581,1571,1571
77090818,1000,1000,1000,1000,93328487,1586,1584,1568,1568
77093317,1000,1000,1000,1000,93428447,1587,1586,1566,1566
77095816,1000,1000,1000,1000,93528407,1587,1587,1567,1566
77098315,1000,1000,1000,1000,93628367,1586,1586,1568,1568
77100814,1000,1000,1000,1000,93728327,1584,1584,1570,1570
77103313,1000,1000,1000,1000,93828287,1582,1582,1573,1574
77105812,1000,1000,1000,1000,93928247,1578,1578,1575,1575
77108311,1000,1000,1000,1000,94028207,1576,1576,1578,1578
77110810,1000,1000,1000,1000,94128167,1574,1575,1581,1581
77113309,1000,1000,1000,1000,94228960,1573,1574,1583,1583
77115808,1000,1000,1000,1000,94328920,1573,1573,1584,1584
77118307,1000,1000,1000,1000,94428880,1573,1574,1585,1584
77120806,1000,1000,1000,1000,94528840,1573,1574,1584,1583
77123305,1000,1000,1000,1000,94628800,1574,1575,1583,1583
77125804,1000,1000,1000,1000,94728760,1575,1576,1581,1581
77128303,1000,1000,1000,1000,94828720,1577,1577,1580,1581
77130802,1000,1000,1000,1000,94928680,1579,1578,1579,1579
77133301,1000,1000,1000,1000,95028640,1579,1579,1578,1578
77135800,1000,1000,1000,1000,95128600,1581,1581,1579,1578
77138299,1000,1000,1000,1000,95228560,1582,1582,1578,1577
77140798,1000,1000,1000,1000,95328520,1582,1581,1577,1577
77143297,1000,1000,1000,1000,95428480,1582,1583,1578,1578
77145796,1000,1000,1000,1000,95528440,1581,1581,1577,1578
77148295,1000,1000,1000,1000,95628400,1581,1581,1578,1579
77150794,1000,1000,1000,1000,95728360,1581,1580,1579,1579
77153293,1000,1000,1000,1000,95828320,1581,1580,1580,1580
77155792,1000,1000,1000,1000,95928280,1579,1579,1580,1580
77158291,1000,1000,1000,1000,96028240,1580,1579,1581,1581
77160790,1000,1000,1000,1000,96128200,1580,1579,1582,1581
77163289,1000,1000,1000,1000,96228160,1580,1580,1582,1582
77165788,1000,1000,1000,1000,96328953,1579,1579,1582,1582
77168287,1000,1000,1000,1000,96428913,1577,1579,1580,1581
77170786,1000,1000,1000,1000,96528873,1577,1579,1579,1581
77173285,1000,1000,1000,1000,96628833,1578,1579,1579,1580
77175784,1000,1000,1000,1000,96728793,1580,1580,1580,1581
77178283,1000,1000,1000,1000,96828753,1579,1579,1578,1578
77180782,1000,1000,1000,1000,96928713,1580,1579,1578,1578
77183281,1000,1000,1000,1000,97028673,1581,1583,1584,1573
77185780,1000,1000,1000,1000,97128633,1582,1585,1584,1570
77188279,1000,1000,1000,1000,97228593,1580,1584,1574,1569
77190778,1000,1000,1000,1000,97328553,1580,1582,1566,1568
77193277,1000,1000,1000,1000,97428513,1581,1582,1559,1565
77195776,1000,1000,1000,1000,97528473,1580,1581,1553,1560
77198275,1000,1000,1000,1000,97628433,1581,1580,1551,1556
77200774,1000,1000,1000,1000,97728393,1581,1580,1551,1552
77203273,1000,1000,1000,1000,97828353,1580,1579,1552,1550
77205772,1000,1000,1000,1000,97928313,1581,1580,1554,1551
77208271,1000,1000,1000,1000,98028273,1579,1579,1554,1552
77210770,1000,1000,1000,1000,98128233,1578,1579,1554,1553
77213269,1000,1000,1000,1000,98228193,1429,1524,1575,1576
77215768,1000,1000,1000,1000,98328986,1515,1507,1589,1592
77218267,1000,1000,1000,1000,98428946,1583,1524,1600,1604
77220766,1000,1000,1000,1000,98528906,1635,1561,1611,1615
77223265,1000,1000,1000,1000,98628866,1660,1597,1614,1617
77225764,1000,1000,1000,1000,98728826,1658,1620,1603,1604
77228263,1000,1000,1000,1000,98828786,1639,1632,1581,1582
77230762,1000,1000,1000,1000,98928746,1619,1637,1561,1560
77233261,1000,1000,1000,1000,99028706,1605,1640,1546,1541
77235760,1000,1000,1000,1000,99128666,1603,1638,1539,1529
77238259,1000,1000,1000,1000,99228626,1607,1633,1536,1522
77240758,1000,1000,1000,1000,99328586,1611,1624,1533,1518
77243257,1000,1000,1000,1000,99428546,1612,1614,1530,1520
77245756,1000,1000,1000,1000,99528506,1610,1604,1531,1529
77248255,1000,1000,1000,1000,99628466,1603,1594,1532,1538
77250754,1000,1000,1000,1000,99728426,1594,1587,1537,1551
77253253,1000,1000,1000,1000,99828386,1584,1580,1543,1560
77255752,1000,1000,1000,1000,99928346,1573,1573,1551,1567
77258251,1000,1000,1000,1000,100028306,1564,1565,1562,1574
77260750,1000,1000,1000,1000,100128266,1556,1556,1572,1578
77263249,1000,1000,1000,1000,100228226,1549,1547,1583,1583
77265748,1000,1000,1000,1000,100328186,1543,1540,1593,1590
77268247,1000,1000,1000,1000,100428979,1538,1534,1602,1597
77270746,1000,1000,1000,1000,100528939,1534,1530,1609,1604
77273245,1000,1000,1000,1000,100628899,1529,1527,1613,1610
77275744,1000,1000,1000,1000,100728859,1527,1529,1615,1612
77278243,1000,1000,1000,1000,100828819,1528,1532,1612,1611
77280742,1000,1000,1000,1000,100928779,1532,1537,1607,1606
77283241,1000,1000,1000,1000,101028739,1540,1544,1600,1600
77285740,1000,1000,1000,1000,101128699,1550,1552,1593,1592
77288239,1000,1000,1000,1000,101228659,1560,1561,1585,1585
77290738,1000,1000,1000,1000,101328619,1570,1569,1578,1578
77293237,1000,1000,1000,1000,101428579,1578,1575,1571,1572
77295736,1000,1000,1000,1000,101528539,1583,1580,1567,1567
77298235,1000,1000,1000,1000,101628499,1587,1584,1565,1565
77300734,1000,1000,1000,1000,101728459,1589,1586,1565,1565
77303233,1000,1000,1000,1000,101828419,1589,1587,1566,1566
77305732,1000,1000,1000,1000,101928379,1588,1588,1567,1568
77308231,1000,1000,1000,1000,102028339,1587,1587,1569,1569
77310730,1000,1000,1000,1000,102128299,1585,1585,1570,1570
77313229,1000,1000,1000,1000,102228259,1583,1584,1572,1571
77315728,1000,1000,1000,1000,102328219,1582,1583,1574,1574
77318227,1000,1000,1000,1000,102428179,1581,1581,1575,1575
77320726,1000,1000,1000,1000,102528972,1579,1580,1576,1576
77323225,1000,1000,1000,1000,102628932,1578,1579,1578,1578
77325724,1000,1000,1000,1000,102728892,1578,1578,1578,1579
77328223,1000,1000,1000,1000,102828852,1577,1578,1580,1580
77330722,1000,1000,1000,1000,102928812,1578,1578,1581,1581
77333221,1000,1000,1000,1000,103028772,1578,1579,1581,1581
77335720,1000,1000,1000,1000,103128732,1578,1578,1581,1581
77338219,1000,1000,1000,1000,103228692,1578,1579,1581,1581
77340718,1000,1000,1000,1000,103328652,1579,1579,1582,1581
77343217,1000,1000,1000,1000,103428612,1580,1580,1580,1581
77345716,1000,1000,1000,1000,103528572,1580,1580,1580,1580
77348215,1000,1000,1000,1000,103628532,1581,1581,1581,1581
77350714,1000,1000,1000,1000,103728492,1582,1582,1581,1580
77353213,1000,1000,1000,1000,103828452,1582,1582,1580,1580
77355712,1000,1000,1000,1000,103928412,1583,1583,1581,1581
77358211,1000,1000,1000,1000,104028372,1583,1582,1580,1580
77360710,1000,1000,1000,1000,104128332,1583,1582,1580,1580
77363209,1000,1000,1000,1000,104228292,1583,1583,1581,1581
77365708,1000,1000,1000,1000,104328252,1583,1583,1581,1581
77368207,1000,1000,1000,1000,104428212,1583,1583,1582,1581
77370706,1000,1000,1000,1000,104528172,1582,1582,1581,1581
77373205,1000,1000,1000,1000,104628965,1582,1582,1581,1581
77375704,1000,1000,1000,1000,104728925,1583,1583,1583,1582
77378203,1000,1000,1000,1000,104828885,1583,1583,1584,1581
77380702,1000,1000,1000,1000,104928845,1583,1584,1590,1576
77383201,1000,1000,1000,1000,105028805,1581,1581,1583,1575
77385700,1000,1000,1000,1000,105128765,1579,1580,1575,1574
77388199,1000,1000,1000,1000,105228725,1577,1579,1567,1572
77390698,1000,1000,1000,1000,105328685,1577,1580,1562,1569
77393197,1000,1000,1000,1000,105428645,1577,1579,1560,1564
77395696,1000,1000,1000,1000,105528605,1577,1578,1558,1560
77398195,1000,1000,1000,1000,105628565,1579,1579,1559,1559
77400694,1000,1000,1000,1000,105728525,1579,1578,1559,1557
77403193,1000,1000,1000,1000,105828485,1579,1578,1560,1557
77405692,1000,1000,1000,1000,105928445,1577,1577,1558,1556
77408191,1000,1000,1000,1000,106028405,1576,1576,1556,1556
77410690,1000,1000,1000,1000,106128365,1576,1576,1555,1556
77413189,1000,1000,1000,1000,106228325,1575,1575,1554,1556
77415688,1000,1000,1000,1000,106328285,1575,1575,1554,1556
77418187,1000,1000,1000,1000,106428245,1574,1574,1553,1554
77420686,1000,1000,1000,1000,106528205,1573,1575,1552,1553
77423185,1000,1000,1000,1000,106628165,1573,1575,1552,1551
77425684,1000,1000,1000,1000,106728958,1574,1577,1551,1551
77428183,1000,1000,1000,1000,106828918,1576,1577,1551,1550
77430682,1000,1000,1000,1000,106928878,1577,1578,1549,1548
77433181,1000,1000,1000,1000,107028838,1580,1580,1548,1548
77435680,1000,1000,1000,1000,107128798,1581,1581,1546,1547
77438179,1000,1000,1000,1000,107228758,1582,1583,1546,1547
77440678,1000,1000,1000,1000,107328718,1584,1585,1545,1546
77443177,1000,1000,1000,1000,107428678,1586,1586,1544,1546
77445676,1000,1000,1000,1000,107528638,1586,1587,1544,1545
77448175,1000,1000,1000,1000,107628598,1587,1587,1546,1548
77450674,1000,1000,1000,1000,107728558,1586,1584,1550,1551
77453173,1000,1000,1000,1000,107828518,1584,1580,1555,1557
77455672,1000,1000,1000,1000,107928478,1579,1576,1561,1563
77458171,1000,1000,1000,1000,108028438,1573,1568,1568,1571
77460670,1000,1000,1000,1000,108128398,1564,1561,1576,1579
77463169,1000,1000,1000,1000,108228358,1557,1555,1586,1587
77465668,1000,1000,1000,1000,108328318,1549,1549,1593,1594
77468167,1000,1000,1000,1000,108428278,1544,1545,1599,1599
77470666,1000,1000,1000,1000,108528238,1541,1544,1603,1602
77473165,1000,1000,1000,1000,108628198,1541,1544,1604,1603
77475664,1000,1000,1000,1000,108728158,1544,1547,1604,1603
77478163,1000,1000,1000,1000,108828951,1548,1549,1601,1599
77480662,1000,1000,1000,1000,108928911,1553,1554,1596,1594
77483161,1000,1000,1000,1000,109028871,1559,1559,1591,1590
77485660,1000,1000,1000,1000,109128831,1566,1566,1586,1586
77488159,1000,1000,1000,1000,109228791,1572,1570,1580,1581
77490658,1000,1000,1000,1000,109328751,1576,1574,1576,1577
77493157,1000,1000,1000,1000,109428711,1581,1579,1574,1574
77495656,1000,1000,1000,1000,109528671,1583,1581,1571,1571
77498155,1000,1000,1000,1000,109628631,1584,1584,1572,1571
77500654,1000,1000,1000,1000,109728591,1584,1584,1572,1571
77503986,1000,1000,1000,1000,109828551,1583,1582,1573,1572
77506485,1000,1000,1000,1000,109928511,1581,1580,1574,1575
77508984,1000,1000,1000,1000,110028471,1580,1579,1577,1577
77511483,1000,1000,1000,1000,110128431,1577,1576,1578,1578
77513982,1000,1000,1000,1000,110228391,1575,1576,1581,1581
77516481,1000,1000,1000,1000,110328351,1574,1574,1580,1581
77518980,1000,1000,1000,1000,110428311,1574,1574,1582,1582
77521479,1000,1000,1000,1000,110528271,1574,1575,1582,1582
77523978,1000,1000,1000,1000,110628231,1575,1576,1581,1581
77526477,1000,1000,1000,1000,110728191,1576,1577,1580,1581
77528976,1000,1000,1000,1000,110828984,1578,1578,1579,1579
77531475,1000,1000,1000,1000,110928944,1580,1580,1578,1578
77533974,1000,1000,1000,1000,111028904,1582,1582,1577,1577
77536473,1000,1000,1000,1000,111128864,1584,1584,1577,1577
77538972,1000,1000,1000,1000,111228824,1584,1584,1577,1576
77541471,1000,1000,1000,1000,111328784,1584,1584,1578,1577
77543970,1000,1000,1000,1000,111428744,1584,1584,1579,1578
77546469,1000,1000,1000,1000,111528704,1584,1583,1580,1580
77548968,1000,1000,1000,1000,111628664,1582,1582,1581,1581
77551467,1000,1000,1000,1000,111728624,1581,1581,1582,1583
77553966,1000,1000,1000,1000,111828584,1580,1580,1583,1583
77556465,1000,1000,1000,1000,111928544,1579,1580,1583,1584
77558964,1000,1000,1000,1000,112028504,1578,1578,1583,1583
77561463,1000,1000,1000,1000,112128464,1578,1579,1583,1583
77563962,1000,1000,1000,1000,112228424,1577,1578,1583,1582
77566461,1000,1000,1000,1000,112328384,1578,1579,1582,1582
77568960,1000,1000,1000,1000,112428344,1579,1580,1582,1582
77571459,1000,1000,1000,1000,112528304,1580,1581,1582,1582
77573958,1000,1000,1000,1000,112628264,1581,1581,1581,1581
77576457,1000,1000,1000,1000,112728224,1582,1582,1580,1581
77578956,1000,1000,1000,1000,112828184,1583,1583,1581,1581
77581455,1000,1000,1000,1000,112928977,1583,1582,1582,1578
77583954,1000,1000,1000,1000,113028937,1584,1583,1588,1573
77586453,1000,1000,1000,1000,113128897,1582,1581,1584,1574
77588952,1000,1000,1000,1000,113228857,1579,1577,1575,1574
77591451,1000,1000,1000,1000,113328817,1575,1574,1569,1574
77593950,1000,1000,1000,1000,113428777,1571,1571,1565,1573
77596449,1000,1000,1000,1000,113528737,1567,1569,1564,1570
77598948,1000,1000,1000,1000,113628697,1566,1568,1565,1568
77601447,1000,1000,1000,1000,113728657,1565,1566,1566,1566
77603946,1000,1000,1000,1000,113828617,1564,1565,1567,1565
77606445,1000,1000,1000,1000,113928577,1564,1564,1567,1565
77608944,1000,1000,1000,1000,114028537,1564,1564,1567,1565
77611443,1000,1000,1000,1000,114128497,1563,1563,1566,1564
77613942,1000,1000,1000,1000,114228457,1563,1562,1565,1564
77616441,1000,1000,1000,1000,114328417,1563,1562,1563,1564
77618940,1000,1000,1000,1000,114428377,1562,1562,1562,1563
77621439,1000,1000,1000,1000,114528337,1561,1561,1561,1562
77623938,1000,1000,1000,1000,114628297,1562,1562,1562,1562
77626437,1000,1000,1000,1000,114728257,1561,1561,1561,1560
77628936,1000,1000,1000,1000,114828217,1560,1560,1560,1558
77631435,1000,1000,1000,1000,114928177,1559,1559,1558,1558
77633934,1000,1000,1000,1000,115028970,1558,1558,1558,1557
77636433,1000,1000,1000,1000,115128930,1558,1558,1558,1557
77638932,1000,1000,1000,1000,115228890,1557,1558,1558,1556
77641431,1000,1000,1000,1000,115328850,1558,1559,1559,1558
77643930,1000,1000,1000,1000,115428810,1559,1559,1560,1558
77646429,1000,1000,1000,1000,115528770,1559,1558,1560,1558
77648928,1000,1000,1000,1000,115628730,1559,1559,1561,1558
77651427,1000,1000,1000,1000,115728690,1559,1558,1559,1560
77653926,1000,1000,1000,1000,115828650,1559,1560,1558,1562
77656425,1000,1000,1000,1000,115928610,1561,1561,1558,1565
77658924,1000,1000,1000,1000,116028570,1561,1562,1558,1564
77661423,1000,1000,1000,1000,116128530,1562,1561,1559,1564
77663922,1000,1000,1000,1000,116228490,1561,1561,1561,1561
77666421,1000,1000,1000,1000,116328450,1561,1561,1562,1559
77668920,1000,1000,1000,1000,116428410,1559,1559,1560,1556
77671419,1000,1000,1000,1000,116528370,1559,1559,1558,1559
77673918,1000,1000,1000,1000,116628330,1557,1557,1553,1559
77676417,1000,1000,1000,1000,116728290,1554,1553,1549,1555
77678916,1000,1000,1000,1000,116828250,1548,1549,1547,1547
77681415,1000,1000,1000,1000,116928210,1541,1542,1542,1540
77683914,1000,1000,1000,1000,117028170,1534,1534,1537,1533
77686413,1000,1000,1000,1000,117128963,1526,1526,1529,1527
77688912,1000,1000,1000,1000,117228923,1519,1519,1523,1523
77691411,1000,1000,1000,1000,117328883,1516,1516,1520,1522
77693910,1000,1000,1000,1000,117428843,1516,1517,1521,1524
77696409,1000,1000,1000,1000,117528803,1518,1519,1523,1525
77698908,1000,1000,1000,1000,117628763,1521,1521,1525,1527
77701407,1000,1000,1000,1000,117728723,1525,1526,1528,1530
77703906,1000,1000,1000,1000,117828683,1531,1531,1532,1533
77706405,1000,1000,1000,1000,117928643,1537,1537,1537,1537
77708904,1000,1000,1000,1000,118028603,1542,1542,1539,1539
77711403,1000,1000,1000,1000,118128563,1546,1546,1540,1540
77713902,1000,1000,1000,1000,118228523,1549,1549,1541,1541
77716401,1000,1000,1000,1000,118328483,1551,1551,1542,1542
77718900,1000,1000,1000,1000,118428443,1551,1551,1542,1541
77721399,1000,1000,1000,1000,118528403,1552,1552,1543,1542
77723898,1000,1000,1000,1000,118628363,1552,1553,1543,1543
77726397,1000,1000,1000,1000,118728323,1551,1552,1543,1543
77728896,1000,1000,1000,1000,118828283,1550,1550,1544,1543
77731395,1000,1000,1000,1000,118928243,1550,1549,1546,1544
77733894,1000,1000,1000,1000,119028203,1548,1547,1548,1546
77736393,1000,1000,1000,1000,119128163,1547,1545,1549,1547
77738892,1000,1000,1000,1000,119228956,1544,1543,1549,1548
77741391,1000,1000,1000,1000,119328916,1542,1542,1549,1549
77743890,1000,1000,1000,1000,119428876,1541,1541,1549,1549
77746389,1000,1000,1000,1000,119528836,1540,1541,1550,1550
77748888,1000,1000,1000,1000,119628796,1540,1541,1549,1549
77751387,1000,1000,1000,1000,119728756,1540,1541,1548,1548
77753886,1000,1000,1000,1000,119828716,1542,1541,1548,1547
77756385,1000,1000,1000,1000,119928676,1542,1542,1546,1546
77758884,1000,1000,1000,1000,120028636,1543,1543,1545,1545
77761383,1000,1000,1000,1000,120128596,1544,1544,1543,1544
77763882,1000,1000,1000,1000,120228556,1545,1545,1543,1543
77766381,1000,1000,1000,1000,120328516,1545,1545,1542,1543
77768880,1000,1000,1000,1000,120428476,1545,1544,1541,1541
77771379,1000,1000,1000,1000,120528436,1546,1546,1542,1542
77773878,1000,1000,1000,1000,120628396,1546,1546,1542,1542
77776377,1000,1000,1000,1000,120728356,1545,1545,1542,1542
77778876,1000,1000,1000,1000,120828316,1545,1545,1543,1543
77781375,1000,1000,1000,1000,120928276,1545,1545,1543,1543
77783874,1000,1000,1000,1000,121028236,1544,1545,1543,1543
77786373,1000,1000,1000,1000,121128196,1543,1544,1543,1544
77788872,1000,1000,1000,1000,121228156,1543,1544,1545,1544
77791371,1000,1000,1000,1000,121328949,1544,1543,1545,1545
77793870,1000,1000,1000,1000,121428909,1543,1543,1545,1545
77796369,1000,1000,1000,1000,121528869,1544,1543,1545,1545
77798868,1000,1000,1000,1000,121628829,1544,1544,1545,1545
77801367,1000,1000,1000,1000,121728789,1544,1544,1545,1545
77803866,1000,1000,1000,1000,121828749,1544,1544,1545,1545
77806365,1000,1000,1000,1000,121928709,1544,1544,1545,1545
77808864,1000,1000,1000,1000,122028669,1545,1544,1545,1545
77811363,1000,1000,1000,1000,122128629,1545,1545,1545,1546
77813862,1000,1000,1000,1000,122228589,1545,1545,1544,1544
77816361,1000,1000,1000,1000,122328549,1545,1545,1544,1544
77818860,1000,1000,1000,1000,122428509,1545,1545,1544,1544
77821359,1000,1000,1000,1000,122528469,1545,1544,1543,1544
77823858,1000,1000,1000,1000,122628429,1544,1544,1544,1543
77826357,1000,1000,1000,1000,122728389,1544,1544,1544,1544
77828856,1000,1000,1000,1000,122828349,1545,1545,1544,1544
77831355,1000,1000,1000,1000,122928309,1544,1544,1544,1545
77833854,1000,1000,1000,1000,123028269,1544,1544,1545,1544
77836353,1000,1000,1000,1000,123128229,1544,1544,1544,1544
77838852,1000,1000,1000,1000,123228189,1544,1544,1544,1544
77841351,1000,1000,1000,1000,123328982,1544,1544,1544,1544
77843850,1000,1000,1000,1000,123428942,1543,1544,1544,1544
77846349,1000,1000,1000,1000,123528902,1544,1544,1544,1544
77848848,1000,1000,1000,1000,123628862,1544,1544,1544,1544
77851347,1000,1000,1000,1000,123728822,1544,1544,1544,1544
77853846,1000,1000,1000,1000,123828782,1544,1544,1544,1544
77856345,1000,1000,1000,1000,123928742,1544,1544,1544,1544
77858844,1000,1000,1000,1000,124028702,1543,1544,1544,1544
77861343,1000,1000,1000,1000,124128662,1543,1544,1545,1544
77863842,1000,1000,1000,1000,124228622,1543,1544,1547,1544
77866341,1000,1000,1000,1000,124328582,1543,1543,1547,1545
77868840,1000,1000,1000,1000,124428542,1542,1541,1547,1546
77871339,1000,1000,1000,1000,124528502,1542,1541,1547,1548
77873838,1000,1000,1000,1000,124628462,1541,1541,1547,1549
77876337,1000,1000,1000,1000,124728422,1541,1541,1547,1549
77878836,1000,1000,1000,1000,124828382,1541,1542,1546,1548
77881335,1000,1000,1000,1000,124928342,1542,1542,1545,1547
77883834,1000,1000,1000,1000,125028302,1543,1543,1545,1546
77886333,1000,1000,1000,1000,125128262,1544,1544,1544,1544
77888832,1000,1000,1000,1000,125228222,1545,1545,1543,1542
77891331,1000,1000,1000,1000,125328182,1547,1547,1541,1542
77893830,1000,1000,1000,1000,125428975,1547,1547,1540,1540
77896329,1000,1000,1000,1000,125528935,1548,1547,1539,1540
77898828,1000,1000,1000,1000,125628895,1548,1548,1539,1540
77901327,1000,1000,1000,1000,125728855,1548,1548,1539,1540
77903826,1000,1000,1000,1000,125828815,1549,1549,1541,1540
77906325,1000,1000,1000,1000,125928775,1548,1548,1540,1540
77908824,1000,1000,1000,1000,126028735,1547,1548,1541,1541
77911323,1000,1000,1000,1000,126128695,1547,1548,1542,1542
77913822,1000,1000,1000,1000,126228655,1547,1547,1544,1543
77916321,1000,1000,1000,1000,126328615,1546,1545,1545,1543
77918820,1000,1000,1000,1000,126428575,1545,1544,1546,1544
77921319,1000,1000,1000,1000,126528535,1544,1543,1547,1545
77923818,1000,1000,1000,1000,126628495,1542,1541,1547,1546
77926317,1000,1000,1000,1000,126728455,1542,1541,1547,1548
77928816,1000,1000,1000,1000,126828415,1541,1541,1547,1548
77931315,1000,1000,1000,1000,126928375,1539,1526,1525,1553
77933814,1000,1000,1000,1000,127028335,1401,1347,1329,1375
77936313,1000,1000,1000,1000,127128295,1337,1249,1218,1287
77938812,1000,1000,1000,1000,127228255,1319,1214,1188,1253
77941311,1000,1000,1000,1000,127328215,1307,1188,1166,1229
77943810,1000,1000,1000,1000,127428175,1300,1171,1150,1214
77946309,1000,1000,1000,1000,127528968,1158,1162,1150,1190
77948808,1000,1000,1000,1000,127628928,1157,1163,1150,1191
77951307,1000,1000,1000,1000,127728888,1155,1164,1150,1193
77953806,1000,1000,1000,1000,127828848,1172,1153,1150,1178
77956305,1000,1000,1000,1000,127928808,1171,1154,1150,1179
77958804,1000,1000,1000,1000,128028768,1165,1158,1150,1185
77961303,1000,1000,1000,1000,128128728,1163,1159,1150,1187
77963802,1000,1000,1000,1000,128228688,1163,1158,1150,1187
77966301,1000,1000,1000,1000,128328648,1163,1158,1150,1187
77968800,1000,1000,1000,1000,128428608,1164,1158,1150,1187
77971299,1000,1000,1000,1000,128528568,1164,1158,1150,1187
77973798,1000,1000,1000,1000,128628528,1182,1150,1155,1160
77976297,1000,1000,1000,1000,128728488,1181,1150,1150,1167
77978796,1000,1000,1000,1000,128828448,1180,1150,1150,1168
77981295,1000,1000,1000,1000,128928408,1180,1150,1150,1169
77983794,1000,1000,1000,1000,129028368,1179,1150,1150,1169
77986293,1000,1000,1000,1000,129128328,1000,1000,1000,1000
77988792,1000,1000,1000,1000,129228288,1000,1000,1000,1000
77991291,1000,1000,1000,1000,129328248,1000,1000,1000,1000
77993790,1000,1000,1000,1000,129428208,1000,1000,1000,1000
77996289,1000,1000,1000,1000,129528168,1000,1000,1000,1000
77998788,1000,1000,1000,1000,129628961,1000,1000,1000,1000
78001287,1000,1000,1000,1000,129728921,1000,1000,1000,1000
78003786,1000,1000,1000,1000,129828881,1000,1000,1000,1000
78006285,1000,1000,1000,1000,129928841,1000,1000,1000,1000
78008784,1000,1000,1000,1000,130028801,1000,1000,1000,1000
78011283,1000,1000,1000,1000,130128761,1000,1000,1000,1000
78013782,1000,1000,1000,1000,130228721,1000,1000,1000,1000
78016281,1000,1000,1000,1000,130328681,1000,1000,1000,1000
78018780,1000,1000,1000,1000,130428641,1000,1000,1000,1000
78021279,1000,1000,1000,1000,130528601,1000,1000,1000,1000
78023778,1000,1000,1000,1000,130628561,1000,1000,1000,1000
78026277,1000,1000,1000,1000,130728521,1000,1000,1000,1000
78028776,1000,1000,1000,1000,130828481,1000,1000,1000,1000
78031275,1000,1000,1000,1000,130928441,1000,1000,1000,1000
78033774,1000,1000,1000,1000,131028401,1000,1000,1000,1000
78036273,1000,1000,1000,1000,131128361,1000,1000,1000,1000
78038772,1000,1000,1000,1000,131228321,1000,1000,1000,1000
78041271,1000,1000,1000,1000,131328281,1000,1000,1000,1000
78043770,1000,1000,1000,1000,131428241,1000,1000,1000,1000
78046269,1000,1000,1000,1000,131528201,1000,1000,1000,1000
78048768,1000,1000,1000,1000,131628161,1000,1000,1000,1000
78051267,1000,1000,1000,1000,131728954,1000,1000,1000,1000
78053766,1000,1000,1000,1000,131828914,1000,1000,1000,1000
78056265,1000,1000,1000,1000,131928874,1000,1000,1000,1000
78058764,1000,1000,1000,1000,132028834,1000,1000,1000,1000
78061263,1000,1000,1000,1000,132128794,1000,1000,1000,1000
78063762,1000,1000,1000,1000,132228754,1000,1000,1000,1000
78066261,1000,1000,1000,1000,132328714,1000,1000,1000,1000
78068760,1000,1000,1000,1000,132428674,1000,1000,1000,1000
78071259,1000,1000,1000,1000,132528634,1000,1000,1000,1000
78073758,1000,1000,1000,1000,132628594,1000,1000,1000,1000
78076257,1000,1000,1000,1000,132728554,1000,1000,1000,1000
78078756,1000,1000,1000,1000,132828514,1000,1000,1000,1000
78081255,1000,1000,1000,1000,132928474,1000,1000,1000,1000
78083754,1000,1000,1000,1000,133028434,1000,1000,1000,1000
78086253,1000,1000,1000,1000,133128394,1000,1000,1000,1000
78088752,1000,1000,1000,1000,133228354,1000,1000,1000,1000
78091251,1000,1000,1000,1000,133328314,1000,1000,1000,1000
78093750,1000,1000,1000,1000,133428274,1000,1000,1000,1000
78096249,1000,1000,1000,1000,133528234,1000,1000,1000,1000
78098748,1000,1000,1000,1000,133628194,1000,1000,1000,1000
78101247,1000,1000,1000,1000,133728154,1000,1000,1000,1000
78103746,1000,1000,1000,1000,133828947,1000,1000,1000,1000
78106245,1000,1000,1000,1000,133928907,1000,1000,1000,1000
78108744,1000,1000,1000,1000,134028867,1000,1000,1000,1000
78111243,1000,1000,1000,1000,134128827,1000,1000,1000,1000
78113742,1000,1000,1000,1000,134228787,1000,1000,1000,1000
78116241,1000,1000,1000,1000,134328747,1000,1000,1000,1000
78118740,1000,1000,1000,1000,134428707,1000,1000,1000,1000
78121239,1000,1000,1000,1000,134528667,1000,1000,1000,1000
78123738,1000,1000,1000,1000,134628627,1000,1000,1000,1000
78126237,1000,1000,1000,1000,134728587,1000,1000,1000,1000
78128736,1000,1000,1000,1000,134828547,1000,1000,1000,1000
78131235,1000,1000,1000,1000,134928507,1000,1000,1000,1000
78133734,1000,1000,1000,1000,135028467,1000,1000,1000,1000
78136233,1000,1000,1000,1000,135128427,1000,1000,1000,1000
78138732,1000,1000,1000,1000,135228387,1000,1000,1000,1000
78141231,1000,1000,1000,1000,135328347,1000,1000,1000,1000
78143730,1000,1000,1000,1000,135428307,1000,1000,1000,1000
78146229,1000,1000,1000,1000,135528267,1000,1000,1000,1000
78148728,1000,1000,1000,1000,135628227,1000,1000,1000,1000
78151227,1000,1000,1000,1000,135728187,1000,1000,1000,1000
78153726,1000,1000,1000,1000,135828980,1000,1000,1000,1000
78156225,1000,1000,1000,1000,135928940,1000,1000,1000,1000
78158724,1000,1000,1000,1000,136028900,1000,1000,1000,1000
78161223,1000,1000,1000,1000,136128860,1000,1000,1000,1000
78163722,1000,1000,1000,1000,136228820,1000,1000,1000,1000
78166221,1000,1000,1000,1000,136328780,1000,1000,1000,1000
78168720,1000,1000,1000,1000,136428740,1000,1000,1000,1000
78171219,1000,1000,1000,1000,136528700,1000,1000,1000,1000
78173718,1000,1000,1000,1000,136628660,1000,1000,1000,1000
78176217,1000,1000,1000,1000,136728620,1000,1000,1000,1000
78178716,1000,1000,1000,1000,136828580,1000,1000,1000,1000
78181215,1000,1000,1000,1000,136928540,1000,1000,1000,1000
78183714,1000,1000,1000,1000,137028500,1000,1000,1000,1000
78186213,1000,1000,1000,1000,137128460,1000,1000,1000,1000
78188712,1000,1000,1000,1000,137228420,1000,1000,1000,1000
78191211,1000,1000,1000,1000,137328380,1000,1000,1000,1000
78193710,1000,1000,1000,1000,137428340,1000,1000,1000,1000
78196209,1000,1000,1000,1000,137528300,1000,1000,1000,1000
78198708,1000,1000,1000,1000,137628260,1000,1000,1000,1000
78201207,1000,1000,1000,1000,137728220,1000,1000,1000,1000
78203706,1000,1000,1000,1000,137828180,1000,1000,1000,1000
78206205,1000,1000,1000,1000,137928973,1000,1000,1000,1000
78208704,1000,1000,1000,1000,138028933,1000,1000,1000,1000
78211203,1000,1000,1000,1000,138128893,1000,1000,1000,1000
78213702,1000,1000,1000,1000,138228853,1000,1000,1000,1000
78216201,1000,1000,1000,1000,138328813,1000,1000,1000,1000
78218700,1000,1000,1000,1000,138428773,1000,1000,1000,1000
78221199,1000,1000,1000,1000,138528733,1000,1000,1000,1000
78223698,1000,1000,1000,1000,138628693,1000,1000,1000,1000
78226197,1000,1000,1000,1000,138728653,1000,1000,1000,1000
78228696,1000,1000,1000,1000,138828613,1000,1000,1000,1000
78231195,1000,1000,1000,1000,138928573,1000,1000,1000,1000
78233694,1000,1000,1000,1000,139028533,1000,1000,1000,1000
78236193,1000,1000,1000,1000,139128493,1000,1000,1000,1000
78238692,1000,1000,1000,1000,139228453,1000,1000,1000,1000
78241191,1000,1000,1000,1000,139328413,1000,1000,1000,1000
78243690,1000,1000,1000,1000,139428373,1000,1000,1000,1000
78246189,1000,1000,1000,1000,139528333,1000,1000,1000,1000
78248688,1000,1000,1000,1000,139628293,1000,1000,1000,1000
78251187,1000,1000,1000,1000,139728253,1000,1000,1000,1000
78253686,1000,1000,1000,1000,139828213,1000,1000,1000,1000
78256185,1000,1000,1000,1000,139928173,1000,1000,1000,1000
78258684,1000,1000,1000,1000,140028966,1000,1000,1000,1000
78261183,1000,1000,1000,1000,140128926,1000,1000,1000,1000
78263682,1000,1000,1000,1000,140228886,1000,1000,1000,1000
78266181,1000,1000,1000,1000,140328846,1000,1000,1000,1000
78268680,1000,1000,1000,1000,140428806,1000,1000,1000,1000
78271179,1000,1000,1000,1000,140528766,1000,1000,1000,1000
78273678,1000,1000,1000,1000,140628726,1000,1000,1000,1000
78276177,1000,1000,1000,1000,140728686,1000,1000,1000,1000
78278676,1000,1000,1000,1000,140828646,1000,1000,1000,1000
78281175,1000,1000,1000,1000,140928606,1000,1000,1000,1000
78283674,1000,1000,1000,1000,141028566,1000,1000,1000,1000
78286173,1000,1000,1000,1000,141128526,1000,1000,1000,1000
78288672,1000,1000,1000,1000,141228486,1000,1000,1000,1000
78291171,1000,1000,1000,1000,141328446,1000,1000,1000,1000
78293670,1000,1000,1000,1000,141428406,1000,1000,1000,1000
78296169,1000,1000,1000,1000,141528366,1000,1000,1000,1000
78298668,1000,1000,1000,1000,141628326,1000,1000,1000,1000
78301167,1000,1000,1000,1000,141728286,1000,1000,1000,1000
78303666,1000,1000,1000,1000,141828246,1000,1000,1000,1000
78306165,1000,1000,1000,1000,141928206,1000,1000,1000,1000
78308664,1000,1000,1000,1000,142028166,1000,1000,1000,1000
78311163,1000,1000,1000,1000,142128959,1000,1000,1000,1000
78313662,1000,1000,1000,1000,142228919,1000,1000,1000,1000
78316161,1000,1000,1000,1000,142328879,1000,1000,1000,1000
78318660,1000,1000,1000,1000,142428839,1000,1000,1000,1000
78321159,1000,1000,1000,1000,142528799,1000,1000,1000,1000
78323658,1000,1000,1000,1000,142628759,1000,1000,1000,1000
78326157,1000,1000,1000,1000,142728719,1000,1000,1000,1000
78328656,1000,1000,1000,1000,142828679,1000,1000,1000,1000
78331155,1000,1000,1000,1000,142928639,1000,1000,1000,1000
78333654,1000,1000,1000,1000,143028599,1000,1000,1000,1000
78336153,1000,1000,1000,1000,143128559,1000,1000,1000,1000
78338652,1000,1000,1000,1000,143228519,1000,1000,1000,1000
78341151,1000,1000,1000,1000,143328479,1000,1000,1000,1000
78343650,1000,1000,1000,1000,143428439,1000,1000,1000,1000
78346149,1000,1000,1000,1000,143528399,1000,1000,1000,1000
78348648,1000,1000,1000,1000,143628359,1000,1000,1000,1000
78351147,1000,1000,1000,1000,143728319,1000,1000,1000,1000
78353646,1000,1000,1000,1000,143828279,1000,1000,1000,1000
78356145,1000,1000,1000,1000,143928239,1000,1000,1000,1000
78358644,1000,1000,1000,1000,144028199,1000,1000,1000,1000
78361143,1000,1000,1000,1000,,,,,
78363642,1000,1000,1000,1000,,,,,
78366141,1000,1000,1000,1000,,,,,
78368640,1000,1000,1000,1000,,,,,
78371139,1000,1000,1000,1000,,,,,
78373638,1000,1000,1000,1000,,,,,
78376137,1000,1000,1000,1000,,,,,
78378636,1000,1000,1000,1000,,,,,
78381135,1000,1000,1000,1000,,,,,
78383634,1000,1000,1000,1000,,,,,
78386133,1000,1000,1000,1000,,,,,
78388632,1000,1000,1000,1000,,,,,
78391131,1000,1000,1000,1000,,,,,
78393630,1000,1000,1000,1000,,,,,
78396129,1000,1000,1000,1000,,,,,
78398628,1000,1000,1000,1000,,,,,
78401127,1000,1000,1000,1000,,,,,
78403626,1000,1000,1000,1000,,,,,
78406125,1000,1000,1000,1000,,,,,
78408624,1000,1000,1000,1000,,,,,
78411123,1000,1000,1000,1000,,,,,
78413622,1000,1000,1000,1000,,,,,
78416121,1000,1000,1000,1000,,,,,
78418620,1000,1000,1000,1000,,,,,
78421119,1000,1000,1000,1000,,,,,
78423618,1000,1000,1000,1000,,,,,
78426117,1000,1000,1000,1000,,,,,
78428616,1000,1000,1000,1000,,,,,
78431115,1000,1000,1000,1000,,,,,
78433614,1000,1000,1000,1000,,,,,
78436113,1000,1000,1000,1000,,,,,
78438612,1000,1000,1000,1000,,,,,
78441111,1000,1000,1000,1000,,,,,
78443610,1000,1000,1000,1000,,,,,
78446109,1000,1000,1000,1000,,,,,
78448608,1000,1000,1000,1000,,,,,
78451107,1000,1000,1000,1000,,,,,
78453606,1000,1000,1000,1000,,,,,
78456105,1000,1000,1000,1000,,,,,
78458604,1000,1000,1000,1000,,,,,
78461103,1000,1000,1000,1000,,,,,
78463602,1000,1000,1000,1000,,,,,
78466101,1000,1000,1000,1000,,,,,
78468600,1000,1000,1000,1000,,,,,
78471099,1000,1000,1000,1000,,,,,
78473598,1000,1000,1000,1000,,,,,
78476097,1000,1000,1000,1000,,,,,
78478596,1000,1000,1000,1000,,,,,
78481095,1000,1000,1000,1000,,,,,
78483594,1000,1000,1000,1000,,,,,
78486093,1000,1000,1000,1000,,,,,
78488592,1000,1000,1000,1000,,,,,
78491091,1000,1000,1000,1000,,,,,
78493590,1000,1000,1000,1000,,,,,
78496089,1000,1000,1000,1000,,,,,
78498588,1000,1000,1000,1000,,,,,
78501087,1000,1000,1000,1000,,,,,
78503586,1000,1000,1000,1000,,,,,
78506085,1000,1000,1000,1000,,,,,
78508584,1000,1000,1000,1000,,,,,
78511083,1000,1000,1000,1000,,,,,
78513582,1000,1000,1000,1000,,,,,
78516081,1000,1000,1000,1000,,,,,
78518580,1000,1000,1000,1000,,,,,
78521079,1000,1000,1000,1000,,,,,
78523578,1000,1000,1000,1000,,,,,
78526077,1000,1000,1000,1000,,,,,
78528576,1000,1000,1000,1000,,,,,
78531075,1000,1000,1000,1000,,,,,
78533574,1000,1000,1000,1000,,,,,
78536073,1000,1000,1000,1000,,,,,
78538572,1000,1000,1000,1000,,,,,
78541071,1000,1000,1000,1000,,,,,
78543570,1000,1000,1000,1000,,,,,
78546069,1000,1000,1000,1000,,,,,
78548568,1000,1000,1000,1000,,,,,
78551067,1000,1000,1000,1000,,,,,
78553566,1000,1000,1000,1000,,,,,
78556065,1000,1000,1000,1000,,,,,
78558564,1000,1000,1000,1000,,,,,
78561063,1000,1000,1000,1000,,,,,
78563562,1000,1000,1000,1000,,,,,
78566061,1000,1000,1000,1000,,,,,
78568560,1000,1000,1000,1000,,,,,
78571059,1000,1000,1000,1000,,,,,
78573558,1000,1000,1000,1000,,,,,
78576057,1000,1000,1000,1000,,,,,
78578556,1000,1000,1000,1000,,,,,
78581055,1000,1000,1000,1000,,,,,
78583554,1000,1000,1000,1000,,,,,
78586053,1000,1000,1000,1000,,,,,
78588552,1000,1000,1000,1000,,,,,
78591051,1000,1000,1000,1000,,,,,
78593550,1000,1000,1000,1000,,,,,
78596049,1000,1000,1000,1000,,,,,
78598548,1000,1000,1000,1000,,,,,
78601047,1000,1000,1000,1000,,,,,
78603546,1000,1000,1000,1000,,,,,
78606045,1000,1000,1000,1000,,,,,
78608544,1000,1000,1000,1000,,,,,
78611043,1000,1000,1000,1000,,,,,
78613542,1000,1000,1000,1000,,,,,
78616041,1000,1000,1000,1000,,,,,
78618540,1000,1000,1000,1000,,,,,
78621039,1000,1000,1000,1000,,,,,
78623538,1000,1000,1000,1000,,,,,
78626037,1000,1000,1000,1000,,,,,
78628536,1000,1000,1000,1000,,,,,
78631035,1000,1000,1000,1000,,,,,
78633534,1000,1000,1000,1000,,,,,
78636033,1000,1000,1000,1000,,,,,
78638532,1000,1000,1000,1000,,,,,
78641031,1000,1000,1000,1000,,,,,
78643530,1000,1000,1000,1000,,,,,
78646029,1000,1000,1000,1000,,,,,
78648528,1000,1000,1000,1000,,,,,
78651027,1000,1000,1000,1000,,,,,
78653526,1000,1000,1000,1000,,,,,
78656025,1000,1000,1000,1000,,,,,
78658524,1000,1000,1000,1000,,,,,
78661023,1000,1000,1000,1000,,,,,
78663522,1000,1000,1000,1000,,,,,
78666021,1000,1000,1000,1000,,,,,
78668520,1000,1000,1000,1000,,,,,
78671019,1000,1000,1000,1000,,,,,
78673518,1000,1000,1000,1000,,,,,
78676017,1000,1000,1000,1000,,,,,
78678516,1000,1000,1000,1000,,,,,
78681015,1000,1000,1000,1000,,,,,
78683514,1001,1001,1001,1001,,,,,
78686013,1002,1002,1002,1002,,,,,
78688512,1003,1003,1003,1003,,,,,
78691011,1003,1003,1003,1003,,,,,
78693510,1004,1004,1004,1004,,,,,
78696009,1005,1005,1005,1005,,,,,
78698508,1006,1006,1006,1006,,,,,
78701007,1006,1006,1006,1006,,,,,
78703506,1007,1007,1007,1007,,,,,
78706005,1008,1008,1008,1008,,,,,
78708504,1009,1009,1009,1009,,,,,
78711003,1009,1009,1009,1009,,,,,
78713502,1010,1010,1010,1010,,,,,
78716001,1011,1011,1011,1011,,,,,
78718500,1012,1012,1012,1012,,,,,
78720999,1012,1012,1012,1012,,,,,
78723498,1013,1013,1013,1013,,,,,
78725997,1014,1014,1014,1014,,,,,
78728496,1015,1015,1015,1015,,,,,
78730995,1015,1015,1015,1015,,,,,
78733494,1016,1016,1016,1016,,,,,
78735993,1017,1017,1017,1017,,,,,
78738492,1018,1018,1018,1018,,,,,
78740991,1018,1018,1018,1018,,,,,
78743490,1019,1019,1019,1019,,,,,
78745989,1020,1020,1020,1020,,,,,
78748488,1021,1021,1021,1021,,,,,
78750987,1021,1021,1021,1021,,,,,
78753486,1022,1022,1022,1022,,,,,
78755985,1023,1023,1023,1023,,,,,
78758484,1024,1024,1024,1024,,,,,
78760983,1024,1024,1024,1024,,,,,
78763482,1025,1025,1025,1025,,,,,
78765981,1026,1026,1026,1026,,,,,
78768480,1027,1027,1027,1027,,,,,
78770979,1027,1027,1027,1027,,,,,
78773478,1028,1028,1028,1028,,,,,
78775977,1029,1029,1029,1029,,,,,
78778476,1030,1030,1030,1030,,,,,
78780975,1030,1030,1030,1030,,,,,
78783474,1031,1031,1031,1031,,,,,
78785973,1032,1032,1032,1032,,,,,
78788472,1033,1033,1033,1033,,,,,
78790971,1033,1033,1033,1033,,,,,
78793470,1034,1034,1034,1034,,,,,
78795969,1035,1035,1035,1035,,,,,
78798468,1036,1036,1036,1036,,,,,
78800967,1036,1036,1036,1036,,,,,
78803466,1037,1037,1037,1037,,,,,
78805965,1038,1038,1038,1038,,,,,
78808464,1039,1039,1039,1039,,,,,
78810963,1039,1039,1039,1039,,,,,
78813462,1040,1040,1040,1040,,,,,
78815961,1041,1041,1041,1041,,,,,
78818460,1042,1042,1042,1042,,,,,
78820959,1042,1042,1042,1042,,,,,
78823458,1043,1043,1043,1043,,,,,
78825957,1044,1044,1044,1044,,,,,
78828456,1045,1045,1045,1045,,,,,
78830955,1045,1045,1045,1045,,,,,
78833454,1046,1046,1046,1046,,,,,
78835953,1047,1047,1047,1047,,,,,
78838452,1048,1048,1048,1048,,,,,
78840951,1048,1048,1048,1048,,,,,
78843450,1049,1049,1049,1049,,,,,
78845949,1050,1050,1050,1050,,,,,
78848448,1051,1051,1051,1051,,,,,
78850947,1051,1051,1051,1051,,,,,
78853446,1052,1052,1052,1052,,,,,
78855945,1053,1053,1053,1053,,,,,
78858444,1054,1054,1054,1054,,,,,
78860943,1054,1054,1054,1054,,,,,
78863442,1055,1055,1055,1055,,,,,
78865941,1056,1056,1056,1056,,,,,
78868440,1057,1057,1057,1057,,,,,
78870939,1057,1057,1057,1057,,,,,
78873438,1058,1058,1058,1058,,,,,
78875937,1059,1059,1059,1059,,,,,
78878436,1060,1060,1060,1060,,,,,
78880935,1060,1060,1060,1060,,,,,
78883434,1061,1061,1061,1061,,,,,
78885933,1062,1062,1062,1062,,,,,
78888432,1063,1063,1063,1063,,,,,
78890931,1063,1063,1063,1063,,,,,
78893430,1064,1064,1064,1064,,,,,
78895929,1065,1065,1065,1065,,,,,
78898428,1066,1066,1066,1066,,,,,
78900927,1066,1066,1066,1066,,,,,
78903426,1067,1067,1067,1067,,,,,
78905925,1068,1068,1068,1068,,,,,
78908424,1069,1069,1069,1069,,,,,
78910923,1069,1069,1069,1069,,,,,
78913422,1070,1070,1070,1070,,,,,
78915921,1071,1071,1071,1071,,,,,
78918420,1072,1072,1072,1072,,,,,
78920919,1072,1072,1072,1072,,,,,
78923418,1073,1073,1073,1073,,,,,
78925917,1074,1074,1074,1074,,,,,
78928416,1075,1075,1075,1075,,,,,
78930915,1075,1075,1075,1075,,,,,
78933414,1076,1076,1076,1076,,,,,
78935913,1077,1077,1077,1077,,,,,
78938412,1078,1078,1078,1078,,,,,
78940911,1078,1078,1078,1078,,,,,
78943410,1079,1079,1079,1079,,,,,
78945909,1080,1080,1080,1080,,,,,
78948408,1081,1081,1081,1081,,,,,
78950907,1081,1081,1081,1081,,,,,
78953406,1082,1082,1082,1082,,,,,
78955905,1083,1083,1083,1083,,,,,
78958404,1084,1084,1084,1084,,,,,
78960903,1084,1084,1084,1084,,,,,
78963402,1085,1085,1085,1085,,,,,
78965901,1086,1086,1086,1086,,,,,
78968400,1087,1087,1087,1087,,,,,
78970899,1087,1087,1087,1087,,,,,
78973398,1088,1088,1088,1088,,,,,
78975897,1089,1089,1089,1089,,,,,
78978396,1090,1090,1090,1090,,,,,
78980895,1090,1090,1090,1090,,,,,
78983394,1091,1091,1091,1091,,,,,
78985893,1092,1092,1092,1092,,,,,
78988392,1093,1093,1093,1093,,,,,
78990891,1093,1093,1093,1093,,,,,
78993390,1094,1094,1094,1094,,,,,
78995889,1095,1095,1095,1095,,,,,
78998388,1096,1096,1096,1096,,,,,
79000887,1096,1096,1096,1096,,,,,
79003386,1097,1097,1097,1097,,,,,
79005885,1098,1098,1098,1098,,,,,
79008384,1099,1099,1099,1099,,,,,
79010883,1099,1099,1099,1099,,,,,
79013382,1100,1100,1100,1100,,,,,
79015881,1101,1101,1101,1101,,,,,
79018380,1101,1101,1101,1101,,,,,
79020879,1102,1102,1102,1102,,,,,
79023378,1103,1103,1103,1103,,,,,
79025877,1104,1104,1104,1104,,,,,
79028376,1104,1104,1104,1104,,,,,
79030875,1105,1105,1105,1105,,,,,
79033374,1106,1106,1106,1106,,,,,
79035873,1107,1107,1107,1107,,,,,
79038372,1107,1107,1107,1107,,,,,
79040871,1108,1108,1108,1108,,,,,
79043370,1109,1109,1109,1109,,,,,
79045869,1110,1110,1110,1110,,,,,
79048368,1110,1110,1110,1110,,,,,
79050867,1111,1111,1111,1111,,,,,
79053366,1112,1112,1112,1112,,,,,
79055865,1113,1113,1113,1113,,,,,
79058364,1113,1113,1113,1113,,,,,
79060863,1114,1114,1114,1114,,,,,
79063362,1115,1115,1115,1115,,,,,
79065861,1116,1116,1116,1116,,,,,
79068360,1116,1116,1116,1116,,,,,
79070859,1117,1117,1117,1117,,,,,
79073358,1118,1118,1118,1118,,,,,
79075857,1119,1119,1119,1119,,,,,
79078356,1119,1119,1119,1119,,,,,
79080855,1120,1120,1120,1120,,,,,
79083354,1121,1121,1121,1121,,,,,
79085853,1122,1122,1122,1122,,,,,
79088352,1122,1122,1122,1122,,,,,
79090851,1123,1123,1123,1123,,,,,
79093350,1124,1124,1124,1124,,,,,
79095849,1125,1125,1125,1125,,,,,
79098348,1125,1125,1125,1125,,,,,
79100847,1126,1126,1126,1126,,,,,
79103346,1127,1127,1127,1127,,,,,
79105845,1128,1128,1128,1128,,,,,
79108344,1128,1128,1128,1128,,,,,
79110843,1129,1129,1129,1129,,,,,
79113342,1130,1130,1130,1130,,,,,
79115841,1131,1131,1131,1131,,,,,
79118340,1131,1131,1131,1131,,,,,
79120839,1132,1132,1132,1132,,,,,
79123338,1133,1133,1133,1133,,,,,
79125837,1134,1134,1134,1134,,,,,
79128336,1134,1134,1134,1134,,,,,
79130835,1135,1135,1135,1135,,,,,
79133334,1136,1136,1136,1136,,,,,
79135833,1137,1137,1137,1137,,,,,
79138332,1137,1137,1137,1137,,,,,
79140831,1138,1138,1138,1138,,,,,
79143330,1139,1139,1139,1139,,,,,
79145829,1140,1140,1140,1140,,,,,
79148328,1140,1140,1140,1140,,,,,
79150827,1141,1141,1141,1141,,,,,
79153326,1142,1142,1142,1142,,,,,
79155825,1143,1143,1143,1143,,,,,
79158324,1143,1143,1143,1143,,,,,
79160823,1144,1144,1144,1144,,,,,
79163322,1145,1145,1145,1145,,,,,
79165821,1146,1146,1146,1146,,,,,
79168320,1146,1146,1146,1146,,,,,
79170819,1147,1147,1147,1147,,,,,
79173318,1148,1148,1148,1148,,,,,
79175817,1149,1149,1149,1149,,,,,
79178316,1149,1149,1149,1149,,,,,
79180815,1150,1150,1150,1150,,,,,
79183314,1164,1151,1152,1164,,,,,
79185813,1172,1159,1160,1172,,,,,
79188312,1179,1167,1168,1180,,,,,
79190811,1187,1175,1176,1188,,,,,
79193310,1194,1183,1184,1195,,,,,
79195809,1202,1190,1191,1203,,,,,
79198308,1209,1198,1199,1210,,,,,
79200807,1216,1205,1206,1217,,,,,
79203306,1223,1212,1213,1224,,,,,
79205805,1230,1219,1220,1231,,,,,
79208304,1237,1226,1227,1238,,,,,
79210803,1244,1233,1234,1245,,,,,
79213302,1251,1240,1241,1251,,,,,
79215801,1257,1247,1248,1258,,,,,
79218300,1264,1254,1254,1264,,,,,
79220799,1270,1260,1261,1271,,,,,
79223298,1277,1266,1267,1277,,,,,
79225797,1283,1273,1274,1283,,,,,
79228296,1289,1279,1280,1290,,,,,
79230795,1295,1285,1286,1296,,,,,
79233294,1301,1292,1292,1302,,,,,
79235793,1307,1298,1298,1308,,,,,
79238292,1313,1304,1304,1314,,,,,
79240791,1319,1310,1310,1320,,,,,
79243290,1325,1315,1316,1325,,,,,
79245789,1331,1321,1322,1331,,,,,
79248288,1336,1327,1328,1337,,,,,
79250787,1342,1333,1333,1342,,,,,
79253286,1347,1338,1339,1348,,,,,
79255785,1353,1344,1345,1354,,,,,
79258284,1359,1349,1350,1359,,,,,
79260783,1364,1355,1356,1364,,,,,
79263282,1369,1360,1361,1370,,,,,
79265781,1375,1366,1366,1375,,,,,
79268280,1380,1371,1372,1381,,,,,
79270779,1385,1376,1377,1386,,,,,
79273278,1391,1382,1382,1391,,,,,
79275777,1396,1387,1388,1396,,,,,
79278276,1401,1392,1393,1401,,,,,
79280775,1406,1397,1398,1406,,,,,
79283274,1411,1402,1403,1411,,,,,
79285773,1416,1407,1408,1416,,,,,
79288272,1421,1412,1413,1421,,,,,
79290771,1426,1417,1418,1426,,,,,
79293270,1431,1422,1423,1431,,,,,
79295769,1436,1427,1428,1436,,,,,
79298268,1441,1432,1433,1441,,,,,
79300767,1445,1437,1437,1446,,,,,
79303266,1450,1442,1442,1450,,,,,
79305765,1455,1446,1447,1455,,,,,
79308264,1460,1451,1452,1460,,,,,
79310763,1464,1456,1456,1465,,,,,
79313262,1469,1460,1461,1469,,,,,
79315761,1474,1465,1466,1474,,,,,
79318260,1478,1470,1470,1479,,,,,
79320759,1483,1474,1475,1483,,,,,
79323258,1487,1479,1479,1488,,,,,
79325757,1492,1483,1484,1492,,,,,
79328256,1496,1488,1488,1497,,,,,
79330755,1501,1492,1493,1501,,,,,
79333254,1505,1497,1497,1505,,,,,
79335753,1509,1501,1502,1510,,,,,
79338252,1514,1506,1506,1514,,,,,
79340751,1518,1510,1511,1518,,,,,
79343250,1522,1514,1515,1523,,,,,
79345749,1527,1519,1519,1527,,,,,
79348248,1531,1523,1523,1531,,,,,
79350747,1535,1527,1528,1536,,,,,
79353246,1539,1531,1532,1540,,,,,
79355745,1544,1536,1536,1544,,,,,
79358244,1548,1540,1540,1548,,,,,
79360743,1552,1544,1545,1552,,,,,
79363242,1556,1548,1549,1556,,,,,
79365741,1560,1552,1553,1561,,,,,
79368240,1564,1557,1557,1565,,,,,
79370739,1568,1561,1561,1569,,,,,
79373238,1572,1565,1565,1573,,,,,
79375737,1576,1569,1569,1577,,,,,
79378236,1580,1573,1573,1581,,,,,
79380735,1584,1577,1577,1585,,,,,
79383234,1588,1581,1581,1589,,,,,
79385733,1592,1585,1585,1593,,,,,
79388232,1596,1589,1589,1597,,,,,
79390731,1600,1593,1593,1601,,,,,
79393230,1604,1597,1597,1604,,,,,
79395729,1608,1601,1601,1608,,,,,
79398228,1612,1604,1605,1612,,,,,
79400727,1616,1608,1609,1616,,,,,
79403226,1619,1612,1613,1620,,,,,
79405725,1623,1616,1616,1624,,,,,
79408224,1627,1620,1620,1627,,,,,
79410723,1631,1624,1624,1631,,,,,
79413222,1634,1628,1628,1635,,,,,
79415721,1638,1631,1632,1639,,,,,
79418220,1642,1635,1635,1642,,,,,
79420719,1646,1639,1639,1646,,,,,
79423218,1649,1643,1643,1650,,,,,
79425717,1653,1646,1647,1654,,,,,
79428216,1657,1650,1650,1657,,,,,
79430715,1660,1654,1654,1661,,,,,
79433214,1664,1657,1658,1665,,,,,
79435713,1668,1661,1661,1668,,,,,
79438212,1671,1665,1665,1672,,,,,
79440711,1675,1668,1668,1675,,,,,
79443210,1678,1672,1672,1679,,,,,
79445709,1682,1675,1676,1683,,,,,
79448208,1686,1679,1679,1686,,,,,
79450707,1689,1682,1683,1690,,,,,
79453206,1693,1686,1686,1693,,,,,
79455705,1696,1690,1690,1697,,,,,
79458204,1700,1693,1693,1700,,,,,
79460703,1703,1697,1697,1704,,,,,
79463202,1707,1700,1700,1707,,,,,
79465701,1710,1704,1704,1711,,,,,
79468200,1714,1707,1707,1714,,,,,
79470699,1717,1710,1711,1718,,,,,
79473198,1720,1714,1714,1721,,,,,
79475697,1724,1717,1717,1724,,,,,
79478196,1727,1721,1721,1728,,,,,
79480695,1731,1724,1724,1731,,,,,
79483194,1734,1727,1728,1735,,,,,
79485693,1738,1731,1731,1738,,,,,
79488192,1741,1734,1734,1741,,,,,
79490691,1744,1737,1738,1745,,,,,
79493190,1748,1741,1741,1748,,,,,
79495689,1751,1744,1744,1751,,,,,
79498188,1754,1747,1748,1755,,,,,
79500687,1758,1751,1751,1758,,,,,
79503186,1761,1754,1754,1761,,,,,
79505685,1764,1757,1758,1765,,,,,
79508184,1767,1761,1761,1768,,,,,
79510683,1771,1764,1764,1771,,,,,
79513182,1774,1767,1768,1774,,,,,
79515681,1777,1770,1771,1778,,,,,
79518180,1781,1774,1774,1781,,,,,
79520679,1784,1777,1777,1784,,,,,
79523178,1787,1780,1780,1787,,,,,
79525677,1790,1783,1784,1791,,,,,
79528176,1793,1786,1787,1794,,,,,
79530675,1797,1790,1790,1797,,,,,
79533174,1800,1793,1793,1800,,,,,
79535673,1803,1796,1796,1803,,,,,
79538172,1806,1799,1799,1806,,,,,
79540671,1809,1802,1803,1810,,,,,
79543170,1812,1805,1806,1813,,,,,
79545669,1815,1809,1809,1816,,,,,
79548168,1819,1812,1812,1819,,,,,
79550667,1822,1815,1815,1822,,,,,
79553166,1825,1818,1818,1825,,,,,
79555665,1828,1821,1821,1828,,,,,
79558164,1831,1824,1824,1831,,,,,
79560663,1834,1827,1827,1834,,,,,
79563162,1837,1830,1830,1838,,,,,
79565661,1840,1833,1833,1841,,,,,
79568160,1843,1836,1837,1844,,,,,
79570659,1846,1839,1840,1847,,,,,
79573158,1849,1842,1843,1850,,,,,
79575657,1852,1845,1846,1853,,,,,
79578156,1855,1848,1849,1856,,,,,
79580655,1858,1851,1852,1859,,,,,
79583154,1861,1854,1855,1862,,,,,
79586486,1864,1857,1858,1865,,,,,
79588985,1867,1860,1861,1868,,,,,
79591484,1870,1863,1863,1871,,,,,
79593983,1873,1866,1866,1874,,,,,
79596482,1876,1869,1869,1877,,,,,
79598981,1879,1872,1872,1880,,,,,
79601480,1882,1875,1875,1883,,,,,
79603979,1885,1878,1878,1886,,,,,
79606478,1888,1881,1881,1889,,,,,
79608977,1891,1884,1884,1891,,,,,
79611476,1894,1887,1887,1894,,,,,
79613975,1896,1890,1890,1897,,,,,
79616474,1899,1893,1893,1900,,,,,
79618973,1902,1896,1896,1903,,,,,
79621472,1904,1897,1897,1904,,,,,
79623971,1903,1896,1896,1904,,,,,
79626470,1902,1895,1895,1903,,,,,
79628969,1901,1894,1894,1902,,,,,
79631468,1900,1893,1893,1901,,,,,
79633967,1899,1893,1892,1900,,,,,
79636466,1898,1892,1892,1899,,,,,
79638965,1898,1891,1891,1898,,,,,
79641464,1897,1890,1890,1898,,,,,
79643963,1896,1890,1889,1897,,,,,
79646462,1896,1889,1889,1897,,,,,
79648961,1895,1888,1888,1896,,,,,
79651460,1895,1888,1888,1896,,,,,
79653959,1895,1888,1888,1895,,,,,
79656458,1894,1887,1887,1895,,,,,
79658957,1894,1887,1887,1895,,,,,
79661456,1894,1887,1887,1895,,,,,
79663955,1894,1887,1887,1895,,,,,
79666454,1894,1887,1887,1895,,,,,
79668953,1894,1887,1887,1895,,,,,
79671452,1895,1888,1888,1896,,,,,
79673951,1895,1888,1888,1896,,,,,
79676450,1895,1888,1888,1896,,,,,
79678949,1895,1889,1889,1896,,,,,
79681448,1895,1889,1889,1896,,,,,
79683947,1895,1889,1889,1896,,,,,
79686446,1895,1890,1889,1896,,,,,
79688945,1895,1890,1889,1896,,,,,
79691444,1895,1889,1889,1896,,,,,
79693943,1894,1889,1889,1895,,,,,
79696442,1894,1889,1889,1895,,,,,
79698941,1893,1888,1888,1894,,,,,
79701440,1892,1888,1887,1893,,,,,
79703939,1891,1887,1887,1892,,,,,
79706438,1890,1886,1885,1891,,,,,
79708937,1889,1884,1884,1890,,,,,
79711436,1887,1883,1883,1888,,,,,
79713935,1886,1881,1882,1887,,,,,
79716434,1884,1880,1880,1885,,,,,
79718933,1882,1878,1878,1883,,,,,
79721432,1880,1876,1876,1881,,,,,
79723931,1878,1874,1874,1879,,,,,
79726430,1876,1872,1872,1877,,,,,
79728929,1874,1870,1870,1874,,,,,
79731428,1872,1867,1868,1872,,,,,
79733927,1869,1865,1865,1870,,,,,
79736426,1867,1863,1863,1867,,,,,
79738925,1864,1860,1860,1864,,,,,
79741424,1861,1857,1858,1862,,,,,
79743923,1858,1855,1855,1859,,,,,
79746422,1856,1852,1852,1856,,,,,
79748921,1853,1849,1849,1853,,,,,
79751420,1850,1846,1846,1850,,,,,
79753919,1847,1843,1843,1847,,,,,
79756418,1843,1840,1840,1844,,,,,
79758917,1840,1837,1837,1841,,,,,
79761416,1837,1834,1834,1837,,,,,
79763915,1834,1831,1831,1834,,,,,
79766414,1831,1828,1828,1831,,,,,
79768913,1827,1824,1825,1828,,,,,
79771412,1824,1821,1822,1824,,,,,
79773911,1821,1818,1818,1821,,,,,
79776410,1817,1815,1815,1818,,,,,
79778909,1814,1811,1812,1814,,,,,
79781408,1811,1808,1809,1811,,,,,
79783907,1807,1805,1805,1807,,,,,
79786406,1804,1802,1802,1804,,,,,
79788905,1800,1798,1799,1801,,,,,
79791404,1797,1795,1796,1797,,,,,
79793903,1794,1792,1792,1794,,,,,
79796402,1790,1789,1789,1790,,,,,
79798901,1787,1785,1786,1787,,,,,
79801400,1783,1782,1782,1784,,,,,
79803899,1780,1779,1779,1780,,,,,
79806398,1777,1775,1776,1777,,,,,
79808897,1773,1772,1773,1774,,,,,
79811396,1770,1769,1769,1770,,,,,
79813895,1767,1766,1766,1767,,,,,
79816394,1763,1763,1763,1764,,,,,
79818893,1760,1759,1760,1760,,,,,
79821392,1757,1756,1757,1757,,,,,
79823891,1754,1753,1754,1754,,,,,
79826390,1750,1750,1750,1751,,,,,
79828889,1747,1747,1747,1748,,,,,
79831388,1744,1744,1744,1744,,,,,
79833887,1741,1741,1741,1741,,,,,
79836386,1738,1738,1738,1738,,,,,
79838885,1735,1735,1735,1735,,,,,
79841384,1732,1732,1732,1732,,,,,
79843883,1729,1729,1729,1729,,,,,
79846382,1726,1726,1727,1726,,,,,
79848881,1723,1723,1724,1723,,,,,
79851380,1720,1720,1721,1720,,,,,
79853879,1717,1718,1718,1718,,,,,
79856378,1714,1715,1715,1715,,,,,
79858877,1712,1712,1713,1712,,,,,
