timestamp,TimeUS,C1,C2,C3,C4,C5,C6,C7,C8,C9,C10,C11,C12,C13,C14
1709536948.79999995,48828794,1000,1000,1000,1000,0,0,0,0,0,0,0,0,0,0
1709536948.89996004,48928754,1000,1000,1000,1000,0,0,0,0,0,0,0,0,0,0
1709536948.99991989,49028714,1000,1000,1000,1000,0,0,0,0,0,0,0,0,0,0
1709536949.09987998,49128674,1000,1000,1000,1000,0,0,0,0,0,0,0,0,0,0
1709536949.19984007,49228634,1000,1000,1000,1000,0,0,0,0,0,0,0,0,0,0
1709536949.29979992,49328594,1000,1000,1000,1000,0,0,0,0,0,0,0,0,0,0
1709536949.39976001,49428554,1000,1000,1000,1000,0,0,0,0,0,0,0,0,0,0
1709536949.49971986,49528514,1000,1000,1000,1000,0,0,0,0,0,0,0,0,0,0
1709536949.59967995,49628474,1000,1000,1000,1000,0,0,0,0,0,0,0,0,0,0
1709536949.69964004,49728434,1000,1000,1000,1000,0,0,0,0,0,0,0,0,0,0
1709536949.79959989,49828394,1000,1000,1000,1000,0,0,0,0,0,0,0,0,0,0
1709536949.89955997,49928354,1000,1000,1000,1000,0,0,0,0,0,0,0,0,0,0
1709536949.99952006,50028314,1000,1000,1000,1000,0,0,0,0,0,0,0,0,0,0
1709536950.09947991,50128274,1000,1000,1000,1000,0,0,0,0,0,0,0,0,0,0
1709536950.19944000,50228234,1000,1000,1000,1000,0,0,0,0,0,0,0,0,0,0
1709536950.29939985,50328194,1000,1000,1000,1000,0,0,0,0,0,0,0,0,0,0
1709536950.39935994,50428154,1000,1000,1000,1000,0,0,0,0,0,0,0,0,0,0
1709536950.50015306,50528947,1000,1000,1000,1000,0,0,0,0,0,0,0,0,0,0
1709536950.60011292,50628907,1000,1000,1000,1000,0,0,0,0,0,0,0,0,0,0
1709536950.70007300,50728867,1000,1000,1000,1000,0,0,0,0,0,0,0,0,0,0
1709536950.80003285,50828827,1003,1003,1003,1003,0,0,0,0,0,0,0,0,0,0
1709536950.89999294,50928787,1033,1033,1033,1033,0,0,0,0,0,0,0,0,0,0
1709536950.99995303,51028747,1063,1063,1063,1063,0,0,0,0,0,0,0,0,0,0
1709536951.09991288,51128707,1093,1093,1093,1093,0,0,0,0,0,0,0,0,0,0
1709536951.19987297,51228667,1123,1123,1123,1123,0,0,0,0,0,0,0,0,0,0
1709536951.29983306,51328627,1185,1177,1178,1186,0,0,0,0,0,0,0,0,0,0
1709536951.39979291,51428587,1424,1419,1419,1425,0,0,0,0,0,0,0,0,0,0
1709536951.49975300,51528547,1599,1594,1594,1599,0,0,0,0,0,0,0,0,0,0
1709536951.59971285,51628507,1743,1739,1739,1743,0,0,0,0,0,0,0,0,0,0
1709536951.69967294,51728467,1869,1865,1865,1869,0,0,0,0,0,0,0,0,0,0
1709536951.79963303,51828427,1905,1902,1902,1905,0,0,0,0,0,0,0,0,0,0
1709536951.89959288,51928387,1805,1804,1804,1805,0,0,0,0,0,0,0,0,0,0
1709536951.99955297,52028347,1689,1690,1690,1689,0,0,0,0,0,0,0,0,0,0
1709536952.09951305,52128307,1639,1641,1641,1639,0,0,0,0,0,0,0,0,0,0
1709536952.19947290,52228267,1636,1638,1638,1636,0,0,0,0,0,0,0,0,0,0
1709536952.29943299,52328227,1643,1644,1644,1643,0,0,0,0,0,0,0,0,0,0
1709536952.39939284,52428187,1644,1644,1644,1644,0,0,0,0,0,0,0,0,0,0
1709536952.50018597,52528980,1626,1625,1618,1632,0,0,0,0,0,0,0,0,0,0
1709536952.60014606,52628940,1612,1612,1603,1621,0,0,0,0,0,0,0,0,0,0
1709536952.70010591,52728900,1605,1605,1600,1609,0,0,0,0,0,0,0,0,0,0
1709536952.80006599,52828860,1604,1604,1604,1604,0,0,0,0,0,0,0,0,0,0
1709536952.90002584,52928820,1606,1607,1610,1603,0,0,0,0,0,0,0,0,0,0
1709536952.99998593,53028780,1612,1612,1616,1608,0,0,0,0,0,0,0,0,0,0
1709536953.09994602,53128740,1584,1584,1601,1567,0,0,0,0,0,0,0,0,0,0
1709536953.19990587,53228700,1571,1571,1587,1556,0,0,0,0,0,0,0,0,0,0
1709536953.29986596,53328660,1560,1560,1566,1556,0,0,0,0,0,0,0,0,0,0
1709536953.39982605,53428620,1550,1550,1546,1556,0,0,0,0,0,0,0,0,0,0
1709536953.49978590,53528580,1543,1542,1531,1555,0,0,0,0,0,0,0,0,0,0
1709536953.59974599,53628540,1536,1536,1524,1548,0,0,0,0,0,0,0,0,0,0
1709536953.69970584,53728500,1531,1530,1522,1538,0,0,0,0,0,0,0,0,0,0
1709536953.79966593,53828460,1526,1526,1523,1529,0,0,0,0,0,0,0,0,0,0
1709536953.89962602,53928420,1526,1525,1526,1525,0,0,0,0,0,0,0,0,0,0
1709536953.99958587,54028380,1528,1528,1530,1526,0,0,0,0,0,0,0,0,0,0
1709536954.09954596,54128340,1531,1531,1533,1528,0,0,0,0,0,0,0,0,0,0
1709536954.19950604,54228300,1534,1534,1537,1531,0,0,0,0,0,0,0,0,0,0
1709536954.29946589,54328260,1538,1538,1541,1535,0,0,0,0,0,0,0,0,0,0
1709536954.39942598,54428220,1542,1542,1544,1540,0,0,0,0,0,0,0,0,0,0
1709536954.49938583,54528180,1545,1545,1546,1545,0,0,0,0,0,0,0,0,0,0
1709536954.60017896,54628973,1547,1548,1547,1548,0,0,0,0,0,0,0,0,0,0
1709536954.70013905,54728933,1551,1551,1550,1552,0,0,0,0,0,0,0,0,0,0
1709536954.80009890,54828893,1554,1554,1552,1555,0,0,0,0,0,0,0,0,0,0
1709536954.90005898,54928853,1552,1551,1558,1562,0,0,0,0,0,0,0,0,0,0
1709536955.00001884,55028813,1552,1552,1562,1564,0,0,0,0,0,0,0,0,0,0
1709536955.09997892,55128773,1555,1556,1564,1565,0,0,0,0,0,0,0,0,0,0
1709536955.19993901,55228733,1560,1560,1565,1565,0,0,0,0,0,0,0,0,0,0
1709536955.29989886,55328693,1563,1563,1565,1564,0,0,0,0,0,0,0,0,0,0
1709536955.39985895,55428653,1565,1566,1564,1563,0,0,0,0,0,0,0,0,0,0
1709536955.49981904,55528613,1568,1569,1564,1564,0,0,0,0,0,0,0,0,0,0
1709536955.59977889,55628573,1570,1570,1565,1565,0,0,0,0,0,0,0,0,0,0
1709536955.69973898,55728533,1572,1572,1565,1566,0,0,0,0,0,0,0,0,0,0
1709536955.79969907,55828493,1573,1572,1566,1566,0,0,0,0,0,0,0,0,0,0
1709536955.89965892,55928453,1573,1573,1567,1567,0,0,0,0,0,0,0,0,0,0
1709536955.99961901,56028413,1574,1573,1568,1569,0,0,0,0,0,0,0,0,0,0
1709536956.09957886,56128373,1574,1574,1570,1571,0,0,0,0,0,0,0,0,0,0
1709536956.19953895,56228333,1575,1575,1573,1573,0,0,0,0,0,0,0,0,0,0
1709536956.29949903,56328293,1574,1575,1575,1574,0,0,0,0,0,0,0,0,0,0
1709536956.39945889,56428253,1574,1574,1576,1574,0,0,0,0,0,0,0,0,0,0
1709536956.49941897,56528213,1575,1575,1577,1576,0,0,0,0,0,0,0,0,0,0
1709536956.59937906,56628173,1575,1575,1577,1577,0,0,0,0,0,0,0,0,0,0
1709536956.70017195,56728966,1575,1575,1577,1577,0,0,0,0,0,0,0,0,0,0
1709536956.80013204,56828926,1575,1575,1578,1577,0,0,0,0,0,0,0,0,0,0
1709536956.90009189,56928886,1575,1576,1577,1578,0,0,0,0,0,0,0,0,0,0
1709536957.00005198,57028846,1576,1576,1577,1577,0,0,0,0,0,0,0,0,0,0
1709536957.10001206,57128806,1576,1577,1577,1578,0,0,0,0,0,0,0,0,0,0
1709536957.19997191,57228766,1576,1576,1577,1576,0,0,0,0,0,0,0,0,0,0
1709536957.29993200,57328726,1578,1577,1577,1577,0,0,0,0,0,0,0,0,0,0
1709536957.39989185,57428686,1577,1577,1577,1576,0,0,0,0,0,0,0,0,0,0
1709536957.49985194,57528646,1578,1578,1577,1578,0,0,0,0,0,0,0,0,0,0
1709536957.59981203,57628606,1577,1577,1576,1576,0,0,0,0,0,0,0,0,0,0
1709536957.69977188,57728566,1577,1578,1577,1576,0,0,0,0,0,0,0,0,0,0
1709536957.79973197,57828526,1578,1578,1578,1577,0,0,0,0,0,0,0,0,0,0
1709536957.89969206,57928486,1578,1578,1577,1578,0,0,0,0,0,0,0,0,0,0
1709536957.99965191,58028446,1578,1577,1577,1577,0,0,0,0,0,0,0,0,0,0
1709536958.09961200,58128406,1578,1578,1578,1578,0,0,0,0,0,0,0,0,0,0
1709536958.19957185,58228366,1578,1578,1578,1578,0,0,0,0,0,0,0,0,0,0
1709536958.29953194,58328326,1578,1578,1578,1578,0,0,0,0,0,0,0,0,0,0
1709536958.39949203,58428286,1578,1579,1579,1579,0,0,0,0,0,0,0,0,0,0
1709536958.49945188,58528246,1578,1578,1579,1579,0,0,0,0,0,0,0,0,0,0
1709536958.59941196,58628206,1578,1578,1579,1579,0,0,0,0,0,0,0,0,0,0
1709536958.69937205,58728166,1579,1579,1579,1579,0,0,0,0,0,0,0,0,0,0
1709536958.80016494,58828959,1578,1579,1579,1578,0,0,0,0,0,0,0,0,0,0
1709536958.90012503,58928919,1579,1579,1579,1579,0,0,0,0,0,0,0,0,0,0
1709536959.00008488,59028879,1579,1579,1579,1579,0,0,0,0,0,0,0,0,0,0
1709536959.10004497,59128839,1579,1579,1580,1579,0,0,0,0,0,0,0,0,0,0
1709536959.20000505,59228799,1579,1579,1579,1579,0,0,0,0,0,0,0,0,0,0
1709536959.29996490,59328759,1579,1579,1579,1580,0,0,0,0,0,0,0,0,0,0
1709536959.39992499,59428719,1579,1579,1579,1579,0,0,0,0,0,0,0,0,0,0
1709536959.49988484,59528679,1579,1579,1579,1579,0,0,0,0,0,0,0,0,0,0
1709536959.59984493,59628639,1579,1579,1579,1579,0,0,0,0,0,0,0,0,0,0
1709536959.69980502,59728599,1581,1580,1580,1580,0,0,0,0,0,0,0,0,0,0
1709536959.79976487,59828559,1580,1580,1580,1579,0,0,0,0,0,0,0,0,0,0
1709536959.89972496,59928519,1581,1581,1581,1581,0,0,0,0,0,0,0,0,0,0
1709536959.99968505,60028479,1580,1581,1580,1580,0,0,0,0,0,0,0,0,0,0
1709536960.09964490,60128439,1580,1580,1580,1580,0,0,0,0,0,0,0,0,0,0
1709536960.19960499,60228399,1580,1581,1580,1581,0,0,0,0,0,0,0,0,0,0
1709536960.29956484,60328359,1580,1580,1580,1581,0,0,0,0,0,0,0,0,0,0
1709536960.39952493,60428319,1581,1581,1581,1581,0,0,0,0,0,0,0,0,0,0
1709536960.49948502,60528279,1581,1581,1581,1580,0,0,0,0,0,0,0,0,0,0
1709536960.59944487,60628239,1580,1580,1581,1580,0,0,0,0,0,0,0,0,0,0
1709536960.69940495,60728199,1580,1580,1580,1581,0,0,0,0,0,0,0,0,0,0
1709536960.79936504,60828159,1580,1580,1580,1580,0,0,0,0,0,0,0,0,0,0
1709536960.90015793,60928952,1582,1581,1582,1582,0,0,0,0,0,0,0,0,0,0
1709536961.00011802,61028912,1581,1581,1581,1581,0,0,0,0,0,0,0,0,0,0
1709536961.10007787,61128872,1581,1582,1586,1576,0,0,0,0,0,0,0,0,0,0
1709536961.20003796,61228832,1581,1583,1588,1574,0,0,0,0,0,0,0,0,0,0
1709536961.29999804,61328792,1579,1582,1580,1574,0,0,0,0,0,0,0,0,0,0
1709536961.39995790,61428752,1577,1580,1570,1572,0,0,0,0,0,0,0,0,0,0
1709536961.49991798,61528712,1577,1580,1563,1570,0,0,0,0,0,0,0,0,0,0
1709536961.59987783,61628672,1578,1580,1559,1566,0,0,0,0,0,0,0,0,0,0
1709536961.69983792,61728632,1579,1578,1556,1561,0,0,0,0,0,0,0,0,0,0
1709536961.79979801,61828592,1580,1578,1556,1557,0,0,0,0,0,0,0,0,0,0
1709536961.89975786,61928552,1580,1579,1557,1555,0,0,0,0,0,0,0,0,0,0
1709536961.99971795,62028512,1578,1578,1557,1553,0,0,0,0,0,0,0,0,0,0
1709536962.09967804,62128472,1576,1576,1555,1552,0,0,0,0,0,0,0,0,0,0
1709536962.19963789,62228432,1576,1577,1555,1554,0,0,0,0,0,0,0,0,0,0
1709536962.29959798,62328392,1575,1576,1554,1554,0,0,0,0,0,0,0,0,0,0
1709536962.39955807,62428352,1575,1576,1554,1554,0,0,0,0,0,0,0,0,0,0
1709536962.49951792,62528312,1574,1576,1552,1552,0,0,0,0,0,0,0,0,0,0
1709536962.59947801,62628272,1576,1578,1551,1551,0,0,0,0,0,0,0,0,0,0
1709536962.69943786,62728232,1578,1579,1549,1549,0,0,0,0,0,0,0,0,0,0
1709536962.79939795,62828192,1579,1580,1546,1546,0,0,0,0,0,0,0,0,0,0
1709536962.90019107,62928985,1582,1583,1544,1543,0,0,0,0,0,0,0,0,0,0
1709536963.00015092,63028945,1585,1586,1541,1541,0,0,0,0,0,0,0,0,0,0
1709536963.10011101,63128905,1589,1589,1539,1539,0,0,0,0,0,0,0,0,0,0
1709536963.20007086,63228865,1592,1592,1537,1537,0,0,0,0,0,0,0,0,0,0
1709536963.30003095,63328825,1594,1594,1535,1536,0,0,0,0,0,0,0,0,0,0
1709536963.39999104,63428785,1595,1595,1535,1536,0,0,0,0,0,0,0,0,0,0
1709536963.49995089,63528745,1595,1595,1536,1538,0,0,0,0,0,0,0,0,0,0
1709536963.59991097,63628705,1593,1594,1537,1540,0,0,0,0,0,0,0,0,0,0
1709536963.69987106,63728665,1591,1590,1542,1545,0,0,0,0,0,0,0,0,0,0
1709536963.79983091,63828625,1586,1584,1549,1552,0,0,0,0,0,0,0,0,0,0
1709536963.89979100,63928585,1579,1575,1558,1561,0,0,0,0,0,0,0,0,0,0
1709536963.99975085,64028545,1570,1566,1570,1571,0,0,0,0,0,0,0,0,0,0
1709536964.09971094,64128505,1558,1554,1581,1583,0,0,0,0,0,0,0,0,0,0
1709536964.19967103,64228465,1548,1544,1594,1594,0,0,0,0,0,0,0,0,0,0
1709536964.29963088,64328425,1537,1536,1603,1603,0,0,0,0,0,0,0,0,0,0
1709536964.39959097,64428385,1531,1532,1611,1610,0,0,0,0,0,0,0,0,0,0
1709536964.49955106,64528345,1528,1530,1615,1613,0,0,0,0,0,0,0,0,0,0
1709536964.59951091,64628305,1529,1531,1614,1613,0,0,0,0,0,0,0,0,0,0
1709536964.69947100,64728265,1535,1536,1612,1611,0,0,0,0,0,0,0,0,0,0
1709536964.79943085,64828225,1541,1543,1606,1606,0,0,0,0,0,0,0,0,0,0
1709536964.89939094,64928185,1549,1550,1598,1599,0,0,0,0,0,0,0,0,0,0
1709536965.00018406,65028978,1558,1559,1591,1591,0,0,0,0,0,0,0,0,0,0
1709536965.10014391,65128938,1568,1568,1585,1584,0,0,0,0,0,0,0,0,0,0
1709536965.20010400,65228898,1575,1574,1577,1576,0,0,0,0,0,0,0,0,0,0
1709536965.30006385,65328858,1581,1580,1572,1572,0,0,0,0,0,0,0,0,0,0
1709536965.40002394,65428818,1585,1584,1568,1568,0,0,0,0,0,0,0,0,0,0
1709536965.49998403,65528778,1588,1587,1567,1567,0,0,0,0,0,0,0,0,0,0
1709536965.59994388,65628738,1587,1586,1565,1566,0,0,0,0,0,0,0,0,0,0
1709536965.69990396,65728698,1586,1585,1567,1567,0,0,0,0,0,0,0,0,0,0
1709536965.79986405,65828658,1584,1583,1569,1568,0,0,0,0,0,0,0,0,0,0
1709536965.89982390,65928618,1581,1581,1572,1572,0,0,0,0,0,0,0,0,0,0
1709536965.99978399,66028578,1578,1579,1575,1575,0,0,0,0,0,0,0,0,0,0
1709536966.09974384,66128538,1576,1576,1578,1578,0,0,0,0,0,0,0,0,0,0
1709536966.19970393,66228498,1575,1576,1581,1581,0,0,0,0,0,0,0,0,0,0
1709536966.29966402,66328458,1573,1573,1582,1582,0,0,0,0,0,0,0,0,0,0
1709536966.39962387,66428418,1572,1573,1584,1583,0,0,0,0,0,0,0,0,0,0
1709536966.49958396,66528378,1572,1574,1584,1584,0,0,0,0,0,0,0,0,0,0
1709536966.59954405,66628338,1574,1575,1584,1584,0,0,0,0,0,0,0,0,0,0
1709536966.69950390,66728298,1575,1575,1583,1583,0,0,0,0,0,0,0,0,0,0
1709536966.79946399,66828258,1575,1575,1581,1581,0,0,0,0,0,0,0,0,0,0
1709536966.89942384,66928218,1577,1577,1581,1581,0,0,0,0,0,0,0,0,0,0
1709536966.99938393,67028178,1578,1578,1579,1579,0,0,0,0,0,0,0,0,0,0
1709536967.10017705,67128971,1580,1580,1579,1579,0,0,0,0,0,0,0,0,0,0
1709536967.20013690,67228931,1580,1580,1577,1577,0,0,0,0,0,0,0,0,0,0
1709536967.30009699,67328891,1582,1581,1577,1577,0,0,0,0,0,0,0,0,0,0
1709536967.40005684,67428851,1582,1581,1577,1576,0,0,0,0,0,0,0,0,0,0
1709536967.50001693,67528811,1582,1581,1577,1577,0,0,0,0,0,0,0,0,0,0
1709536967.59997702,67628771,1582,1581,1577,1577,0,0,0,0,0,0,0,0,0,0
1709536967.69993687,67728731,1581,1581,1578,1578,0,0,0,0,0,0,0,0,0,0
1709536967.79989696,67828691,1580,1580,1578,1578,0,0,0,0,0,0,0,0,0,0
1709536967.89985704,67928651,1580,1579,1579,1579,0,0,0,0,0,0,0,0,0,0
1709536967.99981689,68028611,1579,1579,1579,1579,0,0,0,0,0,0,0,0,0,0
1709536968.09977698,68128571,1579,1578,1581,1580,0,0,0,0,0,0,0,0,0,0
1709536968.19973683,68228531,1578,1579,1580,1581,0,0,0,0,0,0,0,0,0,0
1709536968.29969692,68328491,1577,1579,1580,1581,0,0,0,0,0,0,0,0,0,0
1709536968.39965701,68428451,1577,1579,1580,1581,0,0,0,0,0,0,0,0,0,0
1709536968.49961686,68528411,1578,1579,1579,1581,0,0,0,0,0,0,0,0,0,0
1709536968.59957695,68628371,1577,1578,1578,1579,0,0,0,0,0,0,0,0,0,0
1709536968.69953704,68728331,1578,1578,1578,1578,0,0,0,0,0,0,0,0,0,0
1709536968.79949689,68828291,1579,1578,1578,1578,0,0,0,0,0,0,0,0,0,0
1709536968.89945698,68928251,1580,1579,1579,1578,0,0,0,0,0,0,0,0,0,0
1709536968.99941707,69028211,1581,1581,1579,1579,0,0,0,0,0,0,0,0,0,0
1709536969.09937692,69128171,1580,1582,1582,1575,0,0,0,0,0,0,0,0,0,0
1709536969.20017004,69228964,1581,1584,1585,1570,0,0,0,0,0,0,0,0,0,0
1709536969.30012989,69328924,1580,1584,1578,1570,0,0,0,0,0,0,0,0,0,0
1709536969.40008998,69428884,1579,1582,1568,1569,0,0,0,0,0,0,0,0,0,0
1709536969.50005007,69528844,1579,1581,1560,1566,0,0,0,0,0,0,0,0,0,0
1709536969.60000992,69628804,1579,1580,1554,1562,0,0,0,0,0,0,0,0,0,0
1709536969.69997001,69728764,1580,1579,1552,1557,0,0,0,0,0,0,0,0,0,0
1709536969.79992986,69828724,1581,1580,1552,1554,0,0,0,0,0,0,0,0,0,0
1709536969.89988995,69928684,1582,1580,1553,1552,0,0,0,0,0,0,0,0,0,0
1709536969.99985003,70028644,1581,1580,1554,1551,0,0,0,0,0,0,0,0,0,0
1709536970.09980989,70128604,1579,1579,1554,1551,0,0,0,0,0,0,0,0,0,0
1709536970.19976997,70228564,1578,1580,1555,1553,0,0,0,0,0,0,0,0,0,0
1709536970.29973006,70328524,1577,1578,1554,1553,0,0,0,0,0,0,0,0,0,0
1709536970.39968991,70428484,1552,1567,1558,1559,0,0,0,0,0,0,0,0,0,0
1709536970.49965000,70528444,1570,1565,1560,1560,0,0,0,0,0,0,0,0,0,0
1709536970.59960985,70628404,1581,1568,1558,1558,0,0,0,0,0,0,0,0,0,0
1709536970.69956994,70728364,1590,1576,1557,1556,0,0,0,0,0,0,0,0,0,0
1709536970.79953003,70828324,1592,1583,1553,1552,0,0,0,0,0,0,0,0,0,0
1709536970.89948988,70928284,1593,1591,1548,1548,0,0,0,0,0,0,0,0,0,0
1709536970.99944997,71028244,1592,1597,1543,1544,0,0,0,0,0,0,0,0,0,0
1709536971.09941006,71128204,1593,1600,1540,1540,0,0,0,0,0,0,0,0,0,0
1709536971.19936991,71228164,1595,1602,1537,1538,0,0,0,0,0,0,0,0,0,0
1709536971.30016303,71328957,1596,1600,1536,1538,0,0,0,0,0,0,0,0,0,0
1709536971.40012288,71428917,1595,1596,1538,1540,0,0,0,0,0,0,0,0,0,0
1709536971.50008297,71528877,1595,1592,1545,1546,0,0,0,0,0,0,0,0,0,0
1709536971.60004306,71628837,1589,1585,1551,1553,0,0,0,0,0,0,0,0,0,0
1709536971.70000291,71728797,1581,1576,1560,1562,0,0,0,0,0,0,0,0,0,0
1709536971.79996300,71828757,1572,1568,1571,1573,0,0,0,0,0,0,0,0,0,0
1709536971.89992285,71928717,1562,1558,1582,1583,0,0,0,0,0,0,0,0,0,0
1709536971.99988294,72028677,1552,1550,1593,1594,0,0,0,0,0,0,0,0,0,0
1709536972.09984303,72128637,1542,1542,1601,1601,0,0,0,0,0,0,0,0,0,0
1709536972.19980288,72228597,1536,1537,1607,1607,0,0,0,0,0,0,0,0,0,0
1709536972.29976296,72328557,1533,1535,1611,1610,0,0,0,0,0,0,0,0,0,0
1709536972.39972305,72428517,1534,1535,1611,1610,0,0,0,0,0,0,0,0,0,0
1709536972.49968290,72528477,1536,1538,1608,1607,0,0,0,0,0,0,0,0,0,0
1709536972.59964299,72628437,1543,1545,1604,1603,0,0,0,0,0,0,0,0,0,0
1709536972.69960284,72728397,1551,1552,1599,1598,0,0,0,0,0,0,0,0,0,0
1709536972.79956293,72828357,1558,1559,1590,1590,0,0,0,0,0,0,0,0,0,0
1709536972.89952302,72928317,1566,1566,1583,1583,0,0,0,0,0,0,0,0,0,0
1709536972.99948287,73028277,1574,1573,1576,1577,0,0,0,0,0,0,0,0,0,0
1709536973.09944296,73128237,1579,1578,1571,1571,0,0,0,0,0,0,0,0,0,0
1709536973.19940305,73228197,1583,1582,1566,1567,0,0,0,0,0,0,0,0,0,0
1709536973.29936290,73328157,1585,1584,1564,1564,0,0,0,0,0,0,0,0,0,0
1709536973.40015602,73428950,1586,1585,1564,1565,0,0,0,0,0,0,0,0,0,0
1709536973.50011587,73528910,1585,1585,1565,1565,0,0,0,0,0,0,0,0,0,0
1709536973.60007596,73628870,1584,1583,1567,1567,0,0,0,0,0,0,0,0,0,0
1709536973.70003605,73728830,1582,1581,1570,1570,0,0,0,0,0,0,0,0,0,0
1709536973.79999590,73828790,1579,1579,1573,1573,0,0,0,0,0,0,0,0,0,0
1709536973.89995599,73928750,1576,1576,1575,1575,0,0,0,0,0,0,0,0,0,0
1709536973.99991584,74028710,1574,1574,1578,1578,0,0,0,0,0,0,0,0,0,0
1709536974.09987593,74128670,1572,1573,1579,1579,0,0,0,0,0,0,0,0,0,0
1709536974.19983602,74228630,1571,1572,1581,1581,0,0,0,0,0,0,0,0,0,0
1709536974.29979587,74328590,1571,1572,1581,1581,0,0,0,0,0,0,0,0,0,0
1709536974.39975595,74428550,1572,1573,1581,1582,0,0,0,0,0,0,0,0,0,0
1709536974.49971604,74528510,1573,1574,1581,1581,0,0,0,0,0,0,0,0,0,0
1709536974.59967589,74628470,1574,1575,1580,1580,0,0,0,0,0,0,0,0,0,0
1709536974.69963598,74728430,1576,1576,1579,1579,0,0,0,0,0,0,0,0,0,0
1709536974.79959583,74828390,1579,1578,1578,1579,0,0,0,0,0,0,0,0,0,0
1709536974.89955592,74928350,1580,1580,1578,1577,0,0,0,0,0,0,0,0,0,0
1709536974.99951601,75028310,1582,1581,1578,1577,0,0,0,0,0,0,0,0,0,0
1709536975.09947586,75128270,1582,1582,1577,1577,0,0,0,0,0,0,0,0,0,0
1709536975.19943595,75228230,1582,1582,1577,1577,0,0,0,0,0,0,0,0,0,0
1709536975.29939604,75328190,1582,1582,1577,1577,0,0,0,0,0,0,0,0,0,0
1709536975.40018892,75428983,1582,1581,1577,1577,0,0,0,0,0,0,0,0,0,0
1709536975.50014901,75528943,1581,1581,1577,1577,0,0,0,0,0,0,0,0,0,0
1709536975.60010886,75628903,1581,1581,1578,1579,0,0,0,0,0,0,0,0,0,0
1709536975.70006895,75728863,1581,1581,1580,1579,0,0,0,0,0,0,0,0,0,0
1709536975.80002904,75828823,1582,1581,1581,1581,0,0,0,0,0,0,0,0,0,0
1709536975.89998889,75928783,1581,1581,1582,1582,0,0,0,0,0,0,0,0,0,0
1709536975.99994898,76028743,1581,1581,1581,1582,0,0,0,0,0,0,0,0,0,0
1709536976.09990907,76128703,1581,1580,1582,1582,0,0,0,0,0,0,0,0,0,0
1709536976.19986892,76228663,1580,1580,1581,1582,0,0,0,0,0,0,0,0,0,0
1709536976.29982901,76328623,1580,1580,1582,1582,0,0,0,0,0,0,0,0,0,0
1709536976.39978886,76428583,1581,1581,1582,1583,0,0,0,0,0,0,0,0,0,0
1709536976.49974895,76528543,1581,1581,1583,1582,0,0,0,0,0,0,0,0,0,0
1709536976.59970903,76628503,1582,1581,1582,1582,0,0,0,0,0,0,0,0,0,0
1709536976.69966888,76728463,1582,1582,1582,1582,0,0,0,0,0,0,0,0,0,0
1709536976.79962897,76828423,1582,1582,1582,1582,0,0,0,0,0,0,0,0,0,0
1709536976.89958906,76928383,1582,1582,1582,1582,0,0,0,0,0,0,0,0,0,0
1709536976.99954891,77028343,1584,1583,1583,1583,0,0,0,0,0,0,0,0,0,0
1709536977.09950900,77128303,1583,1584,1588,1578,0,0,0,0,0,0,0,0,0,0
1709536977.19946885,77228263,1583,1585,1589,1576,0,0,0,0,0,0,0,0,0,0
1709536977.29942894,77328223,1581,1583,1581,1575,0,0,0,0,0,0,0,0,0,0
1709536977.39938903,77428183,1579,1581,1572,1574,0,0,0,0,0,0,0,0,0,0
1709536977.50018191,77528976,1578,1581,1565,1571,0,0,0,0,0,0,0,0,0,0
1709536977.60014200,77628936,1579,1579,1560,1567,0,0,0,0,0,0,0,0,0,0
1709536977.70010185,77728896,1579,1579,1558,1563,0,0,0,0,0,0,0,0,0,0
1709536977.80006194,77828856,1579,1577,1557,1558,0,0,0,0,0,0,0,0,0,0
1709536977.90002203,77928816,1579,1578,1558,1556,0,0,0,0,0,0,0,0,0,0
1709536977.99998188,78028776,1580,1578,1560,1557,0,0,0,0,0,0,0,0,0,0
1709536978.09994197,78128736,1578,1577,1558,1556,0,0,0,0,0,0,0,0,0,0
1709536978.19990206,78228696,1575,1575,1557,1557,0,0,0,0,0,0,0,0,0,0
1709536978.29986191,78328656,1573,1574,1557,1557,0,0,0,0,0,0,0,0,0,0
1709536978.39982200,78428616,1572,1573,1556,1558,0,0,0,0,0,0,0,0,0,0
1709536978.49978185,78528576,1570,1572,1556,1556,0,0,0,0,0,0,0,0,0,0
1709536978.59974194,78628536,1570,1571,1555,1556,0,0,0,0,0,0,0,0,0,0
1709536978.69970202,78728496,1571,1572,1555,1555,0,0,0,0,0,0,0,0,0,0
1709536978.79966187,78828456,1573,1574,1554,1554,0,0,0,0,0,0,0,0,0,0
1709536978.89962196,78928416,1574,1575,1552,1551,0,0,0,0,0,0,0,0,0,0
1709536978.99958205,79028376,1577,1577,1550,1549,0,0,0,0,0,0,0,0,0,0
1709536979.09954190,79128336,1578,1579,1547,1546,0,0,0,0,0,0,0,0,0,0
1709536979.19950199,79228296,1581,1582,1544,1544,0,0,0,0,0,0,0,0,0,0
1709536979.29946184,79328256,1584,1585,1542,1542,0,0,0,0,0,0,0,0,0,0
1709536979.39942193,79428216,1587,1587,1540,1541,0,0,0,0,0,0,0,0,0,0
1709536979.49938202,79528176,1588,1590,1538,1539,0,0,0,0,0,0,0,0,0,0
1709536979.60017490,79628969,1591,1592,1537,1538,0,0,0,0,0,0,0,0,0,0
1709536979.70013499,79728929,1592,1593,1535,1537,0,0,0,0,0,0,0,0,0,0
1709536979.80009484,79828889,1593,1593,1537,1540,0,0,0,0,0,0,0,0,0,0
1709536979.90005493,79928849,1591,1590,1540,1543,0,0,0,0,0,0,0,0,0,0
1709536980.00001502,80028809,1588,1585,1547,1550,0,0,0,0,0,0,0,0,0,0
1709536980.09997487,80128769,1582,1578,1556,1558,0,0,0,0,0,0,0,0,0,0
1709536980.19993496,80228729,1573,1569,1567,1569,0,0,0,0,0,0,0,0,0,0
1709536980.29989505,80328689,1563,1559,1578,1580,0,0,0,0,0,0,0,0,0,0
1709536980.39985490,80428649,1553,1550,1590,1591,0,0,0,0,0,0,0,0,0,0
1709536980.49981499,80528609,1544,1542,1599,1599,0,0,0,0,0,0,0,0,0,0
1709536980.59977484,80628569,1537,1538,1607,1606,0,0,0,0,0,0,0,0,0,0
1709536980.69973493,80728529,1534,1535,1610,1610,0,0,0,0,0,0,0,0,0,0
1709536980.79969501,80828489,1534,1536,1612,1611,0,0,0,0,0,0,0,0,0,0
1709536980.89965487,80928449,1538,1540,1610,1610,0,0,0,0,0,0,0,0,0,0
1709536980.99961495,81028409,1542,1545,1605,1604,0,0,0,0,0,0,0,0,0,0
1709536981.09957504,81128369,1551,1552,1600,1599,0,0,0,0,0,0,0,0,0,0
1709536981.19953489,81228329,1559,1559,1593,1592,0,0,0,0,0,0,0,0,0,0
1709536981.29949498,81328289,1566,1567,1586,1585,0,0,0,0,0,0,0,0,0,0
1709536981.39945483,81428249,1572,1572,1579,1579,0,0,0,0,0,0,0,0,0,0
1709536981.49941492,81528209,1578,1578,1575,1575,0,0,0,0,0,0,0,0,0,0
1709536981.59937501,81628169,1582,1579,1571,1572,0,0,0,0,0,0,0,0,0,0
1709536981.70016789,81728962,1584,1582,1571,1570,0,0,0,0,0,0,0,0,0,0
1709536981.80012798,81828922,1584,1582,1571,1570,0,0,0,0,0,0,0,0,0,0
1709536981.90008783,81928882,1583,1581,1571,1571,0,0,0,0,0,0,0,0,0,0
1709536982.00004792,82028842,1582,1580,1573,1572,0,0,0,0,0,0,0,0,0,0
1709536982.10000801,82128802,1580,1581,1575,1575,0,0,0,0,0,0,0,0,0,0
1709536982.19996786,82228762,1578,1578,1575,1575,0,0,0,0,0,0,0,0,0,0
1709536982.29992795,82328722,1577,1577,1576,1577,0,0,0,0,0,0,0,0,0,0
1709536982.39988804,82428682,1577,1577,1577,1577,0,0,0,0,0,0,0,0,0,0
1709536982.49984789,82528642,1577,1577,1578,1579,0,0,0,0,0,0,0,0,0,0
1709536982.59980798,82628602,1578,1579,1578,1579,0,0,0,0,0,0,0,0,0,0
1709536982.69976807,82728562,1578,1579,1577,1578,0,0,0,0,0,0,0,0,0,0
1709536982.79972792,82828522,1580,1580,1577,1577,0,0,0,0,0,0,0,0,0,0
1709536982.89968801,82928482,1580,1581,1577,1577,0,0,0,0,0,0,0,0,0,0
1709536982.99964786,83028442,1582,1582,1579,1578,0,0,0,0,0,0,0,0,0,0
1709536983.09960794,83128402,1582,1582,1579,1579,0,0,0,0,0,0,0,0,0,0
1709536983.19956803,83228362,1582,1581,1581,1579,0,0,0,0,0,0,0,0,0,0
1709536983.29952788,83328322,1581,1581,1582,1582,0,0,0,0,0,0,0,0,0,0
1709536983.39948797,83428282,1580,1579,1582,1582,0,0,0,0,0,0,0,0,0,0
1709536983.49944806,83528242,1579,1579,1584,1584,0,0,0,0,0,0,0,0,0,0
1709536983.59940791,83628202,1579,1579,1585,1585,0,0,0,0,0,0,0,0,0,0
1709536983.69936800,83728162,1577,1578,1584,1584,0,0,0,0,0,0,0,0,0,0
1709536983.80016088,83828955,1577,1579,1585,1584,0,0,0,0,0,0,0,0,0,0
1709536983.90012097,83928915,1577,1577,1582,1583,0,0,0,0,0,0,0,0,0,0
1709536984.00008106,84028875,1579,1578,1582,1583,0,0,0,0,0,0,0,0,0,0
1709536984.10004091,84128835,1579,1579,1582,1582,0,0,0,0,0,0,0,0,0,0
1709536984.20000100,84228795,1581,1581,1581,1582,0,0,0,0,0,0,0,0,0,0
1709536984.29996085,84328755,1582,1582,1581,1581,0,0,0,0,0,0,0,0,0,0
1709536984.39992094,84428715,1582,1582,1580,1579,0,0,0,0,0,0,0,0,0,0
1709536984.49988103,84528675,1583,1582,1580,1579,0,0,0,0,0,0,0,0,0,0
1709536984.59984088,84628635,1583,1583,1579,1579,0,0,0,0,0,0,0,0,0,0
1709536984.69980097,84728595,1583,1583,1579,1580,0,0,0,0,0,0,0,0,0,0
1709536984.79976106,84828555,1583,1583,1580,1580,0,0,0,0,0,0,0,0,0,0
1709536984.89972091,84928515,1583,1582,1580,1580,0,0,0,0,0,0,0,0,0,0
1709536984.99968100,85028475,1583,1582,1580,1580,0,0,0,0,0,0,0,0,0,0
1709536985.09964085,85128435,1581,1581,1580,1580,0,0,0,0,0,0,0,0,0,0
1709536985.19960093,85228395,1581,1581,1588,1573,0,0,0,0,0,0,0,0,0,0
1709536985.29956102,85328355,1580,1579,1585,1573,0,0,0,0,0,0,0,0,0,0
1709536985.39952087,85428315,1577,1577,1578,1576,0,0,0,0,0,0,0,0,0,0
1709536985.49948096,85528275,1573,1573,1571,1575,0,0,0,0,0,0,0,0,0,0
1709536985.59944105,85628235,1570,1570,1567,1574,0,0,0,0,0,0,0,0,0,0
1709536985.69940090,85728195,1567,1567,1565,1572,0,0,0,0,0,0,0,0,0,0
1709536985.79936099,85828155,1566,1566,1566,1569,0,0,0,0,0,0,0,0,0,0
1709536985.90015388,85928948,1565,1566,1566,1567,0,0,0,0,0,0,0,0,0,0
1709536986.00011396,86028908,1565,1565,1567,1565,0,0,0,0,0,0,0,0,0,0
1709536986.10007405,86128868,1564,1564,1567,1564,0,0,0,0,0,0,0,0,0,0
1709536986.20003390,86228828,1564,1564,1566,1563,0,0,0,0,0,0,0,0,0,0
1709536986.29999399,86328788,1563,1563,1564,1563,0,0,0,0,0,0,0,0,0,0
1709536986.39995384,86428748,1563,1563,1564,1563,0,0,0,0,0,0,0,0,0,0
1709536986.49991393,86528708,1562,1563,1562,1562,0,0,0,0,0,0,0,0,0,0
1709536986.59987402,86628668,1562,1563,1562,1562,0,0,0,0,0,0,0,0,0,0
1709536986.69983387,86728628,1562,1562,1562,1562,0,0,0,0,0,0,0,0,0,0
1709536986.79979396,86828588,1562,1562,1562,1561,0,0,0,0,0,0,0,0,0,0
1709536986.89975405,86928548,1561,1561,1561,1561,0,0,0,0,0,0,0,0,0,0
1709536986.99971390,87028508,1560,1560,1560,1559,0,0,0,0,0,0,0,0,0,0
1709536987.09967399,87128468,1558,1559,1559,1558,0,0,0,0,0,0,0,0,0,0
1709536987.19963384,87228428,1557,1557,1557,1556,0,0,0,0,0,0,0,0,0,0
1709536987.29959393,87328388,1556,1556,1557,1556,0,0,0,0,0,0,0,0,0,0
1709536987.39955401,87428348,1556,1556,1557,1556,0,0,0,0,0,0,0,0,0,0
1709536987.49951386,87528308,1557,1557,1558,1556,0,0,0,0,0,0,0,0,0,0
1709536987.59947395,87628268,1556,1556,1558,1555,0,0,0,0,0,0,0,0,0,0
1709536987.69943404,87728228,1557,1557,1559,1557,0,0,0,0,0,0,0,0,0,0
1709536987.79939389,87828188,1557,1557,1559,1556,0,0,0,0,0,0,0,0,0,0
1709536987.90018702,87928981,1559,1558,1558,1559,0,0,0,0,0,0,0,0,0,0
1709536988.00014687,88028941,1557,1557,1555,1560,0,0,0,0,0,0,0,0,0,0
1709536988.10010695,88128901,1560,1560,1557,1564,0,0,0,0,0,0,0,0,0,0
1709536988.20006704,88228861,1562,1562,1559,1564,0,0,0,0,0,0,0,0,0,0
1709536988.30002689,88328821,1563,1563,1561,1565,0,0,0,0,0,0,0,0,0,0
1709536988.39998698,88428781,1562,1563,1563,1562,0,0,0,0,0,0,0,0,0,0
1709536988.49994683,88528741,1561,1561,1562,1559,0,0,0,0,0,0,0,0,0,0
1709536988.59990692,88628701,1560,1561,1561,1561,0,0,0,0,0,0,0,0,0,0
1709536988.69986701,88728661,1555,1556,1557,1557,0,0,0,0,0,0,0,0,0,0
1709536988.79982686,88828621,1549,1550,1553,1554,0,0,0,0,0,0,0,0,0,0
1709536988.89978695,88928581,1544,1543,1549,1550,0,0,0,0,0,0,0,0,0,0
1709536988.99974704,89028541,1537,1536,1543,1545,0,0,0,0,0,0,0,0,0,0
1709536989.09970689,89128501,1530,1528,1536,1538,0,0,0,0,0,0,0,0,0,0
1709536989.19966698,89228461,1522,1520,1528,1530,0,0,0,0,0,0,0,0,0,0
1709536989.29962707,89328421,1518,1517,1523,1524,0,0,0,0,0,0,0,0,0,0
1709536989.39958692,89428381,1518,1517,1520,1521,0,0,0,0,0,0,0,0,0,0
1709536989.49954700,89528341,1520,1520,1519,1521,0,0,0,0,0,0,0,0,0,0
1709536989.59950686,89628301,1524,1524,1519,1521,0,0,0,0,0,0,0,0,0,0
1709536989.69946694,89728261,1528,1528,1521,1522,0,0,0,0,0,0,0,0,0,0
1709536989.79942703,89828221,1532,1533,1523,1523,0,0,0,0,0,0,0,0,0,0
1709536989.89938688,89928181,1538,1539,1528,1527,0,0,0,0,0,0,0,0,0,0
1709536990.00018001,90028974,1543,1544,1532,1532,0,0,0,0,0,0,0,0,0,0
1709536990.10013986,90128934,1546,1547,1535,1534,0,0,0,0,0,0,0,0,0,0
1709536990.20009995,90228894,1548,1548,1537,1537,0,0,0,0,0,0,0,0,0,0
1709536990.30006003,90328854,1550,1550,1540,1540,0,0,0,0,0,0,0,0,0,0
1709536990.40001988,90428814,1549,1550,1542,1542,0,0,0,0,0,0,0,0,0,0
1709536990.49997997,90528774,1550,1550,1544,1544,0,0,0,0,0,0,0,0,0,0
1709536990.59994006,90628734,1549,1549,1546,1544,0,0,0,0,0,0,0,0,0,0
1709536990.69989991,90728694,1548,1547,1548,1545,0,0,0,0,0,0,0,0,0,0
1709536990.79986000,90828654,1547,1546,1549,1546,0,0,0,0,0,0,0,0,0,0
1709536990.89981985,90928614,1546,1545,1550,1549,0,0,0,0,0,0,0,0,0,0
1709536990.99977994,91028574,1544,1543,1551,1550,0,0,0,0,0,0,0,0,0,0
1709536991.09974003,91128534,1542,1542,1551,1551,0,0,0,0,0,0,0,0,0,0
1709536991.19969988,91228494,1541,1540,1550,1550,0,0,0,0,0,0,0,0,0,0
1709536991.29965997,91328454,1541,1541,1550,1551,0,0,0,0,0,0,0,0,0,0
1709536991.39962006,91428414,1540,1540,1548,1549,0,0,0,0,0,0,0,0,0,0
1709536991.49957991,91528374,1541,1541,1548,1548,0,0,0,0,0,0,0,0,0,0
1709536991.59954000,91628334,1542,1542,1547,1546,0,0,0,0,0,0,0,0,0,0
1709536991.69949985,91728294,1543,1543,1546,1545,0,0,0,0,0,0,0,0,0,0
1709536991.79945993,91828254,1544,1544,1545,1544,0,0,0,0,0,0,0,0,0,0
1709536991.89942002,91928214,1545,1545,1543,1544,0,0,0,0,0,0,0,0,0,0
1709536991.99937987,92028174,1546,1546,1543,1543,0,0,0,0,0,0,0,0,0,0
1709536992.10017300,92128967,1547,1547,1542,1543,0,0,0,0,0,0,0,0,0,0
1709536992.20013285,92228927,1547,1547,1542,1542,0,0,0,0,0,0,0,0,0,0
1709536992.30009294,92328887,1547,1547,1543,1543,0,0,0,0,0,0,0,0,0,0
1709536992.40005302,92428847,1545,1546,1541,1542,0,0,0,0,0,0,0,0,0,0
1709536992.50001287,92528807,1546,1545,1542,1543,0,0,0,0,0,0,0,0,0,0
1709536992.59997296,92628767,1546,1546,1544,1543,0,0,0,0,0,0,0,0,0,0
1709536992.69993305,92728727,1545,1545,1544,1543,0,0,0,0,0,0,0,0,0,0
1709536992.79989290,92828687,1544,1544,1544,1544,0,0,0,0,0,0,0,0,0,0
1709536992.89985299,92928647,1543,1543,1544,1545,0,0,0,0,0,0,0,0,0,0
1709536992.99981284,93028607,1542,1543,1544,1544,0,0,0,0,0,0,0,0,0,0
1709536993.09977293,93128567,1543,1543,1544,1544,0,0,0,0,0,0,0,0,0,0
1709536993.19973302,93228527,1543,1542,1544,1544,0,0,0,0,0,0,0,0,0,0
1709536993.29969287,93328487,1543,1543,1545,1545,0,0,0,0,0,0,0,0,0,0
1709536993.39965296,93428447,1544,1544,1545,1545,0,0,0,0,0,0,0,0,0,0
1709536993.49961305,93528407,1545,1545,1545,1546,0,0,0,0,0,0,0,0,0,0
1709536993.59957290,93628367,1544,1544,1545,1544,0,0,0,0,0,0,0,0,0,0
1709536993.69953299,93728327,1544,1544,1544,1544,0,0,0,0,0,0,0,0,0,0
1709536993.79949284,93828287,1545,1545,1545,1544,0,0,0,0,0,0,0,0,0,0
1709536993.89945292,93928247,1545,1545,1544,1544,0,0,0,0,0,0,0,0,0,0
1709536993.99941301,94028207,1545,1545,1544,1545,0,0,0,0,0,0,0,0,0,0
1709536994.09937286,94128167,1545,1545,1545,1545,0,0,0,0,0,0,0,0,0,0
1709536994.20016599,94228960,1545,1545,1544,1544,0,0,0,0,0,0,0,0,0,0
1709536994.30012584,94328920,1545,1545,1544,1544,0,0,0,0,0,0,0,0,0,0
1709536994.40008593,94428880,1544,1544,1543,1543,0,0,0,0,0,0,0,0,0,0
1709536994.50004601,94528840,1544,1544,1543,1543,0,0,0,0,0,0,0,0,0,0
1709536994.60000587,94628800,1544,1544,1543,1544,0,0,0,0,0,0,0,0,0,0
1709536994.69996595,94728760,1544,1544,1544,1544,0,0,0,0,0,0,0,0,0,0
1709536994.79992604,94828720,1544,1544,1544,1544,0,0,0,0,0,0,0,0,0,0
1709536994.89988589,94928680,1544,1544,1544,1543,0,0,0,0,0,0,0,0,0,0
1709536994.99984598,95028640,1544,1544,1544,1544,0,0,0,0,0,0,0,0,0,0
1709536995.09980583,95128600,1543,1543,1544,1544,0,0,0,0,0,0,0,0,0,0
1709536995.19976592,95228560,1543,1543,1544,1544,0,0,0,0,0,0,0,0,0,0
1709536995.29972601,95328520,1544,1544,1544,1544,0,0,0,0,0,0,0,0,0,0
1709536995.39968586,95428480,1543,1544,1544,1544,0,0,0,0,0,0,0,0,0,0
1709536995.49964595,95528440,1544,1544,1544,1545,0,0,0,0,0,0,0,0,0,0
1709536995.59960604,95628400,1544,1544,1544,1544,0,0,0,0,0,0,0,0,0,0
1709536995.69956589,95728360,1544,1544,1544,1544,0,0,0,0,0,0,0,0,0,0
1709536995.79952598,95828320,1544,1544,1544,1544,0,0,0,0,0,0,0,0,0,0
1709536995.89948606,95928280,1544,1544,1545,1544,0,0,0,0,0,0,0,0,0,0
1709536995.99944592,96028240,1544,1544,1547,1545,0,0,0,0,0,0,0,0,0,0
1709536996.09940600,96128200,1542,1542,1547,1545,0,0,0,0,0,0,0,0,0,0
1709536996.19936585,96228160,1541,1542,1548,1548,0,0,0,0,0,0,0,0,0,0
1709536996.30015898,96328953,1541,1541,1549,1550,0,0,0,0,0,0,0,0,0,0
1709536996.40011907,96428913,1540,1539,1548,1550,0,0,0,0,0,0,0,0,0,0
1709536996.50007892,96528873,1540,1540,1549,1551,0,0,0,0,0,0,0,0,0,0
1709536996.60003901,96628833,1540,1540,1547,1549,0,0,0,0,0,0,0,0,0,0
1709536996.69999886,96728793,1541,1541,1547,1548,0,0,0,0,0,0,0,0,0,0
1709536996.79995894,96828753,1543,1542,1545,1546,0,0,0,0,0,0,0,0,0,0
1709536996.89991903,96928713,1544,1544,1543,1544,0,0,0,0,0,0,0,0,0,0
1709536996.99987888,97028673,1547,1547,1542,1543,0,0,0,0,0,0,0,0,0,0
1709536997.09983897,97128633,1548,1548,1541,1541,0,0,0,0,0,0,0,0,0,0
1709536997.19979906,97228593,1550,1550,1539,1540,0,0,0,0,0,0,0,0,0,0
1709536997.29975891,97328553,1550,1550,1538,1539,0,0,0,0,0,0,0,0,0,0
1709536997.39971900,97428513,1550,1550,1538,1538,0,0,0,0,0,0,0,0,0,0
1709536997.49967885,97528473,1551,1551,1539,1539,0,0,0,0,0,0,0,0,0,0
1709536997.59963894,97628433,1550,1551,1539,1540,0,0,0,0,0,0,0,0,0,0
1709536997.69959903,97728393,1550,1550,1540,1541,0,0,0,0,0,0,0,0,0,0
1709536997.79955888,97828353,1549,1549,1541,1541,0,0,0,0,0,0,0,0,0,0
1709536997.89951897,97928313,1547,1547,1541,1541,0,0,0,0,0,0,0,0,0,0
1709536997.99947906,98028273,1547,1547,1543,1543,0,0,0,0,0,0,0,0,0,0
1709536998.09943891,98128233,1546,1546,1545,1543,0,0,0,0,0,0,0,0,0,0
1709536998.19939899,98228193,1545,1544,1546,1543,0,0,0,0,0,0,0,0,0,0
1709536998.30019188,98328986,1544,1543,1547,1545,0,0,0,0,0,0,0,0,0,0
1709536998.40015197,98428946,1543,1542,1548,1547,0,0,0,0,0,0,0,0,0,0
1709536998.50011206,98528906,1541,1541,1549,1548,0,0,0,0,0,0,0,0,0,0
1709536998.60007191,98628866,1540,1540,1548,1548,0,0,0,0,0,0,0,0,0,0
1709536998.70003200,98728826,1539,1540,1548,1549,0,0,0,0,0,0,0,0,0,0
1709536998.79999185,98828786,1540,1541,1549,1549,0,0,0,0,0,0,0,0,0,0
1709536998.89995193,98928746,1539,1540,1547,1548,0,0,0,0,0,0,0,0,0,0
1709536998.99991202,99028706,1455,1450,1446,1469,0,0,0,0,0,0,0,0,0,0
1709536999.09987187,99128666,1306,1295,1264,1335,0,0,0,0,0,0,0,0,0,0
1709536999.19983196,99228626,1247,1227,1192,1273,0,0,0,0,0,0,0,0,0,0
1709536999.29979205,99328586,1230,1203,1175,1248,0,0,0,0,0,0,0,0,0,0
1709536999.39975190,99428546,1208,1170,1150,1217,0,0,0,0,0,0,0,0,0,0
1709536999.49971199,99528506,1210,1170,1150,1219,0,0,0,0,0,0,0,0,0,0
1709536999.59967184,99628466,1213,1174,1150,1227,0,0,0,0,0,0,0,0,0,0
1709536999.69963193,99728426,1217,1179,1150,1236,0,0,0,0,0,0,0,0,0,0
1709536999.79959202,99828386,1197,1163,1150,1200,0,0,0,0,0,0,0,0,0,0
1709536999.89955187,99928346,1207,1172,1150,1220,0,0,0,0,0,0,0,0,0,0
1709536999.99951196,100028306,1212,1175,1150,1229,0,0,0,0,0,0,0,0,0,0
1709537000.09947205,100128266,1215,1177,1150,1233,0,0,0,0,0,0,0,0,0,0
1709537000.19943190,100228226,1216,1178,1150,1236,0,0,0,0,0,0,0,0,0,0
1709537000.29939198,100328186,1218,1179,1150,1239,0,0,0,0,0,0,0,0,0,0
1709537000.40018487,100428979,1220,1180,1150,1242,0,0,0,0,0,0,0,0,0,0
1709537000.50014496,100528939,1222,1182,1150,1246,0,0,0,0,0,0,0,0,0,0
1709537000.60010505,100628899,1204,1163,1150,1211,0,0,0,0,0,0,0,0,0,0
1709537000.70006490,100728859,1206,1165,1150,1214,0,0,0,0,0,0,0,0,0,0
1709537000.80002499,100828819,1206,1165,1150,1216,0,0,0,0,0,0,0,0,0,0
1709537000.89998484,100928779,1207,1165,1150,1217,0,0,0,0,0,0,0,0,0,0
1709537000.99994493,101028739,1207,1165,1150,1217,0,0,0,0,0,0,0,0,0,0
1709537001.09990501,101128699,1000,1000,1000,1000,0,0,0,0,0,0,0,0,0,0
1709537001.19986486,101228659,1000,1000,1000,1000,0,0,0,0,0,0,0,0,0,0
1709537001.29982495,101328619,1000,1000,1000,1000,0,0,0,0,0,0,0,0,0,0
1709537001.39978504,101428579,1000,1000,1000,1000,0,0,0,0,0,0,0,0,0,0
1709537001.49974489,101528539,1000,1000,1000,1000,0,0,0,0,0,0,0,0,0,0
1709537001.59970498,101628499,1000,1000,1000,1000,0,0,0,0,0,0,0,0,0,0
1709537001.69966483,101728459,1000,1000,1000,1000,0,0,0,0,0,0,0,0,0,0
1709537001.79962492,101828419,1000,1000,1000,1000,0,0,0,0,0,0,0,0,0,0
1709537001.89958501,101928379,1000,1000,1000,1000,0,0,0,0,0,0,0,0,0,0
1709537001.99954486,102028339,1000,1000,1000,1000,0,0,0,0,0,0,0,0,0,0
1709537002.09950495,102128299,1000,1000,1000,1000,0,0,0,0,0,0,0,0,0,0
1709537002.19946504,102228259,1000,1000,1000,1000,0,0,0,0,0,0,0,0,0,0
1709537002.29942489,102328219,1000,1000,1000,1000,0,0,0,0,0,0,0,0,0,0
1709537002.39938498,102428179,1000,1000,1000,1000,0,0,0,0,0,0,0,0,0,0
1709537002.50017786,102528972,1000,1000,1000,1000,0,0,0,0,0,0,0,0,0,0
1709537002.60013795,102628932,1000,1000,1000,1000,0,0,0,0,0,0,0,0,0,0
1709537002.70009804,102728892,1000,1000,1000,1000,0,0,0,0,0,0,0,0,0,0
1709537002.80005789,102828852,1000,1000,1000,1000,0,0,0,0,0,0,0,0,0,0
1709537002.90001798,102928812,1000,1000,1000,1000,0,0,0,0,0,0,0,0,0,0
1709537002.99997807,103028772,1000,1000,1000,1000,0,0,0,0,0,0,0,0,0,0
1709537003.09993792,103128732,1000,1000,1000,1000,0,0,0,0,0,0,0,0,0,0
1709537003.19989800,103228692,1000,1000,1000,1000,0,0,0,0,0,0,0,0,0,0
1709537003.29985785,103328652,1000,1000,1000,1000,0,0,0,0,0,0,0,0,0,0
1709537003.39981794,103428612,1000,1000,1000,1000,0,0,0,0,0,0,0,0,0,0
1709537003.49977803,103528572,1000,1000,1000,1000,0,0,0,0,0,0,0,0,0,0
1709537003.59973788,103628532,1000,1000,1000,1000,0,0,0,0,0,0,0,0,0,0
1709537003.69969797,103728492,1000,1000,1000,1000,0,0,0,0,0,0,0,0,0,0
1709537003.79965806,103828452,1000,1000,1000,1000,0,0,0,0,0,0,0,0,0,0
1709537003.89961791,103928412,1000,1000,1000,1000,0,0,0,0,0,0,0,0,0,0
1709537003.99957800,104028372,1000,1000,1000,1000,0,0,0,0,0,0,0,0,0,0
1709537004.09953785,104128332,1000,1000,1000,1000,0,0,0,0,0,0,0,0,0,0
1709537004.19949794,104228292,1000,1000,1000,1000,0,0,0,0,0,0,0,0,0,0
1709537004.29945803,104328252,1000,1000,1000,1000,0,0,0,0,0,0,0,0,0,0
1709537004.39941788,104428212,1000,1000,1000,1000,0,0,0,0,0,0,0,0,0,0
1709537004.49937797,104528172,1000,1000,1000,1000,0,0,0,0,0,0,0,0,0,0
1709537004.60017085,104628965,1000,1000,1000,1000,0,0,0,0,0,0,0,0,0,0
1709537004.70013094,104728925,1000,1000,1000,1000,0,0,0,0,0,0,0,0,0,0
1709537004.80009103,104828885,1000,1000,1000,1000,0,0,0,0,0,0,0,0,0,0
1709537004.90005088,104928845,1000,1000,1000,1000,0,0,0,0,0,0,0,0,0,0
1709537005.00001097,105028805,1000,1000,1000,1000,0,0,0,0,0,0,0,0,0,0
1709537005.09997106,105128765,1000,1000,1000,1000,0,0,0,0,0,0,0,0,0,0
1709537005.19993091,105228725,1000,1000,1000,1000,0,0,0,0,0,0,0,0,0,0
1709537005.29989100,105328685,1000,1000,1000,1000,0,0,0,0,0,0,0,0,0,0
1709537005.39985085,105428645,1000,1000,1000,1000,0,0,0,0,0,0,0,0,0,0
1709537005.49981093,105528605,1000,1000,1000,1000,0,0,0,0,0,0,0,0,0,0
1709537005.59977102,105628565,1000,1000,1000,1000,0,0,0,0,0,0,0,0,0,0
1709537005.69973087,105728525,1000,1000,1000,1000,0,0,0,0,0,0,0,0,0,0
1709537005.79969096,105828485,1000,1000,1000,1000,0,0,0,0,0,0,0,0,0,0
1709537005.89965105,105928445,1000,1000,1000,1000,0,0,0,0,0,0,0,0,0,0
1709537005.99961090,106028405,1000,1000,1000,1000,0,0,0,0,0,0,0,0,0,0
1709537006.09957099,106128365,1000,1000,1000,1000,0,0,0,0,0,0,0,0,0,0
1709537006.19953084,106228325,1000,1000,1000,1000,0,0,0,0,0,0,0,0,0,0
1709537006.29949093,106328285,1000,1000,1000,1000,0,0,0,0,0,0,0,0,0,0
1709537006.39945102,106428245,1000,1000,1000,1000,0,0,0,0,0,0,0,0,0,0
1709537006.49941087,106528205,1000,1000,1000,1000,0,0,0,0,0,0,0,0,0,0
1709537006.59937096,106628165,1000,1000,1000,1000,0,0,0,0,0,0,0,0,0,0
1709537006.70016384,106728958,1000,1000,1000,1000,0,0,0,0,0,0,0,0,0,0
1709537006.80012393,106828918,1000,1000,1000,1000,0,0,0,0,0,0,0,0,0,0
1709537006.90008402,106928878,1000,1000,1000,1000,0,0,0,0,0,0,0,0,0,0
1709537007.00004387,107028838,1000,1000,1000,1000,0,0,0,0,0,0,0,0,0,0
1709537007.10000396,107128798,1000,1000,1000,1000,0,0,0,0,0,0,0,0,0,0
1709537007.19996405,107228758,1000,1000,1000,1000,0,0,0,0,0,0,0,0,0,0
1709537007.29992390,107328718,1000,1000,1000,1000,0,0,0,0,0,0,0,0,0,0
1709537007.39988399,107428678,1000,1000,1000,1000,0,0,0,0,0,0,0,0,0,0
1709537007.49984384,107528638,1000,1000,1000,1000,0,0,0,0,0,0,0,0,0,0
1709537007.59980392,107628598,1000,1000,1000,1000,0,0,0,0,0,0,0,0,0,0
1709537007.69976401,107728558,1000,1000,1000,1000,0,0,0,0,0,0,0,0,0,0
1709537007.79972386,107828518,1000,1000,1000,1000,0,0,0,0,0,0,0,0,0,0
1709537007.89968395,107928478,1000,1000,1000,1000,0,0,0,0,0,0,0,0,0,0
1709537007.99964404,108028438,1000,1000,1000,1000,0,0,0,0,0,0,0,0,0,0
1709537008.09960389,108128398,1000,1000,1000,1000,0,0,0,0,0,0,0,0,0,0
1709537008.19956398,108228358,1000,1000,1000,1000,0,0,0,0,0,0,0,0,0,0
1709537008.29952407,108328318,1000,1000,1000,1000,0,0,0,0,0,0,0,0,0,0
1709537008.39948392,108428278,1000,1000,1000,1000,0,0,0,0,0,0,0,0,0,0
1709537008.49944401,108528238,1000,1000,1000,1000,0,0,0,0,0,0,0,0,0,0
1709537008.59940386,108628198,1000,1000,1000,1000,0,0,0,0,0,0,0,0,0,0
1709537008.69936395,108728158,1000,1000,1000,1000,0,0,0,0,0,0,0,0,0,0
1709537008.80015683,108828951,1000,1000,1000,1000,0,0,0,0,0,0,0,0,0,0
1709537008.90011692,108928911,1000,1000,1000,1000,0,0,0,0,0,0,0,0,0,0
1709537009.00007701,109028871,1000,1000,1000,1000,0,0,0,0,0,0,0,0,0,0
1709537009.10003686,109128831,1000,1000,1000,1000,0,0,0,0,0,0,0,0,0,0
1709537009.19999695,109228791,1000,1000,1000,1000,0,0,0,0,0,0,0,0,0,0
1709537009.29995704,109328751,1000,1000,1000,1000,0,0,0,0,0,0,0,0,0,0
1709537009.39991689,109428711,1000,1000,1000,1000,0,0,0,0,0,0,0,0,0,0
1709537009.49987698,109528671,1000,1000,1000,1000,0,0,0,0,0,0,0,0,0,0
1709537009.59983706,109628631,1000,1000,1000,1000,0,0,0,0,0,0,0,0,0,0
1709537009.69979692,109728591,1000,1000,1000,1000,0,0,0,0,0,0,0,0,0,0
1709537009.79975700,109828551,1000,1000,1000,1000,0,0,0,0,0,0,0,0,0,0
1709537009.89971685,109928511,1000,1000,1000,1000,0,0,0,0,0,0,0,0,0,0
1709537009.99967694,110028471,1000,1000,1000,1000,0,0,0,0,0,0,0,0,0,0
1709537010.09963703,110128431,1000,1000,1000,1000,0,0,0,0,0,0,0,0,0,0
1709537010.19959688,110228391,1000,1000,1000,1000,0,0,0,0,0,0,0,0,0,0
1709537010.29955697,110328351,1000,1000,1000,1000,0,0,0,0,0,0,0,0,0,0
1709537010.39951706,110428311,1000,1000,1000,1000,0,0,0,0,0,0,0,0,0,0
1709537010.49947691,110528271,1000,1000,1000,1000,0,0,0,0,0,0,0,0,0,0
1709537010.59943700,110628231,1000,1000,1000,1000,0,0,0,0,0,0,0,0,0,0
1709537010.69939685,110728191,1000,1000,1000,1000,0,0,0,0,0,0,0,0,0,0
1709537010.80018997,110828984,1000,1000,1000,1000,0,0,0,0,0,0,0,0,0,0
1709537010.90015006,110928944,1000,1000,1000,1000,0,0,0,0,0,0,0,0,0,0
1709537011.00010991,111028904,1000,1000,1000,1000,0,0,0,0,0,0,0,0,0,0
1709537011.10007000,111128864,1000,1000,1000,1000,0,0,0,0,0,0,0,0,0,0
1709537011.20002985,111228824,1000,1000,1000,1000,0,0,0,0,0,0,0,0,0,0
1709537011.29998994,111328784,1000,1000,1000,1000,0,0,0,0,0,0,0,0,0,0
1709537011.39995003,111428744,1000,1000,1000,1000,0,0,0,0,0,0,0,0,0,0
1709537011.49990988,111528704,1000,1000,1000,1000,0,0,0,0,0,0,0,0,0,0
1709537011.59986997,111628664,1000,1000,1000,1000,0,0,0,0,0,0,0,0,0,0
1709537011.69983006,111728624,1000,1000,1000,1000,0,0,0,0,0,0,0,0,0,0
1709537011.79978991,111828584,1000,1000,1000,1000,0,0,0,0,0,0,0,0,0,0
1709537011.89974999,111928544,1000,1000,1000,1000,0,0,0,0,0,0,0,0,0,0
1709537011.99970984,112028504,1000,1000,1000,1000,0,0,0,0,0,0,0,0,0,0
1709537012.09966993,112128464,1000,1000,1000,1000,0,0,0,0,0,0,0,0,0,0
1709537012.19963002,112228424,1000,1000,1000,1000,0,0,0,0,0,0,0,0,0,0
1709537012.29958987,112328384,1000,1000,1000,1000,0,0,0,0,0,0,0,0,0,0
1709537012.39954996,112428344,1000,1000,1000,1000,0,0,0,0,0,0,0,0,0,0
1709537012.49951005,112528304,1000,1000,1000,1000,0,0,0,0,0,0,0,0,0,0
1709537012.59946990,112628264,1000,1000,1000,1000,0,0,0,0,0,0,0,0,0,0
1709537012.69942999,112728224,1000,1000,1000,1000,0,0,0,0,0,0,0,0,0,0
1709537012.79938984,112828184,1000,1000,1000,1000,0,0,0,0,0,0,0,0,0,0
1709537012.90018296,112928977,1000,1000,1000,1000,0,0,0,0,0,0,0,0,0,0
1709537013.00014305,113028937,1000,1000,1000,1000,0,0,0,0,0,0,0,0,0,0
1709537013.10010290,113128897,1000,1000,1000,1000,0,0,0,0,0,0,0,0,0,0
1709537013.20006299,113228857,1000,1000,1000,1000,0,0,0,0,0,0,0,0,0,0
1709537013.30002284,113328817,1000,1000,1000,1000,0,0,0,0,0,0,0,0,0,0
1709537013.39998293,113428777,1000,1000,1000,1000,0,0,0,0,0,0,0,0,0,0
1709537013.49994302,113528737,1000,1000,1000,1000,0,0,0,0,0,0,0,0,0,0
1709537013.59990287,113628697,1000,1000,1000,1000,0,0,0,0,0,0,0,0,0,0
1709537013.69986296,113728657,1000,1000,1000,1000,0,0,0,0,0,0,0,0,0,0
1709537013.79982305,113828617,1000,1000,1000,1000,0,0,0,0,0,0,0,0,0,0
1709537013.89978290,113928577,1000,1000,1000,1000,0,0,0,0,0,0,0,0,0,0
1709537013.99974298,114028537,1000,1000,1000,1000,0,0,0,0,0,0,0,0,0,0
1709537014.09970284,114128497,1000,1000,1000,1000,0,0,0,0,0,0,0,0,0,0
1709537014.19966292,114228457,1000,1000,1000,1000,0,0,0,0,0,0,0,0,0,0
1709537014.29962301,114328417,1000,1000,1000,1000,0,0,0,0,0,0,0,0,0,0
1709537014.39958286,114428377,1000,1000,1000,1000,0,0,0,0,0,0,0,0,0,0
1709537014.49954295,114528337,1000,1000,1000,1000,0,0,0,0,0,0,0,0,0,0
1709537014.59950304,114628297,1000,1000,1000,1000,0,0,0,0,0,0,0,0,0,0
1709537014.69946289,114728257,1000,1000,1000,1000,0,0,0,0,0,0,0,0,0,0
1709537014.79942298,114828217,1000,1000,1000,1000,0,0,0,0,0,0,0,0,0,0
1709537014.89938307,114928177,1000,1000,1000,1000,0,0,0,0,0,0,0,0,0,0
1709537015.00017595,115028970,1000,1000,1000,1000,0,0,0,0,0,0,0,0,0,0
1709537015.10013604,115128930,1000,1000,1000,1000,0,0,0,0,0,0,0,0,0,0
1709537015.20009589,115228890,1000,1000,1000,1000,0,0,0,0,0,0,0,0,0,0
1709537015.30005598,115328850,1000,1000,1000,1000,0,0,0,0,0,0,0,0,0,0
1709537015.40001583,115428810,1000,1000,1000,1000,0,0,0,0,0,0,0,0,0,0
1709537015.49997592,115528770,1000,1000,1000,1000,0,0,0,0,0,0,0,0,0,0
1709537015.59993601,115628730,1000,1000,1000,1000,0,0,0,0,0,0,0,0,0,0
1709537015.69989586,115728690,1000,1000,1000,1000,0,0,0,0,0,0,0,0,0,0
1709537015.79985595,115828650,1000,1000,1000,1000,0,0,0,0,0,0,0,0,0,0
1709537015.89981604,115928610,1000,1000,1000,1000,0,0,0,0,0,0,0,0,0,0
1709537015.99977589,116028570,1000,1000,1000,1000,0,0,0,0,0,0,0,0,0,0
