TimeUS,M1,M2,M3,M4,TimeUS,C1,C2,C3,C4
48583892,1000,1000,1000,1000,48628874,1000,1000,1000,1000
48586391,1000,1000,1000,1000,48728834,1000,1000,1000,1000
48588890,1000,1000,1000,1000,48828794,1000,1000,1000,1000
48591389,1000,1000,1000,1000,48928754,1000,1000,1000,1000
48593888,1000,1000,1000,1000,49028714,1000,1000,1000,1000
48596387,1000,1000,1000,1000,49128674,1000,1000,1000,1000
48598886,1000,1000,1000,1000,49228634,1000,1000,1000,1000
48601385,1000,1000,1000,1000,49328594,1000,1000,1000,1000
48603884,1000,1000,1000,1000,49428554,1000,1000,1000,1000
48606383,1000,1000,1000,1000,49528514,1000,1000,1000,1000
48608882,1000,1000,1000,1000,49628474,1000,1000,1000,1000
48611381,1000,1000,1000,1000,49728434,1000,1000,1000,1000
48613880,1000,1000,1000,1000,49828394,1000,1000,1000,1000
48616379,1000,1000,1000,1000,49928354,1000,1000,1000,1000
48618878,1000,1000,1000,1000,50028314,1000,1000,1000,1000
48621377,1000,1000,1000,1000,50128274,1000,1000,1000,1000
48623876,1000,1000,1000,1000,50228234,1000,1000,1000,1000
48626375,1000,1000,1000,1000,50328194,1000,1000,1000,1000
48628874,1000,1000,1000,1000,50428154,1000,1000,1000,1000
48631373,1000,1000,1000,1000,50528947,1000,1000,1000,1000
48633872,1000,1000,1000,1000,50628907,1013,1013,1013,1013
48636371,1000,1000,1000,1000,50728867,1043,1043,1043,1043
48638870,1000,1000,1000,1000,50828827,1073,1073,1073,1073
48641369,1000,1000,1000,1000,50928787,1103,1103,1103,1103
48643868,1000,1000,1000,1000,51028747,1133,1133,1133,1133
48646367,1000,1000,1000,1000,51128707,1275,1269,1269,1275
48648866,1000,1000,1000,1000,51228667,1485,1481,1481,1486
48651365,1000,1000,1000,1000,51328627,1648,1644,1644,1648
48653864,1000,1000,1000,1000,51428587,1786,1781,1782,1786
48656363,1000,1000,1000,1000,51528547,1890,1885,1885,1890
48658862,1000,1000,1000,1000,51628507,1873,1871,1871,1874
48661361,1000,1000,1000,1000,51728467,1751,1751,1751,1752
48663860,1000,1000,1000,1000,51828427,1655,1656,1656,1655
48666359,1000,1000,1000,1000,51928387,1626,1628,1628,1626
48668858,1000,1000,1000,1000,52028347,1632,1634,1634,1632
48671357,1000,1000,1000,1000,52128307,1635,1635,1630,1640
48673856,1000,1000,1000,1000,52228267,1631,1633,1626,1638
48676355,1000,1000,1000,1000,52328227,1626,1627,1623,1629
48678854,1000,1000,1000,1000,52428187,1620,1621,1621,1620
48681353,1000,1000,1000,1000,52528980,1618,1617,1621,1615
48683852,1000,1000,1000,1000,52628940,1618,1617,1621,1613
48686351,1000,1000,1000,1000,52728900,1619,1618,1622,1615
48688850,1000,1000,1000,1000,52828860,1607,1607,1611,1602
48691349,1000,1000,1000,1000,52928820,1583,1583,1593,1572
48693848,1000,1000,1000,1000,53028780,1570,1571,1576,1566
48696347,1000,1000,1000,1000,53128740,1560,1561,1559,1562
48698846,1000,1000,1000,1000,53228700,1551,1551,1545,1557
48701345,1000,1000,1000,1000,53328660,1544,1543,1533,1554
48703844,1000,1000,1000,1000,53428620,1538,1537,1528,1547
48706343,1000,1000,1000,1000,53528580,1533,1532,1527,1537
48708842,1000,1000,1000,1000,53628540,1527,1527,1526,1527
48711341,1000,1000,1000,1000,53728500,1526,1526,1528,1524
48713840,1000,1000,1000,1000,53828460,1527,1527,1530,1524
48716339,1000,1000,1000,1000,53928420,1531,1531,1534,1528
48718838,1000,1000,1000,1000,54028380,1533,1533,1536,1531
48721337,1000,1000,1000,1000,54128340,1537,1537,1539,1535
48723836,1000,1000,1000,1000,54228300,1541,1541,1543,1541
48726335,1000,1000,1000,1000,54328260,1545,1544,1545,1545
48728834,1000,1000,1000,1000,54428220,1547,1548,1548,1548
48731333,1000,1000,1000,1000,54528180,1550,1551,1550,1551
48733832,1000,1000,1000,1000,54628973,1554,1553,1552,1555
48736331,1000,1000,1000,1000,54728933,1554,1554,1555,1558
48738830,1000,1000,1000,1000,54828893,1556,1556,1560,1563
48741329,1000,1000,1000,1000,54928853,1558,1558,1563,1564
48743828,1000,1000,1000,1000,55028813,1559,1559,1564,1564
48746327,1000,1000,1000,1000,55128773,1563,1562,1566,1565
48748826,1000,1000,1000,1000,55228733,1565,1565,1567,1565
48751325,1000,1000,1000,1000,55328693,1567,1568,1568,1567
48753824,1000,1000,1000,1000,55428653,1568,1568,1567,1567
48756323,1000,1000,1000,1000,55528613,1569,1569,1566,1567
48758822,1000,1000,1000,1000,55628573,1570,1571,1567,1568
48761321,1000,1000,1000,1000,55728533,1572,1572,1568,1568
48763820,1000,1000,1000,1000,55828493,1573,1572,1569,1569
48766319,1000,1000,1000,1000,55928453,1574,1573,1570,1571
48768818,1000,1000,1000,1000,56028413,1575,1574,1573,1572
48771317,1000,1000,1000,1000,56128373,1574,1574,1573,1572
48773816,1000,1000,1000,1000,56228333,1575,1575,1575,1573
48776315,1000,1000,1000,1000,56328293,1575,1576,1576,1574
48778814,1000,1000,1000,1000,56428253,1576,1576,1576,1575
48781313,1000,1000,1000,1000,56528213,1575,1575,1576,1576
48783812,1000,1000,1000,1000,56628173,1575,1575,1576,1576
48786311,1000,1000,1000,1000,56728966,1575,1575,1576,1576
48788810,1000,1000,1000,1000,56828926,1576,1575,1576,1577
48791309,1000,1000,1000,1000,56928886,1575,1575,1575,1576
48793808,1000,1000,1000,1000,57028846,1576,1576,1577,1577
48796307,1000,1000,1000,1000,57128806,1576,1576,1576,1576
48798806,1000,1000,1000,1000,57228766,1577,1577,1577,1577
48801305,1000,1000,1000,1000,57328726,1577,1577,1577,1576
48803804,1000,1000,1000,1000,57428686,1577,1577,1577,1577
48806303,1000,1000,1000,1000,57528646,1579,1579,1578,1578
48808802,1000,1000,1000,1000,57628606,1578,1579,1578,1578
48811301,1000,1000,1000,1000,57728566,1579,1579,1578,1578
48813800,1000,1000,1000,1000,57828526,1578,1578,1578,1578
48816299,1000,1000,1000,1000,57928486,1580,1579,1579,1579
48818798,1000,1000,1000,1000,58028446,1578,1579,1579,1578
48821297,1000,1000,1000,1000,58128406,1578,1578,1578,1579
48823796,1000,1000,1000,1000,58228366,1578,1578,1579,1579
48826295,1000,1000,1000,1000,58328326,1579,1579,1579,1579
48828794,1000,1000,1000,1000,58428286,1578,1579,1579,1579
48831293,1000,1000,1000,1000,58528246,1579,1579,1579,1580
48833792,1000,1000,1000,1000,58628206,1579,1579,1579,1579
48836291,1000,1000,1000,1000,58728166,1579,1579,1579,1579
48838790,1000,1000,1000,1000,58828959,1579,1579,1579,1579
48841289,1000,1000,1000,1000,58928919,1579,1579,1579,1579
48843788,1000,1000,1000,1000,59028879,1580,1579,1580,1579
48846287,1000,1000,1000,1000,59128839,1579,1579,1579,1579
48848786,1000,1000,1000,1000,59228799,1579,1580,1580,1580
48851285,1000,1000,1000,1000,59328759,1579,1580,1579,1580
48853784,1000,1000,1000,1000,59428719,1579,1579,1579,1579
48856283,1000,1000,1000,1000,59528679,1580,1580,1580,1580
48858782,1000,1000,1000,1000,59628639,1580,1580,1580,1580
48861281,1000,1000,1000,1000,59728599,1580,1580,1580,1580
48863780,1000,1000,1000,1000,59828559,1580,1580,1580,1580
48866279,1000,1000,1000,1000,59928519,1580,1580,1580,1580
48868778,1000,1000,1000,1000,60028479,1581,1580,1580,1580
48871277,1000,1000,1000,1000,60128439,1580,1580,1580,1580
48873776,1000,1000,1000,1000,60228399,1580,1580,1580,1580
48876275,1000,1000,1000,1000,60328359,1580,1580,1581,1580
48878774,1000,1000,1000,1000,60428319,1580,1581,1580,1581
48881273,1000,1000,1000,1000,60528279,1580,1580,1580,1581
48883772,1000,1000,1000,1000,60628239,1581,1581,1580,1581
48886271,1000,1000,1000,1000,60728199,1581,1580,1581,1581
48888770,1000,1000,1000,1000,60828159,1581,1580,1580,1580
48891269,1000,1000,1000,1000,60928952,1581,1581,1586,1575
48893768,1000,1000,1000,1000,61028912,1580,1583,1588,1573
48896267,1000,1000,1000,1000,61128872,1579,1582,1580,1573
48898766,1000,1000,1000,1000,61228832,1578,1581,1571,1573
48901265,1000,1000,1000,1000,61328792,1578,1580,1564,1570
48903764,1000,1000,1000,1000,61428752,1578,1579,1559,1566
48906263,1000,1000,1000,1000,61528712,1578,1577,1555,1560
48908762,1000,1000,1000,1000,61628672,1579,1578,1555,1557
48911261,1000,1000,1000,1000,61728632,1579,1577,1555,1554
48913760,1000,1000,1000,1000,61828592,1579,1578,1556,1554
48916259,1000,1000,1000,1000,61928552,1578,1578,1556,1554
48918758,1000,1000,1000,1000,62028512,1576,1577,1556,1554
48921257,1000,1000,1000,1000,62128472,1575,1577,1555,1554
48923756,1000,1000,1000,1000,62228432,1574,1576,1553,1553
48926255,1000,1000,1000,1000,62328392,1574,1576,1552,1552
48928754,1000,1000,1000,1000,62428352,1575,1576,1549,1550
48931253,1000,1000,1000,1000,62528312,1577,1578,1548,1549
48933752,1000,1000,1000,1000,62628272,1578,1580,1545,1544
48936251,1000,1000,1000,1000,62728232,1582,1583,1544,1543
48938750,1000,1000,1000,1000,62828192,1586,1587,1542,1541
48941249,1000,1000,1000,1000,62928985,1588,1588,1538,1537
48943748,1000,1000,1000,1000,63028945,1592,1592,1536,1536
48946247,1000,1000,1000,1000,63128905,1594,1594,1535,1536
48948746,1000,1000,1000,1000,63228865,1595,1595,1534,1536
48951245,1000,1000,1000,1000,63328825,1594,1594,1535,1537
48953744,1000,1000,1000,1000,63428785,1593,1593,1537,1540
48956243,1000,1000,1000,1000,63528745,1591,1590,1542,1545
48958742,1000,1000,1000,1000,63628705,1586,1584,1549,1552
48961241,1000,1000,1000,1000,63728665,1578,1575,1558,1560
48963740,1000,1000,1000,1000,63828625,1569,1565,1570,1572
48966239,1000,1000,1000,1000,63928585,1558,1554,1582,1584
48968738,1000,1000,1000,1000,64028545,1547,1543,1594,1594
48971237,1000,1000,1000,1000,64128505,1538,1536,1604,1604
48973736,1000,1000,1000,1000,64228465,1530,1530,1611,1609
48976235,1000,1000,1000,1000,64328425,1528,1529,1615,1614
48978734,1000,1000,1000,1000,64428385,1528,1531,1614,1613
48981233,1000,1000,1000,1000,64528345,1534,1537,1612,1611
48983732,1000,1000,1000,1000,64628305,1541,1543,1606,1606
48986231,1000,1000,1000,1000,64728265,1550,1551,1599,1599
48988730,1000,1000,1000,1000,64828225,1559,1559,1591,1591
48991229,1000,1000,1000,1000,64928185,1568,1568,1584,1584
48993728,1000,1000,1000,1000,65028978,1575,1574,1578,1576
48996227,1000,1000,1000,1000,65128938,1581,1581,1573,1572
48998726,1000,1000,1000,1000,65228898,1585,1584,1568,1568
49001225,1000,1000,1000,1000,65328858,1587,1586,1566,1567
49003724,1000,1000,1000,1000,65428818,1588,1587,1566,1566
49006223,1000,1000,1000,1000,65528778,1587,1586,1567,1567
49008722,1000,1000,1000,1000,65628738,1584,1583,1568,1569
49011221,1000,1000,1000,1000,65728698,1583,1582,1573,1573
49013720,1000,1000,1000,1000,65828658,1579,1579,1575,1575
49016219,1000,1000,1000,1000,65928618,1576,1577,1578,1578
49018718,1000,1000,1000,1000,66028578,1573,1573,1579,1579
49021217,1000,1000,1000,1000,66128538,1573,1573,1582,1582
49023716,1000,1000,1000,1000,66228498,1572,1572,1583,1583
49026215,1000,1000,1000,1000,66328458,1573,1573,1584,1585
49028714,1000,1000,1000,1000,66428418,1573,1574,1584,1584
49031213,1000,1000,1000,1000,66528378,1574,1575,1583,1583
49033712,1000,1000,1000,1000,66628338,1577,1577,1583,1583
49036211,1000,1000,1000,1000,66728298,1578,1578,1581,1582
49038710,1000,1000,1000,1000,66828258,1579,1578,1579,1580
49041209,1000,1000,1000,1000,66928218,1580,1580,1578,1579
49043708,1000,1000,1000,1000,67028178,1581,1581,1578,1578
49046207,1000,1000,1000,1000,67128971,1581,1581,1577,1577
49048706,1000,1000,1000,1000,67228931,1582,1582,1578,1577
49051205,1000,1000,1000,1000,67328891,1581,1581,1577,1577
49053704,1000,1000,1000,1000,67428851,1582,1582,1578,1578
49056203,1000,1000,1000,1000,67528811,1581,1580,1577,1578
49058702,1000,1000,1000,1000,67628771,1581,1580,1579,1579
49061201,1000,1000,1000,1000,67728731,1580,1580,1578,1579
49063700,1000,1000,1000,1000,67828691,1579,1580,1579,1579
49066199,1000,1000,1000,1000,67928651,1579,1579,1580,1580
49068698,1000,1000,1000,1000,68028611,1580,1580,1581,1581
49071197,1000,1000,1000,1000,68128571,1580,1580,1582,1581
49073696,1000,1000,1000,1000,68228531,1580,1580,1581,1581
49076195,1000,1000,1000,1000,68328491,1581,1579,1582,1581
49078694,1000,1000,1000,1000,68428451,1581,1580,1582,1582
49081193,1000,1000,1000,1000,68528411,1580,1579,1580,1580
49083692,1000,1000,1000,1000,68628371,1580,1580,1580,1581
49086191,1000,1000,1000,1000,68728331,1580,1580,1580,1580
49088690,1000,1000,1000,1000,68828291,1580,1580,1580,1580
49091189,1000,1000,1000,1000,68928251,1580,1581,1583,1576
49093688,1000,1000,1000,1000,69028211,1580,1583,1585,1570
49096187,1000,1000,1000,1000,69128171,1580,1583,1578,1570
49098686,1000,1000,1000,1000,69228964,1579,1582,1568,1569
49101185,1000,1000,1000,1000,69328924,1578,1580,1560,1566
49103684,1000,1000,1000,1000,69428884,1576,1579,1552,1560
49106183,1000,1000,1000,1000,69528844,1577,1578,1549,1555
49108682,1000,1000,1000,1000,69628804,1579,1578,1549,1552
49111181,1000,1000,1000,1000,69728764,1581,1579,1551,1551
49113680,1000,1000,1000,1000,69828724,1579,1578,1551,1549
49116179,1000,1000,1000,1000,69928684,1579,1578,1552,1549
49118678,1000,1000,1000,1000,70028644,1577,1578,1552,1550
49121177,1000,1000,1000,1000,70128604,1578,1579,1553,1551
49123676,1000,1000,1000,1000,70228564,1576,1578,1551,1551
49126175,1000,1000,1000,1000,70328524,1403,1556,1552,1553
49128674,1000,1000,1000,1000,70428484,1502,1526,1574,1577
49131173,1000,1000,1000,1000,70528444,1563,1527,1582,1582
49133672,1000,1000,1000,1000,70628404,1610,1551,1590,1589
49136171,1000,1000,1000,1000,70728364,1639,1580,1593,1590
49138670,1000,1000,1000,1000,70828324,1643,1604,1586,1585
49141169,1000,1000,1000,1000,70928284,1630,1617,1571,1572
49143668,1000,1000,1000,1000,71028244,1612,1624,1555,1558
49146167,1000,1000,1000,1000,71128204,1599,1626,1545,1547
49148666,1000,1000,1000,1000,71228164,1593,1624,1539,1539
49151165,1000,1000,1000,1000,71328957,1593,1617,1538,1533
49153664,1000,1000,1000,1000,71428917,1595,1608,1538,1532
49156163,1000,1000,1000,1000,71528877,1596,1597,1540,1535
49158662,1000,1000,1000,1000,71628837,1593,1586,1543,1544
49161161,1000,1000,1000,1000,71728797,1587,1577,1548,1553
49163660,1000,1000,1000,1000,71828757,1579,1568,1554,1564
49166159,1000,1000,1000,1000,71928717,1569,1562,1562,1572
49168658,1000,1000,1000,1000,72028677,1558,1554,1569,1578
49171157,1000,1000,1000,1000,72128637,1549,1549,1579,1584
49173656,1000,1000,1000,1000,72228597,1541,1542,1587,1589
49176155,1000,1000,1000,1000,72328557,1535,1537,1596,1594
49178654,1000,1000,1000,1000,72428517,1531,1533,1603,1600
49181153,1000,1000,1000,1000,72528477,1530,1532,1607,1603
49183652,1000,1000,1000,1000,72628437,1531,1533,1605,1602
49186151,1000,1000,1000,1000,72728397,1537,1539,1603,1601
49188650,1000,1000,1000,1000,72828357,1544,1546,1597,1597
49191149,1000,1000,1000,1000,72928317,1551,1554,1590,1589
49193648,1000,1000,1000,1000,73028277,1561,1563,1583,1583
49196147,1000,1000,1000,1000,73128237,1570,1572,1578,1576
49198646,1000,1000,1000,1000,73228197,1578,1576,1571,1570
49201145,1000,1000,1000,1000,73328157,1583,1581,1566,1565
49203644,1000,1000,1000,1000,73428950,1587,1583,1564,1564
49206143,1000,1000,1000,1000,73528910,1588,1585,1564,1564
49208642,1000,1000,1000,1000,73628870,1588,1586,1565,1566
49211141,1000,1000,1000,1000,73728830,1586,1585,1567,1567
49213640,1000,1000,1000,1000,73828790,1584,1584,1569,1570
49216139,1000,1000,1000,1000,73928750,1582,1583,1571,1571
49218638,1000,1000,1000,1000,74028710,1580,1580,1574,1574
49221137,1000,1000,1000,1000,74128670,1578,1579,1576,1576
49223636,1000,1000,1000,1000,74228630,1576,1576,1578,1578
49226135,1000,1000,1000,1000,74328590,1574,1575,1580,1580
49228634,1000,1000,1000,1000,74428550,1573,1573,1581,1581
49231133,1000,1000,1000,1000,74528510,1571,1572,1582,1582
49233632,1000,1000,1000,1000,74628470,1571,1571,1583,1583
49236131,1000,1000,1000,1000,74728430,1572,1573,1584,1584
49238630,1000,1000,1000,1000,74828390,1572,1572,1583,1583
49241129,1000,1000,1000,1000,74928350,1573,1574,1583,1583
49243628,1000,1000,1000,1000,75028310,1575,1575,1582,1582
49246127,1000,1000,1000,1000,75128270,1575,1575,1580,1580
49248626,1000,1000,1000,1000,75228230,1577,1577,1579,1580
49251125,1000,1000,1000,1000,75328190,1578,1578,1578,1578
49253624,1000,1000,1000,1000,75428983,1579,1579,1577,1578
49256123,1000,1000,1000,1000,75528943,1580,1580,1578,1577
49258622,1000,1000,1000,1000,75628903,1581,1580,1576,1577
49261121,1000,1000,1000,1000,75728863,1581,1581,1577,1576
49263620,1000,1000,1000,1000,75828823,1581,1580,1576,1577
49266119,1000,1000,1000,1000,75928783,1581,1581,1577,1576
49268618,1000,1000,1000,1000,76028743,1581,1581,1578,1578
49271117,1000,1000,1000,1000,76128703,1580,1580,1578,1578
49273616,1000,1000,1000,1000,76228663,1580,1580,1579,1580
49276115,1000,1000,1000,1000,76328623,1580,1580,1580,1579
49278614,1000,1000,1000,1000,76428583,1579,1579,1580,1580
49281113,1000,1000,1000,1000,76528543,1580,1580,1581,1580
49283612,1000,1000,1000,1000,76628503,1580,1580,1581,1581
49286111,1000,1000,1000,1000,76728463,1580,1580,1581,1581
49288610,1000,1000,1000,1000,76828423,1580,1580,1580,1581
49291109,1000,1000,1000,1000,76928383,1580,1580,1586,1576
49293608,1000,1000,1000,1000,77028343,1581,1581,1587,1575
49296107,1000,1000,1000,1000,77128303,1580,1580,1581,1574
49298606,1000,1000,1000,1000,77228263,1578,1579,1573,1574
49301105,1000,1000,1000,1000,77328223,1576,1578,1565,1571
49303604,1000,1000,1000,1000,77428183,1575,1576,1560,1567
49306103,1000,1000,1000,1000,77528976,1575,1576,1560,1563
49308602,1000,1000,1000,1000,77628936,1576,1575,1560,1561
49311101,1000,1000,1000,1000,77728896,1576,1575,1562,1561
49313600,1000,1000,1000,1000,77828856,1575,1574,1563,1560
49316099,1000,1000,1000,1000,77928816,1573,1573,1563,1560
49318598,1000,1000,1000,1000,78028776,1572,1573,1562,1561
49321097,1000,1000,1000,1000,78128736,1571,1571,1561,1561
49323596,1000,1000,1000,1000,78228696,1570,1571,1560,1561
49326095,1000,1000,1000,1000,78328656,1568,1569,1559,1558
49328594,1000,1000,1000,1000,78428616,1568,1569,1557,1558
49331093,1000,1000,1000,1000,78528576,1569,1570,1557,1556
49333592,1000,1000,1000,1000,78628536,1570,1571,1555,1555
49336091,1000,1000,1000,1000,78728496,1571,1573,1554,1553
49338590,1000,1000,1000,1000,78828456,1574,1575,1553,1552
49341089,1000,1000,1000,1000,78928416,1576,1577,1551,1550
49343588,1000,1000,1000,1000,79028376,1578,1578,1547,1547
49346087,1000,1000,1000,1000,79128336,1580,1581,1545,1545
49348586,1000,1000,1000,1000,79228296,1583,1583,1544,1543
49351085,1000,1000,1000,1000,79328256,1585,1585,1542,1542
49353584,1000,1000,1000,1000,79428216,1587,1587,1541,1541
49356083,1000,1000,1000,1000,79528176,1588,1589,1540,1540
49358582,1000,1000,1000,1000,79628969,1589,1589,1540,1541
49361081,1000,1000,1000,1000,79728929,1590,1589,1542,1542
49363580,1000,1000,1000,1000,79828889,1588,1588,1543,1544
49366079,1000,1000,1000,1000,79928849,1587,1587,1545,1546
49368578,1000,1000,1000,1000,80028809,1584,1584,1548,1550
49371077,1000,1000,1000,1000,80128769,1582,1581,1552,1555
49373576,1000,1000,1000,1000,80228729,1577,1575,1557,1559
49376075,1000,1000,1000,1000,80328689,1572,1570,1565,1568
49378574,1000,1000,1000,1000,80428649,1566,1563,1573,1575
49381073,1000,1000,1000,1000,80528609,1559,1557,1581,1582
49383572,1000,1000,1000,1000,80628569,1553,1551,1588,1589
49386071,1000,1000,1000,1000,80728529,1547,1547,1594,1593
49388570,1000,1000,1000,1000,80828489,1544,1545,1598,1598
49391069,1000,1000,1000,1000,80928449,1543,1545,1599,1599
49393568,1000,1000,1000,1000,81028409,1544,1546,1598,1598
49396067,1000,1000,1000,1000,81128369,1548,1550,1597,1597
49398566,1000,1000,1000,1000,81228329,1553,1554,1594,1594
49401065,1000,1000,1000,1000,81328289,1558,1559,1590,1590
49403564,1000,1000,1000,1000,81428249,1564,1563,1587,1586
49406063,1000,1000,1000,1000,81528209,1569,1567,1584,1582
49408562,1000,1000,1000,1000,81628169,1573,1571,1582,1580
49411061,1000,1000,1000,1000,81728962,1576,1575,1580,1579
49413560,1000,1000,1000,1000,81828922,1577,1576,1577,1577
49416059,1000,1000,1000,1000,81928882,1578,1577,1575,1576
49418558,1000,1000,1000,1000,82028842,1580,1580,1577,1577
49421057,1000,1000,1000,1000,82128802,1580,1579,1576,1576
49423556,1000,1000,1000,1000,82228762,1580,1580,1577,1577
49426055,1000,1000,1000,1000,82328722,1580,1580,1577,1578
49428554,1000,1000,1000,1000,82428682,1578,1579,1578,1578
49431053,1000,1000,1000,1000,82528642,1577,1578,1578,1578
49433552,1000,1000,1000,1000,82628602,1578,1579,1580,1580
49436051,1000,1000,1000,1000,82728562,1578,1578,1580,1581
49438550,1000,1000,1000,1000,82828522,1577,1578,1580,1581
49441049,1000,1000,1000,1000,82928482,1578,1578,1581,1581
49443548,1000,1000,1000,1000,83028442,1578,1578,1582,1581
49446047,1000,1000,1000,1000,83128402,1578,1578,1581,1580
49448546,1000,1000,1000,1000,83228362,1578,1578,1581,1580
49451045,1000,1000,1000,1000,83328322,1579,1579,1580,1580
49453544,1000,1000,1000,1000,83428282,1579,1579,1580,1580
49456043,1000,1000,1000,1000,83528242,1580,1579,1579,1580
49458542,1000,1000,1000,1000,83628202,1579,1579,1579,1579
49461041,1000,1000,1000,1000,83728162,1579,1579,1579,1578
49463540,1000,1000,1000,1000,83828955,1580,1580,1579,1579
49466039,1000,1000,1000,1000,83928915,1580,1580,1579,1579
49468538,1000,1000,1000,1000,84028875,1581,1581,1580,1580
49471037,1000,1000,1000,1000,84128835,1580,1580,1579,1579
49473536,1000,1000,1000,1000,84228795,1581,1581,1580,1580
49476035,1000,1000,1000,1000,84328755,1580,1580,1580,1580
49478534,1000,1000,1000,1000,84428715,1581,1581,1581,1581
49481033,1000,1000,1000,1000,84528675,1581,1581,1581,1581
49483532,1000,1000,1000,1000,84628635,1580,1581,1581,1581
49486031,1000,1000,1000,1000,84728595,1580,1581,1581,1581
49488530,1000,1000,1000,1000,84828555,1580,1581,1581,1581
49491029,1000,1000,1000,1000,84928515,1580,1580,1580,1580
49493528,1000,1000,1000,1000,85028475,1581,1581,1581,1581
49496027,1000,1000,1000,1000,85128435,1580,1580,1580,1581
49498526,1000,1000,1000,1000,85228395,1581,1581,1581,1582
49501025,1000,1000,1000,1000,85328355,1582,1581,1581,1581
49503524,1000,1000,1000,1000,85428315,1581,1582,1585,1577
49506023,1000,1000,1000,1000,85528275,1581,1581,1588,1573
49508522,1000,1000,1000,1000,85628235,1579,1579,1583,1574
49511021,1000,1000,1000,1000,85728195,1577,1576,1575,1576
49513520,1000,1000,1000,1000,85828155,1574,1573,1569,1575
49516019,1000,1000,1000,1000,85928948,1570,1569,1565,1572
49518518,1000,1000,1000,1000,86028908,1568,1568,1564,1570
49521017,1000,1000,1000,1000,86128868,1566,1567,1565,1568
49523516,1000,1000,1000,1000,86228828,1565,1566,1566,1565
49526015,1000,1000,1000,1000,86328788,1565,1565,1567,1564
49528514,1000,1000,1000,1000,86428748,1565,1565,1567,1564
49531013,1000,1000,1000,1000,86528708,1564,1564,1565,1564
49533512,1000,1000,1000,1000,86628668,1563,1563,1564,1563
49536011,1000,1000,1000,1000,86728628,1562,1562,1563,1563
49538510,1000,1000,1000,1000,86828588,1562,1563,1563,1563
49541009,1000,1000,1000,1000,86928548,1561,1560,1561,1562
49543508,1000,1000,1000,1000,87028508,1561,1560,1561,1561
49546007,1000,1000,1000,1000,87128468,1561,1561,1561,1561
49548506,1000,1000,1000,1000,87228428,1561,1561,1562,1561
49551005,1000,1000,1000,1000,87328388,1560,1560,1560,1560
49553504,1000,1000,1000,1000,87428348,1559,1559,1560,1559
49556003,1000,1000,1000,1000,87528308,1557,1557,1557,1557
49558502,1000,1000,1000,1000,87628268,1558,1558,1558,1557
49561001,1000,1000,1000,1000,87728228,1558,1558,1558,1557
49563500,1000,1000,1000,1000,87828188,1558,1558,1559,1557
49565999,1000,1000,1000,1000,87928981,1558,1557,1558,1557
49568498,1000,1000,1000,1000,88028941,1558,1558,1559,1557
49570997,1000,1000,1000,1000,88128901,1559,1557,1560,1557
49573496,1000,1000,1000,1000,88228861,1559,1558,1559,1560
49575995,1000,1000,1000,1000,88328821,1560,1559,1557,1562
49578494,1000,1000,1000,1000,88428781,1561,1562,1559,1565
49580993,1000,1000,1000,1000,88528741,1561,1561,1558,1564
49583492,1000,1000,1000,1000,88628701,1561,1562,1560,1563
49585991,1000,1000,1000,1000,88728661,1560,1561,1560,1560
49588490,1000,1000,1000,1000,88828621,1560,1560,1559,1560
49590989,1000,1000,1000,1000,88928581,1557,1557,1555,1557
49593488,1000,1000,1000,1000,89028541,1553,1553,1551,1552
49595987,1000,1000,1000,1000,89128501,1547,1546,1545,1545
49598486,1000,1000,1000,1000,89228461,1541,1541,1539,1538
49600985,1000,1000,1000,1000,89328421,1534,1534,1532,1532
49603484,1000,1000,1000,1000,89428381,1525,1526,1523,1523
49605983,1000,1000,1000,1000,89528341,1521,1522,1520,1520
49608482,1000,1000,1000,1000,89628301,1519,1520,1518,1519
49610981,1000,1000,1000,1000,89728261,1519,1520,1520,1521
49613480,1000,1000,1000,1000,89828221,1520,1521,1522,1523
49615979,1000,1000,1000,1000,89928181,1523,1523,1526,1526
49618478,1000,1000,1000,1000,90028974,1527,1528,1531,1531
49620977,1000,1000,1000,1000,90128934,1533,1532,1536,1536
49623476,1000,1000,1000,1000,90228894,1537,1536,1540,1540
49625975,1000,1000,1000,1000,90328854,1540,1539,1542,1542
49628474,1000,1000,1000,1000,90428814,1543,1542,1544,1544
49630973,1000,1000,1000,1000,90528774,1544,1544,1546,1544
49633472,1000,1000,1000,1000,90628734,1543,1545,1547,1544
49635971,1000,1000,1000,1000,90728694,1543,1544,1548,1545
49638470,1000,1000,1000,1000,90828654,1543,1543,1548,1548
49640969,1000,1000,1000,1000,90928614,1543,1542,1550,1550
49643468,1000,1000,1000,1000,91028574,1543,1541,1549,1552
49645967,1000,1000,1000,1000,91128534,1542,1541,1550,1552
49648466,1000,1000,1000,1000,91228494,1542,1541,1548,1550
49650965,1000,1000,1000,1000,91328454,1542,1542,1548,1549
49653464,1000,1000,1000,1000,91428414,1543,1542,1546,1547
49655963,1000,1000,1000,1000,91528374,1544,1544,1546,1546
49658462,1000,1000,1000,1000,91628334,1545,1546,1544,1545
49660961,1000,1000,1000,1000,91728294,1547,1547,1543,1543
49663460,1000,1000,1000,1000,91828254,1548,1548,1541,1542
49665959,1000,1000,1000,1000,91928214,1549,1549,1541,1541
49668458,1000,1000,1000,1000,92028174,1549,1549,1540,1540
49670957,1000,1000,1000,1000,92128967,1550,1550,1540,1540
49673456,1000,1000,1000,1000,92228927,1549,1549,1540,1540
49675955,1000,1000,1000,1000,92328887,1549,1550,1541,1541
49678454,1000,1000,1000,1000,92428847,1549,1549,1541,1542
49680953,1000,1000,1000,1000,92528807,1547,1547,1542,1541
49683452,1000,1000,1000,1000,92628767,1547,1547,1543,1543
49685951,1000,1000,1000,1000,92728727,1546,1547,1544,1543
49688450,1000,1000,1000,1000,92828687,1545,1546,1544,1543
49690949,1000,1000,1000,1000,92928647,1546,1546,1545,1545
49693448,1000,1000,1000,1000,93028607,1545,1546,1545,1545
49695947,1000,1000,1000,1000,93128567,1545,1545,1545,1545
49698446,1000,1000,1000,1000,93228527,1544,1545,1544,1544
49700945,1000,1000,1000,1000,93328487,1545,1545,1544,1544
49703444,1000,1000,1000,1000,93428447,1546,1546,1545,1545
49705943,1000,1000,1000,1000,93528407,1546,1545,1544,1544
49708442,1000,1000,1000,1000,93628367,1546,1546,1544,1543
49710941,1000,1000,1000,1000,93728327,1547,1546,1543,1543
49713440,1000,1000,1000,1000,93828287,1547,1545,1544,1543
49715939,1000,1000,1000,1000,93928247,1546,1545,1545,1543
49718438,1000,1000,1000,1000,94028207,1546,1545,1546,1544
49720937,1000,1000,1000,1000,94128167,1545,1544,1546,1545
49723436,1000,1000,1000,1000,94228960,1543,1542,1546,1545
49725935,1000,1000,1000,1000,94328920,1542,1542,1547,1547
49728434,1000,1000,1000,1000,94428880,1541,1541,1547,1547
49730933,1000,1000,1000,1000,94528840,1541,1542,1547,1548
49733432,1000,1000,1000,1000,94628800,1540,1541,1546,1547
49735931,1000,1000,1000,1000,94728760,1540,1541,1545,1546
49738430,1000,1000,1000,1000,94828720,1540,1541,1545,1545
49740929,1000,1000,1000,1000,94928680,1542,1542,1545,1545
49743428,1000,1000,1000,1000,95028640,1543,1543,1545,1544
49745927,1000,1000,1000,1000,95128600,1544,1543,1544,1544
49748426,1000,1000,1000,1000,95228560,1545,1545,1543,1544
49750925,1000,1000,1000,1000,95328520,1545,1545,1543,1543
49753424,1000,1000,1000,1000,95428480,1546,1545,1543,1543
49755923,1000,1000,1000,1000,95528440,1546,1546,1543,1543
49758422,1000,1000,1000,1000,95628400,1546,1547,1544,1544
49760921,1000,1000,1000,1000,95728360,1546,1546,1544,1544
49763420,1000,1000,1000,1000,95828320,1545,1545,1543,1543
49765919,1000,1000,1000,1000,95928280,1545,1545,1544,1544
49768418,1000,1000,1000,1000,96028240,1545,1546,1545,1545
49770917,1000,1000,1000,1000,96128200,1544,1544,1544,1544
49773416,1000,1000,1000,1000,96228160,1544,1544,1544,1544
49775915,1000,1000,1000,1000,96328953,1544,1544,1544,1545
49778414,1000,1000,1000,1000,96428913,1545,1544,1546,1546
49780913,1000,1000,1000,1000,96528873,1544,1544,1544,1545
49783412,1000,1000,1000,1000,96628833,1543,1543,1545,1544
49785911,1000,1000,1000,1000,96728793,1543,1542,1543,1543
49788410,1000,1000,1000,1000,96828753,1543,1544,1545,1544
49790909,1000,1000,1000,1000,96928713,1544,1544,1544,1545
49793408,1000,1000,1000,1000,97028673,1543,1543,1544,1544
49795907,1000,1000,1000,1000,97128633,1543,1544,1543,1544
49798406,1000,1000,1000,1000,97228593,1544,1543,1543,1543
49800905,1000,1000,1000,1000,97328553,1544,1543,1543,1543
49803404,1000,1000,1000,1000,97428513,1545,1545,1545,1545
49805903,1000,1000,1000,1000,97528473,1544,1544,1544,1544
49808402,1000,1000,1000,1000,97628433,1544,1544,1544,1544
49810901,1000,1000,1000,1000,97728393,1543,1543,1543,1543
49813400,1000,1000,1000,1000,97828353,1544,1544,1544,1544
49815899,1000,1000,1000,1000,97928313,1545,1544,1544,1544
49818398,1000,1000,1000,1000,98028273,1544,1544,1543,1544
49820897,1000,1000,1000,1000,98128233,1543,1543,1543,1543
49823396,1000,1000,1000,1000,98228193,1543,1544,1544,1544
49825895,1000,1000,1000,1000,98328986,1543,1543,1543,1542
49828394,1000,1000,1000,1000,98428946,1544,1544,1544,1543
49830893,1000,1000,1000,1000,98528906,1543,1543,1544,1543
49833392,1000,1000,1000,1000,98628866,1544,1544,1544,1544
49835891,1000,1000,1000,1000,98728826,1545,1544,1544,1545
49838390,1000,1000,1000,1000,98828786,1544,1545,1545,1545
49840889,1000,1000,1000,1000,98928746,1544,1544,1544,1545
49843388,1000,1000,1000,1000,99028706,1544,1544,1544,1544
49845887,1000,1000,1000,1000,99128666,1544,1544,1544,1544
49848386,1000,1000,1000,1000,99228626,1535,1534,1533,1533
49850885,1000,1000,1000,1000,99328586,1395,1341,1347,1340
49853384,1000,1000,1000,1000,99428546,1330,1240,1251,1238
49855883,1000,1000,1000,1000,99528506,1311,1210,1220,1209
49858382,1000,1000,1000,1000,99628466,1298,1193,1200,1190
49860881,1000,1000,1000,1000,99728426,1275,1152,1160,1150
49863380,1000,1000,1000,1000,99828386,1227,1152,1159,1150
49865879,1000,1000,1000,1000,99928346,1227,1152,1159,1150
49868378,1000,1000,1000,1000,100028306,1226,1153,1161,1150
49870877,1000,1000,1000,1000,100128266,1214,1152,1150,1180
49873376,1000,1000,1000,1000,100228226,1222,1150,1150,1170
49875875,1000,1000,1000,1000,100328186,1225,1150,1152,1163
49878374,1000,1000,1000,1000,100428979,1226,1150,1152,1162
49880873,1000,1000,1000,1000,100528939,1225,1150,1152,1162
49883372,1000,1000,1000,1000,100628899,1225,1150,1152,1162
49885871,1000,1000,1000,1000,100728859,1225,1150,1152,1163
49888370,1000,1000,1000,1000,100828819,1225,1150,1152,1163
49890869,1000,1000,1000,1000,100928779,1234,1150,1150,1150
49893368,1000,1000,1000,1000,101028739,1233,1150,1150,1151
49895867,1000,1000,1000,1000,101128699,1233,1150,1150,1152
49898366,1000,1000,1000,1000,101228659,1233,1150,1150,1152
49900865,1000,1000,1000,1000,101328619,1233,1150,1150,1152
49903364,1000,1000,1000,1000,101428579,1000,1000,1000,1000
49905863,1000,1000,1000,1000,101528539,1000,1000,1000,1000
49908362,1000,1000,1000,1000,101628499,1000,1000,1000,1000
49910861,1000,1000,1000,1000,101728459,1000,1000,1000,1000
49913360,1000,1000,1000,1000,101828419,1000,1000,1000,1000
49915859,1000,1000,1000,1000,101928379,1000,1000,1000,1000
49918358,1000,1000,1000,1000,102028339,1000,1000,1000,1000
49920857,1000,1000,1000,1000,102128299,1000,1000,1000,1000
49923356,1000,1000,1000,1000,102228259,1000,1000,1000,1000
49925855,1000,1000,1000,1000,102328219,1000,1000,1000,1000
49928354,1000,1000,1000,1000,102428179,1000,1000,1000,1000
49930853,1000,1000,1000,1000,102528972,1000,1000,1000,1000
49933352,1000,1000,1000,1000,102628932,1000,1000,1000,1000
49935851,1000,1000,1000,1000,102728892,1000,1000,1000,1000
49938350,1000,1000,1000,1000,102828852,1000,1000,1000,1000
49940849,1000,1000,1000,1000,102928812,1000,1000,1000,1000
49943348,1000,1000,1000,1000,103028772,1000,1000,1000,1000
49945847,1000,1000,1000,1000,103128732,1000,1000,1000,1000
49948346,1000,1000,1000,1000,103228692,1000,1000,1000,1000
49950845,1000,1000,1000,1000,103328652,1000,1000,1000,1000
49953344,1000,1000,1000,1000,103428612,1000,1000,1000,1000
49955843,1000,1000,1000,1000,103528572,1000,1000,1000,1000
49958342,1000,1000,1000,1000,103628532,1000,1000,1000,1000
49960841,1000,1000,1000,1000,103728492,1000,1000,1000,1000
49963340,1000,1000,1000,1000,103828452,1000,1000,1000,1000
49965839,1000,1000,1000,1000,103928412,1000,1000,1000,1000
49968338,1000,1000,1000,1000,104028372,1000,1000,1000,1000
49970837,1000,1000,1000,1000,104128332,1000,1000,1000,1000
49973336,1000,1000,1000,1000,104228292,1000,1000,1000,1000
49975835,1000,1000,1000,1000,104328252,1000,1000,1000,1000
49978334,1000,1000,1000,1000,104428212,1000,1000,1000,1000
49980833,1000,1000,1000,1000,104528172,1000,1000,1000,1000
49983332,1000,1000,1000,1000,104628965,1000,1000,1000,1000
49985831,1000,1000,1000,1000,104728925,1000,1000,1000,1000
49988330,1000,1000,1000,1000,104828885,1000,1000,1000,1000
49990829,1000,1000,1000,1000,104928845,1000,1000,1000,1000
49993328,1000,1000,1000,1000,105028805,1000,1000,1000,1000
49995827,1000,1000,1000,1000,105128765,1000,1000,1000,1000
49998326,1000,1000,1000,1000,105228725,1000,1000,1000,1000
50000825,1000,1000,1000,1000,105328685,1000,1000,1000,1000
50003324,1000,1000,1000,1000,105428645,1000,1000,1000,1000
50005823,1000,1000,1000,1000,105528605,1000,1000,1000,1000
50008322,1000,1000,1000,1000,105628565,1000,1000,1000,1000
50010821,1000,1000,1000,1000,105728525,1000,1000,1000,1000
50013320,1000,1000,1000,1000,105828485,1000,1000,1000,1000
50015819,1000,1000,1000,1000,105928445,1000,1000,1000,1000
50018318,1000,1000,1000,1000,106028405,1000,1000,1000,1000
50020817,1000,1000,1000,1000,106128365,1000,1000,1000,1000
50023316,1000,1000,1000,1000,106228325,1000,1000,1000,1000
50025815,1000,1000,1000,1000,106328285,1000,1000,1000,1000
50028314,1000,1000,1000,1000,106428245,1000,1000,1000,1000
50030813,1000,1000,1000,1000,106528205,1000,1000,1000,1000
50033312,1000,1000,1000,1000,106628165,1000,1000,1000,1000
50035811,1000,1000,1000,1000,106728958,1000,1000,1000,1000
50038310,1000,1000,1000,1000,106828918,1000,1000,1000,1000
50040809,1000,1000,1000,1000,106928878,1000,1000,1000,1000
50043308,1000,1000,1000,1000,107028838,1000,1000,1000,1000
50045807,1000,1000,1000,1000,107128798,1000,1000,1000,1000
50048306,1000,1000,1000,1000,107228758,1000,1000,1000,1000
50050805,1000,1000,1000,1000,107328718,1000,1000,1000,1000
50053304,1000,1000,1000,1000,107428678,1000,1000,1000,1000
50055803,1000,1000,1000,1000,107528638,1000,1000,1000,1000
50058302,1000,1000,1000,1000,107628598,1000,1000,1000,1000
50060801,1000,1000,1000,1000,107728558,1000,1000,1000,1000
50063300,1000,1000,1000,1000,107828518,1000,1000,1000,1000
50065799,1000,1000,1000,1000,107928478,1000,1000,1000,1000
50068298,1000,1000,1000,1000,108028438,1000,1000,1000,1000
50070797,1000,1000,1000,1000,108128398,1000,1000,1000,1000
50073296,1000,1000,1000,1000,108228358,1000,1000,1000,1000
50075795,1000,1000,1000,1000,108328318,1000,1000,1000,1000
50078294,1000,1000,1000,1000,108428278,1000,1000,1000,1000
50080793,1000,1000,1000,1000,108528238,1000,1000,1000,1000
50083292,1000,1000,1000,1000,108628198,1000,1000,1000,1000
50085791,1000,1000,1000,1000,108728158,1000,1000,1000,1000
50088290,1000,1000,1000,1000,108828951,1000,1000,1000,1000
50090789,1000,1000,1000,1000,108928911,1000,1000,1000,1000
50093288,1000,1000,1000,1000,109028871,1000,1000,1000,1000
50095787,1000,1000,1000,1000,109128831,1000,1000,1000,1000
50098286,1000,1000,1000,1000,109228791,1000,1000,1000,1000
50100785,1000,1000,1000,1000,109328751,1000,1000,1000,1000
50103284,1000,1000,1000,1000,109428711,1000,1000,1000,1000
50105783,1000,1000,1000,1000,109528671,1000,1000,1000,1000
50108282,1000,1000,1000,1000,109628631,1000,1000,1000,1000
50110781,1000,1000,1000,1000,109728591,1000,1000,1000,1000
50113280,1000,1000,1000,1000,109828551,1000,1000,1000,1000
50115779,1000,1000,1000,1000,109928511,1000,1000,1000,1000
50118278,1000,1000,1000,1000,110028471,1000,1000,1000,1000
50120777,1000,1000,1000,1000,110128431,1000,1000,1000,1000
50123276,1000,1000,1000,1000,110228391,1000,1000,1000,1000
50125775,1000,1000,1000,1000,110328351,1000,1000,1000,1000
50128274,1000,1000,1000,1000,110428311,1000,1000,1000,1000
50130773,1000,1000,1000,1000,110528271,1000,1000,1000,1000
50133272,1000,1000,1000,1000,110628231,1000,1000,1000,1000
50135771,1000,1000,1000,1000,110728191,1000,1000,1000,1000
50138270,1000,1000,1000,1000,110828984,1000,1000,1000,1000
50140769,1000,1000,1000,1000,110928944,1000,1000,1000,1000
50143268,1000,1000,1000,1000,111028904,1000,1000,1000,1000
50145767,1000,1000,1000,1000,111128864,1000,1000,1000,1000
50148266,1000,1000,1000,1000,111228824,1000,1000,1000,1000
50150765,1000,1000,1000,1000,111328784,1000,1000,1000,1000
50153264,1000,1000,1000,1000,111428744,1000,1000,1000,1000
50155763,1000,1000,1000,1000,111528704,1000,1000,1000,1000
50158262,1000,1000,1000,1000,111628664,1000,1000,1000,1000
50160761,1000,1000,1000,1000,111728624,1000,1000,1000,1000
50163260,1000,1000,1000,1000,111828584,1000,1000,1000,1000
50165759,1000,1000,1000,1000,111928544,1000,1000,1000,1000
50168258,1000,1000,1000,1000,112028504,1000,1000,1000,1000
50170757,1000,1000,1000,1000,112128464,1000,1000,1000,1000
50173256,1000,1000,1000,1000,112228424,1000,1000,1000,1000
50175755,1000,1000,1000,1000,112328384,1000,1000,1000,1000
50178254,1000,1000,1000,1000,112428344,1000,1000,1000,1000
50180753,1000,1000,1000,1000,112528304,1000,1000,1000,1000
50183252,1000,1000,1000,1000,112628264,1000,1000,1000,1000
50185751,1000,1000,1000,1000,112728224,1000,1000,1000,1000
50188250,1000,1000,1000,1000,112828184,1000,1000,1000,1000
50190749,1000,1000,1000,1000,112928977,1000,1000,1000,1000
50193248,1000,1000,1000,1000,113028937,1000,1000,1000,1000
50195747,1000,1000,1000,1000,113128897,1000,1000,1000,1000
50198246,1000,1000,1000,1000,113228857,1000,1000,1000,1000
50200745,1000,1000,1000,1000,113328817,1000,1000,1000,1000
50203244,1000,1000,1000,1000,113428777,1000,1000,1000,1000
50205743,1000,1000,1000,1000,113528737,1000,1000,1000,1000
50208242,1000,1000,1000,1000,113628697,1000,1000,1000,1000
50210741,1000,1000,1000,1000,113728657,1000,1000,1000,1000
50213240,1000,1000,1000,1000,113828617,1000,1000,1000,1000
50215739,1000,1000,1000,1000,113928577,1000,1000,1000,1000
50218238,1000,1000,1000,1000,114028537,1000,1000,1000,1000
50220737,1000,1000,1000,1000,114128497,1000,1000,1000,1000
50223236,1000,1000,1000,1000,114228457,1000,1000,1000,1000
50225735,1000,1000,1000,1000,114328417,1000,1000,1000,1000
50228234,1000,1000,1000,1000,114428377,1000,1000,1000,1000
50230733,1000,1000,1000,1000,114528337,1000,1000,1000,1000
50233232,1000,1000,1000,1000,114628297,1000,1000,1000,1000
50235731,1000,1000,1000,1000,114728257,1000,1000,1000,1000
50238230,1000,1000,1000,1000,114828217,1000,1000,1000,1000
50240729,1000,1000,1000,1000,114928177,1000,1000,1000,1000
50243228,1000,1000,1000,1000,115028970,1000,1000,1000,1000
50245727,1000,1000,1000,1000,115128930,1000,1000,1000,1000
50248226,1000,1000,1000,1000,115228890,1000,1000,1000,1000
50250725,1000,1000,1000,1000,115328850,1000,1000,1000,1000
50253224,1000,1000,1000,1000,115428810,1000,1000,1000,1000
50255723,1000,1000,1000,1000,115528770,1000,1000,1000,1000
50258222,1000,1000,1000,1000,115628730,1000,1000,1000,1000
50260721,1000,1000,1000,1000,115728690,1000,1000,1000,1000
50263220,1000,1000,1000,1000,115828650,1000,1000,1000,1000
50265719,1000,1000,1000,1000,115928610,1000,1000,1000,1000
50268218,1000,1000,1000,1000,116028570,1000,1000,1000,1000
50270717,1000,1000,1000,1000,116128530,1000,1000,1000,1000
50273216,1000,1000,1000,1000,116228490,1000,1000,1000,1000
50275715,1000,1000,1000,1000,116328450,1000,1000,1000,1000
50278214,1000,1000,1000,1000,,,,,
50280713,1000,1000,1000,1000,,,,,
50283212,1000,1000,1000,1000,,,,,
50285711,1000,1000,1000,1000,,,,,
50288210,1000,1000,1000,1000,,,,,
50290709,1000,1000,1000,1000,,,,,
50293208,1000,1000,1000,1000,,,,,
50295707,1000,1000,1000,1000,,,,,
50298206,1000,1000,1000,1000,,,,,
50300705,1000,1000,1000,1000,,,,,
50303204,1000,1000,1000,1000,,,,,
50305703,1000,1000,1000,1000,,,,,
50308202,1000,1000,1000,1000,,,,,
50310701,1000,1000,1000,1000,,,,,
50313200,1000,1000,1000,1000,,,,,
50315699,1000,1000,1000,1000,,,,,
50318198,1000,1000,1000,1000,,,,,
50320697,1000,1000,1000,1000,,,,,
50323196,1000,1000,1000,1000,,,,,
50325695,1000,1000,1000,1000,,,,,
50328194,1000,1000,1000,1000,,,,,
50330693,1000,1000,1000,1000,,,,,
50333192,1000,1000,1000,1000,,,,,
50335691,1000,1000,1000,1000,,,,,
50338190,1000,1000,1000,1000,,,,,
50340689,1000,1000,1000,1000,,,,,
50343188,1000,1000,1000,1000,,,,,
50345687,1000,1000,1000,1000,,,,,
50348186,1000,1000,1000,1000,,,,,
50350685,1000,1000,1000,1000,,,,,
50353184,1000,1000,1000,1000,,,,,
50355683,1000,1000,1000,1000,,,,,
50358182,1000,1000,1000,1000,,,,,
50360681,1000,1000,1000,1000,,,,,
50363180,1000,1000,1000,1000,,,,,
50365679,1000,1000,1000,1000,,,,,
50368178,1000,1000,1000,1000,,,,,
50370677,1000,1000,1000,1000,,,,,
50373176,1000,1000,1000,1000,,,,,
50375675,1000,1000,1000,1000,,,,,
50378174,1000,1000,1000,1000,,,,,
50380673,1000,1000,1000,1000,,,,,
50383172,1000,1000,1000,1000,,,,,
50385671,1000,1000,1000,1000,,,,,
50388170,1000,1000,1000,1000,,,,,
50390669,1000,1000,1000,1000,,,,,
50393168,1000,1000,1000,1000,,,,,
50395667,1000,1000,1000,1000,,,,,
50398166,1000,1000,1000,1000,,,,,
50400665,1000,1000,1000,1000,,,,,
50403164,1000,1000,1000,1000,,,,,
50405663,1000,1000,1000,1000,,,,,
50408162,1000,1000,1000,1000,,,,,
50410661,1000,1000,1000,1000,,,,,
50413160,1000,1000,1000,1000,,,,,
50415659,1000,1000,1000,1000,,,,,
50418158,1000,1000,1000,1000,,,,,
50420657,1000,1000,1000,1000,,,,,
50423156,1000,1000,1000,1000,,,,,
50425655,1000,1000,1000,1000,,,,,
50428154,1000,1000,1000,1000,,,,,
50431486,1000,1000,1000,1000,,,,,
50433985,1000,1000,1000,1000,,,,,
50436484,1000,1000,1000,1000,,,,,
50438983,1000,1000,1000,1000,,,,,
50441482,1000,1000,1000,1000,,,,,
50443981,1000,1000,1000,1000,,,,,
50446480,1000,1000,1000,1000,,,,,
50448979,1000,1000,1000,1000,,,,,
50451478,1000,1000,1000,1000,,,,,
50453977,1000,1000,1000,1000,,,,,
50456476,1000,1000,1000,1000,,,,,
50458975,1000,1000,1000,1000,,,,,
50461474,1000,1000,1000,1000,,,,,
50463973,1000,1000,1000,1000,,,,,
50466472,1000,1000,1000,1000,,,,,
50468971,1000,1000,1000,1000,,,,,
50471470,1000,1000,1000,1000,,,,,
50473969,1000,1000,1000,1000,,,,,
50476468,1000,1000,1000,1000,,,,,
50478967,1000,1000,1000,1000,,,,,
50481466,1000,1000,1000,1000,,,,,
50483965,1000,1000,1000,1000,,,,,
50486464,1000,1000,1000,1000,,,,,
50488963,1000,1000,1000,1000,,,,,
50491462,1000,1000,1000,1000,,,,,
50493961,1000,1000,1000,1000,,,,,
50496460,1000,1000,1000,1000,,,,,
50498959,1000,1000,1000,1000,,,,,
50501458,1000,1000,1000,1000,,,,,
50503957,1000,1000,1000,1000,,,,,
50506456,1000,1000,1000,1000,,,,,
50508955,1000,1000,1000,1000,,,,,
50511454,1000,1000,1000,1000,,,,,
50513953,1000,1000,1000,1000,,,,,
50516452,1000,1000,1000,1000,,,,,
50518951,1000,1000,1000,1000,,,,,
50521450,1000,1000,1000,1000,,,,,
50523949,1000,1000,1000,1000,,,,,
50526448,1000,1000,1000,1000,,,,,
50528947,1000,1000,1000,1000,,,,,
50531446,1000,1000,1000,1000,,,,,
50533945,1000,1000,1000,1000,,,,,
50536444,1000,1000,1000,1000,,,,,
50538943,1000,1000,1000,1000,,,,,
50541442,1000,1000,1000,1000,,,,,
50543941,1000,1000,1000,1000,,,,,
50546440,1000,1000,1000,1000,,,,,
50548939,1000,1000,1000,1000,,,,,
50551438,1000,1000,1000,1000,,,,,
50553937,1000,1000,1000,1000,,,,,
50556436,1000,1000,1000,1000,,,,,
50558935,1000,1000,1000,1000,,,,,
50561434,1000,1000,1000,1000,,,,,
50563933,1000,1000,1000,1000,,,,,
50566432,1000,1000,1000,1000,,,,,
50568931,1000,1000,1000,1000,,,,,
50571430,1000,1000,1000,1000,,,,,
50573929,1000,1000,1000,1000,,,,,
50576428,1000,1000,1000,1000,,,,,
50578927,1000,1000,1000,1000,,,,,
50581426,1000,1000,1000,1000,,,,,
50583925,1000,1000,1000,1000,,,,,
50586424,1000,1000,1000,1000,,,,,
50588923,1000,1000,1000,1000,,,,,
50591422,1001,1001,1001,1001,,,,,
50593921,1002,1002,1002,1002,,,,,
50596420,1003,1003,1003,1003,,,,,
50598919,1003,1003,1003,1003,,,,,
50601418,1004,1004,1004,1004,,,,,
50603917,1005,1005,1005,1005,,,,,
50606416,1006,1006,1006,1006,,,,,
50608915,1006,1006,1006,1006,,,,,
50611414,1007,1007,1007,1007,,,,,
50613913,1008,1008,1008,1008,,,,,
50616412,1009,1009,1009,1009,,,,,
50618911,1009,1009,1009,1009,,,,,
50621410,1010,1010,1010,1010,,,,,
50623909,1011,1011,1011,1011,,,,,
50626408,1012,1012,1012,1012,,,,,
50628907,1012,1012,1012,1012,,,,,
50631406,1013,1013,1013,1013,,,,,
50633905,1014,1014,1014,1014,,,,,
50636404,1015,1015,1015,1015,,,,,
50638903,1015,1015,1015,1015,,,,,
50641402,1016,1016,1016,1016,,,,,
50643901,1017,1017,1017,1017,,,,,
50646400,1018,1018,1018,1018,,,,,
50648899,1018,1018,1018,1018,,,,,
50651398,1019,1019,1019,1019,,,,,
50653897,1020,1020,1020,1020,,,,,
50656396,1021,1021,1021,1021,,,,,
50658895,1021,1021,1021,1021,,,,,
50661394,1022,1022,1022,1022,,,,,
50663893,1023,1023,1023,1023,,,,,
50666392,1024,1024,1024,1024,,,,,
50668891,1024,1024,1024,1024,,,,,
50671390,1025,1025,1025,1025,,,,,
50673889,1026,1026,1026,1026,,,,,
50676388,1027,1027,1027,1027,,,,,
50678887,1027,1027,1027,1027,,,,,
50681386,1028,1028,1028,1028,,,,,
50683885,1029,1029,1029,1029,,,,,
50686384,1030,1030,1030,1030,,,,,
50688883,1030,1030,1030,1030,,,,,
50691382,1031,1031,1031,1031,,,,,
50693881,1032,1032,1032,1032,,,,,
50696380,1033,1033,1033,1033,,,,,
50698879,1033,1033,1033,1033,,,,,
50701378,1034,1034,1034,1034,,,,,
50703877,1035,1035,1035,1035,,,,,
50706376,1036,1036,1036,1036,,,,,
50708875,1036,1036,1036,1036,,,,,
50711374,1037,1037,1037,1037,,,,,
50713873,1038,1038,1038,1038,,,,,
50716372,1039,1039,1039,1039,,,,,
50718871,1039,1039,1039,1039,,,,,
50721370,1040,1040,1040,1040,,,,,
50723869,1041,1041,1041,1041,,,,,
50726368,1042,1042,1042,1042,,,,,
50728867,1042,1042,1042,1042,,,,,
50731366,1043,1043,1043,1043,,,,,
50733865,1044,1044,1044,1044,,,,,
50736364,1045,1045,1045,1045,,,,,
50738863,1045,1045,1045,1045,,,,,
50741362,1046,1046,1046,1046,,,,,
50743861,1047,1047,1047,1047,,,,,
50746360,1048,1048,1048,1048,,,,,
50748859,1048,1048,1048,1048,,,,,
50751358,1049,1049,1049,1049,,,,,
50753857,1050,1050,1050,1050,,,,,
50756356,1051,1051,1051,1051,,,,,
50758855,1051,1051,1051,1051,,,,,
50761354,1052,1052,1052,1052,,,,,
50763853,1053,1053,1053,1053,,,,,
50766352,1054,1054,1054,1054,,,,,
50768851,1054,1054,1054,1054,,,,,
50771350,1055,1055,1055,1055,,,,,
50773849,1056,1056,1056,1056,,,,,
50776348,1057,1057,1057,1057,,,,,
50778847,1057,1057,1057,1057,,,,,
50781346,1058,1058,1058,1058,,,,,
50783845,1059,1059,1059,1059,,,,,
50786344,1060,1060,1060,1060,,,,,
50788843,1060,1060,1060,1060,,,,,
50791342,1061,1061,1061,1061,,,,,
50793841,1062,1062,1062,1062,,,,,
50796340,1063,1063,1063,1063,,,,,
50798839,1063,1063,1063,1063,,,,,
50801338,1064,1064,1064,1064,,,,,
50803837,1065,1065,1065,1065,,,,,
50806336,1066,1066,1066,1066,,,,,
50808835,1066,1066,1066,1066,,,,,
50811334,1067,1067,1067,1067,,,,,
50813833,1068,1068,1068,1068,,,,,
50816332,1069,1069,1069,1069,,,,,
50818831,1069,1069,1069,1069,,,,,
50821330,1070,1070,1070,1070,,,,,
50823829,1071,1071,1071,1071,,,,,
50826328,1072,1072,1072,1072,,,,,
50828827,1072,1072,1072,1072,,,,,
50831326,1073,1073,1073,1073,,,,,
50833825,1074,1074,1074,1074,,,,,
50836324,1075,1075,1075,1075,,,,,
50838823,1075,1075,1075,1075,,,,,
50841322,1076,1076,1076,1076,,,,,
50843821,1077,1077,1077,1077,,,,,
50846320,1078,1078,1078,1078,,,,,
50848819,1078,1078,1078,1078,,,,,
50851318,1079,1079,1079,1079,,,,,
50853817,1080,1080,1080,1080,,,,,
50856316,1081,1081,1081,1081,,,,,
50858815,1081,1081,1081,1081,,,,,
50861314,1082,1082,1082,1082,,,,,
50863813,1083,1083,1083,1083,,,,,
50866312,1084,1084,1084,1084,,,,,
50868811,1084,1084,1084,1084,,,,,
50871310,1085,1085,1085,1085,,,,,
50873809,1086,1086,1086,1086,,,,,
50876308,1087,1087,1087,1087,,,,,
50878807,1087,1087,1087,1087,,,,,
50881306,1088,1088,1088,1088,,,,,
50883805,1089,1089,1089,1089,,,,,
50886304,1090,1090,1090,1090,,,,,
50888803,1090,1090,1090,1090,,,,,
50891302,1091,1091,1091,1091,,,,,
50893801,1092,1092,1092,1092,,,,,
50896300,1093,1093,1093,1093,,,,,
50898799,1093,1093,1093,1093,,,,,
50901298,1094,1094,1094,1094,,,,,
50903797,1095,1095,1095,1095,,,,,
50906296,1096,1096,1096,1096,,,,,
50908795,1096,1096,1096,1096,,,,,
50911294,1097,1097,1097,1097,,,,,
50913793,1098,1098,1098,1098,,,,,
50916292,1099,1099,1099,1099,,,,,
50918791,1099,1099,1099,1099,,,,,
50921290,1100,1100,1100,1100,,,,,
50923789,1101,1101,1101,1101,,,,,
50926288,1101,1101,1101,1101,,,,,
50928787,1102,1102,1102,1102,,,,,
50931286,1103,1103,1103,1103,,,,,
50933785,1104,1104,1104,1104,,,,,
50936284,1104,1104,1104,1104,,,,,
50938783,1105,1105,1105,1105,,,,,
50941282,1106,1106,1106,1106,,,,,
50943781,1107,1107,1107,1107,,,,,
50946280,1107,1107,1107,1107,,,,,
50948779,1108,1108,1108,1108,,,,,
50951278,1109,1109,1109,1109,,,,,
50953777,1110,1110,1110,1110,,,,,
50956276,1110,1110,1110,1110,,,,,
50958775,1111,1111,1111,1111,,,,,
50961274,1112,1112,1112,1112,,,,,
50963773,1113,1113,1113,1113,,,,,
50966272,1113,1113,1113,1113,,,,,
50968771,1114,1114,1114,1114,,,,,
50971270,1115,1115,1115,1115,,,,,
50973769,1116,1116,1116,1116,,,,,
50976268,1116,1116,1116,1116,,,,,
50978767,1117,1117,1117,1117,,,,,
50981266,1118,1118,1118,1118,,,,,
50983765,1119,1119,1119,1119,,,,,
50986264,1119,1119,1119,1119,,,,,
50988763,1120,1120,1120,1120,,,,,
50991262,1121,1121,1121,1121,,,,,
50993761,1122,1122,1122,1122,,,,,
50996260,1122,1122,1122,1122,,,,,
50998759,1123,1123,1123,1123,,,,,
51001258,1124,1124,1124,1124,,,,,
51003757,1125,1125,1125,1125,,,,,
51006256,1125,1125,1125,1125,,,,,
51008755,1126,1126,1126,1126,,,,,
51011254,1127,1127,1127,1127,,,,,
51013753,1128,1128,1128,1128,,,,,
51016252,1128,1128,1128,1128,,,,,
51018751,1129,1129,1129,1129,,,,,
51021250,1130,1130,1130,1130,,,,,
51023749,1131,1131,1131,1131,,,,,
51026248,1131,1131,1131,1131,,,,,
51028747,1132,1132,1132,1132,,,,,
51031246,1133,1133,1133,1133,,,,,
51033745,1134,1134,1134,1134,,,,,
51036244,1134,1134,1134,1134,,,,,
51038743,1135,1135,1135,1135,,,,,
51041242,1136,1136,1136,1136,,,,,
51043741,1137,1137,1137,1137,,,,,
51046240,1137,1137,1137,1137,,,,,
51048739,1138,1138,1138,1138,,,,,
51051238,1139,1139,1139,1139,,,,,
51053737,1140,1140,1140,1140,,,,,
51056236,1140,1140,1140,1140,,,,,
51058735,1141,1141,1141,1141,,,,,
51061234,1142,1142,1142,1142,,,,,
51063733,1143,1143,1143,1143,,,,,
51066232,1143,1143,1143,1143,,,,,
51068731,1144,1144,1144,1144,,,,,
51071230,1145,1145,1145,1145,,,,,
51073729,1146,1146,1146,1146,,,,,
51076228,1146,1146,1146,1146,,,,,
51078727,1147,1147,1147,1147,,,,,
51081226,1148,1148,1148,1148,,,,,
51083725,1149,1149,1149,1149,,,,,
51086224,1149,1149,1149,1149,,,,,
51088723,1150,1150,1150,1150,,,,,
51091222,1161,1154,1154,1162,,,,,
51093721,1169,1162,1162,1170,,,,,
51096220,1177,1170,1170,1178,,,,,
51098719,1185,1178,1178,1185,,,,,
51101218,1192,1185,1186,1193,,,,,
51103717,1200,1193,1193,1200,,,,,
51106216,1207,1200,1201,1208,,,,,
51108715,1214,1207,1208,1215,,,,,
51111214,1222,1215,1215,1222,,,,,
51113713,1229,1222,1222,1229,,,,,
51116212,1235,1229,1229,1236,,,,,
51118711,1242,1235,1236,1243,,,,,
51121210,1249,1242,1243,1249,,,,,
51123709,1256,1249,1249,1256,,,,,
51126208,1262,1256,1256,1262,,,,,
51128707,1268,1262,1262,1269,,,,,
51131206,1275,1269,1269,1275,,,,,
51133705,1281,1275,1275,1281,,,,,
51136204,1287,1281,1282,1288,,,,,
51138703,1293,1287,1288,1294,,,,,
51141202,1299,1294,1294,1300,,,,,
51143701,1305,1300,1300,1306,,,,,
51146200,1311,1306,1306,1312,,,,,
51148699,1317,1312,1312,1318,,,,,
51151198,1323,1317,1318,1324,,,,,
51153697,1329,1323,1324,1329,,,,,
51156196,1335,1329,1329,1335,,,,,
51158695,1340,1335,1335,1341,,,,,
51161194,1346,1340,1341,1346,,,,,
51163693,1351,1346,1346,1352,,,,,
51166192,1357,1351,1352,1357,,,,,
51168691,1362,1357,1357,1363,,,,,
51171190,1368,1362,1363,1368,,,,,
51173689,1373,1368,1368,1373,,,,,
51176188,1378,1373,1373,1379,,,,,
51178687,1384,1378,1379,1384,,,,,
51181186,1389,1384,1384,1389,,,,,
51183685,1394,1389,1389,1394,,,,,
51186184,1399,1394,1394,1400,,,,,
51188683,1404,1399,1399,1405,,,,,
51191182,1409,1404,1404,1410,,,,,
51193681,1414,1409,1409,1415,,,,,
51196180,1419,1414,1414,1420,,,,,
51198679,1424,1419,1419,1425,,,,,
51201178,1429,1424,1424,1430,,,,,
51203677,1434,1429,1429,1434,,,,,
51206176,1439,1434,1434,1439,,,,,
51208675,1444,1439,1439,1444,,,,,
51211174,1448,1444,1444,1449,,,,,
51213673,1453,1448,1448,1454,,,,,
51216172,1458,1453,1453,1458,,,,,
51218671,1463,1458,1458,1463,,,,,
51221170,1467,1462,1463,1468,,,,,
51223669,1472,1467,1467,1472,,,,,
51226168,1476,1472,1472,1477,,,,,
51228667,1481,1476,1476,1481,,,,,
51231166,1485,1481,1481,1486,,,,,
51233665,1490,1485,1485,1490,,,,,
51236164,1494,1490,1490,1495,,,,,
51238663,1499,1494,1494,1499,,,,,
51241162,1503,1499,1499,1504,,,,,
51243661,1508,1503,1503,1508,,,,,
51246160,1512,1507,1508,1513,,,,,
51248659,1517,1512,1512,1517,,,,,
51251158,1521,1516,1516,1521,,,,,
51253657,1525,1520,1521,1525,,,,,
51256156,1529,1525,1525,1530,,,,,
51258655,1534,1529,1529,1534,,,,,
51261154,1538,1533,1533,1538,,,,,
51263653,1542,1537,1538,1542,,,,,
51266152,1546,1541,1542,1547,,,,,
51268651,1551,1546,1546,1551,,,,,
51271150,1555,1550,1550,1555,,,,,
51273649,1559,1554,1554,1559,,,,,
51276148,1563,1558,1558,1563,,,,,
51278647,1567,1562,1563,1567,,,,,
51281146,1571,1566,1567,1571,,,,,
51283645,1575,1570,1571,1575,,,,,
51286144,1579,1574,1575,1579,,,,,
51288643,1583,1578,1579,1583,,,,,
51291142,1587,1582,1583,1587,,,,,
51293641,1591,1586,1587,1591,,,,,
51296140,1595,1590,1591,1595,,,,,
51298639,1599,1594,1595,1599,,,,,
51301138,1603,1598,1598,1603,,,,,
51303637,1607,1602,1602,1607,,,,,
51306136,1611,1606,1606,1611,,,,,
51308635,1614,1610,1610,1615,,,,,
51311134,1618,1614,1614,1618,,,,,
51313633,1622,1617,1618,1622,,,,,
51316132,1626,1621,1622,1626,,,,,
51318631,1630,1625,1625,1630,,,,,
51321130,1633,1629,1629,1633,,,,,
51323629,1637,1633,1633,1637,,,,,
51326128,1641,1636,1637,1641,,,,,
51328627,1644,1640,1640,1645,,,,,
51331126,1648,1644,1644,1648,,,,,
51333625,1652,1648,1648,1652,,,,,
51336124,1656,1651,1652,1656,,,,,
51338623,1659,1655,1655,1659,,,,,
51341122,1663,1659,1659,1663,,,,,
51343621,1666,1662,1663,1667,,,,,
51346120,1670,1666,1666,1670,,,,,
51348619,1674,1669,1670,1674,,,,,
51351118,1677,1673,1673,1677,,,,,
51353617,1681,1677,1677,1681,,,,,
51356116,1684,1680,1681,1685,,,,,
51358615,1688,1684,1684,1688,,,,,
51361114,1691,1687,1688,1692,,,,,
51363613,1695,1691,1691,1695,,,,,
51366112,1699,1694,1695,1699,,,,,
51368611,1702,1698,1698,1702,,,,,
51371110,1705,1701,1702,1706,,,,,
51373609,1709,1705,1705,1709,,,,,
51376108,1712,1708,1709,1713,,,,,
51378607,1716,1712,1712,1716,,,,,
51381106,1719,1715,1716,1719,,,,,
51383605,1723,1719,1719,1723,,,,,
51386104,1726,1722,1722,1726,,,,,
51388603,1730,1725,1726,1730,,,,,
51391102,1733,1729,1729,1733,,,,,
51393601,1736,1732,1733,1736,,,,,
51396100,1740,1735,1736,1740,,,,,
51398599,1743,1739,1739,1743,,,,,
51401098,1746,1742,1743,1746,,,,,
51403597,1750,1745,1746,1750,,,,,
51406096,1753,1749,1749,1753,,,,,
51408595,1756,1752,1753,1756,,,,,
51411094,1760,1755,1756,1760,,,,,
51413593,1763,1759,1759,1763,,,,,
51416092,1766,1762,1762,1766,,,,,
51418591,1770,1765,1766,1770,,,,,
51421090,1773,1768,1769,1773,,,,,
51423589,1776,1772,1772,1776,,,,,
51426088,1779,1775,1775,1779,,,,,
51428587,1783,1778,1778,1783,,,,,
51431086,1786,1781,1782,1786,,,,,
51433585,1789,1784,1785,1789,,,,,
51436084,1792,1788,1788,1792,,,,,
51438583,1795,1791,1791,1796,,,,,
51441082,1799,1794,1794,1799,,,,,
51443581,1802,1797,1798,1802,,,,,
51446080,1805,1800,1801,1805,,,,,
51448579,1808,1803,1804,1808,,,,,
51451078,1811,1807,1807,1811,,,,,
51453577,1814,1810,1810,1814,,,,,
51456076,1818,1813,1813,1818,,,,,
51458575,1821,1816,1816,1821,,,,,
51461074,1824,1819,1819,1824,,,,,
51463573,1827,1822,1822,1827,,,,,
51466072,1830,1825,1826,1830,,,,,
51468571,1833,1828,1829,1833,,,,,
51471070,1836,1831,1832,1836,,,,,
51473569,1839,1834,1835,1839,,,,,
51476068,1842,1838,1838,1842,,,,,
51478567,1845,1841,1841,1845,,,,,
51481066,1848,1844,1844,1848,,,,,
51483565,1851,1847,1847,1851,,,,,
51486064,1854,1850,1850,1854,,,,,
51488563,1857,1853,1853,1857,,,,,
51491062,1860,1856,1856,1860,,,,,
51493561,1863,1859,1859,1863,,,,,
51496060,1866,1862,1862,1866,,,,,
51498559,1869,1865,1865,1869,,,,,
51501058,1872,1868,1868,1872,,,,,
51503557,1875,1871,1871,1875,,,,,
51506056,1878,1874,1874,1878,,,,,
51508555,1881,1876,1877,1881,,,,,
51511054,1884,1879,1879,1884,,,,,
51513553,1887,1882,1882,1887,,,,,
51516052,1890,1885,1885,1890,,,,,
51518551,1893,1888,1888,1893,,,,,
51521050,1894,1889,1889,1894,,,,,
51523549,1893,1888,1888,1893,,,,,
51526048,1892,1887,1887,1892,,,,,
51528547,1891,1886,1886,1891,,,,,
51531046,1890,1885,1885,1890,,,,,
51533545,1889,1884,1884,1889,,,,,
51536044,1888,1883,1884,1888,,,,,
51538543,1887,1883,1883,1887,,,,,
51541042,1886,1882,1882,1887,,,,,
51543541,1886,1881,1881,1886,,,,,
51546040,1885,1880,1881,1885,,,,,
51548539,1884,1880,1880,1885,,,,,
51551038,1884,1879,1879,1884,,,,,
51553537,1883,1879,1879,1884,,,,,
51556036,1883,1879,1879,1883,,,,,
51558535,1883,1878,1878,1883,,,,,
51561034,1883,1878,1878,1883,,,,,
51563533,1883,1878,1878,1883,,,,,
51566032,1883,1878,1878,1883,,,,,
51568531,1883,1878,1878,1883,,,,,
51571030,1883,1878,1878,1883,,,,,
51573529,1883,1878,1879,1883,,,,,
51576028,1883,1879,1879,1884,,,,,
51578527,1884,1879,1879,1884,,,,,
51581026,1884,1880,1880,1884,,,,,
51583525,1885,1880,1880,1885,,,,,
51586024,1885,1881,1881,1885,,,,,
51588523,1885,1881,1881,1886,,,,,
51591022,1886,1882,1882,1886,,,,,
51593521,1886,1882,1882,1886,,,,,
51596020,1886,1883,1883,1886,,,,,
51598519,1886,1883,1883,1887,,,,,
51601018,1886,1883,1883,1886,,,,,
51603517,1886,1883,1883,1886,,,,,
51606016,1886,1883,1883,1886,,,,,
51608515,1885,1882,1883,1885,,,,,
51611014,1885,1882,1882,1885,,,,,
51613513,1884,1881,1881,1884,,,,,
51616012,1883,1880,1880,1883,,,,,
51618511,1882,1879,1879,1882,,,,,
51621010,1880,1878,1878,1880,,,,,
51623509,1879,1876,1877,1879,,,,,
51626008,1877,1875,1875,1877,,,,,
51628507,1875,1873,1873,1875,,,,,
51631006,1873,1871,1871,1874,,,,,
51633505,1871,1869,1869,1871,,,,,
51636004,1869,1867,1867,1869,,,,,
51638503,1867,1864,1865,1867,,,,,
51641002,1864,1862,1862,1865,,,,,
51643501,1862,1860,1860,1862,,,,,
51646000,1859,1857,1857,1859,,,,,
51648499,1857,1854,1855,1857,,,,,
51650998,1854,1852,1852,1854,,,,,
51653497,1851,1849,1849,1851,,,,,
51655996,1848,1846,1846,1849,,,,,
51658495,1845,1843,1844,1846,,,,,
51660994,1843,1840,1841,1843,,,,,
51663493,1840,1837,1838,1840,,,,,
51665992,1837,1834,1835,1837,,,,,
51668491,1833,1831,1832,1834,,,,,
51670990,1830,1828,1829,1831,,,,,
51673489,1827,1825,1825,1827,,,,,
51675988,1824,1822,1822,1824,,,,,
51678487,1821,1819,1819,1821,,,,,
51680986,1818,1816,1816,1818,,,,,
51683485,1814,1813,1813,1815,,,,,
51685984,1811,1809,1810,1811,,,,,
51688483,1808,1806,1806,1808,,,,,
51690982,1805,1803,1803,1805,,,,,
51693481,1801,1800,1800,1802,,,,,
51695980,1798,1796,1797,1798,,,,,
51698479,1794,1793,1793,1795,,,,,
51700978,1791,1790,1790,1791,,,,,
51703477,1788,1787,1787,1788,,,,,
51705976,1784,1783,1783,1785,,,,,
51708475,1781,1780,1780,1781,,,,,
51710974,1778,1777,1777,1778,,,,,
51713473,1774,1773,1773,1775,,,,,
51715972,1771,1770,1770,1771,,,,,
51718471,1768,1767,1767,1768,,,,,
51720970,1764,1764,1764,1765,,,,,
51723469,1761,1760,1760,1762,,,,,
51725968,1758,1757,1757,1758,,,,,
51728467,1755,1754,1754,1755,,,,,
51730966,1751,1751,1751,1752,,,,,
51733465,1748,1748,1748,1749,,,,,
51735964,1745,1744,1745,1745,,,,,
51738463,1742,1741,1741,1742,,,,,
51740962,1739,1738,1738,1739,,,,,
51743461,1736,1735,1735,1736,,,,,
51745960,1733,1732,1732,1733,,,,,
51748459,1730,1729,1729,1730,,,,,
51750958,1727,1726,1726,1727,,,,,
51753457,1724,1723,1724,1724,,,,,
51755956,1721,1721,1721,1721,,,,,
51758455,1718,1718,1718,1718,,,,,
51760954,1715,1715,1715,1715,,,,,
51763453,1712,1712,1712,1713,,,,,
51765952,1710,1710,1710,1710,,,,,
51768451,1707,1707,1707,1707,,,,,
51770950,1704,1705,1705,1705,,,,,
51773449,1702,1702,1702,1702,,,,,
51775948,1699,1699,1700,1699,,,,,
51778447,1697,1697,1697,1697,,,,,
51780946,1694,1695,1695,1694,,,,,
