TimeUS,M1,M2,M3,M4,TimeUS,C1,C2,C3,C4
85468299,1000,1000,1000,1000,85528275,1000,1000,1000,1000
85470798,1000,1000,1000,1000,85628235,1000,1000,1000,1000
85473297,1000,1000,1000,1000,85728195,1000,1000,1000,1000
85475796,1000,1000,1000,1000,85828155,1000,1000,1000,1000
85478295,1000,1000,1000,1000,85928948,1000,1000,1000,1000
85480794,1000,1000,1000,1000,86028908,1000,1000,1000,1000
85483293,1000,1000,1000,1000,86128868,1000,1000,1000,1000
85485792,1000,1000,1000,1000,86228828,1000,1000,1000,1000
85488291,1000,1000,1000,1000,86328788,1000,1000,1000,1000
85490790,1000,1000,1000,1000,86428748,1000,1000,1000,1000
85493289,1000,1000,1000,1000,86528708,1000,1000,1000,1000
85495788,1000,1000,1000,1000,86628668,1000,1000,1000,1000
85498287,1000,1000,1000,1000,86728628,1000,1000,1000,1000
85500786,1000,1000,1000,1000,86828588,1000,1000,1000,1000
85503285,1000,1000,1000,1000,86928548,1000,1000,1000,1000
85505784,1000,1000,1000,1000,87028508,1000,1000,1000,1000
85508283,1000,1000,1000,1000,87128468,1000,1000,1000,1000
85510782,1000,1000,1000,1000,87228428,1000,1000,1000,1000
85513281,1000,1000,1000,1000,87328388,1000,1000,1000,1000
85515780,1000,1000,1000,1000,87428348,1000,1000,1000,1000
85518279,1000,1000,1000,1000,87528308,1018,1018,1018,1018
85520778,1000,1000,1000,1000,87628268,1048,1048,1048,1048
85523277,1000,1000,1000,1000,87728228,1078,1078,1078,1078
85525776,1000,1000,1000,1000,87828188,1107,1107,1107,1107
85528275,1000,1000,1000,1000,87928981,1137,1137,1137,1137
85530774,1000,1000,1000,1000,88028941,1314,1303,1304,1314
85533273,1000,1000,1000,1000,88128901,1514,1505,1506,1515
85535772,1000,1000,1000,1000,88228861,1672,1664,1665,1672
85538271,1000,1000,1000,1000,88328821,1806,1799,1799,1807
85540770,1000,1000,1000,1000,88428781,1881,1872,1873,1881
85543269,1000,1000,1000,1000,88528741,1858,1854,1854,1859
85545768,1000,1000,1000,1000,88628701,1730,1729,1730,1729
85548267,1000,1000,1000,1000,88728661,1641,1644,1644,1641
85550766,1000,1000,1000,1000,88828621,1620,1624,1624,1620
85553265,1000,1000,1000,1000,88928581,1626,1627,1623,1630
85555764,1000,1000,1000,1000,89028541,1631,1635,1628,1637
85558263,1000,1000,1000,1000,89128501,1629,1633,1629,1634
85560762,1000,1000,1000,1000,89228461,1626,1628,1628,1626
85563261,1000,1000,1000,1000,89328421,1622,1621,1624,1619
85565760,1000,1000,1000,1000,89428381,1620,1618,1623,1616
85568259,1000,1000,1000,1000,89528341,1620,1618,1622,1616
85570758,1000,1000,1000,1000,89628301,1620,1618,1620,1617
85573257,1000,1000,1000,1000,89728261,1617,1615,1616,1615
85575756,1000,1000,1000,1000,89828221,1585,1586,1593,1578
85578255,1000,1000,1000,1000,89928181,1573,1574,1578,1568
85580754,1000,1000,1000,1000,90028974,1561,1562,1562,1562
85583253,1000,1000,1000,1000,90128934,1553,1553,1548,1557
85585752,1000,1000,1000,1000,90228894,1545,1545,1536,1554
85588251,1000,1000,1000,1000,90328854,1540,1539,1531,1548
85590750,1000,1000,1000,1000,90428814,1534,1533,1528,1538
85593249,1000,1000,1000,1000,90528774,1529,1528,1527,1530
85595748,1000,1000,1000,1000,90628734,1528,1528,1529,1526
85598247,1000,1000,1000,1000,90728694,1529,1528,1531,1526
85600746,1000,1000,1000,1000,90828654,1531,1532,1535,1529
85603245,1000,1000,1000,1000,90928614,1535,1535,1538,1533
85605744,1000,1000,1000,1000,91028574,1538,1538,1540,1537
85608243,1000,1000,1000,1000,91128534,1541,1541,1543,1541
85610742,1000,1000,1000,1000,91228494,1544,1545,1545,1545
85613241,1000,1000,1000,1000,91328454,1548,1547,1547,1548
85615740,1000,1000,1000,1000,91428414,1550,1549,1549,1551
85618239,1000,1000,1000,1000,91528374,1553,1552,1552,1554
85620738,1000,1000,1000,1000,91628334,1555,1556,1554,1556
85623237,1000,1000,1000,1000,91728294,1563,1563,1551,1554
85625736,1000,1000,1000,1000,91828254,1563,1562,1555,1556
85628235,1000,1000,1000,1000,91928214,1561,1561,1561,1561
85630734,1000,1000,1000,1000,92028174,1560,1560,1566,1565
85633233,1000,1000,1000,1000,92128967,1560,1560,1570,1568
85635732,1000,1000,1000,1000,92228927,1560,1560,1571,1570
85638231,1000,1000,1000,1000,92328887,1563,1563,1572,1573
85640730,1000,1000,1000,1000,92428847,1564,1565,1573,1573
85643229,1000,1000,1000,1000,92528807,1566,1567,1572,1572
85645728,1000,1000,1000,1000,92628767,1569,1569,1572,1572
85648227,1000,1000,1000,1000,92728727,1571,1571,1572,1571
85650726,1000,1000,1000,1000,92828687,1573,1574,1571,1571
85653225,1000,1000,1000,1000,92928647,1575,1574,1570,1571
85655724,1000,1000,1000,1000,93028607,1575,1576,1571,1570
85658223,1000,1000,1000,1000,93128567,1577,1576,1572,1570
85660722,1000,1000,1000,1000,93228527,1577,1577,1572,1571
85663221,1000,1000,1000,1000,93328487,1579,1579,1575,1574
85665720,1000,1000,1000,1000,93428447,1578,1578,1574,1573
85668219,1000,1000,1000,1000,93528407,1577,1577,1575,1574
85670718,1000,1000,1000,1000,93628367,1577,1577,1576,1576
85673217,1000,1000,1000,1000,93728327,1575,1575,1575,1576
85675716,1000,1000,1000,1000,93828287,1577,1577,1577,1577
85678215,1000,1000,1000,1000,93928247,1576,1576,1577,1578
85680714,1000,1000,1000,1000,94028207,1576,1576,1578,1577
85683213,1000,1000,1000,1000,94128167,1576,1576,1578,1578
85685712,1000,1000,1000,1000,94228960,1576,1576,1578,1578
85688211,1000,1000,1000,1000,94328920,1576,1576,1578,1578
85690710,1000,1000,1000,1000,94428880,1576,1577,1578,1578
85693209,1000,1000,1000,1000,94528840,1577,1577,1578,1578
85695708,1000,1000,1000,1000,94628800,1578,1578,1578,1578
85698207,1000,1000,1000,1000,94728760,1579,1578,1578,1578
85700706,1000,1000,1000,1000,94828720,1579,1579,1578,1578
85703205,1000,1000,1000,1000,94928680,1578,1578,1578,1578
85705704,1000,1000,1000,1000,95028640,1578,1578,1577,1578
85708203,1000,1000,1000,1000,95128600,1577,1578,1577,1577
85710702,1000,1000,1000,1000,95228560,1578,1578,1578,1578
85713201,1000,1000,1000,1000,95328520,1579,1579,1579,1579
85715700,1000,1000,1000,1000,95428480,1578,1578,1578,1578
85718199,1000,1000,1000,1000,95528440,1579,1579,1579,1579
85720698,1000,1000,1000,1000,95628400,1580,1580,1581,1580
85723197,1000,1000,1000,1000,95728360,1580,1579,1580,1580
85725696,1000,1000,1000,1000,95828320,1580,1580,1580,1580
85728195,1000,1000,1000,1000,95928280,1581,1580,1581,1581
85730694,1000,1000,1000,1000,96028240,1580,1580,1580,1581
85733193,1000,1000,1000,1000,96128200,1580,1580,1580,1581
85735692,1000,1000,1000,1000,96228160,1580,1580,1580,1581
85738191,1000,1000,1000,1000,96328953,1580,1580,1580,1581
85740690,1000,1000,1000,1000,96428913,1579,1580,1580,1580
85743189,1000,1000,1000,1000,96528873,1579,1580,1580,1580
85745688,1000,1000,1000,1000,96628833,1580,1580,1581,1580
85748187,1000,1000,1000,1000,96728793,1581,1580,1580,1580
85750686,1000,1000,1000,1000,96828753,1581,1580,1580,1580
85753185,1000,1000,1000,1000,96928713,1580,1580,1580,1580
85755684,1000,1000,1000,1000,97028673,1580,1581,1580,1580
85758183,1000,1000,1000,1000,97128633,1581,1581,1581,1581
85760682,1000,1000,1000,1000,97228593,1581,1581,1581,1581
85763181,1000,1000,1000,1000,97328553,1581,1581,1581,1581
85765680,1000,1000,1000,1000,97428513,1581,1581,1581,1581
85768179,1000,1000,1000,1000,97528473,1581,1581,1581,1581
85770678,1000,1000,1000,1000,97628433,1582,1582,1582,1582
85773177,1000,1000,1000,1000,97728393,1581,1581,1581,1581
85775676,1000,1000,1000,1000,97828353,1582,1583,1586,1579
85778175,1000,1000,1000,1000,97928313,1582,1583,1589,1574
85780674,1000,1000,1000,1000,98028273,1579,1582,1581,1573
85783173,1000,1000,1000,1000,98128233,1578,1581,1573,1574
85785672,1000,1000,1000,1000,98228193,1577,1580,1564,1571
85788171,1000,1000,1000,1000,98328986,1578,1579,1559,1566
85790670,1000,1000,1000,1000,98428946,1578,1578,1555,1561
85793169,1000,1000,1000,1000,98528906,1579,1578,1554,1557
85795668,1000,1000,1000,1000,98628866,1579,1578,1555,1554
85798167,1000,1000,1000,1000,98728826,1579,1578,1555,1553
85800666,1000,1000,1000,1000,98828786,1577,1578,1555,1552
85803165,1000,1000,1000,1000,98928746,1578,1578,1556,1554
85805664,1000,1000,1000,1000,99028706,1576,1577,1554,1553
85808163,1000,1000,1000,1000,99128666,1575,1577,1553,1553
85810662,1000,1000,1000,1000,99228626,1574,1576,1551,1551
85813161,1000,1000,1000,1000,99328586,1576,1577,1550,1550
85815660,1000,1000,1000,1000,99428546,1578,1579,1548,1548
85818159,1000,1000,1000,1000,99528506,1579,1580,1545,1545
85820658,1000,1000,1000,1000,99628466,1583,1584,1544,1543
85823157,1000,1000,1000,1000,99728426,1586,1586,1541,1540
85825656,1000,1000,1000,1000,99828386,1588,1589,1539,1538
85828155,1000,1000,1000,1000,99928346,1592,1591,1536,1536
85830654,1000,1000,1000,1000,100028306,1594,1594,1535,1536
85833986,1000,1000,1000,1000,100128266,1595,1595,1535,1535
85836485,1000,1000,1000,1000,100228226,1595,1595,1535,1537
85838984,1000,1000,1000,1000,100328186,1594,1593,1538,1541
85841483,1000,1000,1000,1000,100428979,1590,1589,1542,1545
85843982,1000,1000,1000,1000,100528939,1585,1582,1550,1553
85846481,1000,1000,1000,1000,100628899,1578,1575,1560,1563
85848980,1000,1000,1000,1000,100728859,1567,1564,1571,1574
85851479,1000,1000,1000,1000,100828819,1556,1553,1584,1585
85853978,1000,1000,1000,1000,100928779,1545,1542,1594,1595
85856477,1000,1000,1000,1000,101028739,1536,1535,1604,1604
85858976,1000,1000,1000,1000,101128699,1531,1531,1612,1611
85861475,1000,1000,1000,1000,101228659,1528,1529,1615,1613
85863974,1000,1000,1000,1000,101328619,1529,1531,1614,1613
85866473,1000,1000,1000,1000,101428579,1535,1537,1610,1610
85868972,1000,1000,1000,1000,101528539,1543,1545,1605,1606
85871471,1000,1000,1000,1000,101628499,1550,1552,1597,1598
85873970,1000,1000,1000,1000,101728459,1559,1560,1590,1590
85876469,1000,1000,1000,1000,101828419,1568,1568,1583,1582
85878968,1000,1000,1000,1000,101928379,1576,1575,1576,1575
85881467,1000,1000,1000,1000,102028339,1582,1581,1572,1572
85883966,1000,1000,1000,1000,102128299,1585,1584,1568,1567
85886465,1000,1000,1000,1000,102228259,1588,1587,1567,1567
85888964,1000,1000,1000,1000,102328219,1587,1586,1566,1566
85891463,1000,1000,1000,1000,102428179,1588,1586,1568,1569
85893962,1000,1000,1000,1000,102528972,1585,1584,1570,1571
85896461,1000,1000,1000,1000,102628932,1582,1582,1574,1573
85898960,1000,1000,1000,1000,102728892,1578,1578,1575,1575
85901459,1000,1000,1000,1000,102828852,1576,1576,1578,1579
85903958,1000,1000,1000,1000,102928812,1574,1575,1581,1581
85906457,1000,1000,1000,1000,103028772,1573,1574,1583,1583
85908956,1000,1000,1000,1000,103128732,1572,1573,1583,1584
85911455,1000,1000,1000,1000,103228692,1572,1573,1584,1583
85913954,1000,1000,1000,1000,103328652,1573,1574,1584,1584
85916453,1000,1000,1000,1000,103428612,1574,1575,1583,1583
85918952,1000,1000,1000,1000,103528572,1576,1576,1582,1582
85921451,1000,1000,1000,1000,103628532,1577,1577,1580,1581
85923950,1000,1000,1000,1000,103728492,1579,1578,1579,1579
85926449,1000,1000,1000,1000,103828452,1578,1578,1577,1577
85928948,1000,1000,1000,1000,103928412,1580,1579,1577,1576
85931447,1000,1000,1000,1000,104028372,1581,1580,1577,1577
85933946,1000,1000,1000,1000,104128332,1582,1581,1577,1577
85936445,1000,1000,1000,1000,104228292,1581,1580,1576,1576
85938944,1000,1000,1000,1000,104328252,1581,1581,1577,1577
85941443,1000,1000,1000,1000,104428212,1580,1581,1578,1578
85943942,1000,1000,1000,1000,104528172,1580,1579,1578,1578
85946441,1000,1000,1000,1000,104628965,1579,1579,1579,1579
85948940,1000,1000,1000,1000,104728925,1578,1578,1580,1580
85951439,1000,1000,1000,1000,104828885,1577,1578,1579,1580
85953938,1000,1000,1000,1000,104928845,1577,1578,1580,1581
85956437,1000,1000,1000,1000,105028805,1577,1579,1580,1581
85958936,1000,1000,1000,1000,105128765,1579,1580,1581,1581
85961435,1000,1000,1000,1000,105228725,1579,1579,1580,1580
85963934,1000,1000,1000,1000,105328685,1579,1580,1579,1579
85966433,1000,1000,1000,1000,105428645,1579,1580,1579,1579
85968932,1000,1000,1000,1000,105528605,1581,1581,1579,1579
85971431,1000,1000,1000,1000,105628565,1582,1581,1579,1579
85973930,1000,1000,1000,1000,105728525,1581,1580,1579,1578
85976429,1000,1000,1000,1000,105828485,1580,1581,1581,1574
85978928,1000,1000,1000,1000,105928445,1580,1582,1583,1569
85981427,1000,1000,1000,1000,106028405,1581,1584,1578,1570
85983926,1000,1000,1000,1000,106128365,1580,1583,1569,1570
85986425,1000,1000,1000,1000,106228325,1579,1581,1561,1567
85988924,1000,1000,1000,1000,106328285,1580,1581,1556,1563
85991423,1000,1000,1000,1000,106428245,1582,1581,1554,1559
85993922,1000,1000,1000,1000,106528205,1581,1580,1552,1554
85996421,1000,1000,1000,1000,106628165,1582,1580,1553,1553
85998920,1000,1000,1000,1000,106728958,1331,1580,1554,1552
86001419,1000,1000,1000,1000,106828918,1466,1517,1583,1583
86003918,1000,1000,1000,1000,106928878,1543,1511,1593,1595
86006417,1000,1000,1000,1000,107028838,1604,1536,1604,1608
86008916,1000,1000,1000,1000,107128798,1645,1573,1612,1616
86011415,1000,1000,1000,1000,107228758,1659,1604,1609,1613
86013914,1000,1000,1000,1000,107328718,1649,1623,1594,1596
86016413,1000,1000,1000,1000,107428678,1629,1633,1572,1573
86018912,1000,1000,1000,1000,107528638,1612,1637,1556,1553
86021411,1000,1000,1000,1000,107628598,1604,1638,1545,1537
86023910,1000,1000,1000,1000,107728558,1605,1636,1540,1527
86026409,1000,1000,1000,1000,107828518,1610,1630,1534,1519
86028908,1000,1000,1000,1000,107928478,1614,1623,1531,1517
86031407,1000,1000,1000,1000,108028438,1616,1616,1528,1518
86033906,1000,1000,1000,1000,108128398,1613,1607,1525,1523
86036405,1000,1000,1000,1000,108228358,1608,1602,1527,1532
86038904,1000,1000,1000,1000,108328318,1599,1595,1529,1542
86041403,1000,1000,1000,1000,108428278,1592,1590,1535,1550
86043902,1000,1000,1000,1000,108528238,1583,1584,1542,1558
86046401,1000,1000,1000,1000,108628198,1575,1576,1552,1565
86048900,1000,1000,1000,1000,108728158,1566,1564,1563,1571
86051399,1000,1000,1000,1000,108828951,1557,1554,1576,1579
86053898,1000,1000,1000,1000,108928911,1550,1543,1588,1588
86056397,1000,1000,1000,1000,109028871,1542,1536,1599,1596
86058896,1000,1000,1000,1000,109128831,1536,1530,1609,1606
86061395,1000,1000,1000,1000,109228791,1528,1526,1617,1613
86063894,1000,1000,1000,1000,109328751,1522,1524,1622,1618
86066393,1000,1000,1000,1000,109428711,1520,1524,1622,1619
86068892,1000,1000,1000,1000,109528671,1523,1529,1619,1616
86071391,1000,1000,1000,1000,109628631,1531,1537,1613,1612
86073890,1000,1000,1000,1000,109728591,1540,1544,1603,1603
86076389,1000,1000,1000,1000,109828551,1551,1554,1593,1594
86078888,1000,1000,1000,1000,109928511,1563,1563,1583,1584
86081387,1000,1000,1000,1000,110028471,1574,1572,1575,1575
86083886,1000,1000,1000,1000,110128431,1583,1579,1568,1568
86086385,1000,1000,1000,1000,110228391,1589,1585,1565,1566
86088884,1000,1000,1000,1000,110328351,1592,1589,1564,1564
86091383,1000,1000,1000,1000,110428311,1594,1591,1565,1565
86093882,1000,1000,1000,1000,110528271,1591,1590,1564,1564
86096381,1000,1000,1000,1000,110628231,1590,1590,1566,1567
86098880,1000,1000,1000,1000,110728191,1588,1588,1568,1568
86101379,1000,1000,1000,1000,110828984,1586,1587,1570,1571
86103878,1000,1000,1000,1000,110928944,1584,1585,1573,1572
86106377,1000,1000,1000,1000,111028904,1581,1582,1574,1574
86108876,1000,1000,1000,1000,111128864,1580,1581,1576,1576
86111375,1000,1000,1000,1000,111228824,1579,1579,1577,1578
86113874,1000,1000,1000,1000,111328784,1578,1578,1579,1579
86116373,1000,1000,1000,1000,111428744,1577,1578,1580,1580
86118872,1000,1000,1000,1000,111528704,1577,1577,1581,1581
86121371,1000,1000,1000,1000,111628664,1577,1578,1582,1582
86123870,1000,1000,1000,1000,111728624,1577,1578,1583,1582
86126369,1000,1000,1000,1000,111828584,1576,1577,1581,1581
86128868,1000,1000,1000,1000,111928544,1578,1578,1582,1582
86131367,1000,1000,1000,1000,112028504,1579,1579,1582,1582
86133866,1000,1000,1000,1000,112128464,1580,1579,1581,1581
86136365,1000,1000,1000,1000,112228424,1580,1579,1580,1580
86138864,1000,1000,1000,1000,112328384,1580,1580,1580,1579
86141363,1000,1000,1000,1000,112428344,1581,1581,1579,1579
86143862,1000,1000,1000,1000,112528304,1581,1581,1579,1579
86146361,1000,1000,1000,1000,112628264,1583,1582,1580,1580
86148860,1000,1000,1000,1000,112728224,1583,1582,1580,1580
86151359,1000,1000,1000,1000,112828184,1583,1583,1581,1580
86153858,1000,1000,1000,1000,112928977,1583,1582,1580,1580
86156357,1000,1000,1000,1000,113028937,1583,1582,1580,1581
86158856,1000,1000,1000,1000,113128897,1582,1582,1580,1581
86161355,1000,1000,1000,1000,113228857,1582,1583,1581,1582
86163854,1000,1000,1000,1000,113328817,1583,1583,1582,1582
86166353,1000,1000,1000,1000,113428777,1581,1581,1581,1581
86168852,1000,1000,1000,1000,113528737,1582,1583,1584,1581
86171351,1000,1000,1000,1000,113628697,1582,1583,1589,1575
86173850,1000,1000,1000,1000,113728657,1581,1582,1585,1575
86176349,1000,1000,1000,1000,113828617,1579,1581,1576,1574
86178848,1000,1000,1000,1000,113928577,1578,1579,1567,1572
86181347,1000,1000,1000,1000,114028537,1577,1579,1562,1569
86183846,1000,1000,1000,1000,114128497,1577,1579,1559,1564
86186345,1000,1000,1000,1000,114228457,1578,1578,1559,1560
86188844,1000,1000,1000,1000,114328417,1578,1578,1559,1557
86191343,1000,1000,1000,1000,114428377,1578,1577,1558,1556
86193842,1000,1000,1000,1000,114528337,1577,1577,1558,1556
86196341,1000,1000,1000,1000,114628297,1576,1575,1557,1556
86198840,1000,1000,1000,1000,114728257,1575,1574,1556,1557
86201339,1000,1000,1000,1000,114828217,1573,1573,1555,1556
86203838,1000,1000,1000,1000,114928177,1572,1573,1555,1556
86206337,1000,1000,1000,1000,115028970,1572,1573,1555,1556
86208836,1000,1000,1000,1000,115128930,1571,1574,1555,1555
86211335,1000,1000,1000,1000,115228890,1573,1575,1556,1555
86213834,1000,1000,1000,1000,115328850,1574,1575,1554,1553
86216333,1000,1000,1000,1000,115428810,1576,1576,1553,1553
86218832,1000,1000,1000,1000,115528770,1578,1579,1552,1551
86221331,1000,1000,1000,1000,115628730,1580,1580,1549,1549
86223830,1000,1000,1000,1000,115728690,1582,1582,1547,1547
86226329,1000,1000,1000,1000,115828650,1584,1584,1546,1546
86228828,1000,1000,1000,1000,115928610,1584,1584,1543,1543
86231327,1000,1000,1000,1000,116028570,1586,1586,1542,1543
86233826,1000,1000,1000,1000,116128530,1587,1589,1542,1543
86236325,1000,1000,1000,1000,116228490,1589,1589,1543,1544
86238824,1000,1000,1000,1000,116328450,1589,1589,1544,1546
86241323,1000,1000,1000,1000,116428410,1588,1586,1548,1550
86243822,1000,1000,1000,1000,116528370,1585,1582,1552,1554
86246321,1000,1000,1000,1000,116628330,1580,1576,1559,1561
86248820,1000,1000,1000,1000,116728290,1573,1569,1567,1570
86251319,1000,1000,1000,1000,116828250,1565,1561,1575,1578
86253818,1000,1000,1000,1000,116928210,1556,1554,1585,1587
86256317,1000,1000,1000,1000,117028170,1548,1547,1593,1594
86258816,1000,1000,1000,1000,117128963,1542,1544,1600,1600
86261315,1000,1000,1000,1000,117228923,1540,1542,1605,1604
86263814,1000,1000,1000,1000,117328883,1539,1542,1605,1604
86266313,1000,1000,1000,1000,117428843,1542,1545,1605,1604
86268812,1000,1000,1000,1000,117528803,1545,1548,1602,1600
86271311,1000,1000,1000,1000,117628763,1552,1553,1598,1597
86273810,1000,1000,1000,1000,117728723,1558,1558,1592,1591
86276309,1000,1000,1000,1000,117828683,1564,1565,1587,1586
86278808,1000,1000,1000,1000,117928643,1570,1571,1580,1581
86281307,1000,1000,1000,1000,118028603,1575,1575,1576,1576
86283806,1000,1000,1000,1000,118128563,1579,1578,1573,1573
86286305,1000,1000,1000,1000,118228523,1583,1580,1571,1571
86288804,1000,1000,1000,1000,118328483,1584,1581,1571,1571
86291303,1000,1000,1000,1000,118428443,1585,1581,1572,1572
86293802,1000,1000,1000,1000,118528403,1583,1580,1572,1572
86296301,1000,1000,1000,1000,118628363,1581,1580,1574,1574
86298800,1000,1000,1000,1000,118728323,1579,1580,1576,1577
86301299,1000,1000,1000,1000,118828283,1577,1577,1577,1577
86303798,1000,1000,1000,1000,118928243,1576,1577,1578,1579
86306297,1000,1000,1000,1000,119028203,1575,1576,1579,1579
86308796,1000,1000,1000,1000,119128163,1575,1576,1580,1579
86311295,1000,1000,1000,1000,119228956,1575,1576,1579,1579
86313794,1000,1000,1000,1000,119328916,1577,1577,1579,1580
86316293,1000,1000,1000,1000,119428876,1578,1578,1580,1580
86318792,1000,1000,1000,1000,119528836,1580,1580,1580,1580
86321291,1000,1000,1000,1000,119628796,1581,1581,1580,1580
86323790,1000,1000,1000,1000,119728756,1582,1582,1580,1579
86326289,1000,1000,1000,1000,119828716,1582,1582,1581,1580
86328788,1000,1000,1000,1000,119928676,1582,1581,1580,1580
86331287,1000,1000,1000,1000,120028636,1582,1582,1582,1581
86333786,1000,1000,1000,1000,120128596,1582,1582,1583,1583
86336285,1000,1000,1000,1000,120228556,1581,1580,1582,1582
86338784,1000,1000,1000,1000,120328516,1580,1580,1582,1582
86341283,1000,1000,1000,1000,120428476,1579,1580,1582,1582
86343782,1000,1000,1000,1000,120528436,1579,1580,1582,1582
86346281,1000,1000,1000,1000,120628396,1579,1580,1581,1581
86348780,1000,1000,1000,1000,120728356,1580,1580,1581,1582
86351279,1000,1000,1000,1000,120828316,1581,1581,1582,1581
86353778,1000,1000,1000,1000,120928276,1581,1581,1582,1581
86356277,1000,1000,1000,1000,121028236,1581,1581,1581,1581
86358776,1000,1000,1000,1000,121128196,1582,1582,1581,1581
86361275,1000,1000,1000,1000,121228156,1582,1582,1581,1581
86363774,1000,1000,1000,1000,121328949,1582,1582,1580,1581
86366273,1000,1000,1000,1000,121428909,1582,1582,1580,1580
86368772,1000,1000,1000,1000,121528869,1582,1582,1581,1580
86371271,1000,1000,1000,1000,121628829,1582,1583,1582,1579
86373770,1000,1000,1000,1000,121728789,1582,1581,1588,1573
86376269,1000,1000,1000,1000,121828749,1581,1580,1584,1575
86378768,1000,1000,1000,1000,121928709,1578,1577,1577,1576
86381267,1000,1000,1000,1000,122028669,1574,1573,1570,1575
86383766,1000,1000,1000,1000,122128629,1572,1572,1567,1575
86386265,1000,1000,1000,1000,122228589,1568,1569,1566,1571
86388764,1000,1000,1000,1000,122328549,1567,1567,1565,1569
86391263,1000,1000,1000,1000,122428509,1566,1567,1568,1567
86393762,1000,1000,1000,1000,122528469,1565,1566,1567,1565
86396261,1000,1000,1000,1000,122628429,1564,1564,1566,1564
86398760,1000,1000,1000,1000,122728389,1563,1563,1565,1563
86401259,1000,1000,1000,1000,122828349,1562,1562,1564,1563
86403758,1000,1000,1000,1000,122928309,1562,1561,1563,1563
86406257,1000,1000,1000,1000,123028269,1562,1561,1562,1562
86408756,1000,1000,1000,1000,123128229,1561,1562,1562,1562
86411255,1000,1000,1000,1000,123228189,1561,1561,1561,1561
86413754,1000,1000,1000,1000,123328982,1561,1561,1561,1561
86416253,1000,1000,1000,1000,123428942,1562,1561,1562,1561
86418752,1000,1000,1000,1000,123528902,1560,1560,1560,1559
86421251,1000,1000,1000,1000,123628862,1559,1559,1559,1558
86423750,1000,1000,1000,1000,123728822,1558,1558,1558,1557
86426249,1000,1000,1000,1000,123828782,1558,1558,1558,1557
86428748,1000,1000,1000,1000,123928742,1558,1558,1559,1557
86431247,1000,1000,1000,1000,124028702,1557,1557,1558,1556
86433746,1000,1000,1000,1000,124128662,1557,1558,1558,1557
86436245,1000,1000,1000,1000,124228622,1558,1558,1560,1557
86438744,1000,1000,1000,1000,124328582,1559,1558,1561,1558
86441243,1000,1000,1000,1000,124428542,1559,1558,1559,1558
86443742,1000,1000,1000,1000,124528502,1560,1559,1557,1562
86446241,1000,1000,1000,1000,124628462,1560,1560,1558,1564
86448740,1000,1000,1000,1000,124728422,1561,1562,1559,1565
86451239,1000,1000,1000,1000,124828382,1562,1563,1560,1564
86453738,1000,1000,1000,1000,124928342,1561,1562,1562,1562
86456237,1000,1000,1000,1000,125028302,1560,1560,1561,1558
86458736,1000,1000,1000,1000,125128262,1559,1559,1560,1556
86461235,1000,1000,1000,1000,125228222,1560,1560,1558,1561
86463734,1000,1000,1000,1000,125328182,1556,1557,1554,1557
86466233,1000,1000,1000,1000,125428975,1551,1551,1551,1551
86468732,1000,1000,1000,1000,125528935,1545,1545,1546,1546
86471231,1000,1000,1000,1000,125628895,1538,1537,1540,1539
86473730,1000,1000,1000,1000,125728855,1531,1529,1533,1533
86476229,1000,1000,1000,1000,125828815,1523,1522,1525,1526
86478728,1000,1000,1000,1000,125928775,1518,1518,1520,1522
86481227,1000,1000,1000,1000,126028735,1517,1519,1520,1522
86483726,1000,1000,1000,1000,126128695,1517,1519,1521,1522
86486225,1000,1000,1000,1000,126228655,1520,1521,1522,1523
86488724,1000,1000,1000,1000,126328615,1524,1525,1525,1526
86491223,1000,1000,1000,1000,126428575,1529,1530,1528,1529
86493722,1000,1000,1000,1000,126528535,1535,1535,1533,1533
86496221,1000,1000,1000,1000,126628495,1540,1540,1536,1537
86498720,1000,1000,1000,1000,126728455,1544,1543,1539,1539
86501219,1000,1000,1000,1000,126828415,1546,1546,1540,1540
86503718,1000,1000,1000,1000,126928375,1549,1548,1541,1541
86506217,1000,1000,1000,1000,127028335,1550,1550,1543,1542
86508716,1000,1000,1000,1000,127128295,1551,1552,1544,1544
86511215,1000,1000,1000,1000,127228255,1551,1552,1545,1544
86513714,1000,1000,1000,1000,127328215,1552,1551,1546,1544
86516213,1000,1000,1000,1000,127428175,1551,1550,1547,1545
86518712,1000,1000,1000,1000,127528968,1550,1549,1548,1546
86521211,1000,1000,1000,1000,127628928,1547,1546,1548,1546
86523710,1000,1000,1000,1000,127728888,1546,1546,1550,1549
86526209,1000,1000,1000,1000,127828848,1544,1544,1550,1550
86528708,1000,1000,1000,1000,127928808,1543,1543,1550,1551
86531207,1000,1000,1000,1000,128028768,1541,1542,1549,1549
86533706,1000,1000,1000,1000,128128728,1541,1542,1549,1549
86536205,1000,1000,1000,1000,128228688,1541,1542,1548,1548
86538704,1000,1000,1000,1000,128328648,1541,1541,1547,1546
86541203,1000,1000,1000,1000,128428608,1542,1542,1546,1545
86543702,1000,1000,1000,1000,128528568,1543,1543,1545,1546
86546201,1000,1000,1000,1000,128628528,1543,1543,1543,1543
86548700,1000,1000,1000,1000,128728488,1544,1543,1543,1543
86551199,1000,1000,1000,1000,128828448,1545,1545,1543,1543
86553698,1000,1000,1000,1000,128928408,1545,1545,1542,1543
86556197,1000,1000,1000,1000,129028368,1545,1545,1541,1542
86558696,1000,1000,1000,1000,129128328,1545,1545,1542,1542
86561195,1000,1000,1000,1000,129228288,1544,1545,1541,1541
86563694,1000,1000,1000,1000,129328248,1545,1544,1542,1542
86566193,1000,1000,1000,1000,129428208,1545,1545,1543,1543
86568692,1000,1000,1000,1000,129528168,1544,1544,1543,1543
86571191,1000,1000,1000,1000,129628961,1544,1543,1544,1543
86573690,1000,1000,1000,1000,129728921,1543,1543,1544,1544
86576189,1000,1000,1000,1000,129828881,1543,1544,1545,1545
86578688,1000,1000,1000,1000,129928841,1543,1543,1544,1545
86581187,1000,1000,1000,1000,130028801,1543,1544,1545,1545
86583686,1000,1000,1000,1000,130128761,1544,1543,1544,1545
86586185,1000,1000,1000,1000,130228721,1543,1543,1544,1544
86588684,1000,1000,1000,1000,130328681,1544,1543,1545,1545
86591183,1000,1000,1000,1000,130428641,1544,1544,1545,1544
86593682,1000,1000,1000,1000,130528601,1545,1544,1545,1545
86596181,1000,1000,1000,1000,130628561,1545,1545,1545,1545
86598680,1000,1000,1000,1000,130728521,1544,1544,1543,1544
86601179,1000,1000,1000,1000,130828481,1544,1545,1544,1544
86603678,1000,1000,1000,1000,130928441,1544,1543,1542,1543
86606177,1000,1000,1000,1000,131028401,1545,1545,1544,1544
86608676,1000,1000,1000,1000,131128361,1545,1544,1543,1544
86611175,1000,1000,1000,1000,131228321,1544,1544,1543,1544
86613674,1000,1000,1000,1000,131328281,1545,1545,1544,1545
86616173,1000,1000,1000,1000,131428241,1544,1544,1544,1543
86618672,1000,1000,1000,1000,131528201,1544,1544,1544,1544
86621171,1000,1000,1000,1000,131628161,1544,1544,1544,1545
86623670,1000,1000,1000,1000,131728954,1545,1545,1545,1545
86626169,1000,1000,1000,1000,131828914,1544,1544,1544,1545
86628668,1000,1000,1000,1000,131928874,1544,1543,1544,1544
86631167,1000,1000,1000,1000,132028834,1544,1544,1544,1544
86633666,1000,1000,1000,1000,132128794,1544,1543,1543,1544
86636165,1000,1000,1000,1000,132228754,1544,1544,1544,1544
86638664,1000,1000,1000,1000,132328714,1543,1544,1544,1544
86641163,1000,1000,1000,1000,132428674,1544,1545,1545,1544
86643662,1000,1000,1000,1000,132528634,1544,1544,1544,1545
86646161,1000,1000,1000,1000,132628594,1543,1544,1545,1543
86648660,1000,1000,1000,1000,132728554,1544,1544,1546,1544
86651159,1000,1000,1000,1000,132828514,1543,1543,1547,1545
86653658,1000,1000,1000,1000,132928474,1542,1542,1546,1546
86656157,1000,1000,1000,1000,133028434,1542,1541,1547,1547
86658656,1000,1000,1000,1000,133128394,1541,1541,1546,1548
86661155,1000,1000,1000,1000,133228354,1541,1541,1546,1548
86663654,1000,1000,1000,1000,133328314,1542,1541,1545,1547
86666153,1000,1000,1000,1000,133428274,1542,1542,1544,1546
86668652,1000,1000,1000,1000,133528234,1543,1544,1544,1546
86671151,1000,1000,1000,1000,133628194,1544,1544,1543,1544
86673650,1000,1000,1000,1000,133728154,1545,1545,1542,1542
86676149,1000,1000,1000,1000,133828947,1546,1546,1542,1542
86678648,1000,1000,1000,1000,133928907,1548,1548,1541,1542
86681147,1000,1000,1000,1000,134028867,1548,1548,1540,1541
86683646,1000,1000,1000,1000,134128827,1548,1548,1540,1540
86686145,1000,1000,1000,1000,134228787,1549,1550,1541,1542
86688644,1000,1000,1000,1000,134328747,1548,1549,1541,1541
86691143,1000,1000,1000,1000,134428707,1547,1547,1541,1540
86693642,1000,1000,1000,1000,134528667,1547,1547,1542,1542
86696141,1000,1000,1000,1000,134628627,1546,1546,1542,1541
86698640,1000,1000,1000,1000,134728587,1547,1546,1544,1543
86701139,1000,1000,1000,1000,134828547,1545,1545,1545,1543
86703638,1000,1000,1000,1000,134928507,1544,1544,1546,1544
86706137,1000,1000,1000,1000,135028467,1543,1542,1546,1544
86708636,1000,1000,1000,1000,135128427,1542,1542,1546,1546
86711135,1000,1000,1000,1000,135228387,1541,1542,1547,1547
86713634,1000,1000,1000,1000,135328347,1540,1540,1546,1546
86716133,1000,1000,1000,1000,135428307,1540,1541,1547,1547
86718632,1000,1000,1000,1000,135528267,1541,1541,1547,1547
86721131,1000,1000,1000,1000,135628227,1470,1445,1440,1462
86723630,1000,1000,1000,1000,135728187,1361,1288,1260,1325
86726129,1000,1000,1000,1000,135828980,1321,1222,1189,1264
86728628,1000,1000,1000,1000,135928940,1310,1199,1172,1240
86731127,1000,1000,1000,1000,136028900,1297,1171,1150,1212
86733626,1000,1000,1000,1000,136128860,1278,1171,1150,1211
86736125,1000,1000,1000,1000,136228820,1154,1163,1150,1189
86738624,1000,1000,1000,1000,136328780,1151,1165,1150,1192
86741123,1000,1000,1000,1000,136428740,1150,1165,1150,1192
86743622,1000,1000,1000,1000,136528700,1167,1152,1150,1180
86746121,1000,1000,1000,1000,136628660,1160,1158,1150,1186
86748620,1000,1000,1000,1000,136728620,1157,1159,1150,1188
86751119,1000,1000,1000,1000,136828580,1157,1159,1150,1188
86753618,1000,1000,1000,1000,136928540,1157,1159,1150,1188
86756117,1000,1000,1000,1000,137028500,1157,1159,1150,1188
86758616,1000,1000,1000,1000,137128460,1157,1158,1150,1188
86761115,1000,1000,1000,1000,137228420,1158,1158,1150,1188
86763614,1000,1000,1000,1000,137328380,1176,1150,1150,1166
86766113,1000,1000,1000,1000,137428340,1176,1150,1150,1168
86768612,1000,1000,1000,1000,137528300,1175,1150,1150,1170
86771111,1000,1000,1000,1000,137628260,1174,1150,1150,1170
86773610,1000,1000,1000,1000,137728220,1079,1150,1150,1162
86776109,1000,1000,1000,1000,137828180,1000,1000,1000,1000
86778608,1000,1000,1000,1000,137928973,1000,1000,1000,1000
86781107,1000,1000,1000,1000,138028933,1000,1000,1000,1000
86783606,1000,1000,1000,1000,138128893,1000,1000,1000,1000
86786105,1000,1000,1000,1000,138228853,1000,1000,1000,1000
86788604,1000,1000,1000,1000,138328813,1000,1000,1000,1000
86791103,1000,1000,1000,1000,138428773,1000,1000,1000,1000
86793602,1000,1000,1000,1000,138528733,1000,1000,1000,1000
86796101,1000,1000,1000,1000,138628693,1000,1000,1000,1000
86798600,1000,1000,1000,1000,138728653,1000,1000,1000,1000
86801099,1000,1000,1000,1000,138828613,1000,1000,1000,1000
86803598,1000,1000,1000,1000,138928573,1000,1000,1000,1000
86806097,1000,1000,1000,1000,139028533,1000,1000,1000,1000
86808596,1000,1000,1000,1000,139128493,1000,1000,1000,1000
86811095,1000,1000,1000,1000,139228453,1000,1000,1000,1000
86813594,1000,1000,1000,1000,139328413,1000,1000,1000,1000
86816093,1000,1000,1000,1000,139428373,1000,1000,1000,1000
86818592,1000,1000,1000,1000,139528333,1000,1000,1000,1000
86821091,1000,1000,1000,1000,139628293,1000,1000,1000,1000
86823590,1000,1000,1000,1000,139728253,1000,1000,1000,1000
86826089,1000,1000,1000,1000,139828213,1000,1000,1000,1000
86828588,1000,1000,1000,1000,139928173,1000,1000,1000,1000
86831087,1000,1000,1000,1000,140028966,1000,1000,1000,1000
86833586,1000,1000,1000,1000,140128926,1000,1000,1000,1000
86836085,1000,1000,1000,1000,140228886,1000,1000,1000,1000
86838584,1000,1000,1000,1000,140328846,1000,1000,1000,1000
86841083,1000,1000,1000,1000,140428806,1000,1000,1000,1000
86843582,1000,1000,1000,1000,140528766,1000,1000,1000,1000
86846081,1000,1000,1000,1000,140628726,1000,1000,1000,1000
86848580,1000,1000,1000,1000,140728686,1000,1000,1000,1000
86851079,1000,1000,1000,1000,140828646,1000,1000,1000,1000
86853578,1000,1000,1000,1000,140928606,1000,1000,1000,1000
86856077,1000,1000,1000,1000,141028566,1000,1000,1000,1000
86858576,1000,1000,1000,1000,141128526,1000,1000,1000,1000
86861075,1000,1000,1000,1000,141228486,1000,1000,1000,1000
86863574,1000,1000,1000,1000,141328446,1000,1000,1000,1000
86866073,1000,1000,1000,1000,141428406,1000,1000,1000,1000
86868572,1000,1000,1000,1000,141528366,1000,1000,1000,1000
86871071,1000,1000,1000,1000,141628326,1000,1000,1000,1000
86873570,1000,1000,1000,1000,141728286,1000,1000,1000,1000
86876069,1000,1000,1000,1000,141828246,1000,1000,1000,1000
86878568,1000,1000,1000,1000,141928206,1000,1000,1000,1000
86881067,1000,1000,1000,1000,142028166,1000,1000,1000,1000
86883566,1000,1000,1000,1000,142128959,1000,1000,1000,1000
86886065,1000,1000,1000,1000,142228919,1000,1000,1000,1000
86888564,1000,1000,1000,1000,142328879,1000,1000,1000,1000
86891063,1000,1000,1000,1000,142428839,1000,1000,1000,1000
86893562,1000,1000,1000,1000,142528799,1000,1000,1000,1000
86896061,1000,1000,1000,1000,142628759,1000,1000,1000,1000
86898560,1000,1000,1000,1000,142728719,1000,1000,1000,1000
86901059,1000,1000,1000,1000,142828679,1000,1000,1000,1000
86903558,1000,1000,1000,1000,142928639,1000,1000,1000,1000
86906057,1000,1000,1000,1000,143028599,1000,1000,1000,1000
86908556,1000,1000,1000,1000,143128559,1000,1000,1000,1000
86911055,1000,1000,1000,1000,143228519,1000,1000,1000,1000
86913554,1000,1000,1000,1000,143328479,1000,1000,1000,1000
86916053,1000,1000,1000,1000,143428439,1000,1000,1000,1000
86918552,1000,1000,1000,1000,143528399,1000,1000,1000,1000
86921051,1000,1000,1000,1000,143628359,1000,1000,1000,1000
86923550,1000,1000,1000,1000,143728319,1000,1000,1000,1000
86926049,1000,1000,1000,1000,143828279,1000,1000,1000,1000
86928548,1000,1000,1000,1000,143928239,1000,1000,1000,1000
86931047,1000,1000,1000,1000,144028199,1000,1000,1000,1000
86933546,1000,1000,1000,1000,144128159,1000,1000,1000,1000
86936045,1000,1000,1000,1000,144228952,1000,1000,1000,1000
86938544,1000,1000,1000,1000,144328912,1000,1000,1000,1000
86941043,1000,1000,1000,1000,144428872,1000,1000,1000,1000
86943542,1000,1000,1000,1000,144528832,1000,1000,1000,1000
86946041,1000,1000,1000,1000,144628792,1000,1000,1000,1000
86948540,1000,1000,1000,1000,144728752,1000,1000,1000,1000
86951039,1000,1000,1000,1000,144828712,1000,1000,1000,1000
86953538,1000,1000,1000,1000,144928672,1000,1000,1000,1000
86956037,1000,1000,1000,1000,145028632,1000,1000,1000,1000
86958536,1000,1000,1000,1000,145128592,1000,1000,1000,1000
86961035,1000,1000,1000,1000,145228552,1000,1000,1000,1000
86963534,1000,1000,1000,1000,145328512,1000,1000,1000,1000
86966033,1000,1000,1000,1000,145428472,1000,1000,1000,1000
86968532,1000,1000,1000,1000,145528432,1000,1000,1000,1000
86971031,1000,1000,1000,1000,145628392,1000,1000,1000,1000
86973530,1000,1000,1000,1000,145728352,1000,1000,1000,1000
86976029,1000,1000,1000,1000,145828312,1000,1000,1000,1000
86978528,1000,1000,1000,1000,145928272,1000,1000,1000,1000
86981027,1000,1000,1000,1000,146028232,1000,1000,1000,1000
86983526,1000,1000,1000,1000,146128192,1000,1000,1000,1000
86986025,1000,1000,1000,1000,146228985,1000,1000,1000,1000
86988524,1000,1000,1000,1000,146328945,1000,1000,1000,1000
86991023,1000,1000,1000,1000,146428905,1000,1000,1000,1000
86993522,1000,1000,1000,1000,146528865,1000,1000,1000,1000
86996021,1000,1000,1000,1000,146628825,1000,1000,1000,1000
86998520,1000,1000,1000,1000,146728785,1000,1000,1000,1000
87001019,1000,1000,1000,1000,146828745,1000,1000,1000,1000
87003518,1000,1000,1000,1000,146928705,1000,1000,1000,1000
87006017,1000,1000,1000,1000,147028665,1000,1000,1000,1000
87008516,1000,1000,1000,1000,147128625,1000,1000,1000,1000
87011015,1000,1000,1000,1000,147228585,1000,1000,1000,1000
87013514,1000,1000,1000,1000,147328545,1000,1000,1000,1000
87016013,1000,1000,1000,1000,147428505,1000,1000,1000,1000
87018512,1000,1000,1000,1000,147528465,1000,1000,1000,1000
87021011,1000,1000,1000,1000,147628425,1000,1000,1000,1000
87023510,1000,1000,1000,1000,147728385,1000,1000,1000,1000
87026009,1000,1000,1000,1000,147828345,1000,1000,1000,1000
87028508,1000,1000,1000,1000,147928305,1000,1000,1000,1000
87031007,1000,1000,1000,1000,148028265,1000,1000,1000,1000
87033506,1000,1000,1000,1000,148128225,1000,1000,1000,1000
87036005,1000,1000,1000,1000,148228185,1000,1000,1000,1000
87038504,1000,1000,1000,1000,148328978,1000,1000,1000,1000
87041003,1000,1000,1000,1000,148428938,1000,1000,1000,1000
87043502,1000,1000,1000,1000,148528898,1000,1000,1000,1000
87046001,1000,1000,1000,1000,148628858,1000,1000,1000,1000
87048500,1000,1000,1000,1000,148728818,1000,1000,1000,1000
87050999,1000,1000,1000,1000,148828778,1000,1000,1000,1000
87053498,1000,1000,1000,1000,148928738,1000,1000,1000,1000
87055997,1000,1000,1000,1000,149028698,1000,1000,1000,1000
87058496,1000,1000,1000,1000,149128658,1000,1000,1000,1000
87060995,1000,1000,1000,1000,149228618,1000,1000,1000,1000
87063494,1000,1000,1000,1000,149328578,1000,1000,1000,1000
87065993,1000,1000,1000,1000,149428538,1000,1000,1000,1000
87068492,1000,1000,1000,1000,149528498,1000,1000,1000,1000
87070991,1000,1000,1000,1000,149628458,1000,1000,1000,1000
87073490,1000,1000,1000,1000,149728418,1000,1000,1000,1000
87075989,1000,1000,1000,1000,149828378,1000,1000,1000,1000
87078488,1000,1000,1000,1000,149928338,1000,1000,1000,1000
87080987,1000,1000,1000,1000,150028298,1000,1000,1000,1000
87083486,1000,1000,1000,1000,150128258,1000,1000,1000,1000
87085985,1000,1000,1000,1000,150228218,1000,1000,1000,1000
87088484,1000,1000,1000,1000,150328178,1000,1000,1000,1000
87090983,1000,1000,1000,1000,150428971,1000,1000,1000,1000
87093482,1000,1000,1000,1000,150528931,1000,1000,1000,1000
87095981,1000,1000,1000,1000,150628891,1000,1000,1000,1000
87098480,1000,1000,1000,1000,150728851,1000,1000,1000,1000
87100979,1000,1000,1000,1000,150828811,1000,1000,1000,1000
87103478,1000,1000,1000,1000,150928771,1000,1000,1000,1000
87105977,1000,1000,1000,1000,151028731,1000,1000,1000,1000
87108476,1000,1000,1000,1000,151128691,1000,1000,1000,1000
87110975,1000,1000,1000,1000,151228651,1000,1000,1000,1000
87113474,1000,1000,1000,1000,151328611,1000,1000,1000,1000
87115973,1000,1000,1000,1000,151428571,1000,1000,1000,1000
87118472,1000,1000,1000,1000,151528531,1000,1000,1000,1000
87120971,1000,1000,1000,1000,151628491,1000,1000,1000,1000
87123470,1000,1000,1000,1000,151728451,1000,1000,1000,1000
87125969,1000,1000,1000,1000,151828411,1000,1000,1000,1000
87128468,1000,1000,1000,1000,151928371,1000,1000,1000,1000
87130967,1000,1000,1000,1000,152028331,1000,1000,1000,1000
87133466,1000,1000,1000,1000,152128291,1000,1000,1000,1000
87135965,1000,1000,1000,1000,152228251,1000,1000,1000,1000
87138464,1000,1000,1000,1000,152328211,1000,1000,1000,1000
87140963,1000,1000,1000,1000,152428171,1000,1000,1000,1000
87143462,1000,1000,1000,1000,152528964,1000,1000,1000,1000
87145961,1000,1000,1000,1000,152628924,1000,1000,1000,1000
87148460,1000,1000,1000,1000,152728884,1000,1000,1000,1000
87150959,1000,1000,1000,1000,,,,,
87153458,1000,1000,1000,1000,,,,,
87155957,1000,1000,1000,1000,,,,,
87158456,1000,1000,1000,1000,,,,,
87160955,1000,1000,1000,1000,,,,,
87163454,1000,1000,1000,1000,,,,,
87165953,1000,1000,1000,1000,,,,,
87168452,1000,1000,1000,1000,,,,,
87170951,1000,1000,1000,1000,,,,,
87173450,1000,1000,1000,1000,,,,,
87175949,1000,1000,1000,1000,,,,,
87178448,1000,1000,1000,1000,,,,,
87180947,1000,1000,1000,1000,,,,,
87183446,1000,1000,1000,1000,,,,,
87185945,1000,1000,1000,1000,,,,,
87188444,1000,1000,1000,1000,,,,,
87190943,1000,1000,1000,1000,,,,,
87193442,1000,1000,1000,1000,,,,,
87195941,1000,1000,1000,1000,,,,,
87198440,1000,1000,1000,1000,,,,,
87200939,1000,1000,1000,1000,,,,,
87203438,1000,1000,1000,1000,,,,,
87205937,1000,1000,1000,1000,,,,,
87208436,1000,1000,1000,1000,,,,,
87210935,1000,1000,1000,1000,,,,,
87213434,1000,1000,1000,1000,,,,,
87215933,1000,1000,1000,1000,,,,,
87218432,1000,1000,1000,1000,,,,,
87220931,1000,1000,1000,1000,,,,,
87223430,1000,1000,1000,1000,,,,,
87225929,1000,1000,1000,1000,,,,,
87228428,1000,1000,1000,1000,,,,,
87230927,1000,1000,1000,1000,,,,,
87233426,1000,1000,1000,1000,,,,,
87235925,1000,1000,1000,1000,,,,,
87238424,1000,1000,1000,1000,,,,,
87240923,1000,1000,1000,1000,,,,,
87243422,1000,1000,1000,1000,,,,,
87245921,1000,1000,1000,1000,,,,,
87248420,1000,1000,1000,1000,,,,,
87250919,1000,1000,1000,1000,,,,,
87253418,1000,1000,1000,1000,,,,,
87255917,1000,1000,1000,1000,,,,,
87258416,1000,1000,1000,1000,,,,,
87260915,1000,1000,1000,1000,,,,,
87263414,1000,1000,1000,1000,,,,,
87265913,1000,1000,1000,1000,,,,,
87268412,1000,1000,1000,1000,,,,,
87270911,1000,1000,1000,1000,,,,,
87273410,1000,1000,1000,1000,,,,,
87275909,1000,1000,1000,1000,,,,,
87278408,1000,1000,1000,1000,,,,,
87280907,1000,1000,1000,1000,,,,,
87283406,1000,1000,1000,1000,,,,,
87285905,1000,1000,1000,1000,,,,,
87288404,1000,1000,1000,1000,,,,,
87290903,1000,1000,1000,1000,,,,,
87293402,1000,1000,1000,1000,,,,,
87295901,1000,1000,1000,1000,,,,,
87298400,1000,1000,1000,1000,,,,,
87300899,1000,1000,1000,1000,,,,,
87303398,1000,1000,1000,1000,,,,,
87305897,1000,1000,1000,1000,,,,,
87308396,1000,1000,1000,1000,,,,,
87310895,1000,1000,1000,1000,,,,,
87313394,1000,1000,1000,1000,,,,,
87315893,1000,1000,1000,1000,,,,,
87318392,1000,1000,1000,1000,,,,,
87320891,1000,1000,1000,1000,,,,,
87323390,1000,1000,1000,1000,,,,,
87325889,1000,1000,1000,1000,,,,,
87328388,1000,1000,1000,1000,,,,,
87330887,1000,1000,1000,1000,,,,,
87333386,1000,1000,1000,1000,,,,,
87335885,1000,1000,1000,1000,,,,,
87338384,1000,1000,1000,1000,,,,,
87340883,1000,1000,1000,1000,,,,,
87343382,1000,1000,1000,1000,,,,,
87345881,1000,1000,1000,1000,,,,,
87348380,1000,1000,1000,1000,,,,,
87350879,1000,1000,1000,1000,,,,,
87353378,1000,1000,1000,1000,,,,,
87355877,1000,1000,1000,1000,,,,,
87358376,1000,1000,1000,1000,,,,,
87360875,1000,1000,1000,1000,,,,,
87363374,1000,1000,1000,1000,,,,,
87365873,1000,1000,1000,1000,,,,,
87368372,1000,1000,1000,1000,,,,,
87370871,1000,1000,1000,1000,,,,,
87373370,1000,1000,1000,1000,,,,,
87375869,1000,1000,1000,1000,,,,,
87378368,1000,1000,1000,1000,,,,,
87380867,1000,1000,1000,1000,,,,,
87383366,1000,1000,1000,1000,,,,,
87385865,1000,1000,1000,1000,,,,,
87388364,1000,1000,1000,1000,,,,,
87390863,1000,1000,1000,1000,,,,,
87393362,1000,1000,1000,1000,,,,,
87395861,1000,1000,1000,1000,,,,,
87398360,1000,1000,1000,1000,,,,,
87400859,1000,1000,1000,1000,,,,,
87403358,1000,1000,1000,1000,,,,,
87405857,1000,1000,1000,1000,,,,,
87408356,1000,1000,1000,1000,,,,,
87410855,1000,1000,1000,1000,,,,,
87413354,1000,1000,1000,1000,,,,,
87415853,1000,1000,1000,1000,,,,,
87418352,1000,1000,1000,1000,,,,,
87420851,1000,1000,1000,1000,,,,,
87423350,1000,1000,1000,1000,,,,,
87425849,1000,1000,1000,1000,,,,,
87428348,1000,1000,1000,1000,,,,,
87430847,1000,1000,1000,1000,,,,,
87433346,1000,1000,1000,1000,,,,,
87435845,1000,1000,1000,1000,,,,,
87438344,1000,1000,1000,1000,,,,,
87440843,1000,1000,1000,1000,,,,,
87443342,1000,1000,1000,1000,,,,,
87445841,1000,1000,1000,1000,,,,,
87448340,1000,1000,1000,1000,,,,,
87450839,1000,1000,1000,1000,,,,,
87453338,1000,1000,1000,1000,,,,,
87455837,1000,1000,1000,1000,,,,,
87458336,1000,1000,1000,1000,,,,,
87460835,1000,1000,1000,1000,,,,,
87463334,1000,1000,1000,1000,,,,,
87465833,1000,1000,1000,1000,,,,,
87468332,1000,1000,1000,1000,,,,,
87470831,1000,1000,1000,1000,,,,,
87473330,1000,1000,1000,1000,,,,,
87475829,1001,1001,1001,1001,,,,,
87478328,1002,1002,1002,1002,,,,,
87480827,1003,1003,1003,1003,,,,,
87483326,1003,1003,1003,1003,,,,,
87485825,1004,1004,1004,1004,,,,,
87488324,1005,1005,1005,1005,,,,,
87490823,1006,1006,1006,1006,,,,,
87493322,1006,1006,1006,1006,,,,,
87495821,1007,1007,1007,1007,,,,,
87498320,1008,1008,1008,1008,,,,,
87500819,1009,1009,1009,1009,,,,,
87503318,1009,1009,1009,1009,,,,,
87505817,1010,1010,1010,1010,,,,,
87508316,1011,1011,1011,1011,,,,,
87510815,1012,1012,1012,1012,,,,,
87513314,1012,1012,1012,1012,,,,,
87515813,1013,1013,1013,1013,,,,,
87518312,1014,1014,1014,1014,,,,,
87520811,1015,1015,1015,1015,,,,,
87523310,1015,1015,1015,1015,,,,,
87525809,1016,1016,1016,1016,,,,,
87528308,1017,1017,1017,1017,,,,,
87530807,1018,1018,1018,1018,,,,,
87533306,1018,1018,1018,1018,,,,,
87535805,1019,1019,1019,1019,,,,,
87538304,1020,1020,1020,1020,,,,,
87540803,1021,1021,1021,1021,,,,,
87543302,1021,1021,1021,1021,,,,,
87545801,1022,1022,1022,1022,,,,,
87548300,1023,1023,1023,1023,,,,,
87550799,1024,1024,1024,1024,,,,,
87553298,1024,1024,1024,1024,,,,,
87555797,1025,1025,1025,1025,,,,,
87558296,1026,1026,1026,1026,,,,,
87560795,1027,1027,1027,1027,,,,,
87563294,1027,1027,1027,1027,,,,,
87565793,1028,1028,1028,1028,,,,,
87568292,1029,1029,1029,1029,,,,,
87570791,1030,1030,1030,1030,,,,,
87573290,1030,1030,1030,1030,,,,,
87575789,1031,1031,1031,1031,,,,,
87578288,1032,1032,1032,1032,,,,,
87580787,1033,1033,1033,1033,,,,,
87583286,1033,1033,1033,1033,,,,,
87585785,1034,1034,1034,1034,,,,,
87588284,1035,1035,1035,1035,,,,,
87590783,1036,1036,1036,1036,,,,,
87593282,1036,1036,1036,1036,,,,,
87595781,1037,1037,1037,1037,,,,,
87598280,1038,1038,1038,1038,,,,,
87600779,1039,1039,1039,1039,,,,,
87603278,1039,1039,1039,1039,,,,,
87605777,1040,1040,1040,1040,,,,,
87608276,1041,1041,1041,1041,,,,,
87610775,1042,1042,1042,1042,,,,,
87613274,1042,1042,1042,1042,,,,,
87615773,1043,1043,1043,1043,,,,,
87618272,1044,1044,1044,1044,,,,,
87620771,1045,1045,1045,1045,,,,,
87623270,1045,1045,1045,1045,,,,,
87625769,1046,1046,1046,1046,,,,,
87628268,1047,1047,1047,1047,,,,,
87630767,1048,1048,1048,1048,,,,,
87633266,1048,1048,1048,1048,,,,,
87635765,1049,1049,1049,1049,,,,,
87638264,1050,1050,1050,1050,,,,,
87640763,1051,1051,1051,1051,,,,,
87643262,1051,1051,1051,1051,,,,,
87645761,1052,1052,1052,1052,,,,,
87648260,1053,1053,1053,1053,,,,,
87650759,1054,1054,1054,1054,,,,,
87653258,1054,1054,1054,1054,,,,,
87655757,1055,1055,1055,1055,,,,,
87658256,1056,1056,1056,1056,,,,,
87660755,1057,1057,1057,1057,,,,,
87663254,1057,1057,1057,1057,,,,,
87665753,1058,1058,1058,1058,,,,,
87668252,1059,1059,1059,1059,,,,,
87670751,1060,1060,1060,1060,,,,,
87673250,1060,1060,1060,1060,,,,,
87675749,1061,1061,1061,1061,,,,,
87678248,1062,1062,1062,1062,,,,,
87680747,1063,1063,1063,1063,,,,,
87683246,1063,1063,1063,1063,,,,,
87685745,1064,1064,1064,1064,,,,,
87688244,1065,1065,1065,1065,,,,,
87690743,1066,1066,1066,1066,,,,,
87693242,1066,1066,1066,1066,,,,,
87695741,1067,1067,1067,1067,,,,,
87698240,1068,1068,1068,1068,,,,,
87700739,1069,1069,1069,1069,,,,,
87703238,1069,1069,1069,1069,,,,,
87705737,1070,1070,1070,1070,,,,,
87708236,1071,1071,1071,1071,,,,,
87710735,1072,1072,1072,1072,,,,,
87713234,1072,1072,1072,1072,,,,,
87715733,1073,1073,1073,1073,,,,,
87718232,1074,1074,1074,1074,,,,,
87720731,1075,1075,1075,1075,,,,,
87723230,1075,1075,1075,1075,,,,,
87725729,1076,1076,1076,1076,,,,,
87728228,1077,1077,1077,1077,,,,,
87730727,1078,1078,1078,1078,,,,,
87733226,1078,1078,1078,1078,,,,,
87735725,1079,1079,1079,1079,,,,,
87738224,1080,1080,1080,1080,,,,,
87740723,1081,1081,1081,1081,,,,,
87743222,1081,1081,1081,1081,,,,,
87745721,1082,1082,1082,1082,,,,,
87748220,1083,1083,1083,1083,,,,,
87750719,1084,1084,1084,1084,,,,,
87753218,1084,1084,1084,1084,,,,,
87755717,1085,1085,1085,1085,,,,,
87758216,1086,1086,1086,1086,,,,,
87760715,1087,1087,1087,1087,,,,,
87763214,1087,1087,1087,1087,,,,,
87765713,1088,1088,1088,1088,,,,,
87768212,1089,1089,1089,1089,,,,,
87770711,1090,1090,1090,1090,,,,,
87773210,1090,1090,1090,1090,,,,,
87775709,1091,1091,1091,1091,,,,,
87778208,1092,1092,1092,1092,,,,,
87780707,1093,1093,1093,1093,,,,,
87783206,1093,1093,1093,1093,,,,,
87785705,1094,1094,1094,1094,,,,,
87788204,1095,1095,1095,1095,,,,,
87790703,1096,1096,1096,1096,,,,,
87793202,1096,1096,1096,1096,,,,,
87795701,1097,1097,1097,1097,,,,,
87798200,1098,1098,1098,1098,,,,,
87800699,1099,1099,1099,1099,,,,,
87803198,1099,1099,1099,1099,,,,,
87805697,1100,1100,1100,1100,,,,,
87808196,1101,1101,1101,1101,,,,,
87810695,1101,1101,1101,1101,,,,,
87813194,1102,1102,1102,1102,,,,,
87815693,1103,1103,1103,1103,,,,,
87818192,1104,1104,1104,1104,,,,,
87820691,1104,1104,1104,1104,,,,,
87823190,1105,1105,1105,1105,,,,,
87825689,1106,1106,1106,1106,,,,,
87828188,1107,1107,1107,1107,,,,,
87830687,1107,1107,1107,1107,,,,,
87833186,1108,1108,1108,1108,,,,,
87835685,1109,1109,1109,1109,,,,,
87838184,1110,1110,1110,1110,,,,,
87840683,1110,1110,1110,1110,,,,,
87843182,1111,1111,1111,1111,,,,,
87845681,1112,1112,1112,1112,,,,,
87848180,1113,1113,1113,1113,,,,,
87850679,1113,1113,1113,1113,,,,,
87853178,1114,1114,1114,1114,,,,,
87855677,1115,1115,1115,1115,,,,,
87858176,1116,1116,1116,1116,,,,,
87860675,1116,1116,1116,1116,,,,,
87863174,1117,1117,1117,1117,,,,,
87865673,1118,1118,1118,1118,,,,,
87868172,1119,1119,1119,1119,,,,,
87870671,1119,1119,1119,1119,,,,,
87873170,1120,1120,1120,1120,,,,,
87875669,1121,1121,1121,1121,,,,,
87878168,1122,1122,1122,1122,,,,,
87880667,1122,1122,1122,1122,,,,,
87883166,1123,1123,1123,1123,,,,,
87885665,1124,1124,1124,1124,,,,,
87888164,1125,1125,1125,1125,,,,,
87890663,1125,1125,1125,1125,,,,,
87893162,1126,1126,1126,1126,,,,,
87895661,1127,1127,1127,1127,,,,,
87898160,1128,1128,1128,1128,,,,,
87900659,1128,1128,1128,1128,,,,,
87903158,1129,1129,1129,1129,,,,,
87905657,1130,1130,1130,1130,,,,,
87908156,1131,1131,1131,1131,,,,,
87910655,1131,1131,1131,1131,,,,,
87913154,1132,1132,1132,1132,,,,,
87916486,1133,1133,1133,1133,,,,,
87918985,1134,1134,1134,1134,,,,,
87921484,1134,1134,1134,1134,,,,,
87923983,1135,1135,1135,1135,,,,,
87926482,1136,1136,1136,1136,,,,,
87928981,1137,1137,1137,1137,,,,,
87931480,1137,1137,1137,1137,,,,,
87933979,1138,1138,1138,1138,,,,,
87936478,1139,1139,1139,1139,,,,,
87938977,1140,1140,1140,1140,,,,,
87941476,1140,1140,1140,1140,,,,,
87943975,1141,1141,1141,1141,,,,,
87946474,1142,1142,1142,1142,,,,,
87948973,1143,1143,1143,1143,,,,,
87951472,1143,1143,1143,1143,,,,,
87953971,1144,1144,1144,1144,,,,,
87956470,1145,1145,1145,1145,,,,,
87958969,1146,1146,1146,1146,,,,,
87961468,1146,1146,1146,1146,,,,,
87963967,1147,1147,1147,1147,,,,,
87966466,1148,1148,1148,1148,,,,,
87968965,1149,1149,1149,1149,,,,,
87971464,1149,1149,1149,1149,,,,,
87973963,1150,1150,1150,1150,,,,,
87976462,1164,1150,1151,1165,,,,,
87978961,1172,1158,1159,1173,,,,,
87981460,1180,1166,1167,1181,,,,,
87983959,1188,1174,1175,1188,,,,,
87986458,1195,1182,1183,1196,,,,,
87988957,1203,1190,1190,1203,,,,,
87991456,1210,1197,1198,1211,,,,,
87993955,1217,1204,1205,1218,,,,,
87996454,1224,1212,1212,1225,,,,,
87998953,1231,1219,1220,1232,,,,,
88001452,1238,1226,1227,1239,,,,,
88003951,1245,1233,1233,1245,,,,,
88006450,1251,1240,1240,1252,,,,,
88008949,1258,1246,1247,1259,,,,,
88011448,1264,1253,1254,1265,,,,,
88013947,1271,1259,1260,1271,,,,,
88016446,1277,1266,1267,1278,,,,,
88018945,1283,1272,1273,1284,,,,,
88021444,1290,1279,1279,1290,,,,,
88023943,1296,1285,1285,1296,,,,,
88026442,1302,1291,1292,1302,,,,,
88028941,1308,1297,1298,1308,,,,,
88031440,1314,1303,1304,1314,,,,,
88033939,1319,1309,1310,1320,,,,,
88036438,1325,1315,1316,1326,,,,,
88038937,1331,1321,1321,1332,,,,,
88041436,1337,1327,1327,1337,,,,,
88043935,1342,1332,1333,1343,,,,,
88046434,1348,1338,1338,1349,,,,,
88048933,1353,1343,1344,1354,,,,,
88051432,1359,1349,1350,1360,,,,,
88053931,1364,1355,1355,1365,,,,,
88056430,1370,1360,1361,1370,,,,,
88058929,1375,1365,1366,1376,,,,,
88061428,1380,1371,1371,1381,,,,,
88063927,1386,1376,1377,1386,,,,,
88066426,1391,1381,1382,1392,,,,,
88068925,1396,1386,1387,1397,,,,,
88071424,1401,1392,1392,1402,,,,,
88073923,1406,1397,1397,1407,,,,,
88076422,1411,1402,1402,1412,,,,,
88078921,1416,1407,1407,1417,,,,,
88081420,1421,1412,1412,1422,,,,,
88083919,1426,1417,1417,1427,,,,,
88086418,1431,1422,1422,1432,,,,,
88088917,1436,1427,1427,1437,,,,,
88091416,1441,1432,1432,1441,,,,,
88093915,1446,1437,1437,1446,,,,,
88096414,1450,1441,1442,1451,,,,,
88098913,1455,1446,1446,1456,,,,,
88101412,1460,1451,1451,1460,,,,,
88103911,1465,1456,1456,1465,,,,,
88106410,1469,1460,1461,1470,,,,,
88108909,1474,1465,1465,1474,,,,,
88111408,1478,1469,1470,1479,,,,,
88113907,1483,1474,1474,1484,,,,,
88116406,1487,1479,1479,1488,,,,,
88118905,1492,1483,1483,1493,,,,,
88121404,1496,1488,1488,1497,,,,,
88123903,1501,1492,1492,1501,,,,,
88126402,1505,1496,1497,1506,,,,,
88128901,1510,1501,1501,1510,,,,,
88131400,1514,1505,1506,1515,,,,,
88133899,1518,1510,1510,1519,,,,,
88136398,1523,1514,1514,1523,,,,,
88138897,1527,1518,1519,1528,,,,,
88141396,1531,1523,1523,1532,,,,,
88143895,1536,1527,1527,1536,,,,,
88146394,1540,1531,1532,1540,,,,,
88148893,1544,1535,1536,1544,,,,,
88151392,1548,1539,1540,1549,,,,,
88153891,1552,1544,1544,1553,,,,,
88156390,1556,1548,1548,1557,,,,,
88158889,1561,1552,1552,1561,,,,,
88161388,1565,1556,1557,1565,,,,,
88163887,1569,1560,1561,1569,,,,,
88166386,1573,1564,1565,1573,,,,,
88168885,1577,1568,1569,1577,,,,,
88171384,1581,1572,1573,1581,,,,,
88173883,1585,1576,1577,1585,,,,,
88176382,1589,1580,1581,1589,,,,,
88178881,1593,1584,1585,1593,,,,,
88181380,1597,1588,1589,1597,,,,,
88183879,1601,1592,1593,1601,,,,,
88186378,1605,1596,1597,1605,,,,,
88188877,1608,1600,1601,1609,,,,,
88191376,1612,1604,1605,1613,,,,,
88193875,1616,1608,1608,1616,,,,,
88196374,1620,1612,1612,1620,,,,,
88198873,1624,1615,1616,1624,,,,,
88201372,1628,1619,1620,1628,,,,,
88203871,1631,1623,1624,1632,,,,,
88206370,1635,1627,1628,1635,,,,,
88208869,1639,1631,1631,1639,,,,,
88211368,1643,1634,1635,1643,,,,,
88213867,1646,1638,1639,1646,,,,,
88216366,1650,1642,1643,1650,,,,,
88218865,1654,1646,1646,1654,,,,,
88221364,1657,1649,1650,1657,,,,,
88223863,1661,1653,1654,1661,,,,,
88226362,1665,1657,1657,1665,,,,,
88228861,1668,1660,1661,1668,,,,,
88231360,1672,1664,1665,1672,,,,,
88233859,1675,1667,1668,1676,,,,,
88236358,1679,1671,1672,1679,,,,,
88238857,1683,1675,1675,1683,,,,,
88241356,1686,1678,1679,1686,,,,,
88243855,1690,1682,1683,1690,,,,,
88246354,1693,1685,1686,1693,,,,,
88248853,1697,1689,1690,1697,,,,,
88251352,1700,1692,1693,1700,,,,,
88253851,1704,1696,1697,1704,,,,,
88256350,1707,1699,1700,1707,,,,,
88258849,1711,1703,1704,1711,,,,,
88261348,1714,1706,1707,1714,,,,,
88263847,1718,1710,1710,1718,,,,,
88266346,1721,1713,1714,1721,,,,,
88268845,1724,1717,1717,1725,,,,,
88271344,1728,1720,1721,1728,,,,,
88273843,1731,1724,1724,1731,,,,,
88276342,1735,1727,1727,1735,,,,,
88278841,1738,1730,1731,1738,,,,,
88281340,1741,1734,1734,1742,,,,,
88283839,1745,1737,1738,1745,,,,,
88286338,1748,1740,1741,1748,,,,,
88288837,1751,1744,1744,1752,,,,,
88291336,1755,1747,1747,1755,,,,,
88293835,1758,1750,1751,1758,,,,,
88296334,1761,1754,1754,1762,,,,,
88298833,1764,1757,1757,1765,,,,,
88301332,1768,1760,1761,1768,,,,,
88303831,1771,1764,1764,1771,,,,,
88306330,1774,1767,1767,1775,,,,,
88308829,1778,1770,1770,1778,,,,,
88311328,1781,1773,1774,1781,,,,,
88313827,1784,1777,1777,1785,,,,,
88316326,1787,1780,1780,1788,,,,,
88318825,1790,1783,1783,1791,,,,,
88321324,1794,1786,1786,1794,,,,,
88323823,1797,1789,1790,1797,,,,,
88326322,1800,1793,1793,1801,,,,,
88328821,1803,1796,1796,1804,,,,,
88331320,1806,1799,1799,1807,,,,,
88333819,1809,1802,1802,1810,,,,,
88336318,1813,1805,1805,1813,,,,,
88338817,1816,1808,1808,1816,,,,,
88341316,1819,1811,1812,1819,,,,,
88343815,1822,1815,1815,1822,,,,,
88346314,1825,1818,1818,1826,,,,,
88348813,1828,1821,1821,1829,,,,,
88351312,1831,1824,1824,1832,,,,,
88353811,1834,1827,1827,1835,,,,,
88356310,1837,1830,1830,1838,,,,,
88358809,1840,1833,1833,1841,,,,,
88361308,1843,1836,1836,1844,,,,,
88363807,1846,1839,1839,1847,,,,,
88366306,1849,1842,1842,1850,,,,,
88368805,1852,1845,1845,1853,,,,,
88371304,1855,1848,1848,1856,,,,,
88373803,1858,1851,1851,1859,,,,,
88376302,1861,1854,1854,1862,,,,,
88378801,1864,1857,1857,1865,,,,,
88381300,1867,1860,1860,1868,,,,,
88383799,1870,1863,1863,1871,,,,,
88386298,1873,1866,1866,1874,,,,,
88388797,1876,1869,1869,1877,,,,,
88391296,1879,1872,1872,1880,,,,,
88393795,1882,1875,1875,1883,,,,,
88396294,1885,1878,1878,1886,,,,,
88398793,1888,1881,1881,1889,,,,,
88401292,1891,1884,1884,1891,,,,,
88403791,1890,1883,1883,1891,,,,,
88406290,1889,1882,1882,1889,,,,,
88408789,1888,1881,1881,1888,,,,,
88411288,1887,1879,1880,1887,,,,,
88413787,1886,1878,1879,1886,,,,,
88416286,1885,1877,1878,1886,,,,,
88418785,1884,1876,1877,1885,,,,,
88421284,1884,1876,1876,1884,,,,,
88423783,1883,1875,1875,1883,,,,,
88426282,1882,1874,1874,1882,,,,,
88428781,1881,1873,1874,1881,,,,,
88431280,1881,1872,1873,1881,,,,,
88433779,1880,1872,1872,1880,,,,,
88436278,1880,1871,1872,1880,,,,,
88438777,1879,1871,1871,1879,,,,,
88441276,1879,1870,1871,1879,,,,,
88443775,1879,1870,1871,1879,,,,,
88446274,1879,1870,1871,1879,,,,,
88448773,1879,1870,1870,1879,,,,,
88451272,1879,1870,1870,1879,,,,,
88453771,1879,1870,1871,1879,,,,,
88456270,1879,1870,1871,1879,,,,,
88458769,1879,1870,1871,1879,,,,,
88461268,1879,1871,1871,1880,,,,,
88463767,1880,1871,1872,1880,,,,,
88466266,1880,1872,1872,1881,,,,,
88468765,1881,1872,1873,1881,,,,,
88471264,1881,1873,1873,1881,,,,,
88473763,1881,1874,1874,1882,,,,,
88476262,1882,1874,1874,1882,,,,,
88478761,1882,1875,1875,1882,,,,,
88481260,1882,1875,1876,1883,,,,,
88483759,1882,1876,1876,1883,,,,,
88486258,1882,1876,1876,1883,,,,,
88488757,1882,1876,1876,1883,,,,,
88491256,1882,1876,1876,1883,,,,,
88493755,1882,1876,1876,1882,,,,,
88496254,1881,1876,1876,1882,,,,,
88498753,1880,1875,1875,1881,,,,,
88501252,1879,1874,1875,1880,,,,,
88503751,1878,1873,1874,1879,,,,,
88506250,1877,1872,1872,1878,,,,,
88508749,1876,1871,1871,1876,,,,,
88511248,1874,1870,1870,1875,,,,,
88513747,1873,1868,1868,1873,,,,,
88516246,1871,1866,1867,1872,,,,,
88518745,1869,1865,1865,1870,,,,,
88521244,1867,1863,1863,1868,,,,,
88523743,1865,1861,1861,1866,,,,,
88526242,1863,1859,1859,1863,,,,,
88528741,1861,1856,1857,1861,,,,,
88531240,1858,1854,1854,1859,,,,,
88533739,1856,1852,1852,1856,,,,,
88536238,1853,1849,1849,1853,,,,,
88538737,1850,1846,1847,1851,,,,,
88541236,1847,1844,1844,1848,,,,,
88543735,1845,1841,1841,1845,,,,,
88546234,1842,1838,1838,1842,,,,,
88548733,1839,1835,1835,1839,,,,,
88551232,1835,1832,1832,1836,,,,,
88553731,1832,1829,1829,1833,,,,,
88556230,1829,1826,1826,1830,,,,,
88558729,1826,1823,1823,1826,,,,,
88561228,1823,1820,1820,1823,,,,,
88563727,1819,1816,1817,1820,,,,,
88566226,1816,1813,1814,1816,,,,,
88568725,1813,1810,1810,1813,,,,,
88571224,1809,1806,1807,1809,,,,,
88573723,1806,1803,1804,1806,,,,,
88576222,1803,1800,1800,1803,,,,,
88578721,1799,1797,1797,1799,,,,,
88581220,1796,1793,1794,1796,,,,,
88583719,1792,1790,1791,1792,,,,,
88586218,1789,1787,1787,1789,,,,,
88588717,1785,1783,1784,1786,,,,,
88591216,1782,1780,1781,1782,,,,,
88593715,1779,1777,1777,1779,,,,,
88596214,1775,1773,1774,1775,,,,,
88598713,1772,1770,1771,1772,,,,,
88601212,1768,1767,1767,1768,,,,,
88603711,1765,1763,1764,1765,,,,,
88606210,1762,1760,1761,1762,,,,,
88608709,1758,1757,1758,1758,,,,,
88611208,1755,1754,1754,1755,,,,,
88613707,1752,1750,1751,1752,,,,,
88616206,1748,1747,1748,1748,,,,,
88618705,1745,1744,1745,1745,,,,,
88621204,1742,1741,1742,1742,,,,,
88623703,1739,1738,1739,1739,,,,,
88626202,1736,1735,1736,1736,,,,,
88628701,1733,1732,1733,1733,,,,,
88631200,1730,1729,1730,1729,,,,,
88633699,1727,1726,1727,1727,,,,,
88636198,1724,1723,1724,1724,,,,,
88638697,1721,1720,1721,1721,,,,,
88641196,1718,1718,1718,1718,,,,,
88643695,1715,1715,1716,1715,,,,,
88646194,1712,1712,1713,1712,,,,,
88648693,1709,1709,1710,1709,,,,,
