timestamp,TimeUS,C1,C2,C3,C4,C5,C6,C7,C8,C9,C10,C11,C12,C13,C14
1709534871.00000000,48628874,1000,1000,1000,1000,0,0,0,0,0,0,0,0,0,0
1709534871.09995985,48728834,1000,1000,1000,1000,0,0,0,0,0,0,0,0,0,0
1709534871.19991994,48828794,1000,1000,1000,1000,0,0,0,0,0,0,0,0,0,0
1709534871.29988003,48928754,1000,1000,1000,1000,0,0,0,0,0,0,0,0,0,0
1709534871.39983988,49028714,1000,1000,1000,1000,0,0,0,0,0,0,0,0,0,0
1709534871.49979997,49128674,1000,1000,1000,1000,0,0,0,0,0,0,0,0,0,0
1709534871.59976006,49228634,1000,1000,1000,1000,0,0,0,0,0,0,0,0,0,0
1709534871.69971991,49328594,1000,1000,1000,1000,0,0,0,0,0,0,0,0,0,0
1709534871.79967999,49428554,1000,1000,1000,1000,0,0,0,0,0,0,0,0,0,0
1709534871.89963984,49528514,1000,1000,1000,1000,0,0,0,0,0,0,0,0,0,0
1709534871.99959993,49628474,1000,1000,1000,1000,0,0,0,0,0,0,0,0,0,0
1709534872.09956002,49728434,1000,1000,1000,1000,0,0,0,0,0,0,0,0,0,0
1709534872.19951987,49828394,1000,1000,1000,1000,0,0,0,0,0,0,0,0,0,0
1709534872.29947996,49928354,1000,1000,1000,1000,0,0,0,0,0,0,0,0,0,0
1709534872.39944005,50028314,1000,1000,1000,1000,0,0,0,0,0,0,0,0,0,0
1709534872.49939990,50128274,1000,1000,1000,1000,0,0,0,0,0,0,0,0,0,0
1709534872.59935999,50228234,1000,1000,1000,1000,0,0,0,0,0,0,0,0,0,0
1709534872.69931984,50328194,1000,1000,1000,1000,0,0,0,0,0,0,0,0,0,0
1709534872.79927993,50428154,1000,1000,1000,1000,0,0,0,0,0,0,0,0,0,0
1709534872.90007305,50528947,1000,1000,1000,1000,0,0,0,0,0,0,0,0,0,0
1709534873.00003290,50628907,1013,1013,1013,1013,0,0,0,0,0,0,0,0,0,0
1709534873.09999299,50728867,1043,1043,1043,1043,0,0,0,0,0,0,0,0,0,0
1709534873.19995284,50828827,1073,1073,1073,1073,0,0,0,0,0,0,0,0,0,0
1709534873.29991293,50928787,1103,1103,1103,1103,0,0,0,0,0,0,0,0,0,0
1709534873.39987302,51028747,1133,1133,1133,1133,0,0,0,0,0,0,0,0,0,0
1709534873.49983287,51128707,1275,1269,1269,1275,0,0,0,0,0,0,0,0,0,0
1709534873.59979296,51228667,1485,1481,1481,1486,0,0,0,0,0,0,0,0,0,0
1709534873.69975305,51328627,1648,1644,1644,1648,0,0,0,0,0,0,0,0,0,0
1709534873.79971290,51428587,1786,1781,1782,1786,0,0,0,0,0,0,0,0,0,0
1709534873.89967299,51528547,1890,1885,1885,1890,0,0,0,0,0,0,0,0,0,0
1709534873.99963284,51628507,1873,1871,1871,1874,0,0,0,0,0,0,0,0,0,0
1709534874.09959292,51728467,1751,1751,1751,1752,0,0,0,0,0,0,0,0,0,0
1709534874.19955301,51828427,1655,1656,1656,1655,0,0,0,0,0,0,0,0,0,0
1709534874.29951286,51928387,1626,1628,1628,1626,0,0,0,0,0,0,0,0,0,0
1709534874.39947295,52028347,1632,1634,1634,1632,0,0,0,0,0,0,0,0,0,0
1709534874.49943304,52128307,1635,1635,1630,1640,0,0,0,0,0,0,0,0,0,0
1709534874.59939289,52228267,1631,1633,1626,1638,0,0,0,0,0,0,0,0,0,0
1709534874.69935298,52328227,1626,1627,1623,1629,0,0,0,0,0,0,0,0,0,0
1709534874.79931283,52428187,1620,1621,1621,1620,0,0,0,0,0,0,0,0,0,0
1709534874.90010595,52528980,1618,1617,1621,1615,0,0,0,0,0,0,0,0,0,0
1709534875.00006604,52628940,1618,1617,1621,1613,0,0,0,0,0,0,0,0,0,0
1709534875.10002589,52728900,1619,1618,1622,1615,0,0,0,0,0,0,0,0,0,0
1709534875.19998598,52828860,1607,1607,1611,1602,0,0,0,0,0,0,0,0,0,0
1709534875.29994583,52928820,1583,1583,1593,1572,0,0,0,0,0,0,0,0,0,0
1709534875.39990592,53028780,1570,1571,1576,1566,0,0,0,0,0,0,0,0,0,0
1709534875.49986601,53128740,1560,1561,1559,1562,0,0,0,0,0,0,0,0,0,0
1709534875.59982586,53228700,1551,1551,1545,1557,0,0,0,0,0,0,0,0,0,0
1709534875.69978595,53328660,1544,1543,1533,1554,0,0,0,0,0,0,0,0,0,0
1709534875.79974604,53428620,1538,1537,1528,1547,0,0,0,0,0,0,0,0,0,0
1709534875.89970589,53528580,1533,1532,1527,1537,0,0,0,0,0,0,0,0,0,0
1709534875.99966598,53628540,1527,1527,1526,1527,0,0,0,0,0,0,0,0,0,0
1709534876.09962583,53728500,1526,1526,1528,1524,0,0,0,0,0,0,0,0,0,0
1709534876.19958591,53828460,1527,1527,1530,1524,0,0,0,0,0,0,0,0,0,0
1709534876.29954600,53928420,1531,1531,1534,1528,0,0,0,0,0,0,0,0,0,0
1709534876.39950585,54028380,1533,1533,1536,1531,0,0,0,0,0,0,0,0,0,0
1709534876.49946594,54128340,1537,1537,1539,1535,0,0,0,0,0,0,0,0,0,0
1709534876.59942603,54228300,1541,1541,1543,1541,0,0,0,0,0,0,0,0,0,0
1709534876.69938588,54328260,1545,1544,1545,1545,0,0,0,0,0,0,0,0,0,0
1709534876.79934597,54428220,1547,1548,1548,1548,0,0,0,0,0,0,0,0,0,0
1709534876.89930582,54528180,1550,1551,1550,1551,0,0,0,0,0,0,0,0,0,0
1709534877.00009894,54628973,1554,1553,1552,1555,0,0,0,0,0,0,0,0,0,0
1709534877.10005903,54728933,1554,1554,1555,1558,0,0,0,0,0,0,0,0,0,0
1709534877.20001888,54828893,1556,1556,1560,1563,0,0,0,0,0,0,0,0,0,0
1709534877.29997897,54928853,1558,1558,1563,1564,0,0,0,0,0,0,0,0,0,0
1709534877.39993882,55028813,1559,1559,1564,1564,0,0,0,0,0,0,0,0,0,0
1709534877.49989891,55128773,1563,1562,1566,1565,0,0,0,0,0,0,0,0,0,0
1709534877.59985900,55228733,1565,1565,1567,1565,0,0,0,0,0,0,0,0,0,0
1709534877.69981885,55328693,1567,1568,1568,1567,0,0,0,0,0,0,0,0,0,0
1709534877.79977894,55428653,1568,1568,1567,1567,0,0,0,0,0,0,0,0,0,0
1709534877.89973903,55528613,1569,1569,1566,1567,0,0,0,0,0,0,0,0,0,0
1709534877.99969888,55628573,1570,1571,1567,1568,0,0,0,0,0,0,0,0,0,0
1709534878.09965897,55728533,1572,1572,1568,1568,0,0,0,0,0,0,0,0,0,0
1709534878.19961905,55828493,1573,1572,1569,1569,0,0,0,0,0,0,0,0,0,0
1709534878.29957891,55928453,1574,1573,1570,1571,0,0,0,0,0,0,0,0,0,0
1709534878.39953899,56028413,1575,1574,1573,1572,0,0,0,0,0,0,0,0,0,0
1709534878.49949884,56128373,1574,1574,1573,1572,0,0,0,0,0,0,0,0,0,0
1709534878.59945893,56228333,1575,1575,1575,1573,0,0,0,0,0,0,0,0,0,0
1709534878.69941902,56328293,1575,1576,1576,1574,0,0,0,0,0,0,0,0,0,0
1709534878.79937887,56428253,1576,1576,1576,1575,0,0,0,0,0,0,0,0,0,0
1709534878.89933896,56528213,1575,1575,1576,1576,0,0,0,0,0,0,0,0,0,0
1709534878.99929905,56628173,1575,1575,1576,1576,0,0,0,0,0,0,0,0,0,0
1709534879.10009193,56728966,1575,1575,1576,1576,0,0,0,0,0,0,0,0,0,0
1709534879.20005202,56828926,1576,1575,1576,1577,0,0,0,0,0,0,0,0,0,0
1709534879.30001187,56928886,1575,1575,1575,1576,0,0,0,0,0,0,0,0,0,0
1709534879.39997196,57028846,1576,1576,1577,1577,0,0,0,0,0,0,0,0,0,0
1709534879.49993205,57128806,1576,1576,1576,1576,0,0,0,0,0,0,0,0,0,0
1709534879.59989190,57228766,1577,1577,1577,1577,0,0,0,0,0,0,0,0,0,0
1709534879.69985199,57328726,1577,1577,1577,1576,0,0,0,0,0,0,0,0,0,0
1709534879.79981184,57428686,1577,1577,1577,1577,0,0,0,0,0,0,0,0,0,0
1709534879.89977193,57528646,1579,1579,1578,1578,0,0,0,0,0,0,0,0,0,0
1709534879.99973202,57628606,1578,1579,1578,1578,0,0,0,0,0,0,0,0,0,0
1709534880.09969187,57728566,1579,1579,1578,1578,0,0,0,0,0,0,0,0,0,0
1709534880.19965196,57828526,1578,1578,1578,1578,0,0,0,0,0,0,0,0,0,0
1709534880.29961205,57928486,1580,1579,1579,1579,0,0,0,0,0,0,0,0,0,0
1709534880.39957190,58028446,1578,1579,1579,1578,0,0,0,0,0,0,0,0,0,0
1709534880.49953198,58128406,1578,1578,1578,1579,0,0,0,0,0,0,0,0,0,0
1709534880.59949183,58228366,1578,1578,1579,1579,0,0,0,0,0,0,0,0,0,0
1709534880.69945192,58328326,1579,1579,1579,1579,0,0,0,0,0,0,0,0,0,0
1709534880.79941201,58428286,1578,1579,1579,1579,0,0,0,0,0,0,0,0,0,0
1709534880.89937186,58528246,1579,1579,1579,1580,0,0,0,0,0,0,0,0,0,0
1709534880.99933195,58628206,1579,1579,1579,1579,0,0,0,0,0,0,0,0,0,0
1709534881.09929204,58728166,1579,1579,1579,1579,0,0,0,0,0,0,0,0,0,0
1709534881.20008492,58828959,1579,1579,1579,1579,0,0,0,0,0,0,0,0,0,0
1709534881.30004501,58928919,1579,1579,1579,1579,0,0,0,0,0,0,0,0,0,0
1709534881.40000486,59028879,1580,1579,1580,1579,0,0,0,0,0,0,0,0,0,0
1709534881.49996495,59128839,1579,1579,1579,1579,0,0,0,0,0,0,0,0,0,0
1709534881.59992504,59228799,1579,1580,1580,1580,0,0,0,0,0,0,0,0,0,0
1709534881.69988489,59328759,1579,1580,1579,1580,0,0,0,0,0,0,0,0,0,0
1709534881.79984498,59428719,1579,1579,1579,1579,0,0,0,0,0,0,0,0,0,0
1709534881.89980483,59528679,1580,1580,1580,1580,0,0,0,0,0,0,0,0,0,0
1709534881.99976492,59628639,1580,1580,1580,1580,0,0,0,0,0,0,0,0,0,0
1709534882.09972501,59728599,1580,1580,1580,1580,0,0,0,0,0,0,0,0,0,0
1709534882.19968486,59828559,1580,1580,1580,1580,0,0,0,0,0,0,0,0,0,0
1709534882.29964495,59928519,1580,1580,1580,1580,0,0,0,0,0,0,0,0,0,0
1709534882.39960504,60028479,1581,1580,1580,1580,0,0,0,0,0,0,0,0,0,0
1709534882.49956489,60128439,1580,1580,1580,1580,0,0,0,0,0,0,0,0,0,0
1709534882.59952497,60228399,1580,1580,1580,1580,0,0,0,0,0,0,0,0,0,0
1709534882.69948483,60328359,1580,1580,1581,1580,0,0,0,0,0,0,0,0,0,0
1709534882.79944491,60428319,1580,1581,1580,1581,0,0,0,0,0,0,0,0,0,0
1709534882.89940500,60528279,1580,1580,1580,1581,0,0,0,0,0,0,0,0,0,0
1709534882.99936485,60628239,1581,1581,1580,1581,0,0,0,0,0,0,0,0,0,0
1709534883.09932494,60728199,1581,1580,1581,1581,0,0,0,0,0,0,0,0,0,0
1709534883.19928503,60828159,1581,1580,1580,1580,0,0,0,0,0,0,0,0,0,0
1709534883.30007792,60928952,1581,1581,1586,1575,0,0,0,0,0,0,0,0,0,0
1709534883.40003800,61028912,1580,1583,1588,1573,0,0,0,0,0,0,0,0,0,0
1709534883.49999785,61128872,1579,1582,1580,1573,0,0,0,0,0,0,0,0,0,0
1709534883.59995794,61228832,1578,1581,1571,1573,0,0,0,0,0,0,0,0,0,0
1709534883.69991803,61328792,1578,1580,1564,1570,0,0,0,0,0,0,0,0,0,0
1709534883.79987788,61428752,1578,1579,1559,1566,0,0,0,0,0,0,0,0,0,0
1709534883.89983797,61528712,1578,1577,1555,1560,0,0,0,0,0,0,0,0,0,0
1709534883.99979782,61628672,1579,1578,1555,1557,0,0,0,0,0,0,0,0,0,0
1709534884.09975791,61728632,1579,1577,1555,1554,0,0,0,0,0,0,0,0,0,0
1709534884.19971800,61828592,1579,1578,1556,1554,0,0,0,0,0,0,0,0,0,0
1709534884.29967785,61928552,1578,1578,1556,1554,0,0,0,0,0,0,0,0,0,0
1709534884.39963794,62028512,1576,1577,1556,1554,0,0,0,0,0,0,0,0,0,0
1709534884.49959803,62128472,1575,1577,1555,1554,0,0,0,0,0,0,0,0,0,0
1709534884.59955788,62228432,1574,1576,1553,1553,0,0,0,0,0,0,0,0,0,0
1709534884.69951797,62328392,1574,1576,1552,1552,0,0,0,0,0,0,0,0,0,0
1709534884.79947805,62428352,1575,1576,1549,1550,0,0,0,0,0,0,0,0,0,0
1709534884.89943790,62528312,1577,1578,1548,1549,0,0,0,0,0,0,0,0,0,0
1709534884.99939799,62628272,1578,1580,1545,1544,0,0,0,0,0,0,0,0,0,0
1709534885.09935784,62728232,1582,1583,1544,1543,0,0,0,0,0,0,0,0,0,0
1709534885.19931793,62828192,1586,1587,1542,1541,0,0,0,0,0,0,0,0,0,0
1709534885.30011106,62928985,1588,1588,1538,1537,0,0,0,0,0,0,0,0,0,0
1709534885.40007091,63028945,1592,1592,1536,1536,0,0,0,0,0,0,0,0,0,0
1709534885.50003099,63128905,1594,1594,1535,1536,0,0,0,0,0,0,0,0,0,0
1709534885.59999084,63228865,1595,1595,1534,1536,0,0,0,0,0,0,0,0,0,0
1709534885.69995093,63328825,1594,1594,1535,1537,0,0,0,0,0,0,0,0,0,0
1709534885.79991102,63428785,1593,1593,1537,1540,0,0,0,0,0,0,0,0,0,0
1709534885.89987087,63528745,1591,1590,1542,1545,0,0,0,0,0,0,0,0,0,0
1709534885.99983096,63628705,1586,1584,1549,1552,0,0,0,0,0,0,0,0,0,0
1709534886.09979105,63728665,1578,1575,1558,1560,0,0,0,0,0,0,0,0,0,0
1709534886.19975090,63828625,1569,1565,1570,1572,0,0,0,0,0,0,0,0,0,0
1709534886.29971099,63928585,1558,1554,1582,1584,0,0,0,0,0,0,0,0,0,0
1709534886.39967084,64028545,1547,1543,1594,1594,0,0,0,0,0,0,0,0,0,0
1709534886.49963093,64128505,1538,1536,1604,1604,0,0,0,0,0,0,0,0,0,0
1709534886.59959102,64228465,1530,1530,1611,1609,0,0,0,0,0,0,0,0,0,0
1709534886.69955087,64328425,1528,1529,1615,1614,0,0,0,0,0,0,0,0,0,0
1709534886.79951096,64428385,1528,1531,1614,1613,0,0,0,0,0,0,0,0,0,0
1709534886.89947104,64528345,1534,1537,1612,1611,0,0,0,0,0,0,0,0,0,0
1709534886.99943089,64628305,1541,1543,1606,1606,0,0,0,0,0,0,0,0,0,0
1709534887.09939098,64728265,1550,1551,1599,1599,0,0,0,0,0,0,0,0,0,0
1709534887.19935083,64828225,1559,1559,1591,1591,0,0,0,0,0,0,0,0,0,0
1709534887.29931092,64928185,1568,1568,1584,1584,0,0,0,0,0,0,0,0,0,0
1709534887.40010405,65028978,1575,1574,1578,1576,0,0,0,0,0,0,0,0,0,0
1709534887.50006390,65128938,1581,1581,1573,1572,0,0,0,0,0,0,0,0,0,0
1709534887.60002398,65228898,1585,1584,1568,1568,0,0,0,0,0,0,0,0,0,0
1709534887.69998384,65328858,1587,1586,1566,1567,0,0,0,0,0,0,0,0,0,0
1709534887.79994392,65428818,1588,1587,1566,1566,0,0,0,0,0,0,0,0,0,0
1709534887.89990401,65528778,1587,1586,1567,1567,0,0,0,0,0,0,0,0,0,0
1709534887.99986386,65628738,1584,1583,1568,1569,0,0,0,0,0,0,0,0,0,0
1709534888.09982395,65728698,1583,1582,1573,1573,0,0,0,0,0,0,0,0,0,0
1709534888.19978404,65828658,1579,1579,1575,1575,0,0,0,0,0,0,0,0,0,0
1709534888.29974389,65928618,1576,1577,1578,1578,0,0,0,0,0,0,0,0,0,0
1709534888.39970398,66028578,1573,1573,1579,1579,0,0,0,0,0,0,0,0,0,0
1709534888.49966383,66128538,1573,1573,1582,1582,0,0,0,0,0,0,0,0,0,0
1709534888.59962392,66228498,1572,1572,1583,1583,0,0,0,0,0,0,0,0,0,0
1709534888.69958401,66328458,1573,1573,1584,1585,0,0,0,0,0,0,0,0,0,0
1709534888.79954386,66428418,1573,1574,1584,1584,0,0,0,0,0,0,0,0,0,0
1709534888.89950395,66528378,1574,1575,1583,1583,0,0,0,0,0,0,0,0,0,0
1709534888.99946404,66628338,1577,1577,1583,1583,0,0,0,0,0,0,0,0,0,0
1709534889.09942389,66728298,1578,1578,1581,1582,0,0,0,0,0,0,0,0,0,0
1709534889.19938397,66828258,1579,1578,1579,1580,0,0,0,0,0,0,0,0,0,0
1709534889.29934382,66928218,1580,1580,1578,1579,0,0,0,0,0,0,0,0,0,0
1709534889.39930391,67028178,1581,1581,1578,1578,0,0,0,0,0,0,0,0,0,0
1709534889.50009704,67128971,1581,1581,1577,1577,0,0,0,0,0,0,0,0,0,0
1709534889.60005689,67228931,1582,1582,1578,1577,0,0,0,0,0,0,0,0,0,0
1709534889.70001698,67328891,1581,1581,1577,1577,0,0,0,0,0,0,0,0,0,0
1709534889.79997683,67428851,1582,1582,1578,1578,0,0,0,0,0,0,0,0,0,0
1709534889.89993691,67528811,1581,1580,1577,1578,0,0,0,0,0,0,0,0,0,0
1709534889.99989700,67628771,1581,1580,1579,1579,0,0,0,0,0,0,0,0,0,0
1709534890.09985685,67728731,1580,1580,1578,1579,0,0,0,0,0,0,0,0,0,0
1709534890.19981694,67828691,1579,1580,1579,1579,0,0,0,0,0,0,0,0,0,0
1709534890.29977703,67928651,1579,1579,1580,1580,0,0,0,0,0,0,0,0,0,0
1709534890.39973688,68028611,1580,1580,1581,1581,0,0,0,0,0,0,0,0,0,0
1709534890.49969697,68128571,1580,1580,1582,1581,0,0,0,0,0,0,0,0,0,0
1709534890.59965682,68228531,1580,1580,1581,1581,0,0,0,0,0,0,0,0,0,0
1709534890.69961691,68328491,1581,1579,1582,1581,0,0,0,0,0,0,0,0,0,0
1709534890.79957700,68428451,1581,1580,1582,1582,0,0,0,0,0,0,0,0,0,0
1709534890.89953685,68528411,1580,1579,1580,1580,0,0,0,0,0,0,0,0,0,0
1709534890.99949694,68628371,1580,1580,1580,1581,0,0,0,0,0,0,0,0,0,0
1709534891.09945703,68728331,1580,1580,1580,1580,0,0,0,0,0,0,0,0,0,0
1709534891.19941688,68828291,1580,1580,1580,1580,0,0,0,0,0,0,0,0,0,0
1709534891.29937696,68928251,1580,1581,1583,1576,0,0,0,0,0,0,0,0,0,0
1709534891.39933705,69028211,1580,1583,1585,1570,0,0,0,0,0,0,0,0,0,0
1709534891.49929690,69128171,1580,1583,1578,1570,0,0,0,0,0,0,0,0,0,0
1709534891.60009003,69228964,1579,1582,1568,1569,0,0,0,0,0,0,0,0,0,0
1709534891.70004988,69328924,1578,1580,1560,1566,0,0,0,0,0,0,0,0,0,0
1709534891.80000997,69428884,1576,1579,1552,1560,0,0,0,0,0,0,0,0,0,0
1709534891.89997005,69528844,1577,1578,1549,1555,0,0,0,0,0,0,0,0,0,0
1709534891.99992990,69628804,1579,1578,1549,1552,0,0,0,0,0,0,0,0,0,0
1709534892.09988999,69728764,1581,1579,1551,1551,0,0,0,0,0,0,0,0,0,0
1709534892.19984984,69828724,1579,1578,1551,1549,0,0,0,0,0,0,0,0,0,0
1709534892.29980993,69928684,1579,1578,1552,1549,0,0,0,0,0,0,0,0,0,0
1709534892.39977002,70028644,1577,1578,1552,1550,0,0,0,0,0,0,0,0,0,0
1709534892.49972987,70128604,1578,1579,1553,1551,0,0,0,0,0,0,0,0,0,0
1709534892.59968996,70228564,1576,1578,1551,1551,0,0,0,0,0,0,0,0,0,0
1709534892.69965005,70328524,1403,1556,1552,1553,0,0,0,0,0,0,0,0,0,0
1709534892.79960990,70428484,1502,1526,1574,1577,0,0,0,0,0,0,0,0,0,0
1709534892.89956999,70528444,1563,1527,1582,1582,0,0,0,0,0,0,0,0,0,0
1709534892.99952984,70628404,1610,1551,1590,1589,0,0,0,0,0,0,0,0,0,0
1709534893.09948993,70728364,1639,1580,1593,1590,0,0,0,0,0,0,0,0,0,0
1709534893.19945002,70828324,1643,1604,1586,1585,0,0,0,0,0,0,0,0,0,0
1709534893.29940987,70928284,1630,1617,1571,1572,0,0,0,0,0,0,0,0,0,0
1709534893.39936996,71028244,1612,1624,1555,1558,0,0,0,0,0,0,0,0,0,0
1709534893.49933004,71128204,1599,1626,1545,1547,0,0,0,0,0,0,0,0,0,0
1709534893.59928989,71228164,1593,1624,1539,1539,0,0,0,0,0,0,0,0,0,0
1709534893.70008302,71328957,1593,1617,1538,1533,0,0,0,0,0,0,0,0,0,0
1709534893.80004287,71428917,1595,1608,1538,1532,0,0,0,0,0,0,0,0,0,0
1709534893.90000296,71528877,1596,1597,1540,1535,0,0,0,0,0,0,0,0,0,0
1709534893.99996305,71628837,1593,1586,1543,1544,0,0,0,0,0,0,0,0,0,0
1709534894.09992290,71728797,1587,1577,1548,1553,0,0,0,0,0,0,0,0,0,0
1709534894.19988298,71828757,1579,1568,1554,1564,0,0,0,0,0,0,0,0,0,0
1709534894.29984283,71928717,1569,1562,1562,1572,0,0,0,0,0,0,0,0,0,0
1709534894.39980292,72028677,1558,1554,1569,1578,0,0,0,0,0,0,0,0,0,0
1709534894.49976301,72128637,1549,1549,1579,1584,0,0,0,0,0,0,0,0,0,0
1709534894.59972286,72228597,1541,1542,1587,1589,0,0,0,0,0,0,0,0,0,0
1709534894.69968295,72328557,1535,1537,1596,1594,0,0,0,0,0,0,0,0,0,0
1709534894.79964304,72428517,1531,1533,1603,1600,0,0,0,0,0,0,0,0,0,0
1709534894.89960289,72528477,1530,1532,1607,1603,0,0,0,0,0,0,0,0,0,0
1709534894.99956298,72628437,1531,1533,1605,1602,0,0,0,0,0,0,0,0,0,0
1709534895.09952283,72728397,1537,1539,1603,1601,0,0,0,0,0,0,0,0,0,0
1709534895.19948292,72828357,1544,1546,1597,1597,0,0,0,0,0,0,0,0,0,0
1709534895.29944301,72928317,1551,1554,1590,1589,0,0,0,0,0,0,0,0,0,0
1709534895.39940286,73028277,1561,1563,1583,1583,0,0,0,0,0,0,0,0,0,0
1709534895.49936295,73128237,1570,1572,1578,1576,0,0,0,0,0,0,0,0,0,0
1709534895.59932303,73228197,1578,1576,1571,1570,0,0,0,0,0,0,0,0,0,0
1709534895.69928288,73328157,1583,1581,1566,1565,0,0,0,0,0,0,0,0,0,0
1709534895.80007601,73428950,1587,1583,1564,1564,0,0,0,0,0,0,0,0,0,0
1709534895.90003586,73528910,1588,1585,1564,1564,0,0,0,0,0,0,0,0,0,0
1709534895.99999595,73628870,1588,1586,1565,1566,0,0,0,0,0,0,0,0,0,0
1709534896.09995604,73728830,1586,1585,1567,1567,0,0,0,0,0,0,0,0,0,0
1709534896.19991589,73828790,1584,1584,1569,1570,0,0,0,0,0,0,0,0,0,0
1709534896.29987597,73928750,1582,1583,1571,1571,0,0,0,0,0,0,0,0,0,0
1709534896.39983582,74028710,1580,1580,1574,1574,0,0,0,0,0,0,0,0,0,0
1709534896.49979591,74128670,1578,1579,1576,1576,0,0,0,0,0,0,0,0,0,0
1709534896.59975600,74228630,1576,1576,1578,1578,0,0,0,0,0,0,0,0,0,0
1709534896.69971585,74328590,1574,1575,1580,1580,0,0,0,0,0,0,0,0,0,0
1709534896.79967594,74428550,1573,1573,1581,1581,0,0,0,0,0,0,0,0,0,0
1709534896.89963603,74528510,1571,1572,1582,1582,0,0,0,0,0,0,0,0,0,0
1709534896.99959588,74628470,1571,1571,1583,1583,0,0,0,0,0,0,0,0,0,0
1709534897.09955597,74728430,1572,1573,1584,1584,0,0,0,0,0,0,0,0,0,0
1709534897.19951582,74828390,1572,1572,1583,1583,0,0,0,0,0,0,0,0,0,0
1709534897.29947591,74928350,1573,1574,1583,1583,0,0,0,0,0,0,0,0,0,0
1709534897.39943600,75028310,1575,1575,1582,1582,0,0,0,0,0,0,0,0,0,0
1709534897.49939585,75128270,1575,1575,1580,1580,0,0,0,0,0,0,0,0,0,0
1709534897.59935594,75228230,1577,1577,1579,1580,0,0,0,0,0,0,0,0,0,0
1709534897.69931602,75328190,1578,1578,1578,1578,0,0,0,0,0,0,0,0,0,0
1709534897.80010891,75428983,1579,1579,1577,1578,0,0,0,0,0,0,0,0,0,0
1709534897.90006900,75528943,1580,1580,1578,1577,0,0,0,0,0,0,0,0,0,0
1709534898.00002885,75628903,1581,1580,1576,1577,0,0,0,0,0,0,0,0,0,0
1709534898.09998894,75728863,1581,1581,1577,1576,0,0,0,0,0,0,0,0,0,0
1709534898.19994903,75828823,1581,1580,1576,1577,0,0,0,0,0,0,0,0,0,0
1709534898.29990888,75928783,1581,1581,1577,1576,0,0,0,0,0,0,0,0,0,0
1709534898.39986897,76028743,1581,1581,1578,1578,0,0,0,0,0,0,0,0,0,0
1709534898.49982905,76128703,1580,1580,1578,1578,0,0,0,0,0,0,0,0,0,0
1709534898.59978890,76228663,1580,1580,1579,1580,0,0,0,0,0,0,0,0,0,0
1709534898.69974899,76328623,1580,1580,1580,1579,0,0,0,0,0,0,0,0,0,0
1709534898.79970884,76428583,1579,1579,1580,1580,0,0,0,0,0,0,0,0,0,0
1709534898.89966893,76528543,1580,1580,1581,1580,0,0,0,0,0,0,0,0,0,0
1709534898.99962902,76628503,1580,1580,1581,1581,0,0,0,0,0,0,0,0,0,0
1709534899.09958887,76728463,1580,1580,1581,1581,0,0,0,0,0,0,0,0,0,0
1709534899.19954896,76828423,1580,1580,1580,1581,0,0,0,0,0,0,0,0,0,0
1709534899.29950905,76928383,1580,1580,1586,1576,0,0,0,0,0,0,0,0,0,0
1709534899.39946890,77028343,1581,1581,1587,1575,0,0,0,0,0,0,0,0,0,0
1709534899.49942899,77128303,1580,1580,1581,1574,0,0,0,0,0,0,0,0,0,0
1709534899.59938884,77228263,1578,1579,1573,1574,0,0,0,0,0,0,0,0,0,0
1709534899.69934893,77328223,1576,1578,1565,1571,0,0,0,0,0,0,0,0,0,0
1709534899.79930902,77428183,1575,1576,1560,1567,0,0,0,0,0,0,0,0,0,0
1709534899.90010190,77528976,1575,1576,1560,1563,0,0,0,0,0,0,0,0,0,0
1709534900.00006199,77628936,1576,1575,1560,1561,0,0,0,0,0,0,0,0,0,0
1709534900.10002184,77728896,1576,1575,1562,1561,0,0,0,0,0,0,0,0,0,0
1709534900.19998193,77828856,1575,1574,1563,1560,0,0,0,0,0,0,0,0,0,0
1709534900.29994202,77928816,1573,1573,1563,1560,0,0,0,0,0,0,0,0,0,0
1709534900.39990187,78028776,1572,1573,1562,1561,0,0,0,0,0,0,0,0,0,0
1709534900.49986196,78128736,1571,1571,1561,1561,0,0,0,0,0,0,0,0,0,0
1709534900.59982204,78228696,1570,1571,1560,1561,0,0,0,0,0,0,0,0,0,0
1709534900.69978189,78328656,1568,1569,1559,1558,0,0,0,0,0,0,0,0,0,0
1709534900.79974198,78428616,1568,1569,1557,1558,0,0,0,0,0,0,0,0,0,0
1709534900.89970183,78528576,1569,1570,1557,1556,0,0,0,0,0,0,0,0,0,0
1709534900.99966192,78628536,1570,1571,1555,1555,0,0,0,0,0,0,0,0,0,0
1709534901.09962201,78728496,1571,1573,1554,1553,0,0,0,0,0,0,0,0,0,0
1709534901.19958186,78828456,1574,1575,1553,1552,0,0,0,0,0,0,0,0,0,0
1709534901.29954195,78928416,1576,1577,1551,1550,0,0,0,0,0,0,0,0,0,0
1709534901.39950204,79028376,1578,1578,1547,1547,0,0,0,0,0,0,0,0,0,0
1709534901.49946189,79128336,1580,1581,1545,1545,0,0,0,0,0,0,0,0,0,0
1709534901.59942198,79228296,1583,1583,1544,1543,0,0,0,0,0,0,0,0,0,0
1709534901.69938183,79328256,1585,1585,1542,1542,0,0,0,0,0,0,0,0,0,0
1709534901.79934192,79428216,1587,1587,1541,1541,0,0,0,0,0,0,0,0,0,0
1709534901.89930201,79528176,1588,1589,1540,1540,0,0,0,0,0,0,0,0,0,0
1709534902.00009489,79628969,1589,1589,1540,1541,0,0,0,0,0,0,0,0,0,0
1709534902.10005498,79728929,1590,1589,1542,1542,0,0,0,0,0,0,0,0,0,0
1709534902.20001483,79828889,1588,1588,1543,1544,0,0,0,0,0,0,0,0,0,0
1709534902.29997492,79928849,1587,1587,1545,1546,0,0,0,0,0,0,0,0,0,0
1709534902.39993501,80028809,1584,1584,1548,1550,0,0,0,0,0,0,0,0,0,0
1709534902.49989486,80128769,1582,1581,1552,1555,0,0,0,0,0,0,0,0,0,0
1709534902.59985495,80228729,1577,1575,1557,1559,0,0,0,0,0,0,0,0,0,0
1709534902.69981503,80328689,1572,1570,1565,1568,0,0,0,0,0,0,0,0,0,0
1709534902.79977489,80428649,1566,1563,1573,1575,0,0,0,0,0,0,0,0,0,0
1709534902.89973497,80528609,1559,1557,1581,1582,0,0,0,0,0,0,0,0,0,0
1709534902.99969482,80628569,1553,1551,1588,1589,0,0,0,0,0,0,0,0,0,0
1709534903.09965491,80728529,1547,1547,1594,1593,0,0,0,0,0,0,0,0,0,0
1709534903.19961500,80828489,1544,1545,1598,1598,0,0,0,0,0,0,0,0,0,0
1709534903.29957485,80928449,1543,1545,1599,1599,0,0,0,0,0,0,0,0,0,0
1709534903.39953494,81028409,1544,1546,1598,1598,0,0,0,0,0,0,0,0,0,0
1709534903.49949503,81128369,1548,1550,1597,1597,0,0,0,0,0,0,0,0,0,0
1709534903.59945488,81228329,1553,1554,1594,1594,0,0,0,0,0,0,0,0,0,0
1709534903.69941497,81328289,1558,1559,1590,1590,0,0,0,0,0,0,0,0,0,0
1709534903.79937482,81428249,1564,1563,1587,1586,0,0,0,0,0,0,0,0,0,0
1709534903.89933491,81528209,1569,1567,1584,1582,0,0,0,0,0,0,0,0,0,0
1709534903.99929500,81628169,1573,1571,1582,1580,0,0,0,0,0,0,0,0,0,0
1709534904.10008788,81728962,1576,1575,1580,1579,0,0,0,0,0,0,0,0,0,0
1709534904.20004797,81828922,1577,1576,1577,1577,0,0,0,0,0,0,0,0,0,0
1709534904.30000782,81928882,1578,1577,1575,1576,0,0,0,0,0,0,0,0,0,0
1709534904.39996791,82028842,1580,1580,1577,1577,0,0,0,0,0,0,0,0,0,0
1709534904.49992800,82128802,1580,1579,1576,1576,0,0,0,0,0,0,0,0,0,0
1709534904.59988785,82228762,1580,1580,1577,1577,0,0,0,0,0,0,0,0,0,0
1709534904.69984794,82328722,1580,1580,1577,1578,0,0,0,0,0,0,0,0,0,0
1709534904.79980803,82428682,1578,1579,1578,1578,0,0,0,0,0,0,0,0,0,0
1709534904.89976788,82528642,1577,1578,1578,1578,0,0,0,0,0,0,0,0,0,0
1709534904.99972796,82628602,1578,1579,1580,1580,0,0,0,0,0,0,0,0,0,0
1709534905.09968805,82728562,1578,1578,1580,1581,0,0,0,0,0,0,0,0,0,0
1709534905.19964790,82828522,1577,1578,1580,1581,0,0,0,0,0,0,0,0,0,0
1709534905.29960799,82928482,1578,1578,1581,1581,0,0,0,0,0,0,0,0,0,0
1709534905.39956784,83028442,1578,1578,1582,1581,0,0,0,0,0,0,0,0,0,0
1709534905.49952793,83128402,1578,1578,1581,1580,0,0,0,0,0,0,0,0,0,0
1709534905.59948802,83228362,1578,1578,1581,1580,0,0,0,0,0,0,0,0,0,0
1709534905.69944787,83328322,1579,1579,1580,1580,0,0,0,0,0,0,0,0,0,0
1709534905.79940796,83428282,1579,1579,1580,1580,0,0,0,0,0,0,0,0,0,0
1709534905.89936805,83528242,1580,1579,1579,1580,0,0,0,0,0,0,0,0,0,0
1709534905.99932790,83628202,1579,1579,1579,1579,0,0,0,0,0,0,0,0,0,0
1709534906.09928799,83728162,1579,1579,1579,1578,0,0,0,0,0,0,0,0,0,0
1709534906.20008087,83828955,1580,1580,1579,1579,0,0,0,0,0,0,0,0,0,0
1709534906.30004096,83928915,1580,1580,1579,1579,0,0,0,0,0,0,0,0,0,0
1709534906.40000105,84028875,1581,1581,1580,1580,0,0,0,0,0,0,0,0,0,0
1709534906.49996090,84128835,1580,1580,1579,1579,0,0,0,0,0,0,0,0,0,0
1709534906.59992099,84228795,1581,1581,1580,1580,0,0,0,0,0,0,0,0,0,0
1709534906.69988084,84328755,1580,1580,1580,1580,0,0,0,0,0,0,0,0,0,0
1709534906.79984093,84428715,1581,1581,1581,1581,0,0,0,0,0,0,0,0,0,0
1709534906.89980102,84528675,1581,1581,1581,1581,0,0,0,0,0,0,0,0,0,0
1709534906.99976087,84628635,1580,1581,1581,1581,0,0,0,0,0,0,0,0,0,0
1709534907.09972095,84728595,1580,1581,1581,1581,0,0,0,0,0,0,0,0,0,0
1709534907.19968104,84828555,1580,1581,1581,1581,0,0,0,0,0,0,0,0,0,0
1709534907.29964089,84928515,1580,1580,1580,1580,0,0,0,0,0,0,0,0,0,0
1709534907.39960098,85028475,1581,1581,1581,1581,0,0,0,0,0,0,0,0,0,0
1709534907.49956083,85128435,1580,1580,1580,1581,0,0,0,0,0,0,0,0,0,0
1709534907.59952092,85228395,1581,1581,1581,1582,0,0,0,0,0,0,0,0,0,0
1709534907.69948101,85328355,1582,1581,1581,1581,0,0,0,0,0,0,0,0,0,0
1709534907.79944086,85428315,1581,1582,1585,1577,0,0,0,0,0,0,0,0,0,0
1709534907.89940095,85528275,1581,1581,1588,1573,0,0,0,0,0,0,0,0,0,0
1709534907.99936104,85628235,1579,1579,1583,1574,0,0,0,0,0,0,0,0,0,0
1709534908.09932089,85728195,1577,1576,1575,1576,0,0,0,0,0,0,0,0,0,0
1709534908.19928098,85828155,1574,1573,1569,1575,0,0,0,0,0,0,0,0,0,0
1709534908.30007386,85928948,1570,1569,1565,1572,0,0,0,0,0,0,0,0,0,0
1709534908.40003395,86028908,1568,1568,1564,1570,0,0,0,0,0,0,0,0,0,0
1709534908.49999404,86128868,1566,1567,1565,1568,0,0,0,0,0,0,0,0,0,0
1709534908.59995389,86228828,1565,1566,1566,1565,0,0,0,0,0,0,0,0,0,0
1709534908.69991398,86328788,1565,1565,1567,1564,0,0,0,0,0,0,0,0,0,0
1709534908.79987383,86428748,1565,1565,1567,1564,0,0,0,0,0,0,0,0,0,0
1709534908.89983392,86528708,1564,1564,1565,1564,0,0,0,0,0,0,0,0,0,0
1709534908.99979401,86628668,1563,1563,1564,1563,0,0,0,0,0,0,0,0,0,0
1709534909.09975386,86728628,1562,1562,1563,1563,0,0,0,0,0,0,0,0,0,0
1709534909.19971395,86828588,1562,1563,1563,1563,0,0,0,0,0,0,0,0,0,0
1709534909.29967403,86928548,1561,1560,1561,1562,0,0,0,0,0,0,0,0,0,0
1709534909.39963388,87028508,1561,1560,1561,1561,0,0,0,0,0,0,0,0,0,0
1709534909.49959397,87128468,1561,1561,1561,1561,0,0,0,0,0,0,0,0,0,0
1709534909.59955382,87228428,1561,1561,1562,1561,0,0,0,0,0,0,0,0,0,0
1709534909.69951391,87328388,1560,1560,1560,1560,0,0,0,0,0,0,0,0,0,0
1709534909.79947400,87428348,1559,1559,1560,1559,0,0,0,0,0,0,0,0,0,0
1709534909.89943385,87528308,1557,1557,1557,1557,0,0,0,0,0,0,0,0,0,0
1709534909.99939394,87628268,1558,1558,1558,1557,0,0,0,0,0,0,0,0,0,0
1709534910.09935403,87728228,1558,1558,1558,1557,0,0,0,0,0,0,0,0,0,0
1709534910.19931388,87828188,1558,1558,1559,1557,0,0,0,0,0,0,0,0,0,0
1709534910.30010700,87928981,1558,1557,1558,1557,0,0,0,0,0,0,0,0,0,0
1709534910.40006685,88028941,1558,1558,1559,1557,0,0,0,0,0,0,0,0,0,0
1709534910.50002694,88128901,1559,1557,1560,1557,0,0,0,0,0,0,0,0,0,0
1709534910.59998703,88228861,1559,1558,1559,1560,0,0,0,0,0,0,0,0,0,0
1709534910.69994688,88328821,1560,1559,1557,1562,0,0,0,0,0,0,0,0,0,0
1709534910.79990697,88428781,1561,1562,1559,1565,0,0,0,0,0,0,0,0,0,0
1709534910.89986682,88528741,1561,1561,1558,1564,0,0,0,0,0,0,0,0,0,0
1709534910.99982691,88628701,1561,1562,1560,1563,0,0,0,0,0,0,0,0,0,0
1709534911.09978700,88728661,1560,1561,1560,1560,0,0,0,0,0,0,0,0,0,0
1709534911.19974685,88828621,1560,1560,1559,1560,0,0,0,0,0,0,0,0,0,0
1709534911.29970694,88928581,1557,1557,1555,1557,0,0,0,0,0,0,0,0,0,0
1709534911.39966702,89028541,1553,1553,1551,1552,0,0,0,0,0,0,0,0,0,0
1709534911.49962687,89128501,1547,1546,1545,1545,0,0,0,0,0,0,0,0,0,0
1709534911.59958696,89228461,1541,1541,1539,1538,0,0,0,0,0,0,0,0,0,0
1709534911.69954705,89328421,1534,1534,1532,1532,0,0,0,0,0,0,0,0,0,0
1709534911.79950690,89428381,1525,1526,1523,1523,0,0,0,0,0,0,0,0,0,0
1709534911.89946699,89528341,1521,1522,1520,1520,0,0,0,0,0,0,0,0,0,0
1709534911.99942684,89628301,1519,1520,1518,1519,0,0,0,0,0,0,0,0,0,0
1709534912.09938693,89728261,1519,1520,1520,1521,0,0,0,0,0,0,0,0,0,0
1709534912.19934702,89828221,1520,1521,1522,1523,0,0,0,0,0,0,0,0,0,0
1709534912.29930687,89928181,1523,1523,1526,1526,0,0,0,0,0,0,0,0,0,0
1709534912.40009999,90028974,1527,1528,1531,1531,0,0,0,0,0,0,0,0,0,0
1709534912.50005984,90128934,1533,1532,1536,1536,0,0,0,0,0,0,0,0,0,0
1709534912.60001993,90228894,1537,1536,1540,1540,0,0,0,0,0,0,0,0,0,0
1709534912.69998002,90328854,1540,1539,1542,1542,0,0,0,0,0,0,0,0,0,0
1709534912.79993987,90428814,1543,1542,1544,1544,0,0,0,0,0,0,0,0,0,0
1709534912.89989996,90528774,1544,1544,1546,1544,0,0,0,0,0,0,0,0,0,0
1709534912.99986005,90628734,1543,1545,1547,1544,0,0,0,0,0,0,0,0,0,0
1709534913.09981990,90728694,1543,1544,1548,1545,0,0,0,0,0,0,0,0,0,0
1709534913.19977999,90828654,1543,1543,1548,1548,0,0,0,0,0,0,0,0,0,0
1709534913.29973984,90928614,1543,1542,1550,1550,0,0,0,0,0,0,0,0,0,0
1709534913.39969993,91028574,1543,1541,1549,1552,0,0,0,0,0,0,0,0,0,0
1709534913.49966002,91128534,1542,1541,1550,1552,0,0,0,0,0,0,0,0,0,0
1709534913.59961987,91228494,1542,1541,1548,1550,0,0,0,0,0,0,0,0,0,0
1709534913.69957995,91328454,1542,1542,1548,1549,0,0,0,0,0,0,0,0,0,0
1709534913.79954004,91428414,1543,1542,1546,1547,0,0,0,0,0,0,0,0,0,0
1709534913.89949989,91528374,1544,1544,1546,1546,0,0,0,0,0,0,0,0,0,0
1709534913.99945998,91628334,1545,1546,1544,1545,0,0,0,0,0,0,0,0,0,0
1709534914.09941983,91728294,1547,1547,1543,1543,0,0,0,0,0,0,0,0,0,0
1709534914.19937992,91828254,1548,1548,1541,1542,0,0,0,0,0,0,0,0,0,0
1709534914.29934001,91928214,1549,1549,1541,1541,0,0,0,0,0,0,0,0,0,0
1709534914.39929986,92028174,1549,1549,1540,1540,0,0,0,0,0,0,0,0,0,0
1709534914.50009298,92128967,1550,1550,1540,1540,0,0,0,0,0,0,0,0,0,0
1709534914.60005283,92228927,1549,1549,1540,1540,0,0,0,0,0,0,0,0,0,0
1709534914.70001292,92328887,1549,1550,1541,1541,0,0,0,0,0,0,0,0,0,0
1709534914.79997301,92428847,1549,1549,1541,1542,0,0,0,0,0,0,0,0,0,0
1709534914.89993286,92528807,1547,1547,1542,1541,0,0,0,0,0,0,0,0,0,0
1709534914.99989295,92628767,1547,1547,1543,1543,0,0,0,0,0,0,0,0,0,0
1709534915.09985304,92728727,1546,1547,1544,1543,0,0,0,0,0,0,0,0,0,0
1709534915.19981289,92828687,1545,1546,1544,1543,0,0,0,0,0,0,0,0,0,0
1709534915.29977298,92928647,1546,1546,1545,1545,0,0,0,0,0,0,0,0,0,0
1709534915.39973283,93028607,1545,1546,1545,1545,0,0,0,0,0,0,0,0,0,0
1709534915.49969292,93128567,1545,1545,1545,1545,0,0,0,0,0,0,0,0,0,0
1709534915.59965301,93228527,1544,1545,1544,1544,0,0,0,0,0,0,0,0,0,0
1709534915.69961286,93328487,1545,1545,1544,1544,0,0,0,0,0,0,0,0,0,0
1709534915.79957294,93428447,1546,1546,1545,1545,0,0,0,0,0,0,0,0,0,0
1709534915.89953303,93528407,1546,1545,1544,1544,0,0,0,0,0,0,0,0,0,0
1709534915.99949288,93628367,1546,1546,1544,1543,0,0,0,0,0,0,0,0,0,0
1709534916.09945297,93728327,1547,1546,1543,1543,0,0,0,0,0,0,0,0,0,0
1709534916.19941282,93828287,1547,1545,1544,1543,0,0,0,0,0,0,0,0,0,0
1709534916.29937291,93928247,1546,1545,1545,1543,0,0,0,0,0,0,0,0,0,0
1709534916.39933300,94028207,1546,1545,1546,1544,0,0,0,0,0,0,0,0,0,0
1709534916.49929285,94128167,1545,1544,1546,1545,0,0,0,0,0,0,0,0,0,0
1709534916.60008597,94228960,1543,1542,1546,1545,0,0,0,0,0,0,0,0,0,0
1709534916.70004582,94328920,1542,1542,1547,1547,0,0,0,0,0,0,0,0,0,0
1709534916.80000591,94428880,1541,1541,1547,1547,0,0,0,0,0,0,0,0,0,0
1709534916.89996600,94528840,1541,1542,1547,1548,0,0,0,0,0,0,0,0,0,0
1709534916.99992585,94628800,1540,1541,1546,1547,0,0,0,0,0,0,0,0,0,0
1709534917.09988594,94728760,1540,1541,1545,1546,0,0,0,0,0,0,0,0,0,0
1709534917.19984603,94828720,1540,1541,1545,1545,0,0,0,0,0,0,0,0,0,0
1709534917.29980588,94928680,1542,1542,1545,1545,0,0,0,0,0,0,0,0,0,0
1709534917.39976597,95028640,1543,1543,1545,1544,0,0,0,0,0,0,0,0,0,0
1709534917.49972582,95128600,1544,1543,1544,1544,0,0,0,0,0,0,0,0,0,0
1709534917.59968591,95228560,1545,1545,1543,1544,0,0,0,0,0,0,0,0,0,0
1709534917.69964600,95328520,1545,1545,1543,1543,0,0,0,0,0,0,0,0,0,0
1709534917.79960585,95428480,1546,1545,1543,1543,0,0,0,0,0,0,0,0,0,0
1709534917.89956594,95528440,1546,1546,1543,1543,0,0,0,0,0,0,0,0,0,0
1709534917.99952602,95628400,1546,1547,1544,1544,0,0,0,0,0,0,0,0,0,0
1709534918.09948587,95728360,1546,1546,1544,1544,0,0,0,0,0,0,0,0,0,0
1709534918.19944596,95828320,1545,1545,1543,1543,0,0,0,0,0,0,0,0,0,0
1709534918.29940605,95928280,1545,1545,1544,1544,0,0,0,0,0,0,0,0,0,0
1709534918.39936590,96028240,1545,1546,1545,1545,0,0,0,0,0,0,0,0,0,0
1709534918.49932599,96128200,1544,1544,1544,1544,0,0,0,0,0,0,0,0,0,0
1709534918.59928584,96228160,1544,1544,1544,1544,0,0,0,0,0,0,0,0,0,0
1709534918.70007896,96328953,1544,1544,1544,1545,0,0,0,0,0,0,0,0,0,0
1709534918.80003905,96428913,1545,1544,1546,1546,0,0,0,0,0,0,0,0,0,0
1709534918.89999890,96528873,1544,1544,1544,1545,0,0,0,0,0,0,0,0,0,0
1709534918.99995899,96628833,1543,1543,1545,1544,0,0,0,0,0,0,0,0,0,0
1709534919.09991884,96728793,1543,1542,1543,1543,0,0,0,0,0,0,0,0,0,0
1709534919.19987893,96828753,1543,1544,1545,1544,0,0,0,0,0,0,0,0,0,0
1709534919.29983902,96928713,1544,1544,1544,1545,0,0,0,0,0,0,0,0,0,0
1709534919.39979887,97028673,1543,1543,1544,1544,0,0,0,0,0,0,0,0,0,0
1709534919.49975896,97128633,1543,1544,1543,1544,0,0,0,0,0,0,0,0,0,0
1709534919.59971905,97228593,1544,1543,1543,1543,0,0,0,0,0,0,0,0,0,0
1709534919.69967890,97328553,1544,1543,1543,1543,0,0,0,0,0,0,0,0,0,0
1709534919.79963899,97428513,1545,1545,1545,1545,0,0,0,0,0,0,0,0,0,0
1709534919.89959884,97528473,1544,1544,1544,1544,0,0,0,0,0,0,0,0,0,0
1709534919.99955893,97628433,1544,1544,1544,1544,0,0,0,0,0,0,0,0,0,0
1709534920.09951901,97728393,1543,1543,1543,1543,0,0,0,0,0,0,0,0,0,0
1709534920.19947886,97828353,1544,1544,1544,1544,0,0,0,0,0,0,0,0,0,0
1709534920.29943895,97928313,1545,1544,1544,1544,0,0,0,0,0,0,0,0,0,0
1709534920.39939904,98028273,1544,1544,1543,1544,0,0,0,0,0,0,0,0,0,0
1709534920.49935889,98128233,1543,1543,1543,1543,0,0,0,0,0,0,0,0,0,0
1709534920.59931898,98228193,1543,1544,1544,1544,0,0,0,0,0,0,0,0,0,0
1709534920.70011187,98328986,1543,1543,1543,1542,0,0,0,0,0,0,0,0,0,0
1709534920.80007195,98428946,1544,1544,1544,1543,0,0,0,0,0,0,0,0,0,0
1709534920.90003204,98528906,1543,1543,1544,1543,0,0,0,0,0,0,0,0,0,0
1709534920.99999189,98628866,1544,1544,1544,1544,0,0,0,0,0,0,0,0,0,0
1709534921.09995198,98728826,1545,1544,1544,1545,0,0,0,0,0,0,0,0,0,0
1709534921.19991183,98828786,1544,1545,1545,1545,0,0,0,0,0,0,0,0,0,0
1709534921.29987192,98928746,1544,1544,1544,1545,0,0,0,0,0,0,0,0,0,0
1709534921.39983201,99028706,1544,1544,1544,1544,0,0,0,0,0,0,0,0,0,0
1709534921.49979186,99128666,1544,1544,1544,1544,0,0,0,0,0,0,0,0,0,0
1709534921.59975195,99228626,1535,1534,1533,1533,0,0,0,0,0,0,0,0,0,0
1709534921.69971204,99328586,1395,1341,1347,1340,0,0,0,0,0,0,0,0,0,0
1709534921.79967189,99428546,1330,1240,1251,1238,0,0,0,0,0,0,0,0,0,0
1709534921.89963198,99528506,1311,1210,1220,1209,0,0,0,0,0,0,0,0,0,0
1709534921.99959183,99628466,1298,1193,1200,1190,0,0,0,0,0,0,0,0,0,0
1709534922.09955192,99728426,1275,1152,1160,1150,0,0,0,0,0,0,0,0,0,0
1709534922.19951200,99828386,1227,1152,1159,1150,0,0,0,0,0,0,0,0,0,0
1709534922.29947186,99928346,1227,1152,1159,1150,0,0,0,0,0,0,0,0,0,0
1709534922.39943194,100028306,1226,1153,1161,1150,0,0,0,0,0,0,0,0,0,0
1709534922.49939203,100128266,1214,1152,1150,1180,0,0,0,0,0,0,0,0,0,0
1709534922.59935188,100228226,1222,1150,1150,1170,0,0,0,0,0,0,0,0,0,0
1709534922.69931197,100328186,1225,1150,1152,1163,0,0,0,0,0,0,0,0,0,0
1709534922.80010486,100428979,1226,1150,1152,1162,0,0,0,0,0,0,0,0,0,0
1709534922.90006495,100528939,1225,1150,1152,1162,0,0,0,0,0,0,0,0,0,0
1709534923.00002503,100628899,1225,1150,1152,1162,0,0,0,0,0,0,0,0,0,0
1709534923.09998488,100728859,1225,1150,1152,1163,0,0,0,0,0,0,0,0,0,0
1709534923.19994497,100828819,1225,1150,1152,1163,0,0,0,0,0,0,0,0,0,0
1709534923.29990482,100928779,1234,1150,1150,1150,0,0,0,0,0,0,0,0,0,0
1709534923.39986491,101028739,1233,1150,1150,1151,0,0,0,0,0,0,0,0,0,0
1709534923.49982500,101128699,1233,1150,1150,1152,0,0,0,0,0,0,0,0,0,0
1709534923.59978485,101228659,1233,1150,1150,1152,0,0,0,0,0,0,0,0,0,0
1709534923.69974494,101328619,1233,1150,1150,1152,0,0,0,0,0,0,0,0,0,0
1709534923.79970503,101428579,1000,1000,1000,1000,0,0,0,0,0,0,0,0,0,0
1709534923.89966488,101528539,1000,1000,1000,1000,0,0,0,0,0,0,0,0,0,0
1709534923.99962497,101628499,1000,1000,1000,1000,0,0,0,0,0,0,0,0,0,0
1709534924.09958482,101728459,1000,1000,1000,1000,0,0,0,0,0,0,0,0,0,0
1709534924.19954491,101828419,1000,1000,1000,1000,0,0,0,0,0,0,0,0,0,0
1709534924.29950500,101928379,1000,1000,1000,1000,0,0,0,0,0,0,0,0,0,0
1709534924.39946485,102028339,1000,1000,1000,1000,0,0,0,0,0,0,0,0,0,0
1709534924.49942493,102128299,1000,1000,1000,1000,0,0,0,0,0,0,0,0,0,0
1709534924.59938502,102228259,1000,1000,1000,1000,0,0,0,0,0,0,0,0,0,0
1709534924.69934487,102328219,1000,1000,1000,1000,0,0,0,0,0,0,0,0,0,0
1709534924.79930496,102428179,1000,1000,1000,1000,0,0,0,0,0,0,0,0,0,0
1709534924.90009785,102528972,1000,1000,1000,1000,0,0,0,0,0,0,0,0,0,0
1709534925.00005794,102628932,1000,1000,1000,1000,0,0,0,0,0,0,0,0,0,0
1709534925.10001802,102728892,1000,1000,1000,1000,0,0,0,0,0,0,0,0,0,0
1709534925.19997787,102828852,1000,1000,1000,1000,0,0,0,0,0,0,0,0,0,0
1709534925.29993796,102928812,1000,1000,1000,1000,0,0,0,0,0,0,0,0,0,0
1709534925.39989805,103028772,1000,1000,1000,1000,0,0,0,0,0,0,0,0,0,0
1709534925.49985790,103128732,1000,1000,1000,1000,0,0,0,0,0,0,0,0,0,0
1709534925.59981799,103228692,1000,1000,1000,1000,0,0,0,0,0,0,0,0,0,0
1709534925.69977784,103328652,1000,1000,1000,1000,0,0,0,0,0,0,0,0,0,0
1709534925.79973793,103428612,1000,1000,1000,1000,0,0,0,0,0,0,0,0,0,0
1709534925.89969802,103528572,1000,1000,1000,1000,0,0,0,0,0,0,0,0,0,0
1709534925.99965787,103628532,1000,1000,1000,1000,0,0,0,0,0,0,0,0,0,0
1709534926.09961796,103728492,1000,1000,1000,1000,0,0,0,0,0,0,0,0,0,0
1709534926.19957805,103828452,1000,1000,1000,1000,0,0,0,0,0,0,0,0,0,0
1709534926.29953790,103928412,1000,1000,1000,1000,0,0,0,0,0,0,0,0,0,0
1709534926.39949799,104028372,1000,1000,1000,1000,0,0,0,0,0,0,0,0,0,0
1709534926.49945784,104128332,1000,1000,1000,1000,0,0,0,0,0,0,0,0,0,0
1709534926.59941792,104228292,1000,1000,1000,1000,0,0,0,0,0,0,0,0,0,0
1709534926.69937801,104328252,1000,1000,1000,1000,0,0,0,0,0,0,0,0,0,0
1709534926.79933786,104428212,1000,1000,1000,1000,0,0,0,0,0,0,0,0,0,0
1709534926.89929795,104528172,1000,1000,1000,1000,0,0,0,0,0,0,0,0,0,0
1709534927.00009084,104628965,1000,1000,1000,1000,0,0,0,0,0,0,0,0,0,0
1709534927.10005093,104728925,1000,1000,1000,1000,0,0,0,0,0,0,0,0,0,0
1709534927.20001101,104828885,1000,1000,1000,1000,0,0,0,0,0,0,0,0,0,0
1709534927.29997087,104928845,1000,1000,1000,1000,0,0,0,0,0,0,0,0,0,0
1709534927.39993095,105028805,1000,1000,1000,1000,0,0,0,0,0,0,0,0,0,0
1709534927.49989104,105128765,1000,1000,1000,1000,0,0,0,0,0,0,0,0,0,0
1709534927.59985089,105228725,1000,1000,1000,1000,0,0,0,0,0,0,0,0,0,0
1709534927.69981098,105328685,1000,1000,1000,1000,0,0,0,0,0,0,0,0,0,0
1709534927.79977083,105428645,1000,1000,1000,1000,0,0,0,0,0,0,0,0,0,0
1709534927.89973092,105528605,1000,1000,1000,1000,0,0,0,0,0,0,0,0,0,0
1709534927.99969101,105628565,1000,1000,1000,1000,0,0,0,0,0,0,0,0,0,0
1709534928.09965086,105728525,1000,1000,1000,1000,0,0,0,0,0,0,0,0,0,0
1709534928.19961095,105828485,1000,1000,1000,1000,0,0,0,0,0,0,0,0,0,0
1709534928.29957104,105928445,1000,1000,1000,1000,0,0,0,0,0,0,0,0,0,0
1709534928.39953089,106028405,1000,1000,1000,1000,0,0,0,0,0,0,0,0,0,0
1709534928.49949098,106128365,1000,1000,1000,1000,0,0,0,0,0,0,0,0,0,0
1709534928.59945083,106228325,1000,1000,1000,1000,0,0,0,0,0,0,0,0,0,0
1709534928.69941092,106328285,1000,1000,1000,1000,0,0,0,0,0,0,0,0,0,0
1709534928.79937100,106428245,1000,1000,1000,1000,0,0,0,0,0,0,0,0,0,0
1709534928.89933085,106528205,1000,1000,1000,1000,0,0,0,0,0,0,0,0,0,0
1709534928.99929094,106628165,1000,1000,1000,1000,0,0,0,0,0,0,0,0,0,0
1709534929.10008383,106728958,1000,1000,1000,1000,0,0,0,0,0,0,0,0,0,0
1709534929.20004392,106828918,1000,1000,1000,1000,0,0,0,0,0,0,0,0,0,0
1709534929.30000401,106928878,1000,1000,1000,1000,0,0,0,0,0,0,0,0,0,0
1709534929.39996386,107028838,1000,1000,1000,1000,0,0,0,0,0,0,0,0,0,0
1709534929.49992394,107128798,1000,1000,1000,1000,0,0,0,0,0,0,0,0,0,0
1709534929.59988403,107228758,1000,1000,1000,1000,0,0,0,0,0,0,0,0,0,0
1709534929.69984388,107328718,1000,1000,1000,1000,0,0,0,0,0,0,0,0,0,0
1709534929.79980397,107428678,1000,1000,1000,1000,0,0,0,0,0,0,0,0,0,0
1709534929.89976382,107528638,1000,1000,1000,1000,0,0,0,0,0,0,0,0,0,0
1709534929.99972391,107628598,1000,1000,1000,1000,0,0,0,0,0,0,0,0,0,0
1709534930.09968400,107728558,1000,1000,1000,1000,0,0,0,0,0,0,0,0,0,0
1709534930.19964385,107828518,1000,1000,1000,1000,0,0,0,0,0,0,0,0,0,0
1709534930.29960394,107928478,1000,1000,1000,1000,0,0,0,0,0,0,0,0,0,0
1709534930.39956403,108028438,1000,1000,1000,1000,0,0,0,0,0,0,0,0,0,0
1709534930.49952388,108128398,1000,1000,1000,1000,0,0,0,0,0,0,0,0,0,0
1709534930.59948397,108228358,1000,1000,1000,1000,0,0,0,0,0,0,0,0,0,0
1709534930.69944406,108328318,1000,1000,1000,1000,0,0,0,0,0,0,0,0,0,0
1709534930.79940391,108428278,1000,1000,1000,1000,0,0,0,0,0,0,0,0,0,0
1709534930.89936399,108528238,1000,1000,1000,1000,0,0,0,0,0,0,0,0,0,0
1709534930.99932384,108628198,1000,1000,1000,1000,0,0,0,0,0,0,0,0,0,0
1709534931.09928393,108728158,1000,1000,1000,1000,0,0,0,0,0,0,0,0,0,0
1709534931.20007682,108828951,1000,1000,1000,1000,0,0,0,0,0,0,0,0,0,0
1709534931.30003691,108928911,1000,1000,1000,1000,0,0,0,0,0,0,0,0,0,0
1709534931.39999700,109028871,1000,1000,1000,1000,0,0,0,0,0,0,0,0,0,0
1709534931.49995685,109128831,1000,1000,1000,1000,0,0,0,0,0,0,0,0,0,0
1709534931.59991693,109228791,1000,1000,1000,1000,0,0,0,0,0,0,0,0,0,0
1709534931.69987702,109328751,1000,1000,1000,1000,0,0,0,0,0,0,0,0,0,0
1709534931.79983687,109428711,1000,1000,1000,1000,0,0,0,0,0,0,0,0,0,0
1709534931.89979696,109528671,1000,1000,1000,1000,0,0,0,0,0,0,0,0,0,0
1709534931.99975705,109628631,1000,1000,1000,1000,0,0,0,0,0,0,0,0,0,0
1709534932.09971690,109728591,1000,1000,1000,1000,0,0,0,0,0,0,0,0,0,0
1709534932.19967699,109828551,1000,1000,1000,1000,0,0,0,0,0,0,0,0,0,0
1709534932.29963684,109928511,1000,1000,1000,1000,0,0,0,0,0,0,0,0,0,0
1709534932.39959693,110028471,1000,1000,1000,1000,0,0,0,0,0,0,0,0,0,0
1709534932.49955702,110128431,1000,1000,1000,1000,0,0,0,0,0,0,0,0,0,0
1709534932.59951687,110228391,1000,1000,1000,1000,0,0,0,0,0,0,0,0,0,0
1709534932.69947696,110328351,1000,1000,1000,1000,0,0,0,0,0,0,0,0,0,0
1709534932.79943705,110428311,1000,1000,1000,1000,0,0,0,0,0,0,0,0,0,0
1709534932.89939690,110528271,1000,1000,1000,1000,0,0,0,0,0,0,0,0,0,0
1709534932.99935699,110628231,1000,1000,1000,1000,0,0,0,0,0,0,0,0,0,0
1709534933.09931684,110728191,1000,1000,1000,1000,0,0,0,0,0,0,0,0,0,0
1709534933.20010996,110828984,1000,1000,1000,1000,0,0,0,0,0,0,0,0,0,0
1709534933.30007005,110928944,1000,1000,1000,1000,0,0,0,0,0,0,0,0,0,0
1709534933.40002990,111028904,1000,1000,1000,1000,0,0,0,0,0,0,0,0,0,0
1709534933.49998999,111128864,1000,1000,1000,1000,0,0,0,0,0,0,0,0,0,0
1709534933.59994984,111228824,1000,1000,1000,1000,0,0,0,0,0,0,0,0,0,0
1709534933.69990993,111328784,1000,1000,1000,1000,0,0,0,0,0,0,0,0,0,0
1709534933.79987001,111428744,1000,1000,1000,1000,0,0,0,0,0,0,0,0,0,0
1709534933.89982986,111528704,1000,1000,1000,1000,0,0,0,0,0,0,0,0,0,0
1709534933.99978995,111628664,1000,1000,1000,1000,0,0,0,0,0,0,0,0,0,0
1709534934.09975004,111728624,1000,1000,1000,1000,0,0,0,0,0,0,0,0,0,0
1709534934.19970989,111828584,1000,1000,1000,1000,0,0,0,0,0,0,0,0,0,0
1709534934.29966998,111928544,1000,1000,1000,1000,0,0,0,0,0,0,0,0,0,0
1709534934.39962983,112028504,1000,1000,1000,1000,0,0,0,0,0,0,0,0,0,0
1709534934.49958992,112128464,1000,1000,1000,1000,0,0,0,0,0,0,0,0,0,0
1709534934.59955001,112228424,1000,1000,1000,1000,0,0,0,0,0,0,0,0,0,0
1709534934.69950986,112328384,1000,1000,1000,1000,0,0,0,0,0,0,0,0,0,0
1709534934.79946995,112428344,1000,1000,1000,1000,0,0,0,0,0,0,0,0,0,0
1709534934.89943004,112528304,1000,1000,1000,1000,0,0,0,0,0,0,0,0,0,0
1709534934.99938989,112628264,1000,1000,1000,1000,0,0,0,0,0,0,0,0,0,0
1709534935.09934998,112728224,1000,1000,1000,1000,0,0,0,0,0,0,0,0,0,0
1709534935.19930983,112828184,1000,1000,1000,1000,0,0,0,0,0,0,0,0,0,0
1709534935.30010295,112928977,1000,1000,1000,1000,0,0,0,0,0,0,0,0,0,0
1709534935.40006304,113028937,1000,1000,1000,1000,0,0,0,0,0,0,0,0,0,0
1709534935.50002289,113128897,1000,1000,1000,1000,0,0,0,0,0,0,0,0,0,0
1709534935.59998298,113228857,1000,1000,1000,1000,0,0,0,0,0,0,0,0,0,0
1709534935.69994283,113328817,1000,1000,1000,1000,0,0,0,0,0,0,0,0,0,0
1709534935.79990292,113428777,1000,1000,1000,1000,0,0,0,0,0,0,0,0,0,0
1709534935.89986300,113528737,1000,1000,1000,1000,0,0,0,0,0,0,0,0,0,0
1709534935.99982285,113628697,1000,1000,1000,1000,0,0,0,0,0,0,0,0,0,0
1709534936.09978294,113728657,1000,1000,1000,1000,0,0,0,0,0,0,0,0,0,0
1709534936.19974303,113828617,1000,1000,1000,1000,0,0,0,0,0,0,0,0,0,0
1709534936.29970288,113928577,1000,1000,1000,1000,0,0,0,0,0,0,0,0,0,0
1709534936.39966297,114028537,1000,1000,1000,1000,0,0,0,0,0,0,0,0,0,0
1709534936.49962282,114128497,1000,1000,1000,1000,0,0,0,0,0,0,0,0,0,0
1709534936.59958291,114228457,1000,1000,1000,1000,0,0,0,0,0,0,0,0,0,0
1709534936.69954300,114328417,1000,1000,1000,1000,0,0,0,0,0,0,0,0,0,0
1709534936.79950285,114428377,1000,1000,1000,1000,0,0,0,0,0,0,0,0,0,0
1709534936.89946294,114528337,1000,1000,1000,1000,0,0,0,0,0,0,0,0,0,0
1709534936.99942303,114628297,1000,1000,1000,1000,0,0,0,0,0,0,0,0,0,0
1709534937.09938288,114728257,1000,1000,1000,1000,0,0,0,0,0,0,0,0,0,0
1709534937.19934297,114828217,1000,1000,1000,1000,0,0,0,0,0,0,0,0,0,0
1709534937.29930305,114928177,1000,1000,1000,1000,0,0,0,0,0,0,0,0,0,0
1709534937.40009594,115028970,1000,1000,1000,1000,0,0,0,0,0,0,0,0,0,0
1709534937.50005603,115128930,1000,1000,1000,1000,0,0,0,0,0,0,0,0,0,0
1709534937.60001588,115228890,1000,1000,1000,1000,0,0,0,0,0,0,0,0,0,0
1709534937.69997597,115328850,1000,1000,1000,1000,0,0,0,0,0,0,0,0,0,0
1709534937.79993582,115428810,1000,1000,1000,1000,0,0,0,0,0,0,0,0,0,0
1709534937.89989591,115528770,1000,1000,1000,1000,0,0,0,0,0,0,0,0,0,0
1709534937.99985600,115628730,1000,1000,1000,1000,0,0,0,0,0,0,0,0,0,0
1709534938.09981585,115728690,1000,1000,1000,1000,0,0,0,0,0,0,0,0,0,0
1709534938.19977593,115828650,1000,1000,1000,1000,0,0,0,0,0,0,0,0,0,0
1709534938.29973602,115928610,1000,1000,1000,1000,0,0,0,0,0,0,0,0,0,0
1709534938.39969587,116028570,1000,1000,1000,1000,0,0,0,0,0,0,0,0,0,0
1709534938.49965596,116128530,1000,1000,1000,1000,0,0,0,0,0,0,0,0,0,0
1709534938.59961605,116228490,1000,1000,1000,1000,0,0,0,0,0,0,0,0,0,0
1709534938.69957590,116328450,1000,1000,1000,1000,0,0,0,0,0,0,0,0,0,0
