timestamp,TimeUS,C1,C2,C3,C4,C5,C6,C7,C8,C9,C10,C11,C12,C13,C14
1709535595.10003996,85528275,1000,1000,1000,1000,0,0,0,0,0,0,0,0,0,0
1709535595.20000005,85628235,1000,1000,1000,1000,0,0,0,0,0,0,0,0,0,0
1709535595.29995990,85728195,1000,1000,1000,1000,0,0,0,0,0,0,0,0,0,0
1709535595.39991999,85828155,1000,1000,1000,1000,0,0,0,0,0,0,0,0,0,0
1709535595.50071287,85928948,1000,1000,1000,1000,0,0,0,0,0,0,0,0,0,0
1709535595.60067296,86028908,1000,1000,1000,1000,0,0,0,0,0,0,0,0,0,0
1709535595.70063305,86128868,1000,1000,1000,1000,0,0,0,0,0,0,0,0,0,0
1709535595.80059290,86228828,1000,1000,1000,1000,0,0,0,0,0,0,0,0,0,0
1709535595.90055299,86328788,1000,1000,1000,1000,0,0,0,0,0,0,0,0,0,0
1709535596.00051284,86428748,1000,1000,1000,1000,0,0,0,0,0,0,0,0,0,0
1709535596.10047293,86528708,1000,1000,1000,1000,0,0,0,0,0,0,0,0,0,0
1709535596.20043302,86628668,1000,1000,1000,1000,0,0,0,0,0,0,0,0,0,0
1709535596.30039287,86728628,1000,1000,1000,1000,0,0,0,0,0,0,0,0,0,0
1709535596.40035295,86828588,1000,1000,1000,1000,0,0,0,0,0,0,0,0,0,0
1709535596.50031304,86928548,1000,1000,1000,1000,0,0,0,0,0,0,0,0,0,0
1709535596.60027289,87028508,1000,1000,1000,1000,0,0,0,0,0,0,0,0,0,0
1709535596.70023298,87128468,1000,1000,1000,1000,0,0,0,0,0,0,0,0,0,0
1709535596.80019283,87228428,1000,1000,1000,1000,0,0,0,0,0,0,0,0,0,0
1709535596.90015292,87328388,1000,1000,1000,1000,0,0,0,0,0,0,0,0,0,0
1709535597.00011301,87428348,1000,1000,1000,1000,0,0,0,0,0,0,0,0,0,0
1709535597.10007286,87528308,1018,1018,1018,1018,0,0,0,0,0,0,0,0,0,0
1709535597.20003295,87628268,1048,1048,1048,1048,0,0,0,0,0,0,0,0,0,0
1709535597.29999304,87728228,1078,1078,1078,1078,0,0,0,0,0,0,0,0,0,0
1709535597.39995289,87828188,1107,1107,1107,1107,0,0,0,0,0,0,0,0,0,0
1709535597.50074601,87928981,1137,1137,1137,1137,0,0,0,0,0,0,0,0,0,0
1709535597.60070586,88028941,1314,1303,1304,1314,0,0,0,0,0,0,0,0,0,0
1709535597.70066595,88128901,1514,1505,1506,1515,0,0,0,0,0,0,0,0,0,0
1709535597.80062604,88228861,1672,1664,1665,1672,0,0,0,0,0,0,0,0,0,0
1709535597.90058589,88328821,1806,1799,1799,1807,0,0,0,0,0,0,0,0,0,0
1709535598.00054598,88428781,1881,1872,1873,1881,0,0,0,0,0,0,0,0,0,0
1709535598.10050583,88528741,1858,1854,1854,1859,0,0,0,0,0,0,0,0,0,0
1709535598.20046592,88628701,1730,1729,1730,1729,0,0,0,0,0,0,0,0,0,0
1709535598.30042601,88728661,1641,1644,1644,1641,0,0,0,0,0,0,0,0,0,0
1709535598.40038586,88828621,1620,1624,1624,1620,0,0,0,0,0,0,0,0,0,0
1709535598.50034595,88928581,1626,1627,1623,1630,0,0,0,0,0,0,0,0,0,0
1709535598.60030603,89028541,1631,1635,1628,1637,0,0,0,0,0,0,0,0,0,0
1709535598.70026588,89128501,1629,1633,1629,1634,0,0,0,0,0,0,0,0,0,0
1709535598.80022597,89228461,1626,1628,1628,1626,0,0,0,0,0,0,0,0,0,0
1709535598.90018606,89328421,1622,1621,1624,1619,0,0,0,0,0,0,0,0,0,0
1709535599.00014591,89428381,1620,1618,1623,1616,0,0,0,0,0,0,0,0,0,0
1709535599.10010600,89528341,1620,1618,1622,1616,0,0,0,0,0,0,0,0,0,0
1709535599.20006585,89628301,1620,1618,1620,1617,0,0,0,0,0,0,0,0,0,0
1709535599.30002594,89728261,1617,1615,1616,1615,0,0,0,0,0,0,0,0,0,0
1709535599.39998603,89828221,1585,1586,1593,1578,0,0,0,0,0,0,0,0,0,0
1709535599.49994588,89928181,1573,1574,1578,1568,0,0,0,0,0,0,0,0,0,0
1709535599.60073900,90028974,1561,1562,1562,1562,0,0,0,0,0,0,0,0,0,0
1709535599.70069885,90128934,1553,1553,1548,1557,0,0,0,0,0,0,0,0,0,0
1709535599.80065894,90228894,1545,1545,1536,1554,0,0,0,0,0,0,0,0,0,0
1709535599.90061903,90328854,1540,1539,1531,1548,0,0,0,0,0,0,0,0,0,0
1709535600.00057888,90428814,1534,1533,1528,1538,0,0,0,0,0,0,0,0,0,0
1709535600.10053897,90528774,1529,1528,1527,1530,0,0,0,0,0,0,0,0,0,0
1709535600.20049906,90628734,1528,1528,1529,1526,0,0,0,0,0,0,0,0,0,0
1709535600.30045891,90728694,1529,1528,1531,1526,0,0,0,0,0,0,0,0,0,0
1709535600.40041900,90828654,1531,1532,1535,1529,0,0,0,0,0,0,0,0,0,0
1709535600.50037885,90928614,1535,1535,1538,1533,0,0,0,0,0,0,0,0,0,0
1709535600.60033894,91028574,1538,1538,1540,1537,0,0,0,0,0,0,0,0,0,0
1709535600.70029902,91128534,1541,1541,1543,1541,0,0,0,0,0,0,0,0,0,0
1709535600.80025887,91228494,1544,1545,1545,1545,0,0,0,0,0,0,0,0,0,0
1709535600.90021896,91328454,1548,1547,1547,1548,0,0,0,0,0,0,0,0,0,0
1709535601.00017905,91428414,1550,1549,1549,1551,0,0,0,0,0,0,0,0,0,0
1709535601.10013890,91528374,1553,1552,1552,1554,0,0,0,0,0,0,0,0,0,0
1709535601.20009899,91628334,1555,1556,1554,1556,0,0,0,0,0,0,0,0,0,0
1709535601.30005884,91728294,1563,1563,1551,1554,0,0,0,0,0,0,0,0,0,0
1709535601.40001893,91828254,1563,1562,1555,1556,0,0,0,0,0,0,0,0,0,0
1709535601.49997902,91928214,1561,1561,1561,1561,0,0,0,0,0,0,0,0,0,0
1709535601.59993887,92028174,1560,1560,1566,1565,0,0,0,0,0,0,0,0,0,0
1709535601.70073199,92128967,1560,1560,1570,1568,0,0,0,0,0,0,0,0,0,0
1709535601.80069184,92228927,1560,1560,1571,1570,0,0,0,0,0,0,0,0,0,0
1709535601.90065193,92328887,1563,1563,1572,1573,0,0,0,0,0,0,0,0,0,0
1709535602.00061202,92428847,1564,1565,1573,1573,0,0,0,0,0,0,0,0,0,0
1709535602.10057187,92528807,1566,1567,1572,1572,0,0,0,0,0,0,0,0,0,0
1709535602.20053196,92628767,1569,1569,1572,1572,0,0,0,0,0,0,0,0,0,0
1709535602.30049205,92728727,1571,1571,1572,1571,0,0,0,0,0,0,0,0,0,0
1709535602.40045190,92828687,1573,1574,1571,1571,0,0,0,0,0,0,0,0,0,0
1709535602.50041199,92928647,1575,1574,1570,1571,0,0,0,0,0,0,0,0,0,0
1709535602.60037184,93028607,1575,1576,1571,1570,0,0,0,0,0,0,0,0,0,0
1709535602.70033193,93128567,1577,1576,1572,1570,0,0,0,0,0,0,0,0,0,0
1709535602.80029202,93228527,1577,1577,1572,1571,0,0,0,0,0,0,0,0,0,0
1709535602.90025187,93328487,1579,1579,1575,1574,0,0,0,0,0,0,0,0,0,0
1709535603.00021195,93428447,1578,1578,1574,1573,0,0,0,0,0,0,0,0,0,0
1709535603.10017204,93528407,1577,1577,1575,1574,0,0,0,0,0,0,0,0,0,0
1709535603.20013189,93628367,1577,1577,1576,1576,0,0,0,0,0,0,0,0,0,0
1709535603.30009198,93728327,1575,1575,1575,1576,0,0,0,0,0,0,0,0,0,0
1709535603.40005183,93828287,1577,1577,1577,1577,0,0,0,0,0,0,0,0,0,0
1709535603.50001192,93928247,1576,1576,1577,1578,0,0,0,0,0,0,0,0,0,0
1709535603.59997201,94028207,1576,1576,1578,1577,0,0,0,0,0,0,0,0,0,0
1709535603.69993186,94128167,1576,1576,1578,1578,0,0,0,0,0,0,0,0,0,0
1709535603.80072498,94228960,1576,1576,1578,1578,0,0,0,0,0,0,0,0,0,0
1709535603.90068483,94328920,1576,1576,1578,1578,0,0,0,0,0,0,0,0,0,0
1709535604.00064492,94428880,1576,1577,1578,1578,0,0,0,0,0,0,0,0,0,0
1709535604.10060501,94528840,1577,1577,1578,1578,0,0,0,0,0,0,0,0,0,0
1709535604.20056486,94628800,1578,1578,1578,1578,0,0,0,0,0,0,0,0,0,0
1709535604.30052495,94728760,1579,1578,1578,1578,0,0,0,0,0,0,0,0,0,0
1709535604.40048504,94828720,1579,1579,1578,1578,0,0,0,0,0,0,0,0,0,0
1709535604.50044489,94928680,1578,1578,1578,1578,0,0,0,0,0,0,0,0,0,0
1709535604.60040498,95028640,1578,1578,1577,1578,0,0,0,0,0,0,0,0,0,0
1709535604.70036483,95128600,1577,1578,1577,1577,0,0,0,0,0,0,0,0,0,0
1709535604.80032492,95228560,1578,1578,1578,1578,0,0,0,0,0,0,0,0,0,0
1709535604.90028501,95328520,1579,1579,1579,1579,0,0,0,0,0,0,0,0,0,0
1709535605.00024486,95428480,1578,1578,1578,1578,0,0,0,0,0,0,0,0,0,0
1709535605.10020494,95528440,1579,1579,1579,1579,0,0,0,0,0,0,0,0,0,0
1709535605.20016503,95628400,1580,1580,1581,1580,0,0,0,0,0,0,0,0,0,0
1709535605.30012488,95728360,1580,1579,1580,1580,0,0,0,0,0,0,0,0,0,0
1709535605.40008497,95828320,1580,1580,1580,1580,0,0,0,0,0,0,0,0,0,0
1709535605.50004506,95928280,1581,1580,1581,1581,0,0,0,0,0,0,0,0,0,0
1709535605.60000491,96028240,1580,1580,1580,1581,0,0,0,0,0,0,0,0,0,0
1709535605.69996500,96128200,1580,1580,1580,1581,0,0,0,0,0,0,0,0,0,0
1709535605.79992485,96228160,1580,1580,1580,1581,0,0,0,0,0,0,0,0,0,0
1709535605.90071797,96328953,1580,1580,1580,1581,0,0,0,0,0,0,0,0,0,0
1709535606.00067806,96428913,1579,1580,1580,1580,0,0,0,0,0,0,0,0,0,0
1709535606.10063791,96528873,1579,1580,1580,1580,0,0,0,0,0,0,0,0,0,0
1709535606.20059800,96628833,1580,1580,1581,1580,0,0,0,0,0,0,0,0,0,0
1709535606.30055785,96728793,1581,1580,1580,1580,0,0,0,0,0,0,0,0,0,0
1709535606.40051794,96828753,1581,1580,1580,1580,0,0,0,0,0,0,0,0,0,0
1709535606.50047803,96928713,1580,1580,1580,1580,0,0,0,0,0,0,0,0,0,0
1709535606.60043788,97028673,1580,1581,1580,1580,0,0,0,0,0,0,0,0,0,0
1709535606.70039797,97128633,1581,1581,1581,1581,0,0,0,0,0,0,0,0,0,0
1709535606.80035806,97228593,1581,1581,1581,1581,0,0,0,0,0,0,0,0,0,0
1709535606.90031791,97328553,1581,1581,1581,1581,0,0,0,0,0,0,0,0,0,0
1709535607.00027800,97428513,1581,1581,1581,1581,0,0,0,0,0,0,0,0,0,0
1709535607.10023785,97528473,1581,1581,1581,1581,0,0,0,0,0,0,0,0,0,0
1709535607.20019794,97628433,1582,1582,1582,1582,0,0,0,0,0,0,0,0,0,0
1709535607.30015802,97728393,1581,1581,1581,1581,0,0,0,0,0,0,0,0,0,0
1709535607.40011787,97828353,1582,1583,1586,1579,0,0,0,0,0,0,0,0,0,0
1709535607.50007796,97928313,1582,1583,1589,1574,0,0,0,0,0,0,0,0,0,0
1709535607.60003805,98028273,1579,1582,1581,1573,0,0,0,0,0,0,0,0,0,0
1709535607.69999790,98128233,1578,1581,1573,1574,0,0,0,0,0,0,0,0,0,0
1709535607.79995799,98228193,1577,1580,1564,1571,0,0,0,0,0,0,0,0,0,0
1709535607.90075088,98328986,1578,1579,1559,1566,0,0,0,0,0,0,0,0,0,0
1709535608.00071096,98428946,1578,1578,1555,1561,0,0,0,0,0,0,0,0,0,0
1709535608.10067105,98528906,1579,1578,1554,1557,0,0,0,0,0,0,0,0,0,0
1709535608.20063090,98628866,1579,1578,1555,1554,0,0,0,0,0,0,0,0,0,0
1709535608.30059099,98728826,1579,1578,1555,1553,0,0,0,0,0,0,0,0,0,0
1709535608.40055084,98828786,1577,1578,1555,1552,0,0,0,0,0,0,0,0,0,0
1709535608.50051093,98928746,1578,1578,1556,1554,0,0,0,0,0,0,0,0,0,0
1709535608.60047102,99028706,1576,1577,1554,1553,0,0,0,0,0,0,0,0,0,0
1709535608.70043087,99128666,1575,1577,1553,1553,0,0,0,0,0,0,0,0,0,0
1709535608.80039096,99228626,1574,1576,1551,1551,0,0,0,0,0,0,0,0,0,0
1709535608.90035105,99328586,1576,1577,1550,1550,0,0,0,0,0,0,0,0,0,0
1709535609.00031090,99428546,1578,1579,1548,1548,0,0,0,0,0,0,0,0,0,0
1709535609.10027099,99528506,1579,1580,1545,1545,0,0,0,0,0,0,0,0,0,0
1709535609.20023084,99628466,1583,1584,1544,1543,0,0,0,0,0,0,0,0,0,0
1709535609.30019093,99728426,1586,1586,1541,1540,0,0,0,0,0,0,0,0,0,0
1709535609.40015101,99828386,1588,1589,1539,1538,0,0,0,0,0,0,0,0,0,0
1709535609.50011086,99928346,1592,1591,1536,1536,0,0,0,0,0,0,0,0,0,0
1709535609.60007095,100028306,1594,1594,1535,1536,0,0,0,0,0,0,0,0,0,0
1709535609.70003104,100128266,1595,1595,1535,1535,0,0,0,0,0,0,0,0,0,0
1709535609.79999089,100228226,1595,1595,1535,1537,0,0,0,0,0,0,0,0,0,0
1709535609.89995098,100328186,1594,1593,1538,1541,0,0,0,0,0,0,0,0,0,0
1709535610.00074387,100428979,1590,1589,1542,1545,0,0,0,0,0,0,0,0,0,0
1709535610.10070395,100528939,1585,1582,1550,1553,0,0,0,0,0,0,0,0,0,0
1709535610.20066404,100628899,1578,1575,1560,1563,0,0,0,0,0,0,0,0,0,0
1709535610.30062389,100728859,1567,1564,1571,1574,0,0,0,0,0,0,0,0,0,0
1709535610.40058398,100828819,1556,1553,1584,1585,0,0,0,0,0,0,0,0,0,0
1709535610.50054383,100928779,1545,1542,1594,1595,0,0,0,0,0,0,0,0,0,0
1709535610.60050392,101028739,1536,1535,1604,1604,0,0,0,0,0,0,0,0,0,0
1709535610.70046401,101128699,1531,1531,1612,1611,0,0,0,0,0,0,0,0,0,0
1709535610.80042386,101228659,1528,1529,1615,1613,0,0,0,0,0,0,0,0,0,0
1709535610.90038395,101328619,1529,1531,1614,1613,0,0,0,0,0,0,0,0,0,0
1709535611.00034404,101428579,1535,1537,1610,1610,0,0,0,0,0,0,0,0,0,0
1709535611.10030389,101528539,1543,1545,1605,1606,0,0,0,0,0,0,0,0,0,0
1709535611.20026398,101628499,1550,1552,1597,1598,0,0,0,0,0,0,0,0,0,0
1709535611.30022383,101728459,1559,1560,1590,1590,0,0,0,0,0,0,0,0,0,0
1709535611.40018392,101828419,1568,1568,1583,1582,0,0,0,0,0,0,0,0,0,0
1709535611.50014400,101928379,1576,1575,1576,1575,0,0,0,0,0,0,0,0,0,0
1709535611.60010386,102028339,1582,1581,1572,1572,0,0,0,0,0,0,0,0,0,0
1709535611.70006394,102128299,1585,1584,1568,1567,0,0,0,0,0,0,0,0,0,0
1709535611.80002403,102228259,1588,1587,1567,1567,0,0,0,0,0,0,0,0,0,0
1709535611.89998388,102328219,1587,1586,1566,1566,0,0,0,0,0,0,0,0,0,0
1709535611.99994397,102428179,1588,1586,1568,1569,0,0,0,0,0,0,0,0,0,0
1709535612.10073686,102528972,1585,1584,1570,1571,0,0,0,0,0,0,0,0,0,0
1709535612.20069695,102628932,1582,1582,1574,1573,0,0,0,0,0,0,0,0,0,0
1709535612.30065703,102728892,1578,1578,1575,1575,0,0,0,0,0,0,0,0,0,0
1709535612.40061688,102828852,1576,1576,1578,1579,0,0,0,0,0,0,0,0,0,0
1709535612.50057697,102928812,1574,1575,1581,1581,0,0,0,0,0,0,0,0,0,0
1709535612.60053706,103028772,1573,1574,1583,1583,0,0,0,0,0,0,0,0,0,0
1709535612.70049691,103128732,1572,1573,1583,1584,0,0,0,0,0,0,0,0,0,0
1709535612.80045700,103228692,1572,1573,1584,1583,0,0,0,0,0,0,0,0,0,0
1709535612.90041685,103328652,1573,1574,1584,1584,0,0,0,0,0,0,0,0,0,0
1709535613.00037694,103428612,1574,1575,1583,1583,0,0,0,0,0,0,0,0,0,0
1709535613.10033703,103528572,1576,1576,1582,1582,0,0,0,0,0,0,0,0,0,0
1709535613.20029688,103628532,1577,1577,1580,1581,0,0,0,0,0,0,0,0,0,0
1709535613.30025697,103728492,1579,1578,1579,1579,0,0,0,0,0,0,0,0,0,0
1709535613.40021706,103828452,1578,1578,1577,1577,0,0,0,0,0,0,0,0,0,0
1709535613.50017691,103928412,1580,1579,1577,1576,0,0,0,0,0,0,0,0,0,0
1709535613.60013700,104028372,1581,1580,1577,1577,0,0,0,0,0,0,0,0,0,0
1709535613.70009685,104128332,1582,1581,1577,1577,0,0,0,0,0,0,0,0,0,0
1709535613.80005693,104228292,1581,1580,1576,1576,0,0,0,0,0,0,0,0,0,0
1709535613.90001702,104328252,1581,1581,1577,1577,0,0,0,0,0,0,0,0,0,0
1709535613.99997687,104428212,1580,1581,1578,1578,0,0,0,0,0,0,0,0,0,0
1709535614.09993696,104528172,1580,1579,1578,1578,0,0,0,0,0,0,0,0,0,0
1709535614.20072985,104628965,1579,1579,1579,1579,0,0,0,0,0,0,0,0,0,0
1709535614.30068994,104728925,1578,1578,1580,1580,0,0,0,0,0,0,0,0,0,0
1709535614.40065002,104828885,1577,1578,1579,1580,0,0,0,0,0,0,0,0,0,0
1709535614.50060987,104928845,1577,1578,1580,1581,0,0,0,0,0,0,0,0,0,0
1709535614.60056996,105028805,1577,1579,1580,1581,0,0,0,0,0,0,0,0,0,0
1709535614.70053005,105128765,1579,1580,1581,1581,0,0,0,0,0,0,0,0,0,0
1709535614.80048990,105228725,1579,1579,1580,1580,0,0,0,0,0,0,0,0,0,0
1709535614.90044999,105328685,1579,1580,1579,1579,0,0,0,0,0,0,0,0,0,0
1709535615.00040984,105428645,1579,1580,1579,1579,0,0,0,0,0,0,0,0,0,0
1709535615.10036993,105528605,1581,1581,1579,1579,0,0,0,0,0,0,0,0,0,0
1709535615.20033002,105628565,1582,1581,1579,1579,0,0,0,0,0,0,0,0,0,0
1709535615.30028987,105728525,1581,1580,1579,1578,0,0,0,0,0,0,0,0,0,0
1709535615.40024996,105828485,1580,1581,1581,1574,0,0,0,0,0,0,0,0,0,0
1709535615.50021005,105928445,1580,1582,1583,1569,0,0,0,0,0,0,0,0,0,0
1709535615.60016990,106028405,1581,1584,1578,1570,0,0,0,0,0,0,0,0,0,0
1709535615.70012999,106128365,1580,1583,1569,1570,0,0,0,0,0,0,0,0,0,0
1709535615.80008984,106228325,1579,1581,1561,1567,0,0,0,0,0,0,0,0,0,0
1709535615.90004992,106328285,1580,1581,1556,1563,0,0,0,0,0,0,0,0,0,0
1709535616.00001001,106428245,1582,1581,1554,1559,0,0,0,0,0,0,0,0,0,0
1709535616.09996986,106528205,1581,1580,1552,1554,0,0,0,0,0,0,0,0,0,0
1709535616.19992995,106628165,1582,1580,1553,1553,0,0,0,0,0,0,0,0,0,0
1709535616.30072284,106728958,1331,1580,1554,1552,0,0,0,0,0,0,0,0,0,0
1709535616.40068293,106828918,1466,1517,1583,1583,0,0,0,0,0,0,0,0,0,0
1709535616.50064301,106928878,1543,1511,1593,1595,0,0,0,0,0,0,0,0,0,0
1709535616.60060287,107028838,1604,1536,1604,1608,0,0,0,0,0,0,0,0,0,0
1709535616.70056295,107128798,1645,1573,1612,1616,0,0,0,0,0,0,0,0,0,0
1709535616.80052304,107228758,1659,1604,1609,1613,0,0,0,0,0,0,0,0,0,0
1709535616.90048289,107328718,1649,1623,1594,1596,0,0,0,0,0,0,0,0,0,0
1709535617.00044298,107428678,1629,1633,1572,1573,0,0,0,0,0,0,0,0,0,0
1709535617.10040283,107528638,1612,1637,1556,1553,0,0,0,0,0,0,0,0,0,0
1709535617.20036292,107628598,1604,1638,1545,1537,0,0,0,0,0,0,0,0,0,0
1709535617.30032301,107728558,1605,1636,1540,1527,0,0,0,0,0,0,0,0,0,0
1709535617.40028286,107828518,1610,1630,1534,1519,0,0,0,0,0,0,0,0,0,0
1709535617.50024295,107928478,1614,1623,1531,1517,0,0,0,0,0,0,0,0,0,0
1709535617.60020304,108028438,1616,1616,1528,1518,0,0,0,0,0,0,0,0,0,0
1709535617.70016289,108128398,1613,1607,1525,1523,0,0,0,0,0,0,0,0,0,0
1709535617.80012298,108228358,1608,1602,1527,1532,0,0,0,0,0,0,0,0,0,0
1709535617.90008307,108328318,1599,1595,1529,1542,0,0,0,0,0,0,0,0,0,0
1709535618.00004292,108428278,1592,1590,1535,1550,0,0,0,0,0,0,0,0,0,0
1709535618.10000300,108528238,1583,1584,1542,1558,0,0,0,0,0,0,0,0,0,0
1709535618.19996285,108628198,1575,1576,1552,1565,0,0,0,0,0,0,0,0,0,0
1709535618.29992294,108728158,1566,1564,1563,1571,0,0,0,0,0,0,0,0,0,0
1709535618.40071583,108828951,1557,1554,1576,1579,0,0,0,0,0,0,0,0,0,0
1709535618.50067592,108928911,1550,1543,1588,1588,0,0,0,0,0,0,0,0,0,0
1709535618.60063601,109028871,1542,1536,1599,1596,0,0,0,0,0,0,0,0,0,0
1709535618.70059586,109128831,1536,1530,1609,1606,0,0,0,0,0,0,0,0,0,0
1709535618.80055594,109228791,1528,1526,1617,1613,0,0,0,0,0,0,0,0,0,0
1709535618.90051603,109328751,1522,1524,1622,1618,0,0,0,0,0,0,0,0,0,0
1709535619.00047588,109428711,1520,1524,1622,1619,0,0,0,0,0,0,0,0,0,0
1709535619.10043597,109528671,1523,1529,1619,1616,0,0,0,0,0,0,0,0,0,0
1709535619.20039606,109628631,1531,1537,1613,1612,0,0,0,0,0,0,0,0,0,0
1709535619.30035591,109728591,1540,1544,1603,1603,0,0,0,0,0,0,0,0,0,0
1709535619.40031600,109828551,1551,1554,1593,1594,0,0,0,0,0,0,0,0,0,0
1709535619.50027585,109928511,1563,1563,1583,1584,0,0,0,0,0,0,0,0,0,0
1709535619.60023594,110028471,1574,1572,1575,1575,0,0,0,0,0,0,0,0,0,0
1709535619.70019603,110128431,1583,1579,1568,1568,0,0,0,0,0,0,0,0,0,0
1709535619.80015588,110228391,1589,1585,1565,1566,0,0,0,0,0,0,0,0,0,0
1709535619.90011597,110328351,1592,1589,1564,1564,0,0,0,0,0,0,0,0,0,0
1709535620.00007606,110428311,1594,1591,1565,1565,0,0,0,0,0,0,0,0,0,0
1709535620.10003591,110528271,1591,1590,1564,1564,0,0,0,0,0,0,0,0,0,0
1709535620.19999599,110628231,1590,1590,1566,1567,0,0,0,0,0,0,0,0,0,0
1709535620.29995584,110728191,1588,1588,1568,1568,0,0,0,0,0,0,0,0,0,0
1709535620.40074897,110828984,1586,1587,1570,1571,0,0,0,0,0,0,0,0,0,0
1709535620.50070906,110928944,1584,1585,1573,1572,0,0,0,0,0,0,0,0,0,0
1709535620.60066891,111028904,1581,1582,1574,1574,0,0,0,0,0,0,0,0,0,0
1709535620.70062900,111128864,1580,1581,1576,1576,0,0,0,0,0,0,0,0,0,0
1709535620.80058885,111228824,1579,1579,1577,1578,0,0,0,0,0,0,0,0,0,0
1709535620.90054893,111328784,1578,1578,1579,1579,0,0,0,0,0,0,0,0,0,0
1709535621.00050902,111428744,1577,1578,1580,1580,0,0,0,0,0,0,0,0,0,0
1709535621.10046887,111528704,1577,1577,1581,1581,0,0,0,0,0,0,0,0,0,0
1709535621.20042896,111628664,1577,1578,1582,1582,0,0,0,0,0,0,0,0,0,0
1709535621.30038905,111728624,1577,1578,1583,1582,0,0,0,0,0,0,0,0,0,0
1709535621.40034890,111828584,1576,1577,1581,1581,0,0,0,0,0,0,0,0,0,0
1709535621.50030899,111928544,1578,1578,1582,1582,0,0,0,0,0,0,0,0,0,0
1709535621.60026884,112028504,1579,1579,1582,1582,0,0,0,0,0,0,0,0,0,0
1709535621.70022893,112128464,1580,1579,1581,1581,0,0,0,0,0,0,0,0,0,0
1709535621.80018902,112228424,1580,1579,1580,1580,0,0,0,0,0,0,0,0,0,0
1709535621.90014887,112328384,1580,1580,1580,1579,0,0,0,0,0,0,0,0,0,0
1709535622.00010896,112428344,1581,1581,1579,1579,0,0,0,0,0,0,0,0,0,0
1709535622.10006905,112528304,1581,1581,1579,1579,0,0,0,0,0,0,0,0,0,0
1709535622.20002890,112628264,1583,1582,1580,1580,0,0,0,0,0,0,0,0,0,0
1709535622.29998899,112728224,1583,1582,1580,1580,0,0,0,0,0,0,0,0,0,0
1709535622.39994884,112828184,1583,1583,1581,1580,0,0,0,0,0,0,0,0,0,0
1709535622.50074196,112928977,1583,1582,1580,1580,0,0,0,0,0,0,0,0,0,0
1709535622.60070205,113028937,1583,1582,1580,1581,0,0,0,0,0,0,0,0,0,0
1709535622.70066190,113128897,1582,1582,1580,1581,0,0,0,0,0,0,0,0,0,0
1709535622.80062199,113228857,1582,1583,1581,1582,0,0,0,0,0,0,0,0,0,0
1709535622.90058184,113328817,1583,1583,1582,1582,0,0,0,0,0,0,0,0,0,0
1709535623.00054193,113428777,1581,1581,1581,1581,0,0,0,0,0,0,0,0,0,0
1709535623.10050201,113528737,1582,1583,1584,1581,0,0,0,0,0,0,0,0,0,0
1709535623.20046186,113628697,1582,1583,1589,1575,0,0,0,0,0,0,0,0,0,0
1709535623.30042195,113728657,1581,1582,1585,1575,0,0,0,0,0,0,0,0,0,0
1709535623.40038204,113828617,1579,1581,1576,1574,0,0,0,0,0,0,0,0,0,0
1709535623.50034189,113928577,1578,1579,1567,1572,0,0,0,0,0,0,0,0,0,0
1709535623.60030198,114028537,1577,1579,1562,1569,0,0,0,0,0,0,0,0,0,0
1709535623.70026183,114128497,1577,1579,1559,1564,0,0,0,0,0,0,0,0,0,0
1709535623.80022192,114228457,1578,1578,1559,1560,0,0,0,0,0,0,0,0,0,0
1709535623.90018201,114328417,1578,1578,1559,1557,0,0,0,0,0,0,0,0,0,0
1709535624.00014186,114428377,1578,1577,1558,1556,0,0,0,0,0,0,0,0,0,0
1709535624.10010195,114528337,1577,1577,1558,1556,0,0,0,0,0,0,0,0,0,0
1709535624.20006204,114628297,1576,1575,1557,1556,0,0,0,0,0,0,0,0,0,0
1709535624.30002189,114728257,1575,1574,1556,1557,0,0,0,0,0,0,0,0,0,0
1709535624.39998198,114828217,1573,1573,1555,1556,0,0,0,0,0,0,0,0,0,0
1709535624.49994206,114928177,1572,1573,1555,1556,0,0,0,0,0,0,0,0,0,0
1709535624.60073495,115028970,1572,1573,1555,1556,0,0,0,0,0,0,0,0,0,0
1709535624.70069504,115128930,1571,1574,1555,1555,0,0,0,0,0,0,0,0,0,0
1709535624.80065489,115228890,1573,1575,1556,1555,0,0,0,0,0,0,0,0,0,0
1709535624.90061498,115328850,1574,1575,1554,1553,0,0,0,0,0,0,0,0,0,0
1709535625.00057483,115428810,1576,1576,1553,1553,0,0,0,0,0,0,0,0,0,0
1709535625.10053492,115528770,1578,1579,1552,1551,0,0,0,0,0,0,0,0,0,0
1709535625.20049500,115628730,1580,1580,1549,1549,0,0,0,0,0,0,0,0,0,0
1709535625.30045485,115728690,1582,1582,1547,1547,0,0,0,0,0,0,0,0,0,0
1709535625.40041494,115828650,1584,1584,1546,1546,0,0,0,0,0,0,0,0,0,0
1709535625.50037503,115928610,1584,1584,1543,1543,0,0,0,0,0,0,0,0,0,0
1709535625.60033488,116028570,1586,1586,1542,1543,0,0,0,0,0,0,0,0,0,0
1709535625.70029497,116128530,1587,1589,1542,1543,0,0,0,0,0,0,0,0,0,0
1709535625.80025506,116228490,1589,1589,1543,1544,0,0,0,0,0,0,0,0,0,0
1709535625.90021491,116328450,1589,1589,1544,1546,0,0,0,0,0,0,0,0,0,0
1709535626.00017500,116428410,1588,1586,1548,1550,0,0,0,0,0,0,0,0,0,0
1709535626.10013485,116528370,1585,1582,1552,1554,0,0,0,0,0,0,0,0,0,0
1709535626.20009494,116628330,1580,1576,1559,1561,0,0,0,0,0,0,0,0,0,0
1709535626.30005503,116728290,1573,1569,1567,1570,0,0,0,0,0,0,0,0,0,0
1709535626.40001488,116828250,1565,1561,1575,1578,0,0,0,0,0,0,0,0,0,0
1709535626.49997497,116928210,1556,1554,1585,1587,0,0,0,0,0,0,0,0,0,0
1709535626.59993505,117028170,1548,1547,1593,1594,0,0,0,0,0,0,0,0,0,0
1709535626.70072794,117128963,1542,1544,1600,1600,0,0,0,0,0,0,0,0,0,0
1709535626.80068803,117228923,1540,1542,1605,1604,0,0,0,0,0,0,0,0,0,0
1709535626.90064788,117328883,1539,1542,1605,1604,0,0,0,0,0,0,0,0,0,0
1709535627.00060797,117428843,1542,1545,1605,1604,0,0,0,0,0,0,0,0,0,0
1709535627.10056806,117528803,1545,1548,1602,1600,0,0,0,0,0,0,0,0,0,0
1709535627.20052791,117628763,1552,1553,1598,1597,0,0,0,0,0,0,0,0,0,0
1709535627.30048800,117728723,1558,1558,1592,1591,0,0,0,0,0,0,0,0,0,0
1709535627.40044785,117828683,1564,1565,1587,1586,0,0,0,0,0,0,0,0,0,0
1709535627.50040793,117928643,1570,1571,1580,1581,0,0,0,0,0,0,0,0,0,0
1709535627.60036802,118028603,1575,1575,1576,1576,0,0,0,0,0,0,0,0,0,0
1709535627.70032787,118128563,1579,1578,1573,1573,0,0,0,0,0,0,0,0,0,0
1709535627.80028796,118228523,1583,1580,1571,1571,0,0,0,0,0,0,0,0,0,0
1709535627.90024805,118328483,1584,1581,1571,1571,0,0,0,0,0,0,0,0,0,0
1709535628.00020790,118428443,1585,1581,1572,1572,0,0,0,0,0,0,0,0,0,0
1709535628.10016799,118528403,1583,1580,1572,1572,0,0,0,0,0,0,0,0,0,0
1709535628.20012784,118628363,1581,1580,1574,1574,0,0,0,0,0,0,0,0,0,0
1709535628.30008793,118728323,1579,1580,1576,1577,0,0,0,0,0,0,0,0,0,0
1709535628.40004802,118828283,1577,1577,1577,1577,0,0,0,0,0,0,0,0,0,0
1709535628.50000787,118928243,1576,1577,1578,1579,0,0,0,0,0,0,0,0,0,0
1709535628.59996796,119028203,1575,1576,1579,1579,0,0,0,0,0,0,0,0,0,0
1709535628.69992805,119128163,1575,1576,1580,1579,0,0,0,0,0,0,0,0,0,0
1709535628.80072093,119228956,1575,1576,1579,1579,0,0,0,0,0,0,0,0,0,0
1709535628.90068102,119328916,1577,1577,1579,1580,0,0,0,0,0,0,0,0,0,0
1709535629.00064087,119428876,1578,1578,1580,1580,0,0,0,0,0,0,0,0,0,0
1709535629.10060096,119528836,1580,1580,1580,1580,0,0,0,0,0,0,0,0,0,0
1709535629.20056105,119628796,1581,1581,1580,1580,0,0,0,0,0,0,0,0,0,0
1709535629.30052090,119728756,1582,1582,1580,1579,0,0,0,0,0,0,0,0,0,0
1709535629.40048099,119828716,1582,1582,1581,1580,0,0,0,0,0,0,0,0,0,0
1709535629.50044084,119928676,1582,1581,1580,1580,0,0,0,0,0,0,0,0,0,0
1709535629.60040092,120028636,1582,1582,1582,1581,0,0,0,0,0,0,0,0,0,0
1709535629.70036101,120128596,1582,1582,1583,1583,0,0,0,0,0,0,0,0,0,0
1709535629.80032086,120228556,1581,1580,1582,1582,0,0,0,0,0,0,0,0,0,0
1709535629.90028095,120328516,1580,1580,1582,1582,0,0,0,0,0,0,0,0,0,0
1709535630.00024104,120428476,1579,1580,1582,1582,0,0,0,0,0,0,0,0,0,0
1709535630.10020089,120528436,1579,1580,1582,1582,0,0,0,0,0,0,0,0,0,0
1709535630.20016098,120628396,1579,1580,1581,1581,0,0,0,0,0,0,0,0,0,0
1709535630.30012083,120728356,1580,1580,1581,1582,0,0,0,0,0,0,0,0,0,0
1709535630.40008092,120828316,1581,1581,1582,1581,0,0,0,0,0,0,0,0,0,0
1709535630.50004101,120928276,1581,1581,1582,1581,0,0,0,0,0,0,0,0,0,0
1709535630.60000086,121028236,1581,1581,1581,1581,0,0,0,0,0,0,0,0,0,0
1709535630.69996095,121128196,1582,1582,1581,1581,0,0,0,0,0,0,0,0,0,0
1709535630.79992104,121228156,1582,1582,1581,1581,0,0,0,0,0,0,0,0,0,0
1709535630.90071392,121328949,1582,1582,1580,1581,0,0,0,0,0,0,0,0,0,0
1709535631.00067401,121428909,1582,1582,1580,1580,0,0,0,0,0,0,0,0,0,0
1709535631.10063386,121528869,1582,1582,1581,1580,0,0,0,0,0,0,0,0,0,0
1709535631.20059395,121628829,1582,1583,1582,1579,0,0,0,0,0,0,0,0,0,0
1709535631.30055404,121728789,1582,1581,1588,1573,0,0,0,0,0,0,0,0,0,0
1709535631.40051389,121828749,1581,1580,1584,1575,0,0,0,0,0,0,0,0,0,0
1709535631.50047398,121928709,1578,1577,1577,1576,0,0,0,0,0,0,0,0,0,0
1709535631.60043406,122028669,1574,1573,1570,1575,0,0,0,0,0,0,0,0,0,0
1709535631.70039392,122128629,1572,1572,1567,1575,0,0,0,0,0,0,0,0,0,0
1709535631.80035400,122228589,1568,1569,1566,1571,0,0,0,0,0,0,0,0,0,0
1709535631.90031385,122328549,1567,1567,1565,1569,0,0,0,0,0,0,0,0,0,0
1709535632.00027394,122428509,1566,1567,1568,1567,0,0,0,0,0,0,0,0,0,0
1709535632.10023403,122528469,1565,1566,1567,1565,0,0,0,0,0,0,0,0,0,0
1709535632.20019388,122628429,1564,1564,1566,1564,0,0,0,0,0,0,0,0,0,0
1709535632.30015397,122728389,1563,1563,1565,1563,0,0,0,0,0,0,0,0,0,0
1709535632.40011406,122828349,1562,1562,1564,1563,0,0,0,0,0,0,0,0,0,0
1709535632.50007391,122928309,1562,1561,1563,1563,0,0,0,0,0,0,0,0,0,0
1709535632.60003400,123028269,1562,1561,1562,1562,0,0,0,0,0,0,0,0,0,0
1709535632.69999385,123128229,1561,1562,1562,1562,0,0,0,0,0,0,0,0,0,0
1709535632.79995394,123228189,1561,1561,1561,1561,0,0,0,0,0,0,0,0,0,0
1709535632.90074706,123328982,1561,1561,1561,1561,0,0,0,0,0,0,0,0,0,0
1709535633.00070691,123428942,1562,1561,1562,1561,0,0,0,0,0,0,0,0,0,0
1709535633.10066700,123528902,1560,1560,1560,1559,0,0,0,0,0,0,0,0,0,0
1709535633.20062685,123628862,1559,1559,1559,1558,0,0,0,0,0,0,0,0,0,0
1709535633.30058694,123728822,1558,1558,1558,1557,0,0,0,0,0,0,0,0,0,0
1709535633.40054703,123828782,1558,1558,1558,1557,0,0,0,0,0,0,0,0,0,0
1709535633.50050688,123928742,1558,1558,1559,1557,0,0,0,0,0,0,0,0,0,0
1709535633.60046697,124028702,1557,1557,1558,1556,0,0,0,0,0,0,0,0,0,0
1709535633.70042706,124128662,1557,1558,1558,1557,0,0,0,0,0,0,0,0,0,0
1709535633.80038691,124228622,1558,1558,1560,1557,0,0,0,0,0,0,0,0,0,0
1709535633.90034699,124328582,1559,1558,1561,1558,0,0,0,0,0,0,0,0,0,0
1709535634.00030684,124428542,1559,1558,1559,1558,0,0,0,0,0,0,0,0,0,0
1709535634.10026693,124528502,1560,1559,1557,1562,0,0,0,0,0,0,0,0,0,0
1709535634.20022702,124628462,1560,1560,1558,1564,0,0,0,0,0,0,0,0,0,0
1709535634.30018687,124728422,1561,1562,1559,1565,0,0,0,0,0,0,0,0,0,0
1709535634.40014696,124828382,1562,1563,1560,1564,0,0,0,0,0,0,0,0,0,0
1709535634.50010705,124928342,1561,1562,1562,1562,0,0,0,0,0,0,0,0,0,0
1709535634.60006690,125028302,1560,1560,1561,1558,0,0,0,0,0,0,0,0,0,0
1709535634.70002699,125128262,1559,1559,1560,1556,0,0,0,0,0,0,0,0,0,0
1709535634.79998684,125228222,1560,1560,1558,1561,0,0,0,0,0,0,0,0,0,0
1709535634.89994693,125328182,1556,1557,1554,1557,0,0,0,0,0,0,0,0,0,0
1709535635.00074005,125428975,1551,1551,1551,1551,0,0,0,0,0,0,0,0,0,0
1709535635.10069990,125528935,1545,1545,1546,1546,0,0,0,0,0,0,0,0,0,0
1709535635.20065999,125628895,1538,1537,1540,1539,0,0,0,0,0,0,0,0,0,0
1709535635.30061984,125728855,1531,1529,1533,1533,0,0,0,0,0,0,0,0,0,0
1709535635.40057993,125828815,1523,1522,1525,1526,0,0,0,0,0,0,0,0,0,0
1709535635.50054002,125928775,1518,1518,1520,1522,0,0,0,0,0,0,0,0,0,0
1709535635.60049987,126028735,1517,1519,1520,1522,0,0,0,0,0,0,0,0,0,0
1709535635.70045996,126128695,1517,1519,1521,1522,0,0,0,0,0,0,0,0,0,0
1709535635.80042005,126228655,1520,1521,1522,1523,0,0,0,0,0,0,0,0,0,0
1709535635.90037990,126328615,1524,1525,1525,1526,0,0,0,0,0,0,0,0,0,0
1709535636.00033998,126428575,1529,1530,1528,1529,0,0,0,0,0,0,0,0,0,0
1709535636.10029984,126528535,1535,1535,1533,1533,0,0,0,0,0,0,0,0,0,0
1709535636.20025992,126628495,1540,1540,1536,1537,0,0,0,0,0,0,0,0,0,0
1709535636.30022001,126728455,1544,1543,1539,1539,0,0,0,0,0,0,0,0,0,0
1709535636.40017986,126828415,1546,1546,1540,1540,0,0,0,0,0,0,0,0,0,0
1709535636.50013995,126928375,1549,1548,1541,1541,0,0,0,0,0,0,0,0,0,0
1709535636.60010004,127028335,1550,1550,1543,1542,0,0,0,0,0,0,0,0,0,0
1709535636.70005989,127128295,1551,1552,1544,1544,0,0,0,0,0,0,0,0,0,0
1709535636.80001998,127228255,1551,1552,1545,1544,0,0,0,0,0,0,0,0,0,0
1709535636.89997983,127328215,1552,1551,1546,1544,0,0,0,0,0,0,0,0,0,0
1709535636.99993992,127428175,1551,1550,1547,1545,0,0,0,0,0,0,0,0,0,0
1709535637.10073304,127528968,1550,1549,1548,1546,0,0,0,0,0,0,0,0,0,0
1709535637.20069289,127628928,1547,1546,1548,1546,0,0,0,0,0,0,0,0,0,0
1709535637.30065298,127728888,1546,1546,1550,1549,0,0,0,0,0,0,0,0,0,0
1709535637.40061283,127828848,1544,1544,1550,1550,0,0,0,0,0,0,0,0,0,0
1709535637.50057292,127928808,1543,1543,1550,1551,0,0,0,0,0,0,0,0,0,0
1709535637.60053301,128028768,1541,1542,1549,1549,0,0,0,0,0,0,0,0,0,0
1709535637.70049286,128128728,1541,1542,1549,1549,0,0,0,0,0,0,0,0,0,0
1709535637.80045295,128228688,1541,1542,1548,1548,0,0,0,0,0,0,0,0,0,0
1709535637.90041304,128328648,1541,1541,1547,1546,0,0,0,0,0,0,0,0,0,0
1709535638.00037289,128428608,1542,1542,1546,1545,0,0,0,0,0,0,0,0,0,0
1709535638.10033298,128528568,1543,1543,1545,1546,0,0,0,0,0,0,0,0,0,0
1709535638.20029306,128628528,1543,1543,1543,1543,0,0,0,0,0,0,0,0,0,0
1709535638.30025291,128728488,1544,1543,1543,1543,0,0,0,0,0,0,0,0,0,0
1709535638.40021300,128828448,1545,1545,1543,1543,0,0,0,0,0,0,0,0,0,0
1709535638.50017285,128928408,1545,1545,1542,1543,0,0,0,0,0,0,0,0,0,0
1709535638.60013294,129028368,1545,1545,1541,1542,0,0,0,0,0,0,0,0,0,0
1709535638.70009303,129128328,1545,1545,1542,1542,0,0,0,0,0,0,0,0,0,0
1709535638.80005288,129228288,1544,1545,1541,1541,0,0,0,0,0,0,0,0,0,0
1709535638.90001297,129328248,1545,1544,1542,1542,0,0,0,0,0,0,0,0,0,0
1709535638.99997306,129428208,1545,1545,1543,1543,0,0,0,0,0,0,0,0,0,0
1709535639.09993291,129528168,1544,1544,1543,1543,0,0,0,0,0,0,0,0,0,0
1709535639.20072603,129628961,1544,1543,1544,1543,0,0,0,0,0,0,0,0,0,0
1709535639.30068588,129728921,1543,1543,1544,1544,0,0,0,0,0,0,0,0,0,0
1709535639.40064597,129828881,1543,1544,1545,1545,0,0,0,0,0,0,0,0,0,0
1709535639.50060606,129928841,1543,1543,1544,1545,0,0,0,0,0,0,0,0,0,0
1709535639.60056591,130028801,1543,1544,1545,1545,0,0,0,0,0,0,0,0,0,0
1709535639.70052600,130128761,1544,1543,1544,1545,0,0,0,0,0,0,0,0,0,0
1709535639.80048585,130228721,1543,1543,1544,1544,0,0,0,0,0,0,0,0,0,0
1709535639.90044594,130328681,1544,1543,1545,1545,0,0,0,0,0,0,0,0,0,0
1709535640.00040603,130428641,1544,1544,1545,1544,0,0,0,0,0,0,0,0,0,0
1709535640.10036588,130528601,1545,1544,1545,1545,0,0,0,0,0,0,0,0,0,0
1709535640.20032597,130628561,1545,1545,1545,1545,0,0,0,0,0,0,0,0,0,0
1709535640.30028605,130728521,1544,1544,1543,1544,0,0,0,0,0,0,0,0,0,0
1709535640.40024590,130828481,1544,1545,1544,1544,0,0,0,0,0,0,0,0,0,0
1709535640.50020599,130928441,1544,1543,1542,1543,0,0,0,0,0,0,0,0,0,0
1709535640.60016584,131028401,1545,1545,1544,1544,0,0,0,0,0,0,0,0,0,0
1709535640.70012593,131128361,1545,1544,1543,1544,0,0,0,0,0,0,0,0,0,0
1709535640.80008602,131228321,1544,1544,1543,1544,0,0,0,0,0,0,0,0,0,0
1709535640.90004587,131328281,1545,1545,1544,1545,0,0,0,0,0,0,0,0,0,0
1709535641.00000596,131428241,1544,1544,1544,1543,0,0,0,0,0,0,0,0,0,0
1709535641.09996605,131528201,1544,1544,1544,1544,0,0,0,0,0,0,0,0,0,0
1709535641.19992590,131628161,1544,1544,1544,1545,0,0,0,0,0,0,0,0,0,0
1709535641.30071902,131728954,1545,1545,1545,1545,0,0,0,0,0,0,0,0,0,0
1709535641.40067887,131828914,1544,1544,1544,1545,0,0,0,0,0,0,0,0,0,0
1709535641.50063896,131928874,1544,1543,1544,1544,0,0,0,0,0,0,0,0,0,0
1709535641.60059905,132028834,1544,1544,1544,1544,0,0,0,0,0,0,0,0,0,0
1709535641.70055890,132128794,1544,1543,1543,1544,0,0,0,0,0,0,0,0,0,0
1709535641.80051899,132228754,1544,1544,1544,1544,0,0,0,0,0,0,0,0,0,0
1709535641.90047884,132328714,1543,1544,1544,1544,0,0,0,0,0,0,0,0,0,0
1709535642.00043893,132428674,1544,1545,1545,1544,0,0,0,0,0,0,0,0,0,0
1709535642.10039902,132528634,1544,1544,1544,1545,0,0,0,0,0,0,0,0,0,0
1709535642.20035887,132628594,1543,1544,1545,1543,0,0,0,0,0,0,0,0,0,0
1709535642.30031896,132728554,1544,1544,1546,1544,0,0,0,0,0,0,0,0,0,0
1709535642.40027905,132828514,1543,1543,1547,1545,0,0,0,0,0,0,0,0,0,0
1709535642.50023890,132928474,1542,1542,1546,1546,0,0,0,0,0,0,0,0,0,0
1709535642.60019898,133028434,1542,1541,1547,1547,0,0,0,0,0,0,0,0,0,0
1709535642.70015883,133128394,1541,1541,1546,1548,0,0,0,0,0,0,0,0,0,0
1709535642.80011892,133228354,1541,1541,1546,1548,0,0,0,0,0,0,0,0,0,0
1709535642.90007901,133328314,1542,1541,1545,1547,0,0,0,0,0,0,0,0,0,0
1709535643.00003886,133428274,1542,1542,1544,1546,0,0,0,0,0,0,0,0,0,0
1709535643.09999895,133528234,1543,1544,1544,1546,0,0,0,0,0,0,0,0,0,0
1709535643.19995904,133628194,1544,1544,1543,1544,0,0,0,0,0,0,0,0,0,0
1709535643.29991889,133728154,1545,1545,1542,1542,0,0,0,0,0,0,0,0,0,0
1709535643.40071201,133828947,1546,1546,1542,1542,0,0,0,0,0,0,0,0,0,0
1709535643.50067186,133928907,1548,1548,1541,1542,0,0,0,0,0,0,0,0,0,0
1709535643.60063195,134028867,1548,1548,1540,1541,0,0,0,0,0,0,0,0,0,0
1709535643.70059204,134128827,1548,1548,1540,1540,0,0,0,0,0,0,0,0,0,0
1709535643.80055189,134228787,1549,1550,1541,1542,0,0,0,0,0,0,0,0,0,0
1709535643.90051198,134328747,1548,1549,1541,1541,0,0,0,0,0,0,0,0,0,0
1709535644.00047183,134428707,1547,1547,1541,1540,0,0,0,0,0,0,0,0,0,0
1709535644.10043192,134528667,1547,1547,1542,1542,0,0,0,0,0,0,0,0,0,0
1709535644.20039201,134628627,1546,1546,1542,1541,0,0,0,0,0,0,0,0,0,0
1709535644.30035186,134728587,1547,1546,1544,1543,0,0,0,0,0,0,0,0,0,0
1709535644.40031195,134828547,1545,1545,1545,1543,0,0,0,0,0,0,0,0,0,0
1709535644.50027204,134928507,1544,1544,1546,1544,0,0,0,0,0,0,0,0,0,0
1709535644.60023189,135028467,1543,1542,1546,1544,0,0,0,0,0,0,0,0,0,0
1709535644.70019197,135128427,1542,1542,1546,1546,0,0,0,0,0,0,0,0,0,0
1709535644.80015206,135228387,1541,1542,1547,1547,0,0,0,0,0,0,0,0,0,0
1709535644.90011191,135328347,1540,1540,1546,1546,0,0,0,0,0,0,0,0,0,0
1709535645.00007200,135428307,1540,1541,1547,1547,0,0,0,0,0,0,0,0,0,0
1709535645.10003185,135528267,1541,1541,1547,1547,0,0,0,0,0,0,0,0,0,0
1709535645.19999194,135628227,1470,1445,1440,1462,0,0,0,0,0,0,0,0,0,0
1709535645.29995203,135728187,1361,1288,1260,1325,0,0,0,0,0,0,0,0,0,0
1709535645.40074492,135828980,1321,1222,1189,1264,0,0,0,0,0,0,0,0,0,0
1709535645.50070500,135928940,1310,1199,1172,1240,0,0,0,0,0,0,0,0,0,0
1709535645.60066485,136028900,1297,1171,1150,1212,0,0,0,0,0,0,0,0,0,0
1709535645.70062494,136128860,1278,1171,1150,1211,0,0,0,0,0,0,0,0,0,0
1709535645.80058503,136228820,1154,1163,1150,1189,0,0,0,0,0,0,0,0,0,0
1709535645.90054488,136328780,1151,1165,1150,1192,0,0,0,0,0,0,0,0,0,0
1709535646.00050497,136428740,1150,1165,1150,1192,0,0,0,0,0,0,0,0,0,0
1709535646.10046506,136528700,1167,1152,1150,1180,0,0,0,0,0,0,0,0,0,0
1709535646.20042491,136628660,1160,1158,1150,1186,0,0,0,0,0,0,0,0,0,0
1709535646.30038500,136728620,1157,1159,1150,1188,0,0,0,0,0,0,0,0,0,0
1709535646.40034485,136828580,1157,1159,1150,1188,0,0,0,0,0,0,0,0,0,0
1709535646.50030494,136928540,1157,1159,1150,1188,0,0,0,0,0,0,0,0,0,0
1709535646.60026503,137028500,1157,1159,1150,1188,0,0,0,0,0,0,0,0,0,0
1709535646.70022488,137128460,1157,1158,1150,1188,0,0,0,0,0,0,0,0,0,0
1709535646.80018497,137228420,1158,1158,1150,1188,0,0,0,0,0,0,0,0,0,0
1709535646.90014505,137328380,1176,1150,1150,1166,0,0,0,0,0,0,0,0,0,0
1709535647.00010490,137428340,1176,1150,1150,1168,0,0,0,0,0,0,0,0,0,0
1709535647.10006499,137528300,1175,1150,1150,1170,0,0,0,0,0,0,0,0,0,0
1709535647.20002484,137628260,1174,1150,1150,1170,0,0,0,0,0,0,0,0,0,0
1709535647.29998493,137728220,1079,1150,1150,1162,0,0,0,0,0,0,0,0,0,0
1709535647.39994502,137828180,1000,1000,1000,1000,0,0,0,0,0,0,0,0,0,0
1709535647.50073791,137928973,1000,1000,1000,1000,0,0,0,0,0,0,0,0,0,0
1709535647.60069799,138028933,1000,1000,1000,1000,0,0,0,0,0,0,0,0,0,0
1709535647.70065784,138128893,1000,1000,1000,1000,0,0,0,0,0,0,0,0,0,0
1709535647.80061793,138228853,1000,1000,1000,1000,0,0,0,0,0,0,0,0,0,0
1709535647.90057802,138328813,1000,1000,1000,1000,0,0,0,0,0,0,0,0,0,0
1709535648.00053787,138428773,1000,1000,1000,1000,0,0,0,0,0,0,0,0,0,0
1709535648.10049796,138528733,1000,1000,1000,1000,0,0,0,0,0,0,0,0,0,0
1709535648.20045805,138628693,1000,1000,1000,1000,0,0,0,0,0,0,0,0,0,0
1709535648.30041790,138728653,1000,1000,1000,1000,0,0,0,0,0,0,0,0,0,0
1709535648.40037799,138828613,1000,1000,1000,1000,0,0,0,0,0,0,0,0,0,0
1709535648.50033784,138928573,1000,1000,1000,1000,0,0,0,0,0,0,0,0,0,0
1709535648.60029793,139028533,1000,1000,1000,1000,0,0,0,0,0,0,0,0,0,0
1709535648.70025802,139128493,1000,1000,1000,1000,0,0,0,0,0,0,0,0,0,0
1709535648.80021787,139228453,1000,1000,1000,1000,0,0,0,0,0,0,0,0,0,0
1709535648.90017796,139328413,1000,1000,1000,1000,0,0,0,0,0,0,0,0,0,0
1709535649.00013804,139428373,1000,1000,1000,1000,0,0,0,0,0,0,0,0,0,0
1709535649.10009789,139528333,1000,1000,1000,1000,0,0,0,0,0,0,0,0,0,0
1709535649.20005798,139628293,1000,1000,1000,1000,0,0,0,0,0,0,0,0,0,0
1709535649.30001783,139728253,1000,1000,1000,1000,0,0,0,0,0,0,0,0,0,0
1709535649.39997792,139828213,1000,1000,1000,1000,0,0,0,0,0,0,0,0,0,0
1709535649.49993801,139928173,1000,1000,1000,1000,0,0,0,0,0,0,0,0,0,0
1709535649.60073090,140028966,1000,1000,1000,1000,0,0,0,0,0,0,0,0,0,0
1709535649.70069098,140128926,1000,1000,1000,1000,0,0,0,0,0,0,0,0,0,0
1709535649.80065084,140228886,1000,1000,1000,1000,0,0,0,0,0,0,0,0,0,0
1709535649.90061092,140328846,1000,1000,1000,1000,0,0,0,0,0,0,0,0,0,0
1709535650.00057101,140428806,1000,1000,1000,1000,0,0,0,0,0,0,0,0,0,0
1709535650.10053086,140528766,1000,1000,1000,1000,0,0,0,0,0,0,0,0,0,0
1709535650.20049095,140628726,1000,1000,1000,1000,0,0,0,0,0,0,0,0,0,0
1709535650.30045104,140728686,1000,1000,1000,1000,0,0,0,0,0,0,0,0,0,0
1709535650.40041089,140828646,1000,1000,1000,1000,0,0,0,0,0,0,0,0,0,0
1709535650.50037098,140928606,1000,1000,1000,1000,0,0,0,0,0,0,0,0,0,0
1709535650.60033083,141028566,1000,1000,1000,1000,0,0,0,0,0,0,0,0,0,0
1709535650.70029092,141128526,1000,1000,1000,1000,0,0,0,0,0,0,0,0,0,0
1709535650.80025101,141228486,1000,1000,1000,1000,0,0,0,0,0,0,0,0,0,0
1709535650.90021086,141328446,1000,1000,1000,1000,0,0,0,0,0,0,0,0,0,0
1709535651.00017095,141428406,1000,1000,1000,1000,0,0,0,0,0,0,0,0,0,0
1709535651.10013103,141528366,1000,1000,1000,1000,0,0,0,0,0,0,0,0,0,0
1709535651.20009089,141628326,1000,1000,1000,1000,0,0,0,0,0,0,0,0,0,0
1709535651.30005097,141728286,1000,1000,1000,1000,0,0,0,0,0,0,0,0,0,0
1709535651.40001106,141828246,1000,1000,1000,1000,0,0,0,0,0,0,0,0,0,0
1709535651.49997091,141928206,1000,1000,1000,1000,0,0,0,0,0,0,0,0,0,0
1709535651.59993100,142028166,1000,1000,1000,1000,0,0,0,0,0,0,0,0,0,0
1709535651.70072389,142128959,1000,1000,1000,1000,0,0,0,0,0,0,0,0,0,0
1709535651.80068398,142228919,1000,1000,1000,1000,0,0,0,0,0,0,0,0,0,0
1709535651.90064406,142328879,1000,1000,1000,1000,0,0,0,0,0,0,0,0,0,0
1709535652.00060391,142428839,1000,1000,1000,1000,0,0,0,0,0,0,0,0,0,0
1709535652.10056400,142528799,1000,1000,1000,1000,0,0,0,0,0,0,0,0,0,0
1709535652.20052385,142628759,1000,1000,1000,1000,0,0,0,0,0,0,0,0,0,0
1709535652.30048394,142728719,1000,1000,1000,1000,0,0,0,0,0,0,0,0,0,0
1709535652.40044403,142828679,1000,1000,1000,1000,0,0,0,0,0,0,0,0,0,0
1709535652.50040388,142928639,1000,1000,1000,1000,0,0,0,0,0,0,0,0,0,0
1709535652.60036397,143028599,1000,1000,1000,1000,0,0,0,0,0,0,0,0,0,0
1709535652.70032406,143128559,1000,1000,1000,1000,0,0,0,0,0,0,0,0,0,0
1709535652.80028391,143228519,1000,1000,1000,1000,0,0,0,0,0,0,0,0,0,0
1709535652.90024400,143328479,1000,1000,1000,1000,0,0,0,0,0,0,0,0,0,0
1709535653.00020385,143428439,1000,1000,1000,1000,0,0,0,0,0,0,0,0,0,0
1709535653.10016394,143528399,1000,1000,1000,1000,0,0,0,0,0,0,0,0,0,0
1709535653.20012403,143628359,1000,1000,1000,1000,0,0,0,0,0,0,0,0,0,0
1709535653.30008388,143728319,1000,1000,1000,1000,0,0,0,0,0,0,0,0,0,0
1709535653.40004396,143828279,1000,1000,1000,1000,0,0,0,0,0,0,0,0,0,0
1709535653.50000405,143928239,1000,1000,1000,1000,0,0,0,0,0,0,0,0,0,0
1709535653.59996390,144028199,1000,1000,1000,1000,0,0,0,0,0,0,0,0,0,0
1709535653.69992399,144128159,1000,1000,1000,1000,0,0,0,0,0,0,0,0,0,0
1709535653.80071688,144228952,1000,1000,1000,1000,0,0,0,0,0,0,0,0,0,0
1709535653.90067697,144328912,1000,1000,1000,1000,0,0,0,0,0,0,0,0,0,0
1709535654.00063705,144428872,1000,1000,1000,1000,0,0,0,0,0,0,0,0,0,0
1709535654.10059690,144528832,1000,1000,1000,1000,0,0,0,0,0,0,0,0,0,0
1709535654.20055699,144628792,1000,1000,1000,1000,0,0,0,0,0,0,0,0,0,0
1709535654.30051684,144728752,1000,1000,1000,1000,0,0,0,0,0,0,0,0,0,0
1709535654.40047693,144828712,1000,1000,1000,1000,0,0,0,0,0,0,0,0,0,0
1709535654.50043702,144928672,1000,1000,1000,1000,0,0,0,0,0,0,0,0,0,0
1709535654.60039687,145028632,1000,1000,1000,1000,0,0,0,0,0,0,0,0,0,0
1709535654.70035696,145128592,1000,1000,1000,1000,0,0,0,0,0,0,0,0,0,0
1709535654.80031705,145228552,1000,1000,1000,1000,0,0,0,0,0,0,0,0,0,0
1709535654.90027690,145328512,1000,1000,1000,1000,0,0,0,0,0,0,0,0,0,0
1709535655.00023699,145428472,1000,1000,1000,1000,0,0,0,0,0,0,0,0,0,0
1709535655.10019684,145528432,1000,1000,1000,1000,0,0,0,0,0,0,0,0,0,0
1709535655.20015693,145628392,1000,1000,1000,1000,0,0,0,0,0,0,0,0,0,0
1709535655.30011702,145728352,1000,1000,1000,1000,0,0,0,0,0,0,0,0,0,0
1709535655.40007687,145828312,1000,1000,1000,1000,0,0,0,0,0,0,0,0,0,0
1709535655.50003695,145928272,1000,1000,1000,1000,0,0,0,0,0,0,0,0,0,0
1709535655.59999704,146028232,1000,1000,1000,1000,0,0,0,0,0,0,0,0,0,0
1709535655.69995689,146128192,1000,1000,1000,1000,0,0,0,0,0,0,0,0,0,0
1709535655.80075002,146228985,1000,1000,1000,1000,0,0,0,0,0,0,0,0,0,0
1709535655.90070987,146328945,1000,1000,1000,1000,0,0,0,0,0,0,0,0,0,0
1709535656.00066996,146428905,1000,1000,1000,1000,0,0,0,0,0,0,0,0,0,0
1709535656.10063004,146528865,1000,1000,1000,1000,0,0,0,0,0,0,0,0,0,0
1709535656.20058990,146628825,1000,1000,1000,1000,0,0,0,0,0,0,0,0,0,0
1709535656.30054998,146728785,1000,1000,1000,1000,0,0,0,0,0,0,0,0,0,0
1709535656.40050983,146828745,1000,1000,1000,1000,0,0,0,0,0,0,0,0,0,0
1709535656.50046992,146928705,1000,1000,1000,1000,0,0,0,0,0,0,0,0,0,0
1709535656.60043001,147028665,1000,1000,1000,1000,0,0,0,0,0,0,0,0,0,0
1709535656.70038986,147128625,1000,1000,1000,1000,0,0,0,0,0,0,0,0,0,0
1709535656.80034995,147228585,1000,1000,1000,1000,0,0,0,0,0,0,0,0,0,0
1709535656.90031004,147328545,1000,1000,1000,1000,0,0,0,0,0,0,0,0,0,0
1709535657.00026989,147428505,1000,1000,1000,1000,0,0,0,0,0,0,0,0,0,0
1709535657.10022998,147528465,1000,1000,1000,1000,0,0,0,0,0,0,0,0,0,0
1709535657.20018983,147628425,1000,1000,1000,1000,0,0,0,0,0,0,0,0,0,0
1709535657.30014992,147728385,1000,1000,1000,1000,0,0,0,0,0,0,0,0,0,0
1709535657.40011001,147828345,1000,1000,1000,1000,0,0,0,0,0,0,0,0,0,0
1709535657.50006986,147928305,1000,1000,1000,1000,0,0,0,0,0,0,0,0,0,0
1709535657.60002995,148028265,1000,1000,1000,1000,0,0,0,0,0,0,0,0,0,0
1709535657.69999003,148128225,1000,1000,1000,1000,0,0,0,0,0,0,0,0,0,0
1709535657.79994988,148228185,1000,1000,1000,1000,0,0,0,0,0,0,0,0,0,0
1709535657.90074301,148328978,1000,1000,1000,1000,0,0,0,0,0,0,0,0,0,0
1709535658.00070286,148428938,1000,1000,1000,1000,0,0,0,0,0,0,0,0,0,0
1709535658.10066295,148528898,1000,1000,1000,1000,0,0,0,0,0,0,0,0,0,0
1709535658.20062304,148628858,1000,1000,1000,1000,0,0,0,0,0,0,0,0,0,0
1709535658.30058289,148728818,1000,1000,1000,1000,0,0,0,0,0,0,0,0,0,0
1709535658.40054297,148828778,1000,1000,1000,1000,0,0,0,0,0,0,0,0,0,0
1709535658.50050306,148928738,1000,1000,1000,1000,0,0,0,0,0,0,0,0,0,0
1709535658.60046291,149028698,1000,1000,1000,1000,0,0,0,0,0,0,0,0,0,0
1709535658.70042300,149128658,1000,1000,1000,1000,0,0,0,0,0,0,0,0,0,0
1709535658.80038285,149228618,1000,1000,1000,1000,0,0,0,0,0,0,0,0,0,0
1709535658.90034294,149328578,1000,1000,1000,1000,0,0,0,0,0,0,0,0,0,0
1709535659.00030303,149428538,1000,1000,1000,1000,0,0,0,0,0,0,0,0,0,0
1709535659.10026288,149528498,1000,1000,1000,1000,0,0,0,0,0,0,0,0,0,0
1709535659.20022297,149628458,1000,1000,1000,1000,0,0,0,0,0,0,0,0,0,0
1709535659.30018306,149728418,1000,1000,1000,1000,0,0,0,0,0,0,0,0,0,0
1709535659.40014291,149828378,1000,1000,1000,1000,0,0,0,0,0,0,0,0,0,0
1709535659.50010300,149928338,1000,1000,1000,1000,0,0,0,0,0,0,0,0,0,0
1709535659.60006285,150028298,1000,1000,1000,1000,0,0,0,0,0,0,0,0,0,0
1709535659.70002294,150128258,1000,1000,1000,1000,0,0,0,0,0,0,0,0,0,0
1709535659.79998302,150228218,1000,1000,1000,1000,0,0,0,0,0,0,0,0,0,0
1709535659.89994287,150328178,1000,1000,1000,1000,0,0,0,0,0,0,0,0,0,0
1709535660.00073600,150428971,1000,1000,1000,1000,0,0,0,0,0,0,0,0,0,0
1709535660.10069585,150528931,1000,1000,1000,1000,0,0,0,0,0,0,0,0,0,0
1709535660.20065594,150628891,1000,1000,1000,1000,0,0,0,0,0,0,0,0,0,0
1709535660.30061603,150728851,1000,1000,1000,1000,0,0,0,0,0,0,0,0,0,0
1709535660.40057588,150828811,1000,1000,1000,1000,0,0,0,0,0,0,0,0,0,0
1709535660.50053596,150928771,1000,1000,1000,1000,0,0,0,0,0,0,0,0,0,0
1709535660.60049605,151028731,1000,1000,1000,1000,0,0,0,0,0,0,0,0,0,0
1709535660.70045590,151128691,1000,1000,1000,1000,0,0,0,0,0,0,0,0,0,0
1709535660.80041599,151228651,1000,1000,1000,1000,0,0,0,0,0,0,0,0,0,0
1709535660.90037584,151328611,1000,1000,1000,1000,0,0,0,0,0,0,0,0,0,0
1709535661.00033593,151428571,1000,1000,1000,1000,0,0,0,0,0,0,0,0,0,0
1709535661.10029602,151528531,1000,1000,1000,1000,0,0,0,0,0,0,0,0,0,0
1709535661.20025587,151628491,1000,1000,1000,1000,0,0,0,0,0,0,0,0,0,0
1709535661.30021596,151728451,1000,1000,1000,1000,0,0,0,0,0,0,0,0,0,0
1709535661.40017605,151828411,1000,1000,1000,1000,0,0,0,0,0,0,0,0,0,0
1709535661.50013590,151928371,1000,1000,1000,1000,0,0,0,0,0,0,0,0,0,0
1709535661.60009599,152028331,1000,1000,1000,1000,0,0,0,0,0,0,0,0,0,0
1709535661.70005584,152128291,1000,1000,1000,1000,0,0,0,0,0,0,0,0,0,0
1709535661.80001593,152228251,1000,1000,1000,1000,0,0,0,0,0,0,0,0,0,0
1709535661.89997602,152328211,1000,1000,1000,1000,0,0,0,0,0,0,0,0,0,0
1709535661.99993587,152428171,1000,1000,1000,1000,0,0,0,0,0,0,0,0,0,0
1709535662.10072899,152528964,1000,1000,1000,1000,0,0,0,0,0,0,0,0,0,0
1709535662.20068884,152628924,1000,1000,1000,1000,0,0,0,0,0,0,0,0,0,0
1709535662.30064893,152728884,1000,1000,1000,1000,0,0,0,0,0,0,0,0,0,0
