timestamp,TimeUS,C1,C2,C3,C4,C5,C6,C7,C8,C9,C10,C11,C12,C13,C14
1709536181.50003982,76728463,1000,1000,1000,1000,0,0,0,0,0,0,0,0,0,0
1709536181.59999990,76828423,1000,1000,1000,1000,0,0,0,0,0,0,0,0,0,0
1709536181.69995999,76928383,1000,1000,1000,1000,0,0,0,0,0,0,0,0,0,0
1709536181.79991984,77028343,1000,1000,1000,1000,0,0,0,0,0,0,0,0,0,0
1709536181.89987993,77128303,1000,1000,1000,1000,0,0,0,0,0,0,0,0,0,0
1709536181.99983978,77228263,1000,1000,1000,1000,0,0,0,0,0,0,0,0,0,0
1709536182.09979987,77328223,1000,1000,1000,1000,0,0,0,0,0,0,0,0,0,0
1709536182.19975996,77428183,1000,1000,1000,1000,0,0,0,0,0,0,0,0,0,0
1709536182.30055285,77528976,1000,1000,1000,1000,0,0,0,0,0,0,0,0,0,0
1709536182.40051293,77628936,1000,1000,1000,1000,0,0,0,0,0,0,0,0,0,0
1709536182.50047278,77728896,1000,1000,1000,1000,0,0,0,0,0,0,0,0,0,0
1709536182.60043287,77828856,1000,1000,1000,1000,0,0,0,0,0,0,0,0,0,0
1709536182.70039296,77928816,1000,1000,1000,1000,0,0,0,0,0,0,0,0,0,0
1709536182.80035281,78028776,1000,1000,1000,1000,0,0,0,0,0,0,0,0,0,0
1709536182.90031290,78128736,1000,1000,1000,1000,0,0,0,0,0,0,0,0,0,0
1709536183.00027299,78228696,1000,1000,1000,1000,0,0,0,0,0,0,0,0,0,0
1709536183.10023284,78328656,1000,1000,1000,1000,0,0,0,0,0,0,0,0,0,0
1709536183.20019293,78428616,1000,1000,1000,1000,0,0,0,0,0,0,0,0,0,0
1709536183.30015278,78528576,1000,1000,1000,1000,0,0,0,0,0,0,0,0,0,0
1709536183.40011287,78628536,1000,1000,1000,1000,0,0,0,0,0,0,0,0,0,0
1709536183.50007296,78728496,1015,1015,1015,1015,0,0,0,0,0,0,0,0,0,0
1709536183.60003281,78828456,1045,1045,1045,1045,0,0,0,0,0,0,0,0,0,0
1709536183.69999290,78928416,1075,1075,1075,1075,0,0,0,0,0,0,0,0,0,0
1709536183.79995298,79028376,1105,1105,1105,1105,0,0,0,0,0,0,0,0,0,0
1709536183.89991283,79128336,1135,1135,1135,1135,0,0,0,0,0,0,0,0,0,0
1709536183.99987292,79228296,1295,1285,1286,1296,0,0,0,0,0,0,0,0,0,0
1709536184.09983277,79328256,1501,1492,1493,1501,0,0,0,0,0,0,0,0,0,0
1709536184.19979286,79428216,1660,1654,1654,1661,0,0,0,0,0,0,0,0,0,0
1709536184.29975295,79528176,1797,1790,1790,1797,0,0,0,0,0,0,0,0,0,0
1709536184.40054584,79628969,1900,1893,1893,1901,0,0,0,0,0,0,0,0,0,0
1709536184.50050592,79728929,1872,1867,1868,1872,0,0,0,0,0,0,0,0,0,0
1709536184.60046577,79828889,1744,1744,1744,1744,0,0,0,0,0,0,0,0,0,0
1709536184.70042586,79928849,1652,1655,1655,1652,0,0,0,0,0,0,0,0,0,0
1709536184.80038595,80028809,1628,1631,1631,1628,0,0,0,0,0,0,0,0,0,0
1709536184.90034580,80128769,1634,1637,1637,1635,0,0,0,0,0,0,0,0,0,0
1709536185.00030589,80228729,1643,1644,1644,1642,0,0,0,0,0,0,0,0,0,0
1709536185.10026598,80328689,1632,1631,1625,1638,0,0,0,0,0,0,0,0,0,0
1709536185.20022583,80428649,1620,1621,1614,1628,0,0,0,0,0,0,0,0,0,0
1709536185.30018592,80528609,1613,1614,1610,1617,0,0,0,0,0,0,0,0,0,0
1709536185.40014577,80628569,1611,1611,1611,1610,0,0,0,0,0,0,0,0,0,0
1709536185.50010586,80728529,1613,1612,1615,1610,0,0,0,0,0,0,0,0,0,0
1709536185.60006595,80828489,1617,1617,1621,1612,0,0,0,0,0,0,0,0,0,0
1709536185.70002580,80928449,1605,1604,1611,1598,0,0,0,0,0,0,0,0,0,0
1709536185.79998589,81028409,1583,1583,1597,1568,0,0,0,0,0,0,0,0,0,0
1709536185.89994597,81128369,1570,1570,1578,1563,0,0,0,0,0,0,0,0,0,0
1709536185.99990582,81228329,1558,1559,1558,1560,0,0,0,0,0,0,0,0,0,0
1709536186.09986591,81328289,1549,1549,1541,1557,0,0,0,0,0,0,0,0,0,0
1709536186.19982576,81428249,1542,1541,1529,1553,0,0,0,0,0,0,0,0,0,0
1709536186.29978585,81528209,1536,1536,1526,1546,0,0,0,0,0,0,0,0,0,0
1709536186.39974594,81628169,1530,1530,1525,1535,0,0,0,0,0,0,0,0,0,0
1709536186.50053883,81728962,1527,1525,1525,1526,0,0,0,0,0,0,0,0,0,0
1709536186.60049891,81828922,1527,1527,1528,1525,0,0,0,0,0,0,0,0,0,0
1709536186.70045877,81928882,1529,1529,1531,1526,0,0,0,0,0,0,0,0,0,0
1709536186.80041885,82028842,1532,1532,1535,1528,0,0,0,0,0,0,0,0,0,0
1709536186.90037894,82128802,1535,1536,1538,1533,0,0,0,0,0,0,0,0,0,0
1709536187.00033879,82228762,1538,1538,1541,1537,0,0,0,0,0,0,0,0,0,0
1709536187.10029888,82328722,1542,1542,1543,1541,0,0,0,0,0,0,0,0,0,0
1709536187.20025897,82428682,1545,1545,1545,1545,0,0,0,0,0,0,0,0,0,0
1709536187.30021882,82528642,1549,1549,1549,1550,0,0,0,0,0,0,0,0,0,0
1709536187.40017891,82628602,1551,1551,1551,1553,0,0,0,0,0,0,0,0,0,0
1709536187.50013900,82728562,1553,1553,1552,1555,0,0,0,0,0,0,0,0,0,0
1709536187.60009885,82828522,1557,1558,1553,1555,0,0,0,0,0,0,0,0,0,0
1709536187.70005894,82928482,1560,1559,1557,1559,0,0,0,0,0,0,0,0,0,0
1709536187.80001879,83028442,1559,1559,1561,1561,0,0,0,0,0,0,0,0,0,0
1709536187.89997888,83128402,1560,1560,1564,1564,0,0,0,0,0,0,0,0,0,0
1709536187.99993896,83228362,1561,1561,1567,1566,0,0,0,0,0,0,0,0,0,0
1709536188.09989882,83328322,1562,1563,1569,1568,0,0,0,0,0,0,0,0,0,0
1709536188.19985890,83428282,1564,1565,1570,1569,0,0,0,0,0,0,0,0,0,0
1709536188.29981899,83528242,1566,1566,1570,1570,0,0,0,0,0,0,0,0,0,0
1709536188.39977884,83628202,1567,1568,1569,1570,0,0,0,0,0,0,0,0,0,0
1709536188.49973893,83728162,1568,1568,1569,1569,0,0,0,0,0,0,0,0,0,0
1709536188.60053182,83828955,1570,1570,1569,1569,0,0,0,0,0,0,0,0,0,0
1709536188.70049191,83928915,1572,1572,1570,1570,0,0,0,0,0,0,0,0,0,0
1709536188.80045199,84028875,1572,1573,1569,1570,0,0,0,0,0,0,0,0,0,0
1709536188.90041184,84128835,1574,1574,1571,1571,0,0,0,0,0,0,0,0,0,0
1709536189.00037193,84228795,1575,1575,1572,1571,0,0,0,0,0,0,0,0,0,0
1709536189.10033178,84328755,1577,1577,1574,1573,0,0,0,0,0,0,0,0,0,0
1709536189.20029187,84428715,1576,1576,1574,1573,0,0,0,0,0,0,0,0,0,0
1709536189.30025196,84528675,1576,1576,1574,1574,0,0,0,0,0,0,0,0,0,0
1709536189.40021181,84628635,1576,1576,1575,1575,0,0,0,0,0,0,0,0,0,0
1709536189.50017190,84728595,1575,1576,1575,1575,0,0,0,0,0,0,0,0,0,0
1709536189.60013199,84828555,1576,1576,1576,1576,0,0,0,0,0,0,0,0,0,0
1709536189.70009184,84928515,1575,1575,1575,1576,0,0,0,0,0,0,0,0,0,0
1709536189.80005193,85028475,1576,1576,1577,1577,0,0,0,0,0,0,0,0,0,0
1709536189.90001178,85128435,1576,1576,1577,1577,0,0,0,0,0,0,0,0,0,0
1709536189.99997187,85228395,1575,1575,1576,1576,0,0,0,0,0,0,0,0,0,0
1709536190.09993196,85328355,1576,1576,1577,1577,0,0,0,0,0,0,0,0,0,0
1709536190.19989181,85428315,1576,1576,1577,1577,0,0,0,0,0,0,0,0,0,0
1709536190.29985189,85528275,1577,1577,1577,1577,0,0,0,0,0,0,0,0,0,0
1709536190.39981198,85628235,1577,1577,1578,1578,0,0,0,0,0,0,0,0,0,0
1709536190.49977183,85728195,1578,1578,1578,1578,0,0,0,0,0,0,0,0,0,0
1709536190.59973192,85828155,1579,1579,1578,1578,0,0,0,0,0,0,0,0,0,0
1709536190.70052481,85928948,1577,1577,1577,1577,0,0,0,0,0,0,0,0,0,0
1709536190.80048490,86028908,1578,1578,1578,1578,0,0,0,0,0,0,0,0,0,0
1709536190.90044498,86128868,1579,1579,1579,1579,0,0,0,0,0,0,0,0,0,0
1709536191.00040483,86228828,1578,1578,1578,1578,0,0,0,0,0,0,0,0,0,0
1709536191.10036492,86328788,1580,1579,1579,1579,0,0,0,0,0,0,0,0,0,0
1709536191.20032477,86428748,1578,1578,1578,1578,0,0,0,0,0,0,0,0,0,0
1709536191.30028486,86528708,1579,1579,1579,1580,0,0,0,0,0,0,0,0,0,0
1709536191.40024495,86628668,1579,1579,1580,1579,0,0,0,0,0,0,0,0,0,0
1709536191.50020480,86728628,1579,1580,1580,1580,0,0,0,0,0,0,0,0,0,0
1709536191.60016489,86828588,1579,1579,1580,1579,0,0,0,0,0,0,0,0,0,0
1709536191.70012498,86928548,1579,1578,1579,1579,0,0,0,0,0,0,0,0,0,0
1709536191.80008483,87028508,1579,1579,1579,1579,0,0,0,0,0,0,0,0,0,0
1709536191.90004492,87128468,1580,1580,1580,1580,0,0,0,0,0,0,0,0,0,0
1709536192.00000477,87228428,1580,1580,1580,1580,0,0,0,0,0,0,0,0,0,0
1709536192.09996486,87328388,1580,1580,1580,1580,0,0,0,0,0,0,0,0,0,0
1709536192.19992495,87428348,1580,1580,1580,1580,0,0,0,0,0,0,0,0,0,0
1709536192.29988480,87528308,1580,1580,1579,1580,0,0,0,0,0,0,0,0,0,0
1709536192.39984488,87628268,1580,1580,1580,1579,0,0,0,0,0,0,0,0,0,0
1709536192.49980497,87728228,1581,1581,1581,1581,0,0,0,0,0,0,0,0,0,0
1709536192.59976482,87828188,1580,1580,1580,1580,0,0,0,0,0,0,0,0,0,0
1709536192.70055795,87928981,1580,1581,1581,1581,0,0,0,0,0,0,0,0,0,0
1709536192.80051780,88028941,1581,1581,1581,1581,0,0,0,0,0,0,0,0,0,0
1709536192.90047789,88128901,1581,1581,1581,1581,0,0,0,0,0,0,0,0,0,0
1709536193.00043797,88228861,1581,1581,1581,1581,0,0,0,0,0,0,0,0,0,0
1709536193.10039783,88328821,1581,1581,1581,1581,0,0,0,0,0,0,0,0,0,0
1709536193.20035791,88428781,1581,1580,1581,1581,0,0,0,0,0,0,0,0,0,0
1709536193.30031776,88528741,1582,1582,1582,1582,0,0,0,0,0,0,0,0,0,0
1709536193.40027785,88628701,1581,1581,1581,1581,0,0,0,0,0,0,0,0,0,0
1709536193.50023794,88728661,1580,1580,1581,1580,0,0,0,0,0,0,0,0,0,0
1709536193.60019779,88828621,1580,1581,1580,1580,0,0,0,0,0,0,0,0,0,0
1709536193.70015788,88928581,1580,1580,1581,1580,0,0,0,0,0,0,0,0,0,0
1709536193.80011797,89028541,1580,1581,1586,1575,0,0,0,0,0,0,0,0,0,0
1709536193.90007782,89128501,1579,1580,1585,1571,0,0,0,0,0,0,0,0,0,0
1709536194.00003791,89228461,1579,1581,1579,1573,0,0,0,0,0,0,0,0,0,0
1709536194.09999800,89328421,1577,1580,1570,1571,0,0,0,0,0,0,0,0,0,0
1709536194.19995785,89428381,1576,1579,1563,1569,0,0,0,0,0,0,0,0,0,0
1709536194.29991794,89528341,1577,1579,1558,1565,0,0,0,0,0,0,0,0,0,0
1709536194.39987779,89628301,1578,1578,1555,1560,0,0,0,0,0,0,0,0,0,0
1709536194.49983788,89728261,1580,1578,1555,1556,0,0,0,0,0,0,0,0,0,0
1709536194.59979796,89828221,1579,1578,1556,1554,0,0,0,0,0,0,0,0,0,0
1709536194.69975781,89928181,1579,1578,1556,1553,0,0,0,0,0,0,0,0,0,0
1709536194.80055094,90028974,1578,1577,1556,1553,0,0,0,0,0,0,0,0,0,0
1709536194.90051079,90128934,1576,1578,1555,1554,0,0,0,0,0,0,0,0,0,0
1709536195.00047088,90228894,1576,1577,1555,1554,0,0,0,0,0,0,0,0,0,0
1709536195.10043097,90328854,1575,1577,1553,1553,0,0,0,0,0,0,0,0,0,0
1709536195.20039082,90428814,1575,1577,1552,1552,0,0,0,0,0,0,0,0,0,0
1709536195.30035090,90528774,1576,1578,1550,1551,0,0,0,0,0,0,0,0,0,0
1709536195.40031099,90628734,1578,1579,1548,1549,0,0,0,0,0,0,0,0,0,0
1709536195.50027084,90728694,1581,1582,1547,1546,0,0,0,0,0,0,0,0,0,0
1709536195.60023093,90828654,1584,1585,1544,1544,0,0,0,0,0,0,0,0,0,0
1709536195.70019078,90928614,1587,1587,1541,1541,0,0,0,0,0,0,0,0,0,0
1709536195.80015087,91028574,1590,1591,1539,1539,0,0,0,0,0,0,0,0,0,0
1709536195.90011096,91128534,1593,1593,1536,1536,0,0,0,0,0,0,0,0,0,0
1709536196.00007081,91228494,1595,1595,1536,1536,0,0,0,0,0,0,0,0,0,0
1709536196.10003090,91328454,1595,1595,1535,1535,0,0,0,0,0,0,0,0,0,0
1709536196.19999099,91428414,1595,1594,1535,1537,0,0,0,0,0,0,0,0,0,0
1709536196.29995084,91528374,1593,1593,1538,1541,0,0,0,0,0,0,0,0,0,0
1709536196.39991093,91628334,1590,1589,1543,1546,0,0,0,0,0,0,0,0,0,0
1709536196.49987078,91728294,1584,1581,1550,1553,0,0,0,0,0,0,0,0,0,0
1709536196.59983087,91828254,1576,1573,1560,1562,0,0,0,0,0,0,0,0,0,0
1709536196.69979095,91928214,1567,1562,1572,1574,0,0,0,0,0,0,0,0,0,0
1709536196.79975080,92028174,1556,1552,1584,1586,0,0,0,0,0,0,0,0,0,0
1709536196.90054393,92128967,1545,1543,1596,1597,0,0,0,0,0,0,0,0,0,0
1709536197.00050378,92228927,1535,1535,1605,1605,0,0,0,0,0,0,0,0,0,0
1709536197.10046387,92328887,1530,1531,1613,1611,0,0,0,0,0,0,0,0,0,0
1709536197.20042396,92428847,1528,1530,1615,1614,0,0,0,0,0,0,0,0,0,0
1709536197.30038381,92528807,1531,1532,1615,1614,0,0,0,0,0,0,0,0,0,0
1709536197.40034389,92628767,1535,1538,1610,1610,0,0,0,0,0,0,0,0,0,0
1709536197.50030398,92728727,1542,1545,1605,1605,0,0,0,0,0,0,0,0,0,0
1709536197.60026383,92828687,1551,1553,1598,1598,0,0,0,0,0,0,0,0,0,0
1709536197.70022392,92928647,1560,1561,1590,1590,0,0,0,0,0,0,0,0,0,0
1709536197.80018377,93028607,1569,1569,1583,1582,0,0,0,0,0,0,0,0,0,0
1709536197.90014386,93128567,1576,1575,1576,1576,0,0,0,0,0,0,0,0,0,0
1709536198.00010395,93228527,1582,1581,1571,1571,0,0,0,0,0,0,0,0,0,0
1709536198.10006380,93328487,1586,1584,1568,1568,0,0,0,0,0,0,0,0,0,0
1709536198.20002389,93428447,1587,1586,1566,1566,0,0,0,0,0,0,0,0,0,0
1709536198.29998398,93528407,1587,1587,1567,1566,0,0,0,0,0,0,0,0,0,0
1709536198.39994383,93628367,1586,1586,1568,1568,0,0,0,0,0,0,0,0,0,0
1709536198.49990392,93728327,1584,1584,1570,1570,0,0,0,0,0,0,0,0,0,0
1709536198.59986377,93828287,1582,1582,1573,1574,0,0,0,0,0,0,0,0,0,0
1709536198.69982386,93928247,1578,1578,1575,1575,0,0,0,0,0,0,0,0,0,0
1709536198.79978395,94028207,1576,1576,1578,1578,0,0,0,0,0,0,0,0,0,0
1709536198.89974380,94128167,1574,1575,1581,1581,0,0,0,0,0,0,0,0,0,0
1709536199.00053692,94228960,1573,1574,1583,1583,0,0,0,0,0,0,0,0,0,0
1709536199.10049677,94328920,1573,1573,1584,1584,0,0,0,0,0,0,0,0,0,0
1709536199.20045686,94428880,1573,1574,1585,1584,0,0,0,0,0,0,0,0,0,0
1709536199.30041695,94528840,1573,1574,1584,1583,0,0,0,0,0,0,0,0,0,0
1709536199.40037680,94628800,1574,1575,1583,1583,0,0,0,0,0,0,0,0,0,0
1709536199.50033689,94728760,1575,1576,1581,1581,0,0,0,0,0,0,0,0,0,0
1709536199.60029697,94828720,1577,1577,1580,1581,0,0,0,0,0,0,0,0,0,0
1709536199.70025682,94928680,1579,1578,1579,1579,0,0,0,0,0,0,0,0,0,0
1709536199.80021691,95028640,1579,1579,1578,1578,0,0,0,0,0,0,0,0,0,0
1709536199.90017676,95128600,1581,1581,1579,1578,0,0,0,0,0,0,0,0,0,0
1709536200.00013685,95228560,1582,1582,1578,1577,0,0,0,0,0,0,0,0,0,0
1709536200.10009694,95328520,1582,1581,1577,1577,0,0,0,0,0,0,0,0,0,0
1709536200.20005679,95428480,1582,1583,1578,1578,0,0,0,0,0,0,0,0,0,0
1709536200.30001688,95528440,1581,1581,1577,1578,0,0,0,0,0,0,0,0,0,0
1709536200.39997697,95628400,1581,1581,1578,1579,0,0,0,0,0,0,0,0,0,0
1709536200.49993682,95728360,1581,1580,1579,1579,0,0,0,0,0,0,0,0,0,0
1709536200.59989691,95828320,1581,1580,1580,1580,0,0,0,0,0,0,0,0,0,0
1709536200.69985700,95928280,1579,1579,1580,1580,0,0,0,0,0,0,0,0,0,0
1709536200.79981685,96028240,1580,1579,1581,1581,0,0,0,0,0,0,0,0,0,0
1709536200.89977694,96128200,1580,1579,1582,1581,0,0,0,0,0,0,0,0,0,0
1709536200.99973679,96228160,1580,1580,1582,1582,0,0,0,0,0,0,0,0,0,0
1709536201.10052991,96328953,1579,1579,1582,1582,0,0,0,0,0,0,0,0,0,0
1709536201.20049000,96428913,1577,1579,1580,1581,0,0,0,0,0,0,0,0,0,0
1709536201.30044985,96528873,1577,1579,1579,1581,0,0,0,0,0,0,0,0,0,0
1709536201.40040994,96628833,1578,1579,1579,1580,0,0,0,0,0,0,0,0,0,0
1709536201.50036979,96728793,1580,1580,1580,1581,0,0,0,0,0,0,0,0,0,0
1709536201.60032988,96828753,1579,1579,1578,1578,0,0,0,0,0,0,0,0,0,0
1709536201.70028996,96928713,1580,1579,1578,1578,0,0,0,0,0,0,0,0,0,0
1709536201.80024981,97028673,1581,1583,1584,1573,0,0,0,0,0,0,0,0,0,0
1709536201.90020990,97128633,1582,1585,1584,1570,0,0,0,0,0,0,0,0,0,0
1709536202.00016999,97228593,1580,1584,1574,1569,0,0,0,0,0,0,0,0,0,0
1709536202.10012984,97328553,1580,1582,1566,1568,0,0,0,0,0,0,0,0,0,0
1709536202.20008993,97428513,1581,1582,1559,1565,0,0,0,0,0,0,0,0,0,0
1709536202.30004978,97528473,1580,1581,1553,1560,0,0,0,0,0,0,0,0,0,0
1709536202.40000987,97628433,1581,1580,1551,1556,0,0,0,0,0,0,0,0,0,0
1709536202.49996996,97728393,1581,1580,1551,1552,0,0,0,0,0,0,0,0,0,0
1709536202.59992981,97828353,1580,1579,1552,1550,0,0,0,0,0,0,0,0,0,0
1709536202.69988990,97928313,1581,1580,1554,1551,0,0,0,0,0,0,0,0,0,0
1709536202.79984999,98028273,1579,1579,1554,1552,0,0,0,0,0,0,0,0,0,0
1709536202.89980984,98128233,1578,1579,1554,1553,0,0,0,0,0,0,0,0,0,0
1709536202.99976993,98228193,1429,1524,1575,1576,0,0,0,0,0,0,0,0,0,0
1709536203.10056281,98328986,1515,1507,1589,1592,0,0,0,0,0,0,0,0,0,0
1709536203.20052290,98428946,1583,1524,1600,1604,0,0,0,0,0,0,0,0,0,0
1709536203.30048299,98528906,1635,1561,1611,1615,0,0,0,0,0,0,0,0,0,0
1709536203.40044284,98628866,1660,1597,1614,1617,0,0,0,0,0,0,0,0,0,0
1709536203.50040293,98728826,1658,1620,1603,1604,0,0,0,0,0,0,0,0,0,0
1709536203.60036278,98828786,1639,1632,1581,1582,0,0,0,0,0,0,0,0,0,0
1709536203.70032287,98928746,1619,1637,1561,1560,0,0,0,0,0,0,0,0,0,0
1709536203.80028296,99028706,1605,1640,1546,1541,0,0,0,0,0,0,0,0,0,0
1709536203.90024281,99128666,1603,1638,1539,1529,0,0,0,0,0,0,0,0,0,0
1709536204.00020289,99228626,1607,1633,1536,1522,0,0,0,0,0,0,0,0,0,0
1709536204.10016298,99328586,1611,1624,1533,1518,0,0,0,0,0,0,0,0,0,0
1709536204.20012283,99428546,1612,1614,1530,1520,0,0,0,0,0,0,0,0,0,0
1709536204.30008292,99528506,1610,1604,1531,1529,0,0,0,0,0,0,0,0,0,0
1709536204.40004277,99628466,1603,1594,1532,1538,0,0,0,0,0,0,0,0,0,0
1709536204.50000286,99728426,1594,1587,1537,1551,0,0,0,0,0,0,0,0,0,0
1709536204.59996295,99828386,1584,1580,1543,1560,0,0,0,0,0,0,0,0,0,0
1709536204.69992280,99928346,1573,1573,1551,1567,0,0,0,0,0,0,0,0,0,0
1709536204.79988289,100028306,1564,1565,1562,1574,0,0,0,0,0,0,0,0,0,0
1709536204.89984298,100128266,1556,1556,1572,1578,0,0,0,0,0,0,0,0,0,0
1709536204.99980283,100228226,1549,1547,1583,1583,0,0,0,0,0,0,0,0,0,0
1709536205.09976292,100328186,1543,1540,1593,1590,0,0,0,0,0,0,0,0,0,0
1709536205.20055580,100428979,1538,1534,1602,1597,0,0,0,0,0,0,0,0,0,0
1709536205.30051589,100528939,1534,1530,1609,1604,0,0,0,0,0,0,0,0,0,0
1709536205.40047598,100628899,1529,1527,1613,1610,0,0,0,0,0,0,0,0,0,0
1709536205.50043583,100728859,1527,1529,1615,1612,0,0,0,0,0,0,0,0,0,0
1709536205.60039592,100828819,1528,1532,1612,1611,0,0,0,0,0,0,0,0,0,0
1709536205.70035577,100928779,1532,1537,1607,1606,0,0,0,0,0,0,0,0,0,0
1709536205.80031586,101028739,1540,1544,1600,1600,0,0,0,0,0,0,0,0,0,0
1709536205.90027595,101128699,1550,1552,1593,1592,0,0,0,0,0,0,0,0,0,0
1709536206.00023580,101228659,1560,1561,1585,1585,0,0,0,0,0,0,0,0,0,0
1709536206.10019588,101328619,1570,1569,1578,1578,0,0,0,0,0,0,0,0,0,0
1709536206.20015597,101428579,1578,1575,1571,1572,0,0,0,0,0,0,0,0,0,0
1709536206.30011582,101528539,1583,1580,1567,1567,0,0,0,0,0,0,0,0,0,0
1709536206.40007591,101628499,1587,1584,1565,1565,0,0,0,0,0,0,0,0,0,0
1709536206.50003576,101728459,1589,1586,1565,1565,0,0,0,0,0,0,0,0,0,0
1709536206.59999585,101828419,1589,1587,1566,1566,0,0,0,0,0,0,0,0,0,0
1709536206.69995594,101928379,1588,1588,1567,1568,0,0,0,0,0,0,0,0,0,0
1709536206.79991579,102028339,1587,1587,1569,1569,0,0,0,0,0,0,0,0,0,0
1709536206.89987588,102128299,1585,1585,1570,1570,0,0,0,0,0,0,0,0,0,0
1709536206.99983597,102228259,1583,1584,1572,1571,0,0,0,0,0,0,0,0,0,0
1709536207.09979582,102328219,1582,1583,1574,1574,0,0,0,0,0,0,0,0,0,0
1709536207.19975591,102428179,1581,1581,1575,1575,0,0,0,0,0,0,0,0,0,0
1709536207.30054879,102528972,1579,1580,1576,1576,0,0,0,0,0,0,0,0,0,0
1709536207.40050888,102628932,1578,1579,1578,1578,0,0,0,0,0,0,0,0,0,0
1709536207.50046897,102728892,1578,1578,1578,1579,0,0,0,0,0,0,0,0,0,0
1709536207.60042882,102828852,1577,1578,1580,1580,0,0,0,0,0,0,0,0,0,0
1709536207.70038891,102928812,1578,1578,1581,1581,0,0,0,0,0,0,0,0,0,0
1709536207.80034900,103028772,1578,1579,1581,1581,0,0,0,0,0,0,0,0,0,0
1709536207.90030885,103128732,1578,1578,1581,1581,0,0,0,0,0,0,0,0,0,0
1709536208.00026894,103228692,1578,1579,1581,1581,0,0,0,0,0,0,0,0,0,0
1709536208.10022879,103328652,1579,1579,1582,1581,0,0,0,0,0,0,0,0,0,0
1709536208.20018888,103428612,1580,1580,1580,1581,0,0,0,0,0,0,0,0,0,0
1709536208.30014896,103528572,1580,1580,1580,1580,0,0,0,0,0,0,0,0,0,0
1709536208.40010881,103628532,1581,1581,1581,1581,0,0,0,0,0,0,0,0,0,0
1709536208.50006890,103728492,1582,1582,1581,1580,0,0,0,0,0,0,0,0,0,0
1709536208.60002899,103828452,1582,1582,1580,1580,0,0,0,0,0,0,0,0,0,0
1709536208.69998884,103928412,1583,1583,1581,1581,0,0,0,0,0,0,0,0,0,0
1709536208.79994893,104028372,1583,1582,1580,1580,0,0,0,0,0,0,0,0,0,0
1709536208.89990878,104128332,1583,1582,1580,1580,0,0,0,0,0,0,0,0,0,0
1709536208.99986887,104228292,1583,1583,1581,1581,0,0,0,0,0,0,0,0,0,0
1709536209.09982896,104328252,1583,1583,1581,1581,0,0,0,0,0,0,0,0,0,0
1709536209.19978881,104428212,1583,1583,1582,1581,0,0,0,0,0,0,0,0,0,0
1709536209.29974890,104528172,1582,1582,1581,1581,0,0,0,0,0,0,0,0,0,0
1709536209.40054178,104628965,1582,1582,1581,1581,0,0,0,0,0,0,0,0,0,0
1709536209.50050187,104728925,1583,1583,1583,1582,0,0,0,0,0,0,0,0,0,0
1709536209.60046196,104828885,1583,1583,1584,1581,0,0,0,0,0,0,0,0,0,0
1709536209.70042181,104928845,1583,1584,1590,1576,0,0,0,0,0,0,0,0,0,0
1709536209.80038190,105028805,1581,1581,1583,1575,0,0,0,0,0,0,0,0,0,0
1709536209.90034199,105128765,1579,1580,1575,1574,0,0,0,0,0,0,0,0,0,0
1709536210.00030184,105228725,1577,1579,1567,1572,0,0,0,0,0,0,0,0,0,0
1709536210.10026193,105328685,1577,1580,1562,1569,0,0,0,0,0,0,0,0,0,0
1709536210.20022178,105428645,1577,1579,1560,1564,0,0,0,0,0,0,0,0,0,0
1709536210.30018187,105528605,1577,1578,1558,1560,0,0,0,0,0,0,0,0,0,0
1709536210.40014195,105628565,1579,1579,1559,1559,0,0,0,0,0,0,0,0,0,0
1709536210.50010180,105728525,1579,1578,1559,1557,0,0,0,0,0,0,0,0,0,0
1709536210.60006189,105828485,1579,1578,1560,1557,0,0,0,0,0,0,0,0,0,0
1709536210.70002198,105928445,1577,1577,1558,1556,0,0,0,0,0,0,0,0,0,0
1709536210.79998183,106028405,1576,1576,1556,1556,0,0,0,0,0,0,0,0,0,0
1709536210.89994192,106128365,1576,1576,1555,1556,0,0,0,0,0,0,0,0,0,0
1709536210.99990177,106228325,1575,1575,1554,1556,0,0,0,0,0,0,0,0,0,0
1709536211.09986186,106328285,1575,1575,1554,1556,0,0,0,0,0,0,0,0,0,0
1709536211.19982195,106428245,1574,1574,1553,1554,0,0,0,0,0,0,0,0,0,0
1709536211.29978180,106528205,1573,1575,1552,1553,0,0,0,0,0,0,0,0,0,0
1709536211.39974189,106628165,1573,1575,1552,1551,0,0,0,0,0,0,0,0,0,0
1709536211.50053477,106728958,1574,1577,1551,1551,0,0,0,0,0,0,0,0,0,0
1709536211.60049486,106828918,1576,1577,1551,1550,0,0,0,0,0,0,0,0,0,0
1709536211.70045495,106928878,1577,1578,1549,1548,0,0,0,0,0,0,0,0,0,0
1709536211.80041480,107028838,1580,1580,1548,1548,0,0,0,0,0,0,0,0,0,0
1709536211.90037489,107128798,1581,1581,1546,1547,0,0,0,0,0,0,0,0,0,0
1709536212.00033498,107228758,1582,1583,1546,1547,0,0,0,0,0,0,0,0,0,0
1709536212.10029483,107328718,1584,1585,1545,1546,0,0,0,0,0,0,0,0,0,0
1709536212.20025492,107428678,1586,1586,1544,1546,0,0,0,0,0,0,0,0,0,0
1709536212.30021477,107528638,1586,1587,1544,1545,0,0,0,0,0,0,0,0,0,0
1709536212.40017486,107628598,1587,1587,1546,1548,0,0,0,0,0,0,0,0,0,0
1709536212.50013494,107728558,1586,1584,1550,1551,0,0,0,0,0,0,0,0,0,0
1709536212.60009480,107828518,1584,1580,1555,1557,0,0,0,0,0,0,0,0,0,0
1709536212.70005488,107928478,1579,1576,1561,1563,0,0,0,0,0,0,0,0,0,0
1709536212.80001497,108028438,1573,1568,1568,1571,0,0,0,0,0,0,0,0,0,0
1709536212.89997482,108128398,1564,1561,1576,1579,0,0,0,0,0,0,0,0,0,0
1709536212.99993491,108228358,1557,1555,1586,1587,0,0,0,0,0,0,0,0,0,0
1709536213.09989500,108328318,1549,1549,1593,1594,0,0,0,0,0,0,0,0,0,0
1709536213.19985485,108428278,1544,1545,1599,1599,0,0,0,0,0,0,0,0,0,0
1709536213.29981494,108528238,1541,1544,1603,1602,0,0,0,0,0,0,0,0,0,0
1709536213.39977479,108628198,1541,1544,1604,1603,0,0,0,0,0,0,0,0,0,0
1709536213.49973488,108728158,1544,1547,1604,1603,0,0,0,0,0,0,0,0,0,0
1709536213.60052776,108828951,1548,1549,1601,1599,0,0,0,0,0,0,0,0,0,0
1709536213.70048785,108928911,1553,1554,1596,1594,0,0,0,0,0,0,0,0,0,0
1709536213.80044794,109028871,1559,1559,1591,1590,0,0,0,0,0,0,0,0,0,0
1709536213.90040779,109128831,1566,1566,1586,1586,0,0,0,0,0,0,0,0,0,0
1709536214.00036788,109228791,1572,1570,1580,1581,0,0,0,0,0,0,0,0,0,0
1709536214.10032797,109328751,1576,1574,1576,1577,0,0,0,0,0,0,0,0,0,0
1709536214.20028782,109428711,1581,1579,1574,1574,0,0,0,0,0,0,0,0,0,0
1709536214.30024791,109528671,1583,1581,1571,1571,0,0,0,0,0,0,0,0,0,0
1709536214.40020800,109628631,1584,1584,1572,1571,0,0,0,0,0,0,0,0,0,0
1709536214.50016785,109728591,1584,1584,1572,1571,0,0,0,0,0,0,0,0,0,0
1709536214.60012794,109828551,1583,1582,1573,1572,0,0,0,0,0,0,0,0,0,0
1709536214.70008779,109928511,1581,1580,1574,1575,0,0,0,0,0,0,0,0,0,0
1709536214.80004787,110028471,1580,1579,1577,1577,0,0,0,0,0,0,0,0,0,0
1709536214.90000796,110128431,1577,1576,1578,1578,0,0,0,0,0,0,0,0,0,0
1709536214.99996781,110228391,1575,1576,1581,1581,0,0,0,0,0,0,0,0,0,0
1709536215.09992790,110328351,1574,1574,1580,1581,0,0,0,0,0,0,0,0,0,0
1709536215.19988799,110428311,1574,1574,1582,1582,0,0,0,0,0,0,0,0,0,0
1709536215.29984784,110528271,1574,1575,1582,1582,0,0,0,0,0,0,0,0,0,0
1709536215.39980793,110628231,1575,1576,1581,1581,0,0,0,0,0,0,0,0,0,0
1709536215.49976778,110728191,1576,1577,1580,1581,0,0,0,0,0,0,0,0,0,0
1709536215.60056090,110828984,1578,1578,1579,1579,0,0,0,0,0,0,0,0,0,0
1709536215.70052099,110928944,1580,1580,1578,1578,0,0,0,0,0,0,0,0,0,0
1709536215.80048084,111028904,1582,1582,1577,1577,0,0,0,0,0,0,0,0,0,0
1709536215.90044093,111128864,1584,1584,1577,1577,0,0,0,0,0,0,0,0,0,0
1709536216.00040078,111228824,1584,1584,1577,1576,0,0,0,0,0,0,0,0,0,0
1709536216.10036087,111328784,1584,1584,1578,1577,0,0,0,0,0,0,0,0,0,0
1709536216.20032096,111428744,1584,1584,1579,1578,0,0,0,0,0,0,0,0,0,0
1709536216.30028081,111528704,1584,1583,1580,1580,0,0,0,0,0,0,0,0,0,0
1709536216.40024090,111628664,1582,1582,1581,1581,0,0,0,0,0,0,0,0,0,0
1709536216.50020099,111728624,1581,1581,1582,1583,0,0,0,0,0,0,0,0,0,0
1709536216.60016084,111828584,1580,1580,1583,1583,0,0,0,0,0,0,0,0,0,0
1709536216.70012093,111928544,1579,1580,1583,1584,0,0,0,0,0,0,0,0,0,0
1709536216.80008078,112028504,1578,1578,1583,1583,0,0,0,0,0,0,0,0,0,0
1709536216.90004086,112128464,1578,1579,1583,1583,0,0,0,0,0,0,0,0,0,0
1709536217.00000095,112228424,1577,1578,1583,1582,0,0,0,0,0,0,0,0,0,0
1709536217.09996080,112328384,1578,1579,1582,1582,0,0,0,0,0,0,0,0,0,0
1709536217.19992089,112428344,1579,1580,1582,1582,0,0,0,0,0,0,0,0,0,0
1709536217.29988098,112528304,1580,1581,1582,1582,0,0,0,0,0,0,0,0,0,0
1709536217.39984083,112628264,1581,1581,1581,1581,0,0,0,0,0,0,0,0,0,0
1709536217.49980092,112728224,1582,1582,1580,1581,0,0,0,0,0,0,0,0,0,0
1709536217.59976077,112828184,1583,1583,1581,1581,0,0,0,0,0,0,0,0,0,0
1709536217.70055389,112928977,1583,1582,1582,1578,0,0,0,0,0,0,0,0,0,0
1709536217.80051398,113028937,1584,1583,1588,1573,0,0,0,0,0,0,0,0,0,0
1709536217.90047383,113128897,1582,1581,1584,1574,0,0,0,0,0,0,0,0,0,0
1709536218.00043392,113228857,1579,1577,1575,1574,0,0,0,0,0,0,0,0,0,0
1709536218.10039377,113328817,1575,1574,1569,1574,0,0,0,0,0,0,0,0,0,0
1709536218.20035386,113428777,1571,1571,1565,1573,0,0,0,0,0,0,0,0,0,0
1709536218.30031395,113528737,1567,1569,1564,1570,0,0,0,0,0,0,0,0,0,0
1709536218.40027380,113628697,1566,1568,1565,1568,0,0,0,0,0,0,0,0,0,0
1709536218.50023389,113728657,1565,1566,1566,1566,0,0,0,0,0,0,0,0,0,0
1709536218.60019398,113828617,1564,1565,1567,1565,0,0,0,0,0,0,0,0,0,0
1709536218.70015383,113928577,1564,1564,1567,1565,0,0,0,0,0,0,0,0,0,0
1709536218.80011392,114028537,1564,1564,1567,1565,0,0,0,0,0,0,0,0,0,0
1709536218.90007377,114128497,1563,1563,1566,1564,0,0,0,0,0,0,0,0,0,0
1709536219.00003386,114228457,1563,1562,1565,1564,0,0,0,0,0,0,0,0,0,0
1709536219.09999394,114328417,1563,1562,1563,1564,0,0,0,0,0,0,0,0,0,0
1709536219.19995379,114428377,1562,1562,1562,1563,0,0,0,0,0,0,0,0,0,0
1709536219.29991388,114528337,1561,1561,1561,1562,0,0,0,0,0,0,0,0,0,0
1709536219.39987397,114628297,1562,1562,1562,1562,0,0,0,0,0,0,0,0,0,0
1709536219.49983382,114728257,1561,1561,1561,1560,0,0,0,0,0,0,0,0,0,0
1709536219.59979391,114828217,1560,1560,1560,1558,0,0,0,0,0,0,0,0,0,0
1709536219.69975400,114928177,1559,1559,1558,1558,0,0,0,0,0,0,0,0,0,0
1709536219.80054688,115028970,1558,1558,1558,1557,0,0,0,0,0,0,0,0,0,0
1709536219.90050697,115128930,1558,1558,1558,1557,0,0,0,0,0,0,0,0,0,0
1709536220.00046682,115228890,1557,1558,1558,1556,0,0,0,0,0,0,0,0,0,0
1709536220.10042691,115328850,1558,1559,1559,1558,0,0,0,0,0,0,0,0,0,0
1709536220.20038676,115428810,1559,1559,1560,1558,0,0,0,0,0,0,0,0,0,0
1709536220.30034685,115528770,1559,1558,1560,1558,0,0,0,0,0,0,0,0,0,0
1709536220.40030694,115628730,1559,1559,1561,1558,0,0,0,0,0,0,0,0,0,0
1709536220.50026679,115728690,1559,1558,1559,1560,0,0,0,0,0,0,0,0,0,0
1709536220.60022688,115828650,1559,1560,1558,1562,0,0,0,0,0,0,0,0,0,0
1709536220.70018697,115928610,1561,1561,1558,1565,0,0,0,0,0,0,0,0,0,0
1709536220.80014682,116028570,1561,1562,1558,1564,0,0,0,0,0,0,0,0,0,0
1709536220.90010691,116128530,1562,1561,1559,1564,0,0,0,0,0,0,0,0,0,0
1709536221.00006700,116228490,1561,1561,1561,1561,0,0,0,0,0,0,0,0,0,0
1709536221.10002685,116328450,1561,1561,1562,1559,0,0,0,0,0,0,0,0,0,0
1709536221.19998693,116428410,1559,1559,1560,1556,0,0,0,0,0,0,0,0,0,0
1709536221.29994678,116528370,1559,1559,1558,1559,0,0,0,0,0,0,0,0,0,0
1709536221.39990687,116628330,1557,1557,1553,1559,0,0,0,0,0,0,0,0,0,0
1709536221.49986696,116728290,1554,1553,1549,1555,0,0,0,0,0,0,0,0,0,0
1709536221.59982681,116828250,1548,1549,1547,1547,0,0,0,0,0,0,0,0,0,0
1709536221.69978690,116928210,1541,1542,1542,1540,0,0,0,0,0,0,0,0,0,0
1709536221.79974699,117028170,1534,1534,1537,1533,0,0,0,0,0,0,0,0,0,0
1709536221.90053988,117128963,1526,1526,1529,1527,0,0,0,0,0,0,0,0,0,0
1709536222.00049996,117228923,1519,1519,1523,1523,0,0,0,0,0,0,0,0,0,0
1709536222.10045981,117328883,1516,1516,1520,1522,0,0,0,0,0,0,0,0,0,0
1709536222.20041990,117428843,1516,1517,1521,1524,0,0,0,0,0,0,0,0,0,0
1709536222.30037999,117528803,1518,1519,1523,1525,0,0,0,0,0,0,0,0,0,0
1709536222.40033984,117628763,1521,1521,1525,1527,0,0,0,0,0,0,0,0,0,0
1709536222.50029993,117728723,1525,1526,1528,1530,0,0,0,0,0,0,0,0,0,0
1709536222.60025978,117828683,1531,1531,1532,1533,0,0,0,0,0,0,0,0,0,0
1709536222.70021987,117928643,1537,1537,1537,1537,0,0,0,0,0,0,0,0,0,0
1709536222.80017996,118028603,1542,1542,1539,1539,0,0,0,0,0,0,0,0,0,0
1709536222.90013981,118128563,1546,1546,1540,1540,0,0,0,0,0,0,0,0,0,0
1709536223.00009990,118228523,1549,1549,1541,1541,0,0,0,0,0,0,0,0,0,0
1709536223.10005999,118328483,1551,1551,1542,1542,0,0,0,0,0,0,0,0,0,0
1709536223.20001984,118428443,1551,1551,1542,1541,0,0,0,0,0,0,0,0,0,0
1709536223.29997993,118528403,1552,1552,1543,1542,0,0,0,0,0,0,0,0,0,0
1709536223.39993978,118628363,1552,1553,1543,1543,0,0,0,0,0,0,0,0,0,0
1709536223.49989986,118728323,1551,1552,1543,1543,0,0,0,0,0,0,0,0,0,0
1709536223.59985995,118828283,1550,1550,1544,1543,0,0,0,0,0,0,0,0,0,0
1709536223.69981980,118928243,1550,1549,1546,1544,0,0,0,0,0,0,0,0,0,0
1709536223.79977989,119028203,1548,1547,1548,1546,0,0,0,0,0,0,0,0,0,0
1709536223.89973998,119128163,1547,1545,1549,1547,0,0,0,0,0,0,0,0,0,0
1709536224.00053287,119228956,1544,1543,1549,1548,0,0,0,0,0,0,0,0,0,0
1709536224.10049295,119328916,1542,1542,1549,1549,0,0,0,0,0,0,0,0,0,0
1709536224.20045280,119428876,1541,1541,1549,1549,0,0,0,0,0,0,0,0,0,0
1709536224.30041289,119528836,1540,1541,1550,1550,0,0,0,0,0,0,0,0,0,0
1709536224.40037298,119628796,1540,1541,1549,1549,0,0,0,0,0,0,0,0,0,0
1709536224.50033283,119728756,1540,1541,1548,1548,0,0,0,0,0,0,0,0,0,0
1709536224.60029292,119828716,1542,1541,1548,1547,0,0,0,0,0,0,0,0,0,0
1709536224.70025277,119928676,1542,1542,1546,1546,0,0,0,0,0,0,0,0,0,0
1709536224.80021286,120028636,1543,1543,1545,1545,0,0,0,0,0,0,0,0,0,0
1709536224.90017295,120128596,1544,1544,1543,1544,0,0,0,0,0,0,0,0,0,0
1709536225.00013280,120228556,1545,1545,1543,1543,0,0,0,0,0,0,0,0,0,0
1709536225.10009289,120328516,1545,1545,1542,1543,0,0,0,0,0,0,0,0,0,0
1709536225.20005298,120428476,1545,1544,1541,1541,0,0,0,0,0,0,0,0,0,0
1709536225.30001283,120528436,1546,1546,1542,1542,0,0,0,0,0,0,0,0,0,0
1709536225.39997292,120628396,1546,1546,1542,1542,0,0,0,0,0,0,0,0,0,0
1709536225.49993277,120728356,1545,1545,1542,1542,0,0,0,0,0,0,0,0,0,0
1709536225.59989285,120828316,1545,1545,1543,1543,0,0,0,0,0,0,0,0,0,0
1709536225.69985294,120928276,1545,1545,1543,1543,0,0,0,0,0,0,0,0,0,0
1709536225.79981279,121028236,1544,1545,1543,1543,0,0,0,0,0,0,0,0,0,0
1709536225.89977288,121128196,1543,1544,1543,1544,0,0,0,0,0,0,0,0,0,0
1709536225.99973297,121228156,1543,1544,1545,1544,0,0,0,0,0,0,0,0,0,0
1709536226.10052586,121328949,1544,1543,1545,1545,0,0,0,0,0,0,0,0,0,0
1709536226.20048594,121428909,1543,1543,1545,1545,0,0,0,0,0,0,0,0,0,0
1709536226.30044580,121528869,1544,1543,1545,1545,0,0,0,0,0,0,0,0,0,0
1709536226.40040588,121628829,1544,1544,1545,1545,0,0,0,0,0,0,0,0,0,0
1709536226.50036597,121728789,1544,1544,1545,1545,0,0,0,0,0,0,0,0,0,0
1709536226.60032582,121828749,1544,1544,1545,1545,0,0,0,0,0,0,0,0,0,0
1709536226.70028591,121928709,1544,1544,1545,1545,0,0,0,0,0,0,0,0,0,0
1709536226.80024600,122028669,1545,1544,1545,1545,0,0,0,0,0,0,0,0,0,0
1709536226.90020585,122128629,1545,1545,1545,1546,0,0,0,0,0,0,0,0,0,0
1709536227.00016594,122228589,1545,1545,1544,1544,0,0,0,0,0,0,0,0,0,0
1709536227.10012579,122328549,1545,1545,1544,1544,0,0,0,0,0,0,0,0,0,0
1709536227.20008588,122428509,1545,1545,1544,1544,0,0,0,0,0,0,0,0,0,0
1709536227.30004597,122528469,1545,1544,1543,1544,0,0,0,0,0,0,0,0,0,0
1709536227.40000582,122628429,1544,1544,1544,1543,0,0,0,0,0,0,0,0,0,0
1709536227.49996591,122728389,1544,1544,1544,1544,0,0,0,0,0,0,0,0,0,0
1709536227.59992599,122828349,1545,1545,1544,1544,0,0,0,0,0,0,0,0,0,0
1709536227.69988585,122928309,1544,1544,1544,1545,0,0,0,0,0,0,0,0,0,0
1709536227.79984593,123028269,1544,1544,1545,1544,0,0,0,0,0,0,0,0,0,0
1709536227.89980578,123128229,1544,1544,1544,1544,0,0,0,0,0,0,0,0,0,0
1709536227.99976587,123228189,1544,1544,1544,1544,0,0,0,0,0,0,0,0,0,0
1709536228.10055900,123328982,1544,1544,1544,1544,0,0,0,0,0,0,0,0,0,0
1709536228.20051885,123428942,1543,1544,1544,1544,0,0,0,0,0,0,0,0,0,0
1709536228.30047894,123528902,1544,1544,1544,1544,0,0,0,0,0,0,0,0,0,0
1709536228.40043879,123628862,1544,1544,1544,1544,0,0,0,0,0,0,0,0,0,0
1709536228.50039887,123728822,1544,1544,1544,1544,0,0,0,0,0,0,0,0,0,0
1709536228.60035896,123828782,1544,1544,1544,1544,0,0,0,0,0,0,0,0,0,0
1709536228.70031881,123928742,1544,1544,1544,1544,0,0,0,0,0,0,0,0,0,0
1709536228.80027890,124028702,1543,1544,1544,1544,0,0,0,0,0,0,0,0,0,0
1709536228.90023899,124128662,1543,1544,1545,1544,0,0,0,0,0,0,0,0,0,0
1709536229.00019884,124228622,1543,1544,1547,1544,0,0,0,0,0,0,0,0,0,0
1709536229.10015893,124328582,1543,1543,1547,1545,0,0,0,0,0,0,0,0,0,0
1709536229.20011878,124428542,1542,1541,1547,1546,0,0,0,0,0,0,0,0,0,0
1709536229.30007887,124528502,1542,1541,1547,1548,0,0,0,0,0,0,0,0,0,0
1709536229.40003896,124628462,1541,1541,1547,1549,0,0,0,0,0,0,0,0,0,0
1709536229.49999881,124728422,1541,1541,1547,1549,0,0,0,0,0,0,0,0,0,0
1709536229.59995890,124828382,1541,1542,1546,1548,0,0,0,0,0,0,0,0,0,0
1709536229.69991899,124928342,1542,1542,1545,1547,0,0,0,0,0,0,0,0,0,0
1709536229.79987884,125028302,1543,1543,1545,1546,0,0,0,0,0,0,0,0,0,0
1709536229.89983892,125128262,1544,1544,1544,1544,0,0,0,0,0,0,0,0,0,0
1709536229.99979877,125228222,1545,1545,1543,1542,0,0,0,0,0,0,0,0,0,0
1709536230.09975886,125328182,1547,1547,1541,1542,0,0,0,0,0,0,0,0,0,0
1709536230.20055199,125428975,1547,1547,1540,1540,0,0,0,0,0,0,0,0,0,0
1709536230.30051184,125528935,1548,1547,1539,1540,0,0,0,0,0,0,0,0,0,0
1709536230.40047193,125628895,1548,1548,1539,1540,0,0,0,0,0,0,0,0,0,0
1709536230.50043178,125728855,1548,1548,1539,1540,0,0,0,0,0,0,0,0,0,0
1709536230.60039186,125828815,1549,1549,1541,1540,0,0,0,0,0,0,0,0,0,0
1709536230.70035195,125928775,1548,1548,1540,1540,0,0,0,0,0,0,0,0,0,0
1709536230.80031180,126028735,1547,1548,1541,1541,0,0,0,0,0,0,0,0,0,0
1709536230.90027189,126128695,1547,1548,1542,1542,0,0,0,0,0,0,0,0,0,0
1709536231.00023198,126228655,1547,1547,1544,1543,0,0,0,0,0,0,0,0,0,0
1709536231.10019183,126328615,1546,1545,1545,1543,0,0,0,0,0,0,0,0,0,0
1709536231.20015192,126428575,1545,1544,1546,1544,0,0,0,0,0,0,0,0,0,0
1709536231.30011177,126528535,1544,1543,1547,1545,0,0,0,0,0,0,0,0,0,0
1709536231.40007186,126628495,1542,1541,1547,1546,0,0,0,0,0,0,0,0,0,0
1709536231.50003195,126728455,1542,1541,1547,1548,0,0,0,0,0,0,0,0,0,0
1709536231.59999180,126828415,1541,1541,1547,1548,0,0,0,0,0,0,0,0,0,0
1709536231.69995189,126928375,1539,1526,1525,1553,0,0,0,0,0,0,0,0,0,0
1709536231.79991198,127028335,1401,1347,1329,1375,0,0,0,0,0,0,0,0,0,0
1709536231.89987183,127128295,1337,1249,1218,1287,0,0,0,0,0,0,0,0,0,0
1709536231.99983191,127228255,1319,1214,1188,1253,0,0,0,0,0,0,0,0,0,0
1709536232.09979177,127328215,1307,1188,1166,1229,0,0,0,0,0,0,0,0,0,0
1709536232.19975185,127428175,1300,1171,1150,1214,0,0,0,0,0,0,0,0,0,0
1709536232.30054498,127528968,1158,1162,1150,1190,0,0,0,0,0,0,0,0,0,0
1709536232.40050483,127628928,1157,1163,1150,1191,0,0,0,0,0,0,0,0,0,0
1709536232.50046492,127728888,1155,1164,1150,1193,0,0,0,0,0,0,0,0,0,0
1709536232.60042477,127828848,1172,1153,1150,1178,0,0,0,0,0,0,0,0,0,0
1709536232.70038486,127928808,1171,1154,1150,1179,0,0,0,0,0,0,0,0,0,0
1709536232.80034494,128028768,1165,1158,1150,1185,0,0,0,0,0,0,0,0,0,0
1709536232.90030479,128128728,1163,1159,1150,1187,0,0,0,0,0,0,0,0,0,0
1709536233.00026488,128228688,1163,1158,1150,1187,0,0,0,0,0,0,0,0,0,0
1709536233.10022497,128328648,1163,1158,1150,1187,0,0,0,0,0,0,0,0,0,0
1709536233.20018482,128428608,1164,1158,1150,1187,0,0,0,0,0,0,0,0,0,0
1709536233.30014491,128528568,1164,1158,1150,1187,0,0,0,0,0,0,0,0,0,0
1709536233.40010500,128628528,1182,1150,1155,1160,0,0,0,0,0,0,0,0,0,0
1709536233.50006485,128728488,1181,1150,1150,1167,0,0,0,0,0,0,0,0,0,0
1709536233.60002494,128828448,1180,1150,1150,1168,0,0,0,0,0,0,0,0,0,0
1709536233.69998479,128928408,1180,1150,1150,1169,0,0,0,0,0,0,0,0,0,0
1709536233.79994488,129028368,1179,1150,1150,1169,0,0,0,0,0,0,0,0,0,0
1709536233.89990497,129128328,1000,1000,1000,1000,0,0,0,0,0,0,0,0,0,0
1709536233.99986482,129228288,1000,1000,1000,1000,0,0,0,0,0,0,0,0,0,0
1709536234.09982491,129328248,1000,1000,1000,1000,0,0,0,0,0,0,0,0,0,0
1709536234.19978499,129428208,1000,1000,1000,1000,0,0,0,0,0,0,0,0,0,0
1709536234.29974484,129528168,1000,1000,1000,1000,0,0,0,0,0,0,0,0,0,0
1709536234.40053797,129628961,1000,1000,1000,1000,0,0,0,0,0,0,0,0,0,0
1709536234.50049782,129728921,1000,1000,1000,1000,0,0,0,0,0,0,0,0,0,0
1709536234.60045791,129828881,1000,1000,1000,1000,0,0,0,0,0,0,0,0,0,0
1709536234.70041800,129928841,1000,1000,1000,1000,0,0,0,0,0,0,0,0,0,0
1709536234.80037785,130028801,1000,1000,1000,1000,0,0,0,0,0,0,0,0,0,0
1709536234.90033793,130128761,1000,1000,1000,1000,0,0,0,0,0,0,0,0,0,0
1709536235.00029778,130228721,1000,1000,1000,1000,0,0,0,0,0,0,0,0,0,0
1709536235.10025787,130328681,1000,1000,1000,1000,0,0,0,0,0,0,0,0,0,0
1709536235.20021796,130428641,1000,1000,1000,1000,0,0,0,0,0,0,0,0,0,0
1709536235.30017781,130528601,1000,1000,1000,1000,0,0,0,0,0,0,0,0,0,0
1709536235.40013790,130628561,1000,1000,1000,1000,0,0,0,0,0,0,0,0,0,0
1709536235.50009799,130728521,1000,1000,1000,1000,0,0,0,0,0,0,0,0,0,0
1709536235.60005784,130828481,1000,1000,1000,1000,0,0,0,0,0,0,0,0,0,0
1709536235.70001793,130928441,1000,1000,1000,1000,0,0,0,0,0,0,0,0,0,0
1709536235.79997778,131028401,1000,1000,1000,1000,0,0,0,0,0,0,0,0,0,0
1709536235.89993787,131128361,1000,1000,1000,1000,0,0,0,0,0,0,0,0,0,0
1709536235.99989796,131228321,1000,1000,1000,1000,0,0,0,0,0,0,0,0,0,0
1709536236.09985781,131328281,1000,1000,1000,1000,0,0,0,0,0,0,0,0,0,0
1709536236.19981790,131428241,1000,1000,1000,1000,0,0,0,0,0,0,0,0,0,0
1709536236.29977798,131528201,1000,1000,1000,1000,0,0,0,0,0,0,0,0,0,0
1709536236.39973783,131628161,1000,1000,1000,1000,0,0,0,0,0,0,0,0,0,0
1709536236.50053096,131728954,1000,1000,1000,1000,0,0,0,0,0,0,0,0,0,0
1709536236.60049081,131828914,1000,1000,1000,1000,0,0,0,0,0,0,0,0,0,0
1709536236.70045090,131928874,1000,1000,1000,1000,0,0,0,0,0,0,0,0,0,0
1709536236.80041099,132028834,1000,1000,1000,1000,0,0,0,0,0,0,0,0,0,0
1709536236.90037084,132128794,1000,1000,1000,1000,0,0,0,0,0,0,0,0,0,0
1709536237.00033092,132228754,1000,1000,1000,1000,0,0,0,0,0,0,0,0,0,0
1709536237.10029078,132328714,1000,1000,1000,1000,0,0,0,0,0,0,0,0,0,0
1709536237.20025086,132428674,1000,1000,1000,1000,0,0,0,0,0,0,0,0,0,0
1709536237.30021095,132528634,1000,1000,1000,1000,0,0,0,0,0,0,0,0,0,0
1709536237.40017080,132628594,1000,1000,1000,1000,0,0,0,0,0,0,0,0,0,0
1709536237.50013089,132728554,1000,1000,1000,1000,0,0,0,0,0,0,0,0,0,0
1709536237.60009098,132828514,1000,1000,1000,1000,0,0,0,0,0,0,0,0,0,0
1709536237.70005083,132928474,1000,1000,1000,1000,0,0,0,0,0,0,0,0,0,0
1709536237.80001092,133028434,1000,1000,1000,1000,0,0,0,0,0,0,0,0,0,0
1709536237.89997077,133128394,1000,1000,1000,1000,0,0,0,0,0,0,0,0,0,0
1709536237.99993086,133228354,1000,1000,1000,1000,0,0,0,0,0,0,0,0,0,0
1709536238.09989095,133328314,1000,1000,1000,1000,0,0,0,0,0,0,0,0,0,0
1709536238.19985080,133428274,1000,1000,1000,1000,0,0,0,0,0,0,0,0,0,0
1709536238.29981089,133528234,1000,1000,1000,1000,0,0,0,0,0,0,0,0,0,0
1709536238.39977098,133628194,1000,1000,1000,1000,0,0,0,0,0,0,0,0,0,0
1709536238.49973083,133728154,1000,1000,1000,1000,0,0,0,0,0,0,0,0,0,0
1709536238.60052395,133828947,1000,1000,1000,1000,0,0,0,0,0,0,0,0,0,0
1709536238.70048380,133928907,1000,1000,1000,1000,0,0,0,0,0,0,0,0,0,0
1709536238.80044389,134028867,1000,1000,1000,1000,0,0,0,0,0,0,0,0,0,0
1709536238.90040398,134128827,1000,1000,1000,1000,0,0,0,0,0,0,0,0,0,0
1709536239.00036383,134228787,1000,1000,1000,1000,0,0,0,0,0,0,0,0,0,0
1709536239.10032392,134328747,1000,1000,1000,1000,0,0,0,0,0,0,0,0,0,0
1709536239.20028377,134428707,1000,1000,1000,1000,0,0,0,0,0,0,0,0,0,0
1709536239.30024385,134528667,1000,1000,1000,1000,0,0,0,0,0,0,0,0,0,0
1709536239.40020394,134628627,1000,1000,1000,1000,0,0,0,0,0,0,0,0,0,0
1709536239.50016379,134728587,1000,1000,1000,1000,0,0,0,0,0,0,0,0,0,0
1709536239.60012388,134828547,1000,1000,1000,1000,0,0,0,0,0,0,0,0,0,0
1709536239.70008397,134928507,1000,1000,1000,1000,0,0,0,0,0,0,0,0,0,0
1709536239.80004382,135028467,1000,1000,1000,1000,0,0,0,0,0,0,0,0,0,0
1709536239.90000391,135128427,1000,1000,1000,1000,0,0,0,0,0,0,0,0,0,0
1709536239.99996400,135228387,1000,1000,1000,1000,0,0,0,0,0,0,0,0,0,0
1709536240.09992385,135328347,1000,1000,1000,1000,0,0,0,0,0,0,0,0,0,0
1709536240.19988394,135428307,1000,1000,1000,1000,0,0,0,0,0,0,0,0,0,0
1709536240.29984379,135528267,1000,1000,1000,1000,0,0,0,0,0,0,0,0,0,0
1709536240.39980388,135628227,1000,1000,1000,1000,0,0,0,0,0,0,0,0,0,0
1709536240.49976397,135728187,1000,1000,1000,1000,0,0,0,0,0,0,0,0,0,0
1709536240.60055685,135828980,1000,1000,1000,1000,0,0,0,0,0,0,0,0,0,0
1709536240.70051694,135928940,1000,1000,1000,1000,0,0,0,0,0,0,0,0,0,0
1709536240.80047679,136028900,1000,1000,1000,1000,0,0,0,0,0,0,0,0,0,0
1709536240.90043688,136128860,1000,1000,1000,1000,0,0,0,0,0,0,0,0,0,0
1709536241.00039697,136228820,1000,1000,1000,1000,0,0,0,0,0,0,0,0,0,0
1709536241.10035682,136328780,1000,1000,1000,1000,0,0,0,0,0,0,0,0,0,0
1709536241.20031691,136428740,1000,1000,1000,1000,0,0,0,0,0,0,0,0,0,0
1709536241.30027699,136528700,1000,1000,1000,1000,0,0,0,0,0,0,0,0,0,0
1709536241.40023685,136628660,1000,1000,1000,1000,0,0,0,0,0,0,0,0,0,0
1709536241.50019693,136728620,1000,1000,1000,1000,0,0,0,0,0,0,0,0,0,0
1709536241.60015678,136828580,1000,1000,1000,1000,0,0,0,0,0,0,0,0,0,0
1709536241.70011687,136928540,1000,1000,1000,1000,0,0,0,0,0,0,0,0,0,0
1709536241.80007696,137028500,1000,1000,1000,1000,0,0,0,0,0,0,0,0,0,0
1709536241.90003681,137128460,1000,1000,1000,1000,0,0,0,0,0,0,0,0,0,0
1709536241.99999690,137228420,1000,1000,1000,1000,0,0,0,0,0,0,0,0,0,0
1709536242.09995699,137328380,1000,1000,1000,1000,0,0,0,0,0,0,0,0,0,0
1709536242.19991684,137428340,1000,1000,1000,1000,0,0,0,0,0,0,0,0,0,0
1709536242.29987693,137528300,1000,1000,1000,1000,0,0,0,0,0,0,0,0,0,0
1709536242.39983678,137628260,1000,1000,1000,1000,0,0,0,0,0,0,0,0,0,0
1709536242.49979687,137728220,1000,1000,1000,1000,0,0,0,0,0,0,0,0,0,0
1709536242.59975696,137828180,1000,1000,1000,1000,0,0,0,0,0,0,0,0,0,0
1709536242.70054984,137928973,1000,1000,1000,1000,0,0,0,0,0,0,0,0,0,0
1709536242.80050993,138028933,1000,1000,1000,1000,0,0,0,0,0,0,0,0,0,0
1709536242.90046978,138128893,1000,1000,1000,1000,0,0,0,0,0,0,0,0,0,0
1709536243.00042987,138228853,1000,1000,1000,1000,0,0,0,0,0,0,0,0,0,0
1709536243.10038996,138328813,1000,1000,1000,1000,0,0,0,0,0,0,0,0,0,0
1709536243.20034981,138428773,1000,1000,1000,1000,0,0,0,0,0,0,0,0,0,0
1709536243.30030990,138528733,1000,1000,1000,1000,0,0,0,0,0,0,0,0,0,0
1709536243.40026999,138628693,1000,1000,1000,1000,0,0,0,0,0,0,0,0,0,0
1709536243.50022984,138728653,1000,1000,1000,1000,0,0,0,0,0,0,0,0,0,0
1709536243.60018992,138828613,1000,1000,1000,1000,0,0,0,0,0,0,0,0,0,0
1709536243.70014977,138928573,1000,1000,1000,1000,0,0,0,0,0,0,0,0,0,0
1709536243.80010986,139028533,1000,1000,1000,1000,0,0,0,0,0,0,0,0,0,0
1709536243.90006995,139128493,1000,1000,1000,1000,0,0,0,0,0,0,0,0,0,0
1709536244.00002980,139228453,1000,1000,1000,1000,0,0,0,0,0,0,0,0,0,0
1709536244.09998989,139328413,1000,1000,1000,1000,0,0,0,0,0,0,0,0,0,0
1709536244.19994998,139428373,1000,1000,1000,1000,0,0,0,0,0,0,0,0,0,0
1709536244.29990983,139528333,1000,1000,1000,1000,0,0,0,0,0,0,0,0,0,0
1709536244.39986992,139628293,1000,1000,1000,1000,0,0,0,0,0,0,0,0,0,0
1709536244.49982977,139728253,1000,1000,1000,1000,0,0,0,0,0,0,0,0,0,0
1709536244.59978986,139828213,1000,1000,1000,1000,0,0,0,0,0,0,0,0,0,0
1709536244.69974995,139928173,1000,1000,1000,1000,0,0,0,0,0,0,0,0,0,0
1709536244.80054283,140028966,1000,1000,1000,1000,0,0,0,0,0,0,0,0,0,0
1709536244.90050292,140128926,1000,1000,1000,1000,0,0,0,0,0,0,0,0,0,0
1709536245.00046277,140228886,1000,1000,1000,1000,0,0,0,0,0,0,0,0,0,0
1709536245.10042286,140328846,1000,1000,1000,1000,0,0,0,0,0,0,0,0,0,0
1709536245.20038295,140428806,1000,1000,1000,1000,0,0,0,0,0,0,0,0,0,0
1709536245.30034280,140528766,1000,1000,1000,1000,0,0,0,0,0,0,0,0,0,0
1709536245.40030289,140628726,1000,1000,1000,1000,0,0,0,0,0,0,0,0,0,0
1709536245.50026298,140728686,1000,1000,1000,1000,0,0,0,0,0,0,0,0,0,0
1709536245.60022283,140828646,1000,1000,1000,1000,0,0,0,0,0,0,0,0,0,0
1709536245.70018291,140928606,1000,1000,1000,1000,0,0,0,0,0,0,0,0,0,0
1709536245.80014277,141028566,1000,1000,1000,1000,0,0,0,0,0,0,0,0,0,0
1709536245.90010285,141128526,1000,1000,1000,1000,0,0,0,0,0,0,0,0,0,0
1709536246.00006294,141228486,1000,1000,1000,1000,0,0,0,0,0,0,0,0,0,0
1709536246.10002279,141328446,1000,1000,1000,1000,0,0,0,0,0,0,0,0,0,0
1709536246.19998288,141428406,1000,1000,1000,1000,0,0,0,0,0,0,0,0,0,0
1709536246.29994297,141528366,1000,1000,1000,1000,0,0,0,0,0,0,0,0,0,0
1709536246.39990282,141628326,1000,1000,1000,1000,0,0,0,0,0,0,0,0,0,0
1709536246.49986291,141728286,1000,1000,1000,1000,0,0,0,0,0,0,0,0,0,0
1709536246.59982300,141828246,1000,1000,1000,1000,0,0,0,0,0,0,0,0,0,0
1709536246.69978285,141928206,1000,1000,1000,1000,0,0,0,0,0,0,0,0,0,0
1709536246.79974294,142028166,1000,1000,1000,1000,0,0,0,0,0,0,0,0,0,0
1709536246.90053582,142128959,1000,1000,1000,1000,0,0,0,0,0,0,0,0,0,0
1709536247.00049591,142228919,1000,1000,1000,1000,0,0,0,0,0,0,0,0,0,0
1709536247.10045600,142328879,1000,1000,1000,1000,0,0,0,0,0,0,0,0,0,0
1709536247.20041585,142428839,1000,1000,1000,1000,0,0,0,0,0,0,0,0,0,0
1709536247.30037594,142528799,1000,1000,1000,1000,0,0,0,0,0,0,0,0,0,0
1709536247.40033579,142628759,1000,1000,1000,1000,0,0,0,0,0,0,0,0,0,0
1709536247.50029588,142728719,1000,1000,1000,1000,0,0,0,0,0,0,0,0,0,0
1709536247.60025597,142828679,1000,1000,1000,1000,0,0,0,0,0,0,0,0,0,0
1709536247.70021582,142928639,1000,1000,1000,1000,0,0,0,0,0,0,0,0,0,0
1709536247.80017591,143028599,1000,1000,1000,1000,0,0,0,0,0,0,0,0,0,0
1709536247.90013599,143128559,1000,1000,1000,1000,0,0,0,0,0,0,0,0,0,0
1709536248.00009584,143228519,1000,1000,1000,1000,0,0,0,0,0,0,0,0,0,0
1709536248.10005593,143328479,1000,1000,1000,1000,0,0,0,0,0,0,0,0,0,0
1709536248.20001578,143428439,1000,1000,1000,1000,0,0,0,0,0,0,0,0,0,0
1709536248.29997587,143528399,1000,1000,1000,1000,0,0,0,0,0,0,0,0,0,0
1709536248.39993596,143628359,1000,1000,1000,1000,0,0,0,0,0,0,0,0,0,0
1709536248.49989581,143728319,1000,1000,1000,1000,0,0,0,0,0,0,0,0,0,0
1709536248.59985590,143828279,1000,1000,1000,1000,0,0,0,0,0,0,0,0,0,0
1709536248.69981599,143928239,1000,1000,1000,1000,0,0,0,0,0,0,0,0,0,0
1709536248.79977584,144028199,1000,1000,1000,1000,0,0,0,0,0,0,0,0,0,0
