TimeUS,M1,M2,M3,M4,TimeUS,C1,C2,C3,C4
44251459,1000,1000,1000,1000,44328928,1000,1000,1000,1000
44253958,1000,1000,1000,1000,44428888,1000,1000,1000,1000
44256457,1000,1000,1000,1000,44528848,1000,1000,1000,1000
44258956,1000,1000,1000,1000,44628808,1000,1000,1000,1000
44261455,1000,1000,1000,1000,44728768,1000,1000,1000,1000
44263954,1000,1000,1000,1000,44828728,1000,1000,1000,1000
44266453,1000,1000,1000,1000,44928688,1000,1000,1000,1000
44268952,1000,1000,1000,1000,45028648,1000,1000,1000,1000
44271451,1000,1000,1000,1000,45128608,1000,1000,1000,1000
44273950,1000,1000,1000,1000,45228568,1000,1000,1000,1000
44276449,1000,1000,1000,1000,45328528,1000,1000,1000,1000
44278948,1000,1000,1000,1000,45428488,1000,1000,1000,1000
44281447,1000,1000,1000,1000,45528448,1000,1000,1000,1000
44283946,1000,1000,1000,1000,45628408,1000,1000,1000,1000
44286445,1000,1000,1000,1000,45728368,1000,1000,1000,1000
44288944,1000,1000,1000,1000,45828328,1000,1000,1000,1000
44291443,1000,1000,1000,1000,45928288,1000,1000,1000,1000
44293942,1000,1000,1000,1000,46028248,1000,1000,1000,1000
44296441,1000,1000,1000,1000,46128208,1000,1000,1000,1000
44298940,1000,1000,1000,1000,46228168,1000,1000,1000,1000
44301439,1000,1000,1000,1000,46328961,1023,1023,1023,1023
44303938,1000,1000,1000,1000,46428921,1053,1053,1053,1053
44306437,1000,1000,1000,1000,46528881,1083,1083,1083,1083
44308936,1000,1000,1000,1000,46628841,1113,1113,1113,1113
44311435,1000,1000,1000,1000,46728801,1143,1143,1143,1143
44313934,1000,1000,1000,1000,46828761,1351,1346,1347,1351
44316433,1000,1000,1000,1000,46928721,1542,1538,1538,1542
44318932,1000,1000,1000,1000,47028681,1695,1691,1691,1695
44321431,1000,1000,1000,1000,47128641,1826,1823,1823,1827
44323930,1000,1000,1000,1000,47228601,1840,1836,1836,1840
44326429,1000,1000,1000,1000,47328561,1828,1827,1827,1829
44328928,1000,1000,1000,1000,47428521,1700,1699,1700,1700
44331427,1000,1000,1000,1000,47528481,1620,1620,1621,1619
44333926,1000,1000,1000,1000,47628441,1608,1610,1610,1608
44336425,1000,1000,1000,1000,47728401,1625,1627,1626,1626
44338924,1000,1000,1000,1000,47828361,1630,1630,1626,1633
44341423,1000,1000,1000,1000,47928321,1627,1628,1622,1633
44343922,1000,1000,1000,1000,48028281,1622,1623,1619,1625
44346421,1000,1000,1000,1000,48128241,1618,1618,1618,1618
44348920,1000,1000,1000,1000,48228201,1618,1618,1620,1615
44351419,1000,1000,1000,1000,48328161,1619,1619,1622,1616
44353918,1000,1000,1000,1000,48428954,1621,1621,1624,1617
44356417,1000,1000,1000,1000,48528914,1623,1623,1625,1620
44358916,1000,1000,1000,1000,48628874,1620,1620,1622,1619
44361415,1000,1000,1000,1000,48728834,1589,1589,1596,1581
44363914,1000,1000,1000,1000,48828794,1575,1576,1580,1571
44366413,1000,1000,1000,1000,48928754,1564,1564,1563,1565
44368912,1000,1000,1000,1000,49028714,1555,1555,1550,1560
44371411,1000,1000,1000,1000,49128674,1547,1547,1537,1557
44373910,1000,1000,1000,1000,49228634,1540,1539,1531,1548
44376409,1000,1000,1000,1000,49328594,1534,1534,1529,1539
44378908,1000,1000,1000,1000,49428554,1529,1528,1528,1529
44381407,1000,1000,1000,1000,49528514,1527,1527,1528,1526
44383906,1000,1000,1000,1000,49628474,1529,1529,1532,1526
44386405,1000,1000,1000,1000,49728434,1532,1531,1534,1528
44388904,1000,1000,1000,1000,49828394,1535,1535,1538,1532
44391403,1000,1000,1000,1000,49928354,1539,1539,1541,1537
44393902,1000,1000,1000,1000,50028314,1541,1541,1542,1541
44396401,1000,1000,1000,1000,50128274,1545,1545,1545,1545
44398900,1000,1000,1000,1000,50228234,1548,1548,1548,1549
44401399,1000,1000,1000,1000,50328194,1551,1550,1549,1552
44403898,1000,1000,1000,1000,50428154,1553,1553,1552,1554
44406397,1000,1000,1000,1000,50528947,1553,1553,1557,1559
44408896,1000,1000,1000,1000,50628907,1555,1555,1560,1561
44411395,1000,1000,1000,1000,50728867,1557,1557,1563,1563
44413894,1000,1000,1000,1000,50828827,1560,1560,1565,1564
44416393,1000,1000,1000,1000,50928787,1562,1563,1565,1565
44418892,1000,1000,1000,1000,51028747,1564,1564,1565,1565
44421391,1000,1000,1000,1000,51128707,1566,1566,1565,1565
44423890,1000,1000,1000,1000,51228667,1568,1569,1566,1566
44426389,1000,1000,1000,1000,51328627,1570,1570,1567,1567
44428888,1000,1000,1000,1000,51428587,1571,1571,1567,1568
44431387,1000,1000,1000,1000,51528547,1572,1572,1569,1569
44433886,1000,1000,1000,1000,51628507,1574,1573,1570,1570
44436385,1000,1000,1000,1000,51728467,1574,1574,1571,1571
44438884,1000,1000,1000,1000,51828427,1575,1575,1574,1573
44441383,1000,1000,1000,1000,51928387,1576,1576,1576,1574
44443882,1000,1000,1000,1000,52028347,1575,1576,1576,1574
44446381,1000,1000,1000,1000,52128307,1576,1576,1576,1576
44448880,1000,1000,1000,1000,52228267,1576,1576,1577,1576
44451379,1000,1000,1000,1000,52328227,1576,1577,1578,1577
44453878,1000,1000,1000,1000,52428187,1576,1576,1577,1577
44456377,1000,1000,1000,1000,52528980,1576,1575,1576,1576
44458876,1000,1000,1000,1000,52628940,1576,1576,1577,1576
44461375,1000,1000,1000,1000,52728900,1576,1576,1576,1577
44463874,1000,1000,1000,1000,52828860,1576,1577,1577,1577
44466373,1000,1000,1000,1000,52928820,1576,1577,1577,1577
44468872,1000,1000,1000,1000,53028780,1577,1577,1577,1577
44471371,1000,1000,1000,1000,53128740,1577,1577,1576,1577
44473870,1000,1000,1000,1000,53228700,1578,1578,1577,1577
44476369,1000,1000,1000,1000,53328660,1578,1578,1577,1578
44478868,1000,1000,1000,1000,53428620,1578,1577,1577,1577
44481367,1000,1000,1000,1000,53528580,1578,1577,1577,1577
44483866,1000,1000,1000,1000,53628540,1578,1578,1578,1578
44486365,1000,1000,1000,1000,53728500,1578,1579,1579,1578
44488864,1000,1000,1000,1000,53828460,1579,1579,1579,1579
44491363,1000,1000,1000,1000,53928420,1579,1579,1579,1579
44493862,1000,1000,1000,1000,54028380,1580,1580,1580,1580
44496361,1000,1000,1000,1000,54128340,1579,1579,1579,1579
44498860,1000,1000,1000,1000,54228300,1580,1579,1580,1580
44501359,1000,1000,1000,1000,54328260,1580,1580,1580,1580
44503858,1000,1000,1000,1000,54428220,1580,1579,1580,1580
44506357,1000,1000,1000,1000,54528180,1579,1579,1579,1579
44508856,1000,1000,1000,1000,54628973,1580,1579,1579,1580
44511355,1000,1000,1000,1000,54728933,1579,1579,1579,1579
44513854,1000,1000,1000,1000,54828893,1579,1580,1580,1579
44516353,1000,1000,1000,1000,54928853,1580,1580,1580,1580
44518852,1000,1000,1000,1000,55028813,1579,1580,1580,1580
44521351,1000,1000,1000,1000,55128773,1580,1580,1580,1580
44523850,1000,1000,1000,1000,55228733,1579,1579,1579,1579
44526349,1000,1000,1000,1000,55328693,1580,1579,1579,1580
44528848,1000,1000,1000,1000,55428653,1580,1580,1580,1580
44531347,1000,1000,1000,1000,55528613,1580,1580,1580,1580
44533846,1000,1000,1000,1000,55628573,1580,1579,1580,1580
44536345,1000,1000,1000,1000,55728533,1580,1580,1580,1580
44538844,1000,1000,1000,1000,55828493,1580,1580,1580,1580
44541343,1000,1000,1000,1000,55928453,1579,1579,1580,1580
44543842,1000,1000,1000,1000,56028413,1580,1580,1581,1580
44546341,1000,1000,1000,1000,56128373,1581,1580,1581,1581
44548840,1000,1000,1000,1000,56228333,1580,1580,1580,1580
44551339,1000,1000,1000,1000,56328293,1581,1581,1581,1581
44553838,1000,1000,1000,1000,56428253,1581,1581,1581,1581
44556337,1000,1000,1000,1000,56528213,1581,1581,1581,1581
44558836,1000,1000,1000,1000,56628173,1580,1580,1580,1581
44561335,1000,1000,1000,1000,56728966,1580,1581,1587,1574
44563834,1000,1000,1000,1000,56828926,1579,1581,1584,1571
44566333,1000,1000,1000,1000,56928886,1578,1580,1577,1573
44568832,1000,1000,1000,1000,57028846,1577,1580,1569,1572
44571331,1000,1000,1000,1000,57128806,1576,1578,1561,1568
44573830,1000,1000,1000,1000,57228766,1577,1578,1557,1564
44576329,1000,1000,1000,1000,57328726,1578,1577,1555,1559
44578828,1000,1000,1000,1000,57428686,1579,1577,1555,1556
44581327,1000,1000,1000,1000,57528646,1579,1578,1556,1555
44583826,1000,1000,1000,1000,57628606,1579,1578,1557,1554
44586325,1000,1000,1000,1000,57728566,1577,1577,1556,1554
44588824,1000,1000,1000,1000,57828526,1575,1576,1555,1553
44591323,1000,1000,1000,1000,57928486,1574,1576,1554,1554
44593822,1000,1000,1000,1000,58028446,1574,1576,1554,1553
44596321,1000,1000,1000,1000,58128406,1574,1576,1551,1552
44598820,1000,1000,1000,1000,58228366,1575,1577,1550,1550
44601319,1000,1000,1000,1000,58328326,1578,1579,1549,1549
44603818,1000,1000,1000,1000,58428286,1580,1581,1546,1546
44606317,1000,1000,1000,1000,58528246,1582,1583,1543,1542
44608816,1000,1000,1000,1000,58628206,1586,1587,1541,1540
44611315,1000,1000,1000,1000,58728166,1589,1589,1538,1537
44613814,1000,1000,1000,1000,58828959,1591,1592,1535,1535
44616313,1000,1000,1000,1000,58928919,1594,1593,1534,1535
44618812,1000,1000,1000,1000,59028879,1595,1595,1535,1536
44621311,1000,1000,1000,1000,59128839,1594,1594,1535,1537
44623810,1000,1000,1000,1000,59228799,1593,1593,1538,1541
44626309,1000,1000,1000,1000,59328759,1590,1588,1542,1546
44628808,1000,1000,1000,1000,59428719,1585,1583,1550,1553
44631307,1000,1000,1000,1000,59528679,1577,1574,1559,1562
44633806,1000,1000,1000,1000,59628639,1568,1564,1571,1573
44636305,1000,1000,1000,1000,59728599,1557,1553,1583,1585
44638804,1000,1000,1000,1000,59828559,1546,1543,1595,1595
44641303,1000,1000,1000,1000,59928519,1536,1535,1605,1604
44643802,1000,1000,1000,1000,60028479,1530,1531,1611,1610
44646301,1000,1000,1000,1000,60128439,1528,1530,1615,1613
44648800,1000,1000,1000,1000,60228399,1530,1532,1614,1614
44651299,1000,1000,1000,1000,60328359,1535,1537,1611,1610
44653798,1000,1000,1000,1000,60428319,1542,1544,1604,1605
44656297,1000,1000,1000,1000,60528279,1550,1552,1597,1598
44658796,1000,1000,1000,1000,60628239,1559,1559,1590,1590
44661295,1000,1000,1000,1000,60728199,1568,1569,1584,1583
44663794,1000,1000,1000,1000,60828159,1576,1576,1577,1577
44666293,1000,1000,1000,1000,60928952,1581,1580,1571,1570
44668792,1000,1000,1000,1000,61028912,1586,1585,1569,1568
44671291,1000,1000,1000,1000,61128872,1588,1586,1567,1567
44673790,1000,1000,1000,1000,61228832,1587,1586,1565,1566
44676289,1000,1000,1000,1000,61328792,1587,1585,1567,1568
44678788,1000,1000,1000,1000,61428752,1585,1584,1571,1571
44681287,1000,1000,1000,1000,61528712,1581,1581,1572,1573
44683786,1000,1000,1000,1000,61628672,1579,1579,1576,1576
44686285,1000,1000,1000,1000,61728632,1576,1576,1579,1578
44688784,1000,1000,1000,1000,61828592,1574,1575,1581,1581
44691283,1000,1000,1000,1000,61928552,1573,1574,1583,1583
44693782,1000,1000,1000,1000,62028512,1574,1575,1586,1585
44696281,1000,1000,1000,1000,62128472,1573,1573,1584,1584
44698780,1000,1000,1000,1000,62228432,1574,1573,1584,1584
44701279,1000,1000,1000,1000,62328392,1574,1574,1582,1582
44703778,1000,1000,1000,1000,62428352,1576,1576,1581,1582
44706277,1000,1000,1000,1000,62528312,1577,1577,1580,1580
44708776,1000,1000,1000,1000,62628272,1578,1578,1579,1579
44711275,1000,1000,1000,1000,62728232,1580,1579,1578,1578
44713774,1000,1000,1000,1000,62828192,1581,1581,1578,1578
44716273,1000,1000,1000,1000,62928985,1582,1581,1577,1577
44718772,1000,1000,1000,1000,63028945,1582,1581,1577,1577
44721271,1000,1000,1000,1000,63128905,1583,1583,1578,1578
44723770,1000,1000,1000,1000,63228865,1581,1581,1577,1577
44726269,1000,1000,1000,1000,63328825,1581,1581,1579,1578
44728768,1000,1000,1000,1000,63428785,1580,1580,1578,1578
44731267,1000,1000,1000,1000,63528745,1579,1579,1578,1578
44733766,1000,1000,1000,1000,63628705,1579,1579,1579,1579
44736265,1000,1000,1000,1000,63728665,1578,1578,1579,1579
44738764,1000,1000,1000,1000,63828625,1578,1577,1579,1579
44741263,1000,1000,1000,1000,63928585,1578,1578,1581,1580
44743762,1000,1000,1000,1000,64028545,1577,1579,1580,1580
44746261,1000,1000,1000,1000,64128505,1577,1579,1579,1580
44748760,1000,1000,1000,1000,64228465,1577,1579,1579,1580
44751259,1000,1000,1000,1000,64328425,1577,1578,1578,1578
44753758,1000,1000,1000,1000,64428385,1578,1579,1578,1578
44756257,1000,1000,1000,1000,64528345,1579,1579,1578,1578
44758756,1000,1000,1000,1000,64628305,1579,1580,1578,1577
44761255,1000,1000,1000,1000,64728265,1580,1580,1582,1574
44763754,1000,1000,1000,1000,64828225,1581,1583,1584,1569
44766253,1000,1000,1000,1000,64928185,1614,1593,1573,1565
44768752,1000,1000,1000,1000,65028978,1592,1597,1562,1562
44771251,1000,1000,1000,1000,65128938,1579,1596,1555,1561
44773750,1000,1000,1000,1000,65228898,1573,1591,1551,1560
44776249,1000,1000,1000,1000,65328858,1572,1583,1550,1557
44778748,1000,1000,1000,1000,65428818,1573,1576,1552,1554
44781247,1000,1000,1000,1000,65528778,1574,1570,1555,1554
44783746,1000,1000,1000,1000,65628738,1574,1568,1558,1555
44786245,1000,1000,1000,1000,65728698,1572,1568,1559,1556
44788744,1000,1000,1000,1000,65828658,1572,1569,1560,1557
44791243,1000,1000,1000,1000,65928618,1571,1570,1558,1557
44793742,1000,1000,1000,1000,66028578,1572,1573,1556,1557
44796241,1000,1000,1000,1000,66128538,1573,1575,1553,1554
44798740,1000,1000,1000,1000,66228498,1576,1578,1550,1551
44801239,1000,1000,1000,1000,66328458,1580,1581,1548,1549
44803738,1000,1000,1000,1000,66428418,1583,1584,1546,1546
44806237,1000,1000,1000,1000,66528378,1586,1585,1544,1543
44808736,1000,1000,1000,1000,66628338,1589,1588,1543,1543
44811235,1000,1000,1000,1000,66728298,1590,1590,1543,1543
44813734,1000,1000,1000,1000,66828258,1590,1590,1543,1543
44816233,1000,1000,1000,1000,66928218,1590,1590,1544,1545
44818732,1000,1000,1000,1000,67028178,1589,1589,1546,1547
44821231,1000,1000,1000,1000,67128971,1587,1586,1551,1551
44823730,1000,1000,1000,1000,67228931,1582,1581,1557,1558
44826229,1000,1000,1000,1000,67328891,1576,1574,1564,1565
44828728,1000,1000,1000,1000,67428851,1569,1567,1571,1574
44831227,1000,1000,1000,1000,67528811,1562,1559,1578,1581
44833726,1000,1000,1000,1000,67628771,1556,1554,1587,1589
44836225,1000,1000,1000,1000,67728731,1550,1548,1594,1595
44838724,1000,1000,1000,1000,67828691,1545,1545,1598,1599
44841223,1000,1000,1000,1000,67928651,1544,1544,1602,1601
44843722,1000,1000,1000,1000,68028611,1545,1546,1603,1602
44846221,1000,1000,1000,1000,68128571,1548,1550,1602,1601
44848720,1000,1000,1000,1000,68228531,1552,1554,1598,1597
44851219,1000,1000,1000,1000,68328491,1557,1559,1595,1592
44853718,1000,1000,1000,1000,68428451,1564,1564,1590,1589
44856217,1000,1000,1000,1000,68528411,1569,1569,1585,1583
44858716,1000,1000,1000,1000,68628371,1573,1572,1580,1580
44861215,1000,1000,1000,1000,68728331,1576,1575,1575,1576
44863714,1000,1000,1000,1000,68828291,1579,1577,1572,1574
44866213,1000,1000,1000,1000,68928251,1579,1578,1571,1571
44868712,1000,1000,1000,1000,69028211,1579,1578,1570,1571
44871211,1000,1000,1000,1000,69128171,1579,1578,1572,1572
44873710,1000,1000,1000,1000,69228964,1577,1577,1572,1573
44876209,1000,1000,1000,1000,69328924,1575,1574,1573,1573
44878708,1000,1000,1000,1000,69428884,1574,1573,1576,1576
44881207,1000,1000,1000,1000,69528844,1572,1572,1578,1577
44883706,1000,1000,1000,1000,69628804,1571,1571,1579,1579
44886205,1000,1000,1000,1000,69728764,1570,1571,1580,1579
44888704,1000,1000,1000,1000,69828724,1571,1571,1581,1581
44891203,1000,1000,1000,1000,69928684,1570,1571,1581,1581
44893702,1000,1000,1000,1000,70028644,1570,1571,1580,1581
44896201,1000,1000,1000,1000,70128604,1571,1572,1580,1580
44898700,1000,1000,1000,1000,70228564,1573,1572,1578,1579
44901199,1000,1000,1000,1000,70328524,1573,1574,1578,1578
44903698,1000,1000,1000,1000,70428484,1575,1574,1576,1577
44906197,1000,1000,1000,1000,70528444,1576,1576,1576,1576
44908696,1000,1000,1000,1000,70628404,1577,1577,1576,1576
44911195,1000,1000,1000,1000,70728364,1577,1577,1575,1575
44913694,1000,1000,1000,1000,70828324,1579,1578,1575,1576
44916193,1000,1000,1000,1000,70928284,1578,1578,1575,1574
44918692,1000,1000,1000,1000,71028244,1579,1579,1575,1576
44921191,1000,1000,1000,1000,71128204,1578,1579,1576,1575
44923690,1000,1000,1000,1000,71228164,1579,1578,1576,1576
44926189,1000,1000,1000,1000,71328957,1579,1580,1578,1577
44928688,1000,1000,1000,1000,71428917,1578,1579,1576,1577
44931187,1000,1000,1000,1000,71528877,1579,1580,1578,1578
44933686,1000,1000,1000,1000,71628837,1580,1579,1578,1578
44936185,1000,1000,1000,1000,71728797,1580,1580,1579,1579
44938684,1000,1000,1000,1000,71828757,1579,1579,1577,1578
44941183,1000,1000,1000,1000,71928717,1578,1579,1578,1578
44943682,1000,1000,1000,1000,72028677,1579,1579,1578,1578
44946181,1000,1000,1000,1000,72128637,1581,1581,1580,1579
44948680,1000,1000,1000,1000,72228597,1581,1581,1579,1579
44951179,1000,1000,1000,1000,72328557,1582,1582,1581,1580
44953678,1000,1000,1000,1000,72428517,1582,1582,1580,1581
44956177,1000,1000,1000,1000,72528477,1583,1583,1581,1580
44958676,1000,1000,1000,1000,72628437,1583,1583,1581,1581
44961175,1000,1000,1000,1000,72728397,1583,1583,1581,1581
44963674,1000,1000,1000,1000,72828357,1583,1583,1581,1581
44966173,1000,1000,1000,1000,72928317,1583,1583,1585,1578
44968672,1000,1000,1000,1000,73028277,1582,1584,1589,1575
44971171,1000,1000,1000,1000,73128237,1580,1583,1584,1576
44973670,1000,1000,1000,1000,73228197,1578,1582,1575,1576
44976169,1000,1000,1000,1000,73328157,1576,1580,1568,1573
44978668,1000,1000,1000,1000,73428950,1576,1578,1562,1569
44981167,1000,1000,1000,1000,73528910,1578,1577,1560,1564
44983666,1000,1000,1000,1000,73628870,1579,1576,1559,1561
44986165,1000,1000,1000,1000,73728830,1579,1577,1560,1560
44988664,1000,1000,1000,1000,73828790,1578,1577,1561,1558
44991163,1000,1000,1000,1000,73928750,1577,1578,1561,1559
44993662,1000,1000,1000,1000,74028710,1576,1576,1560,1558
44996161,1000,1000,1000,1000,74128670,1575,1577,1560,1559
44998660,1000,1000,1000,1000,74228630,1575,1576,1560,1559
45001159,1000,1000,1000,1000,74328590,1574,1576,1559,1558
45003658,1000,1000,1000,1000,74428550,1575,1576,1558,1558
45006157,1000,1000,1000,1000,74528510,1575,1577,1556,1556
45008656,1000,1000,1000,1000,74628470,1576,1577,1555,1554
45011155,1000,1000,1000,1000,74728430,1579,1580,1553,1553
45013654,1000,1000,1000,1000,74828390,1580,1580,1551,1550
45016153,1000,1000,1000,1000,74928350,1582,1583,1548,1548
45018652,1000,1000,1000,1000,75028310,1584,1585,1546,1545
45021151,1000,1000,1000,1000,75128270,1586,1587,1544,1544
45023650,1000,1000,1000,1000,75228230,1587,1588,1543,1542
45026149,1000,1000,1000,1000,75328190,1589,1589,1543,1543
45028648,1000,1000,1000,1000,75428983,1590,1590,1542,1542
45031147,1000,1000,1000,1000,75528943,1589,1591,1540,1542
45033646,1000,1000,1000,1000,75628903,1591,1592,1540,1542
45036145,1000,1000,1000,1000,75728863,1591,1592,1540,1542
45038644,1000,1000,1000,1000,75828823,1591,1591,1542,1544
45041143,1000,1000,1000,1000,75928783,1589,1587,1547,1549
45043642,1000,1000,1000,1000,76028743,1584,1581,1552,1555
45046141,1000,1000,1000,1000,76128703,1578,1574,1562,1564
45048640,1000,1000,1000,1000,76228663,1569,1564,1572,1575
45051139,1000,1000,1000,1000,76328623,1558,1554,1584,1585
45053638,1000,1000,1000,1000,76428583,1547,1546,1595,1595
45056137,1000,1000,1000,1000,76528543,1538,1538,1603,1603
45058636,1000,1000,1000,1000,76628503,1534,1535,1610,1609
45061135,1000,1000,1000,1000,76728463,1532,1532,1611,1611
45063634,1000,1000,1000,1000,76828423,1535,1536,1611,1611
45066133,1000,1000,1000,1000,76928383,1541,1542,1610,1609
45068632,1000,1000,1000,1000,77028343,1547,1548,1605,1603
45071131,1000,1000,1000,1000,77128303,1554,1555,1598,1597
45073630,1000,1000,1000,1000,77228263,1562,1563,1591,1590
45076129,1000,1000,1000,1000,77328223,1569,1569,1583,1582
45078628,1000,1000,1000,1000,77428183,1575,1575,1577,1576
45081127,1000,1000,1000,1000,77528976,1581,1580,1572,1572
45083626,1000,1000,1000,1000,77628936,1584,1583,1568,1569
45086125,1000,1000,1000,1000,77728896,1586,1585,1567,1568
45088624,1000,1000,1000,1000,77828856,1586,1585,1567,1567
45091123,1000,1000,1000,1000,77928816,1585,1584,1568,1568
45093622,1000,1000,1000,1000,78028776,1583,1582,1570,1570
45096121,1000,1000,1000,1000,78128736,1581,1580,1573,1573
45098620,1000,1000,1000,1000,78228696,1577,1577,1575,1575
45101119,1000,1000,1000,1000,78328656,1576,1576,1579,1579
45103618,1000,1000,1000,1000,78428616,1574,1574,1581,1580
45106117,1000,1000,1000,1000,78528576,1572,1572,1581,1581
45108616,1000,1000,1000,1000,78628536,1571,1572,1582,1582
45111115,1000,1000,1000,1000,78728496,1572,1572,1582,1582
45113614,1000,1000,1000,1000,78828456,1573,1573,1583,1583
45116113,1000,1000,1000,1000,78928416,1574,1574,1581,1582
45118612,1000,1000,1000,1000,79028376,1575,1575,1580,1581
45121111,1000,1000,1000,1000,79128336,1577,1577,1580,1580
45123610,1000,1000,1000,1000,79228296,1578,1578,1579,1579
45126109,1000,1000,1000,1000,79328256,1579,1579,1578,1578
45128608,1000,1000,1000,1000,79428216,1580,1580,1577,1578
45131107,1000,1000,1000,1000,79528176,1581,1580,1577,1577
45133606,1000,1000,1000,1000,79628969,1581,1582,1577,1577
45136105,1000,1000,1000,1000,79728929,1581,1581,1578,1578
45138604,1000,1000,1000,1000,79828889,1582,1581,1578,1579
45141103,1000,1000,1000,1000,79928849,1581,1581,1578,1578
45143602,1000,1000,1000,1000,80028809,1581,1581,1579,1580
45146101,1000,1000,1000,1000,80128769,1581,1581,1581,1580
45148600,1000,1000,1000,1000,80228729,1580,1581,1581,1581
45151099,1000,1000,1000,1000,80328689,1580,1580,1581,1581
45153598,1000,1000,1000,1000,80428649,1581,1581,1583,1583
45156097,1000,1000,1000,1000,80528609,1579,1579,1581,1581
45158596,1000,1000,1000,1000,80628569,1579,1579,1581,1581
45161095,1000,1000,1000,1000,80728529,1579,1579,1581,1581
45163594,1000,1000,1000,1000,80828489,1579,1580,1580,1581
45166093,1000,1000,1000,1000,80928449,1581,1581,1581,1581
45168592,1000,1000,1000,1000,81028409,1580,1580,1581,1580
45171091,1000,1000,1000,1000,81128369,1581,1581,1582,1579
45173590,1000,1000,1000,1000,81228329,1581,1582,1587,1572
45176089,1000,1000,1000,1000,81328289,1579,1580,1583,1573
45178588,1000,1000,1000,1000,81428249,1577,1577,1576,1574
45181087,1000,1000,1000,1000,81528209,1573,1573,1569,1574
45183586,1000,1000,1000,1000,81628169,1570,1570,1565,1573
45186085,1000,1000,1000,1000,81728962,1568,1568,1564,1571
45188584,1000,1000,1000,1000,81828922,1567,1566,1565,1568
45191083,1000,1000,1000,1000,81928882,1567,1566,1567,1566
45193582,1000,1000,1000,1000,82028842,1566,1567,1568,1565
45196081,1000,1000,1000,1000,82128802,1566,1566,1568,1565
45198580,1000,1000,1000,1000,82228762,1564,1564,1566,1564
45201079,1000,1000,1000,1000,82328722,1563,1563,1565,1564
45203578,1000,1000,1000,1000,82428682,1563,1563,1564,1564
45206077,1000,1000,1000,1000,82528642,1561,1563,1564,1563
45208576,1000,1000,1000,1000,82628602,1558,1561,1564,1562
45211075,1000,1000,1000,1000,82728562,1557,1559,1564,1564
45213574,1000,1000,1000,1000,82828522,1556,1556,1564,1564
45216073,1000,1000,1000,1000,82928482,1554,1554,1565,1565
45218572,1000,1000,1000,1000,83028442,1554,1552,1564,1564
45221071,1000,1000,1000,1000,83128402,1553,1551,1564,1563
45223570,1000,1000,1000,1000,83228362,1553,1551,1562,1562
45226069,1000,1000,1000,1000,83328322,1554,1553,1560,1560
45228568,1000,1000,1000,1000,83428282,1556,1555,1559,1558
45231067,1000,1000,1000,1000,83528242,1558,1557,1557,1556
45233566,1000,1000,1000,1000,83628202,1561,1559,1556,1554
45236065,1000,1000,1000,1000,83728162,1563,1561,1554,1552
45238564,1000,1000,1000,1000,83828955,1566,1563,1554,1552
45241063,1000,1000,1000,1000,83928915,1566,1565,1552,1554
45243562,1000,1000,1000,1000,84028875,1567,1566,1550,1555
45246061,1000,1000,1000,1000,84128835,1568,1568,1551,1557
45248560,1000,1000,1000,1000,84228795,1567,1568,1551,1557
45251059,1000,1000,1000,1000,84328755,1565,1567,1553,1557
45253558,1000,1000,1000,1000,84428715,1565,1567,1557,1558
45256057,1000,1000,1000,1000,84528675,1563,1565,1559,1557
45258556,1000,1000,1000,1000,84628635,1562,1563,1561,1558
45261055,1000,1000,1000,1000,84728595,1561,1562,1560,1561
45263554,1000,1000,1000,1000,84828555,1559,1559,1557,1562
45266053,1000,1000,1000,1000,84928515,1554,1555,1554,1559
45268552,1000,1000,1000,1000,85028475,1550,1550,1552,1553
45271051,1000,1000,1000,1000,85128435,1543,1544,1547,1546
45273550,1000,1000,1000,1000,85228395,1536,1537,1541,1539
45276049,1000,1000,1000,1000,85328355,1529,1530,1532,1531
45278548,1000,1000,1000,1000,85428315,1523,1523,1524,1523
45281047,1000,1000,1000,1000,85528275,1521,1522,1521,1521
45283546,1000,1000,1000,1000,85628235,1522,1521,1520,1519
45286045,1000,1000,1000,1000,85728195,1523,1522,1521,1520
45288544,1000,1000,1000,1000,85828155,1526,1523,1524,1522
45291043,1000,1000,1000,1000,85928948,1528,1527,1528,1527
45293542,1000,1000,1000,1000,86028908,1532,1530,1533,1532
45296041,1000,1000,1000,1000,86128868,1535,1535,1538,1538
45298540,1000,1000,1000,1000,86228828,1537,1537,1542,1542
45301039,1000,1000,1000,1000,86328788,1537,1539,1544,1544
45303538,1000,1000,1000,1000,86428748,1540,1540,1546,1546
45306037,1000,1000,1000,1000,86528708,1541,1541,1546,1547
45308536,1000,1000,1000,1000,86628668,1543,1542,1547,1547
45311035,1000,1000,1000,1000,86728628,1543,1544,1547,1547
45313534,1000,1000,1000,1000,86828588,1545,1545,1547,1546
45316033,1000,1000,1000,1000,86928548,1545,1545,1545,1546
45318532,1000,1000,1000,1000,87028508,1545,1545,1544,1544
45321031,1000,1000,1000,1000,87128468,1545,1546,1544,1544
45323530,1000,1000,1000,1000,87228428,1546,1546,1544,1544
45326029,1000,1000,1000,1000,87328388,1546,1546,1544,1544
45328528,1000,1000,1000,1000,87428348,1547,1546,1544,1544
45331027,1000,1000,1000,1000,87528308,1545,1546,1543,1544
45333526,1000,1000,1000,1000,87628268,1545,1546,1544,1545
45336025,1000,1000,1000,1000,87728228,1544,1545,1543,1544
45338524,1000,1000,1000,1000,87828188,1545,1544,1545,1544
45341023,1000,1000,1000,1000,87928981,1544,1544,1544,1544
45343522,1000,1000,1000,1000,88028941,1543,1543,1544,1544
45346021,1000,1000,1000,1000,88128901,1543,1543,1545,1544
45348520,1000,1000,1000,1000,88228861,1543,1543,1544,1544
45351019,1000,1000,1000,1000,88328821,1543,1544,1544,1545
45353518,1000,1000,1000,1000,88428781,1544,1543,1545,1544
45356017,1000,1000,1000,1000,88528741,1543,1543,1544,1544
45358516,1000,1000,1000,1000,88628701,1544,1544,1544,1545
45361015,1000,1000,1000,1000,88728661,1543,1544,1543,1544
45363514,1000,1000,1000,1000,88828621,1543,1543,1543,1543
45366013,1000,1000,1000,1000,88928581,1543,1543,1543,1543
45368512,1000,1000,1000,1000,89028541,1544,1543,1543,1543
45371011,1000,1000,1000,1000,89128501,1544,1544,1544,1543
45373510,1000,1000,1000,1000,89228461,1543,1544,1544,1543
45376009,1000,1000,1000,1000,89328421,1543,1544,1544,1544
45378508,1000,1000,1000,1000,89428381,1544,1544,1544,1544
45381007,1000,1000,1000,1000,89528341,1544,1543,1543,1543
45383506,1000,1000,1000,1000,89628301,1545,1543,1544,1544
45386005,1000,1000,1000,1000,89728261,1544,1544,1543,1544
45388504,1000,1000,1000,1000,89828221,1545,1545,1545,1544
45391003,1000,1000,1000,1000,89928181,1544,1544,1544,1544
45393502,1000,1000,1000,1000,90028974,1544,1544,1544,1544
45396001,1000,1000,1000,1000,90128934,1544,1545,1544,1545
45398500,1000,1000,1000,1000,90228894,1544,1545,1545,1544
45400999,1000,1000,1000,1000,90328854,1544,1544,1544,1544
45403498,1000,1000,1000,1000,90428814,1545,1544,1545,1544
45405997,1000,1000,1000,1000,90528774,1545,1545,1544,1545
45408496,1000,1000,1000,1000,90628734,1545,1544,1544,1545
45410995,1000,1000,1000,1000,90728694,1545,1545,1545,1545
45413494,1000,1000,1000,1000,90828654,1544,1544,1544,1544
45415993,1000,1000,1000,1000,90928614,1544,1544,1544,1544
45418492,1000,1000,1000,1000,91028574,1544,1544,1545,1544
45420991,1000,1000,1000,1000,91128534,1543,1544,1544,1544
45423490,1000,1000,1000,1000,91228494,1544,1544,1544,1544
45425989,1000,1000,1000,1000,91328454,1544,1544,1544,1544
45428488,1000,1000,1000,1000,91428414,1544,1543,1544,1543
45430987,1000,1000,1000,1000,91528374,1544,1544,1544,1545
45433486,1000,1000,1000,1000,91628334,1544,1545,1544,1544
45435985,1000,1000,1000,1000,91728294,1544,1544,1544,1544
45438484,1000,1000,1000,1000,91828254,1544,1544,1544,1544
45440983,1000,1000,1000,1000,91928214,1545,1544,1544,1545
45443482,1000,1000,1000,1000,92028174,1544,1544,1544,1544
45445981,1000,1000,1000,1000,92128967,1543,1544,1544,1544
45448480,1000,1000,1000,1000,92228927,1543,1543,1543,1543
45450979,1000,1000,1000,1000,92328887,1543,1544,1543,1544
45453478,1000,1000,1000,1000,92428847,1543,1544,1543,1544
45455977,1000,1000,1000,1000,92528807,1544,1544,1543,1544
45458476,1000,1000,1000,1000,92628767,1543,1543,1543,1543
45460975,1000,1000,1000,1000,92728727,1544,1544,1544,1544
45463474,1000,1000,1000,1000,92828687,1544,1544,1544,1544
45465973,1000,1000,1000,1000,92928647,1544,1544,1544,1544
45468472,1000,1000,1000,1000,93028607,1544,1544,1544,1544
45470971,1000,1000,1000,1000,93128567,1543,1544,1545,1543
45473470,1000,1000,1000,1000,93228527,1542,1542,1546,1544
45475969,1000,1000,1000,1000,93328487,1540,1542,1547,1546
45478468,1000,1000,1000,1000,93428447,1539,1540,1549,1548
45480967,1000,1000,1000,1000,93528407,1538,1538,1549,1550
45483466,1000,1000,1000,1000,93628367,1539,1538,1550,1552
45485965,1000,1000,1000,1000,93728327,1538,1536,1549,1550
45488464,1000,1000,1000,1000,93828287,1539,1539,1549,1551
45490963,1000,1000,1000,1000,93928247,1540,1540,1547,1548
45493462,1000,1000,1000,1000,94028207,1542,1541,1546,1546
45495961,1000,1000,1000,1000,94128167,1545,1545,1545,1545
45498460,1000,1000,1000,1000,94228960,1546,1546,1542,1543
45500959,1000,1000,1000,1000,94328920,1548,1548,1541,1541
45503458,1000,1000,1000,1000,94428880,1548,1548,1538,1539
45505957,1000,1000,1000,1000,94528840,1549,1550,1538,1538
45508456,1000,1000,1000,1000,94628800,1550,1550,1538,1538
45510955,1000,1000,1000,1000,94728760,1550,1550,1539,1538
45513454,1000,1000,1000,1000,94828720,1549,1550,1539,1539
45515953,1000,1000,1000,1000,94928680,1548,1549,1540,1540
45518452,1000,1000,1000,1000,95028640,1548,1548,1540,1541
45520951,1000,1000,1000,1000,95128600,1547,1547,1542,1542
45523450,1000,1000,1000,1000,95228560,1455,1471,1456,1461
45525949,1000,1000,1000,1000,95328520,1258,1321,1305,1274
45528448,1000,1000,1000,1000,95428480,1204,1280,1255,1227
45530947,1000,1000,1000,1000,95528440,1204,1277,1236,1234
45533446,1000,1000,1000,1000,95628400,1204,1276,1216,1239
45535945,1000,1000,1000,1000,95728360,1204,1282,1206,1243
45538444,1000,1000,1000,1000,95828320,1204,1289,1200,1245
45540943,1000,1000,1000,1000,95928280,1204,1300,1195,1249
45543442,1000,1000,1000,1000,96028240,1204,1273,1212,1193
45545941,1000,1000,1000,1000,96128200,1204,1289,1198,1214
45548440,1000,1000,1000,1000,96228160,1204,1296,1186,1219
45550939,1000,1000,1000,1000,96328953,1204,1300,1177,1219
45553438,1000,1000,1000,1000,96428913,1204,1302,1172,1218
45555937,1000,1000,1000,1000,96528873,1204,1304,1168,1219
45558436,1000,1000,1000,1000,96628833,1204,1306,1165,1219
45560935,1000,1000,1000,1000,96728793,1204,1308,1162,1222
45563434,1000,1000,1000,1000,96828753,1204,1280,1163,1187
45565933,1000,1000,1000,1000,96928713,1204,1282,1161,1190
45568432,1000,1000,1000,1000,97028673,1204,1283,1160,1191
45570931,1000,1000,1000,1000,97128633,1204,1283,1159,1192
45573430,1000,1000,1000,1000,97228593,1204,1283,1158,1192
45575929,1000,1000,1000,1000,97328553,1000,1000,1000,1000
45578428,1000,1000,1000,1000,97428513,1000,1000,1000,1000
45580927,1000,1000,1000,1000,97528473,1000,1000,1000,1000
45583426,1000,1000,1000,1000,97628433,1000,1000,1000,1000
45585925,1000,1000,1000,1000,97728393,1000,1000,1000,1000
45588424,1000,1000,1000,1000,97828353,1000,1000,1000,1000
45590923,1000,1000,1000,1000,97928313,1000,1000,1000,1000
45593422,1000,1000,1000,1000,98028273,1000,1000,1000,1000
45595921,1000,1000,1000,1000,98128233,1000,1000,1000,1000
45598420,1000,1000,1000,1000,98228193,1000,1000,1000,1000
45600919,1000,1000,1000,1000,98328986,1000,1000,1000,1000
45603418,1000,1000,1000,1000,98428946,1000,1000,1000,1000
45605917,1000,1000,1000,1000,98528906,1000,1000,1000,1000
45608416,1000,1000,1000,1000,98628866,1000,1000,1000,1000
45610915,1000,1000,1000,1000,98728826,1000,1000,1000,1000
45613414,1000,1000,1000,1000,98828786,1000,1000,1000,1000
45615913,1000,1000,1000,1000,98928746,1000,1000,1000,1000
45618412,1000,1000,1000,1000,99028706,1000,1000,1000,1000
45620911,1000,1000,1000,1000,99128666,1000,1000,1000,1000
45623410,1000,1000,1000,1000,99228626,1000,1000,1000,1000
45625909,1000,1000,1000,1000,99328586,1000,1000,1000,1000
45628408,1000,1000,1000,1000,99428546,1000,1000,1000,1000
45630907,1000,1000,1000,1000,99528506,1000,1000,1000,1000
45633406,1000,1000,1000,1000,99628466,1000,1000,1000,1000
45635905,1000,1000,1000,1000,99728426,1000,1000,1000,1000
45638404,1000,1000,1000,1000,99828386,1000,1000,1000,1000
45640903,1000,1000,1000,1000,99928346,1000,1000,1000,1000
45643402,1000,1000,1000,1000,100028306,1000,1000,1000,1000
45645901,1000,1000,1000,1000,100128266,1000,1000,1000,1000
45648400,1000,1000,1000,1000,100228226,1000,1000,1000,1000
45650899,1000,1000,1000,1000,100328186,1000,1000,1000,1000
45653398,1000,1000,1000,1000,100428979,1000,1000,1000,1000
45655897,1000,1000,1000,1000,100528939,1000,1000,1000,1000
45658396,1000,1000,1000,1000,100628899,1000,1000,1000,1000
45660895,1000,1000,1000,1000,100728859,1000,1000,1000,1000
45663394,1000,1000,1000,1000,100828819,1000,1000,1000,1000
45665893,1000,1000,1000,1000,100928779,1000,1000,1000,1000
45668392,1000,1000,1000,1000,101028739,1000,1000,1000,1000
45670891,1000,1000,1000,1000,101128699,1000,1000,1000,1000
45673390,1000,1000,1000,1000,101228659,1000,1000,1000,1000
45675889,1000,1000,1000,1000,101328619,1000,1000,1000,1000
45678388,1000,1000,1000,1000,101428579,1000,1000,1000,1000
45680887,1000,1000,1000,1000,101528539,1000,1000,1000,1000
45683386,1000,1000,1000,1000,101628499,1000,1000,1000,1000
45685885,1000,1000,1000,1000,101728459,1000,1000,1000,1000
45688384,1000,1000,1000,1000,101828419,1000,1000,1000,1000
45690883,1000,1000,1000,1000,101928379,1000,1000,1000,1000
45693382,1000,1000,1000,1000,102028339,1000,1000,1000,1000
45695881,1000,1000,1000,1000,102128299,1000,1000,1000,1000
45698380,1000,1000,1000,1000,102228259,1000,1000,1000,1000
45700879,1000,1000,1000,1000,102328219,1000,1000,1000,1000
45703378,1000,1000,1000,1000,102428179,1000,1000,1000,1000
45705877,1000,1000,1000,1000,102528972,1000,1000,1000,1000
45708376,1000,1000,1000,1000,102628932,1000,1000,1000,1000
45710875,1000,1000,1000,1000,102728892,1000,1000,1000,1000
45713374,1000,1000,1000,1000,102828852,1000,1000,1000,1000
45715873,1000,1000,1000,1000,102928812,1000,1000,1000,1000
45718372,1000,1000,1000,1000,103028772,1000,1000,1000,1000
45720871,1000,1000,1000,1000,103128732,1000,1000,1000,1000
45723370,1000,1000,1000,1000,103228692,1000,1000,1000,1000
45725869,1000,1000,1000,1000,103328652,1000,1000,1000,1000
45728368,1000,1000,1000,1000,103428612,1000,1000,1000,1000
45730867,1000,1000,1000,1000,103528572,1000,1000,1000,1000
45733366,1000,1000,1000,1000,103628532,1000,1000,1000,1000
45735865,1000,1000,1000,1000,103728492,1000,1000,1000,1000
45738364,1000,1000,1000,1000,103828452,1000,1000,1000,1000
45740863,1000,1000,1000,1000,103928412,1000,1000,1000,1000
45743362,1000,1000,1000,1000,104028372,1000,1000,1000,1000
45745861,1000,1000,1000,1000,104128332,1000,1000,1000,1000
45748360,1000,1000,1000,1000,104228292,1000,1000,1000,1000
45750859,1000,1000,1000,1000,104328252,1000,1000,1000,1000
45753358,1000,1000,1000,1000,104428212,1000,1000,1000,1000
45755857,1000,1000,1000,1000,104528172,1000,1000,1000,1000
45758356,1000,1000,1000,1000,104628965,1000,1000,1000,1000
45760855,1000,1000,1000,1000,104728925,1000,1000,1000,1000
45763354,1000,1000,1000,1000,104828885,1000,1000,1000,1000
45765853,1000,1000,1000,1000,104928845,1000,1000,1000,1000
45768352,1000,1000,1000,1000,105028805,1000,1000,1000,1000
45770851,1000,1000,1000,1000,105128765,1000,1000,1000,1000
45773350,1000,1000,1000,1000,105228725,1000,1000,1000,1000
45775849,1000,1000,1000,1000,105328685,1000,1000,1000,1000
45778348,1000,1000,1000,1000,105428645,1000,1000,1000,1000
45780847,1000,1000,1000,1000,105528605,1000,1000,1000,1000
45783346,1000,1000,1000,1000,105628565,1000,1000,1000,1000
45785845,1000,1000,1000,1000,105728525,1000,1000,1000,1000
45788344,1000,1000,1000,1000,105828485,1000,1000,1000,1000
45790843,1000,1000,1000,1000,105928445,1000,1000,1000,1000
45793342,1000,1000,1000,1000,106028405,1000,1000,1000,1000
45795841,1000,1000,1000,1000,106128365,1000,1000,1000,1000
45798340,1000,1000,1000,1000,106228325,1000,1000,1000,1000
45800839,1000,1000,1000,1000,106328285,1000,1000,1000,1000
45803338,1000,1000,1000,1000,106428245,1000,1000,1000,1000
45805837,1000,1000,1000,1000,106528205,1000,1000,1000,1000
45808336,1000,1000,1000,1000,106628165,1000,1000,1000,1000
45810835,1000,1000,1000,1000,106728958,1000,1000,1000,1000
45813334,1000,1000,1000,1000,106828918,1000,1000,1000,1000
45815833,1000,1000,1000,1000,106928878,1000,1000,1000,1000
45818332,1000,1000,1000,1000,107028838,1000,1000,1000,1000
45820831,1000,1000,1000,1000,107128798,1000,1000,1000,1000
45823330,1000,1000,1000,1000,107228758,1000,1000,1000,1000
45825829,1000,1000,1000,1000,107328718,1000,1000,1000,1000
45828328,1000,1000,1000,1000,107428678,1000,1000,1000,1000
45830827,1000,1000,1000,1000,107528638,1000,1000,1000,1000
45833326,1000,1000,1000,1000,107628598,1000,1000,1000,1000
45835825,1000,1000,1000,1000,107728558,1000,1000,1000,1000
45838324,1000,1000,1000,1000,107828518,1000,1000,1000,1000
45840823,1000,1000,1000,1000,107928478,1000,1000,1000,1000
45843322,1000,1000,1000,1000,108028438,1000,1000,1000,1000
45845821,1000,1000,1000,1000,108128398,1000,1000,1000,1000
45848320,1000,1000,1000,1000,108228358,1000,1000,1000,1000
45850819,1000,1000,1000,1000,108328318,1000,1000,1000,1000
45853318,1000,1000,1000,1000,108428278,1000,1000,1000,1000
45855817,1000,1000,1000,1000,108528238,1000,1000,1000,1000
45858316,1000,1000,1000,1000,108628198,1000,1000,1000,1000
45860815,1000,1000,1000,1000,108728158,1000,1000,1000,1000
45863314,1000,1000,1000,1000,108828951,1000,1000,1000,1000
45865813,1000,1000,1000,1000,108928911,1000,1000,1000,1000
45868312,1000,1000,1000,1000,109028871,1000,1000,1000,1000
45870811,1000,1000,1000,1000,109128831,1000,1000,1000,1000
45873310,1000,1000,1000,1000,109228791,1000,1000,1000,1000
45875809,1000,1000,1000,1000,109328751,1000,1000,1000,1000
45878308,1000,1000,1000,1000,109428711,1000,1000,1000,1000
45880807,1000,1000,1000,1000,109528671,1000,1000,1000,1000
45883306,1000,1000,1000,1000,109628631,1000,1000,1000,1000
45885805,1000,1000,1000,1000,109728591,1000,1000,1000,1000
45888304,1000,1000,1000,1000,109828551,1000,1000,1000,1000
45890803,1000,1000,1000,1000,109928511,1000,1000,1000,1000
45893302,1000,1000,1000,1000,110028471,1000,1000,1000,1000
45895801,1000,1000,1000,1000,110128431,1000,1000,1000,1000
45898300,1000,1000,1000,1000,110228391,1000,1000,1000,1000
45900799,1000,1000,1000,1000,110328351,1000,1000,1000,1000
45903298,1000,1000,1000,1000,110428311,1000,1000,1000,1000
45905797,1000,1000,1000,1000,110528271,1000,1000,1000,1000
45908296,1000,1000,1000,1000,110628231,1000,1000,1000,1000
45910795,1000,1000,1000,1000,110728191,1000,1000,1000,1000
45913294,1000,1000,1000,1000,110828984,1000,1000,1000,1000
45915793,1000,1000,1000,1000,110928944,1000,1000,1000,1000
45918292,1000,1000,1000,1000,111028904,1000,1000,1000,1000
45920791,1000,1000,1000,1000,111128864,1000,1000,1000,1000
45923290,1000,1000,1000,1000,111228824,1000,1000,1000,1000
45925789,1000,1000,1000,1000,111328784,1000,1000,1000,1000
45928288,1000,1000,1000,1000,111428744,1000,1000,1000,1000
45930787,1000,1000,1000,1000,111528704,1000,1000,1000,1000
45933286,1000,1000,1000,1000,111628664,1000,1000,1000,1000
45935785,1000,1000,1000,1000,111728624,1000,1000,1000,1000
45938284,1000,1000,1000,1000,111828584,1000,1000,1000,1000
45940783,1000,1000,1000,1000,111928544,1000,1000,1000,1000
45943282,1000,1000,1000,1000,112028504,1000,1000,1000,1000
45945781,1000,1000,1000,1000,112128464,1000,1000,1000,1000
45948280,1000,1000,1000,1000,112228424,1000,1000,1000,1000
45950779,1000,1000,1000,1000,,,,,
45953278,1000,1000,1000,1000,,,,,
45955777,1000,1000,1000,1000,,,,,
45958276,1000,1000,1000,1000,,,,,
45960775,1000,1000,1000,1000,,,,,
45963274,1000,1000,1000,1000,,,,,
45965773,1000,1000,1000,1000,,,,,
45968272,1000,1000,1000,1000,,,,,
45970771,1000,1000,1000,1000,,,,,
45973270,1000,1000,1000,1000,,,,,
45975769,1000,1000,1000,1000,,,,,
45978268,1000,1000,1000,1000,,,,,
45980767,1000,1000,1000,1000,,,,,
45983266,1000,1000,1000,1000,,,,,
45985765,1000,1000,1000,1000,,,,,
45988264,1000,1000,1000,1000,,,,,
45990763,1000,1000,1000,1000,,,,,
45993262,1000,1000,1000,1000,,,,,
45995761,1000,1000,1000,1000,,,,,
45998260,1000,1000,1000,1000,,,,,
46000759,1000,1000,1000,1000,,,,,
46003258,1000,1000,1000,1000,,,,,
46005757,1000,1000,1000,1000,,,,,
46008256,1000,1000,1000,1000,,,,,
46010755,1000,1000,1000,1000,,,,,
46013254,1000,1000,1000,1000,,,,,
46015753,1000,1000,1000,1000,,,,,
46018252,1000,1000,1000,1000,,,,,
46020751,1000,1000,1000,1000,,,,,
46023250,1000,1000,1000,1000,,,,,
46025749,1000,1000,1000,1000,,,,,
46028248,1000,1000,1000,1000,,,,,
46030747,1000,1000,1000,1000,,,,,
46033246,1000,1000,1000,1000,,,,,
46035745,1000,1000,1000,1000,,,,,
46038244,1000,1000,1000,1000,,,,,
46040743,1000,1000,1000,1000,,,,,
46043242,1000,1000,1000,1000,,,,,
46045741,1000,1000,1000,1000,,,,,
46048240,1000,1000,1000,1000,,,,,
46050739,1000,1000,1000,1000,,,,,
46053238,1000,1000,1000,1000,,,,,
46055737,1000,1000,1000,1000,,,,,
46058236,1000,1000,1000,1000,,,,,
46060735,1000,1000,1000,1000,,,,,
46063234,1000,1000,1000,1000,,,,,
46065733,1000,1000,1000,1000,,,,,
46068232,1000,1000,1000,1000,,,,,
46070731,1000,1000,1000,1000,,,,,
46073230,1000,1000,1000,1000,,,,,
46075729,1000,1000,1000,1000,,,,,
46078228,1000,1000,1000,1000,,,,,
46080727,1000,1000,1000,1000,,,,,
46083226,1000,1000,1000,1000,,,,,
46085725,1000,1000,1000,1000,,,,,
46088224,1000,1000,1000,1000,,,,,
46090723,1000,1000,1000,1000,,,,,
46093222,1000,1000,1000,1000,,,,,
46095721,1000,1000,1000,1000,,,,,
46098220,1000,1000,1000,1000,,,,,
46100719,1000,1000,1000,1000,,,,,
46103218,1000,1000,1000,1000,,,,,
46105717,1000,1000,1000,1000,,,,,
46108216,1000,1000,1000,1000,,,,,
46110715,1000,1000,1000,1000,,,,,
46113214,1000,1000,1000,1000,,,,,
46115713,1000,1000,1000,1000,,,,,
46118212,1000,1000,1000,1000,,,,,
46120711,1000,1000,1000,1000,,,,,
46123210,1000,1000,1000,1000,,,,,
46125709,1000,1000,1000,1000,,,,,
46128208,1000,1000,1000,1000,,,,,
46130707,1000,1000,1000,1000,,,,,
46133206,1000,1000,1000,1000,,,,,
46135705,1000,1000,1000,1000,,,,,
46138204,1000,1000,1000,1000,,,,,
46140703,1000,1000,1000,1000,,,,,
46143202,1000,1000,1000,1000,,,,,
46145701,1000,1000,1000,1000,,,,,
46148200,1000,1000,1000,1000,,,,,
46150699,1000,1000,1000,1000,,,,,
46153198,1000,1000,1000,1000,,,,,
46155697,1000,1000,1000,1000,,,,,
46158196,1000,1000,1000,1000,,,,,
46160695,1000,1000,1000,1000,,,,,
46163194,1000,1000,1000,1000,,,,,
46165693,1000,1000,1000,1000,,,,,
46168192,1000,1000,1000,1000,,,,,
46170691,1000,1000,1000,1000,,,,,
46173190,1000,1000,1000,1000,,,,,
46175689,1000,1000,1000,1000,,,,,
46178188,1000,1000,1000,1000,,,,,
46180687,1000,1000,1000,1000,,,,,
46183186,1000,1000,1000,1000,,,,,
46185685,1000,1000,1000,1000,,,,,
46188184,1000,1000,1000,1000,,,,,
46190683,1000,1000,1000,1000,,,,,
46193182,1000,1000,1000,1000,,,,,
46195681,1000,1000,1000,1000,,,,,
46198180,1000,1000,1000,1000,,,,,
46200679,1000,1000,1000,1000,,,,,
46203178,1000,1000,1000,1000,,,,,
46205677,1000,1000,1000,1000,,,,,
46208176,1000,1000,1000,1000,,,,,
46210675,1000,1000,1000,1000,,,,,
46213174,1000,1000,1000,1000,,,,,
46215673,1000,1000,1000,1000,,,,,
46218172,1000,1000,1000,1000,,,,,
46220671,1000,1000,1000,1000,,,,,
46223170,1000,1000,1000,1000,,,,,
46225669,1000,1000,1000,1000,,,,,
46228168,1000,1000,1000,1000,,,,,
46230667,1000,1000,1000,1000,,,,,
46233166,1000,1000,1000,1000,,,,,
46235665,1000,1000,1000,1000,,,,,
46238164,1000,1000,1000,1000,,,,,
46240663,1000,1000,1000,1000,,,,,
46243162,1000,1000,1000,1000,,,,,
46245661,1000,1000,1000,1000,,,,,
46248160,1000,1000,1000,1000,,,,,
46250659,1000,1000,1000,1000,,,,,
46253158,1000,1000,1000,1000,,,,,
46255657,1000,1000,1000,1000,,,,,
46258156,1001,1001,1001,1001,,,,,
46260655,1002,1002,1002,1002,,,,,
46263154,1003,1003,1003,1003,,,,,
46266486,1003,1003,1003,1003,,,,,
46268985,1004,1004,1004,1004,,,,,
46271484,1005,1005,1005,1005,,,,,
46273983,1006,1006,1006,1006,,,,,
46276482,1006,1006,1006,1006,,,,,
46278981,1007,1007,1007,1007,,,,,
46281480,1008,1008,1008,1008,,,,,
46283979,1009,1009,1009,1009,,,,,
46286478,1009,1009,1009,1009,,,,,
46288977,1010,1010,1010,1010,,,,,
46291476,1011,1011,1011,1011,,,,,
46293975,1012,1012,1012,1012,,,,,
46296474,1012,1012,1012,1012,,,,,
46298973,1013,1013,1013,1013,,,,,
46301472,1014,1014,1014,1014,,,,,
46303971,1015,1015,1015,1015,,,,,
46306470,1015,1015,1015,1015,,,,,
46308969,1016,1016,1016,1016,,,,,
46311468,1017,1017,1017,1017,,,,,
46313967,1018,1018,1018,1018,,,,,
46316466,1018,1018,1018,1018,,,,,
46318965,1019,1019,1019,1019,,,,,
46321464,1020,1020,1020,1020,,,,,
46323963,1021,1021,1021,1021,,,,,
46326462,1021,1021,1021,1021,,,,,
46328961,1022,1022,1022,1022,,,,,
46331460,1023,1023,1023,1023,,,,,
46333959,1024,1024,1024,1024,,,,,
46336458,1024,1024,1024,1024,,,,,
46338957,1025,1025,1025,1025,,,,,
46341456,1026,1026,1026,1026,,,,,
46343955,1027,1027,1027,1027,,,,,
46346454,1027,1027,1027,1027,,,,,
46348953,1028,1028,1028,1028,,,,,
46351452,1029,1029,1029,1029,,,,,
46353951,1030,1030,1030,1030,,,,,
46356450,1030,1030,1030,1030,,,,,
46358949,1031,1031,1031,1031,,,,,
46361448,1032,1032,1032,1032,,,,,
46363947,1033,1033,1033,1033,,,,,
46366446,1033,1033,1033,1033,,,,,
46368945,1034,1034,1034,1034,,,,,
46371444,1035,1035,1035,1035,,,,,
46373943,1036,1036,1036,1036,,,,,
46376442,1036,1036,1036,1036,,,,,
46378941,1037,1037,1037,1037,,,,,
46381440,1038,1038,1038,1038,,,,,
46383939,1039,1039,1039,1039,,,,,
46386438,1039,1039,1039,1039,,,,,
46388937,1040,1040,1040,1040,,,,,
46391436,1041,1041,1041,1041,,,,,
46393935,1042,1042,1042,1042,,,,,
46396434,1042,1042,1042,1042,,,,,
46398933,1043,1043,1043,1043,,,,,
46401432,1044,1044,1044,1044,,,,,
46403931,1045,1045,1045,1045,,,,,
46406430,1045,1045,1045,1045,,,,,
46408929,1046,1046,1046,1046,,,,,
46411428,1047,1047,1047,1047,,,,,
46413927,1048,1048,1048,1048,,,,,
46416426,1048,1048,1048,1048,,,,,
46418925,1049,1049,1049,1049,,,,,
46421424,1050,1050,1050,1050,,,,,
46423923,1051,1051,1051,1051,,,,,
46426422,1051,1051,1051,1051,,,,,
46428921,1052,1052,1052,1052,,,,,
46431420,1053,1053,1053,1053,,,,,
46433919,1054,1054,1054,1054,,,,,
46436418,1054,1054,1054,1054,,,,,
46438917,1055,1055,1055,1055,,,,,
46441416,1056,1056,1056,1056,,,,,
46443915,1057,1057,1057,1057,,,,,
46446414,1057,1057,1057,1057,,,,,
46448913,1058,1058,1058,1058,,,,,
46451412,1059,1059,1059,1059,,,,,
46453911,1060,1060,1060,1060,,,,,
46456410,1060,1060,1060,1060,,,,,
46458909,1061,1061,1061,1061,,,,,
46461408,1062,1062,1062,1062,,,,,
46463907,1063,1063,1063,1063,,,,,
46466406,1063,1063,1063,1063,,,,,
46468905,1064,1064,1064,1064,,,,,
46471404,1065,1065,1065,1065,,,,,
46473903,1066,1066,1066,1066,,,,,
46476402,1066,1066,1066,1066,,,,,
46478901,1067,1067,1067,1067,,,,,
46481400,1068,1068,1068,1068,,,,,
46483899,1069,1069,1069,1069,,,,,
46486398,1069,1069,1069,1069,,,,,
46488897,1070,1070,1070,1070,,,,,
46491396,1071,1071,1071,1071,,,,,
46493895,1072,1072,1072,1072,,,,,
46496394,1072,1072,1072,1072,,,,,
46498893,1073,1073,1073,1073,,,,,
46501392,1074,1074,1074,1074,,,,,
46503891,1075,1075,1075,1075,,,,,
46506390,1075,1075,1075,1075,,,,,
46508889,1076,1076,1076,1076,,,,,
46511388,1077,1077,1077,1077,,,,,
46513887,1078,1078,1078,1078,,,,,
46516386,1078,1078,1078,1078,,,,,
46518885,1079,1079,1079,1079,,,,,
46521384,1080,1080,1080,1080,,,,,
46523883,1081,1081,1081,1081,,,,,
46526382,1081,1081,1081,1081,,,,,
46528881,1082,1082,1082,1082,,,,,
46531380,1083,1083,1083,1083,,,,,
46533879,1084,1084,1084,1084,,,,,
46536378,1084,1084,1084,1084,,,,,
46538877,1085,1085,1085,1085,,,,,
46541376,1086,1086,1086,1086,,,,,
46543875,1087,1087,1087,1087,,,,,
46546374,1087,1087,1087,1087,,,,,
46548873,1088,1088,1088,1088,,,,,
46551372,1089,1089,1089,1089,,,,,
46553871,1090,1090,1090,1090,,,,,
46556370,1090,1090,1090,1090,,,,,
46558869,1091,1091,1091,1091,,,,,
46561368,1092,1092,1092,1092,,,,,
46563867,1093,1093,1093,1093,,,,,
46566366,1093,1093,1093,1093,,,,,
46568865,1094,1094,1094,1094,,,,,
46571364,1095,1095,1095,1095,,,,,
46573863,1096,1096,1096,1096,,,,,
46576362,1096,1096,1096,1096,,,,,
46578861,1097,1097,1097,1097,,,,,
46581360,1098,1098,1098,1098,,,,,
46583859,1099,1099,1099,1099,,,,,
46586358,1099,1099,1099,1099,,,,,
46588857,1100,1100,1100,1100,,,,,
46591356,1101,1101,1101,1101,,,,,
46593855,1101,1101,1101,1101,,,,,
46596354,1102,1102,1102,1102,,,,,
46598853,1103,1103,1103,1103,,,,,
46601352,1104,1104,1104,1104,,,,,
46603851,1104,1104,1104,1104,,,,,
46606350,1105,1105,1105,1105,,,,,
46608849,1106,1106,1106,1106,,,,,
46611348,1107,1107,1107,1107,,,,,
46613847,1107,1107,1107,1107,,,,,
46616346,1108,1108,1108,1108,,,,,
46618845,1109,1109,1109,1109,,,,,
46621344,1110,1110,1110,1110,,,,,
46623843,1110,1110,1110,1110,,,,,
46626342,1111,1111,1111,1111,,,,,
46628841,1112,1112,1112,1112,,,,,
46631340,1113,1113,1113,1113,,,,,
46633839,1113,1113,1113,1113,,,,,
46636338,1114,1114,1114,1114,,,,,
46638837,1115,1115,1115,1115,,,,,
46641336,1116,1116,1116,1116,,,,,
46643835,1116,1116,1116,1116,,,,,
46646334,1117,1117,1117,1117,,,,,
46648833,1118,1118,1118,1118,,,,,
46651332,1119,1119,1119,1119,,,,,
46653831,1119,1119,1119,1119,,,,,
46656330,1120,1120,1120,1120,,,,,
46658829,1121,1121,1121,1121,,,,,
46661328,1122,1122,1122,1122,,,,,
46663827,1122,1122,1122,1122,,,,,
46666326,1123,1123,1123,1123,,,,,
46668825,1124,1124,1124,1124,,,,,
46671324,1125,1125,1125,1125,,,,,
46673823,1125,1125,1125,1125,,,,,
46676322,1126,1126,1126,1126,,,,,
46678821,1127,1127,1127,1127,,,,,
46681320,1128,1128,1128,1128,,,,,
46683819,1128,1128,1128,1128,,,,,
46686318,1129,1129,1129,1129,,,,,
46688817,1130,1130,1130,1130,,,,,
46691316,1131,1131,1131,1131,,,,,
46693815,1131,1131,1131,1131,,,,,
46696314,1132,1132,1132,1132,,,,,
46698813,1133,1133,1133,1133,,,,,
46701312,1134,1134,1134,1134,,,,,
46703811,1134,1134,1134,1134,,,,,
46706310,1135,1135,1135,1135,,,,,
46708809,1136,1136,1136,1136,,,,,
46711308,1137,1137,1137,1137,,,,,
46713807,1137,1137,1137,1137,,,,,
46716306,1138,1138,1138,1138,,,,,
46718805,1139,1139,1139,1139,,,,,
46721304,1140,1140,1140,1140,,,,,
46723803,1140,1140,1140,1140,,,,,
46726302,1141,1141,1141,1141,,,,,
46728801,1142,1142,1142,1142,,,,,
46731300,1143,1143,1143,1143,,,,,
46733799,1143,1143,1143,1143,,,,,
46736298,1144,1144,1144,1144,,,,,
46738797,1145,1145,1145,1145,,,,,
46741296,1146,1146,1146,1146,,,,,
46743795,1146,1146,1146,1146,,,,,
46746294,1147,1147,1147,1147,,,,,
46748793,1148,1148,1148,1148,,,,,
46751292,1149,1149,1149,1149,,,,,
46753791,1149,1149,1149,1149,,,,,
46756290,1150,1150,1150,1150,,,,,
46758789,1161,1154,1155,1161,,,,,
46761288,1169,1162,1163,1169,,,,,
46763787,1177,1170,1171,1177,,,,,
46766286,1184,1178,1179,1185,,,,,
46768785,1192,1186,1186,1192,,,,,
46771284,1199,1193,1194,1200,,,,,
46773783,1207,1201,1201,1207,,,,,
46776282,1214,1208,1208,1214,,,,,
46778781,1221,1215,1216,1221,,,,,
46781280,1228,1222,1223,1228,,,,,
46783779,1235,1229,1230,1235,,,,,
46786278,1242,1236,1237,1242,,,,,
46788777,1248,1243,1243,1249,,,,,
46791276,1255,1250,1250,1255,,,,,
46793775,1261,1256,1257,1262,,,,,
46796274,1268,1263,1263,1268,,,,,
46798773,1274,1269,1269,1275,,,,,
46801272,1281,1275,1276,1281,,,,,
46803771,1287,1282,1282,1287,,,,,
46806270,1293,1288,1288,1293,,,,,
46808769,1299,1294,1294,1299,,,,,
46811268,1305,1300,1300,1305,,,,,
46813767,1311,1306,1306,1311,,,,,
46816266,1317,1312,1312,1317,,,,,
46818765,1323,1318,1318,1323,,,,,
46821264,1328,1324,1324,1329,,,,,
46823763,1334,1329,1330,1334,,,,,
46826262,1340,1335,1336,1340,,,,,
46828761,1345,1341,1341,1346,,,,,
46831260,1351,1346,1347,1351,,,,,
46833759,1357,1352,1352,1357,,,,,
46836258,1362,1357,1358,1362,,,,,
46838757,1367,1363,1363,1368,,,,,
46841256,1373,1368,1369,1373,,,,,
46843755,1378,1373,1374,1378,,,,,
46846254,1383,1379,1379,1383,,,,,
46848753,1389,1384,1384,1389,,,,,
46851252,1394,1389,1390,1394,,,,,
46853751,1399,1394,1395,1399,,,,,
46856250,1404,1399,1400,1404,,,,,
46858749,1409,1405,1405,1409,,,,,
46861248,1414,1410,1410,1414,,,,,
46863747,1419,1415,1415,1419,,,,,
46866246,1424,1420,1420,1424,,,,,
46868745,1429,1424,1425,1429,,,,,
46871244,1434,1429,1430,1434,,,,,
46873743,1439,1434,1435,1439,,,,,
46876242,1443,1439,1439,1444,,,,,
46878741,1448,1444,1444,1448,,,,,
46881240,1453,1449,1449,1453,,,,,
46883739,1458,1453,1454,1458,,,,,
46886238,1462,1458,1458,1463,,,,,
46888737,1467,1463,1463,1467,,,,,
46891236,1472,1467,1468,1472,,,,,
46893735,1476,1472,1472,1476,,,,,
46896234,1481,1476,1477,1481,,,,,
46898733,1485,1481,1481,1486,,,,,
46901232,1490,1486,1486,1490,,,,,
46903731,1494,1490,1490,1495,,,,,
46906230,1499,1494,1495,1499,,,,,
46908729,1503,1499,1499,1503,,,,,
46911228,1508,1503,1504,1508,,,,,
46913727,1512,1508,1508,1512,,,,,
46916226,1516,1512,1512,1517,,,,,
46918725,1521,1516,1517,1521,,,,,
46921224,1525,1521,1521,1525,,,,,
46923723,1529,1525,1525,1529,,,,,
46926222,1533,1529,1529,1534,,,,,
46928721,1538,1533,1534,1538,,,,,
46931220,1542,1538,1538,1542,,,,,
46933719,1546,1542,1542,1546,,,,,
46936218,1550,1546,1546,1550,,,,,
46938717,1554,1550,1550,1555,,,,,
46941216,1558,1554,1555,1559,,,,,
46943715,1563,1558,1559,1563,,,,,
46946214,1567,1563,1563,1567,,,,,
46948713,1571,1567,1567,1571,,,,,
46951212,1575,1571,1571,1575,,,,,
46953711,1579,1575,1575,1579,,,,,
46956210,1583,1579,1579,1583,,,,,
46958709,1587,1583,1583,1587,,,,,
46961208,1591,1587,1587,1591,,,,,
46963707,1595,1591,1591,1595,,,,,
46966206,1599,1594,1595,1599,,,,,
46968705,1603,1598,1599,1603,,,,,
46971204,1606,1602,1603,1606,,,,,
46973703,1610,1606,1607,1610,,,,,
46976202,1614,1610,1610,1614,,,,,
46978701,1618,1614,1614,1618,,,,,
46981200,1622,1618,1618,1622,,,,,
46983699,1626,1621,1622,1626,,,,,
46986198,1629,1625,1626,1629,,,,,
46988697,1633,1629,1629,1633,,,,,
46991196,1637,1633,1633,1637,,,,,
46993695,1641,1637,1637,1641,,,,,
46996194,1644,1640,1641,1644,,,,,
46998693,1648,1644,1644,1648,,,,,
47001192,1652,1648,1648,1652,,,,,
47003691,1655,1651,1652,1655,,,,,
47006190,1659,1655,1655,1659,,,,,
47008689,1663,1659,1659,1663,,,,,
47011188,1666,1662,1663,1666,,,,,
47013687,1670,1666,1666,1670,,,,,
47016186,1673,1670,1670,1674,,,,,
47018685,1677,1673,1674,1677,,,,,
47021184,1681,1677,1677,1681,,,,,
47023683,1684,1680,1681,1684,,,,,
47026182,1688,1684,1684,1688,,,,,
47028681,1691,1688,1688,1691,,,,,
47031180,1695,1691,1691,1695,,,,,
47033679,1698,1695,1695,1699,,,,,
47036178,1702,1698,1698,1702,,,,,
47038677,1705,1702,1702,1706,,,,,
47041176,1709,1705,1705,1709,,,,,
47043675,1712,1709,1709,1712,,,,,
47046174,1716,1712,1712,1716,,,,,
47048673,1719,1716,1716,1719,,,,,
47051172,1722,1719,1719,1723,,,,,
47053671,1726,1722,1722,1726,,,,,
47056170,1729,1726,1726,1730,,,,,
47058669,1733,1729,1729,1733,,,,,
47061168,1736,1733,1732,1736,,,,,
47063667,1739,1736,1736,1740,,,,,
47066166,1743,1739,1739,1743,,,,,
47068665,1746,1743,1743,1746,,,,,
47071164,1749,1746,1746,1750,,,,,
47073663,1753,1749,1749,1753,,,,,
47076162,1756,1753,1753,1756,,,,,
47078661,1759,1756,1756,1760,,,,,
47081160,1763,1759,1759,1763,,,,,
47083659,1766,1762,1762,1766,,,,,
47086158,1769,1766,1766,1769,,,,,
47088657,1772,1769,1769,1773,,,,,
47091156,1776,1772,1772,1776,,,,,
47093655,1779,1775,1776,1779,,,,,
47096154,1782,1779,1779,1782,,,,,
47098653,1785,1782,1782,1786,,,,,
47101152,1789,1785,1785,1789,,,,,
47103651,1792,1788,1788,1792,,,,,
47106150,1795,1791,1792,1795,,,,,
47108649,1798,1795,1795,1798,,,,,
47111148,1801,1798,1798,1802,,,,,
47113647,1805,1801,1801,1805,,,,,
47116146,1808,1804,1804,1808,,,,,
47118645,1811,1807,1807,1811,,,,,
47121144,1814,1810,1810,1814,,,,,
47123643,1817,1813,1814,1817,,,,,
47126142,1820,1816,1817,1820,,,,,
47128641,1823,1819,1820,1823,,,,,
47131140,1826,1823,1823,1827,,,,,
47133639,1830,1826,1826,1830,,,,,
47136138,1833,1829,1829,1833,,,,,
47138637,1836,1832,1832,1836,,,,,
47141136,1839,1835,1835,1839,,,,,
47143635,1842,1838,1838,1842,,,,,
47146134,1845,1841,1841,1845,,,,,
47148633,1848,1844,1844,1848,,,,,
47151132,1851,1847,1847,1851,,,,,
47153631,1852,1848,1848,1852,,,,,
47156130,1851,1847,1847,1851,,,,,
47158629,1849,1845,1846,1849,,,,,
47161128,1848,1844,1844,1848,,,,,
47163627,1847,1843,1843,1847,,,,,
47166126,1846,1842,1842,1846,,,,,
47168625,1844,1840,1841,1844,,,,,
47171124,1843,1839,1840,1843,,,,,
47173623,1842,1838,1839,1842,,,,,
47176122,1841,1837,1838,1841,,,,,
47178621,1840,1836,1837,1840,,,,,
47181120,1840,1836,1836,1840,,,,,
47183619,1839,1835,1835,1839,,,,,
47186118,1838,1834,1835,1838,,,,,
47188617,1838,1834,1834,1838,,,,,
47191116,1837,1833,1834,1837,,,,,
47193615,1837,1833,1833,1837,,,,,
47196114,1836,1833,1833,1837,,,,,
47198613,1836,1832,1833,1836,,,,,
47201112,1836,1832,1833,1836,,,,,
47203611,1836,1832,1832,1836,,,,,
47206110,1836,1832,1832,1836,,,,,
47208609,1836,1832,1833,1836,,,,,
47211108,1836,1832,1833,1836,,,,,
47213607,1836,1832,1833,1836,,,,,
47216106,1837,1833,1833,1837,,,,,
47218605,1837,1833,1834,1837,,,,,
47221104,1837,1834,1834,1837,,,,,
47223603,1838,1834,1834,1838,,,,,
47226102,1838,1835,1835,1838,,,,,
47228601,1839,1835,1836,1839,,,,,
47231100,1840,1836,1836,1840,,,,,
47233599,1840,1836,1837,1840,,,,,
47236098,1841,1837,1837,1841,,,,,
47238597,1842,1838,1838,1842,,,,,
47241096,1843,1839,1839,1843,,,,,
47243595,1843,1840,1840,1844,,,,,
47246094,1844,1841,1841,1845,,,,,
47248593,1845,1842,1842,1846,,,,,
47251092,1846,1843,1843,1847,,,,,
47253591,1847,1844,1844,1848,,,,,
47256090,1848,1845,1845,1849,,,,,
47258589,1849,1846,1846,1850,,,,,
47261088,1851,1847,1847,1851,,,,,
47263587,1852,1848,1848,1852,,,,,
47266086,1853,1849,1849,1853,,,,,
47268585,1854,1850,1850,1854,,,,,
47271084,1855,1851,1851,1855,,,,,
47273583,1855,1852,1852,1856,,,,,
47276082,1856,1853,1853,1856,,,,,
47278581,1856,1854,1854,1857,,,,,
47281080,1857,1854,1854,1857,,,,,
47283579,1857,1854,1854,1857,,,,,
47286078,1857,1854,1855,1857,,,,,
47288577,1857,1854,1854,1857,,,,,
47291076,1856,1854,1854,1857,,,,,
47293575,1856,1853,1854,1856,,,,,
47296074,1855,1853,1853,1855,,,,,
47298573,1854,1852,1852,1854,,,,,
47301072,1853,1851,1851,1853,,,,,
47303571,1852,1849,1850,1852,,,,,
47306070,1850,1848,1848,1851,,,,,
47308569,1849,1846,1847,1849,,,,,
47311068,1847,1845,1845,1847,,,,,
47313567,1845,1843,1843,1845,,,,,
47316066,1843,1841,1841,1843,,,,,
47318565,1841,1839,1839,1841,,,,,
47321064,1839,1837,1837,1839,,,,,
47323563,1836,1834,1834,1836,,,,,
47326062,1834,1832,1832,1834,,,,,
47328561,1831,1829,1829,1831,,,,,
47331060,1828,1827,1827,1829,,,,,
47333559,1826,1824,1824,1826,,,,,
47336058,1823,1821,1821,1823,,,,,
47338557,1820,1818,1818,1820,,,,,
47341056,1817,1815,1815,1817,,,,,
47343555,1814,1812,1812,1814,,,,,
47346054,1811,1809,1809,1811,,,,,
47348553,1807,1806,1806,1808,,,,,
47351052,1804,1803,1803,1804,,,,,
47353551,1801,1800,1800,1801,,,,,
47356050,1798,1796,1797,1798,,,,,
47358549,1794,1793,1793,1795,,,,,
47361048,1791,1790,1790,1791,,,,,
47363547,1788,1787,1787,1788,,,,,
47366046,1785,1783,1784,1785,,,,,
47368545,1781,1780,1780,1781,,,,,
47371044,1778,1777,1777,1778,,,,,
47373543,1775,1774,1774,1775,,,,,
47376042,1771,1770,1771,1771,,,,,
47378541,1768,1767,1767,1768,,,,,
47381040,1765,1763,1764,1765,,,,,
47383539,1761,1760,1760,1761,,,,,
47386038,1758,1757,1757,1758,,,,,
47388537,1754,1753,1754,1754,,,,,
47391036,1751,1750,1750,1751,,,,,
47393535,1748,1747,1747,1748,,,,,
47396034,1744,1743,1744,1744,,,,,
47398533,1741,1740,1741,1741,,,,,
47401032,1738,1737,1737,1738,,,,,
47403531,1734,1734,1734,1734,,,,,
47406030,1731,1730,1731,1731,,,,,
47408529,1728,1727,1728,1728,,,,,
47411028,1725,1724,1724,1725,,,,,
47413527,1721,1721,1721,1721,,,,,
47416026,1718,1718,1718,1718,,,,,
47418525,1715,1715,1715,1715,,,,,
47421024,1712,1711,1712,1712,,,,,
47423523,1709,1708,1709,1709,,,,,
47426022,1706,1705,1706,1706,,,,,
47428521,1703,1702,1703,1703,,,,,
47431020,1700,1699,1700,1700,,,,,
47433519,1697,1696,1697,1697,,,,,
47436018,1694,1693,1694,1694,,,,,
47438517,1691,1691,1691,1691,,,,,
47441016,1688,1688,1688,1688,,,,,
47443515,1685,1685,1685,1685,,,,,
47446014,1682,1682,1682,1683,,,,,
