timestamp,TimeUS,C1,C2,C3,C4,C5,C6,C7,C8,C9,C10,C11,C12,C13,C14
1709456658.30004001,44328928,1000,1000,1000,1000,0,0,0,0,0,0,0,0,0,0
1709456658.40000010,44428888,1000,1000,1000,1000,0,0,0,0,0,0,0,0,0,0
1709456658.49995995,44528848,1000,1000,1000,1000,0,0,0,0,0,0,0,0,0,0
1709456658.59992003,44628808,1000,1000,1000,1000,0,0,0,0,0,0,0,0,0,0
1709456658.69988012,44728768,1000,1000,1000,1000,0,0,0,0,0,0,0,0,0,0
1709456658.79983997,44828728,1000,1000,1000,1000,0,0,0,0,0,0,0,0,0,0
1709456658.89980006,44928688,1000,1000,1000,1000,0,0,0,0,0,0,0,0,0,0
1709456658.99975991,45028648,1000,1000,1000,1000,0,0,0,0,0,0,0,0,0,0
1709456659.09972000,45128608,1000,1000,1000,1000,0,0,0,0,0,0,0,0,0,0
1709456659.19968009,45228568,1000,1000,1000,1000,0,0,0,0,0,0,0,0,0,0
1709456659.29963994,45328528,1000,1000,1000,1000,0,0,0,0,0,0,0,0,0,0
1709456659.39960003,45428488,1000,1000,1000,1000,0,0,0,0,0,0,0,0,0,0
1709456659.49956012,45528448,1000,1000,1000,1000,0,0,0,0,0,0,0,0,0,0
1709456659.59951997,45628408,1000,1000,1000,1000,0,0,0,0,0,0,0,0,0,0
1709456659.69948006,45728368,1000,1000,1000,1000,0,0,0,0,0,0,0,0,0,0
1709456659.79943991,45828328,1000,1000,1000,1000,0,0,0,0,0,0,0,0,0,0
1709456659.89940000,45928288,1000,1000,1000,1000,0,0,0,0,0,0,0,0,0,0
1709456659.99936008,46028248,1000,1000,1000,1000,0,0,0,0,0,0,0,0,0,0
1709456660.09931993,46128208,1000,1000,1000,1000,0,0,0,0,0,0,0,0,0,0
1709456660.19928002,46228168,1000,1000,1000,1000,0,0,0,0,0,0,0,0,0,0
1709456660.30007291,46328961,1023,1023,1023,1023,0,0,0,0,0,0,0,0,0,0
1709456660.40003300,46428921,1053,1053,1053,1053,0,0,0,0,0,0,0,0,0,0
1709456660.49999309,46528881,1083,1083,1083,1083,0,0,0,0,0,0,0,0,0,0
1709456660.59995294,46628841,1113,1113,1113,1113,0,0,0,0,0,0,0,0,0,0
1709456660.69991302,46728801,1143,1143,1143,1143,0,0,0,0,0,0,0,0,0,0
1709456660.79987311,46828761,1351,1346,1347,1351,0,0,0,0,0,0,0,0,0,0
1709456660.89983296,46928721,1542,1538,1538,1542,0,0,0,0,0,0,0,0,0,0
1709456660.99979305,47028681,1695,1691,1691,1695,0,0,0,0,0,0,0,0,0,0
1709456661.09975290,47128641,1826,1823,1823,1827,0,0,0,0,0,0,0,0,0,0
1709456661.19971299,47228601,1840,1836,1836,1840,0,0,0,0,0,0,0,0,0,0
1709456661.29967308,47328561,1828,1827,1827,1829,0,0,0,0,0,0,0,0,0,0
1709456661.39963293,47428521,1700,1699,1700,1700,0,0,0,0,0,0,0,0,0,0
1709456661.49959302,47528481,1620,1620,1621,1619,0,0,0,0,0,0,0,0,0,0
1709456661.59955311,47628441,1608,1610,1610,1608,0,0,0,0,0,0,0,0,0,0
1709456661.69951296,47728401,1625,1627,1626,1626,0,0,0,0,0,0,0,0,0,0
1709456661.79947305,47828361,1630,1630,1626,1633,0,0,0,0,0,0,0,0,0,0
1709456661.89943290,47928321,1627,1628,1622,1633,0,0,0,0,0,0,0,0,0,0
1709456661.99939299,48028281,1622,1623,1619,1625,0,0,0,0,0,0,0,0,0,0
1709456662.09935308,48128241,1618,1618,1618,1618,0,0,0,0,0,0,0,0,0,0
1709456662.19931293,48228201,1618,1618,1620,1615,0,0,0,0,0,0,0,0,0,0
1709456662.29927301,48328161,1619,1619,1622,1616,0,0,0,0,0,0,0,0,0,0
1709456662.40006590,48428954,1621,1621,1624,1617,0,0,0,0,0,0,0,0,0,0
1709456662.50002599,48528914,1623,1623,1625,1620,0,0,0,0,0,0,0,0,0,0
1709456662.59998608,48628874,1620,1620,1622,1619,0,0,0,0,0,0,0,0,0,0
1709456662.69994593,48728834,1589,1589,1596,1581,0,0,0,0,0,0,0,0,0,0
1709456662.79990602,48828794,1575,1576,1580,1571,0,0,0,0,0,0,0,0,0,0
1709456662.89986610,48928754,1564,1564,1563,1565,0,0,0,0,0,0,0,0,0,0
1709456662.99982595,49028714,1555,1555,1550,1560,0,0,0,0,0,0,0,0,0,0
1709456663.09978604,49128674,1547,1547,1537,1557,0,0,0,0,0,0,0,0,0,0
1709456663.19974613,49228634,1540,1539,1531,1548,0,0,0,0,0,0,0,0,0,0
1709456663.29970598,49328594,1534,1534,1529,1539,0,0,0,0,0,0,0,0,0,0
1709456663.39966607,49428554,1529,1528,1528,1529,0,0,0,0,0,0,0,0,0,0
1709456663.49962592,49528514,1527,1527,1528,1526,0,0,0,0,0,0,0,0,0,0
1709456663.59958601,49628474,1529,1529,1532,1526,0,0,0,0,0,0,0,0,0,0
1709456663.69954610,49728434,1532,1531,1534,1528,0,0,0,0,0,0,0,0,0,0
1709456663.79950595,49828394,1535,1535,1538,1532,0,0,0,0,0,0,0,0,0,0
1709456663.89946604,49928354,1539,1539,1541,1537,0,0,0,0,0,0,0,0,0,0
1709456663.99942613,50028314,1541,1541,1542,1541,0,0,0,0,0,0,0,0,0,0
1709456664.09938598,50128274,1545,1545,1545,1545,0,0,0,0,0,0,0,0,0,0
1709456664.19934607,50228234,1548,1548,1548,1549,0,0,0,0,0,0,0,0,0,0
1709456664.29930592,50328194,1551,1550,1549,1552,0,0,0,0,0,0,0,0,0,0
1709456664.39926600,50428154,1553,1553,1552,1554,0,0,0,0,0,0,0,0,0,0
1709456664.50005913,50528947,1553,1553,1557,1559,0,0,0,0,0,0,0,0,0,0
1709456664.60001898,50628907,1555,1555,1560,1561,0,0,0,0,0,0,0,0,0,0
1709456664.69997907,50728867,1557,1557,1563,1563,0,0,0,0,0,0,0,0,0,0
1709456664.79993892,50828827,1560,1560,1565,1564,0,0,0,0,0,0,0,0,0,0
1709456664.89989901,50928787,1562,1563,1565,1565,0,0,0,0,0,0,0,0,0,0
1709456664.99985909,51028747,1564,1564,1565,1565,0,0,0,0,0,0,0,0,0,0
1709456665.09981894,51128707,1566,1566,1565,1565,0,0,0,0,0,0,0,0,0,0
1709456665.19977903,51228667,1568,1569,1566,1566,0,0,0,0,0,0,0,0,0,0
1709456665.29973912,51328627,1570,1570,1567,1567,0,0,0,0,0,0,0,0,0,0
1709456665.39969897,51428587,1571,1571,1567,1568,0,0,0,0,0,0,0,0,0,0
1709456665.49965906,51528547,1572,1572,1569,1569,0,0,0,0,0,0,0,0,0,0
1709456665.59961891,51628507,1574,1573,1570,1570,0,0,0,0,0,0,0,0,0,0
1709456665.69957900,51728467,1574,1574,1571,1571,0,0,0,0,0,0,0,0,0,0
1709456665.79953909,51828427,1575,1575,1574,1573,0,0,0,0,0,0,0,0,0,0
1709456665.89949894,51928387,1576,1576,1576,1574,0,0,0,0,0,0,0,0,0,0
1709456665.99945903,52028347,1575,1576,1576,1574,0,0,0,0,0,0,0,0,0,0
1709456666.09941912,52128307,1576,1576,1576,1576,0,0,0,0,0,0,0,0,0,0
1709456666.19937897,52228267,1576,1576,1577,1576,0,0,0,0,0,0,0,0,0,0
1709456666.29933906,52328227,1576,1577,1578,1577,0,0,0,0,0,0,0,0,0,0
1709456666.39929891,52428187,1576,1576,1577,1577,0,0,0,0,0,0,0,0,0,0
1709456666.50009203,52528980,1576,1575,1576,1576,0,0,0,0,0,0,0,0,0,0
1709456666.60005212,52628940,1576,1576,1577,1576,0,0,0,0,0,0,0,0,0,0
1709456666.70001197,52728900,1576,1576,1576,1577,0,0,0,0,0,0,0,0,0,0
1709456666.79997206,52828860,1576,1577,1577,1577,0,0,0,0,0,0,0,0,0,0
1709456666.89993191,52928820,1576,1577,1577,1577,0,0,0,0,0,0,0,0,0,0
1709456666.99989200,53028780,1577,1577,1577,1577,0,0,0,0,0,0,0,0,0,0
1709456667.09985209,53128740,1577,1577,1576,1577,0,0,0,0,0,0,0,0,0,0
1709456667.19981194,53228700,1578,1578,1577,1577,0,0,0,0,0,0,0,0,0,0
1709456667.29977202,53328660,1578,1578,1577,1578,0,0,0,0,0,0,0,0,0,0
1709456667.39973211,53428620,1578,1577,1577,1577,0,0,0,0,0,0,0,0,0,0
1709456667.49969196,53528580,1578,1577,1577,1577,0,0,0,0,0,0,0,0,0,0
1709456667.59965205,53628540,1578,1578,1578,1578,0,0,0,0,0,0,0,0,0,0
1709456667.69961190,53728500,1578,1579,1579,1578,0,0,0,0,0,0,0,0,0,0
1709456667.79957199,53828460,1579,1579,1579,1579,0,0,0,0,0,0,0,0,0,0
1709456667.89953208,53928420,1579,1579,1579,1579,0,0,0,0,0,0,0,0,0,0
1709456667.99949193,54028380,1580,1580,1580,1580,0,0,0,0,0,0,0,0,0,0
1709456668.09945202,54128340,1579,1579,1579,1579,0,0,0,0,0,0,0,0,0,0
1709456668.19941211,54228300,1580,1579,1580,1580,0,0,0,0,0,0,0,0,0,0
1709456668.29937196,54328260,1580,1580,1580,1580,0,0,0,0,0,0,0,0,0,0
1709456668.39933205,54428220,1580,1579,1580,1580,0,0,0,0,0,0,0,0,0,0
1709456668.49929190,54528180,1579,1579,1579,1579,0,0,0,0,0,0,0,0,0,0
1709456668.60008502,54628973,1580,1579,1579,1580,0,0,0,0,0,0,0,0,0,0
1709456668.70004511,54728933,1579,1579,1579,1579,0,0,0,0,0,0,0,0,0,0
1709456668.80000496,54828893,1579,1580,1580,1579,0,0,0,0,0,0,0,0,0,0
1709456668.89996505,54928853,1580,1580,1580,1580,0,0,0,0,0,0,0,0,0,0
1709456668.99992490,55028813,1579,1580,1580,1580,0,0,0,0,0,0,0,0,0,0
1709456669.09988499,55128773,1580,1580,1580,1580,0,0,0,0,0,0,0,0,0,0
1709456669.19984508,55228733,1579,1579,1579,1579,0,0,0,0,0,0,0,0,0,0
1709456669.29980493,55328693,1580,1579,1579,1580,0,0,0,0,0,0,0,0,0,0
1709456669.39976501,55428653,1580,1580,1580,1580,0,0,0,0,0,0,0,0,0,0
1709456669.49972510,55528613,1580,1580,1580,1580,0,0,0,0,0,0,0,0,0,0
1709456669.59968495,55628573,1580,1579,1580,1580,0,0,0,0,0,0,0,0,0,0
1709456669.69964504,55728533,1580,1580,1580,1580,0,0,0,0,0,0,0,0,0,0
1709456669.79960513,55828493,1580,1580,1580,1580,0,0,0,0,0,0,0,0,0,0
1709456669.89956498,55928453,1579,1579,1580,1580,0,0,0,0,0,0,0,0,0,0
1709456669.99952507,56028413,1580,1580,1581,1580,0,0,0,0,0,0,0,0,0,0
1709456670.09948492,56128373,1581,1580,1581,1581,0,0,0,0,0,0,0,0,0,0
1709456670.19944501,56228333,1580,1580,1580,1580,0,0,0,0,0,0,0,0,0,0
1709456670.29940510,56328293,1581,1581,1581,1581,0,0,0,0,0,0,0,0,0,0
1709456670.39936495,56428253,1581,1581,1581,1581,0,0,0,0,0,0,0,0,0,0
1709456670.49932504,56528213,1581,1581,1581,1581,0,0,0,0,0,0,0,0,0,0
1709456670.59928513,56628173,1580,1580,1580,1581,0,0,0,0,0,0,0,0,0,0
1709456670.70007801,56728966,1580,1581,1587,1574,0,0,0,0,0,0,0,0,0,0
1709456670.80003810,56828926,1579,1581,1584,1571,0,0,0,0,0,0,0,0,0,0
1709456670.89999795,56928886,1578,1580,1577,1573,0,0,0,0,0,0,0,0,0,0
1709456670.99995804,57028846,1577,1580,1569,1572,0,0,0,0,0,0,0,0,0,0
1709456671.09991813,57128806,1576,1578,1561,1568,0,0,0,0,0,0,0,0,0,0
1709456671.19987798,57228766,1577,1578,1557,1564,0,0,0,0,0,0,0,0,0,0
1709456671.29983807,57328726,1578,1577,1555,1559,0,0,0,0,0,0,0,0,0,0
1709456671.39979792,57428686,1579,1577,1555,1556,0,0,0,0,0,0,0,0,0,0
1709456671.49975801,57528646,1579,1578,1556,1555,0,0,0,0,0,0,0,0,0,0
1709456671.59971809,57628606,1579,1578,1557,1554,0,0,0,0,0,0,0,0,0,0
1709456671.69967794,57728566,1577,1577,1556,1554,0,0,0,0,0,0,0,0,0,0
1709456671.79963803,57828526,1575,1576,1555,1553,0,0,0,0,0,0,0,0,0,0
1709456671.89959812,57928486,1574,1576,1554,1554,0,0,0,0,0,0,0,0,0,0
1709456671.99955797,58028446,1574,1576,1554,1553,0,0,0,0,0,0,0,0,0,0
1709456672.09951806,58128406,1574,1576,1551,1552,0,0,0,0,0,0,0,0,0,0
1709456672.19947791,58228366,1575,1577,1550,1550,0,0,0,0,0,0,0,0,0,0
1709456672.29943800,58328326,1578,1579,1549,1549,0,0,0,0,0,0,0,0,0,0
1709456672.39939809,58428286,1580,1581,1546,1546,0,0,0,0,0,0,0,0,0,0
1709456672.49935794,58528246,1582,1583,1543,1542,0,0,0,0,0,0,0,0,0,0
1709456672.59931803,58628206,1586,1587,1541,1540,0,0,0,0,0,0,0,0,0,0
1709456672.69927812,58728166,1589,1589,1538,1537,0,0,0,0,0,0,0,0,0,0
1709456672.80007100,58828959,1591,1592,1535,1535,0,0,0,0,0,0,0,0,0,0
1709456672.90003109,58928919,1594,1593,1534,1535,0,0,0,0,0,0,0,0,0,0
1709456672.99999094,59028879,1595,1595,1535,1536,0,0,0,0,0,0,0,0,0,0
1709456673.09995103,59128839,1594,1594,1535,1537,0,0,0,0,0,0,0,0,0,0
1709456673.19991112,59228799,1593,1593,1538,1541,0,0,0,0,0,0,0,0,0,0
1709456673.29987097,59328759,1590,1588,1542,1546,0,0,0,0,0,0,0,0,0,0
1709456673.39983106,59428719,1585,1583,1550,1553,0,0,0,0,0,0,0,0,0,0
1709456673.49979091,59528679,1577,1574,1559,1562,0,0,0,0,0,0,0,0,0,0
1709456673.59975100,59628639,1568,1564,1571,1573,0,0,0,0,0,0,0,0,0,0
1709456673.69971108,59728599,1557,1553,1583,1585,0,0,0,0,0,0,0,0,0,0
1709456673.79967093,59828559,1546,1543,1595,1595,0,0,0,0,0,0,0,0,0,0
1709456673.89963102,59928519,1536,1535,1605,1604,0,0,0,0,0,0,0,0,0,0
1709456673.99959111,60028479,1530,1531,1611,1610,0,0,0,0,0,0,0,0,0,0
1709456674.09955096,60128439,1528,1530,1615,1613,0,0,0,0,0,0,0,0,0,0
1709456674.19951105,60228399,1530,1532,1614,1614,0,0,0,0,0,0,0,0,0,0
1709456674.29947090,60328359,1535,1537,1611,1610,0,0,0,0,0,0,0,0,0,0
1709456674.39943099,60428319,1542,1544,1604,1605,0,0,0,0,0,0,0,0,0,0
1709456674.49939108,60528279,1550,1552,1597,1598,0,0,0,0,0,0,0,0,0,0
1709456674.59935093,60628239,1559,1559,1590,1590,0,0,0,0,0,0,0,0,0,0
1709456674.69931102,60728199,1568,1569,1584,1583,0,0,0,0,0,0,0,0,0,0
1709456674.79927111,60828159,1576,1576,1577,1577,0,0,0,0,0,0,0,0,0,0
1709456674.90006399,60928952,1581,1580,1571,1570,0,0,0,0,0,0,0,0,0,0
1709456675.00002408,61028912,1586,1585,1569,1568,0,0,0,0,0,0,0,0,0,0
1709456675.09998393,61128872,1588,1586,1567,1567,0,0,0,0,0,0,0,0,0,0
1709456675.19994402,61228832,1587,1586,1565,1566,0,0,0,0,0,0,0,0,0,0
1709456675.29990411,61328792,1587,1585,1567,1568,0,0,0,0,0,0,0,0,0,0
1709456675.39986396,61428752,1585,1584,1571,1571,0,0,0,0,0,0,0,0,0,0
1709456675.49982405,61528712,1581,1581,1572,1573,0,0,0,0,0,0,0,0,0,0
1709456675.59978390,61628672,1579,1579,1576,1576,0,0,0,0,0,0,0,0,0,0
1709456675.69974399,61728632,1576,1576,1579,1578,0,0,0,0,0,0,0,0,0,0
1709456675.79970407,61828592,1574,1575,1581,1581,0,0,0,0,0,0,0,0,0,0
1709456675.89966393,61928552,1573,1574,1583,1583,0,0,0,0,0,0,0,0,0,0
1709456675.99962401,62028512,1574,1575,1586,1585,0,0,0,0,0,0,0,0,0,0
1709456676.09958410,62128472,1573,1573,1584,1584,0,0,0,0,0,0,0,0,0,0
1709456676.19954395,62228432,1574,1573,1584,1584,0,0,0,0,0,0,0,0,0,0
1709456676.29950404,62328392,1574,1574,1582,1582,0,0,0,0,0,0,0,0,0,0
1709456676.39946413,62428352,1576,1576,1581,1582,0,0,0,0,0,0,0,0,0,0
1709456676.49942398,62528312,1577,1577,1580,1580,0,0,0,0,0,0,0,0,0,0
1709456676.59938407,62628272,1578,1578,1579,1579,0,0,0,0,0,0,0,0,0,0
1709456676.69934392,62728232,1580,1579,1578,1578,0,0,0,0,0,0,0,0,0,0
1709456676.79930401,62828192,1581,1581,1578,1578,0,0,0,0,0,0,0,0,0,0
1709456676.90009713,62928985,1582,1581,1577,1577,0,0,0,0,0,0,0,0,0,0
1709456677.00005698,63028945,1582,1581,1577,1577,0,0,0,0,0,0,0,0,0,0
1709456677.10001707,63128905,1583,1583,1578,1578,0,0,0,0,0,0,0,0,0,0
1709456677.19997692,63228865,1581,1581,1577,1577,0,0,0,0,0,0,0,0,0,0
1709456677.29993701,63328825,1581,1581,1579,1578,0,0,0,0,0,0,0,0,0,0
1709456677.39989710,63428785,1580,1580,1578,1578,0,0,0,0,0,0,0,0,0,0
1709456677.49985695,63528745,1579,1579,1578,1578,0,0,0,0,0,0,0,0,0,0
1709456677.59981704,63628705,1579,1579,1579,1579,0,0,0,0,0,0,0,0,0,0
1709456677.69977713,63728665,1578,1578,1579,1579,0,0,0,0,0,0,0,0,0,0
1709456677.79973698,63828625,1578,1577,1579,1579,0,0,0,0,0,0,0,0,0,0
1709456677.89969707,63928585,1578,1578,1581,1580,0,0,0,0,0,0,0,0,0,0
1709456677.99965692,64028545,1577,1579,1580,1580,0,0,0,0,0,0,0,0,0,0
1709456678.09961700,64128505,1577,1579,1579,1580,0,0,0,0,0,0,0,0,0,0
1709456678.19957709,64228465,1577,1579,1579,1580,0,0,0,0,0,0,0,0,0,0
1709456678.29953694,64328425,1577,1578,1578,1578,0,0,0,0,0,0,0,0,0,0
1709456678.39949703,64428385,1578,1579,1578,1578,0,0,0,0,0,0,0,0,0,0
1709456678.49945712,64528345,1579,1579,1578,1578,0,0,0,0,0,0,0,0,0,0
1709456678.59941697,64628305,1579,1580,1578,1577,0,0,0,0,0,0,0,0,0,0
1709456678.69937706,64728265,1580,1580,1582,1574,0,0,0,0,0,0,0,0,0,0
1709456678.79933691,64828225,1581,1583,1584,1569,0,0,0,0,0,0,0,0,0,0
1709456678.89929700,64928185,1614,1593,1573,1565,0,0,0,0,0,0,0,0,0,0
1709456679.00009012,65028978,1592,1597,1562,1562,0,0,0,0,0,0,0,0,0,0
1709456679.10004997,65128938,1579,1596,1555,1561,0,0,0,0,0,0,0,0,0,0
1709456679.20001006,65228898,1573,1591,1551,1560,0,0,0,0,0,0,0,0,0,0
1709456679.29996991,65328858,1572,1583,1550,1557,0,0,0,0,0,0,0,0,0,0
1709456679.39993000,65428818,1573,1576,1552,1554,0,0,0,0,0,0,0,0,0,0
1709456679.49989009,65528778,1574,1570,1555,1554,0,0,0,0,0,0,0,0,0,0
1709456679.59984994,65628738,1574,1568,1558,1555,0,0,0,0,0,0,0,0,0,0
1709456679.69981003,65728698,1572,1568,1559,1556,0,0,0,0,0,0,0,0,0,0
1709456679.79977012,65828658,1572,1569,1560,1557,0,0,0,0,0,0,0,0,0,0
1709456679.89972997,65928618,1571,1570,1558,1557,0,0,0,0,0,0,0,0,0,0
1709456679.99969006,66028578,1572,1573,1556,1557,0,0,0,0,0,0,0,0,0,0
1709456680.09964991,66128538,1573,1575,1553,1554,0,0,0,0,0,0,0,0,0,0
1709456680.19960999,66228498,1576,1578,1550,1551,0,0,0,0,0,0,0,0,0,0
1709456680.29957008,66328458,1580,1581,1548,1549,0,0,0,0,0,0,0,0,0,0
1709456680.39952993,66428418,1583,1584,1546,1546,0,0,0,0,0,0,0,0,0,0
1709456680.49949002,66528378,1586,1585,1544,1543,0,0,0,0,0,0,0,0,0,0
1709456680.59945011,66628338,1589,1588,1543,1543,0,0,0,0,0,0,0,0,0,0
1709456680.69940996,66728298,1590,1590,1543,1543,0,0,0,0,0,0,0,0,0,0
1709456680.79937005,66828258,1590,1590,1543,1543,0,0,0,0,0,0,0,0,0,0
1709456680.89932990,66928218,1590,1590,1544,1545,0,0,0,0,0,0,0,0,0,0
1709456680.99928999,67028178,1589,1589,1546,1547,0,0,0,0,0,0,0,0,0,0
1709456681.10008311,67128971,1587,1586,1551,1551,0,0,0,0,0,0,0,0,0,0
1709456681.20004296,67228931,1582,1581,1557,1558,0,0,0,0,0,0,0,0,0,0
1709456681.30000305,67328891,1576,1574,1564,1565,0,0,0,0,0,0,0,0,0,0
1709456681.39996290,67428851,1569,1567,1571,1574,0,0,0,0,0,0,0,0,0,0
1709456681.49992299,67528811,1562,1559,1578,1581,0,0,0,0,0,0,0,0,0,0
1709456681.59988308,67628771,1556,1554,1587,1589,0,0,0,0,0,0,0,0,0,0
1709456681.69984293,67728731,1550,1548,1594,1595,0,0,0,0,0,0,0,0,0,0
1709456681.79980302,67828691,1545,1545,1598,1599,0,0,0,0,0,0,0,0,0,0
1709456681.89976311,67928651,1544,1544,1602,1601,0,0,0,0,0,0,0,0,0,0
1709456681.99972296,68028611,1545,1546,1603,1602,0,0,0,0,0,0,0,0,0,0
1709456682.09968305,68128571,1548,1550,1602,1601,0,0,0,0,0,0,0,0,0,0
1709456682.19964290,68228531,1552,1554,1598,1597,0,0,0,0,0,0,0,0,0,0
1709456682.29960299,68328491,1557,1559,1595,1592,0,0,0,0,0,0,0,0,0,0
1709456682.39956307,68428451,1564,1564,1590,1589,0,0,0,0,0,0,0,0,0,0
1709456682.49952292,68528411,1569,1569,1585,1583,0,0,0,0,0,0,0,0,0,0
1709456682.59948301,68628371,1573,1572,1580,1580,0,0,0,0,0,0,0,0,0,0
1709456682.69944310,68728331,1576,1575,1575,1576,0,0,0,0,0,0,0,0,0,0
1709456682.79940295,68828291,1579,1577,1572,1574,0,0,0,0,0,0,0,0,0,0
1709456682.89936304,68928251,1579,1578,1571,1571,0,0,0,0,0,0,0,0,0,0
1709456682.99932313,69028211,1579,1578,1570,1571,0,0,0,0,0,0,0,0,0,0
1709456683.09928298,69128171,1579,1578,1572,1572,0,0,0,0,0,0,0,0,0,0
1709456683.20007610,69228964,1577,1577,1572,1573,0,0,0,0,0,0,0,0,0,0
1709456683.30003595,69328924,1575,1574,1573,1573,0,0,0,0,0,0,0,0,0,0
1709456683.39999604,69428884,1574,1573,1576,1576,0,0,0,0,0,0,0,0,0,0
1709456683.49995613,69528844,1572,1572,1578,1577,0,0,0,0,0,0,0,0,0,0
1709456683.59991598,69628804,1571,1571,1579,1579,0,0,0,0,0,0,0,0,0,0
1709456683.69987607,69728764,1570,1571,1580,1579,0,0,0,0,0,0,0,0,0,0
1709456683.79983592,69828724,1571,1571,1581,1581,0,0,0,0,0,0,0,0,0,0
1709456683.89979601,69928684,1570,1571,1581,1581,0,0,0,0,0,0,0,0,0,0
1709456683.99975610,70028644,1570,1571,1580,1581,0,0,0,0,0,0,0,0,0,0
1709456684.09971595,70128604,1571,1572,1580,1580,0,0,0,0,0,0,0,0,0,0
1709456684.19967604,70228564,1573,1572,1578,1579,0,0,0,0,0,0,0,0,0,0
1709456684.29963613,70328524,1573,1574,1578,1578,0,0,0,0,0,0,0,0,0,0
1709456684.39959598,70428484,1575,1574,1576,1577,0,0,0,0,0,0,0,0,0,0
1709456684.49955606,70528444,1576,1576,1576,1576,0,0,0,0,0,0,0,0,0,0
1709456684.59951591,70628404,1577,1577,1576,1576,0,0,0,0,0,0,0,0,0,0
1709456684.69947600,70728364,1577,1577,1575,1575,0,0,0,0,0,0,0,0,0,0
1709456684.79943609,70828324,1579,1578,1575,1576,0,0,0,0,0,0,0,0,0,0
1709456684.89939594,70928284,1578,1578,1575,1574,0,0,0,0,0,0,0,0,0,0
1709456684.99935603,71028244,1579,1579,1575,1576,0,0,0,0,0,0,0,0,0,0
1709456685.09931612,71128204,1578,1579,1576,1575,0,0,0,0,0,0,0,0,0,0
1709456685.19927597,71228164,1579,1578,1576,1576,0,0,0,0,0,0,0,0,0,0
1709456685.30006909,71328957,1579,1580,1578,1577,0,0,0,0,0,0,0,0,0,0
1709456685.40002894,71428917,1578,1579,1576,1577,0,0,0,0,0,0,0,0,0,0
1709456685.49998903,71528877,1579,1580,1578,1578,0,0,0,0,0,0,0,0,0,0
1709456685.59994912,71628837,1580,1579,1578,1578,0,0,0,0,0,0,0,0,0,0
1709456685.69990897,71728797,1580,1580,1579,1579,0,0,0,0,0,0,0,0,0,0
1709456685.79986906,71828757,1579,1579,1577,1578,0,0,0,0,0,0,0,0,0,0
1709456685.89982891,71928717,1578,1579,1578,1578,0,0,0,0,0,0,0,0,0,0
1709456685.99978900,72028677,1579,1579,1578,1578,0,0,0,0,0,0,0,0,0,0
1709456686.09974909,72128637,1581,1581,1580,1579,0,0,0,0,0,0,0,0,0,0
1709456686.19970894,72228597,1581,1581,1579,1579,0,0,0,0,0,0,0,0,0,0
1709456686.29966903,72328557,1582,1582,1581,1580,0,0,0,0,0,0,0,0,0,0
1709456686.39962912,72428517,1582,1582,1580,1581,0,0,0,0,0,0,0,0,0,0
1709456686.49958897,72528477,1583,1583,1581,1580,0,0,0,0,0,0,0,0,0,0
1709456686.59954906,72628437,1583,1583,1581,1581,0,0,0,0,0,0,0,0,0,0
1709456686.69950891,72728397,1583,1583,1581,1581,0,0,0,0,0,0,0,0,0,0
1709456686.79946899,72828357,1583,1583,1581,1581,0,0,0,0,0,0,0,0,0,0
1709456686.89942908,72928317,1583,1583,1585,1578,0,0,0,0,0,0,0,0,0,0
1709456686.99938893,73028277,1582,1584,1589,1575,0,0,0,0,0,0,0,0,0,0
1709456687.09934902,73128237,1580,1583,1584,1576,0,0,0,0,0,0,0,0,0,0
1709456687.19930911,73228197,1578,1582,1575,1576,0,0,0,0,0,0,0,0,0,0
1709456687.29926896,73328157,1576,1580,1568,1573,0,0,0,0,0,0,0,0,0,0
1709456687.40006208,73428950,1576,1578,1562,1569,0,0,0,0,0,0,0,0,0,0
1709456687.50002193,73528910,1578,1577,1560,1564,0,0,0,0,0,0,0,0,0,0
1709456687.59998202,73628870,1579,1576,1559,1561,0,0,0,0,0,0,0,0,0,0
1709456687.69994211,73728830,1579,1577,1560,1560,0,0,0,0,0,0,0,0,0,0
1709456687.79990196,73828790,1578,1577,1561,1558,0,0,0,0,0,0,0,0,0,0
1709456687.89986205,73928750,1577,1578,1561,1559,0,0,0,0,0,0,0,0,0,0
1709456687.99982190,74028710,1576,1576,1560,1558,0,0,0,0,0,0,0,0,0,0
1709456688.09978199,74128670,1575,1577,1560,1559,0,0,0,0,0,0,0,0,0,0
1709456688.19974208,74228630,1575,1576,1560,1559,0,0,0,0,0,0,0,0,0,0
1709456688.29970193,74328590,1574,1576,1559,1558,0,0,0,0,0,0,0,0,0,0
1709456688.39966202,74428550,1575,1576,1558,1558,0,0,0,0,0,0,0,0,0,0
1709456688.49962211,74528510,1575,1577,1556,1556,0,0,0,0,0,0,0,0,0,0
1709456688.59958196,74628470,1576,1577,1555,1554,0,0,0,0,0,0,0,0,0,0
1709456688.69954205,74728430,1579,1580,1553,1553,0,0,0,0,0,0,0,0,0,0
1709456688.79950190,74828390,1580,1580,1551,1550,0,0,0,0,0,0,0,0,0,0
1709456688.89946198,74928350,1582,1583,1548,1548,0,0,0,0,0,0,0,0,0,0
1709456688.99942207,75028310,1584,1585,1546,1545,0,0,0,0,0,0,0,0,0,0
1709456689.09938192,75128270,1586,1587,1544,1544,0,0,0,0,0,0,0,0,0,0
1709456689.19934201,75228230,1587,1588,1543,1542,0,0,0,0,0,0,0,0,0,0
1709456689.29930210,75328190,1589,1589,1543,1543,0,0,0,0,0,0,0,0,0,0
1709456689.40009499,75428983,1590,1590,1542,1542,0,0,0,0,0,0,0,0,0,0
1709456689.50005507,75528943,1589,1591,1540,1542,0,0,0,0,0,0,0,0,0,0
1709456689.60001493,75628903,1591,1592,1540,1542,0,0,0,0,0,0,0,0,0,0
1709456689.69997501,75728863,1591,1592,1540,1542,0,0,0,0,0,0,0,0,0,0
1709456689.79993510,75828823,1591,1591,1542,1544,0,0,0,0,0,0,0,0,0,0
1709456689.89989495,75928783,1589,1587,1547,1549,0,0,0,0,0,0,0,0,0,0
1709456689.99985504,76028743,1584,1581,1552,1555,0,0,0,0,0,0,0,0,0,0
1709456690.09981513,76128703,1578,1574,1562,1564,0,0,0,0,0,0,0,0,0,0
1709456690.19977498,76228663,1569,1564,1572,1575,0,0,0,0,0,0,0,0,0,0
1709456690.29973507,76328623,1558,1554,1584,1585,0,0,0,0,0,0,0,0,0,0
1709456690.39969492,76428583,1547,1546,1595,1595,0,0,0,0,0,0,0,0,0,0
1709456690.49965501,76528543,1538,1538,1603,1603,0,0,0,0,0,0,0,0,0,0
1709456690.59961510,76628503,1534,1535,1610,1609,0,0,0,0,0,0,0,0,0,0
1709456690.69957495,76728463,1532,1532,1611,1611,0,0,0,0,0,0,0,0,0,0
1709456690.79953504,76828423,1535,1536,1611,1611,0,0,0,0,0,0,0,0,0,0
1709456690.89949512,76928383,1541,1542,1610,1609,0,0,0,0,0,0,0,0,0,0
1709456690.99945498,77028343,1547,1548,1605,1603,0,0,0,0,0,0,0,0,0,0
1709456691.09941506,77128303,1554,1555,1598,1597,0,0,0,0,0,0,0,0,0,0
1709456691.19937491,77228263,1562,1563,1591,1590,0,0,0,0,0,0,0,0,0,0
1709456691.29933500,77328223,1569,1569,1583,1582,0,0,0,0,0,0,0,0,0,0
1709456691.39929509,77428183,1575,1575,1577,1576,0,0,0,0,0,0,0,0,0,0
1709456691.50008798,77528976,1581,1580,1572,1572,0,0,0,0,0,0,0,0,0,0
1709456691.60004807,77628936,1584,1583,1568,1569,0,0,0,0,0,0,0,0,0,0
1709456691.70000792,77728896,1586,1585,1567,1568,0,0,0,0,0,0,0,0,0,0
1709456691.79996800,77828856,1586,1585,1567,1567,0,0,0,0,0,0,0,0,0,0
1709456691.89992809,77928816,1585,1584,1568,1568,0,0,0,0,0,0,0,0,0,0
1709456691.99988794,78028776,1583,1582,1570,1570,0,0,0,0,0,0,0,0,0,0
1709456692.09984803,78128736,1581,1580,1573,1573,0,0,0,0,0,0,0,0,0,0
1709456692.19980812,78228696,1577,1577,1575,1575,0,0,0,0,0,0,0,0,0,0
1709456692.29976797,78328656,1576,1576,1579,1579,0,0,0,0,0,0,0,0,0,0
1709456692.39972806,78428616,1574,1574,1581,1580,0,0,0,0,0,0,0,0,0,0
1709456692.49968791,78528576,1572,1572,1581,1581,0,0,0,0,0,0,0,0,0,0
1709456692.59964800,78628536,1571,1572,1582,1582,0,0,0,0,0,0,0,0,0,0
1709456692.69960809,78728496,1572,1572,1582,1582,0,0,0,0,0,0,0,0,0,0
1709456692.79956794,78828456,1573,1573,1583,1583,0,0,0,0,0,0,0,0,0,0
1709456692.89952803,78928416,1574,1574,1581,1582,0,0,0,0,0,0,0,0,0,0
1709456692.99948812,79028376,1575,1575,1580,1581,0,0,0,0,0,0,0,0,0,0
1709456693.09944797,79128336,1577,1577,1580,1580,0,0,0,0,0,0,0,0,0,0
1709456693.19940805,79228296,1578,1578,1579,1579,0,0,0,0,0,0,0,0,0,0
1709456693.29936790,79328256,1579,1579,1578,1578,0,0,0,0,0,0,0,0,0,0
1709456693.39932799,79428216,1580,1580,1577,1578,0,0,0,0,0,0,0,0,0,0
1709456693.49928808,79528176,1581,1580,1577,1577,0,0,0,0,0,0,0,0,0,0
1709456693.60008097,79628969,1581,1582,1577,1577,0,0,0,0,0,0,0,0,0,0
1709456693.70004106,79728929,1581,1581,1578,1578,0,0,0,0,0,0,0,0,0,0
1709456693.80000091,79828889,1582,1581,1578,1579,0,0,0,0,0,0,0,0,0,0
1709456693.89996099,79928849,1581,1581,1578,1578,0,0,0,0,0,0,0,0,0,0
1709456693.99992108,80028809,1581,1581,1579,1580,0,0,0,0,0,0,0,0,0,0
1709456694.09988093,80128769,1581,1581,1581,1580,0,0,0,0,0,0,0,0,0,0
1709456694.19984102,80228729,1580,1581,1581,1581,0,0,0,0,0,0,0,0,0,0
1709456694.29980111,80328689,1580,1580,1581,1581,0,0,0,0,0,0,0,0,0,0
1709456694.39976096,80428649,1581,1581,1583,1583,0,0,0,0,0,0,0,0,0,0
1709456694.49972105,80528609,1579,1579,1581,1581,0,0,0,0,0,0,0,0,0,0
1709456694.59968090,80628569,1579,1579,1581,1581,0,0,0,0,0,0,0,0,0,0
1709456694.69964099,80728529,1579,1579,1581,1581,0,0,0,0,0,0,0,0,0,0
1709456694.79960108,80828489,1579,1580,1580,1581,0,0,0,0,0,0,0,0,0,0
1709456694.89956093,80928449,1581,1581,1581,1581,0,0,0,0,0,0,0,0,0,0
1709456694.99952102,81028409,1580,1580,1581,1580,0,0,0,0,0,0,0,0,0,0
1709456695.09948111,81128369,1581,1581,1582,1579,0,0,0,0,0,0,0,0,0,0
1709456695.19944096,81228329,1581,1582,1587,1572,0,0,0,0,0,0,0,0,0,0
1709456695.29940104,81328289,1579,1580,1583,1573,0,0,0,0,0,0,0,0,0,0
1709456695.39936090,81428249,1577,1577,1576,1574,0,0,0,0,0,0,0,0,0,0
1709456695.49932098,81528209,1573,1573,1569,1574,0,0,0,0,0,0,0,0,0,0
1709456695.59928107,81628169,1570,1570,1565,1573,0,0,0,0,0,0,0,0,0,0
1709456695.70007396,81728962,1568,1568,1564,1571,0,0,0,0,0,0,0,0,0,0
1709456695.80003405,81828922,1567,1566,1565,1568,0,0,0,0,0,0,0,0,0,0
1709456695.89999390,81928882,1567,1566,1567,1566,0,0,0,0,0,0,0,0,0,0
1709456695.99995399,82028842,1566,1567,1568,1565,0,0,0,0,0,0,0,0,0,0
1709456696.09991407,82128802,1566,1566,1568,1565,0,0,0,0,0,0,0,0,0,0
1709456696.19987392,82228762,1564,1564,1566,1564,0,0,0,0,0,0,0,0,0,0
1709456696.29983401,82328722,1563,1563,1565,1564,0,0,0,0,0,0,0,0,0,0
1709456696.39979410,82428682,1563,1563,1564,1564,0,0,0,0,0,0,0,0,0,0
1709456696.49975395,82528642,1561,1563,1564,1563,0,0,0,0,0,0,0,0,0,0
1709456696.59971404,82628602,1558,1561,1564,1562,0,0,0,0,0,0,0,0,0,0
1709456696.69967413,82728562,1557,1559,1564,1564,0,0,0,0,0,0,0,0,0,0
1709456696.79963398,82828522,1556,1556,1564,1564,0,0,0,0,0,0,0,0,0,0
1709456696.89959407,82928482,1554,1554,1565,1565,0,0,0,0,0,0,0,0,0,0
1709456696.99955392,83028442,1554,1552,1564,1564,0,0,0,0,0,0,0,0,0,0
1709456697.09951401,83128402,1553,1551,1564,1563,0,0,0,0,0,0,0,0,0,0
1709456697.19947410,83228362,1553,1551,1562,1562,0,0,0,0,0,0,0,0,0,0
1709456697.29943395,83328322,1554,1553,1560,1560,0,0,0,0,0,0,0,0,0,0
1709456697.39939404,83428282,1556,1555,1559,1558,0,0,0,0,0,0,0,0,0,0
1709456697.49935412,83528242,1558,1557,1557,1556,0,0,0,0,0,0,0,0,0,0
1709456697.59931397,83628202,1561,1559,1556,1554,0,0,0,0,0,0,0,0,0,0
1709456697.69927406,83728162,1563,1561,1554,1552,0,0,0,0,0,0,0,0,0,0
1709456697.80006695,83828955,1566,1563,1554,1552,0,0,0,0,0,0,0,0,0,0
1709456697.90002704,83928915,1566,1565,1552,1554,0,0,0,0,0,0,0,0,0,0
1709456697.99998713,84028875,1567,1566,1550,1555,0,0,0,0,0,0,0,0,0,0
1709456698.09994698,84128835,1568,1568,1551,1557,0,0,0,0,0,0,0,0,0,0
1709456698.19990706,84228795,1567,1568,1551,1557,0,0,0,0,0,0,0,0,0,0
1709456698.29986691,84328755,1565,1567,1553,1557,0,0,0,0,0,0,0,0,0,0
1709456698.39982700,84428715,1565,1567,1557,1558,0,0,0,0,0,0,0,0,0,0
1709456698.49978709,84528675,1563,1565,1559,1557,0,0,0,0,0,0,0,0,0,0
1709456698.59974694,84628635,1562,1563,1561,1558,0,0,0,0,0,0,0,0,0,0
1709456698.69970703,84728595,1561,1562,1560,1561,0,0,0,0,0,0,0,0,0,0
1709456698.79966712,84828555,1559,1559,1557,1562,0,0,0,0,0,0,0,0,0,0
1709456698.89962697,84928515,1554,1555,1554,1559,0,0,0,0,0,0,0,0,0,0
1709456698.99958706,85028475,1550,1550,1552,1553,0,0,0,0,0,0,0,0,0,0
1709456699.09954691,85128435,1543,1544,1547,1546,0,0,0,0,0,0,0,0,0,0
1709456699.19950700,85228395,1536,1537,1541,1539,0,0,0,0,0,0,0,0,0,0
1709456699.29946709,85328355,1529,1530,1532,1531,0,0,0,0,0,0,0,0,0,0
1709456699.39942694,85428315,1523,1523,1524,1523,0,0,0,0,0,0,0,0,0,0
1709456699.49938703,85528275,1521,1522,1521,1521,0,0,0,0,0,0,0,0,0,0
1709456699.59934711,85628235,1522,1521,1520,1519,0,0,0,0,0,0,0,0,0,0
1709456699.69930696,85728195,1523,1522,1521,1520,0,0,0,0,0,0,0,0,0,0
1709456699.79926705,85828155,1526,1523,1524,1522,0,0,0,0,0,0,0,0,0,0
1709456699.90005994,85928948,1528,1527,1528,1527,0,0,0,0,0,0,0,0,0,0
1709456700.00002003,86028908,1532,1530,1533,1532,0,0,0,0,0,0,0,0,0,0
1709456700.09998012,86128868,1535,1535,1538,1538,0,0,0,0,0,0,0,0,0,0
1709456700.19993997,86228828,1537,1537,1542,1542,0,0,0,0,0,0,0,0,0,0
1709456700.29990005,86328788,1537,1539,1544,1544,0,0,0,0,0,0,0,0,0,0
1709456700.39985991,86428748,1540,1540,1546,1546,0,0,0,0,0,0,0,0,0,0
1709456700.49981999,86528708,1541,1541,1546,1547,0,0,0,0,0,0,0,0,0,0
1709456700.59978008,86628668,1543,1542,1547,1547,0,0,0,0,0,0,0,0,0,0
1709456700.69973993,86728628,1543,1544,1547,1547,0,0,0,0,0,0,0,0,0,0
1709456700.79970002,86828588,1545,1545,1547,1546,0,0,0,0,0,0,0,0,0,0
1709456700.89966011,86928548,1545,1545,1545,1546,0,0,0,0,0,0,0,0,0,0
1709456700.99961996,87028508,1545,1545,1544,1544,0,0,0,0,0,0,0,0,0,0
1709456701.09958005,87128468,1545,1546,1544,1544,0,0,0,0,0,0,0,0,0,0
1709456701.19953990,87228428,1546,1546,1544,1544,0,0,0,0,0,0,0,0,0,0
1709456701.29949999,87328388,1546,1546,1544,1544,0,0,0,0,0,0,0,0,0,0
1709456701.39946008,87428348,1547,1546,1544,1544,0,0,0,0,0,0,0,0,0,0
1709456701.49941993,87528308,1545,1546,1543,1544,0,0,0,0,0,0,0,0,0,0
1709456701.59938002,87628268,1545,1546,1544,1545,0,0,0,0,0,0,0,0,0,0
1709456701.69934011,87728228,1544,1545,1543,1544,0,0,0,0,0,0,0,0,0,0
1709456701.79929996,87828188,1545,1544,1545,1544,0,0,0,0,0,0,0,0,0,0
1709456701.90009308,87928981,1544,1544,1544,1544,0,0,0,0,0,0,0,0,0,0
1709456702.00005293,88028941,1543,1543,1544,1544,0,0,0,0,0,0,0,0,0,0
1709456702.10001302,88128901,1543,1543,1545,1544,0,0,0,0,0,0,0,0,0,0
1709456702.19997311,88228861,1543,1543,1544,1544,0,0,0,0,0,0,0,0,0,0
1709456702.29993296,88328821,1543,1544,1544,1545,0,0,0,0,0,0,0,0,0,0
1709456702.39989305,88428781,1544,1543,1545,1544,0,0,0,0,0,0,0,0,0,0
1709456702.49985290,88528741,1543,1543,1544,1544,0,0,0,0,0,0,0,0,0,0
1709456702.59981298,88628701,1544,1544,1544,1545,0,0,0,0,0,0,0,0,0,0
1709456702.69977307,88728661,1543,1544,1543,1544,0,0,0,0,0,0,0,0,0,0
1709456702.79973292,88828621,1543,1543,1543,1543,0,0,0,0,0,0,0,0,0,0
1709456702.89969301,88928581,1543,1543,1543,1543,0,0,0,0,0,0,0,0,0,0
1709456702.99965310,89028541,1544,1543,1543,1543,0,0,0,0,0,0,0,0,0,0
1709456703.09961295,89128501,1544,1544,1544,1543,0,0,0,0,0,0,0,0,0,0
1709456703.19957304,89228461,1543,1544,1544,1543,0,0,0,0,0,0,0,0,0,0
1709456703.29953313,89328421,1543,1544,1544,1544,0,0,0,0,0,0,0,0,0,0
1709456703.39949298,89428381,1544,1544,1544,1544,0,0,0,0,0,0,0,0,0,0
1709456703.49945307,89528341,1544,1543,1543,1543,0,0,0,0,0,0,0,0,0,0
1709456703.59941292,89628301,1545,1543,1544,1544,0,0,0,0,0,0,0,0,0,0
1709456703.69937301,89728261,1544,1544,1543,1544,0,0,0,0,0,0,0,0,0,0
1709456703.79933310,89828221,1545,1545,1545,1544,0,0,0,0,0,0,0,0,0,0
1709456703.89929295,89928181,1544,1544,1544,1544,0,0,0,0,0,0,0,0,0,0
1709456704.00008607,90028974,1544,1544,1544,1544,0,0,0,0,0,0,0,0,0,0
1709456704.10004592,90128934,1544,1545,1544,1545,0,0,0,0,0,0,0,0,0,0
1709456704.20000601,90228894,1544,1545,1545,1544,0,0,0,0,0,0,0,0,0,0
1709456704.29996610,90328854,1544,1544,1544,1544,0,0,0,0,0,0,0,0,0,0
1709456704.39992595,90428814,1545,1544,1545,1544,0,0,0,0,0,0,0,0,0,0
1709456704.49988604,90528774,1545,1545,1544,1545,0,0,0,0,0,0,0,0,0,0
1709456704.59984612,90628734,1545,1544,1544,1545,0,0,0,0,0,0,0,0,0,0
1709456704.69980597,90728694,1545,1545,1545,1545,0,0,0,0,0,0,0,0,0,0
1709456704.79976606,90828654,1544,1544,1544,1544,0,0,0,0,0,0,0,0,0,0
1709456704.89972591,90928614,1544,1544,1544,1544,0,0,0,0,0,0,0,0,0,0
1709456704.99968600,91028574,1544,1544,1545,1544,0,0,0,0,0,0,0,0,0,0
1709456705.09964609,91128534,1543,1544,1544,1544,0,0,0,0,0,0,0,0,0,0
1709456705.19960594,91228494,1544,1544,1544,1544,0,0,0,0,0,0,0,0,0,0
1709456705.29956603,91328454,1544,1544,1544,1544,0,0,0,0,0,0,0,0,0,0
1709456705.39952612,91428414,1544,1543,1544,1543,0,0,0,0,0,0,0,0,0,0
1709456705.49948597,91528374,1544,1544,1544,1545,0,0,0,0,0,0,0,0,0,0
1709456705.59944606,91628334,1544,1545,1544,1544,0,0,0,0,0,0,0,0,0,0
1709456705.69940591,91728294,1544,1544,1544,1544,0,0,0,0,0,0,0,0,0,0
1709456705.79936600,91828254,1544,1544,1544,1544,0,0,0,0,0,0,0,0,0,0
1709456705.89932609,91928214,1545,1544,1544,1545,0,0,0,0,0,0,0,0,0,0
1709456705.99928594,92028174,1544,1544,1544,1544,0,0,0,0,0,0,0,0,0,0
1709456706.10007906,92128967,1543,1544,1544,1544,0,0,0,0,0,0,0,0,0,0
1709456706.20003891,92228927,1543,1543,1543,1543,0,0,0,0,0,0,0,0,0,0
1709456706.29999900,92328887,1543,1544,1543,1544,0,0,0,0,0,0,0,0,0,0
1709456706.39995909,92428847,1543,1544,1543,1544,0,0,0,0,0,0,0,0,0,0
1709456706.49991894,92528807,1544,1544,1543,1544,0,0,0,0,0,0,0,0,0,0
1709456706.59987903,92628767,1543,1543,1543,1543,0,0,0,0,0,0,0,0,0,0
1709456706.69983912,92728727,1544,1544,1544,1544,0,0,0,0,0,0,0,0,0,0
1709456706.79979897,92828687,1544,1544,1544,1544,0,0,0,0,0,0,0,0,0,0
1709456706.89975905,92928647,1544,1544,1544,1544,0,0,0,0,0,0,0,0,0,0
1709456706.99971890,93028607,1544,1544,1544,1544,0,0,0,0,0,0,0,0,0,0
1709456707.09967899,93128567,1543,1544,1545,1543,0,0,0,0,0,0,0,0,0,0
1709456707.19963908,93228527,1542,1542,1546,1544,0,0,0,0,0,0,0,0,0,0
1709456707.29959893,93328487,1540,1542,1547,1546,0,0,0,0,0,0,0,0,0,0
1709456707.39955902,93428447,1539,1540,1549,1548,0,0,0,0,0,0,0,0,0,0
1709456707.49951911,93528407,1538,1538,1549,1550,0,0,0,0,0,0,0,0,0,0
1709456707.59947896,93628367,1539,1538,1550,1552,0,0,0,0,0,0,0,0,0,0
1709456707.69943905,93728327,1538,1536,1549,1550,0,0,0,0,0,0,0,0,0,0
1709456707.79939890,93828287,1539,1539,1549,1551,0,0,0,0,0,0,0,0,0,0
1709456707.89935899,93928247,1540,1540,1547,1548,0,0,0,0,0,0,0,0,0,0
1709456707.99931908,94028207,1542,1541,1546,1546,0,0,0,0,0,0,0,0,0,0
1709456708.09927893,94128167,1545,1545,1545,1545,0,0,0,0,0,0,0,0,0,0
1709456708.20007205,94228960,1546,1546,1542,1543,0,0,0,0,0,0,0,0,0,0
1709456708.30003190,94328920,1548,1548,1541,1541,0,0,0,0,0,0,0,0,0,0
1709456708.39999199,94428880,1548,1548,1538,1539,0,0,0,0,0,0,0,0,0,0
1709456708.49995208,94528840,1549,1550,1538,1538,0,0,0,0,0,0,0,0,0,0
1709456708.59991193,94628800,1550,1550,1538,1538,0,0,0,0,0,0,0,0,0,0
1709456708.69987202,94728760,1550,1550,1539,1538,0,0,0,0,0,0,0,0,0,0
1709456708.79983211,94828720,1549,1550,1539,1539,0,0,0,0,0,0,0,0,0,0
1709456708.89979196,94928680,1548,1549,1540,1540,0,0,0,0,0,0,0,0,0,0
1709456708.99975204,95028640,1548,1548,1540,1541,0,0,0,0,0,0,0,0,0,0
1709456709.09971189,95128600,1547,1547,1542,1542,0,0,0,0,0,0,0,0,0,0
1709456709.19967198,95228560,1455,1471,1456,1461,0,0,0,0,0,0,0,0,0,0
1709456709.29963207,95328520,1258,1321,1305,1274,0,0,0,0,0,0,0,0,0,0
1709456709.39959192,95428480,1204,1280,1255,1227,0,0,0,0,0,0,0,0,0,0
1709456709.49955201,95528440,1204,1277,1236,1234,0,0,0,0,0,0,0,0,0,0
1709456709.59951210,95628400,1204,1276,1216,1239,0,0,0,0,0,0,0,0,0,0
1709456709.69947195,95728360,1204,1282,1206,1243,0,0,0,0,0,0,0,0,0,0
1709456709.79943204,95828320,1204,1289,1200,1245,0,0,0,0,0,0,0,0,0,0
1709456709.89939213,95928280,1204,1300,1195,1249,0,0,0,0,0,0,0,0,0,0
1709456709.99935198,96028240,1204,1273,1212,1193,0,0,0,0,0,0,0,0,0,0
1709456710.09931207,96128200,1204,1289,1198,1214,0,0,0,0,0,0,0,0,0,0
1709456710.19927192,96228160,1204,1296,1186,1219,0,0,0,0,0,0,0,0,0,0
1709456710.30006504,96328953,1204,1300,1177,1219,0,0,0,0,0,0,0,0,0,0
1709456710.40002513,96428913,1204,1302,1172,1218,0,0,0,0,0,0,0,0,0,0
1709456710.49998498,96528873,1204,1304,1168,1219,0,0,0,0,0,0,0,0,0,0
1709456710.59994507,96628833,1204,1306,1165,1219,0,0,0,0,0,0,0,0,0,0
1709456710.69990492,96728793,1204,1308,1162,1222,0,0,0,0,0,0,0,0,0,0
1709456710.79986501,96828753,1204,1280,1163,1187,0,0,0,0,0,0,0,0,0,0
1709456710.89982510,96928713,1204,1282,1161,1190,0,0,0,0,0,0,0,0,0,0
1709456710.99978495,97028673,1204,1283,1160,1191,0,0,0,0,0,0,0,0,0,0
1709456711.09974504,97128633,1204,1283,1159,1192,0,0,0,0,0,0,0,0,0,0
1709456711.19970512,97228593,1204,1283,1158,1192,0,0,0,0,0,0,0,0,0,0
1709456711.29966497,97328553,1000,1000,1000,1000,0,0,0,0,0,0,0,0,0,0
1709456711.39962506,97428513,1000,1000,1000,1000,0,0,0,0,0,0,0,0,0,0
1709456711.49958491,97528473,1000,1000,1000,1000,0,0,0,0,0,0,0,0,0,0
1709456711.59954500,97628433,1000,1000,1000,1000,0,0,0,0,0,0,0,0,0,0
1709456711.69950509,97728393,1000,1000,1000,1000,0,0,0,0,0,0,0,0,0,0
1709456711.79946494,97828353,1000,1000,1000,1000,0,0,0,0,0,0,0,0,0,0
1709456711.89942503,97928313,1000,1000,1000,1000,0,0,0,0,0,0,0,0,0,0
1709456711.99938512,98028273,1000,1000,1000,1000,0,0,0,0,0,0,0,0,0,0
1709456712.09934497,98128233,1000,1000,1000,1000,0,0,0,0,0,0,0,0,0,0
1709456712.19930506,98228193,1000,1000,1000,1000,0,0,0,0,0,0,0,0,0,0
1709456712.30009794,98328986,1000,1000,1000,1000,0,0,0,0,0,0,0,0,0,0
1709456712.40005803,98428946,1000,1000,1000,1000,0,0,0,0,0,0,0,0,0,0
1709456712.50001812,98528906,1000,1000,1000,1000,0,0,0,0,0,0,0,0,0,0
1709456712.59997797,98628866,1000,1000,1000,1000,0,0,0,0,0,0,0,0,0,0
1709456712.69993806,98728826,1000,1000,1000,1000,0,0,0,0,0,0,0,0,0,0
1709456712.79989791,98828786,1000,1000,1000,1000,0,0,0,0,0,0,0,0,0,0
1709456712.89985800,98928746,1000,1000,1000,1000,0,0,0,0,0,0,0,0,0,0
1709456712.99981809,99028706,1000,1000,1000,1000,0,0,0,0,0,0,0,0,0,0
1709456713.09977794,99128666,1000,1000,1000,1000,0,0,0,0,0,0,0,0,0,0
1709456713.19973803,99228626,1000,1000,1000,1000,0,0,0,0,0,0,0,0,0,0
1709456713.29969811,99328586,1000,1000,1000,1000,0,0,0,0,0,0,0,0,0,0
1709456713.39965796,99428546,1000,1000,1000,1000,0,0,0,0,0,0,0,0,0,0
1709456713.49961805,99528506,1000,1000,1000,1000,0,0,0,0,0,0,0,0,0,0
1709456713.59957790,99628466,1000,1000,1000,1000,0,0,0,0,0,0,0,0,0,0
1709456713.69953799,99728426,1000,1000,1000,1000,0,0,0,0,0,0,0,0,0,0
1709456713.79949808,99828386,1000,1000,1000,1000,0,0,0,0,0,0,0,0,0,0
1709456713.89945793,99928346,1000,1000,1000,1000,0,0,0,0,0,0,0,0,0,0
1709456713.99941802,100028306,1000,1000,1000,1000,0,0,0,0,0,0,0,0,0,0
1709456714.09937811,100128266,1000,1000,1000,1000,0,0,0,0,0,0,0,0,0,0
1709456714.19933796,100228226,1000,1000,1000,1000,0,0,0,0,0,0,0,0,0,0
1709456714.29929805,100328186,1000,1000,1000,1000,0,0,0,0,0,0,0,0,0,0
1709456714.40009093,100428979,1000,1000,1000,1000,0,0,0,0,0,0,0,0,0,0
1709456714.50005102,100528939,1000,1000,1000,1000,0,0,0,0,0,0,0,0,0,0
1709456714.60001111,100628899,1000,1000,1000,1000,0,0,0,0,0,0,0,0,0,0
1709456714.69997096,100728859,1000,1000,1000,1000,0,0,0,0,0,0,0,0,0,0
1709456714.79993105,100828819,1000,1000,1000,1000,0,0,0,0,0,0,0,0,0,0
1709456714.89989090,100928779,1000,1000,1000,1000,0,0,0,0,0,0,0,0,0,0
1709456714.99985099,101028739,1000,1000,1000,1000,0,0,0,0,0,0,0,0,0,0
1709456715.09981108,101128699,1000,1000,1000,1000,0,0,0,0,0,0,0,0,0,0
1709456715.19977093,101228659,1000,1000,1000,1000,0,0,0,0,0,0,0,0,0,0
1709456715.29973102,101328619,1000,1000,1000,1000,0,0,0,0,0,0,0,0,0,0
1709456715.39969110,101428579,1000,1000,1000,1000,0,0,0,0,0,0,0,0,0,0
1709456715.49965096,101528539,1000,1000,1000,1000,0,0,0,0,0,0,0,0,0,0
1709456715.59961104,101628499,1000,1000,1000,1000,0,0,0,0,0,0,0,0,0,0
1709456715.69957089,101728459,1000,1000,1000,1000,0,0,0,0,0,0,0,0,0,0
1709456715.79953098,101828419,1000,1000,1000,1000,0,0,0,0,0,0,0,0,0,0
1709456715.89949107,101928379,1000,1000,1000,1000,0,0,0,0,0,0,0,0,0,0
1709456715.99945092,102028339,1000,1000,1000,1000,0,0,0,0,0,0,0,0,0,0
1709456716.09941101,102128299,1000,1000,1000,1000,0,0,0,0,0,0,0,0,0,0
1709456716.19937110,102228259,1000,1000,1000,1000,0,0,0,0,0,0,0,0,0,0
1709456716.29933095,102328219,1000,1000,1000,1000,0,0,0,0,0,0,0,0,0,0
1709456716.39929104,102428179,1000,1000,1000,1000,0,0,0,0,0,0,0,0,0,0
1709456716.50008392,102528972,1000,1000,1000,1000,0,0,0,0,0,0,0,0,0,0
1709456716.60004401,102628932,1000,1000,1000,1000,0,0,0,0,0,0,0,0,0,0
1709456716.70000410,102728892,1000,1000,1000,1000,0,0,0,0,0,0,0,0,0,0
1709456716.79996395,102828852,1000,1000,1000,1000,0,0,0,0,0,0,0,0,0,0
1709456716.89992404,102928812,1000,1000,1000,1000,0,0,0,0,0,0,0,0,0,0
1709456716.99988413,103028772,1000,1000,1000,1000,0,0,0,0,0,0,0,0,0,0
1709456717.09984398,103128732,1000,1000,1000,1000,0,0,0,0,0,0,0,0,0,0
1709456717.19980407,103228692,1000,1000,1000,1000,0,0,0,0,0,0,0,0,0,0
1709456717.29976392,103328652,1000,1000,1000,1000,0,0,0,0,0,0,0,0,0,0
1709456717.39972401,103428612,1000,1000,1000,1000,0,0,0,0,0,0,0,0,0,0
1709456717.49968410,103528572,1000,1000,1000,1000,0,0,0,0,0,0,0,0,0,0
1709456717.59964395,103628532,1000,1000,1000,1000,0,0,0,0,0,0,0,0,0,0
1709456717.69960403,103728492,1000,1000,1000,1000,0,0,0,0,0,0,0,0,0,0
1709456717.79956412,103828452,1000,1000,1000,1000,0,0,0,0,0,0,0,0,0,0
1709456717.89952397,103928412,1000,1000,1000,1000,0,0,0,0,0,0,0,0,0,0
1709456717.99948406,104028372,1000,1000,1000,1000,0,0,0,0,0,0,0,0,0,0
1709456718.09944391,104128332,1000,1000,1000,1000,0,0,0,0,0,0,0,0,0,0
1709456718.19940400,104228292,1000,1000,1000,1000,0,0,0,0,0,0,0,0,0,0
1709456718.29936409,104328252,1000,1000,1000,1000,0,0,0,0,0,0,0,0,0,0
1709456718.39932394,104428212,1000,1000,1000,1000,0,0,0,0,0,0,0,0,0,0
1709456718.49928403,104528172,1000,1000,1000,1000,0,0,0,0,0,0,0,0,0,0
1709456718.60007691,104628965,1000,1000,1000,1000,0,0,0,0,0,0,0,0,0,0
1709456718.70003700,104728925,1000,1000,1000,1000,0,0,0,0,0,0,0,0,0,0
1709456718.79999709,104828885,1000,1000,1000,1000,0,0,0,0,0,0,0,0,0,0
1709456718.89995694,104928845,1000,1000,1000,1000,0,0,0,0,0,0,0,0,0,0
1709456718.99991703,105028805,1000,1000,1000,1000,0,0,0,0,0,0,0,0,0,0
1709456719.09987712,105128765,1000,1000,1000,1000,0,0,0,0,0,0,0,0,0,0
1709456719.19983697,105228725,1000,1000,1000,1000,0,0,0,0,0,0,0,0,0,0
1709456719.29979706,105328685,1000,1000,1000,1000,0,0,0,0,0,0,0,0,0,0
1709456719.39975691,105428645,1000,1000,1000,1000,0,0,0,0,0,0,0,0,0,0
1709456719.49971700,105528605,1000,1000,1000,1000,0,0,0,0,0,0,0,0,0,0
1709456719.59967709,105628565,1000,1000,1000,1000,0,0,0,0,0,0,0,0,0,0
1709456719.69963694,105728525,1000,1000,1000,1000,0,0,0,0,0,0,0,0,0,0
1709456719.79959702,105828485,1000,1000,1000,1000,0,0,0,0,0,0,0,0,0,0
1709456719.89955711,105928445,1000,1000,1000,1000,0,0,0,0,0,0,0,0,0,0
1709456719.99951696,106028405,1000,1000,1000,1000,0,0,0,0,0,0,0,0,0,0
1709456720.09947705,106128365,1000,1000,1000,1000,0,0,0,0,0,0,0,0,0,0
1709456720.19943690,106228325,1000,1000,1000,1000,0,0,0,0,0,0,0,0,0,0
1709456720.29939699,106328285,1000,1000,1000,1000,0,0,0,0,0,0,0,0,0,0
1709456720.39935708,106428245,1000,1000,1000,1000,0,0,0,0,0,0,0,0,0,0
1709456720.49931693,106528205,1000,1000,1000,1000,0,0,0,0,0,0,0,0,0,0
1709456720.59927702,106628165,1000,1000,1000,1000,0,0,0,0,0,0,0,0,0,0
1709456720.70006990,106728958,1000,1000,1000,1000,0,0,0,0,0,0,0,0,0,0
1709456720.80002999,106828918,1000,1000,1000,1000,0,0,0,0,0,0,0,0,0,0
1709456720.89999008,106928878,1000,1000,1000,1000,0,0,0,0,0,0,0,0,0,0
1709456720.99994993,107028838,1000,1000,1000,1000,0,0,0,0,0,0,0,0,0,0
1709456721.09991002,107128798,1000,1000,1000,1000,0,0,0,0,0,0,0,0,0,0
1709456721.19987011,107228758,1000,1000,1000,1000,0,0,0,0,0,0,0,0,0,0
1709456721.29982996,107328718,1000,1000,1000,1000,0,0,0,0,0,0,0,0,0,0
1709456721.39979005,107428678,1000,1000,1000,1000,0,0,0,0,0,0,0,0,0,0
1709456721.49974990,107528638,1000,1000,1000,1000,0,0,0,0,0,0,0,0,0,0
1709456721.59970999,107628598,1000,1000,1000,1000,0,0,0,0,0,0,0,0,0,0
1709456721.69967008,107728558,1000,1000,1000,1000,0,0,0,0,0,0,0,0,0,0
1709456721.79962993,107828518,1000,1000,1000,1000,0,0,0,0,0,0,0,0,0,0
1709456721.89959002,107928478,1000,1000,1000,1000,0,0,0,0,0,0,0,0,0,0
1709456721.99955010,108028438,1000,1000,1000,1000,0,0,0,0,0,0,0,0,0,0
1709456722.09950995,108128398,1000,1000,1000,1000,0,0,0,0,0,0,0,0,0,0
1709456722.19947004,108228358,1000,1000,1000,1000,0,0,0,0,0,0,0,0,0,0
1709456722.29943013,108328318,1000,1000,1000,1000,0,0,0,0,0,0,0,0,0,0
1709456722.39938998,108428278,1000,1000,1000,1000,0,0,0,0,0,0,0,0,0,0
1709456722.49935007,108528238,1000,1000,1000,1000,0,0,0,0,0,0,0,0,0,0
1709456722.59930992,108628198,1000,1000,1000,1000,0,0,0,0,0,0,0,0,0,0
1709456722.69927001,108728158,1000,1000,1000,1000,0,0,0,0,0,0,0,0,0,0
1709456722.80006289,108828951,1000,1000,1000,1000,0,0,0,0,0,0,0,0,0,0
1709456722.90002298,108928911,1000,1000,1000,1000,0,0,0,0,0,0,0,0,0,0
1709456722.99998307,109028871,1000,1000,1000,1000,0,0,0,0,0,0,0,0,0,0
1709456723.09994292,109128831,1000,1000,1000,1000,0,0,0,0,0,0,0,0,0,0
1709456723.19990301,109228791,1000,1000,1000,1000,0,0,0,0,0,0,0,0,0,0
1709456723.29986310,109328751,1000,1000,1000,1000,0,0,0,0,0,0,0,0,0,0
1709456723.39982295,109428711,1000,1000,1000,1000,0,0,0,0,0,0,0,0,0,0
1709456723.49978304,109528671,1000,1000,1000,1000,0,0,0,0,0,0,0,0,0,0
1709456723.59974313,109628631,1000,1000,1000,1000,0,0,0,0,0,0,0,0,0,0
1709456723.69970298,109728591,1000,1000,1000,1000,0,0,0,0,0,0,0,0,0,0
1709456723.79966307,109828551,1000,1000,1000,1000,0,0,0,0,0,0,0,0,0,0
1709456723.89962292,109928511,1000,1000,1000,1000,0,0,0,0,0,0,0,0,0,0
1709456723.99958301,110028471,1000,1000,1000,1000,0,0,0,0,0,0,0,0,0,0
1709456724.09954309,110128431,1000,1000,1000,1000,0,0,0,0,0,0,0,0,0,0
1709456724.19950294,110228391,1000,1000,1000,1000,0,0,0,0,0,0,0,0,0,0
1709456724.29946303,110328351,1000,1000,1000,1000,0,0,0,0,0,0,0,0,0,0
1709456724.39942312,110428311,1000,1000,1000,1000,0,0,0,0,0,0,0,0,0,0
1709456724.49938297,110528271,1000,1000,1000,1000,0,0,0,0,0,0,0,0,0,0
1709456724.59934306,110628231,1000,1000,1000,1000,0,0,0,0,0,0,0,0,0,0
1709456724.69930291,110728191,1000,1000,1000,1000,0,0,0,0,0,0,0,0,0,0
1709456724.80009604,110828984,1000,1000,1000,1000,0,0,0,0,0,0,0,0,0,0
1709456724.90005612,110928944,1000,1000,1000,1000,0,0,0,0,0,0,0,0,0,0
1709456725.00001597,111028904,1000,1000,1000,1000,0,0,0,0,0,0,0,0,0,0
1709456725.09997606,111128864,1000,1000,1000,1000,0,0,0,0,0,0,0,0,0,0
1709456725.19993591,111228824,1000,1000,1000,1000,0,0,0,0,0,0,0,0,0,0
1709456725.29989600,111328784,1000,1000,1000,1000,0,0,0,0,0,0,0,0,0,0
1709456725.39985609,111428744,1000,1000,1000,1000,0,0,0,0,0,0,0,0,0,0
1709456725.49981594,111528704,1000,1000,1000,1000,0,0,0,0,0,0,0,0,0,0
1709456725.59977603,111628664,1000,1000,1000,1000,0,0,0,0,0,0,0,0,0,0
1709456725.69973612,111728624,1000,1000,1000,1000,0,0,0,0,0,0,0,0,0,0
1709456725.79969597,111828584,1000,1000,1000,1000,0,0,0,0,0,0,0,0,0,0
1709456725.89965606,111928544,1000,1000,1000,1000,0,0,0,0,0,0,0,0,0,0
1709456725.99961591,112028504,1000,1000,1000,1000,0,0,0,0,0,0,0,0,0,0
1709456726.09957600,112128464,1000,1000,1000,1000,0,0,0,0,0,0,0,0,0,0
1709456726.19953609,112228424,1000,1000,1000,1000,0,0,0,0,0,0,0,0,0,0
