TimeUS,M1,M2,M3,M4,TimeUS,C1,C2,C3,C4
45885805,1000,1000,1000,1000,45928288,1000,1000,1000,1000
45888304,1000,1000,1000,1000,46028248,1000,1000,1000,1000
45890803,1000,1000,1000,1000,46128208,1000,1000,1000,1000
45893302,1000,1000,1000,1000,46228168,1000,1000,1000,1000
45895801,1000,1000,1000,1000,46328961,1000,1000,1000,1000
45898300,1000,1000,1000,1000,46428921,1000,1000,1000,1000
45900799,1000,1000,1000,1000,46528881,1000,1000,1000,1000
45903298,1000,1000,1000,1000,46628841,1000,1000,1000,1000
45905797,1000,1000,1000,1000,46728801,1000,1000,1000,1000
45908296,1000,1000,1000,1000,46828761,1000,1000,1000,1000
45910795,1000,1000,1000,1000,46928721,1000,1000,1000,1000
45913294,1000,1000,1000,1000,47028681,1000,1000,1000,1000
45915793,1000,1000,1000,1000,47128641,1000,1000,1000,1000
45918292,1000,1000,1000,1000,47228601,1000,1000,1000,1000
45920791,1000,1000,1000,1000,47328561,1000,1000,1000,1000
45923290,1000,1000,1000,1000,47428521,1000,1000,1000,1000
45925789,1000,1000,1000,1000,47528481,1000,1000,1000,1000
45928288,1000,1000,1000,1000,47628441,1000,1000,1000,1000
45930787,1000,1000,1000,1000,47728401,1000,1000,1000,1000
45933286,1000,1000,1000,1000,47828361,1000,1000,1000,1000
45935785,1000,1000,1000,1000,47928321,1012,1012,1012,1012
45938284,1000,1000,1000,1000,48028281,1042,1042,1042,1042
45940783,1000,1000,1000,1000,48128241,1072,1072,1072,1072
45943282,1000,1000,1000,1000,48228201,1102,1102,1102,1102
45945781,1000,1000,1000,1000,48328161,1132,1132,1132,1132
45948280,1000,1000,1000,1000,48428954,1268,1263,1263,1268
45950779,1000,1000,1000,1000,48528914,1481,1476,1477,1481
45953278,1000,1000,1000,1000,48628874,1644,1641,1640,1645
45955777,1000,1000,1000,1000,48728834,1782,1778,1779,1783
45958276,1000,1000,1000,1000,48828794,1904,1900,1900,1904
45960775,1000,1000,1000,1000,48928754,1881,1879,1879,1881
45963274,1000,1000,1000,1000,49028714,1761,1760,1760,1761
45965773,1000,1000,1000,1000,49128674,1665,1666,1666,1665
45968272,1000,1000,1000,1000,49228634,1635,1636,1637,1635
45970771,1000,1000,1000,1000,49328594,1639,1641,1641,1639
45973270,1000,1000,1000,1000,49428554,1650,1643,1642,1651
45975769,1000,1000,1000,1000,49528514,1633,1634,1626,1641
45978268,1000,1000,1000,1000,49628474,1624,1626,1618,1632
45980767,1000,1000,1000,1000,49728434,1617,1617,1614,1620
45983266,1000,1000,1000,1000,49828394,1614,1614,1615,1613
45985765,1000,1000,1000,1000,49928354,1616,1616,1620,1612
45988264,1000,1000,1000,1000,50028314,1620,1619,1624,1615
45990763,1000,1000,1000,1000,50128274,1591,1591,1607,1575
45993262,1000,1000,1000,1000,50228234,1577,1578,1591,1565
45995761,1000,1000,1000,1000,50328194,1565,1565,1568,1562
45998260,1000,1000,1000,1000,50428154,1555,1555,1550,1560
46000759,1000,1000,1000,1000,50528947,1546,1546,1536,1556
46003258,1000,1000,1000,1000,50628907,1540,1539,1528,1551
46005757,1000,1000,1000,1000,50728867,1535,1534,1526,1543
46008256,1000,1000,1000,1000,50828827,1530,1529,1525,1533
46010755,1000,1000,1000,1000,50928787,1526,1525,1525,1525
46013254,1000,1000,1000,1000,51028747,1527,1527,1529,1524
46015753,1000,1000,1000,1000,51128707,1529,1529,1532,1526
46018252,1000,1000,1000,1000,51228667,1532,1532,1535,1530
46020751,1000,1000,1000,1000,51328627,1535,1535,1537,1533
46023250,1000,1000,1000,1000,51428587,1539,1539,1541,1537
46025749,1000,1000,1000,1000,51528547,1543,1543,1544,1542
46028248,1000,1000,1000,1000,51628507,1545,1545,1546,1545
46030747,1000,1000,1000,1000,51728467,1549,1549,1549,1549
46033246,1000,1000,1000,1000,51828427,1551,1551,1550,1552
46035745,1000,1000,1000,1000,51928387,1553,1554,1553,1555
46038244,1000,1000,1000,1000,52028347,1554,1554,1557,1560
46040743,1000,1000,1000,1000,52128307,1556,1556,1561,1562
46043242,1000,1000,1000,1000,52228267,1558,1558,1563,1564
46045741,1000,1000,1000,1000,52328227,1560,1560,1565,1565
46048240,1000,1000,1000,1000,52428187,1562,1562,1566,1565
46050739,1000,1000,1000,1000,52528980,1564,1565,1567,1565
46053238,1000,1000,1000,1000,52628940,1567,1568,1567,1567
46055737,1000,1000,1000,1000,52728900,1569,1569,1567,1568
46058236,1000,1000,1000,1000,52828860,1570,1570,1568,1568
46060735,1000,1000,1000,1000,52928820,1572,1572,1568,1569
46063234,1000,1000,1000,1000,53028780,1572,1572,1568,1569
46065733,1000,1000,1000,1000,53128740,1573,1573,1569,1570
46068232,1000,1000,1000,1000,53228700,1574,1573,1571,1571
46070731,1000,1000,1000,1000,53328660,1574,1574,1572,1572
46073230,1000,1000,1000,1000,53428620,1575,1575,1574,1573
46075729,1000,1000,1000,1000,53528580,1574,1574,1575,1573
46078228,1000,1000,1000,1000,53628540,1574,1574,1575,1573
46080727,1000,1000,1000,1000,53728500,1574,1574,1575,1574
46083226,1000,1000,1000,1000,53828460,1575,1575,1575,1575
46085725,1000,1000,1000,1000,53928420,1575,1575,1575,1576
46088224,1000,1000,1000,1000,54028380,1574,1574,1575,1575
46090723,1000,1000,1000,1000,54128340,1575,1575,1576,1576
46093222,1000,1000,1000,1000,54228300,1575,1576,1576,1576
46095721,1000,1000,1000,1000,54328260,1577,1577,1578,1577
46098220,1000,1000,1000,1000,54428220,1577,1577,1577,1577
46100719,1000,1000,1000,1000,54528180,1576,1576,1576,1577
46103218,1000,1000,1000,1000,54628973,1577,1577,1577,1577
46105717,1000,1000,1000,1000,54728933,1577,1577,1576,1576
46108216,1000,1000,1000,1000,54828893,1578,1577,1577,1577
46110715,1000,1000,1000,1000,54928853,1579,1579,1579,1579
46113214,1000,1000,1000,1000,55028813,1579,1579,1579,1579
46115713,1000,1000,1000,1000,55128773,1579,1579,1579,1579
46118212,1000,1000,1000,1000,55228733,1579,1580,1579,1579
46120711,1000,1000,1000,1000,55328693,1580,1579,1579,1580
46123210,1000,1000,1000,1000,55428653,1580,1579,1579,1579
46125709,1000,1000,1000,1000,55528613,1578,1578,1579,1578
46128208,1000,1000,1000,1000,55628573,1579,1579,1579,1579
46130707,1000,1000,1000,1000,55728533,1579,1579,1579,1579
46133206,1000,1000,1000,1000,55828493,1579,1579,1579,1579
46135705,1000,1000,1000,1000,55928453,1579,1579,1579,1579
46138204,1000,1000,1000,1000,56028413,1581,1580,1581,1581
46140703,1000,1000,1000,1000,56128373,1580,1580,1581,1580
46143202,1000,1000,1000,1000,56228333,1580,1580,1580,1579
46145701,1000,1000,1000,1000,56328293,1579,1579,1579,1580
46148200,1000,1000,1000,1000,56428253,1579,1579,1579,1580
46150699,1000,1000,1000,1000,56528213,1579,1579,1579,1579
46153198,1000,1000,1000,1000,56628173,1580,1579,1580,1580
46155697,1000,1000,1000,1000,56728966,1580,1580,1580,1580
46158196,1000,1000,1000,1000,56828926,1579,1580,1580,1580
46160695,1000,1000,1000,1000,56928886,1578,1579,1579,1579
46163194,1000,1000,1000,1000,57028846,1580,1580,1580,1580
46165693,1000,1000,1000,1000,57128806,1580,1580,1580,1580
46168192,1000,1000,1000,1000,57228766,1580,1580,1580,1580
46170691,1000,1000,1000,1000,57328726,1581,1580,1581,1580
46173190,1000,1000,1000,1000,57428686,1581,1581,1581,1581
46175689,1000,1000,1000,1000,57528646,1580,1581,1580,1580
46178188,1000,1000,1000,1000,57628606,1580,1580,1580,1581
46180687,1000,1000,1000,1000,57728566,1581,1581,1581,1581
46183186,1000,1000,1000,1000,57828526,1580,1581,1581,1580
46185685,1000,1000,1000,1000,57928486,1580,1580,1580,1580
46188184,1000,1000,1000,1000,58028446,1581,1580,1580,1580
46190683,1000,1000,1000,1000,58128406,1581,1580,1580,1580
46193182,1000,1000,1000,1000,58228366,1580,1580,1586,1573
46195681,1000,1000,1000,1000,58328326,1579,1581,1585,1572
46198180,1000,1000,1000,1000,58428286,1578,1580,1577,1573
46200679,1000,1000,1000,1000,58528246,1576,1579,1568,1571
46203178,1000,1000,1000,1000,58628206,1575,1577,1560,1567
46205677,1000,1000,1000,1000,58728166,1576,1577,1556,1563
46208176,1000,1000,1000,1000,58828959,1577,1576,1554,1558
46210675,1000,1000,1000,1000,58928919,1578,1576,1555,1555
46213174,1000,1000,1000,1000,59028879,1578,1575,1554,1553
46215673,1000,1000,1000,1000,59128839,1578,1577,1556,1554
46218172,1000,1000,1000,1000,59228799,1576,1576,1555,1553
46220671,1000,1000,1000,1000,59328759,1576,1577,1556,1554
46223170,1000,1000,1000,1000,59428719,1575,1577,1555,1554
46225669,1000,1000,1000,1000,59528679,1574,1576,1553,1554
46228168,1000,1000,1000,1000,59628639,1575,1577,1553,1553
46230667,1000,1000,1000,1000,59728599,1576,1578,1551,1551
46233166,1000,1000,1000,1000,59828559,1579,1580,1550,1550
46235665,1000,1000,1000,1000,59928519,1580,1581,1546,1545
46238164,1000,1000,1000,1000,60028479,1583,1584,1544,1543
46240663,1000,1000,1000,1000,60128439,1586,1587,1540,1541
46243162,1000,1000,1000,1000,60228399,1589,1590,1537,1537
46245661,1000,1000,1000,1000,60328359,1592,1593,1536,1536
46248160,1000,1000,1000,1000,60428319,1594,1594,1534,1534
46250659,1000,1000,1000,1000,60528279,1596,1595,1535,1536
46253158,1000,1000,1000,1000,60628239,1595,1595,1535,1537
46255657,1000,1000,1000,1000,60728199,1593,1593,1538,1540
46258156,1000,1000,1000,1000,60828159,1590,1589,1543,1546
46260655,1000,1000,1000,1000,60928952,1585,1582,1551,1553
46263154,1000,1000,1000,1000,61028912,1577,1574,1560,1563
46266486,1000,1000,1000,1000,61128872,1567,1563,1570,1573
46268985,1000,1000,1000,1000,61228832,1556,1553,1584,1586
46271484,1000,1000,1000,1000,61328792,1544,1542,1595,1595
46273983,1000,1000,1000,1000,61428752,1535,1534,1604,1604
46276482,1000,1000,1000,1000,61528712,1530,1530,1612,1610
46278981,1000,1000,1000,1000,61628672,1528,1529,1615,1614
46281480,1000,1000,1000,1000,61728632,1530,1532,1614,1613
46283979,1000,1000,1000,1000,61828592,1535,1537,1610,1610
46286478,1000,1000,1000,1000,61928552,1542,1544,1606,1605
46288977,1000,1000,1000,1000,62028512,1550,1552,1598,1598
46291476,1000,1000,1000,1000,62128472,1560,1560,1590,1591
46293975,1000,1000,1000,1000,62228432,1568,1568,1583,1582
46296474,1000,1000,1000,1000,62328392,1575,1574,1576,1575
46298973,1000,1000,1000,1000,62428352,1579,1578,1569,1569
46301472,1000,1000,1000,1000,62528312,1584,1582,1566,1566
46303971,1000,1000,1000,1000,62628272,1587,1585,1566,1566
46306470,1000,1000,1000,1000,62728232,1587,1586,1566,1565
46308969,1000,1000,1000,1000,62828192,1586,1585,1567,1567
46311468,1000,1000,1000,1000,62928985,1584,1584,1570,1570
46313967,1000,1000,1000,1000,63028945,1582,1581,1573,1572
46316466,1000,1000,1000,1000,63128905,1578,1578,1575,1575
46318965,1000,1000,1000,1000,63228865,1576,1576,1578,1578
46321464,1000,1000,1000,1000,63328825,1575,1575,1581,1581
46323963,1000,1000,1000,1000,63428785,1573,1573,1583,1583
46326462,1000,1000,1000,1000,63528745,1572,1573,1584,1583
46328961,1000,1000,1000,1000,63628705,1571,1572,1583,1583
46331460,1000,1000,1000,1000,63728665,1574,1574,1584,1584
46333959,1000,1000,1000,1000,63828625,1574,1575,1583,1583
46336458,1000,1000,1000,1000,63928585,1575,1576,1581,1582
46338957,1000,1000,1000,1000,64028545,1577,1577,1581,1581
46341456,1000,1000,1000,1000,64128505,1579,1579,1580,1580
46343955,1000,1000,1000,1000,64228465,1579,1579,1577,1578
46346454,1000,1000,1000,1000,64328425,1580,1580,1577,1577
46348953,1000,1000,1000,1000,64428385,1582,1582,1578,1578
46351452,1000,1000,1000,1000,64528345,1581,1581,1577,1576
46353951,1000,1000,1000,1000,64628305,1581,1581,1576,1577
46356450,1000,1000,1000,1000,64728265,1581,1581,1577,1577
46358949,1000,1000,1000,1000,64828225,1582,1581,1578,1578
46361448,1000,1000,1000,1000,64928185,1581,1580,1579,1579
46363947,1000,1000,1000,1000,65028978,1581,1581,1580,1580
46366446,1000,1000,1000,1000,65128938,1581,1581,1581,1581
46368945,1000,1000,1000,1000,65228898,1580,1581,1582,1582
46371444,1000,1000,1000,1000,65328858,1579,1580,1581,1581
46373943,1000,1000,1000,1000,65428818,1580,1580,1582,1581
46376442,1000,1000,1000,1000,65528778,1581,1581,1582,1582
46378941,1000,1000,1000,1000,65628738,1580,1579,1581,1581
46381440,1000,1000,1000,1000,65728698,1580,1579,1580,1580
46383939,1000,1000,1000,1000,65828658,1581,1581,1581,1581
46386438,1000,1000,1000,1000,65928618,1581,1581,1580,1580
46388937,1000,1000,1000,1000,66028578,1581,1581,1580,1580
46391436,1000,1000,1000,1000,66128538,1581,1581,1580,1580
46393935,1000,1000,1000,1000,66228498,1580,1581,1583,1575
46396434,1000,1000,1000,1000,66328458,1580,1583,1585,1570
46398933,1000,1000,1000,1000,66428418,1579,1582,1577,1569
46401432,1000,1000,1000,1000,66528378,1579,1582,1569,1569
46403931,1000,1000,1000,1000,66628338,1578,1580,1560,1566
46406430,1000,1000,1000,1000,66728298,1578,1578,1554,1561
46408929,1000,1000,1000,1000,66828258,1578,1578,1551,1556
46411428,1000,1000,1000,1000,66928218,1579,1578,1551,1553
46413927,1000,1000,1000,1000,67028178,1578,1578,1551,1550
46416426,1000,1000,1000,1000,67128971,1578,1576,1551,1549
46418925,1000,1000,1000,1000,67228931,1576,1577,1551,1550
46421424,1000,1000,1000,1000,67328891,1575,1576,1551,1549
46423923,1000,1000,1000,1000,67428851,1573,1575,1549,1549
46426422,1000,1000,1000,1000,67528811,1574,1575,1549,1549
46428921,1000,1000,1000,1000,67628771,1574,1576,1547,1547
46431420,1000,1000,1000,1000,67728731,1575,1576,1545,1545
46433919,1000,1000,1000,1000,67828691,1576,1579,1542,1543
46436418,1000,1000,1000,1000,67928651,1579,1580,1541,1540
46438917,1000,1000,1000,1000,68028611,1583,1584,1539,1540
46441416,1000,1000,1000,1000,68128571,1586,1585,1537,1537
46443915,1000,1000,1000,1000,68228531,1587,1589,1534,1537
46446414,1000,1000,1000,1000,68328491,1590,1590,1533,1536
46448913,1000,1000,1000,1000,68428451,1591,1591,1533,1537
46451412,1000,1000,1000,1000,68528411,1590,1589,1537,1539
46453911,1000,1000,1000,1000,68628371,1587,1584,1542,1546
46456410,1000,1000,1000,1000,68728331,1582,1578,1553,1554
46458909,1000,1000,1000,1000,68828291,1574,1569,1563,1565
46461408,1000,1000,1000,1000,68928251,1564,1559,1576,1576
46463907,1000,1000,1000,1000,69028211,1552,1550,1587,1587
46466406,1000,1000,1000,1000,69128171,1543,1543,1597,1595
46468905,1000,1000,1000,1000,69228964,1538,1540,1604,1603
46471404,1000,1000,1000,1000,69328924,1536,1538,1607,1605
46473903,1000,1000,1000,1000,69428884,1538,1540,1607,1607
46476402,1000,1000,1000,1000,69528844,1541,1544,1605,1604
46478901,1000,1000,1000,1000,69628804,1533,1541,1602,1603
46481400,1000,1000,1000,1000,69728764,1549,1546,1597,1597
46483899,1000,1000,1000,1000,69828724,1563,1553,1591,1592
46486398,1000,1000,1000,1000,69928684,1571,1563,1585,1584
46488897,1000,1000,1000,1000,70028644,1578,1571,1580,1579
46491396,1000,1000,1000,1000,70128604,1581,1579,1575,1572
46493895,1000,1000,1000,1000,70228564,1584,1584,1571,1571
46496394,1000,1000,1000,1000,70328524,1584,1587,1568,1568
46498893,1000,1000,1000,1000,70428484,1584,1586,1566,1567
46501392,1000,1000,1000,1000,70528444,1584,1587,1568,1568
46503891,1000,1000,1000,1000,70628404,1584,1583,1569,1570
46506390,1000,1000,1000,1000,70728364,1582,1581,1572,1571
46508889,1000,1000,1000,1000,70828324,1581,1578,1575,1576
46511388,1000,1000,1000,1000,70928284,1577,1577,1579,1578
46513887,1000,1000,1000,1000,71028244,1575,1574,1581,1581
46516386,1000,1000,1000,1000,71128204,1572,1573,1583,1583
46518885,1000,1000,1000,1000,71228164,1571,1572,1585,1585
46521384,1000,1000,1000,1000,71328957,1570,1573,1586,1585
46523883,1000,1000,1000,1000,71428917,1572,1572,1586,1586
46526382,1000,1000,1000,1000,71528877,1572,1574,1586,1585
46528881,1000,1000,1000,1000,71628837,1576,1574,1585,1585
46531380,1000,1000,1000,1000,71728797,1576,1577,1584,1583
46533879,1000,1000,1000,1000,71828757,1579,1579,1583,1584
46536378,1000,1000,1000,1000,71928717,1580,1581,1582,1581
46538877,1000,1000,1000,1000,72028677,1582,1581,1581,1581
46541376,1000,1000,1000,1000,72128637,1583,1583,1580,1579
46543875,1000,1000,1000,1000,72228597,1584,1583,1580,1580
46546374,1000,1000,1000,1000,72328557,1584,1585,1580,1579
46548873,1000,1000,1000,1000,72428517,1584,1584,1579,1580
46551372,1000,1000,1000,1000,72528477,1584,1585,1580,1579
46553871,1000,1000,1000,1000,72628437,1584,1583,1580,1581
46556370,1000,1000,1000,1000,72728397,1583,1583,1581,1581
46558869,1000,1000,1000,1000,72828357,1582,1582,1581,1581
46561368,1000,1000,1000,1000,72928317,1582,1582,1582,1581
46563867,1000,1000,1000,1000,73028277,1582,1582,1583,1583
46566366,1000,1000,1000,1000,73128237,1582,1582,1583,1583
46568865,1000,1000,1000,1000,73228197,1582,1582,1583,1584
46571364,1000,1000,1000,1000,73328157,1581,1582,1583,1583
46573863,1000,1000,1000,1000,73428950,1582,1581,1583,1583
46576362,1000,1000,1000,1000,73528910,1582,1582,1583,1583
46578861,1000,1000,1000,1000,73628870,1583,1583,1583,1583
46581360,1000,1000,1000,1000,73728830,1583,1584,1583,1583
46583859,1000,1000,1000,1000,73828790,1583,1583,1582,1582
46586358,1000,1000,1000,1000,73928750,1583,1584,1582,1582
46588857,1000,1000,1000,1000,74028710,1584,1583,1582,1582
46591356,1000,1000,1000,1000,74128670,1583,1584,1582,1582
46593855,1000,1000,1000,1000,74228630,1584,1583,1582,1581
46596354,1000,1000,1000,1000,74328590,1585,1584,1586,1579
46598853,1000,1000,1000,1000,74428550,1584,1582,1589,1575
46601352,1000,1000,1000,1000,74528510,1581,1582,1584,1576
46603851,1000,1000,1000,1000,74628470,1577,1580,1575,1576
46606350,1000,1000,1000,1000,74728430,1576,1579,1570,1575
46608849,1000,1000,1000,1000,74828390,1575,1576,1565,1572
46611348,1000,1000,1000,1000,74928350,1574,1575,1564,1569
46613847,1000,1000,1000,1000,75028310,1574,1573,1563,1566
46616346,1000,1000,1000,1000,75128270,1574,1572,1565,1564
46618845,1000,1000,1000,1000,75228230,1572,1572,1565,1562
46621344,1000,1000,1000,1000,75328190,1571,1571,1564,1561
46623843,1000,1000,1000,1000,75428983,1570,1571,1563,1561
46626342,1000,1000,1000,1000,75528943,1570,1571,1562,1561
46628841,1000,1000,1000,1000,75628903,1569,1571,1560,1560
46631340,1000,1000,1000,1000,75728863,1569,1570,1558,1559
46633839,1000,1000,1000,1000,75828823,1571,1572,1558,1558
46636338,1000,1000,1000,1000,75928783,1571,1572,1555,1556
46638837,1000,1000,1000,1000,76028743,1573,1574,1553,1554
46641336,1000,1000,1000,1000,76128703,1575,1575,1551,1550
46643835,1000,1000,1000,1000,76228663,1577,1579,1548,1548
46646334,1000,1000,1000,1000,76328623,1578,1580,1544,1543
46648833,1000,1000,1000,1000,76428583,1581,1583,1541,1540
46651332,1000,1000,1000,1000,76528543,1586,1586,1538,1537
46653831,1000,1000,1000,1000,76628503,1588,1589,1532,1533
46656330,1000,1000,1000,1000,76728463,1592,1593,1530,1529
46658829,1000,1000,1000,1000,76828423,1596,1596,1527,1527
46661328,1000,1000,1000,1000,76928383,1599,1598,1525,1525
46663827,1000,1000,1000,1000,77028343,1600,1600,1525,1527
46666326,1000,1000,1000,1000,77128303,1601,1599,1527,1529
46668825,1000,1000,1000,1000,77228263,1597,1595,1531,1534
46671324,1000,1000,1000,1000,77328223,1592,1589,1538,1541
46673823,1000,1000,1000,1000,77428183,1584,1582,1546,1550
46676322,1000,1000,1000,1000,77528976,1575,1573,1558,1561
46678821,1000,1000,1000,1000,77628936,1565,1563,1570,1573
46681320,1000,1000,1000,1000,77728896,1554,1551,1582,1584
46683819,1000,1000,1000,1000,77828856,1542,1540,1593,1594
46686318,1000,1000,1000,1000,77928816,1533,1532,1604,1603
46688817,1000,1000,1000,1000,78028776,1528,1528,1611,1611
46691316,1000,1000,1000,1000,78128736,1526,1527,1615,1613
46693815,1000,1000,1000,1000,78228696,1527,1528,1613,1612
46696314,1000,1000,1000,1000,78328656,1531,1534,1609,1608
46698813,1000,1000,1000,1000,78428616,1538,1540,1601,1602
46701312,1000,1000,1000,1000,78528576,1547,1549,1594,1594
46703811,1000,1000,1000,1000,78628536,1557,1558,1586,1587
46706310,1000,1000,1000,1000,78728496,1566,1566,1578,1578
46708809,1000,1000,1000,1000,78828456,1575,1573,1572,1573
46711308,1000,1000,1000,1000,78928416,1581,1579,1568,1568
46713807,1000,1000,1000,1000,79028376,1585,1583,1567,1566
46716306,1000,1000,1000,1000,79128336,1587,1585,1568,1565
46718805,1000,1000,1000,1000,79228296,1586,1584,1569,1567
46721304,1000,1000,1000,1000,79328256,1584,1583,1571,1570
46723803,1000,1000,1000,1000,79428216,1581,1581,1574,1574
46726302,1000,1000,1000,1000,79528176,1578,1578,1577,1577
46728801,1000,1000,1000,1000,79628969,1576,1576,1580,1580
46731300,1000,1000,1000,1000,79728929,1574,1575,1583,1583
46733799,1000,1000,1000,1000,79828889,1572,1573,1584,1584
46736298,1000,1000,1000,1000,79928849,1572,1573,1585,1585
46738797,1000,1000,1000,1000,80028809,1573,1574,1586,1585
46741296,1000,1000,1000,1000,80128769,1574,1574,1585,1584
46743795,1000,1000,1000,1000,80228729,1576,1576,1584,1584
46746294,1000,1000,1000,1000,80328689,1577,1578,1583,1583
46748793,1000,1000,1000,1000,80428649,1579,1580,1582,1582
46751292,1000,1000,1000,1000,80528609,1581,1580,1580,1580
46753791,1000,1000,1000,1000,80628569,1582,1582,1580,1579
46756290,1000,1000,1000,1000,80728529,1584,1583,1579,1579
46758789,1000,1000,1000,1000,80828489,1583,1583,1578,1579
46761288,1000,1000,1000,1000,80928449,1583,1584,1578,1578
46763787,1000,1000,1000,1000,81028409,1585,1585,1580,1580
46766286,1000,1000,1000,1000,81128369,1584,1584,1580,1579
46768785,1000,1000,1000,1000,81228329,1583,1583,1580,1580
46771284,1000,1000,1000,1000,81328289,1583,1583,1581,1581
46773783,1000,1000,1000,1000,81428249,1581,1581,1580,1580
46776282,1000,1000,1000,1000,81528209,1581,1581,1581,1581
46778781,1000,1000,1000,1000,81628169,1581,1582,1583,1583
46781280,1000,1000,1000,1000,81728962,1582,1583,1584,1584
46783779,1000,1000,1000,1000,81828922,1581,1582,1583,1583
46786278,1000,1000,1000,1000,81928882,1582,1582,1583,1584
46788777,1000,1000,1000,1000,82028842,1581,1581,1583,1583
46791276,1000,1000,1000,1000,82128802,1581,1581,1582,1582
46793775,1000,1000,1000,1000,82228762,1582,1582,1582,1582
46796274,1000,1000,1000,1000,82328722,1582,1582,1582,1582
46798773,1000,1000,1000,1000,82428682,1583,1583,1582,1582
46801272,1000,1000,1000,1000,82528642,1583,1582,1582,1582
46803771,1000,1000,1000,1000,82628602,1583,1583,1582,1581
46806270,1000,1000,1000,1000,82728562,1583,1583,1582,1582
46808769,1000,1000,1000,1000,82828522,1583,1583,1582,1582
46811268,1000,1000,1000,1000,82928482,1584,1583,1582,1583
46813767,1000,1000,1000,1000,83028442,1584,1584,1585,1582
46816266,1000,1000,1000,1000,83128402,1583,1583,1589,1575
46818765,1000,1000,1000,1000,83228362,1582,1582,1585,1576
46821264,1000,1000,1000,1000,83328322,1579,1579,1579,1577
46823763,1000,1000,1000,1000,83428282,1574,1575,1572,1576
46826262,1000,1000,1000,1000,83528242,1572,1572,1568,1575
46828761,1000,1000,1000,1000,83628202,1569,1569,1566,1572
46831260,1000,1000,1000,1000,83728162,1567,1567,1566,1569
46833759,1000,1000,1000,1000,83828955,1566,1566,1567,1566
46836258,1000,1000,1000,1000,83928915,1566,1565,1568,1566
46838757,1000,1000,1000,1000,84028875,1564,1565,1567,1564
46841256,1000,1000,1000,1000,84128835,1564,1565,1566,1565
46843755,1000,1000,1000,1000,84228795,1564,1564,1565,1564
46846254,1000,1000,1000,1000,84328755,1563,1563,1564,1564
46848753,1000,1000,1000,1000,84428715,1562,1563,1563,1563
46851252,1000,1000,1000,1000,84528675,1562,1561,1561,1562
46853751,1000,1000,1000,1000,84628635,1561,1562,1562,1561
46856250,1000,1000,1000,1000,84728595,1562,1561,1562,1561
46858749,1000,1000,1000,1000,84828555,1560,1561,1561,1560
46861248,1000,1000,1000,1000,84928515,1560,1560,1559,1560
46863747,1000,1000,1000,1000,85028475,1557,1558,1558,1557
46866246,1000,1000,1000,1000,85128435,1558,1557,1558,1557
46868745,1000,1000,1000,1000,85228395,1557,1558,1559,1557
46871244,1000,1000,1000,1000,85328355,1557,1557,1558,1557
46873743,1000,1000,1000,1000,85428315,1557,1557,1558,1556
46876242,1000,1000,1000,1000,85528275,1558,1557,1558,1557
46878741,1000,1000,1000,1000,85628235,1557,1557,1558,1556
46881240,1000,1000,1000,1000,85728195,1559,1557,1560,1557
46883739,1000,1000,1000,1000,85828155,1558,1558,1559,1558
46886238,1000,1000,1000,1000,85928948,1559,1558,1557,1561
46888737,1000,1000,1000,1000,86028908,1560,1560,1557,1563
46891236,1000,1000,1000,1000,86128868,1562,1561,1558,1565
46893735,1000,1000,1000,1000,86228828,1562,1564,1560,1565
46896234,1000,1000,1000,1000,86328788,1563,1562,1561,1563
46898733,1000,1000,1000,1000,86428748,1561,1562,1562,1560
46901232,1000,1000,1000,1000,86528708,1561,1560,1562,1558
46903731,1000,1000,1000,1000,86628668,1560,1560,1560,1560
46906230,1000,1000,1000,1000,86728628,1559,1557,1555,1560
46908729,1000,1000,1000,1000,86828588,1554,1554,1551,1556
46911228,1000,1000,1000,1000,86928548,1549,1548,1546,1549
46913727,1000,1000,1000,1000,87028508,1541,1542,1541,1541
46916226,1000,1000,1000,1000,87128468,1536,1535,1535,1534
46918725,1000,1000,1000,1000,87228428,1527,1528,1528,1526
46921224,1000,1000,1000,1000,87328388,1521,1521,1521,1520
46923723,1000,1000,1000,1000,87428348,1519,1520,1519,1519
46926222,1000,1000,1000,1000,87528308,1520,1519,1520,1520
46928721,1000,1000,1000,1000,87628268,1521,1521,1521,1522
46931220,1000,1000,1000,1000,87728228,1524,1523,1523,1524
46933719,1000,1000,1000,1000,87828188,1527,1528,1528,1528
46936218,1000,1000,1000,1000,87928981,1533,1532,1533,1533
46938717,1000,1000,1000,1000,88028941,1535,1536,1537,1535
46941216,1000,1000,1000,1000,88128901,1538,1539,1542,1539
46943715,1000,1000,1000,1000,88228861,1538,1540,1545,1542
46946214,1000,1000,1000,1000,88328821,1540,1539,1547,1546
46948713,1000,1000,1000,1000,88428781,1540,1538,1548,1548
46951212,1000,1000,1000,1000,88528741,1541,1538,1549,1550
46953711,1000,1000,1000,1000,88628701,1541,1539,1549,1551
46956210,1000,1000,1000,1000,88728661,1542,1540,1550,1551
46958709,1000,1000,1000,1000,88828621,1543,1542,1549,1550
46961208,1000,1000,1000,1000,88928581,1544,1543,1548,1548
46963707,1000,1000,1000,1000,89028541,1545,1545,1546,1547
46966206,1000,1000,1000,1000,89128501,1546,1547,1545,1544
46968705,1000,1000,1000,1000,89228461,1547,1549,1543,1544
46971204,1000,1000,1000,1000,89328421,1550,1550,1543,1543
46973703,1000,1000,1000,1000,89428381,1550,1551,1542,1542
46976202,1000,1000,1000,1000,89528341,1550,1550,1541,1541
46978701,1000,1000,1000,1000,89628301,1550,1550,1540,1540
46981200,1000,1000,1000,1000,89728261,1549,1549,1541,1540
46983699,1000,1000,1000,1000,89828221,1548,1549,1540,1541
46986198,1000,1000,1000,1000,89928181,1547,1548,1542,1541
46988697,1000,1000,1000,1000,90028974,1547,1547,1542,1542
46991196,1000,1000,1000,1000,90128934,1546,1547,1543,1543
46993695,1000,1000,1000,1000,90228894,1546,1546,1544,1544
46996194,1000,1000,1000,1000,90328854,1545,1545,1544,1543
46998693,1000,1000,1000,1000,90428814,1545,1544,1544,1544
47001192,1000,1000,1000,1000,90528774,1544,1544,1544,1544
47003691,1000,1000,1000,1000,90628734,1545,1545,1544,1544
47006190,1000,1000,1000,1000,90728694,1544,1545,1544,1544
47008689,1000,1000,1000,1000,90828654,1545,1545,1544,1544
47011188,1000,1000,1000,1000,90928614,1545,1545,1544,1543
47013687,1000,1000,1000,1000,91028574,1546,1546,1543,1543
47016186,1000,1000,1000,1000,91128534,1546,1546,1543,1543
47018685,1000,1000,1000,1000,91228494,1546,1546,1543,1543
47021184,1000,1000,1000,1000,91328454,1546,1545,1543,1542
47023683,1000,1000,1000,1000,91428414,1546,1544,1544,1542
47026182,1000,1000,1000,1000,91528374,1545,1543,1544,1543
47028681,1000,1000,1000,1000,91628334,1544,1543,1545,1544
47031180,1000,1000,1000,1000,91728294,1543,1543,1547,1546
47033679,1000,1000,1000,1000,91828254,1541,1541,1546,1546
47036178,1000,1000,1000,1000,91928214,1541,1542,1547,1548
47038677,1000,1000,1000,1000,92028174,1542,1542,1548,1548
47041176,1000,1000,1000,1000,92128967,1541,1541,1547,1547
47043675,1000,1000,1000,1000,92228927,1541,1542,1547,1547
47046174,1000,1000,1000,1000,92328887,1541,1541,1545,1546
47048673,1000,1000,1000,1000,92428847,1542,1542,1545,1546
47051172,1000,1000,1000,1000,92528807,1543,1543,1543,1544
47053671,1000,1000,1000,1000,92628767,1545,1545,1545,1544
47056170,1000,1000,1000,1000,92728727,1546,1545,1544,1544
47058669,1000,1000,1000,1000,92828687,1545,1546,1543,1543
47061168,1000,1000,1000,1000,92928647,1545,1546,1542,1543
47063667,1000,1000,1000,1000,93028607,1546,1546,1543,1543
47066166,1000,1000,1000,1000,93128567,1546,1547,1543,1544
47068665,1000,1000,1000,1000,93228527,1546,1546,1543,1543
47071164,1000,1000,1000,1000,93328487,1545,1546,1544,1544
47073663,1000,1000,1000,1000,93428447,1545,1545,1544,1544
47076162,1000,1000,1000,1000,93528407,1544,1544,1544,1544
47078661,1000,1000,1000,1000,93628367,1543,1543,1544,1544
47081160,1000,1000,1000,1000,93728327,1543,1543,1543,1544
47083659,1000,1000,1000,1000,93828287,1543,1543,1544,1544
47086158,1000,1000,1000,1000,93928247,1543,1543,1544,1544
47088657,1000,1000,1000,1000,94028207,1543,1543,1544,1544
47091156,1000,1000,1000,1000,94128167,1543,1543,1544,1544
47093655,1000,1000,1000,1000,94228960,1543,1544,1544,1544
47096154,1000,1000,1000,1000,94328920,1544,1543,1544,1544
47098653,1000,1000,1000,1000,94428880,1544,1544,1544,1544
47101152,1000,1000,1000,1000,94528840,1544,1545,1544,1544
47103651,1000,1000,1000,1000,94628800,1545,1544,1544,1544
47106150,1000,1000,1000,1000,94728760,1544,1544,1543,1544
47108649,1000,1000,1000,1000,94828720,1544,1544,1544,1544
47111148,1000,1000,1000,1000,94928680,1545,1545,1544,1545
47113647,1000,1000,1000,1000,95028640,1544,1544,1544,1544
47116146,1000,1000,1000,1000,95128600,1545,1545,1544,1544
47118645,1000,1000,1000,1000,95228560,1544,1544,1544,1543
47121144,1000,1000,1000,1000,95328520,1544,1544,1544,1544
47123643,1000,1000,1000,1000,95428480,1544,1544,1544,1544
47126142,1000,1000,1000,1000,95528440,1544,1543,1543,1544
47128641,1000,1000,1000,1000,95628400,1544,1543,1544,1544
47131140,1000,1000,1000,1000,95728360,1544,1544,1544,1544
47133639,1000,1000,1000,1000,95828320,1544,1544,1544,1544
47136138,1000,1000,1000,1000,95928280,1544,1543,1544,1544
47138637,1000,1000,1000,1000,96028240,1544,1544,1544,1544
47141136,1000,1000,1000,1000,96128200,1544,1543,1543,1544
47143635,1000,1000,1000,1000,96228160,1544,1544,1544,1544
47146134,1000,1000,1000,1000,96328953,1544,1545,1544,1545
47148633,1000,1000,1000,1000,96428913,1543,1544,1544,1543
47151132,1000,1000,1000,1000,96528873,1545,1545,1545,1545
47153631,1000,1000,1000,1000,96628833,1545,1545,1545,1545
47156130,1000,1000,1000,1000,96728793,1545,1544,1544,1544
47158629,1000,1000,1000,1000,96828753,1545,1544,1544,1545
47161128,1000,1000,1000,1000,96928713,1544,1544,1544,1544
47163627,1000,1000,1000,1000,97028673,1506,1504,1506,1503
47166126,1000,1000,1000,1000,97128633,1337,1321,1330,1315
47168625,1000,1000,1000,1000,97228593,1259,1236,1248,1227
47171124,1000,1000,1000,1000,97328553,1236,1211,1221,1204
47173623,1000,1000,1000,1000,97428513,1215,1189,1198,1182
47176122,1000,1000,1000,1000,97528473,1188,1157,1166,1150
47178621,1000,1000,1000,1000,97628433,1189,1160,1170,1150
47181120,1000,1000,1000,1000,97728393,1191,1160,1171,1150
47183619,1000,1000,1000,1000,97828353,1206,1150,1150,1179
47186118,1000,1000,1000,1000,97928313,1200,1150,1154,1167
47188617,1000,1000,1000,1000,98028273,1197,1150,1157,1159
47191116,1000,1000,1000,1000,98128233,1198,1150,1157,1159
47193615,1000,1000,1000,1000,98228193,1199,1150,1157,1160
47196114,1000,1000,1000,1000,98328986,1201,1150,1157,1161
47198613,1000,1000,1000,1000,98428946,1202,1150,1158,1163
47201112,1000,1000,1000,1000,98528906,1205,1150,1158,1164
47203611,1000,1000,1000,1000,98628866,1190,1150,1152,1152
47206110,1000,1000,1000,1000,98728826,1192,1150,1152,1154
47208609,1000,1000,1000,1000,98828786,1193,1150,1152,1154
47211108,1000,1000,1000,1000,98928746,1194,1150,1152,1155
47213607,1000,1000,1000,1000,99028706,1194,1150,1152,1155
47216106,1000,1000,1000,1000,99128666,1000,1000,1000,1000
47218605,1000,1000,1000,1000,99228626,1000,1000,1000,1000
47221104,1000,1000,1000,1000,99328586,1000,1000,1000,1000
47223603,1000,1000,1000,1000,99428546,1000,1000,1000,1000
47226102,1000,1000,1000,1000,99528506,1000,1000,1000,1000
47228601,1000,1000,1000,1000,99628466,1000,1000,1000,1000
47231100,1000,1000,1000,1000,99728426,1000,1000,1000,1000
47233599,1000,1000,1000,1000,99828386,1000,1000,1000,1000
47236098,1000,1000,1000,1000,99928346,1000,1000,1000,1000
47238597,1000,1000,1000,1000,100028306,1000,1000,1000,1000
47241096,1000,1000,1000,1000,100128266,1000,1000,1000,1000
47243595,1000,1000,1000,1000,100228226,1000,1000,1000,1000
47246094,1000,1000,1000,1000,100328186,1000,1000,1000,1000
47248593,1000,1000,1000,1000,100428979,1000,1000,1000,1000
47251092,1000,1000,1000,1000,100528939,1000,1000,1000,1000
47253591,1000,1000,1000,1000,100628899,1000,1000,1000,1000
47256090,1000,1000,1000,1000,100728859,1000,1000,1000,1000
47258589,1000,1000,1000,1000,100828819,1000,1000,1000,1000
47261088,1000,1000,1000,1000,100928779,1000,1000,1000,1000
47263587,1000,1000,1000,1000,101028739,1000,1000,1000,1000
47266086,1000,1000,1000,1000,101128699,1000,1000,1000,1000
47268585,1000,1000,1000,1000,101228659,1000,1000,1000,1000
47271084,1000,1000,1000,1000,101328619,1000,1000,1000,1000
47273583,1000,1000,1000,1000,101428579,1000,1000,1000,1000
47276082,1000,1000,1000,1000,101528539,1000,1000,1000,1000
47278581,1000,1000,1000,1000,101628499,1000,1000,1000,1000
47281080,1000,1000,1000,1000,101728459,1000,1000,1000,1000
47283579,1000,1000,1000,1000,101828419,1000,1000,1000,1000
47286078,1000,1000,1000,1000,101928379,1000,1000,1000,1000
47288577,1000,1000,1000,1000,102028339,1000,1000,1000,1000
47291076,1000,1000,1000,1000,102128299,1000,1000,1000,1000
47293575,1000,1000,1000,1000,102228259,1000,1000,1000,1000
47296074,1000,1000,1000,1000,102328219,1000,1000,1000,1000
47298573,1000,1000,1000,1000,102428179,1000,1000,1000,1000
47301072,1000,1000,1000,1000,102528972,1000,1000,1000,1000
47303571,1000,1000,1000,1000,102628932,1000,1000,1000,1000
47306070,1000,1000,1000,1000,102728892,1000,1000,1000,1000
47308569,1000,1000,1000,1000,102828852,1000,1000,1000,1000
47311068,1000,1000,1000,1000,102928812,1000,1000,1000,1000
47313567,1000,1000,1000,1000,103028772,1000,1000,1000,1000
47316066,1000,1000,1000,1000,103128732,1000,1000,1000,1000
47318565,1000,1000,1000,1000,103228692,1000,1000,1000,1000
47321064,1000,1000,1000,1000,103328652,1000,1000,1000,1000
47323563,1000,1000,1000,1000,103428612,1000,1000,1000,1000
47326062,1000,1000,1000,1000,103528572,1000,1000,1000,1000
47328561,1000,1000,1000,1000,103628532,1000,1000,1000,1000
47331060,1000,1000,1000,1000,103728492,1000,1000,1000,1000
47333559,1000,1000,1000,1000,103828452,1000,1000,1000,1000
47336058,1000,1000,1000,1000,103928412,1000,1000,1000,1000
47338557,1000,1000,1000,1000,104028372,1000,1000,1000,1000
47341056,1000,1000,1000,1000,104128332,1000,1000,1000,1000
47343555,1000,1000,1000,1000,104228292,1000,1000,1000,1000
47346054,1000,1000,1000,1000,104328252,1000,1000,1000,1000
47348553,1000,1000,1000,1000,104428212,1000,1000,1000,1000
47351052,1000,1000,1000,1000,104528172,1000,1000,1000,1000
47353551,1000,1000,1000,1000,104628965,1000,1000,1000,1000
47356050,1000,1000,1000,1000,104728925,1000,1000,1000,1000
47358549,1000,1000,1000,1000,104828885,1000,1000,1000,1000
47361048,1000,1000,1000,1000,104928845,1000,1000,1000,1000
47363547,1000,1000,1000,1000,105028805,1000,1000,1000,1000
47366046,1000,1000,1000,1000,105128765,1000,1000,1000,1000
47368545,1000,1000,1000,1000,105228725,1000,1000,1000,1000
47371044,1000,1000,1000,1000,105328685,1000,1000,1000,1000
47373543,1000,1000,1000,1000,105428645,1000,1000,1000,1000
47376042,1000,1000,1000,1000,105528605,1000,1000,1000,1000
47378541,1000,1000,1000,1000,105628565,1000,1000,1000,1000
47381040,1000,1000,1000,1000,105728525,1000,1000,1000,1000
47383539,1000,1000,1000,1000,105828485,1000,1000,1000,1000
47386038,1000,1000,1000,1000,105928445,1000,1000,1000,1000
47388537,1000,1000,1000,1000,106028405,1000,1000,1000,1000
47391036,1000,1000,1000,1000,106128365,1000,1000,1000,1000
47393535,1000,1000,1000,1000,106228325,1000,1000,1000,1000
47396034,1000,1000,1000,1000,106328285,1000,1000,1000,1000
47398533,1000,1000,1000,1000,106428245,1000,1000,1000,1000
47401032,1000,1000,1000,1000,106528205,1000,1000,1000,1000
47403531,1000,1000,1000,1000,106628165,1000,1000,1000,1000
47406030,1000,1000,1000,1000,106728958,1000,1000,1000,1000
47408529,1000,1000,1000,1000,106828918,1000,1000,1000,1000
47411028,1000,1000,1000,1000,106928878,1000,1000,1000,1000
47413527,1000,1000,1000,1000,107028838,1000,1000,1000,1000
47416026,1000,1000,1000,1000,107128798,1000,1000,1000,1000
47418525,1000,1000,1000,1000,107228758,1000,1000,1000,1000
47421024,1000,1000,1000,1000,107328718,1000,1000,1000,1000
47423523,1000,1000,1000,1000,107428678,1000,1000,1000,1000
47426022,1000,1000,1000,1000,107528638,1000,1000,1000,1000
47428521,1000,1000,1000,1000,107628598,1000,1000,1000,1000
47431020,1000,1000,1000,1000,107728558,1000,1000,1000,1000
47433519,1000,1000,1000,1000,107828518,1000,1000,1000,1000
47436018,1000,1000,1000,1000,107928478,1000,1000,1000,1000
47438517,1000,1000,1000,1000,108028438,1000,1000,1000,1000
47441016,1000,1000,1000,1000,108128398,1000,1000,1000,1000
47443515,1000,1000,1000,1000,108228358,1000,1000,1000,1000
47446014,1000,1000,1000,1000,108328318,1000,1000,1000,1000
47448513,1000,1000,1000,1000,108428278,1000,1000,1000,1000
47451012,1000,1000,1000,1000,108528238,1000,1000,1000,1000
47453511,1000,1000,1000,1000,108628198,1000,1000,1000,1000
47456010,1000,1000,1000,1000,108728158,1000,1000,1000,1000
47458509,1000,1000,1000,1000,108828951,1000,1000,1000,1000
47461008,1000,1000,1000,1000,108928911,1000,1000,1000,1000
47463507,1000,1000,1000,1000,109028871,1000,1000,1000,1000
47466006,1000,1000,1000,1000,109128831,1000,1000,1000,1000
47468505,1000,1000,1000,1000,109228791,1000,1000,1000,1000
47471004,1000,1000,1000,1000,109328751,1000,1000,1000,1000
47473503,1000,1000,1000,1000,109428711,1000,1000,1000,1000
47476002,1000,1000,1000,1000,109528671,1000,1000,1000,1000
47478501,1000,1000,1000,1000,109628631,1000,1000,1000,1000
47481000,1000,1000,1000,1000,109728591,1000,1000,1000,1000
47483499,1000,1000,1000,1000,109828551,1000,1000,1000,1000
47485998,1000,1000,1000,1000,109928511,1000,1000,1000,1000
47488497,1000,1000,1000,1000,110028471,1000,1000,1000,1000
47490996,1000,1000,1000,1000,110128431,1000,1000,1000,1000
47493495,1000,1000,1000,1000,110228391,1000,1000,1000,1000
47495994,1000,1000,1000,1000,110328351,1000,1000,1000,1000
47498493,1000,1000,1000,1000,110428311,1000,1000,1000,1000
47500992,1000,1000,1000,1000,110528271,1000,1000,1000,1000
47503491,1000,1000,1000,1000,110628231,1000,1000,1000,1000
47505990,1000,1000,1000,1000,110728191,1000,1000,1000,1000
47508489,1000,1000,1000,1000,110828984,1000,1000,1000,1000
47510988,1000,1000,1000,1000,110928944,1000,1000,1000,1000
47513487,1000,1000,1000,1000,111028904,1000,1000,1000,1000
47515986,1000,1000,1000,1000,111128864,1000,1000,1000,1000
47518485,1000,1000,1000,1000,111228824,1000,1000,1000,1000
47520984,1000,1000,1000,1000,111328784,1000,1000,1000,1000
47523483,1000,1000,1000,1000,111428744,1000,1000,1000,1000
47525982,1000,1000,1000,1000,111528704,1000,1000,1000,1000
47528481,1000,1000,1000,1000,111628664,1000,1000,1000,1000
47530980,1000,1000,1000,1000,111728624,1000,1000,1000,1000
47533479,1000,1000,1000,1000,111828584,1000,1000,1000,1000
47535978,1000,1000,1000,1000,111928544,1000,1000,1000,1000
47538477,1000,1000,1000,1000,112028504,1000,1000,1000,1000
47540976,1000,1000,1000,1000,112128464,1000,1000,1000,1000
47543475,1000,1000,1000,1000,112228424,1000,1000,1000,1000
47545974,1000,1000,1000,1000,112328384,1000,1000,1000,1000
47548473,1000,1000,1000,1000,112428344,1000,1000,1000,1000
47550972,1000,1000,1000,1000,112528304,1000,1000,1000,1000
47553471,1000,1000,1000,1000,112628264,1000,1000,1000,1000
47555970,1000,1000,1000,1000,112728224,1000,1000,1000,1000
47558469,1000,1000,1000,1000,112828184,1000,1000,1000,1000
47560968,1000,1000,1000,1000,112928977,1000,1000,1000,1000
47563467,1000,1000,1000,1000,113028937,1000,1000,1000,1000
47565966,1000,1000,1000,1000,113128897,1000,1000,1000,1000
47568465,1000,1000,1000,1000,113228857,1000,1000,1000,1000
47570964,1000,1000,1000,1000,113328817,1000,1000,1000,1000
47573463,1000,1000,1000,1000,113428777,1000,1000,1000,1000
47575962,1000,1000,1000,1000,113528737,1000,1000,1000,1000
47578461,1000,1000,1000,1000,113628697,1000,1000,1000,1000
47580960,1000,1000,1000,1000,113728657,1000,1000,1000,1000
47583459,1000,1000,1000,1000,113828617,1000,1000,1000,1000
47585958,1000,1000,1000,1000,113928577,1000,1000,1000,1000
47588457,1000,1000,1000,1000,114028537,1000,1000,1000,1000
47590956,1000,1000,1000,1000,,,,,
47593455,1000,1000,1000,1000,,,,,
47595954,1000,1000,1000,1000,,,,,
47598453,1000,1000,1000,1000,,,,,
47600952,1000,1000,1000,1000,,,,,
47603451,1000,1000,1000,1000,,,,,
47605950,1000,1000,1000,1000,,,,,
47608449,1000,1000,1000,1000,,,,,
47610948,1000,1000,1000,1000,,,,,
47613447,1000,1000,1000,1000,,,,,
47615946,1000,1000,1000,1000,,,,,
47618445,1000,1000,1000,1000,,,,,
47620944,1000,1000,1000,1000,,,,,
47623443,1000,1000,1000,1000,,,,,
47625942,1000,1000,1000,1000,,,,,
47628441,1000,1000,1000,1000,,,,,
47630940,1000,1000,1000,1000,,,,,
47633439,1000,1000,1000,1000,,,,,
47635938,1000,1000,1000,1000,,,,,
47638437,1000,1000,1000,1000,,,,,
47640936,1000,1000,1000,1000,,,,,
47643435,1000,1000,1000,1000,,,,,
47645934,1000,1000,1000,1000,,,,,
47648433,1000,1000,1000,1000,,,,,
47650932,1000,1000,1000,1000,,,,,
47653431,1000,1000,1000,1000,,,,,
47655930,1000,1000,1000,1000,,,,,
47658429,1000,1000,1000,1000,,,,,
47660928,1000,1000,1000,1000,,,,,
47663427,1000,1000,1000,1000,,,,,
47665926,1000,1000,1000,1000,,,,,
47668425,1000,1000,1000,1000,,,,,
47670924,1000,1000,1000,1000,,,,,
47673423,1000,1000,1000,1000,,,,,
47675922,1000,1000,1000,1000,,,,,
47678421,1000,1000,1000,1000,,,,,
47680920,1000,1000,1000,1000,,,,,
47683419,1000,1000,1000,1000,,,,,
47685918,1000,1000,1000,1000,,,,,
47688417,1000,1000,1000,1000,,,,,
47690916,1000,1000,1000,1000,,,,,
47693415,1000,1000,1000,1000,,,,,
47695914,1000,1000,1000,1000,,,,,
47698413,1000,1000,1000,1000,,,,,
47700912,1000,1000,1000,1000,,,,,
47703411,1000,1000,1000,1000,,,,,
47705910,1000,1000,1000,1000,,,,,
47708409,1000,1000,1000,1000,,,,,
47710908,1000,1000,1000,1000,,,,,
47713407,1000,1000,1000,1000,,,,,
47715906,1000,1000,1000,1000,,,,,
47718405,1000,1000,1000,1000,,,,,
47720904,1000,1000,1000,1000,,,,,
47723403,1000,1000,1000,1000,,,,,
47725902,1000,1000,1000,1000,,,,,
47728401,1000,1000,1000,1000,,,,,
47730900,1000,1000,1000,1000,,,,,
47733399,1000,1000,1000,1000,,,,,
47735898,1000,1000,1000,1000,,,,,
47738397,1000,1000,1000,1000,,,,,
47740896,1000,1000,1000,1000,,,,,
47743395,1000,1000,1000,1000,,,,,
47745894,1000,1000,1000,1000,,,,,
47748393,1000,1000,1000,1000,,,,,
47750892,1000,1000,1000,1000,,,,,
47753391,1000,1000,1000,1000,,,,,
47755890,1000,1000,1000,1000,,,,,
47758389,1000,1000,1000,1000,,,,,
47760888,1000,1000,1000,1000,,,,,
47763387,1000,1000,1000,1000,,,,,
47765886,1000,1000,1000,1000,,,,,
47768385,1000,1000,1000,1000,,,,,
47770884,1000,1000,1000,1000,,,,,
47773383,1000,1000,1000,1000,,,,,
47775882,1000,1000,1000,1000,,,,,
47778381,1000,1000,1000,1000,,,,,
47780880,1000,1000,1000,1000,,,,,
47783379,1000,1000,1000,1000,,,,,
47785878,1000,1000,1000,1000,,,,,
47788377,1000,1000,1000,1000,,,,,
47790876,1000,1000,1000,1000,,,,,
47793375,1000,1000,1000,1000,,,,,
47795874,1000,1000,1000,1000,,,,,
47798373,1000,1000,1000,1000,,,,,
47800872,1000,1000,1000,1000,,,,,
47803371,1000,1000,1000,1000,,,,,
47805870,1000,1000,1000,1000,,,,,
47808369,1000,1000,1000,1000,,,,,
47810868,1000,1000,1000,1000,,,,,
47813367,1000,1000,1000,1000,,,,,
47815866,1000,1000,1000,1000,,,,,
47818365,1000,1000,1000,1000,,,,,
47820864,1000,1000,1000,1000,,,,,
47823363,1000,1000,1000,1000,,,,,
47825862,1000,1000,1000,1000,,,,,
47828361,1000,1000,1000,1000,,,,,
47830860,1000,1000,1000,1000,,,,,
47833359,1000,1000,1000,1000,,,,,
47835858,1000,1000,1000,1000,,,,,
47838357,1000,1000,1000,1000,,,,,
47840856,1000,1000,1000,1000,,,,,
47843355,1000,1000,1000,1000,,,,,
47845854,1000,1000,1000,1000,,,,,
47848353,1000,1000,1000,1000,,,,,
47850852,1000,1000,1000,1000,,,,,
47853351,1000,1000,1000,1000,,,,,
47855850,1000,1000,1000,1000,,,,,
47858349,1000,1000,1000,1000,,,,,
47860848,1000,1000,1000,1000,,,,,
47863347,1000,1000,1000,1000,,,,,
47865846,1000,1000,1000,1000,,,,,
47868345,1000,1000,1000,1000,,,,,
47870844,1000,1000,1000,1000,,,,,
47873343,1000,1000,1000,1000,,,,,
47875842,1000,1000,1000,1000,,,,,
47878341,1000,1000,1000,1000,,,,,
47880840,1000,1000,1000,1000,,,,,
47883339,1000,1000,1000,1000,,,,,
47885838,1000,1000,1000,1000,,,,,
47888337,1000,1000,1000,1000,,,,,
47890836,1000,1000,1000,1000,,,,,
47893335,1001,1001,1001,1001,,,,,
47895834,1002,1002,1002,1002,,,,,
47898333,1003,1003,1003,1003,,,,,
47900832,1003,1003,1003,1003,,,,,
47903331,1004,1004,1004,1004,,,,,
47905830,1005,1005,1005,1005,,,,,
47908329,1006,1006,1006,1006,,,,,
47910828,1006,1006,1006,1006,,,,,
47913327,1007,1007,1007,1007,,,,,
47915826,1008,1008,1008,1008,,,,,
47918325,1009,1009,1009,1009,,,,,
47920824,1009,1009,1009,1009,,,,,
47923323,1010,1010,1010,1010,,,,,
47925822,1011,1011,1011,1011,,,,,
47928321,1012,1012,1012,1012,,,,,
47930820,1012,1012,1012,1012,,,,,
47933319,1013,1013,1013,1013,,,,,
47935818,1014,1014,1014,1014,,,,,
47938317,1015,1015,1015,1015,,,,,
47940816,1015,1015,1015,1015,,,,,
47943315,1016,1016,1016,1016,,,,,
47945814,1017,1017,1017,1017,,,,,
47948313,1018,1018,1018,1018,,,,,
47950812,1018,1018,1018,1018,,,,,
47953311,1019,1019,1019,1019,,,,,
47955810,1020,1020,1020,1020,,,,,
47958309,1021,1021,1021,1021,,,,,
47960808,1021,1021,1021,1021,,,,,
47963307,1022,1022,1022,1022,,,,,
47965806,1023,1023,1023,1023,,,,,
47968305,1024,1024,1024,1024,,,,,
47970804,1024,1024,1024,1024,,,,,
47973303,1025,1025,1025,1025,,,,,
47975802,1026,1026,1026,1026,,,,,
47978301,1027,1027,1027,1027,,,,,
47980800,1027,1027,1027,1027,,,,,
47983299,1028,1028,1028,1028,,,,,
47985798,1029,1029,1029,1029,,,,,
47988297,1030,1030,1030,1030,,,,,
47990796,1030,1030,1030,1030,,,,,
47993295,1031,1031,1031,1031,,,,,
47995794,1032,1032,1032,1032,,,,,
47998293,1033,1033,1033,1033,,,,,
48000792,1033,1033,1033,1033,,,,,
48003291,1034,1034,1034,1034,,,,,
48005790,1035,1035,1035,1035,,,,,
48008289,1036,1036,1036,1036,,,,,
48010788,1036,1036,1036,1036,,,,,
48013287,1037,1037,1037,1037,,,,,
48015786,1038,1038,1038,1038,,,,,
48018285,1039,1039,1039,1039,,,,,
48020784,1039,1039,1039,1039,,,,,
48023283,1040,1040,1040,1040,,,,,
48025782,1041,1041,1041,1041,,,,,
48028281,1042,1042,1042,1042,,,,,
48030780,1042,1042,1042,1042,,,,,
48033279,1043,1043,1043,1043,,,,,
48035778,1044,1044,1044,1044,,,,,
48038277,1045,1045,1045,1045,,,,,
48040776,1045,1045,1045,1045,,,,,
48043275,1046,1046,1046,1046,,,,,
48045774,1047,1047,1047,1047,,,,,
48048273,1048,1048,1048,1048,,,,,
48050772,1048,1048,1048,1048,,,,,
48053271,1049,1049,1049,1049,,,,,
48055770,1050,1050,1050,1050,,,,,
48058269,1051,1051,1051,1051,,,,,
48060768,1051,1051,1051,1051,,,,,
48063267,1052,1052,1052,1052,,,,,
48065766,1053,1053,1053,1053,,,,,
48068265,1054,1054,1054,1054,,,,,
48070764,1054,1054,1054,1054,,,,,
48073263,1055,1055,1055,1055,,,,,
48075762,1056,1056,1056,1056,,,,,
48078261,1057,1057,1057,1057,,,,,
48080760,1057,1057,1057,1057,,,,,
48083259,1058,1058,1058,1058,,,,,
48085758,1059,1059,1059,1059,,,,,
48088257,1060,1060,1060,1060,,,,,
48090756,1060,1060,1060,1060,,,,,
48093255,1061,1061,1061,1061,,,,,
48095754,1062,1062,1062,1062,,,,,
48098253,1063,1063,1063,1063,,,,,
48100752,1063,1063,1063,1063,,,,,
48103251,1064,1064,1064,1064,,,,,
48105750,1065,1065,1065,1065,,,,,
48108249,1066,1066,1066,1066,,,,,
48110748,1066,1066,1066,1066,,,,,
48113247,1067,1067,1067,1067,,,,,
48115746,1068,1068,1068,1068,,,,,
48118245,1069,1069,1069,1069,,,,,
48120744,1069,1069,1069,1069,,,,,
48123243,1070,1070,1070,1070,,,,,
48125742,1071,1071,1071,1071,,,,,
48128241,1072,1072,1072,1072,,,,,
48130740,1072,1072,1072,1072,,,,,
48133239,1073,1073,1073,1073,,,,,
48135738,1074,1074,1074,1074,,,,,
48138237,1075,1075,1075,1075,,,,,
48140736,1075,1075,1075,1075,,,,,
48143235,1076,1076,1076,1076,,,,,
48145734,1077,1077,1077,1077,,,,,
48148233,1078,1078,1078,1078,,,,,
48150732,1078,1078,1078,1078,,,,,
48153231,1079,1079,1079,1079,,,,,
48155730,1080,1080,1080,1080,,,,,
48158229,1081,1081,1081,1081,,,,,
48160728,1081,1081,1081,1081,,,,,
48163227,1082,1082,1082,1082,,,,,
48165726,1083,1083,1083,1083,,,,,
48168225,1084,1084,1084,1084,,,,,
48170724,1084,1084,1084,1084,,,,,
48173223,1085,1085,1085,1085,,,,,
48175722,1086,1086,1086,1086,,,,,
48178221,1087,1087,1087,1087,,,,,
48180720,1087,1087,1087,1087,,,,,
48183219,1088,1088,1088,1088,,,,,
48185718,1089,1089,1089,1089,,,,,
48188217,1090,1090,1090,1090,,,,,
48190716,1090,1090,1090,1090,,,,,
48193215,1091,1091,1091,1091,,,,,
48195714,1092,1092,1092,1092,,,,,
48198213,1093,1093,1093,1093,,,,,
48200712,1093,1093,1093,1093,,,,,
48203211,1094,1094,1094,1094,,,,,
48205710,1095,1095,1095,1095,,,,,
48208209,1096,1096,1096,1096,,,,,
48210708,1096,1096,1096,1096,,,,,
48213207,1097,1097,1097,1097,,,,,
48215706,1098,1098,1098,1098,,,,,
48218205,1099,1099,1099,1099,,,,,
48220704,1099,1099,1099,1099,,,,,
48223203,1100,1100,1100,1100,,,,,
48225702,1101,1101,1101,1101,,,,,
48228201,1101,1101,1101,1101,,,,,
48230700,1102,1102,1102,1102,,,,,
48233199,1103,1103,1103,1103,,,,,
48235698,1104,1104,1104,1104,,,,,
48238197,1104,1104,1104,1104,,,,,
48240696,1105,1105,1105,1105,,,,,
48243195,1106,1106,1106,1106,,,,,
48245694,1107,1107,1107,1107,,,,,
48248193,1107,1107,1107,1107,,,,,
48250692,1108,1108,1108,1108,,,,,
48253191,1109,1109,1109,1109,,,,,
48255690,1110,1110,1110,1110,,,,,
48258189,1110,1110,1110,1110,,,,,
48260688,1111,1111,1111,1111,,,,,
48263187,1112,1112,1112,1112,,,,,
48265686,1113,1113,1113,1113,,,,,
48268185,1113,1113,1113,1113,,,,,
48270684,1114,1114,1114,1114,,,,,
48273183,1115,1115,1115,1115,,,,,
48275682,1116,1116,1116,1116,,,,,
48278181,1116,1116,1116,1116,,,,,
48280680,1117,1117,1117,1117,,,,,
48283179,1118,1118,1118,1118,,,,,
48285678,1119,1119,1119,1119,,,,,
48288177,1119,1119,1119,1119,,,,,
48290676,1120,1120,1120,1120,,,,,
48293175,1121,1121,1121,1121,,,,,
48295674,1122,1122,1122,1122,,,,,
48298173,1122,1122,1122,1122,,,,,
48300672,1123,1123,1123,1123,,,,,
48303171,1124,1124,1124,1124,,,,,
48305670,1125,1125,1125,1125,,,,,
48308169,1125,1125,1125,1125,,,,,
48310668,1126,1126,1126,1126,,,,,
48313167,1127,1127,1127,1127,,,,,
48315666,1128,1128,1128,1128,,,,,
48318165,1128,1128,1128,1128,,,,,
48320664,1129,1129,1129,1129,,,,,
48323163,1130,1130,1130,1130,,,,,
48325662,1131,1131,1131,1131,,,,,
48328161,1131,1131,1131,1131,,,,,
48330660,1132,1132,1132,1132,,,,,
48333159,1133,1133,1133,1133,,,,,
48335658,1134,1134,1134,1134,,,,,
48338157,1134,1134,1134,1134,,,,,
48340656,1135,1135,1135,1135,,,,,
48343155,1136,1136,1136,1136,,,,,
48345654,1137,1137,1137,1137,,,,,
48348986,1137,1137,1137,1137,,,,,
48351485,1138,1138,1138,1138,,,,,
48353984,1139,1139,1139,1139,,,,,
48356483,1140,1140,1140,1140,,,,,
48358982,1140,1140,1140,1140,,,,,
48361481,1141,1141,1141,1141,,,,,
48363980,1142,1142,1142,1142,,,,,
48366479,1143,1143,1143,1143,,,,,
48368978,1143,1143,1143,1143,,,,,
48371477,1144,1144,1144,1144,,,,,
48373976,1145,1145,1145,1145,,,,,
48376475,1146,1146,1146,1146,,,,,
48378974,1146,1146,1146,1146,,,,,
48381473,1147,1147,1147,1147,,,,,
48383972,1148,1148,1148,1148,,,,,
48386471,1149,1149,1149,1149,,,,,
48388970,1149,1149,1149,1149,,,,,
48391469,1150,1150,1150,1150,,,,,
48393968,1161,1154,1155,1161,,,,,
48396467,1169,1162,1163,1169,,,,,
48398966,1177,1170,1171,1177,,,,,
48401465,1184,1178,1179,1185,,,,,
48403964,1192,1186,1186,1192,,,,,
48406463,1199,1193,1194,1200,,,,,
48408962,1207,1201,1201,1207,,,,,
48411461,1214,1208,1208,1214,,,,,
48413960,1221,1215,1216,1221,,,,,
48416459,1228,1222,1223,1228,,,,,
48418958,1235,1229,1230,1235,,,,,
48421457,1242,1236,1236,1242,,,,,
48423956,1248,1243,1243,1249,,,,,
48426455,1255,1249,1250,1255,,,,,
48428954,1262,1256,1256,1262,,,,,
48431453,1268,1263,1263,1268,,,,,
48433952,1274,1269,1269,1275,,,,,
48436451,1281,1275,1276,1281,,,,,
48438950,1287,1282,1282,1287,,,,,
48441449,1293,1288,1288,1293,,,,,
48443948,1299,1294,1294,1299,,,,,
48446447,1305,1300,1300,1305,,,,,
48448946,1311,1306,1306,1311,,,,,
48451445,1317,1312,1312,1317,,,,,
48453944,1323,1318,1318,1323,,,,,
48456443,1329,1323,1324,1329,,,,,
48458942,1334,1329,1330,1335,,,,,
48461441,1340,1335,1335,1340,,,,,
48463940,1346,1340,1341,1346,,,,,
48466439,1351,1346,1347,1351,,,,,
48468938,1357,1352,1352,1357,,,,,
48471437,1362,1357,1358,1362,,,,,
48473936,1368,1363,1363,1368,,,,,
48476435,1373,1368,1368,1373,,,,,
48478934,1378,1373,1374,1378,,,,,
48481433,1383,1378,1379,1384,,,,,
48483932,1389,1384,1384,1389,,,,,
48486431,1394,1389,1389,1394,,,,,
48488930,1399,1394,1395,1399,,,,,
48491429,1404,1399,1400,1404,,,,,
48493928,1409,1404,1405,1409,,,,,
48496427,1414,1409,1410,1414,,,,,
48498926,1419,1414,1415,1419,,,,,
48501425,1424,1419,1420,1424,,,,,
48503924,1429,1424,1425,1429,,,,,
48506423,1434,1429,1430,1434,,,,,
48508922,1439,1434,1434,1439,,,,,
48511421,1444,1439,1439,1444,,,,,
48513920,1448,1444,1444,1449,,,,,
48516419,1453,1448,1449,1453,,,,,
48518918,1458,1453,1453,1458,,,,,
48521417,1462,1458,1458,1463,,,,,
48523916,1467,1462,1463,1467,,,,,
48526415,1472,1467,1467,1472,,,,,
48528914,1476,1472,1472,1477,,,,,
48531413,1481,1476,1477,1481,,,,,
48533912,1485,1481,1481,1486,,,,,
48536411,1490,1485,1486,1490,,,,,
48538910,1494,1490,1490,1495,,,,,
48541409,1499,1494,1494,1499,,,,,
48543908,1503,1499,1499,1504,,,,,
48546407,1508,1503,1503,1508,,,,,
48548906,1512,1508,1508,1512,,,,,
48551405,1516,1512,1512,1517,,,,,
48553904,1521,1516,1516,1521,,,,,
48556403,1525,1521,1521,1525,,,,,
48558902,1529,1525,1525,1530,,,,,
48561401,1533,1529,1529,1534,,,,,
48563900,1538,1533,1533,1538,,,,,
48566399,1542,1538,1538,1542,,,,,
48568898,1546,1542,1542,1547,,,,,
48571397,1550,1546,1546,1551,,,,,
48573896,1554,1550,1550,1555,,,,,
48576395,1558,1554,1554,1559,,,,,
48578894,1562,1559,1558,1563,,,,,
48581393,1567,1563,1563,1567,,,,,
48583892,1571,1567,1567,1571,,,,,
48586391,1575,1571,1571,1575,,,,,
48588890,1579,1575,1575,1579,,,,,
48591389,1583,1579,1579,1583,,,,,
48593888,1587,1583,1583,1587,,,,,
48596387,1591,1587,1587,1591,,,,,
48598886,1594,1591,1591,1595,,,,,
48601385,1598,1595,1595,1599,,,,,
48603884,1602,1599,1599,1603,,,,,
48606383,1606,1602,1602,1607,,,,,
48608882,1610,1606,1606,1611,,,,,
48611381,1614,1610,1610,1614,,,,,
48613880,1618,1614,1614,1618,,,,,
48616379,1621,1618,1618,1622,,,,,
48618878,1625,1622,1622,1626,,,,,
48621377,1629,1626,1625,1630,,,,,
48623876,1633,1629,1629,1633,,,,,
48626375,1637,1633,1633,1637,,,,,
48628874,1640,1637,1637,1641,,,,,
48631373,1644,1641,1640,1645,,,,,
48633872,1648,1644,1644,1648,,,,,
48636371,1651,1648,1648,1652,,,,,
48638870,1655,1652,1652,1656,,,,,
48641369,1659,1655,1655,1659,,,,,
48643868,1662,1659,1659,1663,,,,,
48646367,1666,1663,1662,1667,,,,,
48648866,1670,1666,1666,1670,,,,,
48651365,1673,1670,1670,1674,,,,,
48653864,1677,1673,1673,1677,,,,,
48656363,1680,1677,1677,1681,,,,,
48658862,1684,1681,1680,1685,,,,,
48661361,1688,1684,1684,1688,,,,,
48663860,1691,1688,1688,1692,,,,,
48666359,1695,1691,1691,1695,,,,,
48668858,1698,1695,1695,1699,,,,,
48671357,1702,1698,1698,1702,,,,,
48673856,1705,1702,1702,1706,,,,,
48676355,1709,1705,1705,1709,,,,,
48678854,1712,1709,1708,1713,,,,,
48681353,1715,1712,1712,1716,,,,,
48683852,1719,1716,1715,1720,,,,,
48686351,1722,1719,1719,1723,,,,,
48688850,1726,1722,1722,1726,,,,,
48691349,1729,1726,1726,1730,,,,,
48693848,1733,1729,1729,1733,,,,,
48696347,1736,1732,1732,1737,,,,,
48698846,1739,1736,1736,1740,,,,,
48701345,1743,1739,1739,1743,,,,,
48703844,1746,1742,1742,1747,,,,,
48706343,1749,1746,1746,1750,,,,,
48708842,1753,1749,1749,1753,,,,,
48711341,1756,1752,1752,1757,,,,,
48713840,1759,1756,1756,1760,,,,,
48716339,1763,1759,1759,1763,,,,,
48718838,1766,1762,1762,1766,,,,,
48721337,1769,1766,1765,1770,,,,,
48723836,1773,1769,1769,1773,,,,,
48726335,1776,1772,1772,1776,,,,,
48728834,1779,1775,1775,1779,,,,,
48731333,1782,1778,1779,1783,,,,,
48733832,1785,1782,1782,1786,,,,,
48736331,1789,1785,1785,1789,,,,,
48738830,1792,1788,1788,1792,,,,,
48741329,1795,1791,1791,1795,,,,,
48743828,1798,1794,1795,1799,,,,,
48746327,1801,1798,1798,1802,,,,,
48748826,1805,1801,1801,1805,,,,,
48751325,1808,1804,1804,1808,,,,,
48753824,1811,1807,1807,1811,,,,,
48756323,1814,1810,1810,1814,,,,,
48758822,1817,1813,1814,1817,,,,,
48761321,1820,1816,1817,1820,,,,,
48763820,1823,1820,1820,1823,,,,,
48766319,1826,1823,1823,1827,,,,,
48768818,1829,1826,1826,1830,,,,,
48771317,1832,1829,1829,1833,,,,,
48773816,1836,1832,1832,1836,,,,,
48776315,1839,1835,1835,1839,,,,,
48778814,1842,1838,1838,1842,,,,,
48781313,1845,1841,1841,1845,,,,,
48783812,1848,1844,1844,1848,,,,,
48786311,1851,1847,1847,1851,,,,,
48788810,1854,1850,1850,1854,,,,,
48791309,1857,1853,1853,1857,,,,,
48793808,1860,1856,1856,1860,,,,,
48796307,1863,1859,1859,1863,,,,,
48798806,1866,1862,1862,1866,,,,,
48801305,1869,1865,1865,1869,,,,,
48803804,1872,1868,1868,1872,,,,,
48806303,1875,1871,1871,1875,,,,,
48808802,1878,1874,1874,1878,,,,,
48811301,1881,1877,1877,1881,,,,,
48813800,1884,1880,1880,1884,,,,,
48816299,1886,1883,1883,1887,,,,,
48818798,1889,1886,1886,1890,,,,,
48821297,1892,1888,1889,1892,,,,,
48823796,1895,1891,1892,1895,,,,,
48826295,1898,1894,1895,1898,,,,,
48828794,1901,1897,1897,1901,,,,,
48831293,1904,1900,1900,1904,,,,,
48833792,1906,1902,1902,1906,,,,,
48836291,1905,1901,1901,1905,,,,,
48838790,1904,1900,1900,1904,,,,,
48841289,1903,1899,1899,1903,,,,,
48843788,1902,1898,1899,1902,,,,,
48846287,1901,1897,1898,1902,,,,,
48848786,1901,1897,1897,1901,,,,,
48851285,1900,1896,1896,1900,,,,,
48853784,1899,1895,1896,1899,,,,,
48856283,1899,1895,1895,1899,,,,,
48858782,1898,1894,1894,1898,,,,,
48861281,1897,1893,1894,1898,,,,,
48863780,1897,1893,1893,1897,,,,,
48866279,1897,1893,1893,1897,,,,,
48868778,1896,1892,1893,1897,,,,,
48871277,1896,1892,1892,1896,,,,,
48873776,1896,1892,1892,1896,,,,,
48876275,1896,1892,1892,1896,,,,,
48878774,1896,1892,1892,1896,,,,,
48881273,1896,1892,1892,1896,,,,,
48883772,1896,1892,1892,1896,,,,,
48886271,1896,1892,1892,1896,,,,,
48888770,1896,1893,1893,1896,,,,,
48891269,1896,1893,1893,1896,,,,,
48893768,1896,1893,1893,1896,,,,,
48896267,1896,1893,1893,1896,,,,,
48898766,1896,1893,1893,1896,,,,,
48901265,1895,1892,1893,1896,,,,,
48903764,1895,1892,1892,1895,,,,,
48906263,1894,1892,1892,1895,,,,,
48908762,1894,1891,1891,1894,,,,,
48911261,1893,1890,1890,1893,,,,,
48913760,1892,1889,1889,1892,,,,,
48916259,1891,1888,1888,1891,,,,,
48918758,1889,1887,1887,1890,,,,,
48921257,1888,1885,1886,1888,,,,,
48923756,1886,1884,1884,1887,,,,,
48926255,1885,1882,1882,1885,,,,,
48928754,1883,1881,1881,1883,,,,,
48931253,1881,1879,1879,1881,,,,,
48933752,1879,1877,1877,1879,,,,,
48936251,1877,1875,1875,1877,,,,,
48938750,1874,1872,1872,1875,,,,,
48941249,1872,1870,1870,1873,,,,,
48943748,1870,1868,1868,1870,,,,,
48946247,1867,1865,1865,1868,,,,,
48948746,1864,1863,1863,1865,,,,,
48951245,1862,1860,1860,1862,,,,,
48953744,1859,1857,1857,1859,,,,,
48956243,1856,1854,1854,1857,,,,,
48958742,1853,1852,1851,1854,,,,,
48961241,1850,1849,1849,1851,,,,,
48963740,1847,1846,1846,1848,,,,,
48966239,1844,1843,1842,1845,,,,,
48968738,1841,1839,1839,1841,,,,,
48971237,1838,1836,1836,1838,,,,,
48973736,1835,1833,1833,1835,,,,,
48976235,1832,1830,1830,1832,,,,,
48978734,1828,1827,1827,1829,,,,,
48981233,1825,1824,1824,1826,,,,,
48983732,1822,1821,1821,1822,,,,,
48986231,1819,1817,1817,1819,,,,,
48988730,1816,1814,1814,1816,,,,,
48991229,1812,1811,1811,1813,,,,,
48993728,1809,1808,1808,1809,,,,,
48996227,1806,1805,1805,1806,,,,,
48998726,1803,1801,1802,1803,,,,,
49001225,1799,1798,1798,1800,,,,,
49003724,1796,1795,1795,1796,,,,,
49006223,1793,1792,1792,1793,,,,,
49008722,1790,1789,1789,1790,,,,,
49011221,1787,1785,1786,1787,,,,,
49013720,1783,1782,1782,1783,,,,,
49016219,1780,1779,1779,1780,,,,,
49018718,1777,1776,1776,1777,,,,,
49021217,1774,1773,1773,1774,,,,,
49023716,1770,1769,1770,1770,,,,,
49026215,1767,1766,1767,1767,,,,,
49028714,1764,1763,1763,1764,,,,,
49031213,1761,1760,1760,1761,,,,,
49033712,1758,1757,1757,1758,,,,,
49036211,1755,1754,1754,1755,,,,,
49038710,1751,1751,1751,1752,,,,,
49041209,1748,1748,1748,1749,,,,,
49043708,1745,1745,1745,1746,,,,,
49046207,1742,1742,1742,1742,,,,,
49048706,1739,1739,1739,1739,,,,,
49051205,1736,1736,1736,1736,,,,,
49053704,1733,1733,1733,1733,,,,,
49056203,1730,1730,1730,1731,,,,,
49058702,1728,1727,1728,1728,,,,,
49061201,1725,1724,1725,1725,,,,,
49063700,1722,1722,1722,1722,,,,,
49066199,1719,1719,1719,1719,,,,,
49068698,1717,1716,1717,1717,,,,,
49071197,1714,1714,1714,1714,,,,,
49073696,1711,1711,1712,1712,,,,,
49076195,1709,1709,1709,1709,,,,,
49078694,1706,1706,1707,1706,,,,,
