TimeUS,M1,M2,M3,M4,TimeUS,C1,C2,C3,C4
70608412,1000,1000,1000,1000,70628404,1000,1000,1000,1000
70610911,1000,1000,1000,1000,70728364,1000,1000,1000,1000
70613410,1000,1000,1000,1000,70828324,1000,1000,1000,1000
70615909,1000,1000,1000,1000,70928284,1000,1000,1000,1000
70618408,1000,1000,1000,1000,71028244,1000,1000,1000,1000
70620907,1000,1000,1000,1000,71128204,1000,1000,1000,1000
70623406,1000,1000,1000,1000,71228164,1000,1000,1000,1000
70625905,1000,1000,1000,1000,71328957,1000,1000,1000,1000
70628404,1000,1000,1000,1000,71428917,1000,1000,1000,1000
70630903,1000,1000,1000,1000,71528877,1000,1000,1000,1000
70633402,1000,1000,1000,1000,71628837,1000,1000,1000,1000
70635901,1000,1000,1000,1000,71728797,1000,1000,1000,1000
70638400,1000,1000,1000,1000,71828757,1000,1000,1000,1000
70640899,1000,1000,1000,1000,71928717,1000,1000,1000,1000
70643398,1000,1000,1000,1000,72028677,1000,1000,1000,1000
70645897,1000,1000,1000,1000,72128637,1000,1000,1000,1000
70648396,1000,1000,1000,1000,72228597,1000,1000,1000,1000
70650895,1000,1000,1000,1000,72328557,1000,1000,1000,1000
70653394,1000,1000,1000,1000,72428517,1000,1000,1000,1000
70655893,1000,1000,1000,1000,72528477,1000,1000,1000,1000
70658392,1000,1000,1000,1000,72628437,1006,1006,1006,1006
70660891,1000,1000,1000,1000,72728397,1036,1036,1036,1036
70663390,1000,1000,1000,1000,72828357,1066,1066,1066,1066
70665889,1000,1000,1000,1000,72928317,1096,1096,1096,1096
70668388,1000,1000,1000,1000,73028277,1125,1125,1125,1125
70670887,1000,1000,1000,1000,73128237,1229,1174,1200,1211
70673386,1000,1000,1000,1000,73228197,1454,1416,1433,1442
70675885,1000,1000,1000,1000,73328157,1624,1590,1605,1613
70678384,1000,1000,1000,1000,73428950,1766,1735,1749,1755
70680883,1000,1000,1000,1000,73528910,1880,1847,1861,1868
70683382,1000,1000,1000,1000,73628870,1878,1852,1864,1869
70685881,1000,1000,1000,1000,73728830,1781,1772,1777,1779
70688380,1000,1000,1000,1000,73828790,1652,1657,1655,1658
70690879,1000,1000,1000,1000,73928750,1600,1613,1607,1610
70693378,1000,1000,1000,1000,74028710,1602,1617,1610,1610
70695877,1000,1000,1000,1000,74128670,1617,1627,1623,1621
70698376,1000,1000,1000,1000,74228630,1625,1629,1628,1625
70700875,1000,1000,1000,1000,74328590,1626,1624,1625,1624
70703374,1000,1000,1000,1000,74428550,1623,1618,1619,1620
70705873,1000,1000,1000,1000,74528510,1621,1614,1617,1617
70708372,1000,1000,1000,1000,74628470,1619,1615,1616,1616
70710871,1000,1000,1000,1000,74728430,1619,1616,1617,1616
70713370,1000,1000,1000,1000,74828390,1619,1620,1620,1618
70715869,1000,1000,1000,1000,74928350,1621,1622,1621,1620
70718368,1000,1000,1000,1000,75028310,1622,1625,1623,1623
70720867,1000,1000,1000,1000,75128270,1597,1604,1604,1596
70723366,1000,1000,1000,1000,75228230,1578,1582,1586,1575
70725865,1000,1000,1000,1000,75328190,1567,1566,1570,1565
70728364,1000,1000,1000,1000,75428983,1556,1553,1552,1560
70730863,1000,1000,1000,1000,75528943,1548,1543,1538,1555
70733362,1000,1000,1000,1000,75628903,1538,1535,1530,1544
70735861,1000,1000,1000,1000,75728863,1532,1528,1525,1534
70738360,1000,1000,1000,1000,75828823,1526,1526,1524,1527
70740859,1000,1000,1000,1000,75928783,1526,1525,1526,1524
70743358,1000,1000,1000,1000,76028743,1526,1527,1529,1524
70745857,1000,1000,1000,1000,76128703,1530,1530,1534,1527
70748356,1000,1000,1000,1000,76228663,1533,1534,1538,1531
70750855,1000,1000,1000,1000,76328623,1537,1536,1540,1537
70753354,1000,1000,1000,1000,76428583,1540,1540,1542,1541
70755853,1000,1000,1000,1000,76528543,1544,1543,1544,1545
70758352,1000,1000,1000,1000,76628503,1547,1547,1548,1549
70760851,1000,1000,1000,1000,76728463,1550,1550,1550,1552
70763350,1000,1000,1000,1000,76828423,1552,1553,1552,1554
70765849,1000,1000,1000,1000,76928383,1561,1566,1546,1548
70768348,1000,1000,1000,1000,77028343,1586,1586,1525,1528
70770847,1000,1000,1000,1000,77128303,1583,1579,1537,1538
70773346,1000,1000,1000,1000,77228263,1570,1567,1554,1553
70775845,1000,1000,1000,1000,77328223,1559,1556,1569,1569
70778344,1000,1000,1000,1000,77428183,1550,1550,1580,1579
70780843,1000,1000,1000,1000,77528976,1546,1546,1587,1587
70783342,1000,1000,1000,1000,77628936,1544,1548,1590,1590
70785841,1000,1000,1000,1000,77728896,1547,1549,1589,1590
70788340,1000,1000,1000,1000,77828856,1551,1555,1587,1587
70790839,1000,1000,1000,1000,77928816,1558,1559,1581,1583
70793338,1000,1000,1000,1000,78028776,1565,1566,1577,1577
70795837,1000,1000,1000,1000,78128736,1572,1571,1572,1572
70798336,1000,1000,1000,1000,78228696,1578,1577,1568,1568
70800835,1000,1000,1000,1000,78328656,1582,1581,1566,1565
70803334,1000,1000,1000,1000,78428616,1585,1585,1565,1563
70805833,1000,1000,1000,1000,78528576,1586,1585,1564,1563
70808332,1000,1000,1000,1000,78628536,1586,1585,1565,1564
70810831,1000,1000,1000,1000,78728496,1586,1584,1567,1567
70813330,1000,1000,1000,1000,78828456,1583,1583,1569,1569
70815829,1000,1000,1000,1000,78928416,1581,1580,1572,1572
70818328,1000,1000,1000,1000,79028376,1578,1578,1574,1574
70820827,1000,1000,1000,1000,79128336,1576,1576,1577,1577
70823326,1000,1000,1000,1000,79228296,1574,1575,1579,1579
70825825,1000,1000,1000,1000,79328256,1573,1574,1581,1581
70828324,1000,1000,1000,1000,79428216,1572,1573,1581,1581
70830823,1000,1000,1000,1000,79528176,1573,1573,1582,1582
70833322,1000,1000,1000,1000,79628969,1573,1573,1581,1581
70835821,1000,1000,1000,1000,79728929,1574,1574,1580,1580
70838320,1000,1000,1000,1000,79828889,1575,1575,1579,1579
70840819,1000,1000,1000,1000,79928849,1577,1577,1579,1579
70843318,1000,1000,1000,1000,80028809,1577,1578,1578,1578
70845817,1000,1000,1000,1000,80128769,1579,1578,1578,1578
70848316,1000,1000,1000,1000,80228729,1580,1580,1577,1577
70850815,1000,1000,1000,1000,80328689,1581,1579,1577,1577
70853314,1000,1000,1000,1000,80428649,1581,1581,1578,1578
70855813,1000,1000,1000,1000,80528609,1580,1580,1577,1577
70858312,1000,1000,1000,1000,80628569,1580,1581,1578,1578
70860811,1000,1000,1000,1000,80728529,1580,1580,1579,1579
70863310,1000,1000,1000,1000,80828489,1580,1580,1579,1579
70865809,1000,1000,1000,1000,80928449,1579,1578,1579,1579
70868308,1000,1000,1000,1000,81028409,1578,1578,1579,1579
70870807,1000,1000,1000,1000,81128369,1579,1578,1580,1580
70873306,1000,1000,1000,1000,81228329,1578,1579,1580,1580
70875805,1000,1000,1000,1000,81328289,1578,1578,1580,1580
70878304,1000,1000,1000,1000,81428249,1578,1579,1581,1581
70880803,1000,1000,1000,1000,81528209,1579,1579,1581,1581
70883302,1000,1000,1000,1000,81628169,1579,1579,1580,1581
70885801,1000,1000,1000,1000,81728962,1579,1578,1580,1580
70888300,1000,1000,1000,1000,81828922,1580,1580,1580,1580
70890799,1000,1000,1000,1000,81928882,1579,1579,1579,1580
70893298,1000,1000,1000,1000,82028842,1580,1580,1581,1580
70895797,1000,1000,1000,1000,82128802,1579,1580,1580,1579
70898296,1000,1000,1000,1000,82228762,1581,1581,1580,1580
70900795,1000,1000,1000,1000,82328722,1581,1581,1581,1581
70903294,1000,1000,1000,1000,82428682,1581,1581,1581,1581
70905793,1000,1000,1000,1000,82528642,1581,1580,1580,1580
70908292,1000,1000,1000,1000,82628602,1581,1581,1581,1581
70910791,1000,1000,1000,1000,82728562,1581,1581,1581,1581
70913290,1000,1000,1000,1000,82828522,1581,1581,1581,1581
70915789,1000,1000,1000,1000,82928482,1581,1581,1581,1581
70918288,1000,1000,1000,1000,83028442,1580,1580,1580,1580
70920787,1000,1000,1000,1000,83128402,1581,1582,1587,1576
70923286,1000,1000,1000,1000,83228362,1580,1584,1587,1573
70925785,1000,1000,1000,1000,83328322,1579,1582,1580,1573
70928284,1000,1000,1000,1000,83428282,1578,1580,1570,1571
70930783,1000,1000,1000,1000,83528242,1578,1580,1562,1569
70933282,1000,1000,1000,1000,83628202,1579,1579,1557,1564
70935781,1000,1000,1000,1000,83728162,1580,1579,1554,1559
70938280,1000,1000,1000,1000,83828955,1581,1580,1554,1556
70940779,1000,1000,1000,1000,83928915,1580,1579,1554,1553
70943278,1000,1000,1000,1000,84028875,1580,1579,1555,1552
70945777,1000,1000,1000,1000,84128835,1578,1578,1554,1552
70948276,1000,1000,1000,1000,84228795,1577,1579,1556,1554
70950775,1000,1000,1000,1000,84328755,1576,1577,1555,1554
70953274,1000,1000,1000,1000,84428715,1576,1578,1554,1554
70955773,1000,1000,1000,1000,84528675,1576,1578,1554,1554
70958272,1000,1000,1000,1000,84628635,1577,1578,1552,1553
70960771,1000,1000,1000,1000,84728595,1579,1580,1550,1550
70963270,1000,1000,1000,1000,84828555,1581,1582,1548,1548
70965769,1000,1000,1000,1000,84928515,1584,1584,1546,1545
70968268,1000,1000,1000,1000,85028475,1587,1587,1543,1542
70970767,1000,1000,1000,1000,85128435,1590,1591,1541,1541
70973266,1000,1000,1000,1000,85228395,1593,1593,1539,1540
70975765,1000,1000,1000,1000,85328355,1595,1595,1537,1538
70978264,1000,1000,1000,1000,85428315,1596,1596,1536,1538
70980763,1000,1000,1000,1000,85528275,1596,1597,1537,1540
70983262,1000,1000,1000,1000,85628235,1596,1596,1540,1543
70985761,1000,1000,1000,1000,85728195,1593,1591,1545,1548
70988260,1000,1000,1000,1000,85828155,1588,1584,1553,1555
70990759,1000,1000,1000,1000,85928948,1578,1573,1562,1565
70993258,1000,1000,1000,1000,86028908,1569,1565,1576,1578
70995757,1000,1000,1000,1000,86128868,1556,1553,1587,1589
70998256,1000,1000,1000,1000,86228828,1545,1544,1599,1600
71000755,1000,1000,1000,1000,86328788,1536,1535,1607,1607
71003254,1000,1000,1000,1000,86428748,1530,1532,1614,1612
71005753,1000,1000,1000,1000,86528708,1529,1532,1616,1615
71008252,1000,1000,1000,1000,86628668,1533,1536,1615,1614
71010751,1000,1000,1000,1000,86728628,1538,1540,1610,1610
71013250,1000,1000,1000,1000,86828588,1545,1547,1604,1604
71015749,1000,1000,1000,1000,86928548,1554,1555,1596,1596
71018248,1000,1000,1000,1000,87028508,1563,1564,1589,1588
71020747,1000,1000,1000,1000,87128468,1572,1571,1582,1581
71023246,1000,1000,1000,1000,87228428,1578,1577,1575,1574
71025745,1000,1000,1000,1000,87328388,1583,1581,1569,1569
71028244,1000,1000,1000,1000,87428348,1586,1584,1567,1566
71030743,1000,1000,1000,1000,87528308,1587,1586,1566,1566
71033242,1000,1000,1000,1000,87628268,1585,1584,1565,1565
71035741,1000,1000,1000,1000,87728228,1584,1584,1567,1568
71038240,1000,1000,1000,1000,87828188,1582,1582,1570,1570
71040739,1000,1000,1000,1000,87928981,1579,1578,1573,1573
71043238,1000,1000,1000,1000,88028941,1576,1576,1576,1576
71045737,1000,1000,1000,1000,88128901,1572,1572,1578,1578
71048236,1000,1000,1000,1000,88228861,1571,1572,1581,1580
71050735,1000,1000,1000,1000,88328821,1570,1571,1582,1582
71053234,1000,1000,1000,1000,88428781,1569,1570,1582,1582
71055733,1000,1000,1000,1000,88528741,1570,1570,1582,1582
71058232,1000,1000,1000,1000,88628701,1570,1571,1581,1581
71060731,1000,1000,1000,1000,88728661,1572,1573,1581,1581
71063230,1000,1000,1000,1000,88828621,1574,1574,1580,1580
71065729,1000,1000,1000,1000,88928581,1576,1575,1578,1578
71068228,1000,1000,1000,1000,89028541,1576,1576,1577,1576
71070727,1000,1000,1000,1000,89128501,1578,1577,1575,1576
71073226,1000,1000,1000,1000,89228461,1578,1578,1575,1575
71075725,1000,1000,1000,1000,89328421,1580,1580,1576,1576
71078224,1000,1000,1000,1000,89428381,1579,1579,1575,1575
71080723,1000,1000,1000,1000,89528341,1580,1580,1577,1577
71083222,1000,1000,1000,1000,89628301,1579,1579,1576,1576
71085721,1000,1000,1000,1000,89728261,1579,1579,1577,1576
71088220,1000,1000,1000,1000,89828221,1578,1578,1577,1577
71090719,1000,1000,1000,1000,89928181,1577,1576,1577,1577
71093218,1000,1000,1000,1000,90028974,1577,1577,1577,1578
71095717,1000,1000,1000,1000,90128934,1576,1577,1578,1578
71098216,1000,1000,1000,1000,90228894,1576,1577,1578,1578
71100715,1000,1000,1000,1000,90328854,1576,1577,1579,1578
71103214,1000,1000,1000,1000,90428814,1578,1578,1580,1580
71105713,1000,1000,1000,1000,90528774,1578,1577,1579,1579
71108212,1000,1000,1000,1000,90628734,1578,1578,1579,1579
71110711,1000,1000,1000,1000,90728694,1578,1578,1579,1578
71113210,1000,1000,1000,1000,90828654,1579,1578,1578,1579
71115709,1000,1000,1000,1000,90928614,1580,1580,1580,1579
71118208,1000,1000,1000,1000,91028574,1578,1581,1583,1572
71120707,1000,1000,1000,1000,91128534,1578,1583,1583,1569
71123206,1000,1000,1000,1000,91228494,1579,1583,1575,1569
71125705,1000,1000,1000,1000,91328454,1579,1581,1565,1567
71128204,1000,1000,1000,1000,91428414,1579,1580,1557,1564
71130703,1000,1000,1000,1000,91528374,1580,1580,1553,1559
71133202,1000,1000,1000,1000,91628334,1582,1580,1551,1555
71135701,1000,1000,1000,1000,91728294,1583,1581,1551,1553
71138200,1000,1000,1000,1000,91828254,1583,1581,1552,1551
71140699,1000,1000,1000,1000,91928214,1581,1580,1553,1551
71143198,1000,1000,1000,1000,92028174,1579,1579,1554,1552
71145697,1000,1000,1000,1000,92128967,1578,1578,1555,1553
71148196,1000,1000,1000,1000,92228927,1576,1578,1554,1554
71150695,1000,1000,1000,1000,92328887,1576,1578,1555,1554
71153194,1000,1000,1000,1000,92428847,1575,1576,1553,1553
71155693,1000,1000,1000,1000,92528807,1577,1578,1553,1553
71158192,1000,1000,1000,1000,92628767,1578,1579,1552,1552
71160691,1000,1000,1000,1000,92728727,1580,1581,1551,1551
71163190,1000,1000,1000,1000,92828687,1582,1582,1550,1549
71165689,1000,1000,1000,1000,92928647,1584,1585,1548,1548
71168188,1000,1000,1000,1000,93028607,1587,1588,1545,1546
71170687,1000,1000,1000,1000,93128567,1589,1590,1543,1544
71173186,1000,1000,1000,1000,93228527,1592,1593,1543,1544
71175685,1000,1000,1000,1000,93328487,1592,1592,1543,1545
71178184,1000,1000,1000,1000,93428447,1592,1590,1546,1548
71180683,1000,1000,1000,1000,93528407,1589,1587,1551,1554
71183182,1000,1000,1000,1000,93628367,1585,1581,1560,1562
71185681,1000,1000,1000,1000,93728327,1578,1574,1569,1571
71188180,1000,1000,1000,1000,93828287,1569,1566,1579,1580
71190679,1000,1000,1000,1000,93928247,1560,1559,1588,1589
71193178,1000,1000,1000,1000,94028207,1553,1552,1597,1597
71195677,1000,1000,1000,1000,94128167,1546,1546,1602,1602
71198176,1000,1000,1000,1000,94228960,1543,1544,1606,1605
71200675,1000,1000,1000,1000,94328920,1543,1544,1607,1607
71203174,1000,1000,1000,1000,94428880,1545,1547,1606,1605
71205673,1000,1000,1000,1000,94528840,1550,1552,1604,1603
71208172,1000,1000,1000,1000,94628800,1557,1558,1601,1599
71210671,1000,1000,1000,1000,94728760,1562,1563,1594,1593
71213170,1000,1000,1000,1000,94828720,1567,1567,1586,1586
71215669,1000,1000,1000,1000,94928680,1573,1573,1580,1580
71218168,1000,1000,1000,1000,95028640,1579,1578,1576,1576
71220667,1000,1000,1000,1000,95128600,1583,1582,1572,1573
71223166,1000,1000,1000,1000,95228560,1584,1583,1570,1569
71225665,1000,1000,1000,1000,95328520,1585,1584,1569,1569
71228164,1000,1000,1000,1000,95428480,1585,1584,1569,1569
71230663,1000,1000,1000,1000,95528440,1584,1583,1571,1571
71233162,1000,1000,1000,1000,95628400,1582,1581,1573,1573
71235661,1000,1000,1000,1000,95728360,1579,1579,1575,1575
71238160,1000,1000,1000,1000,95828320,1576,1576,1577,1576
71240659,1000,1000,1000,1000,95928280,1574,1574,1579,1578
71243158,1000,1000,1000,1000,96028240,1572,1572,1580,1580
71245657,1000,1000,1000,1000,96128200,1570,1570,1580,1581
71248156,1000,1000,1000,1000,96228160,1571,1570,1582,1582
71250655,1000,1000,1000,1000,96328953,1570,1570,1582,1582
71253154,1000,1000,1000,1000,96428913,1571,1570,1582,1582
71256486,1000,1000,1000,1000,96528873,1571,1571,1581,1581
71258985,1000,1000,1000,1000,96628833,1572,1572,1581,1581
71261484,1000,1000,1000,1000,96728793,1573,1574,1580,1580
71263983,1000,1000,1000,1000,96828753,1574,1573,1579,1579
71266482,1000,1000,1000,1000,96928713,1574,1574,1578,1578
71268981,1000,1000,1000,1000,97028673,1576,1575,1577,1578
71271480,1000,1000,1000,1000,97128633,1576,1575,1577,1577
71273979,1000,1000,1000,1000,97228593,1575,1575,1576,1576
71276478,1000,1000,1000,1000,97328553,1575,1575,1576,1576
71278977,1000,1000,1000,1000,97428513,1575,1575,1576,1576
71281476,1000,1000,1000,1000,97528473,1576,1576,1576,1577
71283975,1000,1000,1000,1000,97628433,1576,1575,1576,1577
71286474,1000,1000,1000,1000,97728393,1575,1576,1577,1577
71288973,1000,1000,1000,1000,97828353,1576,1576,1577,1577
71291472,1000,1000,1000,1000,97928313,1575,1575,1576,1577
71293971,1000,1000,1000,1000,98028273,1575,1575,1576,1576
71296470,1000,1000,1000,1000,98128233,1575,1575,1576,1575
71298969,1000,1000,1000,1000,98228193,1576,1576,1575,1576
71301468,1000,1000,1000,1000,98328986,1576,1578,1576,1576
71303967,1000,1000,1000,1000,98428946,1576,1577,1575,1575
71306466,1000,1000,1000,1000,98528906,1577,1579,1576,1575
71308965,1000,1000,1000,1000,98628866,1578,1578,1575,1575
71311464,1000,1000,1000,1000,98728826,1579,1579,1575,1575
71313963,1000,1000,1000,1000,98828786,1580,1580,1575,1577
71316462,1000,1000,1000,1000,98928746,1581,1580,1577,1576
71318961,1000,1000,1000,1000,99028706,1580,1580,1580,1573
71321460,1000,1000,1000,1000,99128666,1580,1581,1585,1569
71323959,1000,1000,1000,1000,99228626,1578,1580,1579,1571
71326458,1000,1000,1000,1000,99328586,1575,1578,1570,1570
71328957,1000,1000,1000,1000,99428546,1575,1577,1563,1569
71331456,1000,1000,1000,1000,99528506,1574,1577,1558,1565
71333955,1000,1000,1000,1000,99628466,1576,1577,1556,1561
71336454,1000,1000,1000,1000,99728426,1577,1576,1556,1557
71338953,1000,1000,1000,1000,99828386,1578,1576,1556,1555
71341452,1000,1000,1000,1000,99928346,1577,1577,1558,1554
71343951,1000,1000,1000,1000,100028306,1577,1576,1558,1555
71346450,1000,1000,1000,1000,100128266,1576,1576,1558,1555
71348949,1000,1000,1000,1000,100228226,1575,1575,1557,1556
71351448,1000,1000,1000,1000,100328186,1573,1575,1556,1555
71353947,1000,1000,1000,1000,100428979,1573,1573,1554,1555
71356446,1000,1000,1000,1000,100528939,1573,1574,1554,1555
71358945,1000,1000,1000,1000,100628899,1575,1574,1554,1556
71361444,1000,1000,1000,1000,100728859,1575,1574,1553,1554
71363943,1000,1000,1000,1000,100828819,1575,1575,1552,1553
71366442,1000,1000,1000,1000,100928779,1576,1577,1552,1551
71368941,1000,1000,1000,1000,101028739,1579,1579,1551,1551
71371440,1000,1000,1000,1000,101128699,1580,1581,1550,1548
71373939,1000,1000,1000,1000,101228659,1581,1582,1547,1547
71376438,1000,1000,1000,1000,101328619,1582,1584,1545,1545
71378937,1000,1000,1000,1000,101428579,1585,1584,1543,1544
71381436,1000,1000,1000,1000,101528539,1586,1586,1543,1543
71383935,1000,1000,1000,1000,101628499,1587,1587,1543,1543
71386434,1000,1000,1000,1000,101728459,1587,1589,1541,1543
71388933,1000,1000,1000,1000,101828419,1587,1587,1542,1544
71391432,1000,1000,1000,1000,101928379,1587,1587,1546,1548
71393931,1000,1000,1000,1000,102028339,1585,1582,1552,1554
71396430,1000,1000,1000,1000,102128299,1579,1576,1558,1560
71398929,1000,1000,1000,1000,102228259,1572,1568,1568,1569
71401428,1000,1000,1000,1000,102328219,1564,1561,1578,1580
71403927,1000,1000,1000,1000,102428179,1555,1554,1588,1588
71406426,1000,1000,1000,1000,102528972,1547,1549,1597,1597
71408925,1000,1000,1000,1000,102628932,1541,1541,1602,1601
71411424,1000,1000,1000,1000,102728892,1538,1539,1606,1606
71413923,1000,1000,1000,1000,102828852,1538,1539,1608,1607
71416422,1000,1000,1000,1000,102928812,1541,1541,1606,1607
71418921,1000,1000,1000,1000,103028772,1545,1545,1603,1603
71421420,1000,1000,1000,1000,103128732,1552,1552,1599,1598
71423919,1000,1000,1000,1000,103228692,1559,1559,1593,1592
71426418,1000,1000,1000,1000,103328652,1566,1566,1586,1585
71428917,1000,1000,1000,1000,103428612,1573,1574,1580,1579
71431416,1000,1000,1000,1000,103528572,1579,1580,1573,1574
71433915,1000,1000,1000,1000,103628532,1583,1584,1569,1569
71436414,1000,1000,1000,1000,103728492,1585,1585,1566,1567
71438913,1000,1000,1000,1000,103828452,1587,1586,1566,1567
71441412,1000,1000,1000,1000,103928412,1587,1586,1568,1569
71443911,1000,1000,1000,1000,104028372,1584,1583,1570,1569
71446410,1000,1000,1000,1000,104128332,1581,1580,1572,1572
71448909,1000,1000,1000,1000,104228292,1577,1577,1575,1574
71451408,1000,1000,1000,1000,104328252,1575,1575,1577,1577
71453907,1000,1000,1000,1000,104428212,1572,1573,1579,1579
71456406,1000,1000,1000,1000,104528172,1571,1572,1582,1582
71458905,1000,1000,1000,1000,104628965,1570,1571,1582,1582
71461404,1000,1000,1000,1000,104728925,1571,1571,1582,1583
71463903,1000,1000,1000,1000,104828885,1571,1571,1582,1582
71466402,1000,1000,1000,1000,104928845,1572,1573,1581,1581
71468901,1000,1000,1000,1000,105028805,1574,1574,1580,1580
71471400,1000,1000,1000,1000,105128765,1575,1575,1578,1579
71473899,1000,1000,1000,1000,105228725,1577,1577,1577,1577
71476398,1000,1000,1000,1000,105328685,1578,1578,1576,1577
71478897,1000,1000,1000,1000,105428645,1579,1579,1576,1576
71481396,1000,1000,1000,1000,105528605,1581,1580,1576,1576
71483895,1000,1000,1000,1000,105628565,1581,1580,1576,1576
71486394,1000,1000,1000,1000,105728525,1580,1579,1575,1575
71488893,1000,1000,1000,1000,105828485,1580,1580,1576,1576
71491392,1000,1000,1000,1000,105928445,1579,1579,1576,1577
71493891,1000,1000,1000,1000,106028405,1578,1578,1577,1577
71496390,1000,1000,1000,1000,106128365,1578,1578,1578,1578
71498889,1000,1000,1000,1000,106228325,1577,1578,1578,1579
71501388,1000,1000,1000,1000,106328285,1576,1577,1578,1578
71503887,1000,1000,1000,1000,106428245,1577,1577,1579,1579
71506386,1000,1000,1000,1000,106528205,1577,1576,1579,1579
71508885,1000,1000,1000,1000,106628165,1577,1577,1580,1579
71511384,1000,1000,1000,1000,106728958,1577,1578,1580,1579
71513883,1000,1000,1000,1000,106828918,1577,1579,1580,1580
71516382,1000,1000,1000,1000,106928878,1577,1579,1580,1580
71518881,1000,1000,1000,1000,107028838,1577,1578,1579,1579
71521380,1000,1000,1000,1000,107128798,1578,1577,1579,1580
71523879,1000,1000,1000,1000,107228758,1577,1577,1583,1576
71526378,1000,1000,1000,1000,107328718,1576,1575,1587,1572
71528877,1000,1000,1000,1000,107428678,1574,1573,1581,1574
71531376,1000,1000,1000,1000,107528638,1574,1572,1574,1576
71533875,1000,1000,1000,1000,107628598,1572,1571,1567,1574
71536374,1000,1000,1000,1000,107728558,1571,1571,1563,1571
71538873,1000,1000,1000,1000,107828518,1570,1571,1562,1566
71541372,1000,1000,1000,1000,107928478,1570,1570,1562,1563
71543871,1000,1000,1000,1000,108028438,1570,1570,1563,1561
71546370,1000,1000,1000,1000,108128398,1570,1569,1564,1561
71548869,1000,1000,1000,1000,108228358,1568,1567,1565,1562
71551368,1000,1000,1000,1000,108328318,1565,1566,1565,1563
71553867,1000,1000,1000,1000,108428278,1564,1564,1565,1564
71556366,1000,1000,1000,1000,108528238,1562,1563,1566,1565
71558865,1000,1000,1000,1000,108628198,1561,1561,1565,1565
71561364,1000,1000,1000,1000,108728158,1559,1559,1564,1565
71563863,1000,1000,1000,1000,108828951,1560,1560,1565,1565
71566362,1000,1000,1000,1000,108928911,1559,1559,1563,1564
71568861,1000,1000,1000,1000,109028871,1559,1559,1563,1563
71571360,1000,1000,1000,1000,109128831,1559,1559,1562,1561
71573859,1000,1000,1000,1000,109228791,1559,1558,1560,1559
71576358,1000,1000,1000,1000,109328751,1559,1559,1559,1559
71578857,1000,1000,1000,1000,109428711,1558,1557,1558,1557
71581356,1000,1000,1000,1000,109528671,1556,1556,1555,1554
71583855,1000,1000,1000,1000,109628631,1554,1553,1552,1550
71586354,1000,1000,1000,1000,109728591,1551,1551,1550,1547
71588853,1000,1000,1000,1000,109828551,1549,1548,1548,1545
71591352,1000,1000,1000,1000,109928511,1545,1546,1546,1542
71593851,1000,1000,1000,1000,110028471,1543,1542,1541,1540
71596350,1000,1000,1000,1000,110128431,1543,1544,1540,1545
71598849,1000,1000,1000,1000,110228391,1552,1553,1547,1557
71601348,1000,1000,1000,1000,110328351,1553,1553,1548,1558
71603847,1000,1000,1000,1000,110428311,1552,1551,1549,1554
71606346,1000,1000,1000,1000,110528271,1548,1547,1547,1549
71608845,1000,1000,1000,1000,110628231,1543,1542,1544,1542
71611344,1000,1000,1000,1000,110728191,1536,1537,1538,1536
71613843,1000,1000,1000,1000,110828984,1530,1529,1532,1529
71616342,1000,1000,1000,1000,110928944,1525,1525,1526,1525
71618841,1000,1000,1000,1000,111028904,1524,1524,1525,1525
71621340,1000,1000,1000,1000,111128864,1524,1525,1525,1525
71623839,1000,1000,1000,1000,111228824,1525,1526,1527,1527
71626338,1000,1000,1000,1000,111328784,1527,1529,1531,1530
71628837,1000,1000,1000,1000,111428744,1532,1530,1534,1536
71631336,1000,1000,1000,1000,111528704,1536,1535,1539,1541
71633835,1000,1000,1000,1000,111628664,1540,1539,1542,1545
71636334,1000,1000,1000,1000,111728624,1542,1542,1544,1546
71638833,1000,1000,1000,1000,111828584,1544,1544,1545,1547
71641332,1000,1000,1000,1000,111928544,1546,1548,1547,1547
71643831,1000,1000,1000,1000,112028504,1549,1550,1546,1547
71646330,1000,1000,1000,1000,112128464,1550,1552,1546,1546
71648829,1000,1000,1000,1000,112228424,1552,1554,1545,1546
71651328,1000,1000,1000,1000,112328384,1552,1555,1545,1544
71653827,1000,1000,1000,1000,112428344,1553,1554,1545,1543
71656326,1000,1000,1000,1000,112528304,1554,1553,1546,1543
71658825,1000,1000,1000,1000,112628264,1552,1550,1546,1543
71661324,1000,1000,1000,1000,112728224,1550,1549,1546,1545
71663823,1000,1000,1000,1000,112828184,1549,1547,1548,1547
71666322,1000,1000,1000,1000,112928977,1546,1546,1549,1548
71668821,1000,1000,1000,1000,113028937,1544,1544,1549,1549
71671320,1000,1000,1000,1000,113128897,1543,1543,1550,1550
71673819,1000,1000,1000,1000,113228857,1541,1541,1549,1549
71676318,1000,1000,1000,1000,113328817,1541,1541,1549,1548
71678817,1000,1000,1000,1000,113428777,1541,1542,1549,1549
71681316,1000,1000,1000,1000,113528737,1542,1542,1548,1547
71683815,1000,1000,1000,1000,113628697,1544,1544,1547,1547
71686314,1000,1000,1000,1000,113728657,1545,1545,1546,1546
71688813,1000,1000,1000,1000,113828617,1544,1545,1545,1544
71691312,1000,1000,1000,1000,113928577,1546,1546,1544,1544
71693811,1000,1000,1000,1000,114028537,1546,1546,1543,1543
71696310,1000,1000,1000,1000,114128497,1547,1546,1543,1543
71698809,1000,1000,1000,1000,114228457,1546,1546,1542,1543
71701308,1000,1000,1000,1000,114328417,1546,1546,1543,1542
71703807,1000,1000,1000,1000,114428377,1545,1546,1543,1543
71706306,1000,1000,1000,1000,114528337,1547,1546,1544,1544
71708805,1000,1000,1000,1000,114628297,1545,1545,1543,1544
71711304,1000,1000,1000,1000,114728257,1545,1544,1544,1545
71713803,1000,1000,1000,1000,114828217,1544,1544,1545,1544
71716302,1000,1000,1000,1000,114928177,1544,1543,1545,1545
71718801,1000,1000,1000,1000,115028970,1543,1544,1545,1545
71721300,1000,1000,1000,1000,115128930,1545,1544,1546,1546
71723799,1000,1000,1000,1000,115228890,1543,1544,1545,1545
71726298,1000,1000,1000,1000,115328850,1544,1544,1545,1545
71728797,1000,1000,1000,1000,115428810,1543,1544,1545,1544
71731296,1000,1000,1000,1000,115528770,1543,1543,1546,1544
71733795,1000,1000,1000,1000,115628730,1542,1543,1547,1545
71736294,1000,1000,1000,1000,115728690,1543,1541,1547,1546
71738793,1000,1000,1000,1000,115828650,1542,1541,1546,1547
71741292,1000,1000,1000,1000,115928610,1542,1541,1546,1548
71743791,1000,1000,1000,1000,116028570,1541,1541,1544,1546
71746290,1000,1000,1000,1000,116128530,1543,1542,1544,1546
71748789,1000,1000,1000,1000,116228490,1543,1544,1543,1544
71751288,1000,1000,1000,1000,116328450,1545,1545,1542,1543
71753787,1000,1000,1000,1000,116428410,1546,1547,1542,1541
71756286,1000,1000,1000,1000,116528370,1549,1549,1541,1541
71758785,1000,1000,1000,1000,116628330,1548,1549,1539,1538
71761284,1000,1000,1000,1000,116728290,1551,1549,1541,1540
71763783,1000,1000,1000,1000,116828250,1549,1549,1541,1540
71766282,1000,1000,1000,1000,116928210,1548,1547,1541,1541
71768781,1000,1000,1000,1000,117028170,1546,1547,1543,1542
71771280,1000,1000,1000,1000,117128963,1545,1544,1544,1544
71773779,1000,1000,1000,1000,117228923,1542,1543,1545,1545
71776278,1000,1000,1000,1000,117328883,1542,1541,1545,1547
71778777,1000,1000,1000,1000,117428843,1541,1542,1548,1548
71781276,1000,1000,1000,1000,117528803,1541,1540,1547,1548
71783775,1000,1000,1000,1000,117628763,1541,1541,1548,1547
71786274,1000,1000,1000,1000,117728723,1542,1541,1547,1547
71788773,1000,1000,1000,1000,117828683,1541,1542,1546,1546
71791272,1000,1000,1000,1000,117928643,1543,1543,1545,1546
71793771,1000,1000,1000,1000,118028603,1544,1544,1545,1545
71796270,1000,1000,1000,1000,118128563,1544,1543,1543,1544
71798769,1000,1000,1000,1000,118228523,1544,1544,1543,1543
71801268,1000,1000,1000,1000,118328483,1545,1544,1542,1542
71803767,1000,1000,1000,1000,118428443,1545,1546,1543,1542
71806266,1000,1000,1000,1000,118528403,1546,1545,1543,1543
71808765,1000,1000,1000,1000,118628363,1545,1545,1542,1543
71811264,1000,1000,1000,1000,118728323,1546,1545,1543,1544
71813763,1000,1000,1000,1000,118828283,1545,1545,1544,1544
71816262,1000,1000,1000,1000,118928243,1545,1544,1544,1544
71818761,1000,1000,1000,1000,119028203,1543,1544,1544,1544
71821260,1000,1000,1000,1000,119128163,1545,1544,1545,1545
71823759,1000,1000,1000,1000,119228956,1544,1545,1546,1545
71826258,1000,1000,1000,1000,119328916,1544,1544,1545,1545
71828757,1000,1000,1000,1000,119428876,1544,1544,1545,1545
71831256,1000,1000,1000,1000,119528836,1545,1544,1546,1546
71833755,1000,1000,1000,1000,119628796,1544,1544,1545,1546
71836254,1000,1000,1000,1000,119728756,1544,1545,1546,1545
71838753,1000,1000,1000,1000,119828716,1543,1544,1547,1545
71841252,1000,1000,1000,1000,119928676,1542,1543,1547,1545
71843751,1000,1000,1000,1000,120028636,1540,1542,1546,1546
71846250,1000,1000,1000,1000,120128596,1542,1540,1547,1548
71848749,1000,1000,1000,1000,120228556,1542,1541,1547,1549
71851248,1000,1000,1000,1000,120328516,1461,1469,1490,1461
71853747,1000,1000,1000,1000,120428476,1282,1300,1342,1278
71856246,1000,1000,1000,1000,120528436,1204,1224,1279,1201
71858745,1000,1000,1000,1000,120628396,1176,1200,1254,1181
71861244,1000,1000,1000,1000,120728356,1150,1171,1228,1156
71863743,1000,1000,1000,1000,120828316,1150,1175,1228,1157
71866242,1000,1000,1000,1000,120928276,1150,1176,1226,1155
71868741,1000,1000,1000,1000,121028236,1243,1150,1222,1225
71871240,1000,1000,1000,1000,121128196,1220,1150,1221,1201
71873739,1000,1000,1000,1000,121228156,1195,1150,1215,1175
71876238,1000,1000,1000,1000,121328949,1194,1150,1213,1169
71878737,1000,1000,1000,1000,121428909,1197,1150,1214,1169
71881236,1000,1000,1000,1000,121528869,1203,1150,1217,1172
71883735,1000,1000,1000,1000,121628829,1207,1150,1219,1175
71886234,1000,1000,1000,1000,121728789,1214,1150,1223,1179
71888733,1000,1000,1000,1000,121828749,1175,1150,1199,1167
71891232,1000,1000,1000,1000,121928709,1183,1150,1205,1171
71893731,1000,1000,1000,1000,122028669,1186,1150,1207,1173
71896230,1000,1000,1000,1000,122128629,1188,1150,1209,1175
71898729,1000,1000,1000,1000,122228589,1189,1150,1210,1177
71901228,1000,1000,1000,1000,122328549,1000,1000,1000,1000
71903727,1000,1000,1000,1000,122428509,1000,1000,1000,1000
71906226,1000,1000,1000,1000,122528469,1000,1000,1000,1000
71908725,1000,1000,1000,1000,122628429,1000,1000,1000,1000
71911224,1000,1000,1000,1000,122728389,1000,1000,1000,1000
71913723,1000,1000,1000,1000,122828349,1000,1000,1000,1000
71916222,1000,1000,1000,1000,122928309,1000,1000,1000,1000
71918721,1000,1000,1000,1000,123028269,1000,1000,1000,1000
71921220,1000,1000,1000,1000,123128229,1000,1000,1000,1000
71923719,1000,1000,1000,1000,123228189,1000,1000,1000,1000
71926218,1000,1000,1000,1000,123328982,1000,1000,1000,1000
71928717,1000,1000,1000,1000,123428942,1000,1000,1000,1000
71931216,1000,1000,1000,1000,123528902,1000,1000,1000,1000
71933715,1000,1000,1000,1000,123628862,1000,1000,1000,1000
71936214,1000,1000,1000,1000,123728822,1000,1000,1000,1000
71938713,1000,1000,1000,1000,123828782,1000,1000,1000,1000
71941212,1000,1000,1000,1000,123928742,1000,1000,1000,1000
71943711,1000,1000,1000,1000,124028702,1000,1000,1000,1000
71946210,1000,1000,1000,1000,124128662,1000,1000,1000,1000
71948709,1000,1000,1000,1000,124228622,1000,1000,1000,1000
71951208,1000,1000,1000,1000,124328582,1000,1000,1000,1000
71953707,1000,1000,1000,1000,124428542,1000,1000,1000,1000
71956206,1000,1000,1000,1000,124528502,1000,1000,1000,1000
71958705,1000,1000,1000,1000,124628462,1000,1000,1000,1000
71961204,1000,1000,1000,1000,124728422,1000,1000,1000,1000
71963703,1000,1000,1000,1000,124828382,1000,1000,1000,1000
71966202,1000,1000,1000,1000,124928342,1000,1000,1000,1000
71968701,1000,1000,1000,1000,125028302,1000,1000,1000,1000
71971200,1000,1000,1000,1000,125128262,1000,1000,1000,1000
71973699,1000,1000,1000,1000,125228222,1000,1000,1000,1000
71976198,1000,1000,1000,1000,125328182,1000,1000,1000,1000
71978697,1000,1000,1000,1000,125428975,1000,1000,1000,1000
71981196,1000,1000,1000,1000,125528935,1000,1000,1000,1000
71983695,1000,1000,1000,1000,125628895,1000,1000,1000,1000
71986194,1000,1000,1000,1000,125728855,1000,1000,1000,1000
71988693,1000,1000,1000,1000,125828815,1000,1000,1000,1000
71991192,1000,1000,1000,1000,125928775,1000,1000,1000,1000
71993691,1000,1000,1000,1000,126028735,1000,1000,1000,1000
71996190,1000,1000,1000,1000,126128695,1000,1000,1000,1000
71998689,1000,1000,1000,1000,126228655,1000,1000,1000,1000
72001188,1000,1000,1000,1000,126328615,1000,1000,1000,1000
72003687,1000,1000,1000,1000,126428575,1000,1000,1000,1000
72006186,1000,1000,1000,1000,126528535,1000,1000,1000,1000
72008685,1000,1000,1000,1000,126628495,1000,1000,1000,1000
72011184,1000,1000,1000,1000,126728455,1000,1000,1000,1000
72013683,1000,1000,1000,1000,126828415,1000,1000,1000,1000
72016182,1000,1000,1000,1000,126928375,1000,1000,1000,1000
72018681,1000,1000,1000,1000,127028335,1000,1000,1000,1000
72021180,1000,1000,1000,1000,127128295,1000,1000,1000,1000
72023679,1000,1000,1000,1000,127228255,1000,1000,1000,1000
72026178,1000,1000,1000,1000,127328215,1000,1000,1000,1000
72028677,1000,1000,1000,1000,127428175,1000,1000,1000,1000
72031176,1000,1000,1000,1000,127528968,1000,1000,1000,1000
72033675,1000,1000,1000,1000,127628928,1000,1000,1000,1000
72036174,1000,1000,1000,1000,127728888,1000,1000,1000,1000
72038673,1000,1000,1000,1000,127828848,1000,1000,1000,1000
72041172,1000,1000,1000,1000,127928808,1000,1000,1000,1000
72043671,1000,1000,1000,1000,128028768,1000,1000,1000,1000
72046170,1000,1000,1000,1000,128128728,1000,1000,1000,1000
72048669,1000,1000,1000,1000,128228688,1000,1000,1000,1000
72051168,1000,1000,1000,1000,128328648,1000,1000,1000,1000
72053667,1000,1000,1000,1000,128428608,1000,1000,1000,1000
72056166,1000,1000,1000,1000,128528568,1000,1000,1000,1000
72058665,1000,1000,1000,1000,128628528,1000,1000,1000,1000
72061164,1000,1000,1000,1000,128728488,1000,1000,1000,1000
72063663,1000,1000,1000,1000,128828448,1000,1000,1000,1000
72066162,1000,1000,1000,1000,128928408,1000,1000,1000,1000
72068661,1000,1000,1000,1000,129028368,1000,1000,1000,1000
72071160,1000,1000,1000,1000,129128328,1000,1000,1000,1000
72073659,1000,1000,1000,1000,129228288,1000,1000,1000,1000
72076158,1000,1000,1000,1000,129328248,1000,1000,1000,1000
72078657,1000,1000,1000,1000,129428208,1000,1000,1000,1000
72081156,1000,1000,1000,1000,129528168,1000,1000,1000,1000
72083655,1000,1000,1000,1000,129628961,1000,1000,1000,1000
72086154,1000,1000,1000,1000,129728921,1000,1000,1000,1000
72088653,1000,1000,1000,1000,129828881,1000,1000,1000,1000
72091152,1000,1000,1000,1000,129928841,1000,1000,1000,1000
72093651,1000,1000,1000,1000,130028801,1000,1000,1000,1000
72096150,1000,1000,1000,1000,130128761,1000,1000,1000,1000
72098649,1000,1000,1000,1000,130228721,1000,1000,1000,1000
72101148,1000,1000,1000,1000,130328681,1000,1000,1000,1000
72103647,1000,1000,1000,1000,130428641,1000,1000,1000,1000
72106146,1000,1000,1000,1000,130528601,1000,1000,1000,1000
72108645,1000,1000,1000,1000,130628561,1000,1000,1000,1000
72111144,1000,1000,1000,1000,130728521,1000,1000,1000,1000
72113643,1000,1000,1000,1000,130828481,1000,1000,1000,1000
72116142,1000,1000,1000,1000,130928441,1000,1000,1000,1000
72118641,1000,1000,1000,1000,131028401,1000,1000,1000,1000
72121140,1000,1000,1000,1000,131128361,1000,1000,1000,1000
72123639,1000,1000,1000,1000,131228321,1000,1000,1000,1000
72126138,1000,1000,1000,1000,131328281,1000,1000,1000,1000
72128637,1000,1000,1000,1000,131428241,1000,1000,1000,1000
72131136,1000,1000,1000,1000,131528201,1000,1000,1000,1000
72133635,1000,1000,1000,1000,131628161,1000,1000,1000,1000
72136134,1000,1000,1000,1000,131728954,1000,1000,1000,1000
72138633,1000,1000,1000,1000,131828914,1000,1000,1000,1000
72141132,1000,1000,1000,1000,131928874,1000,1000,1000,1000
72143631,1000,1000,1000,1000,132028834,1000,1000,1000,1000
72146130,1000,1000,1000,1000,132128794,1000,1000,1000,1000
72148629,1000,1000,1000,1000,132228754,1000,1000,1000,1000
72151128,1000,1000,1000,1000,132328714,1000,1000,1000,1000
72153627,1000,1000,1000,1000,132428674,1000,1000,1000,1000
72156126,1000,1000,1000,1000,132528634,1000,1000,1000,1000
72158625,1000,1000,1000,1000,132628594,1000,1000,1000,1000
72161124,1000,1000,1000,1000,132728554,1000,1000,1000,1000
72163623,1000,1000,1000,1000,132828514,1000,1000,1000,1000
72166122,1000,1000,1000,1000,132928474,1000,1000,1000,1000
72168621,1000,1000,1000,1000,133028434,1000,1000,1000,1000
72171120,1000,1000,1000,1000,133128394,1000,1000,1000,1000
72173619,1000,1000,1000,1000,133228354,1000,1000,1000,1000
72176118,1000,1000,1000,1000,133328314,1000,1000,1000,1000
72178617,1000,1000,1000,1000,133428274,1000,1000,1000,1000
72181116,1000,1000,1000,1000,133528234,1000,1000,1000,1000
72183615,1000,1000,1000,1000,133628194,1000,1000,1000,1000
72186114,1000,1000,1000,1000,133728154,1000,1000,1000,1000
72188613,1000,1000,1000,1000,133828947,1000,1000,1000,1000
72191112,1000,1000,1000,1000,133928907,1000,1000,1000,1000
72193611,1000,1000,1000,1000,134028867,1000,1000,1000,1000
72196110,1000,1000,1000,1000,134128827,1000,1000,1000,1000
72198609,1000,1000,1000,1000,134228787,1000,1000,1000,1000
72201108,1000,1000,1000,1000,134328747,1000,1000,1000,1000
72203607,1000,1000,1000,1000,134428707,1000,1000,1000,1000
72206106,1000,1000,1000,1000,134528667,1000,1000,1000,1000
72208605,1000,1000,1000,1000,134628627,1000,1000,1000,1000
72211104,1000,1000,1000,1000,134728587,1000,1000,1000,1000
72213603,1000,1000,1000,1000,134828547,1000,1000,1000,1000
72216102,1000,1000,1000,1000,134928507,1000,1000,1000,1000
72218601,1000,1000,1000,1000,135028467,1000,1000,1000,1000
72221100,1000,1000,1000,1000,135128427,1000,1000,1000,1000
72223599,1000,1000,1000,1000,135228387,1000,1000,1000,1000
72226098,1000,1000,1000,1000,135328347,1000,1000,1000,1000
72228597,1000,1000,1000,1000,135428307,1000,1000,1000,1000
72231096,1000,1000,1000,1000,135528267,1000,1000,1000,1000
72233595,1000,1000,1000,1000,135628227,1000,1000,1000,1000
72236094,1000,1000,1000,1000,135728187,1000,1000,1000,1000
72238593,1000,1000,1000,1000,135828980,1000,1000,1000,1000
72241092,1000,1000,1000,1000,135928940,1000,1000,1000,1000
72243591,1000,1000,1000,1000,136028900,1000,1000,1000,1000
72246090,1000,1000,1000,1000,136128860,1000,1000,1000,1000
72248589,1000,1000,1000,1000,136228820,1000,1000,1000,1000
72251088,1000,1000,1000,1000,136328780,1000,1000,1000,1000
72253587,1000,1000,1000,1000,136428740,1000,1000,1000,1000
72256086,1000,1000,1000,1000,136528700,1000,1000,1000,1000
72258585,1000,1000,1000,1000,136628660,1000,1000,1000,1000
72261084,1000,1000,1000,1000,136728620,1000,1000,1000,1000
72263583,1000,1000,1000,1000,136828580,1000,1000,1000,1000
72266082,1000,1000,1000,1000,136928540,1000,1000,1000,1000
72268581,1000,1000,1000,1000,137028500,1000,1000,1000,1000
72271080,1000,1000,1000,1000,137128460,1000,1000,1000,1000
72273579,1000,1000,1000,1000,137228420,1000,1000,1000,1000
72276078,1000,1000,1000,1000,,,,,
72278577,1000,1000,1000,1000,,,,,
72281076,1000,1000,1000,1000,,,,,
72283575,1000,1000,1000,1000,,,,,
72286074,1000,1000,1000,1000,,,,,
72288573,1000,1000,1000,1000,,,,,
72291072,1000,1000,1000,1000,,,,,
72293571,1000,1000,1000,1000,,,,,
72296070,1000,1000,1000,1000,,,,,
72298569,1000,1000,1000,1000,,,,,
72301068,1000,1000,1000,1000,,,,,
72303567,1000,1000,1000,1000,,,,,
72306066,1000,1000,1000,1000,,,,,
72308565,1000,1000,1000,1000,,,,,
72311064,1000,1000,1000,1000,,,,,
72313563,1000,1000,1000,1000,,,,,
72316062,1000,1000,1000,1000,,,,,
72318561,1000,1000,1000,1000,,,,,
72321060,1000,1000,1000,1000,,,,,
72323559,1000,1000,1000,1000,,,,,
72326058,1000,1000,1000,1000,,,,,
72328557,1000,1000,1000,1000,,,,,
72331056,1000,1000,1000,1000,,,,,
72333555,1000,1000,1000,1000,,,,,
72336054,1000,1000,1000,1000,,,,,
72338553,1000,1000,1000,1000,,,,,
72341052,1000,1000,1000,1000,,,,,
72343551,1000,1000,1000,1000,,,,,
72346050,1000,1000,1000,1000,,,,,
72348549,1000,1000,1000,1000,,,,,
72351048,1000,1000,1000,1000,,,,,
72353547,1000,1000,1000,1000,,,,,
72356046,1000,1000,1000,1000,,,,,
72358545,1000,1000,1000,1000,,,,,
72361044,1000,1000,1000,1000,,,,,
72363543,1000,1000,1000,1000,,,,,
72366042,1000,1000,1000,1000,,,,,
72368541,1000,1000,1000,1000,,,,,
72371040,1000,1000,1000,1000,,,,,
72373539,1000,1000,1000,1000,,,,,
72376038,1000,1000,1000,1000,,,,,
72378537,1000,1000,1000,1000,,,,,
72381036,1000,1000,1000,1000,,,,,
72383535,1000,1000,1000,1000,,,,,
72386034,1000,1000,1000,1000,,,,,
72388533,1000,1000,1000,1000,,,,,
72391032,1000,1000,1000,1000,,,,,
72393531,1000,1000,1000,1000,,,,,
72396030,1000,1000,1000,1000,,,,,
72398529,1000,1000,1000,1000,,,,,
72401028,1000,1000,1000,1000,,,,,
72403527,1000,1000,1000,1000,,,,,
72406026,1000,1000,1000,1000,,,,,
72408525,1000,1000,1000,1000,,,,,
72411024,1000,1000,1000,1000,,,,,
72413523,1000,1000,1000,1000,,,,,
72416022,1000,1000,1000,1000,,,,,
72418521,1000,1000,1000,1000,,,,,
72421020,1000,1000,1000,1000,,,,,
72423519,1000,1000,1000,1000,,,,,
72426018,1000,1000,1000,1000,,,,,
72428517,1000,1000,1000,1000,,,,,
72431016,1000,1000,1000,1000,,,,,
72433515,1000,1000,1000,1000,,,,,
72436014,1000,1000,1000,1000,,,,,
72438513,1000,1000,1000,1000,,,,,
72441012,1000,1000,1000,1000,,,,,
72443511,1000,1000,1000,1000,,,,,
72446010,1000,1000,1000,1000,,,,,
72448509,1000,1000,1000,1000,,,,,
72451008,1000,1000,1000,1000,,,,,
72453507,1000,1000,1000,1000,,,,,
72456006,1000,1000,1000,1000,,,,,
72458505,1000,1000,1000,1000,,,,,
72461004,1000,1000,1000,1000,,,,,
72463503,1000,1000,1000,1000,,,,,
72466002,1000,1000,1000,1000,,,,,
72468501,1000,1000,1000,1000,,,,,
72471000,1000,1000,1000,1000,,,,,
72473499,1000,1000,1000,1000,,,,,
72475998,1000,1000,1000,1000,,,,,
72478497,1000,1000,1000,1000,,,,,
72480996,1000,1000,1000,1000,,,,,
72483495,1000,1000,1000,1000,,,,,
72485994,1000,1000,1000,1000,,,,,
72488493,1000,1000,1000,1000,,,,,
72490992,1000,1000,1000,1000,,,,,
72493491,1000,1000,1000,1000,,,,,
72495990,1000,1000,1000,1000,,,,,
72498489,1000,1000,1000,1000,,,,,
72500988,1000,1000,1000,1000,,,,,
72503487,1000,1000,1000,1000,,,,,
72505986,1000,1000,1000,1000,,,,,
72508485,1000,1000,1000,1000,,,,,
72510984,1000,1000,1000,1000,,,,,
72513483,1000,1000,1000,1000,,,,,
72515982,1000,1000,1000,1000,,,,,
72518481,1000,1000,1000,1000,,,,,
72520980,1000,1000,1000,1000,,,,,
72523479,1000,1000,1000,1000,,,,,
72525978,1000,1000,1000,1000,,,,,
72528477,1000,1000,1000,1000,,,,,
72530976,1000,1000,1000,1000,,,,,
72533475,1000,1000,1000,1000,,,,,
72535974,1000,1000,1000,1000,,,,,
72538473,1000,1000,1000,1000,,,,,
72540972,1000,1000,1000,1000,,,,,
72543471,1000,1000,1000,1000,,,,,
72545970,1000,1000,1000,1000,,,,,
72548469,1000,1000,1000,1000,,,,,
72550968,1000,1000,1000,1000,,,,,
72553467,1000,1000,1000,1000,,,,,
72555966,1000,1000,1000,1000,,,,,
72558465,1000,1000,1000,1000,,,,,
72560964,1000,1000,1000,1000,,,,,
72563463,1000,1000,1000,1000,,,,,
72565962,1000,1000,1000,1000,,,,,
72568461,1000,1000,1000,1000,,,,,
72570960,1000,1000,1000,1000,,,,,
72573459,1000,1000,1000,1000,,,,,
72575958,1000,1000,1000,1000,,,,,
72578457,1000,1000,1000,1000,,,,,
72580956,1000,1000,1000,1000,,,,,
72583455,1000,1000,1000,1000,,,,,
72585954,1000,1000,1000,1000,,,,,
72588453,1000,1000,1000,1000,,,,,
72590952,1000,1000,1000,1000,,,,,
72593451,1000,1000,1000,1000,,,,,
72595950,1000,1000,1000,1000,,,,,
72598449,1000,1000,1000,1000,,,,,
72600948,1000,1000,1000,1000,,,,,
72603447,1000,1000,1000,1000,,,,,
72605946,1000,1000,1000,1000,,,,,
72608445,1000,1000,1000,1000,,,,,
72610944,1000,1000,1000,1000,,,,,
72613443,1000,1000,1000,1000,,,,,
72615942,1001,1001,1001,1001,,,,,
72618441,1002,1002,1002,1002,,,,,
72620940,1003,1003,1003,1003,,,,,
72623439,1003,1003,1003,1003,,,,,
72625938,1004,1004,1004,1004,,,,,
72628437,1005,1005,1005,1005,,,,,
72630936,1006,1006,1006,1006,,,,,
72633435,1006,1006,1006,1006,,,,,
72635934,1007,1007,1007,1007,,,,,
72638433,1008,1008,1008,1008,,,,,
72640932,1009,1009,1009,1009,,,,,
72643431,1009,1009,1009,1009,,,,,
72645930,1010,1010,1010,1010,,,,,
72648429,1011,1011,1011,1011,,,,,
72650928,1012,1012,1012,1012,,,,,
72653427,1012,1012,1012,1012,,,,,
72655926,1013,1013,1013,1013,,,,,
72658425,1014,1014,1014,1014,,,,,
72660924,1015,1015,1015,1015,,,,,
72663423,1015,1015,1015,1015,,,,,
72665922,1016,1016,1016,1016,,,,,
72668421,1017,1017,1017,1017,,,,,
72670920,1018,1018,1018,1018,,,,,
72673419,1018,1018,1018,1018,,,,,
72675918,1019,1019,1019,1019,,,,,
72678417,1020,1020,1020,1020,,,,,
72680916,1021,1021,1021,1021,,,,,
72683415,1021,1021,1021,1021,,,,,
72685914,1022,1022,1022,1022,,,,,
72688413,1023,1023,1023,1023,,,,,
72690912,1024,1024,1024,1024,,,,,
72693411,1024,1024,1024,1024,,,,,
72695910,1025,1025,1025,1025,,,,,
72698409,1026,1026,1026,1026,,,,,
72700908,1027,1027,1027,1027,,,,,
72703407,1027,1027,1027,1027,,,,,
72705906,1028,1028,1028,1028,,,,,
72708405,1029,1029,1029,1029,,,,,
72710904,1030,1030,1030,1030,,,,,
72713403,1030,1030,1030,1030,,,,,
72715902,1031,1031,1031,1031,,,,,
72718401,1032,1032,1032,1032,,,,,
72720900,1033,1033,1033,1033,,,,,
72723399,1033,1033,1033,1033,,,,,
72725898,1034,1034,1034,1034,,,,,
72728397,1035,1035,1035,1035,,,,,
72730896,1036,1036,1036,1036,,,,,
72733395,1036,1036,1036,1036,,,,,
72735894,1037,1037,1037,1037,,,,,
72738393,1038,1038,1038,1038,,,,,
72740892,1039,1039,1039,1039,,,,,
72743391,1039,1039,1039,1039,,,,,
72745890,1040,1040,1040,1040,,,,,
72748389,1041,1041,1041,1041,,,,,
72750888,1042,1042,1042,1042,,,,,
72753387,1042,1042,1042,1042,,,,,
72755886,1043,1043,1043,1043,,,,,
72758385,1044,1044,1044,1044,,,,,
72760884,1045,1045,1045,1045,,,,,
72763383,1045,1045,1045,1045,,,,,
72765882,1046,1046,1046,1046,,,,,
72768381,1047,1047,1047,1047,,,,,
72770880,1048,1048,1048,1048,,,,,
72773379,1048,1048,1048,1048,,,,,
72775878,1049,1049,1049,1049,,,,,
72778377,1050,1050,1050,1050,,,,,
72780876,1051,1051,1051,1051,,,,,
72783375,1051,1051,1051,1051,,,,,
72785874,1052,1052,1052,1052,,,,,
72788373,1053,1053,1053,1053,,,,,
72790872,1054,1054,1054,1054,,,,,
72793371,1054,1054,1054,1054,,,,,
72795870,1055,1055,1055,1055,,,,,
72798369,1056,1056,1056,1056,,,,,
72800868,1057,1057,1057,1057,,,,,
72803367,1057,1057,1057,1057,,,,,
72805866,1058,1058,1058,1058,,,,,
72808365,1059,1059,1059,1059,,,,,
72810864,1060,1060,1060,1060,,,,,
72813363,1060,1060,1060,1060,,,,,
72815862,1061,1061,1061,1061,,,,,
72818361,1062,1062,1062,1062,,,,,
72820860,1063,1063,1063,1063,,,,,
72823359,1063,1063,1063,1063,,,,,
72825858,1064,1064,1064,1064,,,,,
72828357,1065,1065,1065,1065,,,,,
72830856,1066,1066,1066,1066,,,,,
72833355,1066,1066,1066,1066,,,,,
72835854,1067,1067,1067,1067,,,,,
72838353,1068,1068,1068,1068,,,,,
72840852,1069,1069,1069,1069,,,,,
72843351,1069,1069,1069,1069,,,,,
72845850,1070,1070,1070,1070,,,,,
72848349,1071,1071,1071,1071,,,,,
72850848,1072,1072,1072,1072,,,,,
72853347,1072,1072,1072,1072,,,,,
72855846,1073,1073,1073,1073,,,,,
72858345,1074,1074,1074,1074,,,,,
72860844,1075,1075,1075,1075,,,,,
72863343,1075,1075,1075,1075,,,,,
72865842,1076,1076,1076,1076,,,,,
72868341,1077,1077,1077,1077,,,,,
72870840,1078,1078,1078,1078,,,,,
72873339,1078,1078,1078,1078,,,,,
72875838,1079,1079,1079,1079,,,,,
72878337,1080,1080,1080,1080,,,,,
72880836,1081,1081,1081,1081,,,,,
72883335,1081,1081,1081,1081,,,,,
72885834,1082,1082,1082,1082,,,,,
72888333,1083,1083,1083,1083,,,,,
72890832,1084,1084,1084,1084,,,,,
72893331,1084,1084,1084,1084,,,,,
72895830,1085,1085,1085,1085,,,,,
72898329,1086,1086,1086,1086,,,,,
72900828,1087,1087,1087,1087,,,,,
72903327,1087,1087,1087,1087,,,,,
72905826,1088,1088,1088,1088,,,,,
72908325,1089,1089,1089,1089,,,,,
72910824,1090,1090,1090,1090,,,,,
72913323,1090,1090,1090,1090,,,,,
72915822,1091,1091,1091,1091,,,,,
72918321,1092,1092,1092,1092,,,,,
72920820,1093,1093,1093,1093,,,,,
72923319,1093,1093,1093,1093,,,,,
72925818,1094,1094,1094,1094,,,,,
72928317,1095,1095,1095,1095,,,,,
72930816,1096,1096,1096,1096,,,,,
72933315,1096,1096,1096,1096,,,,,
72935814,1097,1097,1097,1097,,,,,
72938313,1098,1098,1098,1098,,,,,
72940812,1099,1099,1099,1099,,,,,
72943311,1099,1099,1099,1099,,,,,
72945810,1100,1100,1100,1100,,,,,
72948309,1101,1101,1101,1101,,,,,
72950808,1101,1101,1101,1101,,,,,
72953307,1102,1102,1102,1102,,,,,
72955806,1103,1103,1103,1103,,,,,
72958305,1104,1104,1104,1104,,,,,
72960804,1104,1104,1104,1104,,,,,
72963303,1105,1105,1105,1105,,,,,
72965802,1106,1106,1106,1106,,,,,
72968301,1107,1107,1107,1107,,,,,
72970800,1107,1107,1107,1107,,,,,
72973299,1108,1108,1108,1108,,,,,
72975798,1109,1109,1109,1109,,,,,
72978297,1110,1110,1110,1110,,,,,
72980796,1110,1110,1110,1110,,,,,
72983295,1111,1111,1111,1111,,,,,
72985794,1112,1112,1112,1112,,,,,
72988293,1113,1113,1113,1113,,,,,
72990792,1113,1113,1113,1113,,,,,
72993291,1114,1114,1114,1114,,,,,
72995790,1115,1115,1115,1115,,,,,
72998289,1116,1116,1116,1116,,,,,
73000788,1116,1116,1116,1116,,,,,
73003287,1117,1117,1117,1117,,,,,
73005786,1118,1118,1118,1118,,,,,
73008285,1119,1119,1119,1119,,,,,
73010784,1119,1119,1119,1119,,,,,
73013283,1120,1120,1120,1120,,,,,
73015782,1121,1121,1121,1121,,,,,
73018281,1122,1122,1122,1122,,,,,
73020780,1122,1122,1122,1122,,,,,
73023279,1123,1123,1123,1123,,,,,
73025778,1124,1124,1124,1124,,,,,
73028277,1125,1125,1125,1125,,,,,
73030776,1125,1125,1125,1125,,,,,
73033275,1126,1126,1126,1126,,,,,
73035774,1127,1127,1127,1127,,,,,
73038273,1128,1128,1128,1128,,,,,
73040772,1128,1128,1128,1128,,,,,
73043271,1129,1129,1129,1129,,,,,
73045770,1130,1130,1130,1130,,,,,
73048269,1131,1131,1131,1131,,,,,
73050768,1131,1131,1131,1131,,,,,
73053267,1132,1132,1132,1132,,,,,
73055766,1133,1133,1133,1133,,,,,
73058265,1134,1134,1134,1134,,,,,
73060764,1134,1134,1134,1134,,,,,
73063263,1135,1135,1135,1135,,,,,
73065762,1136,1136,1136,1136,,,,,
73068261,1137,1137,1137,1137,,,,,
73070760,1137,1137,1137,1137,,,,,
73073259,1138,1138,1138,1138,,,,,
73075758,1139,1139,1139,1139,,,,,
73078257,1140,1140,1140,1140,,,,,
73080756,1140,1140,1140,1140,,,,,
73083255,1141,1141,1141,1141,,,,,
73085754,1142,1142,1142,1142,,,,,
73088253,1143,1143,1143,1143,,,,,
73090752,1143,1143,1143,1143,,,,,
73093251,1144,1144,1144,1144,,,,,
73095750,1145,1145,1145,1145,,,,,
73098249,1146,1146,1146,1146,,,,,
73100748,1146,1146,1146,1146,,,,,
73103247,1147,1147,1147,1147,,,,,
73105746,1148,1148,1148,1148,,,,,
73108245,1149,1149,1149,1149,,,,,
73110744,1149,1149,1149,1149,,,,,
73113243,1150,1150,1150,1150,,,,,
73115742,1165,1150,1157,1160,,,,,
73118241,1180,1150,1163,1170,,,,,
73120740,1194,1150,1170,1180,,,,,
73123239,1207,1150,1177,1189,,,,,
73125738,1215,1159,1185,1197,,,,,
73128237,1222,1166,1192,1204,,,,,
73130736,1229,1174,1200,1211,,,,,
73133235,1236,1182,1207,1218,,,,,
73135734,1242,1190,1214,1225,,,,,
73138233,1249,1197,1221,1232,,,,,
73140732,1256,1204,1228,1239,,,,,
73143231,1262,1211,1235,1246,,,,,
73145730,1269,1219,1242,1253,,,,,
73148229,1275,1226,1249,1259,,,,,
73150728,1282,1232,1255,1266,,,,,
73153227,1288,1239,1262,1272,,,,,
73155726,1294,1246,1268,1278,,,,,
73158225,1300,1253,1274,1285,,,,,
73160724,1306,1259,1281,1291,,,,,
73163223,1312,1266,1287,1297,,,,,
73165722,1318,1272,1293,1303,,,,,
73168221,1324,1278,1299,1309,,,,,
73170720,1329,1284,1305,1315,,,,,
73173219,1335,1291,1311,1321,,,,,
73175718,1341,1297,1317,1326,,,,,
73178217,1346,1303,1323,1332,,,,,
73180716,1352,1309,1328,1338,,,,,
73183215,1357,1315,1334,1343,,,,,
73185714,1363,1320,1340,1349,,,,,
73188213,1368,1326,1345,1355,,,,,
73190712,1374,1332,1351,1360,,,,,
73193211,1379,1337,1356,1365,,,,,
73195710,1384,1343,1362,1371,,,,,
73198209,1389,1349,1367,1376,,,,,
73200708,1395,1354,1373,1381,,,,,
73203207,1400,1360,1378,1387,,,,,
73205706,1405,1365,1383,1392,,,,,
73208205,1410,1370,1388,1397,,,,,
73210704,1415,1376,1394,1402,,,,,
73213203,1420,1381,1399,1407,,,,,
73215702,1425,1386,1404,1412,,,,,
73218201,1430,1391,1409,1417,,,,,
73220700,1435,1396,1414,1422,,,,,
73223199,1440,1401,1419,1427,,,,,
73225698,1445,1406,1424,1432,,,,,
73228197,1449,1411,1429,1437,,,,,
73230696,1454,1416,1433,1442,,,,,
73233195,1459,1421,1438,1447,,,,,
73235694,1464,1426,1443,1451,,,,,
73238193,1468,1431,1448,1456,,,,,
73240692,1473,1436,1453,1461,,,,,
73243191,1477,1441,1457,1465,,,,,
73245690,1482,1445,1462,1470,,,,,
73248189,1487,1450,1467,1475,,,,,
73250688,1491,1455,1471,1479,,,,,
73253187,1496,1459,1476,1484,,,,,
73255686,1500,1464,1480,1488,,,,,
73258185,1505,1469,1485,1493,,,,,
73260684,1509,1473,1489,1497,,,,,
73263183,1513,1478,1494,1502,,,,,
73265682,1518,1482,1498,1506,,,,,
73268181,1522,1487,1503,1510,,,,,
73270680,1526,1491,1507,1515,,,,,
73273179,1531,1495,1511,1519,,,,,
73275678,1535,1500,1516,1523,,,,,
73278177,1539,1504,1520,1528,,,,,
73280676,1544,1508,1524,1532,,,,,
73283175,1548,1513,1529,1536,,,,,
73285674,1552,1517,1533,1540,,,,,
73288173,1556,1521,1537,1545,,,,,
73290672,1560,1526,1541,1549,,,,,
73293171,1565,1530,1545,1553,,,,,
73295670,1569,1534,1549,1557,,,,,
73298169,1573,1538,1554,1561,,,,,
73300668,1577,1542,1558,1565,,,,,
73303167,1581,1546,1562,1569,,,,,
73305666,1585,1550,1566,1574,,,,,
73308165,1589,1554,1570,1578,,,,,
73310664,1593,1558,1574,1582,,,,,
73313163,1597,1562,1578,1586,,,,,
73315662,1601,1566,1582,1590,,,,,
73318161,1605,1570,1586,1593,,,,,
73320660,1609,1574,1590,1597,,,,,
73323159,1613,1578,1594,1601,,,,,
73325658,1617,1582,1598,1605,,,,,
73328157,1621,1586,1602,1609,,,,,
73330656,1624,1590,1605,1613,,,,,
73333155,1628,1594,1609,1617,,,,,
73335654,1632,1598,1613,1621,,,,,
73338986,1636,1602,1617,1624,,,,,
73341485,1640,1606,1621,1628,,,,,
73343984,1643,1609,1625,1632,,,,,
73346483,1647,1613,1628,1636,,,,,
73348982,1651,1617,1632,1639,,,,,
73351481,1655,1621,1636,1643,,,,,
73353980,1658,1625,1640,1647,,,,,
73356479,1662,1628,1643,1651,,,,,
73358978,1665,1632,1647,1654,,,,,
73361477,1669,1636,1651,1658,,,,,
73363976,1673,1640,1655,1661,,,,,
73366475,1676,1643,1658,1665,,,,,
73368974,1680,1647,1662,1669,,,,,
73371473,1683,1651,1666,1672,,,,,
73373972,1687,1654,1669,1676,,,,,
73376471,1691,1658,1673,1679,,,,,
73378970,1694,1662,1676,1683,,,,,
73381469,1698,1665,1680,1687,,,,,
73383968,1701,1669,1683,1690,,,,,
73386467,1705,1672,1687,1694,,,,,
73388966,1708,1676,1691,1697,,,,,
73391465,1712,1680,1694,1701,,,,,
73393964,1715,1683,1698,1704,,,,,
73396463,1719,1687,1701,1708,,,,,
73398962,1722,1690,1705,1711,,,,,
73401461,1725,1694,1708,1714,,,,,
73403960,1729,1697,1712,1718,,,,,
73406459,1732,1701,1715,1721,,,,,
73408958,1736,1704,1718,1725,,,,,
73411457,1739,1707,1722,1728,,,,,
73413956,1742,1711,1725,1731,,,,,
73416455,1746,1714,1729,1735,,,,,
73418954,1749,1718,1732,1738,,,,,
73421453,1753,1721,1735,1742,,,,,
73423952,1756,1724,1739,1745,,,,,
73426451,1759,1728,1742,1748,,,,,
73428950,1763,1731,1745,1752,,,,,
73431449,1766,1735,1749,1755,,,,,
73433948,1769,1738,1752,1758,,,,,
73436447,1772,1741,1755,1761,,,,,
73438946,1776,1744,1759,1765,,,,,
73441445,1779,1748,1762,1768,,,,,
73443944,1782,1751,1765,1771,,,,,
73446443,1786,1754,1768,1775,,,,,
73448942,1789,1758,1772,1778,,,,,
73451441,1792,1761,1775,1781,,,,,
73453940,1795,1764,1778,1784,,,,,
73456439,1798,1767,1781,1788,,,,,
73458938,1802,1770,1784,1791,,,,,
73461437,1805,1774,1788,1794,,,,,
73463936,1808,1777,1791,1797,,,,,
73466435,1811,1780,1794,1800,,,,,
73468934,1814,1783,1797,1803,,,,,
73471433,1818,1786,1800,1807,,,,,
73473932,1821,1789,1803,1810,,,,,
73476431,1824,1792,1806,1813,,,,,
73478930,1827,1796,1810,1816,,,,,
73481429,1830,1799,1813,1819,,,,,
73483928,1833,1802,1816,1822,,,,,
73486427,1837,1805,1819,1826,,,,,
73488926,1840,1808,1822,1829,,,,,
73491425,1843,1811,1825,1832,,,,,
73493924,1846,1814,1828,1835,,,,,
73496423,1849,1817,1831,1838,,,,,
73498922,1852,1820,1834,1841,,,,,
73501421,1855,1823,1837,1844,,,,,
73503920,1858,1826,1840,1847,,,,,
73506419,1861,1829,1843,1850,,,,,
73508918,1864,1832,1846,1853,,,,,
73511417,1867,1835,1849,1856,,,,,
73513916,1870,1838,1852,1859,,,,,
73516415,1873,1841,1855,1862,,,,,
73518914,1876,1844,1858,1865,,,,,
73521413,1879,1847,1861,1868,,,,,
73523912,1882,1850,1864,1871,,,,,
73526411,1882,1850,1864,1871,,,,,
73528910,1881,1848,1862,1870,,,,,
73531409,1880,1847,1861,1868,,,,,
73533908,1879,1846,1860,1867,,,,,
73536407,1877,1844,1859,1866,,,,,
73538906,1876,1843,1858,1865,,,,,
73541405,1875,1842,1857,1864,,,,,
73543904,1874,1841,1855,1863,,,,,
73546403,1873,1840,1855,1862,,,,,
73548902,1872,1839,1854,1861,,,,,
73551401,1872,1838,1853,1860,,,,,
73553900,1871,1837,1852,1859,,,,,
73556399,1870,1837,1851,1858,,,,,
73558898,1870,1836,1851,1858,,,,,
73561397,1869,1835,1850,1857,,,,,
73563896,1869,1835,1850,1857,,,,,
73566395,1868,1835,1849,1857,,,,,
73568894,1868,1834,1849,1856,,,,,
73571393,1868,1834,1849,1856,,,,,
73573892,1868,1834,1849,1856,,,,,
73576391,1868,1834,1849,1856,,,,,
73578890,1868,1834,1849,1856,,,,,
73581389,1869,1834,1849,1857,,,,,
73583888,1869,1835,1850,1857,,,,,
73586387,1869,1835,1850,1857,,,,,
73588886,1870,1835,1850,1858,,,,,
73591385,1870,1836,1851,1858,,,,,
73593884,1871,1836,1852,1859,,,,,
73596383,1872,1837,1852,1860,,,,,
73598882,1872,1838,1853,1860,,,,,
73601381,1873,1838,1854,1861,,,,,
73603880,1874,1839,1854,1862,,,,,
73606379,1875,1840,1855,1863,,,,,
73608878,1875,1841,1856,1863,,,,,
73611377,1876,1842,1857,1864,,,,,
73613876,1877,1843,1858,1865,,,,,
73616375,1877,1844,1859,1866,,,,,
73618874,1877,1846,1860,1867,,,,,
73621373,1878,1847,1861,1867,,,,,
73623872,1878,1849,1862,1868,,,,,
73626371,1878,1850,1862,1868,,,,,
73628870,1878,1851,1863,1869,,,,,
73631369,1878,1852,1864,1869,,,,,
73633868,1877,1853,1864,1869,,,,,
73636367,1877,1854,1864,1869,,,,,
73638866,1877,1854,1864,1869,,,,,
73641365,1876,1854,1864,1869,,,,,
73643864,1875,1854,1864,1868,,,,,
73646363,1875,1854,1863,1868,,,,,
73648862,1873,1853,1862,1867,,,,,
73651361,1872,1852,1861,1866,,,,,
73653860,1871,1851,1860,1865,,,,,
73656359,1869,1850,1859,1863,,,,,
73658858,1868,1849,1858,1862,,,,,
73661357,1866,1847,1856,1860,,,,,
73663856,1864,1846,1854,1858,,,,,
73666355,1862,1844,1852,1856,,,,,
73668854,1860,1842,1850,1854,,,,,
73671353,1857,1840,1848,1852,,,,,
73673852,1855,1838,1846,1850,,,,,
73676351,1852,1835,1843,1847,,,,,
73678850,1849,1833,1841,1845,,,,,
73681349,1847,1831,1838,1842,,,,,
73683848,1844,1828,1836,1839,,,,,
73686347,1841,1826,1833,1837,,,,,
73688846,1838,1823,1830,1834,,,,,
73691345,1835,1820,1827,1831,,,,,
73693844,1832,1818,1824,1828,,,,,
73696343,1829,1815,1821,1825,,,,,
73698842,1825,1812,1818,1822,,,,,
73701341,1822,1809,1815,1819,,,,,
73703840,1819,1806,1812,1815,,,,,
73706339,1816,1803,1809,1812,,,,,
73708838,1812,1800,1806,1809,,,,,
73711337,1809,1797,1803,1806,,,,,
73713836,1805,1794,1800,1802,,,,,
73716335,1802,1790,1796,1799,,,,,
73718834,1798,1787,1793,1796,,,,,
73721333,1795,1784,1790,1792,,,,,
73723832,1792,1781,1787,1789,,,,,
73726331,1788,1778,1783,1786,,,,,
73728830,1785,1775,1780,1782,,,,,
73731329,1781,1772,1777,1779,,,,,
73733828,1778,1769,1774,1776,,,,,
73736327,1774,1765,1770,1772,,,,,
73738826,1771,1762,1767,1769,,,,,
73741325,1767,1759,1764,1765,,,,,
73743824,1764,1756,1760,1762,,,,,
73746323,1761,1752,1757,1759,,,,,
73748822,1758,1749,1754,1756,,,,,
73751321,1754,1745,1750,1752,,,,,
73753820,1751,1742,1747,1749,,,,,
73756319,1747,1738,1743,1745,,,,,
73758818,1743,1735,1740,1742,,,,,
73761317,1740,1732,1737,1738,,,,,
73763816,1736,1729,1733,1735,,,,,
73766315,1732,1726,1730,1731,,,,,
73768814,1729,1723,1726,1728,,,,,
73771313,1725,1720,1723,1724,,,,,
73773812,1721,1717,1720,1721,,,,,
73776311,1718,1714,1717,1718,,,,,
73778810,1714,1711,1713,1715,,,,,
73781309,1711,1708,1710,1711,,,,,
73783808,1707,1705,1707,1708,,,,,
73786307,1704,1702,1704,1705,,,,,
73788806,1701,1699,1701,1702,,,,,
73791305,1698,1696,1698,1699,,,,,
73793804,1694,1694,1695,1696,,,,,
73796303,1691,1691,1692,1693,,,,,
73798802,1688,1688,1689,1690,,,,,
73801301,1685,1685,1686,1688,,,,,
73803800,1682,1683,1683,1685,,,,,
73806299,1679,1680,1680,1682,,,,,
73808798,1676,1678,1677,1680,,,,,
