timestamp,TimeUS,C1,C2,C3,C4,C5,C6,C7,C8,C9,C10,C11,C12,C13,C14
1709457752.90003991,45928288,1000,1000,1000,1000,0,0,0,0,0,0,0,0,0,0
1709457753.00000000,46028248,1000,1000,1000,1000,0,0,0,0,0,0,0,0,0,0
1709457753.09995985,46128208,1000,1000,1000,1000,0,0,0,0,0,0,0,0,0,0
1709457753.19991994,46228168,1000,1000,1000,1000,0,0,0,0,0,0,0,0,0,0
1709457753.30071282,46328961,1000,1000,1000,1000,0,0,0,0,0,0,0,0,0,0
1709457753.40067291,46428921,1000,1000,1000,1000,0,0,0,0,0,0,0,0,0,0
1709457753.50063300,46528881,1000,1000,1000,1000,0,0,0,0,0,0,0,0,0,0
1709457753.60059285,46628841,1000,1000,1000,1000,0,0,0,0,0,0,0,0,0,0
1709457753.70055294,46728801,1000,1000,1000,1000,0,0,0,0,0,0,0,0,0,0
1709457753.80051303,46828761,1000,1000,1000,1000,0,0,0,0,0,0,0,0,0,0
1709457753.90047288,46928721,1000,1000,1000,1000,0,0,0,0,0,0,0,0,0,0
1709457754.00043297,47028681,1000,1000,1000,1000,0,0,0,0,0,0,0,0,0,0
1709457754.10039282,47128641,1000,1000,1000,1000,0,0,0,0,0,0,0,0,0,0
1709457754.20035291,47228601,1000,1000,1000,1000,0,0,0,0,0,0,0,0,0,0
1709457754.30031300,47328561,1000,1000,1000,1000,0,0,0,0,0,0,0,0,0,0
1709457754.40027285,47428521,1000,1000,1000,1000,0,0,0,0,0,0,0,0,0,0
1709457754.50023293,47528481,1000,1000,1000,1000,0,0,0,0,0,0,0,0,0,0
1709457754.60019302,47628441,1000,1000,1000,1000,0,0,0,0,0,0,0,0,0,0
1709457754.70015287,47728401,1000,1000,1000,1000,0,0,0,0,0,0,0,0,0,0
1709457754.80011296,47828361,1000,1000,1000,1000,0,0,0,0,0,0,0,0,0,0
1709457754.90007281,47928321,1012,1012,1012,1012,0,0,0,0,0,0,0,0,0,0
1709457755.00003290,48028281,1042,1042,1042,1042,0,0,0,0,0,0,0,0,0,0
1709457755.09999299,48128241,1072,1072,1072,1072,0,0,0,0,0,0,0,0,0,0
1709457755.19995284,48228201,1102,1102,1102,1102,0,0,0,0,0,0,0,0,0,0
1709457755.29991293,48328161,1132,1132,1132,1132,0,0,0,0,0,0,0,0,0,0
1709457755.40070581,48428954,1268,1263,1263,1268,0,0,0,0,0,0,0,0,0,0
1709457755.50066590,48528914,1481,1476,1477,1481,0,0,0,0,0,0,0,0,0,0
1709457755.60062599,48628874,1644,1641,1640,1645,0,0,0,0,0,0,0,0,0,0
1709457755.70058584,48728834,1782,1778,1779,1783,0,0,0,0,0,0,0,0,0,0
1709457755.80054593,48828794,1904,1900,1900,1904,0,0,0,0,0,0,0,0,0,0
1709457755.90050602,48928754,1881,1879,1879,1881,0,0,0,0,0,0,0,0,0,0
1709457756.00046587,49028714,1761,1760,1760,1761,0,0,0,0,0,0,0,0,0,0
1709457756.10042596,49128674,1665,1666,1666,1665,0,0,0,0,0,0,0,0,0,0
1709457756.20038605,49228634,1635,1636,1637,1635,0,0,0,0,0,0,0,0,0,0
1709457756.30034590,49328594,1639,1641,1641,1639,0,0,0,0,0,0,0,0,0,0
1709457756.40030599,49428554,1650,1643,1642,1651,0,0,0,0,0,0,0,0,0,0
1709457756.50026584,49528514,1633,1634,1626,1641,0,0,0,0,0,0,0,0,0,0
1709457756.60022593,49628474,1624,1626,1618,1632,0,0,0,0,0,0,0,0,0,0
1709457756.70018601,49728434,1617,1617,1614,1620,0,0,0,0,0,0,0,0,0,0
1709457756.80014586,49828394,1614,1614,1615,1613,0,0,0,0,0,0,0,0,0,0
1709457756.90010595,49928354,1616,1616,1620,1612,0,0,0,0,0,0,0,0,0,0
1709457757.00006604,50028314,1620,1619,1624,1615,0,0,0,0,0,0,0,0,0,0
1709457757.10002589,50128274,1591,1591,1607,1575,0,0,0,0,0,0,0,0,0,0
1709457757.19998598,50228234,1577,1578,1591,1565,0,0,0,0,0,0,0,0,0,0
1709457757.29994583,50328194,1565,1565,1568,1562,0,0,0,0,0,0,0,0,0,0
1709457757.39990592,50428154,1555,1555,1550,1560,0,0,0,0,0,0,0,0,0,0
1709457757.50069904,50528947,1546,1546,1536,1556,0,0,0,0,0,0,0,0,0,0
1709457757.60065889,50628907,1540,1539,1528,1551,0,0,0,0,0,0,0,0,0,0
1709457757.70061898,50728867,1535,1534,1526,1543,0,0,0,0,0,0,0,0,0,0
1709457757.80057883,50828827,1530,1529,1525,1533,0,0,0,0,0,0,0,0,0,0
1709457757.90053892,50928787,1526,1525,1525,1525,0,0,0,0,0,0,0,0,0,0
1709457758.00049901,51028747,1527,1527,1529,1524,0,0,0,0,0,0,0,0,0,0
1709457758.10045886,51128707,1529,1529,1532,1526,0,0,0,0,0,0,0,0,0,0
1709457758.20041895,51228667,1532,1532,1535,1530,0,0,0,0,0,0,0,0,0,0
1709457758.30037904,51328627,1535,1535,1537,1533,0,0,0,0,0,0,0,0,0,0
1709457758.40033889,51428587,1539,1539,1541,1537,0,0,0,0,0,0,0,0,0,0
1709457758.50029898,51528547,1543,1543,1544,1542,0,0,0,0,0,0,0,0,0,0
1709457758.60025883,51628507,1545,1545,1546,1545,0,0,0,0,0,0,0,0,0,0
1709457758.70021892,51728467,1549,1549,1549,1549,0,0,0,0,0,0,0,0,0,0
1709457758.80017900,51828427,1551,1551,1550,1552,0,0,0,0,0,0,0,0,0,0
1709457758.90013885,51928387,1553,1554,1553,1555,0,0,0,0,0,0,0,0,0,0
1709457759.00009894,52028347,1554,1554,1557,1560,0,0,0,0,0,0,0,0,0,0
1709457759.10005903,52128307,1556,1556,1561,1562,0,0,0,0,0,0,0,0,0,0
1709457759.20001888,52228267,1558,1558,1563,1564,0,0,0,0,0,0,0,0,0,0
1709457759.29997897,52328227,1560,1560,1565,1565,0,0,0,0,0,0,0,0,0,0
1709457759.39993882,52428187,1562,1562,1566,1565,0,0,0,0,0,0,0,0,0,0
1709457759.50073195,52528980,1564,1565,1567,1565,0,0,0,0,0,0,0,0,0,0
1709457759.60069203,52628940,1567,1568,1567,1567,0,0,0,0,0,0,0,0,0,0
1709457759.70065188,52728900,1569,1569,1567,1568,0,0,0,0,0,0,0,0,0,0
1709457759.80061197,52828860,1570,1570,1568,1568,0,0,0,0,0,0,0,0,0,0
1709457759.90057182,52928820,1572,1572,1568,1569,0,0,0,0,0,0,0,0,0,0
1709457760.00053191,53028780,1572,1572,1568,1569,0,0,0,0,0,0,0,0,0,0
1709457760.10049200,53128740,1573,1573,1569,1570,0,0,0,0,0,0,0,0,0,0
1709457760.20045185,53228700,1574,1573,1571,1571,0,0,0,0,0,0,0,0,0,0
1709457760.30041194,53328660,1574,1574,1572,1572,0,0,0,0,0,0,0,0,0,0
1709457760.40037203,53428620,1575,1575,1574,1573,0,0,0,0,0,0,0,0,0,0
1709457760.50033188,53528580,1574,1574,1575,1573,0,0,0,0,0,0,0,0,0,0
1709457760.60029197,53628540,1574,1574,1575,1573,0,0,0,0,0,0,0,0,0,0
1709457760.70025182,53728500,1574,1574,1575,1574,0,0,0,0,0,0,0,0,0,0
1709457760.80021191,53828460,1575,1575,1575,1575,0,0,0,0,0,0,0,0,0,0
1709457760.90017200,53928420,1575,1575,1575,1576,0,0,0,0,0,0,0,0,0,0
1709457761.00013185,54028380,1574,1574,1575,1575,0,0,0,0,0,0,0,0,0,0
1709457761.10009193,54128340,1575,1575,1576,1576,0,0,0,0,0,0,0,0,0,0
1709457761.20005202,54228300,1575,1576,1576,1576,0,0,0,0,0,0,0,0,0,0
1709457761.30001187,54328260,1577,1577,1578,1577,0,0,0,0,0,0,0,0,0,0
1709457761.39997196,54428220,1577,1577,1577,1577,0,0,0,0,0,0,0,0,0,0
1709457761.49993181,54528180,1576,1576,1576,1577,0,0,0,0,0,0,0,0,0,0
1709457761.60072494,54628973,1577,1577,1577,1577,0,0,0,0,0,0,0,0,0,0
1709457761.70068502,54728933,1577,1577,1576,1576,0,0,0,0,0,0,0,0,0,0
1709457761.80064487,54828893,1578,1577,1577,1577,0,0,0,0,0,0,0,0,0,0
1709457761.90060496,54928853,1579,1579,1579,1579,0,0,0,0,0,0,0,0,0,0
1709457762.00056481,55028813,1579,1579,1579,1579,0,0,0,0,0,0,0,0,0,0
1709457762.10052490,55128773,1579,1579,1579,1579,0,0,0,0,0,0,0,0,0,0
1709457762.20048499,55228733,1579,1580,1579,1579,0,0,0,0,0,0,0,0,0,0
1709457762.30044484,55328693,1580,1579,1579,1580,0,0,0,0,0,0,0,0,0,0
1709457762.40040493,55428653,1580,1579,1579,1579,0,0,0,0,0,0,0,0,0,0
1709457762.50036502,55528613,1578,1578,1579,1578,0,0,0,0,0,0,0,0,0,0
1709457762.60032487,55628573,1579,1579,1579,1579,0,0,0,0,0,0,0,0,0,0
1709457762.70028496,55728533,1579,1579,1579,1579,0,0,0,0,0,0,0,0,0,0
1709457762.80024505,55828493,1579,1579,1579,1579,0,0,0,0,0,0,0,0,0,0
1709457762.90020490,55928453,1579,1579,1579,1579,0,0,0,0,0,0,0,0,0,0
1709457763.00016499,56028413,1581,1580,1581,1581,0,0,0,0,0,0,0,0,0,0
1709457763.10012484,56128373,1580,1580,1581,1580,0,0,0,0,0,0,0,0,0,0
1709457763.20008492,56228333,1580,1580,1580,1579,0,0,0,0,0,0,0,0,0,0
1709457763.30004501,56328293,1579,1579,1579,1580,0,0,0,0,0,0,0,0,0,0
1709457763.40000486,56428253,1579,1579,1579,1580,0,0,0,0,0,0,0,0,0,0
1709457763.49996495,56528213,1579,1579,1579,1579,0,0,0,0,0,0,0,0,0,0
1709457763.59992504,56628173,1580,1579,1580,1580,0,0,0,0,0,0,0,0,0,0
1709457763.70071793,56728966,1580,1580,1580,1580,0,0,0,0,0,0,0,0,0,0
1709457763.80067801,56828926,1579,1580,1580,1580,0,0,0,0,0,0,0,0,0,0
1709457763.90063787,56928886,1578,1579,1579,1579,0,0,0,0,0,0,0,0,0,0
1709457764.00059795,57028846,1580,1580,1580,1580,0,0,0,0,0,0,0,0,0,0
1709457764.10055804,57128806,1580,1580,1580,1580,0,0,0,0,0,0,0,0,0,0
1709457764.20051789,57228766,1580,1580,1580,1580,0,0,0,0,0,0,0,0,0,0
1709457764.30047798,57328726,1581,1580,1581,1580,0,0,0,0,0,0,0,0,0,0
1709457764.40043783,57428686,1581,1581,1581,1581,0,0,0,0,0,0,0,0,0,0
1709457764.50039792,57528646,1580,1581,1580,1580,0,0,0,0,0,0,0,0,0,0
1709457764.60035801,57628606,1580,1580,1580,1581,0,0,0,0,0,0,0,0,0,0
1709457764.70031786,57728566,1581,1581,1581,1581,0,0,0,0,0,0,0,0,0,0
1709457764.80027795,57828526,1580,1581,1581,1580,0,0,0,0,0,0,0,0,0,0
1709457764.90023804,57928486,1580,1580,1580,1580,0,0,0,0,0,0,0,0,0,0
1709457765.00019789,58028446,1581,1580,1580,1580,0,0,0,0,0,0,0,0,0,0
1709457765.10015798,58128406,1581,1580,1580,1580,0,0,0,0,0,0,0,0,0,0
1709457765.20011783,58228366,1580,1580,1586,1573,0,0,0,0,0,0,0,0,0,0
1709457765.30007792,58328326,1579,1581,1585,1572,0,0,0,0,0,0,0,0,0,0
1709457765.40003800,58428286,1578,1580,1577,1573,0,0,0,0,0,0,0,0,0,0
1709457765.49999785,58528246,1576,1579,1568,1571,0,0,0,0,0,0,0,0,0,0
1709457765.59995794,58628206,1575,1577,1560,1567,0,0,0,0,0,0,0,0,0,0
1709457765.69991803,58728166,1576,1577,1556,1563,0,0,0,0,0,0,0,0,0,0
1709457765.80071092,58828959,1577,1576,1554,1558,0,0,0,0,0,0,0,0,0,0
1709457765.90067101,58928919,1578,1576,1555,1555,0,0,0,0,0,0,0,0,0,0
1709457766.00063086,59028879,1578,1575,1554,1553,0,0,0,0,0,0,0,0,0,0
1709457766.10059094,59128839,1578,1577,1556,1554,0,0,0,0,0,0,0,0,0,0
1709457766.20055103,59228799,1576,1576,1555,1553,0,0,0,0,0,0,0,0,0,0
1709457766.30051088,59328759,1576,1577,1556,1554,0,0,0,0,0,0,0,0,0,0
1709457766.40047097,59428719,1575,1577,1555,1554,0,0,0,0,0,0,0,0,0,0
1709457766.50043082,59528679,1574,1576,1553,1554,0,0,0,0,0,0,0,0,0,0
1709457766.60039091,59628639,1575,1577,1553,1553,0,0,0,0,0,0,0,0,0,0
1709457766.70035100,59728599,1576,1578,1551,1551,0,0,0,0,0,0,0,0,0,0
1709457766.80031085,59828559,1579,1580,1550,1550,0,0,0,0,0,0,0,0,0,0
1709457766.90027094,59928519,1580,1581,1546,1545,0,0,0,0,0,0,0,0,0,0
1709457767.00023103,60028479,1583,1584,1544,1543,0,0,0,0,0,0,0,0,0,0
1709457767.10019088,60128439,1586,1587,1540,1541,0,0,0,0,0,0,0,0,0,0
1709457767.20015097,60228399,1589,1590,1537,1537,0,0,0,0,0,0,0,0,0,0
1709457767.30011082,60328359,1592,1593,1536,1536,0,0,0,0,0,0,0,0,0,0
1709457767.40007091,60428319,1594,1594,1534,1534,0,0,0,0,0,0,0,0,0,0
1709457767.50003099,60528279,1596,1595,1535,1536,0,0,0,0,0,0,0,0,0,0
1709457767.59999084,60628239,1595,1595,1535,1537,0,0,0,0,0,0,0,0,0,0
1709457767.69995093,60728199,1593,1593,1538,1540,0,0,0,0,0,0,0,0,0,0
1709457767.79991102,60828159,1590,1589,1543,1546,0,0,0,0,0,0,0,0,0,0
1709457767.90070391,60928952,1585,1582,1551,1553,0,0,0,0,0,0,0,0,0,0
1709457768.00066400,61028912,1577,1574,1560,1563,0,0,0,0,0,0,0,0,0,0
1709457768.10062385,61128872,1567,1563,1570,1573,0,0,0,0,0,0,0,0,0,0
1709457768.20058393,61228832,1556,1553,1584,1586,0,0,0,0,0,0,0,0,0,0
1709457768.30054402,61328792,1544,1542,1595,1595,0,0,0,0,0,0,0,0,0,0
1709457768.40050387,61428752,1535,1534,1604,1604,0,0,0,0,0,0,0,0,0,0
1709457768.50046396,61528712,1530,1530,1612,1610,0,0,0,0,0,0,0,0,0,0
1709457768.60042381,61628672,1528,1529,1615,1614,0,0,0,0,0,0,0,0,0,0
1709457768.70038390,61728632,1530,1532,1614,1613,0,0,0,0,0,0,0,0,0,0
1709457768.80034399,61828592,1535,1537,1610,1610,0,0,0,0,0,0,0,0,0,0
1709457768.90030384,61928552,1542,1544,1606,1605,0,0,0,0,0,0,0,0,0,0
1709457769.00026393,62028512,1550,1552,1598,1598,0,0,0,0,0,0,0,0,0,0
1709457769.10022402,62128472,1560,1560,1590,1591,0,0,0,0,0,0,0,0,0,0
1709457769.20018387,62228432,1568,1568,1583,1582,0,0,0,0,0,0,0,0,0,0
1709457769.30014396,62328392,1575,1574,1576,1575,0,0,0,0,0,0,0,0,0,0
1709457769.40010405,62428352,1579,1578,1569,1569,0,0,0,0,0,0,0,0,0,0
1709457769.50006390,62528312,1584,1582,1566,1566,0,0,0,0,0,0,0,0,0,0
1709457769.60002398,62628272,1587,1585,1566,1566,0,0,0,0,0,0,0,0,0,0
1709457769.69998384,62728232,1587,1586,1566,1565,0,0,0,0,0,0,0,0,0,0
1709457769.79994392,62828192,1586,1585,1567,1567,0,0,0,0,0,0,0,0,0,0
1709457769.90073705,62928985,1584,1584,1570,1570,0,0,0,0,0,0,0,0,0,0
1709457770.00069690,63028945,1582,1581,1573,1572,0,0,0,0,0,0,0,0,0,0
1709457770.10065699,63128905,1578,1578,1575,1575,0,0,0,0,0,0,0,0,0,0
1709457770.20061684,63228865,1576,1576,1578,1578,0,0,0,0,0,0,0,0,0,0
1709457770.30057693,63328825,1575,1575,1581,1581,0,0,0,0,0,0,0,0,0,0
1709457770.40053701,63428785,1573,1573,1583,1583,0,0,0,0,0,0,0,0,0,0
1709457770.50049686,63528745,1572,1573,1584,1583,0,0,0,0,0,0,0,0,0,0
1709457770.60045695,63628705,1571,1572,1583,1583,0,0,0,0,0,0,0,0,0,0
1709457770.70041704,63728665,1574,1574,1584,1584,0,0,0,0,0,0,0,0,0,0
1709457770.80037689,63828625,1574,1575,1583,1583,0,0,0,0,0,0,0,0,0,0
1709457770.90033698,63928585,1575,1576,1581,1582,0,0,0,0,0,0,0,0,0,0
1709457771.00029683,64028545,1577,1577,1581,1581,0,0,0,0,0,0,0,0,0,0
1709457771.10025692,64128505,1579,1579,1580,1580,0,0,0,0,0,0,0,0,0,0
1709457771.20021701,64228465,1579,1579,1577,1578,0,0,0,0,0,0,0,0,0,0
1709457771.30017686,64328425,1580,1580,1577,1577,0,0,0,0,0,0,0,0,0,0
1709457771.40013695,64428385,1582,1582,1578,1578,0,0,0,0,0,0,0,0,0,0
1709457771.50009704,64528345,1581,1581,1577,1576,0,0,0,0,0,0,0,0,0,0
1709457771.60005689,64628305,1581,1581,1576,1577,0,0,0,0,0,0,0,0,0,0
1709457771.70001698,64728265,1581,1581,1577,1577,0,0,0,0,0,0,0,0,0,0
1709457771.79997683,64828225,1582,1581,1578,1578,0,0,0,0,0,0,0,0,0,0
1709457771.89993691,64928185,1581,1580,1579,1579,0,0,0,0,0,0,0,0,0,0
1709457772.00073004,65028978,1581,1581,1580,1580,0,0,0,0,0,0,0,0,0,0
1709457772.10068989,65128938,1581,1581,1581,1581,0,0,0,0,0,0,0,0,0,0
1709457772.20064998,65228898,1580,1581,1582,1582,0,0,0,0,0,0,0,0,0,0
1709457772.30060983,65328858,1579,1580,1581,1581,0,0,0,0,0,0,0,0,0,0
1709457772.40056992,65428818,1580,1580,1582,1581,0,0,0,0,0,0,0,0,0,0
1709457772.50053000,65528778,1581,1581,1582,1582,0,0,0,0,0,0,0,0,0,0
1709457772.60048985,65628738,1580,1579,1581,1581,0,0,0,0,0,0,0,0,0,0
1709457772.70044994,65728698,1580,1579,1580,1580,0,0,0,0,0,0,0,0,0,0
1709457772.80041003,65828658,1581,1581,1581,1581,0,0,0,0,0,0,0,0,0,0
1709457772.90036988,65928618,1581,1581,1580,1580,0,0,0,0,0,0,0,0,0,0
1709457773.00032997,66028578,1581,1581,1580,1580,0,0,0,0,0,0,0,0,0,0
1709457773.10028982,66128538,1581,1581,1580,1580,0,0,0,0,0,0,0,0,0,0
1709457773.20024991,66228498,1580,1581,1583,1575,0,0,0,0,0,0,0,0,0,0
1709457773.30021000,66328458,1580,1583,1585,1570,0,0,0,0,0,0,0,0,0,0
1709457773.40016985,66428418,1579,1582,1577,1569,0,0,0,0,0,0,0,0,0,0
1709457773.50012994,66528378,1579,1582,1569,1569,0,0,0,0,0,0,0,0,0,0
1709457773.60009003,66628338,1578,1580,1560,1566,0,0,0,0,0,0,0,0,0,0
1709457773.70004988,66728298,1578,1578,1554,1561,0,0,0,0,0,0,0,0,0,0
1709457773.80000997,66828258,1578,1578,1551,1556,0,0,0,0,0,0,0,0,0,0
1709457773.89996982,66928218,1579,1578,1551,1553,0,0,0,0,0,0,0,0,0,0
1709457773.99992990,67028178,1578,1578,1551,1550,0,0,0,0,0,0,0,0,0,0
1709457774.10072303,67128971,1578,1576,1551,1549,0,0,0,0,0,0,0,0,0,0
1709457774.20068288,67228931,1576,1577,1551,1550,0,0,0,0,0,0,0,0,0,0
1709457774.30064297,67328891,1575,1576,1551,1549,0,0,0,0,0,0,0,0,0,0
1709457774.40060282,67428851,1573,1575,1549,1549,0,0,0,0,0,0,0,0,0,0
1709457774.50056291,67528811,1574,1575,1549,1549,0,0,0,0,0,0,0,0,0,0
1709457774.60052299,67628771,1574,1576,1547,1547,0,0,0,0,0,0,0,0,0,0
1709457774.70048285,67728731,1575,1576,1545,1545,0,0,0,0,0,0,0,0,0,0
1709457774.80044293,67828691,1576,1579,1542,1543,0,0,0,0,0,0,0,0,0,0
1709457774.90040302,67928651,1579,1580,1541,1540,0,0,0,0,0,0,0,0,0,0
1709457775.00036287,68028611,1583,1584,1539,1540,0,0,0,0,0,0,0,0,0,0
1709457775.10032296,68128571,1586,1585,1537,1537,0,0,0,0,0,0,0,0,0,0
1709457775.20028281,68228531,1587,1589,1534,1537,0,0,0,0,0,0,0,0,0,0
1709457775.30024290,68328491,1590,1590,1533,1536,0,0,0,0,0,0,0,0,0,0
1709457775.40020299,68428451,1591,1591,1533,1537,0,0,0,0,0,0,0,0,0,0
1709457775.50016284,68528411,1590,1589,1537,1539,0,0,0,0,0,0,0,0,0,0
1709457775.60012293,68628371,1587,1584,1542,1546,0,0,0,0,0,0,0,0,0,0
1709457775.70008302,68728331,1582,1578,1553,1554,0,0,0,0,0,0,0,0,0,0
1709457775.80004287,68828291,1574,1569,1563,1565,0,0,0,0,0,0,0,0,0,0
1709457775.90000296,68928251,1564,1559,1576,1576,0,0,0,0,0,0,0,0,0,0
1709457775.99996305,69028211,1552,1550,1587,1587,0,0,0,0,0,0,0,0,0,0
1709457776.09992290,69128171,1543,1543,1597,1595,0,0,0,0,0,0,0,0,0,0
1709457776.20071602,69228964,1538,1540,1604,1603,0,0,0,0,0,0,0,0,0,0
1709457776.30067587,69328924,1536,1538,1607,1605,0,0,0,0,0,0,0,0,0,0
1709457776.40063596,69428884,1538,1540,1607,1607,0,0,0,0,0,0,0,0,0,0
1709457776.50059605,69528844,1541,1544,1605,1604,0,0,0,0,0,0,0,0,0,0
1709457776.60055590,69628804,1533,1541,1602,1603,0,0,0,0,0,0,0,0,0,0
1709457776.70051599,69728764,1549,1546,1597,1597,0,0,0,0,0,0,0,0,0,0
1709457776.80047584,69828724,1563,1553,1591,1592,0,0,0,0,0,0,0,0,0,0
1709457776.90043592,69928684,1571,1563,1585,1584,0,0,0,0,0,0,0,0,0,0
1709457777.00039601,70028644,1578,1571,1580,1579,0,0,0,0,0,0,0,0,0,0
1709457777.10035586,70128604,1581,1579,1575,1572,0,0,0,0,0,0,0,0,0,0
1709457777.20031595,70228564,1584,1584,1571,1571,0,0,0,0,0,0,0,0,0,0
1709457777.30027604,70328524,1584,1587,1568,1568,0,0,0,0,0,0,0,0,0,0
1709457777.40023589,70428484,1584,1586,1566,1567,0,0,0,0,0,0,0,0,0,0
1709457777.50019598,70528444,1584,1587,1568,1568,0,0,0,0,0,0,0,0,0,0
1709457777.60015583,70628404,1584,1583,1569,1570,0,0,0,0,0,0,0,0,0,0
1709457777.70011592,70728364,1582,1581,1572,1571,0,0,0,0,0,0,0,0,0,0
1709457777.80007601,70828324,1581,1578,1575,1576,0,0,0,0,0,0,0,0,0,0
1709457777.90003586,70928284,1577,1577,1579,1578,0,0,0,0,0,0,0,0,0,0
1709457777.99999595,71028244,1575,1574,1581,1581,0,0,0,0,0,0,0,0,0,0
1709457778.09995604,71128204,1572,1573,1583,1583,0,0,0,0,0,0,0,0,0,0
1709457778.19991589,71228164,1571,1572,1585,1585,0,0,0,0,0,0,0,0,0,0
1709457778.30070901,71328957,1570,1573,1586,1585,0,0,0,0,0,0,0,0,0,0
1709457778.40066886,71428917,1572,1572,1586,1586,0,0,0,0,0,0,0,0,0,0
1709457778.50062895,71528877,1572,1574,1586,1585,0,0,0,0,0,0,0,0,0,0
1709457778.60058904,71628837,1576,1574,1585,1585,0,0,0,0,0,0,0,0,0,0
1709457778.70054889,71728797,1576,1577,1584,1583,0,0,0,0,0,0,0,0,0,0
1709457778.80050898,71828757,1579,1579,1583,1584,0,0,0,0,0,0,0,0,0,0
1709457778.90046883,71928717,1580,1581,1582,1581,0,0,0,0,0,0,0,0,0,0
1709457779.00042892,72028677,1582,1581,1581,1581,0,0,0,0,0,0,0,0,0,0
1709457779.10038900,72128637,1583,1583,1580,1579,0,0,0,0,0,0,0,0,0,0
1709457779.20034885,72228597,1584,1583,1580,1580,0,0,0,0,0,0,0,0,0,0
1709457779.30030894,72328557,1584,1585,1580,1579,0,0,0,0,0,0,0,0,0,0
1709457779.40026903,72428517,1584,1584,1579,1580,0,0,0,0,0,0,0,0,0,0
1709457779.50022888,72528477,1584,1585,1580,1579,0,0,0,0,0,0,0,0,0,0
1709457779.60018897,72628437,1584,1583,1580,1581,0,0,0,0,0,0,0,0,0,0
1709457779.70014882,72728397,1583,1583,1581,1581,0,0,0,0,0,0,0,0,0,0
1709457779.80010891,72828357,1582,1582,1581,1581,0,0,0,0,0,0,0,0,0,0
1709457779.90006900,72928317,1582,1582,1582,1581,0,0,0,0,0,0,0,0,0,0
1709457780.00002885,73028277,1582,1582,1583,1583,0,0,0,0,0,0,0,0,0,0
1709457780.09998894,73128237,1582,1582,1583,1583,0,0,0,0,0,0,0,0,0,0
1709457780.19994903,73228197,1582,1582,1583,1584,0,0,0,0,0,0,0,0,0,0
1709457780.29990888,73328157,1581,1582,1583,1583,0,0,0,0,0,0,0,0,0,0
1709457780.40070200,73428950,1582,1581,1583,1583,0,0,0,0,0,0,0,0,0,0
1709457780.50066185,73528910,1582,1582,1583,1583,0,0,0,0,0,0,0,0,0,0
1709457780.60062194,73628870,1583,1583,1583,1583,0,0,0,0,0,0,0,0,0,0
1709457780.70058203,73728830,1583,1584,1583,1583,0,0,0,0,0,0,0,0,0,0
1709457780.80054188,73828790,1583,1583,1582,1582,0,0,0,0,0,0,0,0,0,0
1709457780.90050197,73928750,1583,1584,1582,1582,0,0,0,0,0,0,0,0,0,0
1709457781.00046182,74028710,1584,1583,1582,1582,0,0,0,0,0,0,0,0,0,0
1709457781.10042191,74128670,1583,1584,1582,1582,0,0,0,0,0,0,0,0,0,0
1709457781.20038199,74228630,1584,1583,1582,1581,0,0,0,0,0,0,0,0,0,0
1709457781.30034184,74328590,1585,1584,1586,1579,0,0,0,0,0,0,0,0,0,0
1709457781.40030193,74428550,1584,1582,1589,1575,0,0,0,0,0,0,0,0,0,0
1709457781.50026202,74528510,1581,1582,1584,1576,0,0,0,0,0,0,0,0,0,0
1709457781.60022187,74628470,1577,1580,1575,1576,0,0,0,0,0,0,0,0,0,0
1709457781.70018196,74728430,1576,1579,1570,1575,0,0,0,0,0,0,0,0,0,0
1709457781.80014181,74828390,1575,1576,1565,1572,0,0,0,0,0,0,0,0,0,0
1709457781.90010190,74928350,1574,1575,1564,1569,0,0,0,0,0,0,0,0,0,0
1709457782.00006199,75028310,1574,1573,1563,1566,0,0,0,0,0,0,0,0,0,0
1709457782.10002184,75128270,1574,1572,1565,1564,0,0,0,0,0,0,0,0,0,0
1709457782.19998193,75228230,1572,1572,1565,1562,0,0,0,0,0,0,0,0,0,0
1709457782.29994202,75328190,1571,1571,1564,1561,0,0,0,0,0,0,0,0,0,0
1709457782.40073490,75428983,1570,1571,1563,1561,0,0,0,0,0,0,0,0,0,0
1709457782.50069499,75528943,1570,1571,1562,1561,0,0,0,0,0,0,0,0,0,0
1709457782.60065484,75628903,1569,1571,1560,1560,0,0,0,0,0,0,0,0,0,0
1709457782.70061493,75728863,1569,1570,1558,1559,0,0,0,0,0,0,0,0,0,0
1709457782.80057502,75828823,1571,1572,1558,1558,0,0,0,0,0,0,0,0,0,0
1709457782.90053487,75928783,1571,1572,1555,1556,0,0,0,0,0,0,0,0,0,0
1709457783.00049496,76028743,1573,1574,1553,1554,0,0,0,0,0,0,0,0,0,0
1709457783.10045505,76128703,1575,1575,1551,1550,0,0,0,0,0,0,0,0,0,0
1709457783.20041490,76228663,1577,1579,1548,1548,0,0,0,0,0,0,0,0,0,0
1709457783.30037498,76328623,1578,1580,1544,1543,0,0,0,0,0,0,0,0,0,0
1709457783.40033484,76428583,1581,1583,1541,1540,0,0,0,0,0,0,0,0,0,0
1709457783.50029492,76528543,1586,1586,1538,1537,0,0,0,0,0,0,0,0,0,0
1709457783.60025501,76628503,1588,1589,1532,1533,0,0,0,0,0,0,0,0,0,0
1709457783.70021486,76728463,1592,1593,1530,1529,0,0,0,0,0,0,0,0,0,0
1709457783.80017495,76828423,1596,1596,1527,1527,0,0,0,0,0,0,0,0,0,0
1709457783.90013504,76928383,1599,1598,1525,1525,0,0,0,0,0,0,0,0,0,0
1709457784.00009489,77028343,1600,1600,1525,1527,0,0,0,0,0,0,0,0,0,0
1709457784.10005498,77128303,1601,1599,1527,1529,0,0,0,0,0,0,0,0,0,0
1709457784.20001483,77228263,1597,1595,1531,1534,0,0,0,0,0,0,0,0,0,0
1709457784.29997492,77328223,1592,1589,1538,1541,0,0,0,0,0,0,0,0,0,0
1709457784.39993501,77428183,1584,1582,1546,1550,0,0,0,0,0,0,0,0,0,0
1709457784.50072789,77528976,1575,1573,1558,1561,0,0,0,0,0,0,0,0,0,0
1709457784.60068798,77628936,1565,1563,1570,1573,0,0,0,0,0,0,0,0,0,0
1709457784.70064783,77728896,1554,1551,1582,1584,0,0,0,0,0,0,0,0,0,0
1709457784.80060792,77828856,1542,1540,1593,1594,0,0,0,0,0,0,0,0,0,0
1709457784.90056801,77928816,1533,1532,1604,1603,0,0,0,0,0,0,0,0,0,0
1709457785.00052786,78028776,1528,1528,1611,1611,0,0,0,0,0,0,0,0,0,0
1709457785.10048795,78128736,1526,1527,1615,1613,0,0,0,0,0,0,0,0,0,0
1709457785.20044804,78228696,1527,1528,1613,1612,0,0,0,0,0,0,0,0,0,0
1709457785.30040789,78328656,1531,1534,1609,1608,0,0,0,0,0,0,0,0,0,0
1709457785.40036798,78428616,1538,1540,1601,1602,0,0,0,0,0,0,0,0,0,0
1709457785.50032783,78528576,1547,1549,1594,1594,0,0,0,0,0,0,0,0,0,0
1709457785.60028791,78628536,1557,1558,1586,1587,0,0,0,0,0,0,0,0,0,0
1709457785.70024800,78728496,1566,1566,1578,1578,0,0,0,0,0,0,0,0,0,0
1709457785.80020785,78828456,1575,1573,1572,1573,0,0,0,0,0,0,0,0,0,0
1709457785.90016794,78928416,1581,1579,1568,1568,0,0,0,0,0,0,0,0,0,0
1709457786.00012803,79028376,1585,1583,1567,1566,0,0,0,0,0,0,0,0,0,0
1709457786.10008788,79128336,1587,1585,1568,1565,0,0,0,0,0,0,0,0,0,0
1709457786.20004797,79228296,1586,1584,1569,1567,0,0,0,0,0,0,0,0,0,0
1709457786.30000782,79328256,1584,1583,1571,1570,0,0,0,0,0,0,0,0,0,0
1709457786.39996791,79428216,1581,1581,1574,1574,0,0,0,0,0,0,0,0,0,0
1709457786.49992800,79528176,1578,1578,1577,1577,0,0,0,0,0,0,0,0,0,0
1709457786.60072088,79628969,1576,1576,1580,1580,0,0,0,0,0,0,0,0,0,0
1709457786.70068097,79728929,1574,1575,1583,1583,0,0,0,0,0,0,0,0,0,0
1709457786.80064082,79828889,1572,1573,1584,1584,0,0,0,0,0,0,0,0,0,0
1709457786.90060091,79928849,1572,1573,1585,1585,0,0,0,0,0,0,0,0,0,0
1709457787.00056100,80028809,1573,1574,1586,1585,0,0,0,0,0,0,0,0,0,0
1709457787.10052085,80128769,1574,1574,1585,1584,0,0,0,0,0,0,0,0,0,0
1709457787.20048094,80228729,1576,1576,1584,1584,0,0,0,0,0,0,0,0,0,0
1709457787.30044103,80328689,1577,1578,1583,1583,0,0,0,0,0,0,0,0,0,0
1709457787.40040088,80428649,1579,1580,1582,1582,0,0,0,0,0,0,0,0,0,0
1709457787.50036097,80528609,1581,1580,1580,1580,0,0,0,0,0,0,0,0,0,0
1709457787.60032082,80628569,1582,1582,1580,1579,0,0,0,0,0,0,0,0,0,0
1709457787.70028090,80728529,1584,1583,1579,1579,0,0,0,0,0,0,0,0,0,0
1709457787.80024099,80828489,1583,1583,1578,1579,0,0,0,0,0,0,0,0,0,0
1709457787.90020084,80928449,1583,1584,1578,1578,0,0,0,0,0,0,0,0,0,0
1709457788.00016093,81028409,1585,1585,1580,1580,0,0,0,0,0,0,0,0,0,0
1709457788.10012102,81128369,1584,1584,1580,1579,0,0,0,0,0,0,0,0,0,0
1709457788.20008087,81228329,1583,1583,1580,1580,0,0,0,0,0,0,0,0,0,0
1709457788.30004096,81328289,1583,1583,1581,1581,0,0,0,0,0,0,0,0,0,0
1709457788.40000081,81428249,1581,1581,1580,1580,0,0,0,0,0,0,0,0,0,0
1709457788.49996090,81528209,1581,1581,1581,1581,0,0,0,0,0,0,0,0,0,0
1709457788.59992099,81628169,1581,1582,1583,1583,0,0,0,0,0,0,0,0,0,0
1709457788.70071387,81728962,1582,1583,1584,1584,0,0,0,0,0,0,0,0,0,0
1709457788.80067396,81828922,1581,1582,1583,1583,0,0,0,0,0,0,0,0,0,0
1709457788.90063381,81928882,1582,1582,1583,1584,0,0,0,0,0,0,0,0,0,0
1709457789.00059390,82028842,1581,1581,1583,1583,0,0,0,0,0,0,0,0,0,0
1709457789.10055399,82128802,1581,1581,1582,1582,0,0,0,0,0,0,0,0,0,0
1709457789.20051384,82228762,1582,1582,1582,1582,0,0,0,0,0,0,0,0,0,0
1709457789.30047393,82328722,1582,1582,1582,1582,0,0,0,0,0,0,0,0,0,0
1709457789.40043402,82428682,1583,1583,1582,1582,0,0,0,0,0,0,0,0,0,0
1709457789.50039387,82528642,1583,1582,1582,1582,0,0,0,0,0,0,0,0,0,0
1709457789.60035396,82628602,1583,1583,1582,1581,0,0,0,0,0,0,0,0,0,0
1709457789.70031404,82728562,1583,1583,1582,1582,0,0,0,0,0,0,0,0,0,0
1709457789.80027390,82828522,1583,1583,1582,1582,0,0,0,0,0,0,0,0,0,0
1709457789.90023398,82928482,1584,1583,1582,1583,0,0,0,0,0,0,0,0,0,0
1709457790.00019383,83028442,1584,1584,1585,1582,0,0,0,0,0,0,0,0,0,0
1709457790.10015392,83128402,1583,1583,1589,1575,0,0,0,0,0,0,0,0,0,0
1709457790.20011401,83228362,1582,1582,1585,1576,0,0,0,0,0,0,0,0,0,0
1709457790.30007386,83328322,1579,1579,1579,1577,0,0,0,0,0,0,0,0,0,0
1709457790.40003395,83428282,1574,1575,1572,1576,0,0,0,0,0,0,0,0,0,0
1709457790.49999404,83528242,1572,1572,1568,1575,0,0,0,0,0,0,0,0,0,0
1709457790.59995389,83628202,1569,1569,1566,1572,0,0,0,0,0,0,0,0,0,0
1709457790.69991398,83728162,1567,1567,1566,1569,0,0,0,0,0,0,0,0,0,0
1709457790.80070686,83828955,1566,1566,1567,1566,0,0,0,0,0,0,0,0,0,0
1709457790.90066695,83928915,1566,1565,1568,1566,0,0,0,0,0,0,0,0,0,0
1709457791.00062704,84028875,1564,1565,1567,1564,0,0,0,0,0,0,0,0,0,0
1709457791.10058689,84128835,1564,1565,1566,1565,0,0,0,0,0,0,0,0,0,0
1709457791.20054698,84228795,1564,1564,1565,1564,0,0,0,0,0,0,0,0,0,0
1709457791.30050683,84328755,1563,1563,1564,1564,0,0,0,0,0,0,0,0,0,0
1709457791.40046692,84428715,1562,1563,1563,1563,0,0,0,0,0,0,0,0,0,0
1709457791.50042701,84528675,1562,1561,1561,1562,0,0,0,0,0,0,0,0,0,0
1709457791.60038686,84628635,1561,1562,1562,1561,0,0,0,0,0,0,0,0,0,0
1709457791.70034695,84728595,1562,1561,1562,1561,0,0,0,0,0,0,0,0,0,0
1709457791.80030704,84828555,1560,1561,1561,1560,0,0,0,0,0,0,0,0,0,0
1709457791.90026689,84928515,1560,1560,1559,1560,0,0,0,0,0,0,0,0,0,0
1709457792.00022697,85028475,1557,1558,1558,1557,0,0,0,0,0,0,0,0,0,0
1709457792.10018682,85128435,1558,1557,1558,1557,0,0,0,0,0,0,0,0,0,0
1709457792.20014691,85228395,1557,1558,1559,1557,0,0,0,0,0,0,0,0,0,0
1709457792.30010700,85328355,1557,1557,1558,1557,0,0,0,0,0,0,0,0,0,0
1709457792.40006685,85428315,1557,1557,1558,1556,0,0,0,0,0,0,0,0,0,0
1709457792.50002694,85528275,1558,1557,1558,1557,0,0,0,0,0,0,0,0,0,0
1709457792.59998703,85628235,1557,1557,1558,1556,0,0,0,0,0,0,0,0,0,0
1709457792.69994688,85728195,1559,1557,1560,1557,0,0,0,0,0,0,0,0,0,0
1709457792.79990697,85828155,1558,1558,1559,1558,0,0,0,0,0,0,0,0,0,0
1709457792.90069985,85928948,1559,1558,1557,1561,0,0,0,0,0,0,0,0,0,0
1709457793.00065994,86028908,1560,1560,1557,1563,0,0,0,0,0,0,0,0,0,0
1709457793.10062003,86128868,1562,1561,1558,1565,0,0,0,0,0,0,0,0,0,0
1709457793.20057988,86228828,1562,1564,1560,1565,0,0,0,0,0,0,0,0,0,0
1709457793.30053997,86328788,1563,1562,1561,1563,0,0,0,0,0,0,0,0,0,0
1709457793.40049982,86428748,1561,1562,1562,1560,0,0,0,0,0,0,0,0,0,0
1709457793.50045991,86528708,1561,1560,1562,1558,0,0,0,0,0,0,0,0,0,0
1709457793.60042000,86628668,1560,1560,1560,1560,0,0,0,0,0,0,0,0,0,0
1709457793.70037985,86728628,1559,1557,1555,1560,0,0,0,0,0,0,0,0,0,0
1709457793.80033994,86828588,1554,1554,1551,1556,0,0,0,0,0,0,0,0,0,0
1709457793.90030003,86928548,1549,1548,1546,1549,0,0,0,0,0,0,0,0,0,0
1709457794.00025988,87028508,1541,1542,1541,1541,0,0,0,0,0,0,0,0,0,0
1709457794.10021996,87128468,1536,1535,1535,1534,0,0,0,0,0,0,0,0,0,0
1709457794.20017982,87228428,1527,1528,1528,1526,0,0,0,0,0,0,0,0,0,0
1709457794.30013990,87328388,1521,1521,1521,1520,0,0,0,0,0,0,0,0,0,0
1709457794.40009999,87428348,1519,1520,1519,1519,0,0,0,0,0,0,0,0,0,0
1709457794.50005984,87528308,1520,1519,1520,1520,0,0,0,0,0,0,0,0,0,0
1709457794.60001993,87628268,1521,1521,1521,1522,0,0,0,0,0,0,0,0,0,0
1709457794.69998002,87728228,1524,1523,1523,1524,0,0,0,0,0,0,0,0,0,0
1709457794.79993987,87828188,1527,1528,1528,1528,0,0,0,0,0,0,0,0,0,0
1709457794.90073299,87928981,1533,1532,1533,1533,0,0,0,0,0,0,0,0,0,0
1709457795.00069284,88028941,1535,1536,1537,1535,0,0,0,0,0,0,0,0,0,0
1709457795.10065293,88128901,1538,1539,1542,1539,0,0,0,0,0,0,0,0,0,0
1709457795.20061302,88228861,1538,1540,1545,1542,0,0,0,0,0,0,0,0,0,0
1709457795.30057287,88328821,1540,1539,1547,1546,0,0,0,0,0,0,0,0,0,0
1709457795.40053296,88428781,1540,1538,1548,1548,0,0,0,0,0,0,0,0,0,0
1709457795.50049281,88528741,1541,1538,1549,1550,0,0,0,0,0,0,0,0,0,0
1709457795.60045290,88628701,1541,1539,1549,1551,0,0,0,0,0,0,0,0,0,0
1709457795.70041299,88728661,1542,1540,1550,1551,0,0,0,0,0,0,0,0,0,0
1709457795.80037284,88828621,1543,1542,1549,1550,0,0,0,0,0,0,0,0,0,0
1709457795.90033293,88928581,1544,1543,1548,1548,0,0,0,0,0,0,0,0,0,0
1709457796.00029302,89028541,1545,1545,1546,1547,0,0,0,0,0,0,0,0,0,0
1709457796.10025287,89128501,1546,1547,1545,1544,0,0,0,0,0,0,0,0,0,0
1709457796.20021296,89228461,1547,1549,1543,1544,0,0,0,0,0,0,0,0,0,0
1709457796.30017304,89328421,1550,1550,1543,1543,0,0,0,0,0,0,0,0,0,0
1709457796.40013289,89428381,1550,1551,1542,1542,0,0,0,0,0,0,0,0,0,0
1709457796.50009298,89528341,1550,1550,1541,1541,0,0,0,0,0,0,0,0,0,0
1709457796.60005283,89628301,1550,1550,1540,1540,0,0,0,0,0,0,0,0,0,0
1709457796.70001292,89728261,1549,1549,1541,1540,0,0,0,0,0,0,0,0,0,0
1709457796.79997301,89828221,1548,1549,1540,1541,0,0,0,0,0,0,0,0,0,0
1709457796.89993286,89928181,1547,1548,1542,1541,0,0,0,0,0,0,0,0,0,0
1709457797.00072598,90028974,1547,1547,1542,1542,0,0,0,0,0,0,0,0,0,0
1709457797.10068583,90128934,1546,1547,1543,1543,0,0,0,0,0,0,0,0,0,0
1709457797.20064592,90228894,1546,1546,1544,1544,0,0,0,0,0,0,0,0,0,0
1709457797.30060601,90328854,1545,1545,1544,1543,0,0,0,0,0,0,0,0,0,0
1709457797.40056586,90428814,1545,1544,1544,1544,0,0,0,0,0,0,0,0,0,0
1709457797.50052595,90528774,1544,1544,1544,1544,0,0,0,0,0,0,0,0,0,0
1709457797.60048604,90628734,1545,1545,1544,1544,0,0,0,0,0,0,0,0,0,0
1709457797.70044589,90728694,1544,1545,1544,1544,0,0,0,0,0,0,0,0,0,0
1709457797.80040598,90828654,1545,1545,1544,1544,0,0,0,0,0,0,0,0,0,0
1709457797.90036583,90928614,1545,1545,1544,1543,0,0,0,0,0,0,0,0,0,0
1709457798.00032592,91028574,1546,1546,1543,1543,0,0,0,0,0,0,0,0,0,0
1709457798.10028601,91128534,1546,1546,1543,1543,0,0,0,0,0,0,0,0,0,0
1709457798.20024586,91228494,1546,1546,1543,1543,0,0,0,0,0,0,0,0,0,0
1709457798.30020595,91328454,1546,1545,1543,1542,0,0,0,0,0,0,0,0,0,0
1709457798.40016603,91428414,1546,1544,1544,1542,0,0,0,0,0,0,0,0,0,0
1709457798.50012589,91528374,1545,1543,1544,1543,0,0,0,0,0,0,0,0,0,0
1709457798.60008597,91628334,1544,1543,1545,1544,0,0,0,0,0,0,0,0,0,0
1709457798.70004582,91728294,1543,1543,1547,1546,0,0,0,0,0,0,0,0,0,0
1709457798.80000591,91828254,1541,1541,1546,1546,0,0,0,0,0,0,0,0,0,0
1709457798.89996600,91928214,1541,1542,1547,1548,0,0,0,0,0,0,0,0,0,0
1709457798.99992585,92028174,1542,1542,1548,1548,0,0,0,0,0,0,0,0,0,0
1709457799.10071898,92128967,1541,1541,1547,1547,0,0,0,0,0,0,0,0,0,0
1709457799.20067883,92228927,1541,1542,1547,1547,0,0,0,0,0,0,0,0,0,0
1709457799.30063891,92328887,1541,1541,1545,1546,0,0,0,0,0,0,0,0,0,0
1709457799.40059900,92428847,1542,1542,1545,1546,0,0,0,0,0,0,0,0,0,0
1709457799.50055885,92528807,1543,1543,1543,1544,0,0,0,0,0,0,0,0,0,0
1709457799.60051894,92628767,1545,1545,1545,1544,0,0,0,0,0,0,0,0,0,0
1709457799.70047903,92728727,1546,1545,1544,1544,0,0,0,0,0,0,0,0,0,0
1709457799.80043888,92828687,1545,1546,1543,1543,0,0,0,0,0,0,0,0,0,0
1709457799.90039897,92928647,1545,1546,1542,1543,0,0,0,0,0,0,0,0,0,0
1709457800.00035882,93028607,1546,1546,1543,1543,0,0,0,0,0,0,0,0,0,0
1709457800.10031891,93128567,1546,1547,1543,1544,0,0,0,0,0,0,0,0,0,0
1709457800.20027900,93228527,1546,1546,1543,1543,0,0,0,0,0,0,0,0,0,0
1709457800.30023885,93328487,1545,1546,1544,1544,0,0,0,0,0,0,0,0,0,0
1709457800.40019894,93428447,1545,1545,1544,1544,0,0,0,0,0,0,0,0,0,0
1709457800.50015903,93528407,1544,1544,1544,1544,0,0,0,0,0,0,0,0,0,0
1709457800.60011888,93628367,1543,1543,1544,1544,0,0,0,0,0,0,0,0,0,0
1709457800.70007896,93728327,1543,1543,1543,1544,0,0,0,0,0,0,0,0,0,0
1709457800.80003881,93828287,1543,1543,1544,1544,0,0,0,0,0,0,0,0,0,0
1709457800.89999890,93928247,1543,1543,1544,1544,0,0,0,0,0,0,0,0,0,0
1709457800.99995899,94028207,1543,1543,1544,1544,0,0,0,0,0,0,0,0,0,0
1709457801.09991884,94128167,1543,1543,1544,1544,0,0,0,0,0,0,0,0,0,0
1709457801.20071197,94228960,1543,1544,1544,1544,0,0,0,0,0,0,0,0,0,0
1709457801.30067182,94328920,1544,1543,1544,1544,0,0,0,0,0,0,0,0,0,0
1709457801.40063190,94428880,1544,1544,1544,1544,0,0,0,0,0,0,0,0,0,0
1709457801.50059199,94528840,1544,1545,1544,1544,0,0,0,0,0,0,0,0,0,0
1709457801.60055184,94628800,1545,1544,1544,1544,0,0,0,0,0,0,0,0,0,0
1709457801.70051193,94728760,1544,1544,1543,1544,0,0,0,0,0,0,0,0,0,0
1709457801.80047202,94828720,1544,1544,1544,1544,0,0,0,0,0,0,0,0,0,0
1709457801.90043187,94928680,1545,1545,1544,1545,0,0,0,0,0,0,0,0,0,0
1709457802.00039196,95028640,1544,1544,1544,1544,0,0,0,0,0,0,0,0,0,0
1709457802.10035181,95128600,1545,1545,1544,1544,0,0,0,0,0,0,0,0,0,0
1709457802.20031190,95228560,1544,1544,1544,1543,0,0,0,0,0,0,0,0,0,0
1709457802.30027199,95328520,1544,1544,1544,1544,0,0,0,0,0,0,0,0,0,0
1709457802.40023184,95428480,1544,1544,1544,1544,0,0,0,0,0,0,0,0,0,0
1709457802.50019193,95528440,1544,1543,1543,1544,0,0,0,0,0,0,0,0,0,0
1709457802.60015202,95628400,1544,1543,1544,1544,0,0,0,0,0,0,0,0,0,0
1709457802.70011187,95728360,1544,1544,1544,1544,0,0,0,0,0,0,0,0,0,0
1709457802.80007195,95828320,1544,1544,1544,1544,0,0,0,0,0,0,0,0,0,0
1709457802.90003204,95928280,1544,1543,1544,1544,0,0,0,0,0,0,0,0,0,0
1709457802.99999189,96028240,1544,1544,1544,1544,0,0,0,0,0,0,0,0,0,0
1709457803.09995198,96128200,1544,1543,1543,1544,0,0,0,0,0,0,0,0,0,0
1709457803.19991183,96228160,1544,1544,1544,1544,0,0,0,0,0,0,0,0,0,0
1709457803.30070496,96328953,1544,1545,1544,1545,0,0,0,0,0,0,0,0,0,0
1709457803.40066504,96428913,1543,1544,1544,1543,0,0,0,0,0,0,0,0,0,0
1709457803.50062490,96528873,1545,1545,1545,1545,0,0,0,0,0,0,0,0,0,0
1709457803.60058498,96628833,1545,1545,1545,1545,0,0,0,0,0,0,0,0,0,0
1709457803.70054483,96728793,1545,1544,1544,1544,0,0,0,0,0,0,0,0,0,0
1709457803.80050492,96828753,1545,1544,1544,1545,0,0,0,0,0,0,0,0,0,0
1709457803.90046501,96928713,1544,1544,1544,1544,0,0,0,0,0,0,0,0,0,0
1709457804.00042486,97028673,1506,1504,1506,1503,0,0,0,0,0,0,0,0,0,0
1709457804.10038495,97128633,1337,1321,1330,1315,0,0,0,0,0,0,0,0,0,0
1709457804.20034504,97228593,1259,1236,1248,1227,0,0,0,0,0,0,0,0,0,0
1709457804.30030489,97328553,1236,1211,1221,1204,0,0,0,0,0,0,0,0,0,0
1709457804.40026498,97428513,1215,1189,1198,1182,0,0,0,0,0,0,0,0,0,0
1709457804.50022483,97528473,1188,1157,1166,1150,0,0,0,0,0,0,0,0,0,0
1709457804.60018492,97628433,1189,1160,1170,1150,0,0,0,0,0,0,0,0,0,0
1709457804.70014501,97728393,1191,1160,1171,1150,0,0,0,0,0,0,0,0,0,0
1709457804.80010486,97828353,1206,1150,1150,1179,0,0,0,0,0,0,0,0,0,0
1709457804.90006495,97928313,1200,1150,1154,1167,0,0,0,0,0,0,0,0,0,0
1709457805.00002503,98028273,1197,1150,1157,1159,0,0,0,0,0,0,0,0,0,0
1709457805.09998488,98128233,1198,1150,1157,1159,0,0,0,0,0,0,0,0,0,0
1709457805.19994497,98228193,1199,1150,1157,1160,0,0,0,0,0,0,0,0,0,0
1709457805.30073786,98328986,1201,1150,1157,1161,0,0,0,0,0,0,0,0,0,0
1709457805.40069795,98428946,1202,1150,1158,1163,0,0,0,0,0,0,0,0,0,0
1709457805.50065804,98528906,1205,1150,1158,1164,0,0,0,0,0,0,0,0,0,0
1709457805.60061789,98628866,1190,1150,1152,1152,0,0,0,0,0,0,0,0,0,0
1709457805.70057797,98728826,1192,1150,1152,1154,0,0,0,0,0,0,0,0,0,0
1709457805.80053782,98828786,1193,1150,1152,1154,0,0,0,0,0,0,0,0,0,0
1709457805.90049791,98928746,1194,1150,1152,1155,0,0,0,0,0,0,0,0,0,0
1709457806.00045800,99028706,1194,1150,1152,1155,0,0,0,0,0,0,0,0,0,0
1709457806.10041785,99128666,1000,1000,1000,1000,0,0,0,0,0,0,0,0,0,0
1709457806.20037794,99228626,1000,1000,1000,1000,0,0,0,0,0,0,0,0,0,0
1709457806.30033803,99328586,1000,1000,1000,1000,0,0,0,0,0,0,0,0,0,0
1709457806.40029788,99428546,1000,1000,1000,1000,0,0,0,0,0,0,0,0,0,0
1709457806.50025797,99528506,1000,1000,1000,1000,0,0,0,0,0,0,0,0,0,0
1709457806.60021782,99628466,1000,1000,1000,1000,0,0,0,0,0,0,0,0,0,0
1709457806.70017791,99728426,1000,1000,1000,1000,0,0,0,0,0,0,0,0,0,0
1709457806.80013800,99828386,1000,1000,1000,1000,0,0,0,0,0,0,0,0,0,0
1709457806.90009785,99928346,1000,1000,1000,1000,0,0,0,0,0,0,0,0,0,0
1709457807.00005794,100028306,1000,1000,1000,1000,0,0,0,0,0,0,0,0,0,0
1709457807.10001802,100128266,1000,1000,1000,1000,0,0,0,0,0,0,0,0,0,0
1709457807.19997787,100228226,1000,1000,1000,1000,0,0,0,0,0,0,0,0,0,0
1709457807.29993796,100328186,1000,1000,1000,1000,0,0,0,0,0,0,0,0,0,0
1709457807.40073085,100428979,1000,1000,1000,1000,0,0,0,0,0,0,0,0,0,0
1709457807.50069094,100528939,1000,1000,1000,1000,0,0,0,0,0,0,0,0,0,0
1709457807.60065103,100628899,1000,1000,1000,1000,0,0,0,0,0,0,0,0,0,0
1709457807.70061088,100728859,1000,1000,1000,1000,0,0,0,0,0,0,0,0,0,0
1709457807.80057096,100828819,1000,1000,1000,1000,0,0,0,0,0,0,0,0,0,0
1709457807.90053082,100928779,1000,1000,1000,1000,0,0,0,0,0,0,0,0,0,0
1709457808.00049090,101028739,1000,1000,1000,1000,0,0,0,0,0,0,0,0,0,0
1709457808.10045099,101128699,1000,1000,1000,1000,0,0,0,0,0,0,0,0,0,0
1709457808.20041084,101228659,1000,1000,1000,1000,0,0,0,0,0,0,0,0,0,0
1709457808.30037093,101328619,1000,1000,1000,1000,0,0,0,0,0,0,0,0,0,0
1709457808.40033102,101428579,1000,1000,1000,1000,0,0,0,0,0,0,0,0,0,0
1709457808.50029087,101528539,1000,1000,1000,1000,0,0,0,0,0,0,0,0,0,0
1709457808.60025096,101628499,1000,1000,1000,1000,0,0,0,0,0,0,0,0,0,0
1709457808.70021081,101728459,1000,1000,1000,1000,0,0,0,0,0,0,0,0,0,0
1709457808.80017090,101828419,1000,1000,1000,1000,0,0,0,0,0,0,0,0,0,0
1709457808.90013099,101928379,1000,1000,1000,1000,0,0,0,0,0,0,0,0,0,0
1709457809.00009084,102028339,1000,1000,1000,1000,0,0,0,0,0,0,0,0,0,0
1709457809.10005093,102128299,1000,1000,1000,1000,0,0,0,0,0,0,0,0,0,0
1709457809.20001101,102228259,1000,1000,1000,1000,0,0,0,0,0,0,0,0,0,0
1709457809.29997087,102328219,1000,1000,1000,1000,0,0,0,0,0,0,0,0,0,0
1709457809.39993095,102428179,1000,1000,1000,1000,0,0,0,0,0,0,0,0,0,0
1709457809.50072384,102528972,1000,1000,1000,1000,0,0,0,0,0,0,0,0,0,0
1709457809.60068393,102628932,1000,1000,1000,1000,0,0,0,0,0,0,0,0,0,0
1709457809.70064402,102728892,1000,1000,1000,1000,0,0,0,0,0,0,0,0,0,0
1709457809.80060387,102828852,1000,1000,1000,1000,0,0,0,0,0,0,0,0,0,0
1709457809.90056396,102928812,1000,1000,1000,1000,0,0,0,0,0,0,0,0,0,0
1709457810.00052404,103028772,1000,1000,1000,1000,0,0,0,0,0,0,0,0,0,0
1709457810.10048389,103128732,1000,1000,1000,1000,0,0,0,0,0,0,0,0,0,0
1709457810.20044398,103228692,1000,1000,1000,1000,0,0,0,0,0,0,0,0,0,0
1709457810.30040383,103328652,1000,1000,1000,1000,0,0,0,0,0,0,0,0,0,0
1709457810.40036392,103428612,1000,1000,1000,1000,0,0,0,0,0,0,0,0,0,0
1709457810.50032401,103528572,1000,1000,1000,1000,0,0,0,0,0,0,0,0,0,0
1709457810.60028386,103628532,1000,1000,1000,1000,0,0,0,0,0,0,0,0,0,0
1709457810.70024395,103728492,1000,1000,1000,1000,0,0,0,0,0,0,0,0,0,0
1709457810.80020404,103828452,1000,1000,1000,1000,0,0,0,0,0,0,0,0,0,0
1709457810.90016389,103928412,1000,1000,1000,1000,0,0,0,0,0,0,0,0,0,0
1709457811.00012398,104028372,1000,1000,1000,1000,0,0,0,0,0,0,0,0,0,0
1709457811.10008383,104128332,1000,1000,1000,1000,0,0,0,0,0,0,0,0,0,0
1709457811.20004392,104228292,1000,1000,1000,1000,0,0,0,0,0,0,0,0,0,0
1709457811.30000401,104328252,1000,1000,1000,1000,0,0,0,0,0,0,0,0,0,0
1709457811.39996386,104428212,1000,1000,1000,1000,0,0,0,0,0,0,0,0,0,0
1709457811.49992394,104528172,1000,1000,1000,1000,0,0,0,0,0,0,0,0,0,0
1709457811.60071683,104628965,1000,1000,1000,1000,0,0,0,0,0,0,0,0,0,0
1709457811.70067692,104728925,1000,1000,1000,1000,0,0,0,0,0,0,0,0,0,0
1709457811.80063701,104828885,1000,1000,1000,1000,0,0,0,0,0,0,0,0,0,0
1709457811.90059686,104928845,1000,1000,1000,1000,0,0,0,0,0,0,0,0,0,0
1709457812.00055695,105028805,1000,1000,1000,1000,0,0,0,0,0,0,0,0,0,0
1709457812.10051703,105128765,1000,1000,1000,1000,0,0,0,0,0,0,0,0,0,0
1709457812.20047688,105228725,1000,1000,1000,1000,0,0,0,0,0,0,0,0,0,0
1709457812.30043697,105328685,1000,1000,1000,1000,0,0,0,0,0,0,0,0,0,0
1709457812.40039682,105428645,1000,1000,1000,1000,0,0,0,0,0,0,0,0,0,0
1709457812.50035691,105528605,1000,1000,1000,1000,0,0,0,0,0,0,0,0,0,0
1709457812.60031700,105628565,1000,1000,1000,1000,0,0,0,0,0,0,0,0,0,0
1709457812.70027685,105728525,1000,1000,1000,1000,0,0,0,0,0,0,0,0,0,0
1709457812.80023694,105828485,1000,1000,1000,1000,0,0,0,0,0,0,0,0,0,0
1709457812.90019703,105928445,1000,1000,1000,1000,0,0,0,0,0,0,0,0,0,0
1709457813.00015688,106028405,1000,1000,1000,1000,0,0,0,0,0,0,0,0,0,0
1709457813.10011697,106128365,1000,1000,1000,1000,0,0,0,0,0,0,0,0,0,0
1709457813.20007682,106228325,1000,1000,1000,1000,0,0,0,0,0,0,0,0,0,0
1709457813.30003691,106328285,1000,1000,1000,1000,0,0,0,0,0,0,0,0,0,0
1709457813.39999700,106428245,1000,1000,1000,1000,0,0,0,0,0,0,0,0,0,0
1709457813.49995685,106528205,1000,1000,1000,1000,0,0,0,0,0,0,0,0,0,0
1709457813.59991693,106628165,1000,1000,1000,1000,0,0,0,0,0,0,0,0,0,0
1709457813.70070982,106728958,1000,1000,1000,1000,0,0,0,0,0,0,0,0,0,0
1709457813.80066991,106828918,1000,1000,1000,1000,0,0,0,0,0,0,0,0,0,0
1709457813.90063000,106928878,1000,1000,1000,1000,0,0,0,0,0,0,0,0,0,0
1709457814.00058985,107028838,1000,1000,1000,1000,0,0,0,0,0,0,0,0,0,0
1709457814.10054994,107128798,1000,1000,1000,1000,0,0,0,0,0,0,0,0,0,0
1709457814.20051003,107228758,1000,1000,1000,1000,0,0,0,0,0,0,0,0,0,0
1709457814.30046988,107328718,1000,1000,1000,1000,0,0,0,0,0,0,0,0,0,0
1709457814.40042996,107428678,1000,1000,1000,1000,0,0,0,0,0,0,0,0,0,0
1709457814.50038981,107528638,1000,1000,1000,1000,0,0,0,0,0,0,0,0,0,0
1709457814.60034990,107628598,1000,1000,1000,1000,0,0,0,0,0,0,0,0,0,0
1709457814.70030999,107728558,1000,1000,1000,1000,0,0,0,0,0,0,0,0,0,0
1709457814.80026984,107828518,1000,1000,1000,1000,0,0,0,0,0,0,0,0,0,0
1709457814.90022993,107928478,1000,1000,1000,1000,0,0,0,0,0,0,0,0,0,0
1709457815.00019002,108028438,1000,1000,1000,1000,0,0,0,0,0,0,0,0,0,0
1709457815.10014987,108128398,1000,1000,1000,1000,0,0,0,0,0,0,0,0,0,0
1709457815.20010996,108228358,1000,1000,1000,1000,0,0,0,0,0,0,0,0,0,0
1709457815.30007005,108328318,1000,1000,1000,1000,0,0,0,0,0,0,0,0,0,0
1709457815.40002990,108428278,1000,1000,1000,1000,0,0,0,0,0,0,0,0,0,0
1709457815.49998999,108528238,1000,1000,1000,1000,0,0,0,0,0,0,0,0,0,0
1709457815.59994984,108628198,1000,1000,1000,1000,0,0,0,0,0,0,0,0,0,0
1709457815.69990993,108728158,1000,1000,1000,1000,0,0,0,0,0,0,0,0,0,0
1709457815.80070281,108828951,1000,1000,1000,1000,0,0,0,0,0,0,0,0,0,0
1709457815.90066290,108928911,1000,1000,1000,1000,0,0,0,0,0,0,0,0,0,0
1709457816.00062299,109028871,1000,1000,1000,1000,0,0,0,0,0,0,0,0,0,0
1709457816.10058284,109128831,1000,1000,1000,1000,0,0,0,0,0,0,0,0,0,0
1709457816.20054293,109228791,1000,1000,1000,1000,0,0,0,0,0,0,0,0,0,0
1709457816.30050302,109328751,1000,1000,1000,1000,0,0,0,0,0,0,0,0,0,0
1709457816.40046287,109428711,1000,1000,1000,1000,0,0,0,0,0,0,0,0,0,0
1709457816.50042295,109528671,1000,1000,1000,1000,0,0,0,0,0,0,0,0,0,0
1709457816.60038304,109628631,1000,1000,1000,1000,0,0,0,0,0,0,0,0,0,0
1709457816.70034289,109728591,1000,1000,1000,1000,0,0,0,0,0,0,0,0,0,0
1709457816.80030298,109828551,1000,1000,1000,1000,0,0,0,0,0,0,0,0,0,0
1709457816.90026283,109928511,1000,1000,1000,1000,0,0,0,0,0,0,0,0,0,0
1709457817.00022292,110028471,1000,1000,1000,1000,0,0,0,0,0,0,0,0,0,0
1709457817.10018301,110128431,1000,1000,1000,1000,0,0,0,0,0,0,0,0,0,0
1709457817.20014286,110228391,1000,1000,1000,1000,0,0,0,0,0,0,0,0,0,0
1709457817.30010295,110328351,1000,1000,1000,1000,0,0,0,0,0,0,0,0,0,0
1709457817.40006304,110428311,1000,1000,1000,1000,0,0,0,0,0,0,0,0,0,0
1709457817.50002289,110528271,1000,1000,1000,1000,0,0,0,0,0,0,0,0,0,0
1709457817.59998298,110628231,1000,1000,1000,1000,0,0,0,0,0,0,0,0,0,0
1709457817.69994283,110728191,1000,1000,1000,1000,0,0,0,0,0,0,0,0,0,0
1709457817.80073595,110828984,1000,1000,1000,1000,0,0,0,0,0,0,0,0,0,0
1709457817.90069604,110928944,1000,1000,1000,1000,0,0,0,0,0,0,0,0,0,0
1709457818.00065589,111028904,1000,1000,1000,1000,0,0,0,0,0,0,0,0,0,0
1709457818.10061598,111128864,1000,1000,1000,1000,0,0,0,0,0,0,0,0,0,0
1709457818.20057583,111228824,1000,1000,1000,1000,0,0,0,0,0,0,0,0,0,0
1709457818.30053592,111328784,1000,1000,1000,1000,0,0,0,0,0,0,0,0,0,0
1709457818.40049601,111428744,1000,1000,1000,1000,0,0,0,0,0,0,0,0,0,0
1709457818.50045586,111528704,1000,1000,1000,1000,0,0,0,0,0,0,0,0,0,0
1709457818.60041595,111628664,1000,1000,1000,1000,0,0,0,0,0,0,0,0,0,0
1709457818.70037603,111728624,1000,1000,1000,1000,0,0,0,0,0,0,0,0,0,0
1709457818.80033588,111828584,1000,1000,1000,1000,0,0,0,0,0,0,0,0,0,0
1709457818.90029597,111928544,1000,1000,1000,1000,0,0,0,0,0,0,0,0,0,0
1709457819.00025582,112028504,1000,1000,1000,1000,0,0,0,0,0,0,0,0,0,0
1709457819.10021591,112128464,1000,1000,1000,1000,0,0,0,0,0,0,0,0,0,0
1709457819.20017600,112228424,1000,1000,1000,1000,0,0,0,0,0,0,0,0,0,0
1709457819.30013585,112328384,1000,1000,1000,1000,0,0,0,0,0,0,0,0,0,0
1709457819.40009594,112428344,1000,1000,1000,1000,0,0,0,0,0,0,0,0,0,0
1709457819.50005603,112528304,1000,1000,1000,1000,0,0,0,0,0,0,0,0,0,0
1709457819.60001588,112628264,1000,1000,1000,1000,0,0,0,0,0,0,0,0,0,0
1709457819.69997597,112728224,1000,1000,1000,1000,0,0,0,0,0,0,0,0,0,0
1709457819.79993582,112828184,1000,1000,1000,1000,0,0,0,0,0,0,0,0,0,0
1709457819.90072894,112928977,1000,1000,1000,1000,0,0,0,0,0,0,0,0,0,0
1709457820.00068903,113028937,1000,1000,1000,1000,0,0,0,0,0,0,0,0,0,0
1709457820.10064888,113128897,1000,1000,1000,1000,0,0,0,0,0,0,0,0,0,0
1709457820.20060897,113228857,1000,1000,1000,1000,0,0,0,0,0,0,0,0,0,0
1709457820.30056882,113328817,1000,1000,1000,1000,0,0,0,0,0,0,0,0,0,0
1709457820.40052891,113428777,1000,1000,1000,1000,0,0,0,0,0,0,0,0,0,0
1709457820.50048900,113528737,1000,1000,1000,1000,0,0,0,0,0,0,0,0,0,0
1709457820.60044885,113628697,1000,1000,1000,1000,0,0,0,0,0,0,0,0,0,0
1709457820.70040894,113728657,1000,1000,1000,1000,0,0,0,0,0,0,0,0,0,0
1709457820.80036902,113828617,1000,1000,1000,1000,0,0,0,0,0,0,0,0,0,0
1709457820.90032887,113928577,1000,1000,1000,1000,0,0,0,0,0,0,0,0,0,0
1709457821.00028896,114028537,1000,1000,1000,1000,0,0,0,0,0,0,0,0,0,0
