timestamp,TimeUS,C1,C2,C3,C4,C5,C6,C7,C8,C9,C10,C11,C12,C13,C14
1709455845.20000005,70628404,1000,1000,1000,1000,0,0,0,0,0,0,0,0,0,0
1709455845.29996014,70728364,1000,1000,1000,1000,0,0,0,0,0,0,0,0,0,0
1709455845.39992023,70828324,1000,1000,1000,1000,0,0,0,0,0,0,0,0,0,0
1709455845.49988008,70928284,1000,1000,1000,1000,0,0,0,0,0,0,0,0,0,0
1709455845.59984016,71028244,1000,1000,1000,1000,0,0,0,0,0,0,0,0,0,0
1709455845.69980025,71128204,1000,1000,1000,1000,0,0,0,0,0,0,0,0,0,0
1709455845.79976010,71228164,1000,1000,1000,1000,0,0,0,0,0,0,0,0,0,0
1709455845.90055323,71328957,1000,1000,1000,1000,0,0,0,0,0,0,0,0,0,0
1709455846.00051308,71428917,1000,1000,1000,1000,0,0,0,0,0,0,0,0,0,0
1709455846.10047317,71528877,1000,1000,1000,1000,0,0,0,0,0,0,0,0,0,0
1709455846.20043325,71628837,1000,1000,1000,1000,0,0,0,0,0,0,0,0,0,0
1709455846.30039310,71728797,1000,1000,1000,1000,0,0,0,0,0,0,0,0,0,0
1709455846.40035319,71828757,1000,1000,1000,1000,0,0,0,0,0,0,0,0,0,0
1709455846.50031304,71928717,1000,1000,1000,1000,0,0,0,0,0,0,0,0,0,0
1709455846.60027313,72028677,1000,1000,1000,1000,0,0,0,0,0,0,0,0,0,0
1709455846.70023322,72128637,1000,1000,1000,1000,0,0,0,0,0,0,0,0,0,0
1709455846.80019307,72228597,1000,1000,1000,1000,0,0,0,0,0,0,0,0,0,0
1709455846.90015316,72328557,1000,1000,1000,1000,0,0,0,0,0,0,0,0,0,0
1709455847.00011325,72428517,1000,1000,1000,1000,0,0,0,0,0,0,0,0,0,0
1709455847.10007310,72528477,1000,1000,1000,1000,0,0,0,0,0,0,0,0,0,0
1709455847.20003319,72628437,1006,1006,1006,1006,0,0,0,0,0,0,0,0,0,0
1709455847.29999304,72728397,1036,1036,1036,1036,0,0,0,0,0,0,0,0,0,0
1709455847.39995313,72828357,1066,1066,1066,1066,0,0,0,0,0,0,0,0,0,0
1709455847.49991322,72928317,1096,1096,1096,1096,0,0,0,0,0,0,0,0,0,0
1709455847.59987307,73028277,1125,1125,1125,1125,0,0,0,0,0,0,0,0,0,0
1709455847.69983315,73128237,1229,1174,1200,1211,0,0,0,0,0,0,0,0,0,0
1709455847.79979324,73228197,1454,1416,1433,1442,0,0,0,0,0,0,0,0,0,0
1709455847.89975309,73328157,1624,1590,1605,1613,0,0,0,0,0,0,0,0,0,0
1709455848.00054622,73428950,1766,1735,1749,1755,0,0,0,0,0,0,0,0,0,0
1709455848.10050607,73528910,1880,1847,1861,1868,0,0,0,0,0,0,0,0,0,0
1709455848.20046616,73628870,1878,1852,1864,1869,0,0,0,0,0,0,0,0,0,0
1709455848.30042624,73728830,1781,1772,1777,1779,0,0,0,0,0,0,0,0,0,0
1709455848.40038610,73828790,1652,1657,1655,1658,0,0,0,0,0,0,0,0,0,0
1709455848.50034618,73928750,1600,1613,1607,1610,0,0,0,0,0,0,0,0,0,0
1709455848.60030603,74028710,1602,1617,1610,1610,0,0,0,0,0,0,0,0,0,0
1709455848.70026612,74128670,1617,1627,1623,1621,0,0,0,0,0,0,0,0,0,0
1709455848.80022621,74228630,1625,1629,1628,1625,0,0,0,0,0,0,0,0,0,0
1709455848.90018606,74328590,1626,1624,1625,1624,0,0,0,0,0,0,0,0,0,0
1709455849.00014615,74428550,1623,1618,1619,1620,0,0,0,0,0,0,0,0,0,0
1709455849.10010624,74528510,1621,1614,1617,1617,0,0,0,0,0,0,0,0,0,0
1709455849.20006609,74628470,1619,1615,1616,1616,0,0,0,0,0,0,0,0,0,0
1709455849.30002618,74728430,1619,1616,1617,1616,0,0,0,0,0,0,0,0,0,0
1709455849.39998603,74828390,1619,1620,1620,1618,0,0,0,0,0,0,0,0,0,0
1709455849.49994612,74928350,1621,1622,1621,1620,0,0,0,0,0,0,0,0,0,0
1709455849.59990621,75028310,1622,1625,1623,1623,0,0,0,0,0,0,0,0,0,0
1709455849.69986606,75128270,1597,1604,1604,1596,0,0,0,0,0,0,0,0,0,0
1709455849.79982615,75228230,1578,1582,1586,1575,0,0,0,0,0,0,0,0,0,0
1709455849.89978623,75328190,1567,1566,1570,1565,0,0,0,0,0,0,0,0,0,0
1709455850.00057912,75428983,1556,1553,1552,1560,0,0,0,0,0,0,0,0,0,0
1709455850.10053921,75528943,1548,1543,1538,1555,0,0,0,0,0,0,0,0,0,0
1709455850.20049906,75628903,1538,1535,1530,1544,0,0,0,0,0,0,0,0,0,0
1709455850.30045915,75728863,1532,1528,1525,1534,0,0,0,0,0,0,0,0,0,0
1709455850.40041924,75828823,1526,1526,1524,1527,0,0,0,0,0,0,0,0,0,0
1709455850.50037909,75928783,1526,1525,1526,1524,0,0,0,0,0,0,0,0,0,0
1709455850.60033917,76028743,1526,1527,1529,1524,0,0,0,0,0,0,0,0,0,0
1709455850.70029926,76128703,1530,1530,1534,1527,0,0,0,0,0,0,0,0,0,0
1709455850.80025911,76228663,1533,1534,1538,1531,0,0,0,0,0,0,0,0,0,0
1709455850.90021920,76328623,1537,1536,1540,1537,0,0,0,0,0,0,0,0,0,0
1709455851.00017905,76428583,1540,1540,1542,1541,0,0,0,0,0,0,0,0,0,0
1709455851.10013914,76528543,1544,1543,1544,1545,0,0,0,0,0,0,0,0,0,0
1709455851.20009923,76628503,1547,1547,1548,1549,0,0,0,0,0,0,0,0,0,0
1709455851.30005908,76728463,1550,1550,1550,1552,0,0,0,0,0,0,0,0,0,0
1709455851.40001917,76828423,1552,1553,1552,1554,0,0,0,0,0,0,0,0,0,0
1709455851.49997926,76928383,1561,1566,1546,1548,0,0,0,0,0,0,0,0,0,0
1709455851.59993911,77028343,1586,1586,1525,1528,0,0,0,0,0,0,0,0,0,0
1709455851.69989920,77128303,1583,1579,1537,1538,0,0,0,0,0,0,0,0,0,0
1709455851.79985905,77228263,1570,1567,1554,1553,0,0,0,0,0,0,0,0,0,0
1709455851.89981914,77328223,1559,1556,1569,1569,0,0,0,0,0,0,0,0,0,0
1709455851.99977922,77428183,1550,1550,1580,1579,0,0,0,0,0,0,0,0,0,0
1709455852.10057211,77528976,1546,1546,1587,1587,0,0,0,0,0,0,0,0,0,0
1709455852.20053220,77628936,1544,1548,1590,1590,0,0,0,0,0,0,0,0,0,0
1709455852.30049205,77728896,1547,1549,1589,1590,0,0,0,0,0,0,0,0,0,0
1709455852.40045214,77828856,1551,1555,1587,1587,0,0,0,0,0,0,0,0,0,0
1709455852.50041223,77928816,1558,1559,1581,1583,0,0,0,0,0,0,0,0,0,0
1709455852.60037208,78028776,1565,1566,1577,1577,0,0,0,0,0,0,0,0,0,0
1709455852.70033216,78128736,1572,1571,1572,1572,0,0,0,0,0,0,0,0,0,0
1709455852.80029225,78228696,1578,1577,1568,1568,0,0,0,0,0,0,0,0,0,0
1709455852.90025210,78328656,1582,1581,1566,1565,0,0,0,0,0,0,0,0,0,0
1709455853.00021219,78428616,1585,1585,1565,1563,0,0,0,0,0,0,0,0,0,0
1709455853.10017204,78528576,1586,1585,1564,1563,0,0,0,0,0,0,0,0,0,0
1709455853.20013213,78628536,1586,1585,1565,1564,0,0,0,0,0,0,0,0,0,0
1709455853.30009222,78728496,1586,1584,1567,1567,0,0,0,0,0,0,0,0,0,0
1709455853.40005207,78828456,1583,1583,1569,1569,0,0,0,0,0,0,0,0,0,0
1709455853.50001216,78928416,1581,1580,1572,1572,0,0,0,0,0,0,0,0,0,0
1709455853.59997225,79028376,1578,1578,1574,1574,0,0,0,0,0,0,0,0,0,0
1709455853.69993210,79128336,1576,1576,1577,1577,0,0,0,0,0,0,0,0,0,0
1709455853.79989219,79228296,1574,1575,1579,1579,0,0,0,0,0,0,0,0,0,0
1709455853.89985204,79328256,1573,1574,1581,1581,0,0,0,0,0,0,0,0,0,0
1709455853.99981213,79428216,1572,1573,1581,1581,0,0,0,0,0,0,0,0,0,0
1709455854.09977221,79528176,1573,1573,1582,1582,0,0,0,0,0,0,0,0,0,0
1709455854.20056510,79628969,1573,1573,1581,1581,0,0,0,0,0,0,0,0,0,0
1709455854.30052519,79728929,1574,1574,1580,1580,0,0,0,0,0,0,0,0,0,0
1709455854.40048504,79828889,1575,1575,1579,1579,0,0,0,0,0,0,0,0,0,0
1709455854.50044513,79928849,1577,1577,1579,1579,0,0,0,0,0,0,0,0,0,0
1709455854.60040522,80028809,1577,1578,1578,1578,0,0,0,0,0,0,0,0,0,0
1709455854.70036507,80128769,1579,1578,1578,1578,0,0,0,0,0,0,0,0,0,0
1709455854.80032516,80228729,1580,1580,1577,1577,0,0,0,0,0,0,0,0,0,0
1709455854.90028524,80328689,1581,1579,1577,1577,0,0,0,0,0,0,0,0,0,0
1709455855.00024509,80428649,1581,1581,1578,1578,0,0,0,0,0,0,0,0,0,0
1709455855.10020518,80528609,1580,1580,1577,1577,0,0,0,0,0,0,0,0,0,0
1709455855.20016503,80628569,1580,1581,1578,1578,0,0,0,0,0,0,0,0,0,0
1709455855.30012512,80728529,1580,1580,1579,1579,0,0,0,0,0,0,0,0,0,0
1709455855.40008521,80828489,1580,1580,1579,1579,0,0,0,0,0,0,0,0,0,0
1709455855.50004506,80928449,1579,1578,1579,1579,0,0,0,0,0,0,0,0,0,0
1709455855.60000515,81028409,1578,1578,1579,1579,0,0,0,0,0,0,0,0,0,0
1709455855.69996524,81128369,1579,1578,1580,1580,0,0,0,0,0,0,0,0,0,0
1709455855.79992509,81228329,1578,1579,1580,1580,0,0,0,0,0,0,0,0,0,0
1709455855.89988518,81328289,1578,1578,1580,1580,0,0,0,0,0,0,0,0,0,0
1709455855.99984503,81428249,1578,1579,1581,1581,0,0,0,0,0,0,0,0,0,0
1709455856.09980512,81528209,1579,1579,1581,1581,0,0,0,0,0,0,0,0,0,0
1709455856.19976521,81628169,1579,1579,1580,1581,0,0,0,0,0,0,0,0,0,0
1709455856.30055809,81728962,1579,1578,1580,1580,0,0,0,0,0,0,0,0,0,0
1709455856.40051818,81828922,1580,1580,1580,1580,0,0,0,0,0,0,0,0,0,0
1709455856.50047803,81928882,1579,1579,1579,1580,0,0,0,0,0,0,0,0,0,0
1709455856.60043812,82028842,1580,1580,1581,1580,0,0,0,0,0,0,0,0,0,0
1709455856.70039821,82128802,1579,1580,1580,1579,0,0,0,0,0,0,0,0,0,0
1709455856.80035806,82228762,1581,1581,1580,1580,0,0,0,0,0,0,0,0,0,0
1709455856.90031815,82328722,1581,1581,1581,1581,0,0,0,0,0,0,0,0,0,0
1709455857.00027823,82428682,1581,1581,1581,1581,0,0,0,0,0,0,0,0,0,0
1709455857.10023808,82528642,1581,1580,1580,1580,0,0,0,0,0,0,0,0,0,0
1709455857.20019817,82628602,1581,1581,1581,1581,0,0,0,0,0,0,0,0,0,0
1709455857.30015826,82728562,1581,1581,1581,1581,0,0,0,0,0,0,0,0,0,0
1709455857.40011811,82828522,1581,1581,1581,1581,0,0,0,0,0,0,0,0,0,0
1709455857.50007820,82928482,1581,1581,1581,1581,0,0,0,0,0,0,0,0,0,0
1709455857.60003805,83028442,1580,1580,1580,1580,0,0,0,0,0,0,0,0,0,0
1709455857.69999814,83128402,1581,1582,1587,1576,0,0,0,0,0,0,0,0,0,0
1709455857.79995823,83228362,1580,1584,1587,1573,0,0,0,0,0,0,0,0,0,0
1709455857.89991808,83328322,1579,1582,1580,1573,0,0,0,0,0,0,0,0,0,0
1709455857.99987817,83428282,1578,1580,1570,1571,0,0,0,0,0,0,0,0,0,0
1709455858.09983826,83528242,1578,1580,1562,1569,0,0,0,0,0,0,0,0,0,0
1709455858.19979811,83628202,1579,1579,1557,1564,0,0,0,0,0,0,0,0,0,0
1709455858.29975820,83728162,1580,1579,1554,1559,0,0,0,0,0,0,0,0,0,0
1709455858.40055108,83828955,1581,1580,1554,1556,0,0,0,0,0,0,0,0,0,0
1709455858.50051117,83928915,1580,1579,1554,1553,0,0,0,0,0,0,0,0,0,0
1709455858.60047126,84028875,1580,1579,1555,1552,0,0,0,0,0,0,0,0,0,0
1709455858.70043111,84128835,1578,1578,1554,1552,0,0,0,0,0,0,0,0,0,0
1709455858.80039120,84228795,1577,1579,1556,1554,0,0,0,0,0,0,0,0,0,0
1709455858.90035105,84328755,1576,1577,1555,1554,0,0,0,0,0,0,0,0,0,0
1709455859.00031114,84428715,1576,1578,1554,1554,0,0,0,0,0,0,0,0,0,0
1709455859.10027122,84528675,1576,1578,1554,1554,0,0,0,0,0,0,0,0,0,0
1709455859.20023108,84628635,1577,1578,1552,1553,0,0,0,0,0,0,0,0,0,0
1709455859.30019116,84728595,1579,1580,1550,1550,0,0,0,0,0,0,0,0,0,0
1709455859.40015125,84828555,1581,1582,1548,1548,0,0,0,0,0,0,0,0,0,0
1709455859.50011110,84928515,1584,1584,1546,1545,0,0,0,0,0,0,0,0,0,0
1709455859.60007119,85028475,1587,1587,1543,1542,0,0,0,0,0,0,0,0,0,0
1709455859.70003104,85128435,1590,1591,1541,1541,0,0,0,0,0,0,0,0,0,0
1709455859.79999113,85228395,1593,1593,1539,1540,0,0,0,0,0,0,0,0,0,0
1709455859.89995122,85328355,1595,1595,1537,1538,0,0,0,0,0,0,0,0,0,0
1709455859.99991107,85428315,1596,1596,1536,1538,0,0,0,0,0,0,0,0,0,0
1709455860.09987116,85528275,1596,1597,1537,1540,0,0,0,0,0,0,0,0,0,0
1709455860.19983125,85628235,1596,1596,1540,1543,0,0,0,0,0,0,0,0,0,0
1709455860.29979110,85728195,1593,1591,1545,1548,0,0,0,0,0,0,0,0,0,0
1709455860.39975119,85828155,1588,1584,1553,1555,0,0,0,0,0,0,0,0,0,0
1709455860.50054407,85928948,1578,1573,1562,1565,0,0,0,0,0,0,0,0,0,0
1709455860.60050416,86028908,1569,1565,1576,1578,0,0,0,0,0,0,0,0,0,0
1709455860.70046425,86128868,1556,1553,1587,1589,0,0,0,0,0,0,0,0,0,0
1709455860.80042410,86228828,1545,1544,1599,1600,0,0,0,0,0,0,0,0,0,0
1709455860.90038419,86328788,1536,1535,1607,1607,0,0,0,0,0,0,0,0,0,0
1709455861.00034404,86428748,1530,1532,1614,1612,0,0,0,0,0,0,0,0,0,0
1709455861.10030413,86528708,1529,1532,1616,1615,0,0,0,0,0,0,0,0,0,0
1709455861.20026422,86628668,1533,1536,1615,1614,0,0,0,0,0,0,0,0,0,0
1709455861.30022407,86728628,1538,1540,1610,1610,0,0,0,0,0,0,0,0,0,0
1709455861.40018415,86828588,1545,1547,1604,1604,0,0,0,0,0,0,0,0,0,0
1709455861.50014424,86928548,1554,1555,1596,1596,0,0,0,0,0,0,0,0,0,0
1709455861.60010409,87028508,1563,1564,1589,1588,0,0,0,0,0,0,0,0,0,0
1709455861.70006418,87128468,1572,1571,1582,1581,0,0,0,0,0,0,0,0,0,0
1709455861.80002403,87228428,1578,1577,1575,1574,0,0,0,0,0,0,0,0,0,0
1709455861.89998412,87328388,1583,1581,1569,1569,0,0,0,0,0,0,0,0,0,0
1709455861.99994421,87428348,1586,1584,1567,1566,0,0,0,0,0,0,0,0,0,0
1709455862.09990406,87528308,1587,1586,1566,1566,0,0,0,0,0,0,0,0,0,0
1709455862.19986415,87628268,1585,1584,1565,1565,0,0,0,0,0,0,0,0,0,0
1709455862.29982424,87728228,1584,1584,1567,1568,0,0,0,0,0,0,0,0,0,0
1709455862.39978409,87828188,1582,1582,1570,1570,0,0,0,0,0,0,0,0,0,0
1709455862.50057721,87928981,1579,1578,1573,1573,0,0,0,0,0,0,0,0,0,0
1709455862.60053706,88028941,1576,1576,1576,1576,0,0,0,0,0,0,0,0,0,0
1709455862.70049715,88128901,1572,1572,1578,1578,0,0,0,0,0,0,0,0,0,0
1709455862.80045724,88228861,1571,1572,1581,1580,0,0,0,0,0,0,0,0,0,0
1709455862.90041709,88328821,1570,1571,1582,1582,0,0,0,0,0,0,0,0,0,0
1709455863.00037718,88428781,1569,1570,1582,1582,0,0,0,0,0,0,0,0,0,0
1709455863.10033703,88528741,1570,1570,1582,1582,0,0,0,0,0,0,0,0,0,0
1709455863.20029712,88628701,1570,1571,1581,1581,0,0,0,0,0,0,0,0,0,0
1709455863.30025721,88728661,1572,1573,1581,1581,0,0,0,0,0,0,0,0,0,0
1709455863.40021706,88828621,1574,1574,1580,1580,0,0,0,0,0,0,0,0,0,0
1709455863.50017715,88928581,1576,1575,1578,1578,0,0,0,0,0,0,0,0,0,0
1709455863.60013723,89028541,1576,1576,1577,1576,0,0,0,0,0,0,0,0,0,0
1709455863.70009708,89128501,1578,1577,1575,1576,0,0,0,0,0,0,0,0,0,0
1709455863.80005717,89228461,1578,1578,1575,1575,0,0,0,0,0,0,0,0,0,0
1709455863.90001726,89328421,1580,1580,1576,1576,0,0,0,0,0,0,0,0,0,0
1709455863.99997711,89428381,1579,1579,1575,1575,0,0,0,0,0,0,0,0,0,0
1709455864.09993720,89528341,1580,1580,1577,1577,0,0,0,0,0,0,0,0,0,0
1709455864.19989705,89628301,1579,1579,1576,1576,0,0,0,0,0,0,0,0,0,0
1709455864.29985714,89728261,1579,1579,1577,1576,0,0,0,0,0,0,0,0,0,0
1709455864.39981723,89828221,1578,1578,1577,1577,0,0,0,0,0,0,0,0,0,0
1709455864.49977708,89928181,1577,1576,1577,1577,0,0,0,0,0,0,0,0,0,0
1709455864.60057020,90028974,1577,1577,1577,1578,0,0,0,0,0,0,0,0,0,0
1709455864.70053005,90128934,1576,1577,1578,1578,0,0,0,0,0,0,0,0,0,0
1709455864.80049014,90228894,1576,1577,1578,1578,0,0,0,0,0,0,0,0,0,0
1709455864.90045023,90328854,1576,1577,1579,1578,0,0,0,0,0,0,0,0,0,0
1709455865.00041008,90428814,1578,1578,1580,1580,0,0,0,0,0,0,0,0,0,0
1709455865.10037017,90528774,1578,1577,1579,1579,0,0,0,0,0,0,0,0,0,0
1709455865.20033026,90628734,1578,1578,1579,1579,0,0,0,0,0,0,0,0,0,0
1709455865.30029011,90728694,1578,1578,1579,1578,0,0,0,0,0,0,0,0,0,0
1709455865.40025020,90828654,1579,1578,1578,1579,0,0,0,0,0,0,0,0,0,0
1709455865.50021005,90928614,1580,1580,1580,1579,0,0,0,0,0,0,0,0,0,0
1709455865.60017014,91028574,1578,1581,1583,1572,0,0,0,0,0,0,0,0,0,0
1709455865.70013022,91128534,1578,1583,1583,1569,0,0,0,0,0,0,0,0,0,0
1709455865.80009007,91228494,1579,1583,1575,1569,0,0,0,0,0,0,0,0,0,0
1709455865.90005016,91328454,1579,1581,1565,1567,0,0,0,0,0,0,0,0,0,0
1709455866.00001025,91428414,1579,1580,1557,1564,0,0,0,0,0,0,0,0,0,0
1709455866.09997010,91528374,1580,1580,1553,1559,0,0,0,0,0,0,0,0,0,0
1709455866.19993019,91628334,1582,1580,1551,1555,0,0,0,0,0,0,0,0,0,0
1709455866.29989004,91728294,1583,1581,1551,1553,0,0,0,0,0,0,0,0,0,0
1709455866.39985013,91828254,1583,1581,1552,1551,0,0,0,0,0,0,0,0,0,0
1709455866.49981022,91928214,1581,1580,1553,1551,0,0,0,0,0,0,0,0,0,0
1709455866.59977007,92028174,1579,1579,1554,1552,0,0,0,0,0,0,0,0,0,0
1709455866.70056319,92128967,1578,1578,1555,1553,0,0,0,0,0,0,0,0,0,0
1709455866.80052304,92228927,1576,1578,1554,1554,0,0,0,0,0,0,0,0,0,0
1709455866.90048313,92328887,1576,1578,1555,1554,0,0,0,0,0,0,0,0,0,0
1709455867.00044322,92428847,1575,1576,1553,1553,0,0,0,0,0,0,0,0,0,0
1709455867.10040307,92528807,1577,1578,1553,1553,0,0,0,0,0,0,0,0,0,0
1709455867.20036316,92628767,1578,1579,1552,1552,0,0,0,0,0,0,0,0,0,0
1709455867.30032325,92728727,1580,1581,1551,1551,0,0,0,0,0,0,0,0,0,0
1709455867.40028310,92828687,1582,1582,1550,1549,0,0,0,0,0,0,0,0,0,0
1709455867.50024319,92928647,1584,1585,1548,1548,0,0,0,0,0,0,0,0,0,0
1709455867.60020304,93028607,1587,1588,1545,1546,0,0,0,0,0,0,0,0,0,0
1709455867.70016313,93128567,1589,1590,1543,1544,0,0,0,0,0,0,0,0,0,0
1709455867.80012321,93228527,1592,1593,1543,1544,0,0,0,0,0,0,0,0,0,0
1709455867.90008307,93328487,1592,1592,1543,1545,0,0,0,0,0,0,0,0,0,0
1709455868.00004315,93428447,1592,1590,1546,1548,0,0,0,0,0,0,0,0,0,0
1709455868.10000324,93528407,1589,1587,1551,1554,0,0,0,0,0,0,0,0,0,0
1709455868.19996309,93628367,1585,1581,1560,1562,0,0,0,0,0,0,0,0,0,0
1709455868.29992318,93728327,1578,1574,1569,1571,0,0,0,0,0,0,0,0,0,0
1709455868.39988303,93828287,1569,1566,1579,1580,0,0,0,0,0,0,0,0,0,0
1709455868.49984312,93928247,1560,1559,1588,1589,0,0,0,0,0,0,0,0,0,0
1709455868.59980321,94028207,1553,1552,1597,1597,0,0,0,0,0,0,0,0,0,0
1709455868.69976306,94128167,1546,1546,1602,1602,0,0,0,0,0,0,0,0,0,0
1709455868.80055618,94228960,1543,1544,1606,1605,0,0,0,0,0,0,0,0,0,0
1709455868.90051603,94328920,1543,1544,1607,1607,0,0,0,0,0,0,0,0,0,0
1709455869.00047612,94428880,1545,1547,1606,1605,0,0,0,0,0,0,0,0,0,0
1709455869.10043621,94528840,1550,1552,1604,1603,0,0,0,0,0,0,0,0,0,0
1709455869.20039606,94628800,1557,1558,1601,1599,0,0,0,0,0,0,0,0,0,0
1709455869.30035615,94728760,1562,1563,1594,1593,0,0,0,0,0,0,0,0,0,0
1709455869.40031624,94828720,1567,1567,1586,1586,0,0,0,0,0,0,0,0,0,0
1709455869.50027609,94928680,1573,1573,1580,1580,0,0,0,0,0,0,0,0,0,0
1709455869.60023618,95028640,1579,1578,1576,1576,0,0,0,0,0,0,0,0,0,0
1709455869.70019603,95128600,1583,1582,1572,1573,0,0,0,0,0,0,0,0,0,0
1709455869.80015612,95228560,1584,1583,1570,1569,0,0,0,0,0,0,0,0,0,0
1709455869.90011621,95328520,1585,1584,1569,1569,0,0,0,0,0,0,0,0,0,0
1709455870.00007606,95428480,1585,1584,1569,1569,0,0,0,0,0,0,0,0,0,0
1709455870.10003614,95528440,1584,1583,1571,1571,0,0,0,0,0,0,0,0,0,0
1709455870.19999623,95628400,1582,1581,1573,1573,0,0,0,0,0,0,0,0,0,0
1709455870.29995608,95728360,1579,1579,1575,1575,0,0,0,0,0,0,0,0,0,0
1709455870.39991617,95828320,1576,1576,1577,1576,0,0,0,0,0,0,0,0,0,0
1709455870.49987626,95928280,1574,1574,1579,1578,0,0,0,0,0,0,0,0,0,0
1709455870.59983611,96028240,1572,1572,1580,1580,0,0,0,0,0,0,0,0,0,0
1709455870.69979620,96128200,1570,1570,1580,1581,0,0,0,0,0,0,0,0,0,0
1709455870.79975605,96228160,1571,1570,1582,1582,0,0,0,0,0,0,0,0,0,0
1709455870.90054917,96328953,1570,1570,1582,1582,0,0,0,0,0,0,0,0,0,0
1709455871.00050926,96428913,1571,1570,1582,1582,0,0,0,0,0,0,0,0,0,0
1709455871.10046911,96528873,1571,1571,1581,1581,0,0,0,0,0,0,0,0,0,0
1709455871.20042920,96628833,1572,1572,1581,1581,0,0,0,0,0,0,0,0,0,0
1709455871.30038905,96728793,1573,1574,1580,1580,0,0,0,0,0,0,0,0,0,0
1709455871.40034914,96828753,1574,1573,1579,1579,0,0,0,0,0,0,0,0,0,0
1709455871.50030923,96928713,1574,1574,1578,1578,0,0,0,0,0,0,0,0,0,0
1709455871.60026908,97028673,1576,1575,1577,1578,0,0,0,0,0,0,0,0,0,0
1709455871.70022917,97128633,1576,1575,1577,1577,0,0,0,0,0,0,0,0,0,0
1709455871.80018926,97228593,1575,1575,1576,1576,0,0,0,0,0,0,0,0,0,0
1709455871.90014911,97328553,1575,1575,1576,1576,0,0,0,0,0,0,0,0,0,0
1709455872.00010920,97428513,1575,1575,1576,1576,0,0,0,0,0,0,0,0,0,0
1709455872.10006905,97528473,1576,1576,1576,1577,0,0,0,0,0,0,0,0,0,0
1709455872.20002913,97628433,1576,1575,1576,1577,0,0,0,0,0,0,0,0,0,0
1709455872.29998922,97728393,1575,1576,1577,1577,0,0,0,0,0,0,0,0,0,0
1709455872.39994907,97828353,1576,1576,1577,1577,0,0,0,0,0,0,0,0,0,0
1709455872.49990916,97928313,1575,1575,1576,1577,0,0,0,0,0,0,0,0,0,0
1709455872.59986925,98028273,1575,1575,1576,1576,0,0,0,0,0,0,0,0,0,0
1709455872.69982910,98128233,1575,1575,1576,1575,0,0,0,0,0,0,0,0,0,0
1709455872.79978919,98228193,1576,1576,1575,1576,0,0,0,0,0,0,0,0,0,0
1709455872.90058208,98328986,1576,1578,1576,1576,0,0,0,0,0,0,0,0,0,0
1709455873.00054216,98428946,1576,1577,1575,1575,0,0,0,0,0,0,0,0,0,0
1709455873.10050225,98528906,1577,1579,1576,1575,0,0,0,0,0,0,0,0,0,0
1709455873.20046210,98628866,1578,1578,1575,1575,0,0,0,0,0,0,0,0,0,0
1709455873.30042219,98728826,1579,1579,1575,1575,0,0,0,0,0,0,0,0,0,0
1709455873.40038204,98828786,1580,1580,1575,1577,0,0,0,0,0,0,0,0,0,0
1709455873.50034213,98928746,1581,1580,1577,1576,0,0,0,0,0,0,0,0,0,0
1709455873.60030222,99028706,1580,1580,1580,1573,0,0,0,0,0,0,0,0,0,0
1709455873.70026207,99128666,1580,1581,1585,1569,0,0,0,0,0,0,0,0,0,0
1709455873.80022216,99228626,1578,1580,1579,1571,0,0,0,0,0,0,0,0,0,0
1709455873.90018225,99328586,1575,1578,1570,1570,0,0,0,0,0,0,0,0,0,0
1709455874.00014210,99428546,1575,1577,1563,1569,0,0,0,0,0,0,0,0,0,0
1709455874.10010219,99528506,1574,1577,1558,1565,0,0,0,0,0,0,0,0,0,0
1709455874.20006204,99628466,1576,1577,1556,1561,0,0,0,0,0,0,0,0,0,0
1709455874.30002213,99728426,1577,1576,1556,1557,0,0,0,0,0,0,0,0,0,0
1709455874.39998221,99828386,1578,1576,1556,1555,0,0,0,0,0,0,0,0,0,0
1709455874.49994206,99928346,1577,1577,1558,1554,0,0,0,0,0,0,0,0,0,0
1709455874.59990215,100028306,1577,1576,1558,1555,0,0,0,0,0,0,0,0,0,0
1709455874.69986224,100128266,1576,1576,1558,1555,0,0,0,0,0,0,0,0,0,0
1709455874.79982209,100228226,1575,1575,1557,1556,0,0,0,0,0,0,0,0,0,0
1709455874.89978218,100328186,1573,1575,1556,1555,0,0,0,0,0,0,0,0,0,0
1709455875.00057507,100428979,1573,1573,1554,1555,0,0,0,0,0,0,0,0,0,0
1709455875.10053515,100528939,1573,1574,1554,1555,0,0,0,0,0,0,0,0,0,0
1709455875.20049524,100628899,1575,1574,1554,1556,0,0,0,0,0,0,0,0,0,0
1709455875.30045509,100728859,1575,1574,1553,1554,0,0,0,0,0,0,0,0,0,0
1709455875.40041518,100828819,1575,1575,1552,1553,0,0,0,0,0,0,0,0,0,0
1709455875.50037503,100928779,1576,1577,1552,1551,0,0,0,0,0,0,0,0,0,0
1709455875.60033512,101028739,1579,1579,1551,1551,0,0,0,0,0,0,0,0,0,0
1709455875.70029521,101128699,1580,1581,1550,1548,0,0,0,0,0,0,0,0,0,0
1709455875.80025506,101228659,1581,1582,1547,1547,0,0,0,0,0,0,0,0,0,0
1709455875.90021515,101328619,1582,1584,1545,1545,0,0,0,0,0,0,0,0,0,0
1709455876.00017524,101428579,1585,1584,1543,1544,0,0,0,0,0,0,0,0,0,0
1709455876.10013509,101528539,1586,1586,1543,1543,0,0,0,0,0,0,0,0,0,0
1709455876.20009518,101628499,1587,1587,1543,1543,0,0,0,0,0,0,0,0,0,0
1709455876.30005503,101728459,1587,1589,1541,1543,0,0,0,0,0,0,0,0,0,0
1709455876.40001512,101828419,1587,1587,1542,1544,0,0,0,0,0,0,0,0,0,0
1709455876.49997520,101928379,1587,1587,1546,1548,0,0,0,0,0,0,0,0,0,0
1709455876.59993505,102028339,1585,1582,1552,1554,0,0,0,0,0,0,0,0,0,0
1709455876.69989514,102128299,1579,1576,1558,1560,0,0,0,0,0,0,0,0,0,0
1709455876.79985523,102228259,1572,1568,1568,1569,0,0,0,0,0,0,0,0,0,0
1709455876.89981508,102328219,1564,1561,1578,1580,0,0,0,0,0,0,0,0,0,0
1709455876.99977517,102428179,1555,1554,1588,1588,0,0,0,0,0,0,0,0,0,0
1709455877.10056806,102528972,1547,1549,1597,1597,0,0,0,0,0,0,0,0,0,0
1709455877.20052814,102628932,1541,1541,1602,1601,0,0,0,0,0,0,0,0,0,0
1709455877.30048823,102728892,1538,1539,1606,1606,0,0,0,0,0,0,0,0,0,0
1709455877.40044808,102828852,1538,1539,1608,1607,0,0,0,0,0,0,0,0,0,0
1709455877.50040817,102928812,1541,1541,1606,1607,0,0,0,0,0,0,0,0,0,0
1709455877.60036826,103028772,1545,1545,1603,1603,0,0,0,0,0,0,0,0,0,0
1709455877.70032811,103128732,1552,1552,1599,1598,0,0,0,0,0,0,0,0,0,0
1709455877.80028820,103228692,1559,1559,1593,1592,0,0,0,0,0,0,0,0,0,0
1709455877.90024805,103328652,1566,1566,1586,1585,0,0,0,0,0,0,0,0,0,0
1709455878.00020814,103428612,1573,1574,1580,1579,0,0,0,0,0,0,0,0,0,0
1709455878.10016823,103528572,1579,1580,1573,1574,0,0,0,0,0,0,0,0,0,0
1709455878.20012808,103628532,1583,1584,1569,1569,0,0,0,0,0,0,0,0,0,0
1709455878.30008817,103728492,1585,1585,1566,1567,0,0,0,0,0,0,0,0,0,0
1709455878.40004826,103828452,1587,1586,1566,1567,0,0,0,0,0,0,0,0,0,0
1709455878.50000811,103928412,1587,1586,1568,1569,0,0,0,0,0,0,0,0,0,0
1709455878.59996819,104028372,1584,1583,1570,1569,0,0,0,0,0,0,0,0,0,0
1709455878.69992805,104128332,1581,1580,1572,1572,0,0,0,0,0,0,0,0,0,0
1709455878.79988813,104228292,1577,1577,1575,1574,0,0,0,0,0,0,0,0,0,0
1709455878.89984822,104328252,1575,1575,1577,1577,0,0,0,0,0,0,0,0,0,0
1709455878.99980807,104428212,1572,1573,1579,1579,0,0,0,0,0,0,0,0,0,0
1709455879.09976816,104528172,1571,1572,1582,1582,0,0,0,0,0,0,0,0,0,0
1709455879.20056105,104628965,1570,1571,1582,1582,0,0,0,0,0,0,0,0,0,0
1709455879.30052114,104728925,1571,1571,1582,1583,0,0,0,0,0,0,0,0,0,0
1709455879.40048122,104828885,1571,1571,1582,1582,0,0,0,0,0,0,0,0,0,0
1709455879.50044107,104928845,1572,1573,1581,1581,0,0,0,0,0,0,0,0,0,0
1709455879.60040116,105028805,1574,1574,1580,1580,0,0,0,0,0,0,0,0,0,0
1709455879.70036125,105128765,1575,1575,1578,1579,0,0,0,0,0,0,0,0,0,0
1709455879.80032110,105228725,1577,1577,1577,1577,0,0,0,0,0,0,0,0,0,0
1709455879.90028119,105328685,1578,1578,1576,1577,0,0,0,0,0,0,0,0,0,0
1709455880.00024104,105428645,1579,1579,1576,1576,0,0,0,0,0,0,0,0,0,0
1709455880.10020113,105528605,1581,1580,1576,1576,0,0,0,0,0,0,0,0,0,0
1709455880.20016122,105628565,1581,1580,1576,1576,0,0,0,0,0,0,0,0,0,0
1709455880.30012107,105728525,1580,1579,1575,1575,0,0,0,0,0,0,0,0,0,0
1709455880.40008116,105828485,1580,1580,1576,1576,0,0,0,0,0,0,0,0,0,0
1709455880.50004125,105928445,1579,1579,1576,1577,0,0,0,0,0,0,0,0,0,0
1709455880.60000110,106028405,1578,1578,1577,1577,0,0,0,0,0,0,0,0,0,0
1709455880.69996119,106128365,1578,1578,1578,1578,0,0,0,0,0,0,0,0,0,0
1709455880.79992104,106228325,1577,1578,1578,1579,0,0,0,0,0,0,0,0,0,0
1709455880.89988112,106328285,1576,1577,1578,1578,0,0,0,0,0,0,0,0,0,0
1709455880.99984121,106428245,1577,1577,1579,1579,0,0,0,0,0,0,0,0,0,0
1709455881.09980106,106528205,1577,1576,1579,1579,0,0,0,0,0,0,0,0,0,0
1709455881.19976115,106628165,1577,1577,1580,1579,0,0,0,0,0,0,0,0,0,0
1709455881.30055404,106728958,1577,1578,1580,1579,0,0,0,0,0,0,0,0,0,0
1709455881.40051413,106828918,1577,1579,1580,1580,0,0,0,0,0,0,0,0,0,0
1709455881.50047421,106928878,1577,1579,1580,1580,0,0,0,0,0,0,0,0,0,0
1709455881.60043406,107028838,1577,1578,1579,1579,0,0,0,0,0,0,0,0,0,0
1709455881.70039415,107128798,1578,1577,1579,1580,0,0,0,0,0,0,0,0,0,0
1709455881.80035424,107228758,1577,1577,1583,1576,0,0,0,0,0,0,0,0,0,0
1709455881.90031409,107328718,1576,1575,1587,1572,0,0,0,0,0,0,0,0,0,0
1709455882.00027418,107428678,1574,1573,1581,1574,0,0,0,0,0,0,0,0,0,0
1709455882.10023403,107528638,1574,1572,1574,1576,0,0,0,0,0,0,0,0,0,0
1709455882.20019412,107628598,1572,1571,1567,1574,0,0,0,0,0,0,0,0,0,0
1709455882.30015421,107728558,1571,1571,1563,1571,0,0,0,0,0,0,0,0,0,0
1709455882.40011406,107828518,1570,1571,1562,1566,0,0,0,0,0,0,0,0,0,0
1709455882.50007415,107928478,1570,1570,1562,1563,0,0,0,0,0,0,0,0,0,0
1709455882.60003424,108028438,1570,1570,1563,1561,0,0,0,0,0,0,0,0,0,0
1709455882.69999409,108128398,1570,1569,1564,1561,0,0,0,0,0,0,0,0,0,0
1709455882.79995418,108228358,1568,1567,1565,1562,0,0,0,0,0,0,0,0,0,0
1709455882.89991426,108328318,1565,1566,1565,1563,0,0,0,0,0,0,0,0,0,0
1709455882.99987411,108428278,1564,1564,1565,1564,0,0,0,0,0,0,0,0,0,0
1709455883.09983420,108528238,1562,1563,1566,1565,0,0,0,0,0,0,0,0,0,0
1709455883.19979405,108628198,1561,1561,1565,1565,0,0,0,0,0,0,0,0,0,0
1709455883.29975414,108728158,1559,1559,1564,1565,0,0,0,0,0,0,0,0,0,0
1709455883.40054703,108828951,1560,1560,1565,1565,0,0,0,0,0,0,0,0,0,0
1709455883.50050712,108928911,1559,1559,1563,1564,0,0,0,0,0,0,0,0,0,0
1709455883.60046721,109028871,1559,1559,1563,1563,0,0,0,0,0,0,0,0,0,0
1709455883.70042706,109128831,1559,1559,1562,1561,0,0,0,0,0,0,0,0,0,0
1709455883.80038714,109228791,1559,1558,1560,1559,0,0,0,0,0,0,0,0,0,0
1709455883.90034723,109328751,1559,1559,1559,1559,0,0,0,0,0,0,0,0,0,0
1709455884.00030708,109428711,1558,1557,1558,1557,0,0,0,0,0,0,0,0,0,0
1709455884.10026717,109528671,1556,1556,1555,1554,0,0,0,0,0,0,0,0,0,0
1709455884.20022726,109628631,1554,1553,1552,1550,0,0,0,0,0,0,0,0,0,0
1709455884.30018711,109728591,1551,1551,1550,1547,0,0,0,0,0,0,0,0,0,0
1709455884.40014720,109828551,1549,1548,1548,1545,0,0,0,0,0,0,0,0,0,0
1709455884.50010705,109928511,1545,1546,1546,1542,0,0,0,0,0,0,0,0,0,0
1709455884.60006714,110028471,1543,1542,1541,1540,0,0,0,0,0,0,0,0,0,0
1709455884.70002723,110128431,1543,1544,1540,1545,0,0,0,0,0,0,0,0,0,0
1709455884.79998708,110228391,1552,1553,1547,1557,0,0,0,0,0,0,0,0,0,0
1709455884.89994717,110328351,1553,1553,1548,1558,0,0,0,0,0,0,0,0,0,0
1709455884.99990726,110428311,1552,1551,1549,1554,0,0,0,0,0,0,0,0,0,0
1709455885.09986711,110528271,1548,1547,1547,1549,0,0,0,0,0,0,0,0,0,0
1709455885.19982719,110628231,1543,1542,1544,1542,0,0,0,0,0,0,0,0,0,0
1709455885.29978704,110728191,1536,1537,1538,1536,0,0,0,0,0,0,0,0,0,0
1709455885.40058017,110828984,1530,1529,1532,1529,0,0,0,0,0,0,0,0,0,0
1709455885.50054026,110928944,1525,1525,1526,1525,0,0,0,0,0,0,0,0,0,0
1709455885.60050011,111028904,1524,1524,1525,1525,0,0,0,0,0,0,0,0,0,0
1709455885.70046020,111128864,1524,1525,1525,1525,0,0,0,0,0,0,0,0,0,0
1709455885.80042005,111228824,1525,1526,1527,1527,0,0,0,0,0,0,0,0,0,0
1709455885.90038013,111328784,1527,1529,1531,1530,0,0,0,0,0,0,0,0,0,0
1709455886.00034022,111428744,1532,1530,1534,1536,0,0,0,0,0,0,0,0,0,0
1709455886.10030007,111528704,1536,1535,1539,1541,0,0,0,0,0,0,0,0,0,0
1709455886.20026016,111628664,1540,1539,1542,1545,0,0,0,0,0,0,0,0,0,0
1709455886.30022025,111728624,1542,1542,1544,1546,0,0,0,0,0,0,0,0,0,0
1709455886.40018010,111828584,1544,1544,1545,1547,0,0,0,0,0,0,0,0,0,0
1709455886.50014019,111928544,1546,1548,1547,1547,0,0,0,0,0,0,0,0,0,0
1709455886.60010004,112028504,1549,1550,1546,1547,0,0,0,0,0,0,0,0,0,0
1709455886.70006013,112128464,1550,1552,1546,1546,0,0,0,0,0,0,0,0,0,0
1709455886.80002022,112228424,1552,1554,1545,1546,0,0,0,0,0,0,0,0,0,0
1709455886.89998007,112328384,1552,1555,1545,1544,0,0,0,0,0,0,0,0,0,0
1709455886.99994016,112428344,1553,1554,1545,1543,0,0,0,0,0,0,0,0,0,0
1709455887.09990025,112528304,1554,1553,1546,1543,0,0,0,0,0,0,0,0,0,0
1709455887.19986010,112628264,1552,1550,1546,1543,0,0,0,0,0,0,0,0,0,0
1709455887.29982018,112728224,1550,1549,1546,1545,0,0,0,0,0,0,0,0,0,0
1709455887.39978004,112828184,1549,1547,1548,1547,0,0,0,0,0,0,0,0,0,0
1709455887.50057316,112928977,1546,1546,1549,1548,0,0,0,0,0,0,0,0,0,0
1709455887.60053325,113028937,1544,1544,1549,1549,0,0,0,0,0,0,0,0,0,0
1709455887.70049310,113128897,1543,1543,1550,1550,0,0,0,0,0,0,0,0,0,0
1709455887.80045319,113228857,1541,1541,1549,1549,0,0,0,0,0,0,0,0,0,0
1709455887.90041304,113328817,1541,1541,1549,1548,0,0,0,0,0,0,0,0,0,0
1709455888.00037313,113428777,1541,1542,1549,1549,0,0,0,0,0,0,0,0,0,0
1709455888.10033321,113528737,1542,1542,1548,1547,0,0,0,0,0,0,0,0,0,0
1709455888.20029306,113628697,1544,1544,1547,1547,0,0,0,0,0,0,0,0,0,0
1709455888.30025315,113728657,1545,1545,1546,1546,0,0,0,0,0,0,0,0,0,0
1709455888.40021324,113828617,1544,1545,1545,1544,0,0,0,0,0,0,0,0,0,0
1709455888.50017309,113928577,1546,1546,1544,1544,0,0,0,0,0,0,0,0,0,0
1709455888.60013318,114028537,1546,1546,1543,1543,0,0,0,0,0,0,0,0,0,0
1709455888.70009303,114128497,1547,1546,1543,1543,0,0,0,0,0,0,0,0,0,0
1709455888.80005312,114228457,1546,1546,1542,1543,0,0,0,0,0,0,0,0,0,0
1709455888.90001321,114328417,1546,1546,1543,1542,0,0,0,0,0,0,0,0,0,0
1709455888.99997306,114428377,1545,1546,1543,1543,0,0,0,0,0,0,0,0,0,0
1709455889.09993315,114528337,1547,1546,1544,1544,0,0,0,0,0,0,0,0,0,0
1709455889.19989324,114628297,1545,1545,1543,1544,0,0,0,0,0,0,0,0,0,0
1709455889.29985309,114728257,1545,1544,1544,1545,0,0,0,0,0,0,0,0,0,0
1709455889.39981318,114828217,1544,1544,1545,1544,0,0,0,0,0,0,0,0,0,0
1709455889.49977326,114928177,1544,1543,1545,1545,0,0,0,0,0,0,0,0,0,0
1709455889.60056615,115028970,1543,1544,1545,1545,0,0,0,0,0,0,0,0,0,0
1709455889.70052624,115128930,1545,1544,1546,1546,0,0,0,0,0,0,0,0,0,0
1709455889.80048609,115228890,1543,1544,1545,1545,0,0,0,0,0,0,0,0,0,0
1709455889.90044618,115328850,1544,1544,1545,1545,0,0,0,0,0,0,0,0,0,0
1709455890.00040603,115428810,1543,1544,1545,1544,0,0,0,0,0,0,0,0,0,0
1709455890.10036612,115528770,1543,1543,1546,1544,0,0,0,0,0,0,0,0,0,0
1709455890.20032620,115628730,1542,1543,1547,1545,0,0,0,0,0,0,0,0,0,0
1709455890.30028605,115728690,1543,1541,1547,1546,0,0,0,0,0,0,0,0,0,0
1709455890.40024614,115828650,1542,1541,1546,1547,0,0,0,0,0,0,0,0,0,0
1709455890.50020623,115928610,1542,1541,1546,1548,0,0,0,0,0,0,0,0,0,0
1709455890.60016608,116028570,1541,1541,1544,1546,0,0,0,0,0,0,0,0,0,0
1709455890.70012617,116128530,1543,1542,1544,1546,0,0,0,0,0,0,0,0,0,0
1709455890.80008626,116228490,1543,1544,1543,1544,0,0,0,0,0,0,0,0,0,0
1709455890.90004611,116328450,1545,1545,1542,1543,0,0,0,0,0,0,0,0,0,0
1709455891.00000620,116428410,1546,1547,1542,1541,0,0,0,0,0,0,0,0,0,0
1709455891.09996605,116528370,1549,1549,1541,1541,0,0,0,0,0,0,0,0,0,0
1709455891.19992614,116628330,1548,1549,1539,1538,0,0,0,0,0,0,0,0,0,0
1709455891.29988623,116728290,1551,1549,1541,1540,0,0,0,0,0,0,0,0,0,0
1709455891.39984608,116828250,1549,1549,1541,1540,0,0,0,0,0,0,0,0,0,0
1709455891.49980617,116928210,1548,1547,1541,1541,0,0,0,0,0,0,0,0,0,0
1709455891.59976625,117028170,1546,1547,1543,1542,0,0,0,0,0,0,0,0,0,0
1709455891.70055914,117128963,1545,1544,1544,1544,0,0,0,0,0,0,0,0,0,0
1709455891.80051923,117228923,1542,1543,1545,1545,0,0,0,0,0,0,0,0,0,0
1709455891.90047908,117328883,1542,1541,1545,1547,0,0,0,0,0,0,0,0,0,0
1709455892.00043917,117428843,1541,1542,1548,1548,0,0,0,0,0,0,0,0,0,0
1709455892.10039926,117528803,1541,1540,1547,1548,0,0,0,0,0,0,0,0,0,0
1709455892.20035911,117628763,1541,1541,1548,1547,0,0,0,0,0,0,0,0,0,0
1709455892.30031919,117728723,1542,1541,1547,1547,0,0,0,0,0,0,0,0,0,0
1709455892.40027905,117828683,1541,1542,1546,1546,0,0,0,0,0,0,0,0,0,0
1709455892.50023913,117928643,1543,1543,1545,1546,0,0,0,0,0,0,0,0,0,0
1709455892.60019922,118028603,1544,1544,1545,1545,0,0,0,0,0,0,0,0,0,0
1709455892.70015907,118128563,1544,1543,1543,1544,0,0,0,0,0,0,0,0,0,0
1709455892.80011916,118228523,1544,1544,1543,1543,0,0,0,0,0,0,0,0,0,0
1709455892.90007925,118328483,1545,1544,1542,1542,0,0,0,0,0,0,0,0,0,0
1709455893.00003910,118428443,1545,1546,1543,1542,0,0,0,0,0,0,0,0,0,0
1709455893.09999919,118528403,1546,1545,1543,1543,0,0,0,0,0,0,0,0,0,0
1709455893.19995904,118628363,1545,1545,1542,1543,0,0,0,0,0,0,0,0,0,0
1709455893.29991913,118728323,1546,1545,1543,1544,0,0,0,0,0,0,0,0,0,0
1709455893.39987922,118828283,1545,1545,1544,1544,0,0,0,0,0,0,0,0,0,0
1709455893.49983907,118928243,1545,1544,1544,1544,0,0,0,0,0,0,0,0,0,0
1709455893.59979916,119028203,1543,1544,1544,1544,0,0,0,0,0,0,0,0,0,0
1709455893.69975924,119128163,1545,1544,1545,1545,0,0,0,0,0,0,0,0,0,0
1709455893.80055213,119228956,1544,1545,1546,1545,0,0,0,0,0,0,0,0,0,0
1709455893.90051222,119328916,1544,1544,1545,1545,0,0,0,0,0,0,0,0,0,0
1709455894.00047207,119428876,1544,1544,1545,1545,0,0,0,0,0,0,0,0,0,0
1709455894.10043216,119528836,1545,1544,1546,1546,0,0,0,0,0,0,0,0,0,0
1709455894.20039225,119628796,1544,1544,1545,1546,0,0,0,0,0,0,0,0,0,0
1709455894.30035210,119728756,1544,1545,1546,1545,0,0,0,0,0,0,0,0,0,0
1709455894.40031219,119828716,1543,1544,1547,1545,0,0,0,0,0,0,0,0,0,0
1709455894.50027204,119928676,1542,1543,1547,1545,0,0,0,0,0,0,0,0,0,0
1709455894.60023212,120028636,1540,1542,1546,1546,0,0,0,0,0,0,0,0,0,0
1709455894.70019221,120128596,1542,1540,1547,1548,0,0,0,0,0,0,0,0,0,0
1709455894.80015206,120228556,1542,1541,1547,1549,0,0,0,0,0,0,0,0,0,0
1709455894.90011215,120328516,1461,1469,1490,1461,0,0,0,0,0,0,0,0,0,0
1709455895.00007224,120428476,1282,1300,1342,1278,0,0,0,0,0,0,0,0,0,0
1709455895.10003209,120528436,1204,1224,1279,1201,0,0,0,0,0,0,0,0,0,0
1709455895.19999218,120628396,1176,1200,1254,1181,0,0,0,0,0,0,0,0,0,0
1709455895.29995203,120728356,1150,1171,1228,1156,0,0,0,0,0,0,0,0,0,0
1709455895.39991212,120828316,1150,1175,1228,1157,0,0,0,0,0,0,0,0,0,0
1709455895.49987221,120928276,1150,1176,1226,1155,0,0,0,0,0,0,0,0,0,0
1709455895.59983206,121028236,1243,1150,1222,1225,0,0,0,0,0,0,0,0,0,0
1709455895.69979215,121128196,1220,1150,1221,1201,0,0,0,0,0,0,0,0,0,0
1709455895.79975224,121228156,1195,1150,1215,1175,0,0,0,0,0,0,0,0,0,0
1709455895.90054512,121328949,1194,1150,1213,1169,0,0,0,0,0,0,0,0,0,0
1709455896.00050521,121428909,1197,1150,1214,1169,0,0,0,0,0,0,0,0,0,0
1709455896.10046506,121528869,1203,1150,1217,1172,0,0,0,0,0,0,0,0,0,0
1709455896.20042515,121628829,1207,1150,1219,1175,0,0,0,0,0,0,0,0,0,0
1709455896.30038524,121728789,1214,1150,1223,1179,0,0,0,0,0,0,0,0,0,0
1709455896.40034509,121828749,1175,1150,1199,1167,0,0,0,0,0,0,0,0,0,0
1709455896.50030518,121928709,1183,1150,1205,1171,0,0,0,0,0,0,0,0,0,0
1709455896.60026526,122028669,1186,1150,1207,1173,0,0,0,0,0,0,0,0,0,0
1709455896.70022511,122128629,1188,1150,1209,1175,0,0,0,0,0,0,0,0,0,0
1709455896.80018520,122228589,1189,1150,1210,1177,0,0,0,0,0,0,0,0,0,0
1709455896.90014505,122328549,1000,1000,1000,1000,0,0,0,0,0,0,0,0,0,0
1709455897.00010514,122428509,1000,1000,1000,1000,0,0,0,0,0,0,0,0,0,0
1709455897.10006523,122528469,1000,1000,1000,1000,0,0,0,0,0,0,0,0,0,0
1709455897.20002508,122628429,1000,1000,1000,1000,0,0,0,0,0,0,0,0,0,0
1709455897.29998517,122728389,1000,1000,1000,1000,0,0,0,0,0,0,0,0,0,0
1709455897.39994526,122828349,1000,1000,1000,1000,0,0,0,0,0,0,0,0,0,0
1709455897.49990511,122928309,1000,1000,1000,1000,0,0,0,0,0,0,0,0,0,0
1709455897.59986520,123028269,1000,1000,1000,1000,0,0,0,0,0,0,0,0,0,0
1709455897.69982505,123128229,1000,1000,1000,1000,0,0,0,0,0,0,0,0,0,0
1709455897.79978514,123228189,1000,1000,1000,1000,0,0,0,0,0,0,0,0,0,0
1709455897.90057826,123328982,1000,1000,1000,1000,0,0,0,0,0,0,0,0,0,0
1709455898.00053811,123428942,1000,1000,1000,1000,0,0,0,0,0,0,0,0,0,0
1709455898.10049820,123528902,1000,1000,1000,1000,0,0,0,0,0,0,0,0,0,0
1709455898.20045805,123628862,1000,1000,1000,1000,0,0,0,0,0,0,0,0,0,0
1709455898.30041814,123728822,1000,1000,1000,1000,0,0,0,0,0,0,0,0,0,0
1709455898.40037823,123828782,1000,1000,1000,1000,0,0,0,0,0,0,0,0,0,0
1709455898.50033808,123928742,1000,1000,1000,1000,0,0,0,0,0,0,0,0,0,0
1709455898.60029817,124028702,1000,1000,1000,1000,0,0,0,0,0,0,0,0,0,0
1709455898.70025826,124128662,1000,1000,1000,1000,0,0,0,0,0,0,0,0,0,0
1709455898.80021811,124228622,1000,1000,1000,1000,0,0,0,0,0,0,0,0,0,0
1709455898.90017819,124328582,1000,1000,1000,1000,0,0,0,0,0,0,0,0,0,0
1709455899.00013804,124428542,1000,1000,1000,1000,0,0,0,0,0,0,0,0,0,0
1709455899.10009813,124528502,1000,1000,1000,1000,0,0,0,0,0,0,0,0,0,0
1709455899.20005822,124628462,1000,1000,1000,1000,0,0,0,0,0,0,0,0,0,0
1709455899.30001807,124728422,1000,1000,1000,1000,0,0,0,0,0,0,0,0,0,0
1709455899.39997816,124828382,1000,1000,1000,1000,0,0,0,0,0,0,0,0,0,0
1709455899.49993825,124928342,1000,1000,1000,1000,0,0,0,0,0,0,0,0,0,0
1709455899.59989810,125028302,1000,1000,1000,1000,0,0,0,0,0,0,0,0,0,0
1709455899.69985819,125128262,1000,1000,1000,1000,0,0,0,0,0,0,0,0,0,0
1709455899.79981804,125228222,1000,1000,1000,1000,0,0,0,0,0,0,0,0,0,0
1709455899.89977813,125328182,1000,1000,1000,1000,0,0,0,0,0,0,0,0,0,0
1709455900.00057125,125428975,1000,1000,1000,1000,0,0,0,0,0,0,0,0,0,0
1709455900.10053110,125528935,1000,1000,1000,1000,0,0,0,0,0,0,0,0,0,0
1709455900.20049119,125628895,1000,1000,1000,1000,0,0,0,0,0,0,0,0,0,0
1709455900.30045104,125728855,1000,1000,1000,1000,0,0,0,0,0,0,0,0,0,0
1709455900.40041113,125828815,1000,1000,1000,1000,0,0,0,0,0,0,0,0,0,0
1709455900.50037122,125928775,1000,1000,1000,1000,0,0,0,0,0,0,0,0,0,0
1709455900.60033107,126028735,1000,1000,1000,1000,0,0,0,0,0,0,0,0,0,0
1709455900.70029116,126128695,1000,1000,1000,1000,0,0,0,0,0,0,0,0,0,0
1709455900.80025125,126228655,1000,1000,1000,1000,0,0,0,0,0,0,0,0,0,0
1709455900.90021110,126328615,1000,1000,1000,1000,0,0,0,0,0,0,0,0,0,0
1709455901.00017118,126428575,1000,1000,1000,1000,0,0,0,0,0,0,0,0,0,0
1709455901.10013103,126528535,1000,1000,1000,1000,0,0,0,0,0,0,0,0,0,0
1709455901.20009112,126628495,1000,1000,1000,1000,0,0,0,0,0,0,0,0,0,0
1709455901.30005121,126728455,1000,1000,1000,1000,0,0,0,0,0,0,0,0,0,0
1709455901.40001106,126828415,1000,1000,1000,1000,0,0,0,0,0,0,0,0,0,0
1709455901.49997115,126928375,1000,1000,1000,1000,0,0,0,0,0,0,0,0,0,0
1709455901.59993124,127028335,1000,1000,1000,1000,0,0,0,0,0,0,0,0,0,0
1709455901.69989109,127128295,1000,1000,1000,1000,0,0,0,0,0,0,0,0,0,0
1709455901.79985118,127228255,1000,1000,1000,1000,0,0,0,0,0,0,0,0,0,0
1709455901.89981103,127328215,1000,1000,1000,1000,0,0,0,0,0,0,0,0,0,0
1709455901.99977112,127428175,1000,1000,1000,1000,0,0,0,0,0,0,0,0,0,0
1709455902.10056424,127528968,1000,1000,1000,1000,0,0,0,0,0,0,0,0,0,0
1709455902.20052409,127628928,1000,1000,1000,1000,0,0,0,0,0,0,0,0,0,0
1709455902.30048418,127728888,1000,1000,1000,1000,0,0,0,0,0,0,0,0,0,0
1709455902.40044403,127828848,1000,1000,1000,1000,0,0,0,0,0,0,0,0,0,0
1709455902.50040412,127928808,1000,1000,1000,1000,0,0,0,0,0,0,0,0,0,0
1709455902.60036421,128028768,1000,1000,1000,1000,0,0,0,0,0,0,0,0,0,0
1709455902.70032406,128128728,1000,1000,1000,1000,0,0,0,0,0,0,0,0,0,0
1709455902.80028415,128228688,1000,1000,1000,1000,0,0,0,0,0,0,0,0,0,0
1709455902.90024424,128328648,1000,1000,1000,1000,0,0,0,0,0,0,0,0,0,0
1709455903.00020409,128428608,1000,1000,1000,1000,0,0,0,0,0,0,0,0,0,0
1709455903.10016418,128528568,1000,1000,1000,1000,0,0,0,0,0,0,0,0,0,0
1709455903.20012426,128628528,1000,1000,1000,1000,0,0,0,0,0,0,0,0,0,0
1709455903.30008411,128728488,1000,1000,1000,1000,0,0,0,0,0,0,0,0,0,0
1709455903.40004420,128828448,1000,1000,1000,1000,0,0,0,0,0,0,0,0,0,0
1709455903.50000405,128928408,1000,1000,1000,1000,0,0,0,0,0,0,0,0,0,0
1709455903.59996414,129028368,1000,1000,1000,1000,0,0,0,0,0,0,0,0,0,0
1709455903.69992423,129128328,1000,1000,1000,1000,0,0,0,0,0,0,0,0,0,0
1709455903.79988408,129228288,1000,1000,1000,1000,0,0,0,0,0,0,0,0,0,0
1709455903.89984417,129328248,1000,1000,1000,1000,0,0,0,0,0,0,0,0,0,0
1709455903.99980426,129428208,1000,1000,1000,1000,0,0,0,0,0,0,0,0,0,0
1709455904.09976411,129528168,1000,1000,1000,1000,0,0,0,0,0,0,0,0,0,0
1709455904.20055723,129628961,1000,1000,1000,1000,0,0,0,0,0,0,0,0,0,0
1709455904.30051708,129728921,1000,1000,1000,1000,0,0,0,0,0,0,0,0,0,0
1709455904.40047717,129828881,1000,1000,1000,1000,0,0,0,0,0,0,0,0,0,0
1709455904.50043726,129928841,1000,1000,1000,1000,0,0,0,0,0,0,0,0,0,0
1709455904.60039711,130028801,1000,1000,1000,1000,0,0,0,0,0,0,0,0,0,0
1709455904.70035720,130128761,1000,1000,1000,1000,0,0,0,0,0,0,0,0,0,0
1709455904.80031705,130228721,1000,1000,1000,1000,0,0,0,0,0,0,0,0,0,0
1709455904.90027714,130328681,1000,1000,1000,1000,0,0,0,0,0,0,0,0,0,0
1709455905.00023723,130428641,1000,1000,1000,1000,0,0,0,0,0,0,0,0,0,0
1709455905.10019708,130528601,1000,1000,1000,1000,0,0,0,0,0,0,0,0,0,0
1709455905.20015717,130628561,1000,1000,1000,1000,0,0,0,0,0,0,0,0,0,0
1709455905.30011725,130728521,1000,1000,1000,1000,0,0,0,0,0,0,0,0,0,0
1709455905.40007710,130828481,1000,1000,1000,1000,0,0,0,0,0,0,0,0,0,0
1709455905.50003719,130928441,1000,1000,1000,1000,0,0,0,0,0,0,0,0,0,0
1709455905.59999704,131028401,1000,1000,1000,1000,0,0,0,0,0,0,0,0,0,0
1709455905.69995713,131128361,1000,1000,1000,1000,0,0,0,0,0,0,0,0,0,0
1709455905.79991722,131228321,1000,1000,1000,1000,0,0,0,0,0,0,0,0,0,0
1709455905.89987707,131328281,1000,1000,1000,1000,0,0,0,0,0,0,0,0,0,0
1709455905.99983716,131428241,1000,1000,1000,1000,0,0,0,0,0,0,0,0,0,0
1709455906.09979725,131528201,1000,1000,1000,1000,0,0,0,0,0,0,0,0,0,0
1709455906.19975710,131628161,1000,1000,1000,1000,0,0,0,0,0,0,0,0,0,0
1709455906.30055022,131728954,1000,1000,1000,1000,0,0,0,0,0,0,0,0,0,0
1709455906.40051007,131828914,1000,1000,1000,1000,0,0,0,0,0,0,0,0,0,0
1709455906.50047016,131928874,1000,1000,1000,1000,0,0,0,0,0,0,0,0,0,0
1709455906.60043025,132028834,1000,1000,1000,1000,0,0,0,0,0,0,0,0,0,0
1709455906.70039010,132128794,1000,1000,1000,1000,0,0,0,0,0,0,0,0,0,0
1709455906.80035019,132228754,1000,1000,1000,1000,0,0,0,0,0,0,0,0,0,0
1709455906.90031004,132328714,1000,1000,1000,1000,0,0,0,0,0,0,0,0,0,0
1709455907.00027013,132428674,1000,1000,1000,1000,0,0,0,0,0,0,0,0,0,0
1709455907.10023022,132528634,1000,1000,1000,1000,0,0,0,0,0,0,0,0,0,0
1709455907.20019007,132628594,1000,1000,1000,1000,0,0,0,0,0,0,0,0,0,0
1709455907.30015016,132728554,1000,1000,1000,1000,0,0,0,0,0,0,0,0,0,0
1709455907.40011024,132828514,1000,1000,1000,1000,0,0,0,0,0,0,0,0,0,0
1709455907.50007010,132928474,1000,1000,1000,1000,0,0,0,0,0,0,0,0,0,0
1709455907.60003018,133028434,1000,1000,1000,1000,0,0,0,0,0,0,0,0,0,0
1709455907.69999003,133128394,1000,1000,1000,1000,0,0,0,0,0,0,0,0,0,0
1709455907.79995012,133228354,1000,1000,1000,1000,0,0,0,0,0,0,0,0,0,0
1709455907.89991021,133328314,1000,1000,1000,1000,0,0,0,0,0,0,0,0,0,0
1709455907.99987006,133428274,1000,1000,1000,1000,0,0,0,0,0,0,0,0,0,0
1709455908.09983015,133528234,1000,1000,1000,1000,0,0,0,0,0,0,0,0,0,0
1709455908.19979024,133628194,1000,1000,1000,1000,0,0,0,0,0,0,0,0,0,0
1709455908.29975009,133728154,1000,1000,1000,1000,0,0,0,0,0,0,0,0,0,0
1709455908.40054321,133828947,1000,1000,1000,1000,0,0,0,0,0,0,0,0,0,0
1709455908.50050306,133928907,1000,1000,1000,1000,0,0,0,0,0,0,0,0,0,0
1709455908.60046315,134028867,1000,1000,1000,1000,0,0,0,0,0,0,0,0,0,0
1709455908.70042324,134128827,1000,1000,1000,1000,0,0,0,0,0,0,0,0,0,0
1709455908.80038309,134228787,1000,1000,1000,1000,0,0,0,0,0,0,0,0,0,0
1709455908.90034318,134328747,1000,1000,1000,1000,0,0,0,0,0,0,0,0,0,0
1709455909.00030303,134428707,1000,1000,1000,1000,0,0,0,0,0,0,0,0,0,0
1709455909.10026312,134528667,1000,1000,1000,1000,0,0,0,0,0,0,0,0,0,0
1709455909.20022321,134628627,1000,1000,1000,1000,0,0,0,0,0,0,0,0,0,0
1709455909.30018306,134728587,1000,1000,1000,1000,0,0,0,0,0,0,0,0,0,0
1709455909.40014315,134828547,1000,1000,1000,1000,0,0,0,0,0,0,0,0,0,0
1709455909.50010324,134928507,1000,1000,1000,1000,0,0,0,0,0,0,0,0,0,0
1709455909.60006309,135028467,1000,1000,1000,1000,0,0,0,0,0,0,0,0,0,0
1709455909.70002317,135128427,1000,1000,1000,1000,0,0,0,0,0,0,0,0,0,0
1709455909.79998326,135228387,1000,1000,1000,1000,0,0,0,0,0,0,0,0,0,0
1709455909.89994311,135328347,1000,1000,1000,1000,0,0,0,0,0,0,0,0,0,0
1709455909.99990320,135428307,1000,1000,1000,1000,0,0,0,0,0,0,0,0,0,0
1709455910.09986305,135528267,1000,1000,1000,1000,0,0,0,0,0,0,0,0,0,0
1709455910.19982314,135628227,1000,1000,1000,1000,0,0,0,0,0,0,0,0,0,0
1709455910.29978323,135728187,1000,1000,1000,1000,0,0,0,0,0,0,0,0,0,0
1709455910.40057611,135828980,1000,1000,1000,1000,0,0,0,0,0,0,0,0,0,0
1709455910.50053620,135928940,1000,1000,1000,1000,0,0,0,0,0,0,0,0,0,0
1709455910.60049605,136028900,1000,1000,1000,1000,0,0,0,0,0,0,0,0,0,0
1709455910.70045614,136128860,1000,1000,1000,1000,0,0,0,0,0,0,0,0,0,0
1709455910.80041623,136228820,1000,1000,1000,1000,0,0,0,0,0,0,0,0,0,0
1709455910.90037608,136328780,1000,1000,1000,1000,0,0,0,0,0,0,0,0,0,0
1709455911.00033617,136428740,1000,1000,1000,1000,0,0,0,0,0,0,0,0,0,0
1709455911.10029626,136528700,1000,1000,1000,1000,0,0,0,0,0,0,0,0,0,0
1709455911.20025611,136628660,1000,1000,1000,1000,0,0,0,0,0,0,0,0,0,0
1709455911.30021620,136728620,1000,1000,1000,1000,0,0,0,0,0,0,0,0,0,0
1709455911.40017605,136828580,1000,1000,1000,1000,0,0,0,0,0,0,0,0,0,0
1709455911.50013614,136928540,1000,1000,1000,1000,0,0,0,0,0,0,0,0,0,0
1709455911.60009623,137028500,1000,1000,1000,1000,0,0,0,0,0,0,0,0,0,0
1709455911.70005608,137128460,1000,1000,1000,1000,0,0,0,0,0,0,0,0,0,0
1709455911.80001616,137228420,1000,1000,1000,1000,0,0,0,0,0,0,0,0,0,0
