timestamp,TimeUS,C1,C2,C3,C4,C5,C6,C7,C8,C9,C10,C11,C12,C13,C14
1709457293.40000010,44628808,1000,1000,1000,1000,0,0,0,0,0,0,0,0,0,0
1709457293.49996018,44728768,1000,1000,1000,1000,0,0,0,0,0,0,0,0,0,0
1709457293.59992003,44828728,1000,1000,1000,1000,0,0,0,0,0,0,0,0,0,0
1709457293.69988012,44928688,1000,1000,1000,1000,0,0,0,0,0,0,0,0,0,0
1709457293.79983997,45028648,1000,1000,1000,1000,0,0,0,0,0,0,0,0,0,0
1709457293.89980006,45128608,1000,1000,1000,1000,0,0,0,0,0,0,0,0,0,0
1709457293.99976015,45228568,1000,1000,1000,1000,0,0,0,0,0,0,0,0,0,0
1709457294.09972000,45328528,1000,1000,1000,1000,0,0,0,0,0,0,0,0,0,0
1709457294.19968009,45428488,1000,1000,1000,1000,0,0,0,0,0,0,0,0,0,0
1709457294.29964018,45528448,1000,1000,1000,1000,0,0,0,0,0,0,0,0,0,0
1709457294.39960003,45628408,1000,1000,1000,1000,0,0,0,0,0,0,0,0,0,0
1709457294.49956012,45728368,1000,1000,1000,1000,0,0,0,0,0,0,0,0,0,0
1709457294.59951997,45828328,1000,1000,1000,1000,0,0,0,0,0,0,0,0,0,0
1709457294.69948006,45928288,1000,1000,1000,1000,0,0,0,0,0,0,0,0,0,0
1709457294.79944015,46028248,1000,1000,1000,1000,0,0,0,0,0,0,0,0,0,0
1709457294.89940000,46128208,1000,1000,1000,1000,0,0,0,0,0,0,0,0,0,0
1709457294.99936008,46228168,1000,1000,1000,1000,0,0,0,0,0,0,0,0,0,0
1709457295.10015297,46328961,1000,1000,1000,1000,0,0,0,0,0,0,0,0,0,0
1709457295.20011306,46428921,1000,1000,1000,1000,0,0,0,0,0,0,0,0,0,0
1709457295.30007315,46528881,1000,1000,1000,1000,0,0,0,0,0,0,0,0,0,0
1709457295.40003300,46628841,1012,1012,1012,1012,0,0,0,0,0,0,0,0,0,0
1709457295.49999309,46728801,1042,1042,1042,1042,0,0,0,0,0,0,0,0,0,0
1709457295.59995317,46828761,1072,1072,1072,1072,0,0,0,0,0,0,0,0,0,0
1709457295.69991302,46928721,1102,1102,1102,1102,0,0,0,0,0,0,0,0,0,0
1709457295.79987311,47028681,1132,1132,1132,1132,0,0,0,0,0,0,0,0,0,0
1709457295.89983296,47128641,1268,1262,1263,1268,0,0,0,0,0,0,0,0,0,0
1709457295.99979305,47228601,1481,1476,1477,1481,0,0,0,0,0,0,0,0,0,0
1709457296.09975314,47328561,1644,1641,1641,1644,0,0,0,0,0,0,0,0,0,0
1709457296.19971299,47428521,1782,1779,1779,1782,0,0,0,0,0,0,0,0,0,0
1709457296.29967308,47528481,1870,1866,1866,1870,0,0,0,0,0,0,0,0,0,0
1709457296.39963317,47628441,1867,1865,1865,1867,0,0,0,0,0,0,0,0,0,0
1709457296.49959302,47728401,1751,1750,1751,1751,0,0,0,0,0,0,0,0,0,0
1709457296.59955311,47828361,1652,1653,1653,1653,0,0,0,0,0,0,0,0,0,0
1709457296.69951296,47928321,1622,1624,1624,1623,0,0,0,0,0,0,0,0,0,0
1709457296.79947305,48028281,1631,1633,1633,1632,0,0,0,0,0,0,0,0,0,0
1709457296.89943314,48128241,1643,1645,1645,1643,0,0,0,0,0,0,0,0,0,0
1709457296.99939299,48228201,1635,1635,1630,1640,0,0,0,0,0,0,0,0,0,0
1709457297.09935308,48328161,1626,1626,1619,1633,0,0,0,0,0,0,0,0,0,0
1709457297.20014596,48428954,1617,1617,1613,1621,0,0,0,0,0,0,0,0,0,0
1709457297.30010605,48528914,1615,1615,1615,1615,0,0,0,0,0,0,0,0,0,0
1709457297.40006614,48628874,1616,1616,1619,1613,0,0,0,0,0,0,0,0,0,0
1709457297.50002599,48728834,1619,1620,1624,1615,0,0,0,0,0,0,0,0,0,0
1709457297.59998608,48828794,1622,1622,1626,1617,0,0,0,0,0,0,0,0,0,0
1709457297.69994617,48928754,1592,1591,1604,1578,0,0,0,0,0,0,0,0,0,0
1709457297.79990602,49028714,1578,1578,1588,1568,0,0,0,0,0,0,0,0,0,0
1709457297.89986610,49128674,1566,1566,1567,1564,0,0,0,0,0,0,0,0,0,0
1709457297.99982619,49228634,1555,1555,1550,1560,0,0,0,0,0,0,0,0,0,0
1709457298.09978604,49328594,1547,1547,1536,1557,0,0,0,0,0,0,0,0,0,0
1709457298.19974613,49428554,1541,1541,1530,1552,0,0,0,0,0,0,0,0,0,0
1709457298.29970598,49528514,1535,1535,1527,1542,0,0,0,0,0,0,0,0,0,0
1709457298.39966607,49628474,1531,1531,1528,1533,0,0,0,0,0,0,0,0,0,0
1709457298.49962616,49728434,1528,1527,1528,1526,0,0,0,0,0,0,0,0,0,0
1709457298.59958601,49828394,1527,1527,1529,1525,0,0,0,0,0,0,0,0,0,0
1709457298.69954610,49928354,1530,1530,1533,1527,0,0,0,0,0,0,0,0,0,0
1709457298.79950619,50028314,1533,1533,1536,1531,0,0,0,0,0,0,0,0,0,0
1709457298.89946604,50128274,1537,1537,1539,1535,0,0,0,0,0,0,0,0,0,0
1709457298.99942613,50228234,1541,1541,1543,1539,0,0,0,0,0,0,0,0,0,0
1709457299.09938598,50328194,1544,1544,1544,1543,0,0,0,0,0,0,0,0,0,0
1709457299.19934607,50428154,1547,1547,1547,1547,0,0,0,0,0,0,0,0,0,0
1709457299.30013919,50528947,1549,1549,1549,1550,0,0,0,0,0,0,0,0,0,0
1709457299.40009904,50628907,1552,1552,1551,1553,0,0,0,0,0,0,0,0,0,0
1709457299.50005913,50728867,1554,1553,1555,1558,0,0,0,0,0,0,0,0,0,0
1709457299.60001898,50828827,1553,1553,1560,1562,0,0,0,0,0,0,0,0,0,0
1709457299.69997907,50928787,1554,1554,1562,1563,0,0,0,0,0,0,0,0,0,0
1709457299.79993916,51028747,1558,1558,1563,1564,0,0,0,0,0,0,0,0,0,0
1709457299.89989901,51128707,1561,1562,1565,1564,0,0,0,0,0,0,0,0,0,0
1709457299.99985909,51228667,1564,1564,1565,1564,0,0,0,0,0,0,0,0,0,0
1709457300.09981918,51328627,1566,1566,1565,1565,0,0,0,0,0,0,0,0,0,0
1709457300.19977903,51428587,1568,1569,1565,1565,0,0,0,0,0,0,0,0,0,0
1709457300.29973912,51528547,1571,1570,1566,1566,0,0,0,0,0,0,0,0,0,0
1709457300.39969897,51628507,1573,1572,1567,1568,0,0,0,0,0,0,0,0,0,0
1709457300.49965906,51728467,1572,1572,1568,1568,0,0,0,0,0,0,0,0,0,0
1709457300.59961915,51828427,1573,1573,1569,1569,0,0,0,0,0,0,0,0,0,0
1709457300.69957900,51928387,1574,1574,1570,1571,0,0,0,0,0,0,0,0,0,0
1709457300.79953909,52028347,1574,1573,1571,1572,0,0,0,0,0,0,0,0,0,0
1709457300.89949918,52128307,1573,1573,1573,1572,0,0,0,0,0,0,0,0,0,0
1709457300.99945903,52228267,1573,1574,1574,1573,0,0,0,0,0,0,0,0,0,0
1709457301.09941912,52328227,1574,1574,1576,1575,0,0,0,0,0,0,0,0,0,0
1709457301.19937897,52428187,1574,1575,1576,1575,0,0,0,0,0,0,0,0,0,0
1709457301.30017209,52528980,1575,1575,1577,1576,0,0,0,0,0,0,0,0,0,0
1709457301.40013218,52628940,1575,1574,1576,1576,0,0,0,0,0,0,0,0,0,0
1709457301.50009203,52728900,1574,1574,1575,1575,0,0,0,0,0,0,0,0,0,0
1709457301.60005212,52828860,1574,1575,1576,1576,0,0,0,0,0,0,0,0,0,0
1709457301.70001197,52928820,1576,1575,1577,1576,0,0,0,0,0,0,0,0,0,0
1709457301.79997206,53028780,1576,1576,1577,1576,0,0,0,0,0,0,0,0,0,0
1709457301.89993215,53128740,1576,1576,1576,1576,0,0,0,0,0,0,0,0,0,0
1709457301.99989200,53228700,1577,1578,1577,1577,0,0,0,0,0,0,0,0,0,0
1709457302.09985209,53328660,1577,1577,1576,1577,0,0,0,0,0,0,0,0,0,0
1709457302.19981217,53428620,1579,1578,1577,1578,0,0,0,0,0,0,0,0,0,0
1709457302.29977202,53528580,1579,1578,1578,1578,0,0,0,0,0,0,0,0,0,0
1709457302.39973211,53628540,1578,1578,1578,1577,0,0,0,0,0,0,0,0,0,0
1709457302.49969196,53728500,1578,1578,1577,1577,0,0,0,0,0,0,0,0,0,0
1709457302.59965205,53828460,1578,1578,1578,1578,0,0,0,0,0,0,0,0,0,0
1709457302.69961214,53928420,1579,1579,1578,1578,0,0,0,0,0,0,0,0,0,0
1709457302.79957199,54028380,1578,1578,1578,1579,0,0,0,0,0,0,0,0,0,0
1709457302.89953208,54128340,1578,1578,1579,1579,0,0,0,0,0,0,0,0,0,0
1709457302.99949217,54228300,1579,1579,1579,1579,0,0,0,0,0,0,0,0,0,0
1709457303.09945202,54328260,1578,1578,1579,1579,0,0,0,0,0,0,0,0,0,0
1709457303.19941211,54428220,1579,1579,1579,1580,0,0,0,0,0,0,0,0,0,0
1709457303.29937196,54528180,1579,1579,1579,1579,0,0,0,0,0,0,0,0,0,0
1709457303.40016508,54628973,1578,1578,1578,1579,0,0,0,0,0,0,0,0,0,0
1709457303.50012517,54728933,1579,1579,1579,1579,0,0,0,0,0,0,0,0,0,0
1709457303.60008502,54828893,1580,1579,1580,1580,0,0,0,0,0,0,0,0,0,0
1709457303.70004511,54928853,1580,1580,1580,1580,0,0,0,0,0,0,0,0,0,0
1709457303.80000496,55028813,1580,1580,1580,1580,0,0,0,0,0,0,0,0,0,0
1709457303.89996505,55128773,1580,1581,1581,1580,0,0,0,0,0,0,0,0,0,0
1709457303.99992514,55228733,1580,1580,1580,1579,0,0,0,0,0,0,0,0,0,0
1709457304.09988499,55328693,1580,1579,1580,1579,0,0,0,0,0,0,0,0,0,0
1709457304.19984508,55428653,1580,1580,1579,1580,0,0,0,0,0,0,0,0,0,0
1709457304.29980516,55528613,1580,1580,1580,1580,0,0,0,0,0,0,0,0,0,0
1709457304.39976501,55628573,1580,1580,1580,1580,0,0,0,0,0,0,0,0,0,0
1709457304.49972510,55728533,1580,1580,1580,1580,0,0,0,0,0,0,0,0,0,0
1709457304.59968519,55828493,1580,1580,1580,1580,0,0,0,0,0,0,0,0,0,0
1709457304.69964504,55928453,1581,1581,1581,1581,0,0,0,0,0,0,0,0,0,0
1709457304.79960513,56028413,1580,1580,1580,1580,0,0,0,0,0,0,0,0,0,0
1709457304.89956498,56128373,1580,1580,1580,1580,0,0,0,0,0,0,0,0,0,0
1709457304.99952507,56228333,1580,1580,1580,1580,0,0,0,0,0,0,0,0,0,0
1709457305.09948516,56328293,1581,1581,1581,1581,0,0,0,0,0,0,0,0,0,0
1709457305.19944501,56428253,1581,1581,1581,1581,0,0,0,0,0,0,0,0,0,0
1709457305.29940510,56528213,1581,1581,1581,1581,0,0,0,0,0,0,0,0,0,0
1709457305.39936519,56628173,1581,1581,1581,1581,0,0,0,0,0,0,0,0,0,0
1709457305.50015807,56728966,1580,1580,1580,1580,0,0,0,0,0,0,0,0,0,0
1709457305.60011816,56828926,1581,1580,1581,1580,0,0,0,0,0,0,0,0,0,0
1709457305.70007801,56928886,1580,1580,1582,1578,0,0,0,0,0,0,0,0,0,0
1709457305.80003810,57028846,1579,1581,1587,1571,0,0,0,0,0,0,0,0,0,0
1709457305.89999819,57128806,1578,1581,1582,1572,0,0,0,0,0,0,0,0,0,0
1709457305.99995804,57228766,1578,1580,1574,1573,0,0,0,0,0,0,0,0,0,0
1709457306.09991813,57328726,1577,1579,1565,1571,0,0,0,0,0,0,0,0,0,0
1709457306.19987798,57428686,1577,1578,1559,1567,0,0,0,0,0,0,0,0,0,0
1709457306.29983807,57528646,1578,1578,1556,1562,0,0,0,0,0,0,0,0,0,0
1709457306.39979815,57628606,1579,1578,1556,1558,0,0,0,0,0,0,0,0,0,0
1709457306.49975801,57728566,1579,1578,1556,1555,0,0,0,0,0,0,0,0,0,0
1709457306.59971809,57828526,1579,1578,1556,1555,0,0,0,0,0,0,0,0,0,0
1709457306.69967818,57928486,1578,1578,1556,1554,0,0,0,0,0,0,0,0,0,0
1709457306.79963803,58028446,1577,1577,1556,1554,0,0,0,0,0,0,0,0,0,0
1709457306.89959812,58128406,1576,1577,1556,1555,0,0,0,0,0,0,0,0,0,0
1709457306.99955797,58228366,1575,1577,1555,1554,0,0,0,0,0,0,0,0,0,0
1709457307.09951806,58328326,1575,1577,1553,1553,0,0,0,0,0,0,0,0,0,0
1709457307.19947815,58428286,1575,1577,1551,1551,0,0,0,0,0,0,0,0,0,0
1709457307.29943800,58528246,1577,1578,1550,1550,0,0,0,0,0,0,0,0,0,0
1709457307.39939809,58628206,1579,1580,1548,1548,0,0,0,0,0,0,0,0,0,0
1709457307.49935818,58728166,1581,1582,1545,1545,0,0,0,0,0,0,0,0,0,0
1709457307.60015106,58828959,1584,1584,1542,1542,0,0,0,0,0,0,0,0,0,0
1709457307.70011115,58928919,1587,1587,1538,1539,0,0,0,0,0,0,0,0,0,0
1709457307.80007100,59028879,1590,1590,1536,1536,0,0,0,0,0,0,0,0,0,0
1709457307.90003109,59128839,1592,1593,1535,1535,0,0,0,0,0,0,0,0,0,0
1709457307.99999118,59228799,1594,1594,1534,1534,0,0,0,0,0,0,0,0,0,0
1709457308.09995103,59328759,1595,1595,1535,1536,0,0,0,0,0,0,0,0,0,0
1709457308.19991112,59428719,1593,1594,1536,1538,0,0,0,0,0,0,0,0,0,0
1709457308.29987097,59528679,1591,1591,1539,1542,0,0,0,0,0,0,0,0,0,0
1709457308.39983106,59628639,1588,1587,1545,1548,0,0,0,0,0,0,0,0,0,0
1709457308.49979115,59728599,1583,1580,1553,1557,0,0,0,0,0,0,0,0,0,0
1709457308.59975100,59828559,1574,1570,1564,1566,0,0,0,0,0,0,0,0,0,0
1709457308.69971108,59928519,1563,1559,1576,1577,0,0,0,0,0,0,0,0,0,0
1709457308.79967117,60028479,1552,1549,1588,1590,0,0,0,0,0,0,0,0,0,0
1709457308.89963102,60128439,1542,1539,1600,1600,0,0,0,0,0,0,0,0,0,0
1709457308.99959111,60228399,1533,1533,1609,1608,0,0,0,0,0,0,0,0,0,0
1709457309.09955096,60328359,1528,1529,1614,1613,0,0,0,0,0,0,0,0,0,0
1709457309.19951105,60428319,1527,1530,1615,1614,0,0,0,0,0,0,0,0,0,0
1709457309.29947114,60528279,1532,1534,1614,1614,0,0,0,0,0,0,0,0,0,0
1709457309.39943099,60628239,1538,1540,1609,1609,0,0,0,0,0,0,0,0,0,0
1709457309.49939108,60728199,1544,1546,1602,1602,0,0,0,0,0,0,0,0,0,0
1709457309.59935117,60828159,1552,1553,1593,1593,0,0,0,0,0,0,0,0,0,0
1709457309.70014405,60928952,1562,1562,1586,1585,0,0,0,0,0,0,0,0,0,0
1709457309.80010414,61028912,1569,1569,1577,1577,0,0,0,0,0,0,0,0,0,0
1709457309.90006399,61128872,1576,1575,1572,1571,0,0,0,0,0,0,0,0,0,0
1709457310.00002408,61228832,1582,1580,1568,1567,0,0,0,0,0,0,0,0,0,0
1709457310.09998417,61328792,1584,1583,1564,1563,0,0,0,0,0,0,0,0,0,0
1709457310.19994402,61428752,1585,1583,1562,1563,0,0,0,0,0,0,0,0,0,0
1709457310.29990411,61528712,1584,1584,1563,1563,0,0,0,0,0,0,0,0,0,0
1709457310.39986396,61628672,1582,1580,1563,1564,0,0,0,0,0,0,0,0,0,0
1709457310.49982405,61728632,1578,1578,1566,1566,0,0,0,0,0,0,0,0,0,0
1709457310.59978414,61828592,1576,1577,1570,1570,0,0,0,0,0,0,0,0,0,0
1709457310.69974399,61928552,1575,1575,1574,1574,0,0,0,0,0,0,0,0,0,0
1709457310.79970407,62028512,1571,1571,1576,1575,0,0,0,0,0,0,0,0,0,0
1709457310.89966416,62128472,1569,1570,1578,1577,0,0,0,0,0,0,0,0,0,0
1709457310.99962401,62228432,1568,1569,1580,1579,0,0,0,0,0,0,0,0,0,0
1709457311.09958410,62328392,1568,1569,1580,1580,0,0,0,0,0,0,0,0,0,0
1709457311.19954419,62428352,1568,1569,1580,1580,0,0,0,0,0,0,0,0,0,0
1709457311.29950404,62528312,1568,1569,1578,1578,0,0,0,0,0,0,0,0,0,0
1709457311.39946413,62628272,1570,1570,1577,1578,0,0,0,0,0,0,0,0,0,0
1709457311.49942398,62728232,1571,1571,1576,1577,0,0,0,0,0,0,0,0,0,0
1709457311.59938407,62828192,1574,1573,1576,1576,0,0,0,0,0,0,0,0,0,0
1709457311.70017719,62928985,1575,1575,1575,1575,0,0,0,0,0,0,0,0,0,0
1709457311.80013704,63028945,1576,1576,1574,1573,0,0,0,0,0,0,0,0,0,0
1709457311.90009713,63128905,1577,1577,1573,1573,0,0,0,0,0,0,0,0,0,0
1709457312.00005698,63228865,1578,1578,1573,1573,0,0,0,0,0,0,0,0,0,0
1709457312.10001707,63328825,1578,1578,1573,1573,0,0,0,0,0,0,0,0,0,0
1709457312.19997716,63428785,1577,1577,1573,1573,0,0,0,0,0,0,0,0,0,0
1709457312.29993701,63528745,1576,1576,1572,1572,0,0,0,0,0,0,0,0,0,0
1709457312.39989710,63628705,1576,1576,1573,1573,0,0,0,0,0,0,0,0,0,0
1709457312.49985719,63728665,1576,1576,1575,1575,0,0,0,0,0,0,0,0,0,0
1709457312.59981704,63828625,1576,1575,1575,1575,0,0,0,0,0,0,0,0,0,0
1709457312.69977713,63928585,1574,1575,1575,1575,0,0,0,0,0,0,0,0,0,0
1709457312.79973698,64028545,1574,1575,1576,1576,0,0,0,0,0,0,0,0,0,0
1709457312.89969707,64128505,1573,1574,1575,1575,0,0,0,0,0,0,0,0,0,0
1709457312.99965715,64228465,1574,1574,1576,1576,0,0,0,0,0,0,0,0,0,0
1709457313.09961700,64328425,1575,1574,1576,1576,0,0,0,0,0,0,0,0,0,0
1709457313.19957709,64428385,1574,1575,1576,1576,0,0,0,0,0,0,0,0,0,0
1709457313.29953718,64528345,1574,1574,1575,1575,0,0,0,0,0,0,0,0,0,0
1709457313.39949703,64628305,1574,1574,1575,1575,0,0,0,0,0,0,0,0,0,0
1709457313.49945712,64728265,1575,1575,1574,1575,0,0,0,0,0,0,0,0,0,0
1709457313.59941697,64828225,1575,1575,1575,1574,0,0,0,0,0,0,0,0,0,0
1709457313.69937706,64928185,1575,1575,1574,1574,0,0,0,0,0,0,0,0,0,0
1709457313.80017018,65028978,1575,1577,1581,1567,0,0,0,0,0,0,0,0,0,0
1709457313.90013003,65128938,1450,1537,1591,1579,0,0,0,0,0,0,0,0,0,0
1709457314.00009012,65228898,1519,1521,1591,1592,0,0,0,0,0,0,0,0,0,0
1709457314.10004997,65328858,1569,1524,1586,1593,0,0,0,0,0,0,0,0,0,0
1709457314.20001006,65428818,1603,1545,1583,1593,0,0,0,0,0,0,0,0,0,0
1709457314.29997015,65528778,1622,1574,1579,1588,0,0,0,0,0,0,0,0,0,0
1709457314.39993000,65628738,1622,1595,1571,1575,0,0,0,0,0,0,0,0,0,0
1709457314.49989009,65728698,1614,1609,1562,1561,0,0,0,0,0,0,0,0,0,0
1709457314.59985018,65828658,1605,1618,1555,1549,0,0,0,0,0,0,0,0,0,0
1709457314.69981003,65928618,1597,1619,1548,1540,0,0,0,0,0,0,0,0,0,0
1709457314.79977012,66028578,1595,1617,1544,1535,0,0,0,0,0,0,0,0,0,0
1709457314.89972997,66128538,1595,1611,1541,1532,0,0,0,0,0,0,0,0,0,0
1709457314.99969006,66228498,1595,1604,1537,1529,0,0,0,0,0,0,0,0,0,0
1709457315.09965014,66328458,1596,1599,1533,1530,0,0,0,0,0,0,0,0,0,0
1709457315.19960999,66428418,1595,1595,1529,1528,0,0,0,0,0,0,0,0,0,0
1709457315.29957008,66528378,1593,1593,1524,1526,0,0,0,0,0,0,0,0,0,0
1709457315.39953017,66628338,1593,1594,1521,1523,0,0,0,0,0,0,0,0,0,0
1709457315.49949002,66728298,1593,1596,1519,1521,0,0,0,0,0,0,0,0,0,0
1709457315.59945011,66828258,1593,1598,1520,1522,0,0,0,0,0,0,0,0,0,0
1709457315.69940996,66928218,1593,1596,1519,1522,0,0,0,0,0,0,0,0,0,0
1709457315.79937005,67028178,1593,1594,1522,1525,0,0,0,0,0,0,0,0,0,0
1709457315.90016317,67128971,1592,1590,1528,1533,0,0,0,0,0,0,0,0,0,0
1709457316.00012302,67228931,1589,1584,1536,1542,0,0,0,0,0,0,0,0,0,0
1709457316.10008311,67328891,1583,1576,1545,1553,0,0,0,0,0,0,0,0,0,0
1709457316.20004296,67428851,1575,1567,1557,1564,0,0,0,0,0,0,0,0,0,0
1709457316.30000305,67528811,1563,1554,1569,1575,0,0,0,0,0,0,0,0,0,0
1709457316.39996314,67628771,1550,1543,1584,1587,0,0,0,0,0,0,0,0,0,0
1709457316.49992299,67728731,1536,1531,1599,1599,0,0,0,0,0,0,0,0,0,0
1709457316.59988308,67828691,1522,1521,1612,1610,0,0,0,0,0,0,0,0,0,0
1709457316.69984317,67928651,1512,1515,1622,1618,0,0,0,0,0,0,0,0,0,0
1709457316.79980302,68028611,1509,1515,1626,1622,0,0,0,0,0,0,0,0,0,0
1709457316.89976311,68128571,1511,1518,1624,1621,0,0,0,0,0,0,0,0,0,0
1709457316.99972296,68228531,1519,1526,1618,1616,0,0,0,0,0,0,0,0,0,0
1709457317.09968305,68328491,1529,1535,1608,1607,0,0,0,0,0,0,0,0,0,0
1709457317.19964314,68428451,1542,1545,1595,1596,0,0,0,0,0,0,0,0,0,0
1709457317.29960299,68528411,1556,1556,1584,1585,0,0,0,0,0,0,0,0,0,0
1709457317.39956307,68628371,1568,1566,1573,1573,0,0,0,0,0,0,0,0,0,0
1709457317.49952316,68728331,1579,1575,1564,1564,0,0,0,0,0,0,0,0,0,0
1709457317.59948301,68828291,1587,1583,1559,1559,0,0,0,0,0,0,0,0,0,0
1709457317.69944310,68928251,1591,1587,1556,1556,0,0,0,0,0,0,0,0,0,0
1709457317.79940319,69028211,1592,1589,1556,1556,0,0,0,0,0,0,0,0,0,0
1709457317.89936304,69128171,1590,1588,1557,1557,0,0,0,0,0,0,0,0,0,0
1709457318.00015616,69228964,1587,1586,1560,1560,0,0,0,0,0,0,0,0,0,0
1709457318.10011601,69328924,1585,1585,1565,1565,0,0,0,0,0,0,0,0,0,0
1709457318.20007610,69428884,1581,1581,1568,1568,0,0,0,0,0,0,0,0,0,0
1709457318.30003619,69528844,1578,1579,1572,1571,0,0,0,0,0,0,0,0,0,0
1709457318.39999604,69628804,1574,1575,1574,1574,0,0,0,0,0,0,0,0,0,0
1709457318.49995613,69728764,1571,1573,1577,1577,0,0,0,0,0,0,0,0,0,0
1709457318.59991598,69828724,1569,1570,1580,1579,0,0,0,0,0,0,0,0,0,0
1709457318.69987607,69928684,1567,1568,1581,1581,0,0,0,0,0,0,0,0,0,0
1709457318.79983616,70028644,1566,1568,1582,1582,0,0,0,0,0,0,0,0,0,0
1709457318.89979601,70128604,1566,1568,1582,1582,0,0,0,0,0,0,0,0,0,0
1709457318.99975610,70228564,1567,1568,1581,1581,0,0,0,0,0,0,0,0,0,0
1709457319.09971619,70328524,1569,1570,1580,1580,0,0,0,0,0,0,0,0,0,0
1709457319.19967604,70428484,1571,1571,1578,1578,0,0,0,0,0,0,0,0,0,0
1709457319.29963613,70528444,1573,1573,1576,1576,0,0,0,0,0,0,0,0,0,0
1709457319.39959598,70628404,1575,1574,1575,1575,0,0,0,0,0,0,0,0,0,0
1709457319.49955606,70728364,1577,1576,1574,1574,0,0,0,0,0,0,0,0,0,0
1709457319.59951615,70828324,1578,1577,1572,1572,0,0,0,0,0,0,0,0,0,0
1709457319.69947600,70928284,1579,1578,1572,1572,0,0,0,0,0,0,0,0,0,0
1709457319.79943609,71028244,1579,1578,1572,1572,0,0,0,0,0,0,0,0,0,0
1709457319.89939618,71128204,1578,1578,1572,1572,0,0,0,0,0,0,0,0,0,0
1709457319.99935603,71228164,1578,1578,1572,1572,0,0,0,0,0,0,0,0,0,0
1709457320.10014915,71328957,1578,1577,1574,1573,0,0,0,0,0,0,0,0,0,0
1709457320.20010900,71428917,1577,1577,1574,1575,0,0,0,0,0,0,0,0,0,0
1709457320.30006909,71528877,1576,1576,1575,1575,0,0,0,0,0,0,0,0,0,0
1709457320.40002918,71628837,1575,1576,1575,1576,0,0,0,0,0,0,0,0,0,0
1709457320.49998903,71728797,1575,1575,1576,1577,0,0,0,0,0,0,0,0,0,0
1709457320.59994912,71828757,1574,1575,1576,1577,0,0,0,0,0,0,0,0,0,0
1709457320.69990897,71928717,1574,1574,1577,1577,0,0,0,0,0,0,0,0,0,0
1709457320.79986906,72028677,1575,1575,1578,1577,0,0,0,0,0,0,0,0,0,0
1709457320.89982915,72128637,1574,1574,1577,1577,0,0,0,0,0,0,0,0,0,0
1709457320.99978900,72228597,1575,1575,1577,1577,0,0,0,0,0,0,0,0,0,0
1709457321.09974909,72328557,1576,1577,1578,1578,0,0,0,0,0,0,0,0,0,0
1709457321.19970918,72428517,1576,1576,1582,1572,0,0,0,0,0,0,0,0,0,0
1709457321.29966903,72528477,1576,1576,1582,1568,0,0,0,0,0,0,0,0,0,0
1709457321.39962912,72628437,1575,1576,1574,1568,0,0,0,0,0,0,0,0,0,0
1709457321.49958897,72728397,1572,1574,1564,1566,0,0,0,0,0,0,0,0,0,0
1709457321.59954906,72828357,1572,1574,1558,1564,0,0,0,0,0,0,0,0,0,0
1709457321.69950914,72928317,1572,1574,1553,1560,0,0,0,0,0,0,0,0,0,0
1709457321.79946899,73028277,1573,1573,1551,1555,0,0,0,0,0,0,0,0,0,0
1709457321.89942908,73128237,1573,1573,1551,1552,0,0,0,0,0,0,0,0,0,0
1709457321.99938917,73228197,1572,1571,1550,1549,0,0,0,0,0,0,0,0,0,0
1709457322.09934902,73328157,1571,1571,1551,1549,0,0,0,0,0,0,0,0,0,0
1709457322.20014215,73428950,1570,1570,1551,1549,0,0,0,0,0,0,0,0,0,0
1709457322.30010200,73528910,1569,1569,1551,1549,0,0,0,0,0,0,0,0,0,0
1709457322.40006208,73628870,1568,1569,1550,1550,0,0,0,0,0,0,0,0,0,0
1709457322.50002217,73728830,1567,1568,1549,1550,0,0,0,0,0,0,0,0,0,0
1709457322.59998202,73828790,1567,1569,1548,1549,0,0,0,0,0,0,0,0,0,0
1709457322.69994211,73928750,1567,1568,1546,1547,0,0,0,0,0,0,0,0,0,0
1709457322.79990196,74028710,1568,1569,1545,1545,0,0,0,0,0,0,0,0,0,0
1709457322.89986205,74128670,1570,1572,1544,1544,0,0,0,0,0,0,0,0,0,0
1709457322.99982214,74228630,1573,1575,1543,1543,0,0,0,0,0,0,0,0,0,0
1709457323.09978199,74328590,1575,1576,1540,1540,0,0,0,0,0,0,0,0,0,0
1709457323.19974208,74428550,1578,1578,1538,1537,0,0,0,0,0,0,0,0,0,0
1709457323.29970217,74528510,1581,1581,1535,1535,0,0,0,0,0,0,0,0,0,0
1709457323.39966202,74628470,1583,1583,1534,1534,0,0,0,0,0,0,0,0,0,0
1709457323.49962211,74728430,1585,1584,1533,1534,0,0,0,0,0,0,0,0,0,0
1709457323.59958196,74828390,1585,1585,1533,1534,0,0,0,0,0,0,0,0,0,0
1709457323.69954205,74928350,1585,1585,1533,1534,0,0,0,0,0,0,0,0,0,0
1709457323.79950213,75028310,1585,1585,1534,1537,0,0,0,0,0,0,0,0,0,0
1709457323.89946198,75128270,1582,1582,1537,1540,0,0,0,0,0,0,0,0,0,0
1709457323.99942207,75228230,1579,1577,1542,1545,0,0,0,0,0,0,0,0,0,0
1709457324.09938216,75328190,1574,1571,1549,1552,0,0,0,0,0,0,0,0,0,0
1709457324.20017505,75428983,1567,1563,1559,1561,0,0,0,0,0,0,0,0,0,0
1709457324.30013514,75528943,1558,1553,1569,1571,0,0,0,0,0,0,0,0,0,0
1709457324.40009499,75628903,1548,1544,1580,1581,0,0,0,0,0,0,0,0,0,0
1709457324.50005507,75728863,1539,1537,1589,1590,0,0,0,0,0,0,0,0,0,0
1709457324.60001516,75828823,1532,1532,1596,1596,0,0,0,0,0,0,0,0,0,0
1709457324.69997501,75928783,1528,1530,1601,1601,0,0,0,0,0,0,0,0,0,0
1709457324.79993510,76028743,1526,1530,1603,1602,0,0,0,0,0,0,0,0,0,0
1709457324.89989519,76128703,1530,1534,1603,1602,0,0,0,0,0,0,0,0,0,0
1709457324.99985504,76228663,1535,1538,1600,1599,0,0,0,0,0,0,0,0,0,0
1709457325.09981513,76328623,1542,1544,1595,1594,0,0,0,0,0,0,0,0,0,0
1709457325.19977498,76428583,1550,1550,1588,1587,0,0,0,0,0,0,0,0,0,0
1709457325.29973507,76528543,1558,1557,1582,1581,0,0,0,0,0,0,0,0,0,0
1709457325.39969516,76628503,1565,1564,1577,1576,0,0,0,0,0,0,0,0,0,0
1709457325.49965501,76728463,1572,1570,1572,1571,0,0,0,0,0,0,0,0,0,0
1709457325.59961510,76828423,1576,1574,1567,1567,0,0,0,0,0,0,0,0,0,0
1709457325.69957519,76928383,1579,1577,1564,1564,0,0,0,0,0,0,0,0,0,0
1709457325.79953504,77028343,1580,1577,1561,1562,0,0,0,0,0,0,0,0,0,0
1709457325.89949512,77128303,1580,1578,1562,1562,0,0,0,0,0,0,0,0,0,0
1709457325.99945498,77228263,1579,1578,1564,1564,0,0,0,0,0,0,0,0,0,0
1709457326.09941506,77328223,1577,1577,1566,1566,0,0,0,0,0,0,0,0,0,0
1709457326.19937515,77428183,1576,1576,1569,1569,0,0,0,0,0,0,0,0,0,0
1709457326.30016804,77528976,1573,1573,1571,1571,0,0,0,0,0,0,0,0,0,0
1709457326.40012813,77628936,1572,1572,1574,1574,0,0,0,0,0,0,0,0,0,0
1709457326.50008798,77728896,1570,1571,1576,1575,0,0,0,0,0,0,0,0,0,0
1709457326.60004807,77828856,1568,1569,1576,1576,0,0,0,0,0,0,0,0,0,0
1709457326.70000815,77928816,1568,1569,1577,1577,0,0,0,0,0,0,0,0,0,0
1709457326.79996800,78028776,1568,1568,1577,1577,0,0,0,0,0,0,0,0,0,0
1709457326.89992809,78128736,1568,1569,1577,1577,0,0,0,0,0,0,0,0,0,0
1709457326.99988818,78228696,1569,1570,1577,1576,0,0,0,0,0,0,0,0,0,0
1709457327.09984803,78328656,1570,1571,1576,1575,0,0,0,0,0,0,0,0,0,0
1709457327.19980812,78428616,1572,1573,1575,1576,0,0,0,0,0,0,0,0,0,0
1709457327.29976797,78528576,1574,1574,1575,1575,0,0,0,0,0,0,0,0,0,0
1709457327.39972806,78628536,1575,1575,1574,1574,0,0,0,0,0,0,0,0,0,0
1709457327.49968815,78728496,1575,1575,1573,1572,0,0,0,0,0,0,0,0,0,0
1709457327.59964800,78828456,1576,1576,1572,1572,0,0,0,0,0,0,0,0,0,0
1709457327.69960809,78928416,1576,1575,1572,1572,0,0,0,0,0,0,0,0,0,0
1709457327.79956818,79028376,1575,1575,1571,1571,0,0,0,0,0,0,0,0,0,0
1709457327.89952803,79128336,1575,1574,1571,1571,0,0,0,0,0,0,0,0,0,0
1709457327.99948812,79228296,1576,1576,1573,1573,0,0,0,0,0,0,0,0,0,0
1709457328.09944797,79328256,1576,1576,1574,1574,0,0,0,0,0,0,0,0,0,0
1709457328.19940805,79428216,1575,1575,1574,1574,0,0,0,0,0,0,0,0,0,0
1709457328.29936814,79528176,1575,1575,1575,1574,0,0,0,0,0,0,0,0,0,0
1709457328.40016103,79628969,1574,1574,1575,1575,0,0,0,0,0,0,0,0,0,0
1709457328.50012112,79728929,1574,1574,1575,1575,0,0,0,0,0,0,0,0,0,0
1709457328.60008097,79828889,1575,1575,1576,1576,0,0,0,0,0,0,0,0,0,0
1709457328.70004106,79928849,1573,1574,1574,1575,0,0,0,0,0,0,0,0,0,0
1709457328.80000114,80028809,1574,1574,1576,1576,0,0,0,0,0,0,0,0,0,0
1709457328.89996099,80128769,1575,1575,1576,1575,0,0,0,0,0,0,0,0,0,0
1709457328.99992108,80228729,1575,1575,1576,1576,0,0,0,0,0,0,0,0,0,0
1709457329.09988117,80328689,1576,1576,1576,1576,0,0,0,0,0,0,0,0,0,0
1709457329.19984102,80428649,1575,1575,1575,1575,0,0,0,0,0,0,0,0,0,0
1709457329.29980111,80528609,1576,1576,1579,1572,0,0,0,0,0,0,0,0,0,0
1709457329.39976096,80628569,1576,1576,1582,1567,0,0,0,0,0,0,0,0,0,0
1709457329.49972105,80728529,1575,1574,1577,1569,0,0,0,0,0,0,0,0,0,0
1709457329.59968114,80828489,1572,1571,1570,1570,0,0,0,0,0,0,0,0,0,0
1709457329.69964099,80928449,1569,1568,1563,1569,0,0,0,0,0,0,0,0,0,0
1709457329.79960108,81028409,1566,1565,1560,1567,0,0,0,0,0,0,0,0,0,0
1709457329.89956117,81128369,1563,1564,1560,1565,0,0,0,0,0,0,0,0,0,0
1709457329.99952102,81228329,1561,1562,1560,1562,0,0,0,0,0,0,0,0,0,0
1709457330.09948111,81328289,1561,1562,1562,1561,0,0,0,0,0,0,0,0,0,0
1709457330.19944096,81428249,1560,1561,1562,1560,0,0,0,0,0,0,0,0,0,0
1709457330.29940104,81528209,1560,1559,1561,1559,0,0,0,0,0,0,0,0,0,0
1709457330.39936113,81628169,1559,1559,1561,1559,0,0,0,0,0,0,0,0,0,0
1709457330.50015402,81728962,1558,1558,1560,1559,0,0,0,0,0,0,0,0,0,0
1709457330.60011411,81828922,1558,1557,1559,1559,0,0,0,0,0,0,0,0,0,0
1709457330.70007396,81928882,1558,1557,1558,1558,0,0,0,0,0,0,0,0,0,0
1709457330.80003405,82028842,1557,1556,1557,1557,0,0,0,0,0,0,0,0,0,0
1709457330.89999413,82128802,1556,1556,1556,1557,0,0,0,0,0,0,0,0,0,0
1709457330.99995399,82228762,1556,1556,1557,1556,0,0,0,0,0,0,0,0,0,0
1709457331.09991407,82328722,1556,1556,1556,1555,0,0,0,0,0,0,0,0,0,0
1709457331.19987416,82428682,1555,1555,1555,1554,0,0,0,0,0,0,0,0,0,0
1709457331.29983401,82528642,1555,1554,1554,1554,0,0,0,0,0,0,0,0,0,0
1709457331.39979410,82628602,1553,1553,1553,1553,0,0,0,0,0,0,0,0,0,0
1709457331.49975419,82728562,1553,1553,1553,1552,0,0,0,0,0,0,0,0,0,0
1709457331.59971404,82828522,1553,1553,1553,1551,0,0,0,0,0,0,0,0,0,0
1709457331.69967413,82928482,1552,1552,1553,1552,0,0,0,0,0,0,0,0,0,0
1709457331.79963398,83028442,1553,1553,1554,1552,0,0,0,0,0,0,0,0,0,0
1709457331.89959407,83128402,1554,1554,1555,1553,0,0,0,0,0,0,0,0,0,0
1709457331.99955416,83228362,1555,1555,1557,1554,0,0,0,0,0,0,0,0,0,0
1709457332.09951401,83328322,1558,1558,1561,1557,0,0,0,0,0,0,0,0,0,0
1709457332.19947410,83428282,1557,1556,1556,1558,0,0,0,0,0,0,0,0,0,0
1709457332.29943419,83528242,1556,1555,1552,1559,0,0,0,0,0,0,0,0,0,0
1709457332.39939404,83628202,1552,1551,1547,1555,0,0,0,0,0,0,0,0,0,0
1709457332.49935412,83728162,1547,1547,1543,1549,0,0,0,0,0,0,0,0,0,0
1709457332.60014701,83828955,1543,1543,1540,1542,0,0,0,0,0,0,0,0,0,0
1709457332.70010710,83928915,1536,1536,1534,1534,0,0,0,0,0,0,0,0,0,0
1709457332.80006719,84028875,1529,1530,1528,1527,0,0,0,0,0,0,0,0,0,0
1709457332.90002704,84128835,1523,1523,1522,1520,0,0,0,0,0,0,0,0,0,0
1709457332.99998713,84228795,1519,1520,1519,1517,0,0,0,0,0,0,0,0,0,0
1709457333.09994698,84328755,1518,1519,1518,1519,0,0,0,0,0,0,0,0,0,0
1709457333.19990706,84428715,1519,1520,1519,1520,0,0,0,0,0,0,0,0,0,0
1709457333.29986715,84528675,1521,1522,1522,1524,0,0,0,0,0,0,0,0,0,0
1709457333.39982700,84628635,1524,1524,1526,1527,0,0,0,0,0,0,0,0,0,0
1709457333.49978709,84728595,1529,1528,1531,1532,0,0,0,0,0,0,0,0,0,0
1709457333.59974718,84828555,1534,1534,1537,1537,0,0,0,0,0,0,0,0,0,0
1709457333.69970703,84928515,1537,1536,1539,1539,0,0,0,0,0,0,0,0,0,0
1709457333.79966712,85028475,1540,1538,1541,1541,0,0,0,0,0,0,0,0,0,0
1709457333.89962697,85128435,1541,1540,1542,1542,0,0,0,0,0,0,0,0,0,0
1709457333.99958706,85228395,1435,1408,1434,1381,0,0,0,0,0,0,0,0,0,0
1709457334.09954715,85328355,1304,1222,1283,1150,0,0,0,0,0,0,0,0,0,0
1709457334.19950700,85428315,1306,1224,1288,1150,0,0,0,0,0,0,0,0,0,0
1709457334.29946709,85528275,1304,1217,1279,1150,0,0,0,0,0,0,0,0,0,0
1709457334.39942718,85628235,1303,1213,1275,1150,0,0,0,0,0,0,0,0,0,0
1709457334.49938703,85728195,1283,1211,1271,1150,0,0,0,0,0,0,0,0,0,0
1709457334.59934711,85828155,1207,1196,1243,1150,0,0,0,0,0,0,0,0,0,0
1709457334.70014000,85928948,1154,1186,1224,1150,0,0,0,0,0,0,0,0,0,0
1709457334.80010009,86028908,1153,1187,1225,1150,0,0,0,0,0,0,0,0,0,0
1709457334.90006018,86128868,1199,1159,1150,1188,0,0,0,0,0,0,0,0,0,0
1709457335.00002003,86228828,1211,1154,1175,1150,0,0,0,0,0,0,0,0,0,0
1709457335.09998012,86328788,1190,1167,1194,1150,0,0,0,0,0,0,0,0,0,0
1709457335.19993997,86428748,1186,1169,1197,1150,0,0,0,0,0,0,0,0,0,0
1709457335.29990005,86528708,1186,1169,1197,1150,0,0,0,0,0,0,0,0,0,0
1709457335.39986014,86628668,1187,1169,1197,1150,0,0,0,0,0,0,0,0,0,0
1709457335.49981999,86728628,1188,1168,1196,1150,0,0,0,0,0,0,0,0,0,0
1709457335.59978008,86828588,1188,1168,1196,1150,0,0,0,0,0,0,0,0,0,0
1709457335.69974017,86928548,1207,1160,1176,1150,0,0,0,0,0,0,0,0,0,0
1709457335.79970002,87028508,1205,1161,1178,1150,0,0,0,0,0,0,0,0,0,0
1709457335.89966011,87128468,1205,1161,1178,1150,0,0,0,0,0,0,0,0,0,0
1709457335.99961996,87228428,1204,1161,1179,1150,0,0,0,0,0,0,0,0,0,0
1709457336.09958005,87328388,1125,1157,1168,1150,0,0,0,0,0,0,0,0,0,0
1709457336.19954014,87428348,1000,1000,1000,1000,0,0,0,0,0,0,0,0,0,0
1709457336.29949999,87528308,1000,1000,1000,1000,0,0,0,0,0,0,0,0,0,0
1709457336.39946008,87628268,1000,1000,1000,1000,0,0,0,0,0,0,0,0,0,0
1709457336.49942017,87728228,1000,1000,1000,1000,0,0,0,0,0,0,0,0,0,0
1709457336.59938002,87828188,1000,1000,1000,1000,0,0,0,0,0,0,0,0,0,0
1709457336.70017314,87928981,1000,1000,1000,1000,0,0,0,0,0,0,0,0,0,0
1709457336.80013299,88028941,1000,1000,1000,1000,0,0,0,0,0,0,0,0,0,0
1709457336.90009308,88128901,1000,1000,1000,1000,0,0,0,0,0,0,0,0,0,0
1709457337.00005317,88228861,1000,1000,1000,1000,0,0,0,0,0,0,0,0,0,0
1709457337.10001302,88328821,1000,1000,1000,1000,0,0,0,0,0,0,0,0,0,0
1709457337.19997311,88428781,1000,1000,1000,1000,0,0,0,0,0,0,0,0,0,0
1709457337.29993296,88528741,1000,1000,1000,1000,0,0,0,0,0,0,0,0,0,0
1709457337.39989305,88628701,1000,1000,1000,1000,0,0,0,0,0,0,0,0,0,0
1709457337.49985313,88728661,1000,1000,1000,1000,0,0,0,0,0,0,0,0,0,0
1709457337.59981298,88828621,1000,1000,1000,1000,0,0,0,0,0,0,0,0,0,0
1709457337.69977307,88928581,1000,1000,1000,1000,0,0,0,0,0,0,0,0,0,0
1709457337.79973316,89028541,1000,1000,1000,1000,0,0,0,0,0,0,0,0,0,0
1709457337.89969301,89128501,1000,1000,1000,1000,0,0,0,0,0,0,0,0,0,0
1709457337.99965310,89228461,1000,1000,1000,1000,0,0,0,0,0,0,0,0,0,0
1709457338.09961319,89328421,1000,1000,1000,1000,0,0,0,0,0,0,0,0,0,0
1709457338.19957304,89428381,1000,1000,1000,1000,0,0,0,0,0,0,0,0,0,0
1709457338.29953313,89528341,1000,1000,1000,1000,0,0,0,0,0,0,0,0,0,0
1709457338.39949298,89628301,1000,1000,1000,1000,0,0,0,0,0,0,0,0,0,0
1709457338.49945307,89728261,1000,1000,1000,1000,0,0,0,0,0,0,0,0,0,0
1709457338.59941316,89828221,1000,1000,1000,1000,0,0,0,0,0,0,0,0,0,0
1709457338.69937301,89928181,1000,1000,1000,1000,0,0,0,0,0,0,0,0,0,0
1709457338.80016613,90028974,1000,1000,1000,1000,0,0,0,0,0,0,0,0,0,0
1709457338.90012598,90128934,1000,1000,1000,1000,0,0,0,0,0,0,0,0,0,0
1709457339.00008607,90228894,1000,1000,1000,1000,0,0,0,0,0,0,0,0,0,0
1709457339.10004616,90328854,1000,1000,1000,1000,0,0,0,0,0,0,0,0,0,0
1709457339.20000601,90428814,1000,1000,1000,1000,0,0,0,0,0,0,0,0,0,0
1709457339.29996610,90528774,1000,1000,1000,1000,0,0,0,0,0,0,0,0,0,0
1709457339.39992619,90628734,1000,1000,1000,1000,0,0,0,0,0,0,0,0,0,0
1709457339.49988604,90728694,1000,1000,1000,1000,0,0,0,0,0,0,0,0,0,0
1709457339.59984612,90828654,1000,1000,1000,1000,0,0,0,0,0,0,0,0,0,0
1709457339.69980597,90928614,1000,1000,1000,1000,0,0,0,0,0,0,0,0,0,0
1709457339.79976606,91028574,1000,1000,1000,1000,0,0,0,0,0,0,0,0,0,0
1709457339.89972615,91128534,1000,1000,1000,1000,0,0,0,0,0,0,0,0,0,0
1709457339.99968600,91228494,1000,1000,1000,1000,0,0,0,0,0,0,0,0,0,0
1709457340.09964609,91328454,1000,1000,1000,1000,0,0,0,0,0,0,0,0,0,0
1709457340.19960618,91428414,1000,1000,1000,1000,0,0,0,0,0,0,0,0,0,0
1709457340.29956603,91528374,1000,1000,1000,1000,0,0,0,0,0,0,0,0,0,0
1709457340.39952612,91628334,1000,1000,1000,1000,0,0,0,0,0,0,0,0,0,0
1709457340.49948597,91728294,1000,1000,1000,1000,0,0,0,0,0,0,0,0,0,0
1709457340.59944606,91828254,1000,1000,1000,1000,0,0,0,0,0,0,0,0,0,0
1709457340.69940615,91928214,1000,1000,1000,1000,0,0,0,0,0,0,0,0,0,0
1709457340.79936600,92028174,1000,1000,1000,1000,0,0,0,0,0,0,0,0,0,0
1709457340.90015912,92128967,1000,1000,1000,1000,0,0,0,0,0,0,0,0,0,0
1709457341.00011897,92228927,1000,1000,1000,1000,0,0,0,0,0,0,0,0,0,0
1709457341.10007906,92328887,1000,1000,1000,1000,0,0,0,0,0,0,0,0,0,0
1709457341.20003915,92428847,1000,1000,1000,1000,0,0,0,0,0,0,0,0,0,0
1709457341.29999900,92528807,1000,1000,1000,1000,0,0,0,0,0,0,0,0,0,0
1709457341.39995909,92628767,1000,1000,1000,1000,0,0,0,0,0,0,0,0,0,0
1709457341.49991918,92728727,1000,1000,1000,1000,0,0,0,0,0,0,0,0,0,0
1709457341.59987903,92828687,1000,1000,1000,1000,0,0,0,0,0,0,0,0,0,0
1709457341.69983912,92928647,1000,1000,1000,1000,0,0,0,0,0,0,0,0,0,0
1709457341.79979897,93028607,1000,1000,1000,1000,0,0,0,0,0,0,0,0,0,0
1709457341.89975905,93128567,1000,1000,1000,1000,0,0,0,0,0,0,0,0,0,0
1709457341.99971914,93228527,1000,1000,1000,1000,0,0,0,0,0,0,0,0,0,0
1709457342.09967899,93328487,1000,1000,1000,1000,0,0,0,0,0,0,0,0,0,0
1709457342.19963908,93428447,1000,1000,1000,1000,0,0,0,0,0,0,0,0,0,0
1709457342.29959917,93528407,1000,1000,1000,1000,0,0,0,0,0,0,0,0,0,0
1709457342.39955902,93628367,1000,1000,1000,1000,0,0,0,0,0,0,0,0,0,0
1709457342.49951911,93728327,1000,1000,1000,1000,0,0,0,0,0,0,0,0,0,0
1709457342.59947896,93828287,1000,1000,1000,1000,0,0,0,0,0,0,0,0,0,0
1709457342.69943905,93928247,1000,1000,1000,1000,0,0,0,0,0,0,0,0,0,0
1709457342.79939914,94028207,1000,1000,1000,1000,0,0,0,0,0,0,0,0,0,0
1709457342.89935899,94128167,1000,1000,1000,1000,0,0,0,0,0,0,0,0,0,0
1709457343.00015211,94228960,1000,1000,1000,1000,0,0,0,0,0,0,0,0,0,0
1709457343.10011196,94328920,1000,1000,1000,1000,0,0,0,0,0,0,0,0,0,0
1709457343.20007205,94428880,1000,1000,1000,1000,0,0,0,0,0,0,0,0,0,0
1709457343.30003214,94528840,1000,1000,1000,1000,0,0,0,0,0,0,0,0,0,0
1709457343.39999199,94628800,1000,1000,1000,1000,0,0,0,0,0,0,0,0,0,0
1709457343.49995208,94728760,1000,1000,1000,1000,0,0,0,0,0,0,0,0,0,0
1709457343.59991217,94828720,1000,1000,1000,1000,0,0,0,0,0,0,0,0,0,0
1709457343.69987202,94928680,1000,1000,1000,1000,0,0,0,0,0,0,0,0,0,0
1709457343.79983211,95028640,1000,1000,1000,1000,0,0,0,0,0,0,0,0,0,0
1709457343.89979196,95128600,1000,1000,1000,1000,0,0,0,0,0,0,0,0,0,0
1709457343.99975204,95228560,1000,1000,1000,1000,0,0,0,0,0,0,0,0,0,0
1709457344.09971213,95328520,1000,1000,1000,1000,0,0,0,0,0,0,0,0,0,0
1709457344.19967198,95428480,1000,1000,1000,1000,0,0,0,0,0,0,0,0,0,0
1709457344.29963207,95528440,1000,1000,1000,1000,0,0,0,0,0,0,0,0,0,0
1709457344.39959216,95628400,1000,1000,1000,1000,0,0,0,0,0,0,0,0,0,0
1709457344.49955201,95728360,1000,1000,1000,1000,0,0,0,0,0,0,0,0,0,0
1709457344.59951210,95828320,1000,1000,1000,1000,0,0,0,0,0,0,0,0,0,0
1709457344.69947219,95928280,1000,1000,1000,1000,0,0,0,0,0,0,0,0,0,0
1709457344.79943204,96028240,1000,1000,1000,1000,0,0,0,0,0,0,0,0,0,0
1709457344.89939213,96128200,1000,1000,1000,1000,0,0,0,0,0,0,0,0,0,0
1709457344.99935198,96228160,1000,1000,1000,1000,0,0,0,0,0,0,0,0,0,0
1709457345.10014510,96328953,1000,1000,1000,1000,0,0,0,0,0,0,0,0,0,0
1709457345.20010519,96428913,1000,1000,1000,1000,0,0,0,0,0,0,0,0,0,0
1709457345.30006504,96528873,1000,1000,1000,1000,0,0,0,0,0,0,0,0,0,0
1709457345.40002513,96628833,1000,1000,1000,1000,0,0,0,0,0,0,0,0,0,0
1709457345.49998498,96728793,1000,1000,1000,1000,0,0,0,0,0,0,0,0,0,0
1709457345.59994507,96828753,1000,1000,1000,1000,0,0,0,0,0,0,0,0,0,0
1709457345.69990516,96928713,1000,1000,1000,1000,0,0,0,0,0,0,0,0,0,0
1709457345.79986501,97028673,1000,1000,1000,1000,0,0,0,0,0,0,0,0,0,0
1709457345.89982510,97128633,1000,1000,1000,1000,0,0,0,0,0,0,0,0,0,0
1709457345.99978518,97228593,1000,1000,1000,1000,0,0,0,0,0,0,0,0,0,0
1709457346.09974504,97328553,1000,1000,1000,1000,0,0,0,0,0,0,0,0,0,0
1709457346.19970512,97428513,1000,1000,1000,1000,0,0,0,0,0,0,0,0,0,0
1709457346.29966497,97528473,1000,1000,1000,1000,0,0,0,0,0,0,0,0,0,0
1709457346.39962506,97628433,1000,1000,1000,1000,0,0,0,0,0,0,0,0,0,0
1709457346.49958515,97728393,1000,1000,1000,1000,0,0,0,0,0,0,0,0,0,0
1709457346.59954500,97828353,1000,1000,1000,1000,0,0,0,0,0,0,0,0,0,0
1709457346.69950509,97928313,1000,1000,1000,1000,0,0,0,0,0,0,0,0,0,0
1709457346.79946518,98028273,1000,1000,1000,1000,0,0,0,0,0,0,0,0,0,0
1709457346.89942503,98128233,1000,1000,1000,1000,0,0,0,0,0,0,0,0,0,0
1709457346.99938512,98228193,1000,1000,1000,1000,0,0,0,0,0,0,0,0,0,0
1709457347.10017800,98328986,1000,1000,1000,1000,0,0,0,0,0,0,0,0,0,0
1709457347.20013809,98428946,1000,1000,1000,1000,0,0,0,0,0,0,0,0,0,0
1709457347.30009818,98528906,1000,1000,1000,1000,0,0,0,0,0,0,0,0,0,0
1709457347.40005803,98628866,1000,1000,1000,1000,0,0,0,0,0,0,0,0,0,0
1709457347.50001812,98728826,1000,1000,1000,1000,0,0,0,0,0,0,0,0,0,0
1709457347.59997797,98828786,1000,1000,1000,1000,0,0,0,0,0,0,0,0,0,0
1709457347.69993806,98928746,1000,1000,1000,1000,0,0,0,0,0,0,0,0,0,0
1709457347.79989815,99028706,1000,1000,1000,1000,0,0,0,0,0,0,0,0,0,0
1709457347.89985800,99128666,1000,1000,1000,1000,0,0,0,0,0,0,0,0,0,0
1709457347.99981809,99228626,1000,1000,1000,1000,0,0,0,0,0,0,0,0,0,0
1709457348.09977818,99328586,1000,1000,1000,1000,0,0,0,0,0,0,0,0,0,0
1709457348.19973803,99428546,1000,1000,1000,1000,0,0,0,0,0,0,0,0,0,0
1709457348.29969811,99528506,1000,1000,1000,1000,0,0,0,0,0,0,0,0,0,0
1709457348.39965796,99628466,1000,1000,1000,1000,0,0,0,0,0,0,0,0,0,0
1709457348.49961805,99728426,1000,1000,1000,1000,0,0,0,0,0,0,0,0,0,0
1709457348.59957814,99828386,1000,1000,1000,1000,0,0,0,0,0,0,0,0,0,0
1709457348.69953799,99928346,1000,1000,1000,1000,0,0,0,0,0,0,0,0,0,0
1709457348.79949808,100028306,1000,1000,1000,1000,0,0,0,0,0,0,0,0,0,0
1709457348.89945817,100128266,1000,1000,1000,1000,0,0,0,0,0,0,0,0,0,0
1709457348.99941802,100228226,1000,1000,1000,1000,0,0,0,0,0,0,0,0,0,0
1709457349.09937811,100328186,1000,1000,1000,1000,0,0,0,0,0,0,0,0,0,0
1709457349.20017099,100428979,1000,1000,1000,1000,0,0,0,0,0,0,0,0,0,0
1709457349.30013108,100528939,1000,1000,1000,1000,0,0,0,0,0,0,0,0,0,0
1709457349.40009117,100628899,1000,1000,1000,1000,0,0,0,0,0,0,0,0,0,0
1709457349.50005102,100728859,1000,1000,1000,1000,0,0,0,0,0,0,0,0,0,0
1709457349.60001111,100828819,1000,1000,1000,1000,0,0,0,0,0,0,0,0,0,0
1709457349.69997096,100928779,1000,1000,1000,1000,0,0,0,0,0,0,0,0,0,0
1709457349.79993105,101028739,1000,1000,1000,1000,0,0,0,0,0,0,0,0,0,0
1709457349.89989114,101128699,1000,1000,1000,1000,0,0,0,0,0,0,0,0,0,0
1709457349.99985099,101228659,1000,1000,1000,1000,0,0,0,0,0,0,0,0,0,0
1709457350.09981108,101328619,1000,1000,1000,1000,0,0,0,0,0,0,0,0,0,0
1709457350.19977117,101428579,1000,1000,1000,1000,0,0,0,0,0,0,0,0,0,0
1709457350.29973102,101528539,1000,1000,1000,1000,0,0,0,0,0,0,0,0,0,0
1709457350.39969110,101628499,1000,1000,1000,1000,0,0,0,0,0,0,0,0,0,0
1709457350.49965096,101728459,1000,1000,1000,1000,0,0,0,0,0,0,0,0,0,0
1709457350.59961104,101828419,1000,1000,1000,1000,0,0,0,0,0,0,0,0,0,0
1709457350.69957113,101928379,1000,1000,1000,1000,0,0,0,0,0,0,0,0,0,0
1709457350.79953098,102028339,1000,1000,1000,1000,0,0,0,0,0,0,0,0,0,0
1709457350.89949107,102128299,1000,1000,1000,1000,0,0,0,0,0,0,0,0,0,0
1709457350.99945116,102228259,1000,1000,1000,1000,0,0,0,0,0,0,0,0,0,0
1709457351.09941101,102328219,1000,1000,1000,1000,0,0,0,0,0,0,0,0,0,0
