timestamp,TimeUS,C1,C2,C3,C4,C5,C6,C7,C8,C9,C10,C11,C12,C13,C14
1670852887.10003996,48728834,1000,1000,1000,1000,0,0,0,0,0,0,0,0,0,0
1670852887.20000005,48828794,1000,1000,1000,1000,0,0,0,0,0,0,0,0,0,0
1670852887.29996014,48928754,1000,1000,1000,1000,0,0,0,0,0,0,0,0,0,0
1670852887.39991999,49028714,1000,1000,1000,1000,0,0,0,0,0,0,0,0,0,0
1670852887.49988008,49128674,1000,1000,1000,1000,0,0,0,0,0,0,0,0,0,0
1670852887.59984016,49228634,1000,1000,1000,1000,0,0,0,0,0,0,0,0,0,0
1670852887.69980001,49328594,1000,1000,1000,1000,0,0,0,0,0,0,0,0,0,0
1670852887.79976010,49428554,1000,1000,1000,1000,0,0,0,0,0,0,0,0,0,0
1670852887.89971995,49528514,1000,1000,1000,1000,0,0,0,0,0,0,0,0,0,0
1670852887.99968004,49628474,1000,1000,1000,1000,0,0,0,0,0,0,0,0,0,0
1670852888.09964013,49728434,1000,1000,1000,1000,0,0,0,0,0,0,0,0,0,0
1670852888.19959998,49828394,1000,1000,1000,1000,0,0,0,0,0,0,0,0,0,0
1670852888.29956007,49928354,1000,1000,1000,1000,0,0,0,0,0,0,0,0,0,0
1670852888.39952016,50028314,1000,1000,1000,1000,0,0,0,0,0,0,0,0,0,0
1670852888.49948001,50128274,1000,1000,1000,1000,0,0,0,0,0,0,0,0,0,0
1670852888.59944010,50228234,1000,1000,1000,1000,0,0,0,0,0,0,0,0,0,0
1670852888.69939995,50328194,1000,1000,1000,1000,0,0,0,0,0,0,0,0,0,0
1670852888.79936004,50428154,1000,1000,1000,1000,0,0,0,0,0,0,0,0,0,0
1670852888.90015316,50528947,1000,1000,1000,1000,0,0,0,0,0,0,0,0,0,0
1670852889.00011301,50628907,1000,1000,1000,1000,0,0,0,0,0,0,0,0,0,0
1670852889.10007310,50728867,1003,1003,1003,1003,0,0,0,0,0,0,0,0,0,0
1670852889.20003295,50828827,1033,1033,1033,1033,0,0,0,0,0,0,0,0,0,0
1670852889.29999304,50928787,1063,1063,1063,1063,0,0,0,0,0,0,0,0,0,0
1670852889.39995313,51028747,1093,1093,1093,1093,0,0,0,0,0,0,0,0,0,0
1670852889.49991298,51128707,1123,1123,1123,1123,0,0,0,0,0,0,0,0,0,0
1670852889.59987307,51228667,1198,1150,1189,1188,0,0,0,0,0,0,0,0,0,0
1670852889.69983315,51328627,1446,1379,1431,1430,0,0,0,0,0,0,0,0,0,0
1670852889.79979300,51428587,1616,1562,1604,1604,0,0,0,0,0,0,0,0,0,0
1670852889.89975309,51528547,1761,1707,1748,1747,0,0,0,0,0,0,0,0,0,0
1670852889.99971294,51628507,1860,1808,1846,1846,0,0,0,0,0,0,0,0,0,0
1670852890.09967303,51728467,1871,1815,1857,1856,0,0,0,0,0,0,0,0,0,0
1670852890.19963312,51828427,1789,1772,1793,1793,0,0,0,0,0,0,0,0,0,0
1670852890.29959297,51928387,1656,1662,1670,1671,0,0,0,0,0,0,0,0,0,0
1670852890.39955306,52028347,1597,1620,1617,1617,0,0,0,0,0,0,0,0,0,0
1670852890.49951315,52128307,1604,1626,1619,1619,0,0,0,0,0,0,0,0,0,0
1670852890.59947300,52228267,1624,1642,1633,1633,0,0,0,0,0,0,0,0,0,0
1670852890.69943309,52328227,1641,1647,1641,1641,0,0,0,0,0,0,0,0,0,0
1670852890.79939294,52428187,1642,1641,1635,1636,0,0,0,0,0,0,0,0,0,0
1670852890.90018606,52528980,1638,1628,1626,1626,0,0,0,0,0,0,0,0,0,0
1670852891.00014615,52628940,1632,1621,1619,1619,0,0,0,0,0,0,0,0,0,0
1670852891.10010600,52728900,1628,1618,1615,1616,0,0,0,0,0,0,0,0,0,0
1670852891.20006609,52828860,1624,1620,1615,1615,0,0,0,0,0,0,0,0,0,0
1670852891.30002594,52928820,1622,1621,1617,1617,0,0,0,0,0,0,0,0,0,0
1670852891.39998603,53028780,1619,1623,1617,1618,0,0,0,0,0,0,0,0,0,0
1670852891.49994612,53128740,1603,1634,1616,1619,0,0,0,0,0,0,0,0,0,0
1670852891.59990597,53228700,1579,1584,1583,1580,0,0,0,0,0,0,0,0,0,0
1670852891.69986606,53328660,1569,1564,1565,1571,0,0,0,0,0,0,0,0,0,0
1670852891.79982615,53428620,1559,1553,1553,1562,0,0,0,0,0,0,0,0,0,0
1670852891.89978600,53528580,1553,1544,1547,1554,0,0,0,0,0,0,0,0,0,0
1670852891.99974608,53628540,1544,1540,1542,1546,0,0,0,0,0,0,0,0,0,0
1670852892.09970593,53728500,1540,1537,1541,1541,0,0,0,0,0,0,0,0,0,0
1670852892.19966602,53828460,1536,1537,1541,1537,0,0,0,0,0,0,0,0,0,0
1670852892.29962611,53928420,1539,1539,1545,1539,0,0,0,0,0,0,0,0,0,0
1670852892.39958596,54028380,1541,1543,1548,1542,0,0,0,0,0,0,0,0,0,0
1670852892.49954605,54128340,1531,1536,1545,1528,0,0,0,0,0,0,0,0,0,0
1670852892.59950614,54228300,1531,1536,1542,1531,0,0,0,0,0,0,0,0,0,0
1670852892.69946599,54328260,1534,1533,1535,1537,0,0,0,0,0,0,0,0,0,0
1670852892.79942608,54428220,1535,1534,1530,1541,0,0,0,0,0,0,0,0,0,0
1670852892.89938593,54528180,1539,1535,1530,1543,0,0,0,0,0,0,0,0,0,0
1670852893.00017905,54628973,1540,1539,1533,1543,0,0,0,0,0,0,0,0,0,0
1670852893.10013914,54728933,1544,1541,1538,1543,0,0,0,0,0,0,0,0,0,0
1670852893.20009899,54828893,1546,1547,1544,1543,0,0,0,0,0,0,0,0,0,0
1670852893.30005908,54928853,1550,1549,1550,1544,0,0,0,0,0,0,0,0,0,0
1670852893.40001893,55028813,1552,1553,1555,1547,0,0,0,0,0,0,0,0,0,0
1670852893.49997902,55128773,1556,1555,1557,1552,0,0,0,0,0,0,0,0,0,0
1670852893.59993911,55228733,1556,1558,1558,1556,0,0,0,0,0,0,0,0,0,0
1670852893.69989896,55328693,1559,1560,1559,1559,0,0,0,0,0,0,0,0,0,0
1670852893.79985905,55428653,1577,1585,1537,1540,0,0,0,0,0,0,0,0,0,0
1670852893.89981914,55528613,1595,1592,1528,1532,0,0,0,0,0,0,0,0,0,0
1670852893.99977899,55628573,1584,1580,1540,1543,0,0,0,0,0,0,0,0,0,0
1670852894.09973907,55728533,1572,1566,1558,1559,0,0,0,0,0,0,0,0,0,0
1670852894.19969916,55828493,1559,1557,1572,1573,0,0,0,0,0,0,0,0,0,0
1670852894.29965901,55928453,1550,1549,1584,1583,0,0,0,0,0,0,0,0,0,0
1670852894.39961910,56028413,1545,1548,1590,1588,0,0,0,0,0,0,0,0,0,0
1670852894.49957895,56128373,1544,1546,1592,1591,0,0,0,0,0,0,0,0,0,0
1670852894.59953904,56228333,1545,1550,1590,1590,0,0,0,0,0,0,0,0,0,0
1670852894.69949913,56328293,1551,1553,1587,1588,0,0,0,0,0,0,0,0,0,0
1670852894.79945898,56428253,1557,1559,1582,1582,0,0,0,0,0,0,0,0,0,0
1670852894.89941907,56528213,1564,1564,1576,1577,0,0,0,0,0,0,0,0,0,0
1670852894.99937916,56628173,1570,1571,1571,1572,0,0,0,0,0,0,0,0,0,0
1670852895.10017204,56728966,1578,1576,1569,1569,0,0,0,0,0,0,0,0,0,0
1670852895.20013213,56828926,1581,1581,1565,1565,0,0,0,0,0,0,0,0,0,0
1670852895.30009198,56928886,1585,1583,1565,1563,0,0,0,0,0,0,0,0,0,0
1670852895.40005207,57028846,1585,1586,1564,1563,0,0,0,0,0,0,0,0,0,0
1670852895.50001216,57128806,1586,1585,1566,1564,0,0,0,0,0,0,0,0,0,0
1670852895.59997201,57228766,1585,1585,1567,1566,0,0,0,0,0,0,0,0,0,0
1670852895.69993210,57328726,1584,1582,1569,1569,0,0,0,0,0,0,0,0,0,0
1670852895.79989195,57428686,1581,1581,1572,1573,0,0,0,0,0,0,0,0,0,0
1670852895.89985204,57528646,1579,1578,1575,1575,0,0,0,0,0,0,0,0,0,0
1670852895.99981213,57628606,1575,1576,1577,1577,0,0,0,0,0,0,0,0,0,0
1670852896.09977198,57728566,1574,1574,1579,1579,0,0,0,0,0,0,0,0,0,0
1670852896.19973207,57828526,1573,1574,1581,1581,0,0,0,0,0,0,0,0,0,0
1670852896.29969215,57928486,1573,1573,1582,1582,0,0,0,0,0,0,0,0,0,0
1670852896.39965200,58028446,1572,1573,1582,1582,0,0,0,0,0,0,0,0,0,0
1670852896.49961209,58128406,1574,1574,1583,1583,0,0,0,0,0,0,0,0,0,0
1670852896.59957194,58228366,1574,1575,1582,1582,0,0,0,0,0,0,0,0,0,0
1670852896.69953203,58328326,1577,1576,1582,1582,0,0,0,0,0,0,0,0,0,0
1670852896.79949212,58428286,1577,1577,1580,1580,0,0,0,0,0,0,0,0,0,0
1670852896.89945197,58528246,1579,1577,1579,1580,0,0,0,0,0,0,0,0,0,0
1670852896.99941206,58628206,1578,1579,1578,1578,0,0,0,0,0,0,0,0,0,0
1670852897.09937215,58728166,1580,1579,1578,1578,0,0,0,0,0,0,0,0,0,0
1670852897.20016503,58828959,1580,1580,1578,1578,0,0,0,0,0,0,0,0,0,0
1670852897.30012512,58928919,1581,1580,1578,1578,0,0,0,0,0,0,0,0,0,0
1670852897.40008497,59028879,1579,1579,1577,1577,0,0,0,0,0,0,0,0,0,0
1670852897.50004506,59128839,1579,1579,1577,1578,0,0,0,0,0,0,0,0,0,0
1670852897.60000515,59228799,1578,1579,1577,1577,0,0,0,0,0,0,0,0,0,0
1670852897.69996500,59328759,1579,1578,1578,1578,0,0,0,0,0,0,0,0,0,0
1670852897.79992509,59428719,1579,1579,1580,1579,0,0,0,0,0,0,0,0,0,0
1670852897.89988494,59528679,1579,1578,1580,1580,0,0,0,0,0,0,0,0,0,0
1670852897.99984503,59628639,1578,1578,1580,1580,0,0,0,0,0,0,0,0,0,0
1670852898.09980512,59728599,1578,1578,1580,1580,0,0,0,0,0,0,0,0,0,0
1670852898.19976497,59828559,1577,1578,1580,1580,0,0,0,0,0,0,0,0,0,0
1670852898.29972506,59928519,1577,1578,1580,1580,0,0,0,0,0,0,0,0,0,0
1670852898.39968514,60028479,1577,1578,1580,1580,0,0,0,0,0,0,0,0,0,0
1670852898.49964499,60128439,1579,1578,1581,1581,0,0,0,0,0,0,0,0,0,0
1670852898.59960508,60228399,1579,1579,1581,1580,0,0,0,0,0,0,0,0,0,0
1670852898.69956493,60328359,1579,1579,1580,1581,0,0,0,0,0,0,0,0,0,0
1670852898.79952502,60428319,1580,1580,1580,1580,0,0,0,0,0,0,0,0,0,0
1670852898.89948511,60528279,1581,1580,1581,1581,0,0,0,0,0,0,0,0,0,0
1670852898.99944496,60628239,1580,1580,1580,1580,0,0,0,0,0,0,0,0,0,0
1670852899.09940505,60728199,1580,1580,1580,1580,0,0,0,0,0,0,0,0,0,0
1670852899.19936514,60828159,1580,1580,1580,1580,0,0,0,0,0,0,0,0,0,0
1670852899.30015802,60928952,1581,1581,1581,1581,0,0,0,0,0,0,0,0,0,0
1670852899.40011811,61028912,1580,1580,1580,1580,0,0,0,0,0,0,0,0,0,0
1670852899.50007796,61128872,1581,1580,1580,1581,0,0,0,0,0,0,0,0,0,0
1670852899.60003805,61228832,1580,1580,1581,1581,0,0,0,0,0,0,0,0,0,0
1670852899.69999814,61328792,1580,1580,1580,1580,0,0,0,0,0,0,0,0,0,0
1670852899.79995799,61428752,1580,1580,1580,1581,0,0,0,0,0,0,0,0,0,0
1670852899.89991808,61528712,1580,1580,1581,1581,0,0,0,0,0,0,0,0,0,0
1670852899.99987793,61628672,1579,1580,1580,1580,0,0,0,0,0,0,0,0,0,0
1670852900.09983802,61728632,1578,1583,1587,1572,0,0,0,0,0,0,0,0,0,0
1670852900.19979811,61828592,1579,1584,1583,1572,0,0,0,0,0,0,0,0,0,0
1670852900.29975796,61928552,1579,1582,1574,1572,0,0,0,0,0,0,0,0,0,0
1670852900.39971805,62028512,1578,1580,1565,1569,0,0,0,0,0,0,0,0,0,0
1670852900.49967813,62128472,1580,1580,1559,1566,0,0,0,0,0,0,0,0,0,0
1670852900.59963799,62228432,1580,1580,1554,1560,0,0,0,0,0,0,0,0,0,0
1670852900.69959807,62328392,1581,1580,1553,1556,0,0,0,0,0,0,0,0,0,0
1670852900.79955816,62428352,1582,1580,1553,1554,0,0,0,0,0,0,0,0,0,0
1670852900.89951801,62528312,1581,1580,1554,1553,0,0,0,0,0,0,0,0,0,0
1670852900.99947810,62628272,1580,1580,1555,1552,0,0,0,0,0,0,0,0,0,0
1670852901.09943795,62728232,1579,1579,1556,1554,0,0,0,0,0,0,0,0,0,0
1670852901.19939804,62828192,1578,1579,1557,1555,0,0,0,0,0,0,0,0,0,0
1670852901.30019116,62928985,1577,1579,1557,1556,0,0,0,0,0,0,0,0,0,0
1670852901.40015101,63028945,1575,1577,1555,1555,0,0,0,0,0,0,0,0,0,0
1670852901.50011110,63128905,1576,1578,1555,1556,0,0,0,0,0,0,0,0,0,0
1670852901.60007095,63228865,1578,1579,1554,1555,0,0,0,0,0,0,0,0,0,0
1670852901.70003104,63328825,1580,1581,1553,1553,0,0,0,0,0,0,0,0,0,0
1670852901.79999113,63428785,1582,1582,1550,1550,0,0,0,0,0,0,0,0,0,0
1670852901.89995098,63528745,1584,1585,1548,1548,0,0,0,0,0,0,0,0,0,0
1670852901.99991107,63628705,1586,1587,1545,1544,0,0,0,0,0,0,0,0,0,0
1670852902.09987116,63728665,1590,1590,1544,1544,0,0,0,0,0,0,0,0,0,0
1670852902.19983101,63828625,1592,1593,1541,1542,0,0,0,0,0,0,0,0,0,0
1670852902.29979110,63928585,1595,1596,1539,1541,0,0,0,0,0,0,0,0,0,0
1670852902.39975095,64028545,1596,1597,1538,1539,0,0,0,0,0,0,0,0,0,0
1670852902.49971104,64128505,1598,1598,1540,1542,0,0,0,0,0,0,0,0,0,0
1670852902.59967113,64228465,1597,1595,1544,1545,0,0,0,0,0,0,0,0,0,0
1670852902.69963098,64328425,1593,1589,1550,1552,0,0,0,0,0,0,0,0,0,0
1670852902.79959106,64428385,1585,1582,1558,1560,0,0,0,0,0,0,0,0,0,0
1670852902.89955115,64528345,1576,1573,1569,1572,0,0,0,0,0,0,0,0,0,0
1670852902.99951100,64628305,1565,1562,1581,1582,0,0,0,0,0,0,0,0,0,0
1670852903.09947109,64728265,1555,1552,1593,1594,0,0,0,0,0,0,0,0,0,0
1670852903.19943094,64828225,1545,1545,1603,1602,0,0,0,0,0,0,0,0,0,0
1670852903.29939103,64928185,1538,1539,1610,1609,0,0,0,0,0,0,0,0,0,0
1670852903.40018415,65028978,1535,1537,1613,1612,0,0,0,0,0,0,0,0,0,0
1670852903.50014400,65128938,1534,1536,1612,1612,0,0,0,0,0,0,0,0,0,0
1670852903.60010409,65228898,1537,1540,1610,1609,0,0,0,0,0,0,0,0,0,0
1670852903.70006394,65328858,1544,1546,1605,1605,0,0,0,0,0,0,0,0,0,0
1670852903.80002403,65428818,1550,1552,1598,1597,0,0,0,0,0,0,0,0,0,0
1670852903.89998412,65528778,1559,1559,1591,1591,0,0,0,0,0,0,0,0,0,0
1670852903.99994397,65628738,1567,1566,1584,1583,0,0,0,0,0,0,0,0,0,0
1670852904.09990406,65728698,1573,1572,1576,1577,0,0,0,0,0,0,0,0,0,0
1670852904.19986415,65828658,1579,1578,1572,1572,0,0,0,0,0,0,0,0,0,0
1670852904.29982400,65928618,1583,1581,1568,1569,0,0,0,0,0,0,0,0,0,0
1670852904.39978409,66028578,1585,1583,1567,1567,0,0,0,0,0,0,0,0,0,0
1670852904.49974394,66128538,1585,1583,1566,1567,0,0,0,0,0,0,0,0,0,0
1670852904.59970403,66228498,1583,1582,1567,1567,0,0,0,0,0,0,0,0,0,0
1670852904.69966412,66328458,1581,1580,1569,1570,0,0,0,0,0,0,0,0,0,0
1670852904.79962397,66428418,1578,1578,1572,1572,0,0,0,0,0,0,0,0,0,0
1670852904.89958405,66528378,1574,1574,1573,1574,0,0,0,0,0,0,0,0,0,0
1670852904.99954414,66628338,1572,1572,1576,1576,0,0,0,0,0,0,0,0,0,0
1670852905.09950399,66728298,1570,1570,1578,1578,0,0,0,0,0,0,0,0,0,0
1670852905.19946408,66828258,1568,1569,1579,1579,0,0,0,0,0,0,0,0,0,0
1670852905.29942393,66928218,1567,1567,1579,1579,0,0,0,0,0,0,0,0,0,0
1670852905.39938402,67028178,1568,1569,1581,1581,0,0,0,0,0,0,0,0,0,0
1670852905.50017715,67128971,1568,1569,1579,1580,0,0,0,0,0,0,0,0,0,0
1670852905.60013700,67228931,1569,1569,1578,1578,0,0,0,0,0,0,0,0,0,0
1670852905.70009708,67328891,1570,1571,1577,1577,0,0,0,0,0,0,0,0,0,0
1670852905.80005693,67428851,1572,1572,1576,1576,0,0,0,0,0,0,0,0,0,0
1670852905.90001702,67528811,1575,1574,1576,1576,0,0,0,0,0,0,0,0,0,0
1670852905.99997711,67628771,1575,1575,1575,1575,0,0,0,0,0,0,0,0,0,0
1670852906.09993696,67728731,1576,1575,1573,1573,0,0,0,0,0,0,0,0,0,0
1670852906.19989705,67828691,1578,1577,1574,1574,0,0,0,0,0,0,0,0,0,0
1670852906.29985714,67928651,1578,1578,1574,1574,0,0,0,0,0,0,0,0,0,0
1670852906.39981699,68028611,1577,1577,1573,1573,0,0,0,0,0,0,0,0,0,0
1670852906.49977708,68128571,1577,1577,1574,1574,0,0,0,0,0,0,0,0,0,0
1670852906.59973693,68228531,1577,1577,1574,1575,0,0,0,0,0,0,0,0,0,0
1670852906.69969702,68328491,1577,1576,1575,1575,0,0,0,0,0,0,0,0,0,0
1670852906.79965711,68428451,1577,1577,1576,1576,0,0,0,0,0,0,0,0,0,0
1670852906.89961696,68528411,1576,1576,1576,1577,0,0,0,0,0,0,0,0,0,0
1670852906.99957705,68628371,1576,1575,1577,1577,0,0,0,0,0,0,0,0,0,0
1670852907.09953713,68728331,1576,1576,1577,1577,0,0,0,0,0,0,0,0,0,0
1670852907.19949698,68828291,1575,1575,1577,1577,0,0,0,0,0,0,0,0,0,0
1670852907.29945707,68928251,1575,1575,1577,1577,0,0,0,0,0,0,0,0,0,0
1670852907.39941716,69028211,1576,1576,1578,1578,0,0,0,0,0,0,0,0,0,0
1670852907.49937701,69128171,1576,1577,1578,1577,0,0,0,0,0,0,0,0,0,0
1670852907.60017014,69228964,1576,1575,1577,1577,0,0,0,0,0,0,0,0,0,0
1670852907.70012999,69328924,1576,1576,1577,1576,0,0,0,0,0,0,0,0,0,0
1670852907.80009007,69428884,1577,1578,1577,1577,0,0,0,0,0,0,0,0,0,0
1670852907.90005016,69528844,1577,1581,1584,1569,0,0,0,0,0,0,0,0,0,0
1670852908.00001001,69628804,1577,1582,1580,1568,0,0,0,0,0,0,0,0,0,0
1670852908.09997010,69728764,1578,1581,1571,1568,0,0,0,0,0,0,0,0,0,0
1670852908.19992995,69828724,1579,1579,1561,1566,0,0,0,0,0,0,0,0,0,0
1670852908.29989004,69928684,1579,1579,1554,1561,0,0,0,0,0,0,0,0,0,0
1670852908.39985013,70028644,1580,1579,1550,1557,0,0,0,0,0,0,0,0,0,0
1670852908.49980998,70128604,1581,1580,1549,1553,0,0,0,0,0,0,0,0,0,0
1670852908.59977007,70228564,1581,1579,1549,1550,0,0,0,0,0,0,0,0,0,0
1670852908.69973016,70328524,1581,1580,1552,1550,0,0,0,0,0,0,0,0,0,0
1670852908.79969001,70428484,1581,1579,1554,1551,0,0,0,0,0,0,0,0,0,0
1670852908.89965010,70528444,1590,1574,1559,1555,0,0,0,0,0,0,0,0,0,0
1670852908.99960995,70628404,1588,1576,1560,1559,0,0,0,0,0,0,0,0,0,0
1670852909.09957004,70728364,1580,1580,1558,1559,0,0,0,0,0,0,0,0,0,0
1670852909.19953012,70828324,1574,1582,1557,1558,0,0,0,0,0,0,0,0,0,0
1670852909.29948997,70928284,1571,1583,1554,1555,0,0,0,0,0,0,0,0,0,0
1670852909.39945006,71028244,1572,1584,1550,1552,0,0,0,0,0,0,0,0,0,0
1670852909.49941015,71128204,1578,1585,1547,1548,0,0,0,0,0,0,0,0,0,0
1670852909.59937000,71228164,1583,1587,1542,1542,0,0,0,0,0,0,0,0,0,0
1670852909.70016313,71328957,1589,1589,1538,1537,0,0,0,0,0,0,0,0,0,0
1670852909.80012298,71428917,1593,1593,1534,1535,0,0,0,0,0,0,0,0,0,0
1670852909.90008307,71528877,1598,1594,1534,1534,0,0,0,0,0,0,0,0,0,0
1670852910.00004315,71628837,1597,1595,1533,1536,0,0,0,0,0,0,0,0,0,0
1670852910.10000300,71728797,1596,1592,1539,1541,0,0,0,0,0,0,0,0,0,0
1670852910.19996309,71828757,1589,1588,1544,1548,0,0,0,0,0,0,0,0,0,0
1670852910.29992294,71928717,1584,1580,1555,1557,0,0,0,0,0,0,0,0,0,0
1670852910.39988303,72028677,1572,1570,1562,1567,0,0,0,0,0,0,0,0,0,0
1670852910.49984312,72128637,1562,1558,1576,1577,0,0,0,0,0,0,0,0,0,0
1670852910.59980297,72228597,1550,1549,1585,1588,0,0,0,0,0,0,0,0,0,0
1670852910.69976306,72328557,1542,1539,1595,1595,0,0,0,0,0,0,0,0,0,0
1670852910.79972315,72428517,1535,1536,1602,1602,0,0,0,0,0,0,0,0,0,0
1670852910.89968300,72528477,1532,1531,1606,1603,0,0,0,0,0,0,0,0,0,0
1670852910.99964309,72628437,1530,1533,1605,1604,0,0,0,0,0,0,0,0,0,0
1670852911.09960294,72728397,1534,1535,1604,1601,0,0,0,0,0,0,0,0,0,0
1670852911.19956303,72828357,1537,1541,1596,1596,0,0,0,0,0,0,0,0,0,0
1670852911.29952312,72928317,1546,1547,1591,1590,0,0,0,0,0,0,0,0,0,0
1670852911.39948297,73028277,1553,1557,1582,1583,0,0,0,0,0,0,0,0,0,0
1670852911.49944305,73128237,1563,1562,1576,1575,0,0,0,0,0,0,0,0,0,0
1670852911.59940314,73228197,1569,1572,1570,1570,0,0,0,0,0,0,0,0,0,0
1670852911.69936299,73328157,1577,1575,1566,1564,0,0,0,0,0,0,0,0,0,0
1670852911.80015612,73428950,1581,1582,1563,1562,0,0,0,0,0,0,0,0,0,0
1670852911.90011597,73528910,1586,1583,1563,1560,0,0,0,0,0,0,0,0,0,0
1670852912.00007606,73628870,1586,1586,1562,1562,0,0,0,0,0,0,0,0,0,0
1670852912.10003614,73728830,1587,1584,1565,1564,0,0,0,0,0,0,0,0,0,0
1670852912.19999599,73828790,1583,1585,1566,1566,0,0,0,0,0,0,0,0,0,0
1670852912.29995608,73928750,1583,1580,1570,1569,0,0,0,0,0,0,0,0,0,0
1670852912.39991593,74028710,1578,1580,1573,1573,0,0,0,0,0,0,0,0,0,0
1670852912.49987602,74128670,1578,1576,1577,1576,0,0,0,0,0,0,0,0,0,0
1670852912.59983611,74228630,1573,1576,1578,1579,0,0,0,0,0,0,0,0,0,0
1670852912.69979596,74328590,1573,1571,1581,1580,0,0,0,0,0,0,0,0,0,0
1670852912.79975605,74428550,1571,1574,1582,1582,0,0,0,0,0,0,0,0,0,0
1670852912.89971614,74528510,1572,1570,1583,1582,0,0,0,0,0,0,0,0,0,0
1670852912.99967599,74628470,1571,1574,1582,1582,0,0,0,0,0,0,0,0,0,0
1670852913.09963608,74728430,1575,1573,1583,1583,0,0,0,0,0,0,0,0,0,0
1670852913.19959593,74828390,1575,1577,1582,1582,0,0,0,0,0,0,0,0,0,0
1670852913.29955602,74928350,1579,1576,1583,1582,0,0,0,0,0,0,0,0,0,0
1670852913.39951611,75028310,1579,1581,1582,1581,0,0,0,0,0,0,0,0,0,0
1670852913.49947596,75128270,1582,1579,1582,1581,0,0,0,0,0,0,0,0,0,0
1670852913.59943604,75228230,1582,1584,1581,1581,0,0,0,0,0,0,0,0,0,0
1670852913.69939613,75328190,1586,1583,1582,1582,0,0,0,0,0,0,0,0,0,0
1670852913.80018902,75428983,1584,1586,1582,1582,0,0,0,0,0,0,0,0,0,0
1670852913.90014911,75528943,1587,1584,1583,1582,0,0,0,0,0,0,0,0,0,0
1670852914.00010896,75628903,1585,1587,1583,1584,0,0,0,0,0,0,0,0,0,0
1670852914.10006905,75728863,1587,1584,1584,1585,0,0,0,0,0,0,0,0,0,0
1670852914.20002913,75828823,1585,1588,1586,1586,0,0,0,0,0,0,0,0,0,0
1670852914.29998899,75928783,1587,1584,1586,1587,0,0,0,0,0,0,0,0,0,0
1670852914.39994907,76028743,1585,1587,1587,1587,0,0,0,0,0,0,0,0,0,0
1670852914.49990916,76128703,1587,1585,1589,1589,0,0,0,0,0,0,0,0,0,0
1670852914.59986901,76228663,1585,1588,1590,1589,0,0,0,0,0,0,0,0,0,0
1670852914.69982910,76328623,1588,1585,1591,1590,0,0,0,0,0,0,0,0,0,0
1670852914.79978895,76428583,1588,1589,1592,1592,0,0,0,0,0,0,0,0,0,0
1670852914.89974904,76528543,1589,1587,1592,1592,0,0,0,0,0,0,0,0,0,0
1670852914.99970913,76628503,1588,1589,1592,1592,0,0,0,0,0,0,0,0,0,0
1670852915.09966898,76728463,1590,1587,1592,1592,0,0,0,0,0,0,0,0,0,0
1670852915.19962907,76828423,1589,1591,1593,1592,0,0,0,0,0,0,0,0,0,0
1670852915.29958916,76928383,1590,1588,1592,1593,0,0,0,0,0,0,0,0,0,0
1670852915.39954901,77028343,1590,1592,1593,1593,0,0,0,0,0,0,0,0,0,0
1670852915.49950910,77128303,1590,1589,1591,1592,0,0,0,0,0,0,0,0,0,0
1670852915.59946895,77228263,1586,1604,1593,1581,0,0,0,0,0,0,0,0,0,0
1670852915.69942904,77328223,1596,1608,1584,1575,0,0,0,0,0,0,0,0,0,0
1670852915.79938912,77428183,1604,1611,1574,1570,0,0,0,0,0,0,0,0,0,0
1670852915.90018201,77528976,1613,1607,1564,1568,0,0,0,0,0,0,0,0,0,0
1670852916.00014210,77628936,1617,1611,1562,1567,0,0,0,0,0,0,0,0,0,0
1670852916.10010195,77728896,1621,1611,1561,1567,0,0,0,0,0,0,0,0,0,0
1670852916.20006204,77828856,1619,1615,1564,1567,0,0,0,0,0,0,0,0,0,0
1670852916.30002213,77928816,1618,1614,1566,1569,0,0,0,0,0,0,0,0,0,0
1670852916.39998198,78028776,1616,1618,1572,1572,0,0,0,0,0,0,0,0,0,0
1670852916.49994206,78128736,1613,1614,1575,1576,0,0,0,0,0,0,0,0,0,0
1670852916.59990215,78228696,1611,1615,1580,1580,0,0,0,0,0,0,0,0,0,0
1670852916.69986200,78328656,1610,1609,1583,1583,0,0,0,0,0,0,0,0,0,0
1670852916.79982209,78428616,1608,1610,1588,1588,0,0,0,0,0,0,0,0,0,0
1670852916.89978194,78528576,1609,1607,1591,1593,0,0,0,0,0,0,0,0,0,0
1670852916.99974203,78628536,1608,1608,1596,1596,0,0,0,0,0,0,0,0,0,0
1670852917.09970212,78728496,1609,1606,1598,1601,0,0,0,0,0,0,0,0,0,0
1670852917.19966197,78828456,1607,1607,1602,1602,0,0,0,0,0,0,0,0,0,0
1670852917.29962206,78928416,1608,1604,1604,1606,0,0,0,0,0,0,0,0,0,0
1670852917.39958215,79028376,1606,1606,1608,1607,0,0,0,0,0,0,0,0,0,0
1670852917.49954200,79128336,1606,1603,1610,1612,0,0,0,0,0,0,0,0,0,0
1670852917.59950209,79228296,1604,1605,1614,1612,0,0,0,0,0,0,0,0,0,0
1670852917.69946194,79328256,1604,1601,1616,1616,0,0,0,0,0,0,0,0,0,0
1670852917.79942203,79428216,1601,1603,1618,1616,0,0,0,0,0,0,0,0,0,0
1670852917.89938211,79528176,1602,1600,1618,1619,0,0,0,0,0,0,0,0,0,0
1670852918.00017500,79628969,1599,1601,1618,1616,0,0,0,0,0,0,0,0,0,0
1670852918.10013509,79728929,1601,1599,1617,1619,0,0,0,0,0,0,0,0,0,0
1670852918.20009494,79828889,1600,1603,1617,1615,0,0,0,0,0,0,0,0,0,0
1670852918.30005503,79928849,1604,1601,1615,1617,0,0,0,0,0,0,0,0,0,0
1670852918.40001512,80028809,1602,1605,1614,1612,0,0,0,0,0,0,0,0,0,0
1670852918.49997497,80128769,1606,1604,1611,1613,0,0,0,0,0,0,0,0,0,0
1670852918.59993505,80228729,1606,1608,1610,1609,0,0,0,0,0,0,0,0,0,0
1670852918.69989514,80328689,1608,1604,1607,1608,0,0,0,0,0,0,0,0,0,0
1670852918.79985499,80428649,1606,1609,1607,1605,0,0,0,0,0,0,0,0,0,0
1670852918.89981508,80528609,1609,1605,1604,1606,0,0,0,0,0,0,0,0,0,0
1670852918.99977493,80628569,1606,1608,1604,1603,0,0,0,0,0,0,0,0,0,0
1670852919.09973502,80728529,1608,1604,1603,1604,0,0,0,0,0,0,0,0,0,0
1670852919.19969511,80828489,1604,1606,1603,1601,0,0,0,0,0,0,0,0,0,0
1670852919.29965496,80928449,1605,1600,1600,1602,0,0,0,0,0,0,0,0,0,0
1670852919.39961505,81028409,1599,1602,1600,1599,0,0,0,0,0,0,0,0,0,0
1670852919.49957514,81128369,1601,1597,1599,1601,0,0,0,0,0,0,0,0,0,0
1670852919.59953499,81228329,1596,1600,1600,1598,0,0,0,0,0,0,0,0,0,0
1670852919.69949508,81328289,1598,1594,1599,1601,0,0,0,0,0,0,0,0,0,0
1670852919.79945493,81428249,1594,1597,1599,1598,0,0,0,0,0,0,0,0,0,0
1670852919.89941502,81528209,1595,1590,1596,1598,0,0,0,0,0,0,0,0,0,0
1670852919.99937510,81628169,1591,1594,1597,1595,0,0,0,0,0,0,0,0,0,0
1670852920.10016799,81728962,1594,1589,1596,1598,0,0,0,0,0,0,0,0,0,0
1670852920.20012808,81828922,1589,1592,1595,1593,0,0,0,0,0,0,0,0,0,0
1670852920.30008793,81928882,1591,1586,1592,1594,0,0,0,0,0,0,0,0,0,0
1670852920.40004802,82028842,1587,1590,1593,1591,0,0,0,0,0,0,0,0,0,0
1670852920.50000811,82128802,1589,1585,1590,1592,0,0,0,0,0,0,0,0,0,0
1670852920.59996796,82228762,1585,1589,1590,1588,0,0,0,0,0,0,0,0,0,0
1670852920.69992805,82328722,1588,1583,1588,1590,0,0,0,0,0,0,0,0,0,0
1670852920.79988813,82428682,1583,1587,1588,1586,0,0,0,0,0,0,0,0,0,0
1670852920.89984798,82528642,1585,1580,1585,1588,0,0,0,0,0,0,0,0,0,0
1670852920.99980807,82628602,1582,1584,1585,1584,0,0,0,0,0,0,0,0,0,0
1670852921.09976816,82728562,1583,1579,1584,1586,0,0,0,0,0,0,0,0,0,0
1670852921.19972801,82828522,1579,1582,1584,1583,0,0,0,0,0,0,0,0,0,0
1670852921.29968810,82928482,1580,1576,1582,1584,0,0,0,0,0,0,0,0,0,0
1670852921.39964795,83028442,1577,1580,1583,1581,0,0,0,0,0,0,0,0,0,0
1670852921.49960804,83128402,1579,1575,1582,1583,0,0,0,0,0,0,0,0,0,0
1670852921.59956813,83228362,1576,1578,1582,1580,0,0,0,0,0,0,0,0,0,0
1670852921.69952798,83328322,1579,1574,1581,1584,0,0,0,0,0,0,0,0,0,0
1670852921.79948807,83428282,1575,1578,1581,1580,0,0,0,0,0,0,0,0,0,0
1670852921.89944816,83528242,1577,1573,1580,1582,0,0,0,0,0,0,0,0,0,0
1670852921.99940801,83628202,1573,1575,1580,1578,0,0,0,0,0,0,0,0,0,0
1670852922.09936810,83728162,1575,1571,1578,1581,0,0,0,0,0,0,0,0,0,0
1670852922.20016098,83828955,1565,1579,1583,1569,0,0,0,0,0,0,0,0,0,0
1670852922.30012107,83928915,1561,1573,1575,1560,0,0,0,0,0,0,0,0,0,0
1670852922.40008116,84028875,1554,1565,1564,1554,0,0,0,0,0,0,0,0,0,0
1670852922.50004101,84128835,1557,1551,1551,1555,0,0,0,0,0,0,0,0,0,0
1670852922.60000110,84228795,1550,1547,1545,1549,0,0,0,0,0,0,0,0,0,0
1670852922.69996095,84328755,1551,1539,1540,1549,0,0,0,0,0,0,0,0,0,0
1670852922.79992104,84428715,1543,1541,1541,1542,0,0,0,0,0,0,0,0,0,0
1670852922.89988112,84528675,1545,1538,1540,1543,0,0,0,0,0,0,0,0,0,0
1670852922.99984097,84628635,1537,1540,1541,1536,0,0,0,0,0,0,0,0,0,0
1670852923.09980106,84728595,1537,1533,1537,1536,0,0,0,0,0,0,0,0,0,0
1670852923.19976115,84828555,1534,1537,1542,1534,0,0,0,0,0,0,0,0,0,0
1670852923.29972100,84928515,1545,1540,1546,1546,0,0,0,0,0,0,0,0,0,0
1670852923.39968109,85028475,1549,1549,1556,1550,0,0,0,0,0,0,0,0,0,0
1670852923.49964094,85128435,1566,1558,1565,1568,0,0,0,0,0,0,0,0,0,0
1670852923.59960103,85228395,1568,1579,1573,1576,0,0,0,0,0,0,0,0,0,0
1670852923.69956112,85328355,1592,1565,1583,1578,0,0,0,0,0,0,0,0,0,0
1670852923.79952097,85428315,1591,1570,1585,1579,0,0,0,0,0,0,0,0,0,0
1670852923.89948106,85528275,1587,1572,1576,1583,0,0,0,0,0,0,0,0,0,0
1670852923.99944115,85628235,1575,1577,1571,1575,0,0,0,0,0,0,0,0,0,0
1670852924.09940100,85728195,1570,1574,1561,1573,0,0,0,0,0,0,0,0,0,0
1670852924.19936109,85828155,1558,1569,1555,1559,0,0,0,0,0,0,0,0,0,0
1670852924.30015397,85928948,1554,1559,1546,1553,0,0,0,0,0,0,0,0,0,0
1670852924.40011406,86028908,1550,1555,1547,1545,0,0,0,0,0,0,0,0,0,0
1670852924.50007415,86128868,1552,1550,1543,1547,0,0,0,0,0,0,0,0,0,0
1670852924.60003400,86228828,1550,1549,1547,1544,0,0,0,0,0,0,0,0,0,0
1670852924.69999409,86328788,1553,1548,1546,1551,0,0,0,0,0,0,0,0,0,0
1670852924.79995394,86428748,1553,1550,1551,1551,0,0,0,0,0,0,0,0,0,0
1670852924.89991403,86528708,1556,1553,1553,1559,0,0,0,0,0,0,0,0,0,0
1670852924.99987411,86628668,1556,1556,1559,1559,0,0,0,0,0,0,0,0,0,0
1670852925.09983397,86728628,1557,1557,1559,1564,0,0,0,0,0,0,0,0,0,0
1670852925.19979405,86828588,1555,1557,1561,1561,0,0,0,0,0,0,0,0,0,0
1670852925.29975414,86928548,1555,1556,1560,1564,0,0,0,0,0,0,0,0,0,0
1670852925.39971399,87028508,1555,1557,1563,1561,0,0,0,0,0,0,0,0,0,0
1670852925.49967408,87128468,1555,1555,1559,1561,0,0,0,0,0,0,0,0,0,0
1670852925.59963393,87228428,1555,1555,1560,1559,0,0,0,0,0,0,0,0,0,0
1670852925.69959402,87328388,1555,1555,1557,1559,0,0,0,0,0,0,0,0,0,0
1670852925.79955411,87428348,1554,1554,1557,1556,0,0,0,0,0,0,0,0,0,0
1670852925.89951396,87528308,1553,1553,1553,1555,0,0,0,0,0,0,0,0,0,0
1670852925.99947405,87628268,1552,1553,1553,1553,0,0,0,0,0,0,0,0,0,0
1670852926.09943414,87728228,1552,1553,1551,1552,0,0,0,0,0,0,0,0,0,0
1670852926.19939399,87828188,1549,1551,1550,1549,0,0,0,0,0,0,0,0,0,0
1670852926.30018711,87928981,1548,1549,1547,1548,0,0,0,0,0,0,0,0,0,0
1670852926.40014696,88028941,1547,1548,1546,1545,0,0,0,0,0,0,0,0,0,0
1670852926.50010705,88128901,1545,1546,1544,1544,0,0,0,0,0,0,0,0,0,0
1670852926.60006714,88228861,1544,1545,1543,1543,0,0,0,0,0,0,0,0,0,0
1670852926.70002699,88328821,1544,1544,1542,1543,0,0,0,0,0,0,0,0,0,0
1670852926.79998708,88428781,1543,1544,1543,1542,0,0,0,0,0,0,0,0,0,0
1670852926.89994693,88528741,1542,1542,1542,1541,0,0,0,0,0,0,0,0,0,0
1670852926.99990702,88628701,1542,1543,1542,1542,0,0,0,0,0,0,0,0,0,0
1670852927.09986711,88728661,1542,1542,1541,1541,0,0,0,0,0,0,0,0,0,0
1670852927.19982696,88828621,1540,1542,1541,1540,0,0,0,0,0,0,0,0,0,0
1670852927.29978704,88928581,1541,1540,1540,1540,0,0,0,0,0,0,0,0,0,0
1670852927.39974713,89028541,1541,1542,1541,1540,0,0,0,0,0,0,0,0,0,0
1670852927.49970698,89128501,1541,1541,1540,1539,0,0,0,0,0,0,0,0,0,0
1670852927.59966707,89228461,1540,1542,1540,1540,0,0,0,0,0,0,0,0,0,0
1670852927.69962716,89328421,1542,1541,1541,1540,0,0,0,0,0,0,0,0,0,0
1670852927.79958701,89428381,1542,1544,1541,1541,0,0,0,0,0,0,0,0,0,0
1670852927.89954710,89528341,1544,1542,1542,1541,0,0,0,0,0,0,0,0,0,0
1670852927.99950695,89628301,1542,1544,1541,1541,0,0,0,0,0,0,0,0,0,0
1670852928.09946704,89728261,1545,1542,1542,1541,0,0,0,0,0,0,0,0,0,0
1670852928.19942713,89828221,1544,1545,1542,1543,0,0,0,0,0,0,0,0,0,0
1670852928.29938698,89928181,1545,1542,1542,1541,0,0,0,0,0,0,0,0,0,0
1670852928.40018010,90028974,1544,1545,1543,1543,0,0,0,0,0,0,0,0,0,0
1670852928.50013995,90128934,1545,1543,1543,1542,0,0,0,0,0,0,0,0,0,0
1670852928.60010004,90228894,1543,1545,1544,1543,0,0,0,0,0,0,0,0,0,0
1670852928.70006013,90328854,1546,1543,1545,1543,0,0,0,0,0,0,0,0,0,0
1670852928.80001998,90428814,1543,1545,1543,1543,0,0,0,0,0,0,0,0,0,0
1670852928.89998007,90528774,1546,1543,1544,1543,0,0,0,0,0,0,0,0,0,0
1670852928.99994016,90628734,1543,1545,1543,1544,0,0,0,0,0,0,0,0,0,0
1670852929.09990001,90728694,1546,1543,1545,1544,0,0,0,0,0,0,0,0,0,0
1670852929.19986010,90828654,1545,1546,1546,1545,0,0,0,0,0,0,0,0,0,0
1670852929.29981995,90928614,1548,1545,1547,1546,0,0,0,0,0,0,0,0,0,0
1670852929.39978004,91028574,1546,1548,1547,1546,0,0,0,0,0,0,0,0,0,0
1670852929.49974012,91128534,1548,1546,1547,1546,0,0,0,0,0,0,0,0,0,0
1670852929.59969997,91228494,1546,1548,1547,1547,0,0,0,0,0,0,0,0,0,0
1670852929.69966006,91328454,1549,1545,1547,1547,0,0,0,0,0,0,0,0,0,0
1670852929.79962015,91428414,1546,1547,1546,1547,0,0,0,0,0,0,0,0,0,0
1670852929.89958000,91528374,1548,1546,1547,1547,0,0,0,0,0,0,0,0,0,0
1670852929.99954009,91628334,1547,1547,1546,1547,0,0,0,0,0,0,0,0,0,0
1670852930.09949994,91728294,1548,1545,1547,1546,0,0,0,0,0,0,0,0,0,0
1670852930.19946003,91828254,1385,1458,1381,1458,0,0,0,0,0,0,0,0,0,0
1670852930.29942012,91928214,1223,1350,1187,1373,0,0,0,0,0,0,0,0,0,0
1670852930.39937997,92028174,1172,1327,1150,1337,0,0,0,0,0,0,0,0,0,0
1670852930.50017309,92128967,1151,1308,1150,1306,0,0,0,0,0,0,0,0,0,0
1670852930.60013294,92228927,1150,1320,1170,1306,0,0,0,0,0,0,0,0,0,0
1670852930.70009303,92328887,1150,1319,1169,1304,0,0,0,0,0,0,0,0,0,0
1670852930.80005312,92428847,1150,1295,1163,1280,0,0,0,0,0,0,0,0,0,0
1670852930.90001297,92528807,1150,1298,1150,1287,0,0,0,0,0,0,0,0,0,0
1670852930.99997306,92628767,1302,1150,1220,1222,0,0,0,0,0,0,0,0,0,0
1670852931.09993315,92728727,1248,1193,1150,1234,0,0,0,0,0,0,0,0,0,0
1670852931.19989300,92828687,1223,1221,1150,1256,0,0,0,0,0,0,0,0,0,0
1670852931.29985309,92928647,1216,1222,1150,1261,0,0,0,0,0,0,0,0,0,0
1670852931.39981294,93028607,1217,1223,1150,1264,0,0,0,0,0,0,0,0,0,0
1670852931.49977303,93128567,1222,1222,1150,1265,0,0,0,0,0,0,0,0,0,0
1670852931.59973311,93228527,1225,1224,1150,1267,0,0,0,0,0,0,0,0,0,0
1670852931.69969296,93328487,1210,1224,1150,1250,0,0,0,0,0,0,0,0,0,0
1670852931.79965305,93428447,1150,1292,1169,1245,0,0,0,0,0,0,0,0,0,0
1670852931.89961314,93528407,1150,1289,1164,1243,0,0,0,0,0,0,0,0,0,0
1670852931.99957299,93628367,1150,1292,1164,1244,0,0,0,0,0,0,0,0,0,0
1670852932.09953308,93728327,1150,1297,1166,1245,0,0,0,0,0,0,0,0,0,0
1670852932.19949293,93828287,1150,1150,1150,1150,0,0,0,0,0,0,0,0,0,0
1670852932.29945302,93928247,1000,1000,1000,1000,0,0,0,0,0,0,0,0,0,0
1670852932.39941311,94028207,1000,1000,1000,1000,0,0,0,0,0,0,0,0,0,0
1670852932.49937296,94128167,1000,1000,1000,1000,0,0,0,0,0,0,0,0,0,0
1670852932.60016608,94228960,1000,1000,1000,1000,0,0,0,0,0,0,0,0,0,0
1670852932.70012593,94328920,1000,1000,1000,1000,0,0,0,0,0,0,0,0,0,0
1670852932.80008602,94428880,1000,1000,1000,1000,0,0,0,0,0,0,0,0,0,0
1670852932.90004611,94528840,1000,1000,1000,1000,0,0,0,0,0,0,0,0,0,0
1670852933.00000596,94628800,1000,1000,1000,1000,0,0,0,0,0,0,0,0,0,0
1670852933.09996605,94728760,1000,1000,1000,1000,0,0,0,0,0,0,0,0,0,0
1670852933.19992614,94828720,1000,1000,1000,1000,0,0,0,0,0,0,0,0,0,0
1670852933.29988599,94928680,1000,1000,1000,1000,0,0,0,0,0,0,0,0,0,0
1670852933.39984608,95028640,1000,1000,1000,1000,0,0,0,0,0,0,0,0,0,0
1670852933.49980593,95128600,1000,1000,1000,1000,0,0,0,0,0,0,0,0,0,0
1670852933.59976602,95228560,1000,1000,1000,1000,0,0,0,0,0,0,0,0,0,0
1670852933.69972610,95328520,1000,1000,1000,1000,0,0,0,0,0,0,0,0,0,0
1670852933.79968596,95428480,1000,1000,1000,1000,0,0,0,0,0,0,0,0,0,0
1670852933.89964604,95528440,1000,1000,1000,1000,0,0,0,0,0,0,0,0,0,0
1670852933.99960613,95628400,1000,1000,1000,1000,0,0,0,0,0,0,0,0,0,0
1670852934.09956598,95728360,1000,1000,1000,1000,0,0,0,0,0,0,0,0,0,0
1670852934.19952607,95828320,1000,1000,1000,1000,0,0,0,0,0,0,0,0,0,0
1670852934.29948616,95928280,1000,1000,1000,1000,0,0,0,0,0,0,0,0,0,0
1670852934.39944601,96028240,1000,1000,1000,1000,0,0,0,0,0,0,0,0,0,0
1670852934.49940610,96128200,1000,1000,1000,1000,0,0,0,0,0,0,0,0,0,0
1670852934.59936595,96228160,1000,1000,1000,1000,0,0,0,0,0,0,0,0,0,0
1670852934.70015907,96328953,1000,1000,1000,1000,0,0,0,0,0,0,0,0,0,0
1670852934.80011916,96428913,1000,1000,1000,1000,0,0,0,0,0,0,0,0,0,0
1670852934.90007901,96528873,1000,1000,1000,1000,0,0,0,0,0,0,0,0,0,0
1670852935.00003910,96628833,1000,1000,1000,1000,0,0,0,0,0,0,0,0,0,0
1670852935.09999895,96728793,1000,1000,1000,1000,0,0,0,0,0,0,0,0,0,0
1670852935.19995904,96828753,1000,1000,1000,1000,0,0,0,0,0,0,0,0,0,0
1670852935.29991913,96928713,1000,1000,1000,1000,0,0,0,0,0,0,0,0,0,0
1670852935.39987898,97028673,1000,1000,1000,1000,0,0,0,0,0,0,0,0,0,0
1670852935.49983907,97128633,1000,1000,1000,1000,0,0,0,0,0,0,0,0,0,0
1670852935.59979916,97228593,1000,1000,1000,1000,0,0,0,0,0,0,0,0,0,0
1670852935.69975901,97328553,1000,1000,1000,1000,0,0,0,0,0,0,0,0,0,0
1670852935.79971910,97428513,1000,1000,1000,1000,0,0,0,0,0,0,0,0,0,0
1670852935.89967895,97528473,1000,1000,1000,1000,0,0,0,0,0,0,0,0,0,0
1670852935.99963903,97628433,1000,1000,1000,1000,0,0,0,0,0,0,0,0,0,0
1670852936.09959912,97728393,1000,1000,1000,1000,0,0,0,0,0,0,0,0,0,0
1670852936.19955897,97828353,1000,1000,1000,1000,0,0,0,0,0,0,0,0,0,0
1670852936.29951906,97928313,1000,1000,1000,1000,0,0,0,0,0,0,0,0,0,0
1670852936.39947915,98028273,1000,1000,1000,1000,0,0,0,0,0,0,0,0,0,0
1670852936.49943900,98128233,1000,1000,1000,1000,0,0,0,0,0,0,0,0,0,0
1670852936.59939909,98228193,1000,1000,1000,1000,0,0,0,0,0,0,0,0,0,0
1670852936.70019197,98328986,1000,1000,1000,1000,0,0,0,0,0,0,0,0,0,0
1670852936.80015206,98428946,1000,1000,1000,1000,0,0,0,0,0,0,0,0,0,0
1670852936.90011215,98528906,1000,1000,1000,1000,0,0,0,0,0,0,0,0,0,0
1670852937.00007200,98628866,1000,1000,1000,1000,0,0,0,0,0,0,0,0,0,0
1670852937.10003209,98728826,1000,1000,1000,1000,0,0,0,0,0,0,0,0,0,0
1670852937.19999194,98828786,1000,1000,1000,1000,0,0,0,0,0,0,0,0,0,0
1670852937.29995203,98928746,1000,1000,1000,1000,0,0,0,0,0,0,0,0,0,0
1670852937.39991212,99028706,1000,1000,1000,1000,0,0,0,0,0,0,0,0,0,0
1670852937.49987197,99128666,1000,1000,1000,1000,0,0,0,0,0,0,0,0,0,0
1670852937.59983206,99228626,1000,1000,1000,1000,0,0,0,0,0,0,0,0,0,0
1670852937.69979215,99328586,1000,1000,1000,1000,0,0,0,0,0,0,0,0,0,0
1670852937.79975200,99428546,1000,1000,1000,1000,0,0,0,0,0,0,0,0,0,0
1670852937.89971209,99528506,1000,1000,1000,1000,0,0,0,0,0,0,0,0,0,0
1670852937.99967194,99628466,1000,1000,1000,1000,0,0,0,0,0,0,0,0,0,0
1670852938.09963202,99728426,1000,1000,1000,1000,0,0,0,0,0,0,0,0,0,0
1670852938.19959211,99828386,1000,1000,1000,1000,0,0,0,0,0,0,0,0,0,0
1670852938.29955196,99928346,1000,1000,1000,1000,0,0,0,0,0,0,0,0,0,0
1670852938.39951205,100028306,1000,1000,1000,1000,0,0,0,0,0,0,0,0,0,0
1670852938.49947214,100128266,1000,1000,1000,1000,0,0,0,0,0,0,0,0,0,0
1670852938.59943199,100228226,1000,1000,1000,1000,0,0,0,0,0,0,0,0,0,0
1670852938.69939208,100328186,1000,1000,1000,1000,0,0,0,0,0,0,0,0,0,0
1670852938.80018497,100428979,1000,1000,1000,1000,0,0,0,0,0,0,0,0,0,0
1670852938.90014505,100528939,1000,1000,1000,1000,0,0,0,0,0,0,0,0,0,0
1670852939.00010514,100628899,1000,1000,1000,1000,0,0,0,0,0,0,0,0,0,0
1670852939.10006499,100728859,1000,1000,1000,1000,0,0,0,0,0,0,0,0,0,0
1670852939.20002508,100828819,1000,1000,1000,1000,0,0,0,0,0,0,0,0,0,0
1670852939.29998493,100928779,1000,1000,1000,1000,0,0,0,0,0,0,0,0,0,0
1670852939.39994502,101028739,1000,1000,1000,1000,0,0,0,0,0,0,0,0,0,0
1670852939.49990511,101128699,1000,1000,1000,1000,0,0,0,0,0,0,0,0,0,0
1670852939.59986496,101228659,1000,1000,1000,1000,0,0,0,0,0,0,0,0,0,0
1670852939.69982505,101328619,1000,1000,1000,1000,0,0,0,0,0,0,0,0,0,0
1670852939.79978514,101428579,1000,1000,1000,1000,0,0,0,0,0,0,0,0,0,0
1670852939.89974499,101528539,1000,1000,1000,1000,0,0,0,0,0,0,0,0,0,0
1670852939.99970508,101628499,1000,1000,1000,1000,0,0,0,0,0,0,0,0,0,0
1670852940.09966493,101728459,1000,1000,1000,1000,0,0,0,0,0,0,0,0,0,0
1670852940.19962502,101828419,1000,1000,1000,1000,0,0,0,0,0,0,0,0,0,0
1670852940.29958510,101928379,1000,1000,1000,1000,0,0,0,0,0,0,0,0,0,0
1670852940.39954495,102028339,1000,1000,1000,1000,0,0,0,0,0,0,0,0,0,0
1670852940.49950504,102128299,1000,1000,1000,1000,0,0,0,0,0,0,0,0,0,0
1670852940.59946513,102228259,1000,1000,1000,1000,0,0,0,0,0,0,0,0,0,0
1670852940.69942498,102328219,1000,1000,1000,1000,0,0,0,0,0,0,0,0,0,0
1670852940.79938507,102428179,1000,1000,1000,1000,0,0,0,0,0,0,0,0,0,0
1670852940.90017796,102528972,1000,1000,1000,1000,0,0,0,0,0,0,0,0,0,0
1670852941.00013804,102628932,1000,1000,1000,1000,0,0,0,0,0,0,0,0,0,0
1670852941.10009813,102728892,1000,1000,1000,1000,0,0,0,0,0,0,0,0,0,0
1670852941.20005798,102828852,1000,1000,1000,1000,0,0,0,0,0,0,0,0,0,0
1670852941.30001807,102928812,1000,1000,1000,1000,0,0,0,0,0,0,0,0,0,0
1670852941.39997816,103028772,1000,1000,1000,1000,0,0,0,0,0,0,0,0,0,0
1670852941.49993801,103128732,1000,1000,1000,1000,0,0,0,0,0,0,0,0,0,0
1670852941.59989810,103228692,1000,1000,1000,1000,0,0,0,0,0,0,0,0,0,0
1670852941.69985795,103328652,1000,1000,1000,1000,0,0,0,0,0,0,0,0,0,0
1670852941.79981804,103428612,1000,1000,1000,1000,0,0,0,0,0,0,0,0,0,0
1670852941.89977813,103528572,1000,1000,1000,1000,0,0,0,0,0,0,0,0,0,0
1670852941.99973798,103628532,1000,1000,1000,1000,0,0,0,0,0,0,0,0,0,0
1670852942.09969807,103728492,1000,1000,1000,1000,0,0,0,0,0,0,0,0,0,0
1670852942.19965816,103828452,1000,1000,1000,1000,0,0,0,0,0,0,0,0,0,0
1670852942.29961801,103928412,1000,1000,1000,1000,0,0,0,0,0,0,0,0,0,0
1670852942.39957809,104028372,1000,1000,1000,1000,0,0,0,0,0,0,0,0,0,0
1670852942.49953794,104128332,1000,1000,1000,1000,0,0,0,0,0,0,0,0,0,0
1670852942.59949803,104228292,1000,1000,1000,1000,0,0,0,0,0,0,0,0,0,0
1670852942.69945812,104328252,1000,1000,1000,1000,0,0,0,0,0,0,0,0,0,0
1670852942.79941797,104428212,1000,1000,1000,1000,0,0,0,0,0,0,0,0,0,0
1670852942.89937806,104528172,1000,1000,1000,1000,0,0,0,0,0,0,0,0,0,0
1670852943.00017095,104628965,1000,1000,1000,1000,0,0,0,0,0,0,0,0,0,0
1670852943.10013103,104728925,1000,1000,1000,1000,0,0,0,0,0,0,0,0,0,0
1670852943.20009112,104828885,1000,1000,1000,1000,0,0,0,0,0,0,0,0,0,0
1670852943.30005097,104928845,1000,1000,1000,1000,0,0,0,0,0,0,0,0,0,0
1670852943.40001106,105028805,1000,1000,1000,1000,0,0,0,0,0,0,0,0,0,0
1670852943.49997115,105128765,1000,1000,1000,1000,0,0,0,0,0,0,0,0,0,0
1670852943.59993100,105228725,1000,1000,1000,1000,0,0,0,0,0,0,0,0,0,0
1670852943.69989109,105328685,1000,1000,1000,1000,0,0,0,0,0,0,0,0,0,0
1670852943.79985094,105428645,1000,1000,1000,1000,0,0,0,0,0,0,0,0,0,0
1670852943.89981103,105528605,1000,1000,1000,1000,0,0,0,0,0,0,0,0,0,0
1670852943.99977112,105628565,1000,1000,1000,1000,0,0,0,0,0,0,0,0,0,0
1670852944.09973097,105728525,1000,1000,1000,1000,0,0,0,0,0,0,0,0,0,0
1670852944.19969106,105828485,1000,1000,1000,1000,0,0,0,0,0,0,0,0,0,0
1670852944.29965115,105928445,1000,1000,1000,1000,0,0,0,0,0,0,0,0,0,0
1670852944.39961100,106028405,1000,1000,1000,1000,0,0,0,0,0,0,0,0,0,0
1670852944.49957108,106128365,1000,1000,1000,1000,0,0,0,0,0,0,0,0,0,0
1670852944.59953094,106228325,1000,1000,1000,1000,0,0,0,0,0,0,0,0,0,0
1670852944.69949102,106328285,1000,1000,1000,1000,0,0,0,0,0,0,0,0,0,0
1670852944.79945111,106428245,1000,1000,1000,1000,0,0,0,0,0,0,0,0,0,0
1670852944.89941096,106528205,1000,1000,1000,1000,0,0,0,0,0,0,0,0,0,0
1670852944.99937105,106628165,1000,1000,1000,1000,0,0,0,0,0,0,0,0,0,0
1670852945.10016394,106728958,1000,1000,1000,1000,0,0,0,0,0,0,0,0,0,0
1670852945.20012403,106828918,1000,1000,1000,1000,0,0,0,0,0,0,0,0,0,0
1670852945.30008411,106928878,1000,1000,1000,1000,0,0,0,0,0,0,0,0,0,0
1670852945.40004396,107028838,1000,1000,1000,1000,0,0,0,0,0,0,0,0,0,0
1670852945.50000405,107128798,1000,1000,1000,1000,0,0,0,0,0,0,0,0,0,0
1670852945.59996414,107228758,1000,1000,1000,1000,0,0,0,0,0,0,0,0,0,0
1670852945.69992399,107328718,1000,1000,1000,1000,0,0,0,0,0,0,0,0,0,0
1670852945.79988408,107428678,1000,1000,1000,1000,0,0,0,0,0,0,0,0,0,0
1670852945.89984393,107528638,1000,1000,1000,1000,0,0,0,0,0,0,0,0,0,0
1670852945.99980402,107628598,1000,1000,1000,1000,0,0,0,0,0,0,0,0,0,0
1670852946.09976411,107728558,1000,1000,1000,1000,0,0,0,0,0,0,0,0,0,0
1670852946.19972396,107828518,1000,1000,1000,1000,0,0,0,0,0,0,0,0,0,0
1670852946.29968405,107928478,1000,1000,1000,1000,0,0,0,0,0,0,0,0,0,0
1670852946.39964414,108028438,1000,1000,1000,1000,0,0,0,0,0,0,0,0,0,0
1670852946.49960399,108128398,1000,1000,1000,1000,0,0,0,0,0,0,0,0,0,0
1670852946.59956408,108228358,1000,1000,1000,1000,0,0,0,0,0,0,0,0,0,0
1670852946.69952416,108328318,1000,1000,1000,1000,0,0,0,0,0,0,0,0,0,0
1670852946.79948401,108428278,1000,1000,1000,1000,0,0,0,0,0,0,0,0,0,0
1670852946.89944410,108528238,1000,1000,1000,1000,0,0,0,0,0,0,0,0,0,0
1670852946.99940395,108628198,1000,1000,1000,1000,0,0,0,0,0,0,0,0,0,0
1670852947.09936404,108728158,1000,1000,1000,1000,0,0,0,0,0,0,0,0,0,0
