timestamp,TimeUS,C1,C2,C3,C4,C5,C6,C7,C8,C9,C10,C11,C12,C13,C14
1670843127.50004005,134928507,1000,1000,1000,1000,0,0,0,0,0,0,0,0,0,0
1670843127.59999990,135028467,1000,1000,1000,1000,0,0,0,0,0,0,0,0,0,0
1670843127.69995999,135128427,1000,1000,1000,1000,0,0,0,0,0,0,0,0,0,0
1670843127.79992008,135228387,1000,1000,1000,1000,0,0,0,0,0,0,0,0,0,0
1670843127.89987993,135328347,1000,1000,1000,1000,0,0,0,0,0,0,0,0,0,0
1670843127.99984002,135428307,1000,1000,1000,1000,0,0,0,0,0,0,0,0,0,0
1670843128.09979987,135528267,1000,1000,1000,1000,0,0,0,0,0,0,0,0,0,0
1670843128.19975996,135628227,1000,1000,1000,1000,0,0,0,0,0,0,0,0,0,0
1670843128.29972005,135728187,1000,1000,1000,1000,0,0,0,0,0,0,0,0,0,0
1670843128.40051293,135828980,1000,1000,1000,1000,0,0,0,0,0,0,0,0,0,0
1670843128.50047302,135928940,1000,1000,1000,1000,0,0,0,0,0,0,0,0,0,0
1670843128.60043287,136028900,1000,1000,1000,1000,0,0,0,0,0,0,0,0,0,0
1670843128.70039296,136128860,1000,1000,1000,1000,0,0,0,0,0,0,0,0,0,0
1670843128.80035305,136228820,1000,1000,1000,1000,0,0,0,0,0,0,0,0,0,0
1670843128.90031290,136328780,1000,1000,1000,1000,0,0,0,0,0,0,0,0,0,0
1670843129.00027299,136428740,1000,1000,1000,1000,0,0,0,0,0,0,0,0,0,0
1670843129.10023308,136528700,1000,1000,1000,1000,0,0,0,0,0,0,0,0,0,0
1670843129.20019293,136628660,1000,1000,1000,1000,0,0,0,0,0,0,0,0,0,0
1670843129.30015302,136728620,1000,1000,1000,1000,0,0,0,0,0,0,0,0,0,0
1670843129.40011287,136828580,1000,1000,1000,1000,0,0,0,0,0,0,0,0,0,0
1670843129.50007296,136928540,1024,1024,1024,1024,0,0,0,0,0,0,0,0,0,0
1670843129.60003304,137028500,1054,1054,1054,1054,0,0,0,0,0,0,0,0,0,0
1670843129.69999290,137128460,1084,1084,1084,1084,0,0,0,0,0,0,0,0,0,0
1670843129.79995298,137228420,1113,1113,1113,1113,0,0,0,0,0,0,0,0,0,0
1670843129.89991307,137328380,1143,1143,1143,1143,0,0,0,0,0,0,0,0,0,0
1670843129.99987292,137428340,1362,1346,1347,1363,0,0,0,0,0,0,0,0,0,0
1670843130.09983301,137528300,1551,1536,1537,1551,0,0,0,0,0,0,0,0,0,0
1670843130.19979286,137628260,1703,1690,1691,1703,0,0,0,0,0,0,0,0,0,0
1670843130.29975295,137728220,1833,1821,1822,1834,0,0,0,0,0,0,0,0,0,0
1670843130.39971304,137828180,1870,1857,1857,1871,0,0,0,0,0,0,0,0,0,0
1670843130.50050592,137928973,1835,1828,1829,1835,0,0,0,0,0,0,0,0,0,0
1670843130.60046601,138028933,1707,1708,1709,1708,0,0,0,0,0,0,0,0,0,0
1670843130.70042586,138128893,1635,1640,1640,1636,0,0,0,0,0,0,0,0,0,0
1670843130.80038595,138228853,1625,1632,1631,1626,0,0,0,0,0,0,0,0,0,0
1670843130.90034604,138328813,1633,1634,1629,1638,0,0,0,0,0,0,0,0,0,0
1670843131.00030589,138428773,1636,1642,1636,1643,0,0,0,0,0,0,0,0,0,0
1670843131.10026598,138528733,1635,1640,1636,1639,0,0,0,0,0,0,0,0,0,0
1670843131.20022607,138628693,1630,1633,1632,1630,0,0,0,0,0,0,0,0,0,0
1670843131.30018592,138728653,1627,1627,1629,1625,0,0,0,0,0,0,0,0,0,0
1670843131.40014601,138828613,1625,1623,1627,1621,0,0,0,0,0,0,0,0,0,0
1670843131.50010586,138928573,1627,1623,1628,1622,0,0,0,0,0,0,0,0,0,0
1670843131.60006595,139028533,1613,1611,1616,1608,0,0,0,0,0,0,0,0,0,0
1670843131.70002604,139128493,1589,1589,1599,1578,0,0,0,0,0,0,0,0,0,0
1670843131.79998589,139228453,1575,1576,1581,1570,0,0,0,0,0,0,0,0,0,0
1670843131.89994597,139328413,1564,1565,1563,1566,0,0,0,0,0,0,0,0,0,0
1670843131.99990606,139428373,1555,1556,1550,1561,0,0,0,0,0,0,0,0,0,0
1670843132.09986591,139528333,1549,1548,1540,1556,0,0,0,0,0,0,0,0,0,0
1670843132.19982600,139628293,1542,1541,1532,1550,0,0,0,0,0,0,0,0,0,0
1670843132.29978585,139728253,1538,1536,1529,1542,0,0,0,0,0,0,0,0,0,0
1670843132.39974594,139828213,1533,1531,1529,1533,0,0,0,0,0,0,0,0,0,0
1670843132.49970603,139928173,1529,1528,1528,1527,0,0,0,0,0,0,0,0,0,0
1670843132.60049891,140028966,1528,1528,1529,1525,0,0,0,0,0,0,0,0,0,0
1670843132.70045900,140128926,1531,1531,1533,1528,0,0,0,0,0,0,0,0,0,0
1670843132.80041885,140228886,1532,1532,1535,1529,0,0,0,0,0,0,0,0,0,0
1670843132.90037894,140328846,1535,1536,1538,1535,0,0,0,0,0,0,0,0,0,0
1670843133.00033903,140428806,1539,1539,1540,1539,0,0,0,0,0,0,0,0,0,0
1670843133.10029888,140528766,1543,1543,1544,1544,0,0,0,0,0,0,0,0,0,0
1670843133.20025897,140628726,1546,1546,1547,1547,0,0,0,0,0,0,0,0,0,0
1670843133.30021906,140728686,1549,1548,1549,1549,0,0,0,0,0,0,0,0,0,0
1670843133.40017891,140828646,1550,1551,1551,1551,0,0,0,0,0,0,0,0,0,0
1670843133.50013900,140928606,1554,1554,1554,1555,0,0,0,0,0,0,0,0,0,0
1670843133.60009885,141028566,1556,1556,1555,1557,0,0,0,0,0,0,0,0,0,0
1670843133.70005894,141128526,1559,1563,1552,1554,0,0,0,0,0,0,0,0,0,0
1670843133.80001903,141228486,1573,1572,1546,1548,0,0,0,0,0,0,0,0,0,0
1670843133.89997888,141328446,1571,1569,1554,1554,0,0,0,0,0,0,0,0,0,0
1670843133.99993896,141428406,1565,1563,1561,1561,0,0,0,0,0,0,0,0,0,0
1670843134.09989905,141528366,1560,1558,1567,1567,0,0,0,0,0,0,0,0,0,0
1670843134.19985890,141628326,1557,1557,1573,1572,0,0,0,0,0,0,0,0,0,0
1670843134.29981899,141728286,1557,1558,1577,1576,0,0,0,0,0,0,0,0,0,0
1670843134.39977908,141828246,1557,1559,1578,1578,0,0,0,0,0,0,0,0,0,0
1670843134.49973893,141928206,1559,1560,1577,1577,0,0,0,0,0,0,0,0,0,0
1670843134.59969902,142028166,1563,1564,1577,1577,0,0,0,0,0,0,0,0,0,0
1670843134.70049191,142128959,1566,1566,1574,1574,0,0,0,0,0,0,0,0,0,0
1670843134.80045199,142228919,1570,1570,1573,1573,0,0,0,0,0,0,0,0,0,0
1670843134.90041208,142328879,1574,1573,1571,1572,0,0,0,0,0,0,0,0,0,0
1670843135.00037193,142428839,1576,1576,1570,1570,0,0,0,0,0,0,0,0,0,0
1670843135.10033202,142528799,1579,1578,1570,1569,0,0,0,0,0,0,0,0,0,0
1670843135.20029187,142628759,1580,1580,1570,1568,0,0,0,0,0,0,0,0,0,0
1670843135.30025196,142728719,1581,1580,1571,1569,0,0,0,0,0,0,0,0,0,0
1670843135.40021205,142828679,1581,1580,1571,1570,0,0,0,0,0,0,0,0,0,0
1670843135.50017190,142928639,1579,1579,1571,1571,0,0,0,0,0,0,0,0,0,0
1670843135.60013199,143028599,1579,1579,1573,1574,0,0,0,0,0,0,0,0,0,0
1670843135.70009208,143128559,1579,1578,1575,1576,0,0,0,0,0,0,0,0,0,0
1670843135.80005193,143228519,1577,1577,1576,1576,0,0,0,0,0,0,0,0,0,0
1670843135.90001202,143328479,1576,1577,1578,1578,0,0,0,0,0,0,0,0,0,0
1670843135.99997187,143428439,1574,1575,1577,1577,0,0,0,0,0,0,0,0,0,0
1670843136.09993196,143528399,1576,1575,1579,1579,0,0,0,0,0,0,0,0,0,0
1670843136.19989204,143628359,1575,1575,1579,1579,0,0,0,0,0,0,0,0,0,0
1670843136.29985189,143728319,1575,1574,1578,1579,0,0,0,0,0,0,0,0,0,0
1670843136.39981198,143828279,1575,1575,1579,1579,0,0,0,0,0,0,0,0,0,0
1670843136.49977207,143928239,1575,1575,1578,1578,0,0,0,0,0,0,0,0,0,0
1670843136.59973192,144028199,1576,1577,1578,1578,0,0,0,0,0,0,0,0,0,0
1670843136.69969201,144128159,1578,1578,1578,1578,0,0,0,0,0,0,0,0,0,0
1670843136.80048490,144228952,1579,1579,1579,1578,0,0,0,0,0,0,0,0,0,0
1670843136.90044498,144328912,1579,1579,1578,1578,0,0,0,0,0,0,0,0,0,0
1670843137.00040507,144428872,1579,1579,1578,1578,0,0,0,0,0,0,0,0,0,0
1670843137.10036492,144528832,1579,1580,1578,1578,0,0,0,0,0,0,0,0,0,0
1670843137.20032501,144628792,1579,1579,1577,1577,0,0,0,0,0,0,0,0,0,0
1670843137.30028486,144728752,1580,1580,1578,1578,0,0,0,0,0,0,0,0,0,0
1670843137.40024495,144828712,1579,1579,1578,1578,0,0,0,0,0,0,0,0,0,0
1670843137.50020504,144928672,1579,1578,1578,1578,0,0,0,0,0,0,0,0,0,0
1670843137.60016489,145028632,1578,1578,1578,1577,0,0,0,0,0,0,0,0,0,0
1670843137.70012498,145128592,1579,1578,1579,1579,0,0,0,0,0,0,0,0,0,0
1670843137.80008507,145228552,1579,1579,1579,1579,0,0,0,0,0,0,0,0,0,0
1670843137.90004492,145328512,1579,1580,1580,1581,0,0,0,0,0,0,0,0,0,0
1670843138.00000501,145428472,1579,1579,1580,1580,0,0,0,0,0,0,0,0,0,0
1670843138.09996486,145528432,1580,1579,1581,1581,0,0,0,0,0,0,0,0,0,0
1670843138.19992495,145628392,1580,1580,1581,1581,0,0,0,0,0,0,0,0,0,0
1670843138.29988503,145728352,1579,1579,1580,1580,0,0,0,0,0,0,0,0,0,0
1670843138.39984488,145828312,1580,1580,1580,1580,0,0,0,0,0,0,0,0,0,0
1670843138.49980497,145928272,1580,1579,1580,1580,0,0,0,0,0,0,0,0,0,0
1670843138.59976506,146028232,1580,1580,1580,1580,0,0,0,0,0,0,0,0,0,0
1670843138.69972491,146128192,1581,1581,1580,1581,0,0,0,0,0,0,0,0,0,0
1670843138.80051804,146228985,1580,1581,1580,1580,0,0,0,0,0,0,0,0,0,0
1670843138.90047789,146328945,1581,1580,1580,1580,0,0,0,0,0,0,0,0,0,0
1670843139.00043797,146428905,1581,1581,1581,1581,0,0,0,0,0,0,0,0,0,0
1670843139.10039806,146528865,1581,1581,1581,1581,0,0,0,0,0,0,0,0,0,0
1670843139.20035791,146628825,1581,1581,1581,1581,0,0,0,0,0,0,0,0,0,0
1670843139.30031800,146728785,1581,1580,1581,1580,0,0,0,0,0,0,0,0,0,0
1670843139.40027785,146828745,1581,1581,1581,1581,0,0,0,0,0,0,0,0,0,0
1670843139.50023794,146928705,1581,1581,1580,1581,0,0,0,0,0,0,0,0,0,0
1670843139.60019803,147028665,1581,1581,1581,1580,0,0,0,0,0,0,0,0,0,0
1670843139.70015788,147128625,1580,1580,1580,1580,0,0,0,0,0,0,0,0,0,0
1670843139.80011797,147228585,1580,1581,1582,1579,0,0,0,0,0,0,0,0,0,0
1670843139.90007806,147328545,1580,1582,1588,1572,0,0,0,0,0,0,0,0,0,0
1670843140.00003791,147428505,1579,1582,1583,1572,0,0,0,0,0,0,0,0,0,0
1670843140.09999800,147528465,1578,1581,1574,1573,0,0,0,0,0,0,0,0,0,0
1670843140.19995785,147628425,1576,1579,1565,1569,0,0,0,0,0,0,0,0,0,0
1670843140.29991794,147728385,1576,1578,1558,1565,0,0,0,0,0,0,0,0,0,0
1670843140.39987803,147828345,1579,1579,1556,1561,0,0,0,0,0,0,0,0,0,0
1670843140.49983788,147928305,1580,1579,1554,1557,0,0,0,0,0,0,0,0,0,0
1670843140.59979796,148028265,1581,1579,1555,1555,0,0,0,0,0,0,0,0,0,0
1670843140.69975805,148128225,1581,1579,1555,1553,0,0,0,0,0,0,0,0,0,0
1670843140.79971790,148228185,1579,1579,1555,1552,0,0,0,0,0,0,0,0,0,0
1670843140.90051103,148328978,1578,1578,1554,1552,0,0,0,0,0,0,0,0,0,0
1670843141.00047088,148428938,1578,1578,1555,1553,0,0,0,0,0,0,0,0,0,0
1670843141.10043097,148528898,1576,1578,1553,1553,0,0,0,0,0,0,0,0,0,0
1670843141.20039105,148628858,1576,1579,1552,1552,0,0,0,0,0,0,0,0,0,0
1670843141.30035090,148728818,1577,1579,1550,1551,0,0,0,0,0,0,0,0,0,0
1670843141.40031099,148828778,1578,1579,1548,1548,0,0,0,0,0,0,0,0,0,0
1670843141.50027108,148928738,1581,1582,1546,1546,0,0,0,0,0,0,0,0,0,0
1670843141.60023093,149028698,1583,1585,1544,1543,0,0,0,0,0,0,0,0,0,0
1670843141.70019102,149128658,1588,1588,1543,1542,0,0,0,0,0,0,0,0,0,0
1670843141.80015087,149228618,1590,1591,1539,1538,0,0,0,0,0,0,0,0,0,0
1670843141.90011096,149328578,1593,1594,1537,1537,0,0,0,0,0,0,0,0,0,0
1670843142.00007105,149428538,1595,1595,1536,1536,0,0,0,0,0,0,0,0,0,0
1670843142.10003090,149528498,1596,1595,1535,1537,0,0,0,0,0,0,0,0,0,0
1670843142.19999099,149628458,1595,1595,1536,1538,0,0,0,0,0,0,0,0,0,0
1670843142.29995108,149728418,1595,1594,1540,1543,0,0,0,0,0,0,0,0,0,0
1670843142.39991093,149828378,1591,1589,1545,1548,0,0,0,0,0,0,0,0,0,0
1670843142.49987102,149928338,1585,1582,1553,1556,0,0,0,0,0,0,0,0,0,0
1670843142.59983087,150028298,1577,1573,1563,1566,0,0,0,0,0,0,0,0,0,0
1670843142.69979095,150128258,1566,1562,1575,1578,0,0,0,0,0,0,0,0,0,0
1670843142.79975104,150228218,1554,1551,1587,1589,0,0,0,0,0,0,0,0,0,0
1670843142.89971089,150328178,1543,1541,1599,1599,0,0,0,0,0,0,0,0,0,0
1670843143.00050402,150428971,1535,1535,1609,1608,0,0,0,0,0,0,0,0,0,0
1670843143.10046387,150528931,1529,1530,1614,1613,0,0,0,0,0,0,0,0,0,0
1670843143.20042396,150628891,1528,1530,1616,1615,0,0,0,0,0,0,0,0,0,0
1670843143.30038404,150728851,1530,1532,1613,1613,0,0,0,0,0,0,0,0,0,0
1670843143.40034389,150828811,1537,1539,1610,1609,0,0,0,0,0,0,0,0,0,0
1670843143.50030398,150928771,1545,1546,1604,1604,0,0,0,0,0,0,0,0,0,0
1670843143.60026407,151028731,1553,1554,1596,1596,0,0,0,0,0,0,0,0,0,0
1670843143.70022392,151128691,1562,1563,1589,1588,0,0,0,0,0,0,0,0,0,0
1670843143.80018401,151228651,1570,1570,1581,1580,0,0,0,0,0,0,0,0,0,0
1670843143.90014386,151328611,1578,1577,1575,1575,0,0,0,0,0,0,0,0,0,0
1670843144.00010395,151428571,1583,1581,1570,1569,0,0,0,0,0,0,0,0,0,0
1670843144.10006404,151528531,1586,1585,1567,1567,0,0,0,0,0,0,0,0,0,0
1670843144.20002389,151628491,1588,1586,1566,1566,0,0,0,0,0,0,0,0,0,0
1670843144.29998398,151728451,1588,1587,1567,1567,0,0,0,0,0,0,0,0,0,0
1670843144.39994407,151828411,1587,1586,1569,1568,0,0,0,0,0,0,0,0,0,0
1670843144.49990392,151928371,1584,1584,1571,1571,0,0,0,0,0,0,0,0,0,0
1670843144.59986401,152028331,1581,1581,1574,1574,0,0,0,0,0,0,0,0,0,0
1670843144.69982386,152128291,1578,1579,1577,1577,0,0,0,0,0,0,0,0,0,0
1670843144.79978395,152228251,1576,1576,1580,1580,0,0,0,0,0,0,0,0,0,0
1670843144.89974403,152328211,1574,1574,1582,1582,0,0,0,0,0,0,0,0,0,0
1670843144.99970388,152428171,1572,1573,1583,1584,0,0,0,0,0,0,0,0,0,0
1670843145.10049701,152528964,1571,1572,1583,1583,0,0,0,0,0,0,0,0,0,0
1670843145.20045686,152628924,1571,1572,1583,1582,0,0,0,0,0,0,0,0,0,0
1670843145.30041695,152728884,1573,1573,1583,1583,0,0,0,0,0,0,0,0,0,0
1670843145.40037704,152828844,1573,1573,1581,1581,0,0,0,0,0,0,0,0,0,0
1670843145.50033689,152928804,1576,1576,1581,1581,0,0,0,0,0,0,0,0,0,0
1670843145.60029697,153028764,1577,1576,1579,1579,0,0,0,0,0,0,0,0,0,0
1670843145.70025706,153128724,1578,1578,1578,1578,0,0,0,0,0,0,0,0,0,0
1670843145.80021691,153228684,1578,1578,1576,1576,0,0,0,0,0,0,0,0,0,0
1670843145.90017700,153328644,1580,1580,1577,1577,0,0,0,0,0,0,0,0,0,0
1670843146.00013685,153428604,1581,1580,1576,1576,0,0,0,0,0,0,0,0,0,0
1670843146.10009694,153528564,1582,1582,1578,1578,0,0,0,0,0,0,0,0,0,0
1670843146.20005703,153628524,1582,1581,1577,1577,0,0,0,0,0,0,0,0,0,0
1670843146.30001688,153728484,1582,1581,1578,1578,0,0,0,0,0,0,0,0,0,0
1670843146.39997697,153828444,1580,1581,1578,1578,0,0,0,0,0,0,0,0,0,0
1670843146.49993706,153928404,1580,1580,1578,1579,0,0,0,0,0,0,0,0,0,0
1670843146.59989691,154028364,1579,1579,1579,1579,0,0,0,0,0,0,0,0,0,0
1670843146.69985700,154128324,1579,1580,1580,1580,0,0,0,0,0,0,0,0,0,0
1670843146.79981685,154228284,1579,1579,1580,1580,0,0,0,0,0,0,0,0,0,0
1670843146.89977694,154328244,1578,1578,1579,1580,0,0,0,0,0,0,0,0,0,0
1670843146.99973702,154428204,1579,1579,1580,1581,0,0,0,0,0,0,0,0,0,0
1670843147.09969687,154528164,1580,1580,1582,1581,0,0,0,0,0,0,0,0,0,0
1670843147.20049000,154628957,1579,1579,1581,1580,0,0,0,0,0,0,0,0,0,0
1670843147.30044985,154728917,1580,1580,1581,1581,0,0,0,0,0,0,0,0,0,0
1670843147.40040994,154828877,1580,1581,1581,1581,0,0,0,0,0,0,0,0,0,0
1670843147.50037003,154928837,1580,1581,1581,1581,0,0,0,0,0,0,0,0,0,0
1670843147.60032988,155028797,1581,1581,1581,1581,0,0,0,0,0,0,0,0,0,0
1670843147.70028996,155128757,1582,1582,1581,1581,0,0,0,0,0,0,0,0,0,0
1670843147.80025005,155228717,1580,1582,1586,1572,0,0,0,0,0,0,0,0,0,0
1670843147.90020990,155328677,1581,1584,1583,1570,0,0,0,0,0,0,0,0,0,0
1670843148.00016999,155428637,1581,1585,1575,1571,0,0,0,0,0,0,0,0,0,0
1670843148.10013008,155528597,1580,1582,1565,1568,0,0,0,0,0,0,0,0,0,0
1670843148.20008993,155628557,1580,1581,1558,1565,0,0,0,0,0,0,0,0,0,0
1670843148.30005002,155728517,1581,1581,1554,1560,0,0,0,0,0,0,0,0,0,0
1670843148.40000987,155828477,1581,1580,1552,1556,0,0,0,0,0,0,0,0,0,0
1670843148.49996996,155928437,1583,1581,1553,1553,0,0,0,0,0,0,0,0,0,0
1670843148.59993005,156028397,1582,1580,1553,1551,0,0,0,0,0,0,0,0,0,0
1670843148.69988990,156128357,1581,1580,1554,1552,0,0,0,0,0,0,0,0,0,0
1670843148.79984999,156228317,1580,1581,1555,1553,0,0,0,0,0,0,0,0,0,0
1670843148.89981008,156328277,1579,1580,1555,1554,0,0,0,0,0,0,0,0,0,0
1670843148.99976993,156428237,1577,1579,1554,1553,0,0,0,0,0,0,0,0,0,0
1670843149.09973001,156528197,1576,1579,1553,1553,0,0,0,0,0,0,0,0,0,0
1670843149.19968987,156628157,1577,1579,1552,1553,0,0,0,0,0,0,0,0,0,0
1670843149.30048299,156728950,1579,1579,1551,1551,0,0,0,0,0,0,0,0,0,0
1670843149.40044308,156828910,1580,1581,1549,1550,0,0,0,0,0,0,0,0,0,0
1670843149.50040293,156928870,1582,1583,1548,1548,0,0,0,0,0,0,0,0,0,0
1670843149.60036302,157028830,1584,1584,1545,1545,0,0,0,0,0,0,0,0,0,0
1670843149.70032287,157128790,1586,1587,1544,1544,0,0,0,0,0,0,0,0,0,0
1670843149.80028296,157228750,1588,1590,1541,1542,0,0,0,0,0,0,0,0,0,0
1670843149.90024304,157328710,1591,1592,1540,1541,0,0,0,0,0,0,0,0,0,0
1670843150.00020289,157428670,1593,1594,1540,1541,0,0,0,0,0,0,0,0,0,0
1670843150.10016298,157528630,1593,1592,1542,1543,0,0,0,0,0,0,0,0,0,0
1670843150.20012307,157628590,1591,1588,1546,1548,0,0,0,0,0,0,0,0,0,0
1670843150.30008292,157728550,1586,1583,1552,1555,0,0,0,0,0,0,0,0,0,0
1670843150.40004301,157828510,1580,1576,1561,1564,0,0,0,0,0,0,0,0,0,0
1670843150.50000286,157928470,1571,1567,1571,1574,0,0,0,0,0,0,0,0,0,0
1670843150.59996295,158028430,1561,1559,1582,1584,0,0,0,0,0,0,0,0,0,0
1670843150.69992304,158128390,1553,1551,1593,1593,0,0,0,0,0,0,0,0,0,0
1670843150.79988289,158228350,1545,1545,1601,1601,0,0,0,0,0,0,0,0,0,0
1670843150.89984298,158328310,1542,1542,1608,1608,0,0,0,0,0,0,0,0,0,0
1670843150.99980307,158428270,1538,1540,1610,1609,0,0,0,0,0,0,0,0,0,0
1670843151.09976292,158528230,1540,1541,1610,1610,0,0,0,0,0,0,0,0,0,0
1670843151.19972301,158628190,1543,1545,1607,1607,0,0,0,0,0,0,0,0,0,0
1670843151.30051589,158728983,1550,1551,1605,1604,0,0,0,0,0,0,0,0,0,0
1670843151.40047598,158828943,1557,1558,1599,1598,0,0,0,0,0,0,0,0,0,0
1670843151.50043607,158928903,1563,1564,1592,1591,0,0,0,0,0,0,0,0,0,0
1670843151.60039592,159028863,1571,1571,1586,1586,0,0,0,0,0,0,0,0,0,0
1670843151.70035601,159128823,1577,1576,1580,1580,0,0,0,0,0,0,0,0,0,0
1670843151.80031586,159228783,1580,1579,1574,1574,0,0,0,0,0,0,0,0,0,0
1670843151.90027595,159328743,1584,1583,1571,1571,0,0,0,0,0,0,0,0,0,0
1670843152.00023603,159428703,1585,1584,1569,1569,0,0,0,0,0,0,0,0,0,0
1670843152.10019588,159528663,1586,1585,1570,1569,0,0,0,0,0,0,0,0,0,0
1670843152.20015597,159628623,1585,1584,1570,1570,0,0,0,0,0,0,0,0,0,0
1670843152.30011606,159728583,1583,1581,1571,1571,0,0,0,0,0,0,0,0,0,0
1670843152.40007591,159828543,1581,1580,1574,1574,0,0,0,0,0,0,0,0,0,0
1670843152.50003600,159928503,1579,1579,1577,1576,0,0,0,0,0,0,0,0,0,0
1670843152.59999585,160028463,1576,1577,1579,1578,0,0,0,0,0,0,0,0,0,0
1670843152.69995594,160128423,1576,1576,1582,1582,0,0,0,0,0,0,0,0,0,0
1670843152.79991603,160228383,1574,1575,1583,1583,0,0,0,0,0,0,0,0,0,0
1670843152.89987588,160328343,1573,1574,1583,1583,0,0,0,0,0,0,0,0,0,0
1670843152.99983597,160428303,1574,1574,1583,1584,0,0,0,0,0,0,0,0,0,0
1670843153.09979606,160528263,1575,1575,1584,1584,0,0,0,0,0,0,0,0,0,0
1670843153.19975591,160628223,1574,1574,1582,1581,0,0,0,0,0,0,0,0,0,0
1670843153.29971600,160728183,1576,1576,1582,1582,0,0,0,0,0,0,0,0,0,0
1670843153.40050888,160828976,1577,1577,1581,1581,0,0,0,0,0,0,0,0,0,0
1670843153.50046897,160928936,1579,1578,1580,1579,0,0,0,0,0,0,0,0,0,0
1670843153.60042906,161028896,1580,1581,1580,1579,0,0,0,0,0,0,0,0,0,0
1670843153.70038891,161128856,1581,1581,1579,1579,0,0,0,0,0,0,0,0,0,0
1670843153.80034900,161228816,1581,1581,1577,1578,0,0,0,0,0,0,0,0,0,0
1670843153.90030885,161328776,1582,1581,1577,1578,0,0,0,0,0,0,0,0,0,0
1670843154.00026894,161428736,1582,1582,1578,1578,0,0,0,0,0,0,0,0,0,0
1670843154.10022902,161528696,1582,1581,1578,1578,0,0,0,0,0,0,0,0,0,0
1670843154.20018888,161628656,1582,1582,1579,1579,0,0,0,0,0,0,0,0,0,0
1670843154.30014896,161728616,1581,1580,1579,1578,0,0,0,0,0,0,0,0,0,0
1670843154.40010905,161828576,1581,1581,1580,1579,0,0,0,0,0,0,0,0,0,0
1670843154.50006890,161928536,1581,1580,1580,1581,0,0,0,0,0,0,0,0,0,0
1670843154.60002899,162028496,1580,1580,1580,1580,0,0,0,0,0,0,0,0,0,0
1670843154.69998908,162128456,1580,1580,1581,1581,0,0,0,0,0,0,0,0,0,0
1670843154.79994893,162228416,1579,1580,1581,1581,0,0,0,0,0,0,0,0,0,0
1670843154.89990902,162328376,1581,1581,1582,1582,0,0,0,0,0,0,0,0,0,0
1670843154.99986887,162428336,1580,1581,1582,1581,0,0,0,0,0,0,0,0,0,0
1670843155.09982896,162528296,1582,1581,1582,1582,0,0,0,0,0,0,0,0,0,0
1670843155.19978905,162628256,1581,1581,1582,1582,0,0,0,0,0,0,0,0,0,0
1670843155.29974890,162728216,1580,1580,1580,1580,0,0,0,0,0,0,0,0,0,0
1670843155.39970899,162828176,1581,1581,1580,1581,0,0,0,0,0,0,0,0,0,0
1670843155.50050187,162928969,1581,1580,1580,1580,0,0,0,0,0,0,0,0,0,0
1670843155.60046196,163028929,1581,1582,1580,1580,0,0,0,0,0,0,0,0,0,0
1670843155.70042205,163128889,1582,1581,1580,1580,0,0,0,0,0,0,0,0,0,0
1670843155.80038190,163228849,1581,1582,1582,1578,0,0,0,0,0,0,0,0,0,0
1670843155.90034199,163328809,1581,1584,1586,1571,0,0,0,0,0,0,0,0,0,0
1670843156.00030208,163428769,1581,1586,1580,1571,0,0,0,0,0,0,0,0,0,0
1670843156.10026193,163528729,1581,1585,1572,1570,0,0,0,0,0,0,0,0,0,0
1670843156.20022202,163628689,1580,1583,1562,1567,0,0,0,0,0,0,0,0,0,0
1670843156.30018187,163728649,1582,1582,1556,1563,0,0,0,0,0,0,0,0,0,0
1670843156.40014195,163828609,1583,1584,1553,1559,0,0,0,0,0,0,0,0,0,0
1670843156.50010204,163928569,1585,1583,1552,1554,0,0,0,0,0,0,0,0,0,0
1670843156.60006189,164028529,1585,1584,1552,1552,0,0,0,0,0,0,0,0,0,0
1670843156.70002198,164128489,1585,1583,1552,1550,0,0,0,0,0,0,0,0,0,0
1670843156.79998207,164228449,1585,1585,1553,1551,0,0,0,0,0,0,0,0,0,0
1670843156.89994192,164328409,1583,1583,1553,1551,0,0,0,0,0,0,0,0,0,0
1670843156.99990201,164428369,1582,1584,1553,1552,0,0,0,0,0,0,0,0,0,0
1670843157.09986186,164528329,1582,1583,1552,1552,0,0,0,0,0,0,0,0,0,0
1670843157.19982195,164628289,1581,1584,1551,1551,0,0,0,0,0,0,0,0,0,0
1670843157.29978204,164728249,1583,1583,1550,1551,0,0,0,0,0,0,0,0,0,0
1670843157.39974189,164828209,1583,1585,1549,1550,0,0,0,0,0,0,0,0,0,0
1670843157.49970198,164928169,1585,1585,1548,1548,0,0,0,0,0,0,0,0,0,0
1670843157.60049486,165028962,1586,1588,1547,1547,0,0,0,0,0,0,0,0,0,0
1670843157.70045495,165128922,1588,1588,1545,1546,0,0,0,0,0,0,0,0,0,0
1670843157.80041504,165228882,1590,1591,1545,1546,0,0,0,0,0,0,0,0,0,0
1670843157.90037489,165328842,1591,1589,1546,1546,0,0,0,0,0,0,0,0,0,0
1670843158.00033498,165428802,1590,1589,1547,1549,0,0,0,0,0,0,0,0,0,0
1670843158.10029507,165528762,1588,1584,1552,1553,0,0,0,0,0,0,0,0,0,0
1670843158.20025492,165628722,1583,1581,1558,1560,0,0,0,0,0,0,0,0,0,0
1670843158.30021501,165728682,1578,1573,1566,1568,0,0,0,0,0,0,0,0,0,0
1670843158.40017486,165828642,1568,1566,1573,1575,0,0,0,0,0,0,0,0,0,0
1670843158.50013494,165928602,1561,1558,1583,1584,0,0,0,0,0,0,0,0,0,0
1670843158.60009503,166028562,1554,1553,1591,1593,0,0,0,0,0,0,0,0,0,0
1670843158.70005488,166128522,1549,1548,1598,1598,0,0,0,0,0,0,0,0,0,0
1670843158.80001497,166228482,1544,1545,1602,1602,0,0,0,0,0,0,0,0,0,0
1670843158.89997506,166328442,1545,1545,1606,1604,0,0,0,0,0,0,0,0,0,0
1670843158.93995905,166368426,1544,1545,1605,1604,0,0,0,0,0,0,0,0,0,0
1670843159.03991890,166468386,1546,1547,1603,1603,0,0,0,0,0,0,0,0,0,0
1670843159.13987899,166568346,1549,1550,1600,1599,0,0,0,0,0,0,0,0,0,0
1670843159.23983908,166668306,1555,1556,1597,1596,0,0,0,0,0,0,0,0,0,0
1670843159.33979893,166768266,1560,1561,1592,1591,0,0,0,0,0,0,0,0,0,0
1670843159.43975902,166868226,1566,1566,1586,1586,0,0,0,0,0,0,0,0,0,0
1670843159.53971887,166968186,1572,1571,1581,1581,0,0,0,0,0,0,0,0,0,0
1670843159.64051199,167068979,1577,1575,1577,1577,0,0,0,0,0,0,0,0,0,0
1670843159.74047208,167168939,1579,1579,1574,1574,0,0,0,0,0,0,0,0,0,0
1670843159.84043193,167268899,1582,1580,1571,1571,0,0,0,0,0,0,0,0,0,0
1670843159.94039202,167368859,1582,1582,1570,1571,0,0,0,0,0,0,0,0,0,0
1670843160.04035187,167468819,1583,1582,1570,1570,0,0,0,0,0,0,0,0,0,0
1670843160.14031196,167568779,1580,1580,1570,1570,0,0,0,0,0,0,0,0,0,0
1670843160.24027205,167668739,1581,1580,1573,1573,0,0,0,0,0,0,0,0,0,0
1670843160.34023190,167768699,1578,1578,1574,1574,0,0,0,0,0,0,0,0,0,0
1670843160.44019198,167868659,1577,1576,1577,1576,0,0,0,0,0,0,0,0,0,0
1670843160.54015207,167968619,1575,1575,1578,1578,0,0,0,0,0,0,0,0,0,0
1670843160.64011192,168068579,1574,1574,1579,1579,0,0,0,0,0,0,0,0,0,0
1670843160.74007201,168168539,1573,1574,1580,1580,0,0,0,0,0,0,0,0,0,0
1670843160.84003186,168268499,1573,1574,1582,1581,0,0,0,0,0,0,0,0,0,0
1670843160.93999195,168368459,1573,1575,1582,1582,0,0,0,0,0,0,0,0,0,0
1670843161.03995204,168468419,1575,1575,1581,1581,0,0,0,0,0,0,0,0,0,0
1670843161.13991189,168568379,1575,1575,1580,1581,0,0,0,0,0,0,0,0,0,0
1670843161.23987198,168668339,1577,1577,1580,1580,0,0,0,0,0,0,0,0,0,0
1670843161.33983207,168768299,1577,1577,1579,1579,0,0,0,0,0,0,0,0,0,0
1670843161.43979192,168868259,1579,1579,1579,1579,0,0,0,0,0,0,0,0,0,0
1670843161.53975201,168968219,1579,1580,1578,1578,0,0,0,0,0,0,0,0,0,0
1670843161.63971186,169068179,1580,1580,1578,1578,0,0,0,0,0,0,0,0,0,0
1670843161.74050498,169168972,1581,1581,1578,1579,0,0,0,0,0,0,0,0,0,0
1670843161.84046507,169268932,1582,1581,1579,1578,0,0,0,0,0,0,0,0,0,0
1670843161.94042492,169368892,1582,1582,1579,1579,0,0,0,0,0,0,0,0,0,0
1670843162.04038501,169468852,1583,1582,1580,1580,0,0,0,0,0,0,0,0,0,0
1670843162.14034486,169568812,1582,1581,1580,1580,0,0,0,0,0,0,0,0,0,0
1670843162.24030495,169668772,1581,1581,1580,1580,0,0,0,0,0,0,0,0,0,0
1670843162.34026504,169768732,1581,1581,1580,1581,0,0,0,0,0,0,0,0,0,0
1670843162.44022489,169868692,1581,1581,1581,1582,0,0,0,0,0,0,0,0,0,0
1670843162.54018497,169968652,1581,1581,1582,1582,0,0,0,0,0,0,0,0,0,0
1670843162.64014506,170068612,1582,1582,1583,1583,0,0,0,0,0,0,0,0,0,0
1670843162.74010491,170168572,1581,1582,1583,1583,0,0,0,0,0,0,0,0,0,0
1670843162.84006500,170268532,1582,1582,1583,1583,0,0,0,0,0,0,0,0,0,0
1670843162.94002485,170368492,1581,1581,1582,1582,0,0,0,0,0,0,0,0,0,0
1670843163.03998494,170468452,1583,1582,1583,1583,0,0,0,0,0,0,0,0,0,0
1670843163.13994503,170568412,1582,1582,1583,1583,0,0,0,0,0,0,0,0,0,0
1670843163.23990488,170668372,1582,1582,1583,1582,0,0,0,0,0,0,0,0,0,0
1670843163.33986497,170768332,1582,1583,1584,1581,0,0,0,0,0,0,0,0,0,0
1670843163.43982506,170868292,1581,1584,1590,1577,0,0,0,0,0,0,0,0,0,0
1670843163.53978491,170968252,1580,1582,1587,1579,0,0,0,0,0,0,0,0,0,0
1670843163.63974500,171068212,1577,1577,1579,1579,0,0,0,0,0,0,0,0,0,0
1670843163.73970485,171168172,1574,1573,1573,1578,0,0,0,0,0,0,0,0,0,0
1670843163.84049797,171268965,1572,1570,1569,1575,0,0,0,0,0,0,0,0,0,0
1670843163.94045806,171368925,1570,1569,1567,1573,0,0,0,0,0,0,0,0,0,0
1670843164.04041791,171468885,1569,1569,1568,1570,0,0,0,0,0,0,0,0,0,0
1670843164.14037800,171568845,1569,1569,1569,1568,0,0,0,0,0,0,0,0,0,0
1670843164.24033785,171668805,1569,1569,1569,1567,0,0,0,0,0,0,0,0,0,0
1670843164.34029794,171768765,1568,1569,1569,1567,0,0,0,0,0,0,0,0,0,0
1670843164.44025803,171868725,1568,1568,1569,1567,0,0,0,0,0,0,0,0,0,0
1670843164.54021788,171968685,1568,1568,1569,1568,0,0,0,0,0,0,0,0,0,0
1670843164.64017797,172068645,1567,1567,1567,1567,0,0,0,0,0,0,0,0,0,0
1670843164.74013805,172168605,1567,1567,1567,1567,0,0,0,0,0,0,0,0,0,0
1670843164.84009790,172268565,1566,1566,1566,1566,0,0,0,0,0,0,0,0,0,0
1670843164.94005799,172368525,1565,1566,1566,1566,0,0,0,0,0,0,0,0,0,0
1670843165.04001808,172468485,1565,1565,1566,1566,0,0,0,0,0,0,0,0,0,0
1670843165.13997793,172568445,1563,1564,1564,1564,0,0,0,0,0,0,0,0,0,0
1670843165.23993802,172668405,1563,1563,1563,1564,0,0,0,0,0,0,0,0,0,0
1670843165.33989787,172768365,1563,1563,1563,1563,0,0,0,0,0,0,0,0,0,0
1670843165.43985796,172868325,1563,1563,1564,1563,0,0,0,0,0,0,0,0,0,0
1670843165.53981805,172968285,1562,1563,1564,1563,0,0,0,0,0,0,0,0,0,0
1670843165.63977790,173068245,1562,1562,1563,1562,0,0,0,0,0,0,0,0,0,0
1670843165.73973799,173168205,1561,1561,1562,1561,0,0,0,0,0,0,0,0,0,0
1670843165.83969808,173268165,1561,1560,1561,1560,0,0,0,0,0,0,0,0,0,0
1670843165.94049096,173368958,1560,1560,1560,1560,0,0,0,0,0,0,0,0,0,0
1670843166.04045105,173468918,1559,1559,1559,1559,0,0,0,0,0,0,0,0,0,0
1670843166.14041090,173568878,1558,1559,1559,1558,0,0,0,0,0,0,0,0,0,0
1670843166.24037099,173668838,1559,1559,1560,1559,0,0,0,0,0,0,0,0,0,0
1670843166.34033108,173768798,1558,1558,1560,1558,0,0,0,0,0,0,0,0,0,0
1670843166.44029093,173868758,1560,1559,1560,1559,0,0,0,0,0,0,0,0,0,0
1670843166.54025102,173968718,1561,1561,1562,1561,0,0,0,0,0,0,0,0,0,0
1670843166.64021087,174068678,1565,1563,1565,1564,0,0,0,0,0,0,0,0,0,0
1670843166.74017096,174168638,1568,1567,1569,1567,0,0,0,0,0,0,0,0,0,0
1670843166.84013104,174268598,1564,1562,1562,1565,0,0,0,0,0,0,0,0,0,0
1670843166.94009089,174368558,1560,1560,1557,1562,0,0,0,0,0,0,0,0,0,0
1670843167.04005098,174468518,1555,1557,1551,1558,0,0,0,0,0,0,0,0,0,0
1670843167.14001107,174568478,1550,1552,1546,1550,0,0,0,0,0,0,0,0,0,0
1670843167.23997092,174668438,1543,1544,1540,1542,0,0,0,0,0,0,0,0,0,0
1670843167.33993101,174768398,1535,1537,1534,1533,0,0,0,0,0,0,0,0,0,0
1670843167.43989086,174868358,1528,1528,1527,1525,0,0,0,0,0,0,0,0,0,0
1670843167.53985095,174968318,1522,1522,1521,1520,0,0,0,0,0,0,0,0,0,0
1670843167.63981104,175068278,1519,1519,1518,1518,0,0,0,0,0,0,0,0,0,0
1670843167.73977089,175168238,1518,1518,1518,1518,0,0,0,0,0,0,0,0,0,0
1670843167.83973098,175268198,1520,1520,1520,1521,0,0,0,0,0,0,0,0,0,0
1670843167.93969107,175368158,1523,1523,1523,1524,0,0,0,0,0,0,0,0,0,0
1670843168.04048395,175468951,1527,1527,1527,1528,0,0,0,0,0,0,0,0,0,0
1670843168.14044404,175568911,1531,1532,1532,1533,0,0,0,0,0,0,0,0,0,0
1670843168.24040389,175668871,1536,1537,1537,1538,0,0,0,0,0,0,0,0,0,0
1670843168.34036398,175768831,1538,1539,1539,1539,0,0,0,0,0,0,0,0,0,0
1670843168.44032407,175868791,1541,1541,1542,1541,0,0,0,0,0,0,0,0,0,0
1670843168.54028392,175968751,1542,1542,1543,1542,0,0,0,0,0,0,0,0,0,0
1670843168.64024401,176068711,1544,1543,1544,1543,0,0,0,0,0,0,0,0,0,0
1670843168.74020386,176168671,1545,1546,1545,1546,0,0,0,0,0,0,0,0,0,0
1670843168.84016395,176268631,1546,1546,1546,1546,0,0,0,0,0,0,0,0,0,0
1670843168.94012403,176368591,1545,1546,1545,1545,0,0,0,0,0,0,0,0,0,0
1670843169.04008389,176468551,1545,1546,1544,1545,0,0,0,0,0,0,0,0,0,0
1670843169.14004397,176568511,1545,1546,1545,1545,0,0,0,0,0,0,0,0,0,0
1670843169.24000406,176668471,1546,1546,1546,1545,0,0,0,0,0,0,0,0,0,0
1670843169.33996391,176768431,1545,1545,1545,1544,0,0,0,0,0,0,0,0,0,0
1670843169.43992400,176868391,1545,1545,1545,1545,0,0,0,0,0,0,0,0,0,0
1670843169.53988385,176968351,1544,1545,1545,1545,0,0,0,0,0,0,0,0,0,0
1670843169.63984394,177068311,1544,1545,1544,1544,0,0,0,0,0,0,0,0,0,0
1670843169.73980403,177168271,1544,1545,1545,1545,0,0,0,0,0,0,0,0,0,0
1670843169.83976388,177268231,1545,1545,1545,1545,0,0,0,0,0,0,0,0,0,0
1670843169.93972397,177368191,1544,1545,1545,1544,0,0,0,0,0,0,0,0,0,0
1670843170.04051685,177468984,1545,1545,1545,1544,0,0,0,0,0,0,0,0,0,0
1670843170.14047694,177568944,1544,1544,1544,1544,0,0,0,0,0,0,0,0,0,0
1670843170.24043703,177668904,1543,1543,1543,1543,0,0,0,0,0,0,0,0,0,0
1670843170.34039688,177768864,1544,1545,1544,1544,0,0,0,0,0,0,0,0,0,0
1670843170.44035697,177868824,1544,1544,1544,1544,0,0,0,0,0,0,0,0,0,0
1670843170.54031706,177968784,1543,1544,1543,1543,0,0,0,0,0,0,0,0,0,0
1670843170.64027691,178068744,1544,1544,1544,1544,0,0,0,0,0,0,0,0,0,0
1670843170.74023700,178168704,1544,1545,1544,1544,0,0,0,0,0,0,0,0,0,0
1670843170.84019685,178268664,1544,1544,1544,1544,0,0,0,0,0,0,0,0,0,0
1670843170.94015694,178368624,1544,1545,1544,1544,0,0,0,0,0,0,0,0,0,0
1670843171.04011703,178468584,1545,1545,1544,1545,0,0,0,0,0,0,0,0,0,0
1670843171.14007688,178568544,1544,1544,1544,1544,0,0,0,0,0,0,0,0,0,0
1670843171.24003696,178668504,1544,1543,1544,1543,0,0,0,0,0,0,0,0,0,0
1670843171.33999705,178768464,1544,1544,1544,1544,0,0,0,0,0,0,0,0,0,0
1670843171.43995690,178868424,1544,1544,1544,1544,0,0,0,0,0,0,0,0,0,0
1670843171.53991699,178968384,1544,1544,1544,1544,0,0,0,0,0,0,0,0,0,0
1670843171.63987708,179068344,1544,1544,1544,1544,0,0,0,0,0,0,0,0,0,0
1670843171.73983693,179168304,1543,1544,1544,1544,0,0,0,0,0,0,0,0,0,0
1670843171.83979702,179268264,1545,1544,1545,1544,0,0,0,0,0,0,0,0,0,0
1670843171.93975687,179368224,1543,1545,1544,1544,0,0,0,0,0,0,0,0,0,0
1670843172.03971696,179468184,1544,1544,1544,1544,0,0,0,0,0,0,0,0,0,0
1670843172.14051008,179568977,1543,1544,1544,1543,0,0,0,0,0,0,0,0,0,0
1670843172.24046993,179668937,1544,1543,1543,1544,0,0,0,0,0,0,0,0,0,0
1670843172.34043002,179768897,1544,1544,1544,1544,0,0,0,0,0,0,0,0,0,0
1670843172.44038987,179868857,1545,1544,1544,1545,0,0,0,0,0,0,0,0,0,0
1670843172.54034996,179968817,1544,1545,1544,1544,0,0,0,0,0,0,0,0,0,0
1670843172.64031005,180068777,1545,1544,1545,1544,0,0,0,0,0,0,0,0,0,0
1670843172.74026990,180168737,1543,1544,1544,1544,0,0,0,0,0,0,0,0,0,0
1670843172.84022999,180268697,1544,1544,1544,1544,0,0,0,0,0,0,0,0,0,0
1670843172.94019008,180368657,1543,1545,1543,1544,0,0,0,0,0,0,0,0,0,0
1670843173.04014993,180468617,1545,1544,1545,1544,0,0,0,0,0,0,0,0,0,0
1670843173.14011002,180568577,1544,1544,1544,1544,0,0,0,0,0,0,0,0,0,0
1670843173.24006987,180668537,1544,1543,1543,1543,0,0,0,0,0,0,0,0,0,0
1670843173.34002995,180768497,1543,1543,1543,1543,0,0,0,0,0,0,0,0,0,0
1670843173.43999004,180868457,1544,1544,1544,1544,0,0,0,0,0,0,0,0,0,0
1670843173.53994989,180968417,1543,1545,1544,1543,0,0,0,0,0,0,0,0,0,0
1670843173.63990998,181068377,1543,1544,1543,1543,0,0,0,0,0,0,0,0,0,0
1670843173.73987007,181168337,1544,1544,1544,1545,0,0,0,0,0,0,0,0,0,0
1670843173.83982992,181268297,1543,1543,1543,1543,0,0,0,0,0,0,0,0,0,0
1670843173.93979001,181368257,1543,1544,1543,1543,0,0,0,0,0,0,0,0,0,0
1670843174.03974986,181468217,1544,1543,1544,1544,0,0,0,0,0,0,0,0,0,0
1670843174.13970995,181568177,1543,1544,1543,1544,0,0,0,0,0,0,0,0,0,0
1670843174.24050307,181668970,1544,1543,1544,1544,0,0,0,0,0,0,0,0,0,0
1670843174.34046292,181768930,1544,1545,1545,1544,0,0,0,0,0,0,0,0,0,0
1670843174.44042301,181868890,1545,1544,1545,1545,0,0,0,0,0,0,0,0,0,0
1670843174.54038286,181968850,1544,1545,1544,1544,0,0,0,0,0,0,0,0,0,0
1670843174.64034295,182068810,1544,1544,1544,1544,0,0,0,0,0,0,0,0,0,0
1670843174.74030304,182168770,1544,1545,1544,1544,0,0,0,0,0,0,0,0,0,0
1670843174.84026289,182268730,1543,1544,1543,1544,0,0,0,0,0,0,0,0,0,0
1670843174.94022298,182368690,1544,1545,1544,1544,0,0,0,0,0,0,0,0,0,0
1670843175.04018307,182468650,1544,1543,1544,1543,0,0,0,0,0,0,0,0,0,0
1670843175.14014292,182568610,1544,1545,1544,1544,0,0,0,0,0,0,0,0,0,0
1670843175.24010301,182668570,1544,1544,1544,1544,0,0,0,0,0,0,0,0,0,0
1670843175.34006286,182768530,1544,1545,1545,1545,0,0,0,0,0,0,0,0,0,0
1670843175.44002295,182868490,1543,1544,1543,1544,0,0,0,0,0,0,0,0,0,0
1670843175.53998303,182968450,1543,1544,1544,1544,0,0,0,0,0,0,0,0,0,0
1670843175.63994288,183068410,1544,1544,1544,1544,0,0,0,0,0,0,0,0,0,0
1670843175.73990297,183168370,1544,1544,1544,1544,0,0,0,0,0,0,0,0,0,0
1670843175.83986306,183268330,1544,1544,1544,1544,0,0,0,0,0,0,0,0,0,0
1670843175.93982291,183368290,1543,1544,1544,1543,0,0,0,0,0,0,0,0,0,0
1670843176.03978300,183468250,1544,1544,1544,1544,0,0,0,0,0,0,0,0,0,0
1670843176.13974285,183568210,1543,1544,1544,1543,0,0,0,0,0,0,0,0,0,0
1670843176.23970294,183668170,1544,1544,1544,1544,0,0,0,0,0,0,0,0,0,0
1670843176.34049606,183768963,1544,1545,1544,1544,0,0,0,0,0,0,0,0,0,0
1670843176.44045591,183868923,1544,1545,1545,1545,0,0,0,0,0,0,0,0,0,0
1670843176.54041600,183968883,1544,1545,1545,1545,0,0,0,0,0,0,0,0,0,0
1670843176.64037585,184068843,1545,1545,1545,1545,0,0,0,0,0,0,0,0,0,0
1670843176.74033594,184168803,1544,1544,1543,1544,0,0,0,0,0,0,0,0,0,0
1670843176.84029603,184268763,1544,1543,1544,1544,0,0,0,0,0,0,0,0,0,0
1670843176.94025588,184368723,1544,1544,1544,1544,0,0,0,0,0,0,0,0,0,0
1670843177.04021597,184468683,1544,1545,1544,1544,0,0,0,0,0,0,0,0,0,0
1670843177.14017606,184568643,1544,1545,1544,1545,0,0,0,0,0,0,0,0,0,0
1670843177.24013591,184668603,1544,1544,1544,1544,0,0,0,0,0,0,0,0,0,0
1670843177.34009600,184768563,1543,1544,1544,1544,0,0,0,0,0,0,0,0,0,0
1670843177.44005585,184868523,1375,1376,1375,1375,0,0,0,0,0,0,0,0,0,0
1670843177.54001594,184968483,1253,1252,1253,1252,0,0,0,0,0,0,0,0,0,0
1670843177.63997602,185068443,1209,1211,1211,1208,0,0,0,0,0,0,0,0,0,0
1670843177.73993587,185168403,1191,1190,1190,1190,0,0,0,0,0,0,0,0,0,0
1670843177.83989596,185268363,1150,1153,1151,1150,0,0,0,0,0,0,0,0,0,0
1670843177.93985605,185368323,1150,1151,1150,1150,0,0,0,0,0,0,0,0,0,0
1670843178.03981590,185468283,1150,1156,1153,1152,0,0,0,0,0,0,0,0,0,0
1670843178.13977599,185568243,1295,1150,1211,1243,0,0,0,0,0,0,0,0,0,0
1670843178.23973608,185668203,1295,1150,1216,1239,0,0,0,0,0,0,0,0,0,0
1670843178.33969593,185768163,1294,1150,1217,1239,0,0,0,0,0,0,0,0,0,0
1670843178.44048905,185868956,1294,1150,1217,1240,0,0,0,0,0,0,0,0,0,0
1670843178.54044890,185968916,1294,1150,1217,1239,0,0,0,0,0,0,0,0,0,0
1670843178.64040899,186068876,1294,1150,1217,1239,0,0,0,0,0,0,0,0,0,0
1670843178.74036908,186168836,1294,1150,1217,1239,0,0,0,0,0,0,0,0,0,0
1670843178.84032893,186268796,1294,1150,1217,1239,0,0,0,0,0,0,0,0,0,0
1670843178.94028902,186368756,1184,1150,1176,1156,0,0,0,0,0,0,0,0,0,0
1670843179.04024887,186468716,1169,1150,1156,1158,0,0,0,0,0,0,0,0,0,0
1670843179.14020896,186568676,1185,1150,1164,1169,0,0,0,0,0,0,0,0,0,0
1670843179.24016905,186668636,1196,1150,1169,1176,0,0,0,0,0,0,0,0,0,0
1670843179.34012890,186768596,1203,1150,1173,1180,0,0,0,0,0,0,0,0,0,0
1670843179.44008899,186868556,1000,1000,1000,1000,0,0,0,0,0,0,0,0,0,0
1670843179.54004908,186968516,1000,1000,1000,1000,0,0,0,0,0,0,0,0,0,0
1670843179.64000893,187068476,1000,1000,1000,1000,0,0,0,0,0,0,0,0,0,0
1670843179.73996902,187168436,1000,1000,1000,1000,0,0,0,0,0,0,0,0,0,0
1670843179.83992887,187268396,1000,1000,1000,1000,0,0,0,0,0,0,0,0,0,0
1670843179.93988895,187368356,1000,1000,1000,1000,0,0,0,0,0,0,0,0,0,0
1670843180.03984904,187468316,1000,1000,1000,1000,0,0,0,0,0,0,0,0,0,0
1670843180.13980889,187568276,1000,1000,1000,1000,0,0,0,0,0,0,0,0,0,0
1670843180.23976898,187668236,1000,1000,1000,1000,0,0,0,0,0,0,0,0,0,0
1670843180.33972907,187768196,1000,1000,1000,1000,0,0,0,0,0,0,0,0,0,0
1670843180.43968892,187868156,1000,1000,1000,1000,0,0,0,0,0,0,0,0,0,0
1670843180.54048204,187968949,1000,1000,1000,1000,0,0,0,0,0,0,0,0,0,0
1670843180.64044189,188068909,1000,1000,1000,1000,0,0,0,0,0,0,0,0,0,0
1670843180.74040198,188168869,1000,1000,1000,1000,0,0,0,0,0,0,0,0,0,0
1670843180.84036207,188268829,1000,1000,1000,1000,0,0,0,0,0,0,0,0,0,0
1670843180.94032192,188368789,1000,1000,1000,1000,0,0,0,0,0,0,0,0,0,0
1670843181.04028201,188468749,1000,1000,1000,1000,0,0,0,0,0,0,0,0,0,0
1670843181.14024186,188568709,1000,1000,1000,1000,0,0,0,0,0,0,0,0,0,0
1670843181.24020195,188668669,1000,1000,1000,1000,0,0,0,0,0,0,0,0,0,0
1670843181.34016204,188768629,1000,1000,1000,1000,0,0,0,0,0,0,0,0,0,0
1670843181.44012189,188868589,1000,1000,1000,1000,0,0,0,0,0,0,0,0,0,0
1670843181.54008198,188968549,1000,1000,1000,1000,0,0,0,0,0,0,0,0,0,0
1670843181.64004207,189068509,1000,1000,1000,1000,0,0,0,0,0,0,0,0,0,0
1670843181.74000192,189168469,1000,1000,1000,1000,0,0,0,0,0,0,0,0,0,0
1670843181.83996201,189268429,1000,1000,1000,1000,0,0,0,0,0,0,0,0,0,0
1670843181.93992186,189368389,1000,1000,1000,1000,0,0,0,0,0,0,0,0,0,0
1670843182.03988194,189468349,1000,1000,1000,1000,0,0,0,0,0,0,0,0,0,0
1670843182.13984203,189568309,1000,1000,1000,1000,0,0,0,0,0,0,0,0,0,0
1670843182.23980188,189668269,1000,1000,1000,1000,0,0,0,0,0,0,0,0,0,0
1670843182.33976197,189768229,1000,1000,1000,1000,0,0,0,0,0,0,0,0,0,0
1670843182.43972206,189868189,1000,1000,1000,1000,0,0,0,0,0,0,0,0,0,0
1670843182.54051495,189968982,1000,1000,1000,1000,0,0,0,0,0,0,0,0,0,0
1670843182.64047503,190068942,1000,1000,1000,1000,0,0,0,0,0,0,0,0,0,0
1670843182.74043489,190168902,1000,1000,1000,1000,0,0,0,0,0,0,0,0,0,0
1670843182.84039497,190268862,1000,1000,1000,1000,0,0,0,0,0,0,0,0,0,0
1670843182.94035506,190368822,1000,1000,1000,1000,0,0,0,0,0,0,0,0,0,0
1670843183.04031491,190468782,1000,1000,1000,1000,0,0,0,0,0,0,0,0,0,0
1670843183.14027500,190568742,1000,1000,1000,1000,0,0,0,0,0,0,0,0,0,0
1670843183.24023485,190668702,1000,1000,1000,1000,0,0,0,0,0,0,0,0,0,0
1670843183.34019494,190768662,1000,1000,1000,1000,0,0,0,0,0,0,0,0,0,0
1670843183.44015503,190868622,1000,1000,1000,1000,0,0,0,0,0,0,0,0,0,0
1670843183.54011488,190968582,1000,1000,1000,1000,0,0,0,0,0,0,0,0,0,0
1670843183.64007497,191068542,1000,1000,1000,1000,0,0,0,0,0,0,0,0,0,0
1670843183.74003506,191168502,1000,1000,1000,1000,0,0,0,0,0,0,0,0,0,0
1670843183.83999491,191268462,1000,1000,1000,1000,0,0,0,0,0,0,0,0,0,0
1670843183.93995500,191368422,1000,1000,1000,1000,0,0,0,0,0,0,0,0,0,0
1670843184.03991485,191468382,1000,1000,1000,1000,0,0,0,0,0,0,0,0,0,0
1670843184.13987494,191568342,1000,1000,1000,1000,0,0,0,0,0,0,0,0,0,0
1670843184.23983502,191668302,1000,1000,1000,1000,0,0,0,0,0,0,0,0,0,0
1670843184.33979487,191768262,1000,1000,1000,1000,0,0,0,0,0,0,0,0,0,0
1670843184.43975496,191868222,1000,1000,1000,1000,0,0,0,0,0,0,0,0,0,0
1670843184.53971505,191968182,1000,1000,1000,1000,0,0,0,0,0,0,0,0,0,0
1670843184.64050794,192068975,1000,1000,1000,1000,0,0,0,0,0,0,0,0,0,0
1670843184.74046803,192168935,1000,1000,1000,1000,0,0,0,0,0,0,0,0,0,0
1670843184.84042788,192268895,1000,1000,1000,1000,0,0,0,0,0,0,0,0,0,0
1670843184.94038796,192368855,1000,1000,1000,1000,0,0,0,0,0,0,0,0,0,0
1670843185.04034805,192468815,1000,1000,1000,1000,0,0,0,0,0,0,0,0,0,0
1670843185.14030790,192568775,1000,1000,1000,1000,0,0,0,0,0,0,0,0,0,0
1670843185.24026799,192668735,1000,1000,1000,1000,0,0,0,0,0,0,0,0,0,0
1670843185.34022808,192768695,1000,1000,1000,1000,0,0,0,0,0,0,0,0,0,0
1670843185.44018793,192868655,1000,1000,1000,1000,0,0,0,0,0,0,0,0,0,0
1670843185.54014802,192968615,1000,1000,1000,1000,0,0,0,0,0,0,0,0,0,0
1670843185.64010787,193068575,1000,1000,1000,1000,0,0,0,0,0,0,0,0,0,0
1670843185.74006796,193168535,1000,1000,1000,1000,0,0,0,0,0,0,0,0,0,0
1670843185.84002805,193268495,1000,1000,1000,1000,0,0,0,0,0,0,0,0,0,0
1670843185.93998790,193368455,1000,1000,1000,1000,0,0,0,0,0,0,0,0,0,0
1670843186.03994799,193468415,1000,1000,1000,1000,0,0,0,0,0,0,0,0,0,0
1670843186.13990808,193568375,1000,1000,1000,1000,0,0,0,0,0,0,0,0,0,0
1670843186.23986793,193668335,1000,1000,1000,1000,0,0,0,0,0,0,0,0,0,0
1670843186.33982801,193768295,1000,1000,1000,1000,0,0,0,0,0,0,0,0,0,0
1670843186.43978786,193868255,1000,1000,1000,1000,0,0,0,0,0,0,0,0,0,0
1670843186.53974795,193968215,1000,1000,1000,1000,0,0,0,0,0,0,0,0,0,0
1670843186.63970804,194068175,1000,1000,1000,1000,0,0,0,0,0,0,0,0,0,0
1670843186.74050093,194168968,1000,1000,1000,1000,0,0,0,0,0,0,0,0,0,0
1670843186.84046102,194268928,1000,1000,1000,1000,0,0,0,0,0,0,0,0,0,0
1670843186.94042087,194368888,1000,1000,1000,1000,0,0,0,0,0,0,0,0,0,0
1670843187.04038095,194468848,1000,1000,1000,1000,0,0,0,0,0,0,0,0,0,0
1670843187.14034104,194568808,1000,1000,1000,1000,0,0,0,0,0,0,0,0,0,0
1670843187.24030089,194668768,1000,1000,1000,1000,0,0,0,0,0,0,0,0,0,0
1670843187.34026098,194768728,1000,1000,1000,1000,0,0,0,0,0,0,0,0,0,0
1670843187.44022107,194868688,1000,1000,1000,1000,0,0,0,0,0,0,0,0,0,0
1670843187.54018092,194968648,1000,1000,1000,1000,0,0,0,0,0,0,0,0,0,0
1670843187.64014101,195068608,1000,1000,1000,1000,0,0,0,0,0,0,0,0,0,0
1670843187.74010086,195168568,1000,1000,1000,1000,0,0,0,0,0,0,0,0,0,0
1670843187.84006095,195268528,1000,1000,1000,1000,0,0,0,0,0,0,0,0,0,0
1670843187.94002104,195368488,1000,1000,1000,1000,0,0,0,0,0,0,0,0,0,0
1670843188.03998089,195468448,1000,1000,1000,1000,0,0,0,0,0,0,0,0,0,0
1670843188.13994098,195568408,1000,1000,1000,1000,0,0,0,0,0,0,0,0,0,0
1670843188.23990107,195668368,1000,1000,1000,1000,0,0,0,0,0,0,0,0,0,0
1670843188.33986092,195768328,1000,1000,1000,1000,0,0,0,0,0,0,0,0,0,0
1670843188.43982100,195868288,1000,1000,1000,1000,0,0,0,0,0,0,0,0,0,0
1670843188.53978086,195968248,1000,1000,1000,1000,0,0,0,0,0,0,0,0,0,0
1670843188.63974094,196068208,1000,1000,1000,1000,0,0,0,0,0,0,0,0,0,0
1670843188.73970103,196168168,1000,1000,1000,1000,0,0,0,0,0,0,0,0,0,0
1670843188.84049392,196268961,1000,1000,1000,1000,0,0,0,0,0,0,0,0,0,0
1670843188.94045401,196368921,1000,1000,1000,1000,0,0,0,0,0,0,0,0,0,0
1670843189.04041386,196468881,1000,1000,1000,1000,0,0,0,0,0,0,0,0,0,0
1670843189.14037395,196568841,1000,1000,1000,1000,0,0,0,0,0,0,0,0,0,0
1670843189.24033403,196668801,1000,1000,1000,1000,0,0,0,0,0,0,0,0,0,0
1670843189.34029388,196768761,1000,1000,1000,1000,0,0,0,0,0,0,0,0,0,0
1670843189.44025397,196868721,1000,1000,1000,1000,0,0,0,0,0,0,0,0,0,0
1670843189.54021406,196968681,1000,1000,1000,1000,0,0,0,0,0,0,0,0,0,0
1670843189.64017391,197068641,1000,1000,1000,1000,0,0,0,0,0,0,0,0,0,0
1670843189.74013400,197168601,1000,1000,1000,1000,0,0,0,0,0,0,0,0,0,0
1670843189.84009385,197268561,1000,1000,1000,1000,0,0,0,0,0,0,0,0,0,0
1670843189.94005394,197368521,1000,1000,1000,1000,0,0,0,0,0,0,0,0,0,0
1670843190.04001403,197468481,1000,1000,1000,1000,0,0,0,0,0,0,0,0,0,0
1670843190.13997388,197568441,1000,1000,1000,1000,0,0,0,0,0,0,0,0,0,0
1670843190.23993397,197668401,1000,1000,1000,1000,0,0,0,0,0,0,0,0,0,0
1670843190.33989406,197768361,1000,1000,1000,1000,0,0,0,0,0,0,0,0,0,0
1670843190.43985391,197868321,1000,1000,1000,1000,0,0,0,0,0,0,0,0,0,0
1670843190.53981400,197968281,1000,1000,1000,1000,0,0,0,0,0,0,0,0,0,0
1670843190.63977385,198068241,1000,1000,1000,1000,0,0,0,0,0,0,0,0,0,0
1670843190.73973393,198168201,1000,1000,1000,1000,0,0,0,0,0,0,0,0,0,0
1670843190.83969402,198268161,1000,1000,1000,1000,0,0,0,0,0,0,0,0,0,0
1670843190.94048691,198368954,1000,1000,1000,1000,0,0,0,0,0,0,0,0,0,0
1670843191.04044700,198468914,1000,1000,1000,1000,0,0,0,0,0,0,0,0,0,0
1670843191.14040685,198568874,1000,1000,1000,1000,0,0,0,0,0,0,0,0,0,0
1670843191.24036694,198668834,1000,1000,1000,1000,0,0,0,0,0,0,0,0,0,0
1670843191.34032702,198768794,1000,1000,1000,1000,0,0,0,0,0,0,0,0,0,0
1670843191.44028687,198868754,1000,1000,1000,1000,0,0,0,0,0,0,0,0,0,0
1670843191.54024696,198968714,1000,1000,1000,1000,0,0,0,0,0,0,0,0,0,0
1670843191.64020705,199068674,1000,1000,1000,1000,0,0,0,0,0,0,0,0,0,0
1670843191.74016690,199168634,1000,1000,1000,1000,0,0,0,0,0,0,0,0,0,0
1670843191.84012699,199268594,1000,1000,1000,1000,0,0,0,0,0,0,0,0,0,0
1670843191.94008708,199368554,1000,1000,1000,1000,0,0,0,0,0,0,0,0,0,0
1670843192.04004693,199468514,1000,1000,1000,1000,0,0,0,0,0,0,0,0,0,0
1670843192.14000702,199568474,1000,1000,1000,1000,0,0,0,0,0,0,0,0,0,0
1670843192.23996687,199668434,1000,1000,1000,1000,0,0,0,0,0,0,0,0,0,0
1670843192.33992696,199768394,1000,1000,1000,1000,0,0,0,0,0,0,0,0,0,0
1670843192.43988705,199868354,1000,1000,1000,1000,0,0,0,0,0,0,0,0,0,0
1670843192.53984690,199968314,1000,1000,1000,1000,0,0,0,0,0,0,0,0,0,0
1670843192.63980699,200068274,1000,1000,1000,1000,0,0,0,0,0,0,0,0,0,0
1670843192.73976707,200168234,1000,1000,1000,1000,0,0,0,0,0,0,0,0,0,0
1670843192.83972692,200268194,1000,1000,1000,1000,0,0,0,0,0,0,0,0,0,0
1670843192.93968701,200368154,1000,1000,1000,1000,0,0,0,0,0,0,0,0,0,0
1670843193.04047990,200468947,1000,1000,1000,1000,0,0,0,0,0,0,0,0,0,0
1670843193.14043999,200568907,1000,1000,1000,1000,0,0,0,0,0,0,0,0,0,0
1670843193.24040008,200668867,1000,1000,1000,1000,0,0,0,0,0,0,0,0,0,0
1670843193.34035993,200768827,1000,1000,1000,1000,0,0,0,0,0,0,0,0,0,0
1670843193.44032001,200868787,1000,1000,1000,1000,0,0,0,0,0,0,0,0,0,0
1670843193.54027987,200968747,1000,1000,1000,1000,0,0,0,0,0,0,0,0,0,0
1670843193.64023995,201068707,1000,1000,1000,1000,0,0,0,0,0,0,0,0,0,0
1670843193.74020004,201168667,1000,1000,1000,1000,0,0,0,0,0,0,0,0,0,0
1670843193.84015989,201268627,1000,1000,1000,1000,0,0,0,0,0,0,0,0,0,0
1670843193.94011998,201368587,1000,1000,1000,1000,0,0,0,0,0,0,0,0,0,0
1670843194.04008007,201468547,1000,1000,1000,1000,0,0,0,0,0,0,0,0,0,0
1670843194.14003992,201568507,1000,1000,1000,1000,0,0,0,0,0,0,0,0,0,0
1670843194.24000001,201668467,1000,1000,1000,1000,0,0,0,0,0,0,0,0,0,0
1670843194.33995986,201768427,1000,1000,1000,1000,0,0,0,0,0,0,0,0,0,0
