TimeUS,M1,M2,M3,M4,TimeUS,C1,C2,C3,C4
134848539,1000,1000,1000,1000,134928507,1000,1000,1000,1000
134851038,1000,1000,1000,1000,135028467,1000,1000,1000,1000
134853537,1000,1000,1000,1000,135128427,1000,1000,1000,1000
134856036,1000,1000,1000,1000,135228387,1000,1000,1000,1000
134858535,1000,1000,1000,1000,135328347,1000,1000,1000,1000
134861034,1000,1000,1000,1000,135428307,1000,1000,1000,1000
134863533,1000,1000,1000,1000,135528267,1000,1000,1000,1000
134866032,1000,1000,1000,1000,135628227,1000,1000,1000,1000
134868531,1000,1000,1000,1000,135728187,1000,1000,1000,1000
134871030,1000,1000,1000,1000,135828980,1000,1000,1000,1000
134873529,1000,1000,1000,1000,135928940,1000,1000,1000,1000
134876028,1000,1000,1000,1000,136028900,1000,1000,1000,1000
134878527,1000,1000,1000,1000,136128860,1000,1000,1000,1000
134881026,1000,1000,1000,1000,136228820,1000,1000,1000,1000
134883525,1000,1000,1000,1000,136328780,1000,1000,1000,1000
134886024,1000,1000,1000,1000,136428740,1000,1000,1000,1000
134888523,1000,1000,1000,1000,136528700,1000,1000,1000,1000
134891022,1000,1000,1000,1000,136628660,1000,1000,1000,1000
134893521,1000,1000,1000,1000,136728620,1000,1000,1000,1000
134896020,1000,1000,1000,1000,136828580,1000,1000,1000,1000
134898519,1000,1000,1000,1000,136928540,1024,1024,1024,1024
134901018,1000,1000,1000,1000,137028500,1054,1054,1054,1054
134903517,1000,1000,1000,1000,137128460,1084,1084,1084,1084
134906016,1000,1000,1000,1000,137228420,1113,1113,1113,1113
134908515,1000,1000,1000,1000,137328380,1143,1143,1143,1143
134911014,1000,1000,1000,1000,137428340,1362,1346,1347,1363
134913513,1000,1000,1000,1000,137528300,1551,1536,1537,1551
134916012,1000,1000,1000,1000,137628260,1703,1690,1691,1703
134918511,1000,1000,1000,1000,137728220,1833,1821,1822,1834
134921010,1000,1000,1000,1000,137828180,1870,1857,1857,1871
134923509,1000,1000,1000,1000,137928973,1835,1828,1829,1835
134926008,1000,1000,1000,1000,138028933,1707,1708,1709,1708
134928507,1000,1000,1000,1000,138128893,1635,1640,1640,1636
134931006,1000,1000,1000,1000,138228853,1625,1632,1631,1626
134933505,1000,1000,1000,1000,138328813,1633,1634,1629,1638
134936004,1000,1000,1000,1000,138428773,1636,1642,1636,1643
134938503,1000,1000,1000,1000,138528733,1635,1640,1636,1639
134941002,1000,1000,1000,1000,138628693,1630,1633,1632,1630
134943501,1000,1000,1000,1000,138728653,1627,1627,1629,1625
134946000,1000,1000,1000,1000,138828613,1625,1623,1627,1621
134948499,1000,1000,1000,1000,138928573,1627,1623,1628,1622
134950998,1000,1000,1000,1000,139028533,1613,1611,1616,1608
134953497,1000,1000,1000,1000,139128493,1589,1589,1599,1578
134955996,1000,1000,1000,1000,139228453,1575,1576,1581,1570
134958495,1000,1000,1000,1000,139328413,1564,1565,1563,1566
134960994,1000,1000,1000,1000,139428373,1555,1556,1550,1561
134963493,1000,1000,1000,1000,139528333,1549,1548,1540,1556
134965992,1000,1000,1000,1000,139628293,1542,1541,1532,1550
134968491,1000,1000,1000,1000,139728253,1538,1536,1529,1542
134970990,1000,1000,1000,1000,139828213,1533,1531,1529,1533
134973489,1000,1000,1000,1000,139928173,1529,1528,1528,1527
134975988,1000,1000,1000,1000,140028966,1528,1528,1529,1525
134978487,1000,1000,1000,1000,140128926,1531,1531,1533,1528
134980986,1000,1000,1000,1000,140228886,1532,1532,1535,1529
134983485,1000,1000,1000,1000,140328846,1535,1536,1538,1535
134985984,1000,1000,1000,1000,140428806,1539,1539,1540,1539
134988483,1000,1000,1000,1000,140528766,1543,1543,1544,1544
134990982,1000,1000,1000,1000,140628726,1546,1546,1547,1547
134993481,1000,1000,1000,1000,140728686,1549,1548,1549,1549
134995980,1000,1000,1000,1000,140828646,1550,1551,1551,1551
134998479,1000,1000,1000,1000,140928606,1554,1554,1554,1555
135000978,1000,1000,1000,1000,141028566,1556,1556,1555,1557
135003477,1000,1000,1000,1000,141128526,1559,1563,1552,1554
135005976,1000,1000,1000,1000,141228486,1573,1572,1546,1548
135008475,1000,1000,1000,1000,141328446,1571,1569,1554,1554
135010974,1000,1000,1000,1000,141428406,1565,1563,1561,1561
135013473,1000,1000,1000,1000,141528366,1560,1558,1567,1567
135015972,1000,1000,1000,1000,141628326,1557,1557,1573,1572
135018471,1000,1000,1000,1000,141728286,1557,1558,1577,1576
135020970,1000,1000,1000,1000,141828246,1557,1559,1578,1578
135023469,1000,1000,1000,1000,141928206,1559,1560,1577,1577
135025968,1000,1000,1000,1000,142028166,1563,1564,1577,1577
135028467,1000,1000,1000,1000,142128959,1566,1566,1574,1574
135030966,1000,1000,1000,1000,142228919,1570,1570,1573,1573
135033465,1000,1000,1000,1000,142328879,1574,1573,1571,1572
135035964,1000,1000,1000,1000,142428839,1576,1576,1570,1570
135038463,1000,1000,1000,1000,142528799,1579,1578,1570,1569
135040962,1000,1000,1000,1000,142628759,1580,1580,1570,1568
135043461,1000,1000,1000,1000,142728719,1581,1580,1571,1569
135045960,1000,1000,1000,1000,142828679,1581,1580,1571,1570
135048459,1000,1000,1000,1000,142928639,1579,1579,1571,1571
135050958,1000,1000,1000,1000,143028599,1579,1579,1573,1574
135053457,1000,1000,1000,1000,143128559,1579,1578,1575,1576
135055956,1000,1000,1000,1000,143228519,1577,1577,1576,1576
135058455,1000,1000,1000,1000,143328479,1576,1577,1578,1578
135060954,1000,1000,1000,1000,143428439,1574,1575,1577,1577
135063453,1000,1000,1000,1000,143528399,1576,1575,1579,1579
135065952,1000,1000,1000,1000,143628359,1575,1575,1579,1579
135068451,1000,1000,1000,1000,143728319,1575,1574,1578,1579
135070950,1000,1000,1000,1000,143828279,1575,1575,1579,1579
135073449,1000,1000,1000,1000,143928239,1575,1575,1578,1578
135075948,1000,1000,1000,1000,144028199,1576,1577,1578,1578
135078447,1000,1000,1000,1000,144128159,1578,1578,1578,1578
135080946,1000,1000,1000,1000,144228952,1579,1579,1579,1578
135083445,1000,1000,1000,1000,144328912,1579,1579,1578,1578
135085944,1000,1000,1000,1000,144428872,1579,1579,1578,1578
135088443,1000,1000,1000,1000,144528832,1579,1580,1578,1578
135090942,1000,1000,1000,1000,144628792,1579,1579,1577,1577
135093441,1000,1000,1000,1000,144728752,1580,1580,1578,1578
135095940,1000,1000,1000,1000,144828712,1579,1579,1578,1578
135098439,1000,1000,1000,1000,144928672,1579,1578,1578,1578
135100938,1000,1000,1000,1000,145028632,1578,1578,1578,1577
135103437,1000,1000,1000,1000,145128592,1579,1578,1579,1579
135105936,1000,1000,1000,1000,145228552,1579,1579,1579,1579
135108435,1000,1000,1000,1000,145328512,1579,1580,1580,1581
135110934,1000,1000,1000,1000,145428472,1579,1579,1580,1580
135113433,1000,1000,1000,1000,145528432,1580,1579,1581,1581
135115932,1000,1000,1000,1000,145628392,1580,1580,1581,1581
135118431,1000,1000,1000,1000,145728352,1579,1579,1580,1580
135120930,1000,1000,1000,1000,145828312,1580,1580,1580,1580
135123429,1000,1000,1000,1000,145928272,1580,1579,1580,1580
135125928,1000,1000,1000,1000,146028232,1580,1580,1580,1580
135128427,1000,1000,1000,1000,146128192,1581,1581,1580,1581
135130926,1000,1000,1000,1000,146228985,1580,1581,1580,1580
135133425,1000,1000,1000,1000,146328945,1581,1580,1580,1580
135135924,1000,1000,1000,1000,146428905,1581,1581,1581,1581
135138423,1000,1000,1000,1000,146528865,1581,1581,1581,1581
135140922,1000,1000,1000,1000,146628825,1581,1581,1581,1581
135143421,1000,1000,1000,1000,146728785,1581,1580,1581,1580
135145920,1000,1000,1000,1000,146828745,1581,1581,1581,1581
135148419,1000,1000,1000,1000,146928705,1581,1581,1580,1581
135150918,1000,1000,1000,1000,147028665,1581,1581,1581,1580
135153417,1000,1000,1000,1000,147128625,1580,1580,1580,1580
135155916,1000,1000,1000,1000,147228585,1580,1581,1582,1579
135158415,1000,1000,1000,1000,147328545,1580,1582,1588,1572
135160914,1000,1000,1000,1000,147428505,1579,1582,1583,1572
135163413,1000,1000,1000,1000,147528465,1578,1581,1574,1573
135165912,1000,1000,1000,1000,147628425,1576,1579,1565,1569
135168411,1000,1000,1000,1000,147728385,1576,1578,1558,1565
135170910,1000,1000,1000,1000,147828345,1579,1579,1556,1561
135173409,1000,1000,1000,1000,147928305,1580,1579,1554,1557
135175908,1000,1000,1000,1000,148028265,1581,1579,1555,1555
135178407,1000,1000,1000,1000,148128225,1581,1579,1555,1553
135180906,1000,1000,1000,1000,148228185,1579,1579,1555,1552
135183405,1000,1000,1000,1000,148328978,1578,1578,1554,1552
135185904,1000,1000,1000,1000,148428938,1578,1578,1555,1553
135188403,1000,1000,1000,1000,148528898,1576,1578,1553,1553
135190902,1000,1000,1000,1000,148628858,1576,1579,1552,1552
135193401,1000,1000,1000,1000,148728818,1577,1579,1550,1551
135195900,1000,1000,1000,1000,148828778,1578,1579,1548,1548
135198399,1000,1000,1000,1000,148928738,1581,1582,1546,1546
135200898,1000,1000,1000,1000,149028698,1583,1585,1544,1543
135203397,1000,1000,1000,1000,149128658,1588,1588,1543,1542
135205896,1000,1000,1000,1000,149228618,1590,1591,1539,1538
135208395,1000,1000,1000,1000,149328578,1593,1594,1537,1537
135210894,1000,1000,1000,1000,149428538,1595,1595,1536,1536
135213393,1000,1000,1000,1000,149528498,1596,1595,1535,1537
135215892,1000,1000,1000,1000,149628458,1595,1595,1536,1538
135218391,1000,1000,1000,1000,149728418,1595,1594,1540,1543
135220890,1000,1000,1000,1000,149828378,1591,1589,1545,1548
135223389,1000,1000,1000,1000,149928338,1585,1582,1553,1556
135225888,1000,1000,1000,1000,150028298,1577,1573,1563,1566
135228387,1000,1000,1000,1000,150128258,1566,1562,1575,1578
135230886,1000,1000,1000,1000,150228218,1554,1551,1587,1589
135233385,1000,1000,1000,1000,150328178,1543,1541,1599,1599
135235884,1000,1000,1000,1000,150428971,1535,1535,1609,1608
135238383,1000,1000,1000,1000,150528931,1529,1530,1614,1613
135240882,1000,1000,1000,1000,150628891,1528,1530,1616,1615
135243381,1000,1000,1000,1000,150728851,1530,1532,1613,1613
135245880,1000,1000,1000,1000,150828811,1537,1539,1610,1609
135248379,1000,1000,1000,1000,150928771,1545,1546,1604,1604
135250878,1000,1000,1000,1000,151028731,1553,1554,1596,1596
135253377,1000,1000,1000,1000,151128691,1562,1563,1589,1588
135255876,1000,1000,1000,1000,151228651,1570,1570,1581,1580
135258375,1000,1000,1000,1000,151328611,1578,1577,1575,1575
135260874,1000,1000,1000,1000,151428571,1583,1581,1570,1569
135263373,1000,1000,1000,1000,151528531,1586,1585,1567,1567
135265872,1000,1000,1000,1000,151628491,1588,1586,1566,1566
135268371,1000,1000,1000,1000,151728451,1588,1587,1567,1567
135270870,1000,1000,1000,1000,151828411,1587,1586,1569,1568
135273369,1000,1000,1000,1000,151928371,1584,1584,1571,1571
135275868,1000,1000,1000,1000,152028331,1581,1581,1574,1574
135278367,1000,1000,1000,1000,152128291,1578,1579,1577,1577
135280866,1000,1000,1000,1000,152228251,1576,1576,1580,1580
135283365,1000,1000,1000,1000,152328211,1574,1574,1582,1582
135285864,1000,1000,1000,1000,152428171,1572,1573,1583,1584
135288363,1000,1000,1000,1000,152528964,1571,1572,1583,1583
135290862,1000,1000,1000,1000,152628924,1571,1572,1583,1582
135293361,1000,1000,1000,1000,152728884,1573,1573,1583,1583
135295860,1000,1000,1000,1000,152828844,1573,1573,1581,1581
135298359,1000,1000,1000,1000,152928804,1576,1576,1581,1581
135300858,1000,1000,1000,1000,153028764,1577,1576,1579,1579
135303357,1000,1000,1000,1000,153128724,1578,1578,1578,1578
135305856,1000,1000,1000,1000,153228684,1578,1578,1576,1576
135308355,1000,1000,1000,1000,153328644,1580,1580,1577,1577
135310854,1000,1000,1000,1000,153428604,1581,1580,1576,1576
135313353,1000,1000,1000,1000,153528564,1582,1582,1578,1578
135315852,1000,1000,1000,1000,153628524,1582,1581,1577,1577
135318351,1000,1000,1000,1000,153728484,1582,1581,1578,1578
135320850,1000,1000,1000,1000,153828444,1580,1581,1578,1578
135323349,1000,1000,1000,1000,153928404,1580,1580,1578,1579
135325848,1000,1000,1000,1000,154028364,1579,1579,1579,1579
135328347,1000,1000,1000,1000,154128324,1579,1580,1580,1580
135330846,1000,1000,1000,1000,154228284,1579,1579,1580,1580
135333345,1000,1000,1000,1000,154328244,1578,1578,1579,1580
135335844,1000,1000,1000,1000,154428204,1579,1579,1580,1581
135338343,1000,1000,1000,1000,154528164,1580,1580,1582,1581
135340842,1000,1000,1000,1000,154628957,1579,1579,1581,1580
135343341,1000,1000,1000,1000,154728917,1580,1580,1581,1581
135345840,1000,1000,1000,1000,154828877,1580,1581,1581,1581
135348339,1000,1000,1000,1000,154928837,1580,1581,1581,1581
135350838,1000,1000,1000,1000,155028797,1581,1581,1581,1581
135353337,1000,1000,1000,1000,155128757,1582,1582,1581,1581
135355836,1000,1000,1000,1000,155228717,1580,1582,1586,1572
135358335,1000,1000,1000,1000,155328677,1581,1584,1583,1570
135360834,1000,1000,1000,1000,155428637,1581,1585,1575,1571
135363333,1000,1000,1000,1000,155528597,1580,1582,1565,1568
135365832,1000,1000,1000,1000,155628557,1580,1581,1558,1565
135368331,1000,1000,1000,1000,155728517,1581,1581,1554,1560
135370830,1000,1000,1000,1000,155828477,1581,1580,1552,1556
135373329,1000,1000,1000,1000,155928437,1583,1581,1553,1553
135375828,1000,1000,1000,1000,156028397,1582,1580,1553,1551
135378327,1000,1000,1000,1000,156128357,1581,1580,1554,1552
135380826,1000,1000,1000,1000,156228317,1580,1581,1555,1553
135383325,1000,1000,1000,1000,156328277,1579,1580,1555,1554
135385824,1000,1000,1000,1000,156428237,1577,1579,1554,1553
135388323,1000,1000,1000,1000,156528197,1576,1579,1553,1553
135390822,1000,1000,1000,1000,156628157,1577,1579,1552,1553
135393321,1000,1000,1000,1000,156728950,1579,1579,1551,1551
135395820,1000,1000,1000,1000,156828910,1580,1581,1549,1550
135398319,1000,1000,1000,1000,156928870,1582,1583,1548,1548
135400818,1000,1000,1000,1000,157028830,1584,1584,1545,1545
135403317,1000,1000,1000,1000,157128790,1586,1587,1544,1544
135405816,1000,1000,1000,1000,157228750,1588,1590,1541,1542
135408315,1000,1000,1000,1000,157328710,1591,1592,1540,1541
135410814,1000,1000,1000,1000,157428670,1593,1594,1540,1541
135413313,1000,1000,1000,1000,157528630,1593,1592,1542,1543
135415812,1000,1000,1000,1000,157628590,1591,1588,1546,1548
135418311,1000,1000,1000,1000,157728550,1586,1583,1552,1555
135420810,1000,1000,1000,1000,157828510,1580,1576,1561,1564
135423309,1000,1000,1000,1000,157928470,1571,1567,1571,1574
135425808,1000,1000,1000,1000,158028430,1561,1559,1582,1584
135428307,1000,1000,1000,1000,158128390,1553,1551,1593,1593
135430806,1000,1000,1000,1000,158228350,1545,1545,1601,1601
135433305,1000,1000,1000,1000,158328310,1542,1542,1608,1608
135435804,1000,1000,1000,1000,158428270,1538,1540,1610,1609
135438303,1000,1000,1000,1000,158528230,1540,1541,1610,1610
135440802,1000,1000,1000,1000,158628190,1543,1545,1607,1607
135443301,1000,1000,1000,1000,158728983,1550,1551,1605,1604
135445800,1000,1000,1000,1000,158828943,1557,1558,1599,1598
135448299,1000,1000,1000,1000,158928903,1563,1564,1592,1591
135450798,1000,1000,1000,1000,159028863,1571,1571,1586,1586
135453297,1000,1000,1000,1000,159128823,1577,1576,1580,1580
135455796,1000,1000,1000,1000,159228783,1580,1579,1574,1574
135458295,1000,1000,1000,1000,159328743,1584,1583,1571,1571
135460794,1000,1000,1000,1000,159428703,1585,1584,1569,1569
135463293,1000,1000,1000,1000,159528663,1586,1585,1570,1569
135465792,1000,1000,1000,1000,159628623,1585,1584,1570,1570
135468291,1000,1000,1000,1000,159728583,1583,1581,1571,1571
135470790,1000,1000,1000,1000,159828543,1581,1580,1574,1574
135473289,1000,1000,1000,1000,159928503,1579,1579,1577,1576
135475788,1000,1000,1000,1000,160028463,1576,1577,1579,1578
135478287,1000,1000,1000,1000,160128423,1576,1576,1582,1582
135480786,1000,1000,1000,1000,160228383,1574,1575,1583,1583
135483285,1000,1000,1000,1000,160328343,1573,1574,1583,1583
135485784,1000,1000,1000,1000,160428303,1574,1574,1583,1584
135488283,1000,1000,1000,1000,160528263,1575,1575,1584,1584
135490782,1000,1000,1000,1000,160628223,1574,1574,1582,1581
135493281,1000,1000,1000,1000,160728183,1576,1576,1582,1582
135495780,1000,1000,1000,1000,160828976,1577,1577,1581,1581
135498279,1000,1000,1000,1000,160928936,1579,1578,1580,1579
135500778,1000,1000,1000,1000,161028896,1580,1581,1580,1579
135503277,1000,1000,1000,1000,161128856,1581,1581,1579,1579
135505776,1000,1000,1000,1000,161228816,1581,1581,1577,1578
135508275,1000,1000,1000,1000,161328776,1582,1581,1577,1578
135510774,1000,1000,1000,1000,161428736,1582,1582,1578,1578
135513273,1000,1000,1000,1000,161528696,1582,1581,1578,1578
135515772,1000,1000,1000,1000,161628656,1582,1582,1579,1579
135518271,1000,1000,1000,1000,161728616,1581,1580,1579,1578
135520770,1000,1000,1000,1000,161828576,1581,1581,1580,1579
135523269,1000,1000,1000,1000,161928536,1581,1580,1580,1581
135525768,1000,1000,1000,1000,162028496,1580,1580,1580,1580
135528267,1000,1000,1000,1000,162128456,1580,1580,1581,1581
135530766,1000,1000,1000,1000,162228416,1579,1580,1581,1581
135533265,1000,1000,1000,1000,162328376,1581,1581,1582,1582
135535764,1000,1000,1000,1000,162428336,1580,1581,1582,1581
135538263,1000,1000,1000,1000,162528296,1582,1581,1582,1582
135540762,1000,1000,1000,1000,162628256,1581,1581,1582,1582
135543261,1000,1000,1000,1000,162728216,1580,1580,1580,1580
135545760,1000,1000,1000,1000,162828176,1581,1581,1580,1581
135548259,1000,1000,1000,1000,162928969,1581,1580,1580,1580
135550758,1000,1000,1000,1000,163028929,1581,1582,1580,1580
135553257,1000,1000,1000,1000,163128889,1582,1581,1580,1580
135555756,1000,1000,1000,1000,163228849,1581,1582,1582,1578
135558255,1000,1000,1000,1000,163328809,1581,1584,1586,1571
135560754,1000,1000,1000,1000,163428769,1581,1586,1580,1571
135563253,1000,1000,1000,1000,163528729,1581,1585,1572,1570
135565752,1000,1000,1000,1000,163628689,1580,1583,1562,1567
135568251,1000,1000,1000,1000,163728649,1582,1582,1556,1563
135570750,1000,1000,1000,1000,163828609,1583,1584,1553,1559
135573249,1000,1000,1000,1000,163928569,1585,1583,1552,1554
135575748,1000,1000,1000,1000,164028529,1585,1584,1552,1552
135578247,1000,1000,1000,1000,164128489,1585,1583,1552,1550
135580746,1000,1000,1000,1000,164228449,1585,1585,1553,1551
135583245,1000,1000,1000,1000,164328409,1583,1583,1553,1551
135585744,1000,1000,1000,1000,164428369,1582,1584,1553,1552
135588243,1000,1000,1000,1000,164528329,1582,1583,1552,1552
135590742,1000,1000,1000,1000,164628289,1581,1584,1551,1551
135593241,1000,1000,1000,1000,164728249,1583,1583,1550,1551
135595740,1000,1000,1000,1000,164828209,1583,1585,1549,1550
135598239,1000,1000,1000,1000,164928169,1585,1585,1548,1548
135600738,1000,1000,1000,1000,165028962,1586,1588,1547,1547
135603237,1000,1000,1000,1000,165128922,1588,1588,1545,1546
135605736,1000,1000,1000,1000,165228882,1590,1591,1545,1546
135608235,1000,1000,1000,1000,165328842,1591,1589,1546,1546
135610734,1000,1000,1000,1000,165428802,1590,1589,1547,1549
135613233,1000,1000,1000,1000,165528762,1588,1584,1552,1553
135615732,1000,1000,1000,1000,165628722,1583,1581,1558,1560
135618231,1000,1000,1000,1000,165728682,1578,1573,1566,1568
135620730,1000,1000,1000,1000,165828642,1568,1566,1573,1575
135623229,1000,1000,1000,1000,165928602,1561,1558,1583,1584
135625728,1000,1000,1000,1000,166028562,1554,1553,1591,1593
135628227,1000,1000,1000,1000,166128522,1549,1548,1598,1598
135630726,1000,1000,1000,1000,166228482,1544,1545,1602,1602
135633225,1000,1000,1000,1000,166328442,1545,1545,1606,1604
135635724,1000,1000,1000,1000,166368426,1544,1545,1605,1604
135638223,1000,1000,1000,1000,166468386,1546,1547,1603,1603
135640722,1000,1000,1000,1000,166568346,1549,1550,1600,1599
135643221,1000,1000,1000,1000,166668306,1555,1556,1597,1596
135645720,1000,1000,1000,1000,166768266,1560,1561,1592,1591
135648219,1000,1000,1000,1000,166868226,1566,1566,1586,1586
135650718,1000,1000,1000,1000,166968186,1572,1571,1581,1581
135653217,1000,1000,1000,1000,167068979,1577,1575,1577,1577
135655716,1000,1000,1000,1000,167168939,1579,1579,1574,1574
135658215,1000,1000,1000,1000,167268899,1582,1580,1571,1571
135660714,1000,1000,1000,1000,167368859,1582,1582,1570,1571
135663213,1000,1000,1000,1000,167468819,1583,1582,1570,1570
135665712,1000,1000,1000,1000,167568779,1580,1580,1570,1570
135668211,1000,1000,1000,1000,167668739,1581,1580,1573,1573
135670710,1000,1000,1000,1000,167768699,1578,1578,1574,1574
135673209,1000,1000,1000,1000,167868659,1577,1576,1577,1576
135675708,1000,1000,1000,1000,167968619,1575,1575,1578,1578
135678207,1000,1000,1000,1000,168068579,1574,1574,1579,1579
135680706,1000,1000,1000,1000,168168539,1573,1574,1580,1580
135683205,1000,1000,1000,1000,168268499,1573,1574,1582,1581
135685704,1000,1000,1000,1000,168368459,1573,1575,1582,1582
135688203,1000,1000,1000,1000,168468419,1575,1575,1581,1581
135690702,1000,1000,1000,1000,168568379,1575,1575,1580,1581
135693201,1000,1000,1000,1000,168668339,1577,1577,1580,1580
135695700,1000,1000,1000,1000,168768299,1577,1577,1579,1579
135698199,1000,1000,1000,1000,168868259,1579,1579,1579,1579
135700698,1000,1000,1000,1000,168968219,1579,1580,1578,1578
135703197,1000,1000,1000,1000,169068179,1580,1580,1578,1578
135705696,1000,1000,1000,1000,169168972,1581,1581,1578,1579
135708195,1000,1000,1000,1000,169268932,1582,1581,1579,1578
135710694,1000,1000,1000,1000,169368892,1582,1582,1579,1579
135713193,1000,1000,1000,1000,169468852,1583,1582,1580,1580
135715692,1000,1000,1000,1000,169568812,1582,1581,1580,1580
135718191,1000,1000,1000,1000,169668772,1581,1581,1580,1580
135720690,1000,1000,1000,1000,169768732,1581,1581,1580,1581
135723189,1000,1000,1000,1000,169868692,1581,1581,1581,1582
135725688,1000,1000,1000,1000,169968652,1581,1581,1582,1582
135728187,1000,1000,1000,1000,170068612,1582,1582,1583,1583
135730686,1000,1000,1000,1000,170168572,1581,1582,1583,1583
135733185,1000,1000,1000,1000,170268532,1582,1582,1583,1583
135735684,1000,1000,1000,1000,170368492,1581,1581,1582,1582
135738183,1000,1000,1000,1000,170468452,1583,1582,1583,1583
135740682,1000,1000,1000,1000,170568412,1582,1582,1583,1583
135743181,1000,1000,1000,1000,170668372,1582,1582,1583,1582
135745680,1000,1000,1000,1000,170768332,1582,1583,1584,1581
135748179,1000,1000,1000,1000,170868292,1581,1584,1590,1577
135750678,1000,1000,1000,1000,170968252,1580,1582,1587,1579
135753177,1000,1000,1000,1000,171068212,1577,1577,1579,1579
135755676,1000,1000,1000,1000,171168172,1574,1573,1573,1578
135758175,1000,1000,1000,1000,171268965,1572,1570,1569,1575
135760674,1000,1000,1000,1000,171368925,1570,1569,1567,1573
135763173,1000,1000,1000,1000,171468885,1569,1569,1568,1570
135765672,1000,1000,1000,1000,171568845,1569,1569,1569,1568
135768171,1000,1000,1000,1000,171668805,1569,1569,1569,1567
135770670,1000,1000,1000,1000,171768765,1568,1569,1569,1567
135773169,1000,1000,1000,1000,171868725,1568,1568,1569,1567
135775668,1000,1000,1000,1000,171968685,1568,1568,1569,1568
135778167,1000,1000,1000,1000,172068645,1567,1567,1567,1567
135780666,1000,1000,1000,1000,172168605,1567,1567,1567,1567
135783165,1000,1000,1000,1000,172268565,1566,1566,1566,1566
135785664,1000,1000,1000,1000,172368525,1565,1566,1566,1566
135788163,1000,1000,1000,1000,172468485,1565,1565,1566,1566
135790662,1000,1000,1000,1000,172568445,1563,1564,1564,1564
135793161,1000,1000,1000,1000,172668405,1563,1563,1563,1564
135795660,1000,1000,1000,1000,172768365,1563,1563,1563,1563
135798159,1000,1000,1000,1000,172868325,1563,1563,1564,1563
135800658,1000,1000,1000,1000,172968285,1562,1563,1564,1563
135803157,1000,1000,1000,1000,173068245,1562,1562,1563,1562
135805656,1000,1000,1000,1000,173168205,1561,1561,1562,1561
135808155,1000,1000,1000,1000,173268165,1561,1560,1561,1560
135810654,1000,1000,1000,1000,173368958,1560,1560,1560,1560
135813986,1000,1000,1000,1000,173468918,1559,1559,1559,1559
135816485,1000,1000,1000,1000,173568878,1558,1559,1559,1558
135818984,1000,1000,1000,1000,173668838,1559,1559,1560,1559
135821483,1000,1000,1000,1000,173768798,1558,1558,1560,1558
135823982,1000,1000,1000,1000,173868758,1560,1559,1560,1559
135826481,1000,1000,1000,1000,173968718,1561,1561,1562,1561
135828980,1000,1000,1000,1000,174068678,1565,1563,1565,1564
135831479,1000,1000,1000,1000,174168638,1568,1567,1569,1567
135833978,1000,1000,1000,1000,174268598,1564,1562,1562,1565
135836477,1000,1000,1000,1000,174368558,1560,1560,1557,1562
135838976,1000,1000,1000,1000,174468518,1555,1557,1551,1558
135841475,1000,1000,1000,1000,174568478,1550,1552,1546,1550
135843974,1000,1000,1000,1000,174668438,1543,1544,1540,1542
135846473,1000,1000,1000,1000,174768398,1535,1537,1534,1533
135848972,1000,1000,1000,1000,174868358,1528,1528,1527,1525
135851471,1000,1000,1000,1000,174968318,1522,1522,1521,1520
135853970,1000,1000,1000,1000,175068278,1519,1519,1518,1518
135856469,1000,1000,1000,1000,175168238,1518,1518,1518,1518
135858968,1000,1000,1000,1000,175268198,1520,1520,1520,1521
135861467,1000,1000,1000,1000,175368158,1523,1523,1523,1524
135863966,1000,1000,1000,1000,175468951,1527,1527,1527,1528
135866465,1000,1000,1000,1000,175568911,1531,1532,1532,1533
135868964,1000,1000,1000,1000,175668871,1536,1537,1537,1538
135871463,1000,1000,1000,1000,175768831,1538,1539,1539,1539
135873962,1000,1000,1000,1000,175868791,1541,1541,1542,1541
135876461,1000,1000,1000,1000,175968751,1542,1542,1543,1542
135878960,1000,1000,1000,1000,176068711,1544,1543,1544,1543
135881459,1000,1000,1000,1000,176168671,1545,1546,1545,1546
135883958,1000,1000,1000,1000,176268631,1546,1546,1546,1546
135886457,1000,1000,1000,1000,176368591,1545,1546,1545,1545
135888956,1000,1000,1000,1000,176468551,1545,1546,1544,1545
135891455,1000,1000,1000,1000,176568511,1545,1546,1545,1545
135893954,1000,1000,1000,1000,176668471,1546,1546,1546,1545
135896453,1000,1000,1000,1000,176768431,1545,1545,1545,1544
135898952,1000,1000,1000,1000,176868391,1545,1545,1545,1545
135901451,1000,1000,1000,1000,176968351,1544,1545,1545,1545
135903950,1000,1000,1000,1000,177068311,1544,1545,1544,1544
135906449,1000,1000,1000,1000,177168271,1544,1545,1545,1545
135908948,1000,1000,1000,1000,177268231,1545,1545,1545,1545
135911447,1000,1000,1000,1000,177368191,1544,1545,1545,1544
135913946,1000,1000,1000,1000,177468984,1545,1545,1545,1544
135916445,1000,1000,1000,1000,177568944,1544,1544,1544,1544
135918944,1000,1000,1000,1000,177668904,1543,1543,1543,1543
135921443,1000,1000,1000,1000,177768864,1544,1545,1544,1544
135923942,1000,1000,1000,1000,177868824,1544,1544,1544,1544
135926441,1000,1000,1000,1000,177968784,1543,1544,1543,1543
135928940,1000,1000,1000,1000,178068744,1544,1544,1544,1544
135931439,1000,1000,1000,1000,178168704,1544,1545,1544,1544
135933938,1000,1000,1000,1000,178268664,1544,1544,1544,1544
135936437,1000,1000,1000,1000,178368624,1544,1545,1544,1544
135938936,1000,1000,1000,1000,178468584,1545,1545,1544,1545
135941435,1000,1000,1000,1000,178568544,1544,1544,1544,1544
135943934,1000,1000,1000,1000,178668504,1544,1543,1544,1543
135946433,1000,1000,1000,1000,178768464,1544,1544,1544,1544
135948932,1000,1000,1000,1000,178868424,1544,1544,1544,1544
135951431,1000,1000,1000,1000,178968384,1544,1544,1544,1544
135953930,1000,1000,1000,1000,179068344,1544,1544,1544,1544
135956429,1000,1000,1000,1000,179168304,1543,1544,1544,1544
135958928,1000,1000,1000,1000,179268264,1545,1544,1545,1544
135961427,1000,1000,1000,1000,179368224,1543,1545,1544,1544
135963926,1000,1000,1000,1000,179468184,1544,1544,1544,1544
135966425,1000,1000,1000,1000,179568977,1543,1544,1544,1543
135968924,1000,1000,1000,1000,179668937,1544,1543,1543,1544
135971423,1000,1000,1000,1000,179768897,1544,1544,1544,1544
135973922,1000,1000,1000,1000,179868857,1545,1544,1544,1545
135976421,1000,1000,1000,1000,179968817,1544,1545,1544,1544
135978920,1000,1000,1000,1000,180068777,1545,1544,1545,1544
135981419,1000,1000,1000,1000,180168737,1543,1544,1544,1544
135983918,1000,1000,1000,1000,180268697,1544,1544,1544,1544
135986417,1000,1000,1000,1000,180368657,1543,1545,1543,1544
135988916,1000,1000,1000,1000,180468617,1545,1544,1545,1544
135991415,1000,1000,1000,1000,180568577,1544,1544,1544,1544
135993914,1000,1000,1000,1000,180668537,1544,1543,1543,1543
135996413,1000,1000,1000,1000,180768497,1543,1543,1543,1543
135998912,1000,1000,1000,1000,180868457,1544,1544,1544,1544
136001411,1000,1000,1000,1000,180968417,1543,1545,1544,1543
136003910,1000,1000,1000,1000,181068377,1543,1544,1543,1543
136006409,1000,1000,1000,1000,181168337,1544,1544,1544,1545
136008908,1000,1000,1000,1000,181268297,1543,1543,1543,1543
136011407,1000,1000,1000,1000,181368257,1543,1544,1543,1543
136013906,1000,1000,1000,1000,181468217,1544,1543,1544,1544
136016405,1000,1000,1000,1000,181568177,1543,1544,1543,1544
136018904,1000,1000,1000,1000,181668970,1544,1543,1544,1544
136021403,1000,1000,1000,1000,181768930,1544,1545,1545,1544
136023902,1000,1000,1000,1000,181868890,1545,1544,1545,1545
136026401,1000,1000,1000,1000,181968850,1544,1545,1544,1544
136028900,1000,1000,1000,1000,182068810,1544,1544,1544,1544
136031399,1000,1000,1000,1000,182168770,1544,1545,1544,1544
136033898,1000,1000,1000,1000,182268730,1543,1544,1543,1544
136036397,1000,1000,1000,1000,182368690,1544,1545,1544,1544
136038896,1000,1000,1000,1000,182468650,1544,1543,1544,1543
136041395,1000,1000,1000,1000,182568610,1544,1545,1544,1544
136043894,1000,1000,1000,1000,182668570,1544,1544,1544,1544
136046393,1000,1000,1000,1000,182768530,1544,1545,1545,1545
136048892,1000,1000,1000,1000,182868490,1543,1544,1543,1544
136051391,1000,1000,1000,1000,182968450,1543,1544,1544,1544
136053890,1000,1000,1000,1000,183068410,1544,1544,1544,1544
136056389,1000,1000,1000,1000,183168370,1544,1544,1544,1544
136058888,1000,1000,1000,1000,183268330,1544,1544,1544,1544
136061387,1000,1000,1000,1000,183368290,1543,1544,1544,1543
136063886,1000,1000,1000,1000,183468250,1544,1544,1544,1544
136066385,1000,1000,1000,1000,183568210,1543,1544,1544,1543
136068884,1000,1000,1000,1000,183668170,1544,1544,1544,1544
136071383,1000,1000,1000,1000,183768963,1544,1545,1544,1544
136073882,1000,1000,1000,1000,183868923,1544,1545,1545,1545
136076381,1000,1000,1000,1000,183968883,1544,1545,1545,1545
136078880,1000,1000,1000,1000,184068843,1545,1545,1545,1545
136081379,1000,1000,1000,1000,184168803,1544,1544,1543,1544
136083878,1000,1000,1000,1000,184268763,1544,1543,1544,1544
136086377,1000,1000,1000,1000,184368723,1544,1544,1544,1544
136088876,1000,1000,1000,1000,184468683,1544,1545,1544,1544
136091375,1000,1000,1000,1000,184568643,1544,1545,1544,1545
136093874,1000,1000,1000,1000,184668603,1544,1544,1544,1544
136096373,1000,1000,1000,1000,184768563,1543,1544,1544,1544
136098872,1000,1000,1000,1000,184868523,1375,1376,1375,1375
136101371,1000,1000,1000,1000,184968483,1253,1252,1253,1252
136103870,1000,1000,1000,1000,185068443,1209,1211,1211,1208
136106369,1000,1000,1000,1000,185168403,1191,1190,1190,1190
136108868,1000,1000,1000,1000,185268363,1150,1153,1151,1150
136111367,1000,1000,1000,1000,185368323,1150,1151,1150,1150
136113866,1000,1000,1000,1000,185468283,1150,1156,1153,1152
136116365,1000,1000,1000,1000,185568243,1295,1150,1211,1243
136118864,1000,1000,1000,1000,185668203,1295,1150,1216,1239
136121363,1000,1000,1000,1000,185768163,1294,1150,1217,1239
136123862,1000,1000,1000,1000,185868956,1294,1150,1217,1240
136126361,1000,1000,1000,1000,185968916,1294,1150,1217,1239
136128860,1000,1000,1000,1000,186068876,1294,1150,1217,1239
136131359,1000,1000,1000,1000,186168836,1294,1150,1217,1239
136133858,1000,1000,1000,1000,186268796,1294,1150,1217,1239
136136357,1000,1000,1000,1000,186368756,1184,1150,1176,1156
136138856,1000,1000,1000,1000,186468716,1169,1150,1156,1158
136141355,1000,1000,1000,1000,186568676,1185,1150,1164,1169
136143854,1000,1000,1000,1000,186668636,1196,1150,1169,1176
136146353,1000,1000,1000,1000,186768596,1203,1150,1173,1180
136148852,1000,1000,1000,1000,186868556,1000,1000,1000,1000
136151351,1000,1000,1000,1000,186968516,1000,1000,1000,1000
136153850,1000,1000,1000,1000,187068476,1000,1000,1000,1000
136156349,1000,1000,1000,1000,187168436,1000,1000,1000,1000
136158848,1000,1000,1000,1000,187268396,1000,1000,1000,1000
136161347,1000,1000,1000,1000,187368356,1000,1000,1000,1000
136163846,1000,1000,1000,1000,187468316,1000,1000,1000,1000
136166345,1000,1000,1000,1000,187568276,1000,1000,1000,1000
136168844,1000,1000,1000,1000,187668236,1000,1000,1000,1000
136171343,1000,1000,1000,1000,187768196,1000,1000,1000,1000
136173842,1000,1000,1000,1000,187868156,1000,1000,1000,1000
136176341,1000,1000,1000,1000,187968949,1000,1000,1000,1000
136178840,1000,1000,1000,1000,188068909,1000,1000,1000,1000
136181339,1000,1000,1000,1000,188168869,1000,1000,1000,1000
136183838,1000,1000,1000,1000,188268829,1000,1000,1000,1000
136186337,1000,1000,1000,1000,188368789,1000,1000,1000,1000
136188836,1000,1000,1000,1000,188468749,1000,1000,1000,1000
136191335,1000,1000,1000,1000,188568709,1000,1000,1000,1000
136193834,1000,1000,1000,1000,188668669,1000,1000,1000,1000
136196333,1000,1000,1000,1000,188768629,1000,1000,1000,1000
136198832,1000,1000,1000,1000,188868589,1000,1000,1000,1000
136201331,1000,1000,1000,1000,188968549,1000,1000,1000,1000
136203830,1000,1000,1000,1000,189068509,1000,1000,1000,1000
136206329,1000,1000,1000,1000,189168469,1000,1000,1000,1000
136208828,1000,1000,1000,1000,189268429,1000,1000,1000,1000
136211327,1000,1000,1000,1000,189368389,1000,1000,1000,1000
136213826,1000,1000,1000,1000,189468349,1000,1000,1000,1000
136216325,1000,1000,1000,1000,189568309,1000,1000,1000,1000
136218824,1000,1000,1000,1000,189668269,1000,1000,1000,1000
136221323,1000,1000,1000,1000,189768229,1000,1000,1000,1000
136223822,1000,1000,1000,1000,189868189,1000,1000,1000,1000
136226321,1000,1000,1000,1000,189968982,1000,1000,1000,1000
136228820,1000,1000,1000,1000,190068942,1000,1000,1000,1000
136231319,1000,1000,1000,1000,190168902,1000,1000,1000,1000
136233818,1000,1000,1000,1000,190268862,1000,1000,1000,1000
136236317,1000,1000,1000,1000,190368822,1000,1000,1000,1000
136238816,1000,1000,1000,1000,190468782,1000,1000,1000,1000
136241315,1000,1000,1000,1000,190568742,1000,1000,1000,1000
136243814,1000,1000,1000,1000,190668702,1000,1000,1000,1000
136246313,1000,1000,1000,1000,190768662,1000,1000,1000,1000
136248812,1000,1000,1000,1000,190868622,1000,1000,1000,1000
136251311,1000,1000,1000,1000,190968582,1000,1000,1000,1000
136253810,1000,1000,1000,1000,191068542,1000,1000,1000,1000
136256309,1000,1000,1000,1000,191168502,1000,1000,1000,1000
136258808,1000,1000,1000,1000,191268462,1000,1000,1000,1000
136261307,1000,1000,1000,1000,191368422,1000,1000,1000,1000
136263806,1000,1000,1000,1000,191468382,1000,1000,1000,1000
136266305,1000,1000,1000,1000,191568342,1000,1000,1000,1000
136268804,1000,1000,1000,1000,191668302,1000,1000,1000,1000
136271303,1000,1000,1000,1000,191768262,1000,1000,1000,1000
136273802,1000,1000,1000,1000,191868222,1000,1000,1000,1000
136276301,1000,1000,1000,1000,191968182,1000,1000,1000,1000
136278800,1000,1000,1000,1000,192068975,1000,1000,1000,1000
136281299,1000,1000,1000,1000,192168935,1000,1000,1000,1000
136283798,1000,1000,1000,1000,192268895,1000,1000,1000,1000
136286297,1000,1000,1000,1000,192368855,1000,1000,1000,1000
136288796,1000,1000,1000,1000,192468815,1000,1000,1000,1000
136291295,1000,1000,1000,1000,192568775,1000,1000,1000,1000
136293794,1000,1000,1000,1000,192668735,1000,1000,1000,1000
136296293,1000,1000,1000,1000,192768695,1000,1000,1000,1000
136298792,1000,1000,1000,1000,192868655,1000,1000,1000,1000
136301291,1000,1000,1000,1000,192968615,1000,1000,1000,1000
136303790,1000,1000,1000,1000,193068575,1000,1000,1000,1000
136306289,1000,1000,1000,1000,193168535,1000,1000,1000,1000
136308788,1000,1000,1000,1000,193268495,1000,1000,1000,1000
136311287,1000,1000,1000,1000,193368455,1000,1000,1000,1000
136313786,1000,1000,1000,1000,193468415,1000,1000,1000,1000
136316285,1000,1000,1000,1000,193568375,1000,1000,1000,1000
136318784,1000,1000,1000,1000,193668335,1000,1000,1000,1000
136321283,1000,1000,1000,1000,193768295,1000,1000,1000,1000
136323782,1000,1000,1000,1000,193868255,1000,1000,1000,1000
136326281,1000,1000,1000,1000,193968215,1000,1000,1000,1000
136328780,1000,1000,1000,1000,194068175,1000,1000,1000,1000
136331279,1000,1000,1000,1000,194168968,1000,1000,1000,1000
136333778,1000,1000,1000,1000,194268928,1000,1000,1000,1000
136336277,1000,1000,1000,1000,194368888,1000,1000,1000,1000
136338776,1000,1000,1000,1000,194468848,1000,1000,1000,1000
136341275,1000,1000,1000,1000,194568808,1000,1000,1000,1000
136343774,1000,1000,1000,1000,194668768,1000,1000,1000,1000
136346273,1000,1000,1000,1000,194768728,1000,1000,1000,1000
136348772,1000,1000,1000,1000,194868688,1000,1000,1000,1000
136351271,1000,1000,1000,1000,194968648,1000,1000,1000,1000
136353770,1000,1000,1000,1000,195068608,1000,1000,1000,1000
136356269,1000,1000,1000,1000,195168568,1000,1000,1000,1000
136358768,1000,1000,1000,1000,195268528,1000,1000,1000,1000
136361267,1000,1000,1000,1000,195368488,1000,1000,1000,1000
136363766,1000,1000,1000,1000,195468448,1000,1000,1000,1000
136366265,1000,1000,1000,1000,195568408,1000,1000,1000,1000
136368764,1000,1000,1000,1000,195668368,1000,1000,1000,1000
136371263,1000,1000,1000,1000,195768328,1000,1000,1000,1000
136373762,1000,1000,1000,1000,195868288,1000,1000,1000,1000
136376261,1000,1000,1000,1000,195968248,1000,1000,1000,1000
136378760,1000,1000,1000,1000,196068208,1000,1000,1000,1000
136381259,1000,1000,1000,1000,196168168,1000,1000,1000,1000
136383758,1000,1000,1000,1000,196268961,1000,1000,1000,1000
136386257,1000,1000,1000,1000,196368921,1000,1000,1000,1000
136388756,1000,1000,1000,1000,196468881,1000,1000,1000,1000
136391255,1000,1000,1000,1000,196568841,1000,1000,1000,1000
136393754,1000,1000,1000,1000,196668801,1000,1000,1000,1000
136396253,1000,1000,1000,1000,196768761,1000,1000,1000,1000
136398752,1000,1000,1000,1000,196868721,1000,1000,1000,1000
136401251,1000,1000,1000,1000,196968681,1000,1000,1000,1000
136403750,1000,1000,1000,1000,197068641,1000,1000,1000,1000
136406249,1000,1000,1000,1000,197168601,1000,1000,1000,1000
136408748,1000,1000,1000,1000,197268561,1000,1000,1000,1000
136411247,1000,1000,1000,1000,197368521,1000,1000,1000,1000
136413746,1000,1000,1000,1000,197468481,1000,1000,1000,1000
136416245,1000,1000,1000,1000,197568441,1000,1000,1000,1000
136418744,1000,1000,1000,1000,197668401,1000,1000,1000,1000
136421243,1000,1000,1000,1000,197768361,1000,1000,1000,1000
136423742,1000,1000,1000,1000,197868321,1000,1000,1000,1000
136426241,1000,1000,1000,1000,197968281,1000,1000,1000,1000
136428740,1000,1000,1000,1000,198068241,1000,1000,1000,1000
136431239,1000,1000,1000,1000,198168201,1000,1000,1000,1000
136433738,1000,1000,1000,1000,198268161,1000,1000,1000,1000
136436237,1000,1000,1000,1000,198368954,1000,1000,1000,1000
136438736,1000,1000,1000,1000,198468914,1000,1000,1000,1000
136441235,1000,1000,1000,1000,198568874,1000,1000,1000,1000
136443734,1000,1000,1000,1000,198668834,1000,1000,1000,1000
136446233,1000,1000,1000,1000,198768794,1000,1000,1000,1000
136448732,1000,1000,1000,1000,198868754,1000,1000,1000,1000
136451231,1000,1000,1000,1000,198968714,1000,1000,1000,1000
136453730,1000,1000,1000,1000,199068674,1000,1000,1000,1000
136456229,1000,1000,1000,1000,199168634,1000,1000,1000,1000
136458728,1000,1000,1000,1000,199268594,1000,1000,1000,1000
136461227,1000,1000,1000,1000,199368554,1000,1000,1000,1000
136463726,1000,1000,1000,1000,199468514,1000,1000,1000,1000
136466225,1000,1000,1000,1000,199568474,1000,1000,1000,1000
136468724,1000,1000,1000,1000,199668434,1000,1000,1000,1000
136471223,1000,1000,1000,1000,199768394,1000,1000,1000,1000
136473722,1000,1000,1000,1000,199868354,1000,1000,1000,1000
136476221,1000,1000,1000,1000,199968314,1000,1000,1000,1000
136478720,1000,1000,1000,1000,200068274,1000,1000,1000,1000
136481219,1000,1000,1000,1000,200168234,1000,1000,1000,1000
136483718,1000,1000,1000,1000,200268194,1000,1000,1000,1000
136486217,1000,1000,1000,1000,200368154,1000,1000,1000,1000
136488716,1000,1000,1000,1000,200468947,1000,1000,1000,1000
136491215,1000,1000,1000,1000,200568907,1000,1000,1000,1000
136493714,1000,1000,1000,1000,200668867,1000,1000,1000,1000
136496213,1000,1000,1000,1000,200768827,1000,1000,1000,1000
136498712,1000,1000,1000,1000,200868787,1000,1000,1000,1000
136501211,1000,1000,1000,1000,200968747,1000,1000,1000,1000
136503710,1000,1000,1000,1000,201068707,1000,1000,1000,1000
136506209,1000,1000,1000,1000,201168667,1000,1000,1000,1000
136508708,1000,1000,1000,1000,201268627,1000,1000,1000,1000
136511207,1000,1000,1000,1000,201368587,1000,1000,1000,1000
136513706,1000,1000,1000,1000,201468547,1000,1000,1000,1000
136516205,1000,1000,1000,1000,201568507,1000,1000,1000,1000
136518704,1000,1000,1000,1000,201668467,1000,1000,1000,1000
136521203,1000,1000,1000,1000,201768427,1000,1000,1000,1000
136523702,1000,1000,1000,1000,,,,,
136526201,1000,1000,1000,1000,,,,,
136528700,1000,1000,1000,1000,,,,,
136531199,1000,1000,1000,1000,,,,,
136533698,1000,1000,1000,1000,,,,,
136536197,1000,1000,1000,1000,,,,,
136538696,1000,1000,1000,1000,,,,,
136541195,1000,1000,1000,1000,,,,,
136543694,1000,1000,1000,1000,,,,,
136546193,1000,1000,1000,1000,,,,,
136548692,1000,1000,1000,1000,,,,,
136551191,1000,1000,1000,1000,,,,,
136553690,1000,1000,1000,1000,,,,,
136556189,1000,1000,1000,1000,,,,,
136558688,1000,1000,1000,1000,,,,,
136561187,1000,1000,1000,1000,,,,,
136563686,1000,1000,1000,1000,,,,,
136566185,1000,1000,1000,1000,,,,,
136568684,1000,1000,1000,1000,,,,,
136571183,1000,1000,1000,1000,,,,,
136573682,1000,1000,1000,1000,,,,,
136576181,1000,1000,1000,1000,,,,,
136578680,1000,1000,1000,1000,,,,,
136581179,1000,1000,1000,1000,,,,,
136583678,1000,1000,1000,1000,,,,,
136586177,1000,1000,1000,1000,,,,,
136588676,1000,1000,1000,1000,,,,,
136591175,1000,1000,1000,1000,,,,,
136593674,1000,1000,1000,1000,,,,,
136596173,1000,1000,1000,1000,,,,,
136598672,1000,1000,1000,1000,,,,,
136601171,1000,1000,1000,1000,,,,,
136603670,1000,1000,1000,1000,,,,,
136606169,1000,1000,1000,1000,,,,,
136608668,1000,1000,1000,1000,,,,,
136611167,1000,1000,1000,1000,,,,,
136613666,1000,1000,1000,1000,,,,,
136616165,1000,1000,1000,1000,,,,,
136618664,1000,1000,1000,1000,,,,,
136621163,1000,1000,1000,1000,,,,,
136623662,1000,1000,1000,1000,,,,,
136626161,1000,1000,1000,1000,,,,,
136628660,1000,1000,1000,1000,,,,,
136631159,1000,1000,1000,1000,,,,,
136633658,1000,1000,1000,1000,,,,,
136636157,1000,1000,1000,1000,,,,,
136638656,1000,1000,1000,1000,,,,,
136641155,1000,1000,1000,1000,,,,,
136643654,1000,1000,1000,1000,,,,,
136646153,1000,1000,1000,1000,,,,,
136648652,1000,1000,1000,1000,,,,,
136651151,1000,1000,1000,1000,,,,,
136653650,1000,1000,1000,1000,,,,,
136656149,1000,1000,1000,1000,,,,,
136658648,1000,1000,1000,1000,,,,,
136661147,1000,1000,1000,1000,,,,,
136663646,1000,1000,1000,1000,,,,,
136666145,1000,1000,1000,1000,,,,,
136668644,1000,1000,1000,1000,,,,,
136671143,1000,1000,1000,1000,,,,,
136673642,1000,1000,1000,1000,,,,,
136676141,1000,1000,1000,1000,,,,,
136678640,1000,1000,1000,1000,,,,,
136681139,1000,1000,1000,1000,,,,,
136683638,1000,1000,1000,1000,,,,,
136686137,1000,1000,1000,1000,,,,,
136688636,1000,1000,1000,1000,,,,,
136691135,1000,1000,1000,1000,,,,,
136693634,1000,1000,1000,1000,,,,,
136696133,1000,1000,1000,1000,,,,,
136698632,1000,1000,1000,1000,,,,,
136701131,1000,1000,1000,1000,,,,,
136703630,1000,1000,1000,1000,,,,,
136706129,1000,1000,1000,1000,,,,,
136708628,1000,1000,1000,1000,,,,,
136711127,1000,1000,1000,1000,,,,,
136713626,1000,1000,1000,1000,,,,,
136716125,1000,1000,1000,1000,,,,,
136718624,1000,1000,1000,1000,,,,,
136721123,1000,1000,1000,1000,,,,,
136723622,1000,1000,1000,1000,,,,,
136726121,1000,1000,1000,1000,,,,,
136728620,1000,1000,1000,1000,,,,,
136731119,1000,1000,1000,1000,,,,,
136733618,1000,1000,1000,1000,,,,,
136736117,1000,1000,1000,1000,,,,,
136738616,1000,1000,1000,1000,,,,,
136741115,1000,1000,1000,1000,,,,,
136743614,1000,1000,1000,1000,,,,,
136746113,1000,1000,1000,1000,,,,,
136748612,1000,1000,1000,1000,,,,,
136751111,1000,1000,1000,1000,,,,,
136753610,1000,1000,1000,1000,,,,,
136756109,1000,1000,1000,1000,,,,,
136758608,1000,1000,1000,1000,,,,,
136761107,1000,1000,1000,1000,,,,,
136763606,1000,1000,1000,1000,,,,,
136766105,1000,1000,1000,1000,,,,,
136768604,1000,1000,1000,1000,,,,,
136771103,1000,1000,1000,1000,,,,,
136773602,1000,1000,1000,1000,,,,,
136776101,1000,1000,1000,1000,,,,,
136778600,1000,1000,1000,1000,,,,,
136781099,1000,1000,1000,1000,,,,,
136783598,1000,1000,1000,1000,,,,,
136786097,1000,1000,1000,1000,,,,,
136788596,1000,1000,1000,1000,,,,,
136791095,1000,1000,1000,1000,,,,,
136793594,1000,1000,1000,1000,,,,,
136796093,1000,1000,1000,1000,,,,,
136798592,1000,1000,1000,1000,,,,,
136801091,1000,1000,1000,1000,,,,,
136803590,1000,1000,1000,1000,,,,,
136806089,1000,1000,1000,1000,,,,,
136808588,1000,1000,1000,1000,,,,,
136811087,1000,1000,1000,1000,,,,,
136813586,1000,1000,1000,1000,,,,,
136816085,1000,1000,1000,1000,,,,,
136818584,1000,1000,1000,1000,,,,,
136821083,1000,1000,1000,1000,,,,,
136823582,1000,1000,1000,1000,,,,,
136826081,1000,1000,1000,1000,,,,,
136828580,1000,1000,1000,1000,,,,,
136831079,1000,1000,1000,1000,,,,,
136833578,1000,1000,1000,1000,,,,,
136836077,1000,1000,1000,1000,,,,,
136838576,1000,1000,1000,1000,,,,,
136841075,1000,1000,1000,1000,,,,,
136843574,1000,1000,1000,1000,,,,,
136846073,1000,1000,1000,1000,,,,,
136848572,1000,1000,1000,1000,,,,,
136851071,1000,1000,1000,1000,,,,,
136853570,1000,1000,1000,1000,,,,,
136856069,1001,1001,1001,1001,,,,,
136858568,1002,1002,1002,1002,,,,,
136861067,1003,1003,1003,1003,,,,,
136863566,1003,1003,1003,1003,,,,,
136866065,1004,1004,1004,1004,,,,,
136868564,1005,1005,1005,1005,,,,,
136871063,1006,1006,1006,1006,,,,,
136873562,1006,1006,1006,1006,,,,,
136876061,1007,1007,1007,1007,,,,,
136878560,1008,1008,1008,1008,,,,,
136881059,1009,1009,1009,1009,,,,,
136883558,1009,1009,1009,1009,,,,,
136886057,1010,1010,1010,1010,,,,,
136888556,1011,1011,1011,1011,,,,,
136891055,1012,1012,1012,1012,,,,,
136893554,1012,1012,1012,1012,,,,,
136896053,1013,1013,1013,1013,,,,,
136898552,1014,1014,1014,1014,,,,,
136901051,1015,1015,1015,1015,,,,,
136903550,1015,1015,1015,1015,,,,,
136906049,1016,1016,1016,1016,,,,,
136908548,1017,1017,1017,1017,,,,,
136911047,1018,1018,1018,1018,,,,,
136913546,1018,1018,1018,1018,,,,,
136916045,1019,1019,1019,1019,,,,,
136918544,1020,1020,1020,1020,,,,,
136921043,1021,1021,1021,1021,,,,,
136923542,1021,1021,1021,1021,,,,,
136926041,1022,1022,1022,1022,,,,,
136928540,1023,1023,1023,1023,,,,,
136931039,1024,1024,1024,1024,,,,,
136933538,1024,1024,1024,1024,,,,,
136936037,1025,1025,1025,1025,,,,,
136938536,1026,1026,1026,1026,,,,,
136941035,1027,1027,1027,1027,,,,,
136943534,1027,1027,1027,1027,,,,,
136946033,1028,1028,1028,1028,,,,,
136948532,1029,1029,1029,1029,,,,,
136951031,1030,1030,1030,1030,,,,,
136953530,1030,1030,1030,1030,,,,,
136956029,1031,1031,1031,1031,,,,,
136958528,1032,1032,1032,1032,,,,,
136961027,1033,1033,1033,1033,,,,,
136963526,1033,1033,1033,1033,,,,,
136966025,1034,1034,1034,1034,,,,,
136968524,1035,1035,1035,1035,,,,,
136971023,1036,1036,1036,1036,,,,,
136973522,1036,1036,1036,1036,,,,,
136976021,1037,1037,1037,1037,,,,,
136978520,1038,1038,1038,1038,,,,,
136981019,1039,1039,1039,1039,,,,,
136983518,1039,1039,1039,1039,,,,,
136986017,1040,1040,1040,1040,,,,,
136988516,1041,1041,1041,1041,,,,,
136991015,1042,1042,1042,1042,,,,,
136993514,1042,1042,1042,1042,,,,,
136996013,1043,1043,1043,1043,,,,,
136998512,1044,1044,1044,1044,,,,,
137001011,1045,1045,1045,1045,,,,,
137003510,1045,1045,1045,1045,,,,,
137006009,1046,1046,1046,1046,,,,,
137008508,1047,1047,1047,1047,,,,,
137011007,1048,1048,1048,1048,,,,,
137013506,1048,1048,1048,1048,,,,,
137016005,1049,1049,1049,1049,,,,,
137018504,1050,1050,1050,1050,,,,,
137021003,1051,1051,1051,1051,,,,,
137023502,1051,1051,1051,1051,,,,,
137026001,1052,1052,1052,1052,,,,,
137028500,1053,1053,1053,1053,,,,,
137030999,1054,1054,1054,1054,,,,,
137033498,1054,1054,1054,1054,,,,,
137035997,1055,1055,1055,1055,,,,,
137038496,1056,1056,1056,1056,,,,,
137040995,1057,1057,1057,1057,,,,,
137043494,1057,1057,1057,1057,,,,,
137045993,1058,1058,1058,1058,,,,,
137048492,1059,1059,1059,1059,,,,,
137050991,1060,1060,1060,1060,,,,,
137053490,1060,1060,1060,1060,,,,,
137055989,1061,1061,1061,1061,,,,,
137058488,1062,1062,1062,1062,,,,,
137060987,1063,1063,1063,1063,,,,,
137063486,1063,1063,1063,1063,,,,,
137065985,1064,1064,1064,1064,,,,,
137068484,1065,1065,1065,1065,,,,,
137070983,1066,1066,1066,1066,,,,,
137073482,1066,1066,1066,1066,,,,,
137075981,1067,1067,1067,1067,,,,,
137078480,1068,1068,1068,1068,,,,,
137080979,1069,1069,1069,1069,,,,,
137083478,1069,1069,1069,1069,,,,,
137085977,1070,1070,1070,1070,,,,,
137088476,1071,1071,1071,1071,,,,,
137090975,1072,1072,1072,1072,,,,,
137093474,1072,1072,1072,1072,,,,,
137095973,1073,1073,1073,1073,,,,,
137098472,1074,1074,1074,1074,,,,,
137100971,1075,1075,1075,1075,,,,,
137103470,1075,1075,1075,1075,,,,,
137105969,1076,1076,1076,1076,,,,,
137108468,1077,1077,1077,1077,,,,,
137110967,1078,1078,1078,1078,,,,,
137113466,1078,1078,1078,1078,,,,,
137115965,1079,1079,1079,1079,,,,,
137118464,1080,1080,1080,1080,,,,,
137120963,1081,1081,1081,1081,,,,,
137123462,1081,1081,1081,1081,,,,,
137125961,1082,1082,1082,1082,,,,,
137128460,1083,1083,1083,1083,,,,,
137130959,1084,1084,1084,1084,,,,,
137133458,1084,1084,1084,1084,,,,,
137135957,1085,1085,1085,1085,,,,,
137138456,1086,1086,1086,1086,,,,,
137140955,1087,1087,1087,1087,,,,,
137143454,1087,1087,1087,1087,,,,,
137145953,1088,1088,1088,1088,,,,,
137148452,1089,1089,1089,1089,,,,,
137150951,1090,1090,1090,1090,,,,,
137153450,1090,1090,1090,1090,,,,,
137155949,1091,1091,1091,1091,,,,,
137158448,1092,1092,1092,1092,,,,,
137160947,1093,1093,1093,1093,,,,,
137163446,1093,1093,1093,1093,,,,,
137165945,1094,1094,1094,1094,,,,,
137168444,1095,1095,1095,1095,,,,,
137170943,1096,1096,1096,1096,,,,,
137173442,1096,1096,1096,1096,,,,,
137175941,1097,1097,1097,1097,,,,,
137178440,1098,1098,1098,1098,,,,,
137180939,1099,1099,1099,1099,,,,,
137183438,1099,1099,1099,1099,,,,,
137185937,1100,1100,1100,1100,,,,,
137188436,1101,1101,1101,1101,,,,,
137190935,1101,1101,1101,1101,,,,,
137193434,1102,1102,1102,1102,,,,,
137195933,1103,1103,1103,1103,,,,,
137198432,1104,1104,1104,1104,,,,,
137200931,1104,1104,1104,1104,,,,,
137203430,1105,1105,1105,1105,,,,,
137205929,1106,1106,1106,1106,,,,,
137208428,1107,1107,1107,1107,,,,,
137210927,1107,1107,1107,1107,,,,,
137213426,1108,1108,1108,1108,,,,,
137215925,1109,1109,1109,1109,,,,,
137218424,1110,1110,1110,1110,,,,,
137220923,1110,1110,1110,1110,,,,,
137223422,1111,1111,1111,1111,,,,,
137225921,1112,1112,1112,1112,,,,,
137228420,1113,1113,1113,1113,,,,,
137230919,1113,1113,1113,1113,,,,,
137233418,1114,1114,1114,1114,,,,,
137235917,1115,1115,1115,1115,,,,,
137238416,1116,1116,1116,1116,,,,,
137240915,1116,1116,1116,1116,,,,,
137243414,1117,1117,1117,1117,,,,,
137245913,1118,1118,1118,1118,,,,,
137248412,1119,1119,1119,1119,,,,,
137250911,1119,1119,1119,1119,,,,,
137253410,1120,1120,1120,1120,,,,,
137255909,1121,1121,1121,1121,,,,,
137258408,1122,1122,1122,1122,,,,,
137260907,1122,1122,1122,1122,,,,,
137263406,1123,1123,1123,1123,,,,,
137265905,1124,1124,1124,1124,,,,,
137268404,1125,1125,1125,1125,,,,,
137270903,1125,1125,1125,1125,,,,,
137273402,1126,1126,1126,1126,,,,,
137275901,1127,1127,1127,1127,,,,,
137278400,1128,1128,1128,1128,,,,,
137280899,1128,1128,1128,1128,,,,,
137283398,1129,1129,1129,1129,,,,,
137285897,1130,1130,1130,1130,,,,,
137288396,1131,1131,1131,1131,,,,,
137290895,1131,1131,1131,1131,,,,,
137293394,1132,1132,1132,1132,,,,,
137295893,1133,1133,1133,1133,,,,,
137298392,1134,1134,1134,1134,,,,,
137300891,1134,1134,1134,1134,,,,,
137303390,1135,1135,1135,1135,,,,,
137305889,1136,1136,1136,1136,,,,,
137308388,1137,1137,1137,1137,,,,,
137310887,1137,1137,1137,1137,,,,,
137313386,1138,1138,1138,1138,,,,,
137315885,1139,1139,1139,1139,,,,,
137318384,1140,1140,1140,1140,,,,,
137320883,1140,1140,1140,1140,,,,,
137323382,1141,1141,1141,1141,,,,,
137325881,1142,1142,1142,1142,,,,,
137328380,1143,1143,1143,1143,,,,,
137330879,1143,1143,1143,1143,,,,,
137333378,1144,1144,1144,1144,,,,,
137335877,1145,1145,1145,1145,,,,,
137338376,1146,1146,1146,1146,,,,,
137340875,1146,1146,1146,1146,,,,,
137343374,1147,1147,1147,1147,,,,,
137345873,1148,1148,1148,1148,,,,,
137348372,1149,1149,1149,1149,,,,,
137350871,1149,1149,1149,1149,,,,,
137353370,1150,1150,1150,1150,,,,,
137355869,1165,1150,1151,1166,,,,,
137358368,1176,1154,1155,1178,,,,,
137360867,1184,1162,1163,1185,,,,,
137363366,1192,1170,1171,1193,,,,,
137365865,1199,1177,1179,1200,,,,,
137368364,1206,1185,1187,1208,,,,,
137370863,1214,1193,1194,1215,,,,,
137373362,1221,1200,1201,1222,,,,,
137375861,1228,1207,1209,1229,,,,,
137378360,1235,1215,1216,1236,,,,,
137380859,1241,1222,1223,1243,,,,,
137383358,1248,1229,1230,1249,,,,,
137385857,1255,1235,1237,1256,,,,,
137388356,1261,1242,1244,1262,,,,,
137390855,1268,1249,1250,1269,,,,,
137393354,1274,1255,1257,1275,,,,,
137395853,1280,1262,1263,1281,,,,,
137398352,1287,1268,1270,1288,,,,,
137400851,1293,1275,1276,1294,,,,,
137403350,1299,1281,1282,1300,,,,,
137405849,1305,1287,1288,1306,,,,,
137408348,1311,1293,1294,1312,,,,,
137410847,1317,1299,1301,1318,,,,,
137413346,1323,1305,1307,1324,,,,,
137415845,1328,1311,1312,1329,,,,,
137418344,1334,1317,1318,1335,,,,,
137420843,1340,1323,1324,1341,,,,,
137423342,1345,1329,1330,1346,,,,,
137425841,1351,1334,1336,1352,,,,,
137428340,1357,1340,1341,1357,,,,,
137430839,1362,1346,1347,1363,,,,,
137433338,1367,1351,1352,1368,,,,,
137435837,1373,1357,1358,1374,,,,,
137438336,1378,1362,1363,1379,,,,,
137440835,1383,1367,1368,1384,,,,,
137443334,1389,1373,1374,1389,,,,,
137445833,1394,1378,1379,1395,,,,,
137448332,1399,1383,1384,1400,,,,,
137450831,1404,1388,1389,1405,,,,,
137453330,1409,1394,1395,1410,,,,,
137455829,1414,1399,1400,1415,,,,,
137458328,1419,1404,1405,1420,,,,,
137460827,1424,1409,1410,1425,,,,,
137463326,1429,1414,1415,1430,,,,,
137465825,1434,1419,1420,1435,,,,,
137468324,1439,1424,1425,1440,,,,,
137470823,1444,1429,1429,1444,,,,,
137473322,1448,1433,1434,1449,,,,,
137475821,1453,1438,1439,1454,,,,,
137478320,1458,1443,1444,1459,,,,,
137480819,1463,1448,1449,1463,,,,,
137483318,1467,1452,1453,1468,,,,,
137485817,1472,1457,1458,1473,,,,,
137488316,1477,1462,1463,1477,,,,,
137490815,1481,1466,1467,1482,,,,,
137493314,1486,1471,1472,1486,,,,,
137495813,1490,1475,1476,1491,,,,,
137498312,1495,1480,1481,1495,,,,,
137500811,1499,1484,1485,1500,,,,,
137503310,1504,1489,1490,1504,,,,,
137505809,1508,1493,1494,1509,,,,,
137508308,1512,1498,1499,1513,,,,,
137510807,1517,1502,1503,1518,,,,,
137513306,1521,1506,1507,1522,,,,,
137515805,1525,1511,1512,1526,,,,,
137518304,1530,1515,1516,1530,,,,,
137520803,1534,1519,1520,1535,,,,,
137523302,1538,1524,1525,1539,,,,,
137525801,1543,1528,1529,1543,,,,,
137528300,1547,1532,1533,1547,,,,,
137530799,1551,1536,1537,1551,,,,,
137533298,1555,1541,1542,1556,,,,,
137535797,1559,1545,1546,1560,,,,,
137538296,1563,1549,1550,1564,,,,,
137540795,1567,1553,1554,1568,,,,,
137543294,1571,1557,1558,1572,,,,,
137545793,1575,1561,1562,1576,,,,,
137548292,1579,1565,1566,1580,,,,,
137550791,1583,1569,1570,1584,,,,,
137553290,1587,1573,1575,1588,,,,,
137555789,1591,1577,1579,1592,,,,,
137558288,1595,1581,1583,1596,,,,,
137560787,1599,1585,1587,1600,,,,,
137563286,1603,1589,1591,1603,,,,,
137565785,1607,1593,1594,1607,,,,,
137568284,1611,1597,1598,1611,,,,,
137570783,1615,1601,1602,1615,,,,,
137573282,1619,1605,1606,1619,,,,,
137575781,1622,1609,1610,1623,,,,,
137578280,1626,1613,1614,1626,,,,,
137580779,1630,1616,1618,1630,,,,,
137583278,1634,1620,1622,1634,,,,,
137585777,1638,1624,1625,1638,,,,,
137588276,1641,1628,1629,1641,,,,,
137590775,1645,1632,1633,1645,,,,,
137593274,1649,1635,1637,1649,,,,,
137595773,1652,1639,1640,1653,,,,,
137598272,1656,1643,1644,1656,,,,,
137600771,1660,1646,1648,1660,,,,,
137603270,1663,1650,1651,1664,,,,,
137605769,1667,1654,1655,1667,,,,,
137608268,1671,1657,1659,1671,,,,,
137610767,1674,1661,1662,1674,,,,,
137613266,1678,1665,1666,1678,,,,,
137615765,1681,1668,1670,1682,,,,,
137618264,1685,1672,1673,1685,,,,,
137620763,1689,1676,1677,1689,,,,,
137623262,1692,1679,1680,1692,,,,,
137625761,1696,1683,1684,1696,,,,,
137628260,1699,1686,1687,1699,,,,,
137630759,1703,1690,1691,1703,,,,,
137633258,1706,1693,1694,1706,,,,,
137635757,1710,1697,1698,1710,,,,,
137638256,1713,1700,1701,1713,,,,,
137640755,1717,1704,1705,1717,,,,,
137643254,1720,1707,1708,1720,,,,,
137645753,1723,1711,1712,1724,,,,,
137648252,1727,1714,1715,1727,,,,,
137650751,1730,1717,1719,1730,,,,,
137653250,1734,1721,1722,1734,,,,,
137655749,1737,1724,1725,1737,,,,,
137658248,1740,1728,1729,1741,,,,,
137660747,1744,1731,1732,1744,,,,,
137663246,1747,1734,1735,1747,,,,,
137665745,1750,1738,1739,1751,,,,,
137668244,1754,1741,1742,1754,,,,,
137670743,1757,1744,1745,1757,,,,,
137673242,1760,1748,1749,1761,,,,,
137675741,1764,1751,1752,1764,,,,,
137678240,1767,1754,1755,1767,,,,,
137680739,1770,1758,1758,1771,,,,,
137683238,1773,1761,1762,1774,,,,,
137685737,1777,1764,1765,1777,,,,,
137688236,1780,1768,1768,1780,,,,,
137690735,1783,1771,1771,1784,,,,,
137693234,1786,1774,1775,1787,,,,,
137695733,1789,1777,1778,1790,,,,,
137698232,1793,1781,1781,1793,,,,,
137700731,1796,1784,1784,1797,,,,,
137703230,1799,1787,1787,1800,,,,,
137705729,1802,1790,1791,1803,,,,,
137708228,1805,1793,1794,1806,,,,,
137710727,1808,1796,1797,1809,,,,,
137713226,1812,1800,1800,1812,,,,,
137715725,1815,1803,1803,1816,,,,,
137718224,1818,1806,1806,1819,,,,,
137720723,1821,1809,1809,1822,,,,,
137723222,1824,1812,1812,1825,,,,,
137725721,1827,1815,1816,1828,,,,,
137728220,1830,1818,1819,1831,,,,,
137730719,1833,1821,1822,1834,,,,,
137733218,1836,1825,1825,1837,,,,,
137735717,1839,1828,1828,1840,,,,,
137738216,1842,1831,1831,1843,,,,,
137740715,1845,1834,1834,1847,,,,,
137743214,1848,1837,1837,1850,,,,,
137745713,1851,1840,1840,1853,,,,,
137748212,1855,1843,1843,1856,,,,,
137750711,1858,1846,1846,1859,,,,,
137753210,1861,1849,1849,1862,,,,,
137755709,1864,1852,1852,1865,,,,,
137758208,1867,1855,1855,1868,,,,,
137760707,1869,1858,1858,1871,,,,,
137763206,1872,1861,1861,1874,,,,,
137765705,1875,1864,1864,1877,,,,,
137768204,1878,1867,1867,1880,,,,,
137770703,1881,1870,1870,1883,,,,,
137773202,1881,1869,1869,1882,,,,,
137775701,1880,1868,1868,1881,,,,,
137778200,1879,1867,1867,1880,,,,,
137780699,1878,1866,1866,1879,,,,,
137783198,1876,1864,1865,1878,,,,,
137785697,1875,1863,1864,1876,,,,,
137788196,1874,1862,1862,1875,,,,,
137790695,1873,1861,1861,1874,,,,,
137793194,1872,1860,1861,1873,,,,,
137795693,1872,1859,1860,1873,,,,,
137798192,1871,1859,1859,1872,,,,,
137800691,1870,1858,1858,1871,,,,,
137803190,1870,1857,1858,1871,,,,,
137805689,1869,1857,1857,1870,,,,,
137808188,1869,1856,1857,1870,,,,,
137810687,1869,1856,1856,1870,,,,,
137813186,1868,1856,1856,1869,,,,,
137815685,1868,1856,1856,1869,,,,,
137818184,1868,1856,1856,1869,,,,,
137820683,1869,1856,1856,1870,,,,,
137823182,1869,1856,1856,1870,,,,,
137825681,1869,1856,1857,1870,,,,,
137828180,1869,1856,1857,1870,,,,,
137830679,1870,1857,1857,1871,,,,,
137833178,1870,1857,1857,1871,,,,,
137835677,1870,1858,1858,1871,,,,,
137838176,1871,1858,1858,1872,,,,,
137840675,1872,1859,1859,1873,,,,,
137843174,1872,1859,1860,1873,,,,,
137845673,1873,1860,1860,1874,,,,,
137848172,1874,1861,1861,1875,,,,,
137850671,1874,1862,1862,1875,,,,,
137853170,1875,1862,1863,1876,,,,,
137855669,1875,1863,1864,1876,,,,,
137858168,1876,1864,1865,1877,,,,,
137860667,1876,1865,1865,1877,,,,,
137863166,1877,1866,1866,1878,,,,,
137865665,1877,1866,1867,1878,,,,,
137868164,1877,1867,1867,1878,,,,,
137870663,1877,1867,1868,1878,,,,,
137873162,1877,1867,1868,1878,,,,,
137875661,1876,1867,1868,1877,,,,,
137878160,1876,1867,1867,1877,,,,,
137880659,1875,1867,1867,1876,,,,,
137883158,1875,1866,1866,1875,,,,,
137885657,1874,1865,1866,1874,,,,,
137888156,1873,1864,1865,1873,,,,,
137890655,1871,1863,1864,1872,,,,,
137893154,1870,1862,1862,1871,,,,,
137896486,1869,1860,1861,1869,,,,,
137898985,1867,1859,1860,1867,,,,,
137901484,1865,1857,1858,1865,,,,,
137903983,1863,1855,1856,1863,,,,,
137906482,1861,1853,1854,1861,,,,,
137908981,1859,1851,1852,1859,,,,,
137911480,1857,1849,1850,1857,,,,,
137913979,1854,1846,1848,1854,,,,,
137916478,1852,1844,1845,1852,,,,,
137918977,1849,1842,1843,1849,,,,,
137921476,1846,1839,1840,1847,,,,,
137923975,1844,1836,1838,1844,,,,,
137926474,1841,1834,1835,1841,,,,,
137928973,1838,1831,1832,1838,,,,,
137931472,1835,1828,1829,1835,,,,,
