timestamp,TimeUS,C1,C2,C3,C4,C5,C6,C7,C8,C9,C10,C11,C12,C13,C14
1706598662.50003982,94328920,1000,1000,1000,1000,0,0,0,0,0,0,0,0,0,0
1706598662.59999990,94428880,1000,1000,1000,1000,0,0,0,0,0,0,0,0,0,0
1706598662.69995999,94528840,1000,1000,1000,1000,0,0,0,0,0,0,0,0,0,0
1706598662.79991984,94628800,1000,1000,1000,1000,0,0,0,0,0,0,0,0,0,0
1706598662.89987993,94728760,1000,1000,1000,1000,0,0,0,0,0,0,0,0,0,0
1706598662.99984002,94828720,1000,1000,1000,1000,0,0,0,0,0,0,0,0,0,0
1706598663.09979987,94928680,1000,1000,1000,1000,0,0,0,0,0,0,0,0,0,0
1706598663.19975996,95028640,1000,1000,1000,1000,0,0,0,0,0,0,0,0,0,0
1706598663.29971981,95128600,1000,1000,1000,1000,0,0,0,0,0,0,0,0,0,0
1706598663.39967990,95228560,1000,1000,1000,1000,0,0,0,0,0,0,0,0,0,0
1706598663.49963999,95328520,1000,1000,1000,1000,0,0,0,0,0,0,0,0,0,0
1706598663.59959984,95428480,1000,1000,1000,1000,0,0,0,0,0,0,0,0,0,0
1706598663.69955993,95528440,1000,1000,1000,1000,0,0,0,0,0,0,0,0,0,0
1706598663.79952002,95628400,1000,1000,1000,1000,0,0,0,0,0,0,0,0,0,0
1706598663.89947987,95728360,1000,1000,1000,1000,0,0,0,0,0,0,0,0,0,0
1706598663.99943995,95828320,1000,1000,1000,1000,0,0,0,0,0,0,0,0,0,0
1706598664.09940004,95928280,1000,1000,1000,1000,0,0,0,0,0,0,0,0,0,0
1706598664.19935989,96028240,1000,1000,1000,1000,0,0,0,0,0,0,0,0,0,0
1706598664.29931998,96128200,1000,1000,1000,1000,0,0,0,0,0,0,0,0,0,0
1706598664.39927983,96228160,1000,1000,1000,1000,0,0,0,0,0,0,0,0,0,0
1706598664.50007296,96328953,1018,1018,1018,1018,0,0,0,0,0,0,0,0,0,0
1706598664.60003304,96428913,1048,1048,1048,1048,0,0,0,0,0,0,0,0,0,0
1706598664.69999290,96528873,1078,1078,1078,1078,0,0,0,0,0,0,0,0,0,0
1706598664.79995298,96628833,1108,1108,1108,1108,0,0,0,0,0,0,0,0,0,0
1706598664.89991283,96728793,1138,1138,1138,1138,0,0,0,0,0,0,0,0,0,0
1706598664.99987292,96828753,1320,1309,1309,1320,0,0,0,0,0,0,0,0,0,0
1706598665.09983301,96928713,1519,1509,1510,1519,0,0,0,0,0,0,0,0,0,0
1706598665.19979286,97028673,1676,1667,1668,1676,0,0,0,0,0,0,0,0,0,0
1706598665.29975295,97128633,1810,1802,1802,1810,0,0,0,0,0,0,0,0,0,0
1706598665.39971304,97228593,1905,1896,1897,1905,0,0,0,0,0,0,0,0,0,0
1706598665.49967289,97328553,1863,1858,1859,1863,0,0,0,0,0,0,0,0,0,0
1706598665.59963298,97428513,1729,1728,1729,1729,0,0,0,0,0,0,0,0,0,0
1706598665.69959283,97528473,1640,1642,1642,1640,0,0,0,0,0,0,0,0,0,0
1706598665.79955292,97628433,1616,1621,1620,1617,0,0,0,0,0,0,0,0,0,0
1706598665.89951301,97728393,1623,1626,1626,1623,0,0,0,0,0,0,0,0,0,0
1706598665.99947286,97828353,1630,1632,1632,1630,0,0,0,0,0,0,0,0,0,0
1706598666.09943295,97928313,1628,1627,1627,1628,0,0,0,0,0,0,0,0,0,0
1706598666.19939303,98028273,1622,1620,1620,1622,0,0,0,0,0,0,0,0,0,0
1706598666.29935288,98128233,1615,1613,1614,1615,0,0,0,0,0,0,0,0,0,0
1706598666.39931297,98228193,1611,1610,1609,1611,0,0,0,0,0,0,0,0,0,0
1706598666.50010586,98328986,1611,1610,1610,1610,0,0,0,0,0,0,0,0,0,0
1706598666.60006595,98428946,1611,1611,1611,1611,0,0,0,0,0,0,0,0,0,0
1706598666.70002604,98528906,1613,1614,1613,1613,0,0,0,0,0,0,0,0,0,0
1706598666.79998589,98628866,1615,1616,1616,1615,0,0,0,0,0,0,0,0,0,0
1706598666.89994597,98728826,1605,1606,1606,1605,0,0,0,0,0,0,0,0,0,0
1706598666.99990582,98828786,1578,1579,1578,1579,0,0,0,0,0,0,0,0,0,0
1706598667.09986591,98928746,1566,1564,1562,1568,0,0,0,0,0,0,0,0,0,0
1706598667.19982600,99028706,1556,1555,1553,1557,0,0,0,0,0,0,0,0,0,0
1706598667.29978585,99128666,1546,1545,1545,1547,0,0,0,0,0,0,0,0,0,0
1706598667.39974594,99228626,1537,1537,1537,1536,0,0,0,0,0,0,0,0,0,0
1706598667.49970603,99328586,1529,1529,1530,1528,0,0,0,0,0,0,0,0,0,0
1706598667.59966588,99428546,1519,1519,1520,1519,0,0,0,0,0,0,0,0,0,0
1706598667.69962597,99528506,1516,1515,1516,1516,0,0,0,0,0,0,0,0,0,0
1706598667.79958582,99628466,1514,1515,1514,1515,0,0,0,0,0,0,0,0,0,0
1706598667.89954591,99728426,1515,1515,1515,1516,0,0,0,0,0,0,0,0,0,0
1706598667.99950600,99828386,1516,1516,1516,1517,0,0,0,0,0,0,0,0,0,0
1706598668.09946585,99928346,1516,1516,1516,1517,0,0,0,0,0,0,0,0,0,0
1706598668.19942594,100028306,1518,1518,1517,1518,0,0,0,0,0,0,0,0,0,0
1706598668.29938602,100128266,1521,1521,1521,1521,0,0,0,0,0,0,0,0,0,0
1706598668.39934587,100228226,1536,1537,1542,1531,0,0,0,0,0,0,0,0,0,0
1706598668.49930596,100328186,1544,1544,1548,1541,0,0,0,0,0,0,0,0,0,0
1706598668.60009885,100428979,1550,1550,1549,1551,0,0,0,0,0,0,0,0,0,0
1706598668.70005894,100528939,1554,1553,1550,1557,0,0,0,0,0,0,0,0,0,0
1706598668.80001903,100628899,1555,1555,1550,1560,0,0,0,0,0,0,0,0,0,0
1706598668.89997888,100728859,1557,1557,1553,1561,0,0,0,0,0,0,0,0,0,0
1706598668.99993896,100828819,1559,1560,1557,1562,0,0,0,0,0,0,0,0,0,0
1706598669.09989882,100928779,1562,1562,1563,1561,0,0,0,0,0,0,0,0,0,0
1706598669.19985890,101028739,1565,1565,1568,1562,0,0,0,0,0,0,0,0,0,0
1706598669.29981899,101128699,1567,1567,1570,1564,0,0,0,0,0,0,0,0,0,0
1706598669.39977884,101228659,1568,1569,1571,1566,0,0,0,0,0,0,0,0,0,0
1706598669.49973893,101328619,1569,1568,1569,1568,0,0,0,0,0,0,0,0,0,0
1706598669.59969902,101428579,1568,1568,1567,1569,0,0,0,0,0,0,0,0,0,0
1706598669.69965887,101528539,1568,1566,1568,1572,0,0,0,0,0,0,0,0,0,0
1706598669.79961896,101628499,1564,1564,1568,1572,0,0,0,0,0,0,0,0,0,0
1706598669.89957881,101728459,1564,1564,1568,1572,0,0,0,0,0,0,0,0,0,0
1706598669.99953890,101828419,1565,1565,1569,1570,0,0,0,0,0,0,0,0,0,0
1706598670.09949899,101928379,1566,1566,1569,1569,0,0,0,0,0,0,0,0,0,0
1706598670.19945884,102028339,1566,1567,1569,1567,0,0,0,0,0,0,0,0,0,0
1706598670.29941893,102128299,1569,1569,1569,1568,0,0,0,0,0,0,0,0,0,0
1706598670.39937901,102228259,1570,1570,1568,1567,0,0,0,0,0,0,0,0,0,0
1706598670.49933887,102328219,1571,1571,1567,1568,0,0,0,0,0,0,0,0,0,0
1706598670.59929895,102428179,1571,1571,1567,1567,0,0,0,0,0,0,0,0,0,0
1706598670.70009184,102528972,1572,1572,1568,1568,0,0,0,0,0,0,0,0,0,0
1706598670.80005193,102628932,1572,1573,1569,1569,0,0,0,0,0,0,0,0,0,0
1706598670.90001202,102728892,1573,1573,1570,1570,0,0,0,0,0,0,0,0,0,0
1706598670.99997187,102828852,1574,1574,1572,1572,0,0,0,0,0,0,0,0,0,0
1706598671.09993196,102928812,1573,1573,1573,1572,0,0,0,0,0,0,0,0,0,0
1706598671.19989204,103028772,1573,1573,1574,1573,0,0,0,0,0,0,0,0,0,0
1706598671.29985189,103128732,1574,1574,1575,1574,0,0,0,0,0,0,0,0,0,0
1706598671.39981198,103228692,1575,1575,1576,1575,0,0,0,0,0,0,0,0,0,0
1706598671.49977183,103328652,1576,1576,1577,1577,0,0,0,0,0,0,0,0,0,0
1706598671.59973192,103428612,1576,1576,1577,1577,0,0,0,0,0,0,0,0,0,0
1706598671.69969201,103528572,1577,1576,1577,1577,0,0,0,0,0,0,0,0,0,0
1706598671.79965186,103628532,1576,1576,1577,1577,0,0,0,0,0,0,0,0,0,0
1706598671.89961195,103728492,1577,1577,1577,1578,0,0,0,0,0,0,0,0,0,0
1706598671.99957204,103828452,1577,1577,1577,1577,0,0,0,0,0,0,0,0,0,0
1706598672.09953189,103928412,1576,1576,1576,1577,0,0,0,0,0,0,0,0,0,0
1706598672.19949198,104028372,1578,1578,1577,1578,0,0,0,0,0,0,0,0,0,0
1706598672.29945183,104128332,1578,1578,1577,1577,0,0,0,0,0,0,0,0,0,0
1706598672.39941192,104228292,1578,1578,1578,1578,0,0,0,0,0,0,0,0,0,0
1706598672.49937201,104328252,1578,1578,1578,1578,0,0,0,0,0,0,0,0,0,0
1706598672.59933186,104428212,1579,1578,1578,1578,0,0,0,0,0,0,0,0,0,0
1706598672.69929194,104528172,1579,1579,1579,1579,0,0,0,0,0,0,0,0,0,0
1706598672.80008483,104628965,1579,1579,1579,1579,0,0,0,0,0,0,0,0,0,0
1706598672.90004492,104728925,1578,1579,1579,1578,0,0,0,0,0,0,0,0,0,0
1706598673.00000501,104828885,1578,1579,1579,1579,0,0,0,0,0,0,0,0,0,0
1706598673.09996486,104928845,1578,1578,1578,1578,0,0,0,0,0,0,0,0,0,0
1706598673.19992495,105028805,1579,1579,1578,1579,0,0,0,0,0,0,0,0,0,0
1706598673.29988503,105128765,1579,1578,1579,1579,0,0,0,0,0,0,0,0,0,0
1706598673.39984488,105228725,1580,1579,1580,1579,0,0,0,0,0,0,0,0,0,0
1706598673.49980497,105328685,1579,1579,1579,1579,0,0,0,0,0,0,0,0,0,0
1706598673.59976482,105428645,1579,1579,1579,1579,0,0,0,0,0,0,0,0,0,0
1706598673.69972491,105528605,1578,1578,1579,1579,0,0,0,0,0,0,0,0,0,0
1706598673.79968500,105628565,1579,1580,1580,1580,0,0,0,0,0,0,0,0,0,0
1706598673.89964485,105728525,1580,1579,1580,1580,0,0,0,0,0,0,0,0,0,0
1706598673.99960494,105828485,1580,1580,1580,1580,0,0,0,0,0,0,0,0,0,0
1706598674.09956503,105928445,1580,1579,1580,1580,0,0,0,0,0,0,0,0,0,0
1706598674.19952488,106028405,1579,1579,1579,1579,0,0,0,0,0,0,0,0,0,0
1706598674.29948497,106128365,1579,1579,1579,1579,0,0,0,0,0,0,0,0,0,0
1706598674.39944482,106228325,1579,1580,1580,1580,0,0,0,0,0,0,0,0,0,0
1706598674.49940491,106328285,1580,1580,1580,1580,0,0,0,0,0,0,0,0,0,0
1706598674.59936500,106428245,1581,1581,1581,1581,0,0,0,0,0,0,0,0,0,0
1706598674.69932485,106528205,1581,1581,1581,1581,0,0,0,0,0,0,0,0,0,0
1706598674.79928493,106628165,1581,1581,1581,1581,0,0,0,0,0,0,0,0,0,0
1706598674.90007782,106728958,1581,1581,1581,1581,0,0,0,0,0,0,0,0,0,0
1706598675.00003791,106828918,1581,1581,1581,1581,0,0,0,0,0,0,0,0,0,0
1706598675.09999800,106928878,1581,1580,1581,1580,0,0,0,0,0,0,0,0,0,0
1706598675.19995785,107028838,1580,1579,1580,1580,0,0,0,0,0,0,0,0,0,0
1706598675.29991794,107128798,1580,1580,1580,1580,0,0,0,0,0,0,0,0,0,0
1706598675.39987803,107228758,1581,1581,1581,1581,0,0,0,0,0,0,0,0,0,0
1706598675.49983788,107328718,1581,1581,1581,1582,0,0,0,0,0,0,0,0,0,0
1706598675.59979796,107428678,1581,1581,1581,1581,0,0,0,0,0,0,0,0,0,0
1706598675.69975781,107528638,1582,1582,1582,1582,0,0,0,0,0,0,0,0,0,0
1706598675.79971790,107628598,1581,1582,1582,1581,0,0,0,0,0,0,0,0,0,0
1706598675.89967799,107728558,1582,1582,1582,1581,0,0,0,0,0,0,0,0,0,0
1706598675.99963784,107828518,1581,1582,1589,1574,0,0,0,0,0,0,0,0,0,0
1706598676.09959793,107928478,1581,1583,1585,1574,0,0,0,0,0,0,0,0,0,0
1706598676.19955802,108028438,1579,1582,1576,1573,0,0,0,0,0,0,0,0,0,0
1706598676.29951787,108128398,1578,1581,1568,1572,0,0,0,0,0,0,0,0,0,0
1706598676.39947796,108228358,1577,1579,1561,1568,0,0,0,0,0,0,0,0,0,0
1706598676.49943805,108328318,1579,1579,1557,1563,0,0,0,0,0,0,0,0,0,0
1706598676.59939790,108428278,1580,1578,1555,1558,0,0,0,0,0,0,0,0,0,0
1706598676.69935799,108528238,1580,1579,1555,1556,0,0,0,0,0,0,0,0,0,0
1706598676.79931784,108628198,1580,1580,1556,1554,0,0,0,0,0,0,0,0,0,0
1706598676.89927793,108728158,1579,1578,1556,1553,0,0,0,0,0,0,0,0,0,0
1706598677.00007081,108828951,1578,1579,1556,1553,0,0,0,0,0,0,0,0,0,0
1706598677.10003090,108928911,1577,1579,1555,1554,0,0,0,0,0,0,0,0,0,0
1706598677.19999099,109028871,1576,1577,1554,1553,0,0,0,0,0,0,0,0,0,0
1706598677.29995084,109128831,1575,1577,1552,1553,0,0,0,0,0,0,0,0,0,0
1706598677.39991093,109228791,1577,1578,1552,1552,0,0,0,0,0,0,0,0,0,0
1706598677.49987102,109328751,1578,1578,1550,1550,0,0,0,0,0,0,0,0,0,0
1706598677.59983087,109428711,1580,1580,1547,1547,0,0,0,0,0,0,0,0,0,0
1706598677.69979095,109528671,1582,1582,1544,1544,0,0,0,0,0,0,0,0,0,0
1706598677.79975104,109628631,1585,1586,1543,1542,0,0,0,0,0,0,0,0,0,0
1706598677.89971089,109728591,1588,1588,1539,1539,0,0,0,0,0,0,0,0,0,0
1706598677.99967098,109828551,1592,1592,1537,1538,0,0,0,0,0,0,0,0,0,0
1706598678.09963083,109928511,1594,1594,1535,1536,0,0,0,0,0,0,0,0,0,0
1706598678.19959092,110028471,1594,1595,1534,1535,0,0,0,0,0,0,0,0,0,0
1706598678.29955101,110128431,1595,1595,1535,1537,0,0,0,0,0,0,0,0,0,0
1706598678.39951086,110228391,1593,1594,1537,1538,0,0,0,0,0,0,0,0,0,0
1706598678.49947095,110328351,1591,1590,1540,1543,0,0,0,0,0,0,0,0,0,0
1706598678.59943104,110428311,1587,1585,1547,1550,0,0,0,0,0,0,0,0,0,0
1706598678.69939089,110528271,1580,1576,1556,1559,0,0,0,0,0,0,0,0,0,0
1706598678.79935098,110628231,1571,1566,1567,1569,0,0,0,0,0,0,0,0,0,0
1706598678.89931083,110728191,1560,1556,1581,1582,0,0,0,0,0,0,0,0,0,0
1706598679.00010395,110828984,1548,1546,1592,1593,0,0,0,0,0,0,0,0,0,0
1706598679.10006404,110928944,1539,1537,1603,1603,0,0,0,0,0,0,0,0,0,0
1706598679.20002389,111028904,1532,1532,1610,1610,0,0,0,0,0,0,0,0,0,0
1706598679.29998398,111128864,1528,1529,1614,1613,0,0,0,0,0,0,0,0,0,0
1706598679.39994383,111228824,1529,1531,1615,1614,0,0,0,0,0,0,0,0,0,0
1706598679.49990392,111328784,1534,1537,1613,1612,0,0,0,0,0,0,0,0,0,0
1706598679.59986401,111428744,1540,1543,1607,1607,0,0,0,0,0,0,0,0,0,0
1706598679.69982386,111528704,1549,1550,1600,1600,0,0,0,0,0,0,0,0,0,0
1706598679.79978395,111628664,1557,1558,1592,1592,0,0,0,0,0,0,0,0,0,0
1706598679.89974403,111728624,1567,1566,1585,1584,0,0,0,0,0,0,0,0,0,0
1706598679.99970388,111828584,1574,1574,1578,1578,0,0,0,0,0,0,0,0,0,0
1706598680.09966397,111928544,1580,1579,1572,1572,0,0,0,0,0,0,0,0,0,0
1706598680.19962382,112028504,1585,1584,1569,1569,0,0,0,0,0,0,0,0,0,0
1706598680.29958391,112128464,1588,1587,1568,1568,0,0,0,0,0,0,0,0,0,0
1706598680.39954400,112228424,1588,1587,1567,1567,0,0,0,0,0,0,0,0,0,0
1706598680.49950385,112328384,1239,1238,1219,1219,0,0,0,0,0,0,0,0,0,0
1706598680.59946394,112428344,1413,1413,1392,1408,0,0,0,0,0,0,0,0,0,0
1706598680.69942403,112528304,1488,1488,1475,1482,0,0,0,0,0,0,0,0,0,0
1706598680.79938388,112628264,1539,1539,1537,1531,0,0,0,0,0,0,0,0,0,0
1706598680.89934397,112728224,1579,1578,1584,1571,0,0,0,0,0,0,0,0,0,0
1706598680.99930382,112828184,1592,1591,1602,1587,0,0,0,0,0,0,0,0,0,0
1706598681.10009694,112928977,1591,1591,1602,1591,0,0,0,0,0,0,0,0,0,0
1706598681.20005703,113028937,1592,1593,1602,1599,0,0,0,0,0,0,0,0,0,0
1706598681.30001688,113128897,1590,1591,1598,1602,0,0,0,0,0,0,0,0,0,0
1706598681.39997697,113228857,1588,1589,1594,1602,0,0,0,0,0,0,0,0,0,0
1706598681.49993682,113328817,1588,1589,1594,1602,0,0,0,0,0,0,0,0,0,0
1706598681.59989691,113428777,1589,1590,1595,1602,0,0,0,0,0,0,0,0,0,0
1706598681.69985700,113528737,1593,1593,1599,1602,0,0,0,0,0,0,0,0,0,0
1706598681.79981685,113628697,1596,1596,1602,1601,0,0,0,0,0,0,0,0,0,0
1706598681.89977694,113728657,1597,1596,1602,1599,0,0,0,0,0,0,0,0,0,0
1706598681.99973702,113828617,1595,1595,1602,1592,0,0,0,0,0,0,0,0,0,0
1706598682.09969687,113928577,1597,1596,1601,1592,0,0,0,0,0,0,0,0,0,0
1706598682.19965696,114028537,1600,1599,1602,1595,0,0,0,0,0,0,0,0,0,0
1706598682.29961681,114128497,1601,1602,1601,1597,0,0,0,0,0,0,0,0,0,0
1706598682.39957690,114228457,1601,1601,1598,1598,0,0,0,0,0,0,0,0,0,0
1706598682.49953699,114328417,1601,1602,1594,1601,0,0,0,0,0,0,0,0,0,0
1706598682.59949684,114428377,1600,1600,1592,1600,0,0,0,0,0,0,0,0,0,0
1706598682.69945693,114528337,1601,1601,1594,1600,0,0,0,0,0,0,0,0,0,0
1706598682.79941702,114628297,1600,1600,1595,1599,0,0,0,0,0,0,0,0,0,0
1706598682.89937687,114728257,1599,1598,1595,1596,0,0,0,0,0,0,0,0,0,0
1706598682.99933696,114828217,1596,1596,1594,1594,0,0,0,0,0,0,0,0,0,0
1706598683.09929705,114928177,1593,1593,1592,1591,0,0,0,0,0,0,0,0,0,0
1706598683.20008993,115028970,1588,1588,1588,1587,0,0,0,0,0,0,0,0,0,0
1706598683.30005002,115128930,1584,1584,1584,1583,0,0,0,0,0,0,0,0,0,0
1706598683.40000987,115228890,1580,1580,1581,1580,0,0,0,0,0,0,0,0,0,0
1706598683.49996996,115328850,1575,1575,1577,1576,0,0,0,0,0,0,0,0,0,0
1706598683.59992981,115428810,1571,1571,1573,1572,0,0,0,0,0,0,0,0,0,0
1706598683.69988990,115528770,1567,1567,1569,1569,0,0,0,0,0,0,0,0,0,0
1706598683.79984999,115628730,1565,1565,1566,1566,0,0,0,0,0,0,0,0,0,0
1706598683.89980984,115728690,1562,1563,1564,1564,0,0,0,0,0,0,0,0,0,0
1706598683.99976993,115828650,1561,1562,1561,1561,0,0,0,0,0,0,0,0,0,0
1706598684.09973001,115928610,1562,1563,1559,1559,0,0,0,0,0,0,0,0,0,0
1706598684.19968987,116028570,1562,1564,1556,1556,0,0,0,0,0,0,0,0,0,0
1706598684.29964995,116128530,1563,1565,1554,1554,0,0,0,0,0,0,0,0,0,0
1706598684.39961004,116228490,1565,1566,1552,1552,0,0,0,0,0,0,0,0,0,0
1706598684.49956989,116328450,1567,1568,1551,1551,0,0,0,0,0,0,0,0,0,0
1706598684.59952998,116428410,1569,1569,1550,1550,0,0,0,0,0,0,0,0,0,0
1706598684.69948983,116528370,1571,1570,1550,1550,0,0,0,0,0,0,0,0,0,0
1706598684.79944992,116628330,1571,1571,1551,1551,0,0,0,0,0,0,0,0,0,0
1706598684.89941001,116728290,1571,1570,1552,1552,0,0,0,0,0,0,0,0,0,0
1706598684.99936986,116828250,1571,1570,1553,1553,0,0,0,0,0,0,0,0,0,0
1706598685.09932995,116928210,1570,1570,1555,1555,0,0,0,0,0,0,0,0,0,0
1706598685.19929004,117028170,1569,1570,1556,1556,0,0,0,0,0,0,0,0,0,0
1706598685.30008292,117128963,1568,1569,1557,1557,0,0,0,0,0,0,0,0,0,0
1706598685.40004301,117228923,1568,1569,1558,1558,0,0,0,0,0,0,0,0,0,0
1706598685.50000286,117328883,1568,1569,1559,1559,0,0,0,0,0,0,0,0,0,0
1706598685.59996295,117428843,1568,1569,1560,1560,0,0,0,0,0,0,0,0,0,0
1706598685.69992304,117528803,1569,1570,1561,1560,0,0,0,0,0,0,0,0,0,0
1706598685.79988289,117628763,1570,1571,1561,1560,0,0,0,0,0,0,0,0,0,0
1706598685.89984298,117728723,1571,1572,1561,1560,0,0,0,0,0,0,0,0,0,0
1706598685.99980283,117828683,1572,1573,1560,1559,0,0,0,0,0,0,0,0,0,0
1706598686.09976292,117928643,1573,1574,1559,1558,0,0,0,0,0,0,0,0,0,0
1706598686.19972301,118028603,1574,1575,1558,1557,0,0,0,0,0,0,0,0,0,0
1706598686.29968286,118128563,1576,1576,1557,1556,0,0,0,0,0,0,0,0,0,0
1706598686.39964294,118228523,1576,1577,1556,1555,0,0,0,0,0,0,0,0,0,0
1706598686.49960303,118328483,1578,1578,1555,1555,0,0,0,0,0,0,0,0,0,0
1706598686.59956288,118428443,1579,1580,1555,1554,0,0,0,0,0,0,0,0,0,0
1706598686.69952297,118528403,1580,1581,1554,1553,0,0,0,0,0,0,0,0,0,0
1706598686.79948282,118628363,1581,1582,1553,1552,0,0,0,0,0,0,0,0,0,0
1706598686.89944291,118728323,1583,1583,1552,1552,0,0,0,0,0,0,0,0,0,0
1706598686.99940300,118828283,1583,1582,1551,1551,0,0,0,0,0,0,0,0,0,0
1706598687.09936285,118928243,1582,1582,1552,1552,0,0,0,0,0,0,0,0,0,0
1706598687.19932294,119028203,1581,1580,1553,1553,0,0,0,0,0,0,0,0,0,0
1706598687.29928303,119128163,1579,1577,1554,1554,0,0,0,0,0,0,0,0,0,0
1706598687.40007591,119228956,1576,1574,1556,1557,0,0,0,0,0,0,0,0,0,0
1706598687.50003600,119328916,1572,1571,1560,1561,0,0,0,0,0,0,0,0,0,0
1706598687.59999585,119428876,1568,1566,1564,1564,0,0,0,0,0,0,0,0,0,0
1706598687.69995594,119528836,1563,1562,1568,1569,0,0,0,0,0,0,0,0,0,0
1706598687.79991603,119628796,1559,1558,1573,1573,0,0,0,0,0,0,0,0,0,0
1706598687.89987588,119728756,1555,1554,1576,1577,0,0,0,0,0,0,0,0,0,0
1706598687.99983597,119828716,1551,1551,1579,1579,0,0,0,0,0,0,0,0,0,0
1706598688.09979582,119928676,1549,1549,1583,1583,0,0,0,0,0,0,0,0,0,0
1706598688.19975591,120028636,1548,1548,1585,1585,0,0,0,0,0,0,0,0,0,0
1706598688.29971600,120128596,1547,1547,1585,1585,0,0,0,0,0,0,0,0,0,0
1706598688.39967585,120228556,1547,1547,1585,1584,0,0,0,0,0,0,0,0,0,0
1706598688.49963593,120328516,1548,1549,1584,1584,0,0,0,0,0,0,0,0,0,0
1706598688.59959602,120428476,1550,1551,1581,1581,0,0,0,0,0,0,0,0,0,0
1706598688.69955587,120528436,1553,1553,1579,1579,0,0,0,0,0,0,0,0,0,0
1706598688.79951596,120628396,1556,1556,1576,1576,0,0,0,0,0,0,0,0,0,0
1706598688.89947581,120728356,1560,1560,1573,1573,0,0,0,0,0,0,0,0,0,0
1706598688.99943590,120828316,1563,1563,1570,1570,0,0,0,0,0,0,0,0,0,0
1706598689.09939599,120928276,1566,1566,1568,1568,0,0,0,0,0,0,0,0,0,0
1706598689.19935584,121028236,1568,1567,1565,1565,0,0,0,0,0,0,0,0,0,0
1706598689.29931593,121128196,1570,1569,1563,1563,0,0,0,0,0,0,0,0,0,0
1706598689.39927602,121228156,1571,1570,1562,1562,0,0,0,0,0,0,0,0,0,0
1706598689.50006890,121328949,1571,1571,1561,1561,0,0,0,0,0,0,0,0,0,0
1706598689.60002899,121428909,1571,1571,1561,1561,0,0,0,0,0,0,0,0,0,0
1706598689.69998884,121528869,1570,1569,1561,1561,0,0,0,0,0,0,0,0,0,0
1706598689.79994893,121628829,1569,1569,1562,1562,0,0,0,0,0,0,0,0,0,0
1706598689.89990902,121728789,1568,1568,1563,1563,0,0,0,0,0,0,0,0,0,0
1706598689.99986887,121828749,1567,1566,1564,1564,0,0,0,0,0,0,0,0,0,0
1706598690.09982896,121928709,1565,1565,1565,1565,0,0,0,0,0,0,0,0,0,0
1706598690.19978905,122028669,1565,1565,1566,1566,0,0,0,0,0,0,0,0,0,0
1706598690.29974890,122128629,1564,1564,1568,1568,0,0,0,0,0,0,0,0,0,0
1706598690.39970899,122228589,1563,1563,1569,1568,0,0,0,0,0,0,0,0,0,0
1706598690.49966884,122328549,1562,1562,1568,1568,0,0,0,0,0,0,0,0,0,0
1706598690.59962893,122428509,1562,1562,1569,1569,0,0,0,0,0,0,0,0,0,0
1706598690.69958901,122528469,1562,1563,1569,1569,0,0,0,0,0,0,0,0,0,0
1706598690.79954886,122628429,1563,1563,1569,1569,0,0,0,0,0,0,0,0,0,0
1706598690.89950895,122728389,1564,1564,1568,1568,0,0,0,0,0,0,0,0,0,0
1706598690.99946904,122828349,1564,1564,1568,1568,0,0,0,0,0,0,0,0,0,0
1706598691.09942889,122928309,1565,1565,1567,1567,0,0,0,0,0,0,0,0,0,0
1706598691.19938898,123028269,1566,1566,1567,1567,0,0,0,0,0,0,0,0,0,0
1706598691.29934883,123128229,1566,1566,1566,1566,0,0,0,0,0,0,0,0,0,0
1706598691.39930892,123228189,1567,1567,1566,1566,0,0,0,0,0,0,0,0,0,0
1706598691.50010204,123328982,1567,1567,1565,1565,0,0,0,0,0,0,0,0,0,0
1706598691.60006189,123428942,1568,1568,1565,1566,0,0,0,0,0,0,0,0,0,0
1706598691.70002198,123528902,1568,1567,1565,1565,0,0,0,0,0,0,0,0,0,0
1706598691.79998183,123628862,1567,1567,1565,1565,0,0,0,0,0,0,0,0,0,0
1706598691.89994192,123728822,1567,1567,1564,1564,0,0,0,0,0,0,0,0,0,0
1706598691.99990201,123828782,1567,1567,1565,1565,0,0,0,0,0,0,0,0,0,0
1706598692.09986186,123928742,1567,1567,1566,1566,0,0,0,0,0,0,0,0,0,0
1706598692.19982195,124028702,1566,1566,1565,1565,0,0,0,0,0,0,0,0,0,0
1706598692.29978204,124128662,1566,1566,1566,1566,0,0,0,0,0,0,0,0,0,0
1706598692.39974189,124228622,1566,1566,1566,1566,0,0,0,0,0,0,0,0,0,0
1706598692.49970198,124328582,1566,1566,1567,1566,0,0,0,0,0,0,0,0,0,0
1706598692.59966183,124428542,1565,1565,1566,1566,0,0,0,0,0,0,0,0,0,0
1706598692.69962192,124528502,1565,1565,1566,1566,0,0,0,0,0,0,0,0,0,0
1706598692.79958200,124628462,1566,1566,1567,1567,0,0,0,0,0,0,0,0,0,0
1706598692.89954185,124728422,1566,1566,1567,1567,0,0,0,0,0,0,0,0,0,0
1706598692.99950194,124828382,1566,1566,1567,1567,0,0,0,0,0,0,0,0,0,0
1706598693.09946203,124928342,1565,1565,1567,1567,0,0,0,0,0,0,0,0,0,0
1706598693.19942188,125028302,1565,1565,1567,1567,0,0,0,0,0,0,0,0,0,0
1706598693.29938197,125128262,1566,1566,1566,1566,0,0,0,0,0,0,0,0,0,0
1706598693.39934182,125228222,1566,1566,1566,1566,0,0,0,0,0,0,0,0,0,0
1706598693.49930191,125328182,1566,1566,1566,1566,0,0,0,0,0,0,0,0,0,0
1706598693.60009503,125428975,1567,1566,1567,1567,0,0,0,0,0,0,0,0,0,0
1706598693.70005488,125528935,1566,1566,1566,1566,0,0,0,0,0,0,0,0,0,0
1706598693.80001497,125628895,1566,1566,1566,1565,0,0,0,0,0,0,0,0,0,0
1706598693.89997482,125728855,1566,1567,1566,1566,0,0,0,0,0,0,0,0,0,0
1706598693.99993491,125828815,1566,1566,1566,1566,0,0,0,0,0,0,0,0,0,0
1706598694.09989500,125928775,1567,1567,1566,1566,0,0,0,0,0,0,0,0,0,0
1706598694.19985485,126028735,1567,1567,1566,1566,0,0,0,0,0,0,0,0,0,0
1706598694.29981494,126128695,1566,1566,1565,1566,0,0,0,0,0,0,0,0,0,0
1706598694.39977503,126228655,1567,1567,1566,1566,0,0,0,0,0,0,0,0,0,0
1706598694.49973488,126328615,1568,1568,1565,1565,0,0,0,0,0,0,0,0,0,0
1706598694.59969497,126428575,1568,1569,1564,1564,0,0,0,0,0,0,0,0,0,0
1706598694.69965482,126528535,1569,1570,1563,1563,0,0,0,0,0,0,0,0,0,0
1706598694.79961491,126628495,1571,1572,1562,1562,0,0,0,0,0,0,0,0,0,0
1706598694.89957500,126728455,1572,1573,1561,1561,0,0,0,0,0,0,0,0,0,0
1706598694.99953485,126828415,1574,1574,1560,1560,0,0,0,0,0,0,0,0,0,0
1706598695.09949493,126928375,1574,1574,1560,1560,0,0,0,0,0,0,0,0,0,0
1706598695.19945502,127028335,1574,1574,1560,1559,0,0,0,0,0,0,0,0,0,0
1706598695.29941487,127128295,1574,1574,1560,1560,0,0,0,0,0,0,0,0,0,0
1706598695.39937496,127228255,1574,1574,1561,1561,0,0,0,0,0,0,0,0,0,0
1706598695.49933481,127328215,1572,1572,1561,1561,0,0,0,0,0,0,0,0,0,0
1706598695.59929490,127428175,1572,1573,1563,1563,0,0,0,0,0,0,0,0,0,0
1706598695.70008802,127528968,1571,1571,1563,1563,0,0,0,0,0,0,0,0,0,0
1706598695.80004787,127628928,1570,1570,1563,1563,0,0,0,0,0,0,0,0,0,0
1706598695.90000796,127728888,1569,1570,1564,1564,0,0,0,0,0,0,0,0,0,0
1706598695.99996781,127828848,1569,1569,1564,1564,0,0,0,0,0,0,0,0,0,0
1706598696.09992790,127928808,1569,1569,1564,1564,0,0,0,0,0,0,0,0,0,0
1706598696.19988799,128028768,1569,1570,1564,1564,0,0,0,0,0,0,0,0,0,0
1706598696.29984784,128128728,1569,1570,1564,1564,0,0,0,0,0,0,0,0,0,0
1706598696.39980793,128228688,1570,1570,1564,1564,0,0,0,0,0,0,0,0,0,0
1706598696.49976802,128328648,1570,1571,1563,1563,0,0,0,0,0,0,0,0,0,0
1706598696.59972787,128428608,1571,1572,1562,1562,0,0,0,0,0,0,0,0,0,0
1706598696.69968796,128528568,1572,1572,1561,1561,0,0,0,0,0,0,0,0,0,0
1706598696.79964805,128628528,1573,1573,1561,1560,0,0,0,0,0,0,0,0,0,0
1706598696.89960790,128728488,1573,1574,1560,1559,0,0,0,0,0,0,0,0,0,0
1706598696.99956799,128828448,1574,1575,1559,1559,0,0,0,0,0,0,0,0,0,0
1706598697.09952784,128928408,1575,1575,1558,1558,0,0,0,0,0,0,0,0,0,0
1706598697.19948792,129028368,1575,1576,1558,1557,0,0,0,0,0,0,0,0,0,0
1706598697.29944801,129128328,1576,1576,1557,1557,0,0,0,0,0,0,0,0,0,0
1706598697.39940786,129228288,1576,1577,1557,1557,0,0,0,0,0,0,0,0,0,0
1706598697.49936795,129328248,1576,1576,1557,1557,0,0,0,0,0,0,0,0,0,0
1706598697.59932804,129428208,1577,1577,1557,1557,0,0,0,0,0,0,0,0,0,0
1706598697.69928789,129528168,1577,1577,1556,1556,0,0,0,0,0,0,0,0,0,0
1706598697.80008101,129628961,1577,1578,1556,1555,0,0,0,0,0,0,0,0,0,0
1706598697.90004086,129728921,1578,1578,1556,1555,0,0,0,0,0,0,0,0,0,0
1706598698.00000095,129828881,1577,1578,1555,1554,0,0,0,0,0,0,0,0,0,0
1706598698.09996104,129928841,1578,1578,1555,1555,0,0,0,0,0,0,0,0,0,0
1706598698.19992089,130028801,1578,1577,1555,1556,0,0,0,0,0,0,0,0,0,0
1706598698.29988098,130128761,1578,1577,1557,1557,0,0,0,0,0,0,0,0,0,0
1706598698.39984083,130228721,1576,1575,1558,1559,0,0,0,0,0,0,0,0,0,0
1706598698.49980092,130328681,1573,1572,1560,1561,0,0,0,0,0,0,0,0,0,0
1706598698.59976101,130428641,1571,1570,1563,1563,0,0,0,0,0,0,0,0,0,0
1706598698.69972086,130528601,1568,1567,1566,1567,0,0,0,0,0,0,0,0,0,0
1706598698.79968095,130628561,1565,1564,1569,1569,0,0,0,0,0,0,0,0,0,0
1706598698.89964104,130728521,1562,1561,1572,1573,0,0,0,0,0,0,0,0,0,0
1706598698.99960089,130828481,1558,1558,1575,1575,0,0,0,0,0,0,0,0,0,0
1706598699.09956098,130928441,1556,1556,1577,1577,0,0,0,0,0,0,0,0,0,0
1706598699.19952083,131028401,1553,1553,1578,1579,0,0,0,0,0,0,0,0,0,0
1706598699.29948092,131128361,1552,1552,1579,1580,0,0,0,0,0,0,0,0,0,0
1706598699.39944100,131228321,1551,1551,1580,1580,0,0,0,0,0,0,0,0,0,0
1706598699.49940085,131328281,1551,1551,1580,1580,0,0,0,0,0,0,0,0,0,0
1706598699.59936094,131428241,1552,1552,1579,1579,0,0,0,0,0,0,0,0,0,0
1706598699.69932103,131528201,1553,1553,1578,1578,0,0,0,0,0,0,0,0,0,0
1706598699.79928088,131628161,1555,1556,1576,1576,0,0,0,0,0,0,0,0,0,0
1706598699.90007401,131728954,1557,1557,1574,1574,0,0,0,0,0,0,0,0,0,0
1706598700.00003386,131828914,1560,1560,1571,1571,0,0,0,0,0,0,0,0,0,0
1706598700.09999394,131928874,1562,1562,1569,1569,0,0,0,0,0,0,0,0,0,0
1706598700.19995403,132028834,1564,1564,1567,1567,0,0,0,0,0,0,0,0,0,0
1706598700.29991388,132128794,1566,1565,1565,1565,0,0,0,0,0,0,0,0,0,0
1706598700.39987397,132228754,1567,1567,1564,1564,0,0,0,0,0,0,0,0,0,0
1706598700.49983382,132328714,1568,1568,1563,1563,0,0,0,0,0,0,0,0,0,0
1706598700.59979391,132428674,1569,1568,1562,1562,0,0,0,0,0,0,0,0,0,0
1706598700.69975400,132528634,1569,1568,1562,1562,0,0,0,0,0,0,0,0,0,0
1706598700.79971385,132628594,1569,1569,1563,1563,0,0,0,0,0,0,0,0,0,0
1706598700.89967394,132728554,1569,1568,1564,1564,0,0,0,0,0,0,0,0,0,0
1706598700.99963403,132828514,1568,1568,1564,1564,0,0,0,0,0,0,0,0,0,0
1706598701.09959388,132928474,1567,1567,1565,1565,0,0,0,0,0,0,0,0,0,0
1706598701.19955397,133028434,1567,1567,1567,1567,0,0,0,0,0,0,0,0,0,0
1706598701.29951382,133128394,1565,1565,1567,1567,0,0,0,0,0,0,0,0,0,0
1706598701.39947391,133228354,1565,1565,1568,1568,0,0,0,0,0,0,0,0,0,0
1706598701.49943399,133328314,1564,1564,1568,1568,0,0,0,0,0,0,0,0,0,0
1706598701.59939384,133428274,1563,1564,1568,1568,0,0,0,0,0,0,0,0,0,0
1706598701.69935393,133528234,1564,1564,1569,1569,0,0,0,0,0,0,0,0,0,0
1706598701.79931402,133628194,1564,1564,1569,1569,0,0,0,0,0,0,0,0,0,0
1706598701.89927387,133728154,1564,1564,1569,1569,0,0,0,0,0,0,0,0,0,0
1706598702.00006700,133828947,1564,1564,1568,1568,0,0,0,0,0,0,0,0,0,0
1706598702.10002685,133928907,1565,1565,1568,1568,0,0,0,0,0,0,0,0,0,0
1706598702.19998693,134028867,1565,1566,1567,1567,0,0,0,0,0,0,0,0,0,0
1706598702.29994702,134128827,1566,1566,1567,1567,0,0,0,0,0,0,0,0,0,0
1706598702.39990687,134228787,1566,1566,1566,1567,0,0,0,0,0,0,0,0,0,0
1706598702.49986696,134328747,1566,1566,1566,1566,0,0,0,0,0,0,0,0,0,0
1706598702.59982681,134428707,1567,1567,1566,1566,0,0,0,0,0,0,0,0,0,0
1706598702.69978690,134528667,1567,1567,1566,1566,0,0,0,0,0,0,0,0,0,0
1706598702.79974699,134628627,1567,1567,1565,1565,0,0,0,0,0,0,0,0,0,0
1706598702.89970684,134728587,1567,1566,1565,1565,0,0,0,0,0,0,0,0,0,0
1706598702.99966693,134828547,1566,1566,1565,1565,0,0,0,0,0,0,0,0,0,0
1706598703.09962702,134928507,1566,1566,1564,1564,0,0,0,0,0,0,0,0,0,0
1706598703.19958687,135028467,1565,1565,1564,1564,0,0,0,0,0,0,0,0,0,0
1706598703.29954696,135128427,1566,1566,1565,1565,0,0,0,0,0,0,0,0,0,0
1706598703.39950705,135228387,1566,1566,1565,1565,0,0,0,0,0,0,0,0,0,0
1706598703.49946690,135328347,1566,1566,1566,1566,0,0,0,0,0,0,0,0,0,0
1706598703.59942698,135428307,1566,1566,1566,1566,0,0,0,0,0,0,0,0,0,0
1706598703.69938684,135528267,1566,1566,1566,1566,0,0,0,0,0,0,0,0,0,0
1706598703.79934692,135628227,1566,1566,1566,1566,0,0,0,0,0,0,0,0,0,0
1706598703.89930701,135728187,1566,1566,1567,1567,0,0,0,0,0,0,0,0,0,0
1706598704.00009990,135828980,1566,1566,1567,1567,0,0,0,0,0,0,0,0,0,0
1706598704.10005999,135928940,1565,1565,1566,1566,0,0,0,0,0,0,0,0,0,0
1706598704.20001984,136028900,1566,1566,1567,1567,0,0,0,0,0,0,0,0,0,0
1706598704.29997993,136128860,1565,1566,1566,1566,0,0,0,0,0,0,0,0,0,0
1706598704.39994001,136228820,1565,1565,1566,1566,0,0,0,0,0,0,0,0,0,0
1706598704.49989986,136328780,1566,1566,1566,1566,0,0,0,0,0,0,0,0,0,0
1706598704.59985995,136428740,1566,1566,1566,1566,0,0,0,0,0,0,0,0,0,0
1706598704.69982004,136528700,1566,1566,1566,1566,0,0,0,0,0,0,0,0,0,0
1706598704.79977989,136628660,1566,1566,1566,1566,0,0,0,0,0,0,0,0,0,0
1706598704.89973998,136728620,1567,1566,1567,1567,0,0,0,0,0,0,0,0,0,0
1706598704.99969983,136828580,1566,1566,1566,1566,0,0,0,0,0,0,0,0,0,0
1706598705.09965992,136928540,1567,1566,1566,1566,0,0,0,0,0,0,0,0,0,0
1706598705.19962001,137028500,1566,1566,1566,1566,0,0,0,0,0,0,0,0,0,0
1706598705.29957986,137128460,1566,1566,1566,1566,0,0,0,0,0,0,0,0,0,0
1706598705.39953995,137228420,1566,1566,1566,1566,0,0,0,0,0,0,0,0,0,0
1706598705.49950004,137328380,1567,1567,1566,1566,0,0,0,0,0,0,0,0,0,0
1706598705.59945989,137428340,1567,1567,1567,1567,0,0,0,0,0,0,0,0,0,0
1706598705.69941998,137528300,1566,1566,1566,1566,0,0,0,0,0,0,0,0,0,0
1706598705.79937983,137628260,1567,1566,1566,1567,0,0,0,0,0,0,0,0,0,0
1706598705.89933991,137728220,1567,1567,1567,1567,0,0,0,0,0,0,0,0,0,0
1706598705.99930000,137828180,1566,1567,1567,1567,0,0,0,0,0,0,0,0,0,0
1706598706.10009289,137928973,1567,1567,1567,1567,0,0,0,0,0,0,0,0,0,0
1706598706.20005298,138028933,1566,1566,1566,1566,0,0,0,0,0,0,0,0,0,0
1706598706.30001283,138128893,1565,1566,1566,1566,0,0,0,0,0,0,0,0,0,0
1706598706.39997292,138228853,1566,1566,1566,1566,0,0,0,0,0,0,0,0,0,0
1706598706.49993300,138328813,1566,1566,1566,1567,0,0,0,0,0,0,0,0,0,0
1706598706.59989285,138428773,1567,1567,1567,1567,0,0,0,0,0,0,0,0,0,0
1706598706.69985294,138528733,1567,1567,1567,1567,0,0,0,0,0,0,0,0,0,0
1706598706.79981303,138628693,1567,1567,1567,1567,0,0,0,0,0,0,0,0,0,0
1706598706.89977288,138728653,1567,1567,1567,1567,0,0,0,0,0,0,0,0,0,0
1706598706.99973297,138828613,1567,1566,1566,1566,0,0,0,0,0,0,0,0,0,0
1706598707.09969282,138928573,1567,1567,1567,1567,0,0,0,0,0,0,0,0,0,0
1706598707.19965291,139028533,1565,1566,1566,1565,0,0,0,0,0,0,0,0,0,0
1706598707.29961300,139128493,1566,1566,1566,1566,0,0,0,0,0,0,0,0,0,0
1706598707.39957285,139228453,1566,1567,1566,1566,0,0,0,0,0,0,0,0,0,0
1706598707.49953294,139328413,1566,1566,1566,1566,0,0,0,0,0,0,0,0,0,0
1706598707.59949303,139428373,1567,1567,1567,1567,0,0,0,0,0,0,0,0,0,0
1706598707.69945288,139528333,1566,1566,1566,1566,0,0,0,0,0,0,0,0,0,0
1706598707.79941297,139628293,1567,1567,1567,1567,0,0,0,0,0,0,0,0,0,0
1706598707.89937282,139728253,1566,1566,1567,1566,0,0,0,0,0,0,0,0,0,0
1706598707.99933290,139828213,1566,1567,1566,1566,0,0,0,0,0,0,0,0,0,0
1706598708.09929299,139928173,1567,1566,1569,1563,0,0,0,0,0,0,0,0,0,0
1706598708.20008588,140028966,1566,1566,1571,1562,0,0,0,0,0,0,0,0,0,0
1706598708.30004597,140128926,1565,1564,1568,1562,0,0,0,0,0,0,0,0,0,0
1706598708.40000582,140228886,1564,1563,1566,1562,0,0,0,0,0,0,0,0,0,0
1706598708.49996591,140328846,1561,1561,1562,1562,0,0,0,0,0,0,0,0,0,0
1706598708.59992599,140428806,1560,1561,1560,1562,0,0,0,0,0,0,0,0,0,0
1706598708.69988585,140528766,1560,1561,1559,1563,0,0,0,0,0,0,0,0,0,0
1706598708.79984593,140628726,1561,1560,1559,1562,0,0,0,0,0,0,0,0,0,0
1706598708.89980602,140728686,1560,1560,1560,1561,0,0,0,0,0,0,0,0,0,0
1706598708.99976587,140828646,1561,1561,1561,1560,0,0,0,0,0,0,0,0,0,0
1706598709.09972596,140928606,1561,1560,1562,1559,0,0,0,0,0,0,0,0,0,0
1706598709.19968581,141028566,1561,1560,1562,1558,0,0,0,0,0,0,0,0,0,0
1706598709.29964590,141128526,1561,1561,1561,1560,0,0,0,0,0,0,0,0,0,0
1706598709.39960599,141228486,1562,1561,1560,1562,0,0,0,0,0,0,0,0,0,0
1706598709.49956584,141328446,1562,1562,1559,1565,0,0,0,0,0,0,0,0,0,0
1706598709.59952593,141428406,1562,1562,1559,1565,0,0,0,0,0,0,0,0,0,0
1706598709.69948602,141528366,1561,1562,1558,1564,0,0,0,0,0,0,0,0,0,0
1706598709.79944587,141628326,1560,1561,1558,1561,0,0,0,0,0,0,0,0,0,0
1706598709.89940596,141728286,1559,1559,1558,1559,0,0,0,0,0,0,0,0,0,0
1706598709.99936604,141828246,1557,1557,1556,1557,0,0,0,0,0,0,0,0,0,0
1706598710.09932590,141928206,1554,1553,1553,1553,0,0,0,0,0,0,0,0,0,0
1706598710.19928598,142028166,1550,1550,1549,1549,0,0,0,0,0,0,0,0,0,0
1706598710.30007887,142128959,1544,1544,1544,1544,0,0,0,0,0,0,0,0,0,0
1706598710.40003896,142228919,1539,1538,1539,1538,0,0,0,0,0,0,0,0,0,0
1706598710.49999905,142328879,1532,1531,1532,1532,0,0,0,0,0,0,0,0,0,0
1706598710.59995890,142428839,1524,1524,1524,1524,0,0,0,0,0,0,0,0,0,0
1706598710.69991899,142528799,1521,1521,1521,1521,0,0,0,0,0,0,0,0,0,0
1706598710.79987884,142628759,1519,1519,1519,1520,0,0,0,0,0,0,0,0,0,0
1706598710.89983892,142728719,1519,1519,1519,1520,0,0,0,0,0,0,0,0,0,0
1706598710.99979901,142828679,1519,1519,1519,1520,0,0,0,0,0,0,0,0,0,0
1706598711.09975886,142928639,1523,1522,1522,1523,0,0,0,0,0,0,0,0,0,0
1706598711.19971895,143028599,1526,1526,1527,1527,0,0,0,0,0,0,0,0,0,0
1706598711.29967904,143128559,1531,1531,1531,1532,0,0,0,0,0,0,0,0,0,0
1706598711.39963889,143228519,1535,1535,1535,1535,0,0,0,0,0,0,0,0,0,0
1706598711.49959898,143328479,1537,1538,1538,1537,0,0,0,0,0,0,0,0,0,0
1706598711.59955883,143428439,1540,1540,1541,1540,0,0,0,0,0,0,0,0,0,0
1706598711.69951892,143528399,1543,1543,1543,1543,0,0,0,0,0,0,0,0,0,0
1706598711.79947901,143628359,1544,1545,1544,1544,0,0,0,0,0,0,0,0,0,0
1706598711.89943886,143728319,1546,1546,1546,1546,0,0,0,0,0,0,0,0,0,0
1706598711.99939895,143828279,1547,1547,1547,1547,0,0,0,0,0,0,0,0,0,0
1706598712.09935904,143928239,1548,1548,1548,1547,0,0,0,0,0,0,0,0,0,0
1706598712.19931889,144028199,1548,1548,1548,1548,0,0,0,0,0,0,0,0,0,0
1706598712.29927897,144128159,1548,1548,1548,1548,0,0,0,0,0,0,0,0,0,0
1706598712.40007186,144228952,1547,1548,1548,1547,0,0,0,0,0,0,0,0,0,0
1706598712.50003195,144328912,1548,1547,1547,1547,0,0,0,0,0,0,0,0,0,0
1706598712.59999204,144428872,1548,1547,1547,1547,0,0,0,0,0,0,0,0,0,0
1706598712.69995189,144528832,1547,1547,1546,1547,0,0,0,0,0,0,0,0,0,0
1706598712.79991198,144628792,1546,1546,1546,1546,0,0,0,0,0,0,0,0,0,0
1706598712.89987183,144728752,1545,1546,1546,1546,0,0,0,0,0,0,0,0,0,0
1706598712.99983191,144828712,1545,1546,1546,1546,0,0,0,0,0,0,0,0,0,0
1706598713.09979200,144928672,1545,1545,1545,1545,0,0,0,0,0,0,0,0,0,0
1706598713.19975185,145028632,1545,1545,1545,1545,0,0,0,0,0,0,0,0,0,0
1706598713.29971194,145128592,1545,1544,1545,1545,0,0,0,0,0,0,0,0,0,0
1706598713.39967203,145228552,1544,1544,1544,1544,0,0,0,0,0,0,0,0,0,0
1706598713.49963188,145328512,1544,1544,1544,1544,0,0,0,0,0,0,0,0,0,0
1706598713.59959197,145428472,1545,1544,1545,1544,0,0,0,0,0,0,0,0,0,0
1706598713.69955182,145528432,1544,1544,1544,1544,0,0,0,0,0,0,0,0,0,0
1706598713.79951191,145628392,1543,1544,1544,1543,0,0,0,0,0,0,0,0,0,0
1706598713.89947200,145728352,1543,1543,1543,1543,0,0,0,0,0,0,0,0,0,0
1706598713.99943185,145828312,1544,1544,1544,1544,0,0,0,0,0,0,0,0,0,0
1706598714.09939194,145928272,1544,1544,1543,1544,0,0,0,0,0,0,0,0,0,0
1706598714.19935203,146028232,1543,1543,1543,1543,0,0,0,0,0,0,0,0,0,0
1706598714.29931188,146128192,1544,1543,1543,1543,0,0,0,0,0,0,0,0,0,0
1706598714.40010500,146228985,1543,1543,1543,1543,0,0,0,0,0,0,0,0,0,0
1706598714.50006485,146328945,1543,1543,1543,1543,0,0,0,0,0,0,0,0,0,0
1706598714.60002494,146428905,1543,1543,1544,1543,0,0,0,0,0,0,0,0,0,0
1706598714.69998503,146528865,1543,1543,1544,1543,0,0,0,0,0,0,0,0,0,0
1706598714.79994488,146628825,1543,1544,1544,1543,0,0,0,0,0,0,0,0,0,0
1706598714.89990497,146728785,1544,1543,1544,1544,0,0,0,0,0,0,0,0,0,0
1706598714.99986482,146828745,1544,1544,1544,1544,0,0,0,0,0,0,0,0,0,0
1706598715.09982491,146928705,1545,1544,1544,1545,0,0,0,0,0,0,0,0,0,0
1706598715.19978499,147028665,1544,1545,1544,1545,0,0,0,0,0,0,0,0,0,0
1706598715.29974484,147128625,1544,1544,1544,1544,0,0,0,0,0,0,0,0,0,0
1706598715.39970493,147228585,1544,1544,1545,1544,0,0,0,0,0,0,0,0,0,0
1706598715.49966502,147328545,1545,1545,1545,1545,0,0,0,0,0,0,0,0,0,0
1706598715.59962487,147428505,1544,1544,1544,1544,0,0,0,0,0,0,0,0,0,0
1706598715.69958496,147528465,1544,1544,1544,1544,0,0,0,0,0,0,0,0,0,0
1706598715.79954481,147628425,1544,1544,1544,1544,0,0,0,0,0,0,0,0,0,0
1706598715.89950490,147728385,1544,1544,1545,1544,0,0,0,0,0,0,0,0,0,0
1706598715.99946499,147828345,1544,1545,1544,1544,0,0,0,0,0,0,0,0,0,0
1706598716.09942484,147928305,1544,1544,1544,1544,0,0,0,0,0,0,0,0,0,0
1706598716.19938493,148028265,1544,1544,1544,1544,0,0,0,0,0,0,0,0,0,0
1706598716.29934502,148128225,1545,1544,1544,1545,0,0,0,0,0,0,0,0,0,0
1706598716.39930487,148228185,1544,1544,1544,1544,0,0,0,0,0,0,0,0,0,0
1706598716.50009799,148328978,1544,1544,1544,1545,0,0,0,0,0,0,0,0,0,0
1706598716.60005784,148428938,1544,1544,1544,1544,0,0,0,0,0,0,0,0,0,0
1706598716.70001793,148528898,1545,1545,1545,1545,0,0,0,0,0,0,0,0,0,0
1706598716.79997802,148628858,1545,1545,1545,1545,0,0,0,0,0,0,0,0,0,0
1706598716.89993787,148728818,1545,1545,1545,1545,0,0,0,0,0,0,0,0,0,0
1706598716.99989796,148828778,1545,1545,1545,1545,0,0,0,0,0,0,0,0,0,0
1706598717.09985805,148928738,1545,1545,1545,1545,0,0,0,0,0,0,0,0,0,0
1706598717.19981790,149028698,1544,1544,1544,1544,0,0,0,0,0,0,0,0,0,0
1706598717.29977798,149128658,1545,1544,1544,1545,0,0,0,0,0,0,0,0,0,0
1706598717.39973783,149228618,1544,1544,1544,1544,0,0,0,0,0,0,0,0,0,0
1706598717.49969792,149328578,1545,1544,1544,1545,0,0,0,0,0,0,0,0,0,0
1706598717.59965801,149428538,1544,1544,1544,1544,0,0,0,0,0,0,0,0,0,0
1706598717.69961786,149528498,1545,1545,1545,1545,0,0,0,0,0,0,0,0,0,0
1706598717.79957795,149628458,1544,1544,1545,1544,0,0,0,0,0,0,0,0,0,0
1706598717.89953804,149728418,1544,1544,1544,1544,0,0,0,0,0,0,0,0,0,0
1706598717.99949789,149828378,1544,1544,1544,1544,0,0,0,0,0,0,0,0,0,0
1706598718.09945798,149928338,1545,1544,1544,1545,0,0,0,0,0,0,0,0,0,0
1706598718.19941783,150028298,1544,1545,1544,1544,0,0,0,0,0,0,0,0,0,0
1706598718.29937792,150128258,1544,1544,1544,1544,0,0,0,0,0,0,0,0,0,0
1706598718.39933801,150228218,1544,1544,1544,1544,0,0,0,0,0,0,0,0,0,0
1706598718.49929786,150328178,1545,1545,1545,1545,0,0,0,0,0,0,0,0,0,0
1706598718.60009098,150428971,1545,1544,1545,1544,0,0,0,0,0,0,0,0,0,0
1706598718.70005083,150528931,1544,1544,1544,1544,0,0,0,0,0,0,0,0,0,0
1706598718.80001092,150628891,1544,1545,1544,1544,0,0,0,0,0,0,0,0,0,0
1706598718.89997101,150728851,1544,1544,1544,1544,0,0,0,0,0,0,0,0,0,0
1706598718.99993086,150828811,1544,1544,1544,1544,0,0,0,0,0,0,0,0,0,0
1706598719.09989095,150928771,1544,1544,1544,1544,0,0,0,0,0,0,0,0,0,0
1706598719.19985104,151028731,1544,1544,1544,1544,0,0,0,0,0,0,0,0,0,0
1706598719.29981089,151128691,1544,1544,1544,1544,0,0,0,0,0,0,0,0,0,0
1706598719.39977098,151228651,1544,1544,1544,1544,0,0,0,0,0,0,0,0,0,0
1706598719.49973083,151328611,1544,1543,1544,1544,0,0,0,0,0,0,0,0,0,0
1706598719.59969091,151428571,1544,1544,1544,1544,0,0,0,0,0,0,0,0,0,0
1706598719.69965100,151528531,1544,1544,1544,1544,0,0,0,0,0,0,0,0,0,0
1706598719.79961085,151628491,1544,1544,1544,1544,0,0,0,0,0,0,0,0,0,0
1706598719.89957094,151728451,1544,1544,1544,1544,0,0,0,0,0,0,0,0,0,0
1706598719.99953103,151828411,1544,1544,1544,1544,0,0,0,0,0,0,0,0,0,0
1706598720.09949088,151928371,1544,1544,1544,1544,0,0,0,0,0,0,0,0,0,0
1706598720.19945097,152028331,1544,1544,1544,1544,0,0,0,0,0,0,0,0,0,0
1706598720.29941082,152128291,1545,1544,1544,1544,0,0,0,0,0,0,0,0,0,0
1706598720.39937091,152228251,1509,1510,1510,1509,0,0,0,0,0,0,0,0,0,0
1706598720.49933100,152328211,1399,1398,1398,1399,0,0,0,0,0,0,0,0,0,0
1706598720.59929085,152428171,1354,1354,1354,1354,0,0,0,0,0,0,0,0,0,0
1706598720.70008397,152528964,1342,1341,1342,1342,0,0,0,0,0,0,0,0,0,0
1706598720.80004382,152628924,1330,1330,1331,1330,0,0,0,0,0,0,0,0,0,0
1706598720.90000391,152728884,1305,1304,1305,1305,0,0,0,0,0,0,0,0,0,0
1706598720.99996400,152828844,1266,1266,1267,1266,0,0,0,0,0,0,0,0,0,0
1706598721.09992385,152928804,1220,1220,1221,1221,0,0,0,0,0,0,0,0,0,0
1706598721.19988394,153028764,1170,1171,1171,1171,0,0,0,0,0,0,0,0,0,0
1706598721.29984403,153128724,1118,1117,1118,1118,0,0,0,0,0,0,0,0,0,0
1706598721.39980388,153228684,1059,1060,1061,1059,0,0,0,0,0,0,0,0,0,0
1706598721.49976397,153328644,993,993,994,994,0,0,0,0,0,0,0,0,0,0
1706598721.59972382,153428604,914,915,917,915,0,0,0,0,0,0,0,0,0,0
1706598721.69968390,153528564,817,818,819,818,0,0,0,0,0,0,0,0,0,0
1706598721.79964399,153628524,802,804,806,802,0,0,0,0,0,0,0,0,0,0
1706598721.89960384,153728484,802,803,805,803,0,0,0,0,0,0,0,0,0,0
1706598721.99956393,153828444,853,802,802,855,0,0,0,0,0,0,0,0,0,0
1706598722.09952402,153928404,836,802,803,838,0,0,0,0,0,0,0,0,0,0
1706598722.19948387,154028364,830,802,803,832,0,0,0,0,0,0,0,0,0,0
1706598722.29944396,154128324,831,802,803,834,0,0,0,0,0,0,0,0,0,0
1706598722.39940381,154228284,833,802,803,836,0,0,0,0,0,0,0,0,0,0
1706598722.49936390,154328244,837,802,803,839,0,0,0,0,0,0,0,0,0,0
1706598722.59932399,154428204,839,802,803,842,0,0,0,0,0,0,0,0,0,0
1706598722.69928384,154528164,842,802,803,845,0,0,0,0,0,0,0,0,0,0
1706598722.80007696,154628957,822,802,804,824,0,0,0,0,0,0,0,0,0,0
1706598722.90003681,154728917,824,802,804,826,0,0,0,0,0,0,0,0,0,0
1706598722.99999690,154828877,826,802,804,828,0,0,0,0,0,0,0,0,0,0
1706598723.09995699,154928837,826,802,804,829,0,0,0,0,0,0,0,0,0,0
1706598723.19991684,155028797,827,802,804,830,0,0,0,0,0,0,0,0,0,0
1706598723.29987693,155128757,1000,1000,1000,1000,0,0,0,0,0,0,0,0,0,0
1706598723.39983702,155228717,1000,1000,1000,1000,0,0,0,0,0,0,0,0,0,0
1706598723.49979687,155328677,1000,1000,1000,1000,0,0,0,0,0,0,0,0,0,0
1706598723.59975696,155428637,1000,1000,1000,1000,0,0,0,0,0,0,0,0,0,0
1706598723.69971704,155528597,1000,1000,1000,1000,0,0,0,0,0,0,0,0,0,0
1706598723.79967690,155628557,1000,1000,1000,1000,0,0,0,0,0,0,0,0,0,0
1706598723.89963698,155728517,1000,1000,1000,1000,0,0,0,0,0,0,0,0,0,0
1706598723.99959683,155828477,1000,1000,1000,1000,0,0,0,0,0,0,0,0,0,0
1706598724.09955692,155928437,1000,1000,1000,1000,0,0,0,0,0,0,0,0,0,0
1706598724.19951701,156028397,1000,1000,1000,1000,0,0,0,0,0,0,0,0,0,0
1706598724.29947686,156128357,1000,1000,1000,1000,0,0,0,0,0,0,0,0,0,0
1706598724.39943695,156228317,1000,1000,1000,1000,0,0,0,0,0,0,0,0,0,0
1706598724.49939704,156328277,1000,1000,1000,1000,0,0,0,0,0,0,0,0,0,0
1706598724.59935689,156428237,1000,1000,1000,1000,0,0,0,0,0,0,0,0,0,0
1706598724.69931698,156528197,1000,1000,1000,1000,0,0,0,0,0,0,0,0,0,0
1706598724.79927683,156628157,1000,1000,1000,1000,0,0,0,0,0,0,0,0,0,0
1706598724.90006995,156728950,1000,1000,1000,1000,0,0,0,0,0,0,0,0,0,0
1706598725.00003004,156828910,1000,1000,1000,1000,0,0,0,0,0,0,0,0,0,0
1706598725.09998989,156928870,1000,1000,1000,1000,0,0,0,0,0,0,0,0,0,0
1706598725.19994998,157028830,1000,1000,1000,1000,0,0,0,0,0,0,0,0,0,0
1706598725.29990983,157128790,1000,1000,1000,1000,0,0,0,0,0,0,0,0,0,0
1706598725.39986992,157228750,1000,1000,1000,1000,0,0,0,0,0,0,0,0,0,0
1706598725.49983001,157328710,1000,1000,1000,1000,0,0,0,0,0,0,0,0,0,0
1706598725.59978986,157428670,1000,1000,1000,1000,0,0,0,0,0,0,0,0,0,0
1706598725.69974995,157528630,1000,1000,1000,1000,0,0,0,0,0,0,0,0,0,0
1706598725.79971004,157628590,1000,1000,1000,1000,0,0,0,0,0,0,0,0,0,0
1706598725.89966989,157728550,1000,1000,1000,1000,0,0,0,0,0,0,0,0,0,0
1706598725.99962997,157828510,1000,1000,1000,1000,0,0,0,0,0,0,0,0,0,0
1706598726.09958982,157928470,1000,1000,1000,1000,0,0,0,0,0,0,0,0,0,0
1706598726.19954991,158028430,1000,1000,1000,1000,0,0,0,0,0,0,0,0,0,0
1706598726.29951000,158128390,1000,1000,1000,1000,0,0,0,0,0,0,0,0,0,0
1706598726.39946985,158228350,1000,1000,1000,1000,0,0,0,0,0,0,0,0,0,0
1706598726.49942994,158328310,1000,1000,1000,1000,0,0,0,0,0,0,0,0,0,0
1706598726.59939003,158428270,1000,1000,1000,1000,0,0,0,0,0,0,0,0,0,0
1706598726.69934988,158528230,1000,1000,1000,1000,0,0,0,0,0,0,0,0,0,0
1706598726.79930997,158628190,1000,1000,1000,1000,0,0,0,0,0,0,0,0,0,0
1706598726.90010285,158728983,1000,1000,1000,1000,0,0,0,0,0,0,0,0,0,0
1706598727.00006294,158828943,1000,1000,1000,1000,0,0,0,0,0,0,0,0,0,0
1706598727.10002303,158928903,1000,1000,1000,1000,0,0,0,0,0,0,0,0,0,0
1706598727.19998288,159028863,1000,1000,1000,1000,0,0,0,0,0,0,0,0,0,0
1706598727.29994297,159128823,1000,1000,1000,1000,0,0,0,0,0,0,0,0,0,0
1706598727.39990282,159228783,1000,1000,1000,1000,0,0,0,0,0,0,0,0,0,0
1706598727.49986291,159328743,1000,1000,1000,1000,0,0,0,0,0,0,0,0,0,0
1706598727.59982300,159428703,1000,1000,1000,1000,0,0,0,0,0,0,0,0,0,0
1706598727.69978285,159528663,1000,1000,1000,1000,0,0,0,0,0,0,0,0,0,0
1706598727.79974294,159628623,1000,1000,1000,1000,0,0,0,0,0,0,0,0,0,0
1706598727.89970303,159728583,1000,1000,1000,1000,0,0,0,0,0,0,0,0,0,0
1706598727.99966288,159828543,1000,1000,1000,1000,0,0,0,0,0,0,0,0,0,0
1706598728.09962296,159928503,1000,1000,1000,1000,0,0,0,0,0,0,0,0,0,0
1706598728.19958282,160028463,1000,1000,1000,1000,0,0,0,0,0,0,0,0,0,0
1706598728.29954290,160128423,1000,1000,1000,1000,0,0,0,0,0,0,0,0,0,0
1706598728.39950299,160228383,1000,1000,1000,1000,0,0,0,0,0,0,0,0,0,0
1706598728.49946284,160328343,1000,1000,1000,1000,0,0,0,0,0,0,0,0,0,0
1706598728.59942293,160428303,1000,1000,1000,1000,0,0,0,0,0,0,0,0,0,0
1706598728.69938302,160528263,1000,1000,1000,1000,0,0,0,0,0,0,0,0,0,0
1706598728.79934287,160628223,1000,1000,1000,1000,0,0,0,0,0,0,0,0,0,0
1706598728.89930296,160728183,1000,1000,1000,1000,0,0,0,0,0,0,0,0,0,0
1706598729.00009584,160828976,1000,1000,1000,1000,0,0,0,0,0,0,0,0,0,0
1706598729.10005593,160928936,1000,1000,1000,1000,0,0,0,0,0,0,0,0,0,0
1706598729.20001602,161028896,1000,1000,1000,1000,0,0,0,0,0,0,0,0,0,0
1706598729.29997587,161128856,1000,1000,1000,1000,0,0,0,0,0,0,0,0,0,0
1706598729.39993596,161228816,1000,1000,1000,1000,0,0,0,0,0,0,0,0,0,0
1706598729.49989581,161328776,1000,1000,1000,1000,0,0,0,0,0,0,0,0,0,0
1706598729.59985590,161428736,1000,1000,1000,1000,0,0,0,0,0,0,0,0,0,0
1706598729.69981599,161528696,1000,1000,1000,1000,0,0,0,0,0,0,0,0,0,0
1706598729.79977584,161628656,1000,1000,1000,1000,0,0,0,0,0,0,0,0,0,0
1706598729.89973593,161728616,1000,1000,1000,1000,0,0,0,0,0,0,0,0,0,0
1706598729.99969602,161828576,1000,1000,1000,1000,0,0,0,0,0,0,0,0,0,0
1706598730.09965587,161928536,1000,1000,1000,1000,0,0,0,0,0,0,0,0,0,0
1706598730.19961596,162028496,1000,1000,1000,1000,0,0,0,0,0,0,0,0,0,0
1706598730.29957604,162128456,1000,1000,1000,1000,0,0,0,0,0,0,0,0,0,0
1706598730.39953589,162228416,1000,1000,1000,1000,0,0,0,0,0,0,0,0,0,0
1706598730.49949598,162328376,1000,1000,1000,1000,0,0,0,0,0,0,0,0,0,0
1706598730.59945583,162428336,1000,1000,1000,1000,0,0,0,0,0,0,0,0,0,0
1706598730.69941592,162528296,1000,1000,1000,1000,0,0,0,0,0,0,0,0,0,0
1706598730.79937601,162628256,1000,1000,1000,1000,0,0,0,0,0,0,0,0,0,0
1706598730.89933586,162728216,1000,1000,1000,1000,0,0,0,0,0,0,0,0,0,0
1706598730.99929595,162828176,1000,1000,1000,1000,0,0,0,0,0,0,0,0,0,0
1706598731.10008883,162928969,1000,1000,1000,1000,0,0,0,0,0,0,0,0,0,0
1706598731.20004892,163028929,1000,1000,1000,1000,0,0,0,0,0,0,0,0,0,0
1706598731.30000901,163128889,1000,1000,1000,1000,0,0,0,0,0,0,0,0,0,0
1706598731.39996886,163228849,1000,1000,1000,1000,0,0,0,0,0,0,0,0,0,0
1706598731.49992895,163328809,1000,1000,1000,1000,0,0,0,0,0,0,0,0,0,0
1706598731.59988904,163428769,1000,1000,1000,1000,0,0,0,0,0,0,0,0,0,0
1706598731.69984889,163528729,1000,1000,1000,1000,0,0,0,0,0,0,0,0,0,0
1706598731.79980898,163628689,1000,1000,1000,1000,0,0,0,0,0,0,0,0,0,0
1706598731.89976883,163728649,1000,1000,1000,1000,0,0,0,0,0,0,0,0,0,0
1706598731.99972892,163828609,1000,1000,1000,1000,0,0,0,0,0,0,0,0,0,0
1706598732.09968901,163928569,1000,1000,1000,1000,0,0,0,0,0,0,0,0,0,0
1706598732.19964886,164028529,1000,1000,1000,1000,0,0,0,0,0,0,0,0,0,0
1706598732.29960895,164128489,1000,1000,1000,1000,0,0,0,0,0,0,0,0,0,0
1706598732.39956903,164228449,1000,1000,1000,1000,0,0,0,0,0,0,0,0,0,0
1706598732.49952888,164328409,1000,1000,1000,1000,0,0,0,0,0,0,0,0,0,0
1706598732.59948897,164428369,1000,1000,1000,1000,0,0,0,0,0,0,0,0,0,0
1706598732.69944882,164528329,1000,1000,1000,1000,0,0,0,0,0,0,0,0,0,0
1706598732.79940891,164628289,1000,1000,1000,1000,0,0,0,0,0,0,0,0,0,0
1706598732.89936900,164728249,1000,1000,1000,1000,0,0,0,0,0,0,0,0,0,0
1706598732.99932885,164828209,1000,1000,1000,1000,0,0,0,0,0,0,0,0,0,0
1706598733.09928894,164928169,1000,1000,1000,1000,0,0,0,0,0,0,0,0,0,0
1706598733.20008183,165028962,1000,1000,1000,1000,0,0,0,0,0,0,0,0,0,0
1706598733.30004191,165128922,1000,1000,1000,1000,0,0,0,0,0,0,0,0,0,0
1706598733.40000200,165228882,1000,1000,1000,1000,0,0,0,0,0,0,0,0,0,0
1706598733.49996185,165328842,1000,1000,1000,1000,0,0,0,0,0,0,0,0,0,0
1706598733.59992194,165428802,1000,1000,1000,1000,0,0,0,0,0,0,0,0,0,0
1706598733.69988203,165528762,1000,1000,1000,1000,0,0,0,0,0,0,0,0,0,0
1706598733.79984188,165628722,1000,1000,1000,1000,0,0,0,0,0,0,0,0,0,0
1706598733.89980197,165728682,1000,1000,1000,1000,0,0,0,0,0,0,0,0,0,0
1706598733.99976182,165828642,1000,1000,1000,1000,0,0,0,0,0,0,0,0,0,0
1706598734.09972191,165928602,1000,1000,1000,1000,0,0,0,0,0,0,0,0,0,0
1706598734.19968200,166028562,1000,1000,1000,1000,0,0,0,0,0,0,0,0,0,0
1706598734.29964185,166128522,1000,1000,1000,1000,0,0,0,0,0,0,0,0,0,0
1706598734.39960194,166228482,1000,1000,1000,1000,0,0,0,0,0,0,0,0,0,0
1706598734.49956203,166328442,1000,1000,1000,1000,0,0,0,0,0,0,0,0,0,0
1706598734.53954601,166368426,1000,1000,1000,1000,0,0,0,0,0,0,0,0,0,0
1706598734.63950586,166468386,1000,1000,1000,1000,0,0,0,0,0,0,0,0,0,0
1706598734.73946595,166568346,1000,1000,1000,1000,0,0,0,0,0,0,0,0,0,0
1706598734.83942604,166668306,1000,1000,1000,1000,0,0,0,0,0,0,0,0,0,0
1706598734.93938589,166768266,1000,1000,1000,1000,0,0,0,0,0,0,0,0,0,0
1706598735.03934598,166868226,1000,1000,1000,1000,0,0,0,0,0,0,0,0,0,0
1706598735.13930583,166968186,1000,1000,1000,1000,0,0,0,0,0,0,0,0,0,0
1706598735.24009895,167068979,1000,1000,1000,1000,0,0,0,0,0,0,0,0,0,0
1706598735.34005904,167168939,1000,1000,1000,1000,0,0,0,0,0,0,0,0,0,0
1706598735.44001889,167268899,1000,1000,1000,1000,0,0,0,0,0,0,0,0,0,0
1706598735.53997898,167368859,1000,1000,1000,1000,0,0,0,0,0,0,0,0,0,0
1706598735.63993883,167468819,1000,1000,1000,1000,0,0,0,0,0,0,0,0,0,0
1706598735.73989892,167568779,1000,1000,1000,1000,0,0,0,0,0,0,0,0,0,0
1706598735.83985901,167668739,1000,1000,1000,1000,0,0,0,0,0,0,0,0,0,0
1706598735.93981886,167768699,1000,1000,1000,1000,0,0,0,0,0,0,0,0,0,0
1706598736.03977895,167868659,1000,1000,1000,1000,0,0,0,0,0,0,0,0,0,0
1706598736.13973904,167968619,1000,1000,1000,1000,0,0,0,0,0,0,0,0,0,0
1706598736.23969889,168068579,1000,1000,1000,1000,0,0,0,0,0,0,0,0,0,0
1706598736.33965898,168168539,1000,1000,1000,1000,0,0,0,0,0,0,0,0,0,0
1706598736.43961883,168268499,1000,1000,1000,1000,0,0,0,0,0,0,0,0,0,0
1706598736.53957891,168368459,1000,1000,1000,1000,0,0,0,0,0,0,0,0,0,0
1706598736.63953900,168468419,1000,1000,1000,1000,0,0,0,0,0,0,0,0,0,0
1706598736.73949885,168568379,1000,1000,1000,1000,0,0,0,0,0,0,0,0,0,0
1706598736.83945894,168668339,1000,1000,1000,1000,0,0,0,0,0,0,0,0,0,0
1706598736.93941903,168768299,1000,1000,1000,1000,0,0,0,0,0,0,0,0,0,0
1706598737.03937888,168868259,1000,1000,1000,1000,0,0,0,0,0,0,0,0,0,0
1706598737.13933897,168968219,1000,1000,1000,1000,0,0,0,0,0,0,0,0,0,0
1706598737.23929882,169068179,1000,1000,1000,1000,0,0,0,0,0,0,0,0,0,0
1706598737.34009194,169168972,1000,1000,1000,1000,0,0,0,0,0,0,0,0,0,0
1706598737.44005203,169268932,1000,1000,1000,1000,0,0,0,0,0,0,0,0,0,0
1706598737.54001188,169368892,1000,1000,1000,1000,0,0,0,0,0,0,0,0,0,0
1706598737.63997197,169468852,1000,1000,1000,1000,0,0,0,0,0,0,0,0,0,0
1706598737.73993182,169568812,1000,1000,1000,1000,0,0,0,0,0,0,0,0,0,0
1706598737.83989191,169668772,1000,1000,1000,1000,0,0,0,0,0,0,0,0,0,0
1706598737.93985200,169768732,1000,1000,1000,1000,0,0,0,0,0,0,0,0,0,0
1706598738.03981185,169868692,1000,1000,1000,1000,0,0,0,0,0,0,0,0,0,0
1706598738.13977194,169968652,1000,1000,1000,1000,0,0,0,0,0,0,0,0,0,0
