timestamp,TimeUS,C1,C2,C3,C4,C5,C6,C7,C8,C9,C10,C11,C12,C13,C14
1706598114.50003982,78528576,1000,1000,1000,1000,0,0,0,0,0,0,0,0,0,0
1706598114.59999990,78628536,1000,1000,1000,1000,0,0,0,0,0,0,0,0,0,0
1706598114.69995999,78728496,1000,1000,1000,1000,0,0,0,0,0,0,0,0,0,0
1706598114.79991984,78828456,1000,1000,1000,1000,0,0,0,0,0,0,0,0,0,0
1706598114.89987993,78928416,1000,1000,1000,1000,0,0,0,0,0,0,0,0,0,0
1706598114.99984002,79028376,1000,1000,1000,1000,0,0,0,0,0,0,0,0,0,0
1706598115.09979987,79128336,1000,1000,1000,1000,0,0,0,0,0,0,0,0,0,0
1706598115.19975996,79228296,1000,1000,1000,1000,0,0,0,0,0,0,0,0,0,0
1706598115.29971981,79328256,1000,1000,1000,1000,0,0,0,0,0,0,0,0,0,0
1706598115.39967990,79428216,1000,1000,1000,1000,0,0,0,0,0,0,0,0,0,0
1706598115.49963999,79528176,1000,1000,1000,1000,0,0,0,0,0,0,0,0,0,0
1706598115.60043287,79628969,1000,1000,1000,1000,0,0,0,0,0,0,0,0,0,0
1706598115.70039296,79728929,1000,1000,1000,1000,0,0,0,0,0,0,0,0,0,0
1706598115.80035281,79828889,1000,1000,1000,1000,0,0,0,0,0,0,0,0,0,0
1706598115.90031290,79928849,1000,1000,1000,1000,0,0,0,0,0,0,0,0,0,0
1706598116.00027299,80028809,1000,1000,1000,1000,0,0,0,0,0,0,0,0,0,0
1706598116.10023284,80128769,1000,1000,1000,1000,0,0,0,0,0,0,0,0,0,0
1706598116.20019293,80228729,1000,1000,1000,1000,0,0,0,0,0,0,0,0,0,0
1706598116.30015302,80328689,1000,1000,1000,1000,0,0,0,0,0,0,0,0,0,0
1706598116.40011287,80428649,1000,1000,1000,1000,0,0,0,0,0,0,0,0,0,0
1706598116.50007296,80528609,1027,1027,1027,1027,0,0,0,0,0,0,0,0,0,0
1706598116.60003281,80628569,1057,1057,1057,1057,0,0,0,0,0,0,0,0,0,0
1706598116.69999290,80728529,1087,1087,1087,1087,0,0,0,0,0,0,0,0,0,0
1706598116.79995298,80828489,1116,1116,1116,1116,0,0,0,0,0,0,0,0,0,0
1706598116.89991283,80928449,1146,1146,1146,1146,0,0,0,0,0,0,0,0,0,0
1706598116.99987292,81028409,1380,1371,1372,1380,0,0,0,0,0,0,0,0,0,0
1706598117.09983301,81128369,1564,1556,1557,1565,0,0,0,0,0,0,0,0,0,0
1706598117.19979286,81228329,1714,1707,1707,1714,0,0,0,0,0,0,0,0,0,0
1706598117.29975295,81328289,1843,1836,1837,1844,0,0,0,0,0,0,0,0,0,0
1706598117.39971280,81428249,1905,1897,1897,1905,0,0,0,0,0,0,0,0,0,0
1706598117.49967289,81528209,1830,1827,1827,1831,0,0,0,0,0,0,0,0,0,0
1706598117.59963298,81628169,1702,1703,1703,1702,0,0,0,0,0,0,0,0,0,0
1706598117.70042586,81728962,1634,1636,1637,1634,0,0,0,0,0,0,0,0,0,0
1706598117.80038595,81828922,1623,1626,1626,1623,0,0,0,0,0,0,0,0,0,0
1706598117.90034580,81928882,1626,1628,1623,1632,0,0,0,0,0,0,0,0,0,0
1706598118.00030589,82028842,1628,1631,1625,1634,0,0,0,0,0,0,0,0,0,0
1706598118.10026598,82128802,1624,1627,1624,1627,0,0,0,0,0,0,0,0,0,0
1706598118.20022583,82228762,1620,1621,1622,1618,0,0,0,0,0,0,0,0,0,0
1706598118.30018592,82328722,1615,1614,1617,1611,0,0,0,0,0,0,0,0,0,0
1706598118.40014601,82428682,1614,1612,1617,1609,0,0,0,0,0,0,0,0,0,0
1706598118.50010586,82528642,1614,1613,1616,1611,0,0,0,0,0,0,0,0,0,0
1706598118.60006595,82628602,1616,1615,1617,1614,0,0,0,0,0,0,0,0,0,0
1706598118.70002604,82728562,1603,1603,1605,1601,0,0,0,0,0,0,0,0,0,0
1706598118.79998589,82828522,1579,1579,1586,1572,0,0,0,0,0,0,0,0,0,0
1706598118.89994597,82928482,1565,1566,1569,1562,0,0,0,0,0,0,0,0,0,0
1706598118.99990582,83028442,1555,1556,1554,1557,0,0,0,0,0,0,0,0,0,0
1706598119.09986591,83128402,1547,1547,1539,1554,0,0,0,0,0,0,0,0,0,0
1706598119.19982600,83228362,1541,1540,1531,1550,0,0,0,0,0,0,0,0,0,0
1706598119.29978585,83328322,1535,1535,1527,1542,0,0,0,0,0,0,0,0,0,0
1706598119.39974594,83428282,1530,1529,1526,1532,0,0,0,0,0,0,0,0,0,0
1706598119.49970603,83528242,1527,1527,1526,1526,0,0,0,0,0,0,0,0,0,0
1706598119.59966588,83628202,1527,1528,1529,1525,0,0,0,0,0,0,0,0,0,0
1706598119.69962597,83728162,1530,1530,1533,1527,0,0,0,0,0,0,0,0,0,0
1706598119.80041885,83828955,1532,1531,1535,1529,0,0,0,0,0,0,0,0,0,0
1706598119.90037894,83928915,1536,1536,1539,1534,0,0,0,0,0,0,0,0,0,0
1706598120.00033903,84028875,1539,1540,1541,1538,0,0,0,0,0,0,0,0,0,0
1706598120.10029888,84128835,1543,1543,1544,1542,0,0,0,0,0,0,0,0,0,0
1706598120.20025897,84228795,1546,1545,1546,1546,0,0,0,0,0,0,0,0,0,0
1706598120.30021882,84328755,1549,1548,1548,1550,0,0,0,0,0,0,0,0,0,0
1706598120.40017891,84428715,1552,1552,1551,1554,0,0,0,0,0,0,0,0,0,0
1706598120.50013900,84528675,1554,1554,1553,1556,0,0,0,0,0,0,0,0,0,0
1706598120.60009885,84628635,1560,1560,1553,1555,0,0,0,0,0,0,0,0,0,0
1706598120.70005894,84728595,1561,1560,1557,1558,0,0,0,0,0,0,0,0,0,0
1706598120.80001903,84828555,1561,1560,1561,1562,0,0,0,0,0,0,0,0,0,0
1706598120.89997888,84928515,1561,1561,1565,1565,0,0,0,0,0,0,0,0,0,0
1706598120.99993896,85028475,1561,1561,1568,1567,0,0,0,0,0,0,0,0,0,0
1706598121.09989882,85128435,1562,1563,1570,1569,0,0,0,0,0,0,0,0,0,0
1706598121.19985890,85228395,1563,1564,1570,1570,0,0,0,0,0,0,0,0,0,0
1706598121.29981899,85328355,1565,1565,1570,1570,0,0,0,0,0,0,0,0,0,0
1706598121.39977884,85428315,1567,1567,1570,1570,0,0,0,0,0,0,0,0,0,0
1706598121.49973893,85528275,1570,1570,1571,1572,0,0,0,0,0,0,0,0,0,0
1706598121.59969902,85628235,1571,1571,1571,1571,0,0,0,0,0,0,0,0,0,0
1706598121.69965887,85728195,1573,1573,1570,1571,0,0,0,0,0,0,0,0,0,0
1706598121.79961896,85828155,1574,1574,1571,1571,0,0,0,0,0,0,0,0,0,0
1706598121.90041184,85928948,1576,1576,1572,1572,0,0,0,0,0,0,0,0,0,0
1706598122.00037193,86028908,1577,1576,1573,1571,0,0,0,0,0,0,0,0,0,0
1706598122.10033202,86128868,1577,1576,1573,1572,0,0,0,0,0,0,0,0,0,0
1706598122.20029187,86228828,1577,1576,1574,1573,0,0,0,0,0,0,0,0,0,0
1706598122.30025196,86328788,1576,1576,1574,1574,0,0,0,0,0,0,0,0,0,0
1706598122.40021181,86428748,1576,1577,1575,1575,0,0,0,0,0,0,0,0,0,0
1706598122.50017190,86528708,1576,1576,1575,1575,0,0,0,0,0,0,0,0,0,0
1706598122.60013199,86628668,1575,1575,1576,1575,0,0,0,0,0,0,0,0,0,0
1706598122.70009184,86728628,1577,1576,1577,1577,0,0,0,0,0,0,0,0,0,0
1706598122.80005193,86828588,1576,1577,1578,1578,0,0,0,0,0,0,0,0,0,0
1706598122.90001202,86928548,1576,1576,1577,1577,0,0,0,0,0,0,0,0,0,0
1706598122.99997187,87028508,1576,1576,1577,1577,0,0,0,0,0,0,0,0,0,0
1706598123.09993196,87128468,1577,1577,1578,1578,0,0,0,0,0,0,0,0,0,0
1706598123.19989181,87228428,1577,1577,1578,1578,0,0,0,0,0,0,0,0,0,0
1706598123.29985189,87328388,1577,1577,1578,1578,0,0,0,0,0,0,0,0,0,0
1706598123.39981198,87428348,1577,1577,1578,1578,0,0,0,0,0,0,0,0,0,0
1706598123.49977183,87528308,1579,1579,1579,1579,0,0,0,0,0,0,0,0,0,0
1706598123.59973192,87628268,1579,1579,1579,1578,0,0,0,0,0,0,0,0,0,0
1706598123.69969201,87728228,1579,1579,1578,1579,0,0,0,0,0,0,0,0,0,0
1706598123.79965186,87828188,1578,1578,1577,1578,0,0,0,0,0,0,0,0,0,0
1706598123.90044498,87928981,1578,1578,1578,1578,0,0,0,0,0,0,0,0,0,0
1706598124.00040483,88028941,1579,1579,1579,1579,0,0,0,0,0,0,0,0,0,0
1706598124.10036492,88128901,1580,1580,1580,1580,0,0,0,0,0,0,0,0,0,0
1706598124.20032501,88228861,1580,1580,1580,1579,0,0,0,0,0,0,0,0,0,0
1706598124.30028486,88328821,1580,1580,1580,1580,0,0,0,0,0,0,0,0,0,0
1706598124.40024495,88428781,1580,1580,1580,1580,0,0,0,0,0,0,0,0,0,0
1706598124.50020480,88528741,1580,1580,1579,1580,0,0,0,0,0,0,0,0,0,0
1706598124.60016489,88628701,1579,1579,1579,1579,0,0,0,0,0,0,0,0,0,0
1706598124.70012498,88728661,1578,1578,1578,1579,0,0,0,0,0,0,0,0,0,0
1706598124.80008483,88828621,1579,1579,1580,1580,0,0,0,0,0,0,0,0,0,0
1706598124.90004492,88928581,1579,1579,1580,1579,0,0,0,0,0,0,0,0,0,0
1706598125.00000501,89028541,1579,1580,1580,1580,0,0,0,0,0,0,0,0,0,0
1706598125.09996486,89128501,1580,1579,1580,1580,0,0,0,0,0,0,0,0,0,0
1706598125.19992495,89228461,1580,1580,1580,1580,0,0,0,0,0,0,0,0,0,0
1706598125.29988503,89328421,1580,1580,1580,1580,0,0,0,0,0,0,0,0,0,0
1706598125.39984488,89428381,1580,1580,1580,1580,0,0,0,0,0,0,0,0,0,0
1706598125.49980497,89528341,1580,1580,1580,1580,0,0,0,0,0,0,0,0,0,0
1706598125.59976482,89628301,1579,1579,1579,1579,0,0,0,0,0,0,0,0,0,0
1706598125.69972491,89728261,1580,1580,1580,1580,0,0,0,0,0,0,0,0,0,0
1706598125.79968500,89828221,1581,1581,1581,1581,0,0,0,0,0,0,0,0,0,0
1706598125.89964485,89928181,1580,1581,1580,1580,0,0,0,0,0,0,0,0,0,0
1706598126.00043797,90028974,1580,1580,1580,1580,0,0,0,0,0,0,0,0,0,0
1706598126.10039783,90128934,1581,1580,1580,1581,0,0,0,0,0,0,0,0,0,0
1706598126.20035791,90228894,1580,1580,1580,1580,0,0,0,0,0,0,0,0,0,0
1706598126.30031800,90328854,1581,1581,1581,1581,0,0,0,0,0,0,0,0,0,0
1706598126.40027785,90428814,1581,1582,1582,1582,0,0,0,0,0,0,0,0,0,0
1706598126.50023794,90528774,1581,1581,1581,1581,0,0,0,0,0,0,0,0,0,0
1706598126.60019803,90628734,1581,1581,1581,1581,0,0,0,0,0,0,0,0,0,0
1706598126.70015788,90728694,1581,1581,1583,1580,0,0,0,0,0,0,0,0,0,0
1706598126.80011797,90828654,1580,1582,1588,1573,0,0,0,0,0,0,0,0,0,0
1706598126.90007782,90928614,1580,1582,1583,1574,0,0,0,0,0,0,0,0,0,0
1706598127.00003791,91028574,1577,1580,1573,1572,0,0,0,0,0,0,0,0,0,0
1706598127.09999800,91128534,1576,1579,1565,1570,0,0,0,0,0,0,0,0,0,0
1706598127.19995785,91228494,1576,1578,1559,1565,0,0,0,0,0,0,0,0,0,0
1706598127.29991794,91328454,1577,1578,1555,1561,0,0,0,0,0,0,0,0,0,0
1706598127.39987803,91428414,1579,1577,1555,1557,0,0,0,0,0,0,0,0,0,0
1706598127.49983788,91528374,1580,1577,1555,1555,0,0,0,0,0,0,0,0,0,0
1706598127.59979796,91628334,1579,1578,1555,1553,0,0,0,0,0,0,0,0,0,0
1706598127.69975781,91728294,1578,1578,1555,1553,0,0,0,0,0,0,0,0,0,0
1706598127.79971790,91828254,1577,1578,1555,1553,0,0,0,0,0,0,0,0,0,0
1706598127.89967799,91928214,1576,1577,1554,1554,0,0,0,0,0,0,0,0,0,0
1706598127.99963784,92028174,1574,1576,1553,1553,0,0,0,0,0,0,0,0,0,0
1706598128.10043097,92128967,1574,1576,1551,1552,0,0,0,0,0,0,0,0,0,0
1706598128.20039082,92228927,1575,1577,1550,1550,0,0,0,0,0,0,0,0,0,0
1706598128.30035090,92328887,1578,1579,1550,1549,0,0,0,0,0,0,0,0,0,0
1706598128.40031099,92428847,1579,1580,1547,1547,0,0,0,0,0,0,0,0,0,0
1706598128.50027084,92528807,1582,1582,1544,1544,0,0,0,0,0,0,0,0,0,0
1706598128.60023093,92628767,1585,1586,1542,1541,0,0,0,0,0,0,0,0,0,0
1706598128.70019102,92728727,1588,1589,1540,1539,0,0,0,0,0,0,0,0,0,0
1706598128.80015087,92828687,1592,1592,1538,1537,0,0,0,0,0,0,0,0,0,0
1706598128.90011096,92928647,1593,1593,1534,1535,0,0,0,0,0,0,0,0,0,0
1706598129.00007081,93028607,1595,1595,1535,1536,0,0,0,0,0,0,0,0,0,0
1706598129.10003090,93128567,1595,1595,1535,1537,0,0,0,0,0,0,0,0,0,0
1706598129.19999099,93228527,1594,1594,1537,1539,0,0,0,0,0,0,0,0,0,0
1706598129.29995084,93328487,1592,1591,1542,1544,0,0,0,0,0,0,0,0,0,0
1706598129.39991093,93428447,1588,1586,1548,1551,0,0,0,0,0,0,0,0,0,0
1706598129.49987102,93528407,1581,1577,1557,1560,0,0,0,0,0,0,0,0,0,0
1706598129.59983087,93628367,1571,1567,1568,1570,0,0,0,0,0,0,0,0,0,0
1706598129.69979095,93728327,1561,1556,1581,1583,0,0,0,0,0,0,0,0,0,0
1706598129.79975080,93828287,1549,1546,1593,1594,0,0,0,0,0,0,0,0,0,0
1706598129.89971089,93928247,1539,1537,1604,1604,0,0,0,0,0,0,0,0,0,0
1706598129.99967098,94028207,1532,1532,1612,1611,0,0,0,0,0,0,0,0,0,0
1706598130.09963083,94128167,1529,1530,1616,1614,0,0,0,0,0,0,0,0,0,0
1706598130.20042396,94228960,1528,1531,1615,1614,0,0,0,0,0,0,0,0,0,0
1706598130.30038381,94328920,1533,1535,1612,1611,0,0,0,0,0,0,0,0,0,0
1706598130.40034389,94428880,1540,1542,1607,1607,0,0,0,0,0,0,0,0,0,0
1706598130.50030398,94528840,1548,1549,1599,1600,0,0,0,0,0,0,0,0,0,0
1706598130.60026383,94628800,1557,1558,1592,1592,0,0,0,0,0,0,0,0,0,0
1706598130.70022392,94728760,1566,1566,1584,1584,0,0,0,0,0,0,0,0,0,0
1706598130.80018401,94828720,1573,1573,1577,1576,0,0,0,0,0,0,0,0,0,0
1706598130.90014386,94928680,1581,1580,1573,1572,0,0,0,0,0,0,0,0,0,0
1706598131.00010395,95028640,1585,1583,1568,1568,0,0,0,0,0,0,0,0,0,0
1706598131.10006380,95128600,1588,1586,1566,1566,0,0,0,0,0,0,0,0,0,0
1706598131.20002389,95228560,1589,1588,1567,1567,0,0,0,0,0,0,0,0,0,0
1706598131.29998398,95328520,1588,1587,1567,1568,0,0,0,0,0,0,0,0,0,0
1706598131.39994383,95428480,1586,1585,1570,1570,0,0,0,0,0,0,0,0,0,0
1706598131.49990392,95528440,1583,1582,1572,1572,0,0,0,0,0,0,0,0,0,0
1706598131.59986401,95628400,1580,1580,1575,1575,0,0,0,0,0,0,0,0,0,0
1706598131.69982386,95728360,1577,1577,1578,1578,0,0,0,0,0,0,0,0,0,0
1706598131.79978395,95828320,1574,1575,1581,1580,0,0,0,0,0,0,0,0,0,0
1706598131.89974403,95928280,1573,1574,1583,1583,0,0,0,0,0,0,0,0,0,0
1706598131.99970388,96028240,1572,1573,1584,1584,0,0,0,0,0,0,0,0,0,0
1706598132.09966397,96128200,1572,1573,1585,1584,0,0,0,0,0,0,0,0,0,0
1706598132.19962382,96228160,1573,1574,1584,1584,0,0,0,0,0,0,0,0,0,0
1706598132.30041695,96328953,1574,1574,1583,1583,0,0,0,0,0,0,0,0,0,0
1706598132.40037704,96428913,1576,1576,1582,1583,0,0,0,0,0,0,0,0,0,0
1706598132.50033689,96528873,1577,1577,1580,1581,0,0,0,0,0,0,0,0,0,0
1706598132.60029697,96628833,1579,1578,1580,1580,0,0,0,0,0,0,0,0,0,0
1706598132.70025682,96728793,1579,1579,1578,1578,0,0,0,0,0,0,0,0,0,0
1706598132.80021691,96828753,1403,1403,1392,1409,0,0,0,0,0,0,0,0,0,0
1706598132.90017700,96928713,1483,1483,1476,1484,0,0,0,0,0,0,0,0,0,0
1706598133.00013685,97028673,1538,1538,1537,1532,0,0,0,0,0,0,0,0,0,0
1706598133.10009694,97128633,1580,1580,1583,1570,0,0,0,0,0,0,0,0,0,0
1706598133.20005703,97228593,1597,1597,1602,1586,0,0,0,0,0,0,0,0,0,0
1706598133.30001688,97328553,1599,1599,1602,1591,0,0,0,0,0,0,0,0,0,0
1706598133.39997697,97428513,1602,1601,1600,1597,0,0,0,0,0,0,0,0,0,0
1706598133.49993682,97528473,1602,1601,1598,1601,0,0,0,0,0,0,0,0,0,0
1706598133.59989691,97628433,1599,1599,1594,1602,0,0,0,0,0,0,0,0,0,0
1706598133.69985700,97728393,1598,1599,1594,1602,0,0,0,0,0,0,0,0,0,0
1706598133.79981685,97828353,1599,1599,1596,1602,0,0,0,0,0,0,0,0,0,0
1706598133.89977694,97928313,1600,1599,1599,1602,0,0,0,0,0,0,0,0,0,0
1706598133.99973702,98028273,1600,1601,1602,1601,0,0,0,0,0,0,0,0,0,0
1706598134.09969687,98128233,1597,1597,1602,1595,0,0,0,0,0,0,0,0,0,0
1706598134.19965696,98228193,1595,1595,1602,1591,0,0,0,0,0,0,0,0,0,0
1706598134.30044985,98328986,1595,1595,1601,1591,0,0,0,0,0,0,0,0,0,0
1706598134.40040994,98428946,1597,1597,1602,1596,0,0,0,0,0,0,0,0,0,0
1706598134.50037003,98528906,1599,1599,1602,1599,0,0,0,0,0,0,0,0,0,0
1706598134.60032988,98628866,1601,1601,1601,1602,0,0,0,0,0,0,0,0,0,0
1706598134.70028996,98728826,1597,1598,1594,1601,0,0,0,0,0,0,0,0,0,0
1706598134.80024981,98828786,1596,1598,1591,1599,0,0,0,0,0,0,0,0,0,0
1706598134.90020990,98928746,1598,1601,1592,1598,0,0,0,0,0,0,0,0,0,0
1706598135.00016999,99028706,1599,1601,1591,1594,0,0,0,0,0,0,0,0,0,0
1706598135.10012984,99128666,1599,1601,1588,1589,0,0,0,0,0,0,0,0,0,0
1706598135.20008993,99228626,1599,1601,1584,1584,0,0,0,0,0,0,0,0,0,0
1706598135.30005002,99328586,1600,1601,1581,1580,0,0,0,0,0,0,0,0,0,0
1706598135.40000987,99428546,1600,1600,1577,1576,0,0,0,0,0,0,0,0,0,0
1706598135.49996996,99528506,1598,1598,1574,1573,0,0,0,0,0,0,0,0,0,0
1706598135.59992981,99628466,1595,1594,1569,1568,0,0,0,0,0,0,0,0,0,0
1706598135.69988990,99728426,1592,1591,1566,1565,0,0,0,0,0,0,0,0,0,0
1706598135.79984999,99828386,1587,1587,1562,1562,0,0,0,0,0,0,0,0,0,0
1706598135.89980984,99928346,1583,1584,1559,1559,0,0,0,0,0,0,0,0,0,0
1706598135.99976993,100028306,1579,1580,1557,1556,0,0,0,0,0,0,0,0,0,0
1706598136.09973001,100128266,1576,1577,1555,1554,0,0,0,0,0,0,0,0,0,0
1706598136.19968987,100228226,1574,1575,1553,1552,0,0,0,0,0,0,0,0,0,0
1706598136.29964995,100328186,1573,1574,1552,1551,0,0,0,0,0,0,0,0,0,0
1706598136.40044284,100428979,1572,1573,1550,1549,0,0,0,0,0,0,0,0,0,0
1706598136.50040293,100528939,1572,1573,1549,1548,0,0,0,0,0,0,0,0,0,0
1706598136.60036302,100628899,1573,1574,1548,1547,0,0,0,0,0,0,0,0,0,0
1706598136.70032287,100728859,1574,1575,1547,1545,0,0,0,0,0,0,0,0,0,0
1706598136.80028296,100828819,1575,1575,1544,1543,0,0,0,0,0,0,0,0,0,0
1706598136.90024281,100928779,1577,1577,1543,1543,0,0,0,0,0,0,0,0,0,0
1706598137.00020289,101028739,1579,1579,1542,1541,0,0,0,0,0,0,0,0,0,0
1706598137.10016298,101128699,1582,1582,1541,1541,0,0,0,0,0,0,0,0,0,0
1706598137.20012283,101228659,1583,1583,1540,1540,0,0,0,0,0,0,0,0,0,0
1706598137.30008292,101328619,1584,1583,1540,1541,0,0,0,0,0,0,0,0,0,0
1706598137.40004301,101428579,1584,1582,1542,1543,0,0,0,0,0,0,0,0,0,0
1706598137.50000286,101528539,1582,1579,1545,1547,0,0,0,0,0,0,0,0,0,0
1706598137.59996295,101628499,1578,1575,1550,1552,0,0,0,0,0,0,0,0,0,0
1706598137.69992280,101728459,1572,1569,1556,1558,0,0,0,0,0,0,0,0,0,0
1706598137.79988289,101828419,1565,1563,1564,1566,0,0,0,0,0,0,0,0,0,0
1706598137.89984298,101928379,1558,1556,1572,1573,0,0,0,0,0,0,0,0,0,0
1706598137.99980283,102028339,1550,1549,1579,1579,0,0,0,0,0,0,0,0,0,0
1706598138.09976292,102128299,1544,1544,1586,1586,0,0,0,0,0,0,0,0,0,0
1706598138.19972301,102228259,1539,1539,1591,1591,0,0,0,0,0,0,0,0,0,0
1706598138.29968286,102328219,1536,1537,1595,1595,0,0,0,0,0,0,0,0,0,0
1706598138.39964294,102428179,1535,1536,1597,1596,0,0,0,0,0,0,0,0,0,0
1706598138.50043583,102528972,1535,1536,1596,1596,0,0,0,0,0,0,0,0,0,0
1706598138.60039592,102628932,1537,1538,1594,1594,0,0,0,0,0,0,0,0,0,0
1706598138.70035601,102728892,1540,1542,1591,1591,0,0,0,0,0,0,0,0,0,0
1706598138.80031586,102828852,1545,1546,1587,1587,0,0,0,0,0,0,0,0,0,0
1706598138.90027595,102928812,1550,1551,1583,1583,0,0,0,0,0,0,0,0,0,0
1706598139.00023603,103028772,1556,1556,1577,1577,0,0,0,0,0,0,0,0,0,0
1706598139.10019588,103128732,1560,1560,1571,1572,0,0,0,0,0,0,0,0,0,0
1706598139.20015597,103228692,1565,1565,1567,1567,0,0,0,0,0,0,0,0,0,0
1706598139.30011582,103328652,1570,1569,1563,1563,0,0,0,0,0,0,0,0,0,0
1706598139.40007591,103428612,1573,1572,1560,1560,0,0,0,0,0,0,0,0,0,0
1706598139.50003600,103528572,1575,1574,1558,1558,0,0,0,0,0,0,0,0,0,0
1706598139.59999585,103628532,1575,1574,1556,1556,0,0,0,0,0,0,0,0,0,0
1706598139.69995594,103728492,1576,1575,1556,1556,0,0,0,0,0,0,0,0,0,0
1706598139.79991603,103828452,1575,1574,1557,1557,0,0,0,0,0,0,0,0,0,0
1706598139.89987588,103928412,1573,1572,1558,1558,0,0,0,0,0,0,0,0,0,0
1706598139.99983597,104028372,1571,1571,1560,1560,0,0,0,0,0,0,0,0,0,0
1706598140.09979582,104128332,1569,1568,1562,1562,0,0,0,0,0,0,0,0,0,0
1706598140.19975591,104228292,1566,1566,1564,1564,0,0,0,0,0,0,0,0,0,0
1706598140.29971600,104328252,1564,1564,1566,1566,0,0,0,0,0,0,0,0,0,0
1706598140.39967585,104428212,1563,1563,1568,1568,0,0,0,0,0,0,0,0,0,0
1706598140.49963593,104528172,1562,1562,1570,1570,0,0,0,0,0,0,0,0,0,0
1706598140.60042882,104628965,1561,1561,1571,1571,0,0,0,0,0,0,0,0,0,0
1706598140.70038891,104728925,1560,1561,1572,1572,0,0,0,0,0,0,0,0,0,0
1706598140.80034900,104828885,1560,1561,1572,1572,0,0,0,0,0,0,0,0,0,0
1706598140.90030885,104928845,1561,1562,1572,1572,0,0,0,0,0,0,0,0,0,0
1706598141.00026894,105028805,1561,1562,1571,1571,0,0,0,0,0,0,0,0,0,0
1706598141.10022902,105128765,1563,1564,1570,1570,0,0,0,0,0,0,0,0,0,0
1706598141.20018888,105228725,1564,1565,1569,1569,0,0,0,0,0,0,0,0,0,0
1706598141.30014896,105328685,1566,1566,1568,1568,0,0,0,0,0,0,0,0,0,0
1706598141.40010881,105428645,1566,1566,1566,1566,0,0,0,0,0,0,0,0,0,0
1706598141.50006890,105528605,1567,1567,1565,1565,0,0,0,0,0,0,0,0,0,0
1706598141.60002899,105628565,1568,1568,1564,1564,0,0,0,0,0,0,0,0,0,0
1706598141.69998884,105728525,1569,1569,1564,1564,0,0,0,0,0,0,0,0,0,0
1706598141.79994893,105828485,1569,1569,1564,1564,0,0,0,0,0,0,0,0,0,0
1706598141.89990902,105928445,1570,1569,1564,1564,0,0,0,0,0,0,0,0,0,0
1706598141.99986887,106028405,1569,1569,1564,1564,0,0,0,0,0,0,0,0,0,0
1706598142.09982896,106128365,1569,1569,1564,1564,0,0,0,0,0,0,0,0,0,0
1706598142.19978881,106228325,1569,1568,1565,1565,0,0,0,0,0,0,0,0,0,0
1706598142.29974890,106328285,1568,1568,1565,1565,0,0,0,0,0,0,0,0,0,0
1706598142.39970899,106428245,1567,1567,1566,1566,0,0,0,0,0,0,0,0,0,0
1706598142.49966884,106528205,1566,1566,1566,1566,0,0,0,0,0,0,0,0,0,0
1706598142.59962893,106628165,1565,1565,1566,1566,0,0,0,0,0,0,0,0,0,0
1706598142.70042181,106728958,1565,1565,1567,1567,0,0,0,0,0,0,0,0,0,0
1706598142.80038190,106828918,1564,1565,1567,1567,0,0,0,0,0,0,0,0,0,0
1706598142.90034199,106928878,1565,1565,1567,1567,0,0,0,0,0,0,0,0,0,0
1706598143.00030184,107028838,1565,1565,1568,1568,0,0,0,0,0,0,0,0,0,0
1706598143.10026193,107128798,1565,1565,1568,1568,0,0,0,0,0,0,0,0,0,0
1706598143.20022202,107228758,1565,1565,1567,1567,0,0,0,0,0,0,0,0,0,0
1706598143.30018187,107328718,1565,1566,1567,1567,0,0,0,0,0,0,0,0,0,0
1706598143.40014195,107428678,1566,1566,1567,1567,0,0,0,0,0,0,0,0,0,0
1706598143.50010180,107528638,1566,1566,1567,1567,0,0,0,0,0,0,0,0,0,0
1706598143.60006189,107628598,1566,1566,1566,1566,0,0,0,0,0,0,0,0,0,0
1706598143.70002198,107728558,1567,1567,1566,1566,0,0,0,0,0,0,0,0,0,0
1706598143.79998183,107828518,1566,1566,1566,1566,0,0,0,0,0,0,0,0,0,0
1706598143.89994192,107928478,1566,1566,1565,1565,0,0,0,0,0,0,0,0,0,0
1706598143.99990201,108028438,1567,1567,1566,1566,0,0,0,0,0,0,0,0,0,0
1706598144.09986186,108128398,1567,1567,1566,1566,0,0,0,0,0,0,0,0,0,0
1706598144.19982195,108228358,1567,1567,1566,1566,0,0,0,0,0,0,0,0,0,0
1706598144.29978204,108328318,1568,1568,1566,1566,0,0,0,0,0,0,0,0,0,0
1706598144.39974189,108428278,1567,1567,1566,1566,0,0,0,0,0,0,0,0,0,0
1706598144.49970198,108528238,1567,1567,1566,1566,0,0,0,0,0,0,0,0,0,0
1706598144.59966183,108628198,1566,1566,1565,1565,0,0,0,0,0,0,0,0,0,0
1706598144.69962192,108728158,1566,1567,1566,1566,0,0,0,0,0,0,0,0,0,0
1706598144.80041480,108828951,1567,1568,1564,1564,0,0,0,0,0,0,0,0,0,0
1706598144.90037489,108928911,1568,1569,1563,1563,0,0,0,0,0,0,0,0,0,0
1706598145.00033498,109028871,1569,1570,1562,1562,0,0,0,0,0,0,0,0,0,0
1706598145.10029483,109128831,1570,1571,1561,1561,0,0,0,0,0,0,0,0,0,0
1706598145.20025492,109228791,1572,1572,1560,1559,0,0,0,0,0,0,0,0,0,0
1706598145.30021501,109328751,1573,1573,1559,1559,0,0,0,0,0,0,0,0,0,0
1706598145.40017486,109428711,1574,1574,1559,1559,0,0,0,0,0,0,0,0,0,0
1706598145.50013494,109528671,1574,1574,1560,1560,0,0,0,0,0,0,0,0,0,0
1706598145.60009503,109628631,1574,1573,1560,1560,0,0,0,0,0,0,0,0,0,0
1706598145.70005488,109728591,1573,1573,1561,1561,0,0,0,0,0,0,0,0,0,0
1706598145.80001497,109828551,1572,1572,1561,1561,0,0,0,0,0,0,0,0,0,0
1706598145.89997482,109928511,1572,1572,1562,1562,0,0,0,0,0,0,0,0,0,0
1706598145.99993491,110028471,1571,1571,1563,1563,0,0,0,0,0,0,0,0,0,0
1706598146.09989500,110128431,1569,1570,1563,1563,0,0,0,0,0,0,0,0,0,0
1706598146.19985485,110228391,1569,1569,1564,1564,0,0,0,0,0,0,0,0,0,0
1706598146.29981494,110328351,1569,1569,1564,1564,0,0,0,0,0,0,0,0,0,0
1706598146.39977503,110428311,1569,1570,1565,1564,0,0,0,0,0,0,0,0,0,0
1706598146.49973488,110528271,1569,1570,1564,1564,0,0,0,0,0,0,0,0,0,0
1706598146.59969497,110628231,1569,1570,1564,1564,0,0,0,0,0,0,0,0,0,0
1706598146.69965482,110728191,1570,1570,1564,1563,0,0,0,0,0,0,0,0,0,0
1706598146.80044794,110828984,1570,1571,1563,1562,0,0,0,0,0,0,0,0,0,0
1706598146.90040803,110928944,1571,1571,1562,1562,0,0,0,0,0,0,0,0,0,0
1706598147.00036788,111028904,1571,1572,1561,1561,0,0,0,0,0,0,0,0,0,0
1706598147.10032797,111128864,1573,1573,1561,1561,0,0,0,0,0,0,0,0,0,0
1706598147.20028782,111228824,1573,1574,1560,1560,0,0,0,0,0,0,0,0,0,0
1706598147.30024791,111328784,1574,1575,1559,1559,0,0,0,0,0,0,0,0,0,0
1706598147.40020800,111428744,1575,1575,1559,1558,0,0,0,0,0,0,0,0,0,0
1706598147.50016785,111528704,1575,1576,1558,1558,0,0,0,0,0,0,0,0,0,0
1706598147.60012794,111628664,1576,1576,1558,1558,0,0,0,0,0,0,0,0,0,0
1706598147.70008802,111728624,1576,1576,1557,1557,0,0,0,0,0,0,0,0,0,0
1706598147.80004787,111828584,1575,1576,1556,1556,0,0,0,0,0,0,0,0,0,0
1706598147.90000796,111928544,1576,1577,1556,1556,0,0,0,0,0,0,0,0,0,0
1706598147.99996781,112028504,1576,1577,1556,1555,0,0,0,0,0,0,0,0,0,0
1706598148.09992790,112128464,1577,1578,1555,1554,0,0,0,0,0,0,0,0,0,0
1706598148.19988799,112228424,1578,1578,1555,1554,0,0,0,0,0,0,0,0,0,0
1706598148.29984784,112328384,1578,1578,1554,1554,0,0,0,0,0,0,0,0,0,0
1706598148.39980793,112428344,1579,1579,1555,1556,0,0,0,0,0,0,0,0,0,0
1706598148.49976802,112528304,1578,1577,1556,1556,0,0,0,0,0,0,0,0,0,0
1706598148.59972787,112628264,1576,1576,1557,1558,0,0,0,0,0,0,0,0,0,0
1706598148.69968796,112728224,1574,1573,1559,1559,0,0,0,0,0,0,0,0,0,0
1706598148.79964781,112828184,1572,1571,1561,1562,0,0,0,0,0,0,0,0,0,0
1706598148.90044093,112928977,1569,1568,1564,1565,0,0,0,0,0,0,0,0,0,0
1706598149.00040102,113028937,1565,1564,1566,1567,0,0,0,0,0,0,0,0,0,0
1706598149.10036087,113128897,1562,1561,1570,1570,0,0,0,0,0,0,0,0,0,0
1706598149.20032096,113228857,1559,1558,1572,1573,0,0,0,0,0,0,0,0,0,0
1706598149.30028081,113328817,1556,1556,1575,1575,0,0,0,0,0,0,0,0,0,0
1706598149.40024090,113428777,1554,1554,1577,1577,0,0,0,0,0,0,0,0,0,0
1706598149.50020099,113528737,1552,1552,1578,1578,0,0,0,0,0,0,0,0,0,0
1706598149.60016084,113628697,1551,1551,1580,1580,0,0,0,0,0,0,0,0,0,0
1706598149.70012093,113728657,1550,1551,1579,1579,0,0,0,0,0,0,0,0,0,0
1706598149.80008101,113828617,1552,1552,1580,1579,0,0,0,0,0,0,0,0,0,0
1706598149.90004086,113928577,1553,1553,1578,1578,0,0,0,0,0,0,0,0,0,0
1706598150.00000095,114028537,1554,1555,1576,1576,0,0,0,0,0,0,0,0,0,0
1706598150.09996080,114128497,1556,1557,1574,1574,0,0,0,0,0,0,0,0,0,0
1706598150.19992089,114228457,1559,1559,1572,1572,0,0,0,0,0,0,0,0,0,0
1706598150.29988098,114328417,1560,1560,1569,1569,0,0,0,0,0,0,0,0,0,0
1706598150.39984083,114428377,1563,1562,1567,1567,0,0,0,0,0,0,0,0,0,0
1706598150.49980092,114528337,1565,1564,1565,1565,0,0,0,0,0,0,0,0,0,0
1706598150.59976101,114628297,1567,1566,1564,1564,0,0,0,0,0,0,0,0,0,0
1706598150.69972086,114728257,1568,1568,1564,1564,0,0,0,0,0,0,0,0,0,0
1706598150.79968095,114828217,1569,1568,1563,1563,0,0,0,0,0,0,0,0,0,0
1706598150.89964104,114928177,1569,1569,1563,1563,0,0,0,0,0,0,0,0,0,0
1706598151.00043392,115028970,1569,1569,1563,1563,0,0,0,0,0,0,0,0,0,0
1706598151.10039401,115128930,1570,1569,1564,1564,0,0,0,0,0,0,0,0,0,0
1706598151.20035386,115228890,1568,1568,1564,1564,0,0,0,0,0,0,0,0,0,0
1706598151.30031395,115328850,1569,1568,1566,1566,0,0,0,0,0,0,0,0,0,0
1706598151.40027380,115428810,1567,1566,1566,1566,0,0,0,0,0,0,0,0,0,0
1706598151.50023389,115528770,1566,1566,1567,1567,0,0,0,0,0,0,0,0,0,0
1706598151.60019398,115628730,1565,1565,1567,1567,0,0,0,0,0,0,0,0,0,0
1706598151.70015383,115728690,1564,1564,1568,1568,0,0,0,0,0,0,0,0,0,0
1706598151.80011392,115828650,1563,1563,1568,1568,0,0,0,0,0,0,0,0,0,0
1706598151.90007401,115928610,1563,1563,1568,1568,0,0,0,0,0,0,0,0,0,0
1706598152.00003386,116028570,1563,1563,1568,1568,0,0,0,0,0,0,0,0,0,0
1706598152.09999394,116128530,1563,1563,1568,1568,0,0,0,0,0,0,0,0,0,0
1706598152.19995403,116228490,1563,1563,1567,1567,0,0,0,0,0,0,0,0,0,0
1706598152.29991388,116328450,1564,1564,1567,1567,0,0,0,0,0,0,0,0,0,0
1706598152.39987397,116428410,1565,1565,1567,1567,0,0,0,0,0,0,0,0,0,0
1706598152.49983382,116528370,1565,1565,1567,1567,0,0,0,0,0,0,0,0,0,0
1706598152.59979391,116628330,1566,1566,1566,1566,0,0,0,0,0,0,0,0,0,0
1706598152.69975400,116728290,1566,1566,1566,1566,0,0,0,0,0,0,0,0,0,0
1706598152.79971385,116828250,1567,1567,1566,1566,0,0,0,0,0,0,0,0,0,0
1706598152.89967394,116928210,1567,1567,1565,1565,0,0,0,0,0,0,0,0,0,0
1706598152.99963403,117028170,1568,1568,1566,1566,0,0,0,0,0,0,0,0,0,0
1706598153.10042691,117128963,1567,1567,1565,1565,0,0,0,0,0,0,0,0,0,0
1706598153.20038700,117228923,1567,1567,1565,1565,0,0,0,0,0,0,0,0,0,0
1706598153.30034685,117328883,1567,1567,1565,1565,0,0,0,0,0,0,0,0,0,0
1706598153.40030694,117428843,1567,1567,1565,1565,0,0,0,0,0,0,0,0,0,0
1706598153.50026703,117528803,1567,1567,1566,1566,0,0,0,0,0,0,0,0,0,0
1706598153.60022688,117628763,1567,1567,1566,1566,0,0,0,0,0,0,0,0,0,0
1706598153.70018697,117728723,1566,1566,1566,1566,0,0,0,0,0,0,0,0,0,0
1706598153.80014682,117828683,1566,1566,1566,1566,0,0,0,0,0,0,0,0,0,0
1706598153.90010691,117928643,1566,1566,1567,1567,0,0,0,0,0,0,0,0,0,0
1706598154.00006700,118028603,1565,1565,1566,1566,0,0,0,0,0,0,0,0,0,0
1706598154.10002685,118128563,1565,1565,1567,1567,0,0,0,0,0,0,0,0,0,0
1706598154.19998693,118228523,1566,1566,1567,1567,0,0,0,0,0,0,0,0,0,0
1706598154.29994702,118328483,1566,1566,1567,1567,0,0,0,0,0,0,0,0,0,0
1706598154.39990687,118428443,1566,1566,1567,1567,0,0,0,0,0,0,0,0,0,0
1706598154.49986696,118528403,1566,1566,1567,1567,0,0,0,0,0,0,0,0,0,0
1706598154.59982681,118628363,1566,1566,1567,1567,0,0,0,0,0,0,0,0,0,0
1706598154.69978690,118728323,1567,1567,1567,1567,0,0,0,0,0,0,0,0,0,0
1706598154.79974699,118828283,1567,1567,1567,1567,0,0,0,0,0,0,0,0,0,0
1706598154.89970684,118928243,1567,1566,1567,1567,0,0,0,0,0,0,0,0,0,0
1706598154.99966693,119028203,1567,1567,1567,1567,0,0,0,0,0,0,0,0,0,0
1706598155.09962702,119128163,1567,1567,1567,1567,0,0,0,0,0,0,0,0,0,0
1706598155.20041990,119228956,1567,1567,1567,1566,0,0,0,0,0,0,0,0,0,0
1706598155.30037999,119328916,1566,1566,1566,1566,0,0,0,0,0,0,0,0,0,0
1706598155.40033984,119428876,1567,1567,1567,1567,0,0,0,0,0,0,0,0,0,0
1706598155.50029993,119528836,1567,1567,1566,1566,0,0,0,0,0,0,0,0,0,0
1706598155.60026002,119628796,1567,1567,1567,1567,0,0,0,0,0,0,0,0,0,0
1706598155.70021987,119728756,1567,1567,1567,1567,0,0,0,0,0,0,0,0,0,0
1706598155.80017996,119828716,1567,1567,1567,1566,0,0,0,0,0,0,0,0,0,0
1706598155.90013981,119928676,1567,1567,1567,1567,0,0,0,0,0,0,0,0,0,0
1706598156.00009990,120028636,1567,1567,1567,1567,0,0,0,0,0,0,0,0,0,0
1706598156.10005999,120128596,1567,1567,1567,1567,0,0,0,0,0,0,0,0,0,0
1706598156.20001984,120228556,1567,1567,1567,1567,0,0,0,0,0,0,0,0,0,0
1706598156.29997993,120328516,1567,1567,1567,1567,0,0,0,0,0,0,0,0,0,0
1706598156.39994001,120428476,1567,1567,1567,1568,0,0,0,0,0,0,0,0,0,0
1706598156.49989986,120528436,1567,1567,1567,1567,0,0,0,0,0,0,0,0,0,0
1706598156.59985995,120628396,1566,1566,1566,1567,0,0,0,0,0,0,0,0,0,0
1706598156.69981980,120728356,1566,1566,1566,1566,0,0,0,0,0,0,0,0,0,0
1706598156.79977989,120828316,1566,1566,1566,1566,0,0,0,0,0,0,0,0,0,0
1706598156.89973998,120928276,1566,1567,1567,1567,0,0,0,0,0,0,0,0,0,0
1706598156.99969983,121028236,1566,1566,1566,1566,0,0,0,0,0,0,0,0,0,0
1706598157.09965992,121128196,1566,1566,1566,1566,0,0,0,0,0,0,0,0,0,0
1706598157.19962001,121228156,1566,1566,1566,1566,0,0,0,0,0,0,0,0,0,0
1706598157.30041289,121328949,1566,1566,1566,1567,0,0,0,0,0,0,0,0,0,0
1706598157.40037298,121428909,1567,1567,1567,1567,0,0,0,0,0,0,0,0,0,0
1706598157.50033283,121528869,1566,1566,1566,1566,0,0,0,0,0,0,0,0,0,0
1706598157.60029292,121628829,1566,1566,1566,1566,0,0,0,0,0,0,0,0,0,0
1706598157.70025301,121728789,1566,1566,1566,1566,0,0,0,0,0,0,0,0,0,0
1706598157.80021286,121828749,1566,1566,1566,1566,0,0,0,0,0,0,0,0,0,0
1706598157.90017295,121928709,1566,1566,1566,1566,0,0,0,0,0,0,0,0,0,0
1706598158.00013304,122028669,1566,1566,1566,1566,0,0,0,0,0,0,0,0,0,0
1706598158.10009289,122128629,1567,1567,1567,1567,0,0,0,0,0,0,0,0,0,0
1706598158.20005298,122228589,1567,1567,1567,1567,0,0,0,0,0,0,0,0,0,0
1706598158.30001283,122328549,1568,1567,1570,1564,0,0,0,0,0,0,0,0,0,0
1706598158.39997292,122428509,1567,1567,1572,1563,0,0,0,0,0,0,0,0,0,0
1706598158.49993300,122528469,1566,1566,1570,1563,0,0,0,0,0,0,0,0,0,0
1706598158.59989285,122628429,1564,1564,1567,1562,0,0,0,0,0,0,0,0,0,0
1706598158.69985294,122728389,1563,1563,1564,1563,0,0,0,0,0,0,0,0,0,0
1706598158.79981303,122828349,1562,1562,1562,1563,0,0,0,0,0,0,0,0,0,0
1706598158.89977288,122928309,1561,1561,1560,1562,0,0,0,0,0,0,0,0,0,0
1706598158.99973297,123028269,1561,1561,1560,1563,0,0,0,0,0,0,0,0,0,0
1706598159.09969282,123128229,1560,1561,1560,1562,0,0,0,0,0,0,0,0,0,0
1706598159.19965291,123228189,1561,1561,1561,1561,0,0,0,0,0,0,0,0,0,0
1706598159.30044603,123328982,1561,1560,1562,1559,0,0,0,0,0,0,0,0,0,0
1706598159.40040588,123428942,1560,1560,1563,1558,0,0,0,0,0,0,0,0,0,0
1706598159.50036597,123528902,1562,1561,1563,1560,0,0,0,0,0,0,0,0,0,0
1706598159.60032582,123628862,1562,1561,1561,1562,0,0,0,0,0,0,0,0,0,0
1706598159.70028591,123728822,1561,1561,1559,1564,0,0,0,0,0,0,0,0,0,0
1706598159.80024600,123828782,1561,1561,1557,1563,0,0,0,0,0,0,0,0,0,0
1706598159.90020585,123928742,1560,1561,1556,1563,0,0,0,0,0,0,0,0,0,0
1706598160.00016594,124028702,1559,1560,1557,1561,0,0,0,0,0,0,0,0,0,0
1706598160.10012603,124128662,1558,1557,1557,1557,0,0,0,0,0,0,0,0,0,0
1706598160.20008588,124228622,1557,1557,1557,1557,0,0,0,0,0,0,0,0,0,0
1706598160.30004597,124328582,1555,1555,1554,1555,0,0,0,0,0,0,0,0,0,0
1706598160.40000582,124428542,1551,1551,1551,1551,0,0,0,0,0,0,0,0,0,0
1706598160.49996591,124528502,1547,1546,1546,1546,0,0,0,0,0,0,0,0,0,0
1706598160.59992599,124628462,1541,1541,1541,1541,0,0,0,0,0,0,0,0,0,0
1706598160.69988585,124728422,1535,1536,1535,1536,0,0,0,0,0,0,0,0,0,0
1706598160.79984593,124828382,1528,1528,1529,1528,0,0,0,0,0,0,0,0,0,0
1706598160.89980602,124928342,1522,1522,1522,1523,0,0,0,0,0,0,0,0,0,0
1706598160.99976587,125028302,1520,1520,1520,1520,0,0,0,0,0,0,0,0,0,0
1706598161.09972596,125128262,1519,1518,1519,1519,0,0,0,0,0,0,0,0,0,0
1706598161.19968581,125228222,1519,1519,1519,1520,0,0,0,0,0,0,0,0,0,0
1706598161.29964590,125328182,1521,1521,1521,1522,0,0,0,0,0,0,0,0,0,0
1706598161.40043902,125428975,1524,1524,1524,1525,0,0,0,0,0,0,0,0,0,0
1706598161.50039887,125528935,1528,1528,1528,1529,0,0,0,0,0,0,0,0,0,0
1706598161.60035896,125628895,1533,1533,1533,1533,0,0,0,0,0,0,0,0,0,0
1706598161.70031881,125728855,1536,1536,1536,1537,0,0,0,0,0,0,0,0,0,0
1706598161.80027890,125828815,1539,1539,1539,1539,0,0,0,0,0,0,0,0,0,0
1706598161.90023899,125928775,1542,1542,1542,1542,0,0,0,0,0,0,0,0,0,0
1706598162.00019884,126028735,1544,1544,1545,1544,0,0,0,0,0,0,0,0,0,0
1706598162.10015893,126128695,1545,1545,1545,1545,0,0,0,0,0,0,0,0,0,0
1706598162.20011902,126228655,1546,1546,1546,1546,0,0,0,0,0,0,0,0,0,0
1706598162.30007887,126328615,1547,1547,1547,1547,0,0,0,0,0,0,0,0,0,0
1706598162.40003896,126428575,1547,1548,1548,1547,0,0,0,0,0,0,0,0,0,0
1706598162.49999881,126528535,1547,1547,1547,1546,0,0,0,0,0,0,0,0,0,0
1706598162.59995890,126628495,1548,1548,1548,1547,0,0,0,0,0,0,0,0,0,0
1706598162.69991899,126728455,1547,1546,1546,1547,0,0,0,0,0,0,0,0,0,0
1706598162.79987884,126828415,1546,1546,1546,1546,0,0,0,0,0,0,0,0,0,0
1706598162.89983892,126928375,1547,1546,1546,1546,0,0,0,0,0,0,0,0,0,0
1706598162.99979901,127028335,1547,1547,1547,1547,0,0,0,0,0,0,0,0,0,0
1706598163.09975886,127128295,1546,1546,1546,1546,0,0,0,0,0,0,0,0,0,0
1706598163.19971895,127228255,1545,1545,1545,1545,0,0,0,0,0,0,0,0,0,0
1706598163.29967880,127328215,1545,1545,1545,1545,0,0,0,0,0,0,0,0,0,0
1706598163.39963889,127428175,1545,1545,1545,1544,0,0,0,0,0,0,0,0,0,0
1706598163.50043201,127528968,1545,1545,1545,1545,0,0,0,0,0,0,0,0,0,0
1706598163.60039186,127628928,1544,1545,1545,1545,0,0,0,0,0,0,0,0,0,0
1706598163.70035195,127728888,1544,1544,1544,1544,0,0,0,0,0,0,0,0,0,0
1706598163.80031180,127828848,1544,1545,1544,1545,0,0,0,0,0,0,0,0,0,0
1706598163.90027189,127928808,1544,1544,1544,1544,0,0,0,0,0,0,0,0,0,0
1706598164.00023198,128028768,1544,1544,1544,1544,0,0,0,0,0,0,0,0,0,0
1706598164.10019183,128128728,1544,1544,1544,1544,0,0,0,0,0,0,0,0,0,0
1706598164.20015192,128228688,1545,1544,1545,1544,0,0,0,0,0,0,0,0,0,0
1706598164.30011201,128328648,1544,1544,1544,1544,0,0,0,0,0,0,0,0,0,0
1706598164.40007186,128428608,1544,1544,1544,1543,0,0,0,0,0,0,0,0,0,0
1706598164.50003195,128528568,1544,1544,1544,1544,0,0,0,0,0,0,0,0,0,0
1706598164.59999204,128628528,1543,1544,1544,1543,0,0,0,0,0,0,0,0,0,0
1706598164.69995189,128728488,1544,1543,1543,1543,0,0,0,0,0,0,0,0,0,0
1706598164.79991198,128828448,1544,1544,1544,1544,0,0,0,0,0,0,0,0,0,0
1706598164.89987183,128928408,1545,1544,1543,1544,0,0,0,0,0,0,0,0,0,0
1706598164.99983191,129028368,1544,1544,1544,1544,0,0,0,0,0,0,0,0,0,0
1706598165.09979200,129128328,1545,1544,1544,1545,0,0,0,0,0,0,0,0,0,0
1706598165.19975185,129228288,1544,1544,1544,1544,0,0,0,0,0,0,0,0,0,0
1706598165.29971194,129328248,1544,1544,1544,1544,0,0,0,0,0,0,0,0,0,0
1706598165.39967203,129428208,1545,1545,1545,1544,0,0,0,0,0,0,0,0,0,0
1706598165.49963188,129528168,1544,1544,1544,1545,0,0,0,0,0,0,0,0,0,0
1706598165.60042500,129628961,1544,1544,1544,1544,0,0,0,0,0,0,0,0,0,0
1706598165.70038486,129728921,1545,1544,1544,1545,0,0,0,0,0,0,0,0,0,0
1706598165.80034494,129828881,1544,1544,1544,1544,0,0,0,0,0,0,0,0,0,0
1706598165.90030503,129928841,1544,1544,1544,1545,0,0,0,0,0,0,0,0,0,0
1706598166.00026488,130028801,1544,1544,1544,1544,0,0,0,0,0,0,0,0,0,0
1706598166.10022497,130128761,1544,1544,1544,1544,0,0,0,0,0,0,0,0,0,0
1706598166.20018482,130228721,1544,1544,1544,1544,0,0,0,0,0,0,0,0,0,0
1706598166.30014491,130328681,1544,1544,1544,1544,0,0,0,0,0,0,0,0,0,0
1706598166.40010500,130428641,1543,1543,1543,1543,0,0,0,0,0,0,0,0,0,0
1706598166.50006485,130528601,1544,1543,1543,1544,0,0,0,0,0,0,0,0,0,0
1706598166.60002494,130628561,1544,1543,1543,1543,0,0,0,0,0,0,0,0,0,0
1706598166.69998503,130728521,1544,1543,1544,1544,0,0,0,0,0,0,0,0,0,0
1706598166.79994488,130828481,1543,1543,1543,1543,0,0,0,0,0,0,0,0,0,0
1706598166.89990497,130928441,1544,1544,1544,1544,0,0,0,0,0,0,0,0,0,0
1706598166.99986482,131028401,1545,1545,1545,1545,0,0,0,0,0,0,0,0,0,0
1706598167.09982491,131128361,1544,1544,1544,1544,0,0,0,0,0,0,0,0,0,0
1706598167.19978499,131228321,1544,1544,1544,1544,0,0,0,0,0,0,0,0,0,0
1706598167.29974484,131328281,1545,1545,1545,1545,0,0,0,0,0,0,0,0,0,0
1706598167.39970493,131428241,1545,1546,1546,1545,0,0,0,0,0,0,0,0,0,0
1706598167.49966502,131528201,1546,1545,1545,1545,0,0,0,0,0,0,0,0,0,0
1706598167.59962487,131628161,1545,1544,1545,1545,0,0,0,0,0,0,0,0,0,0
1706598167.70041800,131728954,1545,1545,1545,1545,0,0,0,0,0,0,0,0,0,0
1706598167.80037785,131828914,1544,1545,1545,1545,0,0,0,0,0,0,0,0,0,0
1706598167.90033793,131928874,1544,1544,1544,1544,0,0,0,0,0,0,0,0,0,0
1706598168.00029802,132028834,1544,1545,1545,1544,0,0,0,0,0,0,0,0,0,0
1706598168.10025787,132128794,1545,1545,1544,1545,0,0,0,0,0,0,0,0,0,0
1706598168.20021796,132228754,1544,1544,1544,1544,0,0,0,0,0,0,0,0,0,0
1706598168.30017781,132328714,1544,1543,1544,1544,0,0,0,0,0,0,0,0,0,0
1706598168.40013790,132428674,1544,1544,1545,1544,0,0,0,0,0,0,0,0,0,0
1706598168.50009799,132528634,1544,1544,1544,1544,0,0,0,0,0,0,0,0,0,0
1706598168.60005784,132628594,1545,1545,1545,1545,0,0,0,0,0,0,0,0,0,0
1706598168.70001793,132728554,1545,1544,1544,1545,0,0,0,0,0,0,0,0,0,0
1706598168.79997802,132828514,1544,1545,1545,1544,0,0,0,0,0,0,0,0,0,0
1706598168.89993787,132928474,1544,1545,1545,1544,0,0,0,0,0,0,0,0,0,0
1706598168.99989796,133028434,1544,1544,1544,1544,0,0,0,0,0,0,0,0,0,0
1706598169.09985781,133128394,1544,1544,1544,1544,0,0,0,0,0,0,0,0,0,0
1706598169.19981790,133228354,1544,1544,1544,1544,0,0,0,0,0,0,0,0,0,0
1706598169.29977798,133328314,1545,1545,1545,1545,0,0,0,0,0,0,0,0,0,0
1706598169.39973783,133428274,1544,1544,1544,1544,0,0,0,0,0,0,0,0,0,0
1706598169.49969792,133528234,1545,1544,1545,1544,0,0,0,0,0,0,0,0,0,0
1706598169.59965801,133628194,1545,1545,1545,1545,0,0,0,0,0,0,0,0,0,0
1706598169.69961786,133728154,1545,1545,1545,1545,0,0,0,0,0,0,0,0,0,0
1706598169.80041099,133828947,1544,1545,1544,1545,0,0,0,0,0,0,0,0,0,0
1706598169.90037084,133928907,1545,1545,1544,1545,0,0,0,0,0,0,0,0,0,0
1706598170.00033092,134028867,1545,1545,1545,1545,0,0,0,0,0,0,0,0,0,0
1706598170.10029101,134128827,1545,1545,1545,1545,0,0,0,0,0,0,0,0,0,0
1706598170.20025086,134228787,1545,1545,1545,1545,0,0,0,0,0,0,0,0,0,0
1706598170.30021095,134328747,1545,1544,1544,1544,0,0,0,0,0,0,0,0,0,0
1706598170.40017080,134428707,1544,1544,1544,1544,0,0,0,0,0,0,0,0,0,0
1706598170.50013089,134528667,1544,1544,1544,1544,0,0,0,0,0,0,0,0,0,0
1706598170.60009098,134628627,1544,1544,1544,1544,0,0,0,0,0,0,0,0,0,0
1706598170.70005083,134728587,1432,1433,1432,1433,0,0,0,0,0,0,0,0,0,0
1706598170.80001092,134828547,1367,1368,1368,1367,0,0,0,0,0,0,0,0,0,0
1706598170.89997101,134928507,1348,1349,1348,1348,0,0,0,0,0,0,0,0,0,0
1706598170.99993086,135028467,1338,1340,1339,1339,0,0,0,0,0,0,0,0,0,0
1706598171.09989095,135128427,1318,1319,1319,1319,0,0,0,0,0,0,0,0,0,0
1706598171.19985104,135228387,1284,1286,1285,1285,0,0,0,0,0,0,0,0,0,0
1706598171.29981089,135328347,1241,1242,1241,1242,0,0,0,0,0,0,0,0,0,0
1706598171.39977098,135428307,1192,1194,1194,1193,0,0,0,0,0,0,0,0,0,0
1706598171.49973083,135528267,1141,1143,1142,1142,0,0,0,0,0,0,0,0,0,0
1706598171.59969091,135628227,1085,1088,1087,1087,0,0,0,0,0,0,0,0,0,0
1706598171.69965100,135728187,1023,1026,1025,1025,0,0,0,0,0,0,0,0,0,0
1706598171.80044389,135828980,950,954,953,952,0,0,0,0,0,0,0,0,0,0
1706598171.90040398,135928940,862,867,865,866,0,0,0,0,0,0,0,0,0,0
1706598172.00036383,136028900,802,808,806,806,0,0,0,0,0,0,0,0,0,0
1706598172.10032392,136128860,802,807,805,806,0,0,0,0,0,0,0,0,0,0
1706598172.20028400,136228820,833,803,802,837,0,0,0,0,0,0,0,0,0,0
1706598172.30024385,136328780,835,803,802,839,0,0,0,0,0,0,0,0,0,0
1706598172.40020394,136428740,825,803,802,829,0,0,0,0,0,0,0,0,0,0
1706598172.50016403,136528700,824,803,802,829,0,0,0,0,0,0,0,0,0,0
1706598172.60012388,136628660,826,803,802,831,0,0,0,0,0,0,0,0,0,0
1706598172.70008397,136728620,829,803,802,834,0,0,0,0,0,0,0,0,0,0
1706598172.80004382,136828580,831,803,802,836,0,0,0,0,0,0,0,0,0,0
1706598172.90000391,136928540,834,804,802,839,0,0,0,0,0,0,0,0,0,0
1706598172.99996400,137028500,811,802,802,814,0,0,0,0,0,0,0,0,0,0
1706598173.09992385,137128460,818,802,802,822,0,0,0,0,0,0,0,0,0,0
1706598173.19988394,137228420,819,802,802,823,0,0,0,0,0,0,0,0,0,0
1706598173.29984403,137328380,820,802,802,824,0,0,0,0,0,0,0,0,0,0
1706598173.39980388,137428340,820,802,802,825,0,0,0,0,0,0,0,0,0,0
1706598173.49976397,137528300,1000,1000,1000,1000,0,0,0,0,0,0,0,0,0,0
1706598173.59972382,137628260,1000,1000,1000,1000,0,0,0,0,0,0,0,0,0,0
1706598173.69968390,137728220,1000,1000,1000,1000,0,0,0,0,0,0,0,0,0,0
1706598173.79964399,137828180,1000,1000,1000,1000,0,0,0,0,0,0,0,0,0,0
1706598173.90043688,137928973,1000,1000,1000,1000,0,0,0,0,0,0,0,0,0,0
1706598174.00039697,138028933,1000,1000,1000,1000,0,0,0,0,0,0,0,0,0,0
1706598174.10035682,138128893,1000,1000,1000,1000,0,0,0,0,0,0,0,0,0,0
1706598174.20031691,138228853,1000,1000,1000,1000,0,0,0,0,0,0,0,0,0,0
1706598174.30027699,138328813,1000,1000,1000,1000,0,0,0,0,0,0,0,0,0,0
1706598174.40023685,138428773,1000,1000,1000,1000,0,0,0,0,0,0,0,0,0,0
1706598174.50019693,138528733,1000,1000,1000,1000,0,0,0,0,0,0,0,0,0,0
1706598174.60015702,138628693,1000,1000,1000,1000,0,0,0,0,0,0,0,0,0,0
1706598174.70011687,138728653,1000,1000,1000,1000,0,0,0,0,0,0,0,0,0,0
1706598174.80007696,138828613,1000,1000,1000,1000,0,0,0,0,0,0,0,0,0,0
1706598174.90003681,138928573,1000,1000,1000,1000,0,0,0,0,0,0,0,0,0,0
1706598174.99999690,139028533,1000,1000,1000,1000,0,0,0,0,0,0,0,0,0,0
1706598175.09995699,139128493,1000,1000,1000,1000,0,0,0,0,0,0,0,0,0,0
1706598175.19991684,139228453,1000,1000,1000,1000,0,0,0,0,0,0,0,0,0,0
1706598175.29987693,139328413,1000,1000,1000,1000,0,0,0,0,0,0,0,0,0,0
1706598175.39983702,139428373,1000,1000,1000,1000,0,0,0,0,0,0,0,0,0,0
1706598175.49979687,139528333,1000,1000,1000,1000,0,0,0,0,0,0,0,0,0,0
1706598175.59975696,139628293,1000,1000,1000,1000,0,0,0,0,0,0,0,0,0,0
1706598175.69971681,139728253,1000,1000,1000,1000,0,0,0,0,0,0,0,0,0,0
1706598175.79967690,139828213,1000,1000,1000,1000,0,0,0,0,0,0,0,0,0,0
1706598175.89963698,139928173,1000,1000,1000,1000,0,0,0,0,0,0,0,0,0,0
1706598176.00042987,140028966,1000,1000,1000,1000,0,0,0,0,0,0,0,0,0,0
1706598176.10038996,140128926,1000,1000,1000,1000,0,0,0,0,0,0,0,0,0,0
1706598176.20034981,140228886,1000,1000,1000,1000,0,0,0,0,0,0,0,0,0,0
1706598176.30030990,140328846,1000,1000,1000,1000,0,0,0,0,0,0,0,0,0,0
1706598176.40026999,140428806,1000,1000,1000,1000,0,0,0,0,0,0,0,0,0,0
1706598176.50022984,140528766,1000,1000,1000,1000,0,0,0,0,0,0,0,0,0,0
1706598176.60018992,140628726,1000,1000,1000,1000,0,0,0,0,0,0,0,0,0,0
1706598176.70015001,140728686,1000,1000,1000,1000,0,0,0,0,0,0,0,0,0,0
1706598176.80010986,140828646,1000,1000,1000,1000,0,0,0,0,0,0,0,0,0,0
1706598176.90006995,140928606,1000,1000,1000,1000,0,0,0,0,0,0,0,0,0,0
1706598177.00002980,141028566,1000,1000,1000,1000,0,0,0,0,0,0,0,0,0,0
1706598177.09998989,141128526,1000,1000,1000,1000,0,0,0,0,0,0,0,0,0,0
1706598177.19994998,141228486,1000,1000,1000,1000,0,0,0,0,0,0,0,0,0,0
1706598177.29990983,141328446,1000,1000,1000,1000,0,0,0,0,0,0,0,0,0,0
1706598177.39986992,141428406,1000,1000,1000,1000,0,0,0,0,0,0,0,0,0,0
1706598177.49983001,141528366,1000,1000,1000,1000,0,0,0,0,0,0,0,0,0,0
1706598177.59978986,141628326,1000,1000,1000,1000,0,0,0,0,0,0,0,0,0,0
1706598177.69974995,141728286,1000,1000,1000,1000,0,0,0,0,0,0,0,0,0,0
1706598177.79971004,141828246,1000,1000,1000,1000,0,0,0,0,0,0,0,0,0,0
1706598177.89966989,141928206,1000,1000,1000,1000,0,0,0,0,0,0,0,0,0,0
1706598177.99962997,142028166,1000,1000,1000,1000,0,0,0,0,0,0,0,0,0,0
1706598178.10042286,142128959,1000,1000,1000,1000,0,0,0,0,0,0,0,0,0,0
1706598178.20038295,142228919,1000,1000,1000,1000,0,0,0,0,0,0,0,0,0,0
1706598178.30034304,142328879,1000,1000,1000,1000,0,0,0,0,0,0,0,0,0,0
1706598178.40030289,142428839,1000,1000,1000,1000,0,0,0,0,0,0,0,0,0,0
1706598178.50026298,142528799,1000,1000,1000,1000,0,0,0,0,0,0,0,0,0,0
1706598178.60022283,142628759,1000,1000,1000,1000,0,0,0,0,0,0,0,0,0,0
1706598178.70018291,142728719,1000,1000,1000,1000,0,0,0,0,0,0,0,0,0,0
1706598178.80014300,142828679,1000,1000,1000,1000,0,0,0,0,0,0,0,0,0,0
1706598178.90010285,142928639,1000,1000,1000,1000,0,0,0,0,0,0,0,0,0,0
1706598179.00006294,143028599,1000,1000,1000,1000,0,0,0,0,0,0,0,0,0,0
1706598179.10002303,143128559,1000,1000,1000,1000,0,0,0,0,0,0,0,0,0,0
1706598179.19998288,143228519,1000,1000,1000,1000,0,0,0,0,0,0,0,0,0,0
1706598179.29994297,143328479,1000,1000,1000,1000,0,0,0,0,0,0,0,0,0,0
1706598179.39990282,143428439,1000,1000,1000,1000,0,0,0,0,0,0,0,0,0,0
1706598179.49986291,143528399,1000,1000,1000,1000,0,0,0,0,0,0,0,0,0,0
1706598179.59982300,143628359,1000,1000,1000,1000,0,0,0,0,0,0,0,0,0,0
1706598179.69978285,143728319,1000,1000,1000,1000,0,0,0,0,0,0,0,0,0,0
1706598179.79974294,143828279,1000,1000,1000,1000,0,0,0,0,0,0,0,0,0,0
1706598179.89970303,143928239,1000,1000,1000,1000,0,0,0,0,0,0,0,0,0,0
1706598179.99966288,144028199,1000,1000,1000,1000,0,0,0,0,0,0,0,0,0,0
1706598180.09962296,144128159,1000,1000,1000,1000,0,0,0,0,0,0,0,0,0,0
1706598180.20041585,144228952,1000,1000,1000,1000,0,0,0,0,0,0,0,0,0,0
1706598180.30037594,144328912,1000,1000,1000,1000,0,0,0,0,0,0,0,0,0,0
1706598180.40033603,144428872,1000,1000,1000,1000,0,0,0,0,0,0,0,0,0,0
1706598180.50029588,144528832,1000,1000,1000,1000,0,0,0,0,0,0,0,0,0,0
1706598180.60025597,144628792,1000,1000,1000,1000,0,0,0,0,0,0,0,0,0,0
1706598180.70021582,144728752,1000,1000,1000,1000,0,0,0,0,0,0,0,0,0,0
1706598180.80017591,144828712,1000,1000,1000,1000,0,0,0,0,0,0,0,0,0,0
1706598180.90013599,144928672,1000,1000,1000,1000,0,0,0,0,0,0,0,0,0,0
1706598181.00009584,145028632,1000,1000,1000,1000,0,0,0,0,0,0,0,0,0,0
1706598181.10005593,145128592,1000,1000,1000,1000,0,0,0,0,0,0,0,0,0,0
1706598181.20001602,145228552,1000,1000,1000,1000,0,0,0,0,0,0,0,0,0,0
1706598181.29997587,145328512,1000,1000,1000,1000,0,0,0,0,0,0,0,0,0,0
1706598181.39993596,145428472,1000,1000,1000,1000,0,0,0,0,0,0,0,0,0,0
1706598181.49989581,145528432,1000,1000,1000,1000,0,0,0,0,0,0,0,0,0,0
1706598181.59985590,145628392,1000,1000,1000,1000,0,0,0,0,0,0,0,0,0,0
1706598181.69981599,145728352,1000,1000,1000,1000,0,0,0,0,0,0,0,0,0,0
1706598181.79977584,145828312,1000,1000,1000,1000,0,0,0,0,0,0,0,0,0,0
1706598181.89973593,145928272,1000,1000,1000,1000,0,0,0,0,0,0,0,0,0,0
1706598181.99969602,146028232,1000,1000,1000,1000,0,0,0,0,0,0,0,0,0,0
1706598182.09965587,146128192,1000,1000,1000,1000,0,0,0,0,0,0,0,0,0,0
1706598182.20044899,146228985,1000,1000,1000,1000,0,0,0,0,0,0,0,0,0,0
1706598182.30040884,146328945,1000,1000,1000,1000,0,0,0,0,0,0,0,0,0,0
1706598182.40036893,146428905,1000,1000,1000,1000,0,0,0,0,0,0,0,0,0,0
1706598182.50032902,146528865,1000,1000,1000,1000,0,0,0,0,0,0,0,0,0,0
1706598182.60028887,146628825,1000,1000,1000,1000,0,0,0,0,0,0,0,0,0,0
1706598182.70024896,146728785,1000,1000,1000,1000,0,0,0,0,0,0,0,0,0,0
1706598182.80020881,146828745,1000,1000,1000,1000,0,0,0,0,0,0,0,0,0,0
1706598182.90016890,146928705,1000,1000,1000,1000,0,0,0,0,0,0,0,0,0,0
1706598183.00012898,147028665,1000,1000,1000,1000,0,0,0,0,0,0,0,0,0,0
1706598183.10008883,147128625,1000,1000,1000,1000,0,0,0,0,0,0,0,0,0,0
1706598183.20004892,147228585,1000,1000,1000,1000,0,0,0,0,0,0,0,0,0,0
1706598183.30000901,147328545,1000,1000,1000,1000,0,0,0,0,0,0,0,0,0,0
1706598183.39996886,147428505,1000,1000,1000,1000,0,0,0,0,0,0,0,0,0,0
1706598183.49992895,147528465,1000,1000,1000,1000,0,0,0,0,0,0,0,0,0,0
1706598183.59988880,147628425,1000,1000,1000,1000,0,0,0,0,0,0,0,0,0,0
1706598183.69984889,147728385,1000,1000,1000,1000,0,0,0,0,0,0,0,0,0,0
1706598183.79980898,147828345,1000,1000,1000,1000,0,0,0,0,0,0,0,0,0,0
1706598183.89976883,147928305,1000,1000,1000,1000,0,0,0,0,0,0,0,0,0,0
1706598183.99972892,148028265,1000,1000,1000,1000,0,0,0,0,0,0,0,0,0,0
1706598184.09968901,148128225,1000,1000,1000,1000,0,0,0,0,0,0,0,0,0,0
1706598184.19964886,148228185,1000,1000,1000,1000,0,0,0,0,0,0,0,0,0,0
1706598184.30044198,148328978,1000,1000,1000,1000,0,0,0,0,0,0,0,0,0,0
1706598184.40040183,148428938,1000,1000,1000,1000,0,0,0,0,0,0,0,0,0,0
1706598184.50036192,148528898,1000,1000,1000,1000,0,0,0,0,0,0,0,0,0,0
1706598184.60032201,148628858,1000,1000,1000,1000,0,0,0,0,0,0,0,0,0,0
1706598184.70028186,148728818,1000,1000,1000,1000,0,0,0,0,0,0,0,0,0,0
1706598184.80024195,148828778,1000,1000,1000,1000,0,0,0,0,0,0,0,0,0,0
1706598184.90020204,148928738,1000,1000,1000,1000,0,0,0,0,0,0,0,0,0,0
1706598185.00016189,149028698,1000,1000,1000,1000,0,0,0,0,0,0,0,0,0,0
1706598185.10012197,149128658,1000,1000,1000,1000,0,0,0,0,0,0,0,0,0,0
1706598185.20008183,149228618,1000,1000,1000,1000,0,0,0,0,0,0,0,0,0,0
1706598185.30004191,149328578,1000,1000,1000,1000,0,0,0,0,0,0,0,0,0,0
1706598185.40000200,149428538,1000,1000,1000,1000,0,0,0,0,0,0,0,0,0,0
1706598185.49996185,149528498,1000,1000,1000,1000,0,0,0,0,0,0,0,0,0,0
1706598185.59992194,149628458,1000,1000,1000,1000,0,0,0,0,0,0,0,0,0,0
1706598185.69988203,149728418,1000,1000,1000,1000,0,0,0,0,0,0,0,0,0,0
1706598185.79984188,149828378,1000,1000,1000,1000,0,0,0,0,0,0,0,0,0,0
1706598185.89980197,149928338,1000,1000,1000,1000,0,0,0,0,0,0,0,0,0,0
1706598185.99976182,150028298,1000,1000,1000,1000,0,0,0,0,0,0,0,0,0,0
1706598186.09972191,150128258,1000,1000,1000,1000,0,0,0,0,0,0,0,0,0,0
1706598186.19968200,150228218,1000,1000,1000,1000,0,0,0,0,0,0,0,0,0,0
1706598186.29964185,150328178,1000,1000,1000,1000,0,0,0,0,0,0,0,0,0,0
1706598186.40043497,150428971,1000,1000,1000,1000,0,0,0,0,0,0,0,0,0,0
1706598186.50039482,150528931,1000,1000,1000,1000,0,0,0,0,0,0,0,0,0,0
1706598186.60035491,150628891,1000,1000,1000,1000,0,0,0,0,0,0,0,0,0,0
1706598186.70031500,150728851,1000,1000,1000,1000,0,0,0,0,0,0,0,0,0,0
1706598186.80027485,150828811,1000,1000,1000,1000,0,0,0,0,0,0,0,0,0,0
1706598186.90023494,150928771,1000,1000,1000,1000,0,0,0,0,0,0,0,0,0,0
1706598187.00019503,151028731,1000,1000,1000,1000,0,0,0,0,0,0,0,0,0,0
1706598187.10015488,151128691,1000,1000,1000,1000,0,0,0,0,0,0,0,0,0,0
1706598187.20011497,151228651,1000,1000,1000,1000,0,0,0,0,0,0,0,0,0,0
1706598187.30007482,151328611,1000,1000,1000,1000,0,0,0,0,0,0,0,0,0,0
1706598187.40003490,151428571,1000,1000,1000,1000,0,0,0,0,0,0,0,0,0,0
1706598187.49999499,151528531,1000,1000,1000,1000,0,0,0,0,0,0,0,0,0,0
1706598187.59995484,151628491,1000,1000,1000,1000,0,0,0,0,0,0,0,0,0,0
1706598187.69991493,151728451,1000,1000,1000,1000,0,0,0,0,0,0,0,0,0,0
1706598187.79987502,151828411,1000,1000,1000,1000,0,0,0,0,0,0,0,0,0,0
1706598187.89983487,151928371,1000,1000,1000,1000,0,0,0,0,0,0,0,0,0,0
1706598187.99979496,152028331,1000,1000,1000,1000,0,0,0,0,0,0,0,0,0,0
1706598188.09975481,152128291,1000,1000,1000,1000,0,0,0,0,0,0,0,0,0,0
1706598188.19971490,152228251,1000,1000,1000,1000,0,0,0,0,0,0,0,0,0,0
1706598188.29967499,152328211,1000,1000,1000,1000,0,0,0,0,0,0,0,0,0,0
1706598188.39963484,152428171,1000,1000,1000,1000,0,0,0,0,0,0,0,0,0,0
