TimeUS,M1,M2,M3,M4,TimeUS,C1,C2,C3,C4
94266445,1000,1000,1000,1000,94328920,1000,1000,1000,1000
94268944,1000,1000,1000,1000,94428880,1000,1000,1000,1000
94271443,1000,1000,1000,1000,94528840,1000,1000,1000,1000
94273942,1000,1000,1000,1000,94628800,1000,1000,1000,1000
94276441,1000,1000,1000,1000,94728760,1000,1000,1000,1000
94278940,1000,1000,1000,1000,94828720,1000,1000,1000,1000
94281439,1000,1000,1000,1000,94928680,1000,1000,1000,1000
94283938,1000,1000,1000,1000,95028640,1000,1000,1000,1000
94286437,1000,1000,1000,1000,95128600,1000,1000,1000,1000
94288936,1000,1000,1000,1000,95228560,1000,1000,1000,1000
94291435,1000,1000,1000,1000,95328520,1000,1000,1000,1000
94293934,1000,1000,1000,1000,95428480,1000,1000,1000,1000
94296433,1000,1000,1000,1000,95528440,1000,1000,1000,1000
94298932,1000,1000,1000,1000,95628400,1000,1000,1000,1000
94301431,1000,1000,1000,1000,95728360,1000,1000,1000,1000
94303930,1000,1000,1000,1000,95828320,1000,1000,1000,1000
94306429,1000,1000,1000,1000,95928280,1000,1000,1000,1000
94308928,1000,1000,1000,1000,96028240,1000,1000,1000,1000
94311427,1000,1000,1000,1000,96128200,1000,1000,1000,1000
94313926,1000,1000,1000,1000,96228160,1000,1000,1000,1000
94316425,1000,1000,1000,1000,96328953,1018,1018,1018,1018
94318924,1000,1000,1000,1000,96428913,1048,1048,1048,1048
94321423,1000,1000,1000,1000,96528873,1078,1078,1078,1078
94323922,1000,1000,1000,1000,96628833,1108,1108,1108,1108
94326421,1000,1000,1000,1000,96728793,1138,1138,1138,1138
94328920,1000,1000,1000,1000,96828753,1320,1309,1309,1320
94331419,1000,1000,1000,1000,96928713,1519,1509,1510,1519
94333918,1000,1000,1000,1000,97028673,1676,1667,1668,1676
94336417,1000,1000,1000,1000,97128633,1810,1802,1802,1810
94338916,1000,1000,1000,1000,97228593,1905,1896,1897,1905
94341415,1000,1000,1000,1000,97328553,1863,1858,1859,1863
94343914,1000,1000,1000,1000,97428513,1729,1728,1729,1729
94346413,1000,1000,1000,1000,97528473,1640,1642,1642,1640
94348912,1000,1000,1000,1000,97628433,1616,1621,1620,1617
94351411,1000,1000,1000,1000,97728393,1623,1626,1626,1623
94353910,1000,1000,1000,1000,97828353,1630,1632,1632,1630
94356409,1000,1000,1000,1000,97928313,1628,1627,1627,1628
94358908,1000,1000,1000,1000,98028273,1622,1620,1620,1622
94361407,1000,1000,1000,1000,98128233,1615,1613,1614,1615
94363906,1000,1000,1000,1000,98228193,1611,1610,1609,1611
94366405,1000,1000,1000,1000,98328986,1611,1610,1610,1610
94368904,1000,1000,1000,1000,98428946,1611,1611,1611,1611
94371403,1000,1000,1000,1000,98528906,1613,1614,1613,1613
94373902,1000,1000,1000,1000,98628866,1615,1616,1616,1615
94376401,1000,1000,1000,1000,98728826,1605,1606,1606,1605
94378900,1000,1000,1000,1000,98828786,1578,1579,1578,1579
94381399,1000,1000,1000,1000,98928746,1566,1564,1562,1568
94383898,1000,1000,1000,1000,99028706,1556,1555,1553,1557
94386397,1000,1000,1000,1000,99128666,1546,1545,1545,1547
94388896,1000,1000,1000,1000,99228626,1537,1537,1537,1536
94391395,1000,1000,1000,1000,99328586,1529,1529,1530,1528
94393894,1000,1000,1000,1000,99428546,1519,1519,1520,1519
94396393,1000,1000,1000,1000,99528506,1516,1515,1516,1516
94398892,1000,1000,1000,1000,99628466,1514,1515,1514,1515
94401391,1000,1000,1000,1000,99728426,1515,1515,1515,1516
94403890,1000,1000,1000,1000,99828386,1516,1516,1516,1517
94406389,1000,1000,1000,1000,99928346,1516,1516,1516,1517
94408888,1000,1000,1000,1000,100028306,1518,1518,1517,1518
94411387,1000,1000,1000,1000,100128266,1521,1521,1521,1521
94413886,1000,1000,1000,1000,100228226,1536,1537,1542,1531
94416385,1000,1000,1000,1000,100328186,1544,1544,1548,1541
94418884,1000,1000,1000,1000,100428979,1550,1550,1549,1551
94421383,1000,1000,1000,1000,100528939,1554,1553,1550,1557
94423882,1000,1000,1000,1000,100628899,1555,1555,1550,1560
94426381,1000,1000,1000,1000,100728859,1557,1557,1553,1561
94428880,1000,1000,1000,1000,100828819,1559,1560,1557,1562
94431379,1000,1000,1000,1000,100928779,1562,1562,1563,1561
94433878,1000,1000,1000,1000,101028739,1565,1565,1568,1562
94436377,1000,1000,1000,1000,101128699,1567,1567,1570,1564
94438876,1000,1000,1000,1000,101228659,1568,1569,1571,1566
94441375,1000,1000,1000,1000,101328619,1569,1568,1569,1568
94443874,1000,1000,1000,1000,101428579,1568,1568,1567,1569
94446373,1000,1000,1000,1000,101528539,1568,1566,1568,1572
94448872,1000,1000,1000,1000,101628499,1564,1564,1568,1572
94451371,1000,1000,1000,1000,101728459,1564,1564,1568,1572
94453870,1000,1000,1000,1000,101828419,1565,1565,1569,1570
94456369,1000,1000,1000,1000,101928379,1566,1566,1569,1569
94458868,1000,1000,1000,1000,102028339,1566,1567,1569,1567
94461367,1000,1000,1000,1000,102128299,1569,1569,1569,1568
94463866,1000,1000,1000,1000,102228259,1570,1570,1568,1567
94466365,1000,1000,1000,1000,102328219,1571,1571,1567,1568
94468864,1000,1000,1000,1000,102428179,1571,1571,1567,1567
94471363,1000,1000,1000,1000,102528972,1572,1572,1568,1568
94473862,1000,1000,1000,1000,102628932,1572,1573,1569,1569
94476361,1000,1000,1000,1000,102728892,1573,1573,1570,1570
94478860,1000,1000,1000,1000,102828852,1574,1574,1572,1572
94481359,1000,1000,1000,1000,102928812,1573,1573,1573,1572
94483858,1000,1000,1000,1000,103028772,1573,1573,1574,1573
94486357,1000,1000,1000,1000,103128732,1574,1574,1575,1574
94488856,1000,1000,1000,1000,103228692,1575,1575,1576,1575
94491355,1000,1000,1000,1000,103328652,1576,1576,1577,1577
94493854,1000,1000,1000,1000,103428612,1576,1576,1577,1577
94496353,1000,1000,1000,1000,103528572,1577,1576,1577,1577
94498852,1000,1000,1000,1000,103628532,1576,1576,1577,1577
94501351,1000,1000,1000,1000,103728492,1577,1577,1577,1578
94503850,1000,1000,1000,1000,103828452,1577,1577,1577,1577
94506349,1000,1000,1000,1000,103928412,1576,1576,1576,1577
94508848,1000,1000,1000,1000,104028372,1578,1578,1577,1578
94511347,1000,1000,1000,1000,104128332,1578,1578,1577,1577
94513846,1000,1000,1000,1000,104228292,1578,1578,1578,1578
94516345,1000,1000,1000,1000,104328252,1578,1578,1578,1578
94518844,1000,1000,1000,1000,104428212,1579,1578,1578,1578
94521343,1000,1000,1000,1000,104528172,1579,1579,1579,1579
94523842,1000,1000,1000,1000,104628965,1579,1579,1579,1579
94526341,1000,1000,1000,1000,104728925,1578,1579,1579,1578
94528840,1000,1000,1000,1000,104828885,1578,1579,1579,1579
94531339,1000,1000,1000,1000,104928845,1578,1578,1578,1578
94533838,1000,1000,1000,1000,105028805,1579,1579,1578,1579
94536337,1000,1000,1000,1000,105128765,1579,1578,1579,1579
94538836,1000,1000,1000,1000,105228725,1580,1579,1580,1579
94541335,1000,1000,1000,1000,105328685,1579,1579,1579,1579
94543834,1000,1000,1000,1000,105428645,1579,1579,1579,1579
94546333,1000,1000,1000,1000,105528605,1578,1578,1579,1579
94548832,1000,1000,1000,1000,105628565,1579,1580,1580,1580
94551331,1000,1000,1000,1000,105728525,1580,1579,1580,1580
94553830,1000,1000,1000,1000,105828485,1580,1580,1580,1580
94556329,1000,1000,1000,1000,105928445,1580,1579,1580,1580
94558828,1000,1000,1000,1000,106028405,1579,1579,1579,1579
94561327,1000,1000,1000,1000,106128365,1579,1579,1579,1579
94563826,1000,1000,1000,1000,106228325,1579,1580,1580,1580
94566325,1000,1000,1000,1000,106328285,1580,1580,1580,1580
94568824,1000,1000,1000,1000,106428245,1581,1581,1581,1581
94571323,1000,1000,1000,1000,106528205,1581,1581,1581,1581
94573822,1000,1000,1000,1000,106628165,1581,1581,1581,1581
94576321,1000,1000,1000,1000,106728958,1581,1581,1581,1581
94578820,1000,1000,1000,1000,106828918,1581,1581,1581,1581
94581319,1000,1000,1000,1000,106928878,1581,1580,1581,1580
94583818,1000,1000,1000,1000,107028838,1580,1579,1580,1580
94586317,1000,1000,1000,1000,107128798,1580,1580,1580,1580
94588816,1000,1000,1000,1000,107228758,1581,1581,1581,1581
94591315,1000,1000,1000,1000,107328718,1581,1581,1581,1582
94593814,1000,1000,1000,1000,107428678,1581,1581,1581,1581
94596313,1000,1000,1000,1000,107528638,1582,1582,1582,1582
94598812,1000,1000,1000,1000,107628598,1581,1582,1582,1581
94601311,1000,1000,1000,1000,107728558,1582,1582,1582,1581
94603810,1000,1000,1000,1000,107828518,1581,1582,1589,1574
94606309,1000,1000,1000,1000,107928478,1581,1583,1585,1574
94608808,1000,1000,1000,1000,108028438,1579,1582,1576,1573
94611307,1000,1000,1000,1000,108128398,1578,1581,1568,1572
94613806,1000,1000,1000,1000,108228358,1577,1579,1561,1568
94616305,1000,1000,1000,1000,108328318,1579,1579,1557,1563
94618804,1000,1000,1000,1000,108428278,1580,1578,1555,1558
94621303,1000,1000,1000,1000,108528238,1580,1579,1555,1556
94623802,1000,1000,1000,1000,108628198,1580,1580,1556,1554
94626301,1000,1000,1000,1000,108728158,1579,1578,1556,1553
94628800,1000,1000,1000,1000,108828951,1578,1579,1556,1553
94631299,1000,1000,1000,1000,108928911,1577,1579,1555,1554
94633798,1000,1000,1000,1000,109028871,1576,1577,1554,1553
94636297,1000,1000,1000,1000,109128831,1575,1577,1552,1553
94638796,1000,1000,1000,1000,109228791,1577,1578,1552,1552
94641295,1000,1000,1000,1000,109328751,1578,1578,1550,1550
94643794,1000,1000,1000,1000,109428711,1580,1580,1547,1547
94646293,1000,1000,1000,1000,109528671,1582,1582,1544,1544
94648792,1000,1000,1000,1000,109628631,1585,1586,1543,1542
94651291,1000,1000,1000,1000,109728591,1588,1588,1539,1539
94653790,1000,1000,1000,1000,109828551,1592,1592,1537,1538
94656289,1000,1000,1000,1000,109928511,1594,1594,1535,1536
94658788,1000,1000,1000,1000,110028471,1594,1595,1534,1535
94661287,1000,1000,1000,1000,110128431,1595,1595,1535,1537
94663786,1000,1000,1000,1000,110228391,1593,1594,1537,1538
94666285,1000,1000,1000,1000,110328351,1591,1590,1540,1543
94668784,1000,1000,1000,1000,110428311,1587,1585,1547,1550
94671283,1000,1000,1000,1000,110528271,1580,1576,1556,1559
94673782,1000,1000,1000,1000,110628231,1571,1566,1567,1569
94676281,1000,1000,1000,1000,110728191,1560,1556,1581,1582
94678780,1000,1000,1000,1000,110828984,1548,1546,1592,1593
94681279,1000,1000,1000,1000,110928944,1539,1537,1603,1603
94683778,1000,1000,1000,1000,111028904,1532,1532,1610,1610
94686277,1000,1000,1000,1000,111128864,1528,1529,1614,1613
94688776,1000,1000,1000,1000,111228824,1529,1531,1615,1614
94691275,1000,1000,1000,1000,111328784,1534,1537,1613,1612
94693774,1000,1000,1000,1000,111428744,1540,1543,1607,1607
94696273,1000,1000,1000,1000,111528704,1549,1550,1600,1600
94698772,1000,1000,1000,1000,111628664,1557,1558,1592,1592
94701271,1000,1000,1000,1000,111728624,1567,1566,1585,1584
94703770,1000,1000,1000,1000,111828584,1574,1574,1578,1578
94706269,1000,1000,1000,1000,111928544,1580,1579,1572,1572
94708768,1000,1000,1000,1000,112028504,1585,1584,1569,1569
94711267,1000,1000,1000,1000,112128464,1588,1587,1568,1568
94713766,1000,1000,1000,1000,112228424,1588,1587,1567,1567
94716265,1000,1000,1000,1000,112328384,1239,1238,1219,1219
94718764,1000,1000,1000,1000,112428344,1413,1413,1392,1408
94721263,1000,1000,1000,1000,112528304,1488,1488,1475,1482
94723762,1000,1000,1000,1000,112628264,1539,1539,1537,1531
94726261,1000,1000,1000,1000,112728224,1579,1578,1584,1571
94728760,1000,1000,1000,1000,112828184,1592,1591,1602,1587
94731259,1000,1000,1000,1000,112928977,1591,1591,1602,1591
94733758,1000,1000,1000,1000,113028937,1592,1593,1602,1599
94736257,1000,1000,1000,1000,113128897,1590,1591,1598,1602
94738756,1000,1000,1000,1000,113228857,1588,1589,1594,1602
94741255,1000,1000,1000,1000,113328817,1588,1589,1594,1602
94743754,1000,1000,1000,1000,113428777,1589,1590,1595,1602
94746253,1000,1000,1000,1000,113528737,1593,1593,1599,1602
94748752,1000,1000,1000,1000,113628697,1596,1596,1602,1601
94751251,1000,1000,1000,1000,113728657,1597,1596,1602,1599
94753750,1000,1000,1000,1000,113828617,1595,1595,1602,1592
94756249,1000,1000,1000,1000,113928577,1597,1596,1601,1592
94758748,1000,1000,1000,1000,114028537,1600,1599,1602,1595
94761247,1000,1000,1000,1000,114128497,1601,1602,1601,1597
94763746,1000,1000,1000,1000,114228457,1601,1601,1598,1598
94766245,1000,1000,1000,1000,114328417,1601,1602,1594,1601
94768744,1000,1000,1000,1000,114428377,1600,1600,1592,1600
94771243,1000,1000,1000,1000,114528337,1601,1601,1594,1600
94773742,1000,1000,1000,1000,114628297,1600,1600,1595,1599
94776241,1000,1000,1000,1000,114728257,1599,1598,1595,1596
94778740,1000,1000,1000,1000,114828217,1596,1596,1594,1594
94781239,1000,1000,1000,1000,114928177,1593,1593,1592,1591
94783738,1000,1000,1000,1000,115028970,1588,1588,1588,1587
94786237,1000,1000,1000,1000,115128930,1584,1584,1584,1583
94788736,1000,1000,1000,1000,115228890,1580,1580,1581,1580
94791235,1000,1000,1000,1000,115328850,1575,1575,1577,1576
94793734,1000,1000,1000,1000,115428810,1571,1571,1573,1572
94796233,1000,1000,1000,1000,115528770,1567,1567,1569,1569
94798732,1000,1000,1000,1000,115628730,1565,1565,1566,1566
94801231,1000,1000,1000,1000,115728690,1562,1563,1564,1564
94803730,1000,1000,1000,1000,115828650,1561,1562,1561,1561
94806229,1000,1000,1000,1000,115928610,1562,1563,1559,1559
94808728,1000,1000,1000,1000,116028570,1562,1564,1556,1556
94811227,1000,1000,1000,1000,116128530,1563,1565,1554,1554
94813726,1000,1000,1000,1000,116228490,1565,1566,1552,1552
94816225,1000,1000,1000,1000,116328450,1567,1568,1551,1551
94818724,1000,1000,1000,1000,116428410,1569,1569,1550,1550
94821223,1000,1000,1000,1000,116528370,1571,1570,1550,1550
94823722,1000,1000,1000,1000,116628330,1571,1571,1551,1551
94826221,1000,1000,1000,1000,116728290,1571,1570,1552,1552
94828720,1000,1000,1000,1000,116828250,1571,1570,1553,1553
94831219,1000,1000,1000,1000,116928210,1570,1570,1555,1555
94833718,1000,1000,1000,1000,117028170,1569,1570,1556,1556
94836217,1000,1000,1000,1000,117128963,1568,1569,1557,1557
94838716,1000,1000,1000,1000,117228923,1568,1569,1558,1558
94841215,1000,1000,1000,1000,117328883,1568,1569,1559,1559
94843714,1000,1000,1000,1000,117428843,1568,1569,1560,1560
94846213,1000,1000,1000,1000,117528803,1569,1570,1561,1560
94848712,1000,1000,1000,1000,117628763,1570,1571,1561,1560
94851211,1000,1000,1000,1000,117728723,1571,1572,1561,1560
94853710,1000,1000,1000,1000,117828683,1572,1573,1560,1559
94856209,1000,1000,1000,1000,117928643,1573,1574,1559,1558
94858708,1000,1000,1000,1000,118028603,1574,1575,1558,1557
94861207,1000,1000,1000,1000,118128563,1576,1576,1557,1556
94863706,1000,1000,1000,1000,118228523,1576,1577,1556,1555
94866205,1000,1000,1000,1000,118328483,1578,1578,1555,1555
94868704,1000,1000,1000,1000,118428443,1579,1580,1555,1554
94871203,1000,1000,1000,1000,118528403,1580,1581,1554,1553
94873702,1000,1000,1000,1000,118628363,1581,1582,1553,1552
94876201,1000,1000,1000,1000,118728323,1583,1583,1552,1552
94878700,1000,1000,1000,1000,118828283,1583,1582,1551,1551
94881199,1000,1000,1000,1000,118928243,1582,1582,1552,1552
94883698,1000,1000,1000,1000,119028203,1581,1580,1553,1553
94886197,1000,1000,1000,1000,119128163,1579,1577,1554,1554
94888696,1000,1000,1000,1000,119228956,1576,1574,1556,1557
94891195,1000,1000,1000,1000,119328916,1572,1571,1560,1561
94893694,1000,1000,1000,1000,119428876,1568,1566,1564,1564
94896193,1000,1000,1000,1000,119528836,1563,1562,1568,1569
94898692,1000,1000,1000,1000,119628796,1559,1558,1573,1573
94901191,1000,1000,1000,1000,119728756,1555,1554,1576,1577
94903690,1000,1000,1000,1000,119828716,1551,1551,1579,1579
94906189,1000,1000,1000,1000,119928676,1549,1549,1583,1583
94908688,1000,1000,1000,1000,120028636,1548,1548,1585,1585
94911187,1000,1000,1000,1000,120128596,1547,1547,1585,1585
94913686,1000,1000,1000,1000,120228556,1547,1547,1585,1584
94916185,1000,1000,1000,1000,120328516,1548,1549,1584,1584
94918684,1000,1000,1000,1000,120428476,1550,1551,1581,1581
94921183,1000,1000,1000,1000,120528436,1553,1553,1579,1579
94923682,1000,1000,1000,1000,120628396,1556,1556,1576,1576
94926181,1000,1000,1000,1000,120728356,1560,1560,1573,1573
94928680,1000,1000,1000,1000,120828316,1563,1563,1570,1570
94931179,1000,1000,1000,1000,120928276,1566,1566,1568,1568
94933678,1000,1000,1000,1000,121028236,1568,1567,1565,1565
94936177,1000,1000,1000,1000,121128196,1570,1569,1563,1563
94938676,1000,1000,1000,1000,121228156,1571,1570,1562,1562
94941175,1000,1000,1000,1000,121328949,1571,1571,1561,1561
94943674,1000,1000,1000,1000,121428909,1571,1571,1561,1561
94946173,1000,1000,1000,1000,121528869,1570,1569,1561,1561
94948672,1000,1000,1000,1000,121628829,1569,1569,1562,1562
94951171,1000,1000,1000,1000,121728789,1568,1568,1563,1563
94953670,1000,1000,1000,1000,121828749,1567,1566,1564,1564
94956169,1000,1000,1000,1000,121928709,1565,1565,1565,1565
94958668,1000,1000,1000,1000,122028669,1565,1565,1566,1566
94961167,1000,1000,1000,1000,122128629,1564,1564,1568,1568
94963666,1000,1000,1000,1000,122228589,1563,1563,1569,1568
94966165,1000,1000,1000,1000,122328549,1562,1562,1568,1568
94968664,1000,1000,1000,1000,122428509,1562,1562,1569,1569
94971163,1000,1000,1000,1000,122528469,1562,1563,1569,1569
94973662,1000,1000,1000,1000,122628429,1563,1563,1569,1569
94976161,1000,1000,1000,1000,122728389,1564,1564,1568,1568
94978660,1000,1000,1000,1000,122828349,1564,1564,1568,1568
94981159,1000,1000,1000,1000,122928309,1565,1565,1567,1567
94983658,1000,1000,1000,1000,123028269,1566,1566,1567,1567
94986157,1000,1000,1000,1000,123128229,1566,1566,1566,1566
94988656,1000,1000,1000,1000,123228189,1567,1567,1566,1566
94991155,1000,1000,1000,1000,123328982,1567,1567,1565,1565
94993654,1000,1000,1000,1000,123428942,1568,1568,1565,1566
94996153,1000,1000,1000,1000,123528902,1568,1567,1565,1565
94998652,1000,1000,1000,1000,123628862,1567,1567,1565,1565
95001151,1000,1000,1000,1000,123728822,1567,1567,1564,1564
95003650,1000,1000,1000,1000,123828782,1567,1567,1565,1565
95006149,1000,1000,1000,1000,123928742,1567,1567,1566,1566
95008648,1000,1000,1000,1000,124028702,1566,1566,1565,1565
95011147,1000,1000,1000,1000,124128662,1566,1566,1566,1566
95013646,1000,1000,1000,1000,124228622,1566,1566,1566,1566
95016145,1000,1000,1000,1000,124328582,1566,1566,1567,1566
95018644,1000,1000,1000,1000,124428542,1565,1565,1566,1566
95021143,1000,1000,1000,1000,124528502,1565,1565,1566,1566
95023642,1000,1000,1000,1000,124628462,1566,1566,1567,1567
95026141,1000,1000,1000,1000,124728422,1566,1566,1567,1567
95028640,1000,1000,1000,1000,124828382,1566,1566,1567,1567
95031139,1000,1000,1000,1000,124928342,1565,1565,1567,1567
95033638,1000,1000,1000,1000,125028302,1565,1565,1567,1567
95036137,1000,1000,1000,1000,125128262,1566,1566,1566,1566
95038636,1000,1000,1000,1000,125228222,1566,1566,1566,1566
95041135,1000,1000,1000,1000,125328182,1566,1566,1566,1566
95043634,1000,1000,1000,1000,125428975,1567,1566,1567,1567
95046133,1000,1000,1000,1000,125528935,1566,1566,1566,1566
95048632,1000,1000,1000,1000,125628895,1566,1566,1566,1565
95051131,1000,1000,1000,1000,125728855,1566,1567,1566,1566
95053630,1000,1000,1000,1000,125828815,1566,1566,1566,1566
95056129,1000,1000,1000,1000,125928775,1567,1567,1566,1566
95058628,1000,1000,1000,1000,126028735,1567,1567,1566,1566
95061127,1000,1000,1000,1000,126128695,1566,1566,1565,1566
95063626,1000,1000,1000,1000,126228655,1567,1567,1566,1566
95066125,1000,1000,1000,1000,126328615,1568,1568,1565,1565
95068624,1000,1000,1000,1000,126428575,1568,1569,1564,1564
95071123,1000,1000,1000,1000,126528535,1569,1570,1563,1563
95073622,1000,1000,1000,1000,126628495,1571,1572,1562,1562
95076121,1000,1000,1000,1000,126728455,1572,1573,1561,1561
95078620,1000,1000,1000,1000,126828415,1574,1574,1560,1560
95081119,1000,1000,1000,1000,126928375,1574,1574,1560,1560
95083618,1000,1000,1000,1000,127028335,1574,1574,1560,1559
95086117,1000,1000,1000,1000,127128295,1574,1574,1560,1560
95088616,1000,1000,1000,1000,127228255,1574,1574,1561,1561
95091115,1000,1000,1000,1000,127328215,1572,1572,1561,1561
95093614,1000,1000,1000,1000,127428175,1572,1573,1563,1563
95096113,1000,1000,1000,1000,127528968,1571,1571,1563,1563
95098612,1000,1000,1000,1000,127628928,1570,1570,1563,1563
95101111,1000,1000,1000,1000,127728888,1569,1570,1564,1564
95103610,1000,1000,1000,1000,127828848,1569,1569,1564,1564
95106109,1000,1000,1000,1000,127928808,1569,1569,1564,1564
95108608,1000,1000,1000,1000,128028768,1569,1570,1564,1564
95111107,1000,1000,1000,1000,128128728,1569,1570,1564,1564
95113606,1000,1000,1000,1000,128228688,1570,1570,1564,1564
95116105,1000,1000,1000,1000,128328648,1570,1571,1563,1563
95118604,1000,1000,1000,1000,128428608,1571,1572,1562,1562
95121103,1000,1000,1000,1000,128528568,1572,1572,1561,1561
95123602,1000,1000,1000,1000,128628528,1573,1573,1561,1560
95126101,1000,1000,1000,1000,128728488,1573,1574,1560,1559
95128600,1000,1000,1000,1000,128828448,1574,1575,1559,1559
95131099,1000,1000,1000,1000,128928408,1575,1575,1558,1558
95133598,1000,1000,1000,1000,129028368,1575,1576,1558,1557
95136097,1000,1000,1000,1000,129128328,1576,1576,1557,1557
95138596,1000,1000,1000,1000,129228288,1576,1577,1557,1557
95141095,1000,1000,1000,1000,129328248,1576,1576,1557,1557
95143594,1000,1000,1000,1000,129428208,1577,1577,1557,1557
95146093,1000,1000,1000,1000,129528168,1577,1577,1556,1556
95148592,1000,1000,1000,1000,129628961,1577,1578,1556,1555
95151091,1000,1000,1000,1000,129728921,1578,1578,1556,1555
95153590,1000,1000,1000,1000,129828881,1577,1578,1555,1554
95156089,1000,1000,1000,1000,129928841,1578,1578,1555,1555
95158588,1000,1000,1000,1000,130028801,1578,1577,1555,1556
95161087,1000,1000,1000,1000,130128761,1578,1577,1557,1557
95163586,1000,1000,1000,1000,130228721,1576,1575,1558,1559
95166085,1000,1000,1000,1000,130328681,1573,1572,1560,1561
95168584,1000,1000,1000,1000,130428641,1571,1570,1563,1563
95171083,1000,1000,1000,1000,130528601,1568,1567,1566,1567
95173582,1000,1000,1000,1000,130628561,1565,1564,1569,1569
95176081,1000,1000,1000,1000,130728521,1562,1561,1572,1573
95178580,1000,1000,1000,1000,130828481,1558,1558,1575,1575
95181079,1000,1000,1000,1000,130928441,1556,1556,1577,1577
95183578,1000,1000,1000,1000,131028401,1553,1553,1578,1579
95186077,1000,1000,1000,1000,131128361,1552,1552,1579,1580
95188576,1000,1000,1000,1000,131228321,1551,1551,1580,1580
95191075,1000,1000,1000,1000,131328281,1551,1551,1580,1580
95193574,1000,1000,1000,1000,131428241,1552,1552,1579,1579
95196073,1000,1000,1000,1000,131528201,1553,1553,1578,1578
95198572,1000,1000,1000,1000,131628161,1555,1556,1576,1576
95201071,1000,1000,1000,1000,131728954,1557,1557,1574,1574
95203570,1000,1000,1000,1000,131828914,1560,1560,1571,1571
95206069,1000,1000,1000,1000,131928874,1562,1562,1569,1569
95208568,1000,1000,1000,1000,132028834,1564,1564,1567,1567
95211067,1000,1000,1000,1000,132128794,1566,1565,1565,1565
95213566,1000,1000,1000,1000,132228754,1567,1567,1564,1564
95216065,1000,1000,1000,1000,132328714,1568,1568,1563,1563
95218564,1000,1000,1000,1000,132428674,1569,1568,1562,1562
95221063,1000,1000,1000,1000,132528634,1569,1568,1562,1562
95223562,1000,1000,1000,1000,132628594,1569,1569,1563,1563
95226061,1000,1000,1000,1000,132728554,1569,1568,1564,1564
95228560,1000,1000,1000,1000,132828514,1568,1568,1564,1564
95231059,1000,1000,1000,1000,132928474,1567,1567,1565,1565
95233558,1000,1000,1000,1000,133028434,1567,1567,1567,1567
95236057,1000,1000,1000,1000,133128394,1565,1565,1567,1567
95238556,1000,1000,1000,1000,133228354,1565,1565,1568,1568
95241055,1000,1000,1000,1000,133328314,1564,1564,1568,1568
95243554,1000,1000,1000,1000,133428274,1563,1564,1568,1568
95246053,1000,1000,1000,1000,133528234,1564,1564,1569,1569
95248552,1000,1000,1000,1000,133628194,1564,1564,1569,1569
95251051,1000,1000,1000,1000,133728154,1564,1564,1569,1569
95253550,1000,1000,1000,1000,133828947,1564,1564,1568,1568
95256049,1000,1000,1000,1000,133928907,1565,1565,1568,1568
95258548,1000,1000,1000,1000,134028867,1565,1566,1567,1567
95261047,1000,1000,1000,1000,134128827,1566,1566,1567,1567
95263546,1000,1000,1000,1000,134228787,1566,1566,1566,1567
95266045,1000,1000,1000,1000,134328747,1566,1566,1566,1566
95268544,1000,1000,1000,1000,134428707,1567,1567,1566,1566
95271043,1000,1000,1000,1000,134528667,1567,1567,1566,1566
95273542,1000,1000,1000,1000,134628627,1567,1567,1565,1565
95276041,1000,1000,1000,1000,134728587,1567,1566,1565,1565
95278540,1000,1000,1000,1000,134828547,1566,1566,1565,1565
95281039,1000,1000,1000,1000,134928507,1566,1566,1564,1564
95283538,1000,1000,1000,1000,135028467,1565,1565,1564,1564
95286037,1000,1000,1000,1000,135128427,1566,1566,1565,1565
95288536,1000,1000,1000,1000,135228387,1566,1566,1565,1565
95291035,1000,1000,1000,1000,135328347,1566,1566,1566,1566
95293534,1000,1000,1000,1000,135428307,1566,1566,1566,1566
95296033,1000,1000,1000,1000,135528267,1566,1566,1566,1566
95298532,1000,1000,1000,1000,135628227,1566,1566,1566,1566
95301031,1000,1000,1000,1000,135728187,1566,1566,1567,1567
95303530,1000,1000,1000,1000,135828980,1566,1566,1567,1567
95306029,1000,1000,1000,1000,135928940,1565,1565,1566,1566
95308528,1000,1000,1000,1000,136028900,1566,1566,1567,1567
95311027,1000,1000,1000,1000,136128860,1565,1566,1566,1566
95313526,1000,1000,1000,1000,136228820,1565,1565,1566,1566
95316025,1000,1000,1000,1000,136328780,1566,1566,1566,1566
95318524,1000,1000,1000,1000,136428740,1566,1566,1566,1566
95321023,1000,1000,1000,1000,136528700,1566,1566,1566,1566
95323522,1000,1000,1000,1000,136628660,1566,1566,1566,1566
95326021,1000,1000,1000,1000,136728620,1567,1566,1567,1567
95328520,1000,1000,1000,1000,136828580,1566,1566,1566,1566
95331019,1000,1000,1000,1000,136928540,1567,1566,1566,1566
95333518,1000,1000,1000,1000,137028500,1566,1566,1566,1566
95336017,1000,1000,1000,1000,137128460,1566,1566,1566,1566
95338516,1000,1000,1000,1000,137228420,1566,1566,1566,1566
95341015,1000,1000,1000,1000,137328380,1567,1567,1566,1566
95343514,1000,1000,1000,1000,137428340,1567,1567,1567,1567
95346013,1000,1000,1000,1000,137528300,1566,1566,1566,1566
95348512,1000,1000,1000,1000,137628260,1567,1566,1566,1567
95351011,1000,1000,1000,1000,137728220,1567,1567,1567,1567
95353510,1000,1000,1000,1000,137828180,1566,1567,1567,1567
95356009,1000,1000,1000,1000,137928973,1567,1567,1567,1567
95358508,1000,1000,1000,1000,138028933,1566,1566,1566,1566
95361007,1000,1000,1000,1000,138128893,1565,1566,1566,1566
95363506,1000,1000,1000,1000,138228853,1566,1566,1566,1566
95366005,1000,1000,1000,1000,138328813,1566,1566,1566,1567
95368504,1000,1000,1000,1000,138428773,1567,1567,1567,1567
95371003,1000,1000,1000,1000,138528733,1567,1567,1567,1567
95373502,1000,1000,1000,1000,138628693,1567,1567,1567,1567
95376001,1000,1000,1000,1000,138728653,1567,1567,1567,1567
95378500,1000,1000,1000,1000,138828613,1567,1566,1566,1566
95380999,1000,1000,1000,1000,138928573,1567,1567,1567,1567
95383498,1000,1000,1000,1000,139028533,1565,1566,1566,1565
95385997,1000,1000,1000,1000,139128493,1566,1566,1566,1566
95388496,1000,1000,1000,1000,139228453,1566,1567,1566,1566
95390995,1000,1000,1000,1000,139328413,1566,1566,1566,1566
95393494,1000,1000,1000,1000,139428373,1567,1567,1567,1567
95395993,1000,1000,1000,1000,139528333,1566,1566,1566,1566
95398492,1000,1000,1000,1000,139628293,1567,1567,1567,1567
95400991,1000,1000,1000,1000,139728253,1566,1566,1567,1566
95403490,1000,1000,1000,1000,139828213,1566,1567,1566,1566
95405989,1000,1000,1000,1000,139928173,1567,1566,1569,1563
95408488,1000,1000,1000,1000,140028966,1566,1566,1571,1562
95410987,1000,1000,1000,1000,140128926,1565,1564,1568,1562
95413486,1000,1000,1000,1000,140228886,1564,1563,1566,1562
95415985,1000,1000,1000,1000,140328846,1561,1561,1562,1562
95418484,1000,1000,1000,1000,140428806,1560,1561,1560,1562
95420983,1000,1000,1000,1000,140528766,1560,1561,1559,1563
95423482,1000,1000,1000,1000,140628726,1561,1560,1559,1562
95425981,1000,1000,1000,1000,140728686,1560,1560,1560,1561
95428480,1000,1000,1000,1000,140828646,1561,1561,1561,1560
95430979,1000,1000,1000,1000,140928606,1561,1560,1562,1559
95433478,1000,1000,1000,1000,141028566,1561,1560,1562,1558
95435977,1000,1000,1000,1000,141128526,1561,1561,1561,1560
95438476,1000,1000,1000,1000,141228486,1562,1561,1560,1562
95440975,1000,1000,1000,1000,141328446,1562,1562,1559,1565
95443474,1000,1000,1000,1000,141428406,1562,1562,1559,1565
95445973,1000,1000,1000,1000,141528366,1561,1562,1558,1564
95448472,1000,1000,1000,1000,141628326,1560,1561,1558,1561
95450971,1000,1000,1000,1000,141728286,1559,1559,1558,1559
95453470,1000,1000,1000,1000,141828246,1557,1557,1556,1557
95455969,1000,1000,1000,1000,141928206,1554,1553,1553,1553
95458468,1000,1000,1000,1000,142028166,1550,1550,1549,1549
95460967,1000,1000,1000,1000,142128959,1544,1544,1544,1544
95463466,1000,1000,1000,1000,142228919,1539,1538,1539,1538
95465965,1000,1000,1000,1000,142328879,1532,1531,1532,1532
95468464,1000,1000,1000,1000,142428839,1524,1524,1524,1524
95470963,1000,1000,1000,1000,142528799,1521,1521,1521,1521
95473462,1000,1000,1000,1000,142628759,1519,1519,1519,1520
95475961,1000,1000,1000,1000,142728719,1519,1519,1519,1520
95478460,1000,1000,1000,1000,142828679,1519,1519,1519,1520
95480959,1000,1000,1000,1000,142928639,1523,1522,1522,1523
95483458,1000,1000,1000,1000,143028599,1526,1526,1527,1527
95485957,1000,1000,1000,1000,143128559,1531,1531,1531,1532
95488456,1000,1000,1000,1000,143228519,1535,1535,1535,1535
95490955,1000,1000,1000,1000,143328479,1537,1538,1538,1537
95493454,1000,1000,1000,1000,143428439,1540,1540,1541,1540
95495953,1000,1000,1000,1000,143528399,1543,1543,1543,1543
95498452,1000,1000,1000,1000,143628359,1544,1545,1544,1544
95500951,1000,1000,1000,1000,143728319,1546,1546,1546,1546
95503450,1000,1000,1000,1000,143828279,1547,1547,1547,1547
95505949,1000,1000,1000,1000,143928239,1548,1548,1548,1547
95508448,1000,1000,1000,1000,144028199,1548,1548,1548,1548
95510947,1000,1000,1000,1000,144128159,1548,1548,1548,1548
95513446,1000,1000,1000,1000,144228952,1547,1548,1548,1547
95515945,1000,1000,1000,1000,144328912,1548,1547,1547,1547
95518444,1000,1000,1000,1000,144428872,1548,1547,1547,1547
95520943,1000,1000,1000,1000,144528832,1547,1547,1546,1547
95523442,1000,1000,1000,1000,144628792,1546,1546,1546,1546
95525941,1000,1000,1000,1000,144728752,1545,1546,1546,1546
95528440,1000,1000,1000,1000,144828712,1545,1546,1546,1546
95530939,1000,1000,1000,1000,144928672,1545,1545,1545,1545
95533438,1000,1000,1000,1000,145028632,1545,1545,1545,1545
95535937,1000,1000,1000,1000,145128592,1545,1544,1545,1545
95538436,1000,1000,1000,1000,145228552,1544,1544,1544,1544
95540935,1000,1000,1000,1000,145328512,1544,1544,1544,1544
95543434,1000,1000,1000,1000,145428472,1545,1544,1545,1544
95545933,1000,1000,1000,1000,145528432,1544,1544,1544,1544
95548432,1000,1000,1000,1000,145628392,1543,1544,1544,1543
95550931,1000,1000,1000,1000,145728352,1543,1543,1543,1543
95553430,1000,1000,1000,1000,145828312,1544,1544,1544,1544
95555929,1000,1000,1000,1000,145928272,1544,1544,1543,1544
95558428,1000,1000,1000,1000,146028232,1543,1543,1543,1543
95560927,1000,1000,1000,1000,146128192,1544,1543,1543,1543
95563426,1000,1000,1000,1000,146228985,1543,1543,1543,1543
95565925,1000,1000,1000,1000,146328945,1543,1543,1543,1543
95568424,1000,1000,1000,1000,146428905,1543,1543,1544,1543
95570923,1000,1000,1000,1000,146528865,1543,1543,1544,1543
95573422,1000,1000,1000,1000,146628825,1543,1544,1544,1543
95575921,1000,1000,1000,1000,146728785,1544,1543,1544,1544
95578420,1000,1000,1000,1000,146828745,1544,1544,1544,1544
95580919,1000,1000,1000,1000,146928705,1545,1544,1544,1545
95583418,1000,1000,1000,1000,147028665,1544,1545,1544,1545
95585917,1000,1000,1000,1000,147128625,1544,1544,1544,1544
95588416,1000,1000,1000,1000,147228585,1544,1544,1545,1544
95590915,1000,1000,1000,1000,147328545,1545,1545,1545,1545
95593414,1000,1000,1000,1000,147428505,1544,1544,1544,1544
95595913,1000,1000,1000,1000,147528465,1544,1544,1544,1544
95598412,1000,1000,1000,1000,147628425,1544,1544,1544,1544
95600911,1000,1000,1000,1000,147728385,1544,1544,1545,1544
95603410,1000,1000,1000,1000,147828345,1544,1545,1544,1544
95605909,1000,1000,1000,1000,147928305,1544,1544,1544,1544
95608408,1000,1000,1000,1000,148028265,1544,1544,1544,1544
95610907,1000,1000,1000,1000,148128225,1545,1544,1544,1545
95613406,1000,1000,1000,1000,148228185,1544,1544,1544,1544
95615905,1000,1000,1000,1000,148328978,1544,1544,1544,1545
95618404,1000,1000,1000,1000,148428938,1544,1544,1544,1544
95620903,1000,1000,1000,1000,148528898,1545,1545,1545,1545
95623402,1000,1000,1000,1000,148628858,1545,1545,1545,1545
95625901,1000,1000,1000,1000,148728818,1545,1545,1545,1545
95628400,1000,1000,1000,1000,148828778,1545,1545,1545,1545
95630899,1000,1000,1000,1000,148928738,1545,1545,1545,1545
95633398,1000,1000,1000,1000,149028698,1544,1544,1544,1544
95635897,1000,1000,1000,1000,149128658,1545,1544,1544,1545
95638396,1000,1000,1000,1000,149228618,1544,1544,1544,1544
95640895,1000,1000,1000,1000,149328578,1545,1544,1544,1545
95643394,1000,1000,1000,1000,149428538,1544,1544,1544,1544
95645893,1000,1000,1000,1000,149528498,1545,1545,1545,1545
95648392,1000,1000,1000,1000,149628458,1544,1544,1545,1544
95650891,1000,1000,1000,1000,149728418,1544,1544,1544,1544
95653390,1000,1000,1000,1000,149828378,1544,1544,1544,1544
95655889,1000,1000,1000,1000,149928338,1545,1544,1544,1545
95658388,1000,1000,1000,1000,150028298,1544,1545,1544,1544
95660887,1000,1000,1000,1000,150128258,1544,1544,1544,1544
95663386,1000,1000,1000,1000,150228218,1544,1544,1544,1544
95665885,1000,1000,1000,1000,150328178,1545,1545,1545,1545
95668384,1000,1000,1000,1000,150428971,1545,1544,1545,1544
95670883,1000,1000,1000,1000,150528931,1544,1544,1544,1544
95673382,1000,1000,1000,1000,150628891,1544,1545,1544,1544
95675881,1000,1000,1000,1000,150728851,1544,1544,1544,1544
95678380,1000,1000,1000,1000,150828811,1544,1544,1544,1544
95680879,1000,1000,1000,1000,150928771,1544,1544,1544,1544
95683378,1000,1000,1000,1000,151028731,1544,1544,1544,1544
95685877,1000,1000,1000,1000,151128691,1544,1544,1544,1544
95688376,1000,1000,1000,1000,151228651,1544,1544,1544,1544
95690875,1000,1000,1000,1000,151328611,1544,1543,1544,1544
95693374,1000,1000,1000,1000,151428571,1544,1544,1544,1544
95695873,1000,1000,1000,1000,151528531,1544,1544,1544,1544
95698372,1000,1000,1000,1000,151628491,1544,1544,1544,1544
95700871,1000,1000,1000,1000,151728451,1544,1544,1544,1544
95703370,1000,1000,1000,1000,151828411,1544,1544,1544,1544
95705869,1000,1000,1000,1000,151928371,1544,1544,1544,1544
95708368,1000,1000,1000,1000,152028331,1544,1544,1544,1544
95710867,1000,1000,1000,1000,152128291,1545,1544,1544,1544
95713366,1000,1000,1000,1000,152228251,1509,1510,1510,1509
95715865,1000,1000,1000,1000,152328211,1399,1398,1398,1399
95718364,1000,1000,1000,1000,152428171,1354,1354,1354,1354
95720863,1000,1000,1000,1000,152528964,1342,1341,1342,1342
95723362,1000,1000,1000,1000,152628924,1330,1330,1331,1330
95725861,1000,1000,1000,1000,152728884,1305,1304,1305,1305
95728360,1000,1000,1000,1000,152828844,1266,1266,1267,1266
95730859,1000,1000,1000,1000,152928804,1220,1220,1221,1221
95733358,1000,1000,1000,1000,153028764,1170,1171,1171,1171
95735857,1000,1000,1000,1000,153128724,1118,1117,1118,1118
95738356,1000,1000,1000,1000,153228684,1059,1060,1061,1059
95740855,1000,1000,1000,1000,153328644,993,993,994,994
95743354,1000,1000,1000,1000,153428604,914,915,917,915
95745853,1000,1000,1000,1000,153528564,817,818,819,818
95748352,1000,1000,1000,1000,153628524,802,804,806,802
95750851,1000,1000,1000,1000,153728484,802,803,805,803
95753350,1000,1000,1000,1000,153828444,853,802,802,855
95755849,1000,1000,1000,1000,153928404,836,802,803,838
95758348,1000,1000,1000,1000,154028364,830,802,803,832
95760847,1000,1000,1000,1000,154128324,831,802,803,834
95763346,1000,1000,1000,1000,154228284,833,802,803,836
95765845,1000,1000,1000,1000,154328244,837,802,803,839
95768344,1000,1000,1000,1000,154428204,839,802,803,842
95770843,1000,1000,1000,1000,154528164,842,802,803,845
95773342,1000,1000,1000,1000,154628957,822,802,804,824
95775841,1000,1000,1000,1000,154728917,824,802,804,826
95778340,1000,1000,1000,1000,154828877,826,802,804,828
95780839,1000,1000,1000,1000,154928837,826,802,804,829
95783338,1000,1000,1000,1000,155028797,827,802,804,830
95785837,1000,1000,1000,1000,155128757,1000,1000,1000,1000
95788336,1000,1000,1000,1000,155228717,1000,1000,1000,1000
95790835,1000,1000,1000,1000,155328677,1000,1000,1000,1000
95793334,1000,1000,1000,1000,155428637,1000,1000,1000,1000
95795833,1000,1000,1000,1000,155528597,1000,1000,1000,1000
95798332,1000,1000,1000,1000,155628557,1000,1000,1000,1000
95800831,1000,1000,1000,1000,155728517,1000,1000,1000,1000
95803330,1000,1000,1000,1000,155828477,1000,1000,1000,1000
95805829,1000,1000,1000,1000,155928437,1000,1000,1000,1000
95808328,1000,1000,1000,1000,156028397,1000,1000,1000,1000
95810827,1000,1000,1000,1000,156128357,1000,1000,1000,1000
95813326,1000,1000,1000,1000,156228317,1000,1000,1000,1000
95815825,1000,1000,1000,1000,156328277,1000,1000,1000,1000
95818324,1000,1000,1000,1000,156428237,1000,1000,1000,1000
95820823,1000,1000,1000,1000,156528197,1000,1000,1000,1000
95823322,1000,1000,1000,1000,156628157,1000,1000,1000,1000
95825821,1000,1000,1000,1000,156728950,1000,1000,1000,1000
95828320,1000,1000,1000,1000,156828910,1000,1000,1000,1000
95830819,1000,1000,1000,1000,156928870,1000,1000,1000,1000
95833318,1000,1000,1000,1000,157028830,1000,1000,1000,1000
95835817,1000,1000,1000,1000,157128790,1000,1000,1000,1000
95838316,1000,1000,1000,1000,157228750,1000,1000,1000,1000
95840815,1000,1000,1000,1000,157328710,1000,1000,1000,1000
95843314,1000,1000,1000,1000,157428670,1000,1000,1000,1000
95845813,1000,1000,1000,1000,157528630,1000,1000,1000,1000
95848312,1000,1000,1000,1000,157628590,1000,1000,1000,1000
95850811,1000,1000,1000,1000,157728550,1000,1000,1000,1000
95853310,1000,1000,1000,1000,157828510,1000,1000,1000,1000
95855809,1000,1000,1000,1000,157928470,1000,1000,1000,1000
95858308,1000,1000,1000,1000,158028430,1000,1000,1000,1000
95860807,1000,1000,1000,1000,158128390,1000,1000,1000,1000
95863306,1000,1000,1000,1000,158228350,1000,1000,1000,1000
95865805,1000,1000,1000,1000,158328310,1000,1000,1000,1000
95868304,1000,1000,1000,1000,158428270,1000,1000,1000,1000
95870803,1000,1000,1000,1000,158528230,1000,1000,1000,1000
95873302,1000,1000,1000,1000,158628190,1000,1000,1000,1000
95875801,1000,1000,1000,1000,158728983,1000,1000,1000,1000
95878300,1000,1000,1000,1000,158828943,1000,1000,1000,1000
95880799,1000,1000,1000,1000,158928903,1000,1000,1000,1000
95883298,1000,1000,1000,1000,159028863,1000,1000,1000,1000
95885797,1000,1000,1000,1000,159128823,1000,1000,1000,1000
95888296,1000,1000,1000,1000,159228783,1000,1000,1000,1000
95890795,1000,1000,1000,1000,159328743,1000,1000,1000,1000
95893294,1000,1000,1000,1000,159428703,1000,1000,1000,1000
95895793,1000,1000,1000,1000,159528663,1000,1000,1000,1000
95898292,1000,1000,1000,1000,159628623,1000,1000,1000,1000
95900791,1000,1000,1000,1000,159728583,1000,1000,1000,1000
95903290,1000,1000,1000,1000,159828543,1000,1000,1000,1000
95905789,1000,1000,1000,1000,159928503,1000,1000,1000,1000
95908288,1000,1000,1000,1000,160028463,1000,1000,1000,1000
95910787,1000,1000,1000,1000,160128423,1000,1000,1000,1000
95913286,1000,1000,1000,1000,160228383,1000,1000,1000,1000
95915785,1000,1000,1000,1000,160328343,1000,1000,1000,1000
95918284,1000,1000,1000,1000,160428303,1000,1000,1000,1000
95920783,1000,1000,1000,1000,160528263,1000,1000,1000,1000
95923282,1000,1000,1000,1000,160628223,1000,1000,1000,1000
95925781,1000,1000,1000,1000,160728183,1000,1000,1000,1000
95928280,1000,1000,1000,1000,160828976,1000,1000,1000,1000
95930779,1000,1000,1000,1000,160928936,1000,1000,1000,1000
95933278,1000,1000,1000,1000,161028896,1000,1000,1000,1000
95935777,1000,1000,1000,1000,161128856,1000,1000,1000,1000
95938276,1000,1000,1000,1000,161228816,1000,1000,1000,1000
95940775,1000,1000,1000,1000,161328776,1000,1000,1000,1000
95943274,1000,1000,1000,1000,161428736,1000,1000,1000,1000
95945773,1000,1000,1000,1000,161528696,1000,1000,1000,1000
95948272,1000,1000,1000,1000,161628656,1000,1000,1000,1000
95950771,1000,1000,1000,1000,161728616,1000,1000,1000,1000
95953270,1000,1000,1000,1000,161828576,1000,1000,1000,1000
95955769,1000,1000,1000,1000,161928536,1000,1000,1000,1000
95958268,1000,1000,1000,1000,162028496,1000,1000,1000,1000
95960767,1000,1000,1000,1000,162128456,1000,1000,1000,1000
95963266,1000,1000,1000,1000,162228416,1000,1000,1000,1000
95965765,1000,1000,1000,1000,162328376,1000,1000,1000,1000
95968264,1000,1000,1000,1000,162428336,1000,1000,1000,1000
95970763,1000,1000,1000,1000,162528296,1000,1000,1000,1000
95973262,1000,1000,1000,1000,162628256,1000,1000,1000,1000
95975761,1000,1000,1000,1000,162728216,1000,1000,1000,1000
95978260,1000,1000,1000,1000,162828176,1000,1000,1000,1000
95980759,1000,1000,1000,1000,162928969,1000,1000,1000,1000
95983258,1000,1000,1000,1000,163028929,1000,1000,1000,1000
95985757,1000,1000,1000,1000,163128889,1000,1000,1000,1000
95988256,1000,1000,1000,1000,163228849,1000,1000,1000,1000
95990755,1000,1000,1000,1000,163328809,1000,1000,1000,1000
95993254,1000,1000,1000,1000,163428769,1000,1000,1000,1000
95995753,1000,1000,1000,1000,163528729,1000,1000,1000,1000
95998252,1000,1000,1000,1000,163628689,1000,1000,1000,1000
96000751,1000,1000,1000,1000,163728649,1000,1000,1000,1000
96003250,1000,1000,1000,1000,163828609,1000,1000,1000,1000
96005749,1000,1000,1000,1000,163928569,1000,1000,1000,1000
96008248,1000,1000,1000,1000,164028529,1000,1000,1000,1000
96010747,1000,1000,1000,1000,164128489,1000,1000,1000,1000
96013246,1000,1000,1000,1000,164228449,1000,1000,1000,1000
96015745,1000,1000,1000,1000,164328409,1000,1000,1000,1000
96018244,1000,1000,1000,1000,164428369,1000,1000,1000,1000
96020743,1000,1000,1000,1000,164528329,1000,1000,1000,1000
96023242,1000,1000,1000,1000,164628289,1000,1000,1000,1000
96025741,1000,1000,1000,1000,164728249,1000,1000,1000,1000
96028240,1000,1000,1000,1000,164828209,1000,1000,1000,1000
96030739,1000,1000,1000,1000,164928169,1000,1000,1000,1000
96033238,1000,1000,1000,1000,165028962,1000,1000,1000,1000
96035737,1000,1000,1000,1000,165128922,1000,1000,1000,1000
96038236,1000,1000,1000,1000,165228882,1000,1000,1000,1000
96040735,1000,1000,1000,1000,165328842,1000,1000,1000,1000
96043234,1000,1000,1000,1000,165428802,1000,1000,1000,1000
96045733,1000,1000,1000,1000,165528762,1000,1000,1000,1000
96048232,1000,1000,1000,1000,165628722,1000,1000,1000,1000
96050731,1000,1000,1000,1000,165728682,1000,1000,1000,1000
96053230,1000,1000,1000,1000,165828642,1000,1000,1000,1000
96055729,1000,1000,1000,1000,165928602,1000,1000,1000,1000
96058228,1000,1000,1000,1000,166028562,1000,1000,1000,1000
96060727,1000,1000,1000,1000,166128522,1000,1000,1000,1000
96063226,1000,1000,1000,1000,166228482,1000,1000,1000,1000
96065725,1000,1000,1000,1000,166328442,1000,1000,1000,1000
96068224,1000,1000,1000,1000,166368426,1000,1000,1000,1000
96070723,1000,1000,1000,1000,166468386,1000,1000,1000,1000
96073222,1000,1000,1000,1000,166568346,1000,1000,1000,1000
96075721,1000,1000,1000,1000,166668306,1000,1000,1000,1000
96078220,1000,1000,1000,1000,166768266,1000,1000,1000,1000
96080719,1000,1000,1000,1000,166868226,1000,1000,1000,1000
96083218,1000,1000,1000,1000,166968186,1000,1000,1000,1000
96085717,1000,1000,1000,1000,167068979,1000,1000,1000,1000
96088216,1000,1000,1000,1000,167168939,1000,1000,1000,1000
96090715,1000,1000,1000,1000,167268899,1000,1000,1000,1000
96093214,1000,1000,1000,1000,167368859,1000,1000,1000,1000
96095713,1000,1000,1000,1000,167468819,1000,1000,1000,1000
96098212,1000,1000,1000,1000,167568779,1000,1000,1000,1000
96100711,1000,1000,1000,1000,167668739,1000,1000,1000,1000
96103210,1000,1000,1000,1000,167768699,1000,1000,1000,1000
96105709,1000,1000,1000,1000,167868659,1000,1000,1000,1000
96108208,1000,1000,1000,1000,167968619,1000,1000,1000,1000
96110707,1000,1000,1000,1000,168068579,1000,1000,1000,1000
96113206,1000,1000,1000,1000,168168539,1000,1000,1000,1000
96115705,1000,1000,1000,1000,168268499,1000,1000,1000,1000
96118204,1000,1000,1000,1000,168368459,1000,1000,1000,1000
96120703,1000,1000,1000,1000,168468419,1000,1000,1000,1000
96123202,1000,1000,1000,1000,168568379,1000,1000,1000,1000
96125701,1000,1000,1000,1000,168668339,1000,1000,1000,1000
96128200,1000,1000,1000,1000,168768299,1000,1000,1000,1000
96130699,1000,1000,1000,1000,168868259,1000,1000,1000,1000
96133198,1000,1000,1000,1000,168968219,1000,1000,1000,1000
96135697,1000,1000,1000,1000,169068179,1000,1000,1000,1000
96138196,1000,1000,1000,1000,169168972,1000,1000,1000,1000
96140695,1000,1000,1000,1000,169268932,1000,1000,1000,1000
96143194,1000,1000,1000,1000,169368892,1000,1000,1000,1000
96145693,1000,1000,1000,1000,169468852,1000,1000,1000,1000
96148192,1000,1000,1000,1000,169568812,1000,1000,1000,1000
96150691,1000,1000,1000,1000,169668772,1000,1000,1000,1000
96153190,1000,1000,1000,1000,169768732,1000,1000,1000,1000
96155689,1000,1000,1000,1000,169868692,1000,1000,1000,1000
96158188,1000,1000,1000,1000,169968652,1000,1000,1000,1000
96160687,1000,1000,1000,1000,,,,,
96163186,1000,1000,1000,1000,,,,,
96165685,1000,1000,1000,1000,,,,,
96168184,1000,1000,1000,1000,,,,,
96170683,1000,1000,1000,1000,,,,,
96173182,1000,1000,1000,1000,,,,,
96175681,1000,1000,1000,1000,,,,,
96178180,1000,1000,1000,1000,,,,,
96180679,1000,1000,1000,1000,,,,,
96183178,1000,1000,1000,1000,,,,,
96185677,1000,1000,1000,1000,,,,,
96188176,1000,1000,1000,1000,,,,,
96190675,1000,1000,1000,1000,,,,,
96193174,1000,1000,1000,1000,,,,,
96195673,1000,1000,1000,1000,,,,,
96198172,1000,1000,1000,1000,,,,,
96200671,1000,1000,1000,1000,,,,,
96203170,1000,1000,1000,1000,,,,,
96205669,1000,1000,1000,1000,,,,,
96208168,1000,1000,1000,1000,,,,,
96210667,1000,1000,1000,1000,,,,,
96213166,1000,1000,1000,1000,,,,,
96215665,1000,1000,1000,1000,,,,,
96218164,1000,1000,1000,1000,,,,,
96220663,1000,1000,1000,1000,,,,,
96223162,1000,1000,1000,1000,,,,,
96225661,1000,1000,1000,1000,,,,,
96228160,1000,1000,1000,1000,,,,,
96230659,1000,1000,1000,1000,,,,,
96233158,1000,1000,1000,1000,,,,,
96235657,1000,1000,1000,1000,,,,,
96238156,1000,1000,1000,1000,,,,,
96240655,1000,1000,1000,1000,,,,,
96243154,1000,1000,1000,1000,,,,,
96246486,1000,1000,1000,1000,,,,,
96248985,1000,1000,1000,1000,,,,,
96251484,1000,1000,1000,1000,,,,,
96253983,1000,1000,1000,1000,,,,,
96256482,1000,1000,1000,1000,,,,,
96258981,1000,1000,1000,1000,,,,,
96261480,1000,1000,1000,1000,,,,,
96263979,1000,1000,1000,1000,,,,,
96266478,1000,1000,1000,1000,,,,,
96268977,1000,1000,1000,1000,,,,,
96271476,1000,1000,1000,1000,,,,,
96273975,1001,1001,1001,1001,,,,,
96276474,1002,1002,1002,1002,,,,,
96278973,1003,1003,1003,1003,,,,,
96281472,1003,1003,1003,1003,,,,,
96283971,1004,1004,1004,1004,,,,,
96286470,1005,1005,1005,1005,,,,,
96288969,1006,1006,1006,1006,,,,,
96291468,1006,1006,1006,1006,,,,,
96293967,1007,1007,1007,1007,,,,,
96296466,1008,1008,1008,1008,,,,,
96298965,1009,1009,1009,1009,,,,,
96301464,1009,1009,1009,1009,,,,,
96303963,1010,1010,1010,1010,,,,,
96306462,1011,1011,1011,1011,,,,,
96308961,1012,1012,1012,1012,,,,,
96311460,1012,1012,1012,1012,,,,,
96313959,1013,1013,1013,1013,,,,,
96316458,1014,1014,1014,1014,,,,,
96318957,1015,1015,1015,1015,,,,,
96321456,1015,1015,1015,1015,,,,,
96323955,1016,1016,1016,1016,,,,,
96326454,1017,1017,1017,1017,,,,,
96328953,1018,1018,1018,1018,,,,,
96331452,1018,1018,1018,1018,,,,,
96333951,1019,1019,1019,1019,,,,,
96336450,1020,1020,1020,1020,,,,,
96338949,1021,1021,1021,1021,,,,,
96341448,1021,1021,1021,1021,,,,,
96343947,1022,1022,1022,1022,,,,,
96346446,1023,1023,1023,1023,,,,,
96348945,1024,1024,1024,1024,,,,,
96351444,1024,1024,1024,1024,,,,,
96353943,1025,1025,1025,1025,,,,,
96356442,1026,1026,1026,1026,,,,,
96358941,1027,1027,1027,1027,,,,,
96361440,1027,1027,1027,1027,,,,,
96363939,1028,1028,1028,1028,,,,,
96366438,1029,1029,1029,1029,,,,,
96368937,1030,1030,1030,1030,,,,,
96371436,1030,1030,1030,1030,,,,,
96373935,1031,1031,1031,1031,,,,,
96376434,1032,1032,1032,1032,,,,,
96378933,1033,1033,1033,1033,,,,,
96381432,1033,1033,1033,1033,,,,,
96383931,1034,1034,1034,1034,,,,,
96386430,1035,1035,1035,1035,,,,,
96388929,1036,1036,1036,1036,,,,,
96391428,1036,1036,1036,1036,,,,,
96393927,1037,1037,1037,1037,,,,,
96396426,1038,1038,1038,1038,,,,,
96398925,1039,1039,1039,1039,,,,,
96401424,1039,1039,1039,1039,,,,,
96403923,1040,1040,1040,1040,,,,,
96406422,1041,1041,1041,1041,,,,,
96408921,1042,1042,1042,1042,,,,,
96411420,1042,1042,1042,1042,,,,,
96413919,1043,1043,1043,1043,,,,,
96416418,1044,1044,1044,1044,,,,,
96418917,1045,1045,1045,1045,,,,,
96421416,1045,1045,1045,1045,,,,,
96423915,1046,1046,1046,1046,,,,,
96426414,1047,1047,1047,1047,,,,,
96428913,1048,1048,1048,1048,,,,,
96431412,1048,1048,1048,1048,,,,,
96433911,1049,1049,1049,1049,,,,,
96436410,1050,1050,1050,1050,,,,,
96438909,1051,1051,1051,1051,,,,,
96441408,1051,1051,1051,1051,,,,,
96443907,1052,1052,1052,1052,,,,,
96446406,1053,1053,1053,1053,,,,,
96448905,1054,1054,1054,1054,,,,,
96451404,1054,1054,1054,1054,,,,,
96453903,1055,1055,1055,1055,,,,,
96456402,1056,1056,1056,1056,,,,,
96458901,1057,1057,1057,1057,,,,,
96461400,1057,1057,1057,1057,,,,,
96463899,1058,1058,1058,1058,,,,,
96466398,1059,1059,1059,1059,,,,,
96468897,1060,1060,1060,1060,,,,,
96471396,1060,1060,1060,1060,,,,,
96473895,1061,1061,1061,1061,,,,,
96476394,1062,1062,1062,1062,,,,,
96478893,1063,1063,1063,1063,,,,,
96481392,1063,1063,1063,1063,,,,,
96483891,1064,1064,1064,1064,,,,,
96486390,1065,1065,1065,1065,,,,,
96488889,1066,1066,1066,1066,,,,,
96491388,1066,1066,1066,1066,,,,,
96493887,1067,1067,1067,1067,,,,,
96496386,1068,1068,1068,1068,,,,,
96498885,1069,1069,1069,1069,,,,,
96501384,1069,1069,1069,1069,,,,,
96503883,1070,1070,1070,1070,,,,,
96506382,1071,1071,1071,1071,,,,,
96508881,1072,1072,1072,1072,,,,,
96511380,1072,1072,1072,1072,,,,,
96513879,1073,1073,1073,1073,,,,,
96516378,1074,1074,1074,1074,,,,,
96518877,1075,1075,1075,1075,,,,,
96521376,1075,1075,1075,1075,,,,,
96523875,1076,1076,1076,1076,,,,,
96526374,1077,1077,1077,1077,,,,,
96528873,1078,1078,1078,1078,,,,,
96531372,1078,1078,1078,1078,,,,,
96533871,1079,1079,1079,1079,,,,,
96536370,1080,1080,1080,1080,,,,,
96538869,1081,1081,1081,1081,,,,,
96541368,1081,1081,1081,1081,,,,,
96543867,1082,1082,1082,1082,,,,,
96546366,1083,1083,1083,1083,,,,,
96548865,1084,1084,1084,1084,,,,,
96551364,1084,1084,1084,1084,,,,,
96553863,1085,1085,1085,1085,,,,,
96556362,1086,1086,1086,1086,,,,,
96558861,1087,1087,1087,1087,,,,,
96561360,1087,1087,1087,1087,,,,,
96563859,1088,1088,1088,1088,,,,,
96566358,1089,1089,1089,1089,,,,,
96568857,1090,1090,1090,1090,,,,,
96571356,1090,1090,1090,1090,,,,,
96573855,1091,1091,1091,1091,,,,,
96576354,1092,1092,1092,1092,,,,,
96578853,1093,1093,1093,1093,,,,,
96581352,1093,1093,1093,1093,,,,,
96583851,1094,1094,1094,1094,,,,,
96586350,1095,1095,1095,1095,,,,,
96588849,1096,1096,1096,1096,,,,,
96591348,1096,1096,1096,1096,,,,,
96593847,1097,1097,1097,1097,,,,,
96596346,1098,1098,1098,1098,,,,,
96598845,1099,1099,1099,1099,,,,,
96601344,1099,1099,1099,1099,,,,,
96603843,1100,1100,1100,1100,,,,,
96606342,1101,1101,1101,1101,,,,,
96608841,1101,1101,1101,1101,,,,,
96611340,1102,1102,1102,1102,,,,,
96613839,1103,1103,1103,1103,,,,,
96616338,1104,1104,1104,1104,,,,,
96618837,1104,1104,1104,1104,,,,,
96621336,1105,1105,1105,1105,,,,,
96623835,1106,1106,1106,1106,,,,,
96626334,1107,1107,1107,1107,,,,,
96628833,1107,1107,1107,1107,,,,,
96631332,1108,1108,1108,1108,,,,,
96633831,1109,1109,1109,1109,,,,,
96636330,1110,1110,1110,1110,,,,,
96638829,1110,1110,1110,1110,,,,,
96641328,1111,1111,1111,1111,,,,,
96643827,1112,1112,1112,1112,,,,,
96646326,1113,1113,1113,1113,,,,,
96648825,1113,1113,1113,1113,,,,,
96651324,1114,1114,1114,1114,,,,,
96653823,1115,1115,1115,1115,,,,,
96656322,1116,1116,1116,1116,,,,,
96658821,1116,1116,1116,1116,,,,,
96661320,1117,1117,1117,1117,,,,,
96663819,1118,1118,1118,1118,,,,,
96666318,1119,1119,1119,1119,,,,,
96668817,1119,1119,1119,1119,,,,,
96671316,1120,1120,1120,1120,,,,,
96673815,1121,1121,1121,1121,,,,,
96676314,1122,1122,1122,1122,,,,,
96678813,1122,1122,1122,1122,,,,,
96681312,1123,1123,1123,1123,,,,,
96683811,1124,1124,1124,1124,,,,,
96686310,1125,1125,1125,1125,,,,,
96688809,1125,1125,1125,1125,,,,,
96691308,1126,1126,1126,1126,,,,,
96693807,1127,1127,1127,1127,,,,,
96696306,1128,1128,1128,1128,,,,,
96698805,1128,1128,1128,1128,,,,,
96701304,1129,1129,1129,1129,,,,,
96703803,1130,1130,1130,1130,,,,,
96706302,1131,1131,1131,1131,,,,,
96708801,1131,1131,1131,1131,,,,,
96711300,1132,1132,1132,1132,,,,,
96713799,1133,1133,1133,1133,,,,,
96716298,1134,1134,1134,1134,,,,,
96718797,1134,1134,1134,1134,,,,,
96721296,1135,1135,1135,1135,,,,,
96723795,1136,1136,1136,1136,,,,,
96726294,1137,1137,1137,1137,,,,,
96728793,1137,1137,1137,1137,,,,,
96731292,1138,1138,1138,1138,,,,,
96733791,1139,1139,1139,1139,,,,,
96736290,1140,1140,1140,1140,,,,,
96738789,1140,1140,1140,1140,,,,,
96741288,1141,1141,1141,1141,,,,,
96743787,1142,1142,1142,1142,,,,,
96746286,1143,1143,1143,1143,,,,,
96748785,1143,1143,1143,1143,,,,,
96751284,1144,1144,1144,1144,,,,,
96753783,1145,1145,1145,1145,,,,,
96756282,1146,1146,1146,1146,,,,,
96758781,1146,1146,1146,1146,,,,,
96761280,1147,1147,1147,1147,,,,,
96763779,1148,1148,1148,1148,,,,,
96766278,1149,1149,1149,1149,,,,,
96768777,1149,1149,1149,1149,,,,,
96771276,1150,1150,1150,1150,,,,,
96773775,1165,1150,1151,1165,,,,,
96776274,1173,1158,1159,1173,,,,,
96778773,1180,1166,1167,1181,,,,,
96781272,1188,1174,1175,1189,,,,,
96783771,1196,1182,1182,1196,,,,,
96786270,1203,1189,1190,1204,,,,,
96788769,1210,1197,1197,1211,,,,,
96791268,1217,1204,1205,1218,,,,,
96793767,1224,1211,1212,1225,,,,,
96796266,1231,1218,1219,1232,,,,,
96798765,1238,1225,1226,1239,,,,,
96801264,1245,1232,1233,1246,,,,,
96803763,1252,1239,1240,1252,,,,,
96806262,1258,1246,1247,1259,,,,,
96808761,1265,1252,1253,1265,,,,,
96811260,1271,1259,1260,1272,,,,,
96813759,1277,1265,1266,1278,,,,,
96816258,1284,1272,1273,1284,,,,,
96818757,1290,1278,1279,1291,,,,,
96821256,1296,1284,1285,1297,,,,,
96823755,1302,1291,1291,1303,,,,,
96826254,1308,1297,1297,1309,,,,,
96828753,1314,1303,1303,1315,,,,,
96831252,1320,1309,1309,1320,,,,,
96833751,1326,1314,1315,1326,,,,,
96836250,1332,1320,1321,1332,,,,,
96838749,1337,1326,1327,1338,,,,,
96841248,1343,1332,1333,1343,,,,,
96843747,1348,1337,1338,1349,,,,,
96846246,1354,1343,1344,1354,,,,,
96848745,1359,1349,1349,1360,,,,,
96851244,1365,1354,1355,1365,,,,,
96853743,1370,1359,1360,1371,,,,,
96856242,1376,1365,1366,1376,,,,,
96858741,1381,1370,1371,1381,,,,,
96861240,1386,1375,1376,1387,,,,,
96863739,1391,1381,1382,1392,,,,,
96866238,1397,1386,1387,1397,,,,,
96868737,1402,1391,1392,1402,,,,,
96871236,1407,1396,1397,1407,,,,,
96873735,1412,1401,1402,1412,,,,,
96876234,1417,1406,1407,1417,,,,,
96878733,1422,1411,1412,1422,,,,,
96881232,1427,1416,1417,1427,,,,,
96883731,1432,1421,1422,1432,,,,,
96886230,1437,1426,1427,1437,,,,,
96888729,1441,1431,1432,1442,,,,,
96891228,1446,1436,1437,1447,,,,,
96893727,1451,1441,1441,1451,,,,,
96896226,1456,1446,1446,1456,,,,,
96898725,1460,1450,1451,1461,,,,,
96901224,1465,1455,1456,1465,,,,,
96903723,1470,1460,1460,1470,,,,,
96906222,1474,1464,1465,1475,,,,,
96908721,1479,1469,1470,1479,,,,,
96911220,1483,1474,1474,1484,,,,,
96913719,1488,1478,1479,1488,,,,,
96916218,1492,1483,1483,1493,,,,,
96918717,1497,1487,1488,1497,,,,,
96921216,1501,1492,1492,1502,,,,,
96923715,1506,1496,1497,1506,,,,,
96926214,1510,1500,1501,1510,,,,,
96928713,1514,1505,1505,1515,,,,,
96931212,1519,1509,1510,1519,,,,,
96933711,1523,1514,1514,1523,,,,,
96936210,1527,1518,1519,1528,,,,,
96938709,1532,1522,1523,1532,,,,,
96941208,1536,1527,1527,1536,,,,,
96943707,1540,1531,1531,1540,,,,,
96946206,1544,1535,1536,1545,,,,,
96948705,1548,1539,1540,1549,,,,,
96951204,1553,1543,1544,1553,,,,,
96953703,1557,1548,1548,1557,,,,,
96956202,1561,1552,1552,1561,,,,,
96958701,1565,1556,1556,1565,,,,,
96961200,1569,1560,1561,1569,,,,,
96963699,1573,1564,1565,1573,,,,,
96966198,1577,1568,1569,1577,,,,,
96968697,1581,1572,1573,1581,,,,,
96971196,1585,1576,1577,1585,,,,,
96973695,1589,1580,1581,1589,,,,,
96976194,1593,1584,1585,1593,,,,,
96978693,1597,1588,1589,1597,,,,,
96981192,1601,1592,1593,1601,,,,,
96983691,1605,1596,1597,1605,,,,,
96986190,1609,1600,1600,1609,,,,,
96988689,1613,1604,1604,1613,,,,,
96991188,1616,1608,1608,1617,,,,,
96993687,1620,1611,1612,1620,,,,,
96996186,1624,1615,1616,1624,,,,,
96998685,1628,1619,1620,1628,,,,,
97001184,1632,1623,1623,1632,,,,,
97003683,1635,1627,1627,1636,,,,,
97006182,1639,1630,1631,1639,,,,,
97008681,1643,1634,1635,1643,,,,,
97011180,1647,1638,1639,1647,,,,,
97013679,1650,1641,1642,1650,,,,,
97016178,1654,1645,1646,1654,,,,,
97018677,1658,1649,1650,1658,,,,,
97021176,1661,1653,1653,1661,,,,,
97023675,1665,1656,1657,1665,,,,,
97026174,1669,1660,1661,1669,,,,,
97028673,1672,1663,1664,1672,,,,,
97031172,1676,1667,1668,1676,,,,,
97033671,1679,1671,1671,1680,,,,,
97036170,1683,1674,1675,1683,,,,,
97038669,1687,1678,1679,1687,,,,,
97041168,1690,1681,1682,1690,,,,,
97043667,1694,1685,1686,1694,,,,,
97046166,1697,1688,1689,1697,,,,,
97048665,1701,1692,1693,1701,,,,,
97051164,1704,1696,1696,1704,,,,,
97053663,1708,1699,1700,1708,,,,,
97056162,1711,1702,1703,1711,,,,,
97058661,1715,1706,1707,1715,,,,,
97061160,1718,1709,1710,1718,,,,,
97063659,1721,1713,1714,1722,,,,,
97066158,1725,1716,1717,1725,,,,,
97068657,1728,1720,1720,1728,,,,,
97071156,1732,1723,1724,1732,,,,,
97073655,1735,1726,1727,1735,,,,,
97076154,1738,1730,1731,1739,,,,,
97078653,1742,1733,1734,1742,,,,,
97081152,1745,1737,1737,1745,,,,,
97083651,1749,1740,1741,1749,,,,,
97086150,1752,1743,1744,1752,,,,,
97088649,1755,1746,1747,1755,,,,,
97091148,1759,1750,1751,1759,,,,,
97093647,1762,1753,1754,1762,,,,,
97096146,1765,1756,1757,1765,,,,,
97098645,1768,1760,1760,1768,,,,,
97101144,1772,1763,1764,1772,,,,,
97103643,1775,1766,1767,1775,,,,,
97106142,1778,1769,1770,1778,,,,,
97108641,1781,1773,1773,1781,,,,,
97111140,1785,1776,1777,1785,,,,,
97113639,1788,1779,1780,1788,,,,,
97116138,1791,1782,1783,1791,,,,,
97118637,1794,1786,1786,1794,,,,,
97121136,1797,1789,1790,1797,,,,,
97123635,1800,1792,1793,1801,,,,,
97126134,1804,1795,1796,1804,,,,,
97128633,1807,1798,1799,1807,,,,,
97131132,1810,1802,1802,1810,,,,,
97133631,1813,1805,1805,1813,,,,,
97136130,1816,1808,1808,1816,,,,,
97138629,1819,1811,1812,1819,,,,,
97141128,1822,1814,1815,1822,,,,,
97143627,1825,1817,1818,1826,,,,,
97146126,1828,1820,1821,1829,,,,,
97148625,1832,1823,1824,1832,,,,,
97151124,1835,1827,1827,1835,,,,,
97153623,1838,1830,1830,1838,,,,,
97156122,1841,1833,1833,1841,,,,,
97158621,1844,1836,1836,1844,,,,,
97161120,1847,1839,1839,1847,,,,,
97163619,1850,1842,1842,1850,,,,,
97166118,1853,1845,1845,1853,,,,,
97168617,1856,1848,1848,1856,,,,,
97171116,1859,1851,1851,1859,,,,,
97173615,1862,1854,1854,1862,,,,,
97176114,1865,1857,1857,1865,,,,,
97178613,1868,1860,1860,1868,,,,,
97181112,1871,1863,1863,1871,,,,,
97183611,1874,1866,1866,1874,,,,,
97186110,1877,1869,1869,1877,,,,,
97188609,1880,1872,1872,1880,,,,,
97191108,1883,1875,1875,1883,,,,,
97193607,1886,1877,1878,1886,,,,,
97196106,1889,1880,1881,1889,,,,,
97198605,1891,1883,1884,1892,,,,,
97201104,1894,1886,1887,1894,,,,,
97203603,1897,1889,1890,1897,,,,,
97206102,1900,1892,1893,1900,,,,,
97208601,1903,1895,1896,1903,,,,,
97211100,1906,1898,1898,1906,,,,,
97213599,1909,1901,1901,1909,,,,,
97216098,1910,1901,1902,1910,,,,,
97218597,1909,1900,1901,1909,,,,,
97221096,1908,1899,1900,1908,,,,,
97223595,1907,1899,1899,1907,,,,,
97226094,1906,1898,1899,1906,,,,,
97228593,1906,1897,1898,1906,,,,,
97231092,1905,1896,1897,1905,,,,,
97233591,1904,1896,1896,1904,,,,,
97236090,1904,1895,1896,1904,,,,,
97238589,1903,1895,1895,1903,,,,,
97241088,1903,1894,1895,1903,,,,,
97243587,1902,1894,1894,1902,,,,,
97246086,1902,1893,1894,1902,,,,,
97248585,1902,1893,1893,1902,,,,,
97251084,1901,1892,1893,1901,,,,,
97253583,1901,1892,1893,1901,,,,,
97256082,1901,1892,1893,1901,,,,,
97258581,1901,1892,1893,1901,,,,,
97261080,1901,1892,1893,1901,,,,,
97263579,1901,1892,1893,1901,,,,,
97266078,1901,1892,1893,1901,,,,,
97268577,1900,1893,1893,1901,,,,,
97271076,1900,1893,1893,1900,,,,,
97273575,1900,1893,1893,1900,,,,,
97276074,1900,1893,1893,1900,,,,,
97278573,1899,1893,1893,1899,,,,,
97281072,1899,1892,1893,1899,,,,,
97283571,1898,1892,1893,1898,,,,,
97286070,1897,1892,1892,1898,,,,,
97288569,1897,1891,1892,1897,,,,,
