timestamp,TimeUS,C1,C2,C3,C4,C5,C6,C7,C8,C9,C10,C11,C12,C13,C14
1706599626.70003986,48528914,1000,1000,1000,1000,0,0,0,0,0,0,0,0,0,0
1706599626.79999995,48628874,1000,1000,1000,1000,0,0,0,0,0,0,0,0,0,0
1706599626.89995980,48728834,1000,1000,1000,1000,0,0,0,0,0,0,0,0,0,0
1706599626.99991989,48828794,1000,1000,1000,1000,0,0,0,0,0,0,0,0,0,0
1706599627.09987998,48928754,1000,1000,1000,1000,0,0,0,0,0,0,0,0,0,0
1706599627.19983983,49028714,1000,1000,1000,1000,0,0,0,0,0,0,0,0,0,0
1706599627.29979992,49128674,1000,1000,1000,1000,0,0,0,0,0,0,0,0,0,0
1706599627.39976001,49228634,1000,1000,1000,1000,0,0,0,0,0,0,0,0,0,0
1706599627.49971986,49328594,1000,1000,1000,1000,0,0,0,0,0,0,0,0,0,0
1706599627.59967995,49428554,1000,1000,1000,1000,0,0,0,0,0,0,0,0,0,0
1706599627.69963980,49528514,1000,1000,1000,1000,0,0,0,0,0,0,0,0,0,0
1706599627.79959989,49628474,1000,1000,1000,1000,0,0,0,0,0,0,0,0,0,0
1706599627.89955997,49728434,1000,1000,1000,1000,0,0,0,0,0,0,0,0,0,0
1706599627.99951982,49828394,1000,1000,1000,1000,0,0,0,0,0,0,0,0,0,0
1706599628.09947991,49928354,1000,1000,1000,1000,0,0,0,0,0,0,0,0,0,0
1706599628.19944000,50028314,1000,1000,1000,1000,0,0,0,0,0,0,0,0,0,0
1706599628.29939985,50128274,1000,1000,1000,1000,0,0,0,0,0,0,0,0,0,0
1706599628.39935994,50228234,1000,1000,1000,1000,0,0,0,0,0,0,0,0,0,0
1706599628.49931979,50328194,1000,1000,1000,1000,0,0,0,0,0,0,0,0,0,0
1706599628.59927988,50428154,1000,1000,1000,1000,0,0,0,0,0,0,0,0,0,0
1706599628.70007300,50528947,1013,1013,1013,1013,0,0,0,0,0,0,0,0,0,0
1706599628.80003285,50628907,1043,1043,1043,1043,0,0,0,0,0,0,0,0,0,0
1706599628.89999294,50728867,1073,1073,1073,1073,0,0,0,0,0,0,0,0,0,0
1706599628.99995279,50828827,1103,1103,1103,1103,0,0,0,0,0,0,0,0,0,0
1706599629.09991288,50928787,1133,1133,1133,1133,0,0,0,0,0,0,0,0,0,0
1706599629.19987297,51028747,1275,1269,1269,1275,0,0,0,0,0,0,0,0,0,0
1706599629.29983282,51128707,1486,1481,1481,1486,0,0,0,0,0,0,0,0,0,0
1706599629.39979291,51228667,1648,1644,1644,1648,0,0,0,0,0,0,0,0,0,0
1706599629.49975300,51328627,1785,1782,1782,1785,0,0,0,0,0,0,0,0,0,0
1706599629.59971285,51428587,1907,1903,1903,1907,0,0,0,0,0,0,0,0,0,0
1706599629.69967294,51528547,1890,1888,1888,1890,0,0,0,0,0,0,0,0,0,0
1706599629.79963279,51628507,1759,1759,1759,1759,0,0,0,0,0,0,0,0,0,0
1706599629.89959288,51728467,1659,1661,1661,1660,0,0,0,0,0,0,0,0,0,0
1706599629.99955297,51828427,1627,1630,1630,1627,0,0,0,0,0,0,0,0,0,0
1706599630.09951282,51928387,1633,1625,1624,1633,0,0,0,0,0,0,0,0,0,0
1706599630.19947290,52028347,1629,1630,1623,1635,0,0,0,0,0,0,0,0,0,0
1706599630.29943299,52128307,1627,1628,1622,1633,0,0,0,0,0,0,0,0,0,0
1706599630.39939284,52228267,1621,1622,1620,1623,0,0,0,0,0,0,0,0,0,0
1706599630.49935293,52328227,1615,1616,1617,1614,0,0,0,0,0,0,0,0,0,0
1706599630.59931278,52428187,1613,1612,1617,1609,0,0,0,0,0,0,0,0,0,0
1706599630.70010591,52528980,1613,1611,1616,1607,0,0,0,0,0,0,0,0,0,0
1706599630.80006599,52628940,1615,1614,1618,1611,0,0,0,0,0,0,0,0,0,0
1706599630.90002584,52728900,1616,1616,1617,1614,0,0,0,0,0,0,0,0,0,0
1706599630.99998593,52828860,1584,1585,1592,1577,0,0,0,0,0,0,0,0,0,0
1706599631.09994578,52928820,1570,1571,1577,1565,0,0,0,0,0,0,0,0,0,0
1706599631.19990587,53028780,1559,1560,1560,1559,0,0,0,0,0,0,0,0,0,0
1706599631.29986596,53128740,1550,1550,1545,1555,0,0,0,0,0,0,0,0,0,0
1706599631.39982581,53228700,1543,1543,1533,1553,0,0,0,0,0,0,0,0,0,0
1706599631.49978590,53328660,1536,1536,1527,1545,0,0,0,0,0,0,0,0,0,0
1706599631.59974599,53428620,1530,1530,1525,1535,0,0,0,0,0,0,0,0,0,0
1706599631.69970584,53528580,1527,1527,1525,1528,0,0,0,0,0,0,0,0,0,0
1706599631.79966593,53628540,1525,1525,1526,1524,0,0,0,0,0,0,0,0,0,0
1706599631.89962578,53728500,1528,1527,1530,1525,0,0,0,0,0,0,0,0,0,0
1706599631.99958587,53828460,1530,1530,1533,1527,0,0,0,0,0,0,0,0,0,0
1706599632.09954596,53928420,1534,1534,1537,1531,0,0,0,0,0,0,0,0,0,0
1706599632.19950581,54028380,1538,1538,1541,1536,0,0,0,0,0,0,0,0,0,0
1706599632.29946589,54128340,1542,1542,1543,1541,0,0,0,0,0,0,0,0,0,0
1706599632.39942598,54228300,1544,1544,1545,1544,0,0,0,0,0,0,0,0,0,0
1706599632.49938583,54328260,1547,1547,1547,1548,0,0,0,0,0,0,0,0,0,0
1706599632.59934592,54428220,1550,1551,1550,1552,0,0,0,0,0,0,0,0,0,0
1706599632.69930577,54528180,1554,1553,1552,1555,0,0,0,0,0,0,0,0,0,0
1706599632.80009890,54628973,1553,1553,1557,1560,0,0,0,0,0,0,0,0,0,0
1706599632.90005898,54728933,1555,1555,1560,1562,0,0,0,0,0,0,0,0,0,0
1706599633.00001884,54828893,1557,1558,1563,1563,0,0,0,0,0,0,0,0,0,0
1706599633.09997892,54928853,1560,1560,1564,1564,0,0,0,0,0,0,0,0,0,0
1706599633.19993877,55028813,1563,1563,1565,1565,0,0,0,0,0,0,0,0,0,0
1706599633.29989886,55128773,1565,1565,1566,1565,0,0,0,0,0,0,0,0,0,0
1706599633.39985895,55228733,1567,1567,1566,1565,0,0,0,0,0,0,0,0,0,0
1706599633.49981880,55328693,1569,1569,1566,1567,0,0,0,0,0,0,0,0,0,0
1706599633.59977889,55428653,1570,1570,1566,1566,0,0,0,0,0,0,0,0,0,0
1706599633.69973898,55528613,1571,1571,1567,1568,0,0,0,0,0,0,0,0,0,0
1706599633.79969883,55628573,1572,1572,1568,1568,0,0,0,0,0,0,0,0,0,0
1706599633.89965892,55728533,1573,1573,1570,1570,0,0,0,0,0,0,0,0,0,0
1706599633.99961901,55828493,1574,1574,1571,1571,0,0,0,0,0,0,0,0,0,0
1706599634.09957886,55928453,1575,1575,1573,1573,0,0,0,0,0,0,0,0,0,0
1706599634.19953895,56028413,1575,1575,1574,1573,0,0,0,0,0,0,0,0,0,0
1706599634.29949880,56128373,1574,1574,1575,1573,0,0,0,0,0,0,0,0,0,0
1706599634.39945889,56228333,1575,1575,1576,1574,0,0,0,0,0,0,0,0,0,0
1706599634.49941897,56328293,1575,1575,1576,1575,0,0,0,0,0,0,0,0,0,0
1706599634.59937882,56428253,1575,1574,1576,1576,0,0,0,0,0,0,0,0,0,0
1706599634.69933891,56528213,1575,1575,1576,1576,0,0,0,0,0,0,0,0,0,0
1706599634.79929900,56628173,1574,1574,1575,1575,0,0,0,0,0,0,0,0,0,0
1706599634.90009189,56728966,1574,1574,1575,1575,0,0,0,0,0,0,0,0,0,0
1706599635.00005198,56828926,1575,1575,1576,1576,0,0,0,0,0,0,0,0,0,0
1706599635.10001183,56928886,1576,1576,1577,1576,0,0,0,0,0,0,0,0,0,0
1706599635.19997191,57028846,1577,1577,1577,1577,0,0,0,0,0,0,0,0,0,0
1706599635.29993200,57128806,1577,1576,1577,1577,0,0,0,0,0,0,0,0,0,0
1706599635.39989185,57228766,1576,1576,1576,1576,0,0,0,0,0,0,0,0,0,0
1706599635.49985194,57328726,1577,1577,1577,1577,0,0,0,0,0,0,0,0,0,0
1706599635.59981179,57428686,1578,1578,1577,1577,0,0,0,0,0,0,0,0,0,0
1706599635.69977188,57528646,1578,1578,1577,1578,0,0,0,0,0,0,0,0,0,0
1706599635.79973197,57628606,1578,1578,1578,1578,0,0,0,0,0,0,0,0,0,0
1706599635.89969182,57728566,1579,1578,1578,1578,0,0,0,0,0,0,0,0,0,0
1706599635.99965191,57828526,1578,1578,1578,1578,0,0,0,0,0,0,0,0,0,0
1706599636.09961200,57928486,1579,1579,1579,1579,0,0,0,0,0,0,0,0,0,0
1706599636.19957185,58028446,1579,1579,1579,1579,0,0,0,0,0,0,0,0,0,0
1706599636.29953194,58128406,1580,1579,1579,1579,0,0,0,0,0,0,0,0,0,0
1706599636.39949179,58228366,1579,1579,1578,1579,0,0,0,0,0,0,0,0,0,0
1706599636.49945188,58328326,1580,1579,1579,1580,0,0,0,0,0,0,0,0,0,0
1706599636.59941196,58428286,1578,1578,1578,1578,0,0,0,0,0,0,0,0,0,0
1706599636.69937181,58528246,1579,1580,1579,1579,0,0,0,0,0,0,0,0,0,0
1706599636.79933190,58628206,1579,1579,1580,1579,0,0,0,0,0,0,0,0,0,0
1706599636.89929199,58728166,1579,1579,1579,1579,0,0,0,0,0,0,0,0,0,0
1706599637.00008488,58828959,1579,1579,1580,1579,0,0,0,0,0,0,0,0,0,0
1706599637.10004497,58928919,1579,1579,1579,1579,0,0,0,0,0,0,0,0,0,0
1706599637.20000482,59028879,1579,1578,1579,1579,0,0,0,0,0,0,0,0,0,0
1706599637.29996490,59128839,1580,1580,1579,1580,0,0,0,0,0,0,0,0,0,0
1706599637.39992499,59228799,1580,1580,1580,1580,0,0,0,0,0,0,0,0,0,0
1706599637.49988484,59328759,1580,1580,1580,1580,0,0,0,0,0,0,0,0,0,0
1706599637.59984493,59428719,1580,1580,1580,1580,0,0,0,0,0,0,0,0,0,0
1706599637.69980478,59528679,1580,1580,1580,1580,0,0,0,0,0,0,0,0,0,0
1706599637.79976487,59628639,1581,1581,1581,1581,0,0,0,0,0,0,0,0,0,0
1706599637.89972496,59728599,1580,1580,1580,1580,0,0,0,0,0,0,0,0,0,0
1706599637.99968481,59828559,1581,1581,1581,1581,0,0,0,0,0,0,0,0,0,0
1706599638.09964490,59928519,1582,1582,1581,1582,0,0,0,0,0,0,0,0,0,0
1706599638.19960499,60028479,1581,1581,1581,1581,0,0,0,0,0,0,0,0,0,0
1706599638.29956484,60128439,1581,1581,1581,1581,0,0,0,0,0,0,0,0,0,0
1706599638.39952493,60228399,1580,1580,1580,1580,0,0,0,0,0,0,0,0,0,0
1706599638.49948478,60328359,1581,1581,1581,1581,0,0,0,0,0,0,0,0,0,0
1706599638.59944487,60428319,1580,1581,1581,1581,0,0,0,0,0,0,0,0,0,0
1706599638.69940495,60528279,1582,1582,1582,1582,0,0,0,0,0,0,0,0,0,0
1706599638.79936481,60628239,1581,1582,1582,1582,0,0,0,0,0,0,0,0,0,0
1706599638.89932489,60728199,1581,1581,1582,1581,0,0,0,0,0,0,0,0,0,0
1706599638.99928498,60828159,1580,1581,1587,1573,0,0,0,0,0,0,0,0,0,0
1706599639.10007787,60928952,1580,1582,1585,1573,0,0,0,0,0,0,0,0,0,0
1706599639.20003796,61028912,1578,1581,1576,1573,0,0,0,0,0,0,0,0,0,0
1706599639.29999781,61128872,1577,1580,1567,1572,0,0,0,0,0,0,0,0,0,0
1706599639.39995790,61228832,1577,1578,1560,1567,0,0,0,0,0,0,0,0,0,0
1706599639.49991798,61328792,1577,1578,1556,1563,0,0,0,0,0,0,0,0,0,0
1706599639.59987783,61428752,1578,1577,1555,1558,0,0,0,0,0,0,0,0,0,0
1706599639.69983792,61528712,1579,1578,1555,1556,0,0,0,0,0,0,0,0,0,0
1706599639.79979777,61628672,1579,1578,1557,1554,0,0,0,0,0,0,0,0,0,0
1706599639.89975786,61728632,1578,1578,1557,1553,0,0,0,0,0,0,0,0,0,0
1706599639.99971795,61828592,1577,1577,1556,1553,0,0,0,0,0,0,0,0,0,0
1706599640.09967780,61928552,1575,1577,1555,1554,0,0,0,0,0,0,0,0,0,0
1706599640.19963789,62028512,1575,1576,1554,1554,0,0,0,0,0,0,0,0,0,0
1706599640.29959798,62128472,1575,1576,1552,1554,0,0,0,0,0,0,0,0,0,0
1706599640.39955783,62228432,1575,1576,1551,1552,0,0,0,0,0,0,0,0,0,0
1706599640.49951792,62328392,1576,1577,1549,1550,0,0,0,0,0,0,0,0,0,0
1706599640.59947801,62428352,1577,1579,1547,1547,0,0,0,0,0,0,0,0,0,0
1706599640.69943786,62528312,1580,1581,1544,1544,0,0,0,0,0,0,0,0,0,0
1706599640.79939795,62628272,1583,1584,1543,1542,0,0,0,0,0,0,0,0,0,0
1706599640.89935780,62728232,1587,1588,1541,1540,0,0,0,0,0,0,0,0,0,0
1706599640.99931788,62828192,1591,1592,1539,1538,0,0,0,0,0,0,0,0,0,0
1706599641.10011101,62928985,1592,1592,1535,1535,0,0,0,0,0,0,0,0,0,0
1706599641.20007086,63028945,1595,1594,1534,1535,0,0,0,0,0,0,0,0,0,0
1706599641.30003095,63128905,1595,1594,1535,1536,0,0,0,0,0,0,0,0,0,0
1706599641.39999080,63228865,1594,1594,1536,1538,0,0,0,0,0,0,0,0,0,0
1706599641.49995089,63328825,1592,1591,1538,1541,0,0,0,0,0,0,0,0,0,0
1706599641.59991097,63428785,1589,1588,1544,1547,0,0,0,0,0,0,0,0,0,0
1706599641.69987082,63528745,1583,1580,1552,1555,0,0,0,0,0,0,0,0,0,0
1706599641.79983091,63628705,1574,1571,1561,1564,0,0,0,0,0,0,0,0,0,0
1706599641.89979100,63728665,1565,1560,1574,1575,0,0,0,0,0,0,0,0,0,0
1706599641.99975085,63828625,1553,1550,1586,1587,0,0,0,0,0,0,0,0,0,0
1706599642.09971094,63928585,1543,1540,1598,1598,0,0,0,0,0,0,0,0,0,0
1706599642.19967079,64028545,1534,1534,1607,1607,0,0,0,0,0,0,0,0,0,0
1706599642.29963088,64128505,1530,1531,1614,1613,0,0,0,0,0,0,0,0,0,0
1706599642.39959097,64228465,1528,1530,1615,1614,0,0,0,0,0,0,0,0,0,0
1706599642.49955082,64328425,1531,1533,1614,1613,0,0,0,0,0,0,0,0,0,0
1706599642.59951091,64428385,1537,1539,1609,1609,0,0,0,0,0,0,0,0,0,0
1706599642.69947100,64528345,1544,1545,1603,1603,0,0,0,0,0,0,0,0,0,0
1706599642.79943085,64628305,1552,1554,1595,1596,0,0,0,0,0,0,0,0,0,0
1706599642.89939094,64728265,1561,1562,1588,1588,0,0,0,0,0,0,0,0,0,0
1706599642.99935079,64828225,1570,1571,1581,1581,0,0,0,0,0,0,0,0,0,0
1706599643.09931087,64928185,1578,1577,1575,1574,0,0,0,0,0,0,0,0,0,0
1706599643.20010400,65028978,1584,1582,1571,1570,0,0,0,0,0,0,0,0,0,0
1706599643.30006385,65128938,1587,1585,1568,1568,0,0,0,0,0,0,0,0,0,0
1706599643.40002394,65228898,1589,1587,1567,1567,0,0,0,0,0,0,0,0,0,0
1706599643.49998379,65328858,1588,1587,1567,1567,0,0,0,0,0,0,0,0,0,0
1706599643.59994388,65428818,1586,1585,1568,1569,0,0,0,0,0,0,0,0,0,0
1706599643.69990396,65528778,1584,1584,1571,1571,0,0,0,0,0,0,0,0,0,0
1706599643.79986382,65628738,1581,1580,1573,1574,0,0,0,0,0,0,0,0,0,0
1706599643.89982390,65728698,1579,1578,1577,1577,0,0,0,0,0,0,0,0,0,0
1706599643.99978399,65828658,1576,1576,1580,1579,0,0,0,0,0,0,0,0,0,0
1706599644.09974384,65928618,1574,1575,1583,1582,0,0,0,0,0,0,0,0,0,0
1706599644.19970393,66028578,1573,1574,1584,1584,0,0,0,0,0,0,0,0,0,0
1706599644.29966378,66128538,1571,1572,1583,1583,0,0,0,0,0,0,0,0,0,0
1706599644.39962387,66228498,1572,1573,1583,1584,0,0,0,0,0,0,0,0,0,0
1706599644.49958396,66328458,1573,1574,1583,1583,0,0,0,0,0,0,0,0,0,0
1706599644.59954381,66428418,1490,1490,1493,1501,0,0,0,0,0,0,0,0,0,0
1706599644.69950390,66528378,1534,1533,1536,1540,0,0,0,0,0,0,0,0,0,0
1706599644.79946399,66628338,1560,1560,1563,1561,0,0,0,0,0,0,0,0,0,0
1706599644.89942384,66728298,1580,1580,1584,1577,0,0,0,0,0,0,0,0,0,0
1706599644.99938393,66828258,1595,1595,1597,1590,0,0,0,0,0,0,0,0,0,0
1706599645.09934378,66928218,1604,1604,1604,1599,0,0,0,0,0,0,0,0,0,0
1706599645.19930387,67028178,1608,1608,1606,1604,0,0,0,0,0,0,0,0,0,0
1706599645.30009699,67128971,1610,1610,1605,1607,0,0,0,0,0,0,0,0,0,0
1706599645.40005684,67228931,1609,1608,1603,1606,0,0,0,0,0,0,0,0,0,0
1706599645.50001693,67328891,1606,1606,1601,1604,0,0,0,0,0,0,0,0,0,0
1706599645.59997678,67428851,1603,1603,1599,1602,0,0,0,0,0,0,0,0,0,0
1706599645.69993687,67528811,1600,1600,1597,1598,0,0,0,0,0,0,0,0,0,0
1706599645.79989696,67628771,1597,1597,1595,1596,0,0,0,0,0,0,0,0,0,0
1706599645.89985681,67728731,1593,1594,1594,1592,0,0,0,0,0,0,0,0,0,0
1706599645.99981689,67828691,1591,1591,1591,1590,0,0,0,0,0,0,0,0,0,0
1706599646.09977698,67928651,1588,1588,1589,1588,0,0,0,0,0,0,0,0,0,0
1706599646.19973683,68028611,1585,1585,1587,1586,0,0,0,0,0,0,0,0,0,0
1706599646.29969692,68128571,1582,1582,1583,1584,0,0,0,0,0,0,0,0,0,0
1706599646.39965677,68228531,1579,1580,1581,1581,0,0,0,0,0,0,0,0,0,0
1706599646.49961686,68328491,1578,1578,1579,1580,0,0,0,0,0,0,0,0,0,0
1706599646.59957695,68428451,1577,1577,1578,1578,0,0,0,0,0,0,0,0,0,0
1706599646.69953680,68528411,1577,1577,1578,1578,0,0,0,0,0,0,0,0,0,0
1706599646.79949689,68628371,1577,1576,1577,1577,0,0,0,0,0,0,0,0,0,0
1706599646.89945698,68728331,1578,1578,1578,1577,0,0,0,0,0,0,0,0,0,0
1706599646.99941683,68828291,1577,1579,1583,1571,0,0,0,0,0,0,0,0,0,0
1706599647.09937692,68928251,1576,1580,1581,1568,0,0,0,0,0,0,0,0,0,0
1706599647.19933701,69028211,1576,1579,1573,1568,0,0,0,0,0,0,0,0,0,0
1706599647.29929686,69128171,1575,1578,1564,1566,0,0,0,0,0,0,0,0,0,0
1706599647.40008998,69228964,1576,1578,1558,1564,0,0,0,0,0,0,0,0,0,0
1706599647.50004983,69328924,1577,1577,1553,1560,0,0,0,0,0,0,0,0,0,0
1706599647.60000992,69428884,1578,1577,1551,1556,0,0,0,0,0,0,0,0,0,0
1706599647.69997001,69528844,1580,1578,1551,1553,0,0,0,0,0,0,0,0,0,0
1706599647.79992986,69628804,1580,1579,1552,1551,0,0,0,0,0,0,0,0,0,0
1706599647.89988995,69728764,1580,1579,1553,1551,0,0,0,0,0,0,0,0,0,0
1706599647.99984980,69828724,1580,1580,1554,1551,0,0,0,0,0,0,0,0,0,0
1706599648.09980989,69928684,1578,1579,1553,1551,0,0,0,0,0,0,0,0,0,0
1706599648.19976997,70028644,1577,1579,1552,1551,0,0,0,0,0,0,0,0,0,0
1706599648.29972982,70128604,1577,1579,1552,1552,0,0,0,0,0,0,0,0,0,0
1706599648.39968991,70228564,1578,1579,1551,1551,0,0,0,0,0,0,0,0,0,0
1706599648.49965000,70328524,1578,1580,1550,1551,0,0,0,0,0,0,0,0,0,0
1706599648.59960985,70428484,1580,1581,1549,1550,0,0,0,0,0,0,0,0,0,0
1706599648.69956994,70528444,1581,1581,1547,1547,0,0,0,0,0,0,0,0,0,0
1706599648.79952979,70628404,1583,1583,1545,1546,0,0,0,0,0,0,0,0,0,0
1706599648.89948988,70728364,1585,1585,1544,1544,0,0,0,0,0,0,0,0,0,0
1706599648.99944997,70828324,1587,1588,1542,1543,0,0,0,0,0,0,0,0,0,0
1706599649.09940982,70928284,1589,1590,1541,1542,0,0,0,0,0,0,0,0,0,0
1706599649.19936991,71028244,1591,1592,1540,1541,0,0,0,0,0,0,0,0,0,0
1706599649.29933000,71128204,1593,1592,1541,1542,0,0,0,0,0,0,0,0,0,0
1706599649.39928985,71228164,1592,1591,1544,1545,0,0,0,0,0,0,0,0,0,0
1706599649.50008297,71328957,1590,1587,1548,1551,0,0,0,0,0,0,0,0,0,0
1706599649.60004282,71428917,1585,1581,1555,1557,0,0,0,0,0,0,0,0,0,0
1706599649.70000291,71528877,1578,1573,1563,1566,0,0,0,0,0,0,0,0,0,0
1706599649.79996300,71628837,1569,1565,1573,1575,0,0,0,0,0,0,0,0,0,0
1706599649.89992285,71728797,1559,1556,1583,1584,0,0,0,0,0,0,0,0,0,0
1706599649.99988294,71828757,1551,1550,1594,1594,0,0,0,0,0,0,0,0,0,0
1706599650.09984279,71928717,1543,1543,1601,1601,0,0,0,0,0,0,0,0,0,0
1706599650.19980288,72028677,1538,1540,1608,1607,0,0,0,0,0,0,0,0,0,0
1706599650.29976296,72128637,1537,1538,1611,1610,0,0,0,0,0,0,0,0,0,0
1706599650.39972281,72228597,1538,1540,1611,1610,0,0,0,0,0,0,0,0,0,0
1706599650.49968290,72328557,1541,1543,1609,1609,0,0,0,0,0,0,0,0,0,0
1706599650.59964299,72428517,1546,1548,1606,1605,0,0,0,0,0,0,0,0,0,0
1706599650.69960284,72528477,1553,1554,1601,1601,0,0,0,0,0,0,0,0,0,0
1706599650.79956293,72628437,1560,1561,1595,1595,0,0,0,0,0,0,0,0,0,0
1706599650.89952278,72728397,1567,1567,1589,1589,0,0,0,0,0,0,0,0,0,0
1706599650.99948287,72828357,1573,1573,1582,1582,0,0,0,0,0,0,0,0,0,0
1706599651.09944296,72928317,1579,1577,1576,1576,0,0,0,0,0,0,0,0,0,0
1706599651.19940281,73028277,1583,1582,1571,1572,0,0,0,0,0,0,0,0,0,0
1706599651.29936290,73128237,1587,1585,1569,1569,0,0,0,0,0,0,0,0,0,0
1706599651.39932299,73228197,1587,1586,1567,1567,0,0,0,0,0,0,0,0,0,0
1706599651.49928284,73328157,1588,1587,1567,1567,0,0,0,0,0,0,0,0,0,0
1706599651.60007596,73428950,1587,1586,1568,1568,0,0,0,0,0,0,0,0,0,0
1706599651.70003581,73528910,1586,1585,1570,1569,0,0,0,0,0,0,0,0,0,0
1706599651.79999590,73628870,1583,1583,1572,1572,0,0,0,0,0,0,0,0,0,0
1706599651.89995599,73728830,1581,1581,1575,1575,0,0,0,0,0,0,0,0,0,0
1706599651.99991584,73828790,1579,1579,1578,1578,0,0,0,0,0,0,0,0,0,0
1706599652.09987593,73928750,1576,1576,1579,1579,0,0,0,0,0,0,0,0,0,0
1706599652.19983578,74028710,1574,1575,1582,1581,0,0,0,0,0,0,0,0,0,0
1706599652.29979587,74128670,1573,1574,1583,1583,0,0,0,0,0,0,0,0,0,0
1706599652.39975595,74228630,1573,1573,1584,1584,0,0,0,0,0,0,0,0,0,0
1706599652.49971581,74328590,1573,1574,1585,1585,0,0,0,0,0,0,0,0,0,0
1706599652.59967589,74428550,1575,1575,1585,1585,0,0,0,0,0,0,0,0,0,0
1706599652.69963598,74528510,1575,1575,1584,1584,0,0,0,0,0,0,0,0,0,0
1706599652.79959583,74628470,1576,1576,1583,1583,0,0,0,0,0,0,0,0,0,0
1706599652.89955592,74728430,1577,1577,1582,1581,0,0,0,0,0,0,0,0,0,0
1706599652.99951577,74828390,1578,1578,1580,1581,0,0,0,0,0,0,0,0,0,0
1706599653.09947586,74928350,1580,1580,1580,1580,0,0,0,0,0,0,0,0,0,0
1706599653.19943595,75028310,1581,1581,1579,1579,0,0,0,0,0,0,0,0,0,0
1706599653.29939580,75128270,1582,1581,1578,1578,0,0,0,0,0,0,0,0,0,0
1706599653.39935589,75228230,1582,1582,1577,1578,0,0,0,0,0,0,0,0,0,0
1706599653.49931598,75328190,1582,1582,1578,1578,0,0,0,0,0,0,0,0,0,0
1706599653.60010886,75428983,1583,1582,1578,1578,0,0,0,0,0,0,0,0,0,0
1706599653.70006895,75528943,1583,1582,1579,1579,0,0,0,0,0,0,0,0,0,0
1706599653.80002880,75628903,1582,1582,1578,1578,0,0,0,0,0,0,0,0,0,0
1706599653.89998889,75728863,1582,1582,1580,1579,0,0,0,0,0,0,0,0,0,0
1706599653.99994898,75828823,1582,1582,1581,1580,0,0,0,0,0,0,0,0,0,0
1706599654.09990883,75928783,1581,1581,1581,1581,0,0,0,0,0,0,0,0,0,0
1706599654.19986892,76028743,1580,1581,1581,1581,0,0,0,0,0,0,0,0,0,0
1706599654.29982901,76128703,1580,1580,1581,1581,0,0,0,0,0,0,0,0,0,0
1706599654.39978886,76228663,1579,1580,1582,1582,0,0,0,0,0,0,0,0,0,0
1706599654.49974895,76328623,1579,1580,1582,1582,0,0,0,0,0,0,0,0,0,0
1706599654.59970880,76428583,1579,1580,1582,1582,0,0,0,0,0,0,0,0,0,0
1706599654.69966888,76528543,1579,1579,1581,1581,0,0,0,0,0,0,0,0,0,0
1706599654.79962897,76628503,1579,1579,1581,1581,0,0,0,0,0,0,0,0,0,0
1706599654.89958882,76728463,1579,1579,1580,1580,0,0,0,0,0,0,0,0,0,0
1706599654.99954891,76828423,1579,1580,1580,1581,0,0,0,0,0,0,0,0,0,0
1706599655.09950900,76928383,1581,1581,1584,1578,0,0,0,0,0,0,0,0,0,0
1706599655.19946885,77028343,1580,1582,1587,1572,0,0,0,0,0,0,0,0,0,0
1706599655.29942894,77128303,1579,1582,1581,1572,0,0,0,0,0,0,0,0,0,0
1706599655.39938879,77228263,1577,1580,1572,1571,0,0,0,0,0,0,0,0,0,0
1706599655.49934888,77328223,1576,1579,1564,1569,0,0,0,0,0,0,0,0,0,0
1706599655.59930897,77428183,1576,1578,1558,1565,0,0,0,0,0,0,0,0,0,0
1706599655.70010185,77528976,1578,1577,1555,1561,0,0,0,0,0,0,0,0,0,0
1706599655.80006194,77628936,1579,1577,1553,1557,0,0,0,0,0,0,0,0,0,0
1706599655.90002179,77728896,1580,1578,1554,1555,0,0,0,0,0,0,0,0,0,0
1706599655.99998188,77828856,1580,1578,1555,1553,0,0,0,0,0,0,0,0,0,0
1706599656.09994197,77928816,1579,1578,1556,1553,0,0,0,0,0,0,0,0,0,0
1706599656.19990182,78028776,1578,1578,1555,1552,0,0,0,0,0,0,0,0,0,0
1706599656.29986191,78128736,1577,1578,1554,1553,0,0,0,0,0,0,0,0,0,0
1706599656.39982200,78228696,1575,1577,1553,1552,0,0,0,0,0,0,0,0,0,0
1706599656.49978185,78328656,1575,1577,1552,1552,0,0,0,0,0,0,0,0,0,0
1706599656.59974194,78428616,1576,1577,1551,1551,0,0,0,0,0,0,0,0,0,0
1706599656.69970179,78528576,1577,1578,1549,1550,0,0,0,0,0,0,0,0,0,0
1706599656.79966187,78628536,1579,1580,1548,1548,0,0,0,0,0,0,0,0,0,0
1706599656.89962196,78728496,1581,1582,1547,1547,0,0,0,0,0,0,0,0,0,0
1706599656.99958181,78828456,1583,1584,1544,1544,0,0,0,0,0,0,0,0,0,0
1706599657.09954190,78928416,1586,1586,1542,1542,0,0,0,0,0,0,0,0,0,0
1706599657.19950199,79028376,1588,1589,1540,1540,0,0,0,0,0,0,0,0,0,0
1706599657.29946184,79128336,1591,1590,1539,1539,0,0,0,0,0,0,0,0,0,0
1706599657.39942193,79228296,1591,1592,1537,1538,0,0,0,0,0,0,0,0,0,0
1706599657.49938178,79328256,1593,1593,1538,1539,0,0,0,0,0,0,0,0,0,0
1706599657.59934187,79428216,1593,1593,1539,1541,0,0,0,0,0,0,0,0,0,0
1706599657.69930196,79528176,1592,1591,1543,1546,0,0,0,0,0,0,0,0,0,0
1706599657.80009484,79628969,1588,1586,1548,1550,0,0,0,0,0,0,0,0,0,0
1706599657.90005493,79728929,1582,1579,1555,1559,0,0,0,0,0,0,0,0,0,0
1706599658.00001478,79828889,1575,1571,1566,1569,0,0,0,0,0,0,0,0,0,0
1706599658.09997487,79928849,1565,1560,1576,1578,0,0,0,0,0,0,0,0,0,0
1706599658.19993496,80028809,1555,1551,1587,1588,0,0,0,0,0,0,0,0,0,0
1706599658.29989481,80128769,1546,1544,1598,1597,0,0,0,0,0,0,0,0,0,0
1706599658.39985490,80228729,1538,1538,1606,1605,0,0,0,0,0,0,0,0,0,0
1706599658.49981499,80328689,1534,1535,1612,1610,0,0,0,0,0,0,0,0,0,0
1706599658.59977484,80428649,1531,1534,1613,1612,0,0,0,0,0,0,0,0,0,0
1706599658.69973493,80528609,1534,1537,1612,1611,0,0,0,0,0,0,0,0,0,0
1706599658.79969478,80628569,1539,1541,1609,1609,0,0,0,0,0,0,0,0,0,0
1706599658.89965487,80728529,1545,1547,1605,1605,0,0,0,0,0,0,0,0,0,0
1706599658.99961495,80828489,1552,1553,1599,1599,0,0,0,0,0,0,0,0,0,0
1706599659.09957480,80928449,1560,1560,1593,1593,0,0,0,0,0,0,0,0,0,0
1706599659.19953489,81028409,1568,1568,1587,1586,0,0,0,0,0,0,0,0,0,0
1706599659.29949498,81128369,1574,1574,1580,1579,0,0,0,0,0,0,0,0,0,0
1706599659.39945483,81228329,1581,1580,1574,1574,0,0,0,0,0,0,0,0,0,0
1706599659.49941492,81328289,1585,1584,1569,1570,0,0,0,0,0,0,0,0,0,0
1706599659.59937477,81428249,1587,1586,1566,1566,0,0,0,0,0,0,0,0,0,0
1706599659.69933486,81528209,1590,1588,1565,1566,0,0,0,0,0,0,0,0,0,0
1706599659.79929495,81628169,1589,1587,1565,1565,0,0,0,0,0,0,0,0,0,0
1706599659.90008783,81728962,1589,1588,1568,1567,0,0,0,0,0,0,0,0,0,0
1706599660.00004792,81828922,1586,1585,1569,1569,0,0,0,0,0,0,0,0,0,0
1706599660.10000777,81928882,1584,1584,1573,1572,0,0,0,0,0,0,0,0,0,0
1706599660.19996786,82028842,1581,1581,1576,1575,0,0,0,0,0,0,0,0,0,0
1706599660.29992795,82128802,1578,1578,1578,1578,0,0,0,0,0,0,0,0,0,0
1706599660.39988780,82228762,1576,1576,1581,1581,0,0,0,0,0,0,0,0,0,0
1706599660.49984789,82328722,1574,1574,1582,1583,0,0,0,0,0,0,0,0,0,0
1706599660.59980798,82428682,1573,1573,1584,1584,0,0,0,0,0,0,0,0,0,0
1706599660.69976783,82528642,1571,1572,1584,1584,0,0,0,0,0,0,0,0,0,0
1706599660.79972792,82628602,1572,1573,1585,1584,0,0,0,0,0,0,0,0,0,0
1706599660.89968801,82728562,1573,1573,1584,1584,0,0,0,0,0,0,0,0,0,0
1706599660.99964786,82828522,1573,1574,1583,1583,0,0,0,0,0,0,0,0,0,0
1706599661.09960794,82928482,1575,1576,1583,1582,0,0,0,0,0,0,0,0,0,0
1706599661.19956779,83028442,1577,1577,1581,1581,0,0,0,0,0,0,0,0,0,0
1706599661.29952788,83128402,1579,1579,1580,1580,0,0,0,0,0,0,0,0,0,0
1706599661.39948797,83228362,1580,1580,1579,1579,0,0,0,0,0,0,0,0,0,0
1706599661.49944782,83328322,1581,1581,1578,1578,0,0,0,0,0,0,0,0,0,0
1706599661.59940791,83428282,1582,1581,1577,1577,0,0,0,0,0,0,0,0,0,0
1706599661.69936800,83528242,1582,1581,1577,1577,0,0,0,0,0,0,0,0,0,0
1706599661.79932785,83628202,1582,1582,1577,1577,0,0,0,0,0,0,0,0,0,0
1706599661.89928794,83728162,1582,1581,1576,1577,0,0,0,0,0,0,0,0,0,0
1706599662.00008082,83828955,1581,1581,1576,1576,0,0,0,0,0,0,0,0,0,0
1706599662.10004091,83928915,1581,1582,1578,1578,0,0,0,0,0,0,0,0,0,0
1706599662.20000100,84028875,1581,1581,1578,1579,0,0,0,0,0,0,0,0,0,0
1706599662.29996085,84128835,1581,1581,1580,1580,0,0,0,0,0,0,0,0,0,0
1706599662.39992094,84228795,1580,1580,1580,1580,0,0,0,0,0,0,0,0,0,0
1706599662.49988079,84328755,1581,1581,1582,1581,0,0,0,0,0,0,0,0,0,0
1706599662.59984088,84428715,1580,1580,1582,1582,0,0,0,0,0,0,0,0,0,0
1706599662.69980097,84528675,1580,1580,1582,1582,0,0,0,0,0,0,0,0,0,0
1706599662.79976082,84628635,1580,1580,1582,1582,0,0,0,0,0,0,0,0,0,0
1706599662.89972091,84728595,1580,1581,1582,1583,0,0,0,0,0,0,0,0,0,0
1706599662.99968100,84828555,1580,1580,1582,1582,0,0,0,0,0,0,0,0,0,0
1706599663.09964085,84928515,1580,1581,1587,1576,0,0,0,0,0,0,0,0,0,0
1706599663.19960093,85028475,1579,1580,1586,1573,0,0,0,0,0,0,0,0,0,0
1706599663.29956079,85128435,1577,1578,1580,1574,0,0,0,0,0,0,0,0,0,0
1706599663.39952087,85228395,1575,1575,1573,1575,0,0,0,0,0,0,0,0,0,0
1706599663.49948096,85328355,1572,1571,1567,1573,0,0,0,0,0,0,0,0,0,0
1706599663.59944081,85428315,1569,1569,1564,1572,0,0,0,0,0,0,0,0,0,0
1706599663.69940090,85528275,1567,1567,1563,1569,0,0,0,0,0,0,0,0,0,0
1706599663.79936099,85628235,1566,1567,1564,1567,0,0,0,0,0,0,0,0,0,0
1706599663.89932084,85728195,1566,1566,1566,1565,0,0,0,0,0,0,0,0,0,0
1706599663.99928093,85828155,1566,1566,1566,1564,0,0,0,0,0,0,0,0,0,0
1706599664.10007381,85928948,1566,1566,1566,1564,0,0,0,0,0,0,0,0,0,0
1706599664.20003390,86028908,1565,1565,1566,1563,0,0,0,0,0,0,0,0,0,0
1706599664.29999399,86128868,1564,1563,1565,1563,0,0,0,0,0,0,0,0,0,0
1706599664.39995384,86228828,1564,1563,1564,1564,0,0,0,0,0,0,0,0,0,0
1706599664.49991393,86328788,1563,1563,1563,1563,0,0,0,0,0,0,0,0,0,0
1706599664.59987378,86428748,1562,1562,1562,1562,0,0,0,0,0,0,0,0,0,0
1706599664.69983387,86528708,1561,1561,1561,1562,0,0,0,0,0,0,0,0,0,0
1706599664.79979396,86628668,1560,1560,1561,1561,0,0,0,0,0,0,0,0,0,0
1706599664.89975381,86728628,1560,1560,1561,1561,0,0,0,0,0,0,0,0,0,0
1706599664.99971390,86828588,1560,1560,1561,1560,0,0,0,0,0,0,0,0,0,0
1706599665.09967399,86928548,1559,1559,1560,1559,0,0,0,0,0,0,0,0,0,0
1706599665.19963384,87028508,1559,1559,1560,1559,0,0,0,0,0,0,0,0,0,0
1706599665.29959393,87128468,1559,1559,1560,1559,0,0,0,0,0,0,0,0,0,0
1706599665.39955378,87228428,1559,1559,1560,1557,0,0,0,0,0,0,0,0,0,0
1706599665.49951386,87328388,1558,1558,1558,1557,0,0,0,0,0,0,0,0,0,0
1706599665.59947395,87428348,1559,1558,1559,1558,0,0,0,0,0,0,0,0,0,0
1706599665.69943380,87528308,1559,1559,1560,1557,0,0,0,0,0,0,0,0,0,0
1706599665.79939389,87628268,1559,1559,1560,1557,0,0,0,0,0,0,0,0,0,0
1706599665.89935398,87728228,1559,1559,1559,1559,0,0,0,0,0,0,0,0,0,0
1706599665.99931383,87828188,1560,1559,1557,1561,0,0,0,0,0,0,0,0,0,0
1706599666.10010695,87928981,1560,1560,1557,1563,0,0,0,0,0,0,0,0,0,0
1706599666.20006680,88028941,1561,1561,1557,1564,0,0,0,0,0,0,0,0,0,0
1706599666.30002689,88128901,1561,1562,1559,1564,0,0,0,0,0,0,0,0,0,0
1706599666.39998698,88228861,1561,1561,1560,1561,0,0,0,0,0,0,0,0,0,0
1706599666.49994683,88328821,1560,1559,1561,1558,0,0,0,0,0,0,0,0,0,0
1706599666.59990692,88428781,1560,1559,1560,1560,0,0,0,0,0,0,0,0,0,0
1706599666.69986677,88528741,1557,1557,1556,1558,0,0,0,0,0,0,0,0,0,0
1706599666.79982686,88628701,1552,1552,1552,1553,0,0,0,0,0,0,0,0,0,0
1706599666.89978695,88728661,1547,1547,1547,1548,0,0,0,0,0,0,0,0,0,0
1706599666.99974680,88828621,1542,1542,1542,1542,0,0,0,0,0,0,0,0,0,0
1706599667.09970689,88928581,1535,1535,1535,1535,0,0,0,0,0,0,0,0,0,0
1706599667.19966698,89028541,1528,1528,1528,1528,0,0,0,0,0,0,0,0,0,0
1706599667.29962683,89128501,1522,1522,1522,1522,0,0,0,0,0,0,0,0,0,0
1706599667.39958692,89228461,1520,1519,1520,1519,0,0,0,0,0,0,0,0,0,0
1706599667.49954700,89328421,1519,1519,1519,1520,0,0,0,0,0,0,0,0,0,0
1706599667.59950686,89428381,1520,1521,1520,1521,0,0,0,0,0,0,0,0,0,0
1706599667.69946694,89528341,1523,1523,1523,1523,0,0,0,0,0,0,0,0,0,0
1706599667.79942679,89628301,1526,1527,1527,1526,0,0,0,0,0,0,0,0,0,0
1706599667.89938688,89728261,1532,1532,1532,1532,0,0,0,0,0,0,0,0,0,0
1706599667.99934697,89828221,1536,1536,1536,1536,0,0,0,0,0,0,0,0,0,0
1706599668.09930682,89928181,1539,1539,1539,1538,0,0,0,0,0,0,0,0,0,0
1706599668.20009995,90028974,1541,1541,1541,1541,0,0,0,0,0,0,0,0,0,0
1706599668.30005980,90128934,1543,1543,1543,1543,0,0,0,0,0,0,0,0,0,0
1706599668.40001988,90228894,1543,1544,1544,1543,0,0,0,0,0,0,0,0,0,0
1706599668.49997997,90328854,1546,1546,1546,1545,0,0,0,0,0,0,0,0,0,0
1706599668.59993982,90428814,1546,1546,1546,1546,0,0,0,0,0,0,0,0,0,0
1706599668.69989991,90528774,1547,1547,1547,1547,0,0,0,0,0,0,0,0,0,0
1706599668.79986000,90628734,1547,1547,1547,1547,0,0,0,0,0,0,0,0,0,0
1706599668.89981985,90728694,1547,1547,1547,1547,0,0,0,0,0,0,0,0,0,0
1706599668.99977994,90828654,1547,1547,1547,1547,0,0,0,0,0,0,0,0,0,0
1706599669.09973979,90928614,1546,1546,1546,1546,0,0,0,0,0,0,0,0,0,0
1706599669.19969988,91028574,1546,1546,1546,1546,0,0,0,0,0,0,0,0,0,0
1706599669.29965997,91128534,1546,1546,1546,1545,0,0,0,0,0,0,0,0,0,0
1706599669.39961982,91228494,1545,1546,1545,1545,0,0,0,0,0,0,0,0,0,0
1706599669.49957991,91328454,1546,1546,1546,1546,0,0,0,0,0,0,0,0,0,0
1706599669.59954000,91428414,1545,1545,1545,1545,0,0,0,0,0,0,0,0,0,0
1706599669.69949985,91528374,1546,1545,1545,1545,0,0,0,0,0,0,0,0,0,0
1706599669.79945993,91628334,1545,1545,1545,1545,0,0,0,0,0,0,0,0,0,0
1706599669.89941978,91728294,1545,1545,1545,1545,0,0,0,0,0,0,0,0,0,0
1706599669.99937987,91828254,1544,1544,1544,1545,0,0,0,0,0,0,0,0,0,0
1706599670.09933996,91928214,1545,1545,1545,1545,0,0,0,0,0,0,0,0,0,0
1706599670.19929981,92028174,1545,1544,1545,1544,0,0,0,0,0,0,0,0,0,0
1706599670.30009294,92128967,1544,1544,1544,1543,0,0,0,0,0,0,0,0,0,0
1706599670.40005279,92228927,1543,1543,1543,1543,0,0,0,0,0,0,0,0,0,0
1706599670.50001287,92328887,1544,1544,1544,1544,0,0,0,0,0,0,0,0,0,0
1706599670.59997296,92428847,1544,1544,1544,1544,0,0,0,0,0,0,0,0,0,0
1706599670.69993281,92528807,1544,1544,1544,1544,0,0,0,0,0,0,0,0,0,0
1706599670.79989290,92628767,1544,1544,1544,1544,0,0,0,0,0,0,0,0,0,0
1706599670.89985299,92728727,1544,1544,1544,1544,0,0,0,0,0,0,0,0,0,0
1706599670.99981284,92828687,1545,1545,1545,1545,0,0,0,0,0,0,0,0,0,0
1706599671.09977293,92928647,1544,1544,1544,1544,0,0,0,0,0,0,0,0,0,0
1706599671.19973278,93028607,1544,1544,1544,1544,0,0,0,0,0,0,0,0,0,0
1706599671.29969287,93128567,1544,1544,1544,1544,0,0,0,0,0,0,0,0,0,0
1706599671.39965296,93228527,1544,1544,1544,1544,0,0,0,0,0,0,0,0,0,0
1706599671.49961281,93328487,1543,1543,1543,1543,0,0,0,0,0,0,0,0,0,0
1706599671.59957290,93428447,1544,1544,1544,1544,0,0,0,0,0,0,0,0,0,0
1706599671.69953299,93528407,1544,1544,1544,1544,0,0,0,0,0,0,0,0,0,0
1706599671.79949284,93628367,1544,1545,1544,1544,0,0,0,0,0,0,0,0,0,0
1706599671.89945292,93728327,1544,1544,1544,1544,0,0,0,0,0,0,0,0,0,0
1706599671.99941278,93828287,1544,1545,1545,1544,0,0,0,0,0,0,0,0,0,0
1706599672.09937286,93928247,1544,1544,1545,1544,0,0,0,0,0,0,0,0,0,0
1706599672.19933295,94028207,1544,1544,1544,1544,0,0,0,0,0,0,0,0,0,0
1706599672.29929280,94128167,1544,1543,1544,1544,0,0,0,0,0,0,0,0,0,0
1706599672.40008593,94228960,1544,1543,1544,1544,0,0,0,0,0,0,0,0,0,0
1706599672.50004578,94328920,1545,1544,1544,1544,0,0,0,0,0,0,0,0,0,0
1706599672.60000587,94428880,1544,1545,1545,1544,0,0,0,0,0,0,0,0,0,0
1706599672.69996595,94528840,1545,1544,1545,1544,0,0,0,0,0,0,0,0,0,0
1706599672.79992580,94628800,1544,1544,1544,1544,0,0,0,0,0,0,0,0,0,0
1706599672.89988589,94728760,1544,1544,1544,1544,0,0,0,0,0,0,0,0,0,0
1706599672.99984598,94828720,1545,1545,1545,1545,0,0,0,0,0,0,0,0,0,0
1706599673.09980583,94928680,1545,1545,1545,1545,0,0,0,0,0,0,0,0,0,0
1706599673.19976592,95028640,1545,1545,1545,1545,0,0,0,0,0,0,0,0,0,0
1706599673.29972577,95128600,1544,1544,1544,1544,0,0,0,0,0,0,0,0,0,0
1706599673.39968586,95228560,1545,1545,1545,1545,0,0,0,0,0,0,0,0,0,0
1706599673.49964595,95328520,1544,1544,1544,1544,0,0,0,0,0,0,0,0,0,0
1706599673.59960580,95428480,1544,1544,1544,1544,0,0,0,0,0,0,0,0,0,0
1706599673.69956589,95528440,1544,1544,1544,1544,0,0,0,0,0,0,0,0,0,0
1706599673.79952598,95628400,1544,1544,1544,1543,0,0,0,0,0,0,0,0,0,0
1706599673.89948583,95728360,1544,1544,1544,1544,0,0,0,0,0,0,0,0,0,0
1706599673.99944592,95828320,1543,1543,1544,1543,0,0,0,0,0,0,0,0,0,0
1706599674.09940600,95928280,1544,1544,1544,1545,0,0,0,0,0,0,0,0,0,0
1706599674.19936585,96028240,1544,1544,1544,1544,0,0,0,0,0,0,0,0,0,0
1706599674.29932594,96128200,1544,1544,1544,1544,0,0,0,0,0,0,0,0,0,0
1706599674.39928579,96228160,1544,1544,1543,1544,0,0,0,0,0,0,0,0,0,0
1706599674.50007892,96328953,1544,1544,1544,1544,0,0,0,0,0,0,0,0,0,0
1706599674.60003901,96428913,1544,1544,1544,1544,0,0,0,0,0,0,0,0,0,0
1706599674.69999886,96528873,1544,1544,1544,1544,0,0,0,0,0,0,0,0,0,0
1706599674.79995894,96628833,1544,1545,1544,1544,0,0,0,0,0,0,0,0,0,0
1706599674.89991879,96728793,1545,1544,1545,1544,0,0,0,0,0,0,0,0,0,0
1706599674.99987888,96828753,1544,1544,1544,1544,0,0,0,0,0,0,0,0,0,0
1706599675.09983897,96928713,1544,1543,1543,1544,0,0,0,0,0,0,0,0,0,0
1706599675.19979882,97028673,1544,1543,1544,1543,0,0,0,0,0,0,0,0,0,0
1706599675.29975891,97128633,1544,1544,1544,1544,0,0,0,0,0,0,0,0,0,0
1706599675.39971900,97228593,1544,1544,1544,1544,0,0,0,0,0,0,0,0,0,0
1706599675.49967885,97328553,1545,1544,1544,1545,0,0,0,0,0,0,0,0,0,0
1706599675.59963894,97428513,1544,1544,1544,1544,0,0,0,0,0,0,0,0,0,0
1706599675.69959879,97528473,1544,1544,1544,1544,0,0,0,0,0,0,0,0,0,0
1706599675.79955888,97628433,1544,1544,1544,1544,0,0,0,0,0,0,0,0,0,0
1706599675.89951897,97728393,1544,1544,1544,1544,0,0,0,0,0,0,0,0,0,0
1706599675.99947882,97828353,1545,1545,1545,1544,0,0,0,0,0,0,0,0,0,0
1706599676.09943891,97928313,1544,1544,1544,1544,0,0,0,0,0,0,0,0,0,0
1706599676.19939899,98028273,1545,1545,1545,1545,0,0,0,0,0,0,0,0,0,0
1706599676.29935884,98128233,1543,1544,1543,1544,0,0,0,0,0,0,0,0,0,0
1706599676.39931893,98228193,1544,1544,1544,1544,0,0,0,0,0,0,0,0,0,0
1706599676.50011182,98328986,1544,1544,1543,1544,0,0,0,0,0,0,0,0,0,0
1706599676.60007191,98428946,1544,1543,1544,1543,0,0,0,0,0,0,0,0,0,0
1706599676.70003200,98528906,1544,1544,1544,1544,0,0,0,0,0,0,0,0,0,0
1706599676.79999185,98628866,1545,1545,1545,1545,0,0,0,0,0,0,0,0,0,0
1706599676.89995193,98728826,1544,1545,1544,1545,0,0,0,0,0,0,0,0,0,0
1706599676.99991179,98828786,1533,1534,1534,1533,0,0,0,0,0,0,0,0,0,0
1706599677.09987187,98928746,1384,1383,1383,1384,0,0,0,0,0,0,0,0,0,0
1706599677.19983196,99028706,1314,1313,1313,1314,0,0,0,0,0,0,0,0,0,0
1706599677.29979181,99128666,1294,1293,1293,1294,0,0,0,0,0,0,0,0,0,0
1706599677.39975190,99228626,1281,1281,1281,1281,0,0,0,0,0,0,0,0,0,0
1706599677.49971199,99328586,1251,1250,1250,1251,0,0,0,0,0,0,0,0,0,0
1706599677.59967184,99428546,1200,1200,1200,1200,0,0,0,0,0,0,0,0,0,0
1706599677.69963193,99528506,1135,1134,1135,1134,0,0,0,0,0,0,0,0,0,0
1706599677.79959178,99628466,1057,1057,1058,1056,0,0,0,0,0,0,0,0,0,0
1706599677.89955187,99728426,991,991,992,991,0,0,0,0,0,0,0,0,0,0
1706599677.99951196,99828386,991,992,993,991,0,0,0,0,0,0,0,0,0,0
1706599678.09947181,99928346,1006,991,991,1006,0,0,0,0,0,0,0,0,0,0
1706599678.19943190,100028306,1020,991,991,1020,0,0,0,0,0,0,0,0,0,0
1706599678.29939198,100128266,1011,991,992,1011,0,0,0,0,0,0,0,0,0,0
1706599678.39935184,100228226,1010,991,992,1010,0,0,0,0,0,0,0,0,0,0
1706599678.49931192,100328186,1011,991,992,1011,0,0,0,0,0,0,0,0,0,0
1706599678.60010481,100428979,1013,991,992,1013,0,0,0,0,0,0,0,0,0,0
1706599678.70006490,100528939,1015,991,992,1015,0,0,0,0,0,0,0,0,0,0
1706599678.80002499,100628899,1017,991,992,1016,0,0,0,0,0,0,0,0,0,0
1706599678.89998484,100728859,994,991,991,994,0,0,0,0,0,0,0,0,0,0
1706599678.99994493,100828819,1005,991,992,1005,0,0,0,0,0,0,0,0,0,0
1706599679.09990478,100928779,1006,991,992,1006,0,0,0,0,0,0,0,0,0,0
1706599679.19986486,101028739,1007,991,992,1007,0,0,0,0,0,0,0,0,0,0
1706599679.29982495,101128699,1008,991,992,1007,0,0,0,0,0,0,0,0,0,0
1706599679.39978480,101228659,985,985,985,985,0,0,0,0,0,0,0,0,0,0
1706599679.49974489,101328619,1000,1000,1000,1000,0,0,0,0,0,0,0,0,0,0
1706599679.59970498,101428579,1000,1000,1000,1000,0,0,0,0,0,0,0,0,0,0
1706599679.69966483,101528539,1000,1000,1000,1000,0,0,0,0,0,0,0,0,0,0
1706599679.79962492,101628499,1000,1000,1000,1000,0,0,0,0,0,0,0,0,0,0
1706599679.89958477,101728459,1000,1000,1000,1000,0,0,0,0,0,0,0,0,0,0
1706599679.99954486,101828419,1000,1000,1000,1000,0,0,0,0,0,0,0,0,0,0
1706599680.09950495,101928379,1000,1000,1000,1000,0,0,0,0,0,0,0,0,0,0
1706599680.19946480,102028339,1000,1000,1000,1000,0,0,0,0,0,0,0,0,0,0
1706599680.29942489,102128299,1000,1000,1000,1000,0,0,0,0,0,0,0,0,0,0
1706599680.39938498,102228259,1000,1000,1000,1000,0,0,0,0,0,0,0,0,0,0
1706599680.49934483,102328219,1000,1000,1000,1000,0,0,0,0,0,0,0,0,0,0
1706599680.59930491,102428179,1000,1000,1000,1000,0,0,0,0,0,0,0,0,0,0
1706599680.70009780,102528972,1000,1000,1000,1000,0,0,0,0,0,0,0,0,0,0
1706599680.80005789,102628932,1000,1000,1000,1000,0,0,0,0,0,0,0,0,0,0
1706599680.90001798,102728892,1000,1000,1000,1000,0,0,0,0,0,0,0,0,0,0
1706599680.99997783,102828852,1000,1000,1000,1000,0,0,0,0,0,0,0,0,0,0
1706599681.09993792,102928812,1000,1000,1000,1000,0,0,0,0,0,0,0,0,0,0
1706599681.19989800,103028772,1000,1000,1000,1000,0,0,0,0,0,0,0,0,0,0
1706599681.29985785,103128732,1000,1000,1000,1000,0,0,0,0,0,0,0,0,0,0
1706599681.39981794,103228692,1000,1000,1000,1000,0,0,0,0,0,0,0,0,0,0
1706599681.49977779,103328652,1000,1000,1000,1000,0,0,0,0,0,0,0,0,0,0
1706599681.59973788,103428612,1000,1000,1000,1000,0,0,0,0,0,0,0,0,0,0
1706599681.69969797,103528572,1000,1000,1000,1000,0,0,0,0,0,0,0,0,0,0
1706599681.79965782,103628532,1000,1000,1000,1000,0,0,0,0,0,0,0,0,0,0
1706599681.89961791,103728492,1000,1000,1000,1000,0,0,0,0,0,0,0,0,0,0
1706599681.99957800,103828452,1000,1000,1000,1000,0,0,0,0,0,0,0,0,0,0
1706599682.09953785,103928412,1000,1000,1000,1000,0,0,0,0,0,0,0,0,0,0
1706599682.19949794,104028372,1000,1000,1000,1000,0,0,0,0,0,0,0,0,0,0
1706599682.29945779,104128332,1000,1000,1000,1000,0,0,0,0,0,0,0,0,0,0
1706599682.39941788,104228292,1000,1000,1000,1000,0,0,0,0,0,0,0,0,0,0
1706599682.49937797,104328252,1000,1000,1000,1000,0,0,0,0,0,0,0,0,0,0
1706599682.59933782,104428212,1000,1000,1000,1000,0,0,0,0,0,0,0,0,0,0
1706599682.69929790,104528172,1000,1000,1000,1000,0,0,0,0,0,0,0,0,0,0
1706599682.80009079,104628965,1000,1000,1000,1000,0,0,0,0,0,0,0,0,0,0
1706599682.90005088,104728925,1000,1000,1000,1000,0,0,0,0,0,0,0,0,0,0
1706599683.00001097,104828885,1000,1000,1000,1000,0,0,0,0,0,0,0,0,0,0
1706599683.09997082,104928845,1000,1000,1000,1000,0,0,0,0,0,0,0,0,0,0
1706599683.19993091,105028805,1000,1000,1000,1000,0,0,0,0,0,0,0,0,0,0
1706599683.29989100,105128765,1000,1000,1000,1000,0,0,0,0,0,0,0,0,0,0
1706599683.39985085,105228725,1000,1000,1000,1000,0,0,0,0,0,0,0,0,0,0
1706599683.49981093,105328685,1000,1000,1000,1000,0,0,0,0,0,0,0,0,0,0
1706599683.59977078,105428645,1000,1000,1000,1000,0,0,0,0,0,0,0,0,0,0
1706599683.69973087,105528605,1000,1000,1000,1000,0,0,0,0,0,0,0,0,0,0
1706599683.79969096,105628565,1000,1000,1000,1000,0,0,0,0,0,0,0,0,0,0
1706599683.89965081,105728525,1000,1000,1000,1000,0,0,0,0,0,0,0,0,0,0
1706599683.99961090,105828485,1000,1000,1000,1000,0,0,0,0,0,0,0,0,0,0
1706599684.09957099,105928445,1000,1000,1000,1000,0,0,0,0,0,0,0,0,0,0
1706599684.19953084,106028405,1000,1000,1000,1000,0,0,0,0,0,0,0,0,0,0
1706599684.29949093,106128365,1000,1000,1000,1000,0,0,0,0,0,0,0,0,0,0
1706599684.39945078,106228325,1000,1000,1000,1000,0,0,0,0,0,0,0,0,0,0
1706599684.49941087,106328285,1000,1000,1000,1000,0,0,0,0,0,0,0,0,0,0
1706599684.59937096,106428245,1000,1000,1000,1000,0,0,0,0,0,0,0,0,0,0
1706599684.69933081,106528205,1000,1000,1000,1000,0,0,0,0,0,0,0,0,0,0
1706599684.79929090,106628165,1000,1000,1000,1000,0,0,0,0,0,0,0,0,0,0
1706599684.90008378,106728958,1000,1000,1000,1000,0,0,0,0,0,0,0,0,0,0
1706599685.00004387,106828918,1000,1000,1000,1000,0,0,0,0,0,0,0,0,0,0
1706599685.10000396,106928878,1000,1000,1000,1000,0,0,0,0,0,0,0,0,0,0
1706599685.19996381,107028838,1000,1000,1000,1000,0,0,0,0,0,0,0,0,0,0
1706599685.29992390,107128798,1000,1000,1000,1000,0,0,0,0,0,0,0,0,0,0
1706599685.39988399,107228758,1000,1000,1000,1000,0,0,0,0,0,0,0,0,0,0
1706599685.49984384,107328718,1000,1000,1000,1000,0,0,0,0,0,0,0,0,0,0
1706599685.59980392,107428678,1000,1000,1000,1000,0,0,0,0,0,0,0,0,0,0
1706599685.69976377,107528638,1000,1000,1000,1000,0,0,0,0,0,0,0,0,0,0
1706599685.79972386,107628598,1000,1000,1000,1000,0,0,0,0,0,0,0,0,0,0
1706599685.89968395,107728558,1000,1000,1000,1000,0,0,0,0,0,0,0,0,0,0
1706599685.99964380,107828518,1000,1000,1000,1000,0,0,0,0,0,0,0,0,0,0
1706599686.09960389,107928478,1000,1000,1000,1000,0,0,0,0,0,0,0,0,0,0
1706599686.19956398,108028438,1000,1000,1000,1000,0,0,0,0,0,0,0,0,0,0
1706599686.29952383,108128398,1000,1000,1000,1000,0,0,0,0,0,0,0,0,0,0
1706599686.39948392,108228358,1000,1000,1000,1000,0,0,0,0,0,0,0,0,0,0
1706599686.49944401,108328318,1000,1000,1000,1000,0,0,0,0,0,0,0,0,0,0
1706599686.59940386,108428278,1000,1000,1000,1000,0,0,0,0,0,0,0,0,0,0
1706599686.69936395,108528238,1000,1000,1000,1000,0,0,0,0,0,0,0,0,0,0
1706599686.79932380,108628198,1000,1000,1000,1000,0,0,0,0,0,0,0,0,0,0
1706599686.89928389,108728158,1000,1000,1000,1000,0,0,0,0,0,0,0,0,0,0
1706599687.00007677,108828951,1000,1000,1000,1000,0,0,0,0,0,0,0,0,0,0
1706599687.10003686,108928911,1000,1000,1000,1000,0,0,0,0,0,0,0,0,0,0
