TimeUS,M1,M2,M3,M4,TimeUS,C1,C2,C3,C4
42531314,1000,1000,1000,1000,42628775,1000,1000,1000,1000
42533813,1000,1000,1000,1000,42728735,1000,1000,1000,1000
42536312,1000,1000,1000,1000,42828695,1000,1000,1000,1000
42538811,1000,1000,1000,1000,42928655,1000,1000,1000,1000
42541310,1000,1000,1000,1000,43028615,1000,1000,1000,1000
42543809,1000,1000,1000,1000,43128575,1000,1000,1000,1000
42546308,1000,1000,1000,1000,43228535,1000,1000,1000,1000
42548807,1000,1000,1000,1000,43328495,1000,1000,1000,1000
42551306,1000,1000,1000,1000,43428455,1000,1000,1000,1000
42553805,1000,1000,1000,1000,43528415,1000,1000,1000,1000
42556304,1000,1000,1000,1000,43628375,1000,1000,1000,1000
42558803,1000,1000,1000,1000,43728335,1000,1000,1000,1000
42561302,1000,1000,1000,1000,43828295,1000,1000,1000,1000
42563801,1000,1000,1000,1000,43928255,1000,1000,1000,1000
42566300,1000,1000,1000,1000,44028215,1000,1000,1000,1000
42568799,1000,1000,1000,1000,44128175,1000,1000,1000,1000
42571298,1000,1000,1000,1000,44228968,1000,1000,1000,1000
42573797,1000,1000,1000,1000,44328928,1000,1000,1000,1000
42576296,1000,1000,1000,1000,44428888,1000,1000,1000,1000
42578795,1000,1000,1000,1000,44528848,1000,1000,1000,1000
42581294,1000,1000,1000,1000,44628808,1029,1029,1029,1029
42583793,1000,1000,1000,1000,44728768,1059,1059,1059,1059
42586292,1000,1000,1000,1000,44828728,1089,1089,1089,1089
42588791,1000,1000,1000,1000,44928688,1119,1119,1119,1119
42591290,1000,1000,1000,1000,45028648,1149,1149,1149,1149
42593789,1000,1000,1000,1000,45128608,1394,1389,1389,1395
42596288,1000,1000,1000,1000,45228568,1575,1570,1571,1575
42598787,1000,1000,1000,1000,45328528,1723,1718,1719,1723
42601286,1000,1000,1000,1000,45428488,1851,1847,1847,1851
42603785,1000,1000,1000,1000,45528448,1914,1909,1910,1914
42606284,1000,1000,1000,1000,45628408,1825,1824,1824,1825
42608783,1000,1000,1000,1000,45728368,1700,1700,1700,1700
42611282,1000,1000,1000,1000,45828328,1636,1638,1638,1636
42613781,1000,1000,1000,1000,45928288,1627,1628,1629,1627
42616280,1000,1000,1000,1000,46028248,1634,1636,1636,1634
42618779,1000,1000,1000,1000,46128208,1636,1636,1636,1636
42621278,1000,1000,1000,1000,46228168,1629,1629,1628,1629
42623777,1000,1000,1000,1000,46328961,1621,1620,1620,1621
42626276,1000,1000,1000,1000,46428921,1615,1614,1614,1615
42628775,1000,1000,1000,1000,46528881,1612,1611,1611,1611
42631274,1000,1000,1000,1000,46628841,1611,1610,1610,1610
42633773,1000,1000,1000,1000,46728801,1607,1612,1611,1608
42636272,1000,1000,1000,1000,46828761,1578,1579,1579,1578
42638771,1000,1000,1000,1000,46928721,1566,1565,1565,1566
42641270,1000,1000,1000,1000,47028681,1557,1556,1556,1557
42643769,1000,1000,1000,1000,47128641,1549,1549,1548,1549
42646268,1000,1000,1000,1000,47228601,1541,1541,1539,1542
42648767,1000,1000,1000,1000,47328561,1535,1534,1532,1537
42651266,1000,1000,1000,1000,47428521,1529,1529,1527,1532
42653765,1000,1000,1000,1000,47528481,1525,1525,1522,1527
42656264,1000,1000,1000,1000,47628441,1524,1524,1522,1526
42658763,1000,1000,1000,1000,47728401,1527,1527,1527,1526
42661262,1000,1000,1000,1000,47828361,1529,1530,1531,1528
42663761,1000,1000,1000,1000,47928321,1533,1533,1535,1531
42666260,1000,1000,1000,1000,48028281,1537,1537,1539,1535
42668759,1000,1000,1000,1000,48128241,1540,1540,1541,1539
42671258,1000,1000,1000,1000,48228201,1543,1543,1548,1538
42673757,1000,1000,1000,1000,48328161,1547,1546,1551,1541
42676256,1000,1000,1000,1000,48428954,1549,1548,1549,1549
42678755,1000,1000,1000,1000,48528914,1552,1551,1547,1555
42681254,1000,1000,1000,1000,48628874,1552,1552,1546,1557
42683753,1000,1000,1000,1000,48728834,1552,1552,1547,1557
42686252,1000,1000,1000,1000,48828794,1555,1555,1552,1557
42688751,1000,1000,1000,1000,48928754,1557,1557,1557,1556
42691250,1000,1000,1000,1000,49028714,1558,1559,1561,1556
42693749,1000,1000,1000,1000,49128674,1562,1561,1565,1558
42696248,1000,1000,1000,1000,49228634,1564,1564,1566,1561
42698747,1000,1000,1000,1000,49328594,1565,1565,1567,1564
42701246,1000,1000,1000,1000,49428554,1565,1565,1565,1565
42703745,1000,1000,1000,1000,49528514,1559,1559,1569,1572
42706244,1000,1000,1000,1000,49628474,1558,1559,1569,1573
42708743,1000,1000,1000,1000,49728434,1559,1560,1567,1570
42711242,1000,1000,1000,1000,49828394,1563,1564,1567,1569
42713741,1000,1000,1000,1000,49928354,1566,1566,1565,1566
42716240,1000,1000,1000,1000,50028314,1569,1569,1566,1565
42718739,1000,1000,1000,1000,50128274,1571,1571,1565,1564
42721238,1000,1000,1000,1000,50228234,1573,1572,1566,1564
42723737,1000,1000,1000,1000,50328194,1573,1572,1565,1565
42726236,1000,1000,1000,1000,50428154,1574,1573,1566,1566
42728735,1000,1000,1000,1000,50528947,1573,1573,1567,1568
42731234,1000,1000,1000,1000,50628907,1573,1574,1569,1570
42733733,1000,1000,1000,1000,50728867,1573,1573,1571,1572
42736232,1000,1000,1000,1000,50828827,1572,1573,1572,1572
42738731,1000,1000,1000,1000,50928787,1572,1573,1574,1573
42741230,1000,1000,1000,1000,51028747,1573,1574,1576,1575
42743729,1000,1000,1000,1000,51128707,1574,1573,1577,1576
42746228,1000,1000,1000,1000,51228667,1574,1574,1577,1576
42748727,1000,1000,1000,1000,51328627,1574,1574,1577,1577
42751226,1000,1000,1000,1000,51428587,1575,1576,1578,1578
42753725,1000,1000,1000,1000,51528547,1575,1575,1577,1577
42756224,1000,1000,1000,1000,51628507,1576,1576,1576,1577
42758723,1000,1000,1000,1000,51728467,1576,1577,1577,1577
42761222,1000,1000,1000,1000,51828427,1577,1577,1577,1576
42763721,1000,1000,1000,1000,51928387,1578,1577,1577,1576
42766220,1000,1000,1000,1000,52028347,1578,1578,1576,1576
42768719,1000,1000,1000,1000,52128307,1578,1578,1577,1577
42771218,1000,1000,1000,1000,52228267,1578,1578,1577,1576
42773717,1000,1000,1000,1000,52328227,1579,1579,1578,1578
42776216,1000,1000,1000,1000,52428187,1578,1579,1578,1578
42778715,1000,1000,1000,1000,52528980,1579,1579,1579,1579
42781214,1000,1000,1000,1000,52628940,1578,1579,1578,1578
42783713,1000,1000,1000,1000,52728900,1579,1579,1579,1579
42786212,1000,1000,1000,1000,52828860,1578,1577,1578,1577
42788711,1000,1000,1000,1000,52928820,1579,1579,1579,1579
42791210,1000,1000,1000,1000,53028780,1578,1578,1579,1579
42793709,1000,1000,1000,1000,53128740,1579,1579,1579,1579
42796208,1000,1000,1000,1000,53228700,1579,1579,1580,1580
42798707,1000,1000,1000,1000,53328660,1579,1579,1580,1580
42801206,1000,1000,1000,1000,53428620,1580,1579,1580,1580
42803705,1000,1000,1000,1000,53528580,1579,1579,1579,1579
42806204,1000,1000,1000,1000,53628540,1579,1580,1580,1580
42808703,1000,1000,1000,1000,53728500,1579,1579,1579,1579
42811202,1000,1000,1000,1000,53828460,1580,1580,1580,1580
42813701,1000,1000,1000,1000,53928420,1580,1580,1580,1580
42816200,1000,1000,1000,1000,54028380,1581,1581,1580,1580
42818699,1000,1000,1000,1000,54128340,1580,1580,1580,1580
42821198,1000,1000,1000,1000,54228300,1580,1580,1580,1579
42823697,1000,1000,1000,1000,54328260,1581,1580,1580,1581
42826196,1000,1000,1000,1000,54428220,1580,1580,1580,1580
42828695,1000,1000,1000,1000,54528180,1580,1580,1580,1580
42831194,1000,1000,1000,1000,54628973,1581,1581,1581,1581
42833693,1000,1000,1000,1000,54728933,1581,1581,1581,1581
42836192,1000,1000,1000,1000,54828893,1581,1581,1582,1581
42838691,1000,1000,1000,1000,54928853,1580,1580,1581,1581
42841190,1000,1000,1000,1000,55028813,1580,1581,1580,1581
42843689,1000,1000,1000,1000,55128773,1580,1580,1580,1581
42846188,1000,1000,1000,1000,55228733,1580,1580,1580,1580
42848687,1000,1000,1000,1000,55328693,1581,1581,1581,1581
42851186,1000,1000,1000,1000,55428653,1581,1581,1581,1580
42853685,1000,1000,1000,1000,55528613,1580,1580,1580,1580
42856184,1000,1000,1000,1000,55628573,1581,1581,1581,1581
42858683,1000,1000,1000,1000,55728533,1581,1581,1581,1580
42861182,1000,1000,1000,1000,55828493,1581,1582,1588,1573
42863681,1000,1000,1000,1000,55928453,1580,1582,1584,1573
42866180,1000,1000,1000,1000,56028413,1578,1581,1576,1573
42868679,1000,1000,1000,1000,56128373,1577,1579,1567,1571
42871178,1000,1000,1000,1000,56228333,1576,1579,1560,1567
42873677,1000,1000,1000,1000,56328293,1577,1577,1556,1562
42876176,1000,1000,1000,1000,56428253,1578,1577,1555,1558
42878675,1000,1000,1000,1000,56528213,1580,1578,1556,1556
42881174,1000,1000,1000,1000,56628173,1580,1578,1557,1555
42883673,1000,1000,1000,1000,56728966,1579,1578,1557,1555
42886172,1000,1000,1000,1000,56828926,1577,1578,1557,1555
42888671,1000,1000,1000,1000,56928886,1576,1577,1556,1555
42891170,1000,1000,1000,1000,57028846,1576,1577,1556,1555
42893669,1000,1000,1000,1000,57128806,1575,1577,1554,1555
42896168,1000,1000,1000,1000,57228766,1575,1577,1552,1552
42898667,1000,1000,1000,1000,57328726,1576,1577,1549,1550
42901166,1000,1000,1000,1000,57428686,1578,1579,1547,1547
42903665,1000,1000,1000,1000,57528646,1580,1582,1545,1545
42906164,1000,1000,1000,1000,57628606,1583,1583,1542,1541
42908663,1000,1000,1000,1000,57728566,1586,1587,1540,1540
42911162,1000,1000,1000,1000,57828526,1590,1590,1537,1537
42913661,1000,1000,1000,1000,57928486,1593,1593,1536,1536
42916160,1000,1000,1000,1000,58028446,1594,1594,1534,1535
42918659,1000,1000,1000,1000,58128406,1594,1594,1534,1535
42921158,1000,1000,1000,1000,58228366,1593,1593,1536,1537
42923657,1000,1000,1000,1000,58328326,1592,1591,1539,1542
42926156,1000,1000,1000,1000,58428286,1588,1587,1544,1547
42928655,1000,1000,1000,1000,58528246,1583,1580,1552,1555
42931154,1000,1000,1000,1000,58628206,1575,1572,1562,1564
42933653,1000,1000,1000,1000,58728166,1565,1561,1573,1575
42936152,1000,1000,1000,1000,58828959,1554,1551,1586,1587
42938651,1000,1000,1000,1000,58928919,1543,1541,1597,1597
42941150,1000,1000,1000,1000,59028879,1535,1534,1606,1606
42943649,1000,1000,1000,1000,59128839,1530,1531,1613,1612
42946148,1000,1000,1000,1000,59228799,1529,1530,1615,1614
42948647,1000,1000,1000,1000,59328759,1531,1533,1614,1613
42951146,1000,1000,1000,1000,59428719,1538,1540,1611,1610
42953645,1000,1000,1000,1000,59528679,1546,1547,1605,1605
42956144,1000,1000,1000,1000,59628639,1554,1554,1597,1597
42958643,1000,1000,1000,1000,59728599,1562,1562,1589,1589
42961142,1000,1000,1000,1000,59828559,1571,1570,1582,1582
42963641,1000,1000,1000,1000,59928519,1577,1576,1576,1575
42966140,1000,1000,1000,1000,60028479,1583,1582,1572,1571
42968639,1000,1000,1000,1000,60128439,1586,1585,1569,1568
42971138,1000,1000,1000,1000,60228399,1588,1587,1567,1567
42973637,1000,1000,1000,1000,60328359,1587,1586,1566,1567
42976136,1000,1000,1000,1000,60428319,1586,1585,1568,1568
42978635,1000,1000,1000,1000,60528279,1585,1584,1571,1571
42981134,1000,1000,1000,1000,60628239,1581,1580,1573,1573
42983633,1000,1000,1000,1000,60728199,1578,1579,1577,1576
42986132,1000,1000,1000,1000,60828159,1576,1576,1579,1579
42988631,1000,1000,1000,1000,60928952,1574,1574,1581,1581
42991130,1000,1000,1000,1000,61028912,1573,1573,1583,1583
42993629,1000,1000,1000,1000,61128872,1572,1573,1583,1583
42996128,1000,1000,1000,1000,61228832,1573,1573,1584,1584
42998627,1000,1000,1000,1000,61328792,1573,1574,1583,1583
43001126,1000,1000,1000,1000,61428752,1457,1457,1462,1467
43003625,1000,1000,1000,1000,61528712,1521,1521,1523,1529
43006124,1000,1000,1000,1000,61628672,1551,1551,1554,1553
43008623,1000,1000,1000,1000,61728632,1574,1574,1578,1572
43011122,1000,1000,1000,1000,61828592,1591,1592,1594,1587
43013621,1000,1000,1000,1000,61928552,1602,1602,1602,1597
43016120,1000,1000,1000,1000,62028512,1609,1608,1606,1604
43018619,1000,1000,1000,1000,62128472,1609,1609,1605,1606
43021118,1000,1000,1000,1000,62228432,1609,1609,1604,1607
43023617,1000,1000,1000,1000,62328392,1608,1607,1602,1606
43026116,1000,1000,1000,1000,62428352,1605,1605,1600,1603
43028615,1000,1000,1000,1000,62528312,1602,1602,1598,1600
43031114,1000,1000,1000,1000,62628272,1598,1598,1597,1597
43033613,1000,1000,1000,1000,62728232,1596,1596,1596,1595
43036112,1000,1000,1000,1000,62828192,1591,1592,1592,1591
43038611,1000,1000,1000,1000,62928985,1589,1589,1590,1589
43041110,1000,1000,1000,1000,63028945,1585,1585,1587,1586
43043609,1000,1000,1000,1000,63128905,1582,1583,1584,1584
43046108,1000,1000,1000,1000,63228865,1581,1581,1582,1583
43048607,1000,1000,1000,1000,63328825,1580,1580,1581,1582
43051106,1000,1000,1000,1000,63428785,1578,1579,1580,1580
43053605,1000,1000,1000,1000,63528745,1578,1578,1579,1579
43056104,1000,1000,1000,1000,63628705,1578,1577,1578,1578
43058603,1000,1000,1000,1000,63728665,1577,1577,1578,1577
43061102,1000,1000,1000,1000,63828625,1578,1579,1582,1573
43063601,1000,1000,1000,1000,63928585,1577,1581,1583,1569
43066100,1000,1000,1000,1000,64028545,1577,1580,1576,1568
43068599,1000,1000,1000,1000,64128505,1575,1579,1567,1567
43071098,1000,1000,1000,1000,64228465,1575,1578,1559,1564
43073597,1000,1000,1000,1000,64328425,1576,1577,1553,1561
43076096,1000,1000,1000,1000,64428385,1577,1576,1550,1556
43078595,1000,1000,1000,1000,64528345,1579,1577,1550,1553
43081094,1000,1000,1000,1000,64628305,1580,1578,1551,1551
43083593,1000,1000,1000,1000,64728265,1579,1579,1552,1550
43086092,1000,1000,1000,1000,64828225,1578,1578,1552,1549
43088591,1000,1000,1000,1000,64928185,1577,1578,1553,1550
43091090,1000,1000,1000,1000,65028978,1577,1579,1553,1552
43093589,1000,1000,1000,1000,65128938,1577,1578,1551,1551
43096088,1000,1000,1000,1000,65228898,1576,1578,1550,1551
43098587,1000,1000,1000,1000,65328858,1577,1578,1549,1550
43101086,1000,1000,1000,1000,65428818,1578,1580,1549,1549
43103585,1000,1000,1000,1000,65528778,1580,1581,1547,1547
43106084,1000,1000,1000,1000,65628738,1582,1583,1546,1546
43108583,1000,1000,1000,1000,65728698,1584,1584,1543,1544
43111082,1000,1000,1000,1000,65828658,1586,1587,1542,1543
43113581,1000,1000,1000,1000,65928618,1589,1590,1541,1542
43116080,1000,1000,1000,1000,66028578,1592,1592,1541,1542
43118579,1000,1000,1000,1000,66128538,1592,1592,1540,1541
43121078,1000,1000,1000,1000,66228498,1593,1592,1542,1544
43123577,1000,1000,1000,1000,66328458,1591,1589,1546,1548
43126076,1000,1000,1000,1000,66428418,1588,1584,1552,1555
43128575,1000,1000,1000,1000,66528378,1580,1576,1559,1562
43131074,1000,1000,1000,1000,66628338,1572,1568,1569,1572
43133573,1000,1000,1000,1000,66728298,1562,1558,1579,1581
43136072,1000,1000,1000,1000,66828258,1553,1551,1590,1591
43138571,1000,1000,1000,1000,66928218,1545,1544,1599,1599
43141070,1000,1000,1000,1000,67028178,1539,1540,1607,1605
43143569,1000,1000,1000,1000,67128971,1535,1537,1610,1608
43146068,1000,1000,1000,1000,67228931,1536,1539,1612,1611
43148567,1000,1000,1000,1000,67328891,1539,1542,1611,1610
43151066,1000,1000,1000,1000,67428851,1543,1545,1606,1606
43153565,1000,1000,1000,1000,67528811,1550,1550,1602,1602
43156064,1000,1000,1000,1000,67628771,1556,1557,1597,1596
43158563,1000,1000,1000,1000,67728731,1563,1564,1590,1590
43161062,1000,1000,1000,1000,67828691,1570,1570,1584,1583
43163561,1000,1000,1000,1000,67928651,1576,1575,1577,1576
43166060,1000,1000,1000,1000,68028611,1582,1580,1572,1573
43168559,1000,1000,1000,1000,68128571,1585,1583,1568,1568
43171058,1000,1000,1000,1000,68228531,1589,1587,1568,1568
43173557,1000,1000,1000,1000,68328491,1589,1587,1566,1566
43176056,1000,1000,1000,1000,68428451,1588,1587,1567,1567
43178555,1000,1000,1000,1000,68528411,1586,1587,1569,1569
43181054,1000,1000,1000,1000,68628371,1585,1585,1571,1572
43183553,1000,1000,1000,1000,68728331,1582,1582,1574,1574
43186052,1000,1000,1000,1000,68828291,1580,1580,1577,1577
43188551,1000,1000,1000,1000,68928251,1577,1577,1579,1579
43191050,1000,1000,1000,1000,69028211,1575,1576,1582,1581
43193549,1000,1000,1000,1000,69128171,1574,1574,1583,1583
43196048,1000,1000,1000,1000,69228964,1572,1573,1584,1584
43198547,1000,1000,1000,1000,69328924,1572,1573,1584,1584
43201046,1000,1000,1000,1000,69428884,1572,1573,1583,1583
43203545,1000,1000,1000,1000,69528844,1573,1574,1583,1583
43206044,1000,1000,1000,1000,69628804,1574,1574,1582,1583
43208543,1000,1000,1000,1000,69728764,1576,1576,1582,1582
43211042,1000,1000,1000,1000,69828724,1577,1577,1580,1580
43213541,1000,1000,1000,1000,69928684,1578,1578,1579,1579
43216040,1000,1000,1000,1000,70028644,1581,1581,1580,1580
43218539,1000,1000,1000,1000,70128604,1582,1582,1579,1578
43221038,1000,1000,1000,1000,70228564,1583,1582,1578,1578
43223537,1000,1000,1000,1000,70328524,1583,1582,1578,1578
43226036,1000,1000,1000,1000,70428484,1582,1582,1577,1578
43228535,1000,1000,1000,1000,70528444,1582,1582,1577,1578
43231034,1000,1000,1000,1000,70628404,1581,1582,1578,1578
43233533,1000,1000,1000,1000,70728364,1582,1582,1579,1579
43236032,1000,1000,1000,1000,70828324,1581,1581,1580,1580
43238531,1000,1000,1000,1000,70928284,1582,1582,1581,1581
43241030,1000,1000,1000,1000,71028244,1581,1581,1582,1581
43243529,1000,1000,1000,1000,71128204,1581,1581,1582,1582
43246028,1000,1000,1000,1000,71228164,1580,1580,1582,1582
43248527,1000,1000,1000,1000,71328957,1581,1581,1583,1584
43251026,1000,1000,1000,1000,71428917,1580,1580,1582,1582
43253525,1000,1000,1000,1000,71528877,1581,1581,1582,1583
43256024,1000,1000,1000,1000,71628837,1581,1582,1583,1583
43258523,1000,1000,1000,1000,71728797,1582,1582,1583,1583
43261022,1000,1000,1000,1000,71828757,1582,1581,1582,1582
43263521,1000,1000,1000,1000,71928717,1582,1582,1582,1582
43266020,1000,1000,1000,1000,72028677,1581,1583,1588,1574
43268519,1000,1000,1000,1000,72128637,1581,1583,1585,1573
43271018,1000,1000,1000,1000,72228597,1579,1582,1576,1572
43273517,1000,1000,1000,1000,72328557,1578,1581,1568,1571
43276016,1000,1000,1000,1000,72428517,1576,1578,1560,1567
43278515,1000,1000,1000,1000,72528477,1577,1578,1555,1562
43281014,1000,1000,1000,1000,72628437,1579,1578,1554,1559
43283513,1000,1000,1000,1000,72728397,1580,1578,1554,1556
43286012,1000,1000,1000,1000,72828357,1580,1578,1554,1553
43288511,1000,1000,1000,1000,72928317,1579,1578,1555,1552
43291010,1000,1000,1000,1000,73028277,1578,1578,1555,1552
43293509,1000,1000,1000,1000,73128237,1577,1578,1555,1553
43296008,1000,1000,1000,1000,73228197,1576,1577,1553,1552
43298507,1000,1000,1000,1000,73328157,1575,1576,1552,1552
43301006,1000,1000,1000,1000,73428950,1575,1577,1550,1551
43303505,1000,1000,1000,1000,73528910,1576,1577,1549,1550
43306004,1000,1000,1000,1000,73628870,1577,1579,1548,1549
43308503,1000,1000,1000,1000,73728830,1580,1581,1547,1547
43311002,1000,1000,1000,1000,73828790,1583,1583,1545,1545
43313501,1000,1000,1000,1000,73928750,1585,1586,1543,1543
43316000,1000,1000,1000,1000,74028710,1588,1589,1542,1542
43318499,1000,1000,1000,1000,74128670,1590,1590,1540,1540
43320998,1000,1000,1000,1000,74228630,1593,1593,1540,1540
43323497,1000,1000,1000,1000,74328590,1593,1594,1537,1540
43325996,1000,1000,1000,1000,74428550,1593,1593,1538,1540
43328495,1000,1000,1000,1000,74528510,1592,1591,1540,1543
43330994,1000,1000,1000,1000,74628470,1589,1588,1545,1548
43333493,1000,1000,1000,1000,74728430,1585,1581,1552,1555
43335992,1000,1000,1000,1000,74828390,1578,1574,1562,1565
43338491,1000,1000,1000,1000,74928350,1569,1564,1573,1575
43340990,1000,1000,1000,1000,75028310,1558,1555,1584,1585
43343489,1000,1000,1000,1000,75128270,1548,1546,1595,1595
43345988,1000,1000,1000,1000,75228230,1540,1540,1604,1603
43348487,1000,1000,1000,1000,75328190,1534,1535,1610,1609
43350986,1000,1000,1000,1000,75428983,1532,1534,1613,1611
43353485,1000,1000,1000,1000,75528943,1533,1535,1613,1611
43355984,1000,1000,1000,1000,75628903,1537,1540,1610,1610
43358483,1000,1000,1000,1000,75728863,1542,1544,1606,1606
43360982,1000,1000,1000,1000,75828823,1549,1551,1601,1601
43363481,1000,1000,1000,1000,75928783,1557,1558,1595,1595
43365980,1000,1000,1000,1000,76028743,1565,1565,1589,1588
43368479,1000,1000,1000,1000,76128703,1573,1572,1582,1582
43370978,1000,1000,1000,1000,76228663,1579,1578,1576,1576
43373477,1000,1000,1000,1000,76328623,1584,1582,1570,1570
43375976,1000,1000,1000,1000,76428583,1587,1585,1567,1567
43378475,1000,1000,1000,1000,76528543,1588,1587,1564,1565
43380974,1000,1000,1000,1000,76628503,1589,1588,1565,1566
43383473,1000,1000,1000,1000,76728463,1588,1587,1566,1566
43385972,1000,1000,1000,1000,76828423,1587,1586,1569,1568
43388471,1000,1000,1000,1000,76928383,1584,1584,1571,1571
43390970,1000,1000,1000,1000,77028343,1581,1582,1574,1574
43393469,1000,1000,1000,1000,77128303,1578,1578,1576,1576
43395968,1000,1000,1000,1000,77228263,1577,1578,1580,1580
43398467,1000,1000,1000,1000,77328223,1574,1574,1581,1581
43400966,1000,1000,1000,1000,77428183,1573,1573,1583,1584
43403465,1000,1000,1000,1000,77528976,1573,1573,1585,1585
43405964,1000,1000,1000,1000,77628936,1572,1573,1585,1585
43408463,1000,1000,1000,1000,77728896,1573,1574,1585,1585
43410962,1000,1000,1000,1000,77828856,1574,1575,1585,1585
43413461,1000,1000,1000,1000,77928816,1575,1576,1583,1583
43415960,1000,1000,1000,1000,78028776,1576,1576,1581,1582
43418459,1000,1000,1000,1000,78128736,1578,1578,1581,1581
43420958,1000,1000,1000,1000,78228696,1580,1580,1579,1580
43423457,1000,1000,1000,1000,78328656,1580,1580,1578,1578
43425956,1000,1000,1000,1000,78428616,1582,1581,1578,1577
43428455,1000,1000,1000,1000,78528576,1582,1581,1577,1577
43430954,1000,1000,1000,1000,78628536,1583,1583,1577,1577
43433453,1000,1000,1000,1000,78728496,1583,1582,1577,1577
43435952,1000,1000,1000,1000,78828456,1583,1583,1578,1578
43438451,1000,1000,1000,1000,78928416,1581,1581,1577,1578
43440950,1000,1000,1000,1000,79028376,1581,1580,1578,1578
43443449,1000,1000,1000,1000,79128336,1580,1581,1579,1579
43445948,1000,1000,1000,1000,79228296,1580,1580,1580,1580
43448447,1000,1000,1000,1000,79328256,1580,1580,1581,1581
43450946,1000,1000,1000,1000,79428216,1580,1580,1581,1581
43453445,1000,1000,1000,1000,79528176,1580,1580,1582,1581
43455944,1000,1000,1000,1000,79628969,1579,1579,1581,1581
43458443,1000,1000,1000,1000,79728929,1579,1579,1581,1581
43460942,1000,1000,1000,1000,79828889,1580,1579,1581,1582
43463441,1000,1000,1000,1000,79928849,1579,1579,1584,1575
43465940,1000,1000,1000,1000,80028809,1579,1580,1586,1573
43468439,1000,1000,1000,1000,80128769,1578,1578,1581,1574
43470938,1000,1000,1000,1000,80228729,1574,1574,1574,1574
43473437,1000,1000,1000,1000,80328689,1573,1572,1568,1574
43475936,1000,1000,1000,1000,80428649,1570,1569,1565,1572
43478435,1000,1000,1000,1000,80528609,1568,1567,1563,1569
43480934,1000,1000,1000,1000,80628569,1567,1567,1565,1568
43483433,1000,1000,1000,1000,80728529,1566,1566,1565,1566
43485932,1000,1000,1000,1000,80828489,1566,1566,1566,1564
43488431,1000,1000,1000,1000,80928449,1566,1566,1567,1564
43490930,1000,1000,1000,1000,81028409,1566,1565,1567,1564
43493429,1000,1000,1000,1000,81128369,1565,1565,1566,1564
43495928,1000,1000,1000,1000,81228329,1563,1564,1564,1563
43498427,1000,1000,1000,1000,81328289,1563,1563,1563,1563
43500926,1000,1000,1000,1000,81428249,1562,1562,1562,1563
43503425,1000,1000,1000,1000,81528209,1562,1562,1562,1563
43505924,1000,1000,1000,1000,81628169,1561,1561,1562,1562
43508423,1000,1000,1000,1000,81728962,1560,1560,1561,1561
43510922,1000,1000,1000,1000,81828922,1560,1560,1561,1560
43513421,1000,1000,1000,1000,81928882,1560,1560,1560,1560
43515920,1000,1000,1000,1000,82028842,1559,1559,1560,1559
43518419,1000,1000,1000,1000,82128802,1559,1559,1559,1558
43520918,1000,1000,1000,1000,82228762,1559,1559,1560,1558
43523417,1000,1000,1000,1000,82328722,1559,1558,1559,1558
43525916,1000,1000,1000,1000,82428682,1559,1559,1560,1559
43528415,1000,1000,1000,1000,82528642,1559,1559,1561,1558
43530914,1000,1000,1000,1000,82628602,1559,1559,1561,1558
43533413,1000,1000,1000,1000,82728562,1559,1559,1560,1559
43535912,1000,1000,1000,1000,82828522,1559,1559,1558,1561
43538411,1000,1000,1000,1000,82928482,1558,1558,1556,1560
43540910,1000,1000,1000,1000,83028442,1559,1559,1556,1561
43543409,1000,1000,1000,1000,83128402,1558,1558,1555,1561
43545908,1000,1000,1000,1000,83228362,1554,1555,1552,1557
43548407,1000,1000,1000,1000,83328322,1550,1550,1549,1551
43550906,1000,1000,1000,1000,83428282,1545,1544,1544,1544
43553405,1000,1000,1000,1000,83528242,1538,1538,1539,1537
43555904,1000,1000,1000,1000,83628202,1531,1531,1531,1530
43558403,1000,1000,1000,1000,83728162,1524,1524,1525,1524
43560902,1000,1000,1000,1000,83828955,1520,1520,1520,1520
43563401,1000,1000,1000,1000,83928915,1520,1520,1519,1520
43565900,1000,1000,1000,1000,84028875,1520,1521,1520,1521
43568399,1000,1000,1000,1000,84128835,1522,1522,1522,1523
43570898,1000,1000,1000,1000,84228795,1526,1526,1526,1527
43573397,1000,1000,1000,1000,84328755,1531,1531,1531,1531
43575896,1000,1000,1000,1000,84428715,1535,1535,1535,1536
43578395,1000,1000,1000,1000,84528675,1539,1539,1540,1539
43580894,1000,1000,1000,1000,84628635,1542,1542,1542,1542
43583393,1000,1000,1000,1000,84728595,1543,1544,1544,1543
43585892,1000,1000,1000,1000,84828555,1545,1546,1546,1546
43588391,1000,1000,1000,1000,84928515,1547,1547,1547,1547
43590890,1000,1000,1000,1000,85028475,1547,1548,1547,1547
43593389,1000,1000,1000,1000,85128435,1546,1546,1546,1546
43595888,1000,1000,1000,1000,85228395,1547,1547,1547,1546
43598387,1000,1000,1000,1000,85328355,1547,1547,1548,1547
43600886,1000,1000,1000,1000,85428315,1547,1547,1547,1547
43603385,1000,1000,1000,1000,85528275,1547,1547,1547,1546
43605884,1000,1000,1000,1000,85628235,1546,1546,1546,1546
43608383,1000,1000,1000,1000,85728195,1546,1546,1546,1546
43610882,1000,1000,1000,1000,85828155,1545,1545,1545,1545
43613381,1000,1000,1000,1000,85928948,1544,1545,1545,1544
43615880,1000,1000,1000,1000,86028908,1544,1544,1544,1545
43618379,1000,1000,1000,1000,86128868,1544,1544,1544,1545
43620878,1000,1000,1000,1000,86228828,1544,1544,1544,1544
43623377,1000,1000,1000,1000,86328788,1544,1544,1545,1544
43625876,1000,1000,1000,1000,86428748,1544,1544,1544,1544
43628375,1000,1000,1000,1000,86528708,1544,1544,1544,1544
43630874,1000,1000,1000,1000,86628668,1544,1544,1544,1544
43633373,1000,1000,1000,1000,86728628,1543,1543,1543,1543
43635872,1000,1000,1000,1000,86828588,1544,1544,1544,1544
43638371,1000,1000,1000,1000,86928548,1544,1544,1544,1544
43640870,1000,1000,1000,1000,87028508,1544,1544,1544,1544
43643369,1000,1000,1000,1000,87128468,1543,1543,1543,1543
43645868,1000,1000,1000,1000,87228428,1544,1544,1544,1544
43648367,1000,1000,1000,1000,87328388,1543,1543,1543,1543
43650866,1000,1000,1000,1000,87428348,1543,1544,1544,1543
43653365,1000,1000,1000,1000,87528308,1544,1544,1544,1544
43655864,1000,1000,1000,1000,87628268,1545,1545,1545,1544
43658363,1000,1000,1000,1000,87728228,1544,1544,1544,1544
43660862,1000,1000,1000,1000,87828188,1544,1544,1544,1544
43663361,1000,1000,1000,1000,87928981,1544,1543,1544,1544
43665860,1000,1000,1000,1000,88028941,1544,1544,1544,1544
43668359,1000,1000,1000,1000,88128901,1544,1544,1544,1544
43670858,1000,1000,1000,1000,88228861,1544,1545,1544,1544
43673357,1000,1000,1000,1000,88328821,1544,1544,1544,1544
43675856,1000,1000,1000,1000,88428781,1544,1545,1545,1544
43678355,1000,1000,1000,1000,88528741,1544,1544,1544,1544
43680854,1000,1000,1000,1000,88628701,1545,1545,1545,1544
43683353,1000,1000,1000,1000,88728661,1545,1544,1545,1545
43685852,1000,1000,1000,1000,88828621,1544,1544,1544,1544
43688351,1000,1000,1000,1000,88928581,1545,1545,1545,1545
43690850,1000,1000,1000,1000,89028541,1544,1545,1545,1545
43693349,1000,1000,1000,1000,89128501,1545,1545,1545,1545
43695848,1000,1000,1000,1000,89228461,1545,1545,1545,1545
43698347,1000,1000,1000,1000,89328421,1545,1545,1545,1545
43700846,1000,1000,1000,1000,89428381,1544,1544,1544,1544
43703345,1000,1000,1000,1000,89528341,1545,1544,1544,1545
43705844,1000,1000,1000,1000,89628301,1544,1544,1544,1544
43708343,1000,1000,1000,1000,89728261,1545,1545,1545,1545
43710842,1000,1000,1000,1000,89828221,1544,1545,1544,1544
43713341,1000,1000,1000,1000,89928181,1545,1545,1544,1545
43715840,1000,1000,1000,1000,90028974,1544,1544,1544,1544
43718339,1000,1000,1000,1000,90128934,1545,1545,1545,1545
43720838,1000,1000,1000,1000,90228894,1544,1545,1544,1544
43723337,1000,1000,1000,1000,90328854,1544,1544,1544,1544
43725836,1000,1000,1000,1000,90428814,1544,1543,1544,1543
43728335,1000,1000,1000,1000,90528774,1544,1544,1544,1545
43730834,1000,1000,1000,1000,90628734,1544,1544,1544,1544
43733333,1000,1000,1000,1000,90728694,1544,1544,1544,1544
43735832,1000,1000,1000,1000,90828654,1544,1544,1544,1544
43738331,1000,1000,1000,1000,90928614,1544,1544,1544,1544
43740830,1000,1000,1000,1000,91028574,1543,1543,1544,1543
43743329,1000,1000,1000,1000,91128534,1544,1543,1543,1544
43745828,1000,1000,1000,1000,91228494,1543,1543,1543,1543
43748327,1000,1000,1000,1000,91328454,1544,1543,1544,1544
43750826,1000,1000,1000,1000,91428414,1544,1544,1544,1544
43753325,1000,1000,1000,1000,91528374,1544,1545,1545,1544
43755824,1000,1000,1000,1000,91628334,1545,1545,1545,1545
43758323,1000,1000,1000,1000,91728294,1544,1544,1544,1545
43760822,1000,1000,1000,1000,91828254,1544,1545,1544,1544
43763321,1000,1000,1000,1000,91928214,1544,1544,1544,1544
43765820,1000,1000,1000,1000,92028174,1545,1544,1545,1544
43768319,1000,1000,1000,1000,92128967,1544,1544,1544,1544
43770818,1000,1000,1000,1000,92228927,1544,1544,1545,1544
43773317,1000,1000,1000,1000,92328887,1544,1544,1545,1544
43775816,1000,1000,1000,1000,92428847,1543,1544,1544,1544
43778315,1000,1000,1000,1000,92528807,1546,1546,1545,1546
43780814,1000,1000,1000,1000,92628767,1545,1545,1545,1545
43783313,1000,1000,1000,1000,92728727,1545,1544,1544,1545
43785812,1000,1000,1000,1000,92828687,1544,1544,1544,1544
43788311,1000,1000,1000,1000,92928647,1544,1544,1544,1544
43790810,1000,1000,1000,1000,93028607,1544,1544,1544,1544
43793309,1000,1000,1000,1000,93128567,1545,1544,1544,1544
43795808,1000,1000,1000,1000,93228527,1545,1545,1545,1545
43798307,1000,1000,1000,1000,93328487,1544,1544,1544,1544
43800806,1000,1000,1000,1000,93428447,1545,1544,1544,1545
43803305,1000,1000,1000,1000,93528407,1408,1406,1407,1407
43805804,1000,1000,1000,1000,93628367,1325,1322,1324,1323
43808303,1000,1000,1000,1000,93728327,1300,1297,1298,1298
43810802,1000,1000,1000,1000,93828287,1288,1285,1287,1286
43813301,1000,1000,1000,1000,93928247,1260,1258,1259,1259
43815800,1000,1000,1000,1000,94028207,1213,1211,1212,1212
43818299,1000,1000,1000,1000,94128167,1151,1147,1149,1149
43820798,1000,1000,1000,1000,94228960,1076,1072,1074,1073
43823297,1000,1000,1000,1000,94328920,994,988,991,990
43825796,1000,1000,1000,1000,94428880,993,988,991,989
43828295,1000,1000,1000,1000,94528840,994,988,991,991
43830794,1000,1000,1000,1000,94628800,1020,988,990,1019
43833293,1000,1000,1000,1000,94728760,1012,988,991,1010
43835792,1000,1000,1000,1000,94828720,1010,988,991,1008
43838291,1000,1000,1000,1000,94928680,1012,988,991,1009
43840790,1000,1000,1000,1000,95028640,1013,988,991,1010
43843289,1000,1000,1000,1000,95128600,1015,988,991,1012
43845788,1000,1000,1000,1000,95228560,1016,988,991,1014
43848287,1000,1000,1000,1000,95328520,1018,988,991,1015
43850786,1000,1000,1000,1000,95428480,1005,988,990,1002
43853285,1000,1000,1000,1000,95528440,1006,988,990,1003
43855784,1000,1000,1000,1000,95628400,1007,988,990,1004
43858283,1000,1000,1000,1000,95728360,1007,988,991,1005
43860782,1000,1000,1000,1000,95828320,1004,988,990,1002
43863281,1000,1000,1000,1000,95928280,1000,1000,1000,1000
43865780,1000,1000,1000,1000,96028240,1000,1000,1000,1000
43868279,1000,1000,1000,1000,96128200,1000,1000,1000,1000
43870778,1000,1000,1000,1000,96228160,1000,1000,1000,1000
43873277,1000,1000,1000,1000,96328953,1000,1000,1000,1000
43875776,1000,1000,1000,1000,96428913,1000,1000,1000,1000
43878275,1000,1000,1000,1000,96528873,1000,1000,1000,1000
43880774,1000,1000,1000,1000,96628833,1000,1000,1000,1000
43883273,1000,1000,1000,1000,96728793,1000,1000,1000,1000
43885772,1000,1000,1000,1000,96828753,1000,1000,1000,1000
43888271,1000,1000,1000,1000,96928713,1000,1000,1000,1000
43890770,1000,1000,1000,1000,97028673,1000,1000,1000,1000
43893269,1000,1000,1000,1000,97128633,1000,1000,1000,1000
43895768,1000,1000,1000,1000,97228593,1000,1000,1000,1000
43898267,1000,1000,1000,1000,97328553,1000,1000,1000,1000
43900766,1000,1000,1000,1000,97428513,1000,1000,1000,1000
43903265,1000,1000,1000,1000,97528473,1000,1000,1000,1000
43905764,1000,1000,1000,1000,97628433,1000,1000,1000,1000
43908263,1000,1000,1000,1000,97728393,1000,1000,1000,1000
43910762,1000,1000,1000,1000,97828353,1000,1000,1000,1000
43913261,1000,1000,1000,1000,97928313,1000,1000,1000,1000
43915760,1000,1000,1000,1000,98028273,1000,1000,1000,1000
43918259,1000,1000,1000,1000,98128233,1000,1000,1000,1000
43920758,1000,1000,1000,1000,98228193,1000,1000,1000,1000
43923257,1000,1000,1000,1000,98328986,1000,1000,1000,1000
43925756,1000,1000,1000,1000,98428946,1000,1000,1000,1000
43928255,1000,1000,1000,1000,98528906,1000,1000,1000,1000
43930754,1000,1000,1000,1000,98628866,1000,1000,1000,1000
43933253,1000,1000,1000,1000,98728826,1000,1000,1000,1000
43935752,1000,1000,1000,1000,98828786,1000,1000,1000,1000
43938251,1000,1000,1000,1000,98928746,1000,1000,1000,1000
43940750,1000,1000,1000,1000,99028706,1000,1000,1000,1000
43943249,1000,1000,1000,1000,99128666,1000,1000,1000,1000
43945748,1000,1000,1000,1000,99228626,1000,1000,1000,1000
43948247,1000,1000,1000,1000,99328586,1000,1000,1000,1000
43950746,1000,1000,1000,1000,99428546,1000,1000,1000,1000
43953245,1000,1000,1000,1000,99528506,1000,1000,1000,1000
43955744,1000,1000,1000,1000,99628466,1000,1000,1000,1000
43958243,1000,1000,1000,1000,99728426,1000,1000,1000,1000
43960742,1000,1000,1000,1000,99828386,1000,1000,1000,1000
43963241,1000,1000,1000,1000,99928346,1000,1000,1000,1000
43965740,1000,1000,1000,1000,100028306,1000,1000,1000,1000
43968239,1000,1000,1000,1000,100128266,1000,1000,1000,1000
43970738,1000,1000,1000,1000,100228226,1000,1000,1000,1000
43973237,1000,1000,1000,1000,100328186,1000,1000,1000,1000
43975736,1000,1000,1000,1000,100428979,1000,1000,1000,1000
43978235,1000,1000,1000,1000,100528939,1000,1000,1000,1000
43980734,1000,1000,1000,1000,100628899,1000,1000,1000,1000
43983233,1000,1000,1000,1000,100728859,1000,1000,1000,1000
43985732,1000,1000,1000,1000,100828819,1000,1000,1000,1000
43988231,1000,1000,1000,1000,100928779,1000,1000,1000,1000
43990730,1000,1000,1000,1000,101028739,1000,1000,1000,1000
43993229,1000,1000,1000,1000,101128699,1000,1000,1000,1000
43995728,1000,1000,1000,1000,101228659,1000,1000,1000,1000
43998227,1000,1000,1000,1000,101328619,1000,1000,1000,1000
44000726,1000,1000,1000,1000,101428579,1000,1000,1000,1000
44003225,1000,1000,1000,1000,101528539,1000,1000,1000,1000
44005724,1000,1000,1000,1000,101628499,1000,1000,1000,1000
44008223,1000,1000,1000,1000,101728459,1000,1000,1000,1000
44010722,1000,1000,1000,1000,101828419,1000,1000,1000,1000
44013221,1000,1000,1000,1000,101928379,1000,1000,1000,1000
44015720,1000,1000,1000,1000,102028339,1000,1000,1000,1000
44018219,1000,1000,1000,1000,102128299,1000,1000,1000,1000
44020718,1000,1000,1000,1000,102228259,1000,1000,1000,1000
44023217,1000,1000,1000,1000,102328219,1000,1000,1000,1000
44025716,1000,1000,1000,1000,102428179,1000,1000,1000,1000
44028215,1000,1000,1000,1000,102528972,1000,1000,1000,1000
44030714,1000,1000,1000,1000,102628932,1000,1000,1000,1000
44033213,1000,1000,1000,1000,102728892,1000,1000,1000,1000
44035712,1000,1000,1000,1000,102828852,1000,1000,1000,1000
44038211,1000,1000,1000,1000,102928812,1000,1000,1000,1000
44040710,1000,1000,1000,1000,103028772,1000,1000,1000,1000
44043209,1000,1000,1000,1000,103128732,1000,1000,1000,1000
44045708,1000,1000,1000,1000,103228692,1000,1000,1000,1000
44048207,1000,1000,1000,1000,103328652,1000,1000,1000,1000
44050706,1000,1000,1000,1000,103428612,1000,1000,1000,1000
44053205,1000,1000,1000,1000,103528572,1000,1000,1000,1000
44055704,1000,1000,1000,1000,103628532,1000,1000,1000,1000
44058203,1000,1000,1000,1000,103728492,1000,1000,1000,1000
44060702,1000,1000,1000,1000,103828452,1000,1000,1000,1000
44063201,1000,1000,1000,1000,103928412,1000,1000,1000,1000
44065700,1000,1000,1000,1000,104028372,1000,1000,1000,1000
44068199,1000,1000,1000,1000,104128332,1000,1000,1000,1000
44070698,1000,1000,1000,1000,104228292,1000,1000,1000,1000
44073197,1000,1000,1000,1000,104328252,1000,1000,1000,1000
44075696,1000,1000,1000,1000,104428212,1000,1000,1000,1000
44078195,1000,1000,1000,1000,104528172,1000,1000,1000,1000
44080694,1000,1000,1000,1000,,,,,
44083193,1000,1000,1000,1000,,,,,
44085692,1000,1000,1000,1000,,,,,
44088191,1000,1000,1000,1000,,,,,
44090690,1000,1000,1000,1000,,,,,
44093189,1000,1000,1000,1000,,,,,
44095688,1000,1000,1000,1000,,,,,
44098187,1000,1000,1000,1000,,,,,
44100686,1000,1000,1000,1000,,,,,
44103185,1000,1000,1000,1000,,,,,
44105684,1000,1000,1000,1000,,,,,
44108183,1000,1000,1000,1000,,,,,
44110682,1000,1000,1000,1000,,,,,
44113181,1000,1000,1000,1000,,,,,
44115680,1000,1000,1000,1000,,,,,
44118179,1000,1000,1000,1000,,,,,
44120678,1000,1000,1000,1000,,,,,
44123177,1000,1000,1000,1000,,,,,
44125676,1000,1000,1000,1000,,,,,
44128175,1000,1000,1000,1000,,,,,
44130674,1000,1000,1000,1000,,,,,
44133173,1000,1000,1000,1000,,,,,
44135672,1000,1000,1000,1000,,,,,
44138171,1000,1000,1000,1000,,,,,
44140670,1000,1000,1000,1000,,,,,
44143169,1000,1000,1000,1000,,,,,
44145668,1000,1000,1000,1000,,,,,
44148167,1000,1000,1000,1000,,,,,
44150666,1000,1000,1000,1000,,,,,
44153165,1000,1000,1000,1000,,,,,
44155664,1000,1000,1000,1000,,,,,
44158163,1000,1000,1000,1000,,,,,
44160662,1000,1000,1000,1000,,,,,
44163161,1000,1000,1000,1000,,,,,
44165660,1000,1000,1000,1000,,,,,
44168159,1000,1000,1000,1000,,,,,
44170658,1000,1000,1000,1000,,,,,
44173157,1000,1000,1000,1000,,,,,
44175656,1000,1000,1000,1000,,,,,
44178155,1000,1000,1000,1000,,,,,
44180654,1000,1000,1000,1000,,,,,
44183986,1000,1000,1000,1000,,,,,
44186485,1000,1000,1000,1000,,,,,
44188984,1000,1000,1000,1000,,,,,
44191483,1000,1000,1000,1000,,,,,
44193982,1000,1000,1000,1000,,,,,
44196481,1000,1000,1000,1000,,,,,
44198980,1000,1000,1000,1000,,,,,
44201479,1000,1000,1000,1000,,,,,
44203978,1000,1000,1000,1000,,,,,
44206477,1000,1000,1000,1000,,,,,
44208976,1000,1000,1000,1000,,,,,
44211475,1000,1000,1000,1000,,,,,
44213974,1000,1000,1000,1000,,,,,
44216473,1000,1000,1000,1000,,,,,
44218972,1000,1000,1000,1000,,,,,
44221471,1000,1000,1000,1000,,,,,
44223970,1000,1000,1000,1000,,,,,
44226469,1000,1000,1000,1000,,,,,
44228968,1000,1000,1000,1000,,,,,
44231467,1000,1000,1000,1000,,,,,
44233966,1000,1000,1000,1000,,,,,
44236465,1000,1000,1000,1000,,,,,
44238964,1000,1000,1000,1000,,,,,
44241463,1000,1000,1000,1000,,,,,
44243962,1000,1000,1000,1000,,,,,
44246461,1000,1000,1000,1000,,,,,
44248960,1000,1000,1000,1000,,,,,
44251459,1000,1000,1000,1000,,,,,
44253958,1000,1000,1000,1000,,,,,
44256457,1000,1000,1000,1000,,,,,
44258956,1000,1000,1000,1000,,,,,
44261455,1000,1000,1000,1000,,,,,
44263954,1000,1000,1000,1000,,,,,
44266453,1000,1000,1000,1000,,,,,
44268952,1000,1000,1000,1000,,,,,
44271451,1000,1000,1000,1000,,,,,
44273950,1000,1000,1000,1000,,,,,
44276449,1000,1000,1000,1000,,,,,
44278948,1000,1000,1000,1000,,,,,
44281447,1000,1000,1000,1000,,,,,
44283946,1000,1000,1000,1000,,,,,
44286445,1000,1000,1000,1000,,,,,
44288944,1000,1000,1000,1000,,,,,
44291443,1000,1000,1000,1000,,,,,
44293942,1000,1000,1000,1000,,,,,
44296441,1000,1000,1000,1000,,,,,
44298940,1000,1000,1000,1000,,,,,
44301439,1000,1000,1000,1000,,,,,
44303938,1000,1000,1000,1000,,,,,
44306437,1000,1000,1000,1000,,,,,
44308936,1000,1000,1000,1000,,,,,
44311435,1000,1000,1000,1000,,,,,
44313934,1000,1000,1000,1000,,,,,
44316433,1000,1000,1000,1000,,,,,
44318932,1000,1000,1000,1000,,,,,
44321431,1000,1000,1000,1000,,,,,
44323930,1000,1000,1000,1000,,,,,
44326429,1000,1000,1000,1000,,,,,
44328928,1000,1000,1000,1000,,,,,
44331427,1000,1000,1000,1000,,,,,
44333926,1000,1000,1000,1000,,,,,
44336425,1000,1000,1000,1000,,,,,
44338924,1000,1000,1000,1000,,,,,
44341423,1000,1000,1000,1000,,,,,
44343922,1000,1000,1000,1000,,,,,
44346421,1000,1000,1000,1000,,,,,
44348920,1000,1000,1000,1000,,,,,
44351419,1000,1000,1000,1000,,,,,
44353918,1000,1000,1000,1000,,,,,
44356417,1000,1000,1000,1000,,,,,
44358916,1000,1000,1000,1000,,,,,
44361415,1000,1000,1000,1000,,,,,
44363914,1000,1000,1000,1000,,,,,
44366413,1000,1000,1000,1000,,,,,
44368912,1000,1000,1000,1000,,,,,
44371411,1000,1000,1000,1000,,,,,
44373910,1000,1000,1000,1000,,,,,
44376409,1000,1000,1000,1000,,,,,
44378908,1000,1000,1000,1000,,,,,
44381407,1000,1000,1000,1000,,,,,
44383906,1000,1000,1000,1000,,,,,
44386405,1000,1000,1000,1000,,,,,
44388904,1000,1000,1000,1000,,,,,
44391403,1000,1000,1000,1000,,,,,
44393902,1000,1000,1000,1000,,,,,
44396401,1000,1000,1000,1000,,,,,
44398900,1000,1000,1000,1000,,,,,
44401399,1000,1000,1000,1000,,,,,
44403898,1000,1000,1000,1000,,,,,
44406397,1000,1000,1000,1000,,,,,
44408896,1000,1000,1000,1000,,,,,
44411395,1000,1000,1000,1000,,,,,
44413894,1000,1000,1000,1000,,,,,
44416393,1000,1000,1000,1000,,,,,
44418892,1000,1000,1000,1000,,,,,
44421391,1000,1000,1000,1000,,,,,
44423890,1000,1000,1000,1000,,,,,
44426389,1000,1000,1000,1000,,,,,
44428888,1000,1000,1000,1000,,,,,
44431387,1000,1000,1000,1000,,,,,
44433886,1000,1000,1000,1000,,,,,
44436385,1000,1000,1000,1000,,,,,
44438884,1000,1000,1000,1000,,,,,
44441383,1000,1000,1000,1000,,,,,
44443882,1000,1000,1000,1000,,,,,
44446381,1000,1000,1000,1000,,,,,
44448880,1000,1000,1000,1000,,,,,
44451379,1000,1000,1000,1000,,,,,
44453878,1000,1000,1000,1000,,,,,
44456377,1000,1000,1000,1000,,,,,
44458876,1000,1000,1000,1000,,,,,
44461375,1000,1000,1000,1000,,,,,
44463874,1000,1000,1000,1000,,,,,
44466373,1000,1000,1000,1000,,,,,
44468872,1000,1000,1000,1000,,,,,
44471371,1000,1000,1000,1000,,,,,
44473870,1000,1000,1000,1000,,,,,
44476369,1000,1000,1000,1000,,,,,
44478868,1000,1000,1000,1000,,,,,
44481367,1000,1000,1000,1000,,,,,
44483866,1000,1000,1000,1000,,,,,
44486365,1000,1000,1000,1000,,,,,
44488864,1000,1000,1000,1000,,,,,
44491363,1000,1000,1000,1000,,,,,
44493862,1000,1000,1000,1000,,,,,
44496361,1000,1000,1000,1000,,,,,
44498860,1000,1000,1000,1000,,,,,
44501359,1000,1000,1000,1000,,,,,
44503858,1000,1000,1000,1000,,,,,
44506357,1000,1000,1000,1000,,,,,
44508856,1000,1000,1000,1000,,,,,
44511355,1000,1000,1000,1000,,,,,
44513854,1000,1000,1000,1000,,,,,
44516353,1000,1000,1000,1000,,,,,
44518852,1000,1000,1000,1000,,,,,
44521351,1000,1000,1000,1000,,,,,
44523850,1000,1000,1000,1000,,,,,
44526349,1000,1000,1000,1000,,,,,
44528848,1000,1000,1000,1000,,,,,
44531347,1000,1000,1000,1000,,,,,
44533846,1000,1000,1000,1000,,,,,
44536345,1000,1000,1000,1000,,,,,
44538844,1001,1001,1001,1001,,,,,
44541343,1002,1002,1002,1002,,,,,
44543842,1003,1003,1003,1003,,,,,
44546341,1003,1003,1003,1003,,,,,
44548840,1004,1004,1004,1004,,,,,
44551339,1005,1005,1005,1005,,,,,
44553838,1006,1006,1006,1006,,,,,
44556337,1006,1006,1006,1006,,,,,
44558836,1007,1007,1007,1007,,,,,
44561335,1008,1008,1008,1008,,,,,
44563834,1009,1009,1009,1009,,,,,
44566333,1009,1009,1009,1009,,,,,
44568832,1010,1010,1010,1010,,,,,
44571331,1011,1011,1011,1011,,,,,
44573830,1012,1012,1012,1012,,,,,
44576329,1012,1012,1012,1012,,,,,
44578828,1013,1013,1013,1013,,,,,
44581327,1014,1014,1014,1014,,,,,
44583826,1015,1015,1015,1015,,,,,
44586325,1015,1015,1015,1015,,,,,
44588824,1016,1016,1016,1016,,,,,
44591323,1017,1017,1017,1017,,,,,
44593822,1018,1018,1018,1018,,,,,
44596321,1018,1018,1018,1018,,,,,
44598820,1019,1019,1019,1019,,,,,
44601319,1020,1020,1020,1020,,,,,
44603818,1021,1021,1021,1021,,,,,
44606317,1021,1021,1021,1021,,,,,
44608816,1022,1022,1022,1022,,,,,
44611315,1023,1023,1023,1023,,,,,
44613814,1024,1024,1024,1024,,,,,
44616313,1024,1024,1024,1024,,,,,
44618812,1025,1025,1025,1025,,,,,
44621311,1026,1026,1026,1026,,,,,
44623810,1027,1027,1027,1027,,,,,
44626309,1027,1027,1027,1027,,,,,
44628808,1028,1028,1028,1028,,,,,
44631307,1029,1029,1029,1029,,,,,
44633806,1030,1030,1030,1030,,,,,
44636305,1030,1030,1030,1030,,,,,
44638804,1031,1031,1031,1031,,,,,
44641303,1032,1032,1032,1032,,,,,
44643802,1033,1033,1033,1033,,,,,
44646301,1033,1033,1033,1033,,,,,
44648800,1034,1034,1034,1034,,,,,
44651299,1035,1035,1035,1035,,,,,
44653798,1036,1036,1036,1036,,,,,
44656297,1036,1036,1036,1036,,,,,
44658796,1037,1037,1037,1037,,,,,
44661295,1038,1038,1038,1038,,,,,
44663794,1039,1039,1039,1039,,,,,
44666293,1039,1039,1039,1039,,,,,
44668792,1040,1040,1040,1040,,,,,
44671291,1041,1041,1041,1041,,,,,
44673790,1042,1042,1042,1042,,,,,
44676289,1042,1042,1042,1042,,,,,
44678788,1043,1043,1043,1043,,,,,
44681287,1044,1044,1044,1044,,,,,
44683786,1045,1045,1045,1045,,,,,
44686285,1045,1045,1045,1045,,,,,
44688784,1046,1046,1046,1046,,,,,
44691283,1047,1047,1047,1047,,,,,
44693782,1048,1048,1048,1048,,,,,
44696281,1048,1048,1048,1048,,,,,
44698780,1049,1049,1049,1049,,,,,
44701279,1050,1050,1050,1050,,,,,
44703778,1051,1051,1051,1051,,,,,
44706277,1051,1051,1051,1051,,,,,
44708776,1052,1052,1052,1052,,,,,
44711275,1053,1053,1053,1053,,,,,
44713774,1054,1054,1054,1054,,,,,
44716273,1054,1054,1054,1054,,,,,
44718772,1055,1055,1055,1055,,,,,
44721271,1056,1056,1056,1056,,,,,
44723770,1057,1057,1057,1057,,,,,
44726269,1057,1057,1057,1057,,,,,
44728768,1058,1058,1058,1058,,,,,
44731267,1059,1059,1059,1059,,,,,
44733766,1060,1060,1060,1060,,,,,
44736265,1060,1060,1060,1060,,,,,
44738764,1061,1061,1061,1061,,,,,
44741263,1062,1062,1062,1062,,,,,
44743762,1063,1063,1063,1063,,,,,
44746261,1063,1063,1063,1063,,,,,
44748760,1064,1064,1064,1064,,,,,
44751259,1065,1065,1065,1065,,,,,
44753758,1066,1066,1066,1066,,,,,
44756257,1066,1066,1066,1066,,,,,
44758756,1067,1067,1067,1067,,,,,
44761255,1068,1068,1068,1068,,,,,
44763754,1069,1069,1069,1069,,,,,
44766253,1069,1069,1069,1069,,,,,
44768752,1070,1070,1070,1070,,,,,
44771251,1071,1071,1071,1071,,,,,
44773750,1072,1072,1072,1072,,,,,
44776249,1072,1072,1072,1072,,,,,
44778748,1073,1073,1073,1073,,,,,
44781247,1074,1074,1074,1074,,,,,
44783746,1075,1075,1075,1075,,,,,
44786245,1075,1075,1075,1075,,,,,
44788744,1076,1076,1076,1076,,,,,
44791243,1077,1077,1077,1077,,,,,
44793742,1078,1078,1078,1078,,,,,
44796241,1078,1078,1078,1078,,,,,
44798740,1079,1079,1079,1079,,,,,
44801239,1080,1080,1080,1080,,,,,
44803738,1081,1081,1081,1081,,,,,
44806237,1081,1081,1081,1081,,,,,
44808736,1082,1082,1082,1082,,,,,
44811235,1083,1083,1083,1083,,,,,
44813734,1084,1084,1084,1084,,,,,
44816233,1084,1084,1084,1084,,,,,
44818732,1085,1085,1085,1085,,,,,
44821231,1086,1086,1086,1086,,,,,
44823730,1087,1087,1087,1087,,,,,
44826229,1087,1087,1087,1087,,,,,
44828728,1088,1088,1088,1088,,,,,
44831227,1089,1089,1089,1089,,,,,
44833726,1090,1090,1090,1090,,,,,
44836225,1090,1090,1090,1090,,,,,
44838724,1091,1091,1091,1091,,,,,
44841223,1092,1092,1092,1092,,,,,
44843722,1093,1093,1093,1093,,,,,
44846221,1093,1093,1093,1093,,,,,
44848720,1094,1094,1094,1094,,,,,
44851219,1095,1095,1095,1095,,,,,
44853718,1096,1096,1096,1096,,,,,
44856217,1096,1096,1096,1096,,,,,
44858716,1097,1097,1097,1097,,,,,
44861215,1098,1098,1098,1098,,,,,
44863714,1099,1099,1099,1099,,,,,
44866213,1099,1099,1099,1099,,,,,
44868712,1100,1100,1100,1100,,,,,
44871211,1101,1101,1101,1101,,,,,
44873710,1101,1101,1101,1101,,,,,
44876209,1102,1102,1102,1102,,,,,
44878708,1103,1103,1103,1103,,,,,
44881207,1104,1104,1104,1104,,,,,
44883706,1104,1104,1104,1104,,,,,
44886205,1105,1105,1105,1105,,,,,
44888704,1106,1106,1106,1106,,,,,
44891203,1107,1107,1107,1107,,,,,
44893702,1107,1107,1107,1107,,,,,
44896201,1108,1108,1108,1108,,,,,
44898700,1109,1109,1109,1109,,,,,
44901199,1110,1110,1110,1110,,,,,
44903698,1110,1110,1110,1110,,,,,
44906197,1111,1111,1111,1111,,,,,
44908696,1112,1112,1112,1112,,,,,
44911195,1113,1113,1113,1113,,,,,
44913694,1113,1113,1113,1113,,,,,
44916193,1114,1114,1114,1114,,,,,
44918692,1115,1115,1115,1115,,,,,
44921191,1116,1116,1116,1116,,,,,
44923690,1116,1116,1116,1116,,,,,
44926189,1117,1117,1117,1117,,,,,
44928688,1118,1118,1118,1118,,,,,
44931187,1119,1119,1119,1119,,,,,
44933686,1119,1119,1119,1119,,,,,
44936185,1120,1120,1120,1120,,,,,
44938684,1121,1121,1121,1121,,,,,
44941183,1122,1122,1122,1122,,,,,
44943682,1122,1122,1122,1122,,,,,
44946181,1123,1123,1123,1123,,,,,
44948680,1124,1124,1124,1124,,,,,
44951179,1125,1125,1125,1125,,,,,
44953678,1125,1125,1125,1125,,,,,
44956177,1126,1126,1126,1126,,,,,
44958676,1127,1127,1127,1127,,,,,
44961175,1128,1128,1128,1128,,,,,
44963674,1128,1128,1128,1128,,,,,
44966173,1129,1129,1129,1129,,,,,
44968672,1130,1130,1130,1130,,,,,
44971171,1131,1131,1131,1131,,,,,
44973670,1131,1131,1131,1131,,,,,
44976169,1132,1132,1132,1132,,,,,
44978668,1133,1133,1133,1133,,,,,
44981167,1134,1134,1134,1134,,,,,
44983666,1134,1134,1134,1134,,,,,
44986165,1135,1135,1135,1135,,,,,
44988664,1136,1136,1136,1136,,,,,
44991163,1137,1137,1137,1137,,,,,
44993662,1137,1137,1137,1137,,,,,
44996161,1138,1138,1138,1138,,,,,
44998660,1139,1139,1139,1139,,,,,
45001159,1140,1140,1140,1140,,,,,
45003658,1140,1140,1140,1140,,,,,
45006157,1141,1141,1141,1141,,,,,
45008656,1142,1142,1142,1142,,,,,
45011155,1143,1143,1143,1143,,,,,
45013654,1143,1143,1143,1143,,,,,
45016153,1144,1144,1144,1144,,,,,
45018652,1145,1145,1145,1145,,,,,
45021151,1146,1146,1146,1146,,,,,
45023650,1146,1146,1146,1146,,,,,
45026149,1147,1147,1147,1147,,,,,
45028648,1148,1148,1148,1148,,,,,
45031147,1149,1149,1149,1149,,,,,
45033646,1149,1149,1149,1149,,,,,
45036145,1150,1150,1150,1150,,,,,
45038644,1161,1153,1154,1162,,,,,
45041143,1169,1162,1162,1170,,,,,
45043642,1177,1170,1170,1178,,,,,
45046141,1185,1177,1178,1185,,,,,
45048640,1192,1185,1186,1193,,,,,
45051139,1200,1193,1193,1200,,,,,
45053638,1207,1200,1201,1208,,,,,
45056137,1214,1207,1208,1215,,,,,
45058636,1222,1214,1215,1222,,,,,
45061135,1229,1222,1222,1229,,,,,
45063634,1235,1229,1229,1236,,,,,
45066133,1242,1235,1236,1242,,,,,
45068632,1249,1242,1243,1249,,,,,
45071131,1255,1249,1250,1256,,,,,
45073630,1262,1255,1256,1262,,,,,
45076129,1268,1262,1263,1269,,,,,
45078628,1275,1268,1269,1275,,,,,
45081127,1281,1275,1275,1281,,,,,
45083626,1287,1281,1282,1288,,,,,
45086125,1293,1287,1288,1294,,,,,
45088624,1300,1293,1294,1300,,,,,
45091123,1306,1299,1300,1306,,,,,
45093622,1312,1305,1306,1312,,,,,
45096121,1317,1311,1312,1318,,,,,
45098620,1323,1317,1318,1324,,,,,
45101119,1329,1323,1324,1329,,,,,
45103618,1335,1329,1329,1335,,,,,
45106117,1340,1334,1335,1341,,,,,
45108616,1346,1340,1341,1346,,,,,
45111115,1352,1346,1346,1352,,,,,
45113614,1357,1351,1352,1357,,,,,
45116113,1362,1357,1357,1363,,,,,
45118612,1368,1362,1363,1368,,,,,
45121111,1373,1367,1368,1374,,,,,
45123610,1379,1373,1373,1379,,,,,
45126109,1384,1378,1379,1384,,,,,
45128608,1389,1383,1384,1389,,,,,
45131107,1394,1389,1389,1395,,,,,
45133606,1399,1394,1394,1400,,,,,
45136105,1404,1399,1399,1405,,,,,
45138604,1409,1404,1404,1410,,,,,
45141103,1414,1409,1409,1415,,,,,
45143602,1419,1414,1414,1420,,,,,
45146101,1424,1419,1419,1425,,,,,
45148600,1429,1424,1424,1430,,,,,
45151099,1434,1429,1429,1435,,,,,
45153598,1439,1434,1434,1439,,,,,
45156097,1444,1439,1439,1444,,,,,
45158596,1449,1443,1444,1449,,,,,
45161095,1453,1448,1448,1454,,,,,
45163594,1458,1453,1453,1458,,,,,
45166093,1463,1458,1458,1463,,,,,
45168592,1467,1462,1463,1468,,,,,
45171091,1472,1467,1467,1472,,,,,
45173590,1476,1471,1472,1477,,,,,
45176089,1481,1476,1476,1481,,,,,
45178588,1486,1481,1481,1486,,,,,
45181087,1490,1485,1485,1490,,,,,
45183586,1494,1490,1490,1495,,,,,
45186085,1499,1494,1494,1499,,,,,
45188584,1503,1499,1499,1504,,,,,
45191083,1508,1503,1503,1508,,,,,
45193582,1512,1507,1508,1513,,,,,
45196081,1516,1512,1512,1517,,,,,
45198580,1521,1516,1516,1521,,,,,
45201079,1525,1520,1521,1525,,,,,
45203578,1529,1525,1525,1530,,,,,
45206077,1534,1529,1529,1534,,,,,
45208576,1538,1533,1533,1538,,,,,
45211075,1542,1537,1538,1542,,,,,
45213574,1546,1542,1542,1547,,,,,
45216073,1550,1546,1546,1551,,,,,
45218572,1554,1550,1550,1555,,,,,
45221071,1559,1554,1554,1559,,,,,
45223570,1563,1558,1558,1563,,,,,
45226069,1567,1562,1563,1567,,,,,
45228568,1571,1566,1567,1571,,,,,
45231067,1575,1570,1571,1575,,,,,
45233566,1579,1574,1575,1579,,,,,
45236065,1583,1578,1579,1583,,,,,
45238564,1587,1582,1583,1587,,,,,
45241063,1591,1586,1587,1591,,,,,
45243562,1595,1590,1591,1595,,,,,
45246061,1599,1594,1595,1599,,,,,
45248560,1603,1598,1598,1603,,,,,
45251059,1607,1602,1602,1607,,,,,
45253558,1611,1606,1606,1611,,,,,
45256057,1614,1610,1610,1615,,,,,
45258556,1618,1613,1614,1618,,,,,
45261055,1622,1617,1618,1622,,,,,
45263554,1626,1621,1622,1626,,,,,
45266053,1630,1625,1625,1630,,,,,
45268552,1633,1629,1629,1634,,,,,
45271051,1637,1632,1633,1637,,,,,
45273550,1641,1636,1637,1641,,,,,
45276049,1645,1640,1640,1645,,,,,
45278548,1648,1644,1644,1649,,,,,
45281047,1652,1647,1648,1652,,,,,
45283546,1656,1651,1651,1656,,,,,
45286045,1659,1655,1655,1660,,,,,
45288544,1663,1658,1659,1663,,,,,
45291043,1667,1662,1662,1667,,,,,
45293542,1670,1666,1666,1670,,,,,
45296041,1674,1669,1670,1674,,,,,
45298540,1678,1673,1673,1678,,,,,
45301039,1681,1676,1677,1681,,,,,
45303538,1685,1680,1680,1685,,,,,
45306037,1688,1683,1684,1688,,,,,
45308536,1692,1687,1687,1692,,,,,
45311035,1695,1691,1691,1695,,,,,
45313534,1699,1694,1695,1699,,,,,
45316033,1702,1698,1698,1702,,,,,
45318532,1706,1701,1702,1706,,,,,
45321031,1709,1705,1705,1709,,,,,
45323530,1713,1708,1709,1713,,,,,
45326029,1716,1711,1712,1716,,,,,
45328528,1719,1715,1715,1720,,,,,
45331027,1723,1718,1719,1723,,,,,
45333526,1726,1722,1722,1726,,,,,
45336025,1730,1725,1726,1730,,,,,
45338524,1733,1729,1729,1733,,,,,
45341023,1736,1732,1732,1737,,,,,
45343522,1740,1735,1736,1740,,,,,
45346021,1743,1739,1739,1743,,,,,
45348520,1746,1742,1743,1747,,,,,
45351019,1750,1745,1746,1750,,,,,
45353518,1753,1749,1749,1753,,,,,
45356017,1756,1752,1752,1757,,,,,
45358516,1760,1755,1756,1760,,,,,
45361015,1763,1759,1759,1763,,,,,
45363514,1766,1762,1762,1766,,,,,
45366013,1769,1765,1766,1770,,,,,
45368512,1773,1769,1769,1773,,,,,
45371011,1776,1772,1772,1776,,,,,
45373510,1779,1775,1775,1779,,,,,
45376009,1782,1778,1779,1783,,,,,
45378508,1786,1782,1782,1786,,,,,
45381007,1789,1785,1785,1789,,,,,
45383506,1792,1788,1788,1792,,,,,
45386005,1795,1791,1791,1795,,,,,
45388504,1798,1794,1795,1799,,,,,
45391003,1801,1797,1798,1802,,,,,
45393502,1805,1801,1801,1805,,,,,
45396001,1808,1804,1804,1808,,,,,
45398500,1811,1807,1807,1811,,,,,
45400999,1814,1810,1810,1814,,,,,
45403498,1817,1813,1813,1817,,,,,
45405997,1820,1816,1817,1821,,,,,
45408496,1823,1819,1820,1824,,,,,
45410995,1826,1822,1823,1827,,,,,
45413494,1830,1826,1826,1830,,,,,
45415993,1833,1829,1829,1833,,,,,
45418492,1836,1832,1832,1836,,,,,
45420991,1839,1835,1835,1839,,,,,
45423490,1842,1838,1838,1842,,,,,
45425989,1845,1841,1841,1845,,,,,
45428488,1848,1844,1844,1848,,,,,
45430987,1851,1847,1847,1851,,,,,
45433486,1854,1850,1850,1854,,,,,
45435985,1857,1853,1853,1857,,,,,
45438484,1860,1856,1856,1860,,,,,
45440983,1863,1859,1859,1863,,,,,
45443482,1866,1862,1862,1866,,,,,
45445981,1869,1865,1865,1869,,,,,
45448480,1872,1868,1868,1872,,,,,
45450979,1875,1871,1871,1875,,,,,
45453478,1878,1874,1874,1878,,,,,
45455977,1881,1877,1877,1881,,,,,
45458476,1884,1880,1880,1884,,,,,
45460975,1887,1882,1883,1887,,,,,
45463474,1889,1885,1886,1890,,,,,
45465973,1892,1888,1889,1892,,,,,
45468472,1895,1891,1892,1895,,,,,
45470971,1898,1894,1895,1898,,,,,
45473470,1901,1897,1897,1901,,,,,
45475969,1904,1900,1900,1904,,,,,
45478468,1907,1903,1903,1907,,,,,
45480967,1910,1906,1906,1910,,,,,
45483466,1913,1908,1909,1913,,,,,
45485965,1915,1911,1912,1916,,,,,
45488464,1918,1914,1915,1918,,,,,
45490963,1921,1917,1918,1921,,,,,
45493462,1921,1917,1918,1921,,,,,
45495961,1921,1916,1917,1921,,,,,
45498460,1920,1916,1916,1920,,,,,
45500959,1919,1915,1915,1919,,,,,
45503458,1919,1914,1915,1918,,,,,
45505957,1918,1913,1914,1918,,,,,
45508456,1917,1913,1913,1917,,,,,
45510955,1917,1912,1913,1917,,,,,
45513454,1916,1912,1912,1916,,,,,
45515953,1916,1911,1912,1916,,,,,
45518452,1915,1911,1911,1915,,,,,
45520951,1915,1910,1911,1915,,,,,
45523450,1915,1910,1911,1914,,,,,
45525949,1914,1910,1910,1914,,,,,
45528448,1914,1910,1910,1914,,,,,
45530947,1914,1909,1910,1914,,,,,
45533446,1913,1909,1910,1913,,,,,
45535945,1913,1909,1910,1913,,,,,
45538444,1913,1909,1909,1913,,,,,
45540943,1912,1908,1909,1912,,,,,
45543442,1912,1908,1909,1912,,,,,
45545941,1911,1907,1908,1911,,,,,
45548440,1910,1907,1907,1910,,,,,
45550939,1909,1906,1906,1909,,,,,
45553438,1908,1905,1905,1908,,,,,
45555937,1907,1904,1904,1907,,,,,
45558436,1905,1902,1903,1905,,,,,
45560935,1904,1901,1901,1904,,,,,
45563434,1902,1899,1900,1902,,,,,
45565933,1900,1898,1898,1901,,,,,
45568432,1898,1896,1896,1899,,,,,
45570931,1896,1894,1894,1897,,,,,
45573430,1894,1892,1892,1894,,,,,
45575929,1892,1890,1890,1892,,,,,
45578428,1890,1887,1888,1890,,,,,
45580927,1887,1885,1885,1887,,,,,
45583426,1885,1882,1883,1885,,,,,
45585925,1882,1880,1880,1882,,,,,
45588424,1879,1877,1878,1880,,,,,
45590923,1877,1875,1875,1877,,,,,
45593422,1874,1872,1872,1874,,,,,
45595921,1871,1869,1869,1871,,,,,
45598420,1868,1866,1866,1868,,,,,
45600919,1865,1863,1863,1865,,,,,
45603418,1862,1860,1860,1862,,,,,
45605917,1858,1857,1857,1859,,,,,
45608416,1855,1854,1854,1855,,,,,
45610915,1852,1850,1851,1852,,,,,
45613414,1849,1847,1848,1849,,,,,
45615913,1845,1844,1844,1846,,,,,
45618412,1842,1841,1841,1842,,,,,
45620911,1839,1837,1838,1839,,,,,
45623410,1835,1834,1834,1836,,,,,
45625909,1832,1831,1831,1832,,,,,
45628408,1828,1827,1827,1829,,,,,
45630907,1825,1824,1824,1825,,,,,
45633406,1821,1820,1820,1822,,,,,
45635905,1818,1817,1817,1818,,,,,
45638404,1814,1813,1813,1815,,,,,
45640903,1811,1810,1810,1811,,,,,
45643402,1807,1806,1806,1808,,,,,
45645901,1804,1803,1803,1804,,,,,
45648400,1800,1799,1799,1801,,,,,
45650899,1797,1796,1796,1797,,,,,
45653398,1793,1792,1792,1794,,,,,
45655897,1790,1789,1789,1790,,,,,
45658396,1786,1786,1786,1787,,,,,
45660895,1783,1782,1782,1783,,,,,
45663394,1779,1779,1779,1780,,,,,
45665893,1776,1775,1775,1777,,,,,
45668392,1773,1772,1772,1773,,,,,
45670891,1769,1769,1769,1770,,,,,
45673390,1766,1766,1766,1766,,,,,
45675889,1763,1762,1762,1763,,,,,
45678388,1759,1759,1759,1760,,,,,
45680887,1756,1756,1756,1757,,,,,
45683386,1753,1753,1753,1753,,,,,
45685885,1750,1750,1750,1750,,,,,
45688384,1747,1746,1747,1747,,,,,
45690883,1744,1743,1743,1744,,,,,
45693382,1740,1740,1740,1741,,,,,
45695881,1737,1737,1737,1738,,,,,
45698380,1734,1734,1735,1735,,,,,
45700879,1732,1732,1732,1732,,,,,
45703378,1729,1729,1729,1729,,,,,
45705877,1726,1726,1726,1726,,,,,
45708376,1723,1723,1723,1723,,,,,
45710875,1720,1720,1721,1721,,,,,
45713374,1718,1718,1718,1718,,,,,
45715873,1715,1715,1715,1715,,,,,
45718372,1712,1712,1713,1713,,,,,
45720871,1710,1710,1710,1710,,,,,
45723370,1707,1707,1708,1707,,,,,
45725869,1705,1705,1705,1705,,,,,
45728368,1702,1703,1703,1702,,,,,
45730867,1700,1700,1700,1700,,,,,
45733366,1697,1698,1698,1698,,,,,
45735865,1695,1696,1696,1695,,,,,
45738364,1693,1693,1694,1693,,,,,
45740863,1691,1691,1691,1691,,,,,
45743362,1688,1689,1689,1689,,,,,
45745861,1686,1687,1687,1686,,,,,
45748360,1684,1685,1685,1684,,,,,
45750859,1682,1683,1683,1682,,,,,
45753358,1680,1681,1681,1680,,,,,
45755857,1678,1679,1679,1678,,,,,
45758356,1676,1677,1677,1676,,,,,
45760855,1674,1675,1675,1674,,,,,
45763354,1672,1673,1673,1672,,,,,
45765853,1670,1671,1671,1670,,,,,
45768352,1668,1669,1669,1668,,,,,
45770851,1666,1667,1668,1666,,,,,
45773350,1664,1666,1666,1665,,,,,
45775849,1663,1664,1664,1663,,,,,
45778348,1661,1662,1662,1661,,,,,
45780847,1659,1661,1661,1660,,,,,
45783346,1658,1659,1659,1658,,,,,
45785845,1656,1658,1658,1656,,,,,
45788344,1654,1656,1656,1655,,,,,
45790843,1653,1655,1655,1653,,,,,
45793342,1652,1653,1654,1652,,,,,
45795841,1650,1652,1652,1651,,,,,
45798340,1649,1651,1651,1649,,,,,
45800839,1648,1650,1650,1648,,,,,
45803338,1647,1648,1649,1647,,,,,
45805837,1645,1647,1647,1646,,,,,
45808336,1644,1646,1646,1645,,,,,
45810835,1643,1645,1645,1643,,,,,
45813334,1642,1644,1644,1642,,,,,
45815833,1641,1643,1643,1641,,,,,
45818332,1640,1642,1642,1640,,,,,
45820831,1639,1641,1641,1639,,,,,
45823330,1638,1640,1640,1639,,,,,
45825829,1638,1639,1640,1638,,,,,
45828328,1637,1639,1639,1637,,,,,
45830827,1636,1638,1638,1636,,,,,
45833326,1635,1637,1637,1635,,,,,
45835825,1635,1636,1637,1635,,,,,
45838324,1634,1636,1636,1634,,,,,
45840823,1633,1635,1635,1633,,,,,
