TimeUS,M1,M2,M3,M4,TimeUS,C1,C2,C3,C4
50648899,1000,1000,1000,1000,50728867,1000,1000,1000,1000
50651398,1000,1000,1000,1000,50828827,1000,1000,1000,1000
50653897,1000,1000,1000,1000,50928787,1000,1000,1000,1000
50656396,1000,1000,1000,1000,51028747,1000,1000,1000,1000
50658895,1000,1000,1000,1000,51128707,1000,1000,1000,1000
50661394,1000,1000,1000,1000,51228667,1000,1000,1000,1000
50663893,1000,1000,1000,1000,51328627,1000,1000,1000,1000
50666392,1000,1000,1000,1000,51428587,1000,1000,1000,1000
50668891,1000,1000,1000,1000,51528547,1000,1000,1000,1000
50671390,1000,1000,1000,1000,51628507,1000,1000,1000,1000
50673889,1000,1000,1000,1000,51728467,1000,1000,1000,1000
50676388,1000,1000,1000,1000,51828427,1000,1000,1000,1000
50678887,1000,1000,1000,1000,51928387,1000,1000,1000,1000
50681386,1000,1000,1000,1000,52028347,1000,1000,1000,1000
50683885,1000,1000,1000,1000,52128307,1000,1000,1000,1000
50686384,1000,1000,1000,1000,52228267,1000,1000,1000,1000
50688883,1000,1000,1000,1000,52328227,1000,1000,1000,1000
50691382,1000,1000,1000,1000,52428187,1000,1000,1000,1000
50693881,1000,1000,1000,1000,52528980,1000,1000,1000,1000
50696380,1000,1000,1000,1000,52628940,1000,1000,1000,1000
50698879,1000,1000,1000,1000,52728900,1024,1024,1024,1024
50701378,1000,1000,1000,1000,52828860,1054,1054,1054,1054
50703877,1000,1000,1000,1000,52928820,1084,1084,1084,1084
50706376,1000,1000,1000,1000,53028780,1113,1113,1113,1113
50708875,1000,1000,1000,1000,53128740,1143,1143,1143,1143
50711374,1000,1000,1000,1000,53228700,1357,1351,1352,1357
50713873,1000,1000,1000,1000,53328660,1547,1541,1542,1547
50716372,1000,1000,1000,1000,53428620,1699,1694,1695,1699
50718871,1000,1000,1000,1000,53528580,1830,1825,1826,1830
50721370,1000,1000,1000,1000,53628540,1893,1888,1889,1893
50723869,1000,1000,1000,1000,53728500,1840,1837,1838,1840
50726368,1000,1000,1000,1000,53828460,1714,1712,1712,1714
50728867,1000,1000,1000,1000,53928420,1636,1637,1633,1641
50731366,1000,1000,1000,1000,54028380,1619,1623,1618,1624
50733865,1000,1000,1000,1000,54128340,1627,1630,1628,1629
50736364,1000,1000,1000,1000,54228300,1633,1635,1635,1633
50738863,1000,1000,1000,1000,54328260,1633,1633,1635,1631
50741362,1000,1000,1000,1000,54428220,1628,1626,1629,1625
50743861,1000,1000,1000,1000,54528180,1622,1620,1622,1619
50746360,1000,1000,1000,1000,54628973,1618,1616,1618,1615
50748859,1000,1000,1000,1000,54728933,1618,1617,1617,1617
50751358,1000,1000,1000,1000,54828893,1619,1619,1618,1619
50753857,1000,1000,1000,1000,54928853,1591,1593,1596,1587
50756356,1000,1000,1000,1000,55028813,1576,1577,1582,1570
50758855,1000,1000,1000,1000,55128773,1564,1564,1566,1562
50761354,1000,1000,1000,1000,55228733,1555,1555,1554,1557
50763853,1000,1000,1000,1000,55328693,1548,1547,1541,1554
50766352,1000,1000,1000,1000,55428653,1540,1540,1532,1549
50768851,1000,1000,1000,1000,55528613,1535,1534,1528,1540
50771350,1000,1000,1000,1000,55628573,1528,1528,1525,1531
50773849,1000,1000,1000,1000,55728533,1526,1526,1525,1526
50776348,1000,1000,1000,1000,55828493,1527,1527,1528,1525
50778847,1000,1000,1000,1000,55928453,1528,1529,1531,1526
50781346,1000,1000,1000,1000,56028413,1532,1533,1536,1530
50783845,1000,1000,1000,1000,56128373,1536,1537,1539,1535
50786344,1000,1000,1000,1000,56228333,1540,1539,1542,1538
50788843,1000,1000,1000,1000,56328293,1543,1543,1544,1543
50791342,1000,1000,1000,1000,56428253,1546,1546,1546,1547
50793841,1000,1000,1000,1000,56528213,1549,1549,1549,1550
50796340,1000,1000,1000,1000,56628173,1552,1552,1552,1553
50798839,1000,1000,1000,1000,56728966,1555,1555,1554,1556
50801338,1000,1000,1000,1000,56828926,1554,1553,1558,1561
50803837,1000,1000,1000,1000,56928886,1555,1556,1563,1564
50806336,1000,1000,1000,1000,57028846,1557,1558,1564,1564
50808835,1000,1000,1000,1000,57128806,1560,1560,1565,1565
50811334,1000,1000,1000,1000,57228766,1562,1563,1565,1565
50813833,1000,1000,1000,1000,57328726,1566,1566,1566,1565
50816332,1000,1000,1000,1000,57428686,1567,1567,1565,1564
50818831,1000,1000,1000,1000,57528646,1569,1569,1565,1565
50821330,1000,1000,1000,1000,57628606,1571,1571,1566,1566
50823829,1000,1000,1000,1000,57728566,1571,1570,1566,1566
50826328,1000,1000,1000,1000,57828526,1572,1571,1567,1567
50828827,1000,1000,1000,1000,57928486,1572,1572,1569,1569
50831326,1000,1000,1000,1000,58028446,1573,1573,1570,1570
50833825,1000,1000,1000,1000,58128406,1573,1573,1571,1571
50836324,1000,1000,1000,1000,58228366,1574,1574,1574,1572
50838823,1000,1000,1000,1000,58328326,1574,1575,1576,1574
50841322,1000,1000,1000,1000,58428286,1575,1575,1576,1575
50843821,1000,1000,1000,1000,58528246,1575,1575,1576,1576
50846320,1000,1000,1000,1000,58628206,1575,1575,1577,1577
50848819,1000,1000,1000,1000,58728166,1576,1576,1577,1577
50851318,1000,1000,1000,1000,58828959,1576,1576,1577,1577
50853817,1000,1000,1000,1000,58928919,1576,1576,1577,1577
50856316,1000,1000,1000,1000,59028879,1576,1576,1577,1577
50858815,1000,1000,1000,1000,59128839,1576,1576,1576,1576
50861314,1000,1000,1000,1000,59228799,1577,1577,1577,1577
50863813,1000,1000,1000,1000,59328759,1577,1577,1577,1577
50866312,1000,1000,1000,1000,59428719,1577,1577,1577,1577
50868811,1000,1000,1000,1000,59528679,1577,1577,1577,1576
50871310,1000,1000,1000,1000,59628639,1578,1578,1578,1577
50873809,1000,1000,1000,1000,59728599,1578,1577,1577,1577
50876308,1000,1000,1000,1000,59828559,1578,1578,1577,1578
50878807,1000,1000,1000,1000,59928519,1578,1578,1578,1578
50881306,1000,1000,1000,1000,60028479,1579,1579,1578,1579
50883805,1000,1000,1000,1000,60128439,1578,1578,1578,1578
50886304,1000,1000,1000,1000,60228399,1578,1578,1578,1578
50888803,1000,1000,1000,1000,60328359,1579,1579,1579,1579
50891302,1000,1000,1000,1000,60428319,1579,1579,1579,1579
50893801,1000,1000,1000,1000,60528279,1579,1579,1580,1579
50896300,1000,1000,1000,1000,60628239,1579,1580,1580,1580
50898799,1000,1000,1000,1000,60728199,1579,1579,1580,1580
50901298,1000,1000,1000,1000,60828159,1578,1578,1578,1578
50903797,1000,1000,1000,1000,60928952,1579,1579,1579,1580
50906296,1000,1000,1000,1000,61028912,1579,1579,1579,1579
50908795,1000,1000,1000,1000,61128872,1580,1579,1579,1580
50911294,1000,1000,1000,1000,61228832,1580,1579,1579,1580
50913793,1000,1000,1000,1000,61328792,1580,1579,1579,1579
50916292,1000,1000,1000,1000,61428752,1580,1580,1581,1580
50918791,1000,1000,1000,1000,61528712,1580,1580,1581,1580
50921290,1000,1000,1000,1000,61628672,1581,1581,1581,1581
50923789,1000,1000,1000,1000,61728632,1581,1581,1581,1581
50926288,1000,1000,1000,1000,61828592,1581,1581,1581,1581
50928787,1000,1000,1000,1000,61928552,1580,1580,1580,1581
50931286,1000,1000,1000,1000,62028512,1580,1580,1580,1581
50933785,1000,1000,1000,1000,62128472,1580,1580,1580,1581
50936284,1000,1000,1000,1000,62228432,1581,1580,1581,1580
50938783,1000,1000,1000,1000,62328392,1581,1581,1581,1581
50941282,1000,1000,1000,1000,62428352,1580,1580,1580,1580
50943781,1000,1000,1000,1000,62528312,1580,1580,1579,1580
50946280,1000,1000,1000,1000,62628272,1580,1580,1580,1580
50948779,1000,1000,1000,1000,62728232,1581,1581,1580,1581
50951278,1000,1000,1000,1000,62828192,1581,1581,1581,1581
50953777,1000,1000,1000,1000,62928985,1580,1580,1580,1580
50956276,1000,1000,1000,1000,63028945,1580,1581,1587,1574
50958775,1000,1000,1000,1000,63128905,1580,1582,1586,1573
50961274,1000,1000,1000,1000,63228865,1579,1582,1578,1574
50963773,1000,1000,1000,1000,63328825,1577,1580,1569,1571
50966272,1000,1000,1000,1000,63428785,1576,1579,1562,1568
50968771,1000,1000,1000,1000,63528745,1577,1578,1557,1564
50971270,1000,1000,1000,1000,63628705,1578,1577,1554,1559
50973769,1000,1000,1000,1000,63728665,1578,1576,1553,1555
50976268,1000,1000,1000,1000,63828625,1579,1577,1555,1554
50978767,1000,1000,1000,1000,63928585,1578,1577,1556,1553
50981266,1000,1000,1000,1000,64028545,1577,1577,1556,1553
50983765,1000,1000,1000,1000,64128505,1577,1578,1556,1555
50986264,1000,1000,1000,1000,64228465,1576,1578,1556,1555
50988763,1000,1000,1000,1000,64328425,1575,1577,1554,1553
50991262,1000,1000,1000,1000,64428385,1575,1576,1552,1551
50993761,1000,1000,1000,1000,64528345,1576,1577,1550,1550
50996260,1000,1000,1000,1000,64628305,1578,1579,1548,1548
50998759,1000,1000,1000,1000,64728265,1581,1581,1546,1547
51001258,1000,1000,1000,1000,64828225,1583,1584,1543,1543
51003757,1000,1000,1000,1000,64928185,1587,1587,1541,1540
51006256,1000,1000,1000,1000,65028978,1589,1590,1538,1537
51008755,1000,1000,1000,1000,65128938,1593,1592,1536,1536
51011254,1000,1000,1000,1000,65228898,1595,1595,1535,1536
51013753,1000,1000,1000,1000,65328858,1595,1594,1534,1536
51016252,1000,1000,1000,1000,65428818,1594,1595,1536,1538
51018751,1000,1000,1000,1000,65528778,1593,1593,1538,1541
51021250,1000,1000,1000,1000,65628738,1590,1589,1544,1546
51023749,1000,1000,1000,1000,65728698,1585,1582,1551,1554
51026248,1000,1000,1000,1000,65828658,1577,1573,1561,1563
51028747,1000,1000,1000,1000,65928618,1567,1563,1573,1575
51031246,1000,1000,1000,1000,66028578,1556,1553,1586,1587
51033745,1000,1000,1000,1000,66128538,1544,1542,1597,1597
51036244,1000,1000,1000,1000,66228498,1536,1535,1607,1606
51038743,1000,1000,1000,1000,66328458,1530,1530,1613,1612
51041242,1000,1000,1000,1000,66428418,1528,1529,1615,1614
51043741,1000,1000,1000,1000,66528378,1530,1532,1614,1613
51046240,1000,1000,1000,1000,66628338,1535,1537,1610,1610
51048739,1000,1000,1000,1000,66728298,1543,1545,1605,1605
51051238,1000,1000,1000,1000,66828258,1552,1553,1597,1597
51053737,1000,1000,1000,1000,66928218,1560,1561,1589,1589
51056236,1000,1000,1000,1000,67028178,1570,1570,1582,1582
51058735,1000,1000,1000,1000,67128971,1576,1575,1575,1575
51061234,1000,1000,1000,1000,67228931,1583,1581,1571,1570
51063733,1000,1000,1000,1000,67328891,1587,1585,1568,1568
51066232,1000,1000,1000,1000,67428851,1589,1588,1567,1567
51068731,1000,1000,1000,1000,67528811,1589,1587,1568,1567
51071230,1000,1000,1000,1000,67628771,1587,1586,1569,1569
51073729,1000,1000,1000,1000,67728731,1585,1584,1571,1572
51076228,1000,1000,1000,1000,67828691,1581,1581,1573,1573
51078727,1000,1000,1000,1000,67928651,1579,1579,1576,1576
51081226,1000,1000,1000,1000,68028611,1575,1576,1579,1579
51083725,1000,1000,1000,1000,68128571,1573,1574,1581,1581
51086224,1000,1000,1000,1000,68228531,1572,1573,1582,1582
51088723,1000,1000,1000,1000,68328491,1571,1572,1583,1583
51091222,1000,1000,1000,1000,68428451,1571,1571,1582,1582
51093721,1000,1000,1000,1000,68528411,1572,1573,1582,1583
51096220,1000,1000,1000,1000,68628371,1574,1574,1582,1582
51098719,1000,1000,1000,1000,68728331,1575,1575,1581,1581
51101218,1000,1000,1000,1000,68828291,1576,1576,1579,1579
51103717,1000,1000,1000,1000,68928251,1344,1344,1340,1349
51106216,1000,1000,1000,1000,69028211,1461,1460,1453,1466
51108715,1000,1000,1000,1000,69128171,1520,1520,1517,1517
51111214,1000,1000,1000,1000,69228964,1565,1565,1567,1556
51113713,1000,1000,1000,1000,69328924,1600,1599,1603,1589
51116212,1000,1000,1000,1000,69428884,1621,1620,1624,1610
51118711,1000,1000,1000,1000,69528844,1624,1623,1623,1616
51121210,1000,1000,1000,1000,69628804,1622,1622,1619,1619
51123709,1000,1000,1000,1000,69728764,1622,1623,1617,1624
51126208,1000,1000,1000,1000,69828724,1619,1619,1613,1623
51128707,1000,1000,1000,1000,69928684,1620,1620,1615,1623
51131206,1000,1000,1000,1000,70028644,1619,1620,1616,1622
51133705,1000,1000,1000,1000,70128604,1620,1621,1620,1622
51136204,1000,1000,1000,1000,70228564,1620,1620,1621,1620
51138703,1000,1000,1000,1000,70328524,1618,1617,1624,1614
51141202,1000,1000,1000,1000,70428484,1613,1614,1621,1609
51143701,1000,1000,1000,1000,70528444,1608,1607,1614,1604
51146200,1000,1000,1000,1000,70628404,1599,1599,1603,1598
51148699,1000,1000,1000,1000,70728364,1591,1591,1593,1591
51151198,1000,1000,1000,1000,70828324,1583,1583,1582,1586
51153697,1000,1000,1000,1000,70928284,1575,1575,1572,1580
51156196,1000,1000,1000,1000,71028244,1570,1571,1566,1574
51158695,1000,1000,1000,1000,71128204,1566,1567,1561,1567
51161194,1000,1000,1000,1000,71228164,1564,1567,1559,1562
51163693,1000,1000,1000,1000,71328957,1565,1567,1557,1558
51166192,1000,1000,1000,1000,71428917,1567,1568,1554,1554
51168691,1000,1000,1000,1000,71528877,1568,1569,1551,1550
51171190,1000,1000,1000,1000,71628837,1570,1571,1550,1548
51173689,1000,1000,1000,1000,71728797,1572,1572,1549,1547
51176188,1000,1000,1000,1000,71828757,1572,1572,1547,1547
51178687,1000,1000,1000,1000,71928717,1573,1572,1548,1547
51181186,1000,1000,1000,1000,72028677,1573,1573,1549,1549
51183685,1000,1000,1000,1000,72128637,1572,1572,1549,1549
51186184,1000,1000,1000,1000,72228597,1572,1573,1550,1550
51188683,1000,1000,1000,1000,72328557,1572,1573,1552,1551
51191182,1000,1000,1000,1000,72428517,1573,1574,1553,1552
51193681,1000,1000,1000,1000,72528477,1573,1574,1553,1553
51196180,1000,1000,1000,1000,72628437,1574,1575,1554,1553
51198679,1000,1000,1000,1000,72728397,1575,1576,1554,1553
51201178,1000,1000,1000,1000,72828357,1576,1578,1553,1553
51203677,1000,1000,1000,1000,72928317,1578,1579,1553,1552
51206176,1000,1000,1000,1000,73028277,1579,1580,1551,1550
51208675,1000,1000,1000,1000,73128237,1581,1581,1550,1549
51211174,1000,1000,1000,1000,73228197,1582,1583,1548,1547
51213673,1000,1000,1000,1000,73328157,1585,1585,1547,1547
51216172,1000,1000,1000,1000,73428950,1587,1586,1546,1545
51218671,1000,1000,1000,1000,73528910,1589,1588,1545,1545
51221170,1000,1000,1000,1000,73628870,1589,1587,1545,1546
51223669,1000,1000,1000,1000,73728830,1588,1586,1546,1547
51226168,1000,1000,1000,1000,73828790,1585,1582,1548,1550
51228667,1000,1000,1000,1000,73928750,1580,1578,1553,1554
51231166,1000,1000,1000,1000,74028710,1574,1572,1559,1560
51233665,1000,1000,1000,1000,74128670,1567,1565,1565,1567
51236164,1000,1000,1000,1000,74228630,1560,1558,1573,1574
51238663,1000,1000,1000,1000,74328590,1551,1550,1579,1580
51241162,1000,1000,1000,1000,74428550,1545,1545,1586,1587
51243661,1000,1000,1000,1000,74528510,1540,1540,1592,1591
51246160,1000,1000,1000,1000,74628470,1536,1537,1595,1595
51248659,1000,1000,1000,1000,74728430,1535,1536,1597,1596
51251158,1000,1000,1000,1000,74828390,1535,1537,1596,1596
51253657,1000,1000,1000,1000,74928350,1537,1538,1594,1594
51256156,1000,1000,1000,1000,75028310,1540,1541,1591,1591
51258655,1000,1000,1000,1000,75128270,1545,1546,1587,1587
51261154,1000,1000,1000,1000,75228230,1550,1551,1582,1582
51263653,1000,1000,1000,1000,75328190,1555,1555,1576,1577
51266152,1000,1000,1000,1000,75428983,1561,1561,1572,1572
51268651,1000,1000,1000,1000,75528943,1565,1565,1567,1567
51271150,1000,1000,1000,1000,75628903,1570,1569,1563,1563
51273649,1000,1000,1000,1000,75728863,1572,1571,1559,1559
51276148,1000,1000,1000,1000,75828823,1575,1574,1558,1558
51278647,1000,1000,1000,1000,75928783,1576,1575,1557,1557
51281146,1000,1000,1000,1000,76028743,1576,1575,1557,1557
51283645,1000,1000,1000,1000,76128703,1575,1574,1558,1558
51286144,1000,1000,1000,1000,76228663,1574,1573,1559,1559
51288643,1000,1000,1000,1000,76328623,1571,1571,1561,1561
51291142,1000,1000,1000,1000,76428583,1570,1569,1563,1563
51293641,1000,1000,1000,1000,76528543,1567,1566,1565,1565
51296140,1000,1000,1000,1000,76628503,1564,1564,1566,1566
51298639,1000,1000,1000,1000,76728463,1563,1563,1569,1569
51301138,1000,1000,1000,1000,76828423,1562,1562,1570,1570
51303637,1000,1000,1000,1000,76928383,1560,1561,1571,1571
51306136,1000,1000,1000,1000,77028343,1560,1561,1571,1571
51308635,1000,1000,1000,1000,77128303,1561,1561,1572,1572
51311134,1000,1000,1000,1000,77228263,1561,1562,1571,1571
51313633,1000,1000,1000,1000,77328223,1562,1562,1570,1570
51316132,1000,1000,1000,1000,77428183,1562,1563,1569,1569
51318631,1000,1000,1000,1000,77528976,1564,1564,1568,1568
51321130,1000,1000,1000,1000,77628936,1565,1565,1567,1567
51323629,1000,1000,1000,1000,77728896,1566,1566,1566,1566
51326128,1000,1000,1000,1000,77828856,1567,1567,1564,1564
51328627,1000,1000,1000,1000,77928816,1568,1567,1563,1563
51331126,1000,1000,1000,1000,78028776,1569,1569,1563,1563
51333625,1000,1000,1000,1000,78128736,1569,1568,1562,1563
51336124,1000,1000,1000,1000,78228696,1568,1568,1562,1562
51338623,1000,1000,1000,1000,78328656,1568,1568,1563,1563
51341122,1000,1000,1000,1000,78428616,1567,1567,1562,1562
51343621,1000,1000,1000,1000,78528576,1567,1566,1563,1563
51346120,1000,1000,1000,1000,78628536,1567,1567,1565,1565
51348619,1000,1000,1000,1000,78728496,1566,1566,1565,1565
51351118,1000,1000,1000,1000,78828456,1566,1566,1567,1567
51353617,1000,1000,1000,1000,78928416,1565,1566,1567,1567
51356116,1000,1000,1000,1000,79028376,1565,1565,1568,1568
51358615,1000,1000,1000,1000,79128336,1565,1565,1567,1567
51361114,1000,1000,1000,1000,79228296,1564,1565,1567,1567
51363613,1000,1000,1000,1000,79328256,1565,1565,1568,1568
51366112,1000,1000,1000,1000,79428216,1566,1566,1569,1569
51368611,1000,1000,1000,1000,79528176,1566,1566,1568,1568
51371110,1000,1000,1000,1000,79628969,1566,1566,1568,1568
51373609,1000,1000,1000,1000,79728929,1566,1566,1567,1567
51376108,1000,1000,1000,1000,79828889,1566,1566,1567,1567
51378607,1000,1000,1000,1000,79928849,1567,1567,1567,1567
51381106,1000,1000,1000,1000,80028809,1567,1566,1566,1566
51383605,1000,1000,1000,1000,80128769,1567,1567,1566,1566
51386104,1000,1000,1000,1000,80228729,1567,1567,1565,1565
51388603,1000,1000,1000,1000,80328689,1567,1566,1565,1565
51391102,1000,1000,1000,1000,80428649,1567,1567,1565,1565
51393601,1000,1000,1000,1000,80528609,1567,1567,1565,1565
51396100,1000,1000,1000,1000,80628569,1566,1566,1565,1565
51398599,1000,1000,1000,1000,80728529,1567,1567,1566,1566
51401098,1000,1000,1000,1000,80828489,1567,1567,1566,1566
51403597,1000,1000,1000,1000,80928449,1566,1566,1566,1566
51406096,1000,1000,1000,1000,81028409,1566,1567,1566,1566
51408595,1000,1000,1000,1000,81128369,1567,1567,1565,1565
51411094,1000,1000,1000,1000,81228329,1566,1567,1563,1563
51413593,1000,1000,1000,1000,81328289,1568,1569,1562,1562
51416092,1000,1000,1000,1000,81428249,1570,1571,1561,1561
51418591,1000,1000,1000,1000,81528209,1571,1572,1560,1559
51421090,1000,1000,1000,1000,81628169,1572,1572,1559,1559
51423589,1000,1000,1000,1000,81728962,1574,1574,1559,1559
51426088,1000,1000,1000,1000,81828922,1574,1574,1559,1559
51428587,1000,1000,1000,1000,81928882,1573,1573,1559,1559
51431086,1000,1000,1000,1000,82028842,1572,1572,1560,1560
51433585,1000,1000,1000,1000,82128802,1571,1571,1560,1560
51436084,1000,1000,1000,1000,82228762,1571,1571,1561,1561
51438583,1000,1000,1000,1000,82328722,1570,1570,1562,1562
51441082,1000,1000,1000,1000,82428682,1569,1569,1563,1563
51443581,1000,1000,1000,1000,82528642,1569,1569,1563,1563
51446080,1000,1000,1000,1000,82628602,1569,1569,1564,1564
51448579,1000,1000,1000,1000,82728562,1569,1569,1564,1564
51451078,1000,1000,1000,1000,82828522,1568,1569,1564,1563
51453577,1000,1000,1000,1000,82928482,1569,1569,1563,1563
51456076,1000,1000,1000,1000,83028442,1569,1569,1563,1563
51458575,1000,1000,1000,1000,83128402,1570,1570,1562,1562
51461074,1000,1000,1000,1000,83228362,1571,1571,1562,1562
51463573,1000,1000,1000,1000,83328322,1571,1572,1561,1561
51466072,1000,1000,1000,1000,83428282,1573,1573,1561,1561
51468571,1000,1000,1000,1000,83528242,1573,1574,1560,1559
51471070,1000,1000,1000,1000,83628202,1573,1574,1559,1558
51473569,1000,1000,1000,1000,83728162,1574,1575,1558,1558
51476068,1000,1000,1000,1000,83828955,1575,1575,1557,1557
51478567,1000,1000,1000,1000,83928915,1575,1576,1557,1557
51481066,1000,1000,1000,1000,84028875,1576,1576,1557,1557
51483565,1000,1000,1000,1000,84128835,1576,1576,1557,1557
51486064,1000,1000,1000,1000,84228795,1577,1577,1558,1557
51488563,1000,1000,1000,1000,84328755,1576,1577,1556,1556
51491062,1000,1000,1000,1000,84428715,1576,1577,1555,1555
51493561,1000,1000,1000,1000,84528675,1577,1578,1555,1554
51496060,1000,1000,1000,1000,84628635,1578,1578,1554,1554
51498559,1000,1000,1000,1000,84728595,1577,1577,1554,1554
51501058,1000,1000,1000,1000,84828555,1577,1577,1555,1555
51503557,1000,1000,1000,1000,84928515,1577,1576,1556,1556
51506056,1000,1000,1000,1000,85028475,1576,1575,1558,1558
51508555,1000,1000,1000,1000,85128435,1573,1572,1560,1560
51511054,1000,1000,1000,1000,85228395,1571,1570,1563,1563
51513553,1000,1000,1000,1000,85328355,1568,1567,1566,1566
51516052,1000,1000,1000,1000,85428315,1564,1563,1568,1568
51518551,1000,1000,1000,1000,85528275,1561,1560,1571,1572
51521050,1000,1000,1000,1000,85628235,1558,1558,1574,1574
51523549,1000,1000,1000,1000,85728195,1555,1555,1576,1576
51526048,1000,1000,1000,1000,85828155,1554,1554,1579,1579
51528547,1000,1000,1000,1000,85928948,1552,1552,1580,1580
51531046,1000,1000,1000,1000,86028908,1552,1552,1581,1581
51533545,1000,1000,1000,1000,86128868,1552,1553,1581,1581
51536044,1000,1000,1000,1000,86228828,1553,1553,1580,1580
51538543,1000,1000,1000,1000,86328788,1554,1554,1578,1578
51541042,1000,1000,1000,1000,86428748,1555,1556,1575,1575
51543541,1000,1000,1000,1000,86528708,1558,1558,1574,1574
51546040,1000,1000,1000,1000,86628668,1560,1561,1572,1572
51548539,1000,1000,1000,1000,86728628,1562,1562,1569,1569
51551038,1000,1000,1000,1000,86828588,1564,1564,1567,1567
51553537,1000,1000,1000,1000,86928548,1566,1566,1566,1565
51556036,1000,1000,1000,1000,87028508,1568,1567,1564,1564
51558535,1000,1000,1000,1000,87128468,1569,1568,1563,1564
51561034,1000,1000,1000,1000,87228428,1568,1569,1563,1563
51563533,1000,1000,1000,1000,87328388,1568,1568,1562,1562
51566032,1000,1000,1000,1000,87428348,1568,1568,1563,1563
51568531,1000,1000,1000,1000,87528308,1568,1568,1563,1563
51571030,1000,1000,1000,1000,87628268,1567,1567,1564,1564
51573529,1000,1000,1000,1000,87728228,1567,1566,1565,1565
51576028,1000,1000,1000,1000,87828188,1566,1566,1567,1567
51578527,1000,1000,1000,1000,87928981,1565,1565,1567,1567
51581026,1000,1000,1000,1000,88028941,1565,1565,1568,1568
51583525,1000,1000,1000,1000,88128901,1564,1564,1568,1568
51586024,1000,1000,1000,1000,88228861,1564,1564,1568,1568
51588523,1000,1000,1000,1000,88328821,1563,1563,1568,1568
51591022,1000,1000,1000,1000,88428781,1563,1563,1568,1568
51593521,1000,1000,1000,1000,88528741,1564,1564,1568,1568
51596020,1000,1000,1000,1000,88628701,1563,1564,1568,1568
51598519,1000,1000,1000,1000,88728661,1564,1565,1567,1567
51601018,1000,1000,1000,1000,88828621,1565,1565,1567,1567
51603517,1000,1000,1000,1000,88928581,1565,1566,1567,1567
51606016,1000,1000,1000,1000,89028541,1566,1566,1566,1566
51608515,1000,1000,1000,1000,89128501,1567,1567,1566,1566
51611014,1000,1000,1000,1000,89228461,1567,1567,1566,1566
51613513,1000,1000,1000,1000,89328421,1567,1567,1566,1566
51616012,1000,1000,1000,1000,89428381,1567,1567,1565,1565
51618511,1000,1000,1000,1000,89528341,1567,1567,1566,1566
51621010,1000,1000,1000,1000,89628301,1567,1567,1566,1566
51623509,1000,1000,1000,1000,89728261,1567,1567,1565,1565
51626008,1000,1000,1000,1000,89828221,1567,1567,1566,1566
51628507,1000,1000,1000,1000,89928181,1567,1567,1566,1566
51631006,1000,1000,1000,1000,90028974,1567,1567,1566,1566
51633505,1000,1000,1000,1000,90128934,1566,1566,1566,1566
51636004,1000,1000,1000,1000,90228894,1566,1566,1566,1566
51638503,1000,1000,1000,1000,90328854,1566,1566,1567,1567
51641002,1000,1000,1000,1000,90428814,1565,1565,1566,1566
51643501,1000,1000,1000,1000,90528774,1565,1565,1566,1566
51646000,1000,1000,1000,1000,90628734,1566,1566,1567,1567
51648499,1000,1000,1000,1000,90728694,1565,1565,1566,1566
51650998,1000,1000,1000,1000,90828654,1566,1566,1567,1567
51653497,1000,1000,1000,1000,90928614,1565,1565,1566,1566
51655996,1000,1000,1000,1000,91028574,1566,1566,1567,1567
51658495,1000,1000,1000,1000,91128534,1566,1566,1567,1567
51660994,1000,1000,1000,1000,91228494,1566,1566,1566,1566
51663493,1000,1000,1000,1000,91328454,1566,1566,1566,1566
51665992,1000,1000,1000,1000,91428414,1566,1566,1565,1565
51668491,1000,1000,1000,1000,91528374,1566,1566,1565,1565
51670990,1000,1000,1000,1000,91628334,1566,1566,1566,1566
51673489,1000,1000,1000,1000,91728294,1567,1567,1566,1566
51675988,1000,1000,1000,1000,91828254,1567,1567,1567,1567
51678487,1000,1000,1000,1000,91928214,1567,1567,1567,1567
51680986,1000,1000,1000,1000,92028174,1566,1567,1566,1566
51683485,1000,1000,1000,1000,92128967,1567,1567,1567,1567
51685984,1000,1000,1000,1000,92228927,1567,1567,1567,1567
51688483,1000,1000,1000,1000,92328887,1567,1567,1567,1567
51690982,1000,1000,1000,1000,92428847,1567,1567,1567,1567
51693481,1000,1000,1000,1000,92528807,1566,1566,1566,1566
51695980,1000,1000,1000,1000,92628767,1567,1567,1567,1567
51698479,1000,1000,1000,1000,92728727,1567,1567,1567,1567
51700978,1000,1000,1000,1000,92828687,1568,1568,1568,1568
51703477,1000,1000,1000,1000,92928647,1567,1567,1567,1567
51705976,1000,1000,1000,1000,93028607,1567,1567,1567,1567
51708475,1000,1000,1000,1000,93128567,1567,1567,1567,1567
51710974,1000,1000,1000,1000,93228527,1567,1567,1567,1567
51713473,1000,1000,1000,1000,93328487,1567,1566,1567,1567
51715972,1000,1000,1000,1000,93428447,1566,1566,1566,1566
51718471,1000,1000,1000,1000,93528407,1566,1566,1566,1566
51720970,1000,1000,1000,1000,93628367,1567,1567,1567,1567
51723469,1000,1000,1000,1000,93728327,1566,1566,1566,1566
51725968,1000,1000,1000,1000,93828287,1567,1567,1566,1566
51728467,1000,1000,1000,1000,93928247,1567,1567,1567,1567
51730966,1000,1000,1000,1000,94028207,1566,1566,1566,1566
51733465,1000,1000,1000,1000,94128167,1566,1566,1566,1566
51735964,1000,1000,1000,1000,94228960,1566,1566,1566,1566
51738463,1000,1000,1000,1000,94328920,1567,1567,1567,1567
51740962,1000,1000,1000,1000,94428880,1567,1567,1567,1567
51743461,1000,1000,1000,1000,94528840,1567,1567,1567,1567
51745960,1000,1000,1000,1000,94628800,1566,1566,1566,1566
51748459,1000,1000,1000,1000,94728760,1568,1567,1571,1564
51750958,1000,1000,1000,1000,94828720,1566,1566,1571,1562
51753457,1000,1000,1000,1000,94928680,1566,1565,1569,1562
51755956,1000,1000,1000,1000,95028640,1563,1563,1566,1562
51758455,1000,1000,1000,1000,95128600,1562,1562,1563,1562
51760954,1000,1000,1000,1000,95228560,1560,1560,1560,1562
51763453,1000,1000,1000,1000,95328520,1560,1560,1559,1562
51765952,1000,1000,1000,1000,95428480,1560,1561,1559,1561
51768451,1000,1000,1000,1000,95528440,1561,1561,1560,1561
51770950,1000,1000,1000,1000,95628400,1561,1561,1561,1560
51773449,1000,1000,1000,1000,95728360,1561,1561,1562,1560
51775948,1000,1000,1000,1000,95828320,1562,1561,1563,1559
51778447,1000,1000,1000,1000,95928280,1561,1561,1562,1560
51780946,1000,1000,1000,1000,96028240,1561,1561,1560,1563
51783445,1000,1000,1000,1000,96128200,1562,1562,1559,1565
51785944,1000,1000,1000,1000,96228160,1563,1563,1559,1566
51788443,1000,1000,1000,1000,96328953,1562,1562,1559,1565
51790942,1000,1000,1000,1000,96428913,1560,1560,1559,1561
51793441,1000,1000,1000,1000,96528873,1559,1559,1559,1558
51795940,1000,1000,1000,1000,96628833,1558,1559,1560,1556
51798439,1000,1000,1000,1000,96728793,1557,1557,1556,1557
51800938,1000,1000,1000,1000,96828753,1555,1554,1553,1555
51803437,1000,1000,1000,1000,96928713,1550,1550,1548,1551
51805936,1000,1000,1000,1000,97028673,1545,1545,1544,1545
51808435,1000,1000,1000,1000,97128633,1538,1538,1538,1538
51810934,1000,1000,1000,1000,97228593,1532,1532,1532,1532
51813433,1000,1000,1000,1000,97328553,1524,1525,1525,1525
51815932,1000,1000,1000,1000,97428513,1519,1519,1520,1519
51818431,1000,1000,1000,1000,97528473,1518,1518,1518,1518
51820930,1000,1000,1000,1000,97628433,1518,1517,1518,1518
51823429,1000,1000,1000,1000,97728393,1518,1518,1518,1519
51825928,1000,1000,1000,1000,97828353,1521,1522,1522,1522
51828427,1000,1000,1000,1000,97928313,1525,1525,1525,1525
51830926,1000,1000,1000,1000,98028273,1530,1530,1530,1530
51833425,1000,1000,1000,1000,98128233,1534,1534,1534,1535
51835924,1000,1000,1000,1000,98228193,1538,1538,1538,1538
51838423,1000,1000,1000,1000,98328986,1541,1541,1541,1541
51840922,1000,1000,1000,1000,98428946,1543,1543,1544,1543
51843421,1000,1000,1000,1000,98528906,1545,1545,1545,1545
51845920,1000,1000,1000,1000,98628866,1546,1546,1546,1546
51848419,1000,1000,1000,1000,98728826,1547,1547,1547,1547
51850918,1000,1000,1000,1000,98828786,1548,1548,1548,1548
51853417,1000,1000,1000,1000,98928746,1548,1548,1548,1548
51855916,1000,1000,1000,1000,99028706,1547,1547,1547,1547
51858415,1000,1000,1000,1000,99128666,1547,1547,1546,1547
51860914,1000,1000,1000,1000,99228626,1546,1546,1546,1546
51863413,1000,1000,1000,1000,99328586,1546,1547,1546,1546
51865912,1000,1000,1000,1000,99428546,1546,1547,1547,1546
51868411,1000,1000,1000,1000,99528506,1546,1546,1546,1545
51870910,1000,1000,1000,1000,99628466,1545,1545,1545,1545
51873409,1000,1000,1000,1000,99728426,1544,1544,1544,1544
51875908,1000,1000,1000,1000,99828386,1544,1544,1544,1544
51878407,1000,1000,1000,1000,99928346,1545,1544,1544,1545
51880906,1000,1000,1000,1000,100028306,1543,1544,1543,1544
51883405,1000,1000,1000,1000,100128266,1543,1543,1543,1544
51885904,1000,1000,1000,1000,100228226,1543,1544,1544,1543
51888403,1000,1000,1000,1000,100328186,1543,1543,1543,1543
51890902,1000,1000,1000,1000,100428979,1544,1544,1544,1543
51893401,1000,1000,1000,1000,100528939,1543,1543,1543,1543
51895900,1000,1000,1000,1000,100628899,1544,1544,1544,1544
51898399,1000,1000,1000,1000,100728859,1544,1544,1544,1544
51900898,1000,1000,1000,1000,100828819,1544,1544,1544,1544
51903397,1000,1000,1000,1000,100928779,1545,1544,1545,1544
51905896,1000,1000,1000,1000,101028739,1544,1544,1544,1544
51908395,1000,1000,1000,1000,101128699,1544,1545,1544,1544
51910894,1000,1000,1000,1000,101228659,1543,1544,1543,1543
51913393,1000,1000,1000,1000,101328619,1543,1543,1543,1543
51915892,1000,1000,1000,1000,101428579,1544,1544,1544,1544
51918391,1000,1000,1000,1000,101528539,1544,1544,1544,1544
51920890,1000,1000,1000,1000,101628499,1544,1544,1544,1544
51923389,1000,1000,1000,1000,101728459,1545,1544,1544,1544
51925888,1000,1000,1000,1000,101828419,1544,1544,1544,1544
51928387,1000,1000,1000,1000,101928379,1543,1543,1543,1543
51930886,1000,1000,1000,1000,102028339,1543,1543,1543,1543
51933385,1000,1000,1000,1000,102128299,1544,1543,1544,1544
51935884,1000,1000,1000,1000,102228259,1544,1544,1545,1544
51938383,1000,1000,1000,1000,102328219,1544,1544,1544,1545
51940882,1000,1000,1000,1000,102428179,1544,1544,1544,1544
51943381,1000,1000,1000,1000,102528972,1544,1544,1544,1545
51945880,1000,1000,1000,1000,102628932,1545,1545,1545,1545
51948379,1000,1000,1000,1000,102728892,1545,1545,1545,1545
51950878,1000,1000,1000,1000,102828852,1544,1545,1545,1545
51953377,1000,1000,1000,1000,102928812,1544,1544,1544,1544
51955876,1000,1000,1000,1000,103028772,1543,1543,1543,1543
51958375,1000,1000,1000,1000,103128732,1544,1543,1543,1544
51960874,1000,1000,1000,1000,103228692,1544,1544,1544,1544
51963373,1000,1000,1000,1000,103328652,1544,1544,1544,1544
51965872,1000,1000,1000,1000,103428612,1543,1544,1544,1544
51968371,1000,1000,1000,1000,103528572,1544,1544,1544,1544
51970870,1000,1000,1000,1000,103628532,1544,1544,1544,1544
51973369,1000,1000,1000,1000,103728492,1544,1544,1544,1544
51975868,1000,1000,1000,1000,103828452,1544,1544,1544,1543
51978367,1000,1000,1000,1000,103928412,1544,1544,1544,1544
51980866,1000,1000,1000,1000,104028372,1544,1544,1544,1544
51983365,1000,1000,1000,1000,104128332,1545,1544,1544,1545
51985864,1000,1000,1000,1000,104228292,1544,1544,1544,1543
51988363,1000,1000,1000,1000,104328252,1544,1544,1544,1544
51990862,1000,1000,1000,1000,104428212,1543,1544,1544,1543
51993361,1000,1000,1000,1000,104528172,1543,1544,1543,1544
51995860,1000,1000,1000,1000,104628965,1543,1544,1543,1544
51998359,1000,1000,1000,1000,104728925,1544,1544,1543,1544
52000858,1000,1000,1000,1000,104828885,1544,1544,1544,1545
52003357,1000,1000,1000,1000,104928845,1545,1545,1545,1545
52005856,1000,1000,1000,1000,105028805,1544,1544,1544,1544
52008355,1000,1000,1000,1000,105128765,1544,1544,1544,1544
52010854,1000,1000,1000,1000,105228725,1544,1544,1545,1544
52013353,1000,1000,1000,1000,105328685,1545,1544,1545,1545
52015852,1000,1000,1000,1000,105428645,1545,1545,1545,1545
52018351,1000,1000,1000,1000,105528605,1545,1545,1545,1545
52020850,1000,1000,1000,1000,105628565,1544,1544,1544,1544
52023349,1000,1000,1000,1000,105728525,1544,1543,1543,1544
52025848,1000,1000,1000,1000,105828485,1544,1544,1544,1544
52028347,1000,1000,1000,1000,105928445,1544,1544,1544,1544
52030846,1000,1000,1000,1000,106028405,1544,1545,1545,1544
52033345,1000,1000,1000,1000,106128365,1544,1544,1544,1544
52035844,1000,1000,1000,1000,106228325,1544,1545,1545,1545
52038343,1000,1000,1000,1000,106328285,1544,1544,1544,1544
52040842,1000,1000,1000,1000,106428245,1544,1544,1544,1544
52043341,1000,1000,1000,1000,106528205,1544,1544,1544,1545
52045840,1000,1000,1000,1000,106628165,1544,1544,1544,1544
52048339,1000,1000,1000,1000,106728958,1544,1544,1544,1544
52050838,1000,1000,1000,1000,106828918,1544,1544,1544,1544
52053337,1000,1000,1000,1000,106928878,1544,1543,1544,1543
52055836,1000,1000,1000,1000,107028838,1544,1544,1544,1544
52058335,1000,1000,1000,1000,107128798,1533,1532,1533,1532
52060834,1000,1000,1000,1000,107228758,1408,1408,1409,1407
52063333,1000,1000,1000,1000,107328718,1354,1352,1354,1352
52065832,1000,1000,1000,1000,107428678,1337,1337,1338,1336
52068331,1000,1000,1000,1000,107528638,1325,1324,1325,1324
52070830,1000,1000,1000,1000,107628598,1300,1300,1301,1299
52073329,1000,1000,1000,1000,107728558,1262,1260,1262,1260
52075828,1000,1000,1000,1000,107828518,1214,1213,1215,1212
52078327,1000,1000,1000,1000,107928478,1161,1160,1162,1159
52080826,1000,1000,1000,1000,108028438,1104,1103,1106,1102
52083325,1000,1000,1000,1000,108128398,1042,1040,1044,1040
52085824,1000,1000,1000,1000,108228358,970,969,973,967
52088323,1000,1000,1000,1000,108328318,884,881,886,880
52090822,1000,1000,1000,1000,108428278,829,826,832,824
52093321,1000,1000,1000,1000,108528238,829,826,832,824
52095820,1000,1000,1000,1000,108628198,853,824,828,850
52098319,1000,1000,1000,1000,108728158,853,824,829,850
52100818,1000,1000,1000,1000,108828951,846,824,830,842
52103317,1000,1000,1000,1000,108928911,846,824,830,842
52105816,1000,1000,1000,1000,109028871,848,824,830,843
52108315,1000,1000,1000,1000,109128831,850,824,830,845
52110814,1000,1000,1000,1000,109228791,852,824,830,847
52113313,1000,1000,1000,1000,109328751,854,824,831,849
52115812,1000,1000,1000,1000,109428711,836,824,828,833
52118311,1000,1000,1000,1000,109528671,841,824,829,837
52120810,1000,1000,1000,1000,109628631,842,824,829,838
52123309,1000,1000,1000,1000,109728591,843,824,829,839
52125808,1000,1000,1000,1000,109828551,843,824,829,840
52128307,1000,1000,1000,1000,109928511,1000,1000,1000,1000
52130806,1000,1000,1000,1000,110028471,1000,1000,1000,1000
52133305,1000,1000,1000,1000,110128431,1000,1000,1000,1000
52135804,1000,1000,1000,1000,110228391,1000,1000,1000,1000
52138303,1000,1000,1000,1000,110328351,1000,1000,1000,1000
52140802,1000,1000,1000,1000,110428311,1000,1000,1000,1000
52143301,1000,1000,1000,1000,110528271,1000,1000,1000,1000
52145800,1000,1000,1000,1000,110628231,1000,1000,1000,1000
52148299,1000,1000,1000,1000,110728191,1000,1000,1000,1000
52150798,1000,1000,1000,1000,110828984,1000,1000,1000,1000
52153297,1000,1000,1000,1000,110928944,1000,1000,1000,1000
52155796,1000,1000,1000,1000,111028904,1000,1000,1000,1000
52158295,1000,1000,1000,1000,111128864,1000,1000,1000,1000
52160794,1000,1000,1000,1000,111228824,1000,1000,1000,1000
52163293,1000,1000,1000,1000,111328784,1000,1000,1000,1000
52165792,1000,1000,1000,1000,111428744,1000,1000,1000,1000
52168291,1000,1000,1000,1000,111528704,1000,1000,1000,1000
52170790,1000,1000,1000,1000,111628664,1000,1000,1000,1000
52173289,1000,1000,1000,1000,111728624,1000,1000,1000,1000
52175788,1000,1000,1000,1000,111828584,1000,1000,1000,1000
52178287,1000,1000,1000,1000,111928544,1000,1000,1000,1000
52180786,1000,1000,1000,1000,112028504,1000,1000,1000,1000
52183285,1000,1000,1000,1000,112128464,1000,1000,1000,1000
52185784,1000,1000,1000,1000,112228424,1000,1000,1000,1000
52188283,1000,1000,1000,1000,112328384,1000,1000,1000,1000
52190782,1000,1000,1000,1000,112428344,1000,1000,1000,1000
52193281,1000,1000,1000,1000,112528304,1000,1000,1000,1000
52195780,1000,1000,1000,1000,112628264,1000,1000,1000,1000
52198279,1000,1000,1000,1000,112728224,1000,1000,1000,1000
52200778,1000,1000,1000,1000,112828184,1000,1000,1000,1000
52203277,1000,1000,1000,1000,112928977,1000,1000,1000,1000
52205776,1000,1000,1000,1000,113028937,1000,1000,1000,1000
52208275,1000,1000,1000,1000,113128897,1000,1000,1000,1000
52210774,1000,1000,1000,1000,113228857,1000,1000,1000,1000
52213273,1000,1000,1000,1000,113328817,1000,1000,1000,1000
52215772,1000,1000,1000,1000,113428777,1000,1000,1000,1000
52218271,1000,1000,1000,1000,113528737,1000,1000,1000,1000
52220770,1000,1000,1000,1000,113628697,1000,1000,1000,1000
52223269,1000,1000,1000,1000,113728657,1000,1000,1000,1000
52225768,1000,1000,1000,1000,113828617,1000,1000,1000,1000
52228267,1000,1000,1000,1000,113928577,1000,1000,1000,1000
52230766,1000,1000,1000,1000,114028537,1000,1000,1000,1000
52233265,1000,1000,1000,1000,114128497,1000,1000,1000,1000
52235764,1000,1000,1000,1000,114228457,1000,1000,1000,1000
52238263,1000,1000,1000,1000,114328417,1000,1000,1000,1000
52240762,1000,1000,1000,1000,114428377,1000,1000,1000,1000
52243261,1000,1000,1000,1000,114528337,1000,1000,1000,1000
52245760,1000,1000,1000,1000,114628297,1000,1000,1000,1000
52248259,1000,1000,1000,1000,114728257,1000,1000,1000,1000
52250758,1000,1000,1000,1000,114828217,1000,1000,1000,1000
52253257,1000,1000,1000,1000,114928177,1000,1000,1000,1000
52255756,1000,1000,1000,1000,115028970,1000,1000,1000,1000
52258255,1000,1000,1000,1000,115128930,1000,1000,1000,1000
52260754,1000,1000,1000,1000,115228890,1000,1000,1000,1000
52263253,1000,1000,1000,1000,115328850,1000,1000,1000,1000
52265752,1000,1000,1000,1000,115428810,1000,1000,1000,1000
52268251,1000,1000,1000,1000,115528770,1000,1000,1000,1000
52270750,1000,1000,1000,1000,115628730,1000,1000,1000,1000
52273249,1000,1000,1000,1000,115728690,1000,1000,1000,1000
52275748,1000,1000,1000,1000,115828650,1000,1000,1000,1000
52278247,1000,1000,1000,1000,115928610,1000,1000,1000,1000
52280746,1000,1000,1000,1000,116028570,1000,1000,1000,1000
52283245,1000,1000,1000,1000,116128530,1000,1000,1000,1000
52285744,1000,1000,1000,1000,116228490,1000,1000,1000,1000
52288243,1000,1000,1000,1000,116328450,1000,1000,1000,1000
52290742,1000,1000,1000,1000,116428410,1000,1000,1000,1000
52293241,1000,1000,1000,1000,116528370,1000,1000,1000,1000
52295740,1000,1000,1000,1000,116628330,1000,1000,1000,1000
52298239,1000,1000,1000,1000,116728290,1000,1000,1000,1000
52300738,1000,1000,1000,1000,116828250,1000,1000,1000,1000
52303237,1000,1000,1000,1000,116928210,1000,1000,1000,1000
52305736,1000,1000,1000,1000,,,,,
52308235,1000,1000,1000,1000,,,,,
52310734,1000,1000,1000,1000,,,,,
52313233,1000,1000,1000,1000,,,,,
52315732,1000,1000,1000,1000,,,,,
52318231,1000,1000,1000,1000,,,,,
52320730,1000,1000,1000,1000,,,,,
52323229,1000,1000,1000,1000,,,,,
52325728,1000,1000,1000,1000,,,,,
52328227,1000,1000,1000,1000,,,,,
52330726,1000,1000,1000,1000,,,,,
52333225,1000,1000,1000,1000,,,,,
52335724,1000,1000,1000,1000,,,,,
52338223,1000,1000,1000,1000,,,,,
52340722,1000,1000,1000,1000,,,,,
52343221,1000,1000,1000,1000,,,,,
52345720,1000,1000,1000,1000,,,,,
52348219,1000,1000,1000,1000,,,,,
52350718,1000,1000,1000,1000,,,,,
52353217,1000,1000,1000,1000,,,,,
52355716,1000,1000,1000,1000,,,,,
52358215,1000,1000,1000,1000,,,,,
52360714,1000,1000,1000,1000,,,,,
52363213,1000,1000,1000,1000,,,,,
52365712,1000,1000,1000,1000,,,,,
52368211,1000,1000,1000,1000,,,,,
52370710,1000,1000,1000,1000,,,,,
52373209,1000,1000,1000,1000,,,,,
52375708,1000,1000,1000,1000,,,,,
52378207,1000,1000,1000,1000,,,,,
52380706,1000,1000,1000,1000,,,,,
52383205,1000,1000,1000,1000,,,,,
52385704,1000,1000,1000,1000,,,,,
52388203,1000,1000,1000,1000,,,,,
52390702,1000,1000,1000,1000,,,,,
52393201,1000,1000,1000,1000,,,,,
52395700,1000,1000,1000,1000,,,,,
52398199,1000,1000,1000,1000,,,,,
52400698,1000,1000,1000,1000,,,,,
52403197,1000,1000,1000,1000,,,,,
52405696,1000,1000,1000,1000,,,,,
52408195,1000,1000,1000,1000,,,,,
52410694,1000,1000,1000,1000,,,,,
52413193,1000,1000,1000,1000,,,,,
52415692,1000,1000,1000,1000,,,,,
52418191,1000,1000,1000,1000,,,,,
52420690,1000,1000,1000,1000,,,,,
52423189,1000,1000,1000,1000,,,,,
52425688,1000,1000,1000,1000,,,,,
52428187,1000,1000,1000,1000,,,,,
52430686,1000,1000,1000,1000,,,,,
52433185,1000,1000,1000,1000,,,,,
52435684,1000,1000,1000,1000,,,,,
52438183,1000,1000,1000,1000,,,,,
52440682,1000,1000,1000,1000,,,,,
52443181,1000,1000,1000,1000,,,,,
52445680,1000,1000,1000,1000,,,,,
52448179,1000,1000,1000,1000,,,,,
52450678,1000,1000,1000,1000,,,,,
52453177,1000,1000,1000,1000,,,,,
52455676,1000,1000,1000,1000,,,,,
52458175,1000,1000,1000,1000,,,,,
52460674,1000,1000,1000,1000,,,,,
52463173,1000,1000,1000,1000,,,,,
52465672,1000,1000,1000,1000,,,,,
52468171,1000,1000,1000,1000,,,,,
52470670,1000,1000,1000,1000,,,,,
52473169,1000,1000,1000,1000,,,,,
52475668,1000,1000,1000,1000,,,,,
52478167,1000,1000,1000,1000,,,,,
52480666,1000,1000,1000,1000,,,,,
52483165,1000,1000,1000,1000,,,,,
52485664,1000,1000,1000,1000,,,,,
52488163,1000,1000,1000,1000,,,,,
52490662,1000,1000,1000,1000,,,,,
52493161,1000,1000,1000,1000,,,,,
52495660,1000,1000,1000,1000,,,,,
52498159,1000,1000,1000,1000,,,,,
52500658,1000,1000,1000,1000,,,,,
52503157,1000,1000,1000,1000,,,,,
52505656,1000,1000,1000,1000,,,,,
52508155,1000,1000,1000,1000,,,,,
52510654,1000,1000,1000,1000,,,,,
52513986,1000,1000,1000,1000,,,,,
52516485,1000,1000,1000,1000,,,,,
52518984,1000,1000,1000,1000,,,,,
52521483,1000,1000,1000,1000,,,,,
52523982,1000,1000,1000,1000,,,,,
52526481,1000,1000,1000,1000,,,,,
52528980,1000,1000,1000,1000,,,,,
52531479,1000,1000,1000,1000,,,,,
52533978,1000,1000,1000,1000,,,,,
52536477,1000,1000,1000,1000,,,,,
52538976,1000,1000,1000,1000,,,,,
52541475,1000,1000,1000,1000,,,,,
52543974,1000,1000,1000,1000,,,,,
52546473,1000,1000,1000,1000,,,,,
52548972,1000,1000,1000,1000,,,,,
52551471,1000,1000,1000,1000,,,,,
52553970,1000,1000,1000,1000,,,,,
52556469,1000,1000,1000,1000,,,,,
52558968,1000,1000,1000,1000,,,,,
52561467,1000,1000,1000,1000,,,,,
52563966,1000,1000,1000,1000,,,,,
52566465,1000,1000,1000,1000,,,,,
52568964,1000,1000,1000,1000,,,,,
52571463,1000,1000,1000,1000,,,,,
52573962,1000,1000,1000,1000,,,,,
52576461,1000,1000,1000,1000,,,,,
52578960,1000,1000,1000,1000,,,,,
52581459,1000,1000,1000,1000,,,,,
52583958,1000,1000,1000,1000,,,,,
52586457,1000,1000,1000,1000,,,,,
52588956,1000,1000,1000,1000,,,,,
52591455,1000,1000,1000,1000,,,,,
52593954,1000,1000,1000,1000,,,,,
52596453,1000,1000,1000,1000,,,,,
52598952,1000,1000,1000,1000,,,,,
52601451,1000,1000,1000,1000,,,,,
52603950,1000,1000,1000,1000,,,,,
52606449,1000,1000,1000,1000,,,,,
52608948,1000,1000,1000,1000,,,,,
52611447,1000,1000,1000,1000,,,,,
52613946,1000,1000,1000,1000,,,,,
52616445,1000,1000,1000,1000,,,,,
52618944,1000,1000,1000,1000,,,,,
52621443,1000,1000,1000,1000,,,,,
52623942,1000,1000,1000,1000,,,,,
52626441,1000,1000,1000,1000,,,,,
52628940,1000,1000,1000,1000,,,,,
52631439,1000,1000,1000,1000,,,,,
52633938,1000,1000,1000,1000,,,,,
52636437,1000,1000,1000,1000,,,,,
52638936,1000,1000,1000,1000,,,,,
52641435,1000,1000,1000,1000,,,,,
52643934,1000,1000,1000,1000,,,,,
52646433,1000,1000,1000,1000,,,,,
52648932,1000,1000,1000,1000,,,,,
52651431,1000,1000,1000,1000,,,,,
52653930,1000,1000,1000,1000,,,,,
52656429,1001,1001,1001,1001,,,,,
52658928,1002,1002,1002,1002,,,,,
52661427,1003,1003,1003,1003,,,,,
52663926,1003,1003,1003,1003,,,,,
52666425,1004,1004,1004,1004,,,,,
52668924,1005,1005,1005,1005,,,,,
52671423,1006,1006,1006,1006,,,,,
52673922,1006,1006,1006,1006,,,,,
52676421,1007,1007,1007,1007,,,,,
52678920,1008,1008,1008,1008,,,,,
52681419,1009,1009,1009,1009,,,,,
52683918,1009,1009,1009,1009,,,,,
52686417,1010,1010,1010,1010,,,,,
52688916,1011,1011,1011,1011,,,,,
52691415,1012,1012,1012,1012,,,,,
52693914,1012,1012,1012,1012,,,,,
52696413,1013,1013,1013,1013,,,,,
52698912,1014,1014,1014,1014,,,,,
52701411,1015,1015,1015,1015,,,,,
52703910,1015,1015,1015,1015,,,,,
52706409,1016,1016,1016,1016,,,,,
52708908,1017,1017,1017,1017,,,,,
52711407,1018,1018,1018,1018,,,,,
52713906,1018,1018,1018,1018,,,,,
52716405,1019,1019,1019,1019,,,,,
52718904,1020,1020,1020,1020,,,,,
52721403,1021,1021,1021,1021,,,,,
52723902,1021,1021,1021,1021,,,,,
52726401,1022,1022,1022,1022,,,,,
52728900,1023,1023,1023,1023,,,,,
52731399,1024,1024,1024,1024,,,,,
52733898,1024,1024,1024,1024,,,,,
52736397,1025,1025,1025,1025,,,,,
52738896,1026,1026,1026,1026,,,,,
52741395,1027,1027,1027,1027,,,,,
52743894,1027,1027,1027,1027,,,,,
52746393,1028,1028,1028,1028,,,,,
52748892,1029,1029,1029,1029,,,,,
52751391,1030,1030,1030,1030,,,,,
52753890,1030,1030,1030,1030,,,,,
52756389,1031,1031,1031,1031,,,,,
52758888,1032,1032,1032,1032,,,,,
52761387,1033,1033,1033,1033,,,,,
52763886,1033,1033,1033,1033,,,,,
52766385,1034,1034,1034,1034,,,,,
52768884,1035,1035,1035,1035,,,,,
52771383,1036,1036,1036,1036,,,,,
52773882,1036,1036,1036,1036,,,,,
52776381,1037,1037,1037,1037,,,,,
52778880,1038,1038,1038,1038,,,,,
52781379,1039,1039,1039,1039,,,,,
52783878,1039,1039,1039,1039,,,,,
52786377,1040,1040,1040,1040,,,,,
52788876,1041,1041,1041,1041,,,,,
52791375,1042,1042,1042,1042,,,,,
52793874,1042,1042,1042,1042,,,,,
52796373,1043,1043,1043,1043,,,,,
52798872,1044,1044,1044,1044,,,,,
52801371,1045,1045,1045,1045,,,,,
52803870,1045,1045,1045,1045,,,,,
52806369,1046,1046,1046,1046,,,,,
52808868,1047,1047,1047,1047,,,,,
52811367,1048,1048,1048,1048,,,,,
52813866,1048,1048,1048,1048,,,,,
52816365,1049,1049,1049,1049,,,,,
52818864,1050,1050,1050,1050,,,,,
52821363,1051,1051,1051,1051,,,,,
52823862,1051,1051,1051,1051,,,,,
52826361,1052,1052,1052,1052,,,,,
52828860,1053,1053,1053,1053,,,,,
52831359,1054,1054,1054,1054,,,,,
52833858,1054,1054,1054,1054,,,,,
52836357,1055,1055,1055,1055,,,,,
52838856,1056,1056,1056,1056,,,,,
52841355,1057,1057,1057,1057,,,,,
52843854,1057,1057,1057,1057,,,,,
52846353,1058,1058,1058,1058,,,,,
52848852,1059,1059,1059,1059,,,,,
52851351,1060,1060,1060,1060,,,,,
52853850,1060,1060,1060,1060,,,,,
52856349,1061,1061,1061,1061,,,,,
52858848,1062,1062,1062,1062,,,,,
52861347,1063,1063,1063,1063,,,,,
52863846,1063,1063,1063,1063,,,,,
52866345,1064,1064,1064,1064,,,,,
52868844,1065,1065,1065,1065,,,,,
52871343,1066,1066,1066,1066,,,,,
52873842,1066,1066,1066,1066,,,,,
52876341,1067,1067,1067,1067,,,,,
52878840,1068,1068,1068,1068,,,,,
52881339,1069,1069,1069,1069,,,,,
52883838,1069,1069,1069,1069,,,,,
52886337,1070,1070,1070,1070,,,,,
52888836,1071,1071,1071,1071,,,,,
52891335,1072,1072,1072,1072,,,,,
52893834,1072,1072,1072,1072,,,,,
52896333,1073,1073,1073,1073,,,,,
52898832,1074,1074,1074,1074,,,,,
52901331,1075,1075,1075,1075,,,,,
52903830,1075,1075,1075,1075,,,,,
52906329,1076,1076,1076,1076,,,,,
52908828,1077,1077,1077,1077,,,,,
52911327,1078,1078,1078,1078,,,,,
52913826,1078,1078,1078,1078,,,,,
52916325,1079,1079,1079,1079,,,,,
52918824,1080,1080,1080,1080,,,,,
52921323,1081,1081,1081,1081,,,,,
52923822,1081,1081,1081,1081,,,,,
52926321,1082,1082,1082,1082,,,,,
52928820,1083,1083,1083,1083,,,,,
52931319,1084,1084,1084,1084,,,,,
52933818,1084,1084,1084,1084,,,,,
52936317,1085,1085,1085,1085,,,,,
52938816,1086,1086,1086,1086,,,,,
52941315,1087,1087,1087,1087,,,,,
52943814,1087,1087,1087,1087,,,,,
52946313,1088,1088,1088,1088,,,,,
52948812,1089,1089,1089,1089,,,,,
52951311,1090,1090,1090,1090,,,,,
52953810,1090,1090,1090,1090,,,,,
52956309,1091,1091,1091,1091,,,,,
52958808,1092,1092,1092,1092,,,,,
52961307,1093,1093,1093,1093,,,,,
52963806,1093,1093,1093,1093,,,,,
52966305,1094,1094,1094,1094,,,,,
52968804,1095,1095,1095,1095,,,,,
52971303,1096,1096,1096,1096,,,,,
52973802,1096,1096,1096,1096,,,,,
52976301,1097,1097,1097,1097,,,,,
52978800,1098,1098,1098,1098,,,,,
52981299,1099,1099,1099,1099,,,,,
52983798,1099,1099,1099,1099,,,,,
52986297,1100,1100,1100,1100,,,,,
52988796,1101,1101,1101,1101,,,,,
52991295,1101,1101,1101,1101,,,,,
52993794,1102,1102,1102,1102,,,,,
52996293,1103,1103,1103,1103,,,,,
52998792,1104,1104,1104,1104,,,,,
53001291,1104,1104,1104,1104,,,,,
53003790,1105,1105,1105,1105,,,,,
53006289,1106,1106,1106,1106,,,,,
53008788,1107,1107,1107,1107,,,,,
53011287,1107,1107,1107,1107,,,,,
53013786,1108,1108,1108,1108,,,,,
53016285,1109,1109,1109,1109,,,,,
53018784,1110,1110,1110,1110,,,,,
53021283,1110,1110,1110,1110,,,,,
53023782,1111,1111,1111,1111,,,,,
53026281,1112,1112,1112,1112,,,,,
53028780,1113,1113,1113,1113,,,,,
53031279,1113,1113,1113,1113,,,,,
53033778,1114,1114,1114,1114,,,,,
53036277,1115,1115,1115,1115,,,,,
53038776,1116,1116,1116,1116,,,,,
53041275,1116,1116,1116,1116,,,,,
53043774,1117,1117,1117,1117,,,,,
53046273,1118,1118,1118,1118,,,,,
53048772,1119,1119,1119,1119,,,,,
53051271,1119,1119,1119,1119,,,,,
53053770,1120,1120,1120,1120,,,,,
53056269,1121,1121,1121,1121,,,,,
53058768,1122,1122,1122,1122,,,,,
53061267,1122,1122,1122,1122,,,,,
53063766,1123,1123,1123,1123,,,,,
53066265,1124,1124,1124,1124,,,,,
53068764,1125,1125,1125,1125,,,,,
53071263,1125,1125,1125,1125,,,,,
53073762,1126,1126,1126,1126,,,,,
53076261,1127,1127,1127,1127,,,,,
53078760,1128,1128,1128,1128,,,,,
53081259,1128,1128,1128,1128,,,,,
53083758,1129,1129,1129,1129,,,,,
53086257,1130,1130,1130,1130,,,,,
53088756,1131,1131,1131,1131,,,,,
53091255,1131,1131,1131,1131,,,,,
53093754,1132,1132,1132,1132,,,,,
53096253,1133,1133,1133,1133,,,,,
53098752,1134,1134,1134,1134,,,,,
53101251,1134,1134,1134,1134,,,,,
53103750,1135,1135,1135,1135,,,,,
53106249,1136,1136,1136,1136,,,,,
53108748,1137,1137,1137,1137,,,,,
53111247,1137,1137,1137,1137,,,,,
53113746,1138,1138,1138,1138,,,,,
53116245,1139,1139,1139,1139,,,,,
53118744,1140,1140,1140,1140,,,,,
53121243,1140,1140,1140,1140,,,,,
53123742,1141,1141,1141,1141,,,,,
53126241,1142,1142,1142,1142,,,,,
53128740,1143,1143,1143,1143,,,,,
53131239,1143,1143,1143,1143,,,,,
53133738,1144,1144,1144,1144,,,,,
53136237,1145,1145,1145,1145,,,,,
53138736,1146,1146,1146,1146,,,,,
53141235,1146,1146,1146,1146,,,,,
53143734,1147,1147,1147,1147,,,,,
53146233,1148,1148,1148,1148,,,,,
53148732,1149,1149,1149,1149,,,,,
53151231,1149,1149,1149,1149,,,,,
53153730,1150,1150,1150,1150,,,,,
53156229,1162,1153,1154,1162,,,,,
53158728,1169,1161,1162,1170,,,,,
53161227,1177,1169,1170,1178,,,,,
53163726,1185,1177,1178,1186,,,,,
53166225,1193,1185,1185,1193,,,,,
53168724,1200,1192,1193,1201,,,,,
53171223,1207,1200,1200,1208,,,,,
53173722,1215,1207,1208,1215,,,,,
53176221,1222,1214,1215,1222,,,,,
53178720,1229,1222,1222,1229,,,,,
53181219,1235,1229,1229,1236,,,,,
53183718,1242,1235,1236,1243,,,,,
53186217,1249,1242,1243,1249,,,,,
53188716,1256,1249,1249,1256,,,,,
53191215,1262,1255,1256,1263,,,,,
53193714,1269,1262,1262,1269,,,,,
53196213,1275,1268,1269,1275,,,,,
53198712,1281,1275,1275,1282,,,,,
53201211,1287,1281,1281,1288,,,,,
53203710,1294,1287,1288,1294,,,,,
53206209,1300,1293,1294,1300,,,,,
53208708,1306,1299,1300,1306,,,,,
53211207,1312,1305,1306,1312,,,,,
53213706,1317,1311,1312,1318,,,,,
53216205,1323,1317,1318,1324,,,,,
53218704,1329,1323,1323,1329,,,,,
53221203,1335,1329,1329,1335,,,,,
53223702,1340,1334,1335,1341,,,,,
53226201,1346,1340,1341,1346,,,,,
53228700,1352,1346,1346,1352,,,,,
53231199,1357,1351,1352,1357,,,,,
53233698,1362,1357,1357,1363,,,,,
53236197,1368,1362,1363,1368,,,,,
53238696,1373,1367,1368,1374,,,,,
53241195,1379,1373,1373,1379,,,,,
53243694,1384,1378,1379,1384,,,,,
53246193,1389,1383,1384,1389,,,,,
53248692,1394,1389,1389,1395,,,,,
53251191,1399,1394,1394,1400,,,,,
53253690,1404,1399,1399,1405,,,,,
53256189,1410,1404,1404,1410,,,,,
53258688,1415,1409,1409,1415,,,,,
53261187,1420,1414,1414,1420,,,,,
53263686,1424,1419,1419,1425,,,,,
53266185,1429,1424,1424,1430,,,,,
53268684,1434,1429,1429,1435,,,,,
53271183,1439,1434,1434,1439,,,,,
53273682,1444,1438,1439,1444,,,,,
53276181,1449,1443,1444,1449,,,,,
53278680,1453,1448,1448,1454,,,,,
53281179,1458,1453,1453,1458,,,,,
53283678,1463,1457,1458,1463,,,,,
53286177,1468,1462,1462,1468,,,,,
53288676,1472,1467,1467,1472,,,,,
53291175,1477,1471,1472,1477,,,,,
53293674,1481,1476,1476,1482,,,,,
53296173,1486,1480,1481,1486,,,,,
53298672,1490,1485,1485,1491,,,,,
53301171,1495,1489,1490,1495,,,,,
53303670,1499,1494,1494,1500,,,,,
53306169,1504,1498,1499,1504,,,,,
53308668,1508,1503,1503,1508,,,,,
53311167,1512,1507,1507,1513,,,,,
53313666,1517,1511,1512,1517,,,,,
53316165,1521,1516,1516,1521,,,,,
53318664,1525,1520,1520,1526,,,,,
53321163,1530,1524,1525,1530,,,,,
53323662,1534,1529,1529,1534,,,,,
53326161,1538,1533,1533,1538,,,,,
53328660,1542,1537,1537,1543,,,,,
53331159,1547,1541,1542,1547,,,,,
53333658,1551,1546,1546,1551,,,,,
53336157,1555,1550,1550,1555,,,,,
53338656,1559,1554,1554,1559,,,,,
53341155,1563,1558,1558,1563,,,,,
53343654,1567,1562,1562,1567,,,,,
53346153,1571,1566,1566,1571,,,,,
53348652,1575,1570,1570,1575,,,,,
53351151,1579,1574,1575,1579,,,,,
53353650,1583,1578,1579,1583,,,,,
53356149,1587,1582,1583,1587,,,,,
53358648,1591,1586,1587,1591,,,,,
53361147,1595,1590,1591,1595,,,,,
53363646,1599,1594,1594,1599,,,,,
53366145,1603,1598,1598,1603,,,,,
53368644,1607,1602,1602,1607,,,,,
53371143,1611,1606,1606,1611,,,,,
53373642,1614,1610,1610,1615,,,,,
53376141,1618,1614,1614,1618,,,,,
53378640,1622,1617,1618,1622,,,,,
53381139,1626,1621,1622,1626,,,,,
53383638,1630,1625,1625,1630,,,,,
53386137,1633,1629,1629,1634,,,,,
53388636,1637,1632,1633,1637,,,,,
53391135,1641,1636,1637,1641,,,,,
53393634,1645,1640,1640,1645,,,,,
53396133,1648,1644,1644,1648,,,,,
53398632,1652,1647,1648,1652,,,,,
53401131,1656,1651,1652,1656,,,,,
53403630,1659,1655,1655,1659,,,,,
53406129,1663,1658,1659,1663,,,,,
53408628,1667,1662,1662,1667,,,,,
53411127,1670,1666,1666,1670,,,,,
53413626,1674,1669,1670,1674,,,,,
53416125,1677,1673,1673,1678,,,,,
53418624,1681,1676,1677,1681,,,,,
53421123,1685,1680,1680,1685,,,,,
53423622,1688,1684,1684,1688,,,,,
53426121,1692,1687,1688,1692,,,,,
53428620,1695,1691,1691,1695,,,,,
53431119,1699,1694,1695,1699,,,,,
53433618,1702,1698,1698,1702,,,,,
53436117,1706,1701,1702,1706,,,,,
53438616,1709,1705,1705,1709,,,,,
53441115,1713,1708,1708,1713,,,,,
53443614,1716,1711,1712,1716,,,,,
53446113,1720,1715,1715,1720,,,,,
53448612,1723,1718,1719,1723,,,,,
53451111,1726,1722,1722,1726,,,,,
53453610,1730,1725,1726,1730,,,,,
53456109,1733,1728,1729,1733,,,,,
53458608,1737,1732,1732,1737,,,,,
53461107,1740,1735,1736,1740,,,,,
53463606,1743,1739,1739,1743,,,,,
53466105,1747,1742,1742,1747,,,,,
53468604,1750,1745,1746,1750,,,,,
53471103,1753,1749,1749,1753,,,,,
53473602,1757,1752,1752,1757,,,,,
53476101,1760,1755,1756,1760,,,,,
53478600,1763,1758,1759,1763,,,,,
53481099,1767,1762,1762,1767,,,,,
53483598,1770,1765,1765,1770,,,,,
53486097,1773,1768,1769,1773,,,,,
53488596,1776,1771,1772,1776,,,,,
53491095,1780,1775,1775,1780,,,,,
53493594,1783,1778,1778,1783,,,,,
53496093,1786,1781,1782,1786,,,,,
53498592,1789,1784,1785,1789,,,,,
53501091,1792,1787,1788,1792,,,,,
53503590,1796,1791,1791,1796,,,,,
53506089,1799,1794,1794,1799,,,,,
53508588,1802,1797,1797,1802,,,,,
53511087,1805,1800,1801,1805,,,,,
53513586,1808,1803,1804,1808,,,,,
53516085,1812,1806,1807,1811,,,,,
53518584,1815,1809,1810,1815,,,,,
53521083,1818,1813,1813,1818,,,,,
53523582,1821,1816,1816,1821,,,,,
53526081,1824,1819,1819,1824,,,,,
53528580,1827,1822,1822,1827,,,,,
53531079,1830,1825,1826,1830,,,,,
53533578,1833,1828,1829,1833,,,,,
53536077,1836,1831,1832,1836,,,,,
53538576,1839,1834,1835,1839,,,,,
53541075,1842,1837,1838,1842,,,,,
53543574,1845,1840,1841,1845,,,,,
53546073,1849,1843,1844,1848,,,,,
53548572,1852,1846,1847,1851,,,,,
53551071,1855,1849,1850,1854,,,,,
53553570,1858,1852,1853,1857,,,,,
53556069,1861,1855,1856,1860,,,,,
53558568,1863,1858,1859,1863,,,,,
53561067,1866,1861,1862,1866,,,,,
53563566,1869,1864,1865,1869,,,,,
53566065,1872,1867,1868,1872,,,,,
53568564,1875,1870,1871,1875,,,,,
53571063,1878,1873,1874,1878,,,,,
53573562,1881,1876,1877,1881,,,,,
53576061,1884,1879,1880,1884,,,,,
53578560,1887,1882,1883,1887,,,,,
53581059,1890,1885,1886,1890,,,,,
53583558,1893,1888,1889,1893,,,,,
53586057,1896,1891,1891,1896,,,,,
53588556,1899,1894,1894,1898,,,,,
53591055,1901,1897,1897,1901,,,,,
53593554,1903,1898,1898,1902,,,,,
53596053,1902,1897,1897,1901,,,,,
53598552,1901,1896,1896,1901,,,,,
53601051,1900,1895,1896,1900,,,,,
53603550,1899,1894,1895,1899,,,,,
53606049,1898,1893,1894,1898,,,,,
53608548,1897,1892,1893,1897,,,,,
53611047,1896,1892,1892,1896,,,,,
53613546,1896,1891,1892,1896,,,,,
53616045,1895,1890,1891,1895,,,,,
53618544,1895,1890,1890,1894,,,,,
53621043,1894,1889,1890,1894,,,,,
53623542,1894,1889,1890,1893,,,,,
53626041,1893,1888,1889,1893,,,,,
53628540,1893,1888,1889,1893,,,,,
53631039,1893,1888,1889,1893,,,,,
53633538,1893,1888,1889,1893,,,,,
53636037,1893,1888,1889,1893,,,,,
53638536,1893,1888,1889,1893,,,,,
53641035,1893,1888,1889,1893,,,,,
53643534,1893,1888,1889,1893,,,,,
53646033,1894,1889,1889,1893,,,,,
53648532,1894,1889,1890,1893,,,,,
53651031,1894,1889,1890,1894,,,,,
53653530,1894,1890,1890,1894,,,,,
53656029,1894,1890,1891,1894,,,,,
53658528,1894,1890,1891,1894,,,,,
53661027,1894,1890,1891,1894,,,,,
53663526,1894,1890,1891,1893,,,,,
53666025,1893,1889,1890,1893,,,,,
53668524,1893,1889,1890,1893,,,,,
53671023,1892,1888,1889,1892,,,,,
53673522,1891,1888,1889,1891,,,,,
53676021,1890,1887,1888,1890,,,,,
53678520,1889,1886,1887,1889,,,,,
53681019,1888,1885,1885,1888,,,,,
53683518,1887,1883,1884,1886,,,,,
53686017,1885,1882,1883,1885,,,,,
53688516,1883,1880,1881,1883,,,,,
53691015,1882,1878,1879,1881,,,,,
53693514,1880,1877,1877,1880,,,,,
53696013,1878,1875,1875,1878,,,,,
53698512,1876,1873,1873,1875,,,,,
53701011,1873,1870,1871,1873,,,,,
53703510,1871,1868,1869,1871,,,,,
53706009,1868,1866,1866,1868,,,,,
53708508,1866,1863,1864,1866,,,,,
53711007,1863,1861,1861,1863,,,,,
53713506,1860,1858,1858,1860,,,,,
53716005,1858,1855,1856,1858,,,,,
53718504,1855,1852,1853,1855,,,,,
53721003,1852,1849,1850,1852,,,,,
53723502,1849,1846,1847,1849,,,,,
53726001,1846,1843,1844,1846,,,,,
53728500,1843,1840,1841,1843,,,,,
53730999,1840,1837,1838,1840,,,,,
53733498,1836,1834,1835,1836,,,,,
53735997,1833,1831,1831,1833,,,,,
53738496,1830,1828,1828,1830,,,,,
53740995,1827,1825,1825,1827,,,,,
53743494,1823,1821,1822,1823,,,,,
53745993,1820,1818,1819,1820,,,,,
53748492,1817,1815,1815,1817,,,,,
53750991,1813,1812,1812,1814,,,,,
53753490,1810,1809,1809,1810,,,,,
53755989,1807,1805,1806,1807,,,,,
53758488,1804,1802,1802,1804,,,,,
53760987,1800,1799,1799,1800,,,,,
53763486,1797,1795,1796,1797,,,,,
53765985,1794,1792,1793,1794,,,,,
53768484,1790,1789,1789,1791,,,,,
53770983,1787,1786,1786,1787,,,,,
53773482,1784,1782,1783,1784,,,,,
53775981,1781,1779,1780,1781,,,,,
53778480,1777,1776,1776,1777,,,,,
53780979,1774,1773,1773,1774,,,,,
53783478,1771,1770,1770,1771,,,,,
53785977,1768,1767,1767,1768,,,,,
53788476,1764,1763,1764,1765,,,,,
53790975,1761,1760,1761,1761,,,,,
53793474,1758,1757,1758,1758,,,,,
53795973,1755,1754,1754,1755,,,,,
53798472,1752,1751,1751,1752,,,,,
53800971,1749,1748,1748,1749,,,,,
53803470,1746,1745,1745,1746,,,,,
53805969,1743,1742,1742,1743,,,,,
53808468,1739,1739,1739,1740,,,,,
53810967,1736,1736,1736,1737,,,,,
53813466,1733,1733,1733,1734,,,,,
53815965,1730,1730,1730,1731,,,,,
53818464,1727,1728,1728,1728,,,,,
53820963,1725,1724,1724,1725,,,,,
53823462,1722,1721,1721,1723,,,,,
53825961,1719,1718,1718,1720,,,,,
53828460,1716,1715,1715,1717,,,,,
53830959,1714,1712,1712,1714,,,,,
53833458,1711,1709,1709,1711,,,,,
53835957,1708,1706,1706,1708,,,,,
53838456,1705,1703,1703,1705,,,,,
53840955,1702,1701,1701,1703,,,,,
53843454,1699,1698,1698,1700,,,,,
53845953,1697,1696,1695,1697,,,,,
53848452,1694,1693,1693,1695,,,,,
53850951,1691,1691,1690,1692,,,,,
53853450,1689,1688,1688,1690,,,,,
53855949,1686,1686,1685,1687,,,,,
53858448,1684,1684,1683,1685,,,,,
53860947,1681,1681,1680,1683,,,,,
53863446,1679,1679,1678,1681,,,,,
53865945,1677,1677,1676,1679,,,,,
53868444,1675,1675,1673,1677,,,,,
53870943,1673,1673,1671,1675,,,,,
53873442,1671,1671,1669,1673,,,,,
53875941,1669,1669,1667,1671,,,,,
