TimeUS,M1,M2,M3,M4,TimeUS,C1,C2,C3,C4
48483932,1000,1000,1000,1000,48528914,1000,1000,1000,1000
48486431,1000,1000,1000,1000,48628874,1000,1000,1000,1000
48488930,1000,1000,1000,1000,48728834,1000,1000,1000,1000
48491429,1000,1000,1000,1000,48828794,1000,1000,1000,1000
48493928,1000,1000,1000,1000,48928754,1000,1000,1000,1000
48496427,1000,1000,1000,1000,49028714,1000,1000,1000,1000
48498926,1000,1000,1000,1000,49128674,1000,1000,1000,1000
48501425,1000,1000,1000,1000,49228634,1000,1000,1000,1000
48503924,1000,1000,1000,1000,49328594,1000,1000,1000,1000
48506423,1000,1000,1000,1000,49428554,1000,1000,1000,1000
48508922,1000,1000,1000,1000,49528514,1000,1000,1000,1000
48511421,1000,1000,1000,1000,49628474,1000,1000,1000,1000
48513920,1000,1000,1000,1000,49728434,1000,1000,1000,1000
48516419,1000,1000,1000,1000,49828394,1000,1000,1000,1000
48518918,1000,1000,1000,1000,49928354,1000,1000,1000,1000
48521417,1000,1000,1000,1000,50028314,1000,1000,1000,1000
48523916,1000,1000,1000,1000,50128274,1000,1000,1000,1000
48526415,1000,1000,1000,1000,50228234,1000,1000,1000,1000
48528914,1000,1000,1000,1000,50328194,1000,1000,1000,1000
48531413,1000,1000,1000,1000,50428154,1000,1000,1000,1000
48533912,1000,1000,1000,1000,50528947,1013,1013,1013,1013
48536411,1000,1000,1000,1000,50628907,1043,1043,1043,1043
48538910,1000,1000,1000,1000,50728867,1073,1073,1073,1073
48541409,1000,1000,1000,1000,50828827,1103,1103,1103,1103
48543908,1000,1000,1000,1000,50928787,1133,1133,1133,1133
48546407,1000,1000,1000,1000,51028747,1275,1269,1269,1275
48548906,1000,1000,1000,1000,51128707,1486,1481,1481,1486
48551405,1000,1000,1000,1000,51228667,1648,1644,1644,1648
48553904,1000,1000,1000,1000,51328627,1785,1782,1782,1785
48556403,1000,1000,1000,1000,51428587,1907,1903,1903,1907
48558902,1000,1000,1000,1000,51528547,1890,1888,1888,1890
48561401,1000,1000,1000,1000,51628507,1759,1759,1759,1759
48563900,1000,1000,1000,1000,51728467,1659,1661,1661,1660
48566399,1000,1000,1000,1000,51828427,1627,1630,1630,1627
48568898,1000,1000,1000,1000,51928387,1633,1625,1624,1633
48571397,1000,1000,1000,1000,52028347,1629,1630,1623,1635
48573896,1000,1000,1000,1000,52128307,1627,1628,1622,1633
48576395,1000,1000,1000,1000,52228267,1621,1622,1620,1623
48578894,1000,1000,1000,1000,52328227,1615,1616,1617,1614
48581393,1000,1000,1000,1000,52428187,1613,1612,1617,1609
48583892,1000,1000,1000,1000,52528980,1613,1611,1616,1607
48586391,1000,1000,1000,1000,52628940,1615,1614,1618,1611
48588890,1000,1000,1000,1000,52728900,1616,1616,1617,1614
48591389,1000,1000,1000,1000,52828860,1584,1585,1592,1577
48593888,1000,1000,1000,1000,52928820,1570,1571,1577,1565
48596387,1000,1000,1000,1000,53028780,1559,1560,1560,1559
48598886,1000,1000,1000,1000,53128740,1550,1550,1545,1555
48601385,1000,1000,1000,1000,53228700,1543,1543,1533,1553
48603884,1000,1000,1000,1000,53328660,1536,1536,1527,1545
48606383,1000,1000,1000,1000,53428620,1530,1530,1525,1535
48608882,1000,1000,1000,1000,53528580,1527,1527,1525,1528
48611381,1000,1000,1000,1000,53628540,1525,1525,1526,1524
48613880,1000,1000,1000,1000,53728500,1528,1527,1530,1525
48616379,1000,1000,1000,1000,53828460,1530,1530,1533,1527
48618878,1000,1000,1000,1000,53928420,1534,1534,1537,1531
48621377,1000,1000,1000,1000,54028380,1538,1538,1541,1536
48623876,1000,1000,1000,1000,54128340,1542,1542,1543,1541
48626375,1000,1000,1000,1000,54228300,1544,1544,1545,1544
48628874,1000,1000,1000,1000,54328260,1547,1547,1547,1548
48631373,1000,1000,1000,1000,54428220,1550,1551,1550,1552
48633872,1000,1000,1000,1000,54528180,1554,1553,1552,1555
48636371,1000,1000,1000,1000,54628973,1553,1553,1557,1560
48638870,1000,1000,1000,1000,54728933,1555,1555,1560,1562
48641369,1000,1000,1000,1000,54828893,1557,1558,1563,1563
48643868,1000,1000,1000,1000,54928853,1560,1560,1564,1564
48646367,1000,1000,1000,1000,55028813,1563,1563,1565,1565
48648866,1000,1000,1000,1000,55128773,1565,1565,1566,1565
48651365,1000,1000,1000,1000,55228733,1567,1567,1566,1565
48653864,1000,1000,1000,1000,55328693,1569,1569,1566,1567
48656363,1000,1000,1000,1000,55428653,1570,1570,1566,1566
48658862,1000,1000,1000,1000,55528613,1571,1571,1567,1568
48661361,1000,1000,1000,1000,55628573,1572,1572,1568,1568
48663860,1000,1000,1000,1000,55728533,1573,1573,1570,1570
48666359,1000,1000,1000,1000,55828493,1574,1574,1571,1571
48668858,1000,1000,1000,1000,55928453,1575,1575,1573,1573
48671357,1000,1000,1000,1000,56028413,1575,1575,1574,1573
48673856,1000,1000,1000,1000,56128373,1574,1574,1575,1573
48676355,1000,1000,1000,1000,56228333,1575,1575,1576,1574
48678854,1000,1000,1000,1000,56328293,1575,1575,1576,1575
48681353,1000,1000,1000,1000,56428253,1575,1574,1576,1576
48683852,1000,1000,1000,1000,56528213,1575,1575,1576,1576
48686351,1000,1000,1000,1000,56628173,1574,1574,1575,1575
48688850,1000,1000,1000,1000,56728966,1574,1574,1575,1575
48691349,1000,1000,1000,1000,56828926,1575,1575,1576,1576
48693848,1000,1000,1000,1000,56928886,1576,1576,1577,1576
48696347,1000,1000,1000,1000,57028846,1577,1577,1577,1577
48698846,1000,1000,1000,1000,57128806,1577,1576,1577,1577
48701345,1000,1000,1000,1000,57228766,1576,1576,1576,1576
48703844,1000,1000,1000,1000,57328726,1577,1577,1577,1577
48706343,1000,1000,1000,1000,57428686,1578,1578,1577,1577
48708842,1000,1000,1000,1000,57528646,1578,1578,1577,1578
48711341,1000,1000,1000,1000,57628606,1578,1578,1578,1578
48713840,1000,1000,1000,1000,57728566,1579,1578,1578,1578
48716339,1000,1000,1000,1000,57828526,1578,1578,1578,1578
48718838,1000,1000,1000,1000,57928486,1579,1579,1579,1579
48721337,1000,1000,1000,1000,58028446,1579,1579,1579,1579
48723836,1000,1000,1000,1000,58128406,1580,1579,1579,1579
48726335,1000,1000,1000,1000,58228366,1579,1579,1578,1579
48728834,1000,1000,1000,1000,58328326,1580,1579,1579,1580
48731333,1000,1000,1000,1000,58428286,1578,1578,1578,1578
48733832,1000,1000,1000,1000,58528246,1579,1580,1579,1579
48736331,1000,1000,1000,1000,58628206,1579,1579,1580,1579
48738830,1000,1000,1000,1000,58728166,1579,1579,1579,1579
48741329,1000,1000,1000,1000,58828959,1579,1579,1580,1579
48743828,1000,1000,1000,1000,58928919,1579,1579,1579,1579
48746327,1000,1000,1000,1000,59028879,1579,1578,1579,1579
48748826,1000,1000,1000,1000,59128839,1580,1580,1579,1580
48751325,1000,1000,1000,1000,59228799,1580,1580,1580,1580
48753824,1000,1000,1000,1000,59328759,1580,1580,1580,1580
48756323,1000,1000,1000,1000,59428719,1580,1580,1580,1580
48758822,1000,1000,1000,1000,59528679,1580,1580,1580,1580
48761321,1000,1000,1000,1000,59628639,1581,1581,1581,1581
48763820,1000,1000,1000,1000,59728599,1580,1580,1580,1580
48766319,1000,1000,1000,1000,59828559,1581,1581,1581,1581
48768818,1000,1000,1000,1000,59928519,1582,1582,1581,1582
48771317,1000,1000,1000,1000,60028479,1581,1581,1581,1581
48773816,1000,1000,1000,1000,60128439,1581,1581,1581,1581
48776315,1000,1000,1000,1000,60228399,1580,1580,1580,1580
48778814,1000,1000,1000,1000,60328359,1581,1581,1581,1581
48781313,1000,1000,1000,1000,60428319,1580,1581,1581,1581
48783812,1000,1000,1000,1000,60528279,1582,1582,1582,1582
48786311,1000,1000,1000,1000,60628239,1581,1582,1582,1582
48788810,1000,1000,1000,1000,60728199,1581,1581,1582,1581
48791309,1000,1000,1000,1000,60828159,1580,1581,1587,1573
48793808,1000,1000,1000,1000,60928952,1580,1582,1585,1573
48796307,1000,1000,1000,1000,61028912,1578,1581,1576,1573
48798806,1000,1000,1000,1000,61128872,1577,1580,1567,1572
48801305,1000,1000,1000,1000,61228832,1577,1578,1560,1567
48803804,1000,1000,1000,1000,61328792,1577,1578,1556,1563
48806303,1000,1000,1000,1000,61428752,1578,1577,1555,1558
48808802,1000,1000,1000,1000,61528712,1579,1578,1555,1556
48811301,1000,1000,1000,1000,61628672,1579,1578,1557,1554
48813800,1000,1000,1000,1000,61728632,1578,1578,1557,1553
48816299,1000,1000,1000,1000,61828592,1577,1577,1556,1553
48818798,1000,1000,1000,1000,61928552,1575,1577,1555,1554
48821297,1000,1000,1000,1000,62028512,1575,1576,1554,1554
48823796,1000,1000,1000,1000,62128472,1575,1576,1552,1554
48826295,1000,1000,1000,1000,62228432,1575,1576,1551,1552
48828794,1000,1000,1000,1000,62328392,1576,1577,1549,1550
48831293,1000,1000,1000,1000,62428352,1577,1579,1547,1547
48833792,1000,1000,1000,1000,62528312,1580,1581,1544,1544
48836291,1000,1000,1000,1000,62628272,1583,1584,1543,1542
48838790,1000,1000,1000,1000,62728232,1587,1588,1541,1540
48841289,1000,1000,1000,1000,62828192,1591,1592,1539,1538
48843788,1000,1000,1000,1000,62928985,1592,1592,1535,1535
48846287,1000,1000,1000,1000,63028945,1595,1594,1534,1535
48848786,1000,1000,1000,1000,63128905,1595,1594,1535,1536
48851285,1000,1000,1000,1000,63228865,1594,1594,1536,1538
48853784,1000,1000,1000,1000,63328825,1592,1591,1538,1541
48856283,1000,1000,1000,1000,63428785,1589,1588,1544,1547
48858782,1000,1000,1000,1000,63528745,1583,1580,1552,1555
48861281,1000,1000,1000,1000,63628705,1574,1571,1561,1564
48863780,1000,1000,1000,1000,63728665,1565,1560,1574,1575
48866279,1000,1000,1000,1000,63828625,1553,1550,1586,1587
48868778,1000,1000,1000,1000,63928585,1543,1540,1598,1598
48871277,1000,1000,1000,1000,64028545,1534,1534,1607,1607
48873776,1000,1000,1000,1000,64128505,1530,1531,1614,1613
48876275,1000,1000,1000,1000,64228465,1528,1530,1615,1614
48878774,1000,1000,1000,1000,64328425,1531,1533,1614,1613
48881273,1000,1000,1000,1000,64428385,1537,1539,1609,1609
48883772,1000,1000,1000,1000,64528345,1544,1545,1603,1603
48886271,1000,1000,1000,1000,64628305,1552,1554,1595,1596
48888770,1000,1000,1000,1000,64728265,1561,1562,1588,1588
48891269,1000,1000,1000,1000,64828225,1570,1571,1581,1581
48893768,1000,1000,1000,1000,64928185,1578,1577,1575,1574
48896267,1000,1000,1000,1000,65028978,1584,1582,1571,1570
48898766,1000,1000,1000,1000,65128938,1587,1585,1568,1568
48901265,1000,1000,1000,1000,65228898,1589,1587,1567,1567
48903764,1000,1000,1000,1000,65328858,1588,1587,1567,1567
48906263,1000,1000,1000,1000,65428818,1586,1585,1568,1569
48908762,1000,1000,1000,1000,65528778,1584,1584,1571,1571
48911261,1000,1000,1000,1000,65628738,1581,1580,1573,1574
48913760,1000,1000,1000,1000,65728698,1579,1578,1577,1577
48916259,1000,1000,1000,1000,65828658,1576,1576,1580,1579
48918758,1000,1000,1000,1000,65928618,1574,1575,1583,1582
48921257,1000,1000,1000,1000,66028578,1573,1574,1584,1584
48923756,1000,1000,1000,1000,66128538,1571,1572,1583,1583
48926255,1000,1000,1000,1000,66228498,1572,1573,1583,1584
48928754,1000,1000,1000,1000,66328458,1573,1574,1583,1583
48931253,1000,1000,1000,1000,66428418,1490,1490,1493,1501
48933752,1000,1000,1000,1000,66528378,1534,1533,1536,1540
48936251,1000,1000,1000,1000,66628338,1560,1560,1563,1561
48938750,1000,1000,1000,1000,66728298,1580,1580,1584,1577
48941249,1000,1000,1000,1000,66828258,1595,1595,1597,1590
48943748,1000,1000,1000,1000,66928218,1604,1604,1604,1599
48946247,1000,1000,1000,1000,67028178,1608,1608,1606,1604
48948746,1000,1000,1000,1000,67128971,1610,1610,1605,1607
48951245,1000,1000,1000,1000,67228931,1609,1608,1603,1606
48953744,1000,1000,1000,1000,67328891,1606,1606,1601,1604
48956243,1000,1000,1000,1000,67428851,1603,1603,1599,1602
48958742,1000,1000,1000,1000,67528811,1600,1600,1597,1598
48961241,1000,1000,1000,1000,67628771,1597,1597,1595,1596
48963740,1000,1000,1000,1000,67728731,1593,1594,1594,1592
48966239,1000,1000,1000,1000,67828691,1591,1591,1591,1590
48968738,1000,1000,1000,1000,67928651,1588,1588,1589,1588
48971237,1000,1000,1000,1000,68028611,1585,1585,1587,1586
48973736,1000,1000,1000,1000,68128571,1582,1582,1583,1584
48976235,1000,1000,1000,1000,68228531,1579,1580,1581,1581
48978734,1000,1000,1000,1000,68328491,1578,1578,1579,1580
48981233,1000,1000,1000,1000,68428451,1577,1577,1578,1578
48983732,1000,1000,1000,1000,68528411,1577,1577,1578,1578
48986231,1000,1000,1000,1000,68628371,1577,1576,1577,1577
48988730,1000,1000,1000,1000,68728331,1578,1578,1578,1577
48991229,1000,1000,1000,1000,68828291,1577,1579,1583,1571
48993728,1000,1000,1000,1000,68928251,1576,1580,1581,1568
48996227,1000,1000,1000,1000,69028211,1576,1579,1573,1568
48998726,1000,1000,1000,1000,69128171,1575,1578,1564,1566
49001225,1000,1000,1000,1000,69228964,1576,1578,1558,1564
49003724,1000,1000,1000,1000,69328924,1577,1577,1553,1560
49006223,1000,1000,1000,1000,69428884,1578,1577,1551,1556
49008722,1000,1000,1000,1000,69528844,1580,1578,1551,1553
49011221,1000,1000,1000,1000,69628804,1580,1579,1552,1551
49013720,1000,1000,1000,1000,69728764,1580,1579,1553,1551
49016219,1000,1000,1000,1000,69828724,1580,1580,1554,1551
49018718,1000,1000,1000,1000,69928684,1578,1579,1553,1551
49021217,1000,1000,1000,1000,70028644,1577,1579,1552,1551
49023716,1000,1000,1000,1000,70128604,1577,1579,1552,1552
49026215,1000,1000,1000,1000,70228564,1578,1579,1551,1551
49028714,1000,1000,1000,1000,70328524,1578,1580,1550,1551
49031213,1000,1000,1000,1000,70428484,1580,1581,1549,1550
49033712,1000,1000,1000,1000,70528444,1581,1581,1547,1547
49036211,1000,1000,1000,1000,70628404,1583,1583,1545,1546
49038710,1000,1000,1000,1000,70728364,1585,1585,1544,1544
49041209,1000,1000,1000,1000,70828324,1587,1588,1542,1543
49043708,1000,1000,1000,1000,70928284,1589,1590,1541,1542
49046207,1000,1000,1000,1000,71028244,1591,1592,1540,1541
49048706,1000,1000,1000,1000,71128204,1593,1592,1541,1542
49051205,1000,1000,1000,1000,71228164,1592,1591,1544,1545
49053704,1000,1000,1000,1000,71328957,1590,1587,1548,1551
49056203,1000,1000,1000,1000,71428917,1585,1581,1555,1557
49058702,1000,1000,1000,1000,71528877,1578,1573,1563,1566
49061201,1000,1000,1000,1000,71628837,1569,1565,1573,1575
49063700,1000,1000,1000,1000,71728797,1559,1556,1583,1584
49066199,1000,1000,1000,1000,71828757,1551,1550,1594,1594
49068698,1000,1000,1000,1000,71928717,1543,1543,1601,1601
49071197,1000,1000,1000,1000,72028677,1538,1540,1608,1607
49073696,1000,1000,1000,1000,72128637,1537,1538,1611,1610
49076195,1000,1000,1000,1000,72228597,1538,1540,1611,1610
49078694,1000,1000,1000,1000,72328557,1541,1543,1609,1609
49081193,1000,1000,1000,1000,72428517,1546,1548,1606,1605
49083692,1000,1000,1000,1000,72528477,1553,1554,1601,1601
49086191,1000,1000,1000,1000,72628437,1560,1561,1595,1595
49088690,1000,1000,1000,1000,72728397,1567,1567,1589,1589
49091189,1000,1000,1000,1000,72828357,1573,1573,1582,1582
49093688,1000,1000,1000,1000,72928317,1579,1577,1576,1576
49096187,1000,1000,1000,1000,73028277,1583,1582,1571,1572
49098686,1000,1000,1000,1000,73128237,1587,1585,1569,1569
49101185,1000,1000,1000,1000,73228197,1587,1586,1567,1567
49103684,1000,1000,1000,1000,73328157,1588,1587,1567,1567
49106183,1000,1000,1000,1000,73428950,1587,1586,1568,1568
49108682,1000,1000,1000,1000,73528910,1586,1585,1570,1569
49111181,1000,1000,1000,1000,73628870,1583,1583,1572,1572
49113680,1000,1000,1000,1000,73728830,1581,1581,1575,1575
49116179,1000,1000,1000,1000,73828790,1579,1579,1578,1578
49118678,1000,1000,1000,1000,73928750,1576,1576,1579,1579
49121177,1000,1000,1000,1000,74028710,1574,1575,1582,1581
49123676,1000,1000,1000,1000,74128670,1573,1574,1583,1583
49126175,1000,1000,1000,1000,74228630,1573,1573,1584,1584
49128674,1000,1000,1000,1000,74328590,1573,1574,1585,1585
49131173,1000,1000,1000,1000,74428550,1575,1575,1585,1585
49133672,1000,1000,1000,1000,74528510,1575,1575,1584,1584
49136171,1000,1000,1000,1000,74628470,1576,1576,1583,1583
49138670,1000,1000,1000,1000,74728430,1577,1577,1582,1581
49141169,1000,1000,1000,1000,74828390,1578,1578,1580,1581
49143668,1000,1000,1000,1000,74928350,1580,1580,1580,1580
49146167,1000,1000,1000,1000,75028310,1581,1581,1579,1579
49148666,1000,1000,1000,1000,75128270,1582,1581,1578,1578
49151165,1000,1000,1000,1000,75228230,1582,1582,1577,1578
49153664,1000,1000,1000,1000,75328190,1582,1582,1578,1578
49156163,1000,1000,1000,1000,75428983,1583,1582,1578,1578
49158662,1000,1000,1000,1000,75528943,1583,1582,1579,1579
49161161,1000,1000,1000,1000,75628903,1582,1582,1578,1578
49163660,1000,1000,1000,1000,75728863,1582,1582,1580,1579
49166159,1000,1000,1000,1000,75828823,1582,1582,1581,1580
49168658,1000,1000,1000,1000,75928783,1581,1581,1581,1581
49171157,1000,1000,1000,1000,76028743,1580,1581,1581,1581
49173656,1000,1000,1000,1000,76128703,1580,1580,1581,1581
49176155,1000,1000,1000,1000,76228663,1579,1580,1582,1582
49178654,1000,1000,1000,1000,76328623,1579,1580,1582,1582
49181153,1000,1000,1000,1000,76428583,1579,1580,1582,1582
49183652,1000,1000,1000,1000,76528543,1579,1579,1581,1581
49186151,1000,1000,1000,1000,76628503,1579,1579,1581,1581
49188650,1000,1000,1000,1000,76728463,1579,1579,1580,1580
49191149,1000,1000,1000,1000,76828423,1579,1580,1580,1581
49193648,1000,1000,1000,1000,76928383,1581,1581,1584,1578
49196147,1000,1000,1000,1000,77028343,1580,1582,1587,1572
49198646,1000,1000,1000,1000,77128303,1579,1582,1581,1572
49201145,1000,1000,1000,1000,77228263,1577,1580,1572,1571
49203644,1000,1000,1000,1000,77328223,1576,1579,1564,1569
49206143,1000,1000,1000,1000,77428183,1576,1578,1558,1565
49208642,1000,1000,1000,1000,77528976,1578,1577,1555,1561
49211141,1000,1000,1000,1000,77628936,1579,1577,1553,1557
49213640,1000,1000,1000,1000,77728896,1580,1578,1554,1555
49216139,1000,1000,1000,1000,77828856,1580,1578,1555,1553
49218638,1000,1000,1000,1000,77928816,1579,1578,1556,1553
49221137,1000,1000,1000,1000,78028776,1578,1578,1555,1552
49223636,1000,1000,1000,1000,78128736,1577,1578,1554,1553
49226135,1000,1000,1000,1000,78228696,1575,1577,1553,1552
49228634,1000,1000,1000,1000,78328656,1575,1577,1552,1552
49231133,1000,1000,1000,1000,78428616,1576,1577,1551,1551
49233632,1000,1000,1000,1000,78528576,1577,1578,1549,1550
49236131,1000,1000,1000,1000,78628536,1579,1580,1548,1548
49238630,1000,1000,1000,1000,78728496,1581,1582,1547,1547
49241129,1000,1000,1000,1000,78828456,1583,1584,1544,1544
49243628,1000,1000,1000,1000,78928416,1586,1586,1542,1542
49246127,1000,1000,1000,1000,79028376,1588,1589,1540,1540
49248626,1000,1000,1000,1000,79128336,1591,1590,1539,1539
49251125,1000,1000,1000,1000,79228296,1591,1592,1537,1538
49253624,1000,1000,1000,1000,79328256,1593,1593,1538,1539
49256123,1000,1000,1000,1000,79428216,1593,1593,1539,1541
49258622,1000,1000,1000,1000,79528176,1592,1591,1543,1546
49261121,1000,1000,1000,1000,79628969,1588,1586,1548,1550
49263620,1000,1000,1000,1000,79728929,1582,1579,1555,1559
49266119,1000,1000,1000,1000,79828889,1575,1571,1566,1569
49268618,1000,1000,1000,1000,79928849,1565,1560,1576,1578
49271117,1000,1000,1000,1000,80028809,1555,1551,1587,1588
49273616,1000,1000,1000,1000,80128769,1546,1544,1598,1597
49276115,1000,1000,1000,1000,80228729,1538,1538,1606,1605
49278614,1000,1000,1000,1000,80328689,1534,1535,1612,1610
49281113,1000,1000,1000,1000,80428649,1531,1534,1613,1612
49283612,1000,1000,1000,1000,80528609,1534,1537,1612,1611
49286111,1000,1000,1000,1000,80628569,1539,1541,1609,1609
49288610,1000,1000,1000,1000,80728529,1545,1547,1605,1605
49291109,1000,1000,1000,1000,80828489,1552,1553,1599,1599
49293608,1000,1000,1000,1000,80928449,1560,1560,1593,1593
49296107,1000,1000,1000,1000,81028409,1568,1568,1587,1586
49298606,1000,1000,1000,1000,81128369,1574,1574,1580,1579
49301105,1000,1000,1000,1000,81228329,1581,1580,1574,1574
49303604,1000,1000,1000,1000,81328289,1585,1584,1569,1570
49306103,1000,1000,1000,1000,81428249,1587,1586,1566,1566
49308602,1000,1000,1000,1000,81528209,1590,1588,1565,1566
49311101,1000,1000,1000,1000,81628169,1589,1587,1565,1565
49313600,1000,1000,1000,1000,81728962,1589,1588,1568,1567
49316099,1000,1000,1000,1000,81828922,1586,1585,1569,1569
49318598,1000,1000,1000,1000,81928882,1584,1584,1573,1572
49321097,1000,1000,1000,1000,82028842,1581,1581,1576,1575
49323596,1000,1000,1000,1000,82128802,1578,1578,1578,1578
49326095,1000,1000,1000,1000,82228762,1576,1576,1581,1581
49328594,1000,1000,1000,1000,82328722,1574,1574,1582,1583
49331093,1000,1000,1000,1000,82428682,1573,1573,1584,1584
49333592,1000,1000,1000,1000,82528642,1571,1572,1584,1584
49336091,1000,1000,1000,1000,82628602,1572,1573,1585,1584
49338590,1000,1000,1000,1000,82728562,1573,1573,1584,1584
49341089,1000,1000,1000,1000,82828522,1573,1574,1583,1583
49343588,1000,1000,1000,1000,82928482,1575,1576,1583,1582
49346087,1000,1000,1000,1000,83028442,1577,1577,1581,1581
49348586,1000,1000,1000,1000,83128402,1579,1579,1580,1580
49351085,1000,1000,1000,1000,83228362,1580,1580,1579,1579
49353584,1000,1000,1000,1000,83328322,1581,1581,1578,1578
49356083,1000,1000,1000,1000,83428282,1582,1581,1577,1577
49358582,1000,1000,1000,1000,83528242,1582,1581,1577,1577
49361081,1000,1000,1000,1000,83628202,1582,1582,1577,1577
49363580,1000,1000,1000,1000,83728162,1582,1581,1576,1577
49366079,1000,1000,1000,1000,83828955,1581,1581,1576,1576
49368578,1000,1000,1000,1000,83928915,1581,1582,1578,1578
49371077,1000,1000,1000,1000,84028875,1581,1581,1578,1579
49373576,1000,1000,1000,1000,84128835,1581,1581,1580,1580
49376075,1000,1000,1000,1000,84228795,1580,1580,1580,1580
49378574,1000,1000,1000,1000,84328755,1581,1581,1582,1581
49381073,1000,1000,1000,1000,84428715,1580,1580,1582,1582
49383572,1000,1000,1000,1000,84528675,1580,1580,1582,1582
49386071,1000,1000,1000,1000,84628635,1580,1580,1582,1582
49388570,1000,1000,1000,1000,84728595,1580,1581,1582,1583
49391069,1000,1000,1000,1000,84828555,1580,1580,1582,1582
49393568,1000,1000,1000,1000,84928515,1580,1581,1587,1576
49396067,1000,1000,1000,1000,85028475,1579,1580,1586,1573
49398566,1000,1000,1000,1000,85128435,1577,1578,1580,1574
49401065,1000,1000,1000,1000,85228395,1575,1575,1573,1575
49403564,1000,1000,1000,1000,85328355,1572,1571,1567,1573
49406063,1000,1000,1000,1000,85428315,1569,1569,1564,1572
49408562,1000,1000,1000,1000,85528275,1567,1567,1563,1569
49411061,1000,1000,1000,1000,85628235,1566,1567,1564,1567
49413560,1000,1000,1000,1000,85728195,1566,1566,1566,1565
49416059,1000,1000,1000,1000,85828155,1566,1566,1566,1564
49418558,1000,1000,1000,1000,85928948,1566,1566,1566,1564
49421057,1000,1000,1000,1000,86028908,1565,1565,1566,1563
49423556,1000,1000,1000,1000,86128868,1564,1563,1565,1563
49426055,1000,1000,1000,1000,86228828,1564,1563,1564,1564
49428554,1000,1000,1000,1000,86328788,1563,1563,1563,1563
49431053,1000,1000,1000,1000,86428748,1562,1562,1562,1562
49433552,1000,1000,1000,1000,86528708,1561,1561,1561,1562
49436051,1000,1000,1000,1000,86628668,1560,1560,1561,1561
49438550,1000,1000,1000,1000,86728628,1560,1560,1561,1561
49441049,1000,1000,1000,1000,86828588,1560,1560,1561,1560
49443548,1000,1000,1000,1000,86928548,1559,1559,1560,1559
49446047,1000,1000,1000,1000,87028508,1559,1559,1560,1559
49448546,1000,1000,1000,1000,87128468,1559,1559,1560,1559
49451045,1000,1000,1000,1000,87228428,1559,1559,1560,1557
49453544,1000,1000,1000,1000,87328388,1558,1558,1558,1557
49456043,1000,1000,1000,1000,87428348,1559,1558,1559,1558
49458542,1000,1000,1000,1000,87528308,1559,1559,1560,1557
49461041,1000,1000,1000,1000,87628268,1559,1559,1560,1557
49463540,1000,1000,1000,1000,87728228,1559,1559,1559,1559
49466039,1000,1000,1000,1000,87828188,1560,1559,1557,1561
49468538,1000,1000,1000,1000,87928981,1560,1560,1557,1563
49471037,1000,1000,1000,1000,88028941,1561,1561,1557,1564
49473536,1000,1000,1000,1000,88128901,1561,1562,1559,1564
49476035,1000,1000,1000,1000,88228861,1561,1561,1560,1561
49478534,1000,1000,1000,1000,88328821,1560,1559,1561,1558
49481033,1000,1000,1000,1000,88428781,1560,1559,1560,1560
49483532,1000,1000,1000,1000,88528741,1557,1557,1556,1558
49486031,1000,1000,1000,1000,88628701,1552,1552,1552,1553
49488530,1000,1000,1000,1000,88728661,1547,1547,1547,1548
49491029,1000,1000,1000,1000,88828621,1542,1542,1542,1542
49493528,1000,1000,1000,1000,88928581,1535,1535,1535,1535
49496027,1000,1000,1000,1000,89028541,1528,1528,1528,1528
49498526,1000,1000,1000,1000,89128501,1522,1522,1522,1522
49501025,1000,1000,1000,1000,89228461,1520,1519,1520,1519
49503524,1000,1000,1000,1000,89328421,1519,1519,1519,1520
49506023,1000,1000,1000,1000,89428381,1520,1521,1520,1521
49508522,1000,1000,1000,1000,89528341,1523,1523,1523,1523
49511021,1000,1000,1000,1000,89628301,1526,1527,1527,1526
49513520,1000,1000,1000,1000,89728261,1532,1532,1532,1532
49516019,1000,1000,1000,1000,89828221,1536,1536,1536,1536
49518518,1000,1000,1000,1000,89928181,1539,1539,1539,1538
49521017,1000,1000,1000,1000,90028974,1541,1541,1541,1541
49523516,1000,1000,1000,1000,90128934,1543,1543,1543,1543
49526015,1000,1000,1000,1000,90228894,1543,1544,1544,1543
49528514,1000,1000,1000,1000,90328854,1546,1546,1546,1545
49531013,1000,1000,1000,1000,90428814,1546,1546,1546,1546
49533512,1000,1000,1000,1000,90528774,1547,1547,1547,1547
49536011,1000,1000,1000,1000,90628734,1547,1547,1547,1547
49538510,1000,1000,1000,1000,90728694,1547,1547,1547,1547
49541009,1000,1000,1000,1000,90828654,1547,1547,1547,1547
49543508,1000,1000,1000,1000,90928614,1546,1546,1546,1546
49546007,1000,1000,1000,1000,91028574,1546,1546,1546,1546
49548506,1000,1000,1000,1000,91128534,1546,1546,1546,1545
49551005,1000,1000,1000,1000,91228494,1545,1546,1545,1545
49553504,1000,1000,1000,1000,91328454,1546,1546,1546,1546
49556003,1000,1000,1000,1000,91428414,1545,1545,1545,1545
49558502,1000,1000,1000,1000,91528374,1546,1545,1545,1545
49561001,1000,1000,1000,1000,91628334,1545,1545,1545,1545
49563500,1000,1000,1000,1000,91728294,1545,1545,1545,1545
49565999,1000,1000,1000,1000,91828254,1544,1544,1544,1545
49568498,1000,1000,1000,1000,91928214,1545,1545,1545,1545
49570997,1000,1000,1000,1000,92028174,1545,1544,1545,1544
49573496,1000,1000,1000,1000,92128967,1544,1544,1544,1543
49575995,1000,1000,1000,1000,92228927,1543,1543,1543,1543
49578494,1000,1000,1000,1000,92328887,1544,1544,1544,1544
49580993,1000,1000,1000,1000,92428847,1544,1544,1544,1544
49583492,1000,1000,1000,1000,92528807,1544,1544,1544,1544
49585991,1000,1000,1000,1000,92628767,1544,1544,1544,1544
49588490,1000,1000,1000,1000,92728727,1544,1544,1544,1544
49590989,1000,1000,1000,1000,92828687,1545,1545,1545,1545
49593488,1000,1000,1000,1000,92928647,1544,1544,1544,1544
49595987,1000,1000,1000,1000,93028607,1544,1544,1544,1544
49598486,1000,1000,1000,1000,93128567,1544,1544,1544,1544
49600985,1000,1000,1000,1000,93228527,1544,1544,1544,1544
49603484,1000,1000,1000,1000,93328487,1543,1543,1543,1543
49605983,1000,1000,1000,1000,93428447,1544,1544,1544,1544
49608482,1000,1000,1000,1000,93528407,1544,1544,1544,1544
49610981,1000,1000,1000,1000,93628367,1544,1545,1544,1544
49613480,1000,1000,1000,1000,93728327,1544,1544,1544,1544
49615979,1000,1000,1000,1000,93828287,1544,1545,1545,1544
49618478,1000,1000,1000,1000,93928247,1544,1544,1545,1544
49620977,1000,1000,1000,1000,94028207,1544,1544,1544,1544
49623476,1000,1000,1000,1000,94128167,1544,1543,1544,1544
49625975,1000,1000,1000,1000,94228960,1544,1543,1544,1544
49628474,1000,1000,1000,1000,94328920,1545,1544,1544,1544
49630973,1000,1000,1000,1000,94428880,1544,1545,1545,1544
49633472,1000,1000,1000,1000,94528840,1545,1544,1545,1544
49635971,1000,1000,1000,1000,94628800,1544,1544,1544,1544
49638470,1000,1000,1000,1000,94728760,1544,1544,1544,1544
49640969,1000,1000,1000,1000,94828720,1545,1545,1545,1545
49643468,1000,1000,1000,1000,94928680,1545,1545,1545,1545
49645967,1000,1000,1000,1000,95028640,1545,1545,1545,1545
49648466,1000,1000,1000,1000,95128600,1544,1544,1544,1544
49650965,1000,1000,1000,1000,95228560,1545,1545,1545,1545
49653464,1000,1000,1000,1000,95328520,1544,1544,1544,1544
49655963,1000,1000,1000,1000,95428480,1544,1544,1544,1544
49658462,1000,1000,1000,1000,95528440,1544,1544,1544,1544
49660961,1000,1000,1000,1000,95628400,1544,1544,1544,1543
49663460,1000,1000,1000,1000,95728360,1544,1544,1544,1544
49665959,1000,1000,1000,1000,95828320,1543,1543,1544,1543
49668458,1000,1000,1000,1000,95928280,1544,1544,1544,1545
49670957,1000,1000,1000,1000,96028240,1544,1544,1544,1544
49673456,1000,1000,1000,1000,96128200,1544,1544,1544,1544
49675955,1000,1000,1000,1000,96228160,1544,1544,1543,1544
49678454,1000,1000,1000,1000,96328953,1544,1544,1544,1544
49680953,1000,1000,1000,1000,96428913,1544,1544,1544,1544
49683452,1000,1000,1000,1000,96528873,1544,1544,1544,1544
49685951,1000,1000,1000,1000,96628833,1544,1545,1544,1544
49688450,1000,1000,1000,1000,96728793,1545,1544,1545,1544
49690949,1000,1000,1000,1000,96828753,1544,1544,1544,1544
49693448,1000,1000,1000,1000,96928713,1544,1543,1543,1544
49695947,1000,1000,1000,1000,97028673,1544,1543,1544,1543
49698446,1000,1000,1000,1000,97128633,1544,1544,1544,1544
49700945,1000,1000,1000,1000,97228593,1544,1544,1544,1544
49703444,1000,1000,1000,1000,97328553,1545,1544,1544,1545
49705943,1000,1000,1000,1000,97428513,1544,1544,1544,1544
49708442,1000,1000,1000,1000,97528473,1544,1544,1544,1544
49710941,1000,1000,1000,1000,97628433,1544,1544,1544,1544
49713440,1000,1000,1000,1000,97728393,1544,1544,1544,1544
49715939,1000,1000,1000,1000,97828353,1545,1545,1545,1544
49718438,1000,1000,1000,1000,97928313,1544,1544,1544,1544
49720937,1000,1000,1000,1000,98028273,1545,1545,1545,1545
49723436,1000,1000,1000,1000,98128233,1543,1544,1543,1544
49725935,1000,1000,1000,1000,98228193,1544,1544,1544,1544
49728434,1000,1000,1000,1000,98328986,1544,1544,1543,1544
49730933,1000,1000,1000,1000,98428946,1544,1543,1544,1543
49733432,1000,1000,1000,1000,98528906,1544,1544,1544,1544
49735931,1000,1000,1000,1000,98628866,1545,1545,1545,1545
49738430,1000,1000,1000,1000,98728826,1544,1545,1544,1545
49740929,1000,1000,1000,1000,98828786,1533,1534,1534,1533
49743428,1000,1000,1000,1000,98928746,1384,1383,1383,1384
49745927,1000,1000,1000,1000,99028706,1314,1313,1313,1314
49748426,1000,1000,1000,1000,99128666,1294,1293,1293,1294
49750925,1000,1000,1000,1000,99228626,1281,1281,1281,1281
49753424,1000,1000,1000,1000,99328586,1251,1250,1250,1251
49755923,1000,1000,1000,1000,99428546,1200,1200,1200,1200
49758422,1000,1000,1000,1000,99528506,1135,1134,1135,1134
49760921,1000,1000,1000,1000,99628466,1057,1057,1058,1056
49763420,1000,1000,1000,1000,99728426,991,991,992,991
49765919,1000,1000,1000,1000,99828386,991,992,993,991
49768418,1000,1000,1000,1000,99928346,1006,991,991,1006
49770917,1000,1000,1000,1000,100028306,1020,991,991,1020
49773416,1000,1000,1000,1000,100128266,1011,991,992,1011
49775915,1000,1000,1000,1000,100228226,1010,991,992,1010
49778414,1000,1000,1000,1000,100328186,1011,991,992,1011
49780913,1000,1000,1000,1000,100428979,1013,991,992,1013
49783412,1000,1000,1000,1000,100528939,1015,991,992,1015
49785911,1000,1000,1000,1000,100628899,1017,991,992,1016
49788410,1000,1000,1000,1000,100728859,994,991,991,994
49790909,1000,1000,1000,1000,100828819,1005,991,992,1005
49793408,1000,1000,1000,1000,100928779,1006,991,992,1006
49795907,1000,1000,1000,1000,101028739,1007,991,992,1007
49798406,1000,1000,1000,1000,101128699,1008,991,992,1007
49800905,1000,1000,1000,1000,101228659,985,985,985,985
49803404,1000,1000,1000,1000,101328619,1000,1000,1000,1000
49805903,1000,1000,1000,1000,101428579,1000,1000,1000,1000
49808402,1000,1000,1000,1000,101528539,1000,1000,1000,1000
49810901,1000,1000,1000,1000,101628499,1000,1000,1000,1000
49813400,1000,1000,1000,1000,101728459,1000,1000,1000,1000
49815899,1000,1000,1000,1000,101828419,1000,1000,1000,1000
49818398,1000,1000,1000,1000,101928379,1000,1000,1000,1000
49820897,1000,1000,1000,1000,102028339,1000,1000,1000,1000
49823396,1000,1000,1000,1000,102128299,1000,1000,1000,1000
49825895,1000,1000,1000,1000,102228259,1000,1000,1000,1000
49828394,1000,1000,1000,1000,102328219,1000,1000,1000,1000
49830893,1000,1000,1000,1000,102428179,1000,1000,1000,1000
49833392,1000,1000,1000,1000,102528972,1000,1000,1000,1000
49835891,1000,1000,1000,1000,102628932,1000,1000,1000,1000
49838390,1000,1000,1000,1000,102728892,1000,1000,1000,1000
49840889,1000,1000,1000,1000,102828852,1000,1000,1000,1000
49843388,1000,1000,1000,1000,102928812,1000,1000,1000,1000
49845887,1000,1000,1000,1000,103028772,1000,1000,1000,1000
49848386,1000,1000,1000,1000,103128732,1000,1000,1000,1000
49850885,1000,1000,1000,1000,103228692,1000,1000,1000,1000
49853384,1000,1000,1000,1000,103328652,1000,1000,1000,1000
49855883,1000,1000,1000,1000,103428612,1000,1000,1000,1000
49858382,1000,1000,1000,1000,103528572,1000,1000,1000,1000
49860881,1000,1000,1000,1000,103628532,1000,1000,1000,1000
49863380,1000,1000,1000,1000,103728492,1000,1000,1000,1000
49865879,1000,1000,1000,1000,103828452,1000,1000,1000,1000
49868378,1000,1000,1000,1000,103928412,1000,1000,1000,1000
49870877,1000,1000,1000,1000,104028372,1000,1000,1000,1000
49873376,1000,1000,1000,1000,104128332,1000,1000,1000,1000
49875875,1000,1000,1000,1000,104228292,1000,1000,1000,1000
49878374,1000,1000,1000,1000,104328252,1000,1000,1000,1000
49880873,1000,1000,1000,1000,104428212,1000,1000,1000,1000
49883372,1000,1000,1000,1000,104528172,1000,1000,1000,1000
49885871,1000,1000,1000,1000,104628965,1000,1000,1000,1000
49888370,1000,1000,1000,1000,104728925,1000,1000,1000,1000
49890869,1000,1000,1000,1000,104828885,1000,1000,1000,1000
49893368,1000,1000,1000,1000,104928845,1000,1000,1000,1000
49895867,1000,1000,1000,1000,105028805,1000,1000,1000,1000
49898366,1000,1000,1000,1000,105128765,1000,1000,1000,1000
49900865,1000,1000,1000,1000,105228725,1000,1000,1000,1000
49903364,1000,1000,1000,1000,105328685,1000,1000,1000,1000
49905863,1000,1000,1000,1000,105428645,1000,1000,1000,1000
49908362,1000,1000,1000,1000,105528605,1000,1000,1000,1000
49910861,1000,1000,1000,1000,105628565,1000,1000,1000,1000
49913360,1000,1000,1000,1000,105728525,1000,1000,1000,1000
49915859,1000,1000,1000,1000,105828485,1000,1000,1000,1000
49918358,1000,1000,1000,1000,105928445,1000,1000,1000,1000
49920857,1000,1000,1000,1000,106028405,1000,1000,1000,1000
49923356,1000,1000,1000,1000,106128365,1000,1000,1000,1000
49925855,1000,1000,1000,1000,106228325,1000,1000,1000,1000
49928354,1000,1000,1000,1000,106328285,1000,1000,1000,1000
49930853,1000,1000,1000,1000,106428245,1000,1000,1000,1000
49933352,1000,1000,1000,1000,106528205,1000,1000,1000,1000
49935851,1000,1000,1000,1000,106628165,1000,1000,1000,1000
49938350,1000,1000,1000,1000,106728958,1000,1000,1000,1000
49940849,1000,1000,1000,1000,106828918,1000,1000,1000,1000
49943348,1000,1000,1000,1000,106928878,1000,1000,1000,1000
49945847,1000,1000,1000,1000,107028838,1000,1000,1000,1000
49948346,1000,1000,1000,1000,107128798,1000,1000,1000,1000
49950845,1000,1000,1000,1000,107228758,1000,1000,1000,1000
49953344,1000,1000,1000,1000,107328718,1000,1000,1000,1000
49955843,1000,1000,1000,1000,107428678,1000,1000,1000,1000
49958342,1000,1000,1000,1000,107528638,1000,1000,1000,1000
49960841,1000,1000,1000,1000,107628598,1000,1000,1000,1000
49963340,1000,1000,1000,1000,107728558,1000,1000,1000,1000
49965839,1000,1000,1000,1000,107828518,1000,1000,1000,1000
49968338,1000,1000,1000,1000,107928478,1000,1000,1000,1000
49970837,1000,1000,1000,1000,108028438,1000,1000,1000,1000
49973336,1000,1000,1000,1000,108128398,1000,1000,1000,1000
49975835,1000,1000,1000,1000,108228358,1000,1000,1000,1000
49978334,1000,1000,1000,1000,108328318,1000,1000,1000,1000
49980833,1000,1000,1000,1000,108428278,1000,1000,1000,1000
49983332,1000,1000,1000,1000,108528238,1000,1000,1000,1000
49985831,1000,1000,1000,1000,108628198,1000,1000,1000,1000
49988330,1000,1000,1000,1000,108728158,1000,1000,1000,1000
49990829,1000,1000,1000,1000,108828951,1000,1000,1000,1000
49993328,1000,1000,1000,1000,108928911,1000,1000,1000,1000
49995827,1000,1000,1000,1000,,,,,
49998326,1000,1000,1000,1000,,,,,
50000825,1000,1000,1000,1000,,,,,
50003324,1000,1000,1000,1000,,,,,
50005823,1000,1000,1000,1000,,,,,
50008322,1000,1000,1000,1000,,,,,
50010821,1000,1000,1000,1000,,,,,
50013320,1000,1000,1000,1000,,,,,
50015819,1000,1000,1000,1000,,,,,
50018318,1000,1000,1000,1000,,,,,
50020817,1000,1000,1000,1000,,,,,
50023316,1000,1000,1000,1000,,,,,
50025815,1000,1000,1000,1000,,,,,
50028314,1000,1000,1000,1000,,,,,
50030813,1000,1000,1000,1000,,,,,
50033312,1000,1000,1000,1000,,,,,
50035811,1000,1000,1000,1000,,,,,
50038310,1000,1000,1000,1000,,,,,
50040809,1000,1000,1000,1000,,,,,
50043308,1000,1000,1000,1000,,,,,
50045807,1000,1000,1000,1000,,,,,
50048306,1000,1000,1000,1000,,,,,
50050805,1000,1000,1000,1000,,,,,
50053304,1000,1000,1000,1000,,,,,
50055803,1000,1000,1000,1000,,,,,
50058302,1000,1000,1000,1000,,,,,
50060801,1000,1000,1000,1000,,,,,
50063300,1000,1000,1000,1000,,,,,
50065799,1000,1000,1000,1000,,,,,
50068298,1000,1000,1000,1000,,,,,
50070797,1000,1000,1000,1000,,,,,
50073296,1000,1000,1000,1000,,,,,
50075795,1000,1000,1000,1000,,,,,
50078294,1000,1000,1000,1000,,,,,
50080793,1000,1000,1000,1000,,,,,
50083292,1000,1000,1000,1000,,,,,
50085791,1000,1000,1000,1000,,,,,
50088290,1000,1000,1000,1000,,,,,
50090789,1000,1000,1000,1000,,,,,
50093288,1000,1000,1000,1000,,,,,
50095787,1000,1000,1000,1000,,,,,
50098286,1000,1000,1000,1000,,,,,
50100785,1000,1000,1000,1000,,,,,
50103284,1000,1000,1000,1000,,,,,
50105783,1000,1000,1000,1000,,,,,
50108282,1000,1000,1000,1000,,,,,
50110781,1000,1000,1000,1000,,,,,
50113280,1000,1000,1000,1000,,,,,
50115779,1000,1000,1000,1000,,,,,
50118278,1000,1000,1000,1000,,,,,
50120777,1000,1000,1000,1000,,,,,
50123276,1000,1000,1000,1000,,,,,
50125775,1000,1000,1000,1000,,,,,
50128274,1000,1000,1000,1000,,,,,
50130773,1000,1000,1000,1000,,,,,
50133272,1000,1000,1000,1000,,,,,
50135771,1000,1000,1000,1000,,,,,
50138270,1000,1000,1000,1000,,,,,
50140769,1000,1000,1000,1000,,,,,
50143268,1000,1000,1000,1000,,,,,
50145767,1000,1000,1000,1000,,,,,
50148266,1000,1000,1000,1000,,,,,
50150765,1000,1000,1000,1000,,,,,
50153264,1000,1000,1000,1000,,,,,
50155763,1000,1000,1000,1000,,,,,
50158262,1000,1000,1000,1000,,,,,
50160761,1000,1000,1000,1000,,,,,
50163260,1000,1000,1000,1000,,,,,
50165759,1000,1000,1000,1000,,,,,
50168258,1000,1000,1000,1000,,,,,
50170757,1000,1000,1000,1000,,,,,
50173256,1000,1000,1000,1000,,,,,
50175755,1000,1000,1000,1000,,,,,
50178254,1000,1000,1000,1000,,,,,
50180753,1000,1000,1000,1000,,,,,
50183252,1000,1000,1000,1000,,,,,
50185751,1000,1000,1000,1000,,,,,
50188250,1000,1000,1000,1000,,,,,
50190749,1000,1000,1000,1000,,,,,
50193248,1000,1000,1000,1000,,,,,
50195747,1000,1000,1000,1000,,,,,
50198246,1000,1000,1000,1000,,,,,
50200745,1000,1000,1000,1000,,,,,
50203244,1000,1000,1000,1000,,,,,
50205743,1000,1000,1000,1000,,,,,
50208242,1000,1000,1000,1000,,,,,
50210741,1000,1000,1000,1000,,,,,
50213240,1000,1000,1000,1000,,,,,
50215739,1000,1000,1000,1000,,,,,
50218238,1000,1000,1000,1000,,,,,
50220737,1000,1000,1000,1000,,,,,
50223236,1000,1000,1000,1000,,,,,
50225735,1000,1000,1000,1000,,,,,
50228234,1000,1000,1000,1000,,,,,
50230733,1000,1000,1000,1000,,,,,
50233232,1000,1000,1000,1000,,,,,
50235731,1000,1000,1000,1000,,,,,
50238230,1000,1000,1000,1000,,,,,
50240729,1000,1000,1000,1000,,,,,
50243228,1000,1000,1000,1000,,,,,
50245727,1000,1000,1000,1000,,,,,
50248226,1000,1000,1000,1000,,,,,
50250725,1000,1000,1000,1000,,,,,
50253224,1000,1000,1000,1000,,,,,
50255723,1000,1000,1000,1000,,,,,
50258222,1000,1000,1000,1000,,,,,
50260721,1000,1000,1000,1000,,,,,
50263220,1000,1000,1000,1000,,,,,
50265719,1000,1000,1000,1000,,,,,
50268218,1000,1000,1000,1000,,,,,
50270717,1000,1000,1000,1000,,,,,
50273216,1000,1000,1000,1000,,,,,
50275715,1000,1000,1000,1000,,,,,
50278214,1000,1000,1000,1000,,,,,
50280713,1000,1000,1000,1000,,,,,
50283212,1000,1000,1000,1000,,,,,
50285711,1000,1000,1000,1000,,,,,
50288210,1000,1000,1000,1000,,,,,
50290709,1000,1000,1000,1000,,,,,
50293208,1000,1000,1000,1000,,,,,
50295707,1000,1000,1000,1000,,,,,
50298206,1000,1000,1000,1000,,,,,
50300705,1000,1000,1000,1000,,,,,
50303204,1000,1000,1000,1000,,,,,
50305703,1000,1000,1000,1000,,,,,
50308202,1000,1000,1000,1000,,,,,
50310701,1000,1000,1000,1000,,,,,
50313200,1000,1000,1000,1000,,,,,
50315699,1000,1000,1000,1000,,,,,
50318198,1000,1000,1000,1000,,,,,
50320697,1000,1000,1000,1000,,,,,
50323196,1000,1000,1000,1000,,,,,
50325695,1000,1000,1000,1000,,,,,
50328194,1000,1000,1000,1000,,,,,
50330693,1000,1000,1000,1000,,,,,
50333192,1000,1000,1000,1000,,,,,
50335691,1000,1000,1000,1000,,,,,
50338190,1000,1000,1000,1000,,,,,
50340689,1000,1000,1000,1000,,,,,
50343188,1000,1000,1000,1000,,,,,
50345687,1000,1000,1000,1000,,,,,
50348186,1000,1000,1000,1000,,,,,
50350685,1000,1000,1000,1000,,,,,
50353184,1000,1000,1000,1000,,,,,
50355683,1000,1000,1000,1000,,,,,
50358182,1000,1000,1000,1000,,,,,
50360681,1000,1000,1000,1000,,,,,
50363180,1000,1000,1000,1000,,,,,
50365679,1000,1000,1000,1000,,,,,
50368178,1000,1000,1000,1000,,,,,
50370677,1000,1000,1000,1000,,,,,
50373176,1000,1000,1000,1000,,,,,
50375675,1000,1000,1000,1000,,,,,
50378174,1000,1000,1000,1000,,,,,
50380673,1000,1000,1000,1000,,,,,
50383172,1000,1000,1000,1000,,,,,
50385671,1000,1000,1000,1000,,,,,
50388170,1000,1000,1000,1000,,,,,
50390669,1000,1000,1000,1000,,,,,
50393168,1000,1000,1000,1000,,,,,
50395667,1000,1000,1000,1000,,,,,
50398166,1000,1000,1000,1000,,,,,
50400665,1000,1000,1000,1000,,,,,
50403164,1000,1000,1000,1000,,,,,
50405663,1000,1000,1000,1000,,,,,
50408162,1000,1000,1000,1000,,,,,
50410661,1000,1000,1000,1000,,,,,
50413160,1000,1000,1000,1000,,,,,
50415659,1000,1000,1000,1000,,,,,
50418158,1000,1000,1000,1000,,,,,
50420657,1000,1000,1000,1000,,,,,
50423156,1000,1000,1000,1000,,,,,
50425655,1000,1000,1000,1000,,,,,
50428154,1000,1000,1000,1000,,,,,
50431486,1000,1000,1000,1000,,,,,
50433985,1000,1000,1000,1000,,,,,
50436484,1000,1000,1000,1000,,,,,
50438983,1000,1000,1000,1000,,,,,
50441482,1000,1000,1000,1000,,,,,
50443981,1000,1000,1000,1000,,,,,
50446480,1000,1000,1000,1000,,,,,
50448979,1000,1000,1000,1000,,,,,
50451478,1000,1000,1000,1000,,,,,
50453977,1000,1000,1000,1000,,,,,
50456476,1000,1000,1000,1000,,,,,
50458975,1000,1000,1000,1000,,,,,
50461474,1000,1000,1000,1000,,,,,
50463973,1000,1000,1000,1000,,,,,
50466472,1000,1000,1000,1000,,,,,
50468971,1000,1000,1000,1000,,,,,
50471470,1000,1000,1000,1000,,,,,
50473969,1000,1000,1000,1000,,,,,
50476468,1000,1000,1000,1000,,,,,
50478967,1000,1000,1000,1000,,,,,
50481466,1000,1000,1000,1000,,,,,
50483965,1000,1000,1000,1000,,,,,
50486464,1000,1000,1000,1000,,,,,
50488963,1000,1000,1000,1000,,,,,
50491462,1001,1001,1001,1001,,,,,
50493961,1002,1002,1002,1002,,,,,
50496460,1003,1003,1003,1003,,,,,
50498959,1003,1003,1003,1003,,,,,
50501458,1004,1004,1004,1004,,,,,
50503957,1005,1005,1005,1005,,,,,
50506456,1006,1006,1006,1006,,,,,
50508955,1006,1006,1006,1006,,,,,
50511454,1007,1007,1007,1007,,,,,
50513953,1008,1008,1008,1008,,,,,
50516452,1009,1009,1009,1009,,,,,
50518951,1009,1009,1009,1009,,,,,
50521450,1010,1010,1010,1010,,,,,
50523949,1011,1011,1011,1011,,,,,
50526448,1012,1012,1012,1012,,,,,
50528947,1012,1012,1012,1012,,,,,
50531446,1013,1013,1013,1013,,,,,
50533945,1014,1014,1014,1014,,,,,
50536444,1015,1015,1015,1015,,,,,
50538943,1015,1015,1015,1015,,,,,
50541442,1016,1016,1016,1016,,,,,
50543941,1017,1017,1017,1017,,,,,
50546440,1018,1018,1018,1018,,,,,
50548939,1018,1018,1018,1018,,,,,
50551438,1019,1019,1019,1019,,,,,
50553937,1020,1020,1020,1020,,,,,
50556436,1021,1021,1021,1021,,,,,
50558935,1021,1021,1021,1021,,,,,
50561434,1022,1022,1022,1022,,,,,
50563933,1023,1023,1023,1023,,,,,
50566432,1024,1024,1024,1024,,,,,
50568931,1024,1024,1024,1024,,,,,
50571430,1025,1025,1025,1025,,,,,
50573929,1026,1026,1026,1026,,,,,
50576428,1027,1027,1027,1027,,,,,
50578927,1027,1027,1027,1027,,,,,
50581426,1028,1028,1028,1028,,,,,
50583925,1029,1029,1029,1029,,,,,
50586424,1030,1030,1030,1030,,,,,
50588923,1030,1030,1030,1030,,,,,
50591422,1031,1031,1031,1031,,,,,
50593921,1032,1032,1032,1032,,,,,
50596420,1033,1033,1033,1033,,,,,
50598919,1033,1033,1033,1033,,,,,
50601418,1034,1034,1034,1034,,,,,
50603917,1035,1035,1035,1035,,,,,
50606416,1036,1036,1036,1036,,,,,
50608915,1036,1036,1036,1036,,,,,
50611414,1037,1037,1037,1037,,,,,
50613913,1038,1038,1038,1038,,,,,
50616412,1039,1039,1039,1039,,,,,
50618911,1039,1039,1039,1039,,,,,
50621410,1040,1040,1040,1040,,,,,
50623909,1041,1041,1041,1041,,,,,
50626408,1042,1042,1042,1042,,,,,
50628907,1042,1042,1042,1042,,,,,
50631406,1043,1043,1043,1043,,,,,
50633905,1044,1044,1044,1044,,,,,
50636404,1045,1045,1045,1045,,,,,
50638903,1045,1045,1045,1045,,,,,
50641402,1046,1046,1046,1046,,,,,
50643901,1047,1047,1047,1047,,,,,
50646400,1048,1048,1048,1048,,,,,
50648899,1048,1048,1048,1048,,,,,
50651398,1049,1049,1049,1049,,,,,
50653897,1050,1050,1050,1050,,,,,
50656396,1051,1051,1051,1051,,,,,
50658895,1051,1051,1051,1051,,,,,
50661394,1052,1052,1052,1052,,,,,
50663893,1053,1053,1053,1053,,,,,
50666392,1054,1054,1054,1054,,,,,
50668891,1054,1054,1054,1054,,,,,
50671390,1055,1055,1055,1055,,,,,
50673889,1056,1056,1056,1056,,,,,
50676388,1057,1057,1057,1057,,,,,
50678887,1057,1057,1057,1057,,,,,
50681386,1058,1058,1058,1058,,,,,
50683885,1059,1059,1059,1059,,,,,
50686384,1060,1060,1060,1060,,,,,
50688883,1060,1060,1060,1060,,,,,
50691382,1061,1061,1061,1061,,,,,
50693881,1062,1062,1062,1062,,,,,
50696380,1063,1063,1063,1063,,,,,
50698879,1063,1063,1063,1063,,,,,
50701378,1064,1064,1064,1064,,,,,
50703877,1065,1065,1065,1065,,,,,
50706376,1066,1066,1066,1066,,,,,
50708875,1066,1066,1066,1066,,,,,
50711374,1067,1067,1067,1067,,,,,
50713873,1068,1068,1068,1068,,,,,
50716372,1069,1069,1069,1069,,,,,
50718871,1069,1069,1069,1069,,,,,
50721370,1070,1070,1070,1070,,,,,
50723869,1071,1071,1071,1071,,,,,
50726368,1072,1072,1072,1072,,,,,
50728867,1072,1072,1072,1072,,,,,
50731366,1073,1073,1073,1073,,,,,
50733865,1074,1074,1074,1074,,,,,
50736364,1075,1075,1075,1075,,,,,
50738863,1075,1075,1075,1075,,,,,
50741362,1076,1076,1076,1076,,,,,
50743861,1077,1077,1077,1077,,,,,
50746360,1078,1078,1078,1078,,,,,
50748859,1078,1078,1078,1078,,,,,
50751358,1079,1079,1079,1079,,,,,
50753857,1080,1080,1080,1080,,,,,
50756356,1081,1081,1081,1081,,,,,
50758855,1081,1081,1081,1081,,,,,
50761354,1082,1082,1082,1082,,,,,
50763853,1083,1083,1083,1083,,,,,
50766352,1084,1084,1084,1084,,,,,
50768851,1084,1084,1084,1084,,,,,
50771350,1085,1085,1085,1085,,,,,
50773849,1086,1086,1086,1086,,,,,
50776348,1087,1087,1087,1087,,,,,
50778847,1087,1087,1087,1087,,,,,
50781346,1088,1088,1088,1088,,,,,
50783845,1089,1089,1089,1089,,,,,
50786344,1090,1090,1090,1090,,,,,
50788843,1090,1090,1090,1090,,,,,
50791342,1091,1091,1091,1091,,,,,
50793841,1092,1092,1092,1092,,,,,
50796340,1093,1093,1093,1093,,,,,
50798839,1093,1093,1093,1093,,,,,
50801338,1094,1094,1094,1094,,,,,
50803837,1095,1095,1095,1095,,,,,
50806336,1096,1096,1096,1096,,,,,
50808835,1096,1096,1096,1096,,,,,
50811334,1097,1097,1097,1097,,,,,
50813833,1098,1098,1098,1098,,,,,
50816332,1099,1099,1099,1099,,,,,
50818831,1099,1099,1099,1099,,,,,
50821330,1100,1100,1100,1100,,,,,
50823829,1101,1101,1101,1101,,,,,
50826328,1101,1101,1101,1101,,,,,
50828827,1102,1102,1102,1102,,,,,
50831326,1103,1103,1103,1103,,,,,
50833825,1104,1104,1104,1104,,,,,
50836324,1104,1104,1104,1104,,,,,
50838823,1105,1105,1105,1105,,,,,
50841322,1106,1106,1106,1106,,,,,
50843821,1107,1107,1107,1107,,,,,
50846320,1107,1107,1107,1107,,,,,
50848819,1108,1108,1108,1108,,,,,
50851318,1109,1109,1109,1109,,,,,
50853817,1110,1110,1110,1110,,,,,
50856316,1110,1110,1110,1110,,,,,
50858815,1111,1111,1111,1111,,,,,
50861314,1112,1112,1112,1112,,,,,
50863813,1113,1113,1113,1113,,,,,
50866312,1113,1113,1113,1113,,,,,
50868811,1114,1114,1114,1114,,,,,
50871310,1115,1115,1115,1115,,,,,
50873809,1116,1116,1116,1116,,,,,
50876308,1116,1116,1116,1116,,,,,
50878807,1117,1117,1117,1117,,,,,
50881306,1118,1118,1118,1118,,,,,
50883805,1119,1119,1119,1119,,,,,
50886304,1119,1119,1119,1119,,,,,
50888803,1120,1120,1120,1120,,,,,
50891302,1121,1121,1121,1121,,,,,
50893801,1122,1122,1122,1122,,,,,
50896300,1122,1122,1122,1122,,,,,
50898799,1123,1123,1123,1123,,,,,
50901298,1124,1124,1124,1124,,,,,
50903797,1125,1125,1125,1125,,,,,
50906296,1125,1125,1125,1125,,,,,
50908795,1126,1126,1126,1126,,,,,
50911294,1127,1127,1127,1127,,,,,
50913793,1128,1128,1128,1128,,,,,
50916292,1128,1128,1128,1128,,,,,
50918791,1129,1129,1129,1129,,,,,
50921290,1130,1130,1130,1130,,,,,
50923789,1131,1131,1131,1131,,,,,
50926288,1131,1131,1131,1131,,,,,
50928787,1132,1132,1132,1132,,,,,
50931286,1133,1133,1133,1133,,,,,
50933785,1134,1134,1134,1134,,,,,
50936284,1134,1134,1134,1134,,,,,
50938783,1135,1135,1135,1135,,,,,
50941282,1136,1136,1136,1136,,,,,
50943781,1137,1137,1137,1137,,,,,
50946280,1137,1137,1137,1137,,,,,
50948779,1138,1138,1138,1138,,,,,
50951278,1139,1139,1139,1139,,,,,
50953777,1140,1140,1140,1140,,,,,
50956276,1140,1140,1140,1140,,,,,
50958775,1141,1141,1141,1141,,,,,
50961274,1142,1142,1142,1142,,,,,
50963773,1143,1143,1143,1143,,,,,
50966272,1143,1143,1143,1143,,,,,
50968771,1144,1144,1144,1144,,,,,
50971270,1145,1145,1145,1145,,,,,
50973769,1146,1146,1146,1146,,,,,
50976268,1146,1146,1146,1146,,,,,
50978767,1147,1147,1147,1147,,,,,
50981266,1148,1148,1148,1148,,,,,
50983765,1149,1149,1149,1149,,,,,
50986264,1149,1149,1149,1149,,,,,
50988763,1150,1150,1150,1150,,,,,
50991262,1161,1154,1154,1161,,,,,
50993761,1169,1162,1162,1169,,,,,
50996260,1177,1170,1170,1177,,,,,
50998759,1185,1178,1178,1185,,,,,
51001258,1192,1185,1186,1193,,,,,
51003757,1200,1193,1193,1200,,,,,
51006256,1207,1200,1201,1207,,,,,
51008755,1214,1208,1208,1214,,,,,
51011254,1221,1215,1215,1222,,,,,
51013753,1228,1222,1222,1229,,,,,
51016252,1235,1229,1229,1235,,,,,
51018751,1242,1236,1236,1242,,,,,
51021250,1249,1242,1243,1249,,,,,
51023749,1255,1249,1250,1256,,,,,
51026248,1262,1256,1256,1262,,,,,
51028747,1268,1262,1263,1269,,,,,
51031246,1275,1269,1269,1275,,,,,
51033745,1281,1275,1276,1281,,,,,
51036244,1287,1281,1282,1287,,,,,
51038743,1293,1288,1288,1294,,,,,
51041242,1299,1294,1294,1300,,,,,
51043741,1305,1300,1300,1306,,,,,
51046240,1311,1306,1306,1312,,,,,
51048739,1317,1312,1312,1317,,,,,
51051238,1323,1317,1318,1323,,,,,
51053737,1329,1323,1324,1329,,,,,
51056236,1335,1329,1329,1335,,,,,
51058735,1340,1335,1335,1340,,,,,
51061234,1346,1340,1341,1346,,,,,
51063733,1351,1346,1346,1352,,,,,
51066232,1357,1351,1352,1357,,,,,
51068731,1362,1357,1357,1362,,,,,
51071230,1368,1362,1363,1368,,,,,
51073729,1373,1368,1368,1373,,,,,
51076228,1378,1373,1374,1379,,,,,
51078727,1384,1378,1379,1384,,,,,
51081226,1389,1384,1384,1389,,,,,
51083725,1394,1389,1389,1394,,,,,
51086224,1399,1394,1394,1399,,,,,
51088723,1404,1399,1400,1404,,,,,
51091222,1409,1404,1405,1409,,,,,
51093721,1414,1409,1410,1415,,,,,
51096220,1419,1414,1415,1419,,,,,
51098719,1424,1419,1420,1424,,,,,
51101218,1429,1424,1425,1429,,,,,
51103717,1434,1429,1429,1434,,,,,
51106216,1439,1434,1434,1439,,,,,
51108715,1444,1439,1439,1444,,,,,
51111214,1449,1443,1444,1449,,,,,
51113713,1453,1448,1449,1453,,,,,
51116212,1458,1453,1453,1458,,,,,
51118711,1463,1458,1458,1463,,,,,
51121210,1467,1462,1463,1467,,,,,
51123709,1472,1467,1467,1472,,,,,
51126208,1477,1472,1472,1477,,,,,
51128707,1481,1476,1477,1481,,,,,
51131206,1486,1481,1481,1486,,,,,
51133705,1490,1485,1486,1490,,,,,
51136204,1495,1490,1490,1495,,,,,
51138703,1499,1494,1495,1499,,,,,
51141202,1503,1499,1499,1504,,,,,
51143701,1508,1503,1503,1508,,,,,
51146200,1512,1507,1508,1512,,,,,
51148699,1517,1512,1512,1517,,,,,
51151198,1521,1516,1516,1521,,,,,
51153697,1525,1520,1521,1525,,,,,
51156196,1529,1525,1525,1530,,,,,
51158695,1534,1529,1529,1534,,,,,
51161194,1538,1533,1534,1538,,,,,
51163693,1542,1537,1538,1542,,,,,
51166192,1546,1542,1542,1546,,,,,
51168691,1550,1546,1546,1551,,,,,
51171190,1555,1550,1550,1555,,,,,
51173689,1559,1554,1554,1559,,,,,
51176188,1563,1558,1559,1563,,,,,
51178687,1567,1562,1563,1567,,,,,
51181186,1571,1566,1567,1571,,,,,
51183685,1575,1570,1571,1575,,,,,
51186184,1579,1574,1575,1579,,,,,
51188683,1583,1578,1579,1583,,,,,
51191182,1587,1582,1583,1587,,,,,
51193681,1591,1586,1587,1591,,,,,
51196180,1595,1590,1591,1595,,,,,
51198679,1599,1594,1595,1599,,,,,
51201178,1603,1598,1599,1603,,,,,
51203677,1607,1602,1602,1607,,,,,
51206176,1611,1606,1606,1611,,,,,
51208675,1614,1610,1610,1614,,,,,
51211174,1618,1614,1614,1618,,,,,
51213673,1622,1617,1618,1622,,,,,
51216172,1626,1621,1622,1626,,,,,
51218671,1630,1625,1626,1630,,,,,
51221170,1633,1629,1629,1633,,,,,
51223669,1637,1633,1633,1637,,,,,
51226168,1641,1636,1637,1641,,,,,
51228667,1645,1640,1641,1645,,,,,
51231166,1648,1644,1644,1648,,,,,
51233665,1652,1647,1648,1652,,,,,
51236164,1656,1651,1652,1656,,,,,
51238663,1659,1655,1655,1659,,,,,
51241162,1663,1658,1659,1663,,,,,
51243661,1667,1662,1663,1667,,,,,
51246160,1670,1666,1666,1670,,,,,
51248659,1674,1669,1670,1674,,,,,
51251158,1677,1673,1673,1677,,,,,
51253657,1681,1677,1677,1681,,,,,
51256156,1685,1680,1681,1685,,,,,
51258655,1688,1684,1684,1688,,,,,
51261154,1692,1687,1688,1692,,,,,
51263653,1695,1691,1691,1695,,,,,
51266152,1699,1694,1695,1699,,,,,
51268651,1702,1698,1698,1702,,,,,
51271150,1706,1701,1702,1706,,,,,
51273649,1709,1705,1705,1709,,,,,
51276148,1713,1708,1709,1713,,,,,
51278647,1716,1712,1712,1716,,,,,
51281146,1719,1715,1716,1719,,,,,
51283645,1723,1718,1719,1723,,,,,
51286144,1726,1722,1722,1726,,,,,
51288643,1730,1725,1726,1730,,,,,
51291142,1733,1729,1729,1733,,,,,
51293641,1736,1732,1733,1736,,,,,
51296140,1740,1735,1736,1740,,,,,
51298639,1743,1739,1739,1743,,,,,
51301138,1746,1742,1743,1746,,,,,
51303637,1750,1746,1746,1750,,,,,
51306136,1753,1749,1749,1753,,,,,
51308635,1756,1752,1753,1756,,,,,
51311134,1760,1756,1756,1759,,,,,
51313633,1763,1759,1759,1763,,,,,
51316132,1766,1762,1763,1766,,,,,
51318631,1769,1765,1766,1769,,,,,
51321130,1773,1769,1769,1772,,,,,
51323629,1776,1772,1772,1776,,,,,
51326128,1779,1775,1776,1779,,,,,
51328627,1782,1778,1779,1782,,,,,
51331126,1785,1782,1782,1785,,,,,
51333625,1789,1785,1785,1789,,,,,
51336124,1792,1788,1789,1792,,,,,
51338623,1795,1791,1792,1795,,,,,
51341122,1798,1794,1795,1798,,,,,
51343621,1801,1798,1798,1801,,,,,
51346120,1804,1801,1801,1804,,,,,
51348619,1808,1804,1804,1808,,,,,
51351118,1811,1807,1808,1811,,,,,
51353617,1814,1810,1811,1814,,,,,
51356116,1817,1813,1814,1817,,,,,
51358615,1820,1817,1817,1820,,,,,
51361114,1823,1820,1820,1823,,,,,
51363613,1826,1823,1823,1826,,,,,
51366112,1829,1826,1826,1829,,,,,
51368611,1832,1829,1829,1832,,,,,
51371110,1835,1832,1832,1836,,,,,
51373609,1838,1835,1835,1839,,,,,
51376108,1842,1838,1838,1842,,,,,
51378607,1845,1841,1841,1845,,,,,
51381106,1848,1844,1844,1848,,,,,
51383605,1851,1847,1847,1851,,,,,
51386104,1854,1850,1850,1854,,,,,
51388603,1857,1853,1853,1857,,,,,
51391102,1860,1856,1856,1860,,,,,
51393601,1863,1859,1859,1863,,,,,
51396100,1866,1862,1862,1866,,,,,
51398599,1869,1865,1865,1869,,,,,
51401098,1871,1868,1868,1872,,,,,
51403597,1874,1871,1871,1875,,,,,
51406096,1877,1874,1874,1878,,,,,
51408595,1880,1877,1877,1881,,,,,
51411094,1883,1880,1880,1884,,,,,
51413593,1886,1883,1883,1887,,,,,
51416092,1889,1886,1886,1889,,,,,
51418591,1892,1889,1889,1892,,,,,
51421090,1895,1892,1892,1895,,,,,
51423589,1898,1894,1895,1898,,,,,
51426088,1901,1897,1898,1901,,,,,
51428587,1904,1900,1900,1904,,,,,
51431086,1907,1903,1903,1907,,,,,
51433585,1910,1906,1906,1910,,,,,
51436084,1912,1909,1909,1913,,,,,
51438583,1915,1912,1912,1915,,,,,
51441082,1918,1914,1915,1918,,,,,
51443581,1919,1916,1916,1919,,,,,
51446080,1918,1915,1915,1919,,,,,
51448579,1918,1914,1914,1918,,,,,
51451078,1917,1913,1913,1917,,,,,
51453577,1916,1912,1913,1916,,,,,
51456076,1915,1911,1912,1916,,,,,
51458575,1915,1911,1911,1915,,,,,
51461074,1914,1910,1910,1914,,,,,
51463573,1913,1909,1910,1914,,,,,
51466072,1913,1909,1909,1913,,,,,
51468571,1912,1908,1909,1913,,,,,
51471070,1912,1908,1908,1912,,,,,
51473569,1912,1908,1908,1912,,,,,
51476068,1911,1907,1908,1912,,,,,
51478567,1911,1907,1907,1911,,,,,
51481066,1911,1907,1907,1911,,,,,
51483565,1911,1907,1907,1911,,,,,
51486064,1911,1907,1907,1911,,,,,
51488563,1910,1907,1907,1911,,,,,
51491062,1910,1907,1907,1910,,,,,
51493561,1910,1907,1907,1910,,,,,
51496060,1909,1906,1906,1910,,,,,
51498559,1909,1906,1906,1909,,,,,
51501058,1908,1905,1905,1909,,,,,
51503557,1908,1905,1905,1908,,,,,
51506056,1907,1904,1904,1907,,,,,
51508555,1906,1903,1903,1906,,,,,
51511054,1905,1902,1902,1905,,,,,
51513553,1903,1901,1901,1904,,,,,
51516052,1902,1899,1899,1902,,,,,
51518551,1900,1898,1898,1900,,,,,
51521050,1899,1896,1896,1899,,,,,
51523549,1897,1894,1894,1897,,,,,
51526048,1895,1892,1892,1895,,,,,
51528547,1893,1890,1890,1893,,,,,
51531046,1890,1888,1888,1890,,,,,
51533545,1888,1885,1886,1888,,,,,
51536044,1885,1883,1883,1885,,,,,
51538543,1883,1880,1881,1883,,,,,
51541042,1880,1878,1878,1880,,,,,
51543541,1877,1875,1875,1877,,,,,
51546040,1875,1872,1872,1874,,,,,
51548539,1872,1869,1870,1871,,,,,
51551038,1869,1866,1867,1868,,,,,
51553537,1865,1863,1864,1865,,,,,
51556036,1862,1860,1860,1862,,,,,
51558535,1859,1857,1857,1859,,,,,
51561034,1856,1854,1854,1856,,,,,
51563533,1853,1850,1851,1853,,,,,
51566032,1849,1847,1848,1849,,,,,
51568531,1846,1844,1844,1846,,,,,
51571030,1843,1840,1841,1842,,,,,
51573529,1839,1837,1838,1839,,,,,
51576028,1836,1834,1834,1836,,,,,
51578527,1832,1830,1831,1832,,,,,
51581026,1829,1827,1827,1829,,,,,
51583525,1825,1823,1824,1825,,,,,
51586024,1822,1820,1820,1822,,,,,
51588523,1818,1817,1817,1818,,,,,
51591022,1814,1813,1813,1814,,,,,
51593521,1811,1810,1810,1811,,,,,
51596020,1807,1806,1807,1807,,,,,
51598519,1804,1803,1803,1804,,,,,
51601018,1800,1799,1800,1800,,,,,
51603517,1797,1796,1796,1797,,,,,
51606016,1793,1792,1793,1793,,,,,
51608515,1790,1789,1789,1790,,,,,
51611014,1786,1785,1786,1786,,,,,
51613513,1783,1782,1782,1783,,,,,
51616012,1779,1779,1779,1779,,,,,
51618511,1776,1775,1776,1776,,,,,
51621010,1773,1772,1772,1773,,,,,
51623509,1769,1768,1769,1769,,,,,
51626008,1766,1765,1765,1766,,,,,
51628507,1762,1762,1762,1763,,,,,
51631006,1759,1759,1759,1759,,,,,
51633505,1756,1755,1756,1756,,,,,
51636004,1753,1752,1752,1753,,,,,
51638503,1749,1749,1749,1750,,,,,
51641002,1746,1746,1746,1746,,,,,
51643501,1743,1743,1743,1743,,,,,
51646000,1740,1740,1740,1740,,,,,
51648499,1737,1737,1737,1737,,,,,
51650998,1734,1734,1734,1734,,,,,
51653497,1731,1731,1731,1731,,,,,
51655996,1728,1728,1728,1728,,,,,
51658495,1725,1725,1725,1725,,,,,
51660994,1722,1723,1723,1723,,,,,
51663493,1719,1720,1720,1720,,,,,
51665992,1717,1717,1717,1717,,,,,
51668491,1714,1714,1714,1714,,,,,
51670990,1711,1712,1712,1712,,,,,
51673489,1709,1709,1709,1709,,,,,
51675988,1706,1707,1707,1707,,,,,
51678487,1703,1704,1704,1704,,,,,
51680986,1701,1702,1702,1702,,,,,
51683485,1698,1699,1699,1699,,,,,
51685984,1696,1697,1697,1697,,,,,
51688483,1693,1695,1694,1694,,,,,
51690982,1691,1692,1692,1692,,,,,
51693481,1689,1690,1690,1689,,,,,
51695980,1687,1688,1688,1687,,,,,
51698479,1684,1685,1685,1685,,,,,
51700978,1682,1683,1683,1683,,,,,
51703477,1680,1681,1681,1680,,,,,
51705976,1678,1679,1679,1678,,,,,
51708475,1675,1677,1677,1676,,,,,
51710974,1673,1675,1675,1674,,,,,
51713473,1671,1673,1673,1672,,,,,
51715972,1670,1671,1671,1670,,,,,
51718471,1668,1669,1669,1668,,,,,
51720970,1666,1668,1667,1666,,,,,
51723469,1664,1666,1666,1665,,,,,
51725968,1662,1664,1664,1663,,,,,
51728467,1661,1662,1662,1661,,,,,
51730966,1659,1661,1661,1660,,,,,
51733465,1658,1659,1659,1658,,,,,
51735964,1656,1658,1658,1657,,,,,
51738463,1655,1657,1656,1655,,,,,
51740962,1653,1655,1655,1654,,,,,
51743461,1652,1654,1654,1652,,,,,
51745960,1650,1652,1653,1651,,,,,
51748459,1649,1651,1651,1649,,,,,
51750958,1648,1650,1650,1648,,,,,
51753457,1647,1649,1649,1647,,,,,
51755956,1645,1648,1648,1646,,,,,
51758455,1644,1647,1647,1645,,,,,
51760954,1643,1646,1646,1644,,,,,
51763453,1642,1645,1645,1643,,,,,
51765952,1641,1644,1644,1642,,,,,
51768451,1640,1643,1643,1641,,,,,
51770950,1640,1642,1642,1640,,,,,
51773449,1639,1641,1641,1639,,,,,
51775948,1638,1640,1641,1638,,,,,
51778447,1637,1640,1640,1638,,,,,
51780946,1637,1639,1639,1637,,,,,
51783445,1636,1638,1638,1636,,,,,
51785944,1635,1638,1638,1635,,,,,
51788443,1634,1637,1637,1635,,,,,
51790942,1634,1636,1636,1634,,,,,
51793441,1633,1636,1636,1633,,,,,
51795940,1633,1635,1635,1633,,,,,
51798439,1632,1635,1635,1632,,,,,
51800938,1632,1634,1634,1632,,,,,
51803437,1631,1633,1634,1631,,,,,
51805936,1631,1633,1633,1631,,,,,
51808435,1630,1633,1633,1630,,,,,
51810934,1630,1632,1632,1630,,,,,
51813433,1629,1632,1632,1629,,,,,
51815932,1629,1631,1631,1629,,,,,
51818431,1629,1631,1631,1629,,,,,
