timestamp,TimeUS,C1,C2,C3,C4,C5,C6,C7,C8,C9,C10,C11,C12,C13,C14
1706596675.50004005,50728867,1000,1000,1000,1000,0,0,0,0,0,0,0,0,0,0
1706596675.59999990,50828827,1000,1000,1000,1000,0,0,0,0,0,0,0,0,0,0
1706596675.69995999,50928787,1000,1000,1000,1000,0,0,0,0,0,0,0,0,0,0
1706596675.79992008,51028747,1000,1000,1000,1000,0,0,0,0,0,0,0,0,0,0
1706596675.89987993,51128707,1000,1000,1000,1000,0,0,0,0,0,0,0,0,0,0
1706596675.99984002,51228667,1000,1000,1000,1000,0,0,0,0,0,0,0,0,0,0
1706596676.09980011,51328627,1000,1000,1000,1000,0,0,0,0,0,0,0,0,0,0
1706596676.19975996,51428587,1000,1000,1000,1000,0,0,0,0,0,0,0,0,0,0
1706596676.29972005,51528547,1000,1000,1000,1000,0,0,0,0,0,0,0,0,0,0
1706596676.39967990,51628507,1000,1000,1000,1000,0,0,0,0,0,0,0,0,0,0
1706596676.49963999,51728467,1000,1000,1000,1000,0,0,0,0,0,0,0,0,0,0
1706596676.59960008,51828427,1000,1000,1000,1000,0,0,0,0,0,0,0,0,0,0
1706596676.69955993,51928387,1000,1000,1000,1000,0,0,0,0,0,0,0,0,0,0
1706596676.79952002,52028347,1000,1000,1000,1000,0,0,0,0,0,0,0,0,0,0
1706596676.89948010,52128307,1000,1000,1000,1000,0,0,0,0,0,0,0,0,0,0
1706596676.99943995,52228267,1000,1000,1000,1000,0,0,0,0,0,0,0,0,0,0
1706596677.09940004,52328227,1000,1000,1000,1000,0,0,0,0,0,0,0,0,0,0
1706596677.19935989,52428187,1000,1000,1000,1000,0,0,0,0,0,0,0,0,0,0
1706596677.30015302,52528980,1000,1000,1000,1000,0,0,0,0,0,0,0,0,0,0
1706596677.40011311,52628940,1000,1000,1000,1000,0,0,0,0,0,0,0,0,0,0
1706596677.50007296,52728900,1024,1024,1024,1024,0,0,0,0,0,0,0,0,0,0
1706596677.60003304,52828860,1054,1054,1054,1054,0,0,0,0,0,0,0,0,0,0
1706596677.69999290,52928820,1084,1084,1084,1084,0,0,0,0,0,0,0,0,0,0
1706596677.79995298,53028780,1113,1113,1113,1113,0,0,0,0,0,0,0,0,0,0
1706596677.89991307,53128740,1143,1143,1143,1143,0,0,0,0,0,0,0,0,0,0
1706596677.99987292,53228700,1357,1351,1352,1357,0,0,0,0,0,0,0,0,0,0
1706596678.09983301,53328660,1547,1541,1542,1547,0,0,0,0,0,0,0,0,0,0
1706596678.19979310,53428620,1699,1694,1695,1699,0,0,0,0,0,0,0,0,0,0
1706596678.29975295,53528580,1830,1825,1826,1830,0,0,0,0,0,0,0,0,0,0
1706596678.39971304,53628540,1893,1888,1889,1893,0,0,0,0,0,0,0,0,0,0
1706596678.49967289,53728500,1840,1837,1838,1840,0,0,0,0,0,0,0,0,0,0
1706596678.59963298,53828460,1714,1712,1712,1714,0,0,0,0,0,0,0,0,0,0
1706596678.69959307,53928420,1636,1637,1633,1641,0,0,0,0,0,0,0,0,0,0
1706596678.79955292,54028380,1619,1623,1618,1624,0,0,0,0,0,0,0,0,0,0
1706596678.89951301,54128340,1627,1630,1628,1629,0,0,0,0,0,0,0,0,0,0
1706596678.99947309,54228300,1633,1635,1635,1633,0,0,0,0,0,0,0,0,0,0
1706596679.09943295,54328260,1633,1633,1635,1631,0,0,0,0,0,0,0,0,0,0
1706596679.19939303,54428220,1628,1626,1629,1625,0,0,0,0,0,0,0,0,0,0
1706596679.29935288,54528180,1622,1620,1622,1619,0,0,0,0,0,0,0,0,0,0
1706596679.40014601,54628973,1618,1616,1618,1615,0,0,0,0,0,0,0,0,0,0
1706596679.50010610,54728933,1618,1617,1617,1617,0,0,0,0,0,0,0,0,0,0
1706596679.60006595,54828893,1619,1619,1618,1619,0,0,0,0,0,0,0,0,0,0
1706596679.70002604,54928853,1591,1593,1596,1587,0,0,0,0,0,0,0,0,0,0
1706596679.79998589,55028813,1576,1577,1582,1570,0,0,0,0,0,0,0,0,0,0
1706596679.89994597,55128773,1564,1564,1566,1562,0,0,0,0,0,0,0,0,0,0
1706596679.99990606,55228733,1555,1555,1554,1557,0,0,0,0,0,0,0,0,0,0
1706596680.09986591,55328693,1548,1547,1541,1554,0,0,0,0,0,0,0,0,0,0
1706596680.19982600,55428653,1540,1540,1532,1549,0,0,0,0,0,0,0,0,0,0
1706596680.29978609,55528613,1535,1534,1528,1540,0,0,0,0,0,0,0,0,0,0
1706596680.39974594,55628573,1528,1528,1525,1531,0,0,0,0,0,0,0,0,0,0
1706596680.49970603,55728533,1526,1526,1525,1526,0,0,0,0,0,0,0,0,0,0
1706596680.59966612,55828493,1527,1527,1528,1525,0,0,0,0,0,0,0,0,0,0
1706596680.69962597,55928453,1528,1529,1531,1526,0,0,0,0,0,0,0,0,0,0
1706596680.79958606,56028413,1532,1533,1536,1530,0,0,0,0,0,0,0,0,0,0
1706596680.89954591,56128373,1536,1537,1539,1535,0,0,0,0,0,0,0,0,0,0
1706596680.99950600,56228333,1540,1539,1542,1538,0,0,0,0,0,0,0,0,0,0
1706596681.09946609,56328293,1543,1543,1544,1543,0,0,0,0,0,0,0,0,0,0
1706596681.19942594,56428253,1546,1546,1546,1547,0,0,0,0,0,0,0,0,0,0
1706596681.29938602,56528213,1549,1549,1549,1550,0,0,0,0,0,0,0,0,0,0
1706596681.39934611,56628173,1552,1552,1552,1553,0,0,0,0,0,0,0,0,0,0
1706596681.50013900,56728966,1555,1555,1554,1556,0,0,0,0,0,0,0,0,0,0
1706596681.60009909,56828926,1554,1553,1558,1561,0,0,0,0,0,0,0,0,0,0
1706596681.70005894,56928886,1555,1556,1563,1564,0,0,0,0,0,0,0,0,0,0
1706596681.80001903,57028846,1557,1558,1564,1564,0,0,0,0,0,0,0,0,0,0
1706596681.89997911,57128806,1560,1560,1565,1565,0,0,0,0,0,0,0,0,0,0
1706596681.99993896,57228766,1562,1563,1565,1565,0,0,0,0,0,0,0,0,0,0
1706596682.09989905,57328726,1566,1566,1566,1565,0,0,0,0,0,0,0,0,0,0
1706596682.19985890,57428686,1567,1567,1565,1564,0,0,0,0,0,0,0,0,0,0
1706596682.29981899,57528646,1569,1569,1565,1565,0,0,0,0,0,0,0,0,0,0
1706596682.39977908,57628606,1571,1571,1566,1566,0,0,0,0,0,0,0,0,0,0
1706596682.49973893,57728566,1571,1570,1566,1566,0,0,0,0,0,0,0,0,0,0
1706596682.59969902,57828526,1572,1571,1567,1567,0,0,0,0,0,0,0,0,0,0
1706596682.69965911,57928486,1572,1572,1569,1569,0,0,0,0,0,0,0,0,0,0
1706596682.79961896,58028446,1573,1573,1570,1570,0,0,0,0,0,0,0,0,0,0
1706596682.89957905,58128406,1573,1573,1571,1571,0,0,0,0,0,0,0,0,0,0
1706596682.99953890,58228366,1574,1574,1574,1572,0,0,0,0,0,0,0,0,0,0
1706596683.09949899,58328326,1574,1575,1576,1574,0,0,0,0,0,0,0,0,0,0
1706596683.19945908,58428286,1575,1575,1576,1575,0,0,0,0,0,0,0,0,0,0
1706596683.29941893,58528246,1575,1575,1576,1576,0,0,0,0,0,0,0,0,0,0
1706596683.39937901,58628206,1575,1575,1577,1577,0,0,0,0,0,0,0,0,0,0
1706596683.49933910,58728166,1576,1576,1577,1577,0,0,0,0,0,0,0,0,0,0
1706596683.60013199,58828959,1576,1576,1577,1577,0,0,0,0,0,0,0,0,0,0
1706596683.70009208,58928919,1576,1576,1577,1577,0,0,0,0,0,0,0,0,0,0
1706596683.80005193,59028879,1576,1576,1577,1577,0,0,0,0,0,0,0,0,0,0
1706596683.90001202,59128839,1576,1576,1576,1576,0,0,0,0,0,0,0,0,0,0
1706596683.99997211,59228799,1577,1577,1577,1577,0,0,0,0,0,0,0,0,0,0
1706596684.09993196,59328759,1577,1577,1577,1577,0,0,0,0,0,0,0,0,0,0
1706596684.19989204,59428719,1577,1577,1577,1577,0,0,0,0,0,0,0,0,0,0
1706596684.29985189,59528679,1577,1577,1577,1576,0,0,0,0,0,0,0,0,0,0
1706596684.39981198,59628639,1578,1578,1578,1577,0,0,0,0,0,0,0,0,0,0
1706596684.49977207,59728599,1578,1577,1577,1577,0,0,0,0,0,0,0,0,0,0
1706596684.59973192,59828559,1578,1578,1577,1578,0,0,0,0,0,0,0,0,0,0
1706596684.69969201,59928519,1578,1578,1578,1578,0,0,0,0,0,0,0,0,0,0
1706596684.79965210,60028479,1579,1579,1578,1579,0,0,0,0,0,0,0,0,0,0
1706596684.89961195,60128439,1578,1578,1578,1578,0,0,0,0,0,0,0,0,0,0
1706596684.99957204,60228399,1578,1578,1578,1578,0,0,0,0,0,0,0,0,0,0
1706596685.09953189,60328359,1579,1579,1579,1579,0,0,0,0,0,0,0,0,0,0
1706596685.19949198,60428319,1579,1579,1579,1579,0,0,0,0,0,0,0,0,0,0
1706596685.29945207,60528279,1579,1579,1580,1579,0,0,0,0,0,0,0,0,0,0
1706596685.39941192,60628239,1579,1580,1580,1580,0,0,0,0,0,0,0,0,0,0
1706596685.49937201,60728199,1579,1579,1580,1580,0,0,0,0,0,0,0,0,0,0
1706596685.59933209,60828159,1578,1578,1578,1578,0,0,0,0,0,0,0,0,0,0
1706596685.70012498,60928952,1579,1579,1579,1580,0,0,0,0,0,0,0,0,0,0
1706596685.80008507,61028912,1579,1579,1579,1579,0,0,0,0,0,0,0,0,0,0
1706596685.90004492,61128872,1580,1579,1579,1580,0,0,0,0,0,0,0,0,0,0
1706596686.00000501,61228832,1580,1579,1579,1580,0,0,0,0,0,0,0,0,0,0
1706596686.09996510,61328792,1580,1579,1579,1579,0,0,0,0,0,0,0,0,0,0
1706596686.19992495,61428752,1580,1580,1581,1580,0,0,0,0,0,0,0,0,0,0
1706596686.29988503,61528712,1580,1580,1581,1580,0,0,0,0,0,0,0,0,0,0
1706596686.39984488,61628672,1581,1581,1581,1581,0,0,0,0,0,0,0,0,0,0
1706596686.49980497,61728632,1581,1581,1581,1581,0,0,0,0,0,0,0,0,0,0
1706596686.59976506,61828592,1581,1581,1581,1581,0,0,0,0,0,0,0,0,0,0
1706596686.69972491,61928552,1580,1580,1580,1581,0,0,0,0,0,0,0,0,0,0
1706596686.79968500,62028512,1580,1580,1580,1581,0,0,0,0,0,0,0,0,0,0
1706596686.89964509,62128472,1580,1580,1580,1581,0,0,0,0,0,0,0,0,0,0
1706596686.99960494,62228432,1581,1580,1581,1580,0,0,0,0,0,0,0,0,0,0
1706596687.09956503,62328392,1581,1581,1581,1581,0,0,0,0,0,0,0,0,0,0
1706596687.19952512,62428352,1580,1580,1580,1580,0,0,0,0,0,0,0,0,0,0
1706596687.29948497,62528312,1580,1580,1579,1580,0,0,0,0,0,0,0,0,0,0
1706596687.39944506,62628272,1580,1580,1580,1580,0,0,0,0,0,0,0,0,0,0
1706596687.49940491,62728232,1581,1581,1580,1581,0,0,0,0,0,0,0,0,0,0
1706596687.59936500,62828192,1581,1581,1581,1581,0,0,0,0,0,0,0,0,0,0
1706596687.70015812,62928985,1580,1580,1580,1580,0,0,0,0,0,0,0,0,0,0
1706596687.80011797,63028945,1580,1581,1587,1574,0,0,0,0,0,0,0,0,0,0
1706596687.90007806,63128905,1580,1582,1586,1573,0,0,0,0,0,0,0,0,0,0
1706596688.00003791,63228865,1579,1582,1578,1574,0,0,0,0,0,0,0,0,0,0
1706596688.09999800,63328825,1577,1580,1569,1571,0,0,0,0,0,0,0,0,0,0
1706596688.19995809,63428785,1576,1579,1562,1568,0,0,0,0,0,0,0,0,0,0
1706596688.29991794,63528745,1577,1578,1557,1564,0,0,0,0,0,0,0,0,0,0
1706596688.39987803,63628705,1578,1577,1554,1559,0,0,0,0,0,0,0,0,0,0
1706596688.49983811,63728665,1578,1576,1553,1555,0,0,0,0,0,0,0,0,0,0
1706596688.59979796,63828625,1579,1577,1555,1554,0,0,0,0,0,0,0,0,0,0
1706596688.69975805,63928585,1578,1577,1556,1553,0,0,0,0,0,0,0,0,0,0
1706596688.79971790,64028545,1577,1577,1556,1553,0,0,0,0,0,0,0,0,0,0
1706596688.89967799,64128505,1577,1578,1556,1555,0,0,0,0,0,0,0,0,0,0
1706596688.99963808,64228465,1576,1578,1556,1555,0,0,0,0,0,0,0,0,0,0
1706596689.09959793,64328425,1575,1577,1554,1553,0,0,0,0,0,0,0,0,0,0
1706596689.19955802,64428385,1575,1576,1552,1551,0,0,0,0,0,0,0,0,0,0
1706596689.29951811,64528345,1576,1577,1550,1550,0,0,0,0,0,0,0,0,0,0
1706596689.39947796,64628305,1578,1579,1548,1548,0,0,0,0,0,0,0,0,0,0
1706596689.49943805,64728265,1581,1581,1546,1547,0,0,0,0,0,0,0,0,0,0
1706596689.59939790,64828225,1583,1584,1543,1543,0,0,0,0,0,0,0,0,0,0
1706596689.69935799,64928185,1587,1587,1541,1540,0,0,0,0,0,0,0,0,0,0
1706596689.80015111,65028978,1589,1590,1538,1537,0,0,0,0,0,0,0,0,0,0
1706596689.90011096,65128938,1593,1592,1536,1536,0,0,0,0,0,0,0,0,0,0
1706596690.00007105,65228898,1595,1595,1535,1536,0,0,0,0,0,0,0,0,0,0
1706596690.10003090,65328858,1595,1594,1534,1536,0,0,0,0,0,0,0,0,0,0
1706596690.19999099,65428818,1594,1595,1536,1538,0,0,0,0,0,0,0,0,0,0
1706596690.29995108,65528778,1593,1593,1538,1541,0,0,0,0,0,0,0,0,0,0
1706596690.39991093,65628738,1590,1589,1544,1546,0,0,0,0,0,0,0,0,0,0
1706596690.49987102,65728698,1585,1582,1551,1554,0,0,0,0,0,0,0,0,0,0
1706596690.59983110,65828658,1577,1573,1561,1563,0,0,0,0,0,0,0,0,0,0
1706596690.69979095,65928618,1567,1563,1573,1575,0,0,0,0,0,0,0,0,0,0
1706596690.79975104,66028578,1556,1553,1586,1587,0,0,0,0,0,0,0,0,0,0
1706596690.89971089,66128538,1544,1542,1597,1597,0,0,0,0,0,0,0,0,0,0
1706596690.99967098,66228498,1536,1535,1607,1606,0,0,0,0,0,0,0,0,0,0
1706596691.09963107,66328458,1530,1530,1613,1612,0,0,0,0,0,0,0,0,0,0
1706596691.19959092,66428418,1528,1529,1615,1614,0,0,0,0,0,0,0,0,0,0
1706596691.29955101,66528378,1530,1532,1614,1613,0,0,0,0,0,0,0,0,0,0
1706596691.39951110,66628338,1535,1537,1610,1610,0,0,0,0,0,0,0,0,0,0
1706596691.49947095,66728298,1543,1545,1605,1605,0,0,0,0,0,0,0,0,0,0
1706596691.59943104,66828258,1552,1553,1597,1597,0,0,0,0,0,0,0,0,0,0
1706596691.69939089,66928218,1560,1561,1589,1589,0,0,0,0,0,0,0,0,0,0
1706596691.79935098,67028178,1570,1570,1582,1582,0,0,0,0,0,0,0,0,0,0
1706596691.90014410,67128971,1576,1575,1575,1575,0,0,0,0,0,0,0,0,0,0
1706596692.00010395,67228931,1583,1581,1571,1570,0,0,0,0,0,0,0,0,0,0
1706596692.10006404,67328891,1587,1585,1568,1568,0,0,0,0,0,0,0,0,0,0
1706596692.20002389,67428851,1589,1588,1567,1567,0,0,0,0,0,0,0,0,0,0
1706596692.29998398,67528811,1589,1587,1568,1567,0,0,0,0,0,0,0,0,0,0
1706596692.39994407,67628771,1587,1586,1569,1569,0,0,0,0,0,0,0,0,0,0
1706596692.49990392,67728731,1585,1584,1571,1572,0,0,0,0,0,0,0,0,0,0
1706596692.59986401,67828691,1581,1581,1573,1573,0,0,0,0,0,0,0,0,0,0
1706596692.69982409,67928651,1579,1579,1576,1576,0,0,0,0,0,0,0,0,0,0
1706596692.79978395,68028611,1575,1576,1579,1579,0,0,0,0,0,0,0,0,0,0
1706596692.89974403,68128571,1573,1574,1581,1581,0,0,0,0,0,0,0,0,0,0
1706596692.99970388,68228531,1572,1573,1582,1582,0,0,0,0,0,0,0,0,0,0
1706596693.09966397,68328491,1571,1572,1583,1583,0,0,0,0,0,0,0,0,0,0
1706596693.19962406,68428451,1571,1571,1582,1582,0,0,0,0,0,0,0,0,0,0
1706596693.29958391,68528411,1572,1573,1582,1583,0,0,0,0,0,0,0,0,0,0
1706596693.39954400,68628371,1574,1574,1582,1582,0,0,0,0,0,0,0,0,0,0
1706596693.49950409,68728331,1575,1575,1581,1581,0,0,0,0,0,0,0,0,0,0
1706596693.59946394,68828291,1576,1576,1579,1579,0,0,0,0,0,0,0,0,0,0
1706596693.69942403,68928251,1344,1344,1340,1349,0,0,0,0,0,0,0,0,0,0
1706596693.79938412,69028211,1461,1460,1453,1466,0,0,0,0,0,0,0,0,0,0
1706596693.89934397,69128171,1520,1520,1517,1517,0,0,0,0,0,0,0,0,0,0
1706596694.00013709,69228964,1565,1565,1567,1556,0,0,0,0,0,0,0,0,0,0
1706596694.10009694,69328924,1600,1599,1603,1589,0,0,0,0,0,0,0,0,0,0
1706596694.20005703,69428884,1621,1620,1624,1610,0,0,0,0,0,0,0,0,0,0
1706596694.30001712,69528844,1624,1623,1623,1616,0,0,0,0,0,0,0,0,0,0
1706596694.39997697,69628804,1622,1622,1619,1619,0,0,0,0,0,0,0,0,0,0
1706596694.49993706,69728764,1622,1623,1617,1624,0,0,0,0,0,0,0,0,0,0
1706596694.59989691,69828724,1619,1619,1613,1623,0,0,0,0,0,0,0,0,0,0
1706596694.69985700,69928684,1620,1620,1615,1623,0,0,0,0,0,0,0,0,0,0
1706596694.79981709,70028644,1619,1620,1616,1622,0,0,0,0,0,0,0,0,0,0
1706596694.89977694,70128604,1620,1621,1620,1622,0,0,0,0,0,0,0,0,0,0
1706596694.99973702,70228564,1620,1620,1621,1620,0,0,0,0,0,0,0,0,0,0
1706596695.09969711,70328524,1618,1617,1624,1614,0,0,0,0,0,0,0,0,0,0
1706596695.19965696,70428484,1613,1614,1621,1609,0,0,0,0,0,0,0,0,0,0
1706596695.29961705,70528444,1608,1607,1614,1604,0,0,0,0,0,0,0,0,0,0
1706596695.39957690,70628404,1599,1599,1603,1598,0,0,0,0,0,0,0,0,0,0
1706596695.49953699,70728364,1591,1591,1593,1591,0,0,0,0,0,0,0,0,0,0
1706596695.59949708,70828324,1583,1583,1582,1586,0,0,0,0,0,0,0,0,0,0
1706596695.69945693,70928284,1575,1575,1572,1580,0,0,0,0,0,0,0,0,0,0
1706596695.79941702,71028244,1570,1571,1566,1574,0,0,0,0,0,0,0,0,0,0
1706596695.89937711,71128204,1566,1567,1561,1567,0,0,0,0,0,0,0,0,0,0
1706596695.99933696,71228164,1564,1567,1559,1562,0,0,0,0,0,0,0,0,0,0
1706596696.10013008,71328957,1565,1567,1557,1558,0,0,0,0,0,0,0,0,0,0
1706596696.20008993,71428917,1567,1568,1554,1554,0,0,0,0,0,0,0,0,0,0
1706596696.30005002,71528877,1568,1569,1551,1550,0,0,0,0,0,0,0,0,0,0
1706596696.40001011,71628837,1570,1571,1550,1548,0,0,0,0,0,0,0,0,0,0
1706596696.49996996,71728797,1572,1572,1549,1547,0,0,0,0,0,0,0,0,0,0
1706596696.59993005,71828757,1572,1572,1547,1547,0,0,0,0,0,0,0,0,0,0
1706596696.69988990,71928717,1573,1572,1548,1547,0,0,0,0,0,0,0,0,0,0
1706596696.79984999,72028677,1573,1573,1549,1549,0,0,0,0,0,0,0,0,0,0
1706596696.89981008,72128637,1572,1572,1549,1549,0,0,0,0,0,0,0,0,0,0
1706596696.99976993,72228597,1572,1573,1550,1550,0,0,0,0,0,0,0,0,0,0
1706596697.09973001,72328557,1572,1573,1552,1551,0,0,0,0,0,0,0,0,0,0
1706596697.19969010,72428517,1573,1574,1553,1552,0,0,0,0,0,0,0,0,0,0
1706596697.29964995,72528477,1573,1574,1553,1553,0,0,0,0,0,0,0,0,0,0
1706596697.39961004,72628437,1574,1575,1554,1553,0,0,0,0,0,0,0,0,0,0
1706596697.49956989,72728397,1575,1576,1554,1553,0,0,0,0,0,0,0,0,0,0
1706596697.59952998,72828357,1576,1578,1553,1553,0,0,0,0,0,0,0,0,0,0
1706596697.69949007,72928317,1578,1579,1553,1552,0,0,0,0,0,0,0,0,0,0
1706596697.79944992,73028277,1579,1580,1551,1550,0,0,0,0,0,0,0,0,0,0
1706596697.89941001,73128237,1581,1581,1550,1549,0,0,0,0,0,0,0,0,0,0
1706596697.99937010,73228197,1582,1583,1548,1547,0,0,0,0,0,0,0,0,0,0
1706596698.09932995,73328157,1585,1585,1547,1547,0,0,0,0,0,0,0,0,0,0
1706596698.20012307,73428950,1587,1586,1546,1545,0,0,0,0,0,0,0,0,0,0
1706596698.30008292,73528910,1589,1588,1545,1545,0,0,0,0,0,0,0,0,0,0
1706596698.40004301,73628870,1589,1587,1545,1546,0,0,0,0,0,0,0,0,0,0
1706596698.50000310,73728830,1588,1586,1546,1547,0,0,0,0,0,0,0,0,0,0
1706596698.59996295,73828790,1585,1582,1548,1550,0,0,0,0,0,0,0,0,0,0
1706596698.69992304,73928750,1580,1578,1553,1554,0,0,0,0,0,0,0,0,0,0
1706596698.79988289,74028710,1574,1572,1559,1560,0,0,0,0,0,0,0,0,0,0
1706596698.89984298,74128670,1567,1565,1565,1567,0,0,0,0,0,0,0,0,0,0
1706596698.99980307,74228630,1560,1558,1573,1574,0,0,0,0,0,0,0,0,0,0
1706596699.09976292,74328590,1551,1550,1579,1580,0,0,0,0,0,0,0,0,0,0
1706596699.19972301,74428550,1545,1545,1586,1587,0,0,0,0,0,0,0,0,0,0
1706596699.29968309,74528510,1540,1540,1592,1591,0,0,0,0,0,0,0,0,0,0
1706596699.39964294,74628470,1536,1537,1595,1595,0,0,0,0,0,0,0,0,0,0
1706596699.49960303,74728430,1535,1536,1597,1596,0,0,0,0,0,0,0,0,0,0
1706596699.59956288,74828390,1535,1537,1596,1596,0,0,0,0,0,0,0,0,0,0
1706596699.69952297,74928350,1537,1538,1594,1594,0,0,0,0,0,0,0,0,0,0
1706596699.79948306,75028310,1540,1541,1591,1591,0,0,0,0,0,0,0,0,0,0
1706596699.89944291,75128270,1545,1546,1587,1587,0,0,0,0,0,0,0,0,0,0
1706596699.99940300,75228230,1550,1551,1582,1582,0,0,0,0,0,0,0,0,0,0
1706596700.09936309,75328190,1555,1555,1576,1577,0,0,0,0,0,0,0,0,0,0
1706596700.20015597,75428983,1561,1561,1572,1572,0,0,0,0,0,0,0,0,0,0
1706596700.30011606,75528943,1565,1565,1567,1567,0,0,0,0,0,0,0,0,0,0
1706596700.40007591,75628903,1570,1569,1563,1563,0,0,0,0,0,0,0,0,0,0
1706596700.50003600,75728863,1572,1571,1559,1559,0,0,0,0,0,0,0,0,0,0
1706596700.59999609,75828823,1575,1574,1558,1558,0,0,0,0,0,0,0,0,0,0
1706596700.69995594,75928783,1576,1575,1557,1557,0,0,0,0,0,0,0,0,0,0
1706596700.79991603,76028743,1576,1575,1557,1557,0,0,0,0,0,0,0,0,0,0
1706596700.89987612,76128703,1575,1574,1558,1558,0,0,0,0,0,0,0,0,0,0
1706596700.99983597,76228663,1574,1573,1559,1559,0,0,0,0,0,0,0,0,0,0
1706596701.09979606,76328623,1571,1571,1561,1561,0,0,0,0,0,0,0,0,0,0
1706596701.19975591,76428583,1570,1569,1563,1563,0,0,0,0,0,0,0,0,0,0
1706596701.29971600,76528543,1567,1566,1565,1565,0,0,0,0,0,0,0,0,0,0
1706596701.39967608,76628503,1564,1564,1566,1566,0,0,0,0,0,0,0,0,0,0
1706596701.49963593,76728463,1563,1563,1569,1569,0,0,0,0,0,0,0,0,0,0
1706596701.59959602,76828423,1562,1562,1570,1570,0,0,0,0,0,0,0,0,0,0
1706596701.69955611,76928383,1560,1561,1571,1571,0,0,0,0,0,0,0,0,0,0
1706596701.79951596,77028343,1560,1561,1571,1571,0,0,0,0,0,0,0,0,0,0
1706596701.89947605,77128303,1561,1561,1572,1572,0,0,0,0,0,0,0,0,0,0
1706596701.99943590,77228263,1561,1562,1571,1571,0,0,0,0,0,0,0,0,0,0
1706596702.09939599,77328223,1562,1562,1570,1570,0,0,0,0,0,0,0,0,0,0
1706596702.19935608,77428183,1562,1563,1569,1569,0,0,0,0,0,0,0,0,0,0
1706596702.30014896,77528976,1564,1564,1568,1568,0,0,0,0,0,0,0,0,0,0
1706596702.40010905,77628936,1565,1565,1567,1567,0,0,0,0,0,0,0,0,0,0
1706596702.50006890,77728896,1566,1566,1566,1566,0,0,0,0,0,0,0,0,0,0
1706596702.60002899,77828856,1567,1567,1564,1564,0,0,0,0,0,0,0,0,0,0
1706596702.69998908,77928816,1568,1567,1563,1563,0,0,0,0,0,0,0,0,0,0
1706596702.79994893,78028776,1569,1569,1563,1563,0,0,0,0,0,0,0,0,0,0
1706596702.89990902,78128736,1569,1568,1562,1563,0,0,0,0,0,0,0,0,0,0
1706596702.99986911,78228696,1568,1568,1562,1562,0,0,0,0,0,0,0,0,0,0
1706596703.09982896,78328656,1568,1568,1563,1563,0,0,0,0,0,0,0,0,0,0
1706596703.19978905,78428616,1567,1567,1562,1562,0,0,0,0,0,0,0,0,0,0
1706596703.29974890,78528576,1567,1566,1563,1563,0,0,0,0,0,0,0,0,0,0
1706596703.39970899,78628536,1567,1567,1565,1565,0,0,0,0,0,0,0,0,0,0
1706596703.49966908,78728496,1566,1566,1565,1565,0,0,0,0,0,0,0,0,0,0
1706596703.59962893,78828456,1566,1566,1567,1567,0,0,0,0,0,0,0,0,0,0
1706596703.69958901,78928416,1565,1566,1567,1567,0,0,0,0,0,0,0,0,0,0
1706596703.79954910,79028376,1565,1565,1568,1568,0,0,0,0,0,0,0,0,0,0
1706596703.89950895,79128336,1565,1565,1567,1567,0,0,0,0,0,0,0,0,0,0
1706596703.99946904,79228296,1564,1565,1567,1567,0,0,0,0,0,0,0,0,0,0
1706596704.09942889,79328256,1565,1565,1568,1568,0,0,0,0,0,0,0,0,0,0
1706596704.19938898,79428216,1566,1566,1569,1569,0,0,0,0,0,0,0,0,0,0
1706596704.29934907,79528176,1566,1566,1568,1568,0,0,0,0,0,0,0,0,0,0
1706596704.40014195,79628969,1566,1566,1568,1568,0,0,0,0,0,0,0,0,0,0
1706596704.50010204,79728929,1566,1566,1567,1567,0,0,0,0,0,0,0,0,0,0
1706596704.60006189,79828889,1566,1566,1567,1567,0,0,0,0,0,0,0,0,0,0
1706596704.70002198,79928849,1567,1567,1567,1567,0,0,0,0,0,0,0,0,0,0
1706596704.79998207,80028809,1567,1566,1566,1566,0,0,0,0,0,0,0,0,0,0
1706596704.89994192,80128769,1567,1567,1566,1566,0,0,0,0,0,0,0,0,0,0
1706596704.99990201,80228729,1567,1567,1565,1565,0,0,0,0,0,0,0,0,0,0
1706596705.09986210,80328689,1567,1566,1565,1565,0,0,0,0,0,0,0,0,0,0
1706596705.19982195,80428649,1567,1567,1565,1565,0,0,0,0,0,0,0,0,0,0
1706596705.29978204,80528609,1567,1567,1565,1565,0,0,0,0,0,0,0,0,0,0
1706596705.39974189,80628569,1566,1566,1565,1565,0,0,0,0,0,0,0,0,0,0
1706596705.49970198,80728529,1567,1567,1566,1566,0,0,0,0,0,0,0,0,0,0
1706596705.59966207,80828489,1567,1567,1566,1566,0,0,0,0,0,0,0,0,0,0
1706596705.69962192,80928449,1566,1566,1566,1566,0,0,0,0,0,0,0,0,0,0
1706596705.79958200,81028409,1566,1567,1566,1566,0,0,0,0,0,0,0,0,0,0
1706596705.89954209,81128369,1567,1567,1565,1565,0,0,0,0,0,0,0,0,0,0
1706596705.99950194,81228329,1566,1567,1563,1563,0,0,0,0,0,0,0,0,0,0
1706596706.09946203,81328289,1568,1569,1562,1562,0,0,0,0,0,0,0,0,0,0
1706596706.19942188,81428249,1570,1571,1561,1561,0,0,0,0,0,0,0,0,0,0
1706596706.29938197,81528209,1571,1572,1560,1559,0,0,0,0,0,0,0,0,0,0
1706596706.39934206,81628169,1572,1572,1559,1559,0,0,0,0,0,0,0,0,0,0
1706596706.50013494,81728962,1574,1574,1559,1559,0,0,0,0,0,0,0,0,0,0
1706596706.60009503,81828922,1574,1574,1559,1559,0,0,0,0,0,0,0,0,0,0
1706596706.70005488,81928882,1573,1573,1559,1559,0,0,0,0,0,0,0,0,0,0
1706596706.80001497,82028842,1572,1572,1560,1560,0,0,0,0,0,0,0,0,0,0
1706596706.89997506,82128802,1571,1571,1560,1560,0,0,0,0,0,0,0,0,0,0
1706596706.99993491,82228762,1571,1571,1561,1561,0,0,0,0,0,0,0,0,0,0
1706596707.09989500,82328722,1570,1570,1562,1562,0,0,0,0,0,0,0,0,0,0
1706596707.19985509,82428682,1569,1569,1563,1563,0,0,0,0,0,0,0,0,0,0
1706596707.29981494,82528642,1569,1569,1563,1563,0,0,0,0,0,0,0,0,0,0
1706596707.39977503,82628602,1569,1569,1564,1564,0,0,0,0,0,0,0,0,0,0
1706596707.49973512,82728562,1569,1569,1564,1564,0,0,0,0,0,0,0,0,0,0
1706596707.59969497,82828522,1568,1569,1564,1563,0,0,0,0,0,0,0,0,0,0
1706596707.69965506,82928482,1569,1569,1563,1563,0,0,0,0,0,0,0,0,0,0
1706596707.79961491,83028442,1569,1569,1563,1563,0,0,0,0,0,0,0,0,0,0
1706596707.89957500,83128402,1570,1570,1562,1562,0,0,0,0,0,0,0,0,0,0
1706596707.99953508,83228362,1571,1571,1562,1562,0,0,0,0,0,0,0,0,0,0
1706596708.09949493,83328322,1571,1572,1561,1561,0,0,0,0,0,0,0,0,0,0
1706596708.19945502,83428282,1573,1573,1561,1561,0,0,0,0,0,0,0,0,0,0
1706596708.29941511,83528242,1573,1574,1560,1559,0,0,0,0,0,0,0,0,0,0
1706596708.39937496,83628202,1573,1574,1559,1558,0,0,0,0,0,0,0,0,0,0
1706596708.49933505,83728162,1574,1575,1558,1558,0,0,0,0,0,0,0,0,0,0
1706596708.60012794,83828955,1575,1575,1557,1557,0,0,0,0,0,0,0,0,0,0
1706596708.70008802,83928915,1575,1576,1557,1557,0,0,0,0,0,0,0,0,0,0
1706596708.80004811,84028875,1576,1576,1557,1557,0,0,0,0,0,0,0,0,0,0
1706596708.90000796,84128835,1576,1576,1557,1557,0,0,0,0,0,0,0,0,0,0
1706596708.99996805,84228795,1577,1577,1558,1557,0,0,0,0,0,0,0,0,0,0
1706596709.09992790,84328755,1576,1577,1556,1556,0,0,0,0,0,0,0,0,0,0
1706596709.19988799,84428715,1576,1577,1555,1555,0,0,0,0,0,0,0,0,0,0
1706596709.29984808,84528675,1577,1578,1555,1554,0,0,0,0,0,0,0,0,0,0
1706596709.39980793,84628635,1578,1578,1554,1554,0,0,0,0,0,0,0,0,0,0
1706596709.49976802,84728595,1577,1577,1554,1554,0,0,0,0,0,0,0,0,0,0
1706596709.59972811,84828555,1577,1577,1555,1555,0,0,0,0,0,0,0,0,0,0
1706596709.69968796,84928515,1577,1576,1556,1556,0,0,0,0,0,0,0,0,0,0
1706596709.79964805,85028475,1576,1575,1558,1558,0,0,0,0,0,0,0,0,0,0
1706596709.89960790,85128435,1573,1572,1560,1560,0,0,0,0,0,0,0,0,0,0
1706596709.99956799,85228395,1571,1570,1563,1563,0,0,0,0,0,0,0,0,0,0
1706596710.09952807,85328355,1568,1567,1566,1566,0,0,0,0,0,0,0,0,0,0
1706596710.19948792,85428315,1564,1563,1568,1568,0,0,0,0,0,0,0,0,0,0
1706596710.29944801,85528275,1561,1560,1571,1572,0,0,0,0,0,0,0,0,0,0
1706596710.39940810,85628235,1558,1558,1574,1574,0,0,0,0,0,0,0,0,0,0
1706596710.49936795,85728195,1555,1555,1576,1576,0,0,0,0,0,0,0,0,0,0
1706596710.59932804,85828155,1554,1554,1579,1579,0,0,0,0,0,0,0,0,0,0
1706596710.70012093,85928948,1552,1552,1580,1580,0,0,0,0,0,0,0,0,0,0
1706596710.80008101,86028908,1552,1552,1581,1581,0,0,0,0,0,0,0,0,0,0
1706596710.90004110,86128868,1552,1553,1581,1581,0,0,0,0,0,0,0,0,0,0
1706596711.00000095,86228828,1553,1553,1580,1580,0,0,0,0,0,0,0,0,0,0
1706596711.09996104,86328788,1554,1554,1578,1578,0,0,0,0,0,0,0,0,0,0
1706596711.19992089,86428748,1555,1556,1575,1575,0,0,0,0,0,0,0,0,0,0
1706596711.29988098,86528708,1558,1558,1574,1574,0,0,0,0,0,0,0,0,0,0
1706596711.39984107,86628668,1560,1561,1572,1572,0,0,0,0,0,0,0,0,0,0
1706596711.49980092,86728628,1562,1562,1569,1569,0,0,0,0,0,0,0,0,0,0
1706596711.59976101,86828588,1564,1564,1567,1567,0,0,0,0,0,0,0,0,0,0
1706596711.69972110,86928548,1566,1566,1566,1565,0,0,0,0,0,0,0,0,0,0
1706596711.79968095,87028508,1568,1567,1564,1564,0,0,0,0,0,0,0,0,0,0
1706596711.89964104,87128468,1569,1568,1563,1564,0,0,0,0,0,0,0,0,0,0
1706596711.99960089,87228428,1568,1569,1563,1563,0,0,0,0,0,0,0,0,0,0
1706596712.09956098,87328388,1568,1568,1562,1562,0,0,0,0,0,0,0,0,0,0
1706596712.19952106,87428348,1568,1568,1563,1563,0,0,0,0,0,0,0,0,0,0
1706596712.29948092,87528308,1568,1568,1563,1563,0,0,0,0,0,0,0,0,0,0
1706596712.39944100,87628268,1567,1567,1564,1564,0,0,0,0,0,0,0,0,0,0
1706596712.49940109,87728228,1567,1566,1565,1565,0,0,0,0,0,0,0,0,0,0
1706596712.59936094,87828188,1566,1566,1567,1567,0,0,0,0,0,0,0,0,0,0
1706596712.70015407,87928981,1565,1565,1567,1567,0,0,0,0,0,0,0,0,0,0
1706596712.80011392,88028941,1565,1565,1568,1568,0,0,0,0,0,0,0,0,0,0
1706596712.90007401,88128901,1564,1564,1568,1568,0,0,0,0,0,0,0,0,0,0
1706596713.00003409,88228861,1564,1564,1568,1568,0,0,0,0,0,0,0,0,0,0
1706596713.09999394,88328821,1563,1563,1568,1568,0,0,0,0,0,0,0,0,0,0
1706596713.19995403,88428781,1563,1563,1568,1568,0,0,0,0,0,0,0,0,0,0
1706596713.29991388,88528741,1564,1564,1568,1568,0,0,0,0,0,0,0,0,0,0
1706596713.39987397,88628701,1563,1564,1568,1568,0,0,0,0,0,0,0,0,0,0
1706596713.49983406,88728661,1564,1565,1567,1567,0,0,0,0,0,0,0,0,0,0
1706596713.59979391,88828621,1565,1565,1567,1567,0,0,0,0,0,0,0,0,0,0
1706596713.69975400,88928581,1565,1566,1567,1567,0,0,0,0,0,0,0,0,0,0
1706596713.79971409,89028541,1566,1566,1566,1566,0,0,0,0,0,0,0,0,0,0
1706596713.89967394,89128501,1567,1567,1566,1566,0,0,0,0,0,0,0,0,0,0
1706596713.99963403,89228461,1567,1567,1566,1566,0,0,0,0,0,0,0,0,0,0
1706596714.09959412,89328421,1567,1567,1566,1566,0,0,0,0,0,0,0,0,0,0
1706596714.19955397,89428381,1567,1567,1565,1565,0,0,0,0,0,0,0,0,0,0
1706596714.29951406,89528341,1567,1567,1566,1566,0,0,0,0,0,0,0,0,0,0
1706596714.39947391,89628301,1567,1567,1566,1566,0,0,0,0,0,0,0,0,0,0
1706596714.49943399,89728261,1567,1567,1565,1565,0,0,0,0,0,0,0,0,0,0
1706596714.59939408,89828221,1567,1567,1566,1566,0,0,0,0,0,0,0,0,0,0
1706596714.69935393,89928181,1567,1567,1566,1566,0,0,0,0,0,0,0,0,0,0
1706596714.80014706,90028974,1567,1567,1566,1566,0,0,0,0,0,0,0,0,0,0
1706596714.90010691,90128934,1566,1566,1566,1566,0,0,0,0,0,0,0,0,0,0
1706596715.00006700,90228894,1566,1566,1566,1566,0,0,0,0,0,0,0,0,0,0
1706596715.10002708,90328854,1566,1566,1567,1567,0,0,0,0,0,0,0,0,0,0
1706596715.19998693,90428814,1565,1565,1566,1566,0,0,0,0,0,0,0,0,0,0
1706596715.29994702,90528774,1565,1565,1566,1566,0,0,0,0,0,0,0,0,0,0
1706596715.39990711,90628734,1566,1566,1567,1567,0,0,0,0,0,0,0,0,0,0
1706596715.49986696,90728694,1565,1565,1566,1566,0,0,0,0,0,0,0,0,0,0
1706596715.59982705,90828654,1566,1566,1567,1567,0,0,0,0,0,0,0,0,0,0
1706596715.69978690,90928614,1565,1565,1566,1566,0,0,0,0,0,0,0,0,0,0
1706596715.79974699,91028574,1566,1566,1567,1567,0,0,0,0,0,0,0,0,0,0
1706596715.89970708,91128534,1566,1566,1567,1567,0,0,0,0,0,0,0,0,0,0
1706596715.99966693,91228494,1566,1566,1566,1566,0,0,0,0,0,0,0,0,0,0
1706596716.09962702,91328454,1566,1566,1566,1566,0,0,0,0,0,0,0,0,0,0
1706596716.19958711,91428414,1566,1566,1565,1565,0,0,0,0,0,0,0,0,0,0
1706596716.29954696,91528374,1566,1566,1565,1565,0,0,0,0,0,0,0,0,0,0
1706596716.39950705,91628334,1566,1566,1566,1566,0,0,0,0,0,0,0,0,0,0
1706596716.49946690,91728294,1567,1567,1566,1566,0,0,0,0,0,0,0,0,0,0
1706596716.59942698,91828254,1567,1567,1567,1567,0,0,0,0,0,0,0,0,0,0
1706596716.69938707,91928214,1567,1567,1567,1567,0,0,0,0,0,0,0,0,0,0
1706596716.79934692,92028174,1566,1567,1566,1566,0,0,0,0,0,0,0,0,0,0
1706596716.90014005,92128967,1567,1567,1567,1567,0,0,0,0,0,0,0,0,0,0
1706596717.00009990,92228927,1567,1567,1567,1567,0,0,0,0,0,0,0,0,0,0
1706596717.10005999,92328887,1567,1567,1567,1567,0,0,0,0,0,0,0,0,0,0
1706596717.20002007,92428847,1567,1567,1567,1567,0,0,0,0,0,0,0,0,0,0
1706596717.29997993,92528807,1566,1566,1566,1566,0,0,0,0,0,0,0,0,0,0
1706596717.39994001,92628767,1567,1567,1567,1567,0,0,0,0,0,0,0,0,0,0
1706596717.49990010,92728727,1567,1567,1567,1567,0,0,0,0,0,0,0,0,0,0
1706596717.59985995,92828687,1568,1568,1568,1568,0,0,0,0,0,0,0,0,0,0
1706596717.69982004,92928647,1567,1567,1567,1567,0,0,0,0,0,0,0,0,0,0
1706596717.79977989,93028607,1567,1567,1567,1567,0,0,0,0,0,0,0,0,0,0
1706596717.89973998,93128567,1567,1567,1567,1567,0,0,0,0,0,0,0,0,0,0
1706596717.99970007,93228527,1567,1567,1567,1567,0,0,0,0,0,0,0,0,0,0
1706596718.09965992,93328487,1567,1566,1567,1567,0,0,0,0,0,0,0,0,0,0
1706596718.19962001,93428447,1566,1566,1566,1566,0,0,0,0,0,0,0,0,0,0
1706596718.29958010,93528407,1566,1566,1566,1566,0,0,0,0,0,0,0,0,0,0
1706596718.39953995,93628367,1567,1567,1567,1567,0,0,0,0,0,0,0,0,0,0
1706596718.49950004,93728327,1566,1566,1566,1566,0,0,0,0,0,0,0,0,0,0
1706596718.59945989,93828287,1567,1567,1566,1566,0,0,0,0,0,0,0,0,0,0
1706596718.69941998,93928247,1567,1567,1567,1567,0,0,0,0,0,0,0,0,0,0
1706596718.79938006,94028207,1566,1566,1566,1566,0,0,0,0,0,0,0,0,0,0
1706596718.89933991,94128167,1566,1566,1566,1566,0,0,0,0,0,0,0,0,0,0
1706596719.00013304,94228960,1566,1566,1566,1566,0,0,0,0,0,0,0,0,0,0
1706596719.10009289,94328920,1567,1567,1567,1567,0,0,0,0,0,0,0,0,0,0
1706596719.20005298,94428880,1567,1567,1567,1567,0,0,0,0,0,0,0,0,0,0
1706596719.30001307,94528840,1567,1567,1567,1567,0,0,0,0,0,0,0,0,0,0
1706596719.39997292,94628800,1566,1566,1566,1566,0,0,0,0,0,0,0,0,0,0
1706596719.49993300,94728760,1568,1567,1571,1564,0,0,0,0,0,0,0,0,0,0
1706596719.59989309,94828720,1566,1566,1571,1562,0,0,0,0,0,0,0,0,0,0
1706596719.69985294,94928680,1566,1565,1569,1562,0,0,0,0,0,0,0,0,0,0
1706596719.79981303,95028640,1563,1563,1566,1562,0,0,0,0,0,0,0,0,0,0
1706596719.89977288,95128600,1562,1562,1563,1562,0,0,0,0,0,0,0,0,0,0
1706596719.99973297,95228560,1560,1560,1560,1562,0,0,0,0,0,0,0,0,0,0
1706596720.09969306,95328520,1560,1560,1559,1562,0,0,0,0,0,0,0,0,0,0
1706596720.19965291,95428480,1560,1561,1559,1561,0,0,0,0,0,0,0,0,0,0
1706596720.29961300,95528440,1561,1561,1560,1561,0,0,0,0,0,0,0,0,0,0
1706596720.39957309,95628400,1561,1561,1561,1560,0,0,0,0,0,0,0,0,0,0
1706596720.49953294,95728360,1561,1561,1562,1560,0,0,0,0,0,0,0,0,0,0
1706596720.59949303,95828320,1562,1561,1563,1559,0,0,0,0,0,0,0,0,0,0
1706596720.69945312,95928280,1561,1561,1562,1560,0,0,0,0,0,0,0,0,0,0
1706596720.79941297,96028240,1561,1561,1560,1563,0,0,0,0,0,0,0,0,0,0
1706596720.89937305,96128200,1562,1562,1559,1565,0,0,0,0,0,0,0,0,0,0
1706596720.99933290,96228160,1563,1563,1559,1566,0,0,0,0,0,0,0,0,0,0
1706596721.10012603,96328953,1562,1562,1559,1565,0,0,0,0,0,0,0,0,0,0
1706596721.20008612,96428913,1560,1560,1559,1561,0,0,0,0,0,0,0,0,0,0
1706596721.30004597,96528873,1559,1559,1559,1558,0,0,0,0,0,0,0,0,0,0
1706596721.40000606,96628833,1558,1559,1560,1556,0,0,0,0,0,0,0,0,0,0
1706596721.49996591,96728793,1557,1557,1556,1557,0,0,0,0,0,0,0,0,0,0
1706596721.59992599,96828753,1555,1554,1553,1555,0,0,0,0,0,0,0,0,0,0
1706596721.69988608,96928713,1550,1550,1548,1551,0,0,0,0,0,0,0,0,0,0
1706596721.79984593,97028673,1545,1545,1544,1545,0,0,0,0,0,0,0,0,0,0
1706596721.89980602,97128633,1538,1538,1538,1538,0,0,0,0,0,0,0,0,0,0
1706596721.99976611,97228593,1532,1532,1532,1532,0,0,0,0,0,0,0,0,0,0
1706596722.09972596,97328553,1524,1525,1525,1525,0,0,0,0,0,0,0,0,0,0
1706596722.19968605,97428513,1519,1519,1520,1519,0,0,0,0,0,0,0,0,0,0
1706596722.29964590,97528473,1518,1518,1518,1518,0,0,0,0,0,0,0,0,0,0
1706596722.39960599,97628433,1518,1517,1518,1518,0,0,0,0,0,0,0,0,0,0
1706596722.49956608,97728393,1518,1518,1518,1519,0,0,0,0,0,0,0,0,0,0
1706596722.59952593,97828353,1521,1522,1522,1522,0,0,0,0,0,0,0,0,0,0
1706596722.69948602,97928313,1525,1525,1525,1525,0,0,0,0,0,0,0,0,0,0
1706596722.79944611,98028273,1530,1530,1530,1530,0,0,0,0,0,0,0,0,0,0
1706596722.89940596,98128233,1534,1534,1534,1535,0,0,0,0,0,0,0,0,0,0
1706596722.99936604,98228193,1538,1538,1538,1538,0,0,0,0,0,0,0,0,0,0
1706596723.10015893,98328986,1541,1541,1541,1541,0,0,0,0,0,0,0,0,0,0
1706596723.20011902,98428946,1543,1543,1544,1543,0,0,0,0,0,0,0,0,0,0
1706596723.30007911,98528906,1545,1545,1545,1545,0,0,0,0,0,0,0,0,0,0
1706596723.40003896,98628866,1546,1546,1546,1546,0,0,0,0,0,0,0,0,0,0
1706596723.49999905,98728826,1547,1547,1547,1547,0,0,0,0,0,0,0,0,0,0
1706596723.59995890,98828786,1548,1548,1548,1548,0,0,0,0,0,0,0,0,0,0
1706596723.69991899,98928746,1548,1548,1548,1548,0,0,0,0,0,0,0,0,0,0
1706596723.79987907,99028706,1547,1547,1547,1547,0,0,0,0,0,0,0,0,0,0
1706596723.89983892,99128666,1547,1547,1546,1547,0,0,0,0,0,0,0,0,0,0
1706596723.99979901,99228626,1546,1546,1546,1546,0,0,0,0,0,0,0,0,0,0
1706596724.09975910,99328586,1546,1547,1546,1546,0,0,0,0,0,0,0,0,0,0
1706596724.19971895,99428546,1546,1547,1547,1546,0,0,0,0,0,0,0,0,0,0
1706596724.29967904,99528506,1546,1546,1546,1545,0,0,0,0,0,0,0,0,0,0
1706596724.39963889,99628466,1545,1545,1545,1545,0,0,0,0,0,0,0,0,0,0
1706596724.49959898,99728426,1544,1544,1544,1544,0,0,0,0,0,0,0,0,0,0
1706596724.59955907,99828386,1544,1544,1544,1544,0,0,0,0,0,0,0,0,0,0
1706596724.69951892,99928346,1545,1544,1544,1545,0,0,0,0,0,0,0,0,0,0
1706596724.79947901,100028306,1543,1544,1543,1544,0,0,0,0,0,0,0,0,0,0
1706596724.89943910,100128266,1543,1543,1543,1544,0,0,0,0,0,0,0,0,0,0
1706596724.99939895,100228226,1543,1544,1544,1543,0,0,0,0,0,0,0,0,0,0
1706596725.09935904,100328186,1543,1543,1543,1543,0,0,0,0,0,0,0,0,0,0
1706596725.20015192,100428979,1544,1544,1544,1543,0,0,0,0,0,0,0,0,0,0
1706596725.30011201,100528939,1543,1543,1543,1543,0,0,0,0,0,0,0,0,0,0
1706596725.40007210,100628899,1544,1544,1544,1544,0,0,0,0,0,0,0,0,0,0
1706596725.50003195,100728859,1544,1544,1544,1544,0,0,0,0,0,0,0,0,0,0
1706596725.59999204,100828819,1544,1544,1544,1544,0,0,0,0,0,0,0,0,0,0
1706596725.69995189,100928779,1545,1544,1545,1544,0,0,0,0,0,0,0,0,0,0
1706596725.79991198,101028739,1544,1544,1544,1544,0,0,0,0,0,0,0,0,0,0
1706596725.89987206,101128699,1544,1545,1544,1544,0,0,0,0,0,0,0,0,0,0
1706596725.99983191,101228659,1543,1544,1543,1543,0,0,0,0,0,0,0,0,0,0
1706596726.09979200,101328619,1543,1543,1543,1543,0,0,0,0,0,0,0,0,0,0
1706596726.19975209,101428579,1544,1544,1544,1544,0,0,0,0,0,0,0,0,0,0
1706596726.29971194,101528539,1544,1544,1544,1544,0,0,0,0,0,0,0,0,0,0
1706596726.39967203,101628499,1544,1544,1544,1544,0,0,0,0,0,0,0,0,0,0
1706596726.49963188,101728459,1545,1544,1544,1544,0,0,0,0,0,0,0,0,0,0
1706596726.59959197,101828419,1544,1544,1544,1544,0,0,0,0,0,0,0,0,0,0
1706596726.69955206,101928379,1543,1543,1543,1543,0,0,0,0,0,0,0,0,0,0
1706596726.79951191,102028339,1543,1543,1543,1543,0,0,0,0,0,0,0,0,0,0
1706596726.89947200,102128299,1544,1543,1544,1544,0,0,0,0,0,0,0,0,0,0
1706596726.99943209,102228259,1544,1544,1545,1544,0,0,0,0,0,0,0,0,0,0
1706596727.09939194,102328219,1544,1544,1544,1545,0,0,0,0,0,0,0,0,0,0
1706596727.19935203,102428179,1544,1544,1544,1544,0,0,0,0,0,0,0,0,0,0
1706596727.30014491,102528972,1544,1544,1544,1545,0,0,0,0,0,0,0,0,0,0
1706596727.40010500,102628932,1545,1545,1545,1545,0,0,0,0,0,0,0,0,0,0
1706596727.50006509,102728892,1545,1545,1545,1545,0,0,0,0,0,0,0,0,0,0
1706596727.60002494,102828852,1544,1545,1545,1545,0,0,0,0,0,0,0,0,0,0
1706596727.69998503,102928812,1544,1544,1544,1544,0,0,0,0,0,0,0,0,0,0
1706596727.79994512,103028772,1543,1543,1543,1543,0,0,0,0,0,0,0,0,0,0
1706596727.89990497,103128732,1544,1543,1543,1544,0,0,0,0,0,0,0,0,0,0
1706596727.99986506,103228692,1544,1544,1544,1544,0,0,0,0,0,0,0,0,0,0
1706596728.09982491,103328652,1544,1544,1544,1544,0,0,0,0,0,0,0,0,0,0
1706596728.19978499,103428612,1543,1544,1544,1544,0,0,0,0,0,0,0,0,0,0
1706596728.29974508,103528572,1544,1544,1544,1544,0,0,0,0,0,0,0,0,0,0
1706596728.39970493,103628532,1544,1544,1544,1544,0,0,0,0,0,0,0,0,0,0
1706596728.49966502,103728492,1544,1544,1544,1544,0,0,0,0,0,0,0,0,0,0
1706596728.59962511,103828452,1544,1544,1544,1543,0,0,0,0,0,0,0,0,0,0
1706596728.69958496,103928412,1544,1544,1544,1544,0,0,0,0,0,0,0,0,0,0
1706596728.79954505,104028372,1544,1544,1544,1544,0,0,0,0,0,0,0,0,0,0
1706596728.89950490,104128332,1545,1544,1544,1545,0,0,0,0,0,0,0,0,0,0
1706596728.99946499,104228292,1544,1544,1544,1543,0,0,0,0,0,0,0,0,0,0
1706596729.09942508,104328252,1544,1544,1544,1544,0,0,0,0,0,0,0,0,0,0
1706596729.19938493,104428212,1543,1544,1544,1543,0,0,0,0,0,0,0,0,0,0
1706596729.29934502,104528172,1543,1544,1543,1544,0,0,0,0,0,0,0,0,0,0
1706596729.40013790,104628965,1543,1544,1543,1544,0,0,0,0,0,0,0,0,0,0
1706596729.50009799,104728925,1544,1544,1543,1544,0,0,0,0,0,0,0,0,0,0
1706596729.60005808,104828885,1544,1544,1544,1545,0,0,0,0,0,0,0,0,0,0
1706596729.70001793,104928845,1545,1545,1545,1545,0,0,0,0,0,0,0,0,0,0
1706596729.79997802,105028805,1544,1544,1544,1544,0,0,0,0,0,0,0,0,0,0
1706596729.89993811,105128765,1544,1544,1544,1544,0,0,0,0,0,0,0,0,0,0
1706596729.99989796,105228725,1544,1544,1545,1544,0,0,0,0,0,0,0,0,0,0
1706596730.09985805,105328685,1545,1544,1545,1545,0,0,0,0,0,0,0,0,0,0
1706596730.19981790,105428645,1545,1545,1545,1545,0,0,0,0,0,0,0,0,0,0
1706596730.29977798,105528605,1545,1545,1545,1545,0,0,0,0,0,0,0,0,0,0
1706596730.39973807,105628565,1544,1544,1544,1544,0,0,0,0,0,0,0,0,0,0
1706596730.49969792,105728525,1544,1543,1543,1544,0,0,0,0,0,0,0,0,0,0
1706596730.59965801,105828485,1544,1544,1544,1544,0,0,0,0,0,0,0,0,0,0
1706596730.69961810,105928445,1544,1544,1544,1544,0,0,0,0,0,0,0,0,0,0
1706596730.79957795,106028405,1544,1545,1545,1544,0,0,0,0,0,0,0,0,0,0
1706596730.89953804,106128365,1544,1544,1544,1544,0,0,0,0,0,0,0,0,0,0
1706596730.99949789,106228325,1544,1545,1545,1545,0,0,0,0,0,0,0,0,0,0
1706596731.09945798,106328285,1544,1544,1544,1544,0,0,0,0,0,0,0,0,0,0
1706596731.19941807,106428245,1544,1544,1544,1544,0,0,0,0,0,0,0,0,0,0
1706596731.29937792,106528205,1544,1544,1544,1545,0,0,0,0,0,0,0,0,0,0
1706596731.39933801,106628165,1544,1544,1544,1544,0,0,0,0,0,0,0,0,0,0
1706596731.50013089,106728958,1544,1544,1544,1544,0,0,0,0,0,0,0,0,0,0
1706596731.60009098,106828918,1544,1544,1544,1544,0,0,0,0,0,0,0,0,0,0
1706596731.70005107,106928878,1544,1543,1544,1543,0,0,0,0,0,0,0,0,0,0
1706596731.80001092,107028838,1544,1544,1544,1544,0,0,0,0,0,0,0,0,0,0
1706596731.89997101,107128798,1533,1532,1533,1532,0,0,0,0,0,0,0,0,0,0
1706596731.99993110,107228758,1408,1408,1409,1407,0,0,0,0,0,0,0,0,0,0
1706596732.09989095,107328718,1354,1352,1354,1352,0,0,0,0,0,0,0,0,0,0
1706596732.19985104,107428678,1337,1337,1338,1336,0,0,0,0,0,0,0,0,0,0
1706596732.29981089,107528638,1325,1324,1325,1324,0,0,0,0,0,0,0,0,0,0
1706596732.39977098,107628598,1300,1300,1301,1299,0,0,0,0,0,0,0,0,0,0
1706596732.49973106,107728558,1262,1260,1262,1260,0,0,0,0,0,0,0,0,0,0
1706596732.59969091,107828518,1214,1213,1215,1212,0,0,0,0,0,0,0,0,0,0
1706596732.69965100,107928478,1161,1160,1162,1159,0,0,0,0,0,0,0,0,0,0
1706596732.79961109,108028438,1104,1103,1106,1102,0,0,0,0,0,0,0,0,0,0
1706596732.89957094,108128398,1042,1040,1044,1040,0,0,0,0,0,0,0,0,0,0
1706596732.99953103,108228358,970,969,973,967,0,0,0,0,0,0,0,0,0,0
1706596733.09949112,108328318,884,881,886,880,0,0,0,0,0,0,0,0,0,0
1706596733.19945097,108428278,829,826,832,824,0,0,0,0,0,0,0,0,0,0
1706596733.29941106,108528238,829,826,832,824,0,0,0,0,0,0,0,0,0,0
1706596733.39937091,108628198,853,824,828,850,0,0,0,0,0,0,0,0,0,0
1706596733.49933100,108728158,853,824,829,850,0,0,0,0,0,0,0,0,0,0
1706596733.60012388,108828951,846,824,830,842,0,0,0,0,0,0,0,0,0,0
1706596733.70008397,108928911,846,824,830,842,0,0,0,0,0,0,0,0,0,0
1706596733.80004406,109028871,848,824,830,843,0,0,0,0,0,0,0,0,0,0
1706596733.90000391,109128831,850,824,830,845,0,0,0,0,0,0,0,0,0,0
1706596733.99996400,109228791,852,824,830,847,0,0,0,0,0,0,0,0,0,0
1706596734.09992409,109328751,854,824,831,849,0,0,0,0,0,0,0,0,0,0
1706596734.19988394,109428711,836,824,828,833,0,0,0,0,0,0,0,0,0,0
1706596734.29984403,109528671,841,824,829,837,0,0,0,0,0,0,0,0,0,0
1706596734.39980412,109628631,842,824,829,838,0,0,0,0,0,0,0,0,0,0
1706596734.49976397,109728591,843,824,829,839,0,0,0,0,0,0,0,0,0,0
1706596734.59972405,109828551,843,824,829,840,0,0,0,0,0,0,0,0,0,0
1706596734.69968390,109928511,1000,1000,1000,1000,0,0,0,0,0,0,0,0,0,0
1706596734.79964399,110028471,1000,1000,1000,1000,0,0,0,0,0,0,0,0,0,0
1706596734.89960408,110128431,1000,1000,1000,1000,0,0,0,0,0,0,0,0,0,0
1706596734.99956393,110228391,1000,1000,1000,1000,0,0,0,0,0,0,0,0,0,0
1706596735.09952402,110328351,1000,1000,1000,1000,0,0,0,0,0,0,0,0,0,0
1706596735.19948411,110428311,1000,1000,1000,1000,0,0,0,0,0,0,0,0,0,0
1706596735.29944396,110528271,1000,1000,1000,1000,0,0,0,0,0,0,0,0,0,0
1706596735.39940405,110628231,1000,1000,1000,1000,0,0,0,0,0,0,0,0,0,0
1706596735.49936390,110728191,1000,1000,1000,1000,0,0,0,0,0,0,0,0,0,0
1706596735.60015702,110828984,1000,1000,1000,1000,0,0,0,0,0,0,0,0,0,0
1706596735.70011711,110928944,1000,1000,1000,1000,0,0,0,0,0,0,0,0,0,0
1706596735.80007696,111028904,1000,1000,1000,1000,0,0,0,0,0,0,0,0,0,0
1706596735.90003705,111128864,1000,1000,1000,1000,0,0,0,0,0,0,0,0,0,0
1706596735.99999690,111228824,1000,1000,1000,1000,0,0,0,0,0,0,0,0,0,0
1706596736.09995699,111328784,1000,1000,1000,1000,0,0,0,0,0,0,0,0,0,0
1706596736.19991708,111428744,1000,1000,1000,1000,0,0,0,0,0,0,0,0,0,0
1706596736.29987693,111528704,1000,1000,1000,1000,0,0,0,0,0,0,0,0,0,0
1706596736.39983702,111628664,1000,1000,1000,1000,0,0,0,0,0,0,0,0,0,0
1706596736.49979711,111728624,1000,1000,1000,1000,0,0,0,0,0,0,0,0,0,0
1706596736.59975696,111828584,1000,1000,1000,1000,0,0,0,0,0,0,0,0,0,0
1706596736.69971704,111928544,1000,1000,1000,1000,0,0,0,0,0,0,0,0,0,0
1706596736.79967690,112028504,1000,1000,1000,1000,0,0,0,0,0,0,0,0,0,0
1706596736.89963698,112128464,1000,1000,1000,1000,0,0,0,0,0,0,0,0,0,0
1706596736.99959707,112228424,1000,1000,1000,1000,0,0,0,0,0,0,0,0,0,0
1706596737.09955692,112328384,1000,1000,1000,1000,0,0,0,0,0,0,0,0,0,0
1706596737.19951701,112428344,1000,1000,1000,1000,0,0,0,0,0,0,0,0,0,0
1706596737.29947710,112528304,1000,1000,1000,1000,0,0,0,0,0,0,0,0,0,0
1706596737.39943695,112628264,1000,1000,1000,1000,0,0,0,0,0,0,0,0,0,0
1706596737.49939704,112728224,1000,1000,1000,1000,0,0,0,0,0,0,0,0,0,0
1706596737.59935689,112828184,1000,1000,1000,1000,0,0,0,0,0,0,0,0,0,0
1706596737.70015001,112928977,1000,1000,1000,1000,0,0,0,0,0,0,0,0,0,0
1706596737.80011010,113028937,1000,1000,1000,1000,0,0,0,0,0,0,0,0,0,0
1706596737.90006995,113128897,1000,1000,1000,1000,0,0,0,0,0,0,0,0,0,0
1706596738.00003004,113228857,1000,1000,1000,1000,0,0,0,0,0,0,0,0,0,0
1706596738.09998989,113328817,1000,1000,1000,1000,0,0,0,0,0,0,0,0,0,0
1706596738.19994998,113428777,1000,1000,1000,1000,0,0,0,0,0,0,0,0,0,0
1706596738.29991007,113528737,1000,1000,1000,1000,0,0,0,0,0,0,0,0,0,0
1706596738.39986992,113628697,1000,1000,1000,1000,0,0,0,0,0,0,0,0,0,0
1706596738.49983001,113728657,1000,1000,1000,1000,0,0,0,0,0,0,0,0,0,0
1706596738.59979010,113828617,1000,1000,1000,1000,0,0,0,0,0,0,0,0,0,0
1706596738.69974995,113928577,1000,1000,1000,1000,0,0,0,0,0,0,0,0,0,0
1706596738.79971004,114028537,1000,1000,1000,1000,0,0,0,0,0,0,0,0,0,0
1706596738.89966989,114128497,1000,1000,1000,1000,0,0,0,0,0,0,0,0,0,0
1706596738.99962997,114228457,1000,1000,1000,1000,0,0,0,0,0,0,0,0,0,0
1706596739.09959006,114328417,1000,1000,1000,1000,0,0,0,0,0,0,0,0,0,0
1706596739.19954991,114428377,1000,1000,1000,1000,0,0,0,0,0,0,0,0,0,0
1706596739.29951000,114528337,1000,1000,1000,1000,0,0,0,0,0,0,0,0,0,0
1706596739.39947009,114628297,1000,1000,1000,1000,0,0,0,0,0,0,0,0,0,0
1706596739.49942994,114728257,1000,1000,1000,1000,0,0,0,0,0,0,0,0,0,0
1706596739.59939003,114828217,1000,1000,1000,1000,0,0,0,0,0,0,0,0,0,0
1706596739.69935012,114928177,1000,1000,1000,1000,0,0,0,0,0,0,0,0,0,0
1706596739.80014300,115028970,1000,1000,1000,1000,0,0,0,0,0,0,0,0,0,0
1706596739.90010309,115128930,1000,1000,1000,1000,0,0,0,0,0,0,0,0,0,0
1706596740.00006294,115228890,1000,1000,1000,1000,0,0,0,0,0,0,0,0,0,0
1706596740.10002303,115328850,1000,1000,1000,1000,0,0,0,0,0,0,0,0,0,0
1706596740.19998288,115428810,1000,1000,1000,1000,0,0,0,0,0,0,0,0,0,0
1706596740.29994297,115528770,1000,1000,1000,1000,0,0,0,0,0,0,0,0,0,0
1706596740.39990306,115628730,1000,1000,1000,1000,0,0,0,0,0,0,0,0,0,0
1706596740.49986291,115728690,1000,1000,1000,1000,0,0,0,0,0,0,0,0,0,0
1706596740.59982300,115828650,1000,1000,1000,1000,0,0,0,0,0,0,0,0,0,0
1706596740.69978309,115928610,1000,1000,1000,1000,0,0,0,0,0,0,0,0,0,0
1706596740.79974294,116028570,1000,1000,1000,1000,0,0,0,0,0,0,0,0,0,0
1706596740.89970303,116128530,1000,1000,1000,1000,0,0,0,0,0,0,0,0,0,0
1706596740.99966311,116228490,1000,1000,1000,1000,0,0,0,0,0,0,0,0,0,0
1706596741.09962296,116328450,1000,1000,1000,1000,0,0,0,0,0,0,0,0,0,0
1706596741.19958305,116428410,1000,1000,1000,1000,0,0,0,0,0,0,0,0,0,0
1706596741.29954290,116528370,1000,1000,1000,1000,0,0,0,0,0,0,0,0,0,0
1706596741.39950299,116628330,1000,1000,1000,1000,0,0,0,0,0,0,0,0,0,0
1706596741.49946308,116728290,1000,1000,1000,1000,0,0,0,0,0,0,0,0,0,0
1706596741.59942293,116828250,1000,1000,1000,1000,0,0,0,0,0,0,0,0,0,0
1706596741.69938302,116928210,1000,1000,1000,1000,0,0,0,0,0,0,0,0,0,0
