TimeUS,M1,M2,M3,M4,TimeUS,C1,C2,C3,C4
43418459,1000,1000,1000,1000,43428455,1000,1000,1000,1000
43420958,1000,1000,1000,1000,43528415,1000,1000,1000,1000
43423457,1000,1000,1000,1000,43628375,1000,1000,1000,1000
43425956,1000,1000,1000,1000,43728335,1000,1000,1000,1000
43428455,1000,1000,1000,1000,43828295,1000,1000,1000,1000
43430954,1000,1000,1000,1000,43928255,1000,1000,1000,1000
43433453,1000,1000,1000,1000,44028215,1000,1000,1000,1000
43435952,1000,1000,1000,1000,44128175,1000,1000,1000,1000
43438451,1000,1000,1000,1000,44228968,1000,1000,1000,1000
43440950,1000,1000,1000,1000,44328928,1000,1000,1000,1000
43443449,1000,1000,1000,1000,44428888,1000,1000,1000,1000
43445948,1000,1000,1000,1000,44528848,1000,1000,1000,1000
43448447,1000,1000,1000,1000,44628808,1000,1000,1000,1000
43450946,1000,1000,1000,1000,44728768,1000,1000,1000,1000
43453445,1000,1000,1000,1000,44828728,1000,1000,1000,1000
43455944,1000,1000,1000,1000,44928688,1000,1000,1000,1000
43458443,1000,1000,1000,1000,45028648,1000,1000,1000,1000
43460942,1000,1000,1000,1000,45128608,1000,1000,1000,1000
43463441,1000,1000,1000,1000,45228568,1000,1000,1000,1000
43465940,1000,1000,1000,1000,45328528,1000,1000,1000,1000
43468439,1000,1000,1000,1000,45428488,1003,1003,1003,1003
43470938,1000,1000,1000,1000,45528448,1033,1033,1033,1033
43473437,1000,1000,1000,1000,45628408,1063,1063,1063,1063
43475936,1000,1000,1000,1000,45728368,1093,1093,1093,1093
43478435,1000,1000,1000,1000,45828328,1122,1122,1122,1122
43480934,1000,1000,1000,1000,45928288,1177,1170,1171,1177
43483433,1000,1000,1000,1000,46028248,1419,1414,1415,1419
43485932,1000,1000,1000,1000,46128208,1595,1590,1591,1595
43488431,1000,1000,1000,1000,46228168,1740,1735,1736,1740
43490930,1000,1000,1000,1000,46328961,1866,1862,1862,1866
43493429,1000,1000,1000,1000,46428921,1902,1899,1899,1902
43495928,1000,1000,1000,1000,46528881,1801,1799,1799,1801
43498427,1000,1000,1000,1000,46628841,1679,1680,1681,1679
43500926,1000,1000,1000,1000,46728801,1625,1627,1627,1626
43503425,1000,1000,1000,1000,46828761,1622,1624,1623,1622
43505924,1000,1000,1000,1000,46928721,1631,1632,1632,1631
43508423,1000,1000,1000,1000,47028681,1633,1634,1634,1633
43510922,1000,1000,1000,1000,47128641,1627,1627,1627,1627
43513421,1000,1000,1000,1000,47228601,1620,1619,1619,1619
43515920,1000,1000,1000,1000,47328561,1613,1613,1612,1613
43518419,1000,1000,1000,1000,47428521,1610,1611,1610,1611
43520918,1000,1000,1000,1000,47528481,1612,1612,1611,1612
43523417,1000,1000,1000,1000,47628441,1613,1613,1614,1613
43525916,1000,1000,1000,1000,47728401,1586,1587,1587,1586
43528415,1000,1000,1000,1000,47828361,1570,1570,1570,1570
43530914,1000,1000,1000,1000,47928321,1560,1559,1559,1560
43533413,1000,1000,1000,1000,48028281,1551,1550,1551,1551
43535912,1000,1000,1000,1000,48128241,1544,1544,1542,1546
43538411,1000,1000,1000,1000,48228201,1537,1537,1535,1540
43540910,1000,1000,1000,1000,48328161,1532,1532,1529,1535
43543409,1000,1000,1000,1000,48428954,1527,1528,1525,1530
43545908,1000,1000,1000,1000,48528914,1527,1527,1526,1528
43548407,1000,1000,1000,1000,48628874,1528,1528,1529,1527
43550906,1000,1000,1000,1000,48728834,1532,1531,1533,1530
43553405,1000,1000,1000,1000,48828794,1534,1534,1537,1532
43555904,1000,1000,1000,1000,48928754,1538,1537,1539,1536
43558403,1000,1000,1000,1000,49028714,1541,1541,1542,1540
43560902,1000,1000,1000,1000,49128674,1544,1544,1551,1537
43563401,1000,1000,1000,1000,49228634,1546,1547,1550,1543
43565900,1000,1000,1000,1000,49328594,1548,1548,1547,1550
43568399,1000,1000,1000,1000,49428554,1550,1550,1545,1555
43570898,1000,1000,1000,1000,49528514,1551,1551,1546,1556
43573397,1000,1000,1000,1000,49628474,1551,1551,1547,1555
43575896,1000,1000,1000,1000,49728434,1554,1554,1552,1556
43578395,1000,1000,1000,1000,49828394,1556,1556,1558,1555
43580894,1000,1000,1000,1000,49928354,1560,1559,1563,1556
43583393,1000,1000,1000,1000,50028314,1562,1562,1565,1559
43585892,1000,1000,1000,1000,50128274,1564,1564,1565,1562
43588391,1000,1000,1000,1000,50228234,1564,1564,1564,1564
43590890,1000,1000,1000,1000,50328194,1562,1561,1565,1568
43593389,1000,1000,1000,1000,50428154,1558,1558,1569,1573
43595888,1000,1000,1000,1000,50528947,1558,1558,1568,1571
43598387,1000,1000,1000,1000,50628907,1561,1562,1568,1570
43600886,1000,1000,1000,1000,50728867,1564,1565,1567,1567
43603385,1000,1000,1000,1000,50828827,1569,1569,1567,1567
43605884,1000,1000,1000,1000,50928787,1570,1570,1566,1565
43608383,1000,1000,1000,1000,51028747,1573,1573,1566,1566
43610882,1000,1000,1000,1000,51128707,1574,1574,1566,1566
43613381,1000,1000,1000,1000,51228667,1574,1573,1566,1565
43615880,1000,1000,1000,1000,51328627,1574,1573,1567,1567
43618379,1000,1000,1000,1000,51428587,1574,1574,1568,1569
43620878,1000,1000,1000,1000,51528547,1573,1573,1569,1570
43623377,1000,1000,1000,1000,51628507,1572,1572,1571,1571
43625876,1000,1000,1000,1000,51728467,1573,1574,1574,1574
43628375,1000,1000,1000,1000,51828427,1573,1574,1576,1575
43630874,1000,1000,1000,1000,51928387,1573,1573,1577,1575
43633373,1000,1000,1000,1000,52028347,1574,1575,1578,1577
43635872,1000,1000,1000,1000,52128307,1574,1574,1577,1576
43638371,1000,1000,1000,1000,52228267,1575,1575,1578,1578
43640870,1000,1000,1000,1000,52328227,1575,1575,1577,1577
43643369,1000,1000,1000,1000,52428187,1574,1574,1575,1576
43645868,1000,1000,1000,1000,52528980,1576,1575,1576,1576
43648367,1000,1000,1000,1000,52628940,1577,1577,1577,1577
43650866,1000,1000,1000,1000,52728900,1576,1576,1576,1576
43653365,1000,1000,1000,1000,52828860,1578,1578,1577,1577
43655864,1000,1000,1000,1000,52928820,1578,1578,1577,1577
43658363,1000,1000,1000,1000,53028780,1578,1578,1577,1577
43660862,1000,1000,1000,1000,53128740,1578,1578,1577,1577
43663361,1000,1000,1000,1000,53228700,1579,1578,1578,1578
43665860,1000,1000,1000,1000,53328660,1579,1579,1578,1578
43668359,1000,1000,1000,1000,53428620,1579,1579,1579,1579
43670858,1000,1000,1000,1000,53528580,1578,1578,1578,1578
43673357,1000,1000,1000,1000,53628540,1578,1578,1579,1579
43675856,1000,1000,1000,1000,53728500,1577,1578,1578,1578
43678355,1000,1000,1000,1000,53828460,1578,1578,1579,1579
43680854,1000,1000,1000,1000,53928420,1579,1579,1579,1579
43683353,1000,1000,1000,1000,54028380,1579,1578,1579,1579
43685852,1000,1000,1000,1000,54128340,1579,1579,1579,1580
43688351,1000,1000,1000,1000,54228300,1579,1579,1579,1579
43690850,1000,1000,1000,1000,54328260,1580,1580,1580,1580
43693349,1000,1000,1000,1000,54428220,1579,1578,1579,1578
43695848,1000,1000,1000,1000,54528180,1579,1579,1579,1579
43698347,1000,1000,1000,1000,54628973,1579,1579,1579,1579
43700846,1000,1000,1000,1000,54728933,1579,1579,1579,1580
43703345,1000,1000,1000,1000,54828893,1579,1579,1579,1579
43705844,1000,1000,1000,1000,54928853,1579,1579,1579,1579
43708343,1000,1000,1000,1000,55028813,1580,1580,1580,1580
43710842,1000,1000,1000,1000,55128773,1580,1580,1580,1580
43713341,1000,1000,1000,1000,55228733,1581,1580,1581,1580
43715840,1000,1000,1000,1000,55328693,1580,1580,1580,1580
43718339,1000,1000,1000,1000,55428653,1580,1580,1580,1580
43720838,1000,1000,1000,1000,55528613,1581,1581,1582,1581
43723337,1000,1000,1000,1000,55628573,1582,1581,1581,1582
43725836,1000,1000,1000,1000,55728533,1581,1581,1581,1581
43728335,1000,1000,1000,1000,55828493,1581,1580,1581,1581
43730834,1000,1000,1000,1000,55928453,1580,1581,1580,1581
43733333,1000,1000,1000,1000,56028413,1582,1581,1582,1582
43735832,1000,1000,1000,1000,56128373,1581,1581,1581,1581
43738331,1000,1000,1000,1000,56228333,1581,1581,1582,1581
43740830,1000,1000,1000,1000,56328293,1582,1581,1581,1581
43743329,1000,1000,1000,1000,56428253,1581,1581,1581,1581
43745828,1000,1000,1000,1000,56528213,1582,1582,1582,1582
43748327,1000,1000,1000,1000,56628173,1582,1582,1586,1578
43750826,1000,1000,1000,1000,56728966,1581,1583,1588,1573
43753325,1000,1000,1000,1000,56828926,1580,1582,1582,1574
43755824,1000,1000,1000,1000,56928886,1577,1580,1571,1573
43758323,1000,1000,1000,1000,57028846,1577,1579,1564,1570
43760822,1000,1000,1000,1000,57128806,1576,1578,1558,1566
43763321,1000,1000,1000,1000,57228766,1577,1577,1556,1561
43765820,1000,1000,1000,1000,57328726,1578,1577,1555,1557
43768319,1000,1000,1000,1000,57428686,1579,1578,1556,1555
43770818,1000,1000,1000,1000,57528646,1578,1577,1556,1554
43773317,1000,1000,1000,1000,57628606,1577,1577,1556,1553
43775816,1000,1000,1000,1000,57728566,1576,1576,1555,1554
43778315,1000,1000,1000,1000,57828526,1574,1576,1554,1553
43780814,1000,1000,1000,1000,57928486,1575,1576,1554,1554
43783313,1000,1000,1000,1000,58028446,1575,1576,1552,1553
43785812,1000,1000,1000,1000,58128406,1576,1577,1552,1552
43788311,1000,1000,1000,1000,58228366,1578,1579,1550,1550
43790810,1000,1000,1000,1000,58328326,1580,1580,1547,1548
43793309,1000,1000,1000,1000,58428286,1583,1584,1545,1545
43795808,1000,1000,1000,1000,58528246,1586,1587,1543,1542
43798307,1000,1000,1000,1000,58628206,1588,1589,1540,1539
43800806,1000,1000,1000,1000,58728166,1591,1592,1537,1537
43803305,1000,1000,1000,1000,58828959,1593,1593,1535,1535
43805804,1000,1000,1000,1000,58928919,1594,1594,1535,1535
43808303,1000,1000,1000,1000,59028879,1595,1594,1535,1537
43810802,1000,1000,1000,1000,59128839,1594,1593,1536,1539
43813301,1000,1000,1000,1000,59228799,1591,1591,1540,1543
43815800,1000,1000,1000,1000,59328759,1586,1585,1546,1549
43818299,1000,1000,1000,1000,59428719,1580,1578,1555,1558
43820798,1000,1000,1000,1000,59528679,1572,1568,1565,1568
43823297,1000,1000,1000,1000,59628639,1561,1557,1577,1579
43825796,1000,1000,1000,1000,59728599,1551,1547,1591,1591
43828295,1000,1000,1000,1000,59828559,1540,1538,1601,1601
43830794,1000,1000,1000,1000,59928519,1533,1532,1609,1608
43833293,1000,1000,1000,1000,60028479,1528,1530,1614,1613
43835792,1000,1000,1000,1000,60128439,1529,1530,1615,1614
43838291,1000,1000,1000,1000,60228399,1532,1535,1612,1612
43840790,1000,1000,1000,1000,60328359,1539,1541,1607,1608
43843289,1000,1000,1000,1000,60428319,1548,1549,1602,1602
43845788,1000,1000,1000,1000,60528279,1555,1556,1593,1594
43848287,1000,1000,1000,1000,60628239,1565,1565,1587,1587
43850786,1000,1000,1000,1000,60728199,1572,1572,1580,1579
43853285,1000,1000,1000,1000,60828159,1580,1579,1575,1574
43855784,1000,1000,1000,1000,60928952,1584,1583,1570,1570
43858283,1000,1000,1000,1000,61028912,1587,1586,1567,1568
43860782,1000,1000,1000,1000,61128872,1589,1587,1567,1567
43863281,1000,1000,1000,1000,61228832,1588,1587,1568,1568
43865780,1000,1000,1000,1000,61328792,1586,1585,1569,1569
43868279,1000,1000,1000,1000,61428752,1583,1583,1571,1572
43870778,1000,1000,1000,1000,61528712,1581,1581,1575,1575
43873277,1000,1000,1000,1000,61628672,1578,1578,1578,1577
43875776,1000,1000,1000,1000,61728632,1575,1575,1580,1580
43878275,1000,1000,1000,1000,61828592,1573,1574,1582,1582
43880774,1000,1000,1000,1000,61928552,1572,1573,1583,1583
43883273,1000,1000,1000,1000,62028512,1572,1572,1583,1583
43885772,1000,1000,1000,1000,62128472,1572,1573,1583,1583
43888271,1000,1000,1000,1000,62228432,1574,1575,1584,1583
43890770,1000,1000,1000,1000,62328392,1477,1478,1484,1485
43893269,1000,1000,1000,1000,62428352,1535,1535,1537,1542
43895768,1000,1000,1000,1000,62528312,1557,1557,1559,1559
43898267,1000,1000,1000,1000,62628272,1574,1573,1575,1572
43900766,1000,1000,1000,1000,62728232,1585,1585,1585,1581
43903265,1000,1000,1000,1000,62828192,1593,1593,1592,1588
43905764,1000,1000,1000,1000,62928985,1597,1597,1594,1593
43908263,1000,1000,1000,1000,63028945,1598,1598,1594,1594
43910762,1000,1000,1000,1000,63128905,1599,1599,1594,1596
43913261,1000,1000,1000,1000,63228865,1598,1598,1594,1595
43915760,1000,1000,1000,1000,63328825,1595,1595,1591,1593
43918259,1000,1000,1000,1000,63428785,1593,1593,1590,1592
43920758,1000,1000,1000,1000,63528745,1591,1591,1589,1590
43923257,1000,1000,1000,1000,63628705,1588,1588,1588,1588
43925756,1000,1000,1000,1000,63728665,1587,1587,1588,1588
43928255,1000,1000,1000,1000,63828625,1585,1585,1587,1586
43930754,1000,1000,1000,1000,63928585,1583,1583,1585,1584
43933253,1000,1000,1000,1000,64028545,1582,1582,1583,1583
43935752,1000,1000,1000,1000,64128505,1580,1580,1581,1582
43938251,1000,1000,1000,1000,64228465,1579,1580,1581,1581
43940750,1000,1000,1000,1000,64328425,1579,1579,1580,1580
43943249,1000,1000,1000,1000,64428385,1579,1579,1580,1580
43945748,1000,1000,1000,1000,64528345,1579,1579,1579,1579
43948247,1000,1000,1000,1000,64628305,1578,1578,1578,1578
43950746,1000,1000,1000,1000,64728265,1578,1580,1584,1571
43953245,1000,1000,1000,1000,64828225,1579,1582,1582,1570
43955744,1000,1000,1000,1000,64928185,1578,1581,1573,1569
43958243,1000,1000,1000,1000,65028978,1577,1580,1564,1567
43960742,1000,1000,1000,1000,65128938,1576,1578,1556,1563
43963241,1000,1000,1000,1000,65228898,1577,1578,1552,1559
43965740,1000,1000,1000,1000,65328858,1579,1577,1550,1555
43968239,1000,1000,1000,1000,65428818,1580,1578,1551,1552
43970738,1000,1000,1000,1000,65528778,1580,1579,1552,1551
43973237,1000,1000,1000,1000,65628738,1579,1579,1553,1551
43975736,1000,1000,1000,1000,65728698,1579,1580,1555,1552
43978235,1000,1000,1000,1000,65828658,1577,1579,1554,1551
43980734,1000,1000,1000,1000,65928618,1576,1578,1553,1551
43983233,1000,1000,1000,1000,66028578,1576,1577,1552,1552
43985732,1000,1000,1000,1000,66128538,1578,1579,1551,1552
43988231,1000,1000,1000,1000,66228498,1578,1579,1549,1550
43990730,1000,1000,1000,1000,66328458,1580,1581,1548,1549
43993229,1000,1000,1000,1000,66428418,1582,1583,1547,1547
43995728,1000,1000,1000,1000,66528378,1584,1584,1545,1545
43998227,1000,1000,1000,1000,66628338,1586,1587,1544,1543
44000726,1000,1000,1000,1000,66728298,1587,1588,1541,1541
44003225,1000,1000,1000,1000,66828258,1589,1591,1539,1541
44005724,1000,1000,1000,1000,66928218,1592,1593,1539,1541
44008223,1000,1000,1000,1000,67028178,1592,1593,1540,1542
44010722,1000,1000,1000,1000,67128971,1592,1590,1544,1546
44013221,1000,1000,1000,1000,67228931,1590,1586,1550,1552
44015720,1000,1000,1000,1000,67328891,1583,1579,1556,1559
44018219,1000,1000,1000,1000,67428851,1575,1570,1565,1567
44020718,1000,1000,1000,1000,67528811,1565,1562,1576,1578
44023217,1000,1000,1000,1000,67628771,1556,1554,1587,1589
44025716,1000,1000,1000,1000,67728731,1548,1546,1597,1597
44028215,1000,1000,1000,1000,67828691,1541,1541,1604,1604
44030714,1000,1000,1000,1000,67928651,1536,1537,1608,1607
44033213,1000,1000,1000,1000,68028611,1536,1538,1611,1610
44035712,1000,1000,1000,1000,68128571,1538,1540,1610,1610
44038211,1000,1000,1000,1000,68228531,1543,1545,1608,1607
44040710,1000,1000,1000,1000,68328491,1547,1549,1603,1601
44043209,1000,1000,1000,1000,68428451,1555,1556,1597,1596
44045708,1000,1000,1000,1000,68528411,1562,1563,1591,1590
44048207,1000,1000,1000,1000,68628371,1570,1569,1584,1583
44050706,1000,1000,1000,1000,68728331,1576,1575,1578,1579
44053205,1000,1000,1000,1000,68828291,1581,1580,1573,1573
44055704,1000,1000,1000,1000,68928251,1585,1584,1570,1570
44058203,1000,1000,1000,1000,69028211,1587,1585,1567,1568
44060702,1000,1000,1000,1000,69128171,1588,1586,1567,1568
44063201,1000,1000,1000,1000,69228964,1587,1586,1568,1568
44065700,1000,1000,1000,1000,69328924,1586,1585,1570,1570
44068199,1000,1000,1000,1000,69428884,1583,1583,1572,1572
44070698,1000,1000,1000,1000,69528844,1581,1582,1575,1575
44073197,1000,1000,1000,1000,69628804,1580,1579,1579,1578
44075696,1000,1000,1000,1000,69728764,1577,1577,1580,1580
44078195,1000,1000,1000,1000,69828724,1576,1576,1582,1583
44080694,1000,1000,1000,1000,69928684,1574,1575,1584,1584
44083193,1000,1000,1000,1000,70028644,1573,1574,1585,1584
44085692,1000,1000,1000,1000,70128604,1573,1574,1584,1584
44088191,1000,1000,1000,1000,70228564,1575,1576,1585,1585
44090690,1000,1000,1000,1000,70328524,1575,1576,1584,1584
44093189,1000,1000,1000,1000,70428484,1576,1577,1582,1583
44095688,1000,1000,1000,1000,70528444,1576,1577,1580,1581
44098187,1000,1000,1000,1000,70628404,1578,1578,1580,1580
44100686,1000,1000,1000,1000,70728364,1580,1580,1579,1579
44103185,1000,1000,1000,1000,70828324,1581,1580,1578,1578
44105684,1000,1000,1000,1000,70928284,1581,1581,1577,1577
44108183,1000,1000,1000,1000,71028244,1582,1582,1577,1577
44110682,1000,1000,1000,1000,71128204,1582,1582,1577,1577
44113181,1000,1000,1000,1000,71228164,1582,1581,1577,1577
44115680,1000,1000,1000,1000,71328957,1581,1581,1578,1578
44118179,1000,1000,1000,1000,71428917,1580,1580,1578,1578
44120678,1000,1000,1000,1000,71528877,1580,1580,1579,1579
44123177,1000,1000,1000,1000,71628837,1580,1580,1579,1580
44125676,1000,1000,1000,1000,71728797,1580,1580,1580,1581
44128175,1000,1000,1000,1000,71828757,1580,1580,1581,1581
44130674,1000,1000,1000,1000,71928717,1579,1580,1581,1581
44133173,1000,1000,1000,1000,72028677,1580,1580,1582,1581
44135672,1000,1000,1000,1000,72128637,1580,1580,1582,1582
44138171,1000,1000,1000,1000,72228597,1581,1580,1582,1582
44140670,1000,1000,1000,1000,72328557,1581,1581,1583,1583
44143169,1000,1000,1000,1000,72428517,1581,1581,1582,1582
44145668,1000,1000,1000,1000,72528477,1581,1581,1582,1582
44148167,1000,1000,1000,1000,72628437,1581,1581,1581,1581
44150666,1000,1000,1000,1000,72728397,1582,1582,1581,1581
44153165,1000,1000,1000,1000,72828357,1582,1582,1586,1576
44155664,1000,1000,1000,1000,72928317,1580,1582,1586,1571
44158163,1000,1000,1000,1000,73028277,1579,1582,1579,1571
44160662,1000,1000,1000,1000,73128237,1578,1581,1570,1571
44163161,1000,1000,1000,1000,73228197,1577,1579,1562,1568
44165660,1000,1000,1000,1000,73328157,1576,1578,1556,1563
44168159,1000,1000,1000,1000,73428950,1578,1577,1554,1560
44170658,1000,1000,1000,1000,73528910,1579,1578,1554,1557
44173157,1000,1000,1000,1000,73628870,1580,1578,1555,1554
44175656,1000,1000,1000,1000,73728830,1580,1579,1556,1553
44178155,1000,1000,1000,1000,73828790,1578,1578,1555,1552
44180654,1000,1000,1000,1000,73928750,1577,1578,1556,1553
44183986,1000,1000,1000,1000,74028710,1576,1578,1554,1553
44186485,1000,1000,1000,1000,74128670,1575,1576,1552,1553
44188984,1000,1000,1000,1000,74228630,1576,1577,1552,1553
44191483,1000,1000,1000,1000,74328590,1576,1577,1551,1551
44193982,1000,1000,1000,1000,74428550,1578,1579,1550,1550
44196481,1000,1000,1000,1000,74528510,1580,1580,1548,1548
44198980,1000,1000,1000,1000,74628470,1581,1582,1545,1545
44201479,1000,1000,1000,1000,74728430,1585,1586,1544,1544
44203978,1000,1000,1000,1000,74828390,1587,1588,1542,1541
44206477,1000,1000,1000,1000,74928350,1590,1591,1541,1541
44208976,1000,1000,1000,1000,75028310,1592,1592,1539,1540
44211475,1000,1000,1000,1000,75128270,1592,1593,1536,1538
44213974,1000,1000,1000,1000,75228230,1594,1594,1538,1539
44216473,1000,1000,1000,1000,75328190,1593,1593,1539,1542
44218972,1000,1000,1000,1000,75428983,1591,1589,1544,1546
44221471,1000,1000,1000,1000,75528943,1587,1583,1550,1553
44223970,1000,1000,1000,1000,75628903,1579,1575,1559,1562
44226469,1000,1000,1000,1000,75728863,1570,1565,1569,1572
44228968,1000,1000,1000,1000,75828823,1560,1556,1581,1583
44231467,1000,1000,1000,1000,75928783,1549,1547,1593,1593
44233966,1000,1000,1000,1000,76028743,1541,1540,1602,1601
44236465,1000,1000,1000,1000,76128703,1534,1534,1608,1608
44238964,1000,1000,1000,1000,76228663,1532,1534,1613,1613
44241463,1000,1000,1000,1000,76328623,1534,1536,1614,1613
44243962,1000,1000,1000,1000,76428583,1537,1539,1611,1611
44246461,1000,1000,1000,1000,76528543,1543,1545,1608,1607
44248960,1000,1000,1000,1000,76628503,1550,1551,1602,1602
44251459,1000,1000,1000,1000,76728463,1557,1558,1595,1594
44253958,1000,1000,1000,1000,76828423,1565,1565,1588,1587
44256457,1000,1000,1000,1000,76928383,1572,1571,1581,1580
44258956,1000,1000,1000,1000,77028343,1579,1578,1575,1575
44261455,1000,1000,1000,1000,77128303,1584,1582,1570,1570
44263954,1000,1000,1000,1000,77228263,1587,1585,1567,1567
44266453,1000,1000,1000,1000,77328223,1589,1588,1566,1566
44268952,1000,1000,1000,1000,77428183,1588,1587,1565,1565
44271451,1000,1000,1000,1000,77528976,1586,1585,1566,1566
44273950,1000,1000,1000,1000,77628936,1585,1584,1569,1569
44276449,1000,1000,1000,1000,77728896,1582,1582,1572,1572
44278948,1000,1000,1000,1000,77828856,1580,1580,1575,1575
44281447,1000,1000,1000,1000,77928816,1577,1577,1578,1578
44283946,1000,1000,1000,1000,78028776,1575,1575,1580,1580
44286445,1000,1000,1000,1000,78128736,1573,1574,1582,1582
44288944,1000,1000,1000,1000,78228696,1571,1572,1583,1583
44291443,1000,1000,1000,1000,78328656,1571,1571,1583,1583
44293942,1000,1000,1000,1000,78428616,1572,1572,1584,1584
44296441,1000,1000,1000,1000,78528576,1573,1574,1584,1584
44298940,1000,1000,1000,1000,78628536,1574,1574,1582,1582
44301439,1000,1000,1000,1000,78728496,1576,1576,1581,1582
44303938,1000,1000,1000,1000,78828456,1577,1577,1580,1580
44306437,1000,1000,1000,1000,78928416,1579,1578,1579,1579
44308936,1000,1000,1000,1000,79028376,1581,1580,1579,1578
44311435,1000,1000,1000,1000,79128336,1582,1581,1578,1578
44313934,1000,1000,1000,1000,79228296,1582,1582,1578,1578
44316433,1000,1000,1000,1000,79328256,1583,1582,1578,1578
44318932,1000,1000,1000,1000,79428216,1582,1582,1577,1578
44321431,1000,1000,1000,1000,79528176,1582,1582,1578,1578
44323930,1000,1000,1000,1000,79628969,1582,1582,1578,1578
44326429,1000,1000,1000,1000,79728929,1580,1581,1578,1578
44328928,1000,1000,1000,1000,79828889,1580,1580,1579,1579
44331427,1000,1000,1000,1000,79928849,1580,1580,1580,1580
44333926,1000,1000,1000,1000,80028809,1580,1580,1581,1580
44336425,1000,1000,1000,1000,80128769,1580,1580,1581,1581
44338924,1000,1000,1000,1000,80228729,1580,1581,1582,1582
44341423,1000,1000,1000,1000,80328689,1579,1580,1582,1581
44343922,1000,1000,1000,1000,80428649,1580,1580,1582,1581
44346421,1000,1000,1000,1000,80528609,1580,1580,1581,1581
44348920,1000,1000,1000,1000,80628569,1580,1580,1581,1582
44351419,1000,1000,1000,1000,80728529,1580,1580,1582,1579
44353918,1000,1000,1000,1000,80828489,1581,1582,1587,1573
44356417,1000,1000,1000,1000,80928449,1580,1581,1584,1574
44358916,1000,1000,1000,1000,81028409,1578,1578,1577,1575
44361415,1000,1000,1000,1000,81128369,1574,1574,1570,1575
44363914,1000,1000,1000,1000,81228329,1571,1571,1566,1573
44366413,1000,1000,1000,1000,81328289,1570,1569,1565,1571
44368912,1000,1000,1000,1000,81428249,1567,1567,1564,1568
44371411,1000,1000,1000,1000,81528209,1567,1566,1565,1566
44373910,1000,1000,1000,1000,81628169,1566,1566,1567,1565
44376409,1000,1000,1000,1000,81728962,1566,1565,1567,1564
44378908,1000,1000,1000,1000,81828922,1565,1565,1567,1564
44381407,1000,1000,1000,1000,81928882,1564,1564,1566,1563
44383906,1000,1000,1000,1000,82028842,1563,1564,1565,1564
44386405,1000,1000,1000,1000,82128802,1563,1563,1563,1563
44388904,1000,1000,1000,1000,82228762,1562,1562,1562,1563
44391403,1000,1000,1000,1000,82328722,1561,1562,1562,1562
44393902,1000,1000,1000,1000,82428682,1560,1561,1561,1561
44396401,1000,1000,1000,1000,82528642,1560,1560,1561,1561
44398900,1000,1000,1000,1000,82628602,1559,1558,1559,1559
44401399,1000,1000,1000,1000,82728562,1559,1559,1560,1559
44403898,1000,1000,1000,1000,82828522,1559,1559,1559,1559
44406397,1000,1000,1000,1000,82928482,1558,1558,1559,1558
44408896,1000,1000,1000,1000,83028442,1559,1559,1559,1558
44411395,1000,1000,1000,1000,83128402,1560,1559,1560,1559
44413894,1000,1000,1000,1000,83228362,1559,1559,1559,1558
44416393,1000,1000,1000,1000,83328322,1559,1559,1560,1558
44418892,1000,1000,1000,1000,83428282,1559,1559,1560,1557
44421391,1000,1000,1000,1000,83528242,1559,1559,1560,1557
44423890,1000,1000,1000,1000,83628202,1559,1559,1558,1559
44426389,1000,1000,1000,1000,83728162,1560,1560,1557,1562
44428888,1000,1000,1000,1000,83828955,1561,1560,1557,1564
44431387,1000,1000,1000,1000,83928915,1562,1561,1558,1565
44433886,1000,1000,1000,1000,84028875,1561,1561,1559,1563
44436385,1000,1000,1000,1000,84128835,1561,1560,1560,1560
44438884,1000,1000,1000,1000,84228795,1560,1560,1562,1558
44441383,1000,1000,1000,1000,84328755,1560,1560,1561,1560
44443882,1000,1000,1000,1000,84428715,1557,1558,1556,1559
44446381,1000,1000,1000,1000,84528675,1553,1553,1551,1555
44448880,1000,1000,1000,1000,84628635,1548,1548,1547,1549
44451379,1000,1000,1000,1000,84728595,1542,1542,1542,1542
44453878,1000,1000,1000,1000,84828555,1536,1536,1536,1536
44456377,1000,1000,1000,1000,84928515,1528,1528,1529,1528
44458876,1000,1000,1000,1000,85028475,1522,1522,1523,1522
44461375,1000,1000,1000,1000,85128435,1520,1520,1520,1520
44463874,1000,1000,1000,1000,85228395,1519,1519,1519,1519
44466373,1000,1000,1000,1000,85328355,1521,1521,1520,1521
44468872,1000,1000,1000,1000,85428315,1524,1523,1523,1524
44471371,1000,1000,1000,1000,85528275,1527,1527,1527,1528
44473870,1000,1000,1000,1000,85628235,1531,1531,1531,1531
44476369,1000,1000,1000,1000,85728195,1536,1535,1535,1535
44478868,1000,1000,1000,1000,85828155,1538,1538,1539,1538
44481367,1000,1000,1000,1000,85928948,1542,1542,1542,1541
44483866,1000,1000,1000,1000,86028908,1543,1543,1543,1543
44486365,1000,1000,1000,1000,86128868,1544,1544,1544,1544
44488864,1000,1000,1000,1000,86228828,1545,1546,1546,1545
44491363,1000,1000,1000,1000,86328788,1546,1546,1546,1546
44493862,1000,1000,1000,1000,86428748,1546,1547,1546,1547
44496361,1000,1000,1000,1000,86528708,1546,1546,1546,1546
44498860,1000,1000,1000,1000,86628668,1546,1546,1546,1546
44501359,1000,1000,1000,1000,86728628,1547,1546,1546,1546
44503858,1000,1000,1000,1000,86828588,1546,1546,1546,1546
44506357,1000,1000,1000,1000,86928548,1546,1546,1546,1546
44508856,1000,1000,1000,1000,87028508,1546,1546,1546,1546
44511355,1000,1000,1000,1000,87128468,1545,1545,1545,1545
44513854,1000,1000,1000,1000,87228428,1545,1545,1545,1545
44516353,1000,1000,1000,1000,87328388,1545,1545,1545,1545
44518852,1000,1000,1000,1000,87428348,1545,1546,1545,1545
44521351,1000,1000,1000,1000,87528308,1546,1545,1545,1546
44523850,1000,1000,1000,1000,87628268,1545,1545,1545,1545
44526349,1000,1000,1000,1000,87728228,1544,1545,1544,1544
44528848,1000,1000,1000,1000,87828188,1544,1544,1544,1543
44531347,1000,1000,1000,1000,87928981,1543,1543,1544,1543
44533846,1000,1000,1000,1000,88028941,1544,1544,1544,1544
44536345,1000,1000,1000,1000,88128901,1544,1544,1544,1544
44538844,1000,1000,1000,1000,88228861,1543,1543,1543,1544
44541343,1000,1000,1000,1000,88328821,1543,1544,1543,1544
44543842,1000,1000,1000,1000,88428781,1544,1544,1544,1544
44546341,1000,1000,1000,1000,88528741,1544,1544,1544,1544
44548840,1000,1000,1000,1000,88628701,1544,1544,1544,1543
44551339,1000,1000,1000,1000,88728661,1543,1543,1543,1543
44553838,1000,1000,1000,1000,88828621,1544,1544,1544,1544
44556337,1000,1000,1000,1000,88928581,1544,1544,1544,1544
44558836,1000,1000,1000,1000,89028541,1544,1544,1544,1543
44561335,1000,1000,1000,1000,89128501,1545,1544,1545,1544
44563834,1000,1000,1000,1000,89228461,1545,1544,1545,1545
44566333,1000,1000,1000,1000,89328421,1544,1543,1543,1544
44568832,1000,1000,1000,1000,89428381,1544,1544,1543,1544
44571331,1000,1000,1000,1000,89528341,1544,1544,1544,1544
44573830,1000,1000,1000,1000,89628301,1544,1545,1545,1544
44576329,1000,1000,1000,1000,89728261,1544,1545,1545,1545
44578828,1000,1000,1000,1000,89828221,1544,1544,1544,1544
44581327,1000,1000,1000,1000,89928181,1545,1544,1545,1544
44583826,1000,1000,1000,1000,90028974,1544,1544,1544,1544
44586325,1000,1000,1000,1000,90128934,1544,1544,1544,1545
44588824,1000,1000,1000,1000,90228894,1545,1544,1544,1545
44591323,1000,1000,1000,1000,90328854,1545,1544,1544,1545
44593822,1000,1000,1000,1000,90428814,1545,1545,1545,1544
44596321,1000,1000,1000,1000,90528774,1545,1545,1545,1545
44598820,1000,1000,1000,1000,90628734,1545,1545,1545,1545
44601319,1000,1000,1000,1000,90728694,1544,1544,1544,1544
44603818,1000,1000,1000,1000,90828654,1544,1544,1544,1544
44606317,1000,1000,1000,1000,90928614,1545,1544,1544,1545
44608816,1000,1000,1000,1000,91028574,1544,1544,1544,1544
44611315,1000,1000,1000,1000,91128534,1545,1544,1545,1544
44613814,1000,1000,1000,1000,91228494,1544,1544,1544,1544
44616313,1000,1000,1000,1000,91328454,1544,1545,1544,1545
44618812,1000,1000,1000,1000,91428414,1544,1545,1544,1545
44621311,1000,1000,1000,1000,91528374,1544,1544,1544,1544
44623810,1000,1000,1000,1000,91628334,1544,1545,1544,1545
44626309,1000,1000,1000,1000,91728294,1544,1544,1544,1545
44628808,1000,1000,1000,1000,91828254,1545,1544,1545,1545
44631307,1000,1000,1000,1000,91928214,1546,1545,1545,1545
44633806,1000,1000,1000,1000,92028174,1544,1544,1544,1544
44636305,1000,1000,1000,1000,92128967,1545,1545,1545,1545
44638804,1000,1000,1000,1000,92228927,1544,1545,1545,1544
44641303,1000,1000,1000,1000,92328887,1545,1545,1545,1545
44643802,1000,1000,1000,1000,92428847,1545,1545,1545,1545
44646301,1000,1000,1000,1000,92528807,1545,1545,1545,1545
44648800,1000,1000,1000,1000,92628767,1544,1544,1544,1544
44651299,1000,1000,1000,1000,92728727,1544,1544,1544,1544
44653798,1000,1000,1000,1000,92828687,1544,1544,1544,1544
44656297,1000,1000,1000,1000,92928647,1544,1544,1544,1544
44658796,1000,1000,1000,1000,93028607,1545,1545,1545,1545
44661295,1000,1000,1000,1000,93128567,1545,1544,1545,1545
44663794,1000,1000,1000,1000,93228527,1545,1545,1545,1545
44666293,1000,1000,1000,1000,93328487,1544,1545,1544,1545
44668792,1000,1000,1000,1000,93428447,1544,1544,1544,1544
44671291,1000,1000,1000,1000,93528407,1545,1544,1545,1544
44673790,1000,1000,1000,1000,93628367,1544,1544,1544,1544
44676289,1000,1000,1000,1000,93728327,1545,1545,1545,1545
44678788,1000,1000,1000,1000,93828287,1545,1545,1545,1544
44681287,1000,1000,1000,1000,93928247,1544,1544,1544,1544
44683786,1000,1000,1000,1000,94028207,1544,1545,1544,1545
44686285,1000,1000,1000,1000,94128167,1544,1544,1544,1544
44688784,1000,1000,1000,1000,94228960,1544,1544,1544,1544
44691283,1000,1000,1000,1000,94328920,1544,1544,1543,1544
44693782,1000,1000,1000,1000,94428880,1544,1544,1544,1544
44696281,1000,1000,1000,1000,94528840,1544,1543,1544,1544
44698780,1000,1000,1000,1000,94628800,1544,1543,1544,1543
44701279,1000,1000,1000,1000,94728760,1540,1537,1537,1539
44703778,1000,1000,1000,1000,94828720,1378,1375,1376,1377
44706277,1000,1000,1000,1000,94928680,1296,1292,1294,1295
44708776,1000,1000,1000,1000,95028640,1271,1267,1269,1270
44711275,1000,1000,1000,1000,95128600,1254,1250,1252,1253
44713774,1000,1000,1000,1000,95228560,1219,1215,1217,1217
44716273,1000,1000,1000,1000,95328520,1159,1154,1156,1157
44718772,1000,1000,1000,1000,95428480,1076,1071,1073,1074
44721271,1000,1000,1000,1000,95528440,1056,1050,1052,1054
44723770,1000,1000,1000,1000,95628400,1056,1050,1053,1054
44726269,1000,1000,1000,1000,95728360,1084,1050,1051,1084
44728768,1000,1000,1000,1000,95828320,1076,1050,1052,1075
44731267,1000,1000,1000,1000,95928280,1073,1050,1052,1072
44733766,1000,1000,1000,1000,96028240,1074,1050,1052,1072
44736265,1000,1000,1000,1000,96128200,1076,1050,1052,1074
44738764,1000,1000,1000,1000,96228160,1077,1050,1052,1075
44741263,1000,1000,1000,1000,96328953,1079,1050,1052,1077
44743762,1000,1000,1000,1000,96428913,1080,1050,1052,1078
44746261,1000,1000,1000,1000,96528873,1067,1050,1052,1065
44748760,1000,1000,1000,1000,96628833,1068,1050,1052,1067
44751259,1000,1000,1000,1000,96728793,1069,1050,1052,1068
44753758,1000,1000,1000,1000,96828753,1070,1050,1052,1068
44756257,1000,1000,1000,1000,96928713,1070,1050,1052,1069
44758756,1000,1000,1000,1000,97028673,1000,1000,1000,1000
44761255,1000,1000,1000,1000,97128633,1000,1000,1000,1000
44763754,1000,1000,1000,1000,97228593,1000,1000,1000,1000
44766253,1000,1000,1000,1000,97328553,1000,1000,1000,1000
44768752,1000,1000,1000,1000,97428513,1000,1000,1000,1000
44771251,1000,1000,1000,1000,97528473,1000,1000,1000,1000
44773750,1000,1000,1000,1000,97628433,1000,1000,1000,1000
44776249,1000,1000,1000,1000,97728393,1000,1000,1000,1000
44778748,1000,1000,1000,1000,97828353,1000,1000,1000,1000
44781247,1000,1000,1000,1000,97928313,1000,1000,1000,1000
44783746,1000,1000,1000,1000,98028273,1000,1000,1000,1000
44786245,1000,1000,1000,1000,98128233,1000,1000,1000,1000
44788744,1000,1000,1000,1000,98228193,1000,1000,1000,1000
44791243,1000,1000,1000,1000,98328986,1000,1000,1000,1000
44793742,1000,1000,1000,1000,98428946,1000,1000,1000,1000
44796241,1000,1000,1000,1000,98528906,1000,1000,1000,1000
44798740,1000,1000,1000,1000,98628866,1000,1000,1000,1000
44801239,1000,1000,1000,1000,98728826,1000,1000,1000,1000
44803738,1000,1000,1000,1000,98828786,1000,1000,1000,1000
44806237,1000,1000,1000,1000,98928746,1000,1000,1000,1000
44808736,1000,1000,1000,1000,99028706,1000,1000,1000,1000
44811235,1000,1000,1000,1000,99128666,1000,1000,1000,1000
44813734,1000,1000,1000,1000,99228626,1000,1000,1000,1000
44816233,1000,1000,1000,1000,99328586,1000,1000,1000,1000
44818732,1000,1000,1000,1000,99428546,1000,1000,1000,1000
44821231,1000,1000,1000,1000,99528506,1000,1000,1000,1000
44823730,1000,1000,1000,1000,99628466,1000,1000,1000,1000
44826229,1000,1000,1000,1000,99728426,1000,1000,1000,1000
44828728,1000,1000,1000,1000,99828386,1000,1000,1000,1000
44831227,1000,1000,1000,1000,99928346,1000,1000,1000,1000
44833726,1000,1000,1000,1000,100028306,1000,1000,1000,1000
44836225,1000,1000,1000,1000,100128266,1000,1000,1000,1000
44838724,1000,1000,1000,1000,100228226,1000,1000,1000,1000
44841223,1000,1000,1000,1000,100328186,1000,1000,1000,1000
44843722,1000,1000,1000,1000,100428979,1000,1000,1000,1000
44846221,1000,1000,1000,1000,100528939,1000,1000,1000,1000
44848720,1000,1000,1000,1000,100628899,1000,1000,1000,1000
44851219,1000,1000,1000,1000,100728859,1000,1000,1000,1000
44853718,1000,1000,1000,1000,100828819,1000,1000,1000,1000
44856217,1000,1000,1000,1000,100928779,1000,1000,1000,1000
44858716,1000,1000,1000,1000,101028739,1000,1000,1000,1000
44861215,1000,1000,1000,1000,101128699,1000,1000,1000,1000
44863714,1000,1000,1000,1000,101228659,1000,1000,1000,1000
44866213,1000,1000,1000,1000,101328619,1000,1000,1000,1000
44868712,1000,1000,1000,1000,101428579,1000,1000,1000,1000
44871211,1000,1000,1000,1000,101528539,1000,1000,1000,1000
44873710,1000,1000,1000,1000,101628499,1000,1000,1000,1000
44876209,1000,1000,1000,1000,101728459,1000,1000,1000,1000
44878708,1000,1000,1000,1000,101828419,1000,1000,1000,1000
44881207,1000,1000,1000,1000,101928379,1000,1000,1000,1000
44883706,1000,1000,1000,1000,102028339,1000,1000,1000,1000
44886205,1000,1000,1000,1000,102128299,1000,1000,1000,1000
44888704,1000,1000,1000,1000,102228259,1000,1000,1000,1000
44891203,1000,1000,1000,1000,102328219,1000,1000,1000,1000
44893702,1000,1000,1000,1000,102428179,1000,1000,1000,1000
44896201,1000,1000,1000,1000,102528972,1000,1000,1000,1000
44898700,1000,1000,1000,1000,102628932,1000,1000,1000,1000
44901199,1000,1000,1000,1000,102728892,1000,1000,1000,1000
44903698,1000,1000,1000,1000,102828852,1000,1000,1000,1000
44906197,1000,1000,1000,1000,102928812,1000,1000,1000,1000
44908696,1000,1000,1000,1000,103028772,1000,1000,1000,1000
44911195,1000,1000,1000,1000,103128732,1000,1000,1000,1000
44913694,1000,1000,1000,1000,103228692,1000,1000,1000,1000
44916193,1000,1000,1000,1000,103328652,1000,1000,1000,1000
44918692,1000,1000,1000,1000,103428612,1000,1000,1000,1000
44921191,1000,1000,1000,1000,103528572,1000,1000,1000,1000
44923690,1000,1000,1000,1000,103628532,1000,1000,1000,1000
44926189,1000,1000,1000,1000,103728492,1000,1000,1000,1000
44928688,1000,1000,1000,1000,103828452,1000,1000,1000,1000
44931187,1000,1000,1000,1000,103928412,1000,1000,1000,1000
44933686,1000,1000,1000,1000,104028372,1000,1000,1000,1000
44936185,1000,1000,1000,1000,104128332,1000,1000,1000,1000
44938684,1000,1000,1000,1000,104228292,1000,1000,1000,1000
44941183,1000,1000,1000,1000,104328252,1000,1000,1000,1000
44943682,1000,1000,1000,1000,104428212,1000,1000,1000,1000
44946181,1000,1000,1000,1000,104528172,1000,1000,1000,1000
44948680,1000,1000,1000,1000,104628965,1000,1000,1000,1000
44951179,1000,1000,1000,1000,104728925,1000,1000,1000,1000
44953678,1000,1000,1000,1000,104828885,1000,1000,1000,1000
44956177,1000,1000,1000,1000,104928845,1000,1000,1000,1000
44958676,1000,1000,1000,1000,105028805,1000,1000,1000,1000
44961175,1000,1000,1000,1000,105128765,1000,1000,1000,1000
44963674,1000,1000,1000,1000,105228725,1000,1000,1000,1000
44966173,1000,1000,1000,1000,105328685,1000,1000,1000,1000
44968672,1000,1000,1000,1000,105428645,1000,1000,1000,1000
44971171,1000,1000,1000,1000,105528605,1000,1000,1000,1000
44973670,1000,1000,1000,1000,105628565,1000,1000,1000,1000
44976169,1000,1000,1000,1000,105728525,1000,1000,1000,1000
44978668,1000,1000,1000,1000,105828485,1000,1000,1000,1000
44981167,1000,1000,1000,1000,,,,,
44983666,1000,1000,1000,1000,,,,,
44986165,1000,1000,1000,1000,,,,,
44988664,1000,1000,1000,1000,,,,,
44991163,1000,1000,1000,1000,,,,,
44993662,1000,1000,1000,1000,,,,,
44996161,1000,1000,1000,1000,,,,,
44998660,1000,1000,1000,1000,,,,,
45001159,1000,1000,1000,1000,,,,,
45003658,1000,1000,1000,1000,,,,,
45006157,1000,1000,1000,1000,,,,,
45008656,1000,1000,1000,1000,,,,,
45011155,1000,1000,1000,1000,,,,,
45013654,1000,1000,1000,1000,,,,,
45016153,1000,1000,1000,1000,,,,,
45018652,1000,1000,1000,1000,,,,,
45021151,1000,1000,1000,1000,,,,,
45023650,1000,1000,1000,1000,,,,,
45026149,1000,1000,1000,1000,,,,,
45028648,1000,1000,1000,1000,,,,,
45031147,1000,1000,1000,1000,,,,,
45033646,1000,1000,1000,1000,,,,,
45036145,1000,1000,1000,1000,,,,,
45038644,1000,1000,1000,1000,,,,,
45041143,1000,1000,1000,1000,,,,,
45043642,1000,1000,1000,1000,,,,,
45046141,1000,1000,1000,1000,,,,,
45048640,1000,1000,1000,1000,,,,,
45051139,1000,1000,1000,1000,,,,,
45053638,1000,1000,1000,1000,,,,,
45056137,1000,1000,1000,1000,,,,,
45058636,1000,1000,1000,1000,,,,,
45061135,1000,1000,1000,1000,,,,,
45063634,1000,1000,1000,1000,,,,,
45066133,1000,1000,1000,1000,,,,,
45068632,1000,1000,1000,1000,,,,,
45071131,1000,1000,1000,1000,,,,,
45073630,1000,1000,1000,1000,,,,,
45076129,1000,1000,1000,1000,,,,,
45078628,1000,1000,1000,1000,,,,,
45081127,1000,1000,1000,1000,,,,,
45083626,1000,1000,1000,1000,,,,,
45086125,1000,1000,1000,1000,,,,,
45088624,1000,1000,1000,1000,,,,,
45091123,1000,1000,1000,1000,,,,,
45093622,1000,1000,1000,1000,,,,,
45096121,1000,1000,1000,1000,,,,,
45098620,1000,1000,1000,1000,,,,,
45101119,1000,1000,1000,1000,,,,,
45103618,1000,1000,1000,1000,,,,,
45106117,1000,1000,1000,1000,,,,,
45108616,1000,1000,1000,1000,,,,,
45111115,1000,1000,1000,1000,,,,,
45113614,1000,1000,1000,1000,,,,,
45116113,1000,1000,1000,1000,,,,,
45118612,1000,1000,1000,1000,,,,,
45121111,1000,1000,1000,1000,,,,,
45123610,1000,1000,1000,1000,,,,,
45126109,1000,1000,1000,1000,,,,,
45128608,1000,1000,1000,1000,,,,,
45131107,1000,1000,1000,1000,,,,,
45133606,1000,1000,1000,1000,,,,,
45136105,1000,1000,1000,1000,,,,,
45138604,1000,1000,1000,1000,,,,,
45141103,1000,1000,1000,1000,,,,,
45143602,1000,1000,1000,1000,,,,,
45146101,1000,1000,1000,1000,,,,,
45148600,1000,1000,1000,1000,,,,,
45151099,1000,1000,1000,1000,,,,,
45153598,1000,1000,1000,1000,,,,,
45156097,1000,1000,1000,1000,,,,,
45158596,1000,1000,1000,1000,,,,,
45161095,1000,1000,1000,1000,,,,,
45163594,1000,1000,1000,1000,,,,,
45166093,1000,1000,1000,1000,,,,,
45168592,1000,1000,1000,1000,,,,,
45171091,1000,1000,1000,1000,,,,,
45173590,1000,1000,1000,1000,,,,,
45176089,1000,1000,1000,1000,,,,,
45178588,1000,1000,1000,1000,,,,,
45181087,1000,1000,1000,1000,,,,,
45183586,1000,1000,1000,1000,,,,,
45186085,1000,1000,1000,1000,,,,,
45188584,1000,1000,1000,1000,,,,,
45191083,1000,1000,1000,1000,,,,,
45193582,1000,1000,1000,1000,,,,,
45196081,1000,1000,1000,1000,,,,,
45198580,1000,1000,1000,1000,,,,,
45201079,1000,1000,1000,1000,,,,,
45203578,1000,1000,1000,1000,,,,,
45206077,1000,1000,1000,1000,,,,,
45208576,1000,1000,1000,1000,,,,,
45211075,1000,1000,1000,1000,,,,,
45213574,1000,1000,1000,1000,,,,,
45216073,1000,1000,1000,1000,,,,,
45218572,1000,1000,1000,1000,,,,,
45221071,1000,1000,1000,1000,,,,,
45223570,1000,1000,1000,1000,,,,,
45226069,1000,1000,1000,1000,,,,,
45228568,1000,1000,1000,1000,,,,,
45231067,1000,1000,1000,1000,,,,,
45233566,1000,1000,1000,1000,,,,,
45236065,1000,1000,1000,1000,,,,,
45238564,1000,1000,1000,1000,,,,,
45241063,1000,1000,1000,1000,,,,,
45243562,1000,1000,1000,1000,,,,,
45246061,1000,1000,1000,1000,,,,,
45248560,1000,1000,1000,1000,,,,,
45251059,1000,1000,1000,1000,,,,,
45253558,1000,1000,1000,1000,,,,,
45256057,1000,1000,1000,1000,,,,,
45258556,1000,1000,1000,1000,,,,,
45261055,1000,1000,1000,1000,,,,,
45263554,1000,1000,1000,1000,,,,,
45266053,1000,1000,1000,1000,,,,,
45268552,1000,1000,1000,1000,,,,,
45271051,1000,1000,1000,1000,,,,,
45273550,1000,1000,1000,1000,,,,,
45276049,1000,1000,1000,1000,,,,,
45278548,1000,1000,1000,1000,,,,,
45281047,1000,1000,1000,1000,,,,,
45283546,1000,1000,1000,1000,,,,,
45286045,1000,1000,1000,1000,,,,,
45288544,1000,1000,1000,1000,,,,,
45291043,1000,1000,1000,1000,,,,,
45293542,1000,1000,1000,1000,,,,,
45296041,1000,1000,1000,1000,,,,,
45298540,1000,1000,1000,1000,,,,,
45301039,1000,1000,1000,1000,,,,,
45303538,1000,1000,1000,1000,,,,,
45306037,1000,1000,1000,1000,,,,,
45308536,1000,1000,1000,1000,,,,,
45311035,1000,1000,1000,1000,,,,,
45313534,1000,1000,1000,1000,,,,,
45316033,1000,1000,1000,1000,,,,,
45318532,1000,1000,1000,1000,,,,,
45321031,1000,1000,1000,1000,,,,,
45323530,1000,1000,1000,1000,,,,,
45326029,1000,1000,1000,1000,,,,,
45328528,1000,1000,1000,1000,,,,,
45331027,1000,1000,1000,1000,,,,,
45333526,1000,1000,1000,1000,,,,,
45336025,1000,1000,1000,1000,,,,,
45338524,1000,1000,1000,1000,,,,,
45341023,1000,1000,1000,1000,,,,,
45343522,1000,1000,1000,1000,,,,,
45346021,1000,1000,1000,1000,,,,,
45348520,1000,1000,1000,1000,,,,,
45351019,1000,1000,1000,1000,,,,,
45353518,1000,1000,1000,1000,,,,,
45356017,1000,1000,1000,1000,,,,,
45358516,1000,1000,1000,1000,,,,,
45361015,1000,1000,1000,1000,,,,,
45363514,1000,1000,1000,1000,,,,,
45366013,1000,1000,1000,1000,,,,,
45368512,1000,1000,1000,1000,,,,,
45371011,1000,1000,1000,1000,,,,,
45373510,1000,1000,1000,1000,,,,,
45376009,1000,1000,1000,1000,,,,,
45378508,1000,1000,1000,1000,,,,,
45381007,1000,1000,1000,1000,,,,,
45383506,1000,1000,1000,1000,,,,,
45386005,1000,1000,1000,1000,,,,,
45388504,1000,1000,1000,1000,,,,,
45391003,1000,1000,1000,1000,,,,,
45393502,1000,1000,1000,1000,,,,,
45396001,1000,1000,1000,1000,,,,,
45398500,1000,1000,1000,1000,,,,,
45400999,1000,1000,1000,1000,,,,,
45403498,1000,1000,1000,1000,,,,,
45405997,1000,1000,1000,1000,,,,,
45408496,1000,1000,1000,1000,,,,,
45410995,1000,1000,1000,1000,,,,,
45413494,1000,1000,1000,1000,,,,,
45415993,1000,1000,1000,1000,,,,,
45418492,1000,1000,1000,1000,,,,,
45420991,1000,1000,1000,1000,,,,,
45423490,1000,1000,1000,1000,,,,,
45425989,1001,1001,1001,1001,,,,,
45428488,1002,1002,1002,1002,,,,,
45430987,1003,1003,1003,1003,,,,,
45433486,1003,1003,1003,1003,,,,,
45435985,1004,1004,1004,1004,,,,,
45438484,1005,1005,1005,1005,,,,,
45440983,1006,1006,1006,1006,,,,,
45443482,1006,1006,1006,1006,,,,,
45445981,1007,1007,1007,1007,,,,,
45448480,1008,1008,1008,1008,,,,,
45450979,1009,1009,1009,1009,,,,,
45453478,1009,1009,1009,1009,,,,,
45455977,1010,1010,1010,1010,,,,,
45458476,1011,1011,1011,1011,,,,,
45460975,1012,1012,1012,1012,,,,,
45463474,1012,1012,1012,1012,,,,,
45465973,1013,1013,1013,1013,,,,,
45468472,1014,1014,1014,1014,,,,,
45470971,1015,1015,1015,1015,,,,,
45473470,1015,1015,1015,1015,,,,,
45475969,1016,1016,1016,1016,,,,,
45478468,1017,1017,1017,1017,,,,,
45480967,1018,1018,1018,1018,,,,,
45483466,1018,1018,1018,1018,,,,,
45485965,1019,1019,1019,1019,,,,,
45488464,1020,1020,1020,1020,,,,,
45490963,1021,1021,1021,1021,,,,,
45493462,1021,1021,1021,1021,,,,,
45495961,1022,1022,1022,1022,,,,,
45498460,1023,1023,1023,1023,,,,,
45500959,1024,1024,1024,1024,,,,,
45503458,1024,1024,1024,1024,,,,,
45505957,1025,1025,1025,1025,,,,,
45508456,1026,1026,1026,1026,,,,,
45510955,1027,1027,1027,1027,,,,,
45513454,1027,1027,1027,1027,,,,,
45515953,1028,1028,1028,1028,,,,,
45518452,1029,1029,1029,1029,,,,,
45520951,1030,1030,1030,1030,,,,,
45523450,1030,1030,1030,1030,,,,,
45525949,1031,1031,1031,1031,,,,,
45528448,1032,1032,1032,1032,,,,,
45530947,1033,1033,1033,1033,,,,,
45533446,1033,1033,1033,1033,,,,,
45535945,1034,1034,1034,1034,,,,,
45538444,1035,1035,1035,1035,,,,,
45540943,1036,1036,1036,1036,,,,,
45543442,1036,1036,1036,1036,,,,,
45545941,1037,1037,1037,1037,,,,,
45548440,1038,1038,1038,1038,,,,,
45550939,1039,1039,1039,1039,,,,,
45553438,1039,1039,1039,1039,,,,,
45555937,1040,1040,1040,1040,,,,,
45558436,1041,1041,1041,1041,,,,,
45560935,1042,1042,1042,1042,,,,,
45563434,1042,1042,1042,1042,,,,,
45565933,1043,1043,1043,1043,,,,,
45568432,1044,1044,1044,1044,,,,,
45570931,1045,1045,1045,1045,,,,,
45573430,1045,1045,1045,1045,,,,,
45575929,1046,1046,1046,1046,,,,,
45578428,1047,1047,1047,1047,,,,,
45580927,1048,1048,1048,1048,,,,,
45583426,1048,1048,1048,1048,,,,,
45585925,1049,1049,1049,1049,,,,,
45588424,1050,1050,1050,1050,,,,,
45590923,1051,1051,1051,1051,,,,,
45593422,1051,1051,1051,1051,,,,,
45595921,1052,1052,1052,1052,,,,,
45598420,1053,1053,1053,1053,,,,,
45600919,1054,1054,1054,1054,,,,,
45603418,1054,1054,1054,1054,,,,,
45605917,1055,1055,1055,1055,,,,,
45608416,1056,1056,1056,1056,,,,,
45610915,1057,1057,1057,1057,,,,,
45613414,1057,1057,1057,1057,,,,,
45615913,1058,1058,1058,1058,,,,,
45618412,1059,1059,1059,1059,,,,,
45620911,1060,1060,1060,1060,,,,,
45623410,1060,1060,1060,1060,,,,,
45625909,1061,1061,1061,1061,,,,,
45628408,1062,1062,1062,1062,,,,,
45630907,1063,1063,1063,1063,,,,,
45633406,1063,1063,1063,1063,,,,,
45635905,1064,1064,1064,1064,,,,,
45638404,1065,1065,1065,1065,,,,,
45640903,1066,1066,1066,1066,,,,,
45643402,1066,1066,1066,1066,,,,,
45645901,1067,1067,1067,1067,,,,,
45648400,1068,1068,1068,1068,,,,,
45650899,1069,1069,1069,1069,,,,,
45653398,1069,1069,1069,1069,,,,,
45655897,1070,1070,1070,1070,,,,,
45658396,1071,1071,1071,1071,,,,,
45660895,1072,1072,1072,1072,,,,,
45663394,1072,1072,1072,1072,,,,,
45665893,1073,1073,1073,1073,,,,,
45668392,1074,1074,1074,1074,,,,,
45670891,1075,1075,1075,1075,,,,,
45673390,1075,1075,1075,1075,,,,,
45675889,1076,1076,1076,1076,,,,,
45678388,1077,1077,1077,1077,,,,,
45680887,1078,1078,1078,1078,,,,,
45683386,1078,1078,1078,1078,,,,,
45685885,1079,1079,1079,1079,,,,,
45688384,1080,1080,1080,1080,,,,,
45690883,1081,1081,1081,1081,,,,,
45693382,1081,1081,1081,1081,,,,,
45695881,1082,1082,1082,1082,,,,,
45698380,1083,1083,1083,1083,,,,,
45700879,1084,1084,1084,1084,,,,,
45703378,1084,1084,1084,1084,,,,,
45705877,1085,1085,1085,1085,,,,,
45708376,1086,1086,1086,1086,,,,,
45710875,1087,1087,1087,1087,,,,,
45713374,1087,1087,1087,1087,,,,,
45715873,1088,1088,1088,1088,,,,,
45718372,1089,1089,1089,1089,,,,,
45720871,1090,1090,1090,1090,,,,,
45723370,1090,1090,1090,1090,,,,,
45725869,1091,1091,1091,1091,,,,,
45728368,1092,1092,1092,1092,,,,,
45730867,1093,1093,1093,1093,,,,,
45733366,1093,1093,1093,1093,,,,,
45735865,1094,1094,1094,1094,,,,,
45738364,1095,1095,1095,1095,,,,,
45740863,1096,1096,1096,1096,,,,,
45743362,1096,1096,1096,1096,,,,,
45745861,1097,1097,1097,1097,,,,,
45748360,1098,1098,1098,1098,,,,,
45750859,1099,1099,1099,1099,,,,,
45753358,1099,1099,1099,1099,,,,,
45755857,1100,1100,1100,1100,,,,,
45758356,1101,1101,1101,1101,,,,,
45760855,1101,1101,1101,1101,,,,,
45763354,1102,1102,1102,1102,,,,,
45765853,1103,1103,1103,1103,,,,,
45768352,1104,1104,1104,1104,,,,,
45770851,1104,1104,1104,1104,,,,,
45773350,1105,1105,1105,1105,,,,,
45775849,1106,1106,1106,1106,,,,,
45778348,1107,1107,1107,1107,,,,,
45780847,1107,1107,1107,1107,,,,,
45783346,1108,1108,1108,1108,,,,,
45785845,1109,1109,1109,1109,,,,,
45788344,1110,1110,1110,1110,,,,,
45790843,1110,1110,1110,1110,,,,,
45793342,1111,1111,1111,1111,,,,,
45795841,1112,1112,1112,1112,,,,,
45798340,1113,1113,1113,1113,,,,,
45800839,1113,1113,1113,1113,,,,,
45803338,1114,1114,1114,1114,,,,,
45805837,1115,1115,1115,1115,,,,,
45808336,1116,1116,1116,1116,,,,,
45810835,1116,1116,1116,1116,,,,,
45813334,1117,1117,1117,1117,,,,,
45815833,1118,1118,1118,1118,,,,,
45818332,1119,1119,1119,1119,,,,,
45820831,1119,1119,1119,1119,,,,,
45823330,1120,1120,1120,1120,,,,,
45825829,1121,1121,1121,1121,,,,,
45828328,1122,1122,1122,1122,,,,,
45830827,1122,1122,1122,1122,,,,,
45833326,1123,1123,1123,1123,,,,,
45835825,1124,1124,1124,1124,,,,,
45838324,1125,1125,1125,1125,,,,,
45840823,1125,1125,1125,1125,,,,,
45843322,1126,1126,1126,1126,,,,,
45845821,1127,1127,1127,1127,,,,,
45848320,1128,1128,1128,1128,,,,,
45850819,1128,1128,1128,1128,,,,,
45853318,1129,1129,1129,1129,,,,,
45855817,1130,1130,1130,1130,,,,,
45858316,1131,1131,1131,1131,,,,,
45860815,1131,1131,1131,1131,,,,,
45863314,1132,1132,1132,1132,,,,,
45865813,1133,1133,1133,1133,,,,,
45868312,1134,1134,1134,1134,,,,,
45870811,1134,1134,1134,1134,,,,,
45873310,1135,1135,1135,1135,,,,,
45875809,1136,1136,1136,1136,,,,,
45878308,1137,1137,1137,1137,,,,,
45880807,1137,1137,1137,1137,,,,,
45883306,1138,1138,1138,1138,,,,,
45885805,1139,1139,1139,1139,,,,,
45888304,1140,1140,1140,1140,,,,,
45890803,1140,1140,1140,1140,,,,,
45893302,1141,1141,1141,1141,,,,,
45895801,1142,1142,1142,1142,,,,,
45898300,1143,1143,1143,1143,,,,,
45900799,1143,1143,1143,1143,,,,,
45903298,1144,1144,1144,1144,,,,,
45905797,1145,1145,1145,1145,,,,,
45908296,1146,1146,1146,1146,,,,,
45910795,1146,1146,1146,1146,,,,,
45913294,1147,1147,1147,1147,,,,,
45915793,1148,1148,1148,1148,,,,,
45918292,1149,1149,1149,1149,,,,,
45920791,1149,1149,1149,1149,,,,,
45923290,1150,1150,1150,1150,,,,,
45925789,1161,1154,1155,1161,,,,,
45928288,1169,1162,1163,1169,,,,,
45930787,1177,1170,1171,1177,,,,,
45933286,1185,1178,1178,1185,,,,,
45935785,1192,1185,1186,1192,,,,,
45938284,1200,1193,1194,1200,,,,,
45940783,1207,1200,1201,1207,,,,,
45943282,1214,1208,1208,1214,,,,,
45945781,1221,1215,1216,1221,,,,,
45948280,1228,1222,1223,1228,,,,,
45950779,1235,1229,1230,1235,,,,,
45953278,1242,1236,1236,1242,,,,,
45955777,1249,1243,1243,1249,,,,,
45958276,1255,1249,1250,1255,,,,,
45960775,1262,1256,1256,1262,,,,,
45963274,1268,1262,1263,1268,,,,,
45965773,1274,1269,1269,1275,,,,,
45968272,1281,1275,1276,1281,,,,,
45970771,1287,1281,1282,1287,,,,,
45973270,1293,1288,1288,1293,,,,,
45975769,1299,1294,1294,1299,,,,,
45978268,1305,1300,1300,1305,,,,,
45980767,1311,1306,1306,1311,,,,,
45983266,1317,1312,1312,1317,,,,,
45985765,1323,1318,1318,1323,,,,,
45988264,1329,1323,1324,1329,,,,,
45990763,1334,1329,1330,1335,,,,,
45993262,1340,1335,1335,1340,,,,,
45995761,1346,1341,1341,1346,,,,,
45998260,1351,1346,1347,1351,,,,,
46000759,1357,1352,1352,1357,,,,,
46003258,1362,1357,1358,1362,,,,,
46005757,1367,1363,1363,1368,,,,,
46008256,1373,1368,1368,1373,,,,,
46010755,1378,1373,1374,1378,,,,,
46013254,1383,1379,1379,1384,,,,,
46015753,1389,1384,1384,1389,,,,,
46018252,1394,1389,1390,1394,,,,,
46020751,1399,1394,1395,1399,,,,,
46023250,1404,1399,1400,1404,,,,,
46025749,1409,1404,1405,1409,,,,,
46028248,1414,1409,1410,1414,,,,,
46030747,1419,1414,1415,1419,,,,,
46033246,1424,1419,1420,1424,,,,,
46035745,1429,1424,1425,1429,,,,,
46038244,1434,1429,1430,1434,,,,,
46040743,1439,1434,1435,1439,,,,,
46043242,1444,1439,1439,1444,,,,,
46045741,1448,1444,1444,1448,,,,,
46048240,1453,1448,1449,1453,,,,,
46050739,1458,1453,1454,1458,,,,,
46053238,1462,1458,1458,1463,,,,,
46055737,1467,1462,1463,1467,,,,,
46058236,1472,1467,1468,1472,,,,,
46060735,1476,1472,1472,1476,,,,,
46063234,1481,1476,1477,1481,,,,,
46065733,1485,1481,1481,1485,,,,,
46068232,1490,1485,1486,1490,,,,,
46070731,1494,1490,1490,1494,,,,,
46073230,1499,1494,1495,1499,,,,,
46075729,1503,1499,1499,1503,,,,,
46078228,1508,1503,1504,1508,,,,,
46080727,1512,1507,1508,1512,,,,,
46083226,1516,1512,1513,1516,,,,,
46085725,1521,1516,1517,1521,,,,,
46088224,1525,1520,1521,1525,,,,,
46090723,1529,1525,1525,1529,,,,,
46093222,1534,1529,1530,1533,,,,,
46095721,1538,1533,1534,1538,,,,,
46098220,1542,1537,1538,1542,,,,,
46100719,1546,1542,1542,1546,,,,,
46103218,1550,1546,1547,1550,,,,,
46105717,1555,1550,1551,1554,,,,,
46108216,1559,1554,1555,1558,,,,,
46110715,1563,1558,1559,1563,,,,,
46113214,1567,1562,1563,1567,,,,,
46115713,1571,1566,1567,1571,,,,,
46118212,1575,1570,1571,1575,,,,,
46120711,1579,1574,1575,1579,,,,,
46123210,1583,1578,1579,1583,,,,,
46125709,1587,1582,1583,1587,,,,,
46128208,1591,1586,1587,1591,,,,,
46130707,1595,1590,1591,1595,,,,,
46133206,1599,1594,1595,1599,,,,,
46135705,1603,1598,1599,1603,,,,,
46138204,1607,1602,1603,1606,,,,,
46140703,1610,1606,1607,1610,,,,,
46143202,1614,1610,1610,1614,,,,,
46145701,1618,1614,1614,1618,,,,,
46148200,1622,1618,1618,1622,,,,,
46150699,1626,1621,1622,1626,,,,,
46153198,1629,1625,1626,1629,,,,,
46155697,1633,1629,1629,1633,,,,,
46158196,1637,1633,1633,1637,,,,,
46160695,1641,1636,1637,1641,,,,,
46163194,1644,1640,1641,1644,,,,,
46165693,1648,1644,1644,1648,,,,,
46168192,1652,1648,1648,1652,,,,,
46170691,1656,1651,1652,1656,,,,,
46173190,1659,1655,1655,1659,,,,,
46175689,1663,1659,1659,1663,,,,,
46178188,1666,1662,1663,1666,,,,,
46180687,1670,1666,1666,1670,,,,,
46183186,1674,1669,1670,1674,,,,,
46185685,1677,1673,1674,1677,,,,,
46188184,1681,1677,1677,1681,,,,,
46190683,1684,1680,1681,1684,,,,,
46193182,1688,1684,1684,1688,,,,,
46195681,1692,1687,1688,1691,,,,,
46198180,1695,1691,1691,1695,,,,,
46200679,1699,1694,1695,1699,,,,,
46203178,1702,1698,1698,1702,,,,,
46205677,1706,1701,1702,1705,,,,,
46208176,1709,1705,1705,1709,,,,,
46210675,1713,1708,1709,1712,,,,,
46213174,1716,1712,1712,1716,,,,,
46215673,1719,1715,1716,1719,,,,,
46218172,1723,1718,1719,1723,,,,,
46220671,1726,1722,1722,1726,,,,,
46223170,1730,1725,1726,1730,,,,,
46225669,1733,1729,1729,1733,,,,,
46228168,1736,1732,1733,1736,,,,,
46230667,1740,1735,1736,1740,,,,,
46233166,1743,1739,1739,1743,,,,,
46235665,1746,1742,1743,1746,,,,,
46238164,1750,1745,1746,1750,,,,,
46240663,1753,1749,1749,1753,,,,,
46243162,1756,1752,1753,1756,,,,,
46245661,1760,1755,1756,1760,,,,,
46248160,1763,1759,1759,1763,,,,,
46250659,1766,1762,1763,1766,,,,,
46253158,1770,1765,1766,1769,,,,,
46255657,1773,1769,1769,1773,,,,,
46258156,1776,1772,1772,1776,,,,,
46260655,1779,1775,1776,1779,,,,,
46263154,1782,1778,1779,1782,,,,,
46266486,1786,1781,1782,1786,,,,,
46268985,1789,1785,1785,1789,,,,,
46271484,1792,1788,1788,1792,,,,,
46273983,1795,1791,1792,1795,,,,,
46276482,1798,1794,1795,1798,,,,,
46278981,1802,1797,1798,1802,,,,,
46281480,1805,1801,1801,1805,,,,,
46283979,1808,1804,1804,1808,,,,,
46286478,1811,1807,1807,1811,,,,,
46288977,1814,1810,1810,1814,,,,,
46291476,1817,1813,1814,1817,,,,,
46293975,1820,1816,1817,1820,,,,,
46296474,1824,1819,1820,1823,,,,,
46298973,1827,1822,1823,1827,,,,,
46301472,1830,1825,1826,1830,,,,,
46303971,1833,1828,1829,1833,,,,,
46306470,1836,1832,1832,1836,,,,,
46308969,1839,1835,1835,1839,,,,,
46311468,1842,1838,1838,1842,,,,,
46313967,1845,1841,1841,1845,,,,,
46316466,1848,1844,1844,1848,,,,,
46318965,1851,1847,1847,1851,,,,,
46321464,1854,1850,1850,1854,,,,,
46323963,1857,1853,1853,1857,,,,,
46326462,1860,1856,1856,1860,,,,,
46328961,1863,1859,1859,1863,,,,,
46331460,1866,1862,1862,1866,,,,,
46333959,1869,1865,1865,1869,,,,,
46336458,1872,1868,1868,1872,,,,,
46338957,1875,1871,1871,1875,,,,,
46341456,1878,1874,1874,1878,,,,,
46343955,1881,1877,1877,1881,,,,,
46346454,1884,1879,1880,1883,,,,,
46348953,1887,1882,1883,1886,,,,,
46351452,1890,1885,1886,1889,,,,,
46353951,1893,1888,1889,1892,,,,,
46356450,1895,1891,1892,1895,,,,,
46358949,1898,1894,1895,1898,,,,,
46361448,1901,1897,1898,1901,,,,,
46363947,1904,1900,1901,1904,,,,,
46366446,1907,1903,1904,1907,,,,,
46368945,1910,1906,1906,1909,,,,,
46371444,1912,1908,1909,1912,,,,,
46373943,1911,1907,1908,1911,,,,,
46376442,1910,1906,1907,1910,,,,,
46378941,1910,1905,1906,1909,,,,,
46381440,1909,1905,1905,1908,,,,,
46383939,1908,1904,1905,1908,,,,,
46386438,1907,1903,1904,1907,,,,,
46388937,1907,1902,1903,1906,,,,,
46391436,1906,1902,1903,1906,,,,,
46393935,1905,1901,1902,1905,,,,,
46396434,1905,1901,1901,1904,,,,,
46398933,1904,1900,1901,1904,,,,,
46401432,1904,1900,1901,1904,,,,,
46403931,1904,1899,1900,1903,,,,,
46406430,1903,1899,1900,1903,,,,,
46408929,1903,1899,1900,1903,,,,,
46411428,1903,1899,1900,1903,,,,,
46413927,1903,1899,1900,1903,,,,,
46416426,1903,1899,1900,1903,,,,,
46418925,1903,1899,1900,1903,,,,,
46421424,1903,1899,1900,1902,,,,,
46423923,1903,1899,1900,1902,,,,,
46426422,1903,1899,1900,1902,,,,,
46428921,1902,1899,1900,1902,,,,,
46431420,1902,1899,1899,1902,,,,,
46433919,1902,1898,1899,1901,,,,,
46436418,1901,1898,1898,1901,,,,,
46438917,1900,1897,1898,1900,,,,,
46441416,1899,1897,1897,1899,,,,,
46443915,1898,1896,1896,1898,,,,,
46446414,1897,1894,1895,1897,,,,,
46448913,1896,1893,1893,1896,,,,,
46451412,1894,1892,1892,1894,,,,,
46453911,1892,1890,1890,1893,,,,,
46456410,1891,1888,1888,1891,,,,,
46458909,1889,1886,1886,1889,,,,,
46461408,1886,1884,1884,1887,,,,,
46463907,1884,1882,1882,1884,,,,,
46466406,1882,1879,1880,1882,,,,,
46468905,1879,1877,1877,1880,,,,,
46471404,1877,1875,1875,1877,,,,,
46473903,1874,1872,1872,1874,,,,,
46476402,1872,1869,1870,1872,,,,,
46478901,1869,1867,1867,1869,,,,,
46481400,1866,1864,1864,1866,,,,,
46483899,1863,1861,1861,1863,,,,,
46486398,1860,1858,1858,1860,,,,,
46488897,1857,1855,1856,1858,,,,,
46491396,1854,1852,1852,1854,,,,,
46493895,1851,1849,1849,1851,,,,,
46496394,1848,1846,1846,1848,,,,,
46498893,1845,1843,1843,1845,,,,,
46501392,1842,1840,1840,1842,,,,,
46503891,1838,1836,1837,1839,,,,,
46506390,1835,1833,1833,1835,,,,,
46508889,1832,1830,1830,1832,,,,,
46511388,1828,1826,1827,1829,,,,,
46513887,1825,1823,1823,1825,,,,,
46516386,1822,1820,1820,1822,,,,,
46518885,1818,1816,1817,1818,,,,,
46521384,1815,1813,1813,1815,,,,,
46523883,1811,1810,1810,1811,,,,,
46526382,1808,1806,1806,1808,,,,,
46528881,1804,1803,1803,1804,,,,,
46531380,1801,1799,1799,1801,,,,,
46533879,1797,1796,1796,1797,,,,,
46536378,1794,1792,1792,1794,,,,,
46538877,1790,1789,1789,1790,,,,,
46541376,1786,1785,1785,1787,,,,,
46543875,1783,1782,1782,1783,,,,,
46546374,1779,1778,1778,1780,,,,,
46548873,1776,1775,1775,1776,,,,,
46551372,1773,1772,1772,1773,,,,,
46553871,1769,1768,1768,1769,,,,,
46556370,1766,1765,1765,1766,,,,,
46558869,1762,1762,1762,1763,,,,,
46561368,1759,1758,1758,1759,,,,,
46563867,1756,1755,1755,1756,,,,,
46566366,1752,1752,1752,1753,,,,,
46568865,1749,1749,1749,1750,,,,,
46571364,1746,1746,1746,1746,,,,,
46573863,1743,1742,1743,1743,,,,,
46576362,1740,1739,1739,1740,,,,,
46578861,1736,1736,1736,1737,,,,,
46581360,1733,1733,1733,1734,,,,,
46583859,1730,1730,1730,1731,,,,,
46586358,1727,1727,1727,1728,,,,,
46588857,1724,1724,1724,1725,,,,,
46591356,1721,1721,1721,1722,,,,,
46593855,1718,1719,1719,1719,,,,,
46596354,1715,1716,1716,1716,,,,,
46598853,1713,1713,1713,1713,,,,,
46601352,1710,1710,1710,1710,,,,,
46603851,1707,1707,1708,1707,,,,,
46606350,1704,1705,1705,1705,,,,,
46608849,1702,1702,1702,1702,,,,,
46611348,1699,1700,1700,1699,,,,,
46613847,1697,1697,1697,1697,,,,,
46616346,1694,1694,1695,1694,,,,,
46618845,1691,1692,1692,1692,,,,,
46621344,1689,1690,1690,1689,,,,,
46623843,1686,1687,1688,1687,,,,,
46626342,1684,1685,1685,1684,,,,,
46628841,1682,1682,1683,1682,,,,,
46631340,1679,1680,1681,1679,,,,,
46633839,1677,1678,1678,1677,,,,,
46636338,1675,1676,1676,1675,,,,,
46638837,1673,1674,1674,1673,,,,,
46641336,1670,1672,1672,1671,,,,,
46643835,1668,1670,1670,1669,,,,,
46646334,1666,1668,1668,1667,,,,,
46648833,1664,1666,1666,1665,,,,,
46651332,1662,1664,1664,1663,,,,,
46653831,1661,1662,1662,1661,,,,,
46656330,1659,1660,1661,1659,,,,,
46658829,1657,1659,1659,1657,,,,,
46661328,1655,1657,1657,1656,,,,,
46663827,1654,1655,1656,1654,,,,,
46666326,1652,1654,1654,1652,,,,,
46668825,1651,1652,1652,1651,,,,,
46671324,1649,1651,1651,1649,,,,,
46673823,1648,1649,1649,1648,,,,,
46676322,1646,1648,1648,1646,,,,,
46678821,1645,1646,1647,1645,,,,,
46681320,1643,1645,1645,1644,,,,,
46683819,1642,1644,1644,1642,,,,,
46686318,1641,1643,1643,1641,,,,,
46688817,1640,1641,1641,1640,,,,,
46691316,1638,1640,1640,1639,,,,,
46693815,1637,1639,1639,1638,,,,,
46696314,1636,1638,1638,1637,,,,,
46698813,1635,1637,1637,1636,,,,,
46701312,1634,1636,1636,1634,,,,,
46703811,1633,1635,1635,1634,,,,,
46706310,1632,1634,1634,1633,,,,,
46708809,1631,1633,1633,1632,,,,,
46711308,1631,1632,1632,1631,,,,,
46713807,1630,1632,1632,1630,,,,,
46716306,1629,1631,1631,1629,,,,,
