timestamp,TimeUS,C1,C2,C3,C4,C5,C6,C7,C8,C9,C10,C11,C12,C13,C14
1706599282.00000000,42628775,1000,1000,1000,1000,0,0,0,0,0,0,0,0,0,0
1706599282.09996009,42728735,1000,1000,1000,1000,0,0,0,0,0,0,0,0,0,0
1706599282.19992018,42828695,1000,1000,1000,1000,0,0,0,0,0,0,0,0,0,0
1706599282.29988003,42928655,1000,1000,1000,1000,0,0,0,0,0,0,0,0,0,0
1706599282.39984012,43028615,1000,1000,1000,1000,0,0,0,0,0,0,0,0,0,0
1706599282.49980021,43128575,1000,1000,1000,1000,0,0,0,0,0,0,0,0,0,0
1706599282.59976006,43228535,1000,1000,1000,1000,0,0,0,0,0,0,0,0,0,0
1706599282.69972014,43328495,1000,1000,1000,1000,0,0,0,0,0,0,0,0,0,0
1706599282.79968023,43428455,1000,1000,1000,1000,0,0,0,0,0,0,0,0,0,0
1706599282.89964008,43528415,1000,1000,1000,1000,0,0,0,0,0,0,0,0,0,0
1706599282.99960017,43628375,1000,1000,1000,1000,0,0,0,0,0,0,0,0,0,0
1706599283.09956002,43728335,1000,1000,1000,1000,0,0,0,0,0,0,0,0,0,0
1706599283.19952011,43828295,1000,1000,1000,1000,0,0,0,0,0,0,0,0,0,0
1706599283.29948020,43928255,1000,1000,1000,1000,0,0,0,0,0,0,0,0,0,0
1706599283.39944005,44028215,1000,1000,1000,1000,0,0,0,0,0,0,0,0,0,0
1706599283.49940014,44128175,1000,1000,1000,1000,0,0,0,0,0,0,0,0,0,0
1706599283.60019302,44228968,1000,1000,1000,1000,0,0,0,0,0,0,0,0,0,0
1706599283.70015311,44328928,1000,1000,1000,1000,0,0,0,0,0,0,0,0,0,0
1706599283.80011320,44428888,1000,1000,1000,1000,0,0,0,0,0,0,0,0,0,0
1706599283.90007305,44528848,1000,1000,1000,1000,0,0,0,0,0,0,0,0,0,0
1706599284.00003314,44628808,1029,1029,1029,1029,0,0,0,0,0,0,0,0,0,0
1706599284.09999323,44728768,1059,1059,1059,1059,0,0,0,0,0,0,0,0,0,0
1706599284.19995308,44828728,1089,1089,1089,1089,0,0,0,0,0,0,0,0,0,0
1706599284.29991317,44928688,1119,1119,1119,1119,0,0,0,0,0,0,0,0,0,0
1706599284.39987302,45028648,1149,1149,1149,1149,0,0,0,0,0,0,0,0,0,0
1706599284.49983311,45128608,1394,1389,1389,1395,0,0,0,0,0,0,0,0,0,0
1706599284.59979320,45228568,1575,1570,1571,1575,0,0,0,0,0,0,0,0,0,0
1706599284.69975305,45328528,1723,1718,1719,1723,0,0,0,0,0,0,0,0,0,0
1706599284.79971313,45428488,1851,1847,1847,1851,0,0,0,0,0,0,0,0,0,0
1706599284.89967322,45528448,1914,1909,1910,1914,0,0,0,0,0,0,0,0,0,0
1706599284.99963307,45628408,1825,1824,1824,1825,0,0,0,0,0,0,0,0,0,0
1706599285.09959316,45728368,1700,1700,1700,1700,0,0,0,0,0,0,0,0,0,0
1706599285.19955301,45828328,1636,1638,1638,1636,0,0,0,0,0,0,0,0,0,0
1706599285.29951310,45928288,1627,1628,1629,1627,0,0,0,0,0,0,0,0,0,0
1706599285.39947319,46028248,1634,1636,1636,1634,0,0,0,0,0,0,0,0,0,0
1706599285.49943304,46128208,1636,1636,1636,1636,0,0,0,0,0,0,0,0,0,0
1706599285.59939313,46228168,1629,1629,1628,1629,0,0,0,0,0,0,0,0,0,0
1706599285.70018601,46328961,1621,1620,1620,1621,0,0,0,0,0,0,0,0,0,0
1706599285.80014610,46428921,1615,1614,1614,1615,0,0,0,0,0,0,0,0,0,0
1706599285.90010619,46528881,1612,1611,1611,1611,0,0,0,0,0,0,0,0,0,0
1706599286.00006604,46628841,1611,1610,1610,1610,0,0,0,0,0,0,0,0,0,0
1706599286.10002613,46728801,1607,1612,1611,1608,0,0,0,0,0,0,0,0,0,0
1706599286.19998622,46828761,1578,1579,1579,1578,0,0,0,0,0,0,0,0,0,0
1706599286.29994607,46928721,1566,1565,1565,1566,0,0,0,0,0,0,0,0,0,0
1706599286.39990616,47028681,1557,1556,1556,1557,0,0,0,0,0,0,0,0,0,0
1706599286.49986601,47128641,1549,1549,1548,1549,0,0,0,0,0,0,0,0,0,0
1706599286.59982610,47228601,1541,1541,1539,1542,0,0,0,0,0,0,0,0,0,0
1706599286.69978619,47328561,1535,1534,1532,1537,0,0,0,0,0,0,0,0,0,0
1706599286.79974604,47428521,1529,1529,1527,1532,0,0,0,0,0,0,0,0,0,0
1706599286.89970613,47528481,1525,1525,1522,1527,0,0,0,0,0,0,0,0,0,0
1706599286.99966621,47628441,1524,1524,1522,1526,0,0,0,0,0,0,0,0,0,0
1706599287.09962606,47728401,1527,1527,1527,1526,0,0,0,0,0,0,0,0,0,0
1706599287.19958615,47828361,1529,1530,1531,1528,0,0,0,0,0,0,0,0,0,0
1706599287.29954600,47928321,1533,1533,1535,1531,0,0,0,0,0,0,0,0,0,0
1706599287.39950609,48028281,1537,1537,1539,1535,0,0,0,0,0,0,0,0,0,0
1706599287.49946618,48128241,1540,1540,1541,1539,0,0,0,0,0,0,0,0,0,0
1706599287.59942603,48228201,1543,1543,1548,1538,0,0,0,0,0,0,0,0,0,0
1706599287.69938612,48328161,1547,1546,1551,1541,0,0,0,0,0,0,0,0,0,0
1706599287.80017900,48428954,1549,1548,1549,1549,0,0,0,0,0,0,0,0,0,0
1706599287.90013909,48528914,1552,1551,1547,1555,0,0,0,0,0,0,0,0,0,0
1706599288.00009918,48628874,1552,1552,1546,1557,0,0,0,0,0,0,0,0,0,0
1706599288.10005903,48728834,1552,1552,1547,1557,0,0,0,0,0,0,0,0,0,0
1706599288.20001912,48828794,1555,1555,1552,1557,0,0,0,0,0,0,0,0,0,0
1706599288.29997921,48928754,1557,1557,1557,1556,0,0,0,0,0,0,0,0,0,0
1706599288.39993906,49028714,1558,1559,1561,1556,0,0,0,0,0,0,0,0,0,0
1706599288.49989915,49128674,1562,1561,1565,1558,0,0,0,0,0,0,0,0,0,0
1706599288.59985924,49228634,1564,1564,1566,1561,0,0,0,0,0,0,0,0,0,0
1706599288.69981909,49328594,1565,1565,1567,1564,0,0,0,0,0,0,0,0,0,0
1706599288.79977918,49428554,1565,1565,1565,1565,0,0,0,0,0,0,0,0,0,0
1706599288.89973903,49528514,1559,1559,1569,1572,0,0,0,0,0,0,0,0,0,0
1706599288.99969912,49628474,1558,1559,1569,1573,0,0,0,0,0,0,0,0,0,0
1706599289.09965920,49728434,1559,1560,1567,1570,0,0,0,0,0,0,0,0,0,0
1706599289.19961905,49828394,1563,1564,1567,1569,0,0,0,0,0,0,0,0,0,0
1706599289.29957914,49928354,1566,1566,1565,1566,0,0,0,0,0,0,0,0,0,0
1706599289.39953923,50028314,1569,1569,1566,1565,0,0,0,0,0,0,0,0,0,0
1706599289.49949908,50128274,1571,1571,1565,1564,0,0,0,0,0,0,0,0,0,0
1706599289.59945917,50228234,1573,1572,1566,1564,0,0,0,0,0,0,0,0,0,0
1706599289.69941902,50328194,1573,1572,1565,1565,0,0,0,0,0,0,0,0,0,0
1706599289.79937911,50428154,1574,1573,1566,1566,0,0,0,0,0,0,0,0,0,0
1706599289.90017223,50528947,1573,1573,1567,1568,0,0,0,0,0,0,0,0,0,0
1706599290.00013208,50628907,1573,1574,1569,1570,0,0,0,0,0,0,0,0,0,0
1706599290.10009217,50728867,1573,1573,1571,1572,0,0,0,0,0,0,0,0,0,0
1706599290.20005202,50828827,1572,1573,1572,1572,0,0,0,0,0,0,0,0,0,0
1706599290.30001211,50928787,1572,1573,1574,1573,0,0,0,0,0,0,0,0,0,0
1706599290.39997220,51028747,1573,1574,1576,1575,0,0,0,0,0,0,0,0,0,0
1706599290.49993205,51128707,1574,1573,1577,1576,0,0,0,0,0,0,0,0,0,0
1706599290.59989214,51228667,1574,1574,1577,1576,0,0,0,0,0,0,0,0,0,0
1706599290.69985223,51328627,1574,1574,1577,1577,0,0,0,0,0,0,0,0,0,0
1706599290.79981208,51428587,1575,1576,1578,1578,0,0,0,0,0,0,0,0,0,0
1706599290.89977217,51528547,1575,1575,1577,1577,0,0,0,0,0,0,0,0,0,0
1706599290.99973202,51628507,1576,1576,1576,1577,0,0,0,0,0,0,0,0,0,0
1706599291.09969211,51728467,1576,1577,1577,1577,0,0,0,0,0,0,0,0,0,0
1706599291.19965219,51828427,1577,1577,1577,1576,0,0,0,0,0,0,0,0,0,0
1706599291.29961205,51928387,1578,1577,1577,1576,0,0,0,0,0,0,0,0,0,0
1706599291.39957213,52028347,1578,1578,1576,1576,0,0,0,0,0,0,0,0,0,0
1706599291.49953222,52128307,1578,1578,1577,1577,0,0,0,0,0,0,0,0,0,0
1706599291.59949207,52228267,1578,1578,1577,1576,0,0,0,0,0,0,0,0,0,0
1706599291.69945216,52328227,1579,1579,1578,1578,0,0,0,0,0,0,0,0,0,0
1706599291.79941201,52428187,1578,1579,1578,1578,0,0,0,0,0,0,0,0,0,0
1706599291.90020514,52528980,1579,1579,1579,1579,0,0,0,0,0,0,0,0,0,0
1706599292.00016522,52628940,1578,1579,1578,1578,0,0,0,0,0,0,0,0,0,0
1706599292.10012507,52728900,1579,1579,1579,1579,0,0,0,0,0,0,0,0,0,0
1706599292.20008516,52828860,1578,1577,1578,1577,0,0,0,0,0,0,0,0,0,0
1706599292.30004501,52928820,1579,1579,1579,1579,0,0,0,0,0,0,0,0,0,0
1706599292.40000510,53028780,1578,1578,1579,1579,0,0,0,0,0,0,0,0,0,0
1706599292.49996519,53128740,1579,1579,1579,1579,0,0,0,0,0,0,0,0,0,0
1706599292.59992504,53228700,1579,1579,1580,1580,0,0,0,0,0,0,0,0,0,0
1706599292.69988513,53328660,1579,1579,1580,1580,0,0,0,0,0,0,0,0,0,0
1706599292.79984522,53428620,1580,1579,1580,1580,0,0,0,0,0,0,0,0,0,0
1706599292.89980507,53528580,1579,1579,1579,1579,0,0,0,0,0,0,0,0,0,0
1706599292.99976516,53628540,1579,1580,1580,1580,0,0,0,0,0,0,0,0,0,0
1706599293.09972501,53728500,1579,1579,1579,1579,0,0,0,0,0,0,0,0,0,0
1706599293.19968510,53828460,1580,1580,1580,1580,0,0,0,0,0,0,0,0,0,0
1706599293.29964519,53928420,1580,1580,1580,1580,0,0,0,0,0,0,0,0,0,0
1706599293.39960504,54028380,1581,1581,1580,1580,0,0,0,0,0,0,0,0,0,0
1706599293.49956512,54128340,1580,1580,1580,1580,0,0,0,0,0,0,0,0,0,0
1706599293.59952521,54228300,1580,1580,1580,1579,0,0,0,0,0,0,0,0,0,0
1706599293.69948506,54328260,1581,1580,1580,1581,0,0,0,0,0,0,0,0,0,0
1706599293.79944515,54428220,1580,1580,1580,1580,0,0,0,0,0,0,0,0,0,0
1706599293.89940500,54528180,1580,1580,1580,1580,0,0,0,0,0,0,0,0,0,0
1706599294.00019813,54628973,1581,1581,1581,1581,0,0,0,0,0,0,0,0,0,0
1706599294.10015821,54728933,1581,1581,1581,1581,0,0,0,0,0,0,0,0,0,0
1706599294.20011806,54828893,1581,1581,1582,1581,0,0,0,0,0,0,0,0,0,0
1706599294.30007815,54928853,1580,1580,1581,1581,0,0,0,0,0,0,0,0,0,0
1706599294.40003800,55028813,1580,1581,1580,1581,0,0,0,0,0,0,0,0,0,0
1706599294.49999809,55128773,1580,1580,1580,1581,0,0,0,0,0,0,0,0,0,0
1706599294.59995818,55228733,1580,1580,1580,1580,0,0,0,0,0,0,0,0,0,0
1706599294.69991803,55328693,1581,1581,1581,1581,0,0,0,0,0,0,0,0,0,0
1706599294.79987812,55428653,1581,1581,1581,1580,0,0,0,0,0,0,0,0,0,0
1706599294.89983821,55528613,1580,1580,1580,1580,0,0,0,0,0,0,0,0,0,0
1706599294.99979806,55628573,1581,1581,1581,1581,0,0,0,0,0,0,0,0,0,0
1706599295.09975815,55728533,1581,1581,1581,1580,0,0,0,0,0,0,0,0,0,0
1706599295.19971824,55828493,1581,1582,1588,1573,0,0,0,0,0,0,0,0,0,0
1706599295.29967809,55928453,1580,1582,1584,1573,0,0,0,0,0,0,0,0,0,0
1706599295.39963818,56028413,1578,1581,1576,1573,0,0,0,0,0,0,0,0,0,0
1706599295.49959803,56128373,1577,1579,1567,1571,0,0,0,0,0,0,0,0,0,0
1706599295.59955812,56228333,1576,1579,1560,1567,0,0,0,0,0,0,0,0,0,0
1706599295.69951820,56328293,1577,1577,1556,1562,0,0,0,0,0,0,0,0,0,0
1706599295.79947805,56428253,1578,1577,1555,1558,0,0,0,0,0,0,0,0,0,0
1706599295.89943814,56528213,1580,1578,1556,1556,0,0,0,0,0,0,0,0,0,0
1706599295.99939823,56628173,1580,1578,1557,1555,0,0,0,0,0,0,0,0,0,0
1706599296.10019112,56728966,1579,1578,1557,1555,0,0,0,0,0,0,0,0,0,0
1706599296.20015121,56828926,1577,1578,1557,1555,0,0,0,0,0,0,0,0,0,0
1706599296.30011106,56928886,1576,1577,1556,1555,0,0,0,0,0,0,0,0,0,0
1706599296.40007114,57028846,1576,1577,1556,1555,0,0,0,0,0,0,0,0,0,0
1706599296.50003123,57128806,1575,1577,1554,1555,0,0,0,0,0,0,0,0,0,0
1706599296.59999108,57228766,1575,1577,1552,1552,0,0,0,0,0,0,0,0,0,0
1706599296.69995117,57328726,1576,1577,1549,1550,0,0,0,0,0,0,0,0,0,0
1706599296.79991102,57428686,1578,1579,1547,1547,0,0,0,0,0,0,0,0,0,0
1706599296.89987111,57528646,1580,1582,1545,1545,0,0,0,0,0,0,0,0,0,0
1706599296.99983120,57628606,1583,1583,1542,1541,0,0,0,0,0,0,0,0,0,0
1706599297.09979105,57728566,1586,1587,1540,1540,0,0,0,0,0,0,0,0,0,0
1706599297.19975114,57828526,1590,1590,1537,1537,0,0,0,0,0,0,0,0,0,0
1706599297.29971123,57928486,1593,1593,1536,1536,0,0,0,0,0,0,0,0,0,0
1706599297.39967108,58028446,1594,1594,1534,1535,0,0,0,0,0,0,0,0,0,0
1706599297.49963117,58128406,1594,1594,1534,1535,0,0,0,0,0,0,0,0,0,0
1706599297.59959102,58228366,1593,1593,1536,1537,0,0,0,0,0,0,0,0,0,0
1706599297.69955111,58328326,1592,1591,1539,1542,0,0,0,0,0,0,0,0,0,0
1706599297.79951119,58428286,1588,1587,1544,1547,0,0,0,0,0,0,0,0,0,0
1706599297.89947104,58528246,1583,1580,1552,1555,0,0,0,0,0,0,0,0,0,0
1706599297.99943113,58628206,1575,1572,1562,1564,0,0,0,0,0,0,0,0,0,0
1706599298.09939122,58728166,1565,1561,1573,1575,0,0,0,0,0,0,0,0,0,0
1706599298.20018411,58828959,1554,1551,1586,1587,0,0,0,0,0,0,0,0,0,0
1706599298.30014420,58928919,1543,1541,1597,1597,0,0,0,0,0,0,0,0,0,0
1706599298.40010405,59028879,1535,1534,1606,1606,0,0,0,0,0,0,0,0,0,0
1706599298.50006413,59128839,1530,1531,1613,1612,0,0,0,0,0,0,0,0,0,0
1706599298.60002422,59228799,1529,1530,1615,1614,0,0,0,0,0,0,0,0,0,0
1706599298.69998407,59328759,1531,1533,1614,1613,0,0,0,0,0,0,0,0,0,0
1706599298.79994416,59428719,1538,1540,1611,1610,0,0,0,0,0,0,0,0,0,0
1706599298.89990401,59528679,1546,1547,1605,1605,0,0,0,0,0,0,0,0,0,0
1706599298.99986410,59628639,1554,1554,1597,1597,0,0,0,0,0,0,0,0,0,0
1706599299.09982419,59728599,1562,1562,1589,1589,0,0,0,0,0,0,0,0,0,0
1706599299.19978404,59828559,1571,1570,1582,1582,0,0,0,0,0,0,0,0,0,0
1706599299.29974413,59928519,1577,1576,1576,1575,0,0,0,0,0,0,0,0,0,0
1706599299.39970422,60028479,1583,1582,1572,1571,0,0,0,0,0,0,0,0,0,0
1706599299.49966407,60128439,1586,1585,1569,1568,0,0,0,0,0,0,0,0,0,0
1706599299.59962416,60228399,1588,1587,1567,1567,0,0,0,0,0,0,0,0,0,0
1706599299.69958401,60328359,1587,1586,1566,1567,0,0,0,0,0,0,0,0,0,0
1706599299.79954410,60428319,1586,1585,1568,1568,0,0,0,0,0,0,0,0,0,0
1706599299.89950418,60528279,1585,1584,1571,1571,0,0,0,0,0,0,0,0,0,0
1706599299.99946404,60628239,1581,1580,1573,1573,0,0,0,0,0,0,0,0,0,0
1706599300.09942412,60728199,1578,1579,1577,1576,0,0,0,0,0,0,0,0,0,0
1706599300.19938421,60828159,1576,1576,1579,1579,0,0,0,0,0,0,0,0,0,0
1706599300.30017710,60928952,1574,1574,1581,1581,0,0,0,0,0,0,0,0,0,0
1706599300.40013719,61028912,1573,1573,1583,1583,0,0,0,0,0,0,0,0,0,0
1706599300.50009704,61128872,1572,1573,1583,1583,0,0,0,0,0,0,0,0,0,0
1706599300.60005713,61228832,1573,1573,1584,1584,0,0,0,0,0,0,0,0,0,0
1706599300.70001721,61328792,1573,1574,1583,1583,0,0,0,0,0,0,0,0,0,0
1706599300.79997706,61428752,1457,1457,1462,1467,0,0,0,0,0,0,0,0,0,0
1706599300.89993715,61528712,1521,1521,1523,1529,0,0,0,0,0,0,0,0,0,0
1706599300.99989700,61628672,1551,1551,1554,1553,0,0,0,0,0,0,0,0,0,0
1706599301.09985709,61728632,1574,1574,1578,1572,0,0,0,0,0,0,0,0,0,0
1706599301.19981718,61828592,1591,1592,1594,1587,0,0,0,0,0,0,0,0,0,0
1706599301.29977703,61928552,1602,1602,1602,1597,0,0,0,0,0,0,0,0,0,0
1706599301.39973712,62028512,1609,1608,1606,1604,0,0,0,0,0,0,0,0,0,0
1706599301.49969721,62128472,1609,1609,1605,1606,0,0,0,0,0,0,0,0,0,0
1706599301.59965706,62228432,1609,1609,1604,1607,0,0,0,0,0,0,0,0,0,0
1706599301.69961715,62328392,1608,1607,1602,1606,0,0,0,0,0,0,0,0,0,0
1706599301.79957724,62428352,1605,1605,1600,1603,0,0,0,0,0,0,0,0,0,0
1706599301.89953709,62528312,1602,1602,1598,1600,0,0,0,0,0,0,0,0,0,0
1706599301.99949718,62628272,1598,1598,1597,1597,0,0,0,0,0,0,0,0,0,0
1706599302.09945703,62728232,1596,1596,1596,1595,0,0,0,0,0,0,0,0,0,0
1706599302.19941711,62828192,1591,1592,1592,1591,0,0,0,0,0,0,0,0,0,0
1706599302.30021024,62928985,1589,1589,1590,1589,0,0,0,0,0,0,0,0,0,0
1706599302.40017009,63028945,1585,1585,1587,1586,0,0,0,0,0,0,0,0,0,0
1706599302.50013018,63128905,1582,1583,1584,1584,0,0,0,0,0,0,0,0,0,0
1706599302.60009003,63228865,1581,1581,1582,1583,0,0,0,0,0,0,0,0,0,0
1706599302.70005012,63328825,1580,1580,1581,1582,0,0,0,0,0,0,0,0,0,0
1706599302.80001020,63428785,1578,1579,1580,1580,0,0,0,0,0,0,0,0,0,0
1706599302.89997005,63528745,1578,1578,1579,1579,0,0,0,0,0,0,0,0,0,0
1706599302.99993014,63628705,1578,1577,1578,1578,0,0,0,0,0,0,0,0,0,0
1706599303.09989023,63728665,1577,1577,1578,1577,0,0,0,0,0,0,0,0,0,0
1706599303.19985008,63828625,1578,1579,1582,1573,0,0,0,0,0,0,0,0,0,0
1706599303.29981017,63928585,1577,1581,1583,1569,0,0,0,0,0,0,0,0,0,0
1706599303.39977002,64028545,1577,1580,1576,1568,0,0,0,0,0,0,0,0,0,0
1706599303.49973011,64128505,1575,1579,1567,1567,0,0,0,0,0,0,0,0,0,0
1706599303.59969020,64228465,1575,1578,1559,1564,0,0,0,0,0,0,0,0,0,0
1706599303.69965005,64328425,1576,1577,1553,1561,0,0,0,0,0,0,0,0,0,0
1706599303.79961014,64428385,1577,1576,1550,1556,0,0,0,0,0,0,0,0,0,0
1706599303.89957023,64528345,1579,1577,1550,1553,0,0,0,0,0,0,0,0,0,0
1706599303.99953008,64628305,1580,1578,1551,1551,0,0,0,0,0,0,0,0,0,0
1706599304.09949017,64728265,1579,1579,1552,1550,0,0,0,0,0,0,0,0,0,0
1706599304.19945002,64828225,1578,1578,1552,1549,0,0,0,0,0,0,0,0,0,0
1706599304.29941010,64928185,1577,1578,1553,1550,0,0,0,0,0,0,0,0,0,0
1706599304.40020323,65028978,1577,1579,1553,1552,0,0,0,0,0,0,0,0,0,0
1706599304.50016308,65128938,1577,1578,1551,1551,0,0,0,0,0,0,0,0,0,0
1706599304.60012317,65228898,1576,1578,1550,1551,0,0,0,0,0,0,0,0,0,0
1706599304.70008302,65328858,1577,1578,1549,1550,0,0,0,0,0,0,0,0,0,0
1706599304.80004311,65428818,1578,1580,1549,1549,0,0,0,0,0,0,0,0,0,0
1706599304.90000319,65528778,1580,1581,1547,1547,0,0,0,0,0,0,0,0,0,0
1706599304.99996305,65628738,1582,1583,1546,1546,0,0,0,0,0,0,0,0,0,0
1706599305.09992313,65728698,1584,1584,1543,1544,0,0,0,0,0,0,0,0,0,0
1706599305.19988322,65828658,1586,1587,1542,1543,0,0,0,0,0,0,0,0,0,0
1706599305.29984307,65928618,1589,1590,1541,1542,0,0,0,0,0,0,0,0,0,0
1706599305.39980316,66028578,1592,1592,1541,1542,0,0,0,0,0,0,0,0,0,0
1706599305.49976301,66128538,1592,1592,1540,1541,0,0,0,0,0,0,0,0,0,0
1706599305.59972310,66228498,1593,1592,1542,1544,0,0,0,0,0,0,0,0,0,0
1706599305.69968319,66328458,1591,1589,1546,1548,0,0,0,0,0,0,0,0,0,0
1706599305.79964304,66428418,1588,1584,1552,1555,0,0,0,0,0,0,0,0,0,0
1706599305.89960313,66528378,1580,1576,1559,1562,0,0,0,0,0,0,0,0,0,0
1706599305.99956322,66628338,1572,1568,1569,1572,0,0,0,0,0,0,0,0,0,0
1706599306.09952307,66728298,1562,1558,1579,1581,0,0,0,0,0,0,0,0,0,0
1706599306.19948316,66828258,1553,1551,1590,1591,0,0,0,0,0,0,0,0,0,0
1706599306.29944301,66928218,1545,1544,1599,1599,0,0,0,0,0,0,0,0,0,0
1706599306.39940310,67028178,1539,1540,1607,1605,0,0,0,0,0,0,0,0,0,0
1706599306.50019622,67128971,1535,1537,1610,1608,0,0,0,0,0,0,0,0,0,0
1706599306.60015607,67228931,1536,1539,1612,1611,0,0,0,0,0,0,0,0,0,0
1706599306.70011616,67328891,1539,1542,1611,1610,0,0,0,0,0,0,0,0,0,0
1706599306.80007601,67428851,1543,1545,1606,1606,0,0,0,0,0,0,0,0,0,0
1706599306.90003610,67528811,1550,1550,1602,1602,0,0,0,0,0,0,0,0,0,0
1706599306.99999619,67628771,1556,1557,1597,1596,0,0,0,0,0,0,0,0,0,0
1706599307.09995604,67728731,1563,1564,1590,1590,0,0,0,0,0,0,0,0,0,0
1706599307.19991612,67828691,1570,1570,1584,1583,0,0,0,0,0,0,0,0,0,0
1706599307.29987621,67928651,1576,1575,1577,1576,0,0,0,0,0,0,0,0,0,0
1706599307.39983606,68028611,1582,1580,1572,1573,0,0,0,0,0,0,0,0,0,0
1706599307.49979615,68128571,1585,1583,1568,1568,0,0,0,0,0,0,0,0,0,0
1706599307.59975600,68228531,1589,1587,1568,1568,0,0,0,0,0,0,0,0,0,0
1706599307.69971609,68328491,1589,1587,1566,1566,0,0,0,0,0,0,0,0,0,0
1706599307.79967618,68428451,1588,1587,1567,1567,0,0,0,0,0,0,0,0,0,0
1706599307.89963603,68528411,1586,1587,1569,1569,0,0,0,0,0,0,0,0,0,0
1706599307.99959612,68628371,1585,1585,1571,1572,0,0,0,0,0,0,0,0,0,0
1706599308.09955621,68728331,1582,1582,1574,1574,0,0,0,0,0,0,0,0,0,0
1706599308.19951606,68828291,1580,1580,1577,1577,0,0,0,0,0,0,0,0,0,0
1706599308.29947615,68928251,1577,1577,1579,1579,0,0,0,0,0,0,0,0,0,0
1706599308.39943624,69028211,1575,1576,1582,1581,0,0,0,0,0,0,0,0,0,0
1706599308.49939609,69128171,1574,1574,1583,1583,0,0,0,0,0,0,0,0,0,0
1706599308.60018921,69228964,1572,1573,1584,1584,0,0,0,0,0,0,0,0,0,0
1706599308.70014906,69328924,1572,1573,1584,1584,0,0,0,0,0,0,0,0,0,0
1706599308.80010915,69428884,1572,1573,1583,1583,0,0,0,0,0,0,0,0,0,0
1706599308.90006924,69528844,1573,1574,1583,1583,0,0,0,0,0,0,0,0,0,0
1706599309.00002909,69628804,1574,1574,1582,1583,0,0,0,0,0,0,0,0,0,0
1706599309.09998918,69728764,1576,1576,1582,1582,0,0,0,0,0,0,0,0,0,0
1706599309.19994903,69828724,1577,1577,1580,1580,0,0,0,0,0,0,0,0,0,0
1706599309.29990911,69928684,1578,1578,1579,1579,0,0,0,0,0,0,0,0,0,0
1706599309.39986920,70028644,1581,1581,1580,1580,0,0,0,0,0,0,0,0,0,0
1706599309.49982905,70128604,1582,1582,1579,1578,0,0,0,0,0,0,0,0,0,0
1706599309.59978914,70228564,1583,1582,1578,1578,0,0,0,0,0,0,0,0,0,0
1706599309.69974923,70328524,1583,1582,1578,1578,0,0,0,0,0,0,0,0,0,0
1706599309.79970908,70428484,1582,1582,1577,1578,0,0,0,0,0,0,0,0,0,0
1706599309.89966917,70528444,1582,1582,1577,1578,0,0,0,0,0,0,0,0,0,0
1706599309.99962902,70628404,1581,1582,1578,1578,0,0,0,0,0,0,0,0,0,0
1706599310.09958911,70728364,1582,1582,1579,1579,0,0,0,0,0,0,0,0,0,0
1706599310.19954920,70828324,1581,1581,1580,1580,0,0,0,0,0,0,0,0,0,0
1706599310.29950905,70928284,1582,1582,1581,1581,0,0,0,0,0,0,0,0,0,0
1706599310.39946914,71028244,1581,1581,1582,1581,0,0,0,0,0,0,0,0,0,0
1706599310.49942923,71128204,1581,1581,1582,1582,0,0,0,0,0,0,0,0,0,0
1706599310.59938908,71228164,1580,1580,1582,1582,0,0,0,0,0,0,0,0,0,0
1706599310.70018220,71328957,1581,1581,1583,1584,0,0,0,0,0,0,0,0,0,0
1706599310.80014205,71428917,1580,1580,1582,1582,0,0,0,0,0,0,0,0,0,0
1706599310.90010214,71528877,1581,1581,1582,1583,0,0,0,0,0,0,0,0,0,0
1706599311.00006223,71628837,1581,1582,1583,1583,0,0,0,0,0,0,0,0,0,0
1706599311.10002208,71728797,1582,1582,1583,1583,0,0,0,0,0,0,0,0,0,0
1706599311.19998217,71828757,1582,1581,1582,1582,0,0,0,0,0,0,0,0,0,0
1706599311.29994202,71928717,1582,1582,1582,1582,0,0,0,0,0,0,0,0,0,0
1706599311.39990211,72028677,1581,1583,1588,1574,0,0,0,0,0,0,0,0,0,0
1706599311.49986219,72128637,1581,1583,1585,1573,0,0,0,0,0,0,0,0,0,0
1706599311.59982204,72228597,1579,1582,1576,1572,0,0,0,0,0,0,0,0,0,0
1706599311.69978213,72328557,1578,1581,1568,1571,0,0,0,0,0,0,0,0,0,0
1706599311.79974222,72428517,1576,1578,1560,1567,0,0,0,0,0,0,0,0,0,0
1706599311.89970207,72528477,1577,1578,1555,1562,0,0,0,0,0,0,0,0,0,0
1706599311.99966216,72628437,1579,1578,1554,1559,0,0,0,0,0,0,0,0,0,0
1706599312.09962201,72728397,1580,1578,1554,1556,0,0,0,0,0,0,0,0,0,0
1706599312.19958210,72828357,1580,1578,1554,1553,0,0,0,0,0,0,0,0,0,0
1706599312.29954219,72928317,1579,1578,1555,1552,0,0,0,0,0,0,0,0,0,0
1706599312.39950204,73028277,1578,1578,1555,1552,0,0,0,0,0,0,0,0,0,0
1706599312.49946213,73128237,1577,1578,1555,1553,0,0,0,0,0,0,0,0,0,0
1706599312.59942222,73228197,1576,1577,1553,1552,0,0,0,0,0,0,0,0,0,0
1706599312.69938207,73328157,1575,1576,1552,1552,0,0,0,0,0,0,0,0,0,0
1706599312.80017519,73428950,1575,1577,1550,1551,0,0,0,0,0,0,0,0,0,0
1706599312.90013504,73528910,1576,1577,1549,1550,0,0,0,0,0,0,0,0,0,0
1706599313.00009513,73628870,1577,1579,1548,1549,0,0,0,0,0,0,0,0,0,0
1706599313.10005522,73728830,1580,1581,1547,1547,0,0,0,0,0,0,0,0,0,0
1706599313.20001507,73828790,1583,1583,1545,1545,0,0,0,0,0,0,0,0,0,0
1706599313.29997516,73928750,1585,1586,1543,1543,0,0,0,0,0,0,0,0,0,0
1706599313.39993501,74028710,1588,1589,1542,1542,0,0,0,0,0,0,0,0,0,0
1706599313.49989510,74128670,1590,1590,1540,1540,0,0,0,0,0,0,0,0,0,0
1706599313.59985518,74228630,1593,1593,1540,1540,0,0,0,0,0,0,0,0,0,0
1706599313.69981503,74328590,1593,1594,1537,1540,0,0,0,0,0,0,0,0,0,0
1706599313.79977512,74428550,1593,1593,1538,1540,0,0,0,0,0,0,0,0,0,0
1706599313.89973521,74528510,1592,1591,1540,1543,0,0,0,0,0,0,0,0,0,0
1706599313.99969506,74628470,1589,1588,1545,1548,0,0,0,0,0,0,0,0,0,0
1706599314.09965515,74728430,1585,1581,1552,1555,0,0,0,0,0,0,0,0,0,0
1706599314.19961500,74828390,1578,1574,1562,1565,0,0,0,0,0,0,0,0,0,0
1706599314.29957509,74928350,1569,1564,1573,1575,0,0,0,0,0,0,0,0,0,0
1706599314.39953518,75028310,1558,1555,1584,1585,0,0,0,0,0,0,0,0,0,0
1706599314.49949503,75128270,1548,1546,1595,1595,0,0,0,0,0,0,0,0,0,0
1706599314.59945512,75228230,1540,1540,1604,1603,0,0,0,0,0,0,0,0,0,0
1706599314.69941521,75328190,1534,1535,1610,1609,0,0,0,0,0,0,0,0,0,0
1706599314.80020809,75428983,1532,1534,1613,1611,0,0,0,0,0,0,0,0,0,0
1706599314.90016818,75528943,1533,1535,1613,1611,0,0,0,0,0,0,0,0,0,0
1706599315.00012803,75628903,1537,1540,1610,1610,0,0,0,0,0,0,0,0,0,0
1706599315.10008812,75728863,1542,1544,1606,1606,0,0,0,0,0,0,0,0,0,0
1706599315.20004821,75828823,1549,1551,1601,1601,0,0,0,0,0,0,0,0,0,0
1706599315.30000806,75928783,1557,1558,1595,1595,0,0,0,0,0,0,0,0,0,0
1706599315.39996815,76028743,1565,1565,1589,1588,0,0,0,0,0,0,0,0,0,0
1706599315.49992824,76128703,1573,1572,1582,1582,0,0,0,0,0,0,0,0,0,0
1706599315.59988809,76228663,1579,1578,1576,1576,0,0,0,0,0,0,0,0,0,0
1706599315.69984818,76328623,1584,1582,1570,1570,0,0,0,0,0,0,0,0,0,0
1706599315.79980803,76428583,1587,1585,1567,1567,0,0,0,0,0,0,0,0,0,0
1706599315.89976811,76528543,1588,1587,1564,1565,0,0,0,0,0,0,0,0,0,0
1706599315.99972820,76628503,1589,1588,1565,1566,0,0,0,0,0,0,0,0,0,0
1706599316.09968805,76728463,1588,1587,1566,1566,0,0,0,0,0,0,0,0,0,0
1706599316.19964814,76828423,1587,1586,1569,1568,0,0,0,0,0,0,0,0,0,0
1706599316.29960823,76928383,1584,1584,1571,1571,0,0,0,0,0,0,0,0,0,0
1706599316.39956808,77028343,1581,1582,1574,1574,0,0,0,0,0,0,0,0,0,0
1706599316.49952817,77128303,1578,1578,1576,1576,0,0,0,0,0,0,0,0,0,0
1706599316.59948802,77228263,1577,1578,1580,1580,0,0,0,0,0,0,0,0,0,0
1706599316.69944811,77328223,1574,1574,1581,1581,0,0,0,0,0,0,0,0,0,0
1706599316.79940820,77428183,1573,1573,1583,1584,0,0,0,0,0,0,0,0,0,0
1706599316.90020108,77528976,1573,1573,1585,1585,0,0,0,0,0,0,0,0,0,0
1706599317.00016117,77628936,1572,1573,1585,1585,0,0,0,0,0,0,0,0,0,0
1706599317.10012102,77728896,1573,1574,1585,1585,0,0,0,0,0,0,0,0,0,0
1706599317.20008111,77828856,1574,1575,1585,1585,0,0,0,0,0,0,0,0,0,0
1706599317.30004120,77928816,1575,1576,1583,1583,0,0,0,0,0,0,0,0,0,0
1706599317.40000105,78028776,1576,1576,1581,1582,0,0,0,0,0,0,0,0,0,0
1706599317.49996114,78128736,1578,1578,1581,1581,0,0,0,0,0,0,0,0,0,0
1706599317.59992123,78228696,1580,1580,1579,1580,0,0,0,0,0,0,0,0,0,0
1706599317.69988108,78328656,1580,1580,1578,1578,0,0,0,0,0,0,0,0,0,0
1706599317.79984117,78428616,1582,1581,1578,1577,0,0,0,0,0,0,0,0,0,0
1706599317.89980102,78528576,1582,1581,1577,1577,0,0,0,0,0,0,0,0,0,0
1706599317.99976110,78628536,1583,1583,1577,1577,0,0,0,0,0,0,0,0,0,0
1706599318.09972119,78728496,1583,1582,1577,1577,0,0,0,0,0,0,0,0,0,0
1706599318.19968104,78828456,1583,1583,1578,1578,0,0,0,0,0,0,0,0,0,0
1706599318.29964113,78928416,1581,1581,1577,1578,0,0,0,0,0,0,0,0,0,0
1706599318.39960122,79028376,1581,1580,1578,1578,0,0,0,0,0,0,0,0,0,0
1706599318.49956107,79128336,1580,1581,1579,1579,0,0,0,0,0,0,0,0,0,0
1706599318.59952116,79228296,1580,1580,1580,1580,0,0,0,0,0,0,0,0,0,0
1706599318.69948101,79328256,1580,1580,1581,1581,0,0,0,0,0,0,0,0,0,0
1706599318.79944110,79428216,1580,1580,1581,1581,0,0,0,0,0,0,0,0,0,0
1706599318.89940119,79528176,1580,1580,1582,1581,0,0,0,0,0,0,0,0,0,0
1706599319.00019407,79628969,1579,1579,1581,1581,0,0,0,0,0,0,0,0,0,0
1706599319.10015416,79728929,1579,1579,1581,1581,0,0,0,0,0,0,0,0,0,0
1706599319.20011401,79828889,1580,1579,1581,1582,0,0,0,0,0,0,0,0,0,0
1706599319.30007410,79928849,1579,1579,1584,1575,0,0,0,0,0,0,0,0,0,0
1706599319.40003419,80028809,1579,1580,1586,1573,0,0,0,0,0,0,0,0,0,0
1706599319.49999404,80128769,1578,1578,1581,1574,0,0,0,0,0,0,0,0,0,0
1706599319.59995413,80228729,1574,1574,1574,1574,0,0,0,0,0,0,0,0,0,0
1706599319.69991422,80328689,1573,1572,1568,1574,0,0,0,0,0,0,0,0,0,0
1706599319.79987407,80428649,1570,1569,1565,1572,0,0,0,0,0,0,0,0,0,0
1706599319.89983416,80528609,1568,1567,1563,1569,0,0,0,0,0,0,0,0,0,0
1706599319.99979401,80628569,1567,1567,1565,1568,0,0,0,0,0,0,0,0,0,0
1706599320.09975410,80728529,1566,1566,1565,1566,0,0,0,0,0,0,0,0,0,0
1706599320.19971418,80828489,1566,1566,1566,1564,0,0,0,0,0,0,0,0,0,0
1706599320.29967403,80928449,1566,1566,1567,1564,0,0,0,0,0,0,0,0,0,0
1706599320.39963412,81028409,1566,1565,1567,1564,0,0,0,0,0,0,0,0,0,0
1706599320.49959421,81128369,1565,1565,1566,1564,0,0,0,0,0,0,0,0,0,0
1706599320.59955406,81228329,1563,1564,1564,1563,0,0,0,0,0,0,0,0,0,0
1706599320.69951415,81328289,1563,1563,1563,1563,0,0,0,0,0,0,0,0,0,0
1706599320.79947400,81428249,1562,1562,1562,1563,0,0,0,0,0,0,0,0,0,0
1706599320.89943409,81528209,1562,1562,1562,1563,0,0,0,0,0,0,0,0,0,0
1706599320.99939418,81628169,1561,1561,1562,1562,0,0,0,0,0,0,0,0,0,0
1706599321.10018706,81728962,1560,1560,1561,1561,0,0,0,0,0,0,0,0,0,0
1706599321.20014715,81828922,1560,1560,1561,1560,0,0,0,0,0,0,0,0,0,0
1706599321.30010700,81928882,1560,1560,1560,1560,0,0,0,0,0,0,0,0,0,0
1706599321.40006709,82028842,1559,1559,1560,1559,0,0,0,0,0,0,0,0,0,0
1706599321.50002718,82128802,1559,1559,1559,1558,0,0,0,0,0,0,0,0,0,0
1706599321.59998703,82228762,1559,1559,1560,1558,0,0,0,0,0,0,0,0,0,0
1706599321.69994712,82328722,1559,1558,1559,1558,0,0,0,0,0,0,0,0,0,0
1706599321.79990721,82428682,1559,1559,1560,1559,0,0,0,0,0,0,0,0,0,0
1706599321.89986706,82528642,1559,1559,1561,1558,0,0,0,0,0,0,0,0,0,0
1706599321.99982715,82628602,1559,1559,1561,1558,0,0,0,0,0,0,0,0,0,0
1706599322.09978724,82728562,1559,1559,1560,1559,0,0,0,0,0,0,0,0,0,0
1706599322.19974709,82828522,1559,1559,1558,1561,0,0,0,0,0,0,0,0,0,0
1706599322.29970717,82928482,1558,1558,1556,1560,0,0,0,0,0,0,0,0,0,0
1706599322.39966702,83028442,1559,1559,1556,1561,0,0,0,0,0,0,0,0,0,0
1706599322.49962711,83128402,1558,1558,1555,1561,0,0,0,0,0,0,0,0,0,0
1706599322.59958720,83228362,1554,1555,1552,1557,0,0,0,0,0,0,0,0,0,0
1706599322.69954705,83328322,1550,1550,1549,1551,0,0,0,0,0,0,0,0,0,0
1706599322.79950714,83428282,1545,1544,1544,1544,0,0,0,0,0,0,0,0,0,0
1706599322.89946723,83528242,1538,1538,1539,1537,0,0,0,0,0,0,0,0,0,0
1706599322.99942708,83628202,1531,1531,1531,1530,0,0,0,0,0,0,0,0,0,0
1706599323.09938717,83728162,1524,1524,1525,1524,0,0,0,0,0,0,0,0,0,0
1706599323.20018005,83828955,1520,1520,1520,1520,0,0,0,0,0,0,0,0,0,0
1706599323.30014014,83928915,1520,1520,1519,1520,0,0,0,0,0,0,0,0,0,0
1706599323.40010023,84028875,1520,1521,1520,1521,0,0,0,0,0,0,0,0,0,0
1706599323.50006008,84128835,1522,1522,1522,1523,0,0,0,0,0,0,0,0,0,0
1706599323.60002017,84228795,1526,1526,1526,1527,0,0,0,0,0,0,0,0,0,0
1706599323.69998002,84328755,1531,1531,1531,1531,0,0,0,0,0,0,0,0,0,0
1706599323.79994011,84428715,1535,1535,1535,1536,0,0,0,0,0,0,0,0,0,0
1706599323.89990020,84528675,1539,1539,1540,1539,0,0,0,0,0,0,0,0,0,0
1706599323.99986005,84628635,1542,1542,1542,1542,0,0,0,0,0,0,0,0,0,0
1706599324.09982014,84728595,1543,1544,1544,1543,0,0,0,0,0,0,0,0,0,0
1706599324.19978023,84828555,1545,1546,1546,1546,0,0,0,0,0,0,0,0,0,0
1706599324.29974008,84928515,1547,1547,1547,1547,0,0,0,0,0,0,0,0,0,0
1706599324.39970016,85028475,1547,1548,1547,1547,0,0,0,0,0,0,0,0,0,0
1706599324.49966002,85128435,1546,1546,1546,1546,0,0,0,0,0,0,0,0,0,0
1706599324.59962010,85228395,1547,1547,1547,1546,0,0,0,0,0,0,0,0,0,0
1706599324.69958019,85328355,1547,1547,1548,1547,0,0,0,0,0,0,0,0,0,0
1706599324.79954004,85428315,1547,1547,1547,1547,0,0,0,0,0,0,0,0,0,0
1706599324.89950013,85528275,1547,1547,1547,1546,0,0,0,0,0,0,0,0,0,0
1706599324.99946022,85628235,1546,1546,1546,1546,0,0,0,0,0,0,0,0,0,0
1706599325.09942007,85728195,1546,1546,1546,1546,0,0,0,0,0,0,0,0,0,0
1706599325.19938016,85828155,1545,1545,1545,1545,0,0,0,0,0,0,0,0,0,0
1706599325.30017304,85928948,1544,1545,1545,1544,0,0,0,0,0,0,0,0,0,0
1706599325.40013313,86028908,1544,1544,1544,1545,0,0,0,0,0,0,0,0,0,0
1706599325.50009322,86128868,1544,1544,1544,1545,0,0,0,0,0,0,0,0,0,0
1706599325.60005307,86228828,1544,1544,1544,1544,0,0,0,0,0,0,0,0,0,0
1706599325.70001316,86328788,1544,1544,1545,1544,0,0,0,0,0,0,0,0,0,0
1706599325.79997301,86428748,1544,1544,1544,1544,0,0,0,0,0,0,0,0,0,0
1706599325.89993310,86528708,1544,1544,1544,1544,0,0,0,0,0,0,0,0,0,0
1706599325.99989319,86628668,1544,1544,1544,1544,0,0,0,0,0,0,0,0,0,0
1706599326.09985304,86728628,1543,1543,1543,1543,0,0,0,0,0,0,0,0,0,0
1706599326.19981313,86828588,1544,1544,1544,1544,0,0,0,0,0,0,0,0,0,0
1706599326.29977322,86928548,1544,1544,1544,1544,0,0,0,0,0,0,0,0,0,0
1706599326.39973307,87028508,1544,1544,1544,1544,0,0,0,0,0,0,0,0,0,0
1706599326.49969316,87128468,1543,1543,1543,1543,0,0,0,0,0,0,0,0,0,0
1706599326.59965301,87228428,1544,1544,1544,1544,0,0,0,0,0,0,0,0,0,0
1706599326.69961309,87328388,1543,1543,1543,1543,0,0,0,0,0,0,0,0,0,0
1706599326.79957318,87428348,1543,1544,1544,1543,0,0,0,0,0,0,0,0,0,0
1706599326.89953303,87528308,1544,1544,1544,1544,0,0,0,0,0,0,0,0,0,0
1706599326.99949312,87628268,1545,1545,1545,1544,0,0,0,0,0,0,0,0,0,0
1706599327.09945321,87728228,1544,1544,1544,1544,0,0,0,0,0,0,0,0,0,0
1706599327.19941306,87828188,1544,1544,1544,1544,0,0,0,0,0,0,0,0,0,0
1706599327.30020618,87928981,1544,1543,1544,1544,0,0,0,0,0,0,0,0,0,0
1706599327.40016603,88028941,1544,1544,1544,1544,0,0,0,0,0,0,0,0,0,0
1706599327.50012612,88128901,1544,1544,1544,1544,0,0,0,0,0,0,0,0,0,0
1706599327.60008621,88228861,1544,1545,1544,1544,0,0,0,0,0,0,0,0,0,0
1706599327.70004606,88328821,1544,1544,1544,1544,0,0,0,0,0,0,0,0,0,0
1706599327.80000615,88428781,1544,1545,1545,1544,0,0,0,0,0,0,0,0,0,0
1706599327.89996600,88528741,1544,1544,1544,1544,0,0,0,0,0,0,0,0,0,0
1706599327.99992609,88628701,1545,1545,1545,1544,0,0,0,0,0,0,0,0,0,0
1706599328.09988618,88728661,1545,1544,1545,1545,0,0,0,0,0,0,0,0,0,0
1706599328.19984603,88828621,1544,1544,1544,1544,0,0,0,0,0,0,0,0,0,0
1706599328.29980612,88928581,1545,1545,1545,1545,0,0,0,0,0,0,0,0,0,0
1706599328.39976621,89028541,1544,1545,1545,1545,0,0,0,0,0,0,0,0,0,0
1706599328.49972606,89128501,1545,1545,1545,1545,0,0,0,0,0,0,0,0,0,0
1706599328.59968615,89228461,1545,1545,1545,1545,0,0,0,0,0,0,0,0,0,0
1706599328.69964623,89328421,1545,1545,1545,1545,0,0,0,0,0,0,0,0,0,0
1706599328.79960608,89428381,1544,1544,1544,1544,0,0,0,0,0,0,0,0,0,0
1706599328.89956617,89528341,1545,1544,1544,1545,0,0,0,0,0,0,0,0,0,0
1706599328.99952602,89628301,1544,1544,1544,1544,0,0,0,0,0,0,0,0,0,0
1706599329.09948611,89728261,1545,1545,1545,1545,0,0,0,0,0,0,0,0,0,0
1706599329.19944620,89828221,1544,1545,1544,1544,0,0,0,0,0,0,0,0,0,0
1706599329.29940605,89928181,1545,1545,1544,1545,0,0,0,0,0,0,0,0,0,0
1706599329.40019917,90028974,1544,1544,1544,1544,0,0,0,0,0,0,0,0,0,0
1706599329.50015903,90128934,1545,1545,1545,1545,0,0,0,0,0,0,0,0,0,0
1706599329.60011911,90228894,1544,1545,1544,1544,0,0,0,0,0,0,0,0,0,0
1706599329.70007920,90328854,1544,1544,1544,1544,0,0,0,0,0,0,0,0,0,0
1706599329.80003905,90428814,1544,1543,1544,1543,0,0,0,0,0,0,0,0,0,0
1706599329.89999914,90528774,1544,1544,1544,1545,0,0,0,0,0,0,0,0,0,0
1706599329.99995923,90628734,1544,1544,1544,1544,0,0,0,0,0,0,0,0,0,0
1706599330.09991908,90728694,1544,1544,1544,1544,0,0,0,0,0,0,0,0,0,0
1706599330.19987917,90828654,1544,1544,1544,1544,0,0,0,0,0,0,0,0,0,0
1706599330.29983902,90928614,1544,1544,1544,1544,0,0,0,0,0,0,0,0,0,0
1706599330.39979911,91028574,1543,1543,1544,1543,0,0,0,0,0,0,0,0,0,0
1706599330.49975920,91128534,1544,1543,1543,1544,0,0,0,0,0,0,0,0,0,0
1706599330.59971905,91228494,1543,1543,1543,1543,0,0,0,0,0,0,0,0,0,0
1706599330.69967914,91328454,1544,1543,1544,1544,0,0,0,0,0,0,0,0,0,0
1706599330.79963923,91428414,1544,1544,1544,1544,0,0,0,0,0,0,0,0,0,0
1706599330.89959908,91528374,1544,1545,1545,1544,0,0,0,0,0,0,0,0,0,0
1706599330.99955916,91628334,1545,1545,1545,1545,0,0,0,0,0,0,0,0,0,0
1706599331.09951901,91728294,1544,1544,1544,1545,0,0,0,0,0,0,0,0,0,0
1706599331.19947910,91828254,1544,1545,1544,1544,0,0,0,0,0,0,0,0,0,0
1706599331.29943919,91928214,1544,1544,1544,1544,0,0,0,0,0,0,0,0,0,0
1706599331.39939904,92028174,1545,1544,1545,1544,0,0,0,0,0,0,0,0,0,0
1706599331.50019217,92128967,1544,1544,1544,1544,0,0,0,0,0,0,0,0,0,0
1706599331.60015202,92228927,1544,1544,1545,1544,0,0,0,0,0,0,0,0,0,0
1706599331.70011210,92328887,1544,1544,1545,1544,0,0,0,0,0,0,0,0,0,0
1706599331.80007219,92428847,1543,1544,1544,1544,0,0,0,0,0,0,0,0,0,0
1706599331.90003204,92528807,1546,1546,1545,1546,0,0,0,0,0,0,0,0,0,0
1706599331.99999213,92628767,1545,1545,1545,1545,0,0,0,0,0,0,0,0,0,0
1706599332.09995222,92728727,1545,1544,1544,1545,0,0,0,0,0,0,0,0,0,0
1706599332.19991207,92828687,1544,1544,1544,1544,0,0,0,0,0,0,0,0,0,0
1706599332.29987216,92928647,1544,1544,1544,1544,0,0,0,0,0,0,0,0,0,0
1706599332.39983201,93028607,1544,1544,1544,1544,0,0,0,0,0,0,0,0,0,0
1706599332.49979210,93128567,1545,1544,1544,1544,0,0,0,0,0,0,0,0,0,0
1706599332.59975219,93228527,1545,1545,1545,1545,0,0,0,0,0,0,0,0,0,0
1706599332.69971204,93328487,1544,1544,1544,1544,0,0,0,0,0,0,0,0,0,0
1706599332.79967213,93428447,1545,1544,1544,1545,0,0,0,0,0,0,0,0,0,0
1706599332.89963222,93528407,1408,1406,1407,1407,0,0,0,0,0,0,0,0,0,0
1706599332.99959207,93628367,1325,1322,1324,1323,0,0,0,0,0,0,0,0,0,0
1706599333.09955215,93728327,1300,1297,1298,1298,0,0,0,0,0,0,0,0,0,0
1706599333.19951200,93828287,1288,1285,1287,1286,0,0,0,0,0,0,0,0,0,0
1706599333.29947209,93928247,1260,1258,1259,1259,0,0,0,0,0,0,0,0,0,0
1706599333.39943218,94028207,1213,1211,1212,1212,0,0,0,0,0,0,0,0,0,0
1706599333.49939203,94128167,1151,1147,1149,1149,0,0,0,0,0,0,0,0,0,0
1706599333.60018516,94228960,1076,1072,1074,1073,0,0,0,0,0,0,0,0,0,0
1706599333.70014501,94328920,994,988,991,990,0,0,0,0,0,0,0,0,0,0
1706599333.80010509,94428880,993,988,991,989,0,0,0,0,0,0,0,0,0,0
1706599333.90006518,94528840,994,988,991,991,0,0,0,0,0,0,0,0,0,0
1706599334.00002503,94628800,1020,988,990,1019,0,0,0,0,0,0,0,0,0,0
1706599334.09998512,94728760,1012,988,991,1010,0,0,0,0,0,0,0,0,0,0
1706599334.19994521,94828720,1010,988,991,1008,0,0,0,0,0,0,0,0,0,0
1706599334.29990506,94928680,1012,988,991,1009,0,0,0,0,0,0,0,0,0,0
1706599334.39986515,95028640,1013,988,991,1010,0,0,0,0,0,0,0,0,0,0
1706599334.49982500,95128600,1015,988,991,1012,0,0,0,0,0,0,0,0,0,0
1706599334.59978509,95228560,1016,988,991,1014,0,0,0,0,0,0,0,0,0,0
1706599334.69974518,95328520,1018,988,991,1015,0,0,0,0,0,0,0,0,0,0
1706599334.79970503,95428480,1005,988,990,1002,0,0,0,0,0,0,0,0,0,0
1706599334.89966512,95528440,1006,988,990,1003,0,0,0,0,0,0,0,0,0,0
1706599334.99962521,95628400,1007,988,990,1004,0,0,0,0,0,0,0,0,0,0
1706599335.09958506,95728360,1007,988,991,1005,0,0,0,0,0,0,0,0,0,0
1706599335.19954515,95828320,1004,988,990,1002,0,0,0,0,0,0,0,0,0,0
1706599335.29950523,95928280,1000,1000,1000,1000,0,0,0,0,0,0,0,0,0,0
1706599335.39946508,96028240,1000,1000,1000,1000,0,0,0,0,0,0,0,0,0,0
1706599335.49942517,96128200,1000,1000,1000,1000,0,0,0,0,0,0,0,0,0,0
1706599335.59938502,96228160,1000,1000,1000,1000,0,0,0,0,0,0,0,0,0,0
1706599335.70017815,96328953,1000,1000,1000,1000,0,0,0,0,0,0,0,0,0,0
1706599335.80013824,96428913,1000,1000,1000,1000,0,0,0,0,0,0,0,0,0,0
1706599335.90009809,96528873,1000,1000,1000,1000,0,0,0,0,0,0,0,0,0,0
1706599336.00005817,96628833,1000,1000,1000,1000,0,0,0,0,0,0,0,0,0,0
1706599336.10001802,96728793,1000,1000,1000,1000,0,0,0,0,0,0,0,0,0,0
1706599336.19997811,96828753,1000,1000,1000,1000,0,0,0,0,0,0,0,0,0,0
1706599336.29993820,96928713,1000,1000,1000,1000,0,0,0,0,0,0,0,0,0,0
1706599336.39989805,97028673,1000,1000,1000,1000,0,0,0,0,0,0,0,0,0,0
1706599336.49985814,97128633,1000,1000,1000,1000,0,0,0,0,0,0,0,0,0,0
1706599336.59981823,97228593,1000,1000,1000,1000,0,0,0,0,0,0,0,0,0,0
1706599336.69977808,97328553,1000,1000,1000,1000,0,0,0,0,0,0,0,0,0,0
1706599336.79973817,97428513,1000,1000,1000,1000,0,0,0,0,0,0,0,0,0,0
1706599336.89969802,97528473,1000,1000,1000,1000,0,0,0,0,0,0,0,0,0,0
1706599336.99965811,97628433,1000,1000,1000,1000,0,0,0,0,0,0,0,0,0,0
1706599337.09961820,97728393,1000,1000,1000,1000,0,0,0,0,0,0,0,0,0,0
1706599337.19957805,97828353,1000,1000,1000,1000,0,0,0,0,0,0,0,0,0,0
1706599337.29953814,97928313,1000,1000,1000,1000,0,0,0,0,0,0,0,0,0,0
1706599337.39949822,98028273,1000,1000,1000,1000,0,0,0,0,0,0,0,0,0,0
1706599337.49945807,98128233,1000,1000,1000,1000,0,0,0,0,0,0,0,0,0,0
1706599337.59941816,98228193,1000,1000,1000,1000,0,0,0,0,0,0,0,0,0,0
1706599337.70021105,98328986,1000,1000,1000,1000,0,0,0,0,0,0,0,0,0,0
1706599337.80017114,98428946,1000,1000,1000,1000,0,0,0,0,0,0,0,0,0,0
1706599337.90013123,98528906,1000,1000,1000,1000,0,0,0,0,0,0,0,0,0,0
1706599338.00009108,98628866,1000,1000,1000,1000,0,0,0,0,0,0,0,0,0,0
1706599338.10005116,98728826,1000,1000,1000,1000,0,0,0,0,0,0,0,0,0,0
1706599338.20001101,98828786,1000,1000,1000,1000,0,0,0,0,0,0,0,0,0,0
1706599338.29997110,98928746,1000,1000,1000,1000,0,0,0,0,0,0,0,0,0,0
1706599338.39993119,99028706,1000,1000,1000,1000,0,0,0,0,0,0,0,0,0,0
1706599338.49989104,99128666,1000,1000,1000,1000,0,0,0,0,0,0,0,0,0,0
1706599338.59985113,99228626,1000,1000,1000,1000,0,0,0,0,0,0,0,0,0,0
1706599338.69981122,99328586,1000,1000,1000,1000,0,0,0,0,0,0,0,0,0,0
1706599338.79977107,99428546,1000,1000,1000,1000,0,0,0,0,0,0,0,0,0,0
1706599338.89973116,99528506,1000,1000,1000,1000,0,0,0,0,0,0,0,0,0,0
1706599338.99969101,99628466,1000,1000,1000,1000,0,0,0,0,0,0,0,0,0,0
1706599339.09965110,99728426,1000,1000,1000,1000,0,0,0,0,0,0,0,0,0,0
1706599339.19961119,99828386,1000,1000,1000,1000,0,0,0,0,0,0,0,0,0,0
1706599339.29957104,99928346,1000,1000,1000,1000,0,0,0,0,0,0,0,0,0,0
1706599339.39953113,100028306,1000,1000,1000,1000,0,0,0,0,0,0,0,0,0,0
1706599339.49949121,100128266,1000,1000,1000,1000,0,0,0,0,0,0,0,0,0,0
1706599339.59945107,100228226,1000,1000,1000,1000,0,0,0,0,0,0,0,0,0,0
1706599339.69941115,100328186,1000,1000,1000,1000,0,0,0,0,0,0,0,0,0,0
1706599339.80020404,100428979,1000,1000,1000,1000,0,0,0,0,0,0,0,0,0,0
1706599339.90016413,100528939,1000,1000,1000,1000,0,0,0,0,0,0,0,0,0,0
1706599340.00012422,100628899,1000,1000,1000,1000,0,0,0,0,0,0,0,0,0,0
1706599340.10008407,100728859,1000,1000,1000,1000,0,0,0,0,0,0,0,0,0,0
1706599340.20004416,100828819,1000,1000,1000,1000,0,0,0,0,0,0,0,0,0,0
1706599340.30000401,100928779,1000,1000,1000,1000,0,0,0,0,0,0,0,0,0,0
1706599340.39996409,101028739,1000,1000,1000,1000,0,0,0,0,0,0,0,0,0,0
1706599340.49992418,101128699,1000,1000,1000,1000,0,0,0,0,0,0,0,0,0,0
1706599340.59988403,101228659,1000,1000,1000,1000,0,0,0,0,0,0,0,0,0,0
1706599340.69984412,101328619,1000,1000,1000,1000,0,0,0,0,0,0,0,0,0,0
1706599340.79980421,101428579,1000,1000,1000,1000,0,0,0,0,0,0,0,0,0,0
1706599340.89976406,101528539,1000,1000,1000,1000,0,0,0,0,0,0,0,0,0,0
1706599340.99972415,101628499,1000,1000,1000,1000,0,0,0,0,0,0,0,0,0,0
1706599341.09968400,101728459,1000,1000,1000,1000,0,0,0,0,0,0,0,0,0,0
1706599341.19964409,101828419,1000,1000,1000,1000,0,0,0,0,0,0,0,0,0,0
1706599341.29960418,101928379,1000,1000,1000,1000,0,0,0,0,0,0,0,0,0,0
1706599341.39956403,102028339,1000,1000,1000,1000,0,0,0,0,0,0,0,0,0,0
1706599341.49952412,102128299,1000,1000,1000,1000,0,0,0,0,0,0,0,0,0,0
1706599341.59948421,102228259,1000,1000,1000,1000,0,0,0,0,0,0,0,0,0,0
1706599341.69944406,102328219,1000,1000,1000,1000,0,0,0,0,0,0,0,0,0,0
1706599341.79940414,102428179,1000,1000,1000,1000,0,0,0,0,0,0,0,0,0,0
1706599341.90019703,102528972,1000,1000,1000,1000,0,0,0,0,0,0,0,0,0,0
1706599342.00015712,102628932,1000,1000,1000,1000,0,0,0,0,0,0,0,0,0,0
1706599342.10011721,102728892,1000,1000,1000,1000,0,0,0,0,0,0,0,0,0,0
1706599342.20007706,102828852,1000,1000,1000,1000,0,0,0,0,0,0,0,0,0,0
1706599342.30003715,102928812,1000,1000,1000,1000,0,0,0,0,0,0,0,0,0,0
1706599342.39999723,103028772,1000,1000,1000,1000,0,0,0,0,0,0,0,0,0,0
1706599342.49995708,103128732,1000,1000,1000,1000,0,0,0,0,0,0,0,0,0,0
1706599342.59991717,103228692,1000,1000,1000,1000,0,0,0,0,0,0,0,0,0,0
1706599342.69987702,103328652,1000,1000,1000,1000,0,0,0,0,0,0,0,0,0,0
1706599342.79983711,103428612,1000,1000,1000,1000,0,0,0,0,0,0,0,0,0,0
1706599342.89979720,103528572,1000,1000,1000,1000,0,0,0,0,0,0,0,0,0,0
1706599342.99975705,103628532,1000,1000,1000,1000,0,0,0,0,0,0,0,0,0,0
1706599343.09971714,103728492,1000,1000,1000,1000,0,0,0,0,0,0,0,0,0,0
1706599343.19967723,103828452,1000,1000,1000,1000,0,0,0,0,0,0,0,0,0,0
1706599343.29963708,103928412,1000,1000,1000,1000,0,0,0,0,0,0,0,0,0,0
1706599343.39959717,104028372,1000,1000,1000,1000,0,0,0,0,0,0,0,0,0,0
1706599343.49955702,104128332,1000,1000,1000,1000,0,0,0,0,0,0,0,0,0,0
1706599343.59951711,104228292,1000,1000,1000,1000,0,0,0,0,0,0,0,0,0,0
1706599343.69947720,104328252,1000,1000,1000,1000,0,0,0,0,0,0,0,0,0,0
1706599343.79943705,104428212,1000,1000,1000,1000,0,0,0,0,0,0,0,0,0,0
1706599343.89939713,104528172,1000,1000,1000,1000,0,0,0,0,0,0,0,0,0,0
