timestamp,TimeUS,C1,C2,C3,C4,C5,C6,C7,C8,C9,C10,C11,C12,C13,C14
1706180845.50004005,82128802,1000,1000,1000,1000,0,0,0,0,0,0,0,0,0,0
1706180845.59999990,82228762,1000,1000,1000,1000,0,0,0,0,0,0,0,0,0,0
1706180845.69995999,82328722,1000,1000,1000,1000,0,0,0,0,0,0,0,0,0,0
1706180845.79992008,82428682,1000,1000,1000,1000,0,0,0,0,0,0,0,0,0,0
1706180845.89987993,82528642,1000,1000,1000,1000,0,0,0,0,0,0,0,0,0,0
1706180845.99984002,82628602,1000,1000,1000,1000,0,0,0,0,0,0,0,0,0,0
1706180846.09980011,82728562,1000,1000,1000,1000,0,0,0,0,0,0,0,0,0,0
1706180846.19975996,82828522,1000,1000,1000,1000,0,0,0,0,0,0,0,0,0,0
1706180846.29972005,82928482,1000,1000,1000,1000,0,0,0,0,0,0,0,0,0,0
1706180846.39967990,83028442,1000,1000,1000,1000,0,0,0,0,0,0,0,0,0,0
1706180846.49963999,83128402,1000,1000,1000,1000,0,0,0,0,0,0,0,0,0,0
1706180846.59960008,83228362,1000,1000,1000,1000,0,0,0,0,0,0,0,0,0,0
1706180846.69955993,83328322,1000,1000,1000,1000,0,0,0,0,0,0,0,0,0,0
1706180846.79952002,83428282,1000,1000,1000,1000,0,0,0,0,0,0,0,0,0,0
1706180846.89948010,83528242,1000,1000,1000,1000,0,0,0,0,0,0,0,0,0,0
1706180846.99943995,83628202,1000,1000,1000,1000,0,0,0,0,0,0,0,0,0,0
1706180847.09940004,83728162,1000,1000,1000,1000,0,0,0,0,0,0,0,0,0,0
1706180847.20019293,83828955,1000,1000,1000,1000,0,0,0,0,0,0,0,0,0,0
1706180847.30015302,83928915,1000,1000,1000,1000,0,0,0,0,0,0,0,0,0,0
1706180847.40011311,84028875,1000,1000,1000,1000,0,0,0,0,0,0,0,0,0,0
1706180847.50007296,84128835,1017,1017,1017,1017,0,0,0,0,0,0,0,0,0,0
1706180847.60003304,84228795,1047,1047,1047,1047,0,0,0,0,0,0,0,0,0,0
1706180847.69999290,84328755,1077,1077,1077,1077,0,0,0,0,0,0,0,0,0,0
1706180847.79995298,84428715,1100,1100,1100,1100,0,0,0,0,0,0,0,0,0,0
1706180847.89991307,84528675,1100,1100,1100,1100,0,0,0,0,0,0,0,0,0,0
1706180847.99987292,84628635,1100,1100,1100,1100,0,0,0,0,0,0,0,0,0,0
1706180848.09983301,84728595,1100,1100,1100,1100,0,0,0,0,0,0,0,0,0,0
1706180848.19979310,84828555,1100,1100,1100,1100,0,0,0,0,0,0,0,0,0,0
1706180848.29975295,84928515,1100,1100,1100,1100,0,0,0,0,0,0,0,0,0,0
1706180848.39971304,85028475,1100,1100,1100,1100,0,0,0,0,0,0,0,0,0,0
1706180848.49967289,85128435,1100,1100,1100,1100,0,0,0,0,0,0,0,0,0,0
1706180848.59963298,85228395,1100,1100,1100,1100,0,0,0,0,0,0,0,0,0,0
1706180848.69959307,85328355,1100,1100,1100,1100,0,0,0,0,0,0,0,0,0,0
1706180848.79955292,85428315,1100,1100,1100,1100,0,0,0,0,0,0,0,0,0,0
1706180848.89951301,85528275,1100,1100,1100,1100,0,0,0,0,0,0,0,0,0,0
1706180848.99947309,85628235,1100,1100,1100,1100,0,0,0,0,0,0,0,0,0,0
1706180849.09943295,85728195,1100,1100,1100,1100,0,0,0,0,0,0,0,0,0,0
1706180849.19939303,85828155,1100,1100,1100,1100,0,0,0,0,0,0,0,0,0,0
1706180849.30018592,85928948,1100,1100,1100,1100,0,0,0,0,0,0,0,0,0,0
1706180849.40014601,86028908,1100,1100,1100,1100,0,0,0,0,0,0,0,0,0,0
1706180849.50010610,86128868,1100,1100,1100,1100,0,0,0,0,0,0,0,0,0,0
1706180849.60006595,86228828,1100,1100,1100,1100,0,0,0,0,0,0,0,0,0,0
1706180849.70002604,86328788,1100,1100,1100,1100,0,0,0,0,0,0,0,0,0,0
1706180849.79998589,86428748,1100,1100,1100,1100,0,0,0,0,0,0,0,0,0,0
1706180849.89994597,86528708,1100,1100,1100,1100,0,0,0,0,0,0,0,0,0,0
1706180849.99990606,86628668,1100,1100,1100,1100,0,0,0,0,0,0,0,0,0,0
1706180850.09986591,86728628,1100,1100,1100,1100,0,0,0,0,0,0,0,0,0,0
1706180850.19982600,86828588,1100,1100,1100,1100,0,0,0,0,0,0,0,0,0,0
1706180850.29978609,86928548,1100,1100,1100,1100,0,0,0,0,0,0,0,0,0,0
1706180850.39974594,87028508,1100,1100,1100,1100,0,0,0,0,0,0,0,0,0,0
1706180850.49970603,87128468,1100,1100,1100,1100,0,0,0,0,0,0,0,0,0,0
1706180850.59966588,87228428,1100,1100,1100,1100,0,0,0,0,0,0,0,0,0,0
1706180850.69962597,87328388,1100,1100,1100,1100,0,0,0,0,0,0,0,0,0,0
1706180850.79958606,87428348,1100,1100,1100,1100,0,0,0,0,0,0,0,0,0,0
1706180850.89954591,87528308,1100,1100,1100,1100,0,0,0,0,0,0,0,0,0,0
1706180850.99950600,87628268,1100,1100,1100,1100,0,0,0,0,0,0,0,0,0,0
1706180851.09946609,87728228,1100,1100,1100,1100,0,0,0,0,0,0,0,0,0,0
1706180851.19942594,87828188,1100,1100,1100,1100,0,0,0,0,0,0,0,0,0,0
1706180851.30021906,87928981,1100,1100,1100,1100,0,0,0,0,0,0,0,0,0,0
1706180851.40017891,88028941,1100,1100,1100,1100,0,0,0,0,0,0,0,0,0,0
1706180851.50013900,88128901,1100,1100,1100,1100,0,0,0,0,0,0,0,0,0,0
1706180851.60009909,88228861,1100,1100,1100,1100,0,0,0,0,0,0,0,0,0,0
1706180851.70005894,88328821,1100,1100,1100,1100,0,0,0,0,0,0,0,0,0,0
1706180851.80001903,88428781,1100,1100,1100,1100,0,0,0,0,0,0,0,0,0,0
1706180851.89997888,88528741,1100,1100,1100,1100,0,0,0,0,0,0,0,0,0,0
1706180851.99993896,88628701,1100,1100,1100,1100,0,0,0,0,0,0,0,0,0,0
1706180852.09989905,88728661,1100,1100,1100,1100,0,0,0,0,0,0,0,0,0,0
1706180852.19985890,88828621,1100,1100,1100,1100,0,0,0,0,0,0,0,0,0,0
1706180852.29981899,88928581,1100,1100,1100,1100,0,0,0,0,0,0,0,0,0,0
1706180852.39977908,89028541,1100,1100,1100,1100,0,0,0,0,0,0,0,0,0,0
1706180852.49973893,89128501,1100,1100,1100,1100,0,0,0,0,0,0,0,0,0,0
1706180852.59969902,89228461,1100,1100,1100,1100,0,0,0,0,0,0,0,0,0,0
1706180852.69965911,89328421,1100,1100,1100,1100,0,0,0,0,0,0,0,0,0,0
1706180852.79961896,89428381,1100,1100,1100,1100,0,0,0,0,0,0,0,0,0,0
1706180852.89957905,89528341,1100,1100,1100,1100,0,0,0,0,0,0,0,0,0,0
1706180852.99953890,89628301,1100,1100,1100,1100,0,0,0,0,0,0,0,0,0,0
1706180853.09949899,89728261,1100,1100,1100,1100,0,0,0,0,0,0,0,0,0,0
1706180853.19945908,89828221,1100,1100,1100,1100,0,0,0,0,0,0,0,0,0,0
1706180853.29941893,89928181,1100,1100,1100,1100,0,0,0,0,0,0,0,0,0,0
1706180853.40021205,90028974,1100,1100,1100,1100,0,0,0,0,0,0,0,0,0,0
1706180853.50017190,90128934,1100,1100,1100,1100,0,0,0,0,0,0,0,0,0,0
1706180853.60013199,90228894,1100,1100,1100,1100,0,0,0,0,0,0,0,0,0,0
1706180853.70009208,90328854,1100,1100,1100,1100,0,0,0,0,0,0,0,0,0,0
1706180853.80005193,90428814,1100,1100,1100,1100,0,0,0,0,0,0,0,0,0,0
1706180853.90001202,90528774,1118,1118,1118,1118,0,0,0,0,0,0,0,0,0,0
1706180853.99997211,90628734,1148,1148,1148,1148,0,0,0,0,0,0,0,0,0,0
1706180854.09993196,90728694,1198,1186,1187,1198,0,0,0,0,0,0,0,0,0,0
1706180854.19989204,90828654,1231,1219,1219,1231,0,0,0,0,0,0,0,0,0,0
1706180854.29985189,90928614,1273,1260,1260,1273,0,0,0,0,0,0,0,0,0,0
1706180854.39981198,91028574,1322,1309,1310,1322,0,0,0,0,0,0,0,0,0,0
1706180854.49977207,91128534,1371,1358,1359,1372,0,0,0,0,0,0,0,0,0,0
1706180854.59973192,91228494,1422,1409,1409,1422,0,0,0,0,0,0,0,0,0,0
1706180854.69969201,91328454,1474,1461,1461,1474,0,0,0,0,0,0,0,0,0,0
1706180854.79965210,91428414,1527,1514,1514,1528,0,0,0,0,0,0,0,0,0,0
1706180854.89961195,91528374,1581,1567,1567,1581,0,0,0,0,0,0,0,0,0,0
1706180854.99957204,91628334,1617,1602,1602,1617,0,0,0,0,0,0,0,0,0,0
1706180855.09953189,91728294,1650,1634,1635,1650,0,0,0,0,0,0,0,0,0,0
1706180855.19949198,91828254,1684,1668,1669,1684,0,0,0,0,0,0,0,0,0,0
1706180855.29945207,91928214,1722,1705,1706,1722,0,0,0,0,0,0,0,0,0,0
1706180855.39941192,92028174,1758,1742,1742,1758,0,0,0,0,0,0,0,0,0,0
1706180855.50020504,92128967,1783,1773,1773,1784,0,0,0,0,0,0,0,0,0,0
1706180855.60016489,92228927,1659,1656,1656,1659,0,0,0,0,0,0,0,0,0,0
1706180855.70012498,92328887,1561,1565,1566,1561,0,0,0,0,0,0,0,0,0,0
1706180855.80008507,92428847,1559,1566,1566,1560,0,0,0,0,0,0,0,0,0,0
1706180855.90004492,92528807,1598,1604,1603,1598,0,0,0,0,0,0,0,0,0,0
1706180856.00000501,92628767,1630,1635,1634,1630,0,0,0,0,0,0,0,0,0,0
1706180856.09996510,92728727,1645,1646,1646,1645,0,0,0,0,0,0,0,0,0,0
1706180856.19992495,92828687,1645,1644,1644,1645,0,0,0,0,0,0,0,0,0,0
1706180856.29988503,92928647,1640,1637,1637,1640,0,0,0,0,0,0,0,0,0,0
1706180856.39984488,93028607,1637,1634,1634,1637,0,0,0,0,0,0,0,0,0,0
1706180856.49980497,93128567,1635,1633,1633,1635,0,0,0,0,0,0,0,0,0,0
1706180856.59976506,93228527,1635,1633,1633,1634,0,0,0,0,0,0,0,0,0,0
1706180856.69972491,93328487,1635,1634,1635,1634,0,0,0,0,0,0,0,0,0,0
1706180856.79968500,93428447,1615,1617,1613,1618,0,0,0,0,0,0,0,0,0,0
1706180856.89964509,93528407,1604,1604,1596,1610,0,0,0,0,0,0,0,0,0,0
1706180856.99960494,93628367,1598,1597,1591,1602,0,0,0,0,0,0,0,0,0,0
1706180857.09956503,93728327,1594,1593,1590,1595,0,0,0,0,0,0,0,0,0,0
1706180857.19952488,93828287,1594,1593,1593,1592,0,0,0,0,0,0,0,0,0,0
1706180857.29948497,93928247,1594,1594,1596,1591,0,0,0,0,0,0,0,0,0,0
1706180857.39944506,94028207,1586,1586,1593,1579,0,0,0,0,0,0,0,0,0,0
1706180857.49940491,94128167,1569,1570,1587,1554,0,0,0,0,0,0,0,0,0,0
1706180857.60019803,94228960,1558,1559,1568,1552,0,0,0,0,0,0,0,0,0,0
1706180857.70015788,94328920,1549,1550,1548,1554,0,0,0,0,0,0,0,0,0,0
1706180857.80011797,94428880,1541,1541,1533,1551,0,0,0,0,0,0,0,0,0,0
1706180857.90007806,94528840,1535,1534,1524,1545,0,0,0,0,0,0,0,0,0,0
1706180858.00003791,94628800,1532,1531,1524,1539,0,0,0,0,0,0,0,0,0,0
1706180858.09999800,94728760,1531,1531,1527,1534,0,0,0,0,0,0,0,0,0,0
1706180858.19995809,94828720,1533,1533,1532,1532,0,0,0,0,0,0,0,0,0,0
1706180858.29991794,94928680,1536,1536,1539,1532,0,0,0,0,0,0,0,0,0,0
1706180858.39987803,95028640,1539,1539,1543,1534,0,0,0,0,0,0,0,0,0,0
1706180858.49983788,95128600,1543,1543,1547,1539,0,0,0,0,0,0,0,0,0,0
1706180858.59979796,95228560,1546,1546,1548,1544,0,0,0,0,0,0,0,0,0,0
1706180858.69975805,95328520,1549,1549,1548,1548,0,0,0,0,0,0,0,0,0,0
1706180858.79971790,95428480,1551,1551,1550,1552,0,0,0,0,0,0,0,0,0,0
1706180858.89967799,95528440,1553,1552,1552,1557,0,0,0,0,0,0,0,0,0,0
1706180858.99963808,95628400,1552,1552,1557,1561,0,0,0,0,0,0,0,0,0,0
1706180859.09959793,95728360,1554,1554,1561,1564,0,0,0,0,0,0,0,0,0,0
1706180859.19955802,95828320,1557,1558,1564,1564,0,0,0,0,0,0,0,0,0,0
1706180859.29951811,95928280,1560,1560,1565,1565,0,0,0,0,0,0,0,0,0,0
1706180859.39947796,96028240,1563,1563,1566,1564,0,0,0,0,0,0,0,0,0,0
1706180859.49943805,96128200,1566,1566,1566,1565,0,0,0,0,0,0,0,0,0,0
1706180859.59939790,96228160,1568,1568,1566,1565,0,0,0,0,0,0,0,0,0,0
1706180859.70019102,96328953,1570,1570,1566,1566,0,0,0,0,0,0,0,0,0,0
1706180859.80015111,96428913,1572,1572,1567,1567,0,0,0,0,0,0,0,0,0,0
1706180859.90011096,96528873,1573,1572,1567,1568,0,0,0,0,0,0,0,0,0,0
1706180860.00007105,96628833,1574,1574,1569,1569,0,0,0,0,0,0,0,0,0,0
1706180860.10003090,96728793,1573,1573,1569,1569,0,0,0,0,0,0,0,0,0,0
1706180860.19999099,96828753,1574,1574,1571,1571,0,0,0,0,0,0,0,0,0,0
1706180860.29995108,96928713,1575,1575,1572,1572,0,0,0,0,0,0,0,0,0,0
1706180860.39991093,97028673,1575,1575,1574,1573,0,0,0,0,0,0,0,0,0,0
1706180860.49987102,97128633,1575,1574,1575,1574,0,0,0,0,0,0,0,0,0,0
1706180860.59983110,97228593,1575,1575,1576,1575,0,0,0,0,0,0,0,0,0,0
1706180860.69979095,97328553,1575,1575,1577,1576,0,0,0,0,0,0,0,0,0,0
1706180860.79975104,97428513,1575,1575,1577,1577,0,0,0,0,0,0,0,0,0,0
1706180860.89971089,97528473,1575,1576,1578,1578,0,0,0,0,0,0,0,0,0,0
1706180860.99967098,97628433,1575,1576,1578,1577,0,0,0,0,0,0,0,0,0,0
1706180861.09963107,97728393,1575,1575,1577,1577,0,0,0,0,0,0,0,0,0,0
1706180861.19959092,97828353,1576,1576,1577,1577,0,0,0,0,0,0,0,0,0,0
1706180861.29955101,97928313,1577,1576,1577,1577,0,0,0,0,0,0,0,0,0,0
1706180861.39951110,98028273,1576,1576,1576,1576,0,0,0,0,0,0,0,0,0,0
1706180861.49947095,98128233,1578,1577,1577,1577,0,0,0,0,0,0,0,0,0,0
1706180861.59943104,98228193,1578,1578,1577,1577,0,0,0,0,0,0,0,0,0,0
1706180861.70022392,98328986,1579,1578,1578,1578,0,0,0,0,0,0,0,0,0,0
1706180861.80018401,98428946,1578,1579,1578,1577,0,0,0,0,0,0,0,0,0,0
1706180861.90014410,98528906,1578,1578,1577,1578,0,0,0,0,0,0,0,0,0,0
1706180862.00010395,98628866,1579,1579,1578,1579,0,0,0,0,0,0,0,0,0,0
1706180862.10006404,98728826,1579,1579,1579,1579,0,0,0,0,0,0,0,0,0,0
1706180862.20002389,98828786,1580,1580,1579,1580,0,0,0,0,0,0,0,0,0,0
1706180862.29998398,98928746,1579,1579,1579,1579,0,0,0,0,0,0,0,0,0,0
1706180862.39994407,99028706,1579,1579,1580,1579,0,0,0,0,0,0,0,0,0,0
1706180862.49990392,99128666,1579,1579,1580,1580,0,0,0,0,0,0,0,0,0,0
1706180862.59986401,99228626,1579,1579,1580,1579,0,0,0,0,0,0,0,0,0,0
1706180862.69982409,99328586,1579,1579,1580,1580,0,0,0,0,0,0,0,0,0,0
1706180862.79978395,99428546,1579,1579,1579,1580,0,0,0,0,0,0,0,0,0,0
1706180862.89974403,99528506,1578,1579,1579,1579,0,0,0,0,0,0,0,0,0,0
1706180862.99970388,99628466,1579,1579,1579,1580,0,0,0,0,0,0,0,0,0,0
1706180863.09966397,99728426,1580,1580,1580,1580,0,0,0,0,0,0,0,0,0,0
1706180863.19962406,99828386,1579,1579,1580,1580,0,0,0,0,0,0,0,0,0,0
1706180863.29958391,99928346,1581,1581,1581,1581,0,0,0,0,0,0,0,0,0,0
1706180863.39954400,100028306,1580,1581,1581,1580,0,0,0,0,0,0,0,0,0,0
1706180863.49950409,100128266,1580,1580,1580,1580,0,0,0,0,0,0,0,0,0,0
1706180863.59946394,100228226,1579,1579,1579,1579,0,0,0,0,0,0,0,0,0,0
1706180863.69942403,100328186,1580,1579,1579,1580,0,0,0,0,0,0,0,0,0,0
1706180863.80021691,100428979,1581,1581,1581,1581,0,0,0,0,0,0,0,0,0,0
1706180863.90017700,100528939,1580,1580,1580,1580,0,0,0,0,0,0,0,0,0,0
1706180864.00013709,100628899,1580,1579,1579,1580,0,0,0,0,0,0,0,0,0,0
1706180864.10009694,100728859,1580,1581,1580,1581,0,0,0,0,0,0,0,0,0,0
1706180864.20005703,100828819,1580,1581,1581,1581,0,0,0,0,0,0,0,0,0,0
1706180864.30001688,100928779,1581,1581,1581,1581,0,0,0,0,0,0,0,0,0,0
1706180864.39997697,101028739,1581,1581,1581,1581,0,0,0,0,0,0,0,0,0,0
1706180864.49993706,101128699,1582,1581,1582,1581,0,0,0,0,0,0,0,0,0,0
1706180864.59989691,101228659,1582,1582,1582,1582,0,0,0,0,0,0,0,0,0,0
1706180864.69985700,101328619,1581,1581,1581,1582,0,0,0,0,0,0,0,0,0,0
1706180864.79981709,101428579,1581,1581,1581,1581,0,0,0,0,0,0,0,0,0,0
1706180864.89977694,101528539,1580,1580,1580,1581,0,0,0,0,0,0,0,0,0,0
1706180864.99973702,101628499,1581,1581,1581,1581,0,0,0,0,0,0,0,0,0,0
1706180865.09969687,101728459,1581,1581,1581,1581,0,0,0,0,0,0,0,0,0,0
1706180865.19965696,101828419,1581,1581,1586,1576,0,0,0,0,0,0,0,0,0,0
1706180865.29961705,101928379,1581,1583,1587,1573,0,0,0,0,0,0,0,0,0,0
1706180865.39957690,102028339,1579,1582,1580,1573,0,0,0,0,0,0,0,0,0,0
1706180865.49953699,102128299,1578,1580,1570,1572,0,0,0,0,0,0,0,0,0,0
1706180865.59949708,102228259,1578,1580,1563,1570,0,0,0,0,0,0,0,0,0,0
1706180865.69945693,102328219,1578,1579,1558,1565,0,0,0,0,0,0,0,0,0,0
1706180865.79941702,102428179,1579,1578,1555,1560,0,0,0,0,0,0,0,0,0,0
1706180865.90020990,102528972,1580,1578,1555,1557,0,0,0,0,0,0,0,0,0,0
1706180866.00016999,102628932,1580,1578,1556,1554,0,0,0,0,0,0,0,0,0,0
1706180866.10013008,102728892,1579,1578,1555,1553,0,0,0,0,0,0,0,0,0,0
1706180866.20008993,102828852,1578,1579,1556,1554,0,0,0,0,0,0,0,0,0,0
1706180866.30005002,102928812,1577,1578,1556,1554,0,0,0,0,0,0,0,0,0,0
1706180866.40001011,103028772,1575,1577,1554,1553,0,0,0,0,0,0,0,0,0,0
1706180866.49996996,103128732,1575,1577,1554,1553,0,0,0,0,0,0,0,0,0,0
1706180866.59993005,103228692,1576,1577,1552,1553,0,0,0,0,0,0,0,0,0,0
1706180866.69988990,103328652,1576,1577,1550,1551,0,0,0,0,0,0,0,0,0,0
1706180866.79984999,103428612,1578,1579,1548,1548,0,0,0,0,0,0,0,0,0,0
1706180866.89981008,103528572,1581,1582,1546,1546,0,0,0,0,0,0,0,0,0,0
1706180866.99976993,103628532,1583,1584,1543,1543,0,0,0,0,0,0,0,0,0,0
1706180867.09973001,103728492,1586,1587,1540,1540,0,0,0,0,0,0,0,0,0,0
1706180867.19969010,103828452,1590,1590,1539,1537,0,0,0,0,0,0,0,0,0,0
1706180867.29964995,103928412,1593,1593,1537,1537,0,0,0,0,0,0,0,0,0,0
1706180867.39961004,104028372,1595,1595,1536,1536,0,0,0,0,0,0,0,0,0,0
1706180867.49956989,104128332,1595,1595,1535,1536,0,0,0,0,0,0,0,0,0,0
1706180867.59952998,104228292,1594,1595,1537,1538,0,0,0,0,0,0,0,0,0,0
1706180867.69949007,104328252,1593,1592,1539,1542,0,0,0,0,0,0,0,0,0,0
1706180867.79944992,104428212,1590,1589,1544,1547,0,0,0,0,0,0,0,0,0,0
1706180867.89941001,104528172,1585,1582,1552,1555,0,0,0,0,0,0,0,0,0,0
1706180868.00020289,104628965,1577,1573,1562,1565,0,0,0,0,0,0,0,0,0,0
1706180868.10016298,104728925,1567,1563,1575,1576,0,0,0,0,0,0,0,0,0,0
1706180868.20012307,104828885,1554,1551,1586,1587,0,0,0,0,0,0,0,0,0,0
1706180868.30008292,104928845,1544,1542,1597,1597,0,0,0,0,0,0,0,0,0,0
1706180868.40004301,105028805,1535,1534,1606,1605,0,0,0,0,0,0,0,0,0,0
1706180868.50000310,105128765,1530,1530,1613,1611,0,0,0,0,0,0,0,0,0,0
1706180868.59996295,105228725,1528,1530,1615,1614,0,0,0,0,0,0,0,0,0,0
1706180868.69992304,105328685,1531,1533,1614,1613,0,0,0,0,0,0,0,0,0,0
1706180868.79988289,105428645,1536,1539,1610,1610,0,0,0,0,0,0,0,0,0,0
1706180868.89984298,105528605,1544,1546,1604,1604,0,0,0,0,0,0,0,0,0,0
1706180868.99980307,105628565,1551,1553,1596,1596,0,0,0,0,0,0,0,0,0,0
1706180869.09976292,105728525,1561,1561,1589,1588,0,0,0,0,0,0,0,0,0,0
1706180869.19972301,105828485,1570,1569,1582,1581,0,0,0,0,0,0,0,0,0,0
1706180869.29968309,105928445,1577,1576,1576,1575,0,0,0,0,0,0,0,0,0,0
1706180869.39964294,106028405,1582,1581,1571,1570,0,0,0,0,0,0,0,0,0,0
1706180869.49960303,106128365,1585,1584,1567,1567,0,0,0,0,0,0,0,0,0,0
1706180869.59956288,106228325,1587,1586,1566,1566,0,0,0,0,0,0,0,0,0,0
1706180869.69952297,106328285,1587,1586,1566,1566,0,0,0,0,0,0,0,0,0,0
1706180869.79948306,106428245,1586,1584,1567,1567,0,0,0,0,0,0,0,0,0,0
1706180869.89944291,106528205,1583,1582,1570,1570,0,0,0,0,0,0,0,0,0,0
1706180869.99940300,106628165,1580,1581,1573,1573,0,0,0,0,0,0,0,0,0,0
1706180870.10019588,106728958,1579,1579,1577,1577,0,0,0,0,0,0,0,0,0,0
1706180870.20015597,106828918,1576,1576,1579,1579,0,0,0,0,0,0,0,0,0,0
1706180870.30011606,106928878,1574,1574,1582,1581,0,0,0,0,0,0,0,0,0,0
1706180870.40007591,107028838,1572,1573,1582,1582,0,0,0,0,0,0,0,0,0,0
1706180870.50003600,107128798,1572,1573,1584,1584,0,0,0,0,0,0,0,0,0,0
1706180870.59999609,107228758,1573,1573,1584,1584,0,0,0,0,0,0,0,0,0,0
1706180870.69995594,107328718,1574,1574,1583,1584,0,0,0,0,0,0,0,0,0,0
1706180870.79991603,107428678,1575,1575,1582,1583,0,0,0,0,0,0,0,0,0,0
1706180870.89987588,107528638,1576,1576,1581,1581,0,0,0,0,0,0,0,0,0,0
1706180870.99983597,107628598,1578,1578,1581,1581,0,0,0,0,0,0,0,0,0,0
1706180871.09979606,107728558,1578,1578,1579,1579,0,0,0,0,0,0,0,0,0,0
1706180871.19975591,107828518,1579,1580,1578,1578,0,0,0,0,0,0,0,0,0,0
1706180871.29971600,107928478,1581,1580,1578,1578,0,0,0,0,0,0,0,0,0,0
1706180871.39967608,108028438,1581,1581,1577,1577,0,0,0,0,0,0,0,0,0,0
1706180871.49963593,108128398,1582,1581,1577,1577,0,0,0,0,0,0,0,0,0,0
1706180871.59959602,108228358,1582,1582,1578,1578,0,0,0,0,0,0,0,0,0,0
1706180871.69955611,108328318,1582,1582,1578,1578,0,0,0,0,0,0,0,0,0,0
1706180871.79951596,108428278,1580,1581,1577,1578,0,0,0,0,0,0,0,0,0,0
1706180871.89947605,108528238,1580,1580,1578,1579,0,0,0,0,0,0,0,0,0,0
1706180871.99943590,108628198,1579,1580,1579,1579,0,0,0,0,0,0,0,0,0,0
1706180872.09939599,108728158,1580,1580,1580,1580,0,0,0,0,0,0,0,0,0,0
1706180872.20018888,108828951,1579,1579,1580,1580,0,0,0,0,0,0,0,0,0,0
1706180872.30014896,108928911,1579,1579,1581,1581,0,0,0,0,0,0,0,0,0,0
1706180872.40010905,109028871,1580,1579,1581,1581,0,0,0,0,0,0,0,0,0,0
1706180872.50006890,109128831,1580,1579,1581,1581,0,0,0,0,0,0,0,0,0,0
1706180872.60002899,109228791,1579,1579,1580,1580,0,0,0,0,0,0,0,0,0,0
1706180872.69998908,109328751,1580,1580,1581,1581,0,0,0,0,0,0,0,0,0,0
1706180872.79994893,109428711,1579,1579,1580,1580,0,0,0,0,0,0,0,0,0,0
1706180872.89990902,109528671,1579,1579,1580,1580,0,0,0,0,0,0,0,0,0,0
1706180872.99986911,109628631,1580,1580,1580,1580,0,0,0,0,0,0,0,0,0,0
1706180873.09982896,109728591,1668,1543,1588,1589,0,0,0,0,0,0,0,0,0,0
1706180873.19978905,109828551,1613,1586,1583,1571,0,0,0,0,0,0,0,0,0,0
1706180873.29974890,109928511,1596,1595,1580,1565,0,0,0,0,0,0,0,0,0,0
1706180873.39970899,110028471,1584,1597,1572,1566,0,0,0,0,0,0,0,0,0,0
1706180873.49966908,110128431,1576,1594,1564,1567,0,0,0,0,0,0,0,0,0,0
1706180873.59962893,110228391,1574,1589,1558,1565,0,0,0,0,0,0,0,0,0,0
1706180873.69958901,110328351,1575,1582,1553,1561,0,0,0,0,0,0,0,0,0,0
1706180873.79954910,110428311,1577,1576,1552,1557,0,0,0,0,0,0,0,0,0,0
1706180873.89950895,110528271,1579,1574,1555,1556,0,0,0,0,0,0,0,0,0,0
1706180873.99946904,110628231,1579,1572,1557,1555,0,0,0,0,0,0,0,0,0,0
1706180874.09942889,110728191,1577,1572,1559,1555,0,0,0,0,0,0,0,0,0,0
1706180874.20022202,110828984,1575,1573,1559,1556,0,0,0,0,0,0,0,0,0,0
1706180874.30018210,110928944,1572,1574,1557,1556,0,0,0,0,0,0,0,0,0,0
1706180874.40014195,111028904,1572,1575,1556,1556,0,0,0,0,0,0,0,0,0,0
1706180874.50010204,111128864,1573,1576,1554,1555,0,0,0,0,0,0,0,0,0,0
1706180874.60006189,111228824,1576,1579,1553,1553,0,0,0,0,0,0,0,0,0,0
1706180874.70002198,111328784,1578,1579,1550,1550,0,0,0,0,0,0,0,0,0,0
1706180874.79998207,111428744,1582,1583,1549,1549,0,0,0,0,0,0,0,0,0,0
1706180874.89994192,111528704,1585,1584,1546,1546,0,0,0,0,0,0,0,0,0,0
1706180874.99990201,111628664,1587,1586,1544,1544,0,0,0,0,0,0,0,0,0,0
1706180875.09986210,111728624,1589,1589,1542,1542,0,0,0,0,0,0,0,0,0,0
1706180875.19982195,111828584,1591,1592,1542,1542,0,0,0,0,0,0,0,0,0,0
1706180875.29978204,111928544,1592,1593,1540,1541,0,0,0,0,0,0,0,0,0,0
1706180875.39974189,112028504,1593,1594,1540,1541,0,0,0,0,0,0,0,0,0,0
1706180875.49970198,112128464,1593,1594,1541,1543,0,0,0,0,0,0,0,0,0,0
1706180875.59966207,112228424,1592,1590,1544,1547,0,0,0,0,0,0,0,0,0,0
1706180875.69962192,112328384,1589,1586,1551,1553,0,0,0,0,0,0,0,0,0,0
1706180875.79958200,112428344,1582,1579,1559,1561,0,0,0,0,0,0,0,0,0,0
1706180875.89954209,112528304,1575,1572,1570,1571,0,0,0,0,0,0,0,0,0,0
1706180875.99950194,112628264,1566,1563,1580,1581,0,0,0,0,0,0,0,0,0,0
1706180876.09946203,112728224,1556,1553,1590,1590,0,0,0,0,0,0,0,0,0,0
1706180876.19942188,112828184,1547,1546,1599,1598,0,0,0,0,0,0,0,0,0,0
1706180876.30021501,112928977,1542,1542,1606,1605,0,0,0,0,0,0,0,0,0,0
1706180876.40017509,113028937,1539,1540,1610,1609,0,0,0,0,0,0,0,0,0,0
1706180876.50013494,113128897,1539,1540,1610,1610,0,0,0,0,0,0,0,0,0,0
1706180876.60009503,113228857,1542,1543,1608,1608,0,0,0,0,0,0,0,0,0,0
1706180876.70005488,113328817,1546,1547,1604,1604,0,0,0,0,0,0,0,0,0,0
1706180876.80001497,113428777,1553,1554,1600,1599,0,0,0,0,0,0,0,0,0,0
1706180876.89997506,113528737,1560,1560,1594,1593,0,0,0,0,0,0,0,0,0,0
1706180876.99993491,113628697,1567,1567,1587,1587,0,0,0,0,0,0,0,0,0,0
1706180877.09989500,113728657,1574,1573,1582,1582,0,0,0,0,0,0,0,0,0,0
1706180877.19985509,113828617,1578,1577,1576,1576,0,0,0,0,0,0,0,0,0,0
1706180877.29981494,113928577,1582,1581,1572,1573,0,0,0,0,0,0,0,0,0,0
1706180877.39977503,114028537,1584,1583,1570,1570,0,0,0,0,0,0,0,0,0,0
1706180877.49973488,114128497,1586,1584,1569,1569,0,0,0,0,0,0,0,0,0,0
1706180877.59969497,114228457,1585,1584,1570,1570,0,0,0,0,0,0,0,0,0,0
1706180877.69965506,114328417,1584,1583,1572,1571,0,0,0,0,0,0,0,0,0,0
1706180877.79961491,114428377,1581,1581,1573,1573,0,0,0,0,0,0,0,0,0,0
1706180877.89957500,114528337,1578,1579,1575,1575,0,0,0,0,0,0,0,0,0,0
1706180877.99953508,114628297,1576,1577,1577,1577,0,0,0,0,0,0,0,0,0,0
1706180878.09949493,114728257,1575,1575,1579,1580,0,0,0,0,0,0,0,0,0,0
1706180878.19945502,114828217,1574,1574,1582,1581,0,0,0,0,0,0,0,0,0,0
1706180878.29941511,114928177,1574,1574,1583,1583,0,0,0,0,0,0,0,0,0,0
1706180878.40020800,115028970,1574,1574,1584,1583,0,0,0,0,0,0,0,0,0,0
1706180878.50016809,115128930,1573,1574,1583,1583,0,0,0,0,0,0,0,0,0,0
1706180878.60012794,115228890,1574,1575,1582,1583,0,0,0,0,0,0,0,0,0,0
1706180878.70008802,115328850,1576,1577,1582,1583,0,0,0,0,0,0,0,0,0,0
1706180878.80004787,115428810,1577,1577,1581,1581,0,0,0,0,0,0,0,0,0,0
1706180878.90000796,115528770,1579,1578,1580,1580,0,0,0,0,0,0,0,0,0,0
1706180878.99996805,115628730,1579,1579,1579,1579,0,0,0,0,0,0,0,0,0,0
1706180879.09992790,115728690,1579,1579,1578,1578,0,0,0,0,0,0,0,0,0,0
1706180879.19988799,115828650,1580,1580,1578,1578,0,0,0,0,0,0,0,0,0,0
1706180879.29984808,115928610,1581,1581,1578,1578,0,0,0,0,0,0,0,0,0,0
1706180879.39980793,116028570,1582,1582,1578,1578,0,0,0,0,0,0,0,0,0,0
1706180879.49976802,116128530,1582,1582,1579,1579,0,0,0,0,0,0,0,0,0,0
1706180879.59972811,116228490,1581,1581,1578,1579,0,0,0,0,0,0,0,0,0,0
1706180879.69968796,116328450,1581,1581,1579,1580,0,0,0,0,0,0,0,0,0,0
1706180879.79964805,116428410,1580,1580,1579,1579,0,0,0,0,0,0,0,0,0,0
1706180879.89960790,116528370,1580,1580,1580,1580,0,0,0,0,0,0,0,0,0,0
1706180879.99956799,116628330,1580,1580,1581,1581,0,0,0,0,0,0,0,0,0,0
1706180880.09952807,116728290,1580,1580,1581,1581,0,0,0,0,0,0,0,0,0,0
1706180880.19948792,116828250,1580,1580,1581,1581,0,0,0,0,0,0,0,0,0,0
1706180880.29944801,116928210,1580,1580,1582,1582,0,0,0,0,0,0,0,0,0,0
1706180880.39940810,117028170,1581,1581,1582,1583,0,0,0,0,0,0,0,0,0,0
1706180880.50020099,117128963,1581,1581,1582,1582,0,0,0,0,0,0,0,0,0,0
1706180880.60016108,117228923,1580,1580,1581,1581,0,0,0,0,0,0,0,0,0,0
1706180880.70012093,117328883,1580,1581,1581,1581,0,0,0,0,0,0,0,0,0,0
1706180880.80008101,117428843,1581,1581,1581,1581,0,0,0,0,0,0,0,0,0,0
1706180880.90004110,117528803,1581,1581,1581,1581,0,0,0,0,0,0,0,0,0,0
1706180881.00000095,117628763,1582,1582,1582,1582,0,0,0,0,0,0,0,0,0,0
1706180881.09996104,117728723,1582,1582,1582,1582,0,0,0,0,0,0,0,0,0,0
1706180881.19992089,117828683,1581,1581,1581,1580,0,0,0,0,0,0,0,0,0,0
1706180881.29988098,117928643,1581,1582,1581,1580,0,0,0,0,0,0,0,0,0,0
1706180881.39984107,118028603,1581,1583,1587,1573,0,0,0,0,0,0,0,0,0,0
1706180881.49980092,118128563,1581,1584,1584,1573,0,0,0,0,0,0,0,0,0,0
1706180881.59976101,118228523,1578,1581,1573,1571,0,0,0,0,0,0,0,0,0,0
1706180881.69972110,118328483,1578,1580,1566,1570,0,0,0,0,0,0,0,0,0,0
1706180881.79968095,118428443,1578,1580,1559,1566,0,0,0,0,0,0,0,0,0,0
1706180881.89964104,118528403,1578,1578,1555,1560,0,0,0,0,0,0,0,0,0,0
1706180881.99960089,118628363,1580,1578,1554,1556,0,0,0,0,0,0,0,0,0,0
1706180882.09956098,118728323,1581,1579,1554,1555,0,0,0,0,0,0,0,0,0,0
1706180882.19952106,118828283,1581,1580,1556,1554,0,0,0,0,0,0,0,0,0,0
1706180882.29948092,118928243,1579,1579,1556,1553,0,0,0,0,0,0,0,0,0,0
1706180882.39944100,119028203,1578,1579,1555,1553,0,0,0,0,0,0,0,0,0,0
1706180882.49940109,119128163,1577,1578,1555,1554,0,0,0,0,0,0,0,0,0,0
1706180882.60019398,119228956,1576,1578,1555,1554,0,0,0,0,0,0,0,0,0,0
1706180882.70015407,119328916,1575,1577,1553,1553,0,0,0,0,0,0,0,0,0,0
1706180882.80011392,119428876,1577,1579,1553,1553,0,0,0,0,0,0,0,0,0,0
1706180882.90007401,119528836,1578,1579,1551,1551,0,0,0,0,0,0,0,0,0,0
1706180883.00003409,119628796,1580,1581,1548,1549,0,0,0,0,0,0,0,0,0,0
1706180883.09999394,119728756,1583,1583,1547,1547,0,0,0,0,0,0,0,0,0,0
1706180883.19995403,119828716,1584,1585,1543,1543,0,0,0,0,0,0,0,0,0,0
1706180883.29991388,119928676,1587,1588,1541,1541,0,0,0,0,0,0,0,0,0,0
1706180883.39987397,120028636,1589,1590,1540,1540,0,0,0,0,0,0,0,0,0,0
1706180883.49983406,120128596,1592,1592,1539,1539,0,0,0,0,0,0,0,0,0,0
1706180883.59979391,120228556,1592,1593,1537,1538,0,0,0,0,0,0,0,0,0,0
1706180883.69975400,120328516,1594,1594,1539,1540,0,0,0,0,0,0,0,0,0,0
1706180883.79971409,120428476,1594,1593,1541,1542,0,0,0,0,0,0,0,0,0,0
1706180883.89967394,120528436,1591,1589,1545,1547,0,0,0,0,0,0,0,0,0,0
1706180883.99963403,120628396,1586,1583,1551,1555,0,0,0,0,0,0,0,0,0,0
1706180884.09959388,120728356,1579,1575,1561,1563,0,0,0,0,0,0,0,0,0,0
1706180884.19955397,120828316,1569,1565,1571,1573,0,0,0,0,0,0,0,0,0,0
1706180884.29951406,120928276,1558,1555,1583,1584,0,0,0,0,0,0,0,0,0,0
1706180884.39947391,121028236,1548,1546,1594,1594,0,0,0,0,0,0,0,0,0,0
1706180884.49943399,121128196,1540,1539,1603,1603,0,0,0,0,0,0,0,0,0,0
1706180884.59939408,121228156,1535,1535,1610,1609,0,0,0,0,0,0,0,0,0,0
1706180884.70018697,121328949,1534,1534,1613,1612,0,0,0,0,0,0,0,0,0,0
1706180884.80014706,121428909,1535,1537,1612,1612,0,0,0,0,0,0,0,0,0,0
1706180884.90010691,121528869,1539,1541,1608,1609,0,0,0,0,0,0,0,0,0,0
1706180885.00006700,121628829,1546,1548,1604,1604,0,0,0,0,0,0,0,0,0,0
1706180885.10002708,121728789,1554,1555,1599,1598,0,0,0,0,0,0,0,0,0,0
1706180885.19998693,121828749,1562,1563,1592,1591,0,0,0,0,0,0,0,0,0,0
1706180885.29994702,121928709,1569,1570,1584,1583,0,0,0,0,0,0,0,0,0,0
1706180885.39990711,122028669,1577,1576,1579,1578,0,0,0,0,0,0,0,0,0,0
1706180885.49986696,122128629,1581,1580,1572,1572,0,0,0,0,0,0,0,0,0,0
1706180885.59982705,122228589,1584,1583,1568,1569,0,0,0,0,0,0,0,0,0,0
1706180885.69978690,122328549,1586,1585,1567,1568,0,0,0,0,0,0,0,0,0,0
1706180885.79974699,122428509,1586,1584,1566,1567,0,0,0,0,0,0,0,0,0,0
1706180885.89970708,122528469,1585,1584,1568,1569,0,0,0,0,0,0,0,0,0,0
1706180885.99966693,122628429,1583,1583,1571,1571,0,0,0,0,0,0,0,0,0,0
1706180886.09962702,122728389,1580,1580,1573,1572,0,0,0,0,0,0,0,0,0,0
1706180886.19958711,122828349,1579,1578,1576,1576,0,0,0,0,0,0,0,0,0,0
1706180886.29954696,122928309,1576,1576,1578,1578,0,0,0,0,0,0,0,0,0,0
1706180886.39950705,123028269,1575,1575,1582,1581,0,0,0,0,0,0,0,0,0,0
1706180886.49946690,123128229,1573,1573,1582,1582,0,0,0,0,0,0,0,0,0,0
1706180886.59942698,123228189,1573,1573,1583,1584,0,0,0,0,0,0,0,0,0,0
1706180886.70022011,123328982,1572,1573,1583,1583,0,0,0,0,0,0,0,0,0,0
1706180886.80017996,123428942,1573,1574,1583,1583,0,0,0,0,0,0,0,0,0,0
1706180886.90014005,123528902,1574,1575,1582,1582,0,0,0,0,0,0,0,0,0,0
1706180887.00009990,123628862,1576,1576,1582,1582,0,0,0,0,0,0,0,0,0,0
1706180887.10005999,123728822,1577,1577,1580,1580,0,0,0,0,0,0,0,0,0,0
1706180887.20002007,123828782,1579,1579,1580,1580,0,0,0,0,0,0,0,0,0,0
1706180887.29997993,123928742,1580,1580,1579,1579,0,0,0,0,0,0,0,0,0,0
1706180887.39994001,124028702,1580,1580,1578,1578,0,0,0,0,0,0,0,0,0,0
1706180887.49990010,124128662,1581,1581,1578,1578,0,0,0,0,0,0,0,0,0,0
1706180887.59985995,124228622,1582,1582,1577,1578,0,0,0,0,0,0,0,0,0,0
1706180887.69982004,124328582,1582,1582,1578,1578,0,0,0,0,0,0,0,0,0,0
1706180887.79977989,124428542,1581,1581,1577,1577,0,0,0,0,0,0,0,0,0,0
1706180887.89973998,124528502,1580,1580,1578,1578,0,0,0,0,0,0,0,0,0,0
1706180887.99970007,124628462,1581,1581,1579,1579,0,0,0,0,0,0,0,0,0,0
1706180888.09965992,124728422,1580,1580,1579,1579,0,0,0,0,0,0,0,0,0,0
1706180888.19962001,124828382,1579,1579,1579,1579,0,0,0,0,0,0,0,0,0,0
1706180888.29958010,124928342,1579,1580,1580,1580,0,0,0,0,0,0,0,0,0,0
1706180888.39953995,125028302,1579,1579,1580,1580,0,0,0,0,0,0,0,0,0,0
1706180888.49950004,125128262,1579,1578,1580,1580,0,0,0,0,0,0,0,0,0,0
1706180888.59945989,125228222,1579,1579,1581,1581,0,0,0,0,0,0,0,0,0,0
1706180888.69941998,125328182,1579,1580,1582,1581,0,0,0,0,0,0,0,0,0,0
1706180888.80021310,125428975,1581,1581,1582,1582,0,0,0,0,0,0,0,0,0,0
1706180888.90017295,125528935,1581,1581,1582,1582,0,0,0,0,0,0,0,0,0,0
1706180889.00013304,125628895,1581,1581,1581,1582,0,0,0,0,0,0,0,0,0,0
1706180889.10009289,125728855,1582,1581,1582,1582,0,0,0,0,0,0,0,0,0,0
1706180889.20005298,125828815,1582,1582,1583,1579,0,0,0,0,0,0,0,0,0,0
1706180889.30001307,125928775,1582,1583,1588,1573,0,0,0,0,0,0,0,0,0,0
1706180889.39997292,126028735,1580,1581,1584,1573,0,0,0,0,0,0,0,0,0,0
1706180889.49993300,126128695,1577,1577,1576,1575,0,0,0,0,0,0,0,0,0,0
1706180889.59989309,126228655,1573,1573,1569,1574,0,0,0,0,0,0,0,0,0,0
1706180889.69985294,126328615,1571,1570,1566,1573,0,0,0,0,0,0,0,0,0,0
1706180889.79981303,126428575,1569,1568,1565,1571,0,0,0,0,0,0,0,0,0,0
1706180889.89977288,126528535,1568,1567,1565,1569,0,0,0,0,0,0,0,0,0,0
1706180889.99973297,126628495,1567,1567,1566,1567,0,0,0,0,0,0,0,0,0,0
1706180890.09969306,126728455,1566,1566,1567,1565,0,0,0,0,0,0,0,0,0,0
1706180890.19965291,126828415,1566,1566,1568,1565,0,0,0,0,0,0,0,0,0,0
1706180890.29961300,126928375,1565,1565,1567,1564,0,0,0,0,0,0,0,0,0,0
1706180890.39957309,127028335,1565,1564,1566,1564,0,0,0,0,0,0,0,0,0,0
1706180890.49953294,127128295,1564,1564,1565,1565,0,0,0,0,0,0,0,0,0,0
1706180890.59949303,127228255,1562,1562,1563,1564,0,0,0,0,0,0,0,0,0,0
1706180890.69945288,127328215,1562,1562,1562,1563,0,0,0,0,0,0,0,0,0,0
1706180890.79941297,127428175,1561,1561,1562,1561,0,0,0,0,0,0,0,0,0,0
1706180890.90020609,127528968,1561,1560,1561,1561,0,0,0,0,0,0,0,0,0,0
1706180891.00016594,127628928,1561,1560,1561,1560,0,0,0,0,0,0,0,0,0,0
1706180891.10012603,127728888,1560,1560,1560,1559,0,0,0,0,0,0,0,0,0,0
1706180891.20008588,127828848,1560,1560,1560,1559,0,0,0,0,0,0,0,0,0,0
1706180891.30004597,127928808,1558,1559,1558,1558,0,0,0,0,0,0,0,0,0,0
1706180891.40000606,128028768,1558,1559,1559,1558,0,0,0,0,0,0,0,0,0,0
1706180891.49996591,128128728,1558,1558,1559,1558,0,0,0,0,0,0,0,0,0,0
1706180891.59992599,128228688,1558,1558,1559,1557,0,0,0,0,0,0,0,0,0,0
1706180891.69988608,128328648,1558,1558,1559,1557,0,0,0,0,0,0,0,0,0,0
1706180891.79984593,128428608,1558,1558,1559,1556,0,0,0,0,0,0,0,0,0,0
1706180891.89980602,128528568,1559,1558,1560,1557,0,0,0,0,0,0,0,0,0,0
1706180891.99976611,128628528,1559,1559,1560,1558,0,0,0,0,0,0,0,0,0,0
1706180892.09972596,128728488,1559,1559,1558,1561,0,0,0,0,0,0,0,0,0,0
1706180892.19968605,128828448,1560,1560,1557,1563,0,0,0,0,0,0,0,0,0,0
1706180892.29964590,128928408,1561,1561,1558,1564,0,0,0,0,0,0,0,0,0,0
1706180892.39960599,129028368,1562,1562,1560,1564,0,0,0,0,0,0,0,0,0,0
1706180892.49956608,129128328,1560,1561,1559,1561,0,0,0,0,0,0,0,0,0,0
1706180892.59952593,129228288,1561,1561,1561,1560,0,0,0,0,0,0,0,0,0,0
1706180892.69948602,129328248,1559,1560,1558,1560,0,0,0,0,0,0,0,0,0,0
1706180892.79944611,129428208,1556,1556,1556,1556,0,0,0,0,0,0,0,0,0,0
1706180892.89940596,129528168,1551,1551,1551,1551,0,0,0,0,0,0,0,0,0,0
1706180893.00019908,129628961,1545,1545,1545,1546,0,0,0,0,0,0,0,0,0,0
1706180893.10015893,129728921,1538,1539,1539,1539,0,0,0,0,0,0,0,0,0,0
1706180893.20011902,129828881,1531,1532,1532,1532,0,0,0,0,0,0,0,0,0,0
1706180893.30007911,129928841,1524,1524,1524,1524,0,0,0,0,0,0,0,0,0,0
1706180893.40003896,130028801,1520,1519,1520,1520,0,0,0,0,0,0,0,0,0,0
1706180893.49999905,130128761,1520,1519,1520,1520,0,0,0,0,0,0,0,0,0,0
1706180893.59995890,130228721,1521,1520,1520,1520,0,0,0,0,0,0,0,0,0,0
1706180893.69991899,130328681,1522,1522,1522,1522,0,0,0,0,0,0,0,0,0,0
1706180893.79987907,130428641,1525,1526,1525,1526,0,0,0,0,0,0,0,0,0,0
1706180893.89983892,130528601,1530,1530,1530,1530,0,0,0,0,0,0,0,0,0,0
1706180893.99979901,130628561,1535,1535,1534,1534,0,0,0,0,0,0,0,0,0,0
1706180894.09975910,130728521,1539,1538,1538,1538,0,0,0,0,0,0,0,0,0,0
1706180894.19971895,130828481,1541,1541,1541,1540,0,0,0,0,0,0,0,0,0,0
1706180894.29967904,130928441,1543,1543,1543,1543,0,0,0,0,0,0,0,0,0,0
1706180894.39963889,131028401,1544,1545,1544,1544,0,0,0,0,0,0,0,0,0,0
1706180894.49959898,131128361,1545,1545,1545,1545,0,0,0,0,0,0,0,0,0,0
1706180894.59955907,131228321,1546,1545,1546,1545,0,0,0,0,0,0,0,0,0,0
1706180894.69951892,131328281,1546,1546,1546,1546,0,0,0,0,0,0,0,0,0,0
1706180894.79947901,131428241,1546,1546,1546,1546,0,0,0,0,0,0,0,0,0,0
1706180894.89943910,131528201,1545,1546,1546,1546,0,0,0,0,0,0,0,0,0,0
1706180894.99939895,131628161,1545,1545,1546,1546,0,0,0,0,0,0,0,0,0,0
1706180895.10019207,131728954,1546,1546,1546,1546,0,0,0,0,0,0,0,0,0,0
1706180895.20015192,131828914,1546,1546,1546,1545,0,0,0,0,0,0,0,0,0,0
1706180895.30011201,131928874,1546,1546,1546,1546,0,0,0,0,0,0,0,0,0,0
1706180895.40007210,132028834,1545,1545,1545,1545,0,0,0,0,0,0,0,0,0,0
1706180895.50003195,132128794,1545,1544,1545,1545,0,0,0,0,0,0,0,0,0,0
1706180895.59999204,132228754,1544,1545,1544,1544,0,0,0,0,0,0,0,0,0,0
1706180895.69995189,132328714,1544,1544,1544,1544,0,0,0,0,0,0,0,0,0,0
1706180895.79991198,132428674,1544,1545,1544,1544,0,0,0,0,0,0,0,0,0,0
1706180895.89987206,132528634,1544,1543,1543,1544,0,0,0,0,0,0,0,0,0,0
1706180895.99983191,132628594,1545,1545,1545,1544,0,0,0,0,0,0,0,0,0,0
1706180896.09979200,132728554,1544,1544,1544,1543,0,0,0,0,0,0,0,0,0,0
1706180896.19975209,132828514,1544,1544,1544,1544,0,0,0,0,0,0,0,0,0,0
1706180896.29971194,132928474,1543,1543,1543,1543,0,0,0,0,0,0,0,0,0,0
1706180896.39967203,133028434,1543,1544,1544,1544,0,0,0,0,0,0,0,0,0,0
1706180896.49963188,133128394,1544,1543,1543,1544,0,0,0,0,0,0,0,0,0,0
1706180896.59959197,133228354,1543,1543,1543,1544,0,0,0,0,0,0,0,0,0,0
1706180896.69955206,133328314,1544,1544,1544,1544,0,0,0,0,0,0,0,0,0,0
1706180896.79951191,133428274,1544,1544,1544,1543,0,0,0,0,0,0,0,0,0,0
1706180896.89947200,133528234,1543,1543,1543,1543,0,0,0,0,0,0,0,0,0,0
1706180896.99943209,133628194,1543,1543,1543,1543,0,0,0,0,0,0,0,0,0,0
1706180897.09939194,133728154,1545,1544,1544,1544,0,0,0,0,0,0,0,0,0,0
1706180897.20018506,133828947,1544,1544,1544,1544,0,0,0,0,0,0,0,0,0,0
1706180897.30014491,133928907,1544,1544,1543,1544,0,0,0,0,0,0,0,0,0,0
1706180897.40010500,134028867,1543,1543,1543,1543,0,0,0,0,0,0,0,0,0,0
1706180897.50006509,134128827,1544,1544,1544,1544,0,0,0,0,0,0,0,0,0,0
1706180897.60002494,134228787,1543,1543,1543,1543,0,0,0,0,0,0,0,0,0,0
1706180897.69998503,134328747,1543,1543,1543,1543,0,0,0,0,0,0,0,0,0,0
1706180897.79994488,134428707,1544,1543,1544,1544,0,0,0,0,0,0,0,0,0,0
1706180897.89990497,134528667,1544,1544,1544,1544,0,0,0,0,0,0,0,0,0,0
1706180897.99986506,134628627,1545,1545,1545,1545,0,0,0,0,0,0,0,0,0,0
1706180898.09982491,134728587,1545,1544,1545,1545,0,0,0,0,0,0,0,0,0,0
1706180898.19978499,134828547,1544,1544,1544,1544,0,0,0,0,0,0,0,0,0,0
1706180898.29974508,134928507,1544,1544,1544,1544,0,0,0,0,0,0,0,0,0,0
1706180898.39970493,135028467,1545,1545,1545,1545,0,0,0,0,0,0,0,0,0,0
1706180898.49966502,135128427,1545,1545,1545,1545,0,0,0,0,0,0,0,0,0,0
1706180898.59962511,135228387,1545,1545,1545,1545,0,0,0,0,0,0,0,0,0,0
1706180898.69958496,135328347,1545,1544,1544,1545,0,0,0,0,0,0,0,0,0,0
1706180898.79954505,135428307,1545,1545,1545,1544,0,0,0,0,0,0,0,0,0,0
1706180898.89950490,135528267,1545,1545,1545,1545,0,0,0,0,0,0,0,0,0,0
1706180898.99946499,135628227,1544,1544,1544,1544,0,0,0,0,0,0,0,0,0,0
1706180899.09942508,135728187,1545,1544,1544,1545,0,0,0,0,0,0,0,0,0,0
1706180899.20021796,135828980,1544,1544,1544,1544,0,0,0,0,0,0,0,0,0,0
1706180899.30017805,135928940,1544,1543,1543,1544,0,0,0,0,0,0,0,0,0,0
1706180899.40013790,136028900,1544,1544,1544,1544,0,0,0,0,0,0,0,0,0,0
1706180899.50009799,136128860,1544,1545,1544,1545,0,0,0,0,0,0,0,0,0,0
1706180899.60005808,136228820,1544,1544,1544,1543,0,0,0,0,0,0,0,0,0,0
1706180899.70001793,136328780,1543,1543,1544,1543,0,0,0,0,0,0,0,0,0,0
1706180899.79997802,136428740,1544,1544,1544,1544,0,0,0,0,0,0,0,0,0,0
1706180899.89993811,136528700,1545,1544,1544,1545,0,0,0,0,0,0,0,0,0,0
1706180899.99989796,136628660,1544,1544,1544,1544,0,0,0,0,0,0,0,0,0,0
1706180900.09985805,136728620,1544,1543,1543,1544,0,0,0,0,0,0,0,0,0,0
1706180900.19981790,136828580,1544,1544,1544,1544,0,0,0,0,0,0,0,0,0,0
1706180900.29977798,136928540,1544,1544,1543,1544,0,0,0,0,0,0,0,0,0,0
1706180900.39973807,137028500,1544,1545,1544,1544,0,0,0,0,0,0,0,0,0,0
1706180900.49969792,137128460,1544,1544,1544,1544,0,0,0,0,0,0,0,0,0,0
1706180900.59965801,137228420,1545,1545,1545,1545,0,0,0,0,0,0,0,0,0,0
1706180900.69961810,137328380,1545,1545,1545,1545,0,0,0,0,0,0,0,0,0,0
1706180900.79957795,137428340,1545,1545,1545,1545,0,0,0,0,0,0,0,0,0,0
1706180900.89953804,137528300,1545,1544,1545,1545,0,0,0,0,0,0,0,0,0,0
1706180900.99949789,137628260,1545,1545,1545,1545,0,0,0,0,0,0,0,0,0,0
1706180901.09945798,137728220,1545,1544,1544,1545,0,0,0,0,0,0,0,0,0,0
1706180901.19941807,137828180,1544,1544,1544,1544,0,0,0,0,0,0,0,0,0,0
1706180901.30021095,137928973,1545,1544,1544,1545,0,0,0,0,0,0,0,0,0,0
1706180901.40017104,138028933,1544,1545,1545,1545,0,0,0,0,0,0,0,0,0,0
1706180901.50013089,138128893,1545,1545,1544,1545,0,0,0,0,0,0,0,0,0,0
1706180901.60009098,138228853,1544,1545,1544,1544,0,0,0,0,0,0,0,0,0,0
1706180901.70005107,138328813,1545,1544,1544,1545,0,0,0,0,0,0,0,0,0,0
1706180901.80001092,138428773,1545,1545,1545,1545,0,0,0,0,0,0,0,0,0,0
1706180901.89997101,138528733,1543,1543,1543,1544,0,0,0,0,0,0,0,0,0,0
1706180901.99993110,138628693,1543,1543,1543,1543,0,0,0,0,0,0,0,0,0,0
1706180902.09989095,138728653,1543,1544,1544,1543,0,0,0,0,0,0,0,0,0,0
1706180902.19985104,138828613,1545,1544,1545,1544,0,0,0,0,0,0,0,0,0,0
1706180902.29981089,138928573,1544,1544,1544,1544,0,0,0,0,0,0,0,0,0,0
1706180902.39977098,139028533,1544,1545,1544,1545,0,0,0,0,0,0,0,0,0,0
1706180902.49973106,139128493,1544,1543,1543,1544,0,0,0,0,0,0,0,0,0,0
1706180902.59969091,139228453,1545,1545,1545,1544,0,0,0,0,0,0,0,0,0,0
1706180902.69965100,139328413,1544,1544,1544,1544,0,0,0,0,0,0,0,0,0,0
1706180902.79961109,139428373,1544,1544,1545,1544,0,0,0,0,0,0,0,0,0,0
1706180902.89957094,139528333,1545,1544,1544,1545,0,0,0,0,0,0,0,0,0,0
1706180902.99953103,139628293,1545,1545,1545,1544,0,0,0,0,0,0,0,0,0,0
1706180903.09949088,139728253,1494,1496,1497,1496,0,0,0,0,0,0,0,0,0,0
1706180903.19945097,139828213,1303,1318,1317,1318,0,0,0,0,0,0,0,0,0,0
1706180903.29941106,139928173,1213,1235,1235,1237,0,0,0,0,0,0,0,0,0,0
1706180903.40020394,140028966,1183,1210,1210,1210,0,0,0,0,0,0,0,0,0,0
1706180903.50016403,140128926,1183,1208,1209,1210,0,0,0,0,0,0,0,0,0,0
1706180903.60012388,140228886,1183,1209,1210,1209,0,0,0,0,0,0,0,0,0,0
1706180903.70008397,140328846,1183,1208,1209,1209,0,0,0,0,0,0,0,0,0,0
1706180903.80004406,140428806,1183,1164,1163,1211,0,0,0,0,0,0,0,0,0,0
1706180903.90000391,140528766,1183,1175,1175,1211,0,0,0,0,0,0,0,0,0,0
1706180903.99996400,140628726,1183,1183,1183,1211,0,0,0,0,0,0,0,0,0,0
1706180904.09992409,140728686,1183,1182,1183,1211,0,0,0,0,0,0,0,0,0,0
1706180904.19988394,140828646,1183,1180,1181,1211,0,0,0,0,0,0,0,0,0,0
1706180904.29984403,140928606,1183,1177,1178,1210,0,0,0,0,0,0,0,0,0,0
1706180904.39980388,141028566,1183,1174,1175,1210,0,0,0,0,0,0,0,0,0,0
1706180904.49976397,141128526,1183,1171,1172,1210,0,0,0,0,0,0,0,0,0,0
1706180904.59972405,141228486,1183,1192,1193,1210,0,0,0,0,0,0,0,0,0,0
1706180904.69968390,141328446,1183,1189,1190,1210,0,0,0,0,0,0,0,0,0,0
1706180904.79964399,141428406,1183,1187,1189,1210,0,0,0,0,0,0,0,0,0,0
1706180904.89960408,141528366,1183,1187,1188,1210,0,0,0,0,0,0,0,0,0,0
1706180904.99956393,141628326,1183,1186,1188,1210,0,0,0,0,0,0,0,0,0,0
1706180905.09952402,141728286,1000,1000,1000,1000,0,0,0,0,0,0,0,0,0,0
1706180905.19948411,141828246,1000,1000,1000,1000,0,0,0,0,0,0,0,0,0,0
1706180905.29944396,141928206,1000,1000,1000,1000,0,0,0,0,0,0,0,0,0,0
1706180905.39940405,142028166,1000,1000,1000,1000,0,0,0,0,0,0,0,0,0,0
1706180905.50019693,142128959,1000,1000,1000,1000,0,0,0,0,0,0,0,0,0,0
1706180905.60015702,142228919,1000,1000,1000,1000,0,0,0,0,0,0,0,0,0,0
1706180905.70011711,142328879,1000,1000,1000,1000,0,0,0,0,0,0,0,0,0,0
1706180905.80007696,142428839,1000,1000,1000,1000,0,0,0,0,0,0,0,0,0,0
1706180905.90003705,142528799,1000,1000,1000,1000,0,0,0,0,0,0,0,0,0,0
1706180905.99999690,142628759,1000,1000,1000,1000,0,0,0,0,0,0,0,0,0,0
1706180906.09995699,142728719,1000,1000,1000,1000,0,0,0,0,0,0,0,0,0,0
1706180906.19991708,142828679,1000,1000,1000,1000,0,0,0,0,0,0,0,0,0,0
1706180906.29987693,142928639,1000,1000,1000,1000,0,0,0,0,0,0,0,0,0,0
1706180906.39983702,143028599,1000,1000,1000,1000,0,0,0,0,0,0,0,0,0,0
1706180906.49979711,143128559,1000,1000,1000,1000,0,0,0,0,0,0,0,0,0,0
1706180906.59975696,143228519,1000,1000,1000,1000,0,0,0,0,0,0,0,0,0,0
1706180906.69971704,143328479,1000,1000,1000,1000,0,0,0,0,0,0,0,0,0,0
1706180906.79967690,143428439,1000,1000,1000,1000,0,0,0,0,0,0,0,0,0,0
1706180906.89963698,143528399,1000,1000,1000,1000,0,0,0,0,0,0,0,0,0,0
1706180906.99959707,143628359,1000,1000,1000,1000,0,0,0,0,0,0,0,0,0,0
1706180907.09955692,143728319,1000,1000,1000,1000,0,0,0,0,0,0,0,0,0,0
1706180907.19951701,143828279,1000,1000,1000,1000,0,0,0,0,0,0,0,0,0,0
1706180907.29947710,143928239,1000,1000,1000,1000,0,0,0,0,0,0,0,0,0,0
1706180907.39943695,144028199,1000,1000,1000,1000,0,0,0,0,0,0,0,0,0,0
1706180907.49939704,144128159,1000,1000,1000,1000,0,0,0,0,0,0,0,0,0,0
1706180907.60018992,144228952,1000,1000,1000,1000,0,0,0,0,0,0,0,0,0,0
1706180907.70015001,144328912,1000,1000,1000,1000,0,0,0,0,0,0,0,0,0,0
1706180907.80011010,144428872,1000,1000,1000,1000,0,0,0,0,0,0,0,0,0,0
1706180907.90006995,144528832,1000,1000,1000,1000,0,0,0,0,0,0,0,0,0,0
1706180908.00003004,144628792,1000,1000,1000,1000,0,0,0,0,0,0,0,0,0,0
1706180908.09998989,144728752,1000,1000,1000,1000,0,0,0,0,0,0,0,0,0,0
1706180908.19994998,144828712,1000,1000,1000,1000,0,0,0,0,0,0,0,0,0,0
1706180908.29991007,144928672,1000,1000,1000,1000,0,0,0,0,0,0,0,0,0,0
1706180908.39986992,145028632,1000,1000,1000,1000,0,0,0,0,0,0,0,0,0,0
1706180908.49983001,145128592,1000,1000,1000,1000,0,0,0,0,0,0,0,0,0,0
1706180908.59979010,145228552,1000,1000,1000,1000,0,0,0,0,0,0,0,0,0,0
1706180908.69974995,145328512,1000,1000,1000,1000,0,0,0,0,0,0,0,0,0,0
1706180908.79971004,145428472,1000,1000,1000,1000,0,0,0,0,0,0,0,0,0,0
1706180908.89966989,145528432,1000,1000,1000,1000,0,0,0,0,0,0,0,0,0,0
1706180908.99962997,145628392,1000,1000,1000,1000,0,0,0,0,0,0,0,0,0,0
1706180909.09959006,145728352,1000,1000,1000,1000,0,0,0,0,0,0,0,0,0,0
1706180909.19954991,145828312,1000,1000,1000,1000,0,0,0,0,0,0,0,0,0,0
1706180909.29951000,145928272,1000,1000,1000,1000,0,0,0,0,0,0,0,0,0,0
1706180909.39947009,146028232,1000,1000,1000,1000,0,0,0,0,0,0,0,0,0,0
1706180909.49942994,146128192,1000,1000,1000,1000,0,0,0,0,0,0,0,0,0,0
1706180909.60022306,146228985,1000,1000,1000,1000,0,0,0,0,0,0,0,0,0,0
1706180909.70018291,146328945,1000,1000,1000,1000,0,0,0,0,0,0,0,0,0,0
1706180909.80014300,146428905,1000,1000,1000,1000,0,0,0,0,0,0,0,0,0,0
1706180909.90010309,146528865,1000,1000,1000,1000,0,0,0,0,0,0,0,0,0,0
1706180910.00006294,146628825,1000,1000,1000,1000,0,0,0,0,0,0,0,0,0,0
1706180910.10002303,146728785,1000,1000,1000,1000,0,0,0,0,0,0,0,0,0,0
1706180910.19998288,146828745,1000,1000,1000,1000,0,0,0,0,0,0,0,0,0,0
1706180910.29994297,146928705,1000,1000,1000,1000,0,0,0,0,0,0,0,0,0,0
1706180910.39990306,147028665,1000,1000,1000,1000,0,0,0,0,0,0,0,0,0,0
1706180910.49986291,147128625,1000,1000,1000,1000,0,0,0,0,0,0,0,0,0,0
1706180910.59982300,147228585,1000,1000,1000,1000,0,0,0,0,0,0,0,0,0,0
1706180910.69978309,147328545,1000,1000,1000,1000,0,0,0,0,0,0,0,0,0,0
1706180910.79974294,147428505,1000,1000,1000,1000,0,0,0,0,0,0,0,0,0,0
1706180910.89970303,147528465,1000,1000,1000,1000,0,0,0,0,0,0,0,0,0,0
1706180910.99966288,147628425,1000,1000,1000,1000,0,0,0,0,0,0,0,0,0,0
1706180911.09962296,147728385,1000,1000,1000,1000,0,0,0,0,0,0,0,0,0,0
1706180911.19958305,147828345,1000,1000,1000,1000,0,0,0,0,0,0,0,0,0,0
1706180911.29954290,147928305,1000,1000,1000,1000,0,0,0,0,0,0,0,0,0,0
1706180911.39950299,148028265,1000,1000,1000,1000,0,0,0,0,0,0,0,0,0,0
1706180911.49946308,148128225,1000,1000,1000,1000,0,0,0,0,0,0,0,0,0,0
1706180911.59942293,148228185,1000,1000,1000,1000,0,0,0,0,0,0,0,0,0,0
1706180911.70021605,148328978,1000,1000,1000,1000,0,0,0,0,0,0,0,0,0,0
1706180911.80017591,148428938,1000,1000,1000,1000,0,0,0,0,0,0,0,0,0,0
1706180911.90013599,148528898,1000,1000,1000,1000,0,0,0,0,0,0,0,0,0,0
1706180912.00009608,148628858,1000,1000,1000,1000,0,0,0,0,0,0,0,0,0,0
1706180912.10005593,148728818,1000,1000,1000,1000,0,0,0,0,0,0,0,0,0,0
1706180912.20001602,148828778,1000,1000,1000,1000,0,0,0,0,0,0,0,0,0,0
1706180912.29997611,148928738,1000,1000,1000,1000,0,0,0,0,0,0,0,0,0,0
1706180912.39993596,149028698,1000,1000,1000,1000,0,0,0,0,0,0,0,0,0,0
1706180912.49989605,149128658,1000,1000,1000,1000,0,0,0,0,0,0,0,0,0,0
1706180912.59985590,149228618,1000,1000,1000,1000,0,0,0,0,0,0,0,0,0,0
1706180912.69981599,149328578,1000,1000,1000,1000,0,0,0,0,0,0,0,0,0,0
1706180912.79977608,149428538,1000,1000,1000,1000,0,0,0,0,0,0,0,0,0,0
1706180912.89973593,149528498,1000,1000,1000,1000,0,0,0,0,0,0,0,0,0,0
1706180912.99969602,149628458,1000,1000,1000,1000,0,0,0,0,0,0,0,0,0,0
1706180913.09965611,149728418,1000,1000,1000,1000,0,0,0,0,0,0,0,0,0,0
1706180913.19961596,149828378,1000,1000,1000,1000,0,0,0,0,0,0,0,0,0,0
1706180913.29957604,149928338,1000,1000,1000,1000,0,0,0,0,0,0,0,0,0,0
1706180913.39953589,150028298,1000,1000,1000,1000,0,0,0,0,0,0,0,0,0,0
1706180913.49949598,150128258,1000,1000,1000,1000,0,0,0,0,0,0,0,0,0,0
1706180913.59945607,150228218,1000,1000,1000,1000,0,0,0,0,0,0,0,0,0,0
1706180913.69941592,150328178,1000,1000,1000,1000,0,0,0,0,0,0,0,0,0,0
1706180913.80020905,150428971,1000,1000,1000,1000,0,0,0,0,0,0,0,0,0,0
1706180913.90016890,150528931,1000,1000,1000,1000,0,0,0,0,0,0,0,0,0,0
1706180914.00012898,150628891,1000,1000,1000,1000,0,0,0,0,0,0,0,0,0,0
1706180914.10008907,150728851,1000,1000,1000,1000,0,0,0,0,0,0,0,0,0,0
1706180914.20004892,150828811,1000,1000,1000,1000,0,0,0,0,0,0,0,0,0,0
1706180914.30000901,150928771,1000,1000,1000,1000,0,0,0,0,0,0,0,0,0,0
1706180914.39996910,151028731,1000,1000,1000,1000,0,0,0,0,0,0,0,0,0,0
1706180914.49992895,151128691,1000,1000,1000,1000,0,0,0,0,0,0,0,0,0,0
1706180914.59988904,151228651,1000,1000,1000,1000,0,0,0,0,0,0,0,0,0,0
1706180914.69984889,151328611,1000,1000,1000,1000,0,0,0,0,0,0,0,0,0,0
1706180914.79980898,151428571,1000,1000,1000,1000,0,0,0,0,0,0,0,0,0,0
1706180914.89976907,151528531,1000,1000,1000,1000,0,0,0,0,0,0,0,0,0,0
1706180914.99972892,151628491,1000,1000,1000,1000,0,0,0,0,0,0,0,0,0,0
