TimeUS,M1,M2,M3,M4,TimeUS,C1,C2,C3,C4
67208939,1000,1000,1000,1000,67228931,1000,1000,1000,1000
67211438,1000,1000,1000,1000,67328891,1000,1000,1000,1000
67213937,1000,1000,1000,1000,67428851,1000,1000,1000,1000
67216436,1000,1000,1000,1000,67528811,1000,1000,1000,1000
67218935,1000,1000,1000,1000,67628771,1000,1000,1000,1000
67221434,1000,1000,1000,1000,67728731,1000,1000,1000,1000
67223933,1000,1000,1000,1000,67828691,1000,1000,1000,1000
67226432,1000,1000,1000,1000,67928651,1000,1000,1000,1000
67228931,1000,1000,1000,1000,68028611,1000,1000,1000,1000
67231430,1000,1000,1000,1000,68128571,1000,1000,1000,1000
67233929,1000,1000,1000,1000,68228531,1000,1000,1000,1000
67236428,1000,1000,1000,1000,68328491,1000,1000,1000,1000
67238927,1000,1000,1000,1000,68428451,1000,1000,1000,1000
67241426,1000,1000,1000,1000,68528411,1000,1000,1000,1000
67243925,1000,1000,1000,1000,68628371,1000,1000,1000,1000
67246424,1000,1000,1000,1000,68728331,1000,1000,1000,1000
67248923,1000,1000,1000,1000,68828291,1000,1000,1000,1000
67251422,1000,1000,1000,1000,68928251,1000,1000,1000,1000
67253921,1000,1000,1000,1000,69028211,1000,1000,1000,1000
67256420,1000,1000,1000,1000,69128171,1000,1000,1000,1000
67258919,1000,1000,1000,1000,69228964,1006,1006,1006,1006
67261418,1000,1000,1000,1000,69328924,1036,1036,1036,1036
67263917,1000,1000,1000,1000,69428884,1066,1066,1066,1066
67266416,1000,1000,1000,1000,69528844,1096,1096,1096,1096
67268915,1000,1000,1000,1000,69628804,1125,1125,1125,1125
67271414,1000,1000,1000,1000,69728764,1209,1199,1199,1209
67273913,1000,1000,1000,1000,69828724,1440,1433,1433,1440
67276412,1000,1000,1000,1000,69928684,1611,1605,1605,1612
67278911,1000,1000,1000,1000,70028644,1754,1748,1748,1754
67281410,1000,1000,1000,1000,70128604,1845,1838,1839,1845
67283909,1000,1000,1000,1000,70228564,1857,1851,1852,1857
67286408,1000,1000,1000,1000,70328524,1775,1773,1773,1775
67288907,1000,1000,1000,1000,70428484,1656,1656,1657,1656
67291406,1000,1000,1000,1000,70528444,1608,1611,1611,1608
67293905,1000,1000,1000,1000,70628404,1616,1619,1619,1616
67296404,1000,1000,1000,1000,70728364,1633,1635,1635,1633
67298903,1000,1000,1000,1000,70828324,1639,1640,1640,1640
67301402,1000,1000,1000,1000,70928284,1637,1637,1636,1637
67303901,1000,1000,1000,1000,71028244,1630,1629,1629,1630
67306400,1000,1000,1000,1000,71128204,1625,1624,1623,1625
67308899,1000,1000,1000,1000,71228164,1622,1621,1621,1622
67311398,1000,1000,1000,1000,71328957,1621,1620,1621,1621
67313897,1000,1000,1000,1000,71428917,1622,1622,1622,1622
67316396,1000,1000,1000,1000,71528877,1623,1623,1623,1622
67318895,1000,1000,1000,1000,71628837,1623,1625,1624,1624
67321394,1000,1000,1000,1000,71728797,1624,1625,1625,1624
67323893,1000,1000,1000,1000,71828757,1624,1625,1625,1625
67326392,1000,1000,1000,1000,71928717,1625,1625,1625,1625
67328891,1000,1000,1000,1000,72028677,1627,1626,1627,1627
67331390,1000,1000,1000,1000,72128637,1627,1627,1627,1627
67333889,1000,1000,1000,1000,72228597,1627,1627,1627,1627
67336388,1000,1000,1000,1000,72328557,1628,1627,1628,1628
67338887,1000,1000,1000,1000,72428517,1628,1628,1628,1628
67341386,1000,1000,1000,1000,72528477,1629,1628,1629,1629
67343885,1000,1000,1000,1000,72628437,1630,1630,1629,1630
67346384,1000,1000,1000,1000,72728397,1629,1630,1630,1630
67348883,1000,1000,1000,1000,72828357,1630,1630,1630,1629
67351382,1000,1000,1000,1000,72928317,1630,1630,1630,1630
67353881,1000,1000,1000,1000,73028277,1628,1627,1628,1627
67356380,1000,1000,1000,1000,73128237,1602,1603,1603,1602
67358879,1000,1000,1000,1000,73228197,1588,1589,1589,1589
67361378,1000,1000,1000,1000,73328157,1579,1579,1578,1579
67363877,1000,1000,1000,1000,73428950,1570,1570,1570,1570
67366376,1000,1000,1000,1000,73528910,1563,1562,1563,1562
67368875,1000,1000,1000,1000,73628870,1555,1555,1555,1555
67371374,1000,1000,1000,1000,73728830,1550,1550,1550,1550
67373873,1000,1000,1000,1000,73828790,1545,1544,1545,1544
67376372,1000,1000,1000,1000,73928750,1539,1540,1539,1539
67378871,1000,1000,1000,1000,74028710,1535,1535,1535,1535
67381370,1000,1000,1000,1000,74128670,1530,1531,1530,1531
67383869,1000,1000,1000,1000,74228630,1528,1528,1528,1528
67386368,1000,1000,1000,1000,74328590,1526,1526,1526,1527
67388867,1000,1000,1000,1000,74428550,1524,1524,1524,1524
67391366,1000,1000,1000,1000,74528510,1521,1521,1521,1521
67393865,1000,1000,1000,1000,74628470,1518,1518,1518,1518
67396364,1000,1000,1000,1000,74728430,1515,1515,1515,1515
67398863,1000,1000,1000,1000,74828390,1512,1511,1511,1511
67401362,1000,1000,1000,1000,74928350,1509,1508,1508,1509
67403861,1000,1000,1000,1000,75028310,1506,1506,1506,1506
67406360,1000,1000,1000,1000,75128270,1504,1504,1503,1504
67408859,1000,1000,1000,1000,75228230,1501,1501,1501,1501
67411358,1000,1000,1000,1000,75328190,1498,1498,1498,1499
67413857,1000,1000,1000,1000,75428983,1496,1496,1496,1496
67416356,1000,1000,1000,1000,75528943,1494,1494,1494,1494
67418855,1000,1000,1000,1000,75628903,1492,1493,1493,1493
67421354,1000,1000,1000,1000,75728863,1495,1494,1495,1494
67423853,1000,1000,1000,1000,75828823,1496,1496,1497,1496
67426352,1000,1000,1000,1000,75928783,1498,1498,1499,1498
67428851,1000,1000,1000,1000,76028743,1501,1501,1501,1501
67431350,1000,1000,1000,1000,76128703,1503,1503,1503,1502
67433849,1000,1000,1000,1000,76228663,1503,1504,1504,1503
67436348,1000,1000,1000,1000,76328623,1506,1506,1506,1506
67438847,1000,1000,1000,1000,76428583,1508,1508,1508,1508
67441346,1000,1000,1000,1000,76528543,1509,1509,1509,1509
67443845,1000,1000,1000,1000,76628503,1510,1510,1510,1510
67446344,1000,1000,1000,1000,76728463,1511,1511,1511,1511
67448843,1000,1000,1000,1000,76828423,1511,1512,1512,1511
67451342,1000,1000,1000,1000,76928383,1512,1513,1512,1512
67453841,1000,1000,1000,1000,77028343,1513,1513,1513,1513
67456340,1000,1000,1000,1000,77128303,1513,1513,1513,1513
67458839,1000,1000,1000,1000,77228263,1513,1513,1513,1513
67461338,1000,1000,1000,1000,77328223,1515,1514,1514,1515
67463837,1000,1000,1000,1000,77428183,1529,1529,1530,1529
67466336,1000,1000,1000,1000,77528976,1553,1552,1552,1553
67468835,1000,1000,1000,1000,77628936,1566,1566,1564,1568
67471334,1000,1000,1000,1000,77728896,1575,1575,1572,1578
67473833,1000,1000,1000,1000,77828856,1580,1580,1577,1582
67476332,1000,1000,1000,1000,77928816,1583,1583,1581,1585
67478831,1000,1000,1000,1000,78028776,1585,1585,1584,1586
67481330,1000,1000,1000,1000,78128736,1585,1585,1586,1584
67483829,1000,1000,1000,1000,78228696,1585,1585,1587,1583
67486328,1000,1000,1000,1000,78328656,1585,1585,1586,1583
67488827,1000,1000,1000,1000,78428616,1582,1582,1584,1581
67491326,1000,1000,1000,1000,78528576,1581,1581,1582,1580
67493825,1000,1000,1000,1000,78628536,1579,1579,1580,1579
67496324,1000,1000,1000,1000,78728496,1577,1577,1576,1577
67498823,1000,1000,1000,1000,78828456,1574,1573,1573,1574
67501322,1000,1000,1000,1000,78928416,1572,1572,1571,1572
67503821,1000,1000,1000,1000,79028376,1571,1571,1570,1572
67506320,1000,1000,1000,1000,79128336,1567,1566,1572,1574
67508819,1000,1000,1000,1000,79228296,1566,1566,1574,1574
67511318,1000,1000,1000,1000,79328256,1565,1565,1571,1572
67513817,1000,1000,1000,1000,79428216,1566,1566,1570,1570
67516316,1000,1000,1000,1000,79528176,1568,1568,1569,1569
67518815,1000,1000,1000,1000,79628969,1569,1569,1568,1568
67521314,1000,1000,1000,1000,79728929,1570,1571,1568,1567
67523813,1000,1000,1000,1000,79828889,1571,1572,1567,1567
67526312,1000,1000,1000,1000,79928849,1573,1573,1568,1569
67528811,1000,1000,1000,1000,80028809,1574,1573,1569,1569
67531310,1000,1000,1000,1000,80128769,1574,1574,1569,1570
67533809,1000,1000,1000,1000,80228729,1574,1574,1570,1571
67536308,1000,1000,1000,1000,80328689,1575,1574,1572,1572
67538807,1000,1000,1000,1000,80428649,1575,1575,1574,1573
67541306,1000,1000,1000,1000,80528609,1575,1575,1576,1574
67543805,1000,1000,1000,1000,80628569,1576,1576,1578,1576
67546304,1000,1000,1000,1000,80728529,1576,1576,1578,1577
67548803,1000,1000,1000,1000,80828489,1576,1576,1578,1577
67551302,1000,1000,1000,1000,80928449,1576,1576,1577,1577
67553801,1000,1000,1000,1000,81028409,1576,1576,1578,1578
67556300,1000,1000,1000,1000,81128369,1576,1576,1577,1578
67558799,1000,1000,1000,1000,81228329,1577,1577,1577,1578
67561298,1000,1000,1000,1000,81328289,1578,1577,1577,1577
67563797,1000,1000,1000,1000,81428249,1578,1578,1578,1577
67566296,1000,1000,1000,1000,81528209,1578,1578,1578,1577
67568795,1000,1000,1000,1000,81628169,1578,1579,1578,1578
67571294,1000,1000,1000,1000,81728962,1579,1579,1578,1578
67573793,1000,1000,1000,1000,81828922,1578,1578,1578,1578
67576292,1000,1000,1000,1000,81928882,1579,1579,1578,1578
67578791,1000,1000,1000,1000,82028842,1578,1578,1577,1578
67581290,1000,1000,1000,1000,82128802,1578,1577,1577,1577
67583789,1000,1000,1000,1000,82228762,1579,1578,1578,1578
67586288,1000,1000,1000,1000,82328722,1580,1579,1580,1579
67588787,1000,1000,1000,1000,82428682,1579,1580,1580,1580
67591286,1000,1000,1000,1000,82528642,1579,1580,1580,1580
67593785,1000,1000,1000,1000,82628602,1580,1580,1580,1581
67596284,1000,1000,1000,1000,82728562,1579,1580,1580,1580
67598783,1000,1000,1000,1000,82828522,1580,1580,1580,1580
67601282,1000,1000,1000,1000,82928482,1579,1579,1580,1579
67603781,1000,1000,1000,1000,83028442,1580,1580,1580,1580
67606280,1000,1000,1000,1000,83128402,1580,1580,1580,1580
67608779,1000,1000,1000,1000,83228362,1580,1580,1580,1580
67611278,1000,1000,1000,1000,83328322,1580,1580,1580,1580
67613777,1000,1000,1000,1000,83428282,1581,1580,1580,1580
67616276,1000,1000,1000,1000,83528242,1580,1580,1580,1580
67618775,1000,1000,1000,1000,83628202,1580,1581,1580,1580
67621274,1000,1000,1000,1000,83728162,1579,1580,1580,1580
67623773,1000,1000,1000,1000,83828955,1580,1580,1580,1580
67626272,1000,1000,1000,1000,83928915,1580,1579,1579,1580
67628771,1000,1000,1000,1000,84028875,1580,1579,1580,1580
67631270,1000,1000,1000,1000,84128835,1580,1580,1580,1580
67633769,1000,1000,1000,1000,84228795,1579,1580,1579,1579
67636268,1000,1000,1000,1000,84328755,1582,1581,1581,1581
67638767,1000,1000,1000,1000,84428715,1581,1581,1581,1581
67641266,1000,1000,1000,1000,84528675,1580,1580,1579,1580
67643765,1000,1000,1000,1000,84628635,1580,1581,1581,1581
67646264,1000,1000,1000,1000,84728595,1580,1581,1581,1581
67648763,1000,1000,1000,1000,84828555,1581,1581,1581,1581
67651262,1000,1000,1000,1000,84928515,1581,1580,1581,1581
67653761,1000,1000,1000,1000,85028475,1581,1581,1581,1581
67656260,1000,1000,1000,1000,85128435,1581,1581,1581,1581
67658759,1000,1000,1000,1000,85228395,1582,1582,1584,1580
67661258,1000,1000,1000,1000,85328355,1581,1582,1588,1573
67663757,1000,1000,1000,1000,85428315,1580,1583,1584,1574
67666256,1000,1000,1000,1000,85528275,1577,1581,1574,1573
67668755,1000,1000,1000,1000,85628235,1577,1580,1566,1571
67671254,1000,1000,1000,1000,85728195,1578,1580,1560,1567
67673753,1000,1000,1000,1000,85828155,1578,1579,1556,1562
67676252,1000,1000,1000,1000,85928948,1579,1577,1554,1557
67678751,1000,1000,1000,1000,86028908,1580,1579,1556,1555
67681250,1000,1000,1000,1000,86128868,1579,1578,1556,1554
67683749,1000,1000,1000,1000,86228828,1577,1578,1555,1553
67686248,1000,1000,1000,1000,86328788,1577,1577,1555,1553
67688747,1000,1000,1000,1000,86428748,1576,1578,1555,1554
67691246,1000,1000,1000,1000,86528708,1574,1575,1553,1552
67693745,1000,1000,1000,1000,86628668,1575,1576,1552,1552
67696244,1000,1000,1000,1000,86728628,1575,1576,1550,1550
67698743,1000,1000,1000,1000,86828588,1577,1578,1549,1549
67701242,1000,1000,1000,1000,86928548,1578,1579,1546,1546
67703741,1000,1000,1000,1000,87028508,1581,1582,1544,1543
67706240,1000,1000,1000,1000,87128468,1585,1585,1541,1541
67708739,1000,1000,1000,1000,87228428,1588,1589,1539,1538
67711238,1000,1000,1000,1000,87328388,1590,1591,1536,1536
67713737,1000,1000,1000,1000,87428348,1593,1593,1535,1535
67716236,1000,1000,1000,1000,87528308,1595,1593,1534,1535
67718735,1000,1000,1000,1000,87628268,1595,1594,1535,1537
67721234,1000,1000,1000,1000,87728228,1594,1593,1537,1540
67723733,1000,1000,1000,1000,87828188,1592,1591,1543,1545
67726232,1000,1000,1000,1000,87928981,1588,1586,1550,1553
67728731,1000,1000,1000,1000,88028941,1581,1578,1558,1561
67731230,1000,1000,1000,1000,88128901,1571,1567,1568,1571
67733729,1000,1000,1000,1000,88228861,1560,1556,1580,1582
67736228,1000,1000,1000,1000,88328821,1550,1546,1593,1593
67738727,1000,1000,1000,1000,88428781,1540,1538,1603,1603
67741226,1000,1000,1000,1000,88528741,1532,1532,1610,1609
67743725,1000,1000,1000,1000,88628701,1528,1530,1613,1613
67746224,1000,1000,1000,1000,88728661,1529,1531,1614,1613
67748723,1000,1000,1000,1000,88828621,1533,1535,1611,1610
67751222,1000,1000,1000,1000,88928581,1539,1541,1606,1605
67753721,1000,1000,1000,1000,89028541,1547,1549,1599,1599
67756220,1000,1000,1000,1000,89128501,1557,1558,1592,1592
67758719,1000,1000,1000,1000,89228461,1566,1566,1585,1585
67761218,1000,1000,1000,1000,89328421,1574,1573,1579,1578
67763717,1000,1000,1000,1000,89428381,1579,1579,1573,1572
67766216,1000,1000,1000,1000,89528341,1585,1583,1569,1569
67768715,1000,1000,1000,1000,89628301,1587,1585,1567,1567
67771214,1000,1000,1000,1000,89728261,1588,1586,1566,1566
67773713,1000,1000,1000,1000,89828221,1586,1585,1567,1567
67776212,1000,1000,1000,1000,89928181,1585,1584,1569,1570
67778711,1000,1000,1000,1000,90028974,1582,1582,1572,1572
67781210,1000,1000,1000,1000,90128934,1429,1525,1582,1582
67783709,1000,1000,1000,1000,90228894,1505,1516,1603,1607
67786208,1000,1000,1000,1000,90328854,1561,1515,1610,1615
67788707,1000,1000,1000,1000,90428814,1602,1539,1615,1621
67791206,1000,1000,1000,1000,90528774,1626,1572,1616,1621
67793705,1000,1000,1000,1000,90628734,1631,1598,1609,1612
67796204,1000,1000,1000,1000,90728694,1624,1615,1598,1599
67798703,1000,1000,1000,1000,90828654,1613,1624,1589,1586
67801202,1000,1000,1000,1000,90928614,1607,1628,1585,1579
67803701,1000,1000,1000,1000,91028574,1605,1627,1584,1576
67806200,1000,1000,1000,1000,91128534,1607,1622,1584,1575
67808699,1000,1000,1000,1000,91228494,1608,1615,1583,1576
67811198,1000,1000,1000,1000,91328454,1607,1607,1581,1577
67813697,1000,1000,1000,1000,91428414,1603,1599,1579,1579
67816196,1000,1000,1000,1000,91528374,1596,1592,1577,1579
67818695,1000,1000,1000,1000,91628334,1589,1588,1576,1580
67821194,1000,1000,1000,1000,91728294,1582,1584,1574,1578
67823693,1000,1000,1000,1000,91828254,1577,1582,1575,1578
67826192,1000,1000,1000,1000,91928214,1575,1580,1576,1577
67828691,1000,1000,1000,1000,92028174,1575,1580,1578,1578
67831190,1000,1000,1000,1000,92128967,1575,1579,1578,1577
67833689,1000,1000,1000,1000,92228927,1575,1577,1577,1576
67836188,1000,1000,1000,1000,92328887,1577,1576,1577,1576
67838687,1000,1000,1000,1000,92428847,1576,1574,1575,1575
67841186,1000,1000,1000,1000,92528807,1576,1575,1574,1575
67843685,1000,1000,1000,1000,92628767,1576,1576,1575,1576
67846184,1000,1000,1000,1000,92728727,1577,1576,1575,1576
67848683,1000,1000,1000,1000,92828687,1577,1577,1575,1575
67851182,1000,1000,1000,1000,92928647,1577,1578,1575,1575
67853681,1000,1000,1000,1000,93028607,1578,1578,1575,1575
67856180,1000,1000,1000,1000,93128567,1579,1578,1576,1575
67858679,1000,1000,1000,1000,93228527,1579,1578,1577,1574
67861178,1000,1000,1000,1000,93328487,1580,1578,1583,1568
67863677,1000,1000,1000,1000,93428447,1580,1579,1579,1570
67866176,1000,1000,1000,1000,93528407,1577,1577,1570,1569
67868675,1000,1000,1000,1000,93628367,1575,1576,1563,1568
67871174,1000,1000,1000,1000,93728327,1573,1574,1558,1566
67873673,1000,1000,1000,1000,93828287,1572,1574,1558,1563
67876172,1000,1000,1000,1000,93928247,1572,1574,1558,1561
67878671,1000,1000,1000,1000,94028207,1572,1573,1558,1557
67881170,1000,1000,1000,1000,94128167,1573,1574,1558,1556
67883669,1000,1000,1000,1000,94228960,1574,1574,1558,1555
67886168,1000,1000,1000,1000,94328920,1574,1575,1557,1554
67888667,1000,1000,1000,1000,94428880,1574,1574,1554,1553
67891166,1000,1000,1000,1000,94528840,1575,1575,1552,1552
67893665,1000,1000,1000,1000,94628800,1575,1576,1550,1551
67896164,1000,1000,1000,1000,94728760,1576,1577,1548,1549
67898663,1000,1000,1000,1000,94828720,1577,1579,1546,1547
67901162,1000,1000,1000,1000,94928680,1578,1579,1544,1543
67903661,1000,1000,1000,1000,95028640,1581,1582,1543,1542
67906160,1000,1000,1000,1000,95128600,1583,1584,1542,1541
67908659,1000,1000,1000,1000,95228560,1585,1585,1539,1539
67911158,1000,1000,1000,1000,95328520,1588,1588,1539,1539
67913657,1000,1000,1000,1000,95428480,1589,1589,1538,1539
67916156,1000,1000,1000,1000,95528440,1590,1588,1538,1539
67918655,1000,1000,1000,1000,95628400,1589,1588,1539,1541
67921154,1000,1000,1000,1000,95728360,1588,1587,1542,1544
67923653,1000,1000,1000,1000,95828320,1585,1583,1546,1548
67926152,1000,1000,1000,1000,95928280,1581,1580,1551,1553
67928651,1000,1000,1000,1000,96028240,1576,1575,1556,1559
67931150,1000,1000,1000,1000,96128200,1570,1568,1563,1565
67933649,1000,1000,1000,1000,96228160,1563,1562,1571,1573
67936148,1000,1000,1000,1000,96328953,1555,1553,1579,1581
67938647,1000,1000,1000,1000,96428913,1547,1546,1588,1589
67941146,1000,1000,1000,1000,96528873,1541,1541,1596,1596
67943645,1000,1000,1000,1000,96628833,1536,1536,1601,1600
67946144,1000,1000,1000,1000,96728793,1534,1536,1604,1603
67948643,1000,1000,1000,1000,96828753,1535,1537,1604,1603
67951142,1000,1000,1000,1000,96928713,1539,1541,1602,1601
67953641,1000,1000,1000,1000,97028673,1544,1546,1597,1597
67956140,1000,1000,1000,1000,97128633,1550,1551,1592,1592
67958639,1000,1000,1000,1000,97228593,1558,1558,1586,1587
67961138,1000,1000,1000,1000,97328553,1565,1564,1581,1582
67963637,1000,1000,1000,1000,97428513,1572,1571,1578,1578
67966136,1000,1000,1000,1000,97528473,1578,1576,1576,1574
67968635,1000,1000,1000,1000,97628433,1581,1579,1572,1571
67971134,1000,1000,1000,1000,97728393,1584,1582,1571,1570
67973633,1000,1000,1000,1000,97828353,1584,1583,1570,1569
67976132,1000,1000,1000,1000,97928313,1585,1583,1571,1571
67978631,1000,1000,1000,1000,98028273,1584,1583,1572,1572
67981130,1000,1000,1000,1000,98128233,1583,1582,1574,1574
67983629,1000,1000,1000,1000,98228193,1580,1580,1575,1576
67986128,1000,1000,1000,1000,98328986,1578,1578,1577,1577
67988627,1000,1000,1000,1000,98428946,1576,1577,1579,1578
67991126,1000,1000,1000,1000,98528906,1574,1575,1580,1579
67993625,1000,1000,1000,1000,98628866,1574,1575,1582,1581
67996124,1000,1000,1000,1000,98728826,1575,1575,1582,1583
67998623,1000,1000,1000,1000,98828786,1575,1576,1583,1583
68001122,1000,1000,1000,1000,98928746,1575,1576,1582,1582
68003621,1000,1000,1000,1000,99028706,1575,1575,1581,1581
68006120,1000,1000,1000,1000,99128666,1577,1578,1581,1581
68008619,1000,1000,1000,1000,99228626,1578,1578,1580,1580
68011118,1000,1000,1000,1000,99328586,1579,1579,1579,1579
68013617,1000,1000,1000,1000,99428546,1580,1580,1578,1579
68016116,1000,1000,1000,1000,99528506,1581,1581,1579,1579
68018615,1000,1000,1000,1000,99628466,1581,1581,1578,1578
68021114,1000,1000,1000,1000,99728426,1581,1580,1577,1577
68023613,1000,1000,1000,1000,99828386,1582,1582,1578,1578
68026112,1000,1000,1000,1000,99928346,1582,1582,1579,1579
68028611,1000,1000,1000,1000,100028306,1581,1582,1580,1579
68031110,1000,1000,1000,1000,100128266,1581,1581,1579,1579
68033609,1000,1000,1000,1000,100228226,1581,1581,1580,1580
68036108,1000,1000,1000,1000,100328186,1581,1581,1581,1581
68038607,1000,1000,1000,1000,100428979,1580,1580,1581,1580
68041106,1000,1000,1000,1000,100528939,1580,1580,1581,1581
68043605,1000,1000,1000,1000,100628899,1580,1580,1581,1581
68046104,1000,1000,1000,1000,100728859,1580,1580,1581,1581
68048603,1000,1000,1000,1000,100828819,1580,1580,1581,1581
68051102,1000,1000,1000,1000,100928779,1581,1581,1581,1582
68053601,1000,1000,1000,1000,101028739,1581,1581,1582,1582
68056100,1000,1000,1000,1000,101128699,1581,1581,1581,1581
68058599,1000,1000,1000,1000,101228659,1580,1581,1581,1580
68061098,1000,1000,1000,1000,101328619,1581,1581,1581,1581
68063597,1000,1000,1000,1000,101428579,1581,1581,1580,1580
68066096,1000,1000,1000,1000,101528539,1582,1581,1581,1581
68068595,1000,1000,1000,1000,101628499,1581,1581,1581,1581
68071094,1000,1000,1000,1000,101728459,1582,1582,1581,1581
68073593,1000,1000,1000,1000,101828419,1581,1582,1581,1581
68076092,1000,1000,1000,1000,101928379,1582,1582,1581,1581
68078591,1000,1000,1000,1000,102028339,1582,1582,1587,1576
68081090,1000,1000,1000,1000,102128299,1581,1582,1586,1573
68083589,1000,1000,1000,1000,102228259,1579,1581,1579,1573
68086088,1000,1000,1000,1000,102328219,1578,1580,1570,1572
68088587,1000,1000,1000,1000,102428179,1577,1579,1563,1569
68091086,1000,1000,1000,1000,102528972,1576,1579,1558,1564
68093585,1000,1000,1000,1000,102628932,1577,1578,1555,1560
68096084,1000,1000,1000,1000,102728892,1579,1579,1556,1558
68098583,1000,1000,1000,1000,102828852,1580,1578,1556,1556
68101082,1000,1000,1000,1000,102928812,1579,1578,1557,1554
68103581,1000,1000,1000,1000,103028772,1579,1578,1557,1554
68106080,1000,1000,1000,1000,103128732,1577,1578,1556,1554
68108579,1000,1000,1000,1000,103228692,1576,1578,1555,1555
68111078,1000,1000,1000,1000,103328652,1575,1577,1554,1554
68113577,1000,1000,1000,1000,103428612,1575,1577,1553,1553
68116076,1000,1000,1000,1000,103528572,1576,1578,1552,1552
68118575,1000,1000,1000,1000,103628532,1577,1578,1550,1550
68121074,1000,1000,1000,1000,103728492,1579,1580,1548,1548
68123573,1000,1000,1000,1000,103828452,1581,1582,1545,1545
68126072,1000,1000,1000,1000,103928412,1584,1585,1544,1543
68128571,1000,1000,1000,1000,104028372,1587,1588,1542,1542
68131070,1000,1000,1000,1000,104128332,1590,1590,1540,1540
68133569,1000,1000,1000,1000,104228292,1592,1591,1539,1539
68136068,1000,1000,1000,1000,104328252,1592,1591,1538,1538
68138567,1000,1000,1000,1000,104428212,1592,1593,1539,1540
68141066,1000,1000,1000,1000,104528172,1592,1592,1541,1543
68143565,1000,1000,1000,1000,104628965,1591,1590,1545,1548
68146064,1000,1000,1000,1000,104728925,1587,1584,1551,1554
68148563,1000,1000,1000,1000,104828885,1581,1577,1559,1561
68151062,1000,1000,1000,1000,104928845,1573,1569,1568,1571
68153561,1000,1000,1000,1000,105028805,1564,1560,1579,1581
68156060,1000,1000,1000,1000,105128765,1554,1550,1589,1590
68158559,1000,1000,1000,1000,105228725,1544,1544,1598,1599
68161058,1000,1000,1000,1000,105328685,1537,1538,1605,1605
68163557,1000,1000,1000,1000,105428645,1533,1536,1609,1608
68166056,1000,1000,1000,1000,105528605,1533,1537,1611,1610
68168555,1000,1000,1000,1000,105628565,1535,1539,1609,1608
68171054,1000,1000,1000,1000,105728525,1541,1543,1605,1605
68173553,1000,1000,1000,1000,105828485,1547,1550,1600,1599
68176052,1000,1000,1000,1000,105928445,1555,1555,1594,1592
68178551,1000,1000,1000,1000,106028405,1563,1562,1587,1585
68181050,1000,1000,1000,1000,106128365,1570,1568,1580,1579
68183549,1000,1000,1000,1000,106228325,1577,1575,1575,1575
68186048,1000,1000,1000,1000,106328285,1582,1579,1571,1571
68188547,1000,1000,1000,1000,106428245,1585,1583,1569,1569
68191046,1000,1000,1000,1000,106528205,1587,1585,1569,1569
68193545,1000,1000,1000,1000,106628165,1587,1586,1569,1569
68196044,1000,1000,1000,1000,106728958,1586,1585,1570,1571
68198543,1000,1000,1000,1000,106828918,1583,1583,1571,1571
68201042,1000,1000,1000,1000,106928878,1582,1582,1575,1575
68203541,1000,1000,1000,1000,107028838,1579,1580,1577,1577
68206040,1000,1000,1000,1000,107128798,1577,1578,1579,1579
68208539,1000,1000,1000,1000,107228758,1575,1576,1581,1581
68211038,1000,1000,1000,1000,107328718,1574,1574,1582,1582
68213537,1000,1000,1000,1000,107428678,1573,1574,1583,1583
68216036,1000,1000,1000,1000,107528638,1573,1574,1583,1583
68218535,1000,1000,1000,1000,107628598,1574,1575,1583,1583
68221034,1000,1000,1000,1000,107728558,1575,1575,1582,1582
68223533,1000,1000,1000,1000,107828518,1577,1577,1583,1583
68226032,1000,1000,1000,1000,107928478,1578,1577,1581,1581
68228531,1000,1000,1000,1000,108028438,1579,1579,1580,1580
68231030,1000,1000,1000,1000,108128398,1580,1580,1579,1579
68233529,1000,1000,1000,1000,108228358,1581,1580,1578,1578
68236028,1000,1000,1000,1000,108328318,1581,1581,1577,1578
68238527,1000,1000,1000,1000,108428278,1581,1581,1577,1577
68241026,1000,1000,1000,1000,108528238,1581,1582,1578,1578
68243525,1000,1000,1000,1000,108628198,1581,1581,1578,1578
68246024,1000,1000,1000,1000,108728158,1582,1582,1579,1579
68248523,1000,1000,1000,1000,108828951,1581,1581,1579,1579
68251022,1000,1000,1000,1000,108928911,1581,1581,1580,1581
68253521,1000,1000,1000,1000,109028871,1581,1581,1580,1581
68256020,1000,1000,1000,1000,109128831,1580,1581,1581,1581
68258519,1000,1000,1000,1000,109228791,1580,1580,1581,1580
68261018,1000,1000,1000,1000,109328751,1580,1580,1582,1581
68263517,1000,1000,1000,1000,109428711,1580,1580,1582,1581
68266016,1000,1000,1000,1000,109528671,1581,1581,1583,1582
68268515,1000,1000,1000,1000,109628631,1581,1581,1582,1582
68271014,1000,1000,1000,1000,109728591,1580,1581,1581,1582
68273513,1000,1000,1000,1000,109828551,1580,1581,1581,1581
68276012,1000,1000,1000,1000,109928511,1581,1581,1581,1581
68278511,1000,1000,1000,1000,110028471,1581,1582,1583,1579
68281010,1000,1000,1000,1000,110128431,1582,1582,1588,1573
68283509,1000,1000,1000,1000,110228391,1581,1580,1584,1574
68286008,1000,1000,1000,1000,110328351,1579,1577,1576,1575
68288507,1000,1000,1000,1000,110428311,1575,1574,1570,1575
68291006,1000,1000,1000,1000,110528271,1571,1571,1565,1573
68293505,1000,1000,1000,1000,110628231,1569,1570,1565,1571
68296004,1000,1000,1000,1000,110728191,1568,1568,1566,1568
68298503,1000,1000,1000,1000,110828984,1566,1567,1566,1566
68301002,1000,1000,1000,1000,110928944,1566,1566,1567,1565
68303501,1000,1000,1000,1000,111028904,1565,1566,1568,1564
68306000,1000,1000,1000,1000,111128864,1565,1565,1567,1565
68308499,1000,1000,1000,1000,111228824,1564,1564,1566,1565
68310998,1000,1000,1000,1000,111328784,1563,1563,1565,1564
68313497,1000,1000,1000,1000,111428744,1564,1564,1565,1565
68315996,1000,1000,1000,1000,111528704,1562,1562,1562,1563
68318495,1000,1000,1000,1000,111628664,1562,1562,1563,1562
68320994,1000,1000,1000,1000,111728624,1561,1561,1561,1561
68323493,1000,1000,1000,1000,111828584,1561,1561,1561,1561
68325992,1000,1000,1000,1000,111928544,1561,1561,1561,1560
68328491,1000,1000,1000,1000,112028504,1560,1561,1561,1559
68330990,1000,1000,1000,1000,112128464,1560,1560,1560,1559
68333489,1000,1000,1000,1000,112228424,1559,1559,1559,1558
68335988,1000,1000,1000,1000,112328384,1559,1558,1559,1558
68338487,1000,1000,1000,1000,112428344,1559,1559,1559,1558
68340986,1000,1000,1000,1000,112528304,1558,1558,1558,1558
68343485,1000,1000,1000,1000,112628264,1558,1557,1558,1556
68345984,1000,1000,1000,1000,112728224,1558,1558,1560,1557
68348483,1000,1000,1000,1000,112828184,1558,1558,1560,1557
68350982,1000,1000,1000,1000,112928977,1559,1559,1558,1560
68353481,1000,1000,1000,1000,113028937,1560,1560,1558,1563
68355980,1000,1000,1000,1000,113128897,1561,1561,1558,1565
68358479,1000,1000,1000,1000,113228857,1562,1562,1559,1565
68360978,1000,1000,1000,1000,113328817,1562,1562,1560,1564
68363477,1000,1000,1000,1000,113428777,1561,1561,1561,1561
68365976,1000,1000,1000,1000,113528737,1561,1560,1562,1559
68368475,1000,1000,1000,1000,113628697,1560,1561,1563,1558
68370974,1000,1000,1000,1000,113728657,1560,1560,1560,1558
68373473,1000,1000,1000,1000,113828617,1559,1559,1555,1562
68375972,1000,1000,1000,1000,113928577,1556,1556,1552,1559
68378471,1000,1000,1000,1000,114028537,1552,1552,1549,1552
68380970,1000,1000,1000,1000,114128497,1547,1547,1545,1546
68383469,1000,1000,1000,1000,114228457,1540,1540,1539,1538
68385968,1000,1000,1000,1000,114328417,1533,1534,1533,1531
68388467,1000,1000,1000,1000,114428377,1525,1525,1524,1522
68390966,1000,1000,1000,1000,114528337,1521,1521,1520,1519
68393465,1000,1000,1000,1000,114628297,1518,1519,1518,1518
68395964,1000,1000,1000,1000,114728257,1519,1520,1520,1520
68398463,1000,1000,1000,1000,114828217,1520,1521,1522,1523
68400962,1000,1000,1000,1000,114928177,1523,1524,1526,1526
68403461,1000,1000,1000,1000,115028970,1528,1528,1531,1532
68405960,1000,1000,1000,1000,115128930,1533,1532,1537,1537
68408459,1000,1000,1000,1000,115228890,1537,1535,1540,1539
68410958,1000,1000,1000,1000,115328850,1539,1538,1542,1541
68413457,1000,1000,1000,1000,115428810,1542,1541,1543,1543
68415956,1000,1000,1000,1000,115528770,1544,1544,1545,1545
68418455,1000,1000,1000,1000,115628730,1545,1544,1544,1544
68420954,1000,1000,1000,1000,115728690,1546,1546,1544,1544
68423453,1000,1000,1000,1000,115828650,1547,1547,1545,1545
68425952,1000,1000,1000,1000,115928610,1547,1546,1544,1544
68428451,1000,1000,1000,1000,116028570,1547,1548,1545,1545
68430950,1000,1000,1000,1000,116128530,1547,1547,1545,1544
68433449,1000,1000,1000,1000,116228490,1546,1547,1545,1544
68435948,1000,1000,1000,1000,116328450,1545,1546,1544,1544
68438447,1000,1000,1000,1000,116428410,1545,1546,1545,1545
68440946,1000,1000,1000,1000,116528370,1545,1545,1545,1544
68443445,1000,1000,1000,1000,116628330,1545,1545,1545,1545
68445944,1000,1000,1000,1000,116728290,1544,1543,1544,1544
68448443,1000,1000,1000,1000,116828250,1544,1543,1544,1544
68450942,1000,1000,1000,1000,116928210,1544,1544,1545,1545
68453441,1000,1000,1000,1000,117028170,1543,1544,1544,1545
68455940,1000,1000,1000,1000,117128963,1544,1544,1545,1545
68458439,1000,1000,1000,1000,117228923,1544,1544,1545,1545
68460938,1000,1000,1000,1000,117328883,1544,1544,1544,1544
68463437,1000,1000,1000,1000,117428843,1544,1545,1545,1545
68465936,1000,1000,1000,1000,117528803,1545,1545,1545,1545
68468435,1000,1000,1000,1000,117628763,1544,1544,1544,1544
68470934,1000,1000,1000,1000,117728723,1545,1544,1544,1544
68473433,1000,1000,1000,1000,117828683,1545,1545,1545,1545
68475932,1000,1000,1000,1000,117928643,1545,1544,1544,1544
68478431,1000,1000,1000,1000,118028603,1545,1545,1544,1544
68480930,1000,1000,1000,1000,118128563,1545,1545,1544,1545
68483429,1000,1000,1000,1000,118228523,1545,1545,1544,1544
68485928,1000,1000,1000,1000,118328483,1545,1544,1544,1544
68488427,1000,1000,1000,1000,118428443,1544,1544,1544,1544
68490926,1000,1000,1000,1000,118528403,1543,1543,1543,1543
68493425,1000,1000,1000,1000,118628363,1544,1545,1545,1545
68495924,1000,1000,1000,1000,118728323,1544,1545,1544,1545
68498423,1000,1000,1000,1000,118828283,1544,1544,1544,1544
68500922,1000,1000,1000,1000,118928243,1544,1543,1544,1544
68503421,1000,1000,1000,1000,119028203,1544,1544,1544,1543
68505920,1000,1000,1000,1000,119128163,1544,1544,1544,1545
68508419,1000,1000,1000,1000,119228956,1544,1545,1544,1544
68510918,1000,1000,1000,1000,119328916,1544,1544,1544,1544
68513417,1000,1000,1000,1000,119428876,1544,1544,1544,1545
68515916,1000,1000,1000,1000,119528836,1544,1543,1544,1544
68518415,1000,1000,1000,1000,119628796,1544,1544,1544,1544
68520914,1000,1000,1000,1000,119728756,1543,1543,1543,1543
68523413,1000,1000,1000,1000,119828716,1544,1545,1544,1544
68525912,1000,1000,1000,1000,119928676,1544,1543,1544,1544
68528411,1000,1000,1000,1000,120028636,1543,1543,1543,1543
68530910,1000,1000,1000,1000,120128596,1544,1544,1544,1544
68533409,1000,1000,1000,1000,120228556,1544,1545,1545,1545
68535908,1000,1000,1000,1000,120328516,1545,1544,1545,1545
68538407,1000,1000,1000,1000,120428476,1544,1544,1544,1544
68540906,1000,1000,1000,1000,120528436,1544,1543,1544,1544
68543405,1000,1000,1000,1000,120628396,1544,1544,1544,1544
68545904,1000,1000,1000,1000,120728356,1544,1544,1544,1544
68548403,1000,1000,1000,1000,120828316,1545,1545,1545,1545
68550902,1000,1000,1000,1000,120928276,1545,1545,1545,1545
68553401,1000,1000,1000,1000,121028236,1545,1545,1545,1545
68555900,1000,1000,1000,1000,121128196,1545,1544,1545,1545
68558399,1000,1000,1000,1000,121228156,1544,1544,1544,1543
68560898,1000,1000,1000,1000,121328949,1544,1544,1544,1543
68563397,1000,1000,1000,1000,121428909,1544,1545,1545,1545
68565896,1000,1000,1000,1000,121528869,1544,1545,1544,1545
68568395,1000,1000,1000,1000,121628829,1544,1545,1544,1545
68570894,1000,1000,1000,1000,121728789,1544,1544,1544,1544
68573393,1000,1000,1000,1000,121828749,1544,1544,1544,1543
68575892,1000,1000,1000,1000,121928709,1544,1543,1544,1543
68578391,1000,1000,1000,1000,122028669,1544,1544,1545,1544
68580890,1000,1000,1000,1000,122128629,1544,1544,1544,1544
68583389,1000,1000,1000,1000,122228589,1544,1545,1545,1544
68585888,1000,1000,1000,1000,122328549,1545,1545,1545,1545
68588387,1000,1000,1000,1000,122428509,1544,1544,1544,1544
68590886,1000,1000,1000,1000,122528469,1545,1544,1544,1545
68593385,1000,1000,1000,1000,122628429,1544,1544,1544,1544
68595884,1000,1000,1000,1000,122728389,1544,1543,1543,1544
68598383,1000,1000,1000,1000,122828349,1543,1543,1543,1543
68600882,1000,1000,1000,1000,122928309,1544,1543,1544,1544
68603381,1000,1000,1000,1000,123028269,1543,1543,1543,1543
68605880,1000,1000,1000,1000,123128229,1543,1543,1543,1543
68608379,1000,1000,1000,1000,123228189,1544,1544,1544,1544
68610878,1000,1000,1000,1000,123328982,1545,1545,1545,1545
68613377,1000,1000,1000,1000,123428942,1544,1545,1545,1545
68615876,1000,1000,1000,1000,123528902,1545,1544,1544,1545
68618375,1000,1000,1000,1000,123628862,1545,1544,1545,1545
68620874,1000,1000,1000,1000,123728822,1545,1544,1545,1544
68623373,1000,1000,1000,1000,123828782,1544,1545,1545,1544
68625872,1000,1000,1000,1000,123928742,1544,1544,1544,1544
68628371,1000,1000,1000,1000,124028702,1544,1544,1544,1544
68630870,1000,1000,1000,1000,124128662,1544,1545,1544,1544
68633369,1000,1000,1000,1000,124228622,1514,1505,1505,1505
68635868,1000,1000,1000,1000,124328582,1381,1324,1323,1323
68638367,1000,1000,1000,1000,124428542,1325,1238,1238,1236
68640866,1000,1000,1000,1000,124528502,1309,1212,1211,1210
68643365,1000,1000,1000,1000,124628462,1296,1190,1189,1187
68645864,1000,1000,1000,1000,124728422,1275,1151,1151,1150
68648363,1000,1000,1000,1000,124828382,1190,1151,1151,1150
68650862,1000,1000,1000,1000,124928342,1191,1151,1150,1150
68653361,1000,1000,1000,1000,125028302,1190,1152,1151,1150
68655860,1000,1000,1000,1000,125128262,1176,1150,1150,1175
68658359,1000,1000,1000,1000,125228222,1182,1150,1150,1166
68660858,1000,1000,1000,1000,125328182,1185,1150,1150,1161
68663357,1000,1000,1000,1000,125428975,1186,1150,1150,1160
68665856,1000,1000,1000,1000,125528935,1185,1150,1150,1161
68668355,1000,1000,1000,1000,125628895,1185,1150,1150,1161
68670854,1000,1000,1000,1000,125728855,1185,1150,1150,1162
68673353,1000,1000,1000,1000,125828815,1185,1150,1150,1162
68675852,1000,1000,1000,1000,125928775,1193,1150,1150,1150
68678351,1000,1000,1000,1000,126028735,1191,1150,1150,1151
68680850,1000,1000,1000,1000,126128695,1191,1150,1150,1152
68683349,1000,1000,1000,1000,126228655,1191,1150,1150,1152
68685848,1000,1000,1000,1000,126328615,1191,1150,1150,1152
68688347,1000,1000,1000,1000,126428575,1000,1000,1000,1000
68690846,1000,1000,1000,1000,126528535,1000,1000,1000,1000
68693345,1000,1000,1000,1000,126628495,1000,1000,1000,1000
68695844,1000,1000,1000,1000,126728455,1000,1000,1000,1000
68698343,1000,1000,1000,1000,126828415,1000,1000,1000,1000
68700842,1000,1000,1000,1000,126928375,1000,1000,1000,1000
68703341,1000,1000,1000,1000,127028335,1000,1000,1000,1000
68705840,1000,1000,1000,1000,127128295,1000,1000,1000,1000
68708339,1000,1000,1000,1000,127228255,1000,1000,1000,1000
68710838,1000,1000,1000,1000,127328215,1000,1000,1000,1000
68713337,1000,1000,1000,1000,127428175,1000,1000,1000,1000
68715836,1000,1000,1000,1000,127528968,1000,1000,1000,1000
68718335,1000,1000,1000,1000,127628928,1000,1000,1000,1000
68720834,1000,1000,1000,1000,127728888,1000,1000,1000,1000
68723333,1000,1000,1000,1000,127828848,1000,1000,1000,1000
68725832,1000,1000,1000,1000,127928808,1000,1000,1000,1000
68728331,1000,1000,1000,1000,128028768,1000,1000,1000,1000
68730830,1000,1000,1000,1000,128128728,1000,1000,1000,1000
68733329,1000,1000,1000,1000,128228688,1000,1000,1000,1000
68735828,1000,1000,1000,1000,128328648,1000,1000,1000,1000
68738327,1000,1000,1000,1000,128428608,1000,1000,1000,1000
68740826,1000,1000,1000,1000,128528568,1000,1000,1000,1000
68743325,1000,1000,1000,1000,128628528,1000,1000,1000,1000
68745824,1000,1000,1000,1000,128728488,1000,1000,1000,1000
68748323,1000,1000,1000,1000,128828448,1000,1000,1000,1000
68750822,1000,1000,1000,1000,128928408,1000,1000,1000,1000
68753321,1000,1000,1000,1000,129028368,1000,1000,1000,1000
68755820,1000,1000,1000,1000,129128328,1000,1000,1000,1000
68758319,1000,1000,1000,1000,129228288,1000,1000,1000,1000
68760818,1000,1000,1000,1000,129328248,1000,1000,1000,1000
68763317,1000,1000,1000,1000,129428208,1000,1000,1000,1000
68765816,1000,1000,1000,1000,129528168,1000,1000,1000,1000
68768315,1000,1000,1000,1000,129628961,1000,1000,1000,1000
68770814,1000,1000,1000,1000,129728921,1000,1000,1000,1000
68773313,1000,1000,1000,1000,129828881,1000,1000,1000,1000
68775812,1000,1000,1000,1000,129928841,1000,1000,1000,1000
68778311,1000,1000,1000,1000,130028801,1000,1000,1000,1000
68780810,1000,1000,1000,1000,130128761,1000,1000,1000,1000
68783309,1000,1000,1000,1000,130228721,1000,1000,1000,1000
68785808,1000,1000,1000,1000,130328681,1000,1000,1000,1000
68788307,1000,1000,1000,1000,130428641,1000,1000,1000,1000
68790806,1000,1000,1000,1000,130528601,1000,1000,1000,1000
68793305,1000,1000,1000,1000,130628561,1000,1000,1000,1000
68795804,1000,1000,1000,1000,130728521,1000,1000,1000,1000
68798303,1000,1000,1000,1000,130828481,1000,1000,1000,1000
68800802,1000,1000,1000,1000,130928441,1000,1000,1000,1000
68803301,1000,1000,1000,1000,131028401,1000,1000,1000,1000
68805800,1000,1000,1000,1000,131128361,1000,1000,1000,1000
68808299,1000,1000,1000,1000,131228321,1000,1000,1000,1000
68810798,1000,1000,1000,1000,131328281,1000,1000,1000,1000
68813297,1000,1000,1000,1000,131428241,1000,1000,1000,1000
68815796,1000,1000,1000,1000,131528201,1000,1000,1000,1000
68818295,1000,1000,1000,1000,131628161,1000,1000,1000,1000
68820794,1000,1000,1000,1000,131728954,1000,1000,1000,1000
68823293,1000,1000,1000,1000,131828914,1000,1000,1000,1000
68825792,1000,1000,1000,1000,131928874,1000,1000,1000,1000
68828291,1000,1000,1000,1000,132028834,1000,1000,1000,1000
68830790,1000,1000,1000,1000,132128794,1000,1000,1000,1000
68833289,1000,1000,1000,1000,132228754,1000,1000,1000,1000
68835788,1000,1000,1000,1000,132328714,1000,1000,1000,1000
68838287,1000,1000,1000,1000,132428674,1000,1000,1000,1000
68840786,1000,1000,1000,1000,132528634,1000,1000,1000,1000
68843285,1000,1000,1000,1000,132628594,1000,1000,1000,1000
68845784,1000,1000,1000,1000,132728554,1000,1000,1000,1000
68848283,1000,1000,1000,1000,132828514,1000,1000,1000,1000
68850782,1000,1000,1000,1000,132928474,1000,1000,1000,1000
68853281,1000,1000,1000,1000,133028434,1000,1000,1000,1000
68855780,1000,1000,1000,1000,133128394,1000,1000,1000,1000
68858279,1000,1000,1000,1000,133228354,1000,1000,1000,1000
68860778,1000,1000,1000,1000,133328314,1000,1000,1000,1000
68863277,1000,1000,1000,1000,133428274,1000,1000,1000,1000
68865776,1000,1000,1000,1000,133528234,1000,1000,1000,1000
68868275,1000,1000,1000,1000,133628194,1000,1000,1000,1000
68870774,1000,1000,1000,1000,133728154,1000,1000,1000,1000
68873273,1000,1000,1000,1000,133828947,1000,1000,1000,1000
68875772,1000,1000,1000,1000,133928907,1000,1000,1000,1000
68878271,1000,1000,1000,1000,134028867,1000,1000,1000,1000
68880770,1000,1000,1000,1000,134128827,1000,1000,1000,1000
68883269,1000,1000,1000,1000,134228787,1000,1000,1000,1000
68885768,1000,1000,1000,1000,134328747,1000,1000,1000,1000
68888267,1000,1000,1000,1000,134428707,1000,1000,1000,1000
68890766,1000,1000,1000,1000,134528667,1000,1000,1000,1000
68893265,1000,1000,1000,1000,,,,,
68895764,1000,1000,1000,1000,,,,,
68898263,1000,1000,1000,1000,,,,,
68900762,1000,1000,1000,1000,,,,,
68903261,1000,1000,1000,1000,,,,,
68905760,1000,1000,1000,1000,,,,,
68908259,1000,1000,1000,1000,,,,,
68910758,1000,1000,1000,1000,,,,,
68913257,1000,1000,1000,1000,,,,,
68915756,1000,1000,1000,1000,,,,,
68918255,1000,1000,1000,1000,,,,,
68920754,1000,1000,1000,1000,,,,,
68923253,1000,1000,1000,1000,,,,,
68925752,1000,1000,1000,1000,,,,,
68928251,1000,1000,1000,1000,,,,,
68930750,1000,1000,1000,1000,,,,,
68933249,1000,1000,1000,1000,,,,,
68935748,1000,1000,1000,1000,,,,,
68938247,1000,1000,1000,1000,,,,,
68940746,1000,1000,1000,1000,,,,,
68943245,1000,1000,1000,1000,,,,,
68945744,1000,1000,1000,1000,,,,,
68948243,1000,1000,1000,1000,,,,,
68950742,1000,1000,1000,1000,,,,,
68953241,1000,1000,1000,1000,,,,,
68955740,1000,1000,1000,1000,,,,,
68958239,1000,1000,1000,1000,,,,,
68960738,1000,1000,1000,1000,,,,,
68963237,1000,1000,1000,1000,,,,,
68965736,1000,1000,1000,1000,,,,,
68968235,1000,1000,1000,1000,,,,,
68970734,1000,1000,1000,1000,,,,,
68973233,1000,1000,1000,1000,,,,,
68975732,1000,1000,1000,1000,,,,,
68978231,1000,1000,1000,1000,,,,,
68980730,1000,1000,1000,1000,,,,,
68983229,1000,1000,1000,1000,,,,,
68985728,1000,1000,1000,1000,,,,,
68988227,1000,1000,1000,1000,,,,,
68990726,1000,1000,1000,1000,,,,,
68993225,1000,1000,1000,1000,,,,,
68995724,1000,1000,1000,1000,,,,,
68998223,1000,1000,1000,1000,,,,,
69000722,1000,1000,1000,1000,,,,,
69003221,1000,1000,1000,1000,,,,,
69005720,1000,1000,1000,1000,,,,,
69008219,1000,1000,1000,1000,,,,,
69010718,1000,1000,1000,1000,,,,,
69013217,1000,1000,1000,1000,,,,,
69015716,1000,1000,1000,1000,,,,,
69018215,1000,1000,1000,1000,,,,,
69020714,1000,1000,1000,1000,,,,,
69023213,1000,1000,1000,1000,,,,,
69025712,1000,1000,1000,1000,,,,,
69028211,1000,1000,1000,1000,,,,,
69030710,1000,1000,1000,1000,,,,,
69033209,1000,1000,1000,1000,,,,,
69035708,1000,1000,1000,1000,,,,,
69038207,1000,1000,1000,1000,,,,,
69040706,1000,1000,1000,1000,,,,,
69043205,1000,1000,1000,1000,,,,,
69045704,1000,1000,1000,1000,,,,,
69048203,1000,1000,1000,1000,,,,,
69050702,1000,1000,1000,1000,,,,,
69053201,1000,1000,1000,1000,,,,,
69055700,1000,1000,1000,1000,,,,,
69058199,1000,1000,1000,1000,,,,,
69060698,1000,1000,1000,1000,,,,,
69063197,1000,1000,1000,1000,,,,,
69065696,1000,1000,1000,1000,,,,,
69068195,1000,1000,1000,1000,,,,,
69070694,1000,1000,1000,1000,,,,,
69073193,1000,1000,1000,1000,,,,,
69075692,1000,1000,1000,1000,,,,,
69078191,1000,1000,1000,1000,,,,,
69080690,1000,1000,1000,1000,,,,,
69083189,1000,1000,1000,1000,,,,,
69085688,1000,1000,1000,1000,,,,,
69088187,1000,1000,1000,1000,,,,,
69090686,1000,1000,1000,1000,,,,,
69093185,1000,1000,1000,1000,,,,,
69095684,1000,1000,1000,1000,,,,,
69098183,1000,1000,1000,1000,,,,,
69100682,1000,1000,1000,1000,,,,,
69103181,1000,1000,1000,1000,,,,,
69105680,1000,1000,1000,1000,,,,,
69108179,1000,1000,1000,1000,,,,,
69110678,1000,1000,1000,1000,,,,,
69113177,1000,1000,1000,1000,,,,,
69115676,1000,1000,1000,1000,,,,,
69118175,1000,1000,1000,1000,,,,,
69120674,1000,1000,1000,1000,,,,,
69123173,1000,1000,1000,1000,,,,,
69125672,1000,1000,1000,1000,,,,,
69128171,1000,1000,1000,1000,,,,,
69130670,1000,1000,1000,1000,,,,,
69133169,1000,1000,1000,1000,,,,,
69135668,1000,1000,1000,1000,,,,,
69138167,1000,1000,1000,1000,,,,,
69140666,1000,1000,1000,1000,,,,,
69143165,1000,1000,1000,1000,,,,,
69145664,1000,1000,1000,1000,,,,,
69148163,1000,1000,1000,1000,,,,,
69150662,1000,1000,1000,1000,,,,,
69153161,1000,1000,1000,1000,,,,,
69155660,1000,1000,1000,1000,,,,,
69158159,1000,1000,1000,1000,,,,,
69160658,1000,1000,1000,1000,,,,,
69163157,1000,1000,1000,1000,,,,,
69165656,1000,1000,1000,1000,,,,,
69168155,1000,1000,1000,1000,,,,,
69170654,1000,1000,1000,1000,,,,,
69173986,1000,1000,1000,1000,,,,,
69176485,1000,1000,1000,1000,,,,,
69178984,1000,1000,1000,1000,,,,,
69181483,1000,1000,1000,1000,,,,,
69183982,1000,1000,1000,1000,,,,,
69186481,1000,1000,1000,1000,,,,,
69188980,1000,1000,1000,1000,,,,,
69191479,1000,1000,1000,1000,,,,,
69193978,1000,1000,1000,1000,,,,,
69196477,1000,1000,1000,1000,,,,,
69198976,1000,1000,1000,1000,,,,,
69201475,1000,1000,1000,1000,,,,,
69203974,1000,1000,1000,1000,,,,,
69206473,1000,1000,1000,1000,,,,,
69208972,1000,1000,1000,1000,,,,,
69211471,1000,1000,1000,1000,,,,,
69213970,1000,1000,1000,1000,,,,,
69216469,1001,1001,1001,1001,,,,,
69218968,1002,1002,1002,1002,,,,,
69221467,1003,1003,1003,1003,,,,,
69223966,1003,1003,1003,1003,,,,,
69226465,1004,1004,1004,1004,,,,,
69228964,1005,1005,1005,1005,,,,,
69231463,1006,1006,1006,1006,,,,,
69233962,1006,1006,1006,1006,,,,,
69236461,1007,1007,1007,1007,,,,,
69238960,1008,1008,1008,1008,,,,,
69241459,1009,1009,1009,1009,,,,,
69243958,1009,1009,1009,1009,,,,,
69246457,1010,1010,1010,1010,,,,,
69248956,1011,1011,1011,1011,,,,,
69251455,1012,1012,1012,1012,,,,,
69253954,1012,1012,1012,1012,,,,,
69256453,1013,1013,1013,1013,,,,,
69258952,1014,1014,1014,1014,,,,,
69261451,1015,1015,1015,1015,,,,,
69263950,1015,1015,1015,1015,,,,,
69266449,1016,1016,1016,1016,,,,,
69268948,1017,1017,1017,1017,,,,,
69271447,1018,1018,1018,1018,,,,,
69273946,1018,1018,1018,1018,,,,,
69276445,1019,1019,1019,1019,,,,,
69278944,1020,1020,1020,1020,,,,,
69281443,1021,1021,1021,1021,,,,,
69283942,1021,1021,1021,1021,,,,,
69286441,1022,1022,1022,1022,,,,,
69288940,1023,1023,1023,1023,,,,,
69291439,1024,1024,1024,1024,,,,,
69293938,1024,1024,1024,1024,,,,,
69296437,1025,1025,1025,1025,,,,,
69298936,1026,1026,1026,1026,,,,,
69301435,1027,1027,1027,1027,,,,,
69303934,1027,1027,1027,1027,,,,,
69306433,1028,1028,1028,1028,,,,,
69308932,1029,1029,1029,1029,,,,,
69311431,1030,1030,1030,1030,,,,,
69313930,1030,1030,1030,1030,,,,,
69316429,1031,1031,1031,1031,,,,,
69318928,1032,1032,1032,1032,,,,,
69321427,1033,1033,1033,1033,,,,,
69323926,1033,1033,1033,1033,,,,,
69326425,1034,1034,1034,1034,,,,,
69328924,1035,1035,1035,1035,,,,,
69331423,1036,1036,1036,1036,,,,,
69333922,1036,1036,1036,1036,,,,,
69336421,1037,1037,1037,1037,,,,,
69338920,1038,1038,1038,1038,,,,,
69341419,1039,1039,1039,1039,,,,,
69343918,1039,1039,1039,1039,,,,,
69346417,1040,1040,1040,1040,,,,,
69348916,1041,1041,1041,1041,,,,,
69351415,1042,1042,1042,1042,,,,,
69353914,1042,1042,1042,1042,,,,,
69356413,1043,1043,1043,1043,,,,,
69358912,1044,1044,1044,1044,,,,,
69361411,1045,1045,1045,1045,,,,,
69363910,1045,1045,1045,1045,,,,,
69366409,1046,1046,1046,1046,,,,,
69368908,1047,1047,1047,1047,,,,,
69371407,1048,1048,1048,1048,,,,,
69373906,1048,1048,1048,1048,,,,,
69376405,1049,1049,1049,1049,,,,,
69378904,1050,1050,1050,1050,,,,,
69381403,1051,1051,1051,1051,,,,,
69383902,1051,1051,1051,1051,,,,,
69386401,1052,1052,1052,1052,,,,,
69388900,1053,1053,1053,1053,,,,,
69391399,1054,1054,1054,1054,,,,,
69393898,1054,1054,1054,1054,,,,,
69396397,1055,1055,1055,1055,,,,,
69398896,1056,1056,1056,1056,,,,,
69401395,1057,1057,1057,1057,,,,,
69403894,1057,1057,1057,1057,,,,,
69406393,1058,1058,1058,1058,,,,,
69408892,1059,1059,1059,1059,,,,,
69411391,1060,1060,1060,1060,,,,,
69413890,1060,1060,1060,1060,,,,,
69416389,1061,1061,1061,1061,,,,,
69418888,1062,1062,1062,1062,,,,,
69421387,1063,1063,1063,1063,,,,,
69423886,1063,1063,1063,1063,,,,,
69426385,1064,1064,1064,1064,,,,,
69428884,1065,1065,1065,1065,,,,,
69431383,1066,1066,1066,1066,,,,,
69433882,1066,1066,1066,1066,,,,,
69436381,1067,1067,1067,1067,,,,,
69438880,1068,1068,1068,1068,,,,,
69441379,1069,1069,1069,1069,,,,,
69443878,1069,1069,1069,1069,,,,,
69446377,1070,1070,1070,1070,,,,,
69448876,1071,1071,1071,1071,,,,,
69451375,1072,1072,1072,1072,,,,,
69453874,1072,1072,1072,1072,,,,,
69456373,1073,1073,1073,1073,,,,,
69458872,1074,1074,1074,1074,,,,,
69461371,1075,1075,1075,1075,,,,,
69463870,1075,1075,1075,1075,,,,,
69466369,1076,1076,1076,1076,,,,,
69468868,1077,1077,1077,1077,,,,,
69471367,1078,1078,1078,1078,,,,,
69473866,1078,1078,1078,1078,,,,,
69476365,1079,1079,1079,1079,,,,,
69478864,1080,1080,1080,1080,,,,,
69481363,1081,1081,1081,1081,,,,,
69483862,1081,1081,1081,1081,,,,,
69486361,1082,1082,1082,1082,,,,,
69488860,1083,1083,1083,1083,,,,,
69491359,1084,1084,1084,1084,,,,,
69493858,1084,1084,1084,1084,,,,,
69496357,1085,1085,1085,1085,,,,,
69498856,1086,1086,1086,1086,,,,,
69501355,1087,1087,1087,1087,,,,,
69503854,1087,1087,1087,1087,,,,,
69506353,1088,1088,1088,1088,,,,,
69508852,1089,1089,1089,1089,,,,,
69511351,1090,1090,1090,1090,,,,,
69513850,1090,1090,1090,1090,,,,,
69516349,1091,1091,1091,1091,,,,,
69518848,1092,1092,1092,1092,,,,,
69521347,1093,1093,1093,1093,,,,,
69523846,1093,1093,1093,1093,,,,,
69526345,1094,1094,1094,1094,,,,,
69528844,1095,1095,1095,1095,,,,,
69531343,1096,1096,1096,1096,,,,,
69533842,1096,1096,1096,1096,,,,,
69536341,1097,1097,1097,1097,,,,,
69538840,1098,1098,1098,1098,,,,,
69541339,1099,1099,1099,1099,,,,,
69543838,1099,1099,1099,1099,,,,,
69546337,1100,1100,1100,1100,,,,,
69548836,1101,1101,1101,1101,,,,,
69551335,1101,1101,1101,1101,,,,,
69553834,1102,1102,1102,1102,,,,,
69556333,1103,1103,1103,1103,,,,,
69558832,1104,1104,1104,1104,,,,,
69561331,1104,1104,1104,1104,,,,,
69563830,1105,1105,1105,1105,,,,,
69566329,1106,1106,1106,1106,,,,,
69568828,1107,1107,1107,1107,,,,,
69571327,1107,1107,1107,1107,,,,,
69573826,1108,1108,1108,1108,,,,,
69576325,1109,1109,1109,1109,,,,,
69578824,1110,1110,1110,1110,,,,,
69581323,1110,1110,1110,1110,,,,,
69583822,1111,1111,1111,1111,,,,,
69586321,1112,1112,1112,1112,,,,,
69588820,1113,1113,1113,1113,,,,,
69591319,1113,1113,1113,1113,,,,,
69593818,1114,1114,1114,1114,,,,,
69596317,1115,1115,1115,1115,,,,,
69598816,1116,1116,1116,1116,,,,,
69601315,1116,1116,1116,1116,,,,,
69603814,1117,1117,1117,1117,,,,,
69606313,1118,1118,1118,1118,,,,,
69608812,1119,1119,1119,1119,,,,,
69611311,1119,1119,1119,1119,,,,,
69613810,1120,1120,1120,1120,,,,,
69616309,1121,1121,1121,1121,,,,,
69618808,1122,1122,1122,1122,,,,,
69621307,1122,1122,1122,1122,,,,,
69623806,1123,1123,1123,1123,,,,,
69626305,1124,1124,1124,1124,,,,,
69628804,1125,1125,1125,1125,,,,,
69631303,1125,1125,1125,1125,,,,,
69633802,1126,1126,1126,1126,,,,,
69636301,1127,1127,1127,1127,,,,,
69638800,1128,1128,1128,1128,,,,,
69641299,1128,1128,1128,1128,,,,,
69643798,1129,1129,1129,1129,,,,,
69646297,1130,1130,1130,1130,,,,,
69648796,1131,1131,1131,1131,,,,,
69651295,1131,1131,1131,1131,,,,,
69653794,1132,1132,1132,1132,,,,,
69656293,1133,1133,1133,1133,,,,,
69658792,1134,1134,1134,1134,,,,,
69661291,1134,1134,1134,1134,,,,,
69663790,1135,1135,1135,1135,,,,,
69666289,1136,1136,1136,1136,,,,,
69668788,1137,1137,1137,1137,,,,,
69671287,1137,1137,1137,1137,,,,,
69673786,1138,1138,1138,1138,,,,,
69676285,1139,1139,1139,1139,,,,,
69678784,1140,1140,1140,1140,,,,,
69681283,1140,1140,1140,1140,,,,,
69683782,1141,1141,1141,1141,,,,,
69686281,1142,1142,1142,1142,,,,,
69688780,1143,1143,1143,1143,,,,,
69691279,1143,1143,1143,1143,,,,,
69693778,1144,1144,1144,1144,,,,,
69696277,1145,1145,1145,1145,,,,,
69698776,1146,1146,1146,1146,,,,,
69701275,1146,1146,1146,1146,,,,,
69703774,1147,1147,1147,1147,,,,,
69706273,1148,1148,1148,1148,,,,,
69708772,1149,1149,1149,1149,,,,,
69711271,1149,1149,1149,1149,,,,,
69713770,1150,1150,1150,1150,,,,,
69716269,1163,1152,1153,1163,,,,,
69718768,1171,1160,1161,1171,,,,,
69721267,1179,1168,1169,1179,,,,,
69723766,1186,1176,1177,1187,,,,,
69726265,1194,1184,1184,1194,,,,,
69728764,1201,1191,1192,1202,,,,,
69731263,1209,1199,1199,1209,,,,,
69733762,1216,1206,1207,1216,,,,,
69736261,1223,1213,1214,1223,,,,,
69738760,1230,1220,1221,1230,,,,,
69741259,1237,1227,1228,1237,,,,,
69743758,1243,1234,1235,1244,,,,,
69746257,1250,1241,1242,1251,,,,,
69748756,1257,1248,1248,1257,,,,,
69751255,1263,1254,1255,1264,,,,,
69753754,1270,1261,1261,1270,,,,,
69756253,1276,1267,1268,1276,,,,,
69758752,1282,1274,1274,1283,,,,,
69761251,1288,1280,1280,1289,,,,,
69763750,1295,1286,1287,1295,,,,,
69766249,1301,1292,1293,1301,,,,,
69768748,1307,1298,1299,1307,,,,,
69771247,1313,1304,1305,1313,,,,,
69773746,1318,1310,1311,1319,,,,,
69776245,1324,1316,1317,1325,,,,,
69778744,1330,1322,1322,1331,,,,,
69781243,1336,1328,1328,1336,,,,,
69783742,1341,1333,1334,1342,,,,,
69786241,1347,1339,1340,1347,,,,,
69788740,1352,1345,1345,1353,,,,,
69791239,1358,1350,1351,1358,,,,,
69793738,1363,1356,1356,1364,,,,,
69796237,1369,1361,1362,1369,,,,,
69798736,1374,1367,1367,1375,,,,,
69801235,1379,1372,1372,1380,,,,,
69803734,1385,1377,1378,1385,,,,,
69806233,1390,1383,1383,1390,,,,,
69808732,1395,1388,1388,1396,,,,,
69811231,1400,1393,1393,1401,,,,,
69813730,1405,1398,1398,1406,,,,,
69816229,1410,1403,1403,1411,,,,,
69818728,1415,1408,1408,1416,,,,,
69821227,1420,1413,1414,1421,,,,,
69823726,1425,1418,1418,1426,,,,,
69826225,1430,1423,1423,1431,,,,,
69828724,1435,1428,1428,1435,,,,,
69831223,1440,1433,1433,1440,,,,,
69833722,1445,1438,1438,1445,,,,,
69836221,1449,1442,1443,1450,,,,,
69838720,1454,1447,1448,1455,,,,,
69841219,1459,1452,1452,1459,,,,,
69843718,1463,1457,1457,1464,,,,,
69846217,1468,1461,1462,1469,,,,,
69848716,1473,1466,1466,1473,,,,,
69851215,1477,1471,1471,1478,,,,,
69853714,1482,1475,1475,1482,,,,,
69856213,1486,1480,1480,1487,,,,,
69858712,1491,1484,1485,1491,,,,,
69861211,1495,1489,1489,1496,,,,,
69863710,1500,1493,1494,1500,,,,,
69866209,1504,1498,1498,1505,,,,,
69868708,1509,1502,1502,1509,,,,,
69871207,1513,1506,1507,1513,,,,,
69873706,1517,1511,1511,1518,,,,,
69876205,1522,1515,1515,1522,,,,,
69878704,1526,1519,1520,1526,,,,,
69881203,1530,1524,1524,1531,,,,,
69883702,1535,1528,1528,1535,,,,,
69886201,1539,1532,1533,1539,,,,,
69888700,1543,1536,1537,1543,,,,,
69891199,1547,1540,1541,1548,,,,,
69893698,1551,1545,1545,1552,,,,,
69896197,1556,1549,1549,1556,,,,,
69898696,1560,1553,1553,1560,,,,,
69901195,1564,1557,1558,1564,,,,,
69903694,1568,1561,1562,1568,,,,,
69906193,1572,1565,1566,1572,,,,,
69908692,1576,1569,1570,1576,,,,,
69911191,1580,1573,1574,1580,,,,,
69913690,1584,1577,1578,1584,,,,,
69916189,1588,1581,1582,1588,,,,,
69918688,1592,1585,1586,1592,,,,,
69921187,1596,1589,1590,1596,,,,,
69923686,1600,1593,1594,1600,,,,,
69926185,1604,1597,1598,1604,,,,,
69928684,1607,1601,1602,1608,,,,,
69931183,1611,1605,1605,1612,,,,,
69933682,1615,1609,1609,1615,,,,,
69936181,1619,1613,1613,1619,,,,,
69938680,1623,1617,1617,1623,,,,,
69941179,1627,1620,1621,1627,,,,,
69943678,1630,1624,1625,1631,,,,,
69946177,1634,1628,1628,1634,,,,,
69948676,1638,1632,1632,1638,,,,,
69951175,1642,1636,1636,1642,,,,,
69953674,1645,1639,1640,1646,,,,,
69956173,1649,1643,1643,1649,,,,,
69958672,1653,1647,1647,1653,,,,,
69961171,1656,1650,1651,1657,,,,,
69963670,1660,1654,1654,1660,,,,,
69966169,1664,1658,1658,1664,,,,,
69968668,1667,1661,1662,1668,,,,,
69971167,1671,1665,1665,1671,,,,,
69973666,1674,1669,1669,1675,,,,,
69976165,1678,1672,1673,1678,,,,,
69978664,1682,1676,1676,1682,,,,,
69981163,1685,1679,1680,1685,,,,,
69983662,1689,1683,1683,1689,,,,,
69986161,1692,1686,1687,1693,,,,,
69988660,1696,1690,1690,1696,,,,,
69991159,1699,1693,1694,1700,,,,,
69993658,1703,1697,1697,1703,,,,,
69996157,1706,1700,1701,1707,,,,,
69998656,1710,1704,1704,1710,,,,,
70001155,1713,1707,1708,1714,,,,,
70003654,1717,1711,1711,1717,,,,,
70006153,1720,1714,1715,1720,,,,,
70008652,1724,1718,1718,1724,,,,,
70011151,1727,1721,1721,1727,,,,,
70013650,1730,1724,1725,1731,,,,,
70016149,1734,1728,1728,1734,,,,,
70018648,1737,1731,1731,1738,,,,,
70021147,1741,1735,1735,1741,,,,,
70023646,1744,1738,1738,1744,,,,,
70026145,1747,1741,1742,1748,,,,,
70028644,1751,1745,1745,1751,,,,,
70031143,1754,1748,1748,1754,,,,,
70033642,1757,1751,1752,1758,,,,,
70036141,1761,1754,1755,1761,,,,,
70038640,1764,1758,1758,1764,,,,,
70041139,1767,1761,1761,1767,,,,,
70043638,1770,1764,1765,1771,,,,,
70046137,1774,1768,1768,1774,,,,,
70048636,1777,1771,1771,1777,,,,,
70051135,1780,1774,1774,1780,,,,,
70053634,1783,1777,1778,1784,,,,,
70056133,1787,1780,1781,1787,,,,,
70058632,1790,1784,1784,1790,,,,,
70061131,1793,1787,1787,1793,,,,,
70063630,1796,1790,1790,1796,,,,,
70066129,1799,1793,1794,1800,,,,,
70068628,1803,1796,1797,1803,,,,,
70071127,1806,1799,1800,1806,,,,,
70073626,1809,1803,1803,1809,,,,,
70076125,1812,1806,1806,1812,,,,,
70078624,1815,1809,1809,1815,,,,,
70081123,1818,1812,1813,1818,,,,,
70083622,1821,1815,1816,1821,,,,,
70086121,1824,1818,1819,1825,,,,,
70088620,1828,1821,1822,1828,,,,,
70091119,1831,1824,1825,1831,,,,,
70093618,1834,1827,1828,1834,,,,,
70096117,1837,1831,1831,1837,,,,,
70098616,1840,1834,1834,1840,,,,,
70101115,1843,1837,1837,1843,,,,,
70103614,1846,1840,1840,1846,,,,,
70106113,1849,1843,1843,1849,,,,,
70108612,1852,1846,1846,1852,,,,,
70111111,1855,1848,1849,1855,,,,,
70113610,1853,1847,1847,1853,,,,,
70116109,1852,1845,1846,1852,,,,,
70118608,1851,1844,1845,1851,,,,,
70121107,1849,1843,1843,1849,,,,,
70123606,1848,1842,1842,1848,,,,,
70126105,1847,1841,1841,1847,,,,,
70128604,1846,1839,1840,1846,,,,,
70131103,1845,1838,1839,1845,,,,,
70133602,1844,1837,1838,1844,,,,,
70136101,1843,1837,1837,1843,,,,,
70138600,1843,1836,1836,1843,,,,,
70141099,1842,1835,1836,1842,,,,,
70143598,1841,1835,1835,1841,,,,,
70146097,1841,1834,1835,1841,,,,,
70148596,1841,1834,1834,1840,,,,,
70151095,1840,1833,1834,1840,,,,,
70153594,1840,1833,1834,1840,,,,,
70156093,1840,1833,1834,1840,,,,,
70158592,1840,1833,1833,1840,,,,,
70161091,1840,1833,1833,1840,,,,,
70163590,1840,1833,1834,1840,,,,,
70166089,1840,1833,1834,1840,,,,,
70168588,1840,1833,1834,1840,,,,,
70171087,1840,1833,1834,1840,,,,,
70173586,1841,1834,1835,1841,,,,,
70176085,1841,1834,1835,1841,,,,,
70178584,1842,1835,1835,1842,,,,,
70181083,1842,1835,1836,1842,,,,,
70183582,1843,1836,1836,1843,,,,,
70186081,1843,1836,1837,1843,,,,,
70188580,1844,1837,1838,1844,,,,,
70191079,1844,1838,1838,1844,,,,,
70193578,1845,1838,1839,1845,,,,,
70196077,1846,1839,1840,1846,,,,,
70198576,1846,1840,1840,1846,,,,,
70201075,1847,1840,1841,1847,,,,,
70203574,1848,1841,1842,1848,,,,,
70206073,1849,1842,1843,1849,,,,,
70208572,1849,1843,1843,1850,,,,,
70211071,1850,1844,1844,1850,,,,,
70213570,1851,1845,1845,1851,,,,,
70216069,1852,1846,1846,1852,,,,,
70218568,1853,1847,1847,1853,,,,,
70221067,1854,1848,1848,1854,,,,,
70223566,1855,1849,1849,1855,,,,,
70226065,1855,1850,1850,1856,,,,,
70228564,1856,1851,1851,1856,,,,,
70231063,1857,1851,1852,1857,,,,,
70233562,1857,1852,1853,1857,,,,,
70236061,1858,1853,1853,1858,,,,,
70238560,1858,1853,1854,1858,,,,,
70241059,1858,1854,1854,1858,,,,,
70243558,1858,1854,1854,1858,,,,,
70246057,1858,1854,1854,1858,,,,,
70248556,1857,1853,1854,1858,,,,,
70251055,1857,1853,1853,1857,,,,,
70253554,1856,1852,1852,1856,,,,,
70256053,1855,1851,1851,1856,,,,,
70258552,1854,1850,1850,1854,,,,,
70261051,1852,1849,1849,1853,,,,,
70263550,1851,1848,1848,1852,,,,,
70266049,1849,1846,1846,1850,,,,,
70268548,1847,1844,1844,1848,,,,,
70271047,1845,1842,1842,1846,,,,,
70273546,1843,1840,1840,1844,,,,,
70276045,1841,1838,1838,1842,,,,,
70278544,1839,1836,1836,1839,,,,,
70281043,1836,1833,1833,1837,,,,,
70283542,1834,1831,1831,1834,,,,,
70286041,1831,1828,1828,1831,,,,,
70288540,1828,1825,1825,1829,,,,,
70291039,1825,1822,1823,1826,,,,,
70293538,1823,1820,1820,1823,,,,,
70296037,1820,1817,1817,1820,,,,,
70298536,1817,1814,1814,1817,,,,,
70301035,1814,1811,1811,1814,,,,,
70303534,1811,1808,1808,1811,,,,,
70306033,1808,1805,1805,1808,,,,,
70308532,1804,1802,1802,1805,,,,,
70311031,1801,1798,1799,1802,,,,,
70313530,1798,1795,1796,1798,,,,,
70316029,1795,1792,1792,1795,,,,,
70318528,1791,1789,1789,1792,,,,,
70321027,1788,1786,1786,1788,,,,,
70323526,1785,1782,1783,1785,,,,,
70326025,1782,1779,1779,1782,,,,,
70328524,1778,1776,1776,1779,,,,,
70331023,1775,1773,1773,1775,,,,,
70333522,1772,1769,1770,1772,,,,,
70336021,1768,1766,1766,1768,,,,,
70338520,1765,1763,1763,1765,,,,,
70341019,1761,1759,1760,1762,,,,,
70343518,1758,1756,1756,1758,,,,,
70346017,1755,1753,1753,1755,,,,,
70348516,1751,1749,1750,1751,,,,,
70351015,1748,1746,1747,1748,,,,,
70353514,1745,1743,1743,1745,,,,,
70356013,1741,1739,1740,1741,,,,,
70358512,1738,1736,1737,1738,,,,,
70361011,1735,1733,1733,1735,,,,,
70363510,1731,1730,1730,1731,,,,,
70366009,1728,1726,1727,1728,,,,,
70368508,1725,1723,1724,1725,,,,,
70371007,1721,1720,1721,1721,,,,,
70373506,1718,1717,1718,1718,,,,,
70376005,1715,1714,1714,1715,,,,,
70378504,1712,1711,1711,1712,,,,,
70381003,1709,1708,1708,1709,,,,,
70383502,1706,1705,1705,1706,,,,,
70386001,1703,1702,1702,1703,,,,,
70388500,1700,1699,1700,1700,,,,,
70390999,1697,1696,1697,1697,,,,,
70393498,1694,1693,1694,1694,,,,,
70395997,1691,1690,1691,1691,,,,,
70398496,1688,1688,1688,1688,,,,,
