TimeUS,M1,M2,M3,M4,TimeUS,C1,C2,C3,C4
56580692,1000,1000,1000,1000,56628173,1000,1000,1000,1000
56583191,1000,1000,1000,1000,56728966,1000,1000,1000,1000
56585690,1000,1000,1000,1000,56828926,1000,1000,1000,1000
56588189,1000,1000,1000,1000,56928886,1000,1000,1000,1000
56590688,1000,1000,1000,1000,57028846,1000,1000,1000,1000
56593187,1000,1000,1000,1000,57128806,1000,1000,1000,1000
56595686,1000,1000,1000,1000,57228766,1000,1000,1000,1000
56598185,1000,1000,1000,1000,57328726,1000,1000,1000,1000
56600684,1000,1000,1000,1000,57428686,1000,1000,1000,1000
56603183,1000,1000,1000,1000,57528646,1000,1000,1000,1000
56605682,1000,1000,1000,1000,57628606,1000,1000,1000,1000
56608181,1000,1000,1000,1000,57728566,1000,1000,1000,1000
56610680,1000,1000,1000,1000,57828526,1000,1000,1000,1000
56613179,1000,1000,1000,1000,57928486,1000,1000,1000,1000
56615678,1000,1000,1000,1000,58028446,1000,1000,1000,1000
56618177,1000,1000,1000,1000,58128406,1000,1000,1000,1000
56620676,1000,1000,1000,1000,58228366,1000,1000,1000,1000
56623175,1000,1000,1000,1000,58328326,1000,1000,1000,1000
56625674,1000,1000,1000,1000,58428286,1000,1000,1000,1000
56628173,1000,1000,1000,1000,58528246,1000,1000,1000,1000
56630672,1000,1000,1000,1000,58628206,1014,1014,1014,1014
56633171,1000,1000,1000,1000,58728166,1044,1044,1044,1044
56635670,1000,1000,1000,1000,58828959,1074,1074,1074,1074
56638169,1000,1000,1000,1000,58928919,1104,1104,1104,1104
56640668,1000,1000,1000,1000,59028879,1134,1134,1134,1134
56643167,1000,1000,1000,1000,59128839,1282,1274,1275,1282
56645666,1000,1000,1000,1000,59228799,1491,1485,1485,1491
56648165,1000,1000,1000,1000,59328759,1653,1647,1647,1653
56650664,1000,1000,1000,1000,59428719,1789,1784,1785,1789
56653163,1000,1000,1000,1000,59528679,1869,1864,1864,1869
56655662,1000,1000,1000,1000,59628639,1865,1862,1862,1865
56658161,1000,1000,1000,1000,59728599,1745,1744,1745,1745
56660660,1000,1000,1000,1000,59828559,1649,1651,1651,1649
56663159,1000,1000,1000,1000,59928519,1623,1625,1625,1623
56665658,1000,1000,1000,1000,60028479,1632,1634,1634,1633
56668157,1000,1000,1000,1000,60128439,1643,1644,1643,1643
56670656,1000,1000,1000,1000,60228399,1643,1643,1644,1643
56673155,1000,1000,1000,1000,60328359,1637,1636,1636,1637
56675654,1000,1000,1000,1000,60428319,1629,1628,1628,1629
56678986,1000,1000,1000,1000,60528279,1624,1623,1623,1624
56681485,1000,1000,1000,1000,60628239,1623,1621,1622,1622
56683984,1000,1000,1000,1000,60728199,1622,1622,1621,1622
56686483,1000,1000,1000,1000,60828159,1622,1622,1622,1622
56688982,1000,1000,1000,1000,60928952,1623,1624,1623,1623
56691481,1000,1000,1000,1000,61028912,1623,1623,1623,1623
56693980,1000,1000,1000,1000,61128872,1624,1624,1624,1624
56696479,1000,1000,1000,1000,61228832,1624,1624,1624,1624
56698978,1000,1000,1000,1000,61328792,1625,1625,1625,1625
56701477,1000,1000,1000,1000,61428752,1626,1626,1626,1626
56703976,1000,1000,1000,1000,61528712,1626,1626,1625,1626
56706475,1000,1000,1000,1000,61628672,1627,1627,1627,1627
56708974,1000,1000,1000,1000,61728632,1629,1628,1628,1629
56711473,1000,1000,1000,1000,61828592,1623,1626,1626,1623
56713972,1000,1000,1000,1000,61928552,1596,1596,1597,1596
56716471,1000,1000,1000,1000,62028512,1585,1584,1585,1585
56718970,1000,1000,1000,1000,62128472,1575,1575,1575,1575
56721469,1000,1000,1000,1000,62228432,1567,1567,1567,1567
56723968,1000,1000,1000,1000,62328392,1559,1560,1559,1560
56726467,1000,1000,1000,1000,62428352,1553,1553,1553,1553
56728966,1000,1000,1000,1000,62528312,1548,1548,1548,1548
56731465,1000,1000,1000,1000,62628272,1542,1542,1542,1542
56733964,1000,1000,1000,1000,62728232,1538,1537,1537,1538
56736463,1000,1000,1000,1000,62828192,1533,1533,1533,1533
56738962,1000,1000,1000,1000,62928985,1530,1529,1529,1530
56741461,1000,1000,1000,1000,63028945,1526,1526,1526,1526
56743960,1000,1000,1000,1000,63128905,1524,1523,1523,1524
56746459,1000,1000,1000,1000,63228865,1521,1521,1521,1521
56748958,1000,1000,1000,1000,63328825,1518,1518,1518,1519
56751457,1000,1000,1000,1000,63428785,1514,1514,1514,1514
56753956,1000,1000,1000,1000,63528745,1511,1511,1511,1511
56756455,1000,1000,1000,1000,63628705,1509,1509,1509,1509
56758954,1000,1000,1000,1000,63728665,1507,1507,1507,1507
56761453,1000,1000,1000,1000,63828625,1504,1504,1504,1504
56763952,1000,1000,1000,1000,63928585,1501,1501,1501,1501
56766451,1000,1000,1000,1000,64028545,1499,1499,1499,1499
56768950,1000,1000,1000,1000,64128505,1497,1497,1497,1497
56771449,1000,1000,1000,1000,64228465,1494,1494,1494,1494
56773948,1000,1000,1000,1000,64328425,1492,1491,1492,1492
56776447,1000,1000,1000,1000,64428385,1494,1494,1495,1494
56778946,1000,1000,1000,1000,64528345,1496,1496,1496,1496
56781445,1000,1000,1000,1000,64628305,1498,1498,1498,1498
56783944,1000,1000,1000,1000,64728265,1501,1501,1501,1501
56786443,1000,1000,1000,1000,64828225,1503,1503,1503,1502
56788942,1000,1000,1000,1000,64928185,1505,1505,1505,1505
56791441,1000,1000,1000,1000,65028978,1507,1507,1507,1507
56793940,1000,1000,1000,1000,65128938,1508,1508,1509,1509
56796439,1000,1000,1000,1000,65228898,1510,1510,1510,1510
56798938,1000,1000,1000,1000,65328858,1512,1512,1512,1512
56801437,1000,1000,1000,1000,65428818,1543,1542,1543,1542
56803936,1000,1000,1000,1000,65528778,1561,1560,1560,1561
56806435,1000,1000,1000,1000,65628738,1571,1570,1569,1572
56808934,1000,1000,1000,1000,65728698,1577,1577,1574,1580
56811433,1000,1000,1000,1000,65828658,1581,1582,1579,1584
56813932,1000,1000,1000,1000,65928618,1583,1583,1581,1585
56816431,1000,1000,1000,1000,66028578,1583,1583,1583,1584
56818930,1000,1000,1000,1000,66128538,1584,1584,1585,1583
56821429,1000,1000,1000,1000,66228498,1584,1584,1586,1582
56823928,1000,1000,1000,1000,66328458,1583,1583,1585,1580
56826427,1000,1000,1000,1000,66428418,1582,1582,1583,1580
56828926,1000,1000,1000,1000,66528378,1578,1578,1579,1578
56831425,1000,1000,1000,1000,66628338,1576,1576,1576,1576
56833924,1000,1000,1000,1000,66728298,1575,1574,1573,1576
56836423,1000,1000,1000,1000,66828258,1572,1572,1571,1574
56838922,1000,1000,1000,1000,66928218,1568,1568,1572,1575
56841421,1000,1000,1000,1000,67028178,1567,1566,1573,1574
56843920,1000,1000,1000,1000,67128971,1567,1567,1573,1573
56846419,1000,1000,1000,1000,67228931,1567,1568,1572,1571
56848918,1000,1000,1000,1000,67328891,1568,1568,1570,1569
56851417,1000,1000,1000,1000,67428851,1569,1570,1569,1569
56853916,1000,1000,1000,1000,67528811,1570,1570,1568,1569
56856415,1000,1000,1000,1000,67628771,1572,1571,1568,1568
56858914,1000,1000,1000,1000,67728731,1573,1572,1568,1569
56861413,1000,1000,1000,1000,67828691,1573,1573,1569,1569
56863912,1000,1000,1000,1000,67928651,1573,1573,1570,1570
56866411,1000,1000,1000,1000,68028611,1574,1574,1571,1571
56868910,1000,1000,1000,1000,68128571,1574,1574,1572,1572
56871409,1000,1000,1000,1000,68228531,1574,1574,1573,1573
56873908,1000,1000,1000,1000,68328491,1574,1574,1574,1573
56876407,1000,1000,1000,1000,68428451,1575,1575,1576,1574
56878906,1000,1000,1000,1000,68528411,1576,1576,1577,1576
56881405,1000,1000,1000,1000,68628371,1576,1576,1578,1576
56883904,1000,1000,1000,1000,68728331,1576,1575,1577,1577
56886403,1000,1000,1000,1000,68828291,1576,1576,1577,1577
56888902,1000,1000,1000,1000,68928251,1577,1577,1578,1578
56891401,1000,1000,1000,1000,69028211,1578,1578,1578,1579
56893900,1000,1000,1000,1000,69128171,1578,1579,1579,1579
56896399,1000,1000,1000,1000,69228964,1579,1579,1580,1579
56898898,1000,1000,1000,1000,69328924,1578,1578,1578,1578
56901397,1000,1000,1000,1000,69428884,1579,1579,1579,1579
56903896,1000,1000,1000,1000,69528844,1578,1578,1578,1578
56906395,1000,1000,1000,1000,69628804,1579,1578,1578,1578
56908894,1000,1000,1000,1000,69728764,1579,1578,1578,1578
56911393,1000,1000,1000,1000,69828724,1578,1578,1578,1578
56913892,1000,1000,1000,1000,69928684,1578,1579,1578,1578
56916391,1000,1000,1000,1000,70028644,1579,1579,1579,1579
56918890,1000,1000,1000,1000,70128604,1579,1579,1579,1578
56921389,1000,1000,1000,1000,70228564,1579,1580,1580,1579
56923888,1000,1000,1000,1000,70328524,1580,1580,1580,1580
56926387,1000,1000,1000,1000,70428484,1579,1580,1579,1580
56928886,1000,1000,1000,1000,70528444,1578,1578,1578,1578
56931385,1000,1000,1000,1000,70628404,1580,1579,1580,1580
56933884,1000,1000,1000,1000,70728364,1579,1579,1579,1579
56936383,1000,1000,1000,1000,70828324,1579,1579,1579,1579
56938882,1000,1000,1000,1000,70928284,1579,1580,1580,1580
56941381,1000,1000,1000,1000,71028244,1579,1580,1580,1580
56943880,1000,1000,1000,1000,71128204,1580,1580,1580,1580
56946379,1000,1000,1000,1000,71228164,1580,1580,1580,1580
56948878,1000,1000,1000,1000,71328957,1580,1581,1580,1580
56951377,1000,1000,1000,1000,71428917,1580,1580,1580,1580
56953876,1000,1000,1000,1000,71528877,1581,1581,1580,1581
56956375,1000,1000,1000,1000,71628837,1580,1580,1580,1580
56958874,1000,1000,1000,1000,71728797,1580,1580,1580,1580
56961373,1000,1000,1000,1000,71828757,1580,1580,1580,1581
56963872,1000,1000,1000,1000,71928717,1580,1581,1581,1581
56966371,1000,1000,1000,1000,72028677,1580,1580,1580,1580
56968870,1000,1000,1000,1000,72128637,1581,1581,1581,1581
56971369,1000,1000,1000,1000,72228597,1581,1581,1582,1581
56973868,1000,1000,1000,1000,72328557,1582,1581,1582,1582
56976367,1000,1000,1000,1000,72428517,1581,1582,1581,1581
56978866,1000,1000,1000,1000,72528477,1581,1581,1581,1581
56981365,1000,1000,1000,1000,72628437,1581,1581,1581,1581
56983864,1000,1000,1000,1000,72728397,1582,1581,1581,1582
56986363,1000,1000,1000,1000,72828357,1581,1581,1582,1581
56988862,1000,1000,1000,1000,72928317,1581,1581,1580,1581
56991361,1000,1000,1000,1000,73028277,1582,1582,1582,1582
56993860,1000,1000,1000,1000,73128237,1581,1583,1589,1574
56996359,1000,1000,1000,1000,73228197,1580,1582,1585,1573
56998858,1000,1000,1000,1000,73328157,1579,1581,1576,1573
57001357,1000,1000,1000,1000,73428950,1577,1579,1567,1571
57003856,1000,1000,1000,1000,73528910,1577,1578,1560,1567
57006355,1000,1000,1000,1000,73628870,1579,1579,1557,1564
57008854,1000,1000,1000,1000,73728830,1580,1579,1555,1560
57011353,1000,1000,1000,1000,73828790,1580,1579,1556,1556
57013852,1000,1000,1000,1000,73928750,1579,1578,1555,1554
57016351,1000,1000,1000,1000,74028710,1578,1578,1556,1553
57018850,1000,1000,1000,1000,74128670,1578,1578,1556,1554
57021349,1000,1000,1000,1000,74228630,1575,1577,1555,1553
57023848,1000,1000,1000,1000,74328590,1575,1576,1554,1554
57026347,1000,1000,1000,1000,74428550,1575,1577,1553,1553
57028846,1000,1000,1000,1000,74528510,1576,1578,1552,1553
57031345,1000,1000,1000,1000,74628470,1576,1578,1550,1550
57033844,1000,1000,1000,1000,74728430,1579,1580,1548,1548
57036343,1000,1000,1000,1000,74828390,1582,1582,1546,1545
57038842,1000,1000,1000,1000,74928350,1584,1584,1542,1542
57041341,1000,1000,1000,1000,75028310,1587,1588,1540,1540
57043840,1000,1000,1000,1000,75128270,1590,1591,1538,1538
57046339,1000,1000,1000,1000,75228230,1593,1593,1536,1536
57048838,1000,1000,1000,1000,75328190,1595,1594,1535,1535
57051337,1000,1000,1000,1000,75428983,1595,1595,1535,1537
57053836,1000,1000,1000,1000,75528943,1593,1594,1535,1539
57056335,1000,1000,1000,1000,75628903,1592,1592,1540,1543
57058834,1000,1000,1000,1000,75728863,1589,1587,1546,1549
57061333,1000,1000,1000,1000,75828823,1582,1579,1554,1556
57063832,1000,1000,1000,1000,75928783,1575,1570,1565,1567
57066331,1000,1000,1000,1000,76028743,1563,1560,1577,1578
57068830,1000,1000,1000,1000,76128703,1552,1549,1589,1590
57071329,1000,1000,1000,1000,76228663,1542,1540,1601,1600
57073828,1000,1000,1000,1000,76328623,1534,1533,1609,1608
57076327,1000,1000,1000,1000,76428583,1530,1531,1614,1614
57078826,1000,1000,1000,1000,76528543,1529,1530,1615,1614
57081325,1000,1000,1000,1000,76628503,1532,1534,1613,1613
57083824,1000,1000,1000,1000,76728463,1538,1541,1609,1609
57086323,1000,1000,1000,1000,76828423,1545,1548,1602,1602
57088822,1000,1000,1000,1000,76928383,1555,1556,1595,1595
57091321,1000,1000,1000,1000,77028343,1563,1564,1587,1586
57093820,1000,1000,1000,1000,77128303,1570,1570,1579,1578
57096319,1000,1000,1000,1000,77228263,1579,1578,1574,1573
57098818,1000,1000,1000,1000,77328223,1584,1582,1570,1569
57101317,1000,1000,1000,1000,77428183,1587,1585,1567,1566
57103816,1000,1000,1000,1000,77528976,1588,1586,1565,1566
57106315,1000,1000,1000,1000,77628936,1587,1586,1566,1567
57108814,1000,1000,1000,1000,77728896,1585,1584,1568,1568
57111313,1000,1000,1000,1000,77828856,1583,1582,1571,1571
57113812,1000,1000,1000,1000,77928816,1580,1580,1574,1574
57116311,1000,1000,1000,1000,78028776,1577,1577,1577,1576
57118810,1000,1000,1000,1000,78128736,1576,1576,1580,1580
57121309,1000,1000,1000,1000,78228696,1574,1575,1583,1582
57123808,1000,1000,1000,1000,78328656,1573,1573,1583,1583
57126307,1000,1000,1000,1000,78428616,1572,1573,1584,1584
57128806,1000,1000,1000,1000,78528576,1573,1573,1584,1584
57131305,1000,1000,1000,1000,78628536,1574,1575,1584,1584
57133804,1000,1000,1000,1000,78728496,1575,1575,1583,1582
57136303,1000,1000,1000,1000,78828456,1576,1576,1581,1581
57138802,1000,1000,1000,1000,78928416,1577,1577,1579,1579
57141301,1000,1000,1000,1000,79028376,1579,1579,1578,1579
57143800,1000,1000,1000,1000,79128336,1580,1580,1578,1578
57146299,1000,1000,1000,1000,79228296,1573,1540,1582,1582
57148798,1000,1000,1000,1000,79328256,1577,1562,1584,1585
57151297,1000,1000,1000,1000,79428216,1588,1567,1584,1583
57153796,1000,1000,1000,1000,79528176,1593,1573,1581,1581
57156295,1000,1000,1000,1000,79628969,1593,1582,1580,1579
57158794,1000,1000,1000,1000,79728929,1589,1587,1577,1576
57161293,1000,1000,1000,1000,79828889,1587,1592,1576,1576
57163792,1000,1000,1000,1000,79928849,1585,1594,1576,1576
57166291,1000,1000,1000,1000,80028809,1584,1592,1577,1577
57168790,1000,1000,1000,1000,80128769,1584,1589,1577,1577
57171289,1000,1000,1000,1000,80228729,1585,1586,1579,1578
57173788,1000,1000,1000,1000,80328689,1584,1583,1580,1580
57176287,1000,1000,1000,1000,80428649,1584,1582,1581,1581
57178786,1000,1000,1000,1000,80528609,1582,1580,1582,1582
57181285,1000,1000,1000,1000,80628569,1579,1579,1581,1582
57183784,1000,1000,1000,1000,80728529,1579,1580,1582,1583
57186283,1000,1000,1000,1000,80828489,1578,1579,1582,1582
57188782,1000,1000,1000,1000,80928449,1578,1579,1582,1582
57191281,1000,1000,1000,1000,81028409,1579,1580,1582,1581
57193780,1000,1000,1000,1000,81128369,1579,1581,1587,1573
57196279,1000,1000,1000,1000,81228329,1580,1583,1583,1571
57198778,1000,1000,1000,1000,81328289,1580,1582,1573,1570
57201277,1000,1000,1000,1000,81428249,1579,1581,1564,1569
57203776,1000,1000,1000,1000,81528209,1579,1580,1558,1565
57206275,1000,1000,1000,1000,81628169,1580,1579,1554,1560
57208774,1000,1000,1000,1000,81728962,1580,1579,1553,1556
57211273,1000,1000,1000,1000,81828922,1579,1578,1553,1553
57213772,1000,1000,1000,1000,81928882,1579,1578,1554,1552
57216271,1000,1000,1000,1000,82028842,1578,1578,1554,1551
57218770,1000,1000,1000,1000,82128802,1577,1578,1555,1553
57221269,1000,1000,1000,1000,82228762,1576,1578,1555,1554
57223768,1000,1000,1000,1000,82328722,1576,1577,1554,1554
57226267,1000,1000,1000,1000,82428682,1574,1576,1552,1552
57228766,1000,1000,1000,1000,82528642,1576,1577,1551,1552
57231265,1000,1000,1000,1000,82628602,1576,1578,1548,1549
57233764,1000,1000,1000,1000,82728562,1578,1580,1547,1547
57236263,1000,1000,1000,1000,82828522,1581,1582,1545,1544
57238762,1000,1000,1000,1000,82928482,1584,1585,1543,1542
57241261,1000,1000,1000,1000,83028442,1587,1587,1541,1540
57243760,1000,1000,1000,1000,83128402,1589,1589,1539,1538
57246259,1000,1000,1000,1000,83228362,1591,1591,1539,1539
57248758,1000,1000,1000,1000,83328322,1592,1591,1538,1540
57251257,1000,1000,1000,1000,83428282,1591,1592,1539,1541
57253756,1000,1000,1000,1000,83528242,1590,1590,1542,1544
57256255,1000,1000,1000,1000,83628202,1587,1586,1546,1549
57258754,1000,1000,1000,1000,83728162,1583,1580,1552,1555
57261253,1000,1000,1000,1000,83828955,1577,1574,1561,1564
57263752,1000,1000,1000,1000,83928915,1569,1565,1572,1573
57266251,1000,1000,1000,1000,84028875,1558,1555,1581,1582
57268750,1000,1000,1000,1000,84128835,1551,1548,1592,1593
57271249,1000,1000,1000,1000,84228795,1543,1541,1601,1601
57273748,1000,1000,1000,1000,84328755,1537,1537,1607,1606
57276247,1000,1000,1000,1000,84428715,1534,1536,1610,1609
57278746,1000,1000,1000,1000,84528675,1534,1537,1610,1609
57281245,1000,1000,1000,1000,84628635,1539,1541,1607,1607
57283744,1000,1000,1000,1000,84728595,1545,1547,1603,1603
57286243,1000,1000,1000,1000,84828555,1552,1553,1597,1597
57288742,1000,1000,1000,1000,84928515,1560,1561,1591,1591
57291241,1000,1000,1000,1000,85028475,1569,1568,1586,1585
57293740,1000,1000,1000,1000,85128435,1575,1573,1579,1578
57296239,1000,1000,1000,1000,85228395,1579,1578,1574,1574
57298738,1000,1000,1000,1000,85328355,1584,1582,1570,1571
57301237,1000,1000,1000,1000,85428315,1585,1583,1568,1568
57303736,1000,1000,1000,1000,85528275,1587,1585,1569,1569
57306235,1000,1000,1000,1000,85628235,1586,1586,1570,1570
57308734,1000,1000,1000,1000,85728195,1584,1584,1572,1571
57311233,1000,1000,1000,1000,85828155,1582,1581,1573,1573
57313732,1000,1000,1000,1000,85928948,1580,1580,1576,1576
57316231,1000,1000,1000,1000,86028908,1577,1577,1577,1578
57318730,1000,1000,1000,1000,86128868,1575,1576,1580,1580
57321229,1000,1000,1000,1000,86228828,1574,1574,1581,1582
57323728,1000,1000,1000,1000,86328788,1573,1574,1583,1582
57326227,1000,1000,1000,1000,86428748,1574,1574,1583,1583
57328726,1000,1000,1000,1000,86528708,1574,1574,1583,1583
57331225,1000,1000,1000,1000,86628668,1574,1574,1582,1582
57333724,1000,1000,1000,1000,86728628,1575,1576,1581,1581
57336223,1000,1000,1000,1000,86828588,1577,1577,1581,1581
57338722,1000,1000,1000,1000,86928548,1578,1578,1580,1580
57341221,1000,1000,1000,1000,87028508,1579,1579,1578,1579
57343720,1000,1000,1000,1000,87128468,1580,1580,1578,1579
57346219,1000,1000,1000,1000,87228428,1581,1581,1578,1578
57348718,1000,1000,1000,1000,87328388,1581,1581,1578,1577
57351217,1000,1000,1000,1000,87428348,1582,1582,1579,1578
57353716,1000,1000,1000,1000,87528308,1581,1581,1577,1577
57356215,1000,1000,1000,1000,87628268,1581,1581,1578,1578
57358714,1000,1000,1000,1000,87728228,1581,1581,1579,1579
57361213,1000,1000,1000,1000,87828188,1581,1581,1580,1580
57363712,1000,1000,1000,1000,87928981,1580,1580,1580,1580
57366211,1000,1000,1000,1000,88028941,1580,1580,1581,1580
57368710,1000,1000,1000,1000,88128901,1579,1579,1580,1580
57371209,1000,1000,1000,1000,88228861,1579,1579,1580,1580
57373708,1000,1000,1000,1000,88328821,1579,1580,1581,1581
57376207,1000,1000,1000,1000,88428781,1579,1579,1580,1581
57378706,1000,1000,1000,1000,88528741,1580,1581,1581,1582
57381205,1000,1000,1000,1000,88628701,1581,1581,1582,1582
57383704,1000,1000,1000,1000,88728661,1580,1581,1582,1581
57386203,1000,1000,1000,1000,88828621,1581,1581,1581,1581
57388702,1000,1000,1000,1000,88928581,1581,1581,1581,1581
57391201,1000,1000,1000,1000,89028541,1581,1582,1581,1581
57393700,1000,1000,1000,1000,89128501,1581,1582,1581,1581
57396199,1000,1000,1000,1000,89228461,1582,1582,1581,1581
57398698,1000,1000,1000,1000,89328421,1582,1582,1581,1581
57401197,1000,1000,1000,1000,89428381,1581,1582,1584,1577
57403696,1000,1000,1000,1000,89528341,1582,1584,1588,1573
57406195,1000,1000,1000,1000,89628301,1580,1583,1581,1573
57408694,1000,1000,1000,1000,89728261,1578,1581,1572,1572
57411193,1000,1000,1000,1000,89828221,1577,1579,1563,1569
57413692,1000,1000,1000,1000,89928181,1577,1578,1557,1564
57416191,1000,1000,1000,1000,90028974,1578,1578,1555,1561
57418690,1000,1000,1000,1000,90128934,1579,1578,1554,1557
57421189,1000,1000,1000,1000,90228894,1580,1579,1556,1555
57423688,1000,1000,1000,1000,90328854,1580,1579,1556,1554
57426187,1000,1000,1000,1000,90428814,1578,1578,1556,1553
57428686,1000,1000,1000,1000,90528774,1577,1578,1555,1553
57431185,1000,1000,1000,1000,90628734,1576,1577,1555,1554
57433684,1000,1000,1000,1000,90728694,1575,1577,1553,1554
57436183,1000,1000,1000,1000,90828654,1574,1577,1552,1553
57438682,1000,1000,1000,1000,90928614,1575,1577,1550,1551
57441181,1000,1000,1000,1000,91028574,1576,1578,1548,1549
57443680,1000,1000,1000,1000,91128534,1579,1580,1547,1547
57446179,1000,1000,1000,1000,91228494,1581,1582,1545,1544
57448678,1000,1000,1000,1000,91328454,1584,1584,1543,1542
57451177,1000,1000,1000,1000,91428414,1587,1587,1541,1540
57453676,1000,1000,1000,1000,91528374,1589,1590,1539,1539
57456175,1000,1000,1000,1000,91628334,1592,1592,1538,1539
57458674,1000,1000,1000,1000,91728294,1593,1594,1538,1539
57461173,1000,1000,1000,1000,91828254,1593,1593,1538,1539
57463672,1000,1000,1000,1000,91928214,1592,1592,1540,1542
57466171,1000,1000,1000,1000,92028174,1590,1589,1544,1547
57468670,1000,1000,1000,1000,92128967,1587,1583,1551,1554
57471169,1000,1000,1000,1000,92228927,1579,1576,1559,1562
57473668,1000,1000,1000,1000,92328887,1572,1567,1572,1574
57476167,1000,1000,1000,1000,92428847,1560,1557,1582,1584
57478666,1000,1000,1000,1000,92528807,1549,1547,1593,1593
57481165,1000,1000,1000,1000,92628767,1542,1541,1604,1603
57483664,1000,1000,1000,1000,92728727,1535,1535,1609,1608
57486163,1000,1000,1000,1000,92828687,1532,1534,1612,1611
57488662,1000,1000,1000,1000,92928647,1533,1536,1612,1612
57491161,1000,1000,1000,1000,93028607,1536,1539,1609,1608
57493660,1000,1000,1000,1000,93128567,1544,1545,1604,1604
57496159,1000,1000,1000,1000,93228527,1552,1553,1599,1598
57498658,1000,1000,1000,1000,93328487,1560,1560,1592,1591
57501157,1000,1000,1000,1000,93428447,1568,1567,1585,1584
57503656,1000,1000,1000,1000,93528407,1574,1572,1578,1577
57506155,1000,1000,1000,1000,93628367,1580,1579,1573,1573
57508654,1000,1000,1000,1000,93728327,1584,1583,1570,1570
57511153,1000,1000,1000,1000,93828287,1587,1586,1569,1569
57513652,1000,1000,1000,1000,93928247,1587,1585,1568,1568
57516151,1000,1000,1000,1000,94028207,1586,1585,1569,1569
57518650,1000,1000,1000,1000,94128167,1584,1583,1570,1570
57521149,1000,1000,1000,1000,94228960,1582,1581,1573,1573
57523648,1000,1000,1000,1000,94328920,1579,1579,1575,1575
57526147,1000,1000,1000,1000,94428880,1576,1576,1577,1577
57528646,1000,1000,1000,1000,94528840,1575,1575,1580,1580
57531145,1000,1000,1000,1000,94628800,1573,1574,1582,1582
57533644,1000,1000,1000,1000,94728760,1572,1573,1583,1583
57536143,1000,1000,1000,1000,94828720,1573,1573,1583,1583
57538642,1000,1000,1000,1000,94928680,1573,1574,1583,1583
57541141,1000,1000,1000,1000,95028640,1574,1574,1582,1582
57543640,1000,1000,1000,1000,95128600,1575,1575,1581,1581
57546139,1000,1000,1000,1000,95228560,1576,1576,1580,1580
57548638,1000,1000,1000,1000,95328520,1578,1578,1579,1580
57551137,1000,1000,1000,1000,95428480,1580,1579,1579,1579
57553636,1000,1000,1000,1000,95528440,1580,1580,1577,1578
57556135,1000,1000,1000,1000,95628400,1582,1582,1578,1578
57558634,1000,1000,1000,1000,95728360,1581,1581,1577,1577
57561133,1000,1000,1000,1000,95828320,1582,1581,1577,1577
57563632,1000,1000,1000,1000,95928280,1581,1581,1577,1578
57566131,1000,1000,1000,1000,96028240,1582,1581,1579,1578
57568630,1000,1000,1000,1000,96128200,1581,1581,1579,1579
57571129,1000,1000,1000,1000,96228160,1580,1580,1579,1579
57573628,1000,1000,1000,1000,96328953,1579,1579,1579,1579
57576127,1000,1000,1000,1000,96428913,1580,1580,1580,1580
57578626,1000,1000,1000,1000,96528873,1579,1579,1580,1581
57581125,1000,1000,1000,1000,96628833,1580,1580,1581,1581
57583624,1000,1000,1000,1000,96728793,1579,1579,1581,1580
57586123,1000,1000,1000,1000,96828753,1580,1580,1582,1581
57588622,1000,1000,1000,1000,96928713,1580,1580,1581,1581
57591121,1000,1000,1000,1000,97028673,1580,1580,1581,1582
57593620,1000,1000,1000,1000,97128633,1580,1581,1581,1582
57596119,1000,1000,1000,1000,97228593,1580,1580,1580,1581
57598618,1000,1000,1000,1000,97328553,1581,1581,1581,1581
57601117,1000,1000,1000,1000,97428513,1582,1582,1587,1574
57603616,1000,1000,1000,1000,97528473,1581,1581,1586,1573
57606115,1000,1000,1000,1000,97628433,1580,1578,1579,1575
57608614,1000,1000,1000,1000,97728393,1575,1575,1571,1574
57611113,1000,1000,1000,1000,97828353,1573,1573,1568,1575
57613612,1000,1000,1000,1000,97928313,1569,1570,1565,1571
57616111,1000,1000,1000,1000,98028273,1568,1568,1565,1570
57618610,1000,1000,1000,1000,98128233,1568,1567,1566,1568
57621109,1000,1000,1000,1000,98228193,1566,1566,1567,1566
57623608,1000,1000,1000,1000,98328986,1566,1567,1568,1566
57626107,1000,1000,1000,1000,98428946,1565,1565,1567,1564
57628606,1000,1000,1000,1000,98528906,1564,1564,1566,1564
57631105,1000,1000,1000,1000,98628866,1564,1564,1565,1564
57633604,1000,1000,1000,1000,98728826,1563,1563,1563,1564
57636103,1000,1000,1000,1000,98828786,1562,1562,1562,1563
57638602,1000,1000,1000,1000,98928746,1561,1562,1562,1562
57641101,1000,1000,1000,1000,99028706,1562,1562,1562,1562
57643600,1000,1000,1000,1000,99128666,1561,1561,1562,1561
57646099,1000,1000,1000,1000,99228626,1560,1560,1561,1560
57648598,1000,1000,1000,1000,99328586,1560,1560,1560,1559
57651097,1000,1000,1000,1000,99428546,1559,1559,1559,1558
57653596,1000,1000,1000,1000,99528506,1559,1559,1559,1559
57656095,1000,1000,1000,1000,99628466,1557,1558,1557,1557
57658594,1000,1000,1000,1000,99728426,1558,1558,1558,1557
57661093,1000,1000,1000,1000,99828386,1558,1558,1558,1557
57663592,1000,1000,1000,1000,99928346,1557,1557,1558,1556
57666091,1000,1000,1000,1000,100028306,1558,1557,1559,1556
57668590,1000,1000,1000,1000,100128266,1558,1557,1560,1556
57671089,1000,1000,1000,1000,100228226,1558,1558,1559,1558
57673588,1000,1000,1000,1000,100328186,1559,1559,1556,1561
57676087,1000,1000,1000,1000,100428979,1560,1561,1557,1564
57678586,1000,1000,1000,1000,100528939,1561,1561,1558,1564
57681085,1000,1000,1000,1000,100628899,1562,1562,1560,1564
57683584,1000,1000,1000,1000,100728859,1561,1561,1560,1561
57686083,1000,1000,1000,1000,100828819,1560,1561,1562,1559
57688582,1000,1000,1000,1000,100928779,1560,1560,1559,1561
57691081,1000,1000,1000,1000,101028739,1556,1556,1555,1557
57693580,1000,1000,1000,1000,101128699,1551,1551,1550,1551
57696079,1000,1000,1000,1000,101228659,1546,1545,1545,1545
57698578,1000,1000,1000,1000,101328619,1540,1539,1539,1539
57701077,1000,1000,1000,1000,101428579,1533,1533,1532,1532
57703576,1000,1000,1000,1000,101528539,1525,1525,1525,1525
57706075,1000,1000,1000,1000,101628499,1520,1521,1521,1520
57708574,1000,1000,1000,1000,101728459,1519,1520,1519,1519
57711073,1000,1000,1000,1000,101828419,1520,1520,1520,1520
57713572,1000,1000,1000,1000,101928379,1521,1521,1522,1522
57716071,1000,1000,1000,1000,102028339,1525,1525,1526,1526
57718570,1000,1000,1000,1000,102128299,1529,1529,1530,1531
57721069,1000,1000,1000,1000,102228259,1535,1535,1536,1536
57723568,1000,1000,1000,1000,102328219,1538,1538,1539,1539
57726067,1000,1000,1000,1000,102428179,1541,1541,1542,1542
57728566,1000,1000,1000,1000,102528972,1544,1544,1545,1544
57731065,1000,1000,1000,1000,102628932,1545,1545,1545,1544
57733564,1000,1000,1000,1000,102728892,1545,1545,1545,1545
57736063,1000,1000,1000,1000,102828852,1546,1546,1546,1546
57738562,1000,1000,1000,1000,102928812,1548,1548,1547,1547
57741061,1000,1000,1000,1000,103028772,1548,1548,1547,1547
57743560,1000,1000,1000,1000,103128732,1547,1547,1547,1546
57746059,1000,1000,1000,1000,103228692,1548,1548,1548,1547
57748558,1000,1000,1000,1000,103328652,1547,1547,1547,1546
57751057,1000,1000,1000,1000,103428612,1547,1546,1546,1546
57753556,1000,1000,1000,1000,103528572,1546,1546,1546,1546
57756055,1000,1000,1000,1000,103628532,1545,1545,1545,1545
57758554,1000,1000,1000,1000,103728492,1545,1545,1545,1545
57761053,1000,1000,1000,1000,103828452,1544,1544,1545,1544
57763552,1000,1000,1000,1000,103928412,1544,1544,1545,1544
57766051,1000,1000,1000,1000,104028372,1545,1545,1545,1545
57768550,1000,1000,1000,1000,104128332,1544,1544,1544,1544
57771049,1000,1000,1000,1000,104228292,1544,1544,1544,1544
57773548,1000,1000,1000,1000,104328252,1544,1543,1544,1544
57776047,1000,1000,1000,1000,104428212,1543,1543,1543,1543
57778546,1000,1000,1000,1000,104528172,1544,1544,1543,1543
57781045,1000,1000,1000,1000,104628965,1543,1544,1543,1543
57783544,1000,1000,1000,1000,104728925,1543,1543,1543,1543
57786043,1000,1000,1000,1000,104828885,1544,1543,1543,1543
57788542,1000,1000,1000,1000,104928845,1544,1543,1543,1543
57791041,1000,1000,1000,1000,105028805,1544,1545,1544,1544
57793540,1000,1000,1000,1000,105128765,1544,1544,1544,1544
57796039,1000,1000,1000,1000,105228725,1543,1544,1544,1543
57798538,1000,1000,1000,1000,105328685,1545,1544,1545,1544
57801037,1000,1000,1000,1000,105428645,1545,1544,1544,1544
57803536,1000,1000,1000,1000,105528605,1544,1545,1545,1545
57806035,1000,1000,1000,1000,105628565,1544,1544,1544,1544
57808534,1000,1000,1000,1000,105728525,1544,1544,1544,1544
57811033,1000,1000,1000,1000,105828485,1544,1544,1545,1544
57813532,1000,1000,1000,1000,105928445,1544,1543,1544,1544
57816031,1000,1000,1000,1000,106028405,1544,1543,1543,1543
57818530,1000,1000,1000,1000,106128365,1544,1544,1544,1544
57821029,1000,1000,1000,1000,106228325,1543,1544,1543,1544
57823528,1000,1000,1000,1000,106328285,1543,1543,1543,1543
57826027,1000,1000,1000,1000,106428245,1543,1544,1543,1543
57828526,1000,1000,1000,1000,106528205,1543,1543,1543,1543
57831025,1000,1000,1000,1000,106628165,1543,1543,1543,1543
57833524,1000,1000,1000,1000,106728958,1544,1544,1544,1544
57836023,1000,1000,1000,1000,106828918,1544,1544,1544,1544
57838522,1000,1000,1000,1000,106928878,1544,1543,1543,1544
57841021,1000,1000,1000,1000,107028838,1544,1545,1545,1544
57843520,1000,1000,1000,1000,107128798,1545,1544,1544,1545
57846019,1000,1000,1000,1000,107228758,1544,1544,1544,1544
57848518,1000,1000,1000,1000,107328718,1544,1544,1544,1544
57851017,1000,1000,1000,1000,107428678,1544,1545,1545,1545
57853516,1000,1000,1000,1000,107528638,1545,1545,1544,1545
57856015,1000,1000,1000,1000,107628598,1544,1544,1544,1544
57858514,1000,1000,1000,1000,107728558,1544,1543,1544,1543
57861013,1000,1000,1000,1000,107828518,1545,1545,1545,1545
57863512,1000,1000,1000,1000,107928478,1545,1544,1544,1544
57866011,1000,1000,1000,1000,108028438,1544,1544,1544,1544
57868510,1000,1000,1000,1000,108128398,1544,1543,1543,1544
57871009,1000,1000,1000,1000,108228358,1544,1545,1544,1544
57873508,1000,1000,1000,1000,108328318,1544,1544,1544,1544
57876007,1000,1000,1000,1000,108428278,1543,1543,1544,1544
57878506,1000,1000,1000,1000,108528238,1544,1544,1544,1545
57881005,1000,1000,1000,1000,108628198,1544,1545,1545,1544
57883504,1000,1000,1000,1000,108728158,1544,1544,1544,1544
57886003,1000,1000,1000,1000,108828951,1544,1544,1544,1544
57888502,1000,1000,1000,1000,108928911,1544,1544,1544,1544
57891001,1000,1000,1000,1000,109028871,1544,1544,1544,1544
57893500,1000,1000,1000,1000,109128831,1544,1544,1544,1544
57895999,1000,1000,1000,1000,109228791,1543,1543,1543,1543
57898498,1000,1000,1000,1000,109328751,1544,1543,1543,1544
57900997,1000,1000,1000,1000,109428711,1545,1544,1545,1544
57903496,1000,1000,1000,1000,109528671,1545,1544,1544,1544
57905995,1000,1000,1000,1000,109628631,1543,1544,1544,1543
57908494,1000,1000,1000,1000,109728591,1545,1545,1545,1544
57910993,1000,1000,1000,1000,109828551,1543,1544,1544,1544
57913492,1000,1000,1000,1000,109928511,1544,1544,1544,1544
57915991,1000,1000,1000,1000,110028471,1544,1544,1544,1544
57918490,1000,1000,1000,1000,110128431,1545,1544,1544,1545
57920989,1000,1000,1000,1000,110228391,1544,1544,1544,1544
57923488,1000,1000,1000,1000,110328351,1544,1544,1544,1544
57925987,1000,1000,1000,1000,110428311,1545,1545,1545,1545
57928486,1000,1000,1000,1000,110528271,1545,1544,1545,1545
57930985,1000,1000,1000,1000,110628231,1544,1544,1544,1544
57933484,1000,1000,1000,1000,110728191,1544,1544,1544,1544
57935983,1000,1000,1000,1000,110828984,1545,1545,1545,1545
57938482,1000,1000,1000,1000,110928944,1545,1544,1544,1544
57940981,1000,1000,1000,1000,111028904,1544,1545,1544,1544
57943480,1000,1000,1000,1000,111128864,1544,1545,1544,1544
57945979,1000,1000,1000,1000,111228824,1544,1545,1544,1544
57948478,1000,1000,1000,1000,111328784,1463,1455,1456,1456
57950977,1000,1000,1000,1000,111428744,1320,1295,1297,1296
57953476,1000,1000,1000,1000,111528704,1263,1228,1229,1229
57955975,1000,1000,1000,1000,111628664,1244,1205,1207,1206
57958474,1000,1000,1000,1000,111728624,1217,1172,1175,1174
57960973,1000,1000,1000,1000,111828584,1198,1150,1152,1151
57963472,1000,1000,1000,1000,111928544,1200,1150,1152,1152
57965971,1000,1000,1000,1000,112028504,1203,1150,1152,1156
57968470,1000,1000,1000,1000,112128464,1223,1150,1150,1184
57970969,1000,1000,1000,1000,112228424,1216,1150,1152,1174
57973468,1000,1000,1000,1000,112328384,1215,1150,1152,1172
57975967,1000,1000,1000,1000,112428344,1216,1150,1152,1173
57978466,1000,1000,1000,1000,112528304,1218,1150,1152,1176
57980965,1000,1000,1000,1000,112628264,1220,1150,1152,1178
57983464,1000,1000,1000,1000,112728224,1221,1150,1152,1180
57985963,1000,1000,1000,1000,112828184,1197,1150,1151,1150
57988462,1000,1000,1000,1000,112928977,1210,1150,1152,1166
57990961,1000,1000,1000,1000,113028937,1211,1150,1152,1168
57993460,1000,1000,1000,1000,113128897,1212,1150,1152,1169
57995959,1000,1000,1000,1000,113228857,1213,1150,1152,1169
57998458,1000,1000,1000,1000,113328817,1092,1148,1148,1148
58000957,1000,1000,1000,1000,113428777,1000,1000,1000,1000
58003456,1000,1000,1000,1000,113528737,1000,1000,1000,1000
58005955,1000,1000,1000,1000,113628697,1000,1000,1000,1000
58008454,1000,1000,1000,1000,113728657,1000,1000,1000,1000
58010953,1000,1000,1000,1000,113828617,1000,1000,1000,1000
58013452,1000,1000,1000,1000,113928577,1000,1000,1000,1000
58015951,1000,1000,1000,1000,114028537,1000,1000,1000,1000
58018450,1000,1000,1000,1000,114128497,1000,1000,1000,1000
58020949,1000,1000,1000,1000,114228457,1000,1000,1000,1000
58023448,1000,1000,1000,1000,114328417,1000,1000,1000,1000
58025947,1000,1000,1000,1000,114428377,1000,1000,1000,1000
58028446,1000,1000,1000,1000,114528337,1000,1000,1000,1000
58030945,1000,1000,1000,1000,114628297,1000,1000,1000,1000
58033444,1000,1000,1000,1000,114728257,1000,1000,1000,1000
58035943,1000,1000,1000,1000,114828217,1000,1000,1000,1000
58038442,1000,1000,1000,1000,114928177,1000,1000,1000,1000
58040941,1000,1000,1000,1000,115028970,1000,1000,1000,1000
58043440,1000,1000,1000,1000,115128930,1000,1000,1000,1000
58045939,1000,1000,1000,1000,115228890,1000,1000,1000,1000
58048438,1000,1000,1000,1000,115328850,1000,1000,1000,1000
58050937,1000,1000,1000,1000,115428810,1000,1000,1000,1000
58053436,1000,1000,1000,1000,115528770,1000,1000,1000,1000
58055935,1000,1000,1000,1000,115628730,1000,1000,1000,1000
58058434,1000,1000,1000,1000,115728690,1000,1000,1000,1000
58060933,1000,1000,1000,1000,115828650,1000,1000,1000,1000
58063432,1000,1000,1000,1000,115928610,1000,1000,1000,1000
58065931,1000,1000,1000,1000,116028570,1000,1000,1000,1000
58068430,1000,1000,1000,1000,116128530,1000,1000,1000,1000
58070929,1000,1000,1000,1000,116228490,1000,1000,1000,1000
58073428,1000,1000,1000,1000,116328450,1000,1000,1000,1000
58075927,1000,1000,1000,1000,116428410,1000,1000,1000,1000
58078426,1000,1000,1000,1000,116528370,1000,1000,1000,1000
58080925,1000,1000,1000,1000,116628330,1000,1000,1000,1000
58083424,1000,1000,1000,1000,116728290,1000,1000,1000,1000
58085923,1000,1000,1000,1000,116828250,1000,1000,1000,1000
58088422,1000,1000,1000,1000,116928210,1000,1000,1000,1000
58090921,1000,1000,1000,1000,117028170,1000,1000,1000,1000
58093420,1000,1000,1000,1000,117128963,1000,1000,1000,1000
58095919,1000,1000,1000,1000,117228923,1000,1000,1000,1000
58098418,1000,1000,1000,1000,117328883,1000,1000,1000,1000
58100917,1000,1000,1000,1000,117428843,1000,1000,1000,1000
58103416,1000,1000,1000,1000,117528803,1000,1000,1000,1000
58105915,1000,1000,1000,1000,117628763,1000,1000,1000,1000
58108414,1000,1000,1000,1000,117728723,1000,1000,1000,1000
58110913,1000,1000,1000,1000,117828683,1000,1000,1000,1000
58113412,1000,1000,1000,1000,117928643,1000,1000,1000,1000
58115911,1000,1000,1000,1000,118028603,1000,1000,1000,1000
58118410,1000,1000,1000,1000,118128563,1000,1000,1000,1000
58120909,1000,1000,1000,1000,118228523,1000,1000,1000,1000
58123408,1000,1000,1000,1000,118328483,1000,1000,1000,1000
58125907,1000,1000,1000,1000,118428443,1000,1000,1000,1000
58128406,1000,1000,1000,1000,118528403,1000,1000,1000,1000
58130905,1000,1000,1000,1000,118628363,1000,1000,1000,1000
58133404,1000,1000,1000,1000,118728323,1000,1000,1000,1000
58135903,1000,1000,1000,1000,118828283,1000,1000,1000,1000
58138402,1000,1000,1000,1000,118928243,1000,1000,1000,1000
58140901,1000,1000,1000,1000,119028203,1000,1000,1000,1000
58143400,1000,1000,1000,1000,119128163,1000,1000,1000,1000
58145899,1000,1000,1000,1000,119228956,1000,1000,1000,1000
58148398,1000,1000,1000,1000,119328916,1000,1000,1000,1000
58150897,1000,1000,1000,1000,119428876,1000,1000,1000,1000
58153396,1000,1000,1000,1000,119528836,1000,1000,1000,1000
58155895,1000,1000,1000,1000,119628796,1000,1000,1000,1000
58158394,1000,1000,1000,1000,119728756,1000,1000,1000,1000
58160893,1000,1000,1000,1000,119828716,1000,1000,1000,1000
58163392,1000,1000,1000,1000,119928676,1000,1000,1000,1000
58165891,1000,1000,1000,1000,120028636,1000,1000,1000,1000
58168390,1000,1000,1000,1000,120128596,1000,1000,1000,1000
58170889,1000,1000,1000,1000,120228556,1000,1000,1000,1000
58173388,1000,1000,1000,1000,120328516,1000,1000,1000,1000
58175887,1000,1000,1000,1000,120428476,1000,1000,1000,1000
58178386,1000,1000,1000,1000,120528436,1000,1000,1000,1000
58180885,1000,1000,1000,1000,120628396,1000,1000,1000,1000
58183384,1000,1000,1000,1000,120728356,1000,1000,1000,1000
58185883,1000,1000,1000,1000,120828316,1000,1000,1000,1000
58188382,1000,1000,1000,1000,120928276,1000,1000,1000,1000
58190881,1000,1000,1000,1000,121028236,1000,1000,1000,1000
58193380,1000,1000,1000,1000,121128196,1000,1000,1000,1000
58195879,1000,1000,1000,1000,121228156,1000,1000,1000,1000
58198378,1000,1000,1000,1000,121328949,1000,1000,1000,1000
58200877,1000,1000,1000,1000,121428909,1000,1000,1000,1000
58203376,1000,1000,1000,1000,121528869,1000,1000,1000,1000
58205875,1000,1000,1000,1000,121628829,1000,1000,1000,1000
58208374,1000,1000,1000,1000,121728789,1000,1000,1000,1000
58210873,1000,1000,1000,1000,121828749,1000,1000,1000,1000
58213372,1000,1000,1000,1000,121928709,1000,1000,1000,1000
58215871,1000,1000,1000,1000,122028669,1000,1000,1000,1000
58218370,1000,1000,1000,1000,122128629,1000,1000,1000,1000
58220869,1000,1000,1000,1000,122228589,1000,1000,1000,1000
58223368,1000,1000,1000,1000,122328549,1000,1000,1000,1000
58225867,1000,1000,1000,1000,122428509,1000,1000,1000,1000
58228366,1000,1000,1000,1000,122528469,1000,1000,1000,1000
58230865,1000,1000,1000,1000,122628429,1000,1000,1000,1000
58233364,1000,1000,1000,1000,122728389,1000,1000,1000,1000
58235863,1000,1000,1000,1000,122828349,1000,1000,1000,1000
58238362,1000,1000,1000,1000,122928309,1000,1000,1000,1000
58240861,1000,1000,1000,1000,,,,,
58243360,1000,1000,1000,1000,,,,,
58245859,1000,1000,1000,1000,,,,,
58248358,1000,1000,1000,1000,,,,,
58250857,1000,1000,1000,1000,,,,,
58253356,1000,1000,1000,1000,,,,,
58255855,1000,1000,1000,1000,,,,,
58258354,1000,1000,1000,1000,,,,,
58260853,1000,1000,1000,1000,,,,,
58263352,1000,1000,1000,1000,,,,,
58265851,1000,1000,1000,1000,,,,,
58268350,1000,1000,1000,1000,,,,,
58270849,1000,1000,1000,1000,,,,,
58273348,1000,1000,1000,1000,,,,,
58275847,1000,1000,1000,1000,,,,,
58278346,1000,1000,1000,1000,,,,,
58280845,1000,1000,1000,1000,,,,,
58283344,1000,1000,1000,1000,,,,,
58285843,1000,1000,1000,1000,,,,,
58288342,1000,1000,1000,1000,,,,,
58290841,1000,1000,1000,1000,,,,,
58293340,1000,1000,1000,1000,,,,,
58295839,1000,1000,1000,1000,,,,,
58298338,1000,1000,1000,1000,,,,,
58300837,1000,1000,1000,1000,,,,,
58303336,1000,1000,1000,1000,,,,,
58305835,1000,1000,1000,1000,,,,,
58308334,1000,1000,1000,1000,,,,,
58310833,1000,1000,1000,1000,,,,,
58313332,1000,1000,1000,1000,,,,,
58315831,1000,1000,1000,1000,,,,,
58318330,1000,1000,1000,1000,,,,,
58320829,1000,1000,1000,1000,,,,,
58323328,1000,1000,1000,1000,,,,,
58325827,1000,1000,1000,1000,,,,,
58328326,1000,1000,1000,1000,,,,,
58330825,1000,1000,1000,1000,,,,,
58333324,1000,1000,1000,1000,,,,,
58335823,1000,1000,1000,1000,,,,,
58338322,1000,1000,1000,1000,,,,,
58340821,1000,1000,1000,1000,,,,,
58343320,1000,1000,1000,1000,,,,,
58345819,1000,1000,1000,1000,,,,,
58348318,1000,1000,1000,1000,,,,,
58350817,1000,1000,1000,1000,,,,,
58353316,1000,1000,1000,1000,,,,,
58355815,1000,1000,1000,1000,,,,,
58358314,1000,1000,1000,1000,,,,,
58360813,1000,1000,1000,1000,,,,,
58363312,1000,1000,1000,1000,,,,,
58365811,1000,1000,1000,1000,,,,,
58368310,1000,1000,1000,1000,,,,,
58370809,1000,1000,1000,1000,,,,,
58373308,1000,1000,1000,1000,,,,,
58375807,1000,1000,1000,1000,,,,,
58378306,1000,1000,1000,1000,,,,,
58380805,1000,1000,1000,1000,,,,,
58383304,1000,1000,1000,1000,,,,,
58385803,1000,1000,1000,1000,,,,,
58388302,1000,1000,1000,1000,,,,,
58390801,1000,1000,1000,1000,,,,,
58393300,1000,1000,1000,1000,,,,,
58395799,1000,1000,1000,1000,,,,,
58398298,1000,1000,1000,1000,,,,,
58400797,1000,1000,1000,1000,,,,,
58403296,1000,1000,1000,1000,,,,,
58405795,1000,1000,1000,1000,,,,,
58408294,1000,1000,1000,1000,,,,,
58410793,1000,1000,1000,1000,,,,,
58413292,1000,1000,1000,1000,,,,,
58415791,1000,1000,1000,1000,,,,,
58418290,1000,1000,1000,1000,,,,,
58420789,1000,1000,1000,1000,,,,,
58423288,1000,1000,1000,1000,,,,,
58425787,1000,1000,1000,1000,,,,,
58428286,1000,1000,1000,1000,,,,,
58430785,1000,1000,1000,1000,,,,,
58433284,1000,1000,1000,1000,,,,,
58435783,1000,1000,1000,1000,,,,,
58438282,1000,1000,1000,1000,,,,,
58440781,1000,1000,1000,1000,,,,,
58443280,1000,1000,1000,1000,,,,,
58445779,1000,1000,1000,1000,,,,,
58448278,1000,1000,1000,1000,,,,,
58450777,1000,1000,1000,1000,,,,,
58453276,1000,1000,1000,1000,,,,,
58455775,1000,1000,1000,1000,,,,,
58458274,1000,1000,1000,1000,,,,,
58460773,1000,1000,1000,1000,,,,,
58463272,1000,1000,1000,1000,,,,,
58465771,1000,1000,1000,1000,,,,,
58468270,1000,1000,1000,1000,,,,,
58470769,1000,1000,1000,1000,,,,,
58473268,1000,1000,1000,1000,,,,,
58475767,1000,1000,1000,1000,,,,,
58478266,1000,1000,1000,1000,,,,,
58480765,1000,1000,1000,1000,,,,,
58483264,1000,1000,1000,1000,,,,,
58485763,1000,1000,1000,1000,,,,,
58488262,1000,1000,1000,1000,,,,,
58490761,1000,1000,1000,1000,,,,,
58493260,1000,1000,1000,1000,,,,,
58495759,1000,1000,1000,1000,,,,,
58498258,1000,1000,1000,1000,,,,,
58500757,1000,1000,1000,1000,,,,,
58503256,1000,1000,1000,1000,,,,,
58505755,1000,1000,1000,1000,,,,,
58508254,1000,1000,1000,1000,,,,,
58510753,1000,1000,1000,1000,,,,,
58513252,1000,1000,1000,1000,,,,,
58515751,1000,1000,1000,1000,,,,,
58518250,1000,1000,1000,1000,,,,,
58520749,1000,1000,1000,1000,,,,,
58523248,1000,1000,1000,1000,,,,,
58525747,1000,1000,1000,1000,,,,,
58528246,1000,1000,1000,1000,,,,,
58530745,1000,1000,1000,1000,,,,,
58533244,1000,1000,1000,1000,,,,,
58535743,1000,1000,1000,1000,,,,,
58538242,1000,1000,1000,1000,,,,,
58540741,1000,1000,1000,1000,,,,,
58543240,1000,1000,1000,1000,,,,,
58545739,1000,1000,1000,1000,,,,,
58548238,1000,1000,1000,1000,,,,,
58550737,1000,1000,1000,1000,,,,,
58553236,1000,1000,1000,1000,,,,,
58555735,1000,1000,1000,1000,,,,,
58558234,1000,1000,1000,1000,,,,,
58560733,1000,1000,1000,1000,,,,,
58563232,1000,1000,1000,1000,,,,,
58565731,1000,1000,1000,1000,,,,,
58568230,1000,1000,1000,1000,,,,,
58570729,1000,1000,1000,1000,,,,,
58573228,1000,1000,1000,1000,,,,,
58575727,1000,1000,1000,1000,,,,,
58578226,1000,1000,1000,1000,,,,,
58580725,1000,1000,1000,1000,,,,,
58583224,1000,1000,1000,1000,,,,,
58585723,1000,1000,1000,1000,,,,,
58588222,1001,1001,1001,1001,,,,,
58590721,1002,1002,1002,1002,,,,,
58593220,1003,1003,1003,1003,,,,,
58595719,1003,1003,1003,1003,,,,,
58598218,1004,1004,1004,1004,,,,,
58600717,1005,1005,1005,1005,,,,,
58603216,1006,1006,1006,1006,,,,,
58605715,1006,1006,1006,1006,,,,,
58608214,1007,1007,1007,1007,,,,,
58610713,1008,1008,1008,1008,,,,,
58613212,1009,1009,1009,1009,,,,,
58615711,1009,1009,1009,1009,,,,,
58618210,1010,1010,1010,1010,,,,,
58620709,1011,1011,1011,1011,,,,,
58623208,1012,1012,1012,1012,,,,,
58625707,1012,1012,1012,1012,,,,,
58628206,1013,1013,1013,1013,,,,,
58630705,1014,1014,1014,1014,,,,,
58633204,1015,1015,1015,1015,,,,,
58635703,1015,1015,1015,1015,,,,,
58638202,1016,1016,1016,1016,,,,,
58640701,1017,1017,1017,1017,,,,,
58643200,1018,1018,1018,1018,,,,,
58645699,1018,1018,1018,1018,,,,,
58648198,1019,1019,1019,1019,,,,,
58650697,1020,1020,1020,1020,,,,,
58653196,1021,1021,1021,1021,,,,,
58655695,1021,1021,1021,1021,,,,,
58658194,1022,1022,1022,1022,,,,,
58660693,1023,1023,1023,1023,,,,,
58663192,1024,1024,1024,1024,,,,,
58665691,1024,1024,1024,1024,,,,,
58668190,1025,1025,1025,1025,,,,,
58670689,1026,1026,1026,1026,,,,,
58673188,1027,1027,1027,1027,,,,,
58675687,1027,1027,1027,1027,,,,,
58678186,1028,1028,1028,1028,,,,,
58680685,1029,1029,1029,1029,,,,,
58683184,1030,1030,1030,1030,,,,,
58685683,1030,1030,1030,1030,,,,,
58688182,1031,1031,1031,1031,,,,,
58690681,1032,1032,1032,1032,,,,,
58693180,1033,1033,1033,1033,,,,,
58695679,1033,1033,1033,1033,,,,,
58698178,1034,1034,1034,1034,,,,,
58700677,1035,1035,1035,1035,,,,,
58703176,1036,1036,1036,1036,,,,,
58705675,1036,1036,1036,1036,,,,,
58708174,1037,1037,1037,1037,,,,,
58710673,1038,1038,1038,1038,,,,,
58713172,1039,1039,1039,1039,,,,,
58715671,1039,1039,1039,1039,,,,,
58718170,1040,1040,1040,1040,,,,,
58720669,1041,1041,1041,1041,,,,,
58723168,1042,1042,1042,1042,,,,,
58725667,1042,1042,1042,1042,,,,,
58728166,1043,1043,1043,1043,,,,,
58730665,1044,1044,1044,1044,,,,,
58733164,1045,1045,1045,1045,,,,,
58735663,1045,1045,1045,1045,,,,,
58738162,1046,1046,1046,1046,,,,,
58740661,1047,1047,1047,1047,,,,,
58743160,1048,1048,1048,1048,,,,,
58745659,1048,1048,1048,1048,,,,,
58748158,1049,1049,1049,1049,,,,,
58750657,1050,1050,1050,1050,,,,,
58753156,1051,1051,1051,1051,,,,,
58755655,1051,1051,1051,1051,,,,,
58758154,1052,1052,1052,1052,,,,,
58761486,1053,1053,1053,1053,,,,,
58763985,1054,1054,1054,1054,,,,,
58766484,1054,1054,1054,1054,,,,,
58768983,1055,1055,1055,1055,,,,,
58771482,1056,1056,1056,1056,,,,,
58773981,1057,1057,1057,1057,,,,,
58776480,1057,1057,1057,1057,,,,,
58778979,1058,1058,1058,1058,,,,,
58781478,1059,1059,1059,1059,,,,,
58783977,1060,1060,1060,1060,,,,,
58786476,1060,1060,1060,1060,,,,,
58788975,1061,1061,1061,1061,,,,,
58791474,1062,1062,1062,1062,,,,,
58793973,1063,1063,1063,1063,,,,,
58796472,1063,1063,1063,1063,,,,,
58798971,1064,1064,1064,1064,,,,,
58801470,1065,1065,1065,1065,,,,,
58803969,1066,1066,1066,1066,,,,,
58806468,1066,1066,1066,1066,,,,,
58808967,1067,1067,1067,1067,,,,,
58811466,1068,1068,1068,1068,,,,,
58813965,1069,1069,1069,1069,,,,,
58816464,1069,1069,1069,1069,,,,,
58818963,1070,1070,1070,1070,,,,,
58821462,1071,1071,1071,1071,,,,,
58823961,1072,1072,1072,1072,,,,,
58826460,1072,1072,1072,1072,,,,,
58828959,1073,1073,1073,1073,,,,,
58831458,1074,1074,1074,1074,,,,,
58833957,1075,1075,1075,1075,,,,,
58836456,1075,1075,1075,1075,,,,,
58838955,1076,1076,1076,1076,,,,,
58841454,1077,1077,1077,1077,,,,,
58843953,1078,1078,1078,1078,,,,,
58846452,1078,1078,1078,1078,,,,,
58848951,1079,1079,1079,1079,,,,,
58851450,1080,1080,1080,1080,,,,,
58853949,1081,1081,1081,1081,,,,,
58856448,1081,1081,1081,1081,,,,,
58858947,1082,1082,1082,1082,,,,,
58861446,1083,1083,1083,1083,,,,,
58863945,1084,1084,1084,1084,,,,,
58866444,1084,1084,1084,1084,,,,,
58868943,1085,1085,1085,1085,,,,,
58871442,1086,1086,1086,1086,,,,,
58873941,1087,1087,1087,1087,,,,,
58876440,1087,1087,1087,1087,,,,,
58878939,1088,1088,1088,1088,,,,,
58881438,1089,1089,1089,1089,,,,,
58883937,1090,1090,1090,1090,,,,,
58886436,1090,1090,1090,1090,,,,,
58888935,1091,1091,1091,1091,,,,,
58891434,1092,1092,1092,1092,,,,,
58893933,1093,1093,1093,1093,,,,,
58896432,1093,1093,1093,1093,,,,,
58898931,1094,1094,1094,1094,,,,,
58901430,1095,1095,1095,1095,,,,,
58903929,1096,1096,1096,1096,,,,,
58906428,1096,1096,1096,1096,,,,,
58908927,1097,1097,1097,1097,,,,,
58911426,1098,1098,1098,1098,,,,,
58913925,1099,1099,1099,1099,,,,,
58916424,1099,1099,1099,1099,,,,,
58918923,1100,1100,1100,1100,,,,,
58921422,1101,1101,1101,1101,,,,,
58923921,1101,1101,1101,1101,,,,,
58926420,1102,1102,1102,1102,,,,,
58928919,1103,1103,1103,1103,,,,,
58931418,1104,1104,1104,1104,,,,,
58933917,1104,1104,1104,1104,,,,,
58936416,1105,1105,1105,1105,,,,,
58938915,1106,1106,1106,1106,,,,,
58941414,1107,1107,1107,1107,,,,,
58943913,1107,1107,1107,1107,,,,,
58946412,1108,1108,1108,1108,,,,,
58948911,1109,1109,1109,1109,,,,,
58951410,1110,1110,1110,1110,,,,,
58953909,1110,1110,1110,1110,,,,,
58956408,1111,1111,1111,1111,,,,,
58958907,1112,1112,1112,1112,,,,,
58961406,1113,1113,1113,1113,,,,,
58963905,1113,1113,1113,1113,,,,,
58966404,1114,1114,1114,1114,,,,,
58968903,1115,1115,1115,1115,,,,,
58971402,1116,1116,1116,1116,,,,,
58973901,1116,1116,1116,1116,,,,,
58976400,1117,1117,1117,1117,,,,,
58978899,1118,1118,1118,1118,,,,,
58981398,1119,1119,1119,1119,,,,,
58983897,1119,1119,1119,1119,,,,,
58986396,1120,1120,1120,1120,,,,,
58988895,1121,1121,1121,1121,,,,,
58991394,1122,1122,1122,1122,,,,,
58993893,1122,1122,1122,1122,,,,,
58996392,1123,1123,1123,1123,,,,,
58998891,1124,1124,1124,1124,,,,,
59001390,1125,1125,1125,1125,,,,,
59003889,1125,1125,1125,1125,,,,,
59006388,1126,1126,1126,1126,,,,,
59008887,1127,1127,1127,1127,,,,,
59011386,1128,1128,1128,1128,,,,,
59013885,1128,1128,1128,1128,,,,,
59016384,1129,1129,1129,1129,,,,,
59018883,1130,1130,1130,1130,,,,,
59021382,1131,1131,1131,1131,,,,,
59023881,1131,1131,1131,1131,,,,,
59026380,1132,1132,1132,1132,,,,,
59028879,1133,1133,1133,1133,,,,,
59031378,1134,1134,1134,1134,,,,,
59033877,1134,1134,1134,1134,,,,,
59036376,1135,1135,1135,1135,,,,,
59038875,1136,1136,1136,1136,,,,,
59041374,1137,1137,1137,1137,,,,,
59043873,1137,1137,1137,1137,,,,,
59046372,1138,1138,1138,1138,,,,,
59048871,1139,1139,1139,1139,,,,,
59051370,1140,1140,1140,1140,,,,,
59053869,1140,1140,1140,1140,,,,,
59056368,1141,1141,1141,1141,,,,,
59058867,1142,1142,1142,1142,,,,,
59061366,1143,1143,1143,1143,,,,,
59063865,1143,1143,1143,1143,,,,,
59066364,1144,1144,1144,1144,,,,,
59068863,1145,1145,1145,1145,,,,,
59071362,1146,1146,1146,1146,,,,,
59073861,1146,1146,1146,1146,,,,,
59076360,1147,1147,1147,1147,,,,,
59078859,1148,1148,1148,1148,,,,,
59081358,1149,1149,1149,1149,,,,,
59083857,1149,1149,1149,1149,,,,,
59086356,1150,1150,1150,1150,,,,,
59088855,1162,1153,1154,1162,,,,,
59091354,1170,1161,1162,1170,,,,,
59093853,1178,1169,1170,1178,,,,,
59096352,1186,1177,1178,1186,,,,,
59098851,1193,1184,1185,1193,,,,,
59101350,1201,1192,1193,1201,,,,,
59103849,1208,1199,1200,1208,,,,,
59106348,1215,1207,1208,1215,,,,,
59108847,1222,1214,1215,1222,,,,,
59111346,1229,1221,1222,1229,,,,,
59113845,1236,1228,1229,1236,,,,,
59116344,1243,1235,1236,1243,,,,,
59118843,1249,1242,1242,1250,,,,,
59121342,1256,1248,1249,1256,,,,,
59123841,1263,1255,1256,1263,,,,,
59126340,1269,1261,1262,1269,,,,,
59128839,1275,1268,1269,1276,,,,,
59131338,1282,1274,1275,1282,,,,,
59133837,1288,1280,1281,1288,,,,,
59136336,1294,1287,1287,1294,,,,,
59138835,1300,1293,1293,1300,,,,,
59141334,1306,1299,1300,1306,,,,,
59143833,1312,1305,1306,1312,,,,,
59146332,1318,1311,1311,1318,,,,,
59148831,1324,1317,1317,1324,,,,,
59151330,1329,1323,1323,1330,,,,,
59153829,1335,1328,1329,1335,,,,,
59156328,1341,1334,1335,1341,,,,,
59158827,1346,1340,1340,1347,,,,,
59161326,1352,1345,1346,1352,,,,,
59163825,1357,1351,1351,1358,,,,,
59166324,1363,1356,1357,1363,,,,,
59168823,1368,1362,1362,1368,,,,,
59171322,1374,1367,1368,1374,,,,,
59173821,1379,1372,1373,1379,,,,,
59176320,1384,1378,1378,1384,,,,,
59178819,1389,1383,1384,1390,,,,,
59181318,1395,1388,1389,1395,,,,,
59183817,1400,1393,1394,1400,,,,,
59186316,1405,1398,1399,1405,,,,,
59188815,1410,1404,1404,1410,,,,,
59191314,1415,1409,1409,1415,,,,,
59193813,1420,1414,1414,1420,,,,,
59196312,1425,1419,1419,1425,,,,,
59198811,1430,1424,1424,1430,,,,,
59201310,1435,1428,1429,1435,,,,,
59203809,1439,1433,1434,1440,,,,,
59206308,1444,1438,1439,1444,,,,,
59208807,1449,1443,1443,1449,,,,,
59211306,1454,1448,1448,1454,,,,,
59213805,1458,1452,1453,1459,,,,,
59216304,1463,1457,1458,1463,,,,,
59218803,1468,1462,1462,1468,,,,,
59221302,1472,1466,1467,1473,,,,,
59223801,1477,1471,1471,1477,,,,,
59226300,1481,1476,1476,1482,,,,,
59228799,1486,1480,1481,1486,,,,,
59231298,1491,1485,1485,1491,,,,,
59233797,1495,1489,1490,1495,,,,,
59236296,1499,1494,1494,1500,,,,,
59238795,1504,1498,1499,1504,,,,,
59241294,1508,1502,1503,1508,,,,,
59243793,1513,1507,1507,1513,,,,,
59246292,1517,1511,1512,1517,,,,,
59248791,1521,1516,1516,1521,,,,,
59251290,1526,1520,1520,1526,,,,,
59253789,1530,1524,1525,1530,,,,,
59256288,1534,1528,1529,1534,,,,,
59258787,1538,1533,1533,1538,,,,,
59261286,1543,1537,1537,1543,,,,,
59263785,1547,1541,1542,1547,,,,,
59266284,1551,1545,1546,1551,,,,,
59268783,1555,1549,1550,1555,,,,,
59271282,1559,1554,1554,1559,,,,,
59273781,1563,1558,1558,1563,,,,,
59276280,1567,1562,1562,1567,,,,,
59278779,1571,1566,1566,1571,,,,,
59281278,1575,1570,1570,1576,,,,,
59283777,1579,1574,1574,1580,,,,,
59286276,1583,1578,1578,1584,,,,,
59288775,1587,1582,1582,1588,,,,,
59291274,1591,1586,1586,1591,,,,,
59293773,1595,1590,1590,1595,,,,,
59296272,1599,1594,1594,1599,,,,,
59298771,1603,1598,1598,1603,,,,,
59301270,1607,1602,1602,1607,,,,,
59303769,1611,1605,1606,1611,,,,,
59306268,1615,1609,1610,1615,,,,,
59308767,1619,1613,1614,1619,,,,,
59311266,1622,1617,1617,1623,,,,,
59313765,1626,1621,1621,1626,,,,,
59316264,1630,1624,1625,1630,,,,,
59318763,1634,1628,1629,1634,,,,,
59321262,1638,1632,1632,1638,,,,,
59323761,1641,1636,1636,1641,,,,,
59326260,1645,1639,1640,1645,,,,,
59328759,1649,1643,1644,1649,,,,,
59331258,1653,1647,1647,1653,,,,,
59333757,1656,1650,1651,1656,,,,,
59336256,1660,1654,1655,1660,,,,,
59338755,1664,1658,1658,1664,,,,,
59341254,1667,1661,1662,1667,,,,,
59343753,1671,1665,1666,1671,,,,,
59346252,1674,1669,1669,1674,,,,,
59348751,1678,1672,1673,1678,,,,,
59351250,1682,1676,1676,1682,,,,,
59353749,1685,1679,1680,1685,,,,,
59356248,1689,1683,1684,1689,,,,,
59358747,1692,1686,1687,1692,,,,,
59361246,1696,1690,1691,1696,,,,,
59363745,1699,1693,1694,1699,,,,,
59366244,1703,1697,1698,1703,,,,,
59368743,1706,1700,1701,1706,,,,,
59371242,1710,1704,1705,1710,,,,,
59373741,1713,1707,1708,1713,,,,,
59376240,1717,1711,1712,1716,,,,,
59378739,1720,1714,1715,1720,,,,,
59381238,1724,1718,1719,1723,,,,,
59383737,1727,1721,1722,1727,,,,,
59386236,1730,1725,1725,1730,,,,,
59388735,1734,1728,1729,1733,,,,,
59391234,1737,1731,1732,1737,,,,,
59393733,1740,1735,1736,1740,,,,,
59396232,1744,1738,1739,1743,,,,,
59398731,1747,1741,1742,1747,,,,,
59401230,1750,1745,1746,1750,,,,,
59403729,1754,1748,1749,1753,,,,,
59406228,1757,1751,1752,1757,,,,,
59408727,1760,1755,1756,1760,,,,,
59411226,1764,1758,1759,1763,,,,,
59413725,1767,1761,1762,1767,,,,,
59416224,1770,1765,1765,1770,,,,,
59418723,1773,1768,1769,1773,,,,,
59421222,1777,1771,1772,1776,,,,,
59423721,1780,1774,1775,1780,,,,,
59426220,1783,1778,1778,1783,,,,,
59428719,1786,1781,1782,1786,,,,,
59431218,1789,1784,1785,1789,,,,,
59433717,1792,1787,1788,1792,,,,,
59436216,1796,1791,1791,1796,,,,,
59438715,1799,1794,1794,1799,,,,,
59441214,1802,1797,1798,1802,,,,,
59443713,1805,1800,1801,1805,,,,,
59446212,1808,1803,1804,1808,,,,,
59448711,1811,1806,1807,1811,,,,,
59451210,1815,1810,1810,1814,,,,,
59453709,1818,1813,1813,1818,,,,,
59456208,1821,1816,1816,1821,,,,,
59458707,1824,1819,1819,1824,,,,,
59461206,1827,1822,1823,1827,,,,,
59463705,1830,1825,1826,1830,,,,,
59466204,1833,1828,1829,1833,,,,,
59468703,1836,1831,1832,1836,,,,,
59471202,1839,1834,1835,1839,,,,,
59473701,1842,1837,1838,1842,,,,,
59476200,1845,1840,1841,1845,,,,,
59478699,1848,1843,1844,1848,,,,,
59481198,1851,1846,1847,1851,,,,,
59483697,1854,1849,1850,1854,,,,,
59486196,1857,1853,1853,1857,,,,,
59488695,1860,1856,1856,1860,,,,,
59491194,1863,1858,1859,1864,,,,,
59493693,1866,1861,1862,1867,,,,,
59496192,1869,1864,1865,1870,,,,,
59498691,1872,1867,1868,1872,,,,,
59501190,1875,1870,1871,1875,,,,,
59503689,1878,1873,1874,1878,,,,,
59506188,1878,1874,1874,1879,,,,,
59508687,1877,1872,1873,1878,,,,,
59511186,1876,1871,1872,1876,,,,,
59513685,1875,1870,1870,1875,,,,,
59516184,1874,1869,1869,1874,,,,,
59518683,1873,1868,1868,1873,,,,,
59521182,1872,1867,1867,1872,,,,,
59523681,1871,1866,1866,1871,,,,,
59526180,1870,1865,1866,1871,,,,,
59528679,1869,1864,1865,1870,,,,,
59531178,1869,1864,1864,1869,,,,,
59533677,1868,1863,1863,1868,,,,,
59536176,1868,1863,1863,1868,,,,,
59538675,1867,1862,1862,1867,,,,,
59541174,1867,1862,1862,1867,,,,,
59543673,1866,1861,1862,1867,,,,,
59546172,1866,1861,1861,1866,,,,,
59548671,1866,1861,1861,1866,,,,,
59551170,1866,1861,1861,1866,,,,,
59553669,1866,1861,1861,1866,,,,,
59556168,1866,1861,1861,1866,,,,,
59558667,1866,1861,1861,1866,,,,,
59561166,1866,1861,1861,1867,,,,,
59563665,1867,1861,1862,1867,,,,,
59566164,1867,1862,1862,1867,,,,,
59568663,1867,1862,1862,1868,,,,,
59571162,1868,1862,1863,1868,,,,,
59573661,1868,1863,1863,1869,,,,,
59576160,1869,1864,1864,1869,,,,,
59578659,1869,1864,1864,1870,,,,,
59581158,1870,1865,1865,1870,,,,,
59583657,1871,1866,1866,1871,,,,,
59586156,1871,1866,1867,1872,,,,,
59588655,1872,1867,1867,1872,,,,,
59591154,1873,1868,1868,1873,,,,,
59593653,1873,1869,1869,1874,,,,,
59596152,1874,1869,1870,1874,,,,,
59598651,1874,1870,1870,1875,,,,,
59601150,1874,1870,1871,1875,,,,,
59603649,1875,1871,1871,1875,,,,,
59606148,1875,1871,1871,1875,,,,,
59608647,1874,1871,1871,1875,,,,,
59611146,1874,1871,1871,1874,,,,,
59613645,1873,1870,1870,1874,,,,,
59616144,1873,1869,1870,1873,,,,,
59618643,1872,1869,1869,1872,,,,,
59621142,1871,1868,1868,1871,,,,,
59623641,1869,1866,1867,1870,,,,,
59626140,1868,1865,1865,1868,,,,,
59628639,1866,1864,1864,1867,,,,,
59631138,1865,1862,1862,1865,,,,,
59633637,1863,1860,1860,1863,,,,,
59636136,1861,1858,1858,1861,,,,,
59638635,1859,1856,1856,1859,,,,,
59641134,1856,1854,1854,1857,,,,,
59643633,1854,1852,1852,1854,,,,,
59646132,1852,1849,1849,1852,,,,,
59648631,1849,1847,1847,1850,,,,,
59651130,1847,1844,1844,1847,,,,,
59653629,1844,1841,1842,1844,,,,,
59656128,1841,1839,1839,1841,,,,,
59658627,1838,1836,1836,1838,,,,,
59661126,1835,1833,1833,1835,,,,,
59663625,1832,1830,1830,1832,,,,,
59666124,1829,1827,1827,1829,,,,,
59668623,1826,1824,1824,1826,,,,,
59671122,1823,1821,1821,1823,,,,,
59673621,1820,1818,1818,1820,,,,,
59676120,1817,1815,1815,1817,,,,,
59678619,1814,1812,1812,1814,,,,,
59681118,1810,1808,1809,1811,,,,,
59683617,1807,1805,1806,1807,,,,,
59686116,1804,1802,1803,1804,,,,,
59688615,1801,1799,1799,1801,,,,,
59691114,1797,1795,1796,1797,,,,,
59693613,1794,1792,1793,1794,,,,,
59696112,1791,1789,1790,1791,,,,,
59698611,1788,1786,1786,1787,,,,,
59701110,1784,1782,1783,1784,,,,,
59703609,1781,1779,1780,1781,,,,,
59706108,1778,1776,1777,1777,,,,,
59708607,1774,1773,1774,1774,,,,,
59711106,1771,1769,1770,1771,,,,,
59713605,1768,1766,1767,1767,,,,,
59716104,1765,1763,1764,1764,,,,,
59718603,1761,1760,1761,1761,,,,,
59721102,1758,1757,1758,1758,,,,,
59723601,1755,1754,1755,1754,,,,,
59726100,1752,1751,1751,1751,,,,,
59728599,1749,1747,1748,1748,,,,,
59731098,1745,1744,1745,1745,,,,,
59733597,1742,1741,1742,1742,,,,,
59736096,1739,1738,1739,1739,,,,,
59738595,1736,1735,1736,1736,,,,,
59741094,1733,1732,1733,1732,,,,,
59743593,1730,1729,1730,1729,,,,,
59746092,1727,1726,1727,1726,,,,,
59748591,1724,1723,1724,1723,,,,,
59751090,1721,1720,1721,1720,,,,,
59753589,1718,1718,1719,1717,,,,,
59756088,1715,1715,1716,1714,,,,,
59758587,1712,1712,1713,1712,,,,,
59761086,1709,1709,1710,1709,,,,,
59763585,1706,1706,1707,1706,,,,,
59766084,1704,1704,1705,1703,,,,,
59768583,1701,1701,1702,1701,,,,,
59771082,1698,1699,1699,1698,,,,,
59773581,1696,1696,1697,1695,,,,,
59776080,1693,1694,1694,1693,,,,,
59778579,1691,1691,1692,1690,,,,,
59781078,1688,1689,1690,1688,,,,,
59783577,1686,1687,1687,1686,,,,,
59786076,1684,1684,1685,1683,,,,,
59788575,1681,1682,1683,1681,,,,,
59791074,1679,1680,1680,1679,,,,,
59793573,1677,1678,1678,1677,,,,,
59796072,1675,1676,1676,1675,,,,,
59798571,1672,1674,1674,1672,,,,,
