timestamp,TimeUS,C1,C2,C3,C4,C5,C6,C7,C8,C9,C10,C11,C12,C13,C14
1706182306.70003986,75928783,1000,1000,1000,1000,0,0,0,0,0,0,0,0,0,0
1706182306.79999995,76028743,1000,1000,1000,1000,0,0,0,0,0,0,0,0,0,0
1706182306.89996004,76128703,1000,1000,1000,1000,0,0,0,0,0,0,0,0,0,0
1706182306.99991989,76228663,1000,1000,1000,1000,0,0,0,0,0,0,0,0,0,0
1706182307.09987998,76328623,1000,1000,1000,1000,0,0,0,0,0,0,0,0,0,0
1706182307.19983983,76428583,1000,1000,1000,1000,0,0,0,0,0,0,0,0,0,0
1706182307.29979992,76528543,1000,1000,1000,1000,0,0,0,0,0,0,0,0,0,0
1706182307.39976001,76628503,1000,1000,1000,1000,0,0,0,0,0,0,0,0,0,0
1706182307.49971986,76728463,1000,1000,1000,1000,0,0,0,0,0,0,0,0,0,0
1706182307.59967995,76828423,1000,1000,1000,1000,0,0,0,0,0,0,0,0,0,0
1706182307.69964004,76928383,1000,1000,1000,1000,0,0,0,0,0,0,0,0,0,0
1706182307.79959989,77028343,1000,1000,1000,1000,0,0,0,0,0,0,0,0,0,0
1706182307.89955997,77128303,1000,1000,1000,1000,0,0,0,0,0,0,0,0,0,0
1706182307.99951982,77228263,1000,1000,1000,1000,0,0,0,0,0,0,0,0,0,0
1706182308.09947991,77328223,1000,1000,1000,1000,0,0,0,0,0,0,0,0,0,0
1706182308.19944000,77428183,1000,1000,1000,1000,0,0,0,0,0,0,0,0,0,0
1706182308.30023289,77528976,1000,1000,1000,1000,0,0,0,0,0,0,0,0,0,0
1706182308.40019298,77628936,1000,1000,1000,1000,0,0,0,0,0,0,0,0,0,0
1706182308.50015283,77728896,1000,1000,1000,1000,0,0,0,0,0,0,0,0,0,0
1706182308.60011292,77828856,1000,1000,1000,1000,0,0,0,0,0,0,0,0,0,0
1706182308.70007300,77928816,1016,1016,1016,1016,0,0,0,0,0,0,0,0,0,0
1706182308.80003285,78028776,1046,1046,1046,1046,0,0,0,0,0,0,0,0,0,0
1706182308.89999294,78128736,1076,1076,1076,1076,0,0,0,0,0,0,0,0,0,0
1706182308.99995303,78228696,1106,1106,1106,1106,0,0,0,0,0,0,0,0,0,0
1706182309.09991288,78328656,1136,1136,1136,1136,0,0,0,0,0,0,0,0,0,0
1706182309.19987297,78428616,1301,1292,1292,1302,0,0,0,0,0,0,0,0,0,0
1706182309.29983282,78528576,1505,1497,1497,1505,0,0,0,0,0,0,0,0,0,0
1706182309.39979291,78628536,1664,1657,1658,1664,0,0,0,0,0,0,0,0,0,0
1706182309.49975300,78728496,1800,1793,1793,1800,0,0,0,0,0,0,0,0,0,0
1706182309.59971285,78828456,1859,1851,1852,1859,0,0,0,0,0,0,0,0,0,0
1706182309.69967294,78928416,1859,1855,1856,1860,0,0,0,0,0,0,0,0,0,0
1706182309.79963303,79028376,1739,1738,1739,1739,0,0,0,0,0,0,0,0,0,0
1706182309.89959288,79128336,1649,1650,1651,1649,0,0,0,0,0,0,0,0,0,0
1706182309.99955297,79228296,1627,1630,1630,1627,0,0,0,0,0,0,0,0,0,0
1706182310.09951282,79328256,1638,1641,1641,1638,0,0,0,0,0,0,0,0,0,0
1706182310.19947290,79428216,1650,1652,1652,1650,0,0,0,0,0,0,0,0,0,0
1706182310.29943299,79528176,1641,1640,1634,1647,0,0,0,0,0,0,0,0,0,0
1706182310.40022588,79628969,1628,1630,1621,1636,0,0,0,0,0,0,0,0,0,0
1706182310.50018597,79728929,1620,1621,1617,1624,0,0,0,0,0,0,0,0,0,0
1706182310.60014582,79828889,1616,1617,1617,1616,0,0,0,0,0,0,0,0,0,0
1706182310.70010591,79928849,1618,1617,1620,1614,0,0,0,0,0,0,0,0,0,0
1706182310.80006599,80028809,1622,1621,1625,1618,0,0,0,0,0,0,0,0,0,0
1706182310.90002584,80128769,1598,1598,1612,1585,0,0,0,0,0,0,0,0,0,0
1706182310.99998593,80228729,1583,1583,1599,1567,0,0,0,0,0,0,0,0,0,0
1706182311.09994602,80328689,1571,1572,1578,1566,0,0,0,0,0,0,0,0,0,0
1706182311.19990587,80428649,1560,1560,1558,1564,0,0,0,0,0,0,0,0,0,0
1706182311.29986596,80528609,1553,1552,1544,1561,0,0,0,0,0,0,0,0,0,0
1706182311.39982581,80628569,1546,1545,1534,1558,0,0,0,0,0,0,0,0,0,0
1706182311.49978590,80728529,1539,1538,1528,1548,0,0,0,0,0,0,0,0,0,0
1706182311.59974599,80828489,1534,1533,1528,1539,0,0,0,0,0,0,0,0,0,0
1706182311.69970584,80928449,1529,1529,1527,1530,0,0,0,0,0,0,0,0,0,0
1706182311.79966593,81028409,1527,1528,1529,1526,0,0,0,0,0,0,0,0,0,0
1706182311.89962602,81128369,1529,1529,1531,1526,0,0,0,0,0,0,0,0,0,0
1706182311.99958587,81228329,1531,1531,1534,1528,0,0,0,0,0,0,0,0,0,0
1706182312.09954596,81328289,1535,1535,1537,1532,0,0,0,0,0,0,0,0,0,0
1706182312.19950581,81428249,1537,1538,1540,1536,0,0,0,0,0,0,0,0,0,0
1706182312.29946589,81528209,1542,1542,1544,1541,0,0,0,0,0,0,0,0,0,0
1706182312.39942598,81628169,1544,1545,1545,1545,0,0,0,0,0,0,0,0,0,0
1706182312.50021887,81728962,1549,1548,1549,1549,0,0,0,0,0,0,0,0,0,0
1706182312.60017896,81828922,1551,1551,1551,1552,0,0,0,0,0,0,0,0,0,0
1706182312.70013881,81928882,1552,1552,1552,1554,0,0,0,0,0,0,0,0,0,0
1706182312.80009890,82028842,1555,1555,1554,1556,0,0,0,0,0,0,0,0,0,0
1706182312.90005898,82128802,1560,1560,1554,1556,0,0,0,0,0,0,0,0,0,0
1706182313.00001884,82228762,1562,1561,1557,1558,0,0,0,0,0,0,0,0,0,0
1706182313.09997892,82328722,1561,1561,1561,1562,0,0,0,0,0,0,0,0,0,0
1706182313.19993901,82428682,1561,1561,1565,1565,0,0,0,0,0,0,0,0,0,0
1706182313.29989886,82528642,1561,1561,1568,1567,0,0,0,0,0,0,0,0,0,0
1706182313.39985895,82628602,1561,1562,1569,1568,0,0,0,0,0,0,0,0,0,0
1706182313.49981904,82728562,1562,1563,1570,1569,0,0,0,0,0,0,0,0,0,0
1706182313.59977889,82828522,1564,1565,1570,1570,0,0,0,0,0,0,0,0,0,0
1706182313.69973898,82928482,1567,1567,1570,1571,0,0,0,0,0,0,0,0,0,0
1706182313.79969883,83028442,1568,1568,1570,1570,0,0,0,0,0,0,0,0,0,0
1706182313.89965892,83128402,1570,1570,1569,1570,0,0,0,0,0,0,0,0,0,0
1706182313.99961901,83228362,1571,1572,1569,1570,0,0,0,0,0,0,0,0,0,0
1706182314.09957886,83328322,1574,1574,1571,1571,0,0,0,0,0,0,0,0,0,0
1706182314.19953895,83428282,1575,1575,1572,1571,0,0,0,0,0,0,0,0,0,0
1706182314.29949903,83528242,1577,1576,1573,1571,0,0,0,0,0,0,0,0,0,0
1706182314.39945889,83628202,1577,1577,1574,1572,0,0,0,0,0,0,0,0,0,0
1706182314.49941897,83728162,1577,1578,1575,1573,0,0,0,0,0,0,0,0,0,0
1706182314.60021186,83828955,1578,1578,1576,1575,0,0,0,0,0,0,0,0,0,0
1706182314.70017195,83928915,1577,1576,1574,1575,0,0,0,0,0,0,0,0,0,0
1706182314.80013204,84028875,1576,1576,1575,1576,0,0,0,0,0,0,0,0,0,0
1706182314.90009189,84128835,1576,1576,1576,1576,0,0,0,0,0,0,0,0,0,0
1706182315.00005198,84228795,1576,1576,1577,1577,0,0,0,0,0,0,0,0,0,0
1706182315.10001183,84328755,1576,1577,1578,1577,0,0,0,0,0,0,0,0,0,0
1706182315.19997191,84428715,1576,1576,1578,1577,0,0,0,0,0,0,0,0,0,0
1706182315.29993200,84528675,1576,1576,1578,1577,0,0,0,0,0,0,0,0,0,0
1706182315.39989185,84628635,1576,1576,1577,1577,0,0,0,0,0,0,0,0,0,0
1706182315.49985194,84728595,1577,1577,1578,1578,0,0,0,0,0,0,0,0,0,0
1706182315.59981203,84828555,1577,1577,1578,1578,0,0,0,0,0,0,0,0,0,0
1706182315.69977188,84928515,1577,1577,1577,1578,0,0,0,0,0,0,0,0,0,0
1706182315.79973197,85028475,1577,1577,1577,1577,0,0,0,0,0,0,0,0,0,0
1706182315.89969182,85128435,1578,1578,1578,1578,0,0,0,0,0,0,0,0,0,0
1706182315.99965191,85228395,1579,1578,1579,1578,0,0,0,0,0,0,0,0,0,0
1706182316.09961200,85328355,1579,1579,1579,1578,0,0,0,0,0,0,0,0,0,0
1706182316.19957185,85428315,1579,1579,1579,1579,0,0,0,0,0,0,0,0,0,0
1706182316.29953194,85528275,1579,1579,1579,1579,0,0,0,0,0,0,0,0,0,0
1706182316.39949203,85628235,1578,1579,1578,1578,0,0,0,0,0,0,0,0,0,0
1706182316.49945188,85728195,1579,1579,1578,1579,0,0,0,0,0,0,0,0,0,0
1706182316.59941196,85828155,1579,1579,1579,1579,0,0,0,0,0,0,0,0,0,0
1706182316.70020485,85928948,1579,1578,1578,1579,0,0,0,0,0,0,0,0,0,0
1706182316.80016494,86028908,1580,1580,1580,1580,0,0,0,0,0,0,0,0,0,0
1706182316.90012503,86128868,1579,1580,1580,1579,0,0,0,0,0,0,0,0,0,0
1706182317.00008488,86228828,1579,1580,1580,1580,0,0,0,0,0,0,0,0,0,0
1706182317.10004497,86328788,1579,1579,1579,1579,0,0,0,0,0,0,0,0,0,0
1706182317.20000482,86428748,1579,1579,1580,1579,0,0,0,0,0,0,0,0,0,0
1706182317.29996490,86528708,1580,1580,1580,1580,0,0,0,0,0,0,0,0,0,0
1706182317.39992499,86628668,1580,1580,1581,1580,0,0,0,0,0,0,0,0,0,0
1706182317.49988484,86728628,1580,1580,1580,1580,0,0,0,0,0,0,0,0,0,0
1706182317.59984493,86828588,1580,1580,1580,1580,0,0,0,0,0,0,0,0,0,0
1706182317.69980502,86928548,1580,1580,1580,1581,0,0,0,0,0,0,0,0,0,0
1706182317.79976487,87028508,1580,1580,1580,1580,0,0,0,0,0,0,0,0,0,0
1706182317.89972496,87128468,1580,1580,1580,1580,0,0,0,0,0,0,0,0,0,0
1706182317.99968481,87228428,1580,1580,1580,1580,0,0,0,0,0,0,0,0,0,0
1706182318.09964490,87328388,1580,1580,1580,1580,0,0,0,0,0,0,0,0,0,0
1706182318.19960499,87428348,1580,1580,1580,1580,0,0,0,0,0,0,0,0,0,0
1706182318.29956484,87528308,1580,1581,1581,1580,0,0,0,0,0,0,0,0,0,0
1706182318.39952493,87628268,1580,1580,1580,1580,0,0,0,0,0,0,0,0,0,0
1706182318.49948502,87728228,1581,1581,1581,1580,0,0,0,0,0,0,0,0,0,0
1706182318.59944487,87828188,1580,1580,1580,1580,0,0,0,0,0,0,0,0,0,0
1706182318.70023799,87928981,1580,1580,1580,1581,0,0,0,0,0,0,0,0,0,0
1706182318.80019784,88028941,1581,1580,1581,1581,0,0,0,0,0,0,0,0,0,0
1706182318.90015793,88128901,1580,1580,1580,1581,0,0,0,0,0,0,0,0,0,0
1706182319.00011802,88228861,1581,1581,1581,1581,0,0,0,0,0,0,0,0,0,0
1706182319.10007787,88328821,1580,1581,1587,1573,0,0,0,0,0,0,0,0,0,0
1706182319.20003796,88428781,1580,1582,1585,1573,0,0,0,0,0,0,0,0,0,0
1706182319.29999781,88528741,1579,1582,1576,1573,0,0,0,0,0,0,0,0,0,0
1706182319.39995790,88628701,1578,1581,1568,1572,0,0,0,0,0,0,0,0,0,0
1706182319.49991798,88728661,1577,1580,1561,1568,0,0,0,0,0,0,0,0,0,0
1706182319.59987783,88828621,1578,1579,1557,1563,0,0,0,0,0,0,0,0,0,0
1706182319.69983792,88928581,1579,1578,1555,1559,0,0,0,0,0,0,0,0,0,0
1706182319.79979801,89028541,1580,1577,1555,1555,0,0,0,0,0,0,0,0,0,0
1706182319.89975786,89128501,1580,1578,1556,1554,0,0,0,0,0,0,0,0,0,0
1706182319.99971795,89228461,1579,1578,1557,1554,0,0,0,0,0,0,0,0,0,0
1706182320.09967804,89328421,1577,1578,1556,1554,0,0,0,0,0,0,0,0,0,0
1706182320.19963789,89428381,1577,1578,1556,1555,0,0,0,0,0,0,0,0,0,0
1706182320.29959798,89528341,1576,1578,1555,1555,0,0,0,0,0,0,0,0,0,0
1706182320.39955783,89628301,1575,1577,1553,1553,0,0,0,0,0,0,0,0,0,0
1706182320.49951792,89728261,1576,1577,1551,1552,0,0,0,0,0,0,0,0,0,0
1706182320.59947801,89828221,1578,1579,1550,1550,0,0,0,0,0,0,0,0,0,0
1706182320.69943786,89928181,1579,1580,1548,1547,0,0,0,0,0,0,0,0,0,0
1706182320.80023098,90028974,1582,1583,1545,1545,0,0,0,0,0,0,0,0,0,0
1706182320.90019083,90128934,1585,1586,1542,1542,0,0,0,0,0,0,0,0,0,0
1706182321.00015092,90228894,1587,1588,1539,1539,0,0,0,0,0,0,0,0,0,0
1706182321.10011101,90328854,1590,1591,1537,1536,0,0,0,0,0,0,0,0,0,0
1706182321.20007086,90428814,1593,1594,1535,1535,0,0,0,0,0,0,0,0,0,0
1706182321.30003095,90528774,1596,1596,1535,1536,0,0,0,0,0,0,0,0,0,0
1706182321.39999104,90628734,1596,1595,1534,1536,0,0,0,0,0,0,0,0,0,0
1706182321.49995089,90728694,1595,1594,1536,1538,0,0,0,0,0,0,0,0,0,0
1706182321.59991097,90828654,1593,1592,1540,1542,0,0,0,0,0,0,0,0,0,0
1706182321.69987082,90928614,1589,1586,1545,1549,0,0,0,0,0,0,0,0,0,0
1706182321.79983091,91028574,1582,1579,1554,1556,0,0,0,0,0,0,0,0,0,0
1706182321.89979100,91128534,1573,1570,1565,1567,0,0,0,0,0,0,0,0,0,0
1706182321.99975085,91228494,1562,1559,1576,1578,0,0,0,0,0,0,0,0,0,0
1706182322.09971094,91328454,1552,1549,1590,1591,0,0,0,0,0,0,0,0,0,0
1706182322.19967103,91428414,1542,1540,1601,1601,0,0,0,0,0,0,0,0,0,0
1706182322.29963088,91528374,1534,1533,1610,1609,0,0,0,0,0,0,0,0,0,0
1706182322.39959097,91628334,1530,1530,1615,1614,0,0,0,0,0,0,0,0,0,0
1706182322.49955082,91728294,1529,1531,1617,1615,0,0,0,0,0,0,0,0,0,0
1706182322.59951091,91828254,1532,1534,1614,1614,0,0,0,0,0,0,0,0,0,0
1706182322.69947100,91928214,1538,1540,1609,1609,0,0,0,0,0,0,0,0,0,0
1706182322.79943085,92028174,1546,1548,1603,1603,0,0,0,0,0,0,0,0,0,0
1706182322.90022397,92128967,1554,1555,1595,1595,0,0,0,0,0,0,0,0,0,0
1706182323.00018382,92228927,1563,1563,1587,1587,0,0,0,0,0,0,0,0,0,0
1706182323.10014391,92328887,1572,1571,1580,1579,0,0,0,0,0,0,0,0,0,0
1706182323.20010400,92428847,1579,1578,1574,1573,0,0,0,0,0,0,0,0,0,0
1706182323.30006385,92528807,1584,1583,1570,1570,0,0,0,0,0,0,0,0,0,0
1706182323.40002394,92628767,1587,1586,1567,1567,0,0,0,0,0,0,0,0,0,0
1706182323.49998403,92728727,1588,1587,1566,1566,0,0,0,0,0,0,0,0,0,0
1706182323.59994388,92828687,1587,1586,1566,1566,0,0,0,0,0,0,0,0,0,0
1706182323.69990396,92928647,1586,1585,1568,1569,0,0,0,0,0,0,0,0,0,0
1706182323.79986382,93028607,1584,1583,1571,1571,0,0,0,0,0,0,0,0,0,0
1706182323.89982390,93128567,1580,1580,1573,1574,0,0,0,0,0,0,0,0,0,0
1706182323.99978399,93228527,1578,1578,1577,1577,0,0,0,0,0,0,0,0,0,0
1706182324.09974384,93328487,1575,1576,1579,1579,0,0,0,0,0,0,0,0,0,0
1706182324.19970393,93428447,1572,1573,1581,1581,0,0,0,0,0,0,0,0,0,0
1706182324.29966402,93528407,1571,1572,1582,1582,0,0,0,0,0,0,0,0,0,0
1706182324.39962387,93628367,1572,1573,1584,1584,0,0,0,0,0,0,0,0,0,0
1706182324.49958396,93728327,1572,1573,1584,1584,0,0,0,0,0,0,0,0,0,0
1706182324.59954381,93828287,1573,1574,1584,1583,0,0,0,0,0,0,0,0,0,0
1706182324.69950390,93928247,1574,1575,1582,1582,0,0,0,0,0,0,0,0,0,0
1706182324.79946399,94028207,1577,1576,1581,1581,0,0,0,0,0,0,0,0,0,0
1706182324.89942384,94128167,1578,1578,1579,1580,0,0,0,0,0,0,0,0,0,0
1706182325.00021696,94228960,1578,1578,1578,1578,0,0,0,0,0,0,0,0,0,0
1706182325.10017681,94328920,1580,1580,1578,1578,0,0,0,0,0,0,0,0,0,0
1706182325.20013690,94428880,1581,1581,1577,1577,0,0,0,0,0,0,0,0,0,0
1706182325.30009699,94528840,1582,1581,1577,1577,0,0,0,0,0,0,0,0,0,0
1706182325.40005684,94628800,1581,1581,1577,1577,0,0,0,0,0,0,0,0,0,0
1706182325.50001693,94728760,1581,1581,1578,1577,0,0,0,0,0,0,0,0,0,0
1706182325.59997702,94828720,1582,1582,1579,1579,0,0,0,0,0,0,0,0,0,0
1706182325.69993687,94928680,1581,1581,1579,1579,0,0,0,0,0,0,0,0,0,0
1706182325.79989696,95028640,1594,1534,1586,1587,0,0,0,0,0,0,0,0,0,0
1706182325.89985681,95128600,1581,1563,1586,1587,0,0,0,0,0,0,0,0,0,0
1706182325.99981689,95228560,1587,1567,1584,1584,0,0,0,0,0,0,0,0,0,0
1706182326.09977698,95328520,1589,1574,1583,1582,0,0,0,0,0,0,0,0,0,0
1706182326.19973683,95428480,1588,1581,1581,1580,0,0,0,0,0,0,0,0,0,0
1706182326.29969692,95528440,1586,1586,1579,1579,0,0,0,0,0,0,0,0,0,0
1706182326.39965701,95628400,1584,1589,1578,1578,0,0,0,0,0,0,0,0,0,0
1706182326.49961686,95728360,1585,1591,1579,1579,0,0,0,0,0,0,0,0,0,0
1706182326.59957695,95828320,1584,1590,1578,1578,0,0,0,0,0,0,0,0,0,0
1706182326.69953704,95928280,1586,1588,1579,1579,0,0,0,0,0,0,0,0,0,0
1706182326.79949689,96028240,1585,1586,1580,1580,0,0,0,0,0,0,0,0,0,0
1706182326.89945698,96128200,1585,1584,1580,1580,0,0,0,0,0,0,0,0,0,0
1706182326.99941683,96228160,1584,1582,1580,1580,0,0,0,0,0,0,0,0,0,0
1706182327.10020995,96328953,1583,1584,1587,1574,0,0,0,0,0,0,0,0,0,0
1706182327.20017004,96428913,1583,1585,1585,1572,0,0,0,0,0,0,0,0,0,0
1706182327.30012989,96528873,1580,1583,1575,1571,0,0,0,0,0,0,0,0,0,0
1706182327.40008998,96628833,1578,1582,1566,1570,0,0,0,0,0,0,0,0,0,0
1706182327.50004983,96728793,1577,1580,1559,1566,0,0,0,0,0,0,0,0,0,0
1706182327.60000992,96828753,1578,1579,1556,1563,0,0,0,0,0,0,0,0,0,0
1706182327.69997001,96928713,1579,1578,1555,1558,0,0,0,0,0,0,0,0,0,0
1706182327.79992986,97028673,1579,1578,1555,1555,0,0,0,0,0,0,0,0,0,0
1706182327.89988995,97128633,1579,1577,1555,1553,0,0,0,0,0,0,0,0,0,0
1706182327.99985003,97228593,1577,1577,1555,1552,0,0,0,0,0,0,0,0,0,0
1706182328.09980989,97328553,1576,1577,1554,1552,0,0,0,0,0,0,0,0,0,0
1706182328.19976997,97428513,1576,1577,1554,1552,0,0,0,0,0,0,0,0,0,0
1706182328.29972982,97528473,1575,1576,1552,1552,0,0,0,0,0,0,0,0,0,0
1706182328.39968991,97628433,1575,1577,1551,1552,0,0,0,0,0,0,0,0,0,0
1706182328.49965000,97728393,1577,1578,1551,1551,0,0,0,0,0,0,0,0,0,0
1706182328.59960985,97828353,1577,1578,1548,1548,0,0,0,0,0,0,0,0,0,0
1706182328.69956994,97928313,1580,1581,1547,1548,0,0,0,0,0,0,0,0,0,0
1706182328.79953003,98028273,1581,1582,1545,1545,0,0,0,0,0,0,0,0,0,0
1706182328.89948988,98128233,1584,1585,1543,1543,0,0,0,0,0,0,0,0,0,0
1706182328.99944997,98228193,1587,1587,1542,1541,0,0,0,0,0,0,0,0,0,0
1706182329.10024285,98328986,1589,1589,1541,1540,0,0,0,0,0,0,0,0,0,0
1706182329.20020294,98428946,1591,1591,1540,1541,0,0,0,0,0,0,0,0,0,0
1706182329.30016303,98528906,1591,1591,1539,1540,0,0,0,0,0,0,0,0,0,0
1706182329.40012288,98628866,1591,1591,1539,1542,0,0,0,0,0,0,0,0,0,0
1706182329.50008297,98728826,1590,1590,1542,1545,0,0,0,0,0,0,0,0,0,0
1706182329.60004282,98828786,1588,1586,1547,1550,0,0,0,0,0,0,0,0,0,0
1706182329.70000291,98928746,1584,1580,1554,1557,0,0,0,0,0,0,0,0,0,0
1706182329.79996300,99028706,1577,1573,1563,1565,0,0,0,0,0,0,0,0,0,0
1706182329.89992285,99128666,1567,1564,1573,1575,0,0,0,0,0,0,0,0,0,0
1706182329.99988294,99228626,1558,1555,1584,1585,0,0,0,0,0,0,0,0,0,0
1706182330.09984303,99328586,1549,1546,1594,1594,0,0,0,0,0,0,0,0,0,0
1706182330.19980288,99428546,1541,1541,1602,1602,0,0,0,0,0,0,0,0,0,0
1706182330.29976296,99528506,1537,1538,1608,1608,0,0,0,0,0,0,0,0,0,0
1706182330.39972281,99628466,1536,1538,1610,1610,0,0,0,0,0,0,0,0,0,0
1706182330.49968290,99728426,1537,1539,1610,1609,0,0,0,0,0,0,0,0,0,0
1706182330.59964299,99828386,1542,1544,1607,1607,0,0,0,0,0,0,0,0,0,0
1706182330.69960284,99928346,1547,1549,1601,1601,0,0,0,0,0,0,0,0,0,0
1706182330.79956293,100028306,1554,1555,1595,1595,0,0,0,0,0,0,0,0,0,0
1706182330.89952302,100128266,1562,1563,1590,1589,0,0,0,0,0,0,0,0,0,0
1706182330.99948287,100228226,1570,1570,1584,1583,0,0,0,0,0,0,0,0,0,0
1706182331.09944296,100328186,1576,1574,1578,1577,0,0,0,0,0,0,0,0,0,0
1706182331.20023584,100428979,1581,1580,1574,1573,0,0,0,0,0,0,0,0,0,0
1706182331.30019593,100528939,1583,1582,1569,1570,0,0,0,0,0,0,0,0,0,0
1706182331.40015602,100628899,1585,1583,1567,1568,0,0,0,0,0,0,0,0,0,0
1706182331.50011587,100728859,1585,1584,1567,1569,0,0,0,0,0,0,0,0,0,0
1706182331.60007596,100828819,1585,1584,1569,1570,0,0,0,0,0,0,0,0,0,0
1706182331.70003581,100928779,1584,1583,1572,1572,0,0,0,0,0,0,0,0,0,0
1706182331.79999590,101028739,1582,1581,1574,1574,0,0,0,0,0,0,0,0,0,0
1706182331.89995599,101128699,1579,1579,1577,1577,0,0,0,0,0,0,0,0,0,0
1706182331.99991584,101228659,1576,1577,1579,1579,0,0,0,0,0,0,0,0,0,0
1706182332.09987593,101328619,1574,1575,1580,1580,0,0,0,0,0,0,0,0,0,0
1706182332.19983602,101428579,1573,1574,1582,1582,0,0,0,0,0,0,0,0,0,0
1706182332.29979587,101528539,1574,1574,1583,1583,0,0,0,0,0,0,0,0,0,0
1706182332.39975595,101628499,1573,1574,1583,1583,0,0,0,0,0,0,0,0,0,0
1706182332.49971581,101728459,1574,1574,1583,1583,0,0,0,0,0,0,0,0,0,0
1706182332.59967589,101828419,1575,1575,1582,1582,0,0,0,0,0,0,0,0,0,0
1706182332.69963598,101928379,1576,1576,1581,1581,0,0,0,0,0,0,0,0,0,0
1706182332.79959583,102028339,1577,1576,1580,1580,0,0,0,0,0,0,0,0,0,0
1706182332.89955592,102128299,1578,1578,1579,1579,0,0,0,0,0,0,0,0,0,0
1706182332.99951601,102228259,1579,1579,1578,1578,0,0,0,0,0,0,0,0,0,0
1706182333.09947586,102328219,1581,1580,1579,1578,0,0,0,0,0,0,0,0,0,0
1706182333.19943595,102428179,1581,1581,1578,1578,0,0,0,0,0,0,0,0,0,0
1706182333.30022883,102528972,1581,1581,1578,1578,0,0,0,0,0,0,0,0,0,0
1706182333.40018892,102628932,1579,1580,1576,1576,0,0,0,0,0,0,0,0,0,0
1706182333.50014901,102728892,1582,1581,1578,1578,0,0,0,0,0,0,0,0,0,0
1706182333.60010886,102828852,1581,1581,1578,1578,0,0,0,0,0,0,0,0,0,0
1706182333.70006895,102928812,1580,1580,1578,1578,0,0,0,0,0,0,0,0,0,0
1706182333.80002904,103028772,1580,1580,1579,1579,0,0,0,0,0,0,0,0,0,0
1706182333.89998889,103128732,1580,1580,1580,1580,0,0,0,0,0,0,0,0,0,0
1706182333.99994898,103228692,1581,1581,1581,1582,0,0,0,0,0,0,0,0,0,0
1706182334.09990883,103328652,1580,1580,1581,1581,0,0,0,0,0,0,0,0,0,0
1706182334.19986892,103428612,1580,1581,1582,1581,0,0,0,0,0,0,0,0,0,0
1706182334.29982901,103528572,1580,1580,1582,1582,0,0,0,0,0,0,0,0,0,0
1706182334.39978886,103628532,1581,1580,1582,1582,0,0,0,0,0,0,0,0,0,0
1706182334.49974895,103728492,1580,1579,1580,1581,0,0,0,0,0,0,0,0,0,0
1706182334.59970903,103828452,1581,1581,1581,1581,0,0,0,0,0,0,0,0,0,0
1706182334.69966888,103928412,1581,1581,1581,1581,0,0,0,0,0,0,0,0,0,0
1706182334.79962897,104028372,1580,1580,1580,1581,0,0,0,0,0,0,0,0,0,0
1706182334.89958882,104128332,1581,1581,1580,1580,0,0,0,0,0,0,0,0,0,0
1706182334.99954891,104228292,1581,1581,1581,1581,0,0,0,0,0,0,0,0,0,0
1706182335.09950900,104328252,1581,1582,1581,1581,0,0,0,0,0,0,0,0,0,0
1706182335.19946885,104428212,1582,1582,1582,1581,0,0,0,0,0,0,0,0,0,0
1706182335.29942894,104528172,1582,1582,1585,1578,0,0,0,0,0,0,0,0,0,0
1706182335.40022182,104628965,1581,1584,1587,1573,0,0,0,0,0,0,0,0,0,0
1706182335.50018191,104728925,1579,1582,1580,1572,0,0,0,0,0,0,0,0,0,0
1706182335.60014200,104828885,1579,1582,1572,1573,0,0,0,0,0,0,0,0,0,0
1706182335.70010185,104928845,1578,1580,1564,1570,0,0,0,0,0,0,0,0,0,0
1706182335.80006194,105028805,1578,1579,1558,1565,0,0,0,0,0,0,0,0,0,0
1706182335.90002203,105128765,1578,1579,1555,1560,0,0,0,0,0,0,0,0,0,0
1706182335.99998188,105228725,1580,1579,1555,1557,0,0,0,0,0,0,0,0,0,0
1706182336.09994197,105328685,1581,1579,1555,1555,0,0,0,0,0,0,0,0,0,0
1706182336.19990182,105428645,1579,1578,1556,1553,0,0,0,0,0,0,0,0,0,0
1706182336.29986191,105528605,1578,1578,1555,1553,0,0,0,0,0,0,0,0,0,0
1706182336.39982200,105628565,1576,1578,1555,1553,0,0,0,0,0,0,0,0,0,0
1706182336.49978185,105728525,1576,1577,1555,1554,0,0,0,0,0,0,0,0,0,0
1706182336.59974194,105828485,1575,1577,1554,1554,0,0,0,0,0,0,0,0,0,0
1706182336.69970202,105928445,1575,1577,1552,1553,0,0,0,0,0,0,0,0,0,0
1706182336.79966187,106028405,1575,1576,1550,1551,0,0,0,0,0,0,0,0,0,0
1706182336.89962196,106128365,1577,1578,1549,1550,0,0,0,0,0,0,0,0,0,0
1706182336.99958181,106228325,1579,1580,1547,1548,0,0,0,0,0,0,0,0,0,0
1706182337.09954190,106328285,1581,1582,1545,1545,0,0,0,0,0,0,0,0,0,0
1706182337.19950199,106428245,1584,1585,1544,1543,0,0,0,0,0,0,0,0,0,0
1706182337.29946184,106528205,1587,1587,1541,1540,0,0,0,0,0,0,0,0,0,0
1706182337.39942193,106628165,1589,1590,1539,1539,0,0,0,0,0,0,0,0,0,0
1706182337.50021482,106728958,1591,1591,1538,1538,0,0,0,0,0,0,0,0,0,0
1706182337.60017490,106828918,1592,1593,1537,1538,0,0,0,0,0,0,0,0,0,0
1706182337.70013499,106928878,1593,1593,1538,1540,0,0,0,0,0,0,0,0,0,0
1706182337.80009484,107028838,1592,1591,1539,1542,0,0,0,0,0,0,0,0,0,0
1706182337.90005493,107128798,1590,1588,1543,1547,0,0,0,0,0,0,0,0,0,0
1706182338.00001502,107228758,1585,1583,1551,1554,0,0,0,0,0,0,0,0,0,0
1706182338.09997487,107328718,1579,1575,1561,1563,0,0,0,0,0,0,0,0,0,0
1706182338.19993496,107428678,1570,1566,1571,1573,0,0,0,0,0,0,0,0,0,0
1706182338.29989481,107528638,1559,1556,1582,1584,0,0,0,0,0,0,0,0,0,0
1706182338.39985490,107628598,1549,1547,1593,1594,0,0,0,0,0,0,0,0,0,0
1706182338.49981499,107728558,1540,1539,1602,1602,0,0,0,0,0,0,0,0,0,0
1706182338.59977484,107828518,1535,1536,1609,1608,0,0,0,0,0,0,0,0,0,0
1706182338.69973493,107928478,1533,1535,1612,1611,0,0,0,0,0,0,0,0,0,0
1706182338.79969501,108028438,1534,1536,1611,1611,0,0,0,0,0,0,0,0,0,0
1706182338.89965487,108128398,1539,1541,1609,1609,0,0,0,0,0,0,0,0,0,0
1706182338.99961495,108228358,1544,1546,1604,1604,0,0,0,0,0,0,0,0,0,0
1706182339.09957504,108328318,1552,1553,1598,1597,0,0,0,0,0,0,0,0,0,0
1706182339.19953489,108428278,1561,1561,1591,1590,0,0,0,0,0,0,0,0,0,0
1706182339.29949498,108528238,1568,1567,1585,1583,0,0,0,0,0,0,0,0,0,0
1706182339.39945483,108628198,1575,1574,1578,1578,0,0,0,0,0,0,0,0,0,0
1706182339.49941492,108728158,1580,1579,1573,1573,0,0,0,0,0,0,0,0,0,0
1706182339.60020781,108828951,1584,1583,1570,1570,0,0,0,0,0,0,0,0,0,0
1706182339.70016789,108928911,1586,1585,1568,1569,0,0,0,0,0,0,0,0,0,0
1706182339.80012798,109028871,1586,1585,1568,1568,0,0,0,0,0,0,0,0,0,0
1706182339.90008783,109128831,1587,1585,1570,1569,0,0,0,0,0,0,0,0,0,0
1706182340.00004792,109228791,1585,1584,1571,1571,0,0,0,0,0,0,0,0,0,0
1706182340.10000801,109328751,1582,1582,1573,1573,0,0,0,0,0,0,0,0,0,0
1706182340.19996786,109428711,1579,1580,1576,1576,0,0,0,0,0,0,0,0,0,0
1706182340.29992795,109528671,1577,1577,1578,1578,0,0,0,0,0,0,0,0,0,0
1706182340.39988804,109628631,1575,1576,1581,1580,0,0,0,0,0,0,0,0,0,0
1706182340.49984789,109728591,1573,1574,1582,1582,0,0,0,0,0,0,0,0,0,0
1706182340.59980798,109828551,1573,1574,1584,1583,0,0,0,0,0,0,0,0,0,0
1706182340.69976783,109928511,1573,1573,1584,1584,0,0,0,0,0,0,0,0,0,0
1706182340.79972792,110028471,1574,1574,1583,1583,0,0,0,0,0,0,0,0,0,0
1706182340.89968801,110128431,1575,1575,1583,1583,0,0,0,0,0,0,0,0,0,0
1706182340.99964786,110228391,1574,1575,1581,1581,0,0,0,0,0,0,0,0,0,0
1706182341.09960794,110328351,1577,1577,1580,1581,0,0,0,0,0,0,0,0,0,0
1706182341.19956803,110428311,1578,1578,1579,1579,0,0,0,0,0,0,0,0,0,0
1706182341.29952788,110528271,1579,1578,1578,1578,0,0,0,0,0,0,0,0,0,0
1706182341.39948797,110628231,1580,1580,1578,1577,0,0,0,0,0,0,0,0,0,0
1706182341.49944782,110728191,1580,1580,1577,1577,0,0,0,0,0,0,0,0,0,0
1706182341.60024095,110828984,1581,1580,1576,1577,0,0,0,0,0,0,0,0,0,0
1706182341.70020103,110928944,1580,1579,1576,1576,0,0,0,0,0,0,0,0,0,0
1706182341.80016088,111028904,1581,1581,1577,1577,0,0,0,0,0,0,0,0,0,0
1706182341.90012097,111128864,1580,1580,1577,1578,0,0,0,0,0,0,0,0,0,0
1706182342.00008082,111228824,1580,1580,1578,1578,0,0,0,0,0,0,0,0,0,0
1706182342.10004091,111328784,1580,1580,1579,1579,0,0,0,0,0,0,0,0,0,0
1706182342.20000100,111428744,1580,1580,1580,1579,0,0,0,0,0,0,0,0,0,0
1706182342.29996085,111528704,1580,1581,1581,1581,0,0,0,0,0,0,0,0,0,0
1706182342.39992094,111628664,1580,1580,1582,1581,0,0,0,0,0,0,0,0,0,0
1706182342.49988103,111728624,1580,1580,1581,1581,0,0,0,0,0,0,0,0,0,0
1706182342.59984088,111828584,1579,1579,1581,1581,0,0,0,0,0,0,0,0,0,0
1706182342.69980097,111928544,1580,1579,1581,1582,0,0,0,0,0,0,0,0,0,0
1706182342.79976082,112028504,1579,1579,1580,1581,0,0,0,0,0,0,0,0,0,0
1706182342.89972091,112128464,1580,1580,1581,1581,0,0,0,0,0,0,0,0,0,0
1706182342.99968100,112228424,1581,1581,1582,1581,0,0,0,0,0,0,0,0,0,0
1706182343.09964085,112328384,1581,1582,1582,1582,0,0,0,0,0,0,0,0,0,0
1706182343.19960093,112428344,1582,1582,1582,1581,0,0,0,0,0,0,0,0,0,0
1706182343.29956102,112528304,1582,1583,1588,1573,0,0,0,0,0,0,0,0,0,0
1706182343.39952087,112628264,1581,1581,1585,1573,0,0,0,0,0,0,0,0,0,0
1706182343.49948096,112728224,1578,1578,1578,1575,0,0,0,0,0,0,0,0,0,0
1706182343.59944081,112828184,1575,1575,1571,1576,0,0,0,0,0,0,0,0,0,0
1706182343.70023394,112928977,1572,1571,1566,1573,0,0,0,0,0,0,0,0,0,0
1706182343.80019403,113028937,1570,1569,1565,1571,0,0,0,0,0,0,0,0,0,0
1706182343.90015388,113128897,1567,1567,1565,1568,0,0,0,0,0,0,0,0,0,0
1706182344.00011396,113228857,1566,1567,1566,1566,0,0,0,0,0,0,0,0,0,0
1706182344.10007381,113328817,1566,1566,1567,1565,0,0,0,0,0,0,0,0,0,0
1706182344.20003390,113428777,1566,1566,1568,1566,0,0,0,0,0,0,0,0,0,0
1706182344.29999399,113528737,1565,1565,1567,1565,0,0,0,0,0,0,0,0,0,0
1706182344.39995384,113628697,1564,1564,1566,1564,0,0,0,0,0,0,0,0,0,0
1706182344.49991393,113728657,1563,1564,1564,1564,0,0,0,0,0,0,0,0,0,0
1706182344.59987402,113828617,1563,1563,1563,1564,0,0,0,0,0,0,0,0,0,0
1706182344.69983387,113928577,1563,1562,1563,1564,0,0,0,0,0,0,0,0,0,0
1706182344.79979396,114028537,1562,1561,1562,1562,0,0,0,0,0,0,0,0,0,0
1706182344.89975381,114128497,1561,1561,1561,1561,0,0,0,0,0,0,0,0,0,0
1706182344.99971390,114228457,1561,1561,1561,1560,0,0,0,0,0,0,0,0,0,0
1706182345.09967399,114328417,1561,1561,1561,1561,0,0,0,0,0,0,0,0,0,0
1706182345.19963384,114428377,1560,1560,1560,1559,0,0,0,0,0,0,0,0,0,0
1706182345.29959393,114528337,1559,1559,1559,1559,0,0,0,0,0,0,0,0,0,0
1706182345.39955401,114628297,1558,1558,1559,1557,0,0,0,0,0,0,0,0,0,0
1706182345.49951386,114728257,1558,1558,1558,1557,0,0,0,0,0,0,0,0,0,0
1706182345.59947395,114828217,1559,1558,1559,1558,0,0,0,0,0,0,0,0,0,0
1706182345.69943404,114928177,1558,1558,1558,1558,0,0,0,0,0,0,0,0,0,0
1706182345.80022693,115028970,1558,1559,1559,1557,0,0,0,0,0,0,0,0,0,0
1706182345.90018702,115128930,1558,1558,1559,1557,0,0,0,0,0,0,0,0,0,0
1706182346.00014687,115228890,1559,1559,1561,1557,0,0,0,0,0,0,0,0,0,0
1706182346.10010695,115328850,1560,1560,1559,1560,0,0,0,0,0,0,0,0,0,0
1706182346.20006680,115428810,1560,1560,1558,1563,0,0,0,0,0,0,0,0,0,0
1706182346.30002689,115528770,1560,1561,1557,1564,0,0,0,0,0,0,0,0,0,0
1706182346.39998698,115628730,1561,1561,1558,1564,0,0,0,0,0,0,0,0,0,0
1706182346.49994683,115728690,1561,1561,1559,1563,0,0,0,0,0,0,0,0,0,0
1706182346.59990692,115828650,1560,1560,1560,1560,0,0,0,0,0,0,0,0,0,0
1706182346.69986701,115928610,1560,1560,1560,1560,0,0,0,0,0,0,0,0,0,0
1706182346.79982686,116028570,1558,1558,1557,1559,0,0,0,0,0,0,0,0,0,0
1706182346.89978695,116128530,1553,1553,1552,1554,0,0,0,0,0,0,0,0,0,0
1706182346.99974704,116228490,1548,1548,1548,1548,0,0,0,0,0,0,0,0,0,0
1706182347.09970689,116328450,1543,1543,1543,1543,0,0,0,0,0,0,0,0,0,0
1706182347.19966698,116428410,1536,1536,1536,1535,0,0,0,0,0,0,0,0,0,0
1706182347.29962683,116528370,1528,1529,1528,1528,0,0,0,0,0,0,0,0,0,0
1706182347.39958692,116628330,1521,1522,1521,1521,0,0,0,0,0,0,0,0,0,0
1706182347.49954700,116728290,1519,1519,1519,1520,0,0,0,0,0,0,0,0,0,0
1706182347.59950686,116828250,1519,1519,1520,1519,0,0,0,0,0,0,0,0,0,0
1706182347.69946694,116928210,1520,1521,1521,1521,0,0,0,0,0,0,0,0,0,0
1706182347.79942703,117028170,1523,1523,1523,1524,0,0,0,0,0,0,0,0,0,0
1706182347.90021992,117128963,1526,1526,1527,1527,0,0,0,0,0,0,0,0,0,0
1706182348.00018001,117228923,1531,1531,1532,1532,0,0,0,0,0,0,0,0,0,0
1706182348.10013986,117328883,1535,1536,1536,1536,0,0,0,0,0,0,0,0,0,0
1706182348.20009995,117428843,1538,1538,1539,1539,0,0,0,0,0,0,0,0,0,0
1706182348.30006003,117528803,1541,1541,1541,1541,0,0,0,0,0,0,0,0,0,0
1706182348.40001988,117628763,1542,1543,1543,1542,0,0,0,0,0,0,0,0,0,0
1706182348.49997997,117728723,1543,1544,1544,1543,0,0,0,0,0,0,0,0,0,0
1706182348.59993982,117828683,1545,1546,1546,1545,0,0,0,0,0,0,0,0,0,0
1706182348.69989991,117928643,1547,1547,1547,1547,0,0,0,0,0,0,0,0,0,0
1706182348.79986000,118028603,1547,1547,1546,1546,0,0,0,0,0,0,0,0,0,0
1706182348.89981985,118128563,1546,1546,1546,1546,0,0,0,0,0,0,0,0,0,0
1706182348.99977994,118228523,1546,1546,1546,1546,0,0,0,0,0,0,0,0,0,0
1706182349.09974003,118328483,1546,1546,1546,1546,0,0,0,0,0,0,0,0,0,0
1706182349.19969988,118428443,1546,1546,1546,1546,0,0,0,0,0,0,0,0,0,0
1706182349.29965997,118528403,1547,1547,1547,1547,0,0,0,0,0,0,0,0,0,0
1706182349.39961982,118628363,1546,1546,1546,1546,0,0,0,0,0,0,0,0,0,0
1706182349.49957991,118728323,1546,1545,1546,1545,0,0,0,0,0,0,0,0,0,0
1706182349.59954000,118828283,1544,1545,1545,1544,0,0,0,0,0,0,0,0,0,0
1706182349.69949985,118928243,1544,1545,1544,1544,0,0,0,0,0,0,0,0,0,0
1706182349.79945993,119028203,1544,1545,1544,1544,0,0,0,0,0,0,0,0,0,0
1706182349.89942002,119128163,1545,1544,1545,1545,0,0,0,0,0,0,0,0,0,0
1706182350.00021291,119228956,1545,1545,1545,1545,0,0,0,0,0,0,0,0,0,0
1706182350.10017300,119328916,1544,1544,1544,1544,0,0,0,0,0,0,0,0,0,0
1706182350.20013285,119428876,1544,1544,1544,1544,0,0,0,0,0,0,0,0,0,0
1706182350.30009294,119528836,1545,1544,1544,1545,0,0,0,0,0,0,0,0,0,0
1706182350.40005302,119628796,1544,1544,1544,1544,0,0,0,0,0,0,0,0,0,0
1706182350.50001287,119728756,1544,1544,1544,1544,0,0,0,0,0,0,0,0,0,0
1706182350.59997296,119828716,1544,1544,1544,1543,0,0,0,0,0,0,0,0,0,0
1706182350.69993281,119928676,1544,1544,1544,1543,0,0,0,0,0,0,0,0,0,0
1706182350.79989290,120028636,1544,1544,1544,1544,0,0,0,0,0,0,0,0,0,0
1706182350.89985299,120128596,1543,1543,1543,1543,0,0,0,0,0,0,0,0,0,0
1706182350.99981284,120228556,1543,1543,1543,1543,0,0,0,0,0,0,0,0,0,0
1706182351.09977293,120328516,1543,1543,1543,1543,0,0,0,0,0,0,0,0,0,0
1706182351.19973302,120428476,1543,1543,1543,1543,0,0,0,0,0,0,0,0,0,0
1706182351.29969287,120528436,1545,1544,1544,1544,0,0,0,0,0,0,0,0,0,0
1706182351.39965296,120628396,1544,1544,1544,1544,0,0,0,0,0,0,0,0,0,0
1706182351.49961281,120728356,1544,1544,1544,1544,0,0,0,0,0,0,0,0,0,0
1706182351.59957290,120828316,1544,1545,1545,1545,0,0,0,0,0,0,0,0,0,0
1706182351.69953299,120928276,1544,1544,1544,1544,0,0,0,0,0,0,0,0,0,0
1706182351.79949284,121028236,1545,1545,1545,1545,0,0,0,0,0,0,0,0,0,0
1706182351.89945292,121128196,1544,1543,1543,1543,0,0,0,0,0,0,0,0,0,0
1706182351.99941301,121228156,1544,1544,1544,1544,0,0,0,0,0,0,0,0,0,0
1706182352.10020590,121328949,1543,1543,1543,1543,0,0,0,0,0,0,0,0,0,0
1706182352.20016599,121428909,1544,1543,1543,1543,0,0,0,0,0,0,0,0,0,0
1706182352.30012584,121528869,1543,1543,1543,1543,0,0,0,0,0,0,0,0,0,0
1706182352.40008593,121628829,1543,1543,1543,1543,0,0,0,0,0,0,0,0,0,0
1706182352.50004601,121728789,1543,1544,1544,1544,0,0,0,0,0,0,0,0,0,0
1706182352.60000587,121828749,1543,1544,1543,1544,0,0,0,0,0,0,0,0,0,0
1706182352.69996595,121928709,1544,1544,1544,1544,0,0,0,0,0,0,0,0,0,0
1706182352.79992604,122028669,1545,1545,1545,1545,0,0,0,0,0,0,0,0,0,0
1706182352.89988589,122128629,1545,1544,1544,1545,0,0,0,0,0,0,0,0,0,0
1706182352.99984598,122228589,1544,1544,1544,1544,0,0,0,0,0,0,0,0,0,0
1706182353.09980583,122328549,1545,1545,1545,1545,0,0,0,0,0,0,0,0,0,0
1706182353.19976592,122428509,1544,1545,1545,1544,0,0,0,0,0,0,0,0,0,0
1706182353.29972601,122528469,1545,1545,1545,1545,0,0,0,0,0,0,0,0,0,0
1706182353.39968586,122628429,1544,1545,1544,1545,0,0,0,0,0,0,0,0,0,0
1706182353.49964595,122728389,1545,1545,1544,1545,0,0,0,0,0,0,0,0,0,0
1706182353.59960604,122828349,1544,1545,1545,1545,0,0,0,0,0,0,0,0,0,0
1706182353.69956589,122928309,1545,1544,1544,1545,0,0,0,0,0,0,0,0,0,0
1706182353.79952598,123028269,1545,1545,1545,1544,0,0,0,0,0,0,0,0,0,0
1706182353.89948583,123128229,1544,1544,1544,1544,0,0,0,0,0,0,0,0,0,0
1706182353.99944592,123228189,1545,1545,1545,1545,0,0,0,0,0,0,0,0,0,0
1706182354.10023904,123328982,1545,1545,1545,1545,0,0,0,0,0,0,0,0,0,0
1706182354.20019889,123428942,1544,1544,1544,1544,0,0,0,0,0,0,0,0,0,0
1706182354.30015898,123528902,1544,1544,1544,1544,0,0,0,0,0,0,0,0,0,0
1706182354.40011883,123628862,1544,1544,1544,1544,0,0,0,0,0,0,0,0,0,0
1706182354.50007892,123728822,1543,1543,1543,1543,0,0,0,0,0,0,0,0,0,0
1706182354.60003901,123828782,1544,1545,1545,1544,0,0,0,0,0,0,0,0,0,0
1706182354.69999886,123928742,1544,1543,1544,1544,0,0,0,0,0,0,0,0,0,0
1706182354.79995894,124028702,1544,1545,1544,1545,0,0,0,0,0,0,0,0,0,0
1706182354.89991903,124128662,1545,1545,1544,1545,0,0,0,0,0,0,0,0,0,0
1706182354.99987888,124228622,1545,1545,1545,1545,0,0,0,0,0,0,0,0,0,0
1706182355.09983897,124328582,1545,1544,1544,1544,0,0,0,0,0,0,0,0,0,0
1706182355.19979882,124428542,1544,1544,1544,1544,0,0,0,0,0,0,0,0,0,0
1706182355.29975891,124528502,1544,1544,1545,1544,0,0,0,0,0,0,0,0,0,0
1706182355.39971900,124628462,1545,1545,1545,1545,0,0,0,0,0,0,0,0,0,0
1706182355.49967885,124728422,1544,1544,1544,1545,0,0,0,0,0,0,0,0,0,0
1706182355.59963894,124828382,1544,1544,1544,1544,0,0,0,0,0,0,0,0,0,0
1706182355.69959903,124928342,1545,1545,1545,1545,0,0,0,0,0,0,0,0,0,0
1706182355.79955888,125028302,1544,1544,1545,1544,0,0,0,0,0,0,0,0,0,0
1706182355.89951897,125128262,1545,1545,1545,1545,0,0,0,0,0,0,0,0,0,0
1706182355.99947882,125228222,1544,1545,1544,1544,0,0,0,0,0,0,0,0,0,0
1706182356.09943891,125328182,1545,1545,1545,1544,0,0,0,0,0,0,0,0,0,0
1706182356.20023203,125428975,1545,1545,1545,1545,0,0,0,0,0,0,0,0,0,0
1706182356.30019188,125528935,1544,1544,1544,1544,0,0,0,0,0,0,0,0,0,0
1706182356.40015197,125628895,1544,1544,1544,1544,0,0,0,0,0,0,0,0,0,0
1706182356.50011182,125728855,1544,1544,1544,1545,0,0,0,0,0,0,0,0,0,0
1706182356.60007191,125828815,1545,1545,1545,1545,0,0,0,0,0,0,0,0,0,0
1706182356.70003200,125928775,1545,1544,1545,1545,0,0,0,0,0,0,0,0,0,0
1706182356.79999185,126028735,1544,1544,1544,1544,0,0,0,0,0,0,0,0,0,0
1706182356.89995193,126128695,1544,1544,1544,1544,0,0,0,0,0,0,0,0,0,0
1706182356.99991202,126228655,1543,1544,1544,1544,0,0,0,0,0,0,0,0,0,0
1706182357.09987187,126328615,1545,1545,1545,1545,0,0,0,0,0,0,0,0,0,0
1706182357.19983196,126428575,1427,1421,1420,1420,0,0,0,0,0,0,0,0,0,0
1706182357.29979181,126528535,1298,1276,1276,1277,0,0,0,0,0,0,0,0,0,0
1706182357.39975190,126628495,1249,1222,1222,1221,0,0,0,0,0,0,0,0,0,0
1706182357.49971199,126728455,1231,1201,1201,1201,0,0,0,0,0,0,0,0,0,0
1706182357.59967184,126828415,1201,1168,1167,1166,0,0,0,0,0,0,0,0,0,0
1706182357.69963193,126928375,1188,1150,1150,1150,0,0,0,0,0,0,0,0,0,0
1706182357.79959202,127028335,1187,1151,1150,1150,0,0,0,0,0,0,0,0,0,0
1706182357.89955187,127128295,1190,1150,1150,1153,0,0,0,0,0,0,0,0,0,0
1706182357.99951196,127228255,1222,1150,1150,1190,0,0,0,0,0,0,0,0,0,0
1706182358.09947181,127328215,1211,1150,1150,1178,0,0,0,0,0,0,0,0,0,0
1706182358.19943190,127428175,1208,1150,1150,1175,0,0,0,0,0,0,0,0,0,0
1706182358.30022502,127528968,1210,1150,1150,1177,0,0,0,0,0,0,0,0,0,0
1706182358.40018487,127628928,1211,1150,1150,1178,0,0,0,0,0,0,0,0,0,0
1706182358.50014496,127728888,1213,1150,1150,1181,0,0,0,0,0,0,0,0,0,0
1706182358.60010481,127828848,1215,1150,1150,1183,0,0,0,0,0,0,0,0,0,0
1706182358.70006490,127928808,1199,1150,1151,1164,0,0,0,0,0,0,0,0,0,0
1706182358.80002499,128028768,1203,1150,1151,1169,0,0,0,0,0,0,0,0,0,0
1706182358.89998484,128128728,1204,1150,1151,1170,0,0,0,0,0,0,0,0,0,0
1706182358.99994493,128228688,1205,1150,1151,1171,0,0,0,0,0,0,0,0,0,0
1706182359.09990501,128328648,1206,1150,1151,1172,0,0,0,0,0,0,0,0,0,0
1706182359.19986486,128428608,1104,1150,1150,1150,0,0,0,0,0,0,0,0,0,0
1706182359.29982495,128528568,1000,1000,1000,1000,0,0,0,0,0,0,0,0,0,0
1706182359.39978504,128628528,1000,1000,1000,1000,0,0,0,0,0,0,0,0,0,0
1706182359.49974489,128728488,1000,1000,1000,1000,0,0,0,0,0,0,0,0,0,0
1706182359.59970498,128828448,1000,1000,1000,1000,0,0,0,0,0,0,0,0,0,0
1706182359.69966483,128928408,1000,1000,1000,1000,0,0,0,0,0,0,0,0,0,0
1706182359.79962492,129028368,1000,1000,1000,1000,0,0,0,0,0,0,0,0,0,0
1706182359.89958501,129128328,1000,1000,1000,1000,0,0,0,0,0,0,0,0,0,0
1706182359.99954486,129228288,1000,1000,1000,1000,0,0,0,0,0,0,0,0,0,0
1706182360.09950495,129328248,1000,1000,1000,1000,0,0,0,0,0,0,0,0,0,0
1706182360.19946504,129428208,1000,1000,1000,1000,0,0,0,0,0,0,0,0,0,0
1706182360.29942489,129528168,1000,1000,1000,1000,0,0,0,0,0,0,0,0,0,0
1706182360.40021801,129628961,1000,1000,1000,1000,0,0,0,0,0,0,0,0,0,0
1706182360.50017786,129728921,1000,1000,1000,1000,0,0,0,0,0,0,0,0,0,0
1706182360.60013795,129828881,1000,1000,1000,1000,0,0,0,0,0,0,0,0,0,0
1706182360.70009804,129928841,1000,1000,1000,1000,0,0,0,0,0,0,0,0,0,0
1706182360.80005789,130028801,1000,1000,1000,1000,0,0,0,0,0,0,0,0,0,0
1706182360.90001798,130128761,1000,1000,1000,1000,0,0,0,0,0,0,0,0,0,0
1706182360.99997783,130228721,1000,1000,1000,1000,0,0,0,0,0,0,0,0,0,0
1706182361.09993792,130328681,1000,1000,1000,1000,0,0,0,0,0,0,0,0,0,0
1706182361.19989800,130428641,1000,1000,1000,1000,0,0,0,0,0,0,0,0,0,0
1706182361.29985785,130528601,1000,1000,1000,1000,0,0,0,0,0,0,0,0,0,0
1706182361.39981794,130628561,1000,1000,1000,1000,0,0,0,0,0,0,0,0,0,0
1706182361.49977803,130728521,1000,1000,1000,1000,0,0,0,0,0,0,0,0,0,0
1706182361.59973788,130828481,1000,1000,1000,1000,0,0,0,0,0,0,0,0,0,0
1706182361.69969797,130928441,1000,1000,1000,1000,0,0,0,0,0,0,0,0,0,0
1706182361.79965782,131028401,1000,1000,1000,1000,0,0,0,0,0,0,0,0,0,0
1706182361.89961791,131128361,1000,1000,1000,1000,0,0,0,0,0,0,0,0,0,0
1706182361.99957800,131228321,1000,1000,1000,1000,0,0,0,0,0,0,0,0,0,0
1706182362.09953785,131328281,1000,1000,1000,1000,0,0,0,0,0,0,0,0,0,0
1706182362.19949794,131428241,1000,1000,1000,1000,0,0,0,0,0,0,0,0,0,0
1706182362.29945803,131528201,1000,1000,1000,1000,0,0,0,0,0,0,0,0,0,0
1706182362.39941788,131628161,1000,1000,1000,1000,0,0,0,0,0,0,0,0,0,0
1706182362.50021100,131728954,1000,1000,1000,1000,0,0,0,0,0,0,0,0,0,0
1706182362.60017085,131828914,1000,1000,1000,1000,0,0,0,0,0,0,0,0,0,0
1706182362.70013094,131928874,1000,1000,1000,1000,0,0,0,0,0,0,0,0,0,0
1706182362.80009103,132028834,1000,1000,1000,1000,0,0,0,0,0,0,0,0,0,0
1706182362.90005088,132128794,1000,1000,1000,1000,0,0,0,0,0,0,0,0,0,0
1706182363.00001097,132228754,1000,1000,1000,1000,0,0,0,0,0,0,0,0,0,0
1706182363.09997082,132328714,1000,1000,1000,1000,0,0,0,0,0,0,0,0,0,0
1706182363.19993091,132428674,1000,1000,1000,1000,0,0,0,0,0,0,0,0,0,0
1706182363.29989100,132528634,1000,1000,1000,1000,0,0,0,0,0,0,0,0,0,0
1706182363.39985085,132628594,1000,1000,1000,1000,0,0,0,0,0,0,0,0,0,0
1706182363.49981093,132728554,1000,1000,1000,1000,0,0,0,0,0,0,0,0,0,0
1706182363.59977102,132828514,1000,1000,1000,1000,0,0,0,0,0,0,0,0,0,0
1706182363.69973087,132928474,1000,1000,1000,1000,0,0,0,0,0,0,0,0,0,0
1706182363.79969096,133028434,1000,1000,1000,1000,0,0,0,0,0,0,0,0,0,0
1706182363.89965081,133128394,1000,1000,1000,1000,0,0,0,0,0,0,0,0,0,0
1706182363.99961090,133228354,1000,1000,1000,1000,0,0,0,0,0,0,0,0,0,0
1706182364.09957099,133328314,1000,1000,1000,1000,0,0,0,0,0,0,0,0,0,0
1706182364.19953084,133428274,1000,1000,1000,1000,0,0,0,0,0,0,0,0,0,0
1706182364.29949093,133528234,1000,1000,1000,1000,0,0,0,0,0,0,0,0,0,0
1706182364.39945102,133628194,1000,1000,1000,1000,0,0,0,0,0,0,0,0,0,0
1706182364.49941087,133728154,1000,1000,1000,1000,0,0,0,0,0,0,0,0,0,0
1706182364.60020399,133828947,1000,1000,1000,1000,0,0,0,0,0,0,0,0,0,0
1706182364.70016384,133928907,1000,1000,1000,1000,0,0,0,0,0,0,0,0,0,0
1706182364.80012393,134028867,1000,1000,1000,1000,0,0,0,0,0,0,0,0,0,0
1706182364.90008402,134128827,1000,1000,1000,1000,0,0,0,0,0,0,0,0,0,0
1706182365.00004387,134228787,1000,1000,1000,1000,0,0,0,0,0,0,0,0,0,0
1706182365.10000396,134328747,1000,1000,1000,1000,0,0,0,0,0,0,0,0,0,0
1706182365.19996381,134428707,1000,1000,1000,1000,0,0,0,0,0,0,0,0,0,0
1706182365.29992390,134528667,1000,1000,1000,1000,0,0,0,0,0,0,0,0,0,0
1706182365.39988399,134628627,1000,1000,1000,1000,0,0,0,0,0,0,0,0,0,0
1706182365.49984384,134728587,1000,1000,1000,1000,0,0,0,0,0,0,0,0,0,0
1706182365.59980392,134828547,1000,1000,1000,1000,0,0,0,0,0,0,0,0,0,0
1706182365.69976401,134928507,1000,1000,1000,1000,0,0,0,0,0,0,0,0,0,0
1706182365.79972386,135028467,1000,1000,1000,1000,0,0,0,0,0,0,0,0,0,0
1706182365.89968395,135128427,1000,1000,1000,1000,0,0,0,0,0,0,0,0,0,0
1706182365.99964404,135228387,1000,1000,1000,1000,0,0,0,0,0,0,0,0,0,0
1706182366.09960389,135328347,1000,1000,1000,1000,0,0,0,0,0,0,0,0,0,0
1706182366.19956398,135428307,1000,1000,1000,1000,0,0,0,0,0,0,0,0,0,0
1706182366.29952383,135528267,1000,1000,1000,1000,0,0,0,0,0,0,0,0,0,0
1706182366.39948392,135628227,1000,1000,1000,1000,0,0,0,0,0,0,0,0,0,0
1706182366.49944401,135728187,1000,1000,1000,1000,0,0,0,0,0,0,0,0,0,0
1706182366.60023689,135828980,1000,1000,1000,1000,0,0,0,0,0,0,0,0,0,0
1706182366.70019698,135928940,1000,1000,1000,1000,0,0,0,0,0,0,0,0,0,0
1706182366.80015683,136028900,1000,1000,1000,1000,0,0,0,0,0,0,0,0,0,0
1706182366.90011692,136128860,1000,1000,1000,1000,0,0,0,0,0,0,0,0,0,0
1706182367.00007701,136228820,1000,1000,1000,1000,0,0,0,0,0,0,0,0,0,0
1706182367.10003686,136328780,1000,1000,1000,1000,0,0,0,0,0,0,0,0,0,0
1706182367.19999695,136428740,1000,1000,1000,1000,0,0,0,0,0,0,0,0,0,0
1706182367.29995704,136528700,1000,1000,1000,1000,0,0,0,0,0,0,0,0,0,0
1706182367.39991689,136628660,1000,1000,1000,1000,0,0,0,0,0,0,0,0,0,0
1706182367.49987698,136728620,1000,1000,1000,1000,0,0,0,0,0,0,0,0,0,0
1706182367.59983683,136828580,1000,1000,1000,1000,0,0,0,0,0,0,0,0,0,0
1706182367.69979692,136928540,1000,1000,1000,1000,0,0,0,0,0,0,0,0,0,0
1706182367.79975700,137028500,1000,1000,1000,1000,0,0,0,0,0,0,0,0,0,0
1706182367.89971685,137128460,1000,1000,1000,1000,0,0,0,0,0,0,0,0,0,0
1706182367.99967694,137228420,1000,1000,1000,1000,0,0,0,0,0,0,0,0,0,0
1706182368.09963703,137328380,1000,1000,1000,1000,0,0,0,0,0,0,0,0,0,0
1706182368.19959688,137428340,1000,1000,1000,1000,0,0,0,0,0,0,0,0,0,0
1706182368.29955697,137528300,1000,1000,1000,1000,0,0,0,0,0,0,0,0,0,0
1706182368.39951682,137628260,1000,1000,1000,1000,0,0,0,0,0,0,0,0,0,0
1706182368.49947691,137728220,1000,1000,1000,1000,0,0,0,0,0,0,0,0,0,0
1706182368.59943700,137828180,1000,1000,1000,1000,0,0,0,0,0,0,0,0,0,0
1706182368.70022988,137928973,1000,1000,1000,1000,0,0,0,0,0,0,0,0,0,0
1706182368.80018997,138028933,1000,1000,1000,1000,0,0,0,0,0,0,0,0,0,0
1706182368.90014982,138128893,1000,1000,1000,1000,0,0,0,0,0,0,0,0,0,0
1706182369.00010991,138228853,1000,1000,1000,1000,0,0,0,0,0,0,0,0,0,0
1706182369.10007000,138328813,1000,1000,1000,1000,0,0,0,0,0,0,0,0,0,0
1706182369.20002985,138428773,1000,1000,1000,1000,0,0,0,0,0,0,0,0,0,0
1706182369.29998994,138528733,1000,1000,1000,1000,0,0,0,0,0,0,0,0,0,0
1706182369.39995003,138628693,1000,1000,1000,1000,0,0,0,0,0,0,0,0,0,0
1706182369.49990988,138728653,1000,1000,1000,1000,0,0,0,0,0,0,0,0,0,0
1706182369.59986997,138828613,1000,1000,1000,1000,0,0,0,0,0,0,0,0,0,0
1706182369.69982982,138928573,1000,1000,1000,1000,0,0,0,0,0,0,0,0,0,0
1706182369.79978991,139028533,1000,1000,1000,1000,0,0,0,0,0,0,0,0,0,0
1706182369.89974999,139128493,1000,1000,1000,1000,0,0,0,0,0,0,0,0,0,0
1706182369.99970984,139228453,1000,1000,1000,1000,0,0,0,0,0,0,0,0,0,0
1706182370.09966993,139328413,1000,1000,1000,1000,0,0,0,0,0,0,0,0,0,0
1706182370.19963002,139428373,1000,1000,1000,1000,0,0,0,0,0,0,0,0,0,0
1706182370.29958987,139528333,1000,1000,1000,1000,0,0,0,0,0,0,0,0,0,0
1706182370.39954996,139628293,1000,1000,1000,1000,0,0,0,0,0,0,0,0,0,0
1706182370.49950981,139728253,1000,1000,1000,1000,0,0,0,0,0,0,0,0,0,0
1706182370.59946990,139828213,1000,1000,1000,1000,0,0,0,0,0,0,0,0,0,0
1706182370.69942999,139928173,1000,1000,1000,1000,0,0,0,0,0,0,0,0,0,0
1706182370.80022287,140028966,1000,1000,1000,1000,0,0,0,0,0,0,0,0,0,0
1706182370.90018296,140128926,1000,1000,1000,1000,0,0,0,0,0,0,0,0,0,0
1706182371.00014281,140228886,1000,1000,1000,1000,0,0,0,0,0,0,0,0,0,0
1706182371.10010290,140328846,1000,1000,1000,1000,0,0,0,0,0,0,0,0,0,0
1706182371.20006299,140428806,1000,1000,1000,1000,0,0,0,0,0,0,0,0,0,0
1706182371.30002284,140528766,1000,1000,1000,1000,0,0,0,0,0,0,0,0,0,0
1706182371.39998293,140628726,1000,1000,1000,1000,0,0,0,0,0,0,0,0,0,0
1706182371.49994302,140728686,1000,1000,1000,1000,0,0,0,0,0,0,0,0,0,0
1706182371.59990287,140828646,1000,1000,1000,1000,0,0,0,0,0,0,0,0,0,0
1706182371.69986296,140928606,1000,1000,1000,1000,0,0,0,0,0,0,0,0,0,0
1706182371.79982281,141028566,1000,1000,1000,1000,0,0,0,0,0,0,0,0,0,0
1706182371.89978290,141128526,1000,1000,1000,1000,0,0,0,0,0,0,0,0,0,0
1706182371.99974298,141228486,1000,1000,1000,1000,0,0,0,0,0,0,0,0,0,0
1706182372.09970284,141328446,1000,1000,1000,1000,0,0,0,0,0,0,0,0,0,0
1706182372.19966292,141428406,1000,1000,1000,1000,0,0,0,0,0,0,0,0,0,0
1706182372.29962301,141528366,1000,1000,1000,1000,0,0,0,0,0,0,0,0,0,0
1706182372.39958286,141628326,1000,1000,1000,1000,0,0,0,0,0,0,0,0,0,0
1706182372.49954295,141728286,1000,1000,1000,1000,0,0,0,0,0,0,0,0,0,0
1706182372.59950304,141828246,1000,1000,1000,1000,0,0,0,0,0,0,0,0,0,0
1706182372.69946289,141928206,1000,1000,1000,1000,0,0,0,0,0,0,0,0,0,0
