TimeUS,M1,M2,M3,M4,TimeUS,C1,C2,C3,C4
94198972,1000,1000,1000,1000,94228960,1000,1000,1000,1000
94201471,1000,1000,1000,1000,94328920,1000,1000,1000,1000
94203970,1000,1000,1000,1000,94428880,1000,1000,1000,1000
94206469,1000,1000,1000,1000,94528840,1000,1000,1000,1000
94208968,1000,1000,1000,1000,94628800,1000,1000,1000,1000
94211467,1000,1000,1000,1000,94728760,1000,1000,1000,1000
94213966,1000,1000,1000,1000,94828720,1000,1000,1000,1000
94216465,1000,1000,1000,1000,94928680,1000,1000,1000,1000
94218964,1000,1000,1000,1000,95028640,1000,1000,1000,1000
94221463,1000,1000,1000,1000,95128600,1000,1000,1000,1000
94223962,1000,1000,1000,1000,95228560,1000,1000,1000,1000
94226461,1000,1000,1000,1000,95328520,1000,1000,1000,1000
94228960,1000,1000,1000,1000,95428480,1000,1000,1000,1000
94231459,1000,1000,1000,1000,95528440,1000,1000,1000,1000
94233958,1000,1000,1000,1000,95628400,1000,1000,1000,1000
94236457,1000,1000,1000,1000,95728360,1000,1000,1000,1000
94238956,1000,1000,1000,1000,95828320,1000,1000,1000,1000
94241455,1000,1000,1000,1000,95928280,1000,1000,1000,1000
94243954,1000,1000,1000,1000,96028240,1000,1000,1000,1000
94246453,1000,1000,1000,1000,96128200,1000,1000,1000,1000
94248952,1000,1000,1000,1000,96228160,1009,1009,1009,1009
94251451,1000,1000,1000,1000,96328953,1039,1039,1039,1039
94253950,1000,1000,1000,1000,96428913,1069,1069,1069,1069
94256449,1000,1000,1000,1000,96528873,1099,1099,1099,1099
94258948,1000,1000,1000,1000,96628833,1128,1128,1128,1128
94261447,1000,1000,1000,1000,96728793,1239,1225,1226,1239
94263946,1000,1000,1000,1000,96828753,1460,1450,1451,1460
94266445,1000,1000,1000,1000,96928713,1628,1619,1620,1628
94268944,1000,1000,1000,1000,97028673,1768,1760,1761,1768
94271443,1000,1000,1000,1000,97128633,1815,1807,1807,1816
94273942,1000,1000,1000,1000,97228593,1846,1839,1839,1847
94276441,1000,1000,1000,1000,97328553,1766,1762,1763,1765
94278940,1000,1000,1000,1000,97428513,1644,1646,1646,1645
94281439,1000,1000,1000,1000,97528473,1600,1604,1603,1601
94283938,1000,1000,1000,1000,97628433,1611,1615,1615,1611
94286437,1000,1000,1000,1000,97728393,1631,1634,1634,1631
94288936,1000,1000,1000,1000,97828353,1640,1642,1641,1640
94291435,1000,1000,1000,1000,97928313,1639,1639,1638,1639
94293934,1000,1000,1000,1000,98028273,1632,1631,1631,1632
94296433,1000,1000,1000,1000,98128233,1627,1625,1625,1626
94298932,1000,1000,1000,1000,98228193,1625,1624,1624,1625
94301431,1000,1000,1000,1000,98328986,1612,1615,1614,1612
94303930,1000,1000,1000,1000,98428946,1586,1586,1586,1586
94306429,1000,1000,1000,1000,98528906,1584,1582,1576,1590
94308928,1000,1000,1000,1000,98628866,1579,1578,1570,1586
94311427,1000,1000,1000,1000,98728826,1577,1575,1571,1580
94313926,1000,1000,1000,1000,98828786,1575,1576,1575,1576
94316425,1000,1000,1000,1000,98928746,1577,1578,1579,1575
94318924,1000,1000,1000,1000,99028706,1579,1580,1584,1575
94321423,1000,1000,1000,1000,99128666,1568,1568,1578,1558
94323922,1000,1000,1000,1000,99228626,1556,1557,1570,1544
94326421,1000,1000,1000,1000,99328586,1548,1549,1554,1545
94328920,1000,1000,1000,1000,99428546,1540,1539,1536,1544
94331419,1000,1000,1000,1000,99528506,1536,1535,1528,1544
94333918,1000,1000,1000,1000,99628466,1534,1533,1526,1542
94336417,1000,1000,1000,1000,99728426,1534,1533,1528,1540
94338916,1000,1000,1000,1000,99828386,1536,1536,1534,1537
94341415,1000,1000,1000,1000,99928346,1539,1538,1540,1536
94343914,1000,1000,1000,1000,100028306,1542,1542,1546,1538
94346413,1000,1000,1000,1000,100128266,1546,1546,1550,1542
94348912,1000,1000,1000,1000,100228226,1549,1549,1551,1546
94351411,1000,1000,1000,1000,100328186,1551,1552,1552,1551
94353910,1000,1000,1000,1000,100428979,1552,1551,1553,1556
94356409,1000,1000,1000,1000,100528939,1551,1551,1557,1561
94358908,1000,1000,1000,1000,100628899,1552,1552,1558,1562
94361407,1000,1000,1000,1000,100728859,1556,1556,1561,1563
94363906,1000,1000,1000,1000,100828819,1559,1559,1562,1563
94366405,1000,1000,1000,1000,100928779,1562,1562,1563,1563
94368904,1000,1000,1000,1000,101028739,1565,1565,1564,1563
94371403,1000,1000,1000,1000,101128699,1568,1568,1565,1565
94373902,1000,1000,1000,1000,101228659,1570,1569,1566,1565
94376401,1000,1000,1000,1000,101328619,1571,1571,1566,1566
94378900,1000,1000,1000,1000,101428579,1573,1573,1568,1568
94381399,1000,1000,1000,1000,101528539,1572,1572,1568,1568
94383898,1000,1000,1000,1000,101628499,1574,1573,1570,1570
94386397,1000,1000,1000,1000,101728459,1573,1573,1570,1571
94388896,1000,1000,1000,1000,101828419,1573,1573,1572,1572
94391395,1000,1000,1000,1000,101928379,1573,1574,1574,1572
94393894,1000,1000,1000,1000,102028339,1574,1574,1575,1573
94396393,1000,1000,1000,1000,102128299,1575,1575,1577,1575
94398892,1000,1000,1000,1000,102228259,1575,1575,1577,1576
94401391,1000,1000,1000,1000,102328219,1576,1576,1577,1577
94403890,1000,1000,1000,1000,102428179,1575,1575,1576,1577
94406389,1000,1000,1000,1000,102528972,1576,1576,1577,1577
94408888,1000,1000,1000,1000,102628932,1575,1575,1576,1576
94411387,1000,1000,1000,1000,102728892,1576,1576,1576,1576
94413886,1000,1000,1000,1000,102828852,1576,1576,1576,1576
94416385,1000,1000,1000,1000,102928812,1578,1577,1577,1577
94418884,1000,1000,1000,1000,103028772,1578,1578,1578,1578
94421383,1000,1000,1000,1000,103128732,1578,1578,1577,1577
94423882,1000,1000,1000,1000,103228692,1578,1578,1578,1578
94426381,1000,1000,1000,1000,103328652,1578,1578,1577,1577
94428880,1000,1000,1000,1000,103428612,1579,1579,1579,1579
94431379,1000,1000,1000,1000,103528572,1579,1579,1579,1579
94433878,1000,1000,1000,1000,103628532,1579,1579,1579,1579
94436377,1000,1000,1000,1000,103728492,1579,1579,1579,1579
94438876,1000,1000,1000,1000,103828452,1578,1579,1579,1578
94441375,1000,1000,1000,1000,103928412,1578,1578,1578,1578
94443874,1000,1000,1000,1000,104028372,1578,1578,1578,1579
94446373,1000,1000,1000,1000,104128332,1578,1579,1579,1579
94448872,1000,1000,1000,1000,104228292,1578,1578,1578,1579
94451371,1000,1000,1000,1000,104328252,1578,1578,1579,1579
94453870,1000,1000,1000,1000,104428212,1578,1578,1579,1579
94456369,1000,1000,1000,1000,104528172,1579,1579,1579,1579
94458868,1000,1000,1000,1000,104628965,1579,1579,1580,1579
94461367,1000,1000,1000,1000,104728925,1580,1580,1580,1580
94463866,1000,1000,1000,1000,104828885,1580,1580,1580,1580
94466365,1000,1000,1000,1000,104928845,1580,1579,1579,1580
94468864,1000,1000,1000,1000,105028805,1580,1580,1580,1580
94471363,1000,1000,1000,1000,105128765,1579,1579,1579,1579
94473862,1000,1000,1000,1000,105228725,1580,1580,1580,1580
94476361,1000,1000,1000,1000,105328685,1580,1579,1579,1579
94478860,1000,1000,1000,1000,105428645,1581,1581,1581,1580
94481359,1000,1000,1000,1000,105528605,1580,1580,1580,1580
94483858,1000,1000,1000,1000,105628565,1580,1580,1580,1580
94486357,1000,1000,1000,1000,105728525,1580,1580,1580,1580
94488856,1000,1000,1000,1000,105828485,1580,1581,1580,1581
94491355,1000,1000,1000,1000,105928445,1580,1580,1580,1581
94493854,1000,1000,1000,1000,106028405,1580,1580,1580,1581
94496353,1000,1000,1000,1000,106128365,1580,1580,1581,1580
94498852,1000,1000,1000,1000,106228325,1580,1580,1580,1580
94501351,1000,1000,1000,1000,106328285,1580,1580,1580,1580
94503850,1000,1000,1000,1000,106428245,1581,1581,1581,1581
94506349,1000,1000,1000,1000,106528205,1582,1582,1582,1582
94508848,1000,1000,1000,1000,106628165,1582,1582,1582,1582
94511347,1000,1000,1000,1000,106728958,1581,1582,1585,1578
94513846,1000,1000,1000,1000,106828918,1580,1583,1588,1573
94516345,1000,1000,1000,1000,106928878,1579,1582,1581,1573
94518844,1000,1000,1000,1000,107028838,1577,1581,1572,1572
94521343,1000,1000,1000,1000,107128798,1577,1579,1564,1570
94523842,1000,1000,1000,1000,107228758,1577,1579,1558,1565
94526341,1000,1000,1000,1000,107328718,1579,1579,1556,1561
94528840,1000,1000,1000,1000,107428678,1579,1578,1555,1557
94531339,1000,1000,1000,1000,107528638,1580,1578,1555,1555
94533838,1000,1000,1000,1000,107628598,1580,1579,1556,1554
94536337,1000,1000,1000,1000,107728558,1579,1579,1556,1554
94538836,1000,1000,1000,1000,107828518,1576,1577,1555,1553
94541335,1000,1000,1000,1000,107928478,1575,1577,1554,1553
94543834,1000,1000,1000,1000,108028438,1576,1577,1553,1554
94546333,1000,1000,1000,1000,108128398,1575,1577,1552,1552
94548832,1000,1000,1000,1000,108228358,1576,1578,1550,1551
94551331,1000,1000,1000,1000,108328318,1577,1578,1548,1548
94553830,1000,1000,1000,1000,108428278,1580,1581,1546,1546
94556329,1000,1000,1000,1000,108528238,1583,1584,1544,1543
94558828,1000,1000,1000,1000,108628198,1586,1586,1541,1540
94561327,1000,1000,1000,1000,108728158,1589,1589,1539,1538
94563826,1000,1000,1000,1000,108828951,1591,1591,1535,1536
94566325,1000,1000,1000,1000,108928911,1594,1593,1535,1536
94568824,1000,1000,1000,1000,109028871,1594,1594,1534,1535
94571323,1000,1000,1000,1000,109128831,1594,1594,1535,1537
94573822,1000,1000,1000,1000,109228791,1594,1594,1539,1541
94576321,1000,1000,1000,1000,109328751,1590,1589,1543,1546
94578820,1000,1000,1000,1000,109428711,1584,1582,1550,1553
94581319,1000,1000,1000,1000,109528671,1577,1574,1560,1563
94583818,1000,1000,1000,1000,109628631,1568,1564,1572,1574
94586317,1000,1000,1000,1000,109728591,1557,1553,1585,1586
94588816,1000,1000,1000,1000,109828551,1545,1543,1596,1596
94591315,1000,1000,1000,1000,109928511,1536,1535,1605,1605
94593814,1000,1000,1000,1000,110028471,1531,1532,1612,1612
94596313,1000,1000,1000,1000,110128431,1529,1531,1615,1614
94598812,1000,1000,1000,1000,110228391,1530,1532,1613,1613
94601311,1000,1000,1000,1000,110328351,1535,1537,1610,1609
94603810,1000,1000,1000,1000,110428311,1543,1545,1605,1605
94606309,1000,1000,1000,1000,110528271,1551,1552,1597,1597
94608808,1000,1000,1000,1000,110628231,1560,1561,1590,1590
94611307,1000,1000,1000,1000,110728191,1569,1569,1583,1583
94613806,1000,1000,1000,1000,110828984,1576,1575,1576,1576
94616305,1000,1000,1000,1000,110928944,1582,1581,1571,1571
94618804,1000,1000,1000,1000,111028904,1585,1584,1567,1567
94621303,1000,1000,1000,1000,111128864,1588,1586,1566,1566
94623802,1000,1000,1000,1000,111228824,1588,1586,1567,1566
94626301,1000,1000,1000,1000,111328784,1586,1584,1566,1567
94628800,1000,1000,1000,1000,111428744,1583,1582,1569,1569
94631299,1000,1000,1000,1000,111528704,1581,1580,1572,1572
94633798,1000,1000,1000,1000,111628664,1578,1579,1576,1576
94636297,1000,1000,1000,1000,111728624,1576,1576,1579,1579
94638796,1000,1000,1000,1000,111828584,1574,1575,1581,1581
94641295,1000,1000,1000,1000,111928544,1573,1574,1583,1583
94643794,1000,1000,1000,1000,112028504,1571,1572,1583,1583
94646293,1000,1000,1000,1000,112128464,1573,1574,1585,1585
94648792,1000,1000,1000,1000,112228424,1573,1574,1584,1584
94651291,1000,1000,1000,1000,112328384,1576,1576,1584,1584
94653790,1000,1000,1000,1000,112428344,1577,1577,1583,1582
94656289,1000,1000,1000,1000,112528304,1578,1577,1581,1581
94658788,1000,1000,1000,1000,112628264,1580,1579,1580,1580
94661287,1000,1000,1000,1000,112728224,1231,1579,1579,1579
94663786,1000,1000,1000,1000,112828184,1498,1525,1601,1605
94666285,1000,1000,1000,1000,112928977,1556,1521,1604,1610
94668784,1000,1000,1000,1000,113028937,1600,1540,1607,1613
94671283,1000,1000,1000,1000,113128897,1629,1572,1609,1614
94673782,1000,1000,1000,1000,113228857,1639,1601,1605,1608
94676281,1000,1000,1000,1000,113328817,1633,1619,1597,1597
94678780,1000,1000,1000,1000,113428777,1623,1630,1589,1587
94681279,1000,1000,1000,1000,113528737,1615,1632,1585,1579
94683778,1000,1000,1000,1000,113628697,1610,1630,1583,1575
94686277,1000,1000,1000,1000,113728657,1609,1625,1583,1575
94688776,1000,1000,1000,1000,113828617,1609,1618,1584,1577
94691275,1000,1000,1000,1000,113928577,1606,1608,1582,1578
94693774,1000,1000,1000,1000,114028537,1602,1599,1581,1580
94696273,1000,1000,1000,1000,114128497,1596,1592,1579,1581
94698772,1000,1000,1000,1000,114228457,1589,1588,1579,1582
94701271,1000,1000,1000,1000,114328417,1582,1583,1578,1582
94703770,1000,1000,1000,1000,114428377,1577,1581,1578,1581
94706269,1000,1000,1000,1000,114528337,1574,1580,1579,1581
94708768,1000,1000,1000,1000,114628297,1573,1578,1580,1580
94711267,1000,1000,1000,1000,114728257,1575,1577,1586,1575
94713766,1000,1000,1000,1000,114828217,1577,1576,1585,1569
94716265,1000,1000,1000,1000,114928177,1576,1575,1575,1569
94718764,1000,1000,1000,1000,115028970,1575,1576,1568,1570
94721263,1000,1000,1000,1000,115128930,1572,1573,1561,1568
94723762,1000,1000,1000,1000,115228890,1570,1571,1558,1565
94726261,1000,1000,1000,1000,115328850,1569,1569,1557,1562
94728760,1000,1000,1000,1000,115428810,1568,1569,1556,1559
94731259,1000,1000,1000,1000,115528770,1569,1570,1557,1557
94733758,1000,1000,1000,1000,115628730,1570,1571,1557,1555
94736257,1000,1000,1000,1000,115728690,1570,1571,1556,1553
94738756,1000,1000,1000,1000,115828650,1572,1572,1555,1553
94741255,1000,1000,1000,1000,115928610,1572,1572,1553,1551
94743754,1000,1000,1000,1000,116028570,1572,1572,1550,1550
94746253,1000,1000,1000,1000,116128530,1574,1574,1549,1549
94748752,1000,1000,1000,1000,116228490,1574,1575,1546,1547
94751251,1000,1000,1000,1000,116328450,1576,1577,1544,1545
94753750,1000,1000,1000,1000,116428410,1578,1580,1542,1542
94756249,1000,1000,1000,1000,116528370,1580,1582,1540,1539
94758748,1000,1000,1000,1000,116628330,1584,1585,1538,1536
94761247,1000,1000,1000,1000,116728290,1587,1587,1534,1534
94763746,1000,1000,1000,1000,116828250,1591,1591,1533,1532
94766245,1000,1000,1000,1000,116928210,1594,1593,1531,1531
94768744,1000,1000,1000,1000,117028170,1596,1595,1528,1530
94771243,1000,1000,1000,1000,117128963,1597,1596,1530,1531
94773742,1000,1000,1000,1000,117228923,1597,1595,1532,1535
94776241,1000,1000,1000,1000,117328883,1594,1593,1536,1539
94778740,1000,1000,1000,1000,117428843,1590,1587,1541,1544
94781239,1000,1000,1000,1000,117528803,1583,1580,1548,1551
94783738,1000,1000,1000,1000,117628763,1574,1571,1556,1560
94786237,1000,1000,1000,1000,117728723,1565,1561,1568,1570
94788736,1000,1000,1000,1000,117828683,1552,1551,1578,1580
94791235,1000,1000,1000,1000,117928643,1540,1540,1590,1592
94793734,1000,1000,1000,1000,118028603,1529,1530,1600,1601
94796233,1000,1000,1000,1000,118128563,1523,1525,1609,1609
94798732,1000,1000,1000,1000,118228523,1519,1522,1611,1611
94801231,1000,1000,1000,1000,118328483,1520,1523,1612,1610
94803730,1000,1000,1000,1000,118428443,1526,1529,1610,1609
94806229,1000,1000,1000,1000,118528403,1533,1535,1604,1603
94808728,1000,1000,1000,1000,118628363,1543,1543,1596,1596
94811227,1000,1000,1000,1000,118728323,1551,1550,1587,1587
94813726,1000,1000,1000,1000,118828283,1561,1560,1580,1580
94816225,1000,1000,1000,1000,118928243,1569,1567,1573,1573
94818724,1000,1000,1000,1000,119028203,1576,1573,1567,1568
94821223,1000,1000,1000,1000,119128163,1581,1579,1565,1565
94823722,1000,1000,1000,1000,119228956,1584,1583,1563,1564
94826221,1000,1000,1000,1000,119328916,1586,1584,1564,1564
94828720,1000,1000,1000,1000,119428876,1585,1584,1566,1565
94831219,1000,1000,1000,1000,119528836,1584,1583,1568,1568
94833718,1000,1000,1000,1000,119628796,1583,1582,1572,1571
94836217,1000,1000,1000,1000,119728756,1581,1580,1575,1574
94838716,1000,1000,1000,1000,119828716,1579,1579,1578,1578
94841215,1000,1000,1000,1000,119928676,1576,1577,1579,1579
94843714,1000,1000,1000,1000,120028636,1574,1575,1581,1581
94846213,1000,1000,1000,1000,120128596,1573,1574,1582,1582
94848712,1000,1000,1000,1000,120228556,1572,1573,1582,1582
94851211,1000,1000,1000,1000,120328516,1572,1574,1582,1582
94853710,1000,1000,1000,1000,120428476,1573,1574,1581,1581
94856209,1000,1000,1000,1000,120528436,1574,1575,1581,1581
94858708,1000,1000,1000,1000,120628396,1576,1577,1581,1580
94861207,1000,1000,1000,1000,120728356,1578,1578,1579,1579
94863706,1000,1000,1000,1000,120828316,1579,1578,1578,1578
94866205,1000,1000,1000,1000,120928276,1581,1580,1578,1578
94868704,1000,1000,1000,1000,121028236,1581,1581,1578,1577
94871203,1000,1000,1000,1000,121128196,1582,1582,1577,1578
94873702,1000,1000,1000,1000,121228156,1582,1582,1577,1577
94876201,1000,1000,1000,1000,121328949,1582,1582,1577,1577
94878700,1000,1000,1000,1000,121428909,1582,1581,1578,1577
94881199,1000,1000,1000,1000,121528869,1581,1580,1577,1578
94883698,1000,1000,1000,1000,121628829,1581,1581,1579,1579
94886197,1000,1000,1000,1000,121728789,1580,1581,1580,1580
94888696,1000,1000,1000,1000,121828749,1580,1580,1580,1580
94891195,1000,1000,1000,1000,121928709,1580,1579,1580,1580
94893694,1000,1000,1000,1000,122028669,1580,1581,1582,1581
94896193,1000,1000,1000,1000,122128629,1579,1579,1580,1581
94898692,1000,1000,1000,1000,122228589,1579,1580,1581,1581
94901191,1000,1000,1000,1000,122328549,1579,1580,1581,1581
94903690,1000,1000,1000,1000,122428509,1579,1579,1581,1580
94906189,1000,1000,1000,1000,122528469,1581,1580,1581,1581
94908688,1000,1000,1000,1000,122628429,1581,1581,1581,1581
94911187,1000,1000,1000,1000,122728389,1581,1581,1581,1581
94913686,1000,1000,1000,1000,122828349,1581,1582,1581,1581
94916185,1000,1000,1000,1000,122928309,1582,1582,1581,1581
94918684,1000,1000,1000,1000,123028269,1581,1581,1581,1580
94921183,1000,1000,1000,1000,123128229,1581,1581,1580,1580
94923682,1000,1000,1000,1000,123228189,1582,1582,1581,1581
94926181,1000,1000,1000,1000,123328982,1581,1581,1580,1580
94928680,1000,1000,1000,1000,123428942,1582,1582,1581,1581
94931179,1000,1000,1000,1000,123528902,1582,1581,1581,1581
94933678,1000,1000,1000,1000,123628862,1582,1582,1581,1581
94936177,1000,1000,1000,1000,123728822,1581,1580,1580,1581
94938676,1000,1000,1000,1000,123828782,1581,1582,1585,1578
94941175,1000,1000,1000,1000,123928742,1581,1582,1588,1573
94943674,1000,1000,1000,1000,124028702,1580,1582,1582,1573
94946173,1000,1000,1000,1000,124128662,1578,1580,1572,1573
94948672,1000,1000,1000,1000,124228622,1577,1580,1565,1570
94951171,1000,1000,1000,1000,124328582,1576,1579,1559,1566
94953670,1000,1000,1000,1000,124428542,1578,1579,1556,1561
94956169,1000,1000,1000,1000,124528502,1579,1579,1556,1558
94958668,1000,1000,1000,1000,124628462,1579,1579,1556,1555
94961167,1000,1000,1000,1000,124728422,1580,1578,1556,1555
94963666,1000,1000,1000,1000,124828382,1579,1579,1557,1554
94966165,1000,1000,1000,1000,124928342,1578,1578,1556,1555
94968664,1000,1000,1000,1000,125028302,1577,1578,1556,1555
94971163,1000,1000,1000,1000,125128262,1577,1578,1555,1555
94973662,1000,1000,1000,1000,125228222,1576,1578,1554,1553
94976161,1000,1000,1000,1000,125328182,1576,1578,1551,1552
94978660,1000,1000,1000,1000,125428975,1577,1579,1550,1550
94981159,1000,1000,1000,1000,125528935,1579,1580,1548,1548
94983658,1000,1000,1000,1000,125628895,1581,1582,1546,1545
94986157,1000,1000,1000,1000,125728855,1584,1586,1545,1544
94988656,1000,1000,1000,1000,125828815,1587,1587,1542,1541
94991155,1000,1000,1000,1000,125928775,1590,1590,1540,1540
94993654,1000,1000,1000,1000,126028735,1592,1592,1539,1540
94996153,1000,1000,1000,1000,126128695,1593,1592,1537,1538
94998652,1000,1000,1000,1000,126228655,1593,1593,1538,1540
95001151,1000,1000,1000,1000,126328615,1592,1592,1540,1543
95003650,1000,1000,1000,1000,126428575,1591,1590,1544,1546
95006149,1000,1000,1000,1000,126528535,1587,1585,1550,1553
95008648,1000,1000,1000,1000,126628495,1580,1577,1556,1559
95011147,1000,1000,1000,1000,126728455,1573,1569,1567,1570
95013646,1000,1000,1000,1000,126828415,1564,1560,1579,1580
95016145,1000,1000,1000,1000,126928375,1553,1551,1589,1590
95018644,1000,1000,1000,1000,127028335,1544,1543,1598,1598
95021143,1000,1000,1000,1000,127128295,1537,1538,1605,1605
95023642,1000,1000,1000,1000,127228255,1533,1536,1610,1609
95026141,1000,1000,1000,1000,127328215,1532,1534,1611,1609
95028640,1000,1000,1000,1000,127428175,1535,1538,1610,1609
95031139,1000,1000,1000,1000,127528968,1540,1543,1607,1606
95033638,1000,1000,1000,1000,127628928,1547,1549,1601,1601
95036137,1000,1000,1000,1000,127728888,1555,1556,1594,1594
95038636,1000,1000,1000,1000,127828848,1563,1563,1587,1586
95041135,1000,1000,1000,1000,127928808,1570,1569,1581,1580
95043634,1000,1000,1000,1000,128028768,1577,1574,1575,1575
95046133,1000,1000,1000,1000,128128728,1582,1580,1571,1572
95048632,1000,1000,1000,1000,128228688,1585,1583,1569,1569
95051131,1000,1000,1000,1000,128328648,1586,1584,1567,1567
95053630,1000,1000,1000,1000,128428608,1586,1585,1567,1567
95056129,1000,1000,1000,1000,128528568,1586,1584,1569,1570
95058628,1000,1000,1000,1000,128628528,1584,1584,1572,1572
95061127,1000,1000,1000,1000,128728488,1582,1582,1574,1574
95063626,1000,1000,1000,1000,128828448,1580,1581,1578,1578
95066125,1000,1000,1000,1000,128928408,1577,1578,1580,1580
95068624,1000,1000,1000,1000,129028368,1575,1577,1582,1581
95071123,1000,1000,1000,1000,129128328,1574,1574,1582,1582
95073622,1000,1000,1000,1000,129228288,1574,1575,1584,1584
95076121,1000,1000,1000,1000,129328248,1573,1574,1583,1583
95078620,1000,1000,1000,1000,129428208,1573,1574,1582,1582
95081119,1000,1000,1000,1000,129528168,1575,1575,1582,1582
95083618,1000,1000,1000,1000,129628961,1576,1576,1581,1581
95086117,1000,1000,1000,1000,129728921,1577,1577,1580,1580
95088616,1000,1000,1000,1000,129828881,1578,1578,1579,1579
95091115,1000,1000,1000,1000,129928841,1579,1579,1578,1578
95093614,1000,1000,1000,1000,130028801,1580,1580,1578,1578
95096113,1000,1000,1000,1000,130128761,1581,1580,1577,1578
95098612,1000,1000,1000,1000,130228721,1581,1581,1577,1577
95101111,1000,1000,1000,1000,130328681,1581,1581,1578,1578
95103610,1000,1000,1000,1000,130428641,1581,1581,1578,1578
95106109,1000,1000,1000,1000,130528601,1582,1581,1579,1579
95108608,1000,1000,1000,1000,130628561,1581,1581,1579,1579
95111107,1000,1000,1000,1000,130728521,1580,1580,1579,1579
95113606,1000,1000,1000,1000,130828481,1580,1580,1580,1580
95116105,1000,1000,1000,1000,130928441,1579,1579,1580,1580
95118604,1000,1000,1000,1000,131028401,1579,1579,1580,1580
95121103,1000,1000,1000,1000,131128361,1579,1579,1580,1580
95123602,1000,1000,1000,1000,131228321,1579,1579,1581,1581
95126101,1000,1000,1000,1000,131328281,1580,1580,1582,1582
95128600,1000,1000,1000,1000,131428241,1579,1579,1581,1581
95131099,1000,1000,1000,1000,131528201,1580,1580,1581,1581
95133598,1000,1000,1000,1000,131628161,1580,1581,1581,1581
95136097,1000,1000,1000,1000,131728954,1580,1580,1581,1581
95138596,1000,1000,1000,1000,131828914,1581,1582,1583,1579
95141095,1000,1000,1000,1000,131928874,1582,1582,1588,1573
95143594,1000,1000,1000,1000,132028834,1581,1580,1584,1574
95146093,1000,1000,1000,1000,132128794,1578,1577,1576,1575
95148592,1000,1000,1000,1000,132228754,1575,1574,1569,1574
95151091,1000,1000,1000,1000,132328714,1572,1571,1566,1573
95153590,1000,1000,1000,1000,132428674,1569,1569,1564,1570
95156089,1000,1000,1000,1000,132528634,1567,1568,1565,1568
95158588,1000,1000,1000,1000,132628594,1566,1567,1565,1566
95161087,1000,1000,1000,1000,132728554,1565,1566,1567,1565
95163586,1000,1000,1000,1000,132828514,1565,1565,1567,1564
95166085,1000,1000,1000,1000,132928474,1564,1564,1566,1564
95168584,1000,1000,1000,1000,133028434,1564,1563,1566,1564
95171083,1000,1000,1000,1000,133128394,1563,1562,1564,1564
95173582,1000,1000,1000,1000,133228354,1562,1562,1564,1564
95176081,1000,1000,1000,1000,133328314,1562,1562,1563,1563
95178580,1000,1000,1000,1000,133428274,1561,1561,1562,1562
95181079,1000,1000,1000,1000,133528234,1561,1560,1561,1561
95183578,1000,1000,1000,1000,133628194,1561,1561,1561,1561
95186077,1000,1000,1000,1000,133728154,1561,1561,1561,1560
95188576,1000,1000,1000,1000,133828947,1560,1560,1560,1559
95191075,1000,1000,1000,1000,133928907,1561,1561,1561,1560
95193574,1000,1000,1000,1000,134028867,1560,1559,1559,1558
95196073,1000,1000,1000,1000,134128827,1560,1559,1560,1559
95198572,1000,1000,1000,1000,134228787,1559,1560,1560,1558
95201071,1000,1000,1000,1000,134328747,1558,1558,1559,1557
95203570,1000,1000,1000,1000,134428707,1558,1558,1559,1557
95206069,1000,1000,1000,1000,134528667,1558,1558,1559,1557
95208568,1000,1000,1000,1000,134628627,1559,1559,1561,1558
95211067,1000,1000,1000,1000,134728587,1559,1559,1559,1561
95213566,1000,1000,1000,1000,134828547,1560,1560,1557,1563
95216065,1000,1000,1000,1000,134928507,1560,1560,1557,1564
95218564,1000,1000,1000,1000,135028467,1561,1562,1559,1564
95221063,1000,1000,1000,1000,135128427,1561,1561,1560,1562
95223562,1000,1000,1000,1000,135228387,1561,1561,1561,1561
95226061,1000,1000,1000,1000,135328347,1562,1562,1563,1561
95228560,1000,1000,1000,1000,135428307,1561,1561,1563,1559
95231059,1000,1000,1000,1000,135528267,1559,1559,1557,1560
95233558,1000,1000,1000,1000,135628227,1556,1556,1553,1557
95236057,1000,1000,1000,1000,135728187,1552,1552,1549,1553
95238556,1000,1000,1000,1000,135828980,1547,1547,1544,1546
95241055,1000,1000,1000,1000,135928940,1541,1541,1539,1539
95243554,1000,1000,1000,1000,136028900,1533,1533,1532,1530
95246053,1000,1000,1000,1000,136128860,1526,1525,1524,1523
95248552,1000,1000,1000,1000,136228820,1521,1521,1520,1519
95251051,1000,1000,1000,1000,136328780,1519,1520,1519,1519
95253550,1000,1000,1000,1000,136428740,1518,1520,1519,1520
95256049,1000,1000,1000,1000,136528700,1521,1522,1523,1524
95258548,1000,1000,1000,1000,136628660,1524,1524,1526,1527
95261047,1000,1000,1000,1000,136728620,1527,1528,1531,1531
95263546,1000,1000,1000,1000,136828580,1532,1532,1535,1535
95266045,1000,1000,1000,1000,136928540,1537,1535,1540,1539
95268544,1000,1000,1000,1000,137028500,1539,1538,1542,1541
95271043,1000,1000,1000,1000,137128460,1541,1540,1542,1542
95273542,1000,1000,1000,1000,137228420,1543,1543,1544,1543
95276041,1000,1000,1000,1000,137328380,1545,1545,1545,1544
95278540,1000,1000,1000,1000,137428340,1546,1546,1545,1545
95281039,1000,1000,1000,1000,137528300,1547,1547,1545,1545
95283538,1000,1000,1000,1000,137628260,1547,1548,1545,1545
95286037,1000,1000,1000,1000,137728220,1548,1548,1546,1545
95288536,1000,1000,1000,1000,137828180,1547,1547,1545,1545
95291035,1000,1000,1000,1000,137928973,1547,1547,1545,1545
95293534,1000,1000,1000,1000,138028933,1547,1547,1546,1545
95296033,1000,1000,1000,1000,138128893,1546,1546,1545,1545
95298532,1000,1000,1000,1000,138228853,1545,1545,1545,1545
95301031,1000,1000,1000,1000,138328813,1544,1544,1544,1545
95303530,1000,1000,1000,1000,138428773,1544,1544,1544,1544
95306029,1000,1000,1000,1000,138528733,1544,1544,1545,1545
95308528,1000,1000,1000,1000,138628693,1544,1544,1545,1545
95311027,1000,1000,1000,1000,138728653,1544,1544,1545,1545
95313526,1000,1000,1000,1000,138828613,1543,1543,1544,1544
95316025,1000,1000,1000,1000,138928573,1544,1543,1544,1545
95318524,1000,1000,1000,1000,139028533,1544,1544,1545,1544
95321023,1000,1000,1000,1000,139128493,1544,1544,1544,1545
95323522,1000,1000,1000,1000,139228453,1544,1544,1544,1544
95326021,1000,1000,1000,1000,139328413,1544,1544,1544,1544
95328520,1000,1000,1000,1000,139428373,1544,1544,1544,1544
95331019,1000,1000,1000,1000,139528333,1544,1544,1544,1544
95333518,1000,1000,1000,1000,139628293,1544,1545,1544,1544
95336017,1000,1000,1000,1000,139728253,1545,1544,1544,1544
95338516,1000,1000,1000,1000,139828213,1544,1545,1544,1544
95341015,1000,1000,1000,1000,139928173,1544,1544,1544,1544
95343514,1000,1000,1000,1000,140028966,1544,1545,1545,1544
95346013,1000,1000,1000,1000,140128926,1545,1545,1545,1545
95348512,1000,1000,1000,1000,140228886,1545,1545,1545,1545
95351011,1000,1000,1000,1000,140328846,1544,1544,1544,1545
95353510,1000,1000,1000,1000,140428806,1544,1545,1545,1545
95356009,1000,1000,1000,1000,140528766,1545,1544,1544,1545
95358508,1000,1000,1000,1000,140628726,1544,1544,1544,1544
95361007,1000,1000,1000,1000,140728686,1545,1545,1545,1545
95363506,1000,1000,1000,1000,140828646,1545,1545,1545,1545
95366005,1000,1000,1000,1000,140928606,1544,1544,1544,1544
95368504,1000,1000,1000,1000,141028566,1543,1544,1544,1543
95371003,1000,1000,1000,1000,141128526,1544,1544,1544,1544
95373502,1000,1000,1000,1000,141228486,1543,1543,1543,1543
95376001,1000,1000,1000,1000,141328446,1544,1544,1544,1544
95378500,1000,1000,1000,1000,141428406,1543,1543,1543,1543
95380999,1000,1000,1000,1000,141528366,1544,1544,1544,1544
95383498,1000,1000,1000,1000,141628326,1544,1543,1544,1543
95385997,1000,1000,1000,1000,141728286,1544,1544,1544,1544
95388496,1000,1000,1000,1000,141828246,1544,1545,1544,1544
95390995,1000,1000,1000,1000,141928206,1544,1545,1544,1545
95393494,1000,1000,1000,1000,142028166,1543,1544,1544,1544
95395993,1000,1000,1000,1000,142128959,1544,1544,1544,1544
95398492,1000,1000,1000,1000,142228919,1543,1543,1543,1543
95400991,1000,1000,1000,1000,142328879,1544,1543,1543,1544
95403490,1000,1000,1000,1000,142428839,1544,1544,1544,1544
95405989,1000,1000,1000,1000,142528799,1544,1544,1544,1544
95408488,1000,1000,1000,1000,142628759,1544,1545,1545,1545
95410987,1000,1000,1000,1000,142728719,1545,1544,1544,1545
95413486,1000,1000,1000,1000,142828679,1545,1544,1545,1545
95415985,1000,1000,1000,1000,142928639,1545,1544,1545,1545
95418484,1000,1000,1000,1000,143028599,1544,1545,1544,1544
95420983,1000,1000,1000,1000,143128559,1545,1545,1545,1545
95423482,1000,1000,1000,1000,143228519,1545,1545,1545,1545
95425981,1000,1000,1000,1000,143328479,1545,1544,1544,1544
95428480,1000,1000,1000,1000,143428439,1545,1544,1544,1544
95430979,1000,1000,1000,1000,143528399,1545,1545,1545,1545
95433478,1000,1000,1000,1000,143628359,1545,1545,1545,1545
95435977,1000,1000,1000,1000,143728319,1545,1545,1545,1546
95438476,1000,1000,1000,1000,143828279,1545,1545,1545,1545
95440975,1000,1000,1000,1000,143928239,1545,1544,1544,1544
95443474,1000,1000,1000,1000,144028199,1545,1545,1545,1544
95445973,1000,1000,1000,1000,144128159,1545,1545,1545,1545
95448472,1000,1000,1000,1000,144228952,1545,1545,1545,1545
95450971,1000,1000,1000,1000,144328912,1545,1544,1544,1545
95453470,1000,1000,1000,1000,144428872,1545,1544,1545,1545
95455969,1000,1000,1000,1000,144528832,1545,1544,1544,1545
95458468,1000,1000,1000,1000,144628792,1545,1545,1545,1545
95460967,1000,1000,1000,1000,144728752,1544,1544,1544,1544
95463466,1000,1000,1000,1000,144828712,1544,1544,1544,1544
95465965,1000,1000,1000,1000,144928672,1544,1544,1544,1545
95468464,1000,1000,1000,1000,145028632,1544,1544,1544,1544
95470963,1000,1000,1000,1000,145128592,1545,1545,1545,1545
95473462,1000,1000,1000,1000,145228552,1544,1544,1544,1544
95475961,1000,1000,1000,1000,145328512,1544,1544,1544,1544
95478460,1000,1000,1000,1000,145428472,1544,1544,1544,1544
95480959,1000,1000,1000,1000,145528432,1544,1544,1544,1544
95483458,1000,1000,1000,1000,145628392,1544,1544,1544,1544
95485957,1000,1000,1000,1000,145728352,1545,1544,1544,1545
95488456,1000,1000,1000,1000,145828312,1545,1545,1545,1545
95490955,1000,1000,1000,1000,145928272,1538,1539,1539,1536
95493454,1000,1000,1000,1000,146028232,1399,1350,1351,1349
95495953,1000,1000,1000,1000,146128192,1331,1249,1251,1248
95498452,1000,1000,1000,1000,146228985,1310,1218,1219,1214
95500951,1000,1000,1000,1000,146328945,1297,1194,1196,1192
95503450,1000,1000,1000,1000,146428905,1273,1153,1155,1150
95505949,1000,1000,1000,1000,146528865,1191,1151,1153,1150
95508448,1000,1000,1000,1000,146628825,1189,1152,1154,1150
95510947,1000,1000,1000,1000,146728785,1190,1151,1153,1150
95513446,1000,1000,1000,1000,146828745,1173,1150,1150,1180
95515945,1000,1000,1000,1000,146928705,1179,1150,1150,1171
95518444,1000,1000,1000,1000,147028665,1184,1150,1150,1164
95520943,1000,1000,1000,1000,147128625,1184,1150,1150,1163
95523442,1000,1000,1000,1000,147228585,1184,1150,1151,1163
95525941,1000,1000,1000,1000,147328545,1184,1150,1151,1164
95528440,1000,1000,1000,1000,147428505,1184,1150,1151,1164
95530939,1000,1000,1000,1000,147528465,1183,1150,1151,1165
95533438,1000,1000,1000,1000,147628425,1193,1150,1150,1150
95535937,1000,1000,1000,1000,147728385,1191,1150,1150,1152
95538436,1000,1000,1000,1000,147828345,1191,1150,1150,1153
95540935,1000,1000,1000,1000,147928305,1190,1150,1150,1154
95543434,1000,1000,1000,1000,148028265,1190,1150,1151,1154
95545933,1000,1000,1000,1000,148128225,1000,1000,1000,1000
95548432,1000,1000,1000,1000,148228185,1000,1000,1000,1000
95550931,1000,1000,1000,1000,148328978,1000,1000,1000,1000
95553430,1000,1000,1000,1000,148428938,1000,1000,1000,1000
95555929,1000,1000,1000,1000,148528898,1000,1000,1000,1000
95558428,1000,1000,1000,1000,148628858,1000,1000,1000,1000
95560927,1000,1000,1000,1000,148728818,1000,1000,1000,1000
95563426,1000,1000,1000,1000,148828778,1000,1000,1000,1000
95565925,1000,1000,1000,1000,148928738,1000,1000,1000,1000
95568424,1000,1000,1000,1000,149028698,1000,1000,1000,1000
95570923,1000,1000,1000,1000,149128658,1000,1000,1000,1000
95573422,1000,1000,1000,1000,149228618,1000,1000,1000,1000
95575921,1000,1000,1000,1000,149328578,1000,1000,1000,1000
95578420,1000,1000,1000,1000,149428538,1000,1000,1000,1000
95580919,1000,1000,1000,1000,149528498,1000,1000,1000,1000
95583418,1000,1000,1000,1000,149628458,1000,1000,1000,1000
95585917,1000,1000,1000,1000,149728418,1000,1000,1000,1000
95588416,1000,1000,1000,1000,149828378,1000,1000,1000,1000
95590915,1000,1000,1000,1000,149928338,1000,1000,1000,1000
95593414,1000,1000,1000,1000,150028298,1000,1000,1000,1000
95595913,1000,1000,1000,1000,150128258,1000,1000,1000,1000
95598412,1000,1000,1000,1000,150228218,1000,1000,1000,1000
95600911,1000,1000,1000,1000,150328178,1000,1000,1000,1000
95603410,1000,1000,1000,1000,150428971,1000,1000,1000,1000
95605909,1000,1000,1000,1000,150528931,1000,1000,1000,1000
95608408,1000,1000,1000,1000,150628891,1000,1000,1000,1000
95610907,1000,1000,1000,1000,150728851,1000,1000,1000,1000
95613406,1000,1000,1000,1000,150828811,1000,1000,1000,1000
95615905,1000,1000,1000,1000,150928771,1000,1000,1000,1000
95618404,1000,1000,1000,1000,151028731,1000,1000,1000,1000
95620903,1000,1000,1000,1000,151128691,1000,1000,1000,1000
95623402,1000,1000,1000,1000,151228651,1000,1000,1000,1000
95625901,1000,1000,1000,1000,151328611,1000,1000,1000,1000
95628400,1000,1000,1000,1000,151428571,1000,1000,1000,1000
95630899,1000,1000,1000,1000,151528531,1000,1000,1000,1000
95633398,1000,1000,1000,1000,151628491,1000,1000,1000,1000
95635897,1000,1000,1000,1000,151728451,1000,1000,1000,1000
95638396,1000,1000,1000,1000,151828411,1000,1000,1000,1000
95640895,1000,1000,1000,1000,151928371,1000,1000,1000,1000
95643394,1000,1000,1000,1000,152028331,1000,1000,1000,1000
95645893,1000,1000,1000,1000,152128291,1000,1000,1000,1000
95648392,1000,1000,1000,1000,152228251,1000,1000,1000,1000
95650891,1000,1000,1000,1000,152328211,1000,1000,1000,1000
95653390,1000,1000,1000,1000,152428171,1000,1000,1000,1000
95655889,1000,1000,1000,1000,152528964,1000,1000,1000,1000
95658388,1000,1000,1000,1000,152628924,1000,1000,1000,1000
95660887,1000,1000,1000,1000,152728884,1000,1000,1000,1000
95663386,1000,1000,1000,1000,152828844,1000,1000,1000,1000
95665885,1000,1000,1000,1000,152928804,1000,1000,1000,1000
95668384,1000,1000,1000,1000,153028764,1000,1000,1000,1000
95670883,1000,1000,1000,1000,153128724,1000,1000,1000,1000
95673382,1000,1000,1000,1000,153228684,1000,1000,1000,1000
95675881,1000,1000,1000,1000,153328644,1000,1000,1000,1000
95678380,1000,1000,1000,1000,153428604,1000,1000,1000,1000
95680879,1000,1000,1000,1000,153528564,1000,1000,1000,1000
95683378,1000,1000,1000,1000,153628524,1000,1000,1000,1000
95685877,1000,1000,1000,1000,153728484,1000,1000,1000,1000
95688376,1000,1000,1000,1000,153828444,1000,1000,1000,1000
95690875,1000,1000,1000,1000,153928404,1000,1000,1000,1000
95693374,1000,1000,1000,1000,154028364,1000,1000,1000,1000
95695873,1000,1000,1000,1000,154128324,1000,1000,1000,1000
95698372,1000,1000,1000,1000,154228284,1000,1000,1000,1000
95700871,1000,1000,1000,1000,154328244,1000,1000,1000,1000
95703370,1000,1000,1000,1000,154428204,1000,1000,1000,1000
95705869,1000,1000,1000,1000,154528164,1000,1000,1000,1000
95708368,1000,1000,1000,1000,154628957,1000,1000,1000,1000
95710867,1000,1000,1000,1000,154728917,1000,1000,1000,1000
95713366,1000,1000,1000,1000,154828877,1000,1000,1000,1000
95715865,1000,1000,1000,1000,154928837,1000,1000,1000,1000
95718364,1000,1000,1000,1000,155028797,1000,1000,1000,1000
95720863,1000,1000,1000,1000,155128757,1000,1000,1000,1000
95723362,1000,1000,1000,1000,155228717,1000,1000,1000,1000
95725861,1000,1000,1000,1000,155328677,1000,1000,1000,1000
95728360,1000,1000,1000,1000,155428637,1000,1000,1000,1000
95730859,1000,1000,1000,1000,155528597,1000,1000,1000,1000
95733358,1000,1000,1000,1000,155628557,1000,1000,1000,1000
95735857,1000,1000,1000,1000,155728517,1000,1000,1000,1000
95738356,1000,1000,1000,1000,155828477,1000,1000,1000,1000
95740855,1000,1000,1000,1000,155928437,1000,1000,1000,1000
95743354,1000,1000,1000,1000,156028397,1000,1000,1000,1000
95745853,1000,1000,1000,1000,156128357,1000,1000,1000,1000
95748352,1000,1000,1000,1000,156228317,1000,1000,1000,1000
95750851,1000,1000,1000,1000,156328277,1000,1000,1000,1000
95753350,1000,1000,1000,1000,156428237,1000,1000,1000,1000
95755849,1000,1000,1000,1000,156528197,1000,1000,1000,1000
95758348,1000,1000,1000,1000,156628157,1000,1000,1000,1000
95760847,1000,1000,1000,1000,156728950,1000,1000,1000,1000
95763346,1000,1000,1000,1000,156828910,1000,1000,1000,1000
95765845,1000,1000,1000,1000,156928870,1000,1000,1000,1000
95768344,1000,1000,1000,1000,157028830,1000,1000,1000,1000
95770843,1000,1000,1000,1000,157128790,1000,1000,1000,1000
95773342,1000,1000,1000,1000,157228750,1000,1000,1000,1000
95775841,1000,1000,1000,1000,157328710,1000,1000,1000,1000
95778340,1000,1000,1000,1000,157428670,1000,1000,1000,1000
95780839,1000,1000,1000,1000,157528630,1000,1000,1000,1000
95783338,1000,1000,1000,1000,157628590,1000,1000,1000,1000
95785837,1000,1000,1000,1000,157728550,1000,1000,1000,1000
95788336,1000,1000,1000,1000,157828510,1000,1000,1000,1000
95790835,1000,1000,1000,1000,157928470,1000,1000,1000,1000
95793334,1000,1000,1000,1000,158028430,1000,1000,1000,1000
95795833,1000,1000,1000,1000,158128390,1000,1000,1000,1000
95798332,1000,1000,1000,1000,158228350,1000,1000,1000,1000
95800831,1000,1000,1000,1000,,,,,
95803330,1000,1000,1000,1000,,,,,
95805829,1000,1000,1000,1000,,,,,
95808328,1000,1000,1000,1000,,,,,
95810827,1000,1000,1000,1000,,,,,
95813326,1000,1000,1000,1000,,,,,
95815825,1000,1000,1000,1000,,,,,
95818324,1000,1000,1000,1000,,,,,
95820823,1000,1000,1000,1000,,,,,
95823322,1000,1000,1000,1000,,,,,
95825821,1000,1000,1000,1000,,,,,
95828320,1000,1000,1000,1000,,,,,
95830819,1000,1000,1000,1000,,,,,
95833318,1000,1000,1000,1000,,,,,
95835817,1000,1000,1000,1000,,,,,
95838316,1000,1000,1000,1000,,,,,
95840815,1000,1000,1000,1000,,,,,
95843314,1000,1000,1000,1000,,,,,
95845813,1000,1000,1000,1000,,,,,
95848312,1000,1000,1000,1000,,,,,
95850811,1000,1000,1000,1000,,,,,
95853310,1000,1000,1000,1000,,,,,
95855809,1000,1000,1000,1000,,,,,
95858308,1000,1000,1000,1000,,,,,
95860807,1000,1000,1000,1000,,,,,
95863306,1000,1000,1000,1000,,,,,
95865805,1000,1000,1000,1000,,,,,
95868304,1000,1000,1000,1000,,,,,
95870803,1000,1000,1000,1000,,,,,
95873302,1000,1000,1000,1000,,,,,
95875801,1000,1000,1000,1000,,,,,
95878300,1000,1000,1000,1000,,,,,
95880799,1000,1000,1000,1000,,,,,
95883298,1000,1000,1000,1000,,,,,
95885797,1000,1000,1000,1000,,,,,
95888296,1000,1000,1000,1000,,,,,
95890795,1000,1000,1000,1000,,,,,
95893294,1000,1000,1000,1000,,,,,
95895793,1000,1000,1000,1000,,,,,
95898292,1000,1000,1000,1000,,,,,
95900791,1000,1000,1000,1000,,,,,
95903290,1000,1000,1000,1000,,,,,
95905789,1000,1000,1000,1000,,,,,
95908288,1000,1000,1000,1000,,,,,
95910787,1000,1000,1000,1000,,,,,
95913286,1000,1000,1000,1000,,,,,
95915785,1000,1000,1000,1000,,,,,
95918284,1000,1000,1000,1000,,,,,
95920783,1000,1000,1000,1000,,,,,
95923282,1000,1000,1000,1000,,,,,
95925781,1000,1000,1000,1000,,,,,
95928280,1000,1000,1000,1000,,,,,
95930779,1000,1000,1000,1000,,,,,
95933278,1000,1000,1000,1000,,,,,
95935777,1000,1000,1000,1000,,,,,
95938276,1000,1000,1000,1000,,,,,
95940775,1000,1000,1000,1000,,,,,
95943274,1000,1000,1000,1000,,,,,
95945773,1000,1000,1000,1000,,,,,
95948272,1000,1000,1000,1000,,,,,
95950771,1000,1000,1000,1000,,,,,
95953270,1000,1000,1000,1000,,,,,
95955769,1000,1000,1000,1000,,,,,
95958268,1000,1000,1000,1000,,,,,
95960767,1000,1000,1000,1000,,,,,
95963266,1000,1000,1000,1000,,,,,
95965765,1000,1000,1000,1000,,,,,
95968264,1000,1000,1000,1000,,,,,
95970763,1000,1000,1000,1000,,,,,
95973262,1000,1000,1000,1000,,,,,
95975761,1000,1000,1000,1000,,,,,
95978260,1000,1000,1000,1000,,,,,
95980759,1000,1000,1000,1000,,,,,
95983258,1000,1000,1000,1000,,,,,
95985757,1000,1000,1000,1000,,,,,
95988256,1000,1000,1000,1000,,,,,
95990755,1000,1000,1000,1000,,,,,
95993254,1000,1000,1000,1000,,,,,
95995753,1000,1000,1000,1000,,,,,
95998252,1000,1000,1000,1000,,,,,
96000751,1000,1000,1000,1000,,,,,
96003250,1000,1000,1000,1000,,,,,
96005749,1000,1000,1000,1000,,,,,
96008248,1000,1000,1000,1000,,,,,
96010747,1000,1000,1000,1000,,,,,
96013246,1000,1000,1000,1000,,,,,
96015745,1000,1000,1000,1000,,,,,
96018244,1000,1000,1000,1000,,,,,
96020743,1000,1000,1000,1000,,,,,
96023242,1000,1000,1000,1000,,,,,
96025741,1000,1000,1000,1000,,,,,
96028240,1000,1000,1000,1000,,,,,
96030739,1000,1000,1000,1000,,,,,
96033238,1000,1000,1000,1000,,,,,
96035737,1000,1000,1000,1000,,,,,
96038236,1000,1000,1000,1000,,,,,
96040735,1000,1000,1000,1000,,,,,
96043234,1000,1000,1000,1000,,,,,
96045733,1000,1000,1000,1000,,,,,
96048232,1000,1000,1000,1000,,,,,
96050731,1000,1000,1000,1000,,,,,
96053230,1000,1000,1000,1000,,,,,
96055729,1000,1000,1000,1000,,,,,
96058228,1000,1000,1000,1000,,,,,
96060727,1000,1000,1000,1000,,,,,
96063226,1000,1000,1000,1000,,,,,
96065725,1000,1000,1000,1000,,,,,
96068224,1000,1000,1000,1000,,,,,
96070723,1000,1000,1000,1000,,,,,
96073222,1000,1000,1000,1000,,,,,
96075721,1000,1000,1000,1000,,,,,
96078220,1000,1000,1000,1000,,,,,
96080719,1000,1000,1000,1000,,,,,
96083218,1000,1000,1000,1000,,,,,
96085717,1000,1000,1000,1000,,,,,
96088216,1000,1000,1000,1000,,,,,
96090715,1000,1000,1000,1000,,,,,
96093214,1000,1000,1000,1000,,,,,
96095713,1000,1000,1000,1000,,,,,
96098212,1000,1000,1000,1000,,,,,
96100711,1000,1000,1000,1000,,,,,
96103210,1000,1000,1000,1000,,,,,
96105709,1000,1000,1000,1000,,,,,
96108208,1000,1000,1000,1000,,,,,
96110707,1000,1000,1000,1000,,,,,
96113206,1000,1000,1000,1000,,,,,
96115705,1000,1000,1000,1000,,,,,
96118204,1000,1000,1000,1000,,,,,
96120703,1000,1000,1000,1000,,,,,
96123202,1000,1000,1000,1000,,,,,
96125701,1000,1000,1000,1000,,,,,
96128200,1000,1000,1000,1000,,,,,
96130699,1000,1000,1000,1000,,,,,
96133198,1000,1000,1000,1000,,,,,
96135697,1000,1000,1000,1000,,,,,
96138196,1000,1000,1000,1000,,,,,
96140695,1000,1000,1000,1000,,,,,
96143194,1000,1000,1000,1000,,,,,
96145693,1000,1000,1000,1000,,,,,
96148192,1000,1000,1000,1000,,,,,
96150691,1000,1000,1000,1000,,,,,
96153190,1000,1000,1000,1000,,,,,
96155689,1000,1000,1000,1000,,,,,
96158188,1000,1000,1000,1000,,,,,
96160687,1000,1000,1000,1000,,,,,
96163186,1000,1000,1000,1000,,,,,
96165685,1000,1000,1000,1000,,,,,
96168184,1000,1000,1000,1000,,,,,
96170683,1000,1000,1000,1000,,,,,
96173182,1000,1000,1000,1000,,,,,
96175681,1000,1000,1000,1000,,,,,
96178180,1000,1000,1000,1000,,,,,
96180679,1000,1000,1000,1000,,,,,
96183178,1000,1000,1000,1000,,,,,
96185677,1000,1000,1000,1000,,,,,
96188176,1000,1000,1000,1000,,,,,
96190675,1000,1000,1000,1000,,,,,
96193174,1000,1000,1000,1000,,,,,
96195673,1000,1000,1000,1000,,,,,
96198172,1000,1000,1000,1000,,,,,
96200671,1000,1000,1000,1000,,,,,
96203170,1000,1000,1000,1000,,,,,
96205669,1001,1001,1001,1001,,,,,
96208168,1002,1002,1002,1002,,,,,
96210667,1003,1003,1003,1003,,,,,
96213166,1003,1003,1003,1003,,,,,
96215665,1004,1004,1004,1004,,,,,
96218164,1005,1005,1005,1005,,,,,
96220663,1006,1006,1006,1006,,,,,
96223162,1006,1006,1006,1006,,,,,
96225661,1007,1007,1007,1007,,,,,
96228160,1008,1008,1008,1008,,,,,
96230659,1009,1009,1009,1009,,,,,
96233158,1009,1009,1009,1009,,,,,
96235657,1010,1010,1010,1010,,,,,
96238156,1011,1011,1011,1011,,,,,
96240655,1012,1012,1012,1012,,,,,
96243154,1012,1012,1012,1012,,,,,
96246486,1013,1013,1013,1013,,,,,
96248985,1014,1014,1014,1014,,,,,
96251484,1015,1015,1015,1015,,,,,
96253983,1015,1015,1015,1015,,,,,
96256482,1016,1016,1016,1016,,,,,
96258981,1017,1017,1017,1017,,,,,
96261480,1018,1018,1018,1018,,,,,
96263979,1018,1018,1018,1018,,,,,
96266478,1019,1019,1019,1019,,,,,
96268977,1020,1020,1020,1020,,,,,
96271476,1021,1021,1021,1021,,,,,
96273975,1021,1021,1021,1021,,,,,
96276474,1022,1022,1022,1022,,,,,
96278973,1023,1023,1023,1023,,,,,
96281472,1024,1024,1024,1024,,,,,
96283971,1024,1024,1024,1024,,,,,
96286470,1025,1025,1025,1025,,,,,
96288969,1026,1026,1026,1026,,,,,
96291468,1027,1027,1027,1027,,,,,
96293967,1027,1027,1027,1027,,,,,
96296466,1028,1028,1028,1028,,,,,
96298965,1029,1029,1029,1029,,,,,
96301464,1030,1030,1030,1030,,,,,
96303963,1030,1030,1030,1030,,,,,
96306462,1031,1031,1031,1031,,,,,
96308961,1032,1032,1032,1032,,,,,
96311460,1033,1033,1033,1033,,,,,
96313959,1033,1033,1033,1033,,,,,
96316458,1034,1034,1034,1034,,,,,
96318957,1035,1035,1035,1035,,,,,
96321456,1036,1036,1036,1036,,,,,
96323955,1036,1036,1036,1036,,,,,
96326454,1037,1037,1037,1037,,,,,
96328953,1038,1038,1038,1038,,,,,
96331452,1039,1039,1039,1039,,,,,
96333951,1039,1039,1039,1039,,,,,
96336450,1040,1040,1040,1040,,,,,
96338949,1041,1041,1041,1041,,,,,
96341448,1042,1042,1042,1042,,,,,
96343947,1042,1042,1042,1042,,,,,
96346446,1043,1043,1043,1043,,,,,
96348945,1044,1044,1044,1044,,,,,
96351444,1045,1045,1045,1045,,,,,
96353943,1045,1045,1045,1045,,,,,
96356442,1046,1046,1046,1046,,,,,
96358941,1047,1047,1047,1047,,,,,
96361440,1048,1048,1048,1048,,,,,
96363939,1048,1048,1048,1048,,,,,
96366438,1049,1049,1049,1049,,,,,
96368937,1050,1050,1050,1050,,,,,
96371436,1051,1051,1051,1051,,,,,
96373935,1051,1051,1051,1051,,,,,
96376434,1052,1052,1052,1052,,,,,
96378933,1053,1053,1053,1053,,,,,
96381432,1054,1054,1054,1054,,,,,
96383931,1054,1054,1054,1054,,,,,
96386430,1055,1055,1055,1055,,,,,
96388929,1056,1056,1056,1056,,,,,
96391428,1057,1057,1057,1057,,,,,
96393927,1057,1057,1057,1057,,,,,
96396426,1058,1058,1058,1058,,,,,
96398925,1059,1059,1059,1059,,,,,
96401424,1060,1060,1060,1060,,,,,
96403923,1060,1060,1060,1060,,,,,
96406422,1061,1061,1061,1061,,,,,
96408921,1062,1062,1062,1062,,,,,
96411420,1063,1063,1063,1063,,,,,
96413919,1063,1063,1063,1063,,,,,
96416418,1064,1064,1064,1064,,,,,
96418917,1065,1065,1065,1065,,,,,
96421416,1066,1066,1066,1066,,,,,
96423915,1066,1066,1066,1066,,,,,
96426414,1067,1067,1067,1067,,,,,
96428913,1068,1068,1068,1068,,,,,
96431412,1069,1069,1069,1069,,,,,
96433911,1069,1069,1069,1069,,,,,
96436410,1070,1070,1070,1070,,,,,
96438909,1071,1071,1071,1071,,,,,
96441408,1072,1072,1072,1072,,,,,
96443907,1072,1072,1072,1072,,,,,
96446406,1073,1073,1073,1073,,,,,
96448905,1074,1074,1074,1074,,,,,
96451404,1075,1075,1075,1075,,,,,
96453903,1075,1075,1075,1075,,,,,
96456402,1076,1076,1076,1076,,,,,
96458901,1077,1077,1077,1077,,,,,
96461400,1078,1078,1078,1078,,,,,
96463899,1078,1078,1078,1078,,,,,
96466398,1079,1079,1079,1079,,,,,
96468897,1080,1080,1080,1080,,,,,
96471396,1081,1081,1081,1081,,,,,
96473895,1081,1081,1081,1081,,,,,
96476394,1082,1082,1082,1082,,,,,
96478893,1083,1083,1083,1083,,,,,
96481392,1084,1084,1084,1084,,,,,
96483891,1084,1084,1084,1084,,,,,
96486390,1085,1085,1085,1085,,,,,
96488889,1086,1086,1086,1086,,,,,
96491388,1087,1087,1087,1087,,,,,
96493887,1087,1087,1087,1087,,,,,
96496386,1088,1088,1088,1088,,,,,
96498885,1089,1089,1089,1089,,,,,
96501384,1090,1090,1090,1090,,,,,
96503883,1090,1090,1090,1090,,,,,
96506382,1091,1091,1091,1091,,,,,
96508881,1092,1092,1092,1092,,,,,
96511380,1093,1093,1093,1093,,,,,
96513879,1093,1093,1093,1093,,,,,
96516378,1094,1094,1094,1094,,,,,
96518877,1095,1095,1095,1095,,,,,
96521376,1096,1096,1096,1096,,,,,
96523875,1096,1096,1096,1096,,,,,
96526374,1097,1097,1097,1097,,,,,
96528873,1098,1098,1098,1098,,,,,
96531372,1099,1099,1099,1099,,,,,
96533871,1099,1099,1099,1099,,,,,
96536370,1100,1100,1100,1100,,,,,
96538869,1101,1101,1101,1101,,,,,
96541368,1101,1101,1101,1101,,,,,
96543867,1102,1102,1102,1102,,,,,
96546366,1103,1103,1103,1103,,,,,
96548865,1104,1104,1104,1104,,,,,
96551364,1104,1104,1104,1104,,,,,
96553863,1105,1105,1105,1105,,,,,
96556362,1106,1106,1106,1106,,,,,
96558861,1107,1107,1107,1107,,,,,
96561360,1107,1107,1107,1107,,,,,
96563859,1108,1108,1108,1108,,,,,
96566358,1109,1109,1109,1109,,,,,
96568857,1110,1110,1110,1110,,,,,
96571356,1110,1110,1110,1110,,,,,
96573855,1111,1111,1111,1111,,,,,
96576354,1112,1112,1112,1112,,,,,
96578853,1113,1113,1113,1113,,,,,
96581352,1113,1113,1113,1113,,,,,
96583851,1114,1114,1114,1114,,,,,
96586350,1115,1115,1115,1115,,,,,
96588849,1116,1116,1116,1116,,,,,
96591348,1116,1116,1116,1116,,,,,
96593847,1117,1117,1117,1117,,,,,
96596346,1118,1118,1118,1118,,,,,
96598845,1119,1119,1119,1119,,,,,
96601344,1119,1119,1119,1119,,,,,
96603843,1120,1120,1120,1120,,,,,
96606342,1121,1121,1121,1121,,,,,
96608841,1122,1122,1122,1122,,,,,
96611340,1122,1122,1122,1122,,,,,
96613839,1123,1123,1123,1123,,,,,
96616338,1124,1124,1124,1124,,,,,
96618837,1125,1125,1125,1125,,,,,
96621336,1125,1125,1125,1125,,,,,
96623835,1126,1126,1126,1126,,,,,
96626334,1127,1127,1127,1127,,,,,
96628833,1128,1128,1128,1128,,,,,
96631332,1128,1128,1128,1128,,,,,
96633831,1129,1129,1129,1129,,,,,
96636330,1130,1130,1130,1130,,,,,
96638829,1131,1131,1131,1131,,,,,
96641328,1131,1131,1131,1131,,,,,
96643827,1132,1132,1132,1132,,,,,
96646326,1133,1133,1133,1133,,,,,
96648825,1134,1134,1134,1134,,,,,
96651324,1134,1134,1134,1134,,,,,
96653823,1135,1135,1135,1135,,,,,
96656322,1136,1136,1136,1136,,,,,
96658821,1137,1137,1137,1137,,,,,
96661320,1137,1137,1137,1137,,,,,
96663819,1138,1138,1138,1138,,,,,
96666318,1139,1139,1139,1139,,,,,
96668817,1140,1140,1140,1140,,,,,
96671316,1140,1140,1140,1140,,,,,
96673815,1141,1141,1141,1141,,,,,
96676314,1142,1142,1142,1142,,,,,
96678813,1143,1143,1143,1143,,,,,
96681312,1143,1143,1143,1143,,,,,
96683811,1144,1144,1144,1144,,,,,
96686310,1145,1145,1145,1145,,,,,
96688809,1146,1146,1146,1146,,,,,
96691308,1146,1146,1146,1146,,,,,
96693807,1147,1147,1147,1147,,,,,
96696306,1148,1148,1148,1148,,,,,
96698805,1149,1149,1149,1149,,,,,
96701304,1149,1149,1149,1149,,,,,
96703803,1150,1150,1150,1150,,,,,
96706302,1165,1150,1151,1165,,,,,
96708801,1173,1158,1159,1173,,,,,
96711300,1181,1166,1167,1181,,,,,
96713799,1188,1174,1175,1189,,,,,
96716298,1196,1181,1182,1196,,,,,
96718797,1203,1189,1190,1204,,,,,
96721296,1211,1196,1197,1211,,,,,
96723795,1218,1204,1205,1218,,,,,
96726294,1225,1211,1212,1225,,,,,
96728793,1232,1218,1219,1232,,,,,
96731292,1239,1225,1226,1239,,,,,
96733791,1245,1232,1233,1246,,,,,
96736290,1252,1239,1240,1252,,,,,
96738789,1258,1246,1247,1259,,,,,
96741288,1265,1252,1253,1265,,,,,
96743787,1271,1259,1260,1272,,,,,
96746286,1278,1265,1266,1278,,,,,
96748785,1284,1272,1273,1284,,,,,
96751284,1290,1278,1279,1291,,,,,
96753783,1296,1284,1285,1297,,,,,
96756282,1302,1290,1291,1303,,,,,
96758781,1308,1296,1297,1309,,,,,
96761280,1314,1302,1303,1315,,,,,
96763779,1320,1308,1309,1320,,,,,
96766278,1326,1314,1315,1326,,,,,
96768777,1332,1320,1321,1332,,,,,
96771276,1337,1326,1327,1338,,,,,
96773775,1343,1332,1333,1343,,,,,
96776274,1348,1337,1338,1349,,,,,
96778773,1354,1343,1344,1354,,,,,
96781272,1359,1349,1349,1360,,,,,
96783771,1365,1354,1355,1365,,,,,
96786270,1370,1359,1360,1371,,,,,
96788769,1376,1365,1366,1376,,,,,
96791268,1381,1370,1371,1381,,,,,
96793767,1386,1376,1376,1386,,,,,
96796266,1391,1381,1382,1392,,,,,
96798765,1397,1386,1387,1397,,,,,
96801264,1402,1391,1392,1402,,,,,
96803763,1407,1396,1397,1407,,,,,
96806262,1412,1401,1402,1412,,,,,
96808761,1417,1407,1407,1417,,,,,
96811260,1422,1412,1412,1422,,,,,
96813759,1427,1417,1417,1427,,,,,
96816258,1432,1422,1422,1432,,,,,
96818757,1436,1426,1427,1437,,,,,
96821256,1441,1431,1432,1441,,,,,
96823755,1446,1436,1437,1446,,,,,
96826254,1451,1441,1442,1451,,,,,
96828753,1456,1446,1447,1456,,,,,
96831252,1460,1450,1451,1460,,,,,
96833751,1465,1455,1456,1465,,,,,
96836250,1470,1460,1461,1470,,,,,
96838749,1474,1464,1465,1474,,,,,
96841248,1479,1469,1470,1479,,,,,
96843747,1483,1474,1474,1483,,,,,
96846246,1488,1478,1479,1488,,,,,
96848745,1492,1483,1484,1492,,,,,
96851244,1497,1487,1488,1497,,,,,
96853743,1501,1492,1492,1501,,,,,
96856242,1506,1496,1497,1506,,,,,
96858741,1510,1501,1501,1510,,,,,
96861240,1514,1505,1506,1515,,,,,
96863739,1519,1509,1510,1519,,,,,
96866238,1523,1514,1514,1523,,,,,
96868737,1527,1518,1519,1528,,,,,
96871236,1531,1522,1523,1532,,,,,
96873735,1536,1527,1527,1536,,,,,
96876234,1540,1531,1532,1540,,,,,
96878733,1544,1535,1536,1544,,,,,
96881232,1548,1539,1540,1549,,,,,
96883731,1552,1544,1544,1553,,,,,
96886230,1557,1548,1548,1557,,,,,
96888729,1561,1552,1552,1561,,,,,
96891228,1565,1556,1556,1565,,,,,
96893727,1569,1560,1561,1569,,,,,
96896226,1573,1564,1565,1573,,,,,
96898725,1577,1568,1569,1577,,,,,
96901224,1581,1572,1573,1581,,,,,
96903723,1585,1576,1577,1585,,,,,
96906222,1589,1580,1581,1589,,,,,
96908721,1593,1584,1585,1593,,,,,
96911220,1597,1588,1589,1597,,,,,
96913719,1601,1592,1593,1601,,,,,
96916218,1605,1596,1596,1605,,,,,
96918717,1609,1600,1600,1609,,,,,
96921216,1612,1604,1604,1613,,,,,
96923715,1616,1608,1608,1617,,,,,
96926214,1620,1611,1612,1621,,,,,
96928713,1624,1615,1616,1624,,,,,
96931212,1628,1619,1620,1628,,,,,
96933711,1632,1623,1623,1632,,,,,
96936210,1635,1627,1627,1636,,,,,
96938709,1639,1630,1631,1639,,,,,
96941208,1643,1634,1635,1643,,,,,
96943707,1647,1638,1638,1647,,,,,
96946206,1650,1642,1642,1651,,,,,
96948705,1654,1645,1646,1654,,,,,
96951204,1658,1649,1649,1658,,,,,
96953703,1661,1653,1653,1662,,,,,
96956202,1665,1656,1657,1665,,,,,
96958701,1668,1660,1660,1669,,,,,
96961200,1672,1664,1664,1673,,,,,
96963699,1676,1667,1668,1676,,,,,
96966198,1679,1671,1671,1680,,,,,
96968697,1683,1674,1675,1683,,,,,
96971196,1686,1678,1678,1687,,,,,
96973695,1690,1682,1682,1690,,,,,
96976194,1693,1685,1686,1694,,,,,
96978693,1697,1689,1689,1697,,,,,
96981192,1700,1692,1693,1701,,,,,
96983691,1704,1696,1696,1704,,,,,
96986190,1707,1699,1700,1708,,,,,
96988689,1711,1703,1703,1711,,,,,
96991188,1714,1706,1707,1715,,,,,
96993687,1718,1710,1710,1718,,,,,
96996186,1721,1713,1713,1722,,,,,
96998685,1725,1717,1717,1725,,,,,
97001184,1728,1720,1720,1728,,,,,
97003683,1731,1723,1724,1732,,,,,
97006182,1735,1727,1727,1735,,,,,
97008681,1738,1730,1731,1739,,,,,
97011180,1741,1734,1734,1742,,,,,
97013679,1745,1737,1737,1745,,,,,
97016178,1748,1740,1741,1749,,,,,
97018677,1752,1744,1744,1752,,,,,
97021176,1755,1747,1747,1755,,,,,
97023675,1758,1750,1751,1758,,,,,
97026174,1761,1753,1754,1762,,,,,
97028673,1765,1757,1757,1765,,,,,
97031172,1768,1760,1761,1768,,,,,
97033671,1771,1763,1764,1772,,,,,
97036170,1775,1767,1767,1775,,,,,
97038669,1778,1770,1770,1778,,,,,
97041168,1781,1773,1773,1781,,,,,
97043667,1784,1776,1777,1785,,,,,
97046166,1788,1779,1780,1788,,,,,
97048665,1791,1783,1783,1791,,,,,
97051164,1794,1786,1786,1794,,,,,
97053663,1797,1789,1789,1797,,,,,
97056162,1800,1792,1793,1801,,,,,
97058661,1804,1795,1796,1804,,,,,
97061160,1807,1798,1799,1807,,,,,
97063659,1810,1802,1802,1810,,,,,
97066158,1813,1805,1805,1813,,,,,
97068657,1816,1808,1808,1816,,,,,
97071156,1819,1811,1811,1820,,,,,
97073655,1822,1814,1815,1823,,,,,
97076154,1825,1817,1818,1826,,,,,
97078653,1829,1820,1821,1829,,,,,
97081152,1832,1823,1824,1832,,,,,
97083651,1833,1825,1825,1833,,,,,
97086150,1832,1823,1824,1832,,,,,
97088649,1830,1822,1822,1831,,,,,
97091148,1829,1821,1821,1829,,,,,
97093647,1828,1819,1820,1828,,,,,
97096146,1826,1818,1818,1827,,,,,
97098645,1825,1816,1817,1825,,,,,
97101144,1824,1815,1816,1824,,,,,
97103643,1823,1814,1815,1823,,,,,
97106142,1822,1813,1813,1822,,,,,
97108641,1821,1812,1812,1821,,,,,
97111140,1820,1811,1811,1820,,,,,
97113639,1819,1810,1811,1819,,,,,
97116138,1818,1809,1810,1819,,,,,
97118637,1818,1809,1809,1818,,,,,
97121136,1817,1808,1808,1817,,,,,
97123635,1816,1808,1808,1817,,,,,
97126134,1816,1807,1807,1817,,,,,
97128633,1816,1807,1807,1816,,,,,
97131132,1815,1807,1807,1816,,,,,
97133631,1815,1806,1807,1816,,,,,
97136130,1815,1806,1807,1816,,,,,
97138629,1815,1806,1807,1816,,,,,
97141128,1815,1806,1807,1816,,,,,
97143627,1815,1807,1807,1816,,,,,
97146126,1816,1807,1807,1816,,,,,
97148625,1816,1807,1807,1817,,,,,
97151124,1816,1808,1808,1817,,,,,
97153623,1817,1808,1808,1817,,,,,
97156122,1817,1808,1809,1818,,,,,
97158621,1818,1809,1809,1818,,,,,
97161120,1818,1810,1810,1819,,,,,
97163619,1819,1810,1810,1820,,,,,
97166118,1820,1811,1811,1820,,,,,
97168617,1820,1812,1812,1821,,,,,
97171116,1821,1813,1813,1822,,,,,
97173615,1822,1813,1814,1823,,,,,
97176114,1823,1814,1814,1823,,,,,
97178613,1824,1815,1815,1824,,,,,
97181112,1825,1816,1816,1825,,,,,
97183611,1826,1817,1817,1826,,,,,
97186110,1827,1818,1818,1827,,,,,
97188609,1828,1819,1819,1828,,,,,
97191108,1829,1820,1820,1829,,,,,
97193607,1830,1821,1822,1830,,,,,
97196106,1831,1822,1823,1831,,,,,
97198605,1832,1823,1824,1833,,,,,
97201104,1833,1825,1825,1834,,,,,
97203603,1834,1826,1826,1835,,,,,
97206102,1836,1827,1827,1836,,,,,
97208601,1837,1828,1828,1837,,,,,
97211100,1838,1829,1830,1838,,,,,
97213599,1839,1830,1831,1839,,,,,
97216098,1840,1831,1832,1840,,,,,
97218597,1841,1833,1833,1842,,,,,
97221096,1843,1834,1834,1843,,,,,
97223595,1844,1835,1836,1844,,,,,
97226094,1845,1836,1837,1845,,,,,
97228593,1846,1838,1838,1846,,,,,
97231092,1846,1839,1839,1847,,,,,
97233591,1847,1840,1840,1847,,,,,
97236090,1848,1841,1841,1848,,,,,
97238589,1848,1841,1842,1848,,,,,
97241088,1848,1842,1843,1849,,,,,
97243587,1849,1842,1843,1849,,,,,
97246086,1848,1842,1843,1849,,,,,
97248585,1848,1842,1843,1848,,,,,
97251084,1848,1842,1843,1848,,,,,
97253583,1847,1841,1842,1847,,,,,
97256082,1846,1841,1841,1846,,,,,
97258581,1845,1840,1840,1845,,,,,
97261080,1844,1839,1839,1844,,,,,
97263579,1842,1837,1838,1843,,,,,
97266078,1841,1836,1836,1841,,,,,
97268577,1839,1834,1835,1839,,,,,
97271076,1837,1832,1833,1837,,,,,
97273575,1835,1830,1831,1835,,,,,
97276074,1833,1828,1829,1833,,,,,
97278573,1831,1826,1827,1831,,,,,
97281072,1828,1823,1824,1828,,,,,
97283571,1826,1821,1822,1826,,,,,
97286070,1823,1818,1819,1823,,,,,
97288569,1821,1816,1817,1821,,,,,
97291068,1818,1813,1814,1818,,,,,
97293567,1815,1810,1811,1815,,,,,
97296066,1812,1807,1808,1812,,,,,
97298565,1809,1804,1805,1809,,,,,
97301064,1806,1801,1802,1806,,,,,
97303563,1803,1798,1799,1803,,,,,
97306062,1799,1795,1796,1799,,,,,
97308561,1796,1792,1793,1796,,,,,
97311060,1793,1789,1789,1793,,,,,
97313559,1789,1785,1786,1789,,,,,
97316058,1786,1782,1783,1786,,,,,
97318557,1783,1779,1780,1783,,,,,
97321056,1779,1775,1776,1779,,,,,
97323555,1776,1772,1773,1776,,,,,
97326054,1772,1769,1770,1772,,,,,
97328553,1769,1765,1766,1769,,,,,
97331052,1766,1762,1763,1765,,,,,
97333551,1762,1759,1760,1762,,,,,
97336050,1759,1755,1756,1759,,,,,
97338549,1755,1752,1753,1755,,,,,
97341048,1752,1749,1750,1752,,,,,
97343547,1748,1746,1746,1748,,,,,
97346046,1745,1742,1743,1745,,,,,
97348545,1741,1739,1739,1741,,,,,
97351044,1738,1735,1736,1738,,,,,
97353543,1734,1732,1733,1734,,,,,
97356042,1731,1729,1729,1731,,,,,
97358541,1727,1725,1726,1728,,,,,
97361040,1724,1722,1723,1724,,,,,
97363539,1720,1719,1719,1721,,,,,
97366038,1717,1716,1716,1717,,,,,
97368537,1714,1712,1713,1714,,,,,
97371036,1710,1709,1710,1711,,,,,
97373535,1707,1706,1706,1707,,,,,
97376034,1704,1703,1703,1704,,,,,
97378533,1700,1700,1700,1701,,,,,
97381032,1697,1696,1697,1698,,,,,
97383531,1694,1693,1694,1695,,,,,
97386030,1691,1691,1691,1691,,,,,
97388529,1688,1688,1688,1688,,,,,
97391028,1685,1685,1685,1685,,,,,
97393527,1682,1682,1682,1683,,,,,
97396026,1679,1679,1680,1680,,,,,
97398525,1676,1676,1677,1677,,,,,
97401024,1674,1674,1674,1674,,,,,
97403523,1671,1671,1671,1671,,,,,
97406022,1668,1668,1669,1669,,,,,
97408521,1665,1666,1666,1666,,,,,
97411020,1663,1663,1664,1663,,,,,
97413519,1660,1661,1661,1661,,,,,
97416018,1658,1659,1659,1658,,,,,
97418517,1655,1656,1657,1656,,,,,
97421016,1653,1654,1654,1654,,,,,
97423515,1651,1652,1652,1651,,,,,
97426014,1649,1650,1650,1649,,,,,
97428513,1646,1648,1648,1647,,,,,
