timestamp,TimeUS,C1,C2,C3,C4,C5,C6,C7,C8,C9,C10,C11,C12,C13,C14
1706420292.30004025,82128802,1000,1000,1000,1000,0,0,0,0,0,0,0,0,0,0
1706420292.40000010,82228762,1000,1000,1000,1000,0,0,0,0,0,0,0,0,0,0
1706420292.49996018,82328722,1000,1000,1000,1000,0,0,0,0,0,0,0,0,0,0
1706420292.59992027,82428682,1000,1000,1000,1000,0,0,0,0,0,0,0,0,0,0
1706420292.69988012,82528642,1000,1000,1000,1000,0,0,0,0,0,0,0,0,0,0
1706420292.79984021,82628602,1000,1000,1000,1000,0,0,0,0,0,0,0,0,0,0
1706420292.89980030,82728562,1000,1000,1000,1000,0,0,0,0,0,0,0,0,0,0
1706420292.99976015,82828522,1000,1000,1000,1000,0,0,0,0,0,0,0,0,0,0
1706420293.09972024,82928482,1000,1000,1000,1000,0,0,0,0,0,0,0,0,0,0
1706420293.19968009,83028442,1000,1000,1000,1000,0,0,0,0,0,0,0,0,0,0
1706420293.29964018,83128402,1000,1000,1000,1000,0,0,0,0,0,0,0,0,0,0
1706420293.39960027,83228362,1000,1000,1000,1000,0,0,0,0,0,0,0,0,0,0
1706420293.49956012,83328322,1000,1000,1000,1000,0,0,0,0,0,0,0,0,0,0
1706420293.59952021,83428282,1000,1000,1000,1000,0,0,0,0,0,0,0,0,0,0
1706420293.69948030,83528242,1000,1000,1000,1000,0,0,0,0,0,0,0,0,0,0
1706420293.79944015,83628202,1000,1000,1000,1000,0,0,0,0,0,0,0,0,0,0
1706420293.89940023,83728162,1000,1000,1000,1000,0,0,0,0,0,0,0,0,0,0
1706420294.00019312,83828955,1000,1000,1000,1000,0,0,0,0,0,0,0,0,0,0
1706420294.10015321,83928915,1000,1000,1000,1000,0,0,0,0,0,0,0,0,0,0
1706420294.20011330,84028875,1000,1000,1000,1000,0,0,0,0,0,0,0,0,0,0
1706420294.30007315,84128835,1027,1027,1027,1027,0,0,0,0,0,0,0,0,0,0
1706420294.40003324,84228795,1057,1057,1057,1057,0,0,0,0,0,0,0,0,0,0
1706420294.49999309,84328755,1087,1087,1087,1087,0,0,0,0,0,0,0,0,0,0
1706420294.59995317,84428715,1117,1117,1117,1117,0,0,0,0,0,0,0,0,0,0
1706420294.69991326,84528675,1147,1147,1147,1147,0,0,0,0,0,0,0,0,0,0
1706420294.79987311,84628635,1386,1376,1377,1386,0,0,0,0,0,0,0,0,0,0
1706420294.89983320,84728595,1569,1560,1561,1569,0,0,0,0,0,0,0,0,0,0
1706420294.99979329,84828555,1717,1710,1710,1718,0,0,0,0,0,0,0,0,0,0
1706420295.09975314,84928515,1847,1839,1839,1847,0,0,0,0,0,0,0,0,0,0
1706420295.19971323,85028475,1884,1876,1876,1884,0,0,0,0,0,0,0,0,0,0
1706420295.29967308,85128435,1825,1823,1823,1825,0,0,0,0,0,0,0,0,0,0
1706420295.39963317,85228395,1701,1703,1703,1702,0,0,0,0,0,0,0,0,0,0
1706420295.49959326,85328355,1639,1639,1637,1642,0,0,0,0,0,0,0,0,0,0
1706420295.59955311,85428315,1629,1632,1627,1635,0,0,0,0,0,0,0,0,0,0
1706420295.69951320,85528275,1637,1641,1638,1641,0,0,0,0,0,0,0,0,0,0
1706420295.79947329,85628235,1643,1646,1646,1643,0,0,0,0,0,0,0,0,0,0
1706420295.89943314,85728195,1641,1642,1644,1639,0,0,0,0,0,0,0,0,0,0
1706420295.99939322,85828155,1634,1633,1636,1631,0,0,0,0,0,0,0,0,0,0
1706420296.10018611,85928948,1629,1627,1630,1625,0,0,0,0,0,0,0,0,0,0
1706420296.20014620,86028908,1627,1625,1627,1624,0,0,0,0,0,0,0,0,0,0
1706420296.30010629,86128868,1620,1619,1621,1618,0,0,0,0,0,0,0,0,0,0
1706420296.40006614,86228828,1590,1591,1599,1582,0,0,0,0,0,0,0,0,0,0
1706420296.50002623,86328788,1578,1578,1584,1572,0,0,0,0,0,0,0,0,0,0
1706420296.59998608,86428748,1566,1566,1566,1566,0,0,0,0,0,0,0,0,0,0
1706420296.69994617,86528708,1557,1557,1553,1561,0,0,0,0,0,0,0,0,0,0
1706420296.79990625,86628668,1549,1548,1543,1554,0,0,0,0,0,0,0,0,0,0
1706420296.89986610,86728628,1543,1542,1534,1551,0,0,0,0,0,0,0,0,0,0
1706420296.99982619,86828588,1538,1537,1530,1544,0,0,0,0,0,0,0,0,0,0
1706420297.09978628,86928548,1533,1532,1528,1536,0,0,0,0,0,0,0,0,0,0
1706420297.19974613,87028508,1527,1527,1527,1528,0,0,0,0,0,0,0,0,0,0
1706420297.29970622,87128468,1526,1526,1527,1524,0,0,0,0,0,0,0,0,0,0
1706420297.39966607,87228428,1527,1527,1530,1525,0,0,0,0,0,0,0,0,0,0
1706420297.49962616,87328388,1530,1529,1532,1527,0,0,0,0,0,0,0,0,0,0
1706420297.59958625,87428348,1533,1534,1536,1531,0,0,0,0,0,0,0,0,0,0
1706420297.69954610,87528308,1537,1537,1539,1536,0,0,0,0,0,0,0,0,0,0
1706420297.79950619,87628268,1541,1540,1542,1540,0,0,0,0,0,0,0,0,0,0
1706420297.89946628,87728228,1544,1543,1544,1544,0,0,0,0,0,0,0,0,0,0
1706420297.99942613,87828188,1548,1547,1548,1548,0,0,0,0,0,0,0,0,0,0
1706420298.10021925,87928981,1550,1550,1550,1551,0,0,0,0,0,0,0,0,0,0
1706420298.20017910,88028941,1553,1554,1553,1553,0,0,0,0,0,0,0,0,0,0
1706420298.30013919,88128901,1555,1555,1554,1556,0,0,0,0,0,0,0,0,0,0
1706420298.40009928,88228861,1558,1558,1555,1557,0,0,0,0,0,0,0,0,0,0
1706420298.50005913,88328821,1560,1559,1557,1559,0,0,0,0,0,0,0,0,0,0
1706420298.60001922,88428781,1560,1559,1560,1561,0,0,0,0,0,0,0,0,0,0
1706420298.69997907,88528741,1560,1560,1563,1564,0,0,0,0,0,0,0,0,0,0
1706420298.79993916,88628701,1562,1561,1566,1565,0,0,0,0,0,0,0,0,0,0
1706420298.89989924,88728661,1562,1562,1567,1567,0,0,0,0,0,0,0,0,0,0
1706420298.99985909,88828621,1564,1565,1569,1568,0,0,0,0,0,0,0,0,0,0
1706420299.09981918,88928581,1566,1566,1569,1569,0,0,0,0,0,0,0,0,0,0
1706420299.19977927,89028541,1568,1569,1570,1570,0,0,0,0,0,0,0,0,0,0
1706420299.29973912,89128501,1571,1570,1571,1571,0,0,0,0,0,0,0,0,0,0
1706420299.39969921,89228461,1570,1570,1569,1569,0,0,0,0,0,0,0,0,0,0
1706420299.49965930,89328421,1572,1572,1570,1570,0,0,0,0,0,0,0,0,0,0
1706420299.59961915,89428381,1573,1573,1570,1571,0,0,0,0,0,0,0,0,0,0
1706420299.69957924,89528341,1574,1573,1571,1570,0,0,0,0,0,0,0,0,0,0
1706420299.79953909,89628301,1575,1575,1572,1571,0,0,0,0,0,0,0,0,0,0
1706420299.89949918,89728261,1575,1575,1573,1572,0,0,0,0,0,0,0,0,0,0
1706420299.99945927,89828221,1575,1575,1574,1572,0,0,0,0,0,0,0,0,0,0
1706420300.09941912,89928181,1576,1576,1574,1574,0,0,0,0,0,0,0,0,0,0
1706420300.20021224,90028974,1575,1576,1575,1574,0,0,0,0,0,0,0,0,0,0
1706420300.30017209,90128934,1576,1576,1575,1575,0,0,0,0,0,0,0,0,0,0
1706420300.40013218,90228894,1576,1576,1576,1576,0,0,0,0,0,0,0,0,0,0
1706420300.50009227,90328854,1576,1576,1576,1577,0,0,0,0,0,0,0,0,0,0
1706420300.60005212,90428814,1576,1576,1577,1577,0,0,0,0,0,0,0,0,0,0
1706420300.70001221,90528774,1576,1576,1577,1577,0,0,0,0,0,0,0,0,0,0
1706420300.79997230,90628734,1577,1577,1578,1577,0,0,0,0,0,0,0,0,0,0
1706420300.89993215,90728694,1577,1577,1578,1578,0,0,0,0,0,0,0,0,0,0
1706420300.99989223,90828654,1577,1577,1578,1578,0,0,0,0,0,0,0,0,0,0
1706420301.09985209,90928614,1578,1577,1578,1578,0,0,0,0,0,0,0,0,0,0
1706420301.19981217,91028574,1578,1578,1579,1578,0,0,0,0,0,0,0,0,0,0
1706420301.29977226,91128534,1578,1578,1578,1578,0,0,0,0,0,0,0,0,0,0
1706420301.39973211,91228494,1578,1578,1578,1578,0,0,0,0,0,0,0,0,0,0
1706420301.49969220,91328454,1577,1578,1577,1578,0,0,0,0,0,0,0,0,0,0
1706420301.59965229,91428414,1578,1578,1578,1578,0,0,0,0,0,0,0,0,0,0
1706420301.69961214,91528374,1579,1579,1578,1578,0,0,0,0,0,0,0,0,0,0
1706420301.79957223,91628334,1580,1580,1579,1580,0,0,0,0,0,0,0,0,0,0
1706420301.89953208,91728294,1580,1579,1579,1579,0,0,0,0,0,0,0,0,0,0
1706420301.99949217,91828254,1579,1579,1579,1578,0,0,0,0,0,0,0,0,0,0
1706420302.09945226,91928214,1580,1579,1580,1579,0,0,0,0,0,0,0,0,0,0
1706420302.19941211,92028174,1579,1580,1580,1579,0,0,0,0,0,0,0,0,0,0
1706420302.30020523,92128967,1579,1580,1580,1580,0,0,0,0,0,0,0,0,0,0
1706420302.40016508,92228927,1579,1579,1579,1580,0,0,0,0,0,0,0,0,0,0
1706420302.50012517,92328887,1579,1579,1579,1580,0,0,0,0,0,0,0,0,0,0
1706420302.60008526,92428847,1579,1579,1580,1580,0,0,0,0,0,0,0,0,0,0
1706420302.70004511,92528807,1579,1578,1579,1579,0,0,0,0,0,0,0,0,0,0
1706420302.80000520,92628767,1579,1579,1580,1579,0,0,0,0,0,0,0,0,0,0
1706420302.89996529,92728727,1579,1579,1579,1579,0,0,0,0,0,0,0,0,0,0
1706420302.99992514,92828687,1580,1580,1580,1580,0,0,0,0,0,0,0,0,0,0
1706420303.09988523,92928647,1580,1580,1580,1580,0,0,0,0,0,0,0,0,0,0
1706420303.19984508,93028607,1580,1580,1580,1580,0,0,0,0,0,0,0,0,0,0
1706420303.29980516,93128567,1580,1580,1580,1580,0,0,0,0,0,0,0,0,0,0
1706420303.39976525,93228527,1579,1579,1579,1579,0,0,0,0,0,0,0,0,0,0
1706420303.49972510,93328487,1580,1579,1579,1580,0,0,0,0,0,0,0,0,0,0
1706420303.59968519,93428447,1580,1580,1580,1580,0,0,0,0,0,0,0,0,0,0
1706420303.69964528,93528407,1580,1580,1580,1580,0,0,0,0,0,0,0,0,0,0
1706420303.79960513,93628367,1580,1581,1581,1580,0,0,0,0,0,0,0,0,0,0
1706420303.89956522,93728327,1580,1581,1580,1580,0,0,0,0,0,0,0,0,0,0
1706420303.99952507,93828287,1581,1581,1581,1581,0,0,0,0,0,0,0,0,0,0
1706420304.09948516,93928247,1580,1580,1581,1581,0,0,0,0,0,0,0,0,0,0
1706420304.19944525,94028207,1579,1579,1579,1579,0,0,0,0,0,0,0,0,0,0
1706420304.29940510,94128167,1580,1580,1580,1580,0,0,0,0,0,0,0,0,0,0
1706420304.40019822,94228960,1581,1581,1581,1581,0,0,0,0,0,0,0,0,0,0
1706420304.50015807,94328920,1580,1580,1580,1580,0,0,0,0,0,0,0,0,0,0
1706420304.60011816,94428880,1580,1581,1587,1574,0,0,0,0,0,0,0,0,0,0
1706420304.70007825,94528840,1580,1582,1586,1573,0,0,0,0,0,0,0,0,0,0
1706420304.80003810,94628800,1579,1582,1578,1574,0,0,0,0,0,0,0,0,0,0
1706420304.89999819,94728760,1577,1579,1568,1572,0,0,0,0,0,0,0,0,0,0
1706420304.99995828,94828720,1578,1580,1563,1569,0,0,0,0,0,0,0,0,0,0
1706420305.09991813,94928680,1579,1579,1558,1565,0,0,0,0,0,0,0,0,0,0
1706420305.19987822,95028640,1580,1579,1556,1561,0,0,0,0,0,0,0,0,0,0
1706420305.29983807,95128600,1581,1579,1556,1557,0,0,0,0,0,0,0,0,0,0
1706420305.39979815,95228560,1580,1578,1556,1554,0,0,0,0,0,0,0,0,0,0
1706420305.49975824,95328520,1579,1579,1556,1554,0,0,0,0,0,0,0,0,0,0
1706420305.59971809,95428480,1578,1579,1557,1555,0,0,0,0,0,0,0,0,0,0
1706420305.69967818,95528440,1576,1578,1555,1554,0,0,0,0,0,0,0,0,0,0
1706420305.79963827,95628400,1576,1577,1554,1553,0,0,0,0,0,0,0,0,0,0
1706420305.89959812,95728360,1575,1577,1553,1553,0,0,0,0,0,0,0,0,0,0
1706420305.99955821,95828320,1575,1577,1551,1551,0,0,0,0,0,0,0,0,0,0
1706420306.09951830,95928280,1577,1577,1550,1550,0,0,0,0,0,0,0,0,0,0
1706420306.19947815,96028240,1578,1579,1548,1547,0,0,0,0,0,0,0,0,0,0
1706420306.29943824,96128200,1581,1582,1546,1546,0,0,0,0,0,0,0,0,0,0
1706420306.39939809,96228160,1585,1587,1545,1544,0,0,0,0,0,0,0,0,0,0
1706420306.50019121,96328953,1588,1588,1541,1540,0,0,0,0,0,0,0,0,0,0
1706420306.60015130,96428913,1591,1591,1538,1538,0,0,0,0,0,0,0,0,0,0
1706420306.70011115,96528873,1593,1593,1536,1536,0,0,0,0,0,0,0,0,0,0
1706420306.80007124,96628833,1594,1594,1535,1535,0,0,0,0,0,0,0,0,0,0
1706420306.90003109,96728793,1594,1594,1535,1536,0,0,0,0,0,0,0,0,0,0
1706420306.99999118,96828753,1594,1594,1537,1538,0,0,0,0,0,0,0,0,0,0
1706420307.09995127,96928713,1592,1592,1539,1542,0,0,0,0,0,0,0,0,0,0
1706420307.19991112,97028673,1589,1588,1545,1548,0,0,0,0,0,0,0,0,0,0
1706420307.29987121,97128633,1583,1580,1553,1556,0,0,0,0,0,0,0,0,0,0
1706420307.39983130,97228593,1575,1571,1564,1566,0,0,0,0,0,0,0,0,0,0
1706420307.49979115,97328553,1565,1560,1576,1578,0,0,0,0,0,0,0,0,0,0
1706420307.59975123,97428513,1554,1550,1588,1590,0,0,0,0,0,0,0,0,0,0
1706420307.69971108,97528473,1543,1540,1600,1600,0,0,0,0,0,0,0,0,0,0
1706420307.79967117,97628433,1534,1534,1609,1608,0,0,0,0,0,0,0,0,0,0
1706420307.89963126,97728393,1530,1531,1615,1614,0,0,0,0,0,0,0,0,0,0
1706420307.99959111,97828353,1528,1530,1616,1615,0,0,0,0,0,0,0,0,0,0
1706420308.09955120,97928313,1531,1534,1614,1613,0,0,0,0,0,0,0,0,0,0
1706420308.19951129,98028273,1536,1539,1608,1608,0,0,0,0,0,0,0,0,0,0
1706420308.29947114,98128233,1545,1546,1602,1603,0,0,0,0,0,0,0,0,0,0
1706420308.39943123,98228193,1554,1554,1594,1595,0,0,0,0,0,0,0,0,0,0
1706420308.50022411,98328986,1564,1563,1588,1587,0,0,0,0,0,0,0,0,0,0
1706420308.60018420,98428946,1572,1571,1581,1579,0,0,0,0,0,0,0,0,0,0
1706420308.70014429,98528906,1579,1578,1575,1574,0,0,0,0,0,0,0,0,0,0
1706420308.80010414,98628866,1584,1583,1571,1570,0,0,0,0,0,0,0,0,0,0
1706420308.90006423,98728826,1588,1587,1568,1569,0,0,0,0,0,0,0,0,0,0
1706420309.00002408,98828786,1589,1588,1567,1567,0,0,0,0,0,0,0,0,0,0
1706420309.09998417,98928746,1588,1588,1568,1568,0,0,0,0,0,0,0,0,0,0
1706420309.19994426,99028706,1586,1585,1568,1569,0,0,0,0,0,0,0,0,0,0
1706420309.29990411,99128666,1583,1582,1571,1571,0,0,0,0,0,0,0,0,0,0
1706420309.39986420,99228626,1580,1580,1574,1574,0,0,0,0,0,0,0,0,0,0
1706420309.49982429,99328586,1577,1577,1576,1577,0,0,0,0,0,0,0,0,0,0
1706420309.59978414,99428546,1575,1575,1580,1579,0,0,0,0,0,0,0,0,0,0
1706420309.69974422,99528506,1573,1573,1581,1581,0,0,0,0,0,0,0,0,0,0
1706420309.79970407,99628466,1572,1573,1583,1583,0,0,0,0,0,0,0,0,0,0
1706420309.89966416,99728426,1571,1572,1583,1583,0,0,0,0,0,0,0,0,0,0
1706420309.99962425,99828386,1572,1574,1584,1584,0,0,0,0,0,0,0,0,0,0
1706420310.09958410,99928346,1573,1573,1583,1583,0,0,0,0,0,0,0,0,0,0
1706420310.19954419,100028306,1511,1528,1600,1604,0,0,0,0,0,0,0,0,0,0
1706420310.29950428,100128266,1557,1527,1601,1604,0,0,0,0,0,0,0,0,0,0
1706420310.39946413,100228226,1592,1543,1601,1604,0,0,0,0,0,0,0,0,0,0
1706420310.49942422,100328186,1612,1568,1598,1601,0,0,0,0,0,0,0,0,0,0
1706420310.60021710,100428979,1620,1591,1592,1593,0,0,0,0,0,0,0,0,0,0
1706420310.70017719,100528939,1618,1609,1585,1584,0,0,0,0,0,0,0,0,0,0
1706420310.80013728,100628899,1611,1619,1580,1577,0,0,0,0,0,0,0,0,0,0
1706420310.90009713,100728859,1606,1622,1577,1573,0,0,0,0,0,0,0,0,0,0
1706420311.00005722,100828819,1604,1620,1577,1572,0,0,0,0,0,0,0,0,0,0
1706420311.10001707,100928779,1603,1615,1579,1574,0,0,0,0,0,0,0,0,0,0
1706420311.19997716,101028739,1601,1607,1578,1574,0,0,0,0,0,0,0,0,0,0
1706420311.29993725,101128699,1598,1599,1578,1577,0,0,0,0,0,0,0,0,0,0
1706420311.39989710,101228659,1594,1593,1579,1579,0,0,0,0,0,0,0,0,0,0
1706420311.49985719,101328619,1590,1588,1579,1581,0,0,0,0,0,0,0,0,0,0
1706420311.59981728,101428579,1585,1584,1580,1582,0,0,0,0,0,0,0,0,0,0
1706420311.69977713,101528539,1580,1581,1580,1582,0,0,0,0,0,0,0,0,0,0
1706420311.79973722,101628499,1576,1579,1581,1582,0,0,0,0,0,0,0,0,0,0
1706420311.89969707,101728459,1574,1577,1581,1582,0,0,0,0,0,0,0,0,0,0
1706420311.99965715,101828419,1573,1577,1582,1582,0,0,0,0,0,0,0,0,0,0
1706420312.09961724,101928379,1573,1577,1582,1582,0,0,0,0,0,0,0,0,0,0
1706420312.19957709,102028339,1575,1577,1582,1582,0,0,0,0,0,0,0,0,0,0
1706420312.29953718,102128299,1577,1577,1581,1581,0,0,0,0,0,0,0,0,0,0
1706420312.39949727,102228259,1578,1577,1580,1580,0,0,0,0,0,0,0,0,0,0
1706420312.49945712,102328219,1579,1578,1578,1579,0,0,0,0,0,0,0,0,0,0
1706420312.59941721,102428179,1580,1578,1583,1570,0,0,0,0,0,0,0,0,0,0
1706420312.70021009,102528972,1581,1580,1581,1568,0,0,0,0,0,0,0,0,0,0
1706420312.80017018,102628932,1579,1579,1571,1567,0,0,0,0,0,0,0,0,0,0
1706420312.90013027,102728892,1577,1579,1563,1567,0,0,0,0,0,0,0,0,0,0
1706420313.00009012,102828852,1576,1579,1558,1565,0,0,0,0,0,0,0,0,0,0
1706420313.10005021,102928812,1575,1577,1556,1562,0,0,0,0,0,0,0,0,0,0
1706420313.20001030,103028772,1575,1576,1555,1558,0,0,0,0,0,0,0,0,0,0
1706420313.29997015,103128732,1574,1574,1555,1556,0,0,0,0,0,0,0,0,0,0
1706420313.39993024,103228692,1574,1575,1556,1555,0,0,0,0,0,0,0,0,0,0
1706420313.49989009,103328652,1574,1574,1556,1554,0,0,0,0,0,0,0,0,0,0
1706420313.59985018,103428612,1573,1574,1555,1553,0,0,0,0,0,0,0,0,0,0
1706420313.69981027,103528572,1573,1573,1554,1553,0,0,0,0,0,0,0,0,0,0
1706420313.79977012,103628532,1573,1574,1553,1552,0,0,0,0,0,0,0,0,0,0
1706420313.89973021,103728492,1573,1574,1551,1551,0,0,0,0,0,0,0,0,0,0
1706420313.99969029,103828452,1574,1576,1550,1550,0,0,0,0,0,0,0,0,0,0
1706420314.09965014,103928412,1574,1576,1547,1547,0,0,0,0,0,0,0,0,0,0
1706420314.19961023,104028372,1577,1578,1545,1545,0,0,0,0,0,0,0,0,0,0
1706420314.29957008,104128332,1579,1580,1543,1543,0,0,0,0,0,0,0,0,0,0
1706420314.39953017,104228292,1582,1583,1541,1540,0,0,0,0,0,0,0,0,0,0
1706420314.49949026,104328252,1584,1585,1538,1537,0,0,0,0,0,0,0,0,0,0
1706420314.59945011,104428212,1587,1588,1536,1536,0,0,0,0,0,0,0,0,0,0
1706420314.69941020,104528172,1591,1591,1535,1535,0,0,0,0,0,0,0,0,0,0
1706420314.80020308,104628965,1593,1592,1534,1534,0,0,0,0,0,0,0,0,0,0
1706420314.90016317,104728925,1594,1593,1535,1536,0,0,0,0,0,0,0,0,0,0
1706420315.00012326,104828885,1594,1592,1537,1538,0,0,0,0,0,0,0,0,0,0
1706420315.10008311,104928845,1591,1589,1539,1542,0,0,0,0,0,0,0,0,0,0
1706420315.20004320,105028805,1588,1585,1545,1548,0,0,0,0,0,0,0,0,0,0
1706420315.30000329,105128765,1582,1579,1551,1554,0,0,0,0,0,0,0,0,0,0
1706420315.39996314,105228725,1574,1573,1558,1562,0,0,0,0,0,0,0,0,0,0
1706420315.49992323,105328685,1566,1564,1568,1571,0,0,0,0,0,0,0,0,0,0
1706420315.59988308,105428645,1556,1555,1578,1580,0,0,0,0,0,0,0,0,0,0
1706420315.69984317,105528605,1546,1545,1589,1589,0,0,0,0,0,0,0,0,0,0
1706420315.79980326,105628565,1538,1537,1597,1597,0,0,0,0,0,0,0,0,0,0
1706420315.89976311,105728525,1532,1532,1603,1603,0,0,0,0,0,0,0,0,0,0
1706420315.99972320,105828485,1529,1530,1607,1606,0,0,0,0,0,0,0,0,0,0
1706420316.09968328,105928445,1530,1532,1608,1607,0,0,0,0,0,0,0,0,0,0
1706420316.19964314,106028405,1533,1535,1606,1605,0,0,0,0,0,0,0,0,0,0
1706420316.29960322,106128365,1537,1540,1601,1601,0,0,0,0,0,0,0,0,0,0
1706420316.39956307,106228325,1545,1547,1596,1596,0,0,0,0,0,0,0,0,0,0
1706420316.49952316,106328285,1554,1554,1589,1590,0,0,0,0,0,0,0,0,0,0
1706420316.59948325,106428245,1562,1562,1584,1584,0,0,0,0,0,0,0,0,0,0
1706420316.69944310,106528205,1569,1568,1577,1578,0,0,0,0,0,0,0,0,0,0
1706420316.79940319,106628165,1575,1573,1572,1573,0,0,0,0,0,0,0,0,0,0
1706420316.90019608,106728958,1581,1579,1571,1569,0,0,0,0,0,0,0,0,0,0
1706420317.00015616,106828918,1583,1581,1568,1566,0,0,0,0,0,0,0,0,0,0
1706420317.10011625,106928878,1586,1585,1570,1568,0,0,0,0,0,0,0,0,0,0
1706420317.20007610,107028838,1586,1585,1569,1569,0,0,0,0,0,0,0,0,0,0
1706420317.30003619,107128798,1585,1584,1570,1570,0,0,0,0,0,0,0,0,0,0
1706420317.39999628,107228758,1583,1582,1571,1572,0,0,0,0,0,0,0,0,0,0
1706420317.49995613,107328718,1580,1580,1573,1574,0,0,0,0,0,0,0,0,0,0
1706420317.59991622,107428678,1578,1579,1576,1577,0,0,0,0,0,0,0,0,0,0
1706420317.69987607,107528638,1576,1576,1578,1578,0,0,0,0,0,0,0,0,0,0
1706420317.79983616,107628598,1575,1575,1580,1580,0,0,0,0,0,0,0,0,0,0
1706420317.89979625,107728558,1574,1575,1582,1582,0,0,0,0,0,0,0,0,0,0
1706420317.99975610,107828518,1574,1575,1583,1582,0,0,0,0,0,0,0,0,0,0
1706420318.09971619,107928478,1574,1575,1583,1583,0,0,0,0,0,0,0,0,0,0
1706420318.19967628,108028438,1575,1575,1583,1582,0,0,0,0,0,0,0,0,0,0
1706420318.29963613,108128398,1576,1576,1582,1582,0,0,0,0,0,0,0,0,0,0
1706420318.39959621,108228358,1576,1577,1581,1581,0,0,0,0,0,0,0,0,0,0
1706420318.49955630,108328318,1577,1577,1580,1580,0,0,0,0,0,0,0,0,0,0
1706420318.59951615,108428278,1578,1577,1577,1578,0,0,0,0,0,0,0,0,0,0
1706420318.69947624,108528238,1579,1579,1578,1577,0,0,0,0,0,0,0,0,0,0
1706420318.79943609,108628198,1580,1580,1578,1578,0,0,0,0,0,0,0,0,0,0
1706420318.89939618,108728158,1581,1581,1577,1578,0,0,0,0,0,0,0,0,0,0
1706420319.00018907,108828951,1581,1581,1577,1578,0,0,0,0,0,0,0,0,0,0
1706420319.10014915,108928911,1581,1580,1577,1577,0,0,0,0,0,0,0,0,0,0
1706420319.20010924,109028871,1581,1581,1578,1578,0,0,0,0,0,0,0,0,0,0
1706420319.30006909,109128831,1581,1581,1579,1578,0,0,0,0,0,0,0,0,0,0
1706420319.40002918,109228791,1580,1580,1578,1578,0,0,0,0,0,0,0,0,0,0
1706420319.49998927,109328751,1580,1580,1579,1579,0,0,0,0,0,0,0,0,0,0
1706420319.59994912,109428711,1580,1580,1579,1579,0,0,0,0,0,0,0,0,0,0
1706420319.69990921,109528671,1580,1580,1580,1580,0,0,0,0,0,0,0,0,0,0
1706420319.79986930,109628631,1579,1579,1580,1580,0,0,0,0,0,0,0,0,0,0
1706420319.89982915,109728591,1578,1579,1579,1580,0,0,0,0,0,0,0,0,0,0
1706420319.99978924,109828551,1579,1580,1581,1581,0,0,0,0,0,0,0,0,0,0
1706420320.09974909,109928511,1580,1580,1582,1581,0,0,0,0,0,0,0,0,0,0
1706420320.19970918,110028471,1581,1580,1582,1582,0,0,0,0,0,0,0,0,0,0
1706420320.29966927,110128431,1580,1580,1580,1580,0,0,0,0,0,0,0,0,0,0
1706420320.39962912,110228391,1581,1581,1581,1582,0,0,0,0,0,0,0,0,0,0
1706420320.49958920,110328351,1580,1579,1580,1579,0,0,0,0,0,0,0,0,0,0
1706420320.59954929,110428311,1582,1581,1581,1582,0,0,0,0,0,0,0,0,0,0
1706420320.69950914,110528271,1581,1581,1581,1580,0,0,0,0,0,0,0,0,0,0
1706420320.79946923,110628231,1582,1582,1581,1581,0,0,0,0,0,0,0,0,0,0
1706420320.89942908,110728191,1582,1582,1581,1581,0,0,0,0,0,0,0,0,0,0
1706420321.00022221,110828984,1582,1582,1581,1581,0,0,0,0,0,0,0,0,0,0
1706420321.10018229,110928944,1581,1580,1580,1580,0,0,0,0,0,0,0,0,0,0
1706420321.20014215,111028904,1581,1581,1580,1580,0,0,0,0,0,0,0,0,0,0
1706420321.30010223,111128864,1581,1581,1580,1580,0,0,0,0,0,0,0,0,0,0
1706420321.40006208,111228824,1580,1581,1586,1573,0,0,0,0,0,0,0,0,0,0
1706420321.50002217,111328784,1580,1582,1585,1572,0,0,0,0,0,0,0,0,0,0
1706420321.59998226,111428744,1580,1582,1578,1574,0,0,0,0,0,0,0,0,0,0
1706420321.69994211,111528704,1578,1580,1568,1572,0,0,0,0,0,0,0,0,0,0
1706420321.79990220,111628664,1577,1580,1562,1569,0,0,0,0,0,0,0,0,0,0
1706420321.89986229,111728624,1578,1580,1558,1565,0,0,0,0,0,0,0,0,0,0
1706420321.99982214,111828584,1579,1579,1557,1560,0,0,0,0,0,0,0,0,0,0
1706420322.09978223,111928544,1579,1579,1556,1556,0,0,0,0,0,0,0,0,0,0
1706420322.19974208,112028504,1580,1579,1556,1555,0,0,0,0,0,0,0,0,0,0
1706420322.29970217,112128464,1580,1578,1556,1554,0,0,0,0,0,0,0,0,0,0
1706420322.39966226,112228424,1578,1578,1556,1554,0,0,0,0,0,0,0,0,0,0
1706420322.49962211,112328384,1577,1577,1555,1554,0,0,0,0,0,0,0,0,0,0
1706420322.59958220,112428344,1576,1577,1554,1554,0,0,0,0,0,0,0,0,0,0
1706420322.69954228,112528304,1575,1577,1553,1553,0,0,0,0,0,0,0,0,0,0
1706420322.79950213,112628264,1575,1577,1552,1553,0,0,0,0,0,0,0,0,0,0
1706420322.89946222,112728224,1576,1578,1551,1551,0,0,0,0,0,0,0,0,0,0
1706420322.99942207,112828184,1578,1579,1549,1549,0,0,0,0,0,0,0,0,0,0
1706420323.10021520,112928977,1580,1581,1547,1547,0,0,0,0,0,0,0,0,0,0
1706420323.20017529,113028937,1582,1583,1546,1544,0,0,0,0,0,0,0,0,0,0
1706420323.30013514,113128897,1585,1585,1542,1542,0,0,0,0,0,0,0,0,0,0
1706420323.40009522,113228857,1588,1589,1541,1541,0,0,0,0,0,0,0,0,0,0
1706420323.50005507,113328817,1590,1590,1538,1539,0,0,0,0,0,0,0,0,0,0
1706420323.60001516,113428777,1592,1592,1537,1538,0,0,0,0,0,0,0,0,0,0
1706420323.69997525,113528737,1593,1593,1538,1539,0,0,0,0,0,0,0,0,0,0
1706420323.79993510,113628697,1592,1593,1538,1540,0,0,0,0,0,0,0,0,0,0
1706420323.89989519,113728657,1592,1591,1541,1544,0,0,0,0,0,0,0,0,0,0
1706420323.99985528,113828617,1589,1587,1545,1548,0,0,0,0,0,0,0,0,0,0
1706420324.09981513,113928577,1584,1581,1552,1555,0,0,0,0,0,0,0,0,0,0
1706420324.19977522,114028537,1577,1574,1562,1564,0,0,0,0,0,0,0,0,0,0
1706420324.29973507,114128497,1568,1563,1572,1574,0,0,0,0,0,0,0,0,0,0
1706420324.39969516,114228457,1558,1555,1583,1585,0,0,0,0,0,0,0,0,0,0
1706420324.49965525,114328417,1549,1547,1594,1595,0,0,0,0,0,0,0,0,0,0
1706420324.59961510,114428377,1540,1541,1602,1602,0,0,0,0,0,0,0,0,0,0
1706420324.69957519,114528337,1535,1536,1608,1607,0,0,0,0,0,0,0,0,0,0
1706420324.79953527,114628297,1534,1536,1612,1611,0,0,0,0,0,0,0,0,0,0
1706420324.89949512,114728257,1534,1537,1611,1610,0,0,0,0,0,0,0,0,0,0
1706420324.99945521,114828217,1537,1540,1608,1607,0,0,0,0,0,0,0,0,0,0
1706420325.09941530,114928177,1544,1546,1603,1603,0,0,0,0,0,0,0,0,0,0
1706420325.20020819,115028970,1552,1553,1598,1597,0,0,0,0,0,0,0,0,0,0
1706420325.30016828,115128930,1560,1560,1591,1590,0,0,0,0,0,0,0,0,0,0
1706420325.40012813,115228890,1568,1567,1584,1584,0,0,0,0,0,0,0,0,0,0
1706420325.50008821,115328850,1575,1573,1578,1578,0,0,0,0,0,0,0,0,0,0
1706420325.60004807,115428810,1580,1579,1574,1574,0,0,0,0,0,0,0,0,0,0
1706420325.70000815,115528770,1585,1582,1571,1571,0,0,0,0,0,0,0,0,0,0
1706420325.79996824,115628730,1587,1584,1569,1569,0,0,0,0,0,0,0,0,0,0
1706420325.89992809,115728690,1587,1586,1569,1569,0,0,0,0,0,0,0,0,0,0
1706420325.99988818,115828650,1587,1585,1569,1570,0,0,0,0,0,0,0,0,0,0
1706420326.09984827,115928610,1585,1584,1571,1571,0,0,0,0,0,0,0,0,0,0
1706420326.19980812,116028570,1583,1583,1573,1573,0,0,0,0,0,0,0,0,0,0
1706420326.29976821,116128530,1581,1581,1576,1576,0,0,0,0,0,0,0,0,0,0
1706420326.39972830,116228490,1577,1578,1578,1577,0,0,0,0,0,0,0,0,0,0
1706420326.49968815,116328450,1575,1576,1580,1580,0,0,0,0,0,0,0,0,0,0
1706420326.59964824,116428410,1574,1575,1582,1582,0,0,0,0,0,0,0,0,0,0
1706420326.69960809,116528370,1574,1574,1583,1582,0,0,0,0,0,0,0,0,0,0
1706420326.79956818,116628330,1573,1574,1583,1583,0,0,0,0,0,0,0,0,0,0
1706420326.89952826,116728290,1574,1575,1584,1584,0,0,0,0,0,0,0,0,0,0
1706420326.99948812,116828250,1574,1575,1582,1583,0,0,0,0,0,0,0,0,0,0
1706420327.09944820,116928210,1575,1575,1582,1582,0,0,0,0,0,0,0,0,0,0
1706420327.19940829,117028170,1577,1577,1581,1581,0,0,0,0,0,0,0,0,0,0
1706420327.30020118,117128963,1578,1578,1580,1580,0,0,0,0,0,0,0,0,0,0
1706420327.40016127,117228923,1579,1579,1579,1579,0,0,0,0,0,0,0,0,0,0
1706420327.50012112,117328883,1580,1580,1578,1578,0,0,0,0,0,0,0,0,0,0
1706420327.60008121,117428843,1581,1581,1578,1578,0,0,0,0,0,0,0,0,0,0
1706420327.70004129,117528803,1582,1582,1578,1578,0,0,0,0,0,0,0,0,0,0
1706420327.80000114,117628763,1582,1582,1578,1578,0,0,0,0,0,0,0,0,0,0
1706420327.89996123,117728723,1581,1582,1578,1578,0,0,0,0,0,0,0,0,0,0
1706420327.99992108,117828683,1582,1582,1579,1578,0,0,0,0,0,0,0,0,0,0
1706420328.09988117,117928643,1582,1581,1579,1579,0,0,0,0,0,0,0,0,0,0
1706420328.19984126,118028603,1581,1580,1579,1579,0,0,0,0,0,0,0,0,0,0
1706420328.29980111,118128563,1581,1580,1579,1580,0,0,0,0,0,0,0,0,0,0
1706420328.39976120,118228523,1580,1581,1581,1581,0,0,0,0,0,0,0,0,0,0
1706420328.49972129,118328483,1579,1579,1580,1580,0,0,0,0,0,0,0,0,0,0
1706420328.59968114,118428443,1580,1580,1581,1581,0,0,0,0,0,0,0,0,0,0
1706420328.69964123,118528403,1579,1580,1581,1581,0,0,0,0,0,0,0,0,0,0
1706420328.79960108,118628363,1580,1580,1581,1581,0,0,0,0,0,0,0,0,0,0
1706420328.89956117,118728323,1580,1580,1581,1581,0,0,0,0,0,0,0,0,0,0
1706420328.99952126,118828283,1580,1580,1581,1582,0,0,0,0,0,0,0,0,0,0
1706420329.09948111,118928243,1582,1582,1583,1582,0,0,0,0,0,0,0,0,0,0
1706420329.19944119,119028203,1581,1582,1582,1582,0,0,0,0,0,0,0,0,0,0
1706420329.29940128,119128163,1582,1582,1582,1582,0,0,0,0,0,0,0,0,0,0
1706420329.40019417,119228956,1582,1583,1588,1575,0,0,0,0,0,0,0,0,0,0
1706420329.50015426,119328916,1580,1580,1585,1572,0,0,0,0,0,0,0,0,0,0
1706420329.60011411,119428876,1578,1578,1578,1574,0,0,0,0,0,0,0,0,0,0
1706420329.70007420,119528836,1575,1573,1570,1574,0,0,0,0,0,0,0,0,0,0
1706420329.80003428,119628796,1572,1571,1566,1573,0,0,0,0,0,0,0,0,0,0
1706420329.89999413,119728756,1570,1570,1565,1572,0,0,0,0,0,0,0,0,0,0
1706420329.99995422,119828716,1568,1569,1566,1569,0,0,0,0,0,0,0,0,0,0
1706420330.09991407,119928676,1567,1568,1567,1568,0,0,0,0,0,0,0,0,0,0
1706420330.19987416,120028636,1567,1567,1568,1567,0,0,0,0,0,0,0,0,0,0
1706420330.29983425,120128596,1566,1566,1568,1565,0,0,0,0,0,0,0,0,0,0
1706420330.39979410,120228556,1565,1566,1567,1565,0,0,0,0,0,0,0,0,0,0
1706420330.49975419,120328516,1565,1565,1567,1565,0,0,0,0,0,0,0,0,0,0
1706420330.59971428,120428476,1564,1564,1566,1565,0,0,0,0,0,0,0,0,0,0
1706420330.69967413,120528436,1563,1563,1564,1564,0,0,0,0,0,0,0,0,0,0
1706420330.79963422,120628396,1562,1562,1563,1563,0,0,0,0,0,0,0,0,0,0
1706420330.89959407,120728356,1563,1562,1563,1563,0,0,0,0,0,0,0,0,0,0
1706420330.99955416,120828316,1561,1561,1561,1561,0,0,0,0,0,0,0,0,0,0
1706420331.09951425,120928276,1561,1561,1561,1561,0,0,0,0,0,0,0,0,0,0
1706420331.19947410,121028236,1561,1562,1562,1561,0,0,0,0,0,0,0,0,0,0
1706420331.29943419,121128196,1560,1560,1560,1559,0,0,0,0,0,0,0,0,0,0
1706420331.39939427,121228156,1559,1560,1559,1559,0,0,0,0,0,0,0,0,0,0
1706420331.50018716,121328949,1559,1559,1558,1558,0,0,0,0,0,0,0,0,0,0
1706420331.60014725,121428909,1559,1558,1559,1557,0,0,0,0,0,0,0,0,0,0
1706420331.70010710,121528869,1558,1558,1558,1557,0,0,0,0,0,0,0,0,0,0
1706420331.80006719,121628829,1559,1558,1559,1558,0,0,0,0,0,0,0,0,0,0
1706420331.90002728,121728789,1558,1558,1559,1557,0,0,0,0,0,0,0,0,0,0
1706420331.99998713,121828749,1558,1558,1560,1556,0,0,0,0,0,0,0,0,0,0
1706420332.09994721,121928709,1558,1558,1560,1557,0,0,0,0,0,0,0,0,0,0
1706420332.19990730,122028669,1559,1559,1559,1560,0,0,0,0,0,0,0,0,0,0
1706420332.29986715,122128629,1560,1560,1558,1563,0,0,0,0,0,0,0,0,0,0
1706420332.39982724,122228589,1560,1560,1558,1564,0,0,0,0,0,0,0,0,0,0
1706420332.49978709,122328549,1562,1562,1559,1565,0,0,0,0,0,0,0,0,0,0
1706420332.59974718,122428509,1562,1563,1560,1564,0,0,0,0,0,0,0,0,0,0
1706420332.69970727,122528469,1562,1563,1562,1563,0,0,0,0,0,0,0,0,0,0
1706420332.79966712,122628429,1562,1562,1562,1560,0,0,0,0,0,0,0,0,0,0
1706420332.89962721,122728389,1560,1560,1561,1557,0,0,0,0,0,0,0,0,0,0
1706420332.99958730,122828349,1560,1560,1559,1561,0,0,0,0,0,0,0,0,0,0
1706420333.09954715,122928309,1558,1557,1554,1559,0,0,0,0,0,0,0,0,0,0
1706420333.19950724,123028269,1554,1553,1551,1554,0,0,0,0,0,0,0,0,0,0
1706420333.29946709,123128229,1548,1548,1546,1548,0,0,0,0,0,0,0,0,0,0
1706420333.39942718,123228189,1542,1542,1540,1540,0,0,0,0,0,0,0,0,0,0
1706420333.50022030,123328982,1534,1535,1533,1533,0,0,0,0,0,0,0,0,0,0
1706420333.60018015,123428942,1526,1527,1525,1524,0,0,0,0,0,0,0,0,0,0
1706420333.70014024,123528902,1520,1521,1520,1519,0,0,0,0,0,0,0,0,0,0
1706420333.80010009,123628862,1518,1519,1519,1518,0,0,0,0,0,0,0,0,0,0
1706420333.90006018,123728822,1519,1519,1519,1520,0,0,0,0,0,0,0,0,0,0
1706420334.00002027,123828782,1520,1521,1522,1522,0,0,0,0,0,0,0,0,0,0
1706420334.09998012,123928742,1523,1523,1525,1525,0,0,0,0,0,0,0,0,0,0
1706420334.19994020,124028702,1527,1527,1530,1530,0,0,0,0,0,0,0,0,0,0
1706420334.29990029,124128662,1531,1531,1534,1535,0,0,0,0,0,0,0,0,0,0
1706420334.39986014,124228622,1537,1536,1539,1539,0,0,0,0,0,0,0,0,0,0
1706420334.49982023,124328582,1540,1539,1542,1542,0,0,0,0,0,0,0,0,0,0
1706420334.59978008,124428542,1543,1542,1544,1544,0,0,0,0,0,0,0,0,0,0
1706420334.69974017,124528502,1544,1543,1544,1544,0,0,0,0,0,0,0,0,0,0
1706420334.79970026,124628462,1545,1545,1545,1545,0,0,0,0,0,0,0,0,0,0
1706420334.89966011,124728422,1547,1546,1546,1545,0,0,0,0,0,0,0,0,0,0
1706420334.99962020,124828382,1548,1549,1548,1547,0,0,0,0,0,0,0,0,0,0
1706420335.09958029,124928342,1548,1548,1546,1546,0,0,0,0,0,0,0,0,0,0
1706420335.19954014,125028302,1547,1547,1545,1545,0,0,0,0,0,0,0,0,0,0
1706420335.29950023,125128262,1547,1547,1545,1546,0,0,0,0,0,0,0,0,0,0
1706420335.39946008,125228222,1547,1547,1546,1545,0,0,0,0,0,0,0,0,0,0
1706420335.49942017,125328182,1546,1547,1545,1546,0,0,0,0,0,0,0,0,0,0
1706420335.60021329,125428975,1546,1547,1546,1545,0,0,0,0,0,0,0,0,0,0
1706420335.70017314,125528935,1546,1546,1546,1545,0,0,0,0,0,0,0,0,0,0
1706420335.80013323,125628895,1545,1545,1546,1545,0,0,0,0,0,0,0,0,0,0
1706420335.90009308,125728855,1544,1544,1545,1544,0,0,0,0,0,0,0,0,0,0
1706420336.00005317,125828815,1545,1544,1545,1545,0,0,0,0,0,0,0,0,0,0
1706420336.10001326,125928775,1544,1544,1545,1545,0,0,0,0,0,0,0,0,0,0
1706420336.19997311,126028735,1543,1544,1544,1544,0,0,0,0,0,0,0,0,0,0
1706420336.29993320,126128695,1543,1543,1544,1544,0,0,0,0,0,0,0,0,0,0
1706420336.39989328,126228655,1544,1544,1545,1544,0,0,0,0,0,0,0,0,0,0
1706420336.49985313,126328615,1544,1543,1544,1544,0,0,0,0,0,0,0,0,0,0
1706420336.59981322,126428575,1543,1543,1544,1544,0,0,0,0,0,0,0,0,0,0
1706420336.69977307,126528535,1544,1544,1544,1544,0,0,0,0,0,0,0,0,0,0
1706420336.79973316,126628495,1543,1543,1543,1543,0,0,0,0,0,0,0,0,0,0
1706420336.89969325,126728455,1543,1543,1542,1543,0,0,0,0,0,0,0,0,0,0
1706420336.99965310,126828415,1544,1544,1544,1543,0,0,0,0,0,0,0,0,0,0
1706420337.09961319,126928375,1544,1544,1544,1544,0,0,0,0,0,0,0,0,0,0
1706420337.19957328,127028335,1544,1544,1543,1543,0,0,0,0,0,0,0,0,0,0
1706420337.29953313,127128295,1544,1545,1544,1544,0,0,0,0,0,0,0,0,0,0
1706420337.39949322,127228255,1544,1544,1543,1543,0,0,0,0,0,0,0,0,0,0
1706420337.49945307,127328215,1544,1544,1544,1544,0,0,0,0,0,0,0,0,0,0
1706420337.59941316,127428175,1544,1544,1544,1544,0,0,0,0,0,0,0,0,0,0
1706420337.70020628,127528968,1544,1543,1544,1544,0,0,0,0,0,0,0,0,0,0
1706420337.80016613,127628928,1544,1543,1544,1544,0,0,0,0,0,0,0,0,0,0
1706420337.90012622,127728888,1544,1544,1544,1544,0,0,0,0,0,0,0,0,0,0
1706420338.00008607,127828848,1544,1544,1545,1544,0,0,0,0,0,0,0,0,0,0
1706420338.10004616,127928808,1544,1544,1544,1544,0,0,0,0,0,0,0,0,0,0
1706420338.20000625,128028768,1543,1544,1544,1543,0,0,0,0,0,0,0,0,0,0
1706420338.29996610,128128728,1544,1544,1544,1544,0,0,0,0,0,0,0,0,0,0
1706420338.39992619,128228688,1543,1544,1543,1544,0,0,0,0,0,0,0,0,0,0
1706420338.49988627,128328648,1544,1544,1543,1544,0,0,0,0,0,0,0,0,0,0
1706420338.59984612,128428608,1544,1544,1544,1544,0,0,0,0,0,0,0,0,0,0
1706420338.69980621,128528568,1544,1543,1544,1544,0,0,0,0,0,0,0,0,0,0
1706420338.79976630,128628528,1545,1545,1545,1544,0,0,0,0,0,0,0,0,0,0
1706420338.89972615,128728488,1544,1544,1544,1544,0,0,0,0,0,0,0,0,0,0
1706420338.99968624,128828448,1544,1544,1544,1544,0,0,0,0,0,0,0,0,0,0
1706420339.09964609,128928408,1544,1544,1544,1544,0,0,0,0,0,0,0,0,0,0
1706420339.19960618,129028368,1544,1544,1544,1544,0,0,0,0,0,0,0,0,0,0
1706420339.29956627,129128328,1543,1543,1543,1544,0,0,0,0,0,0,0,0,0,0
1706420339.39952612,129228288,1544,1544,1544,1544,0,0,0,0,0,0,0,0,0,0
1706420339.49948621,129328248,1544,1543,1544,1544,0,0,0,0,0,0,0,0,0,0
1706420339.59944630,129428208,1544,1544,1544,1544,0,0,0,0,0,0,0,0,0,0
1706420339.69940615,129528168,1544,1544,1543,1544,0,0,0,0,0,0,0,0,0,0
1706420339.80019927,129628961,1543,1544,1544,1543,0,0,0,0,0,0,0,0,0,0
1706420339.90015912,129728921,1543,1543,1543,1543,0,0,0,0,0,0,0,0,0,0
1706420340.00011921,129828881,1544,1544,1544,1543,0,0,0,0,0,0,0,0,0,0
1706420340.10007930,129928841,1545,1544,1545,1545,0,0,0,0,0,0,0,0,0,0
1706420340.20003915,130028801,1545,1545,1545,1545,0,0,0,0,0,0,0,0,0,0
1706420340.29999924,130128761,1545,1545,1545,1545,0,0,0,0,0,0,0,0,0,0
1706420340.39995909,130228721,1545,1545,1545,1545,0,0,0,0,0,0,0,0,0,0
1706420340.49991918,130328681,1544,1544,1544,1544,0,0,0,0,0,0,0,0,0,0
1706420340.59987926,130428641,1544,1544,1544,1544,0,0,0,0,0,0,0,0,0,0
1706420340.69983912,130528601,1546,1545,1545,1546,0,0,0,0,0,0,0,0,0,0
1706420340.79979920,130628561,1545,1546,1545,1545,0,0,0,0,0,0,0,0,0,0
1706420340.89975929,130728521,1545,1545,1545,1545,0,0,0,0,0,0,0,0,0,0
1706420340.99971914,130828481,1545,1545,1546,1545,0,0,0,0,0,0,0,0,0,0
1706420341.09967923,130928441,1545,1545,1545,1545,0,0,0,0,0,0,0,0,0,0
1706420341.19963908,131028401,1545,1545,1546,1545,0,0,0,0,0,0,0,0,0,0
1706420341.29959917,131128361,1545,1545,1545,1545,0,0,0,0,0,0,0,0,0,0
1706420341.39955926,131228321,1545,1545,1545,1544,0,0,0,0,0,0,0,0,0,0
1706420341.49951911,131328281,1545,1545,1545,1545,0,0,0,0,0,0,0,0,0,0
1706420341.59947920,131428241,1545,1545,1544,1545,0,0,0,0,0,0,0,0,0,0
1706420341.69943929,131528201,1544,1544,1544,1545,0,0,0,0,0,0,0,0,0,0
1706420341.79939914,131628161,1544,1544,1544,1544,0,0,0,0,0,0,0,0,0,0
1706420341.90019226,131728954,1545,1544,1544,1544,0,0,0,0,0,0,0,0,0,0
1706420342.00015211,131828914,1544,1544,1544,1544,0,0,0,0,0,0,0,0,0,0
1706420342.10011220,131928874,1544,1544,1544,1544,0,0,0,0,0,0,0,0,0,0
1706420342.20007229,132028834,1545,1545,1545,1544,0,0,0,0,0,0,0,0,0,0
1706420342.30003214,132128794,1545,1544,1545,1545,0,0,0,0,0,0,0,0,0,0
1706420342.39999223,132228754,1544,1545,1545,1545,0,0,0,0,0,0,0,0,0,0
1706420342.49995208,132328714,1544,1544,1544,1544,0,0,0,0,0,0,0,0,0,0
1706420342.59991217,132428674,1544,1544,1544,1545,0,0,0,0,0,0,0,0,0,0
1706420342.69987226,132528634,1544,1544,1544,1544,0,0,0,0,0,0,0,0,0,0
1706420342.79983211,132628594,1543,1543,1543,1543,0,0,0,0,0,0,0,0,0,0
1706420342.89979219,132728554,1544,1544,1543,1544,0,0,0,0,0,0,0,0,0,0
1706420342.99975228,132828514,1544,1544,1545,1544,0,0,0,0,0,0,0,0,0,0
1706420343.09971213,132928474,1544,1544,1544,1544,0,0,0,0,0,0,0,0,0,0
1706420343.19967222,133028434,1543,1543,1543,1543,0,0,0,0,0,0,0,0,0,0
1706420343.29963207,133128394,1544,1544,1543,1544,0,0,0,0,0,0,0,0,0,0
1706420343.39959216,133228354,1544,1545,1544,1544,0,0,0,0,0,0,0,0,0,0
1706420343.49955225,133328314,1443,1419,1418,1419,0,0,0,0,0,0,0,0,0,0
1706420343.59951210,133428274,1338,1277,1276,1277,0,0,0,0,0,0,0,0,0,0
1706420343.69947219,133528234,1301,1221,1221,1222,0,0,0,0,0,0,0,0,0,0
1706420343.79943228,133628194,1287,1201,1201,1201,0,0,0,0,0,0,0,0,0,0
1706420343.89939213,133728154,1263,1162,1162,1163,0,0,0,0,0,0,0,0,0,0
1706420344.00018525,133828947,1255,1150,1150,1150,0,0,0,0,0,0,0,0,0,0
1706420344.10014510,133928907,1248,1150,1150,1150,0,0,0,0,0,0,0,0,0,0
1706420344.20010519,134028867,1249,1150,1150,1150,0,0,0,0,0,0,0,0,0,0
1706420344.30006528,134128827,1226,1150,1150,1186,0,0,0,0,0,0,0,0,0,0
1706420344.40002513,134228787,1233,1150,1150,1175,0,0,0,0,0,0,0,0,0,0
1706420344.49998522,134328747,1237,1150,1150,1168,0,0,0,0,0,0,0,0,0,0
1706420344.59994507,134428707,1238,1150,1150,1166,0,0,0,0,0,0,0,0,0,0
1706420344.69990516,134528667,1238,1150,1150,1167,0,0,0,0,0,0,0,0,0,0
1706420344.79986525,134628627,1238,1150,1150,1167,0,0,0,0,0,0,0,0,0,0
1706420344.89982510,134728587,1237,1150,1150,1169,0,0,0,0,0,0,0,0,0,0
1706420344.99978518,134828547,1236,1150,1151,1169,0,0,0,0,0,0,0,0,0,0
1706420345.09974527,134928507,1247,1150,1151,1151,0,0,0,0,0,0,0,0,0,0
1706420345.19970512,135028467,1246,1150,1151,1154,0,0,0,0,0,0,0,0,0,0
1706420345.29966521,135128427,1245,1150,1151,1155,0,0,0,0,0,0,0,0,0,0
1706420345.39962530,135228387,1244,1150,1152,1155,0,0,0,0,0,0,0,0,0,0
1706420345.49958515,135328347,1244,1150,1152,1156,0,0,0,0,0,0,0,0,0,0
1706420345.59954524,135428307,1000,1000,1000,1000,0,0,0,0,0,0,0,0,0,0
1706420345.69950509,135528267,1000,1000,1000,1000,0,0,0,0,0,0,0,0,0,0
1706420345.79946518,135628227,1000,1000,1000,1000,0,0,0,0,0,0,0,0,0,0
1706420345.89942527,135728187,1000,1000,1000,1000,0,0,0,0,0,0,0,0,0,0
1706420346.00021815,135828980,1000,1000,1000,1000,0,0,0,0,0,0,0,0,0,0
1706420346.10017824,135928940,1000,1000,1000,1000,0,0,0,0,0,0,0,0,0,0
1706420346.20013809,136028900,1000,1000,1000,1000,0,0,0,0,0,0,0,0,0,0
1706420346.30009818,136128860,1000,1000,1000,1000,0,0,0,0,0,0,0,0,0,0
1706420346.40005827,136228820,1000,1000,1000,1000,0,0,0,0,0,0,0,0,0,0
1706420346.50001812,136328780,1000,1000,1000,1000,0,0,0,0,0,0,0,0,0,0
1706420346.59997821,136428740,1000,1000,1000,1000,0,0,0,0,0,0,0,0,0,0
1706420346.69993830,136528700,1000,1000,1000,1000,0,0,0,0,0,0,0,0,0,0
1706420346.79989815,136628660,1000,1000,1000,1000,0,0,0,0,0,0,0,0,0,0
1706420346.89985824,136728620,1000,1000,1000,1000,0,0,0,0,0,0,0,0,0,0
1706420346.99981809,136828580,1000,1000,1000,1000,0,0,0,0,0,0,0,0,0,0
1706420347.09977818,136928540,1000,1000,1000,1000,0,0,0,0,0,0,0,0,0,0
1706420347.19973826,137028500,1000,1000,1000,1000,0,0,0,0,0,0,0,0,0,0
1706420347.29969811,137128460,1000,1000,1000,1000,0,0,0,0,0,0,0,0,0,0
1706420347.39965820,137228420,1000,1000,1000,1000,0,0,0,0,0,0,0,0,0,0
1706420347.49961829,137328380,1000,1000,1000,1000,0,0,0,0,0,0,0,0,0,0
1706420347.59957814,137428340,1000,1000,1000,1000,0,0,0,0,0,0,0,0,0,0
1706420347.69953823,137528300,1000,1000,1000,1000,0,0,0,0,0,0,0,0,0,0
1706420347.79949808,137628260,1000,1000,1000,1000,0,0,0,0,0,0,0,0,0,0
1706420347.89945817,137728220,1000,1000,1000,1000,0,0,0,0,0,0,0,0,0,0
1706420347.99941826,137828180,1000,1000,1000,1000,0,0,0,0,0,0,0,0,0,0
1706420348.10021114,137928973,1000,1000,1000,1000,0,0,0,0,0,0,0,0,0,0
1706420348.20017123,138028933,1000,1000,1000,1000,0,0,0,0,0,0,0,0,0,0
1706420348.30013108,138128893,1000,1000,1000,1000,0,0,0,0,0,0,0,0,0,0
1706420348.40009117,138228853,1000,1000,1000,1000,0,0,0,0,0,0,0,0,0,0
1706420348.50005126,138328813,1000,1000,1000,1000,0,0,0,0,0,0,0,0,0,0
1706420348.60001111,138428773,1000,1000,1000,1000,0,0,0,0,0,0,0,0,0,0
1706420348.69997120,138528733,1000,1000,1000,1000,0,0,0,0,0,0,0,0,0,0
1706420348.79993129,138628693,1000,1000,1000,1000,0,0,0,0,0,0,0,0,0,0
1706420348.89989114,138728653,1000,1000,1000,1000,0,0,0,0,0,0,0,0,0,0
1706420348.99985123,138828613,1000,1000,1000,1000,0,0,0,0,0,0,0,0,0,0
1706420349.09981108,138928573,1000,1000,1000,1000,0,0,0,0,0,0,0,0,0,0
1706420349.19977117,139028533,1000,1000,1000,1000,0,0,0,0,0,0,0,0,0,0
1706420349.29973125,139128493,1000,1000,1000,1000,0,0,0,0,0,0,0,0,0,0
1706420349.39969110,139228453,1000,1000,1000,1000,0,0,0,0,0,0,0,0,0,0
1706420349.49965119,139328413,1000,1000,1000,1000,0,0,0,0,0,0,0,0,0,0
1706420349.59961128,139428373,1000,1000,1000,1000,0,0,0,0,0,0,0,0,0,0
1706420349.69957113,139528333,1000,1000,1000,1000,0,0,0,0,0,0,0,0,0,0
1706420349.79953122,139628293,1000,1000,1000,1000,0,0,0,0,0,0,0,0,0,0
1706420349.89949107,139728253,1000,1000,1000,1000,0,0,0,0,0,0,0,0,0,0
1706420349.99945116,139828213,1000,1000,1000,1000,0,0,0,0,0,0,0,0,0,0
1706420350.09941125,139928173,1000,1000,1000,1000,0,0,0,0,0,0,0,0,0,0
1706420350.20020413,140028966,1000,1000,1000,1000,0,0,0,0,0,0,0,0,0,0
1706420350.30016422,140128926,1000,1000,1000,1000,0,0,0,0,0,0,0,0,0,0
1706420350.40012407,140228886,1000,1000,1000,1000,0,0,0,0,0,0,0,0,0,0
1706420350.50008416,140328846,1000,1000,1000,1000,0,0,0,0,0,0,0,0,0,0
1706420350.60004425,140428806,1000,1000,1000,1000,0,0,0,0,0,0,0,0,0,0
1706420350.70000410,140528766,1000,1000,1000,1000,0,0,0,0,0,0,0,0,0,0
1706420350.79996419,140628726,1000,1000,1000,1000,0,0,0,0,0,0,0,0,0,0
1706420350.89992428,140728686,1000,1000,1000,1000,0,0,0,0,0,0,0,0,0,0
1706420350.99988413,140828646,1000,1000,1000,1000,0,0,0,0,0,0,0,0,0,0
1706420351.09984422,140928606,1000,1000,1000,1000,0,0,0,0,0,0,0,0,0,0
1706420351.19980407,141028566,1000,1000,1000,1000,0,0,0,0,0,0,0,0,0,0
1706420351.29976416,141128526,1000,1000,1000,1000,0,0,0,0,0,0,0,0,0,0
1706420351.39972425,141228486,1000,1000,1000,1000,0,0,0,0,0,0,0,0,0,0
1706420351.49968410,141328446,1000,1000,1000,1000,0,0,0,0,0,0,0,0,0,0
1706420351.59964418,141428406,1000,1000,1000,1000,0,0,0,0,0,0,0,0,0,0
1706420351.69960427,141528366,1000,1000,1000,1000,0,0,0,0,0,0,0,0,0,0
1706420351.79956412,141628326,1000,1000,1000,1000,0,0,0,0,0,0,0,0,0,0
1706420351.89952421,141728286,1000,1000,1000,1000,0,0,0,0,0,0,0,0,0,0
1706420351.99948430,141828246,1000,1000,1000,1000,0,0,0,0,0,0,0,0,0,0
1706420352.09944415,141928206,1000,1000,1000,1000,0,0,0,0,0,0,0,0,0,0
1706420352.19940424,142028166,1000,1000,1000,1000,0,0,0,0,0,0,0,0,0,0
1706420352.30019712,142128959,1000,1000,1000,1000,0,0,0,0,0,0,0,0,0,0
1706420352.40015721,142228919,1000,1000,1000,1000,0,0,0,0,0,0,0,0,0,0
1706420352.50011730,142328879,1000,1000,1000,1000,0,0,0,0,0,0,0,0,0,0
1706420352.60007715,142428839,1000,1000,1000,1000,0,0,0,0,0,0,0,0,0,0
1706420352.70003724,142528799,1000,1000,1000,1000,0,0,0,0,0,0,0,0,0,0
1706420352.79999709,142628759,1000,1000,1000,1000,0,0,0,0,0,0,0,0,0,0
1706420352.89995718,142728719,1000,1000,1000,1000,0,0,0,0,0,0,0,0,0,0
1706420352.99991727,142828679,1000,1000,1000,1000,0,0,0,0,0,0,0,0,0,0
1706420353.09987712,142928639,1000,1000,1000,1000,0,0,0,0,0,0,0,0,0,0
1706420353.19983721,143028599,1000,1000,1000,1000,0,0,0,0,0,0,0,0,0,0
1706420353.29979730,143128559,1000,1000,1000,1000,0,0,0,0,0,0,0,0,0,0
1706420353.39975715,143228519,1000,1000,1000,1000,0,0,0,0,0,0,0,0,0,0
1706420353.49971724,143328479,1000,1000,1000,1000,0,0,0,0,0,0,0,0,0,0
1706420353.59967709,143428439,1000,1000,1000,1000,0,0,0,0,0,0,0,0,0,0
1706420353.69963717,143528399,1000,1000,1000,1000,0,0,0,0,0,0,0,0,0,0
1706420353.79959726,143628359,1000,1000,1000,1000,0,0,0,0,0,0,0,0,0,0
1706420353.89955711,143728319,1000,1000,1000,1000,0,0,0,0,0,0,0,0,0,0
1706420353.99951720,143828279,1000,1000,1000,1000,0,0,0,0,0,0,0,0,0,0
1706420354.09947729,143928239,1000,1000,1000,1000,0,0,0,0,0,0,0,0,0,0
1706420354.19943714,144028199,1000,1000,1000,1000,0,0,0,0,0,0,0,0,0,0
1706420354.29939723,144128159,1000,1000,1000,1000,0,0,0,0,0,0,0,0,0,0
1706420354.40019011,144228952,1000,1000,1000,1000,0,0,0,0,0,0,0,0,0,0
1706420354.50015020,144328912,1000,1000,1000,1000,0,0,0,0,0,0,0,0,0,0
1706420354.60011029,144428872,1000,1000,1000,1000,0,0,0,0,0,0,0,0,0,0
1706420354.70007014,144528832,1000,1000,1000,1000,0,0,0,0,0,0,0,0,0,0
1706420354.80003023,144628792,1000,1000,1000,1000,0,0,0,0,0,0,0,0,0,0
1706420354.89999008,144728752,1000,1000,1000,1000,0,0,0,0,0,0,0,0,0,0
1706420354.99995017,144828712,1000,1000,1000,1000,0,0,0,0,0,0,0,0,0,0
1706420355.09991026,144928672,1000,1000,1000,1000,0,0,0,0,0,0,0,0,0,0
1706420355.19987011,145028632,1000,1000,1000,1000,0,0,0,0,0,0,0,0,0,0
1706420355.29983020,145128592,1000,1000,1000,1000,0,0,0,0,0,0,0,0,0,0
1706420355.39979029,145228552,1000,1000,1000,1000,0,0,0,0,0,0,0,0,0,0
1706420355.49975014,145328512,1000,1000,1000,1000,0,0,0,0,0,0,0,0,0,0
1706420355.59971023,145428472,1000,1000,1000,1000,0,0,0,0,0,0,0,0,0,0
1706420355.69967008,145528432,1000,1000,1000,1000,0,0,0,0,0,0,0,0,0,0
1706420355.79963017,145628392,1000,1000,1000,1000,0,0,0,0,0,0,0,0,0,0
1706420355.89959025,145728352,1000,1000,1000,1000,0,0,0,0,0,0,0,0,0,0
1706420355.99955010,145828312,1000,1000,1000,1000,0,0,0,0,0,0,0,0,0,0
1706420356.09951019,145928272,1000,1000,1000,1000,0,0,0,0,0,0,0,0,0,0
1706420356.19947028,146028232,1000,1000,1000,1000,0,0,0,0,0,0,0,0,0,0
1706420356.29943013,146128192,1000,1000,1000,1000,0,0,0,0,0,0,0,0,0,0
1706420356.40022326,146228985,1000,1000,1000,1000,0,0,0,0,0,0,0,0,0,0
1706420356.50018311,146328945,1000,1000,1000,1000,0,0,0,0,0,0,0,0,0,0
1706420356.60014319,146428905,1000,1000,1000,1000,0,0,0,0,0,0,0,0,0,0
1706420356.70010328,146528865,1000,1000,1000,1000,0,0,0,0,0,0,0,0,0,0
1706420356.80006313,146628825,1000,1000,1000,1000,0,0,0,0,0,0,0,0,0,0
1706420356.90002322,146728785,1000,1000,1000,1000,0,0,0,0,0,0,0,0,0,0
1706420356.99998307,146828745,1000,1000,1000,1000,0,0,0,0,0,0,0,0,0,0
1706420357.09994316,146928705,1000,1000,1000,1000,0,0,0,0,0,0,0,0,0,0
1706420357.19990325,147028665,1000,1000,1000,1000,0,0,0,0,0,0,0,0,0,0
1706420357.29986310,147128625,1000,1000,1000,1000,0,0,0,0,0,0,0,0,0,0
1706420357.39982319,147228585,1000,1000,1000,1000,0,0,0,0,0,0,0,0,0,0
1706420357.49978328,147328545,1000,1000,1000,1000,0,0,0,0,0,0,0,0,0,0
1706420357.59974313,147428505,1000,1000,1000,1000,0,0,0,0,0,0,0,0,0,0
1706420357.69970322,147528465,1000,1000,1000,1000,0,0,0,0,0,0,0,0,0,0
1706420357.79966307,147628425,1000,1000,1000,1000,0,0,0,0,0,0,0,0,0,0
1706420357.89962316,147728385,1000,1000,1000,1000,0,0,0,0,0,0,0,0,0,0
1706420357.99958324,147828345,1000,1000,1000,1000,0,0,0,0,0,0,0,0,0,0
1706420358.09954309,147928305,1000,1000,1000,1000,0,0,0,0,0,0,0,0,0,0
1706420358.19950318,148028265,1000,1000,1000,1000,0,0,0,0,0,0,0,0,0,0
1706420358.29946327,148128225,1000,1000,1000,1000,0,0,0,0,0,0,0,0,0,0
1706420358.39942312,148228185,1000,1000,1000,1000,0,0,0,0,0,0,0,0,0,0
1706420358.50021625,148328978,1000,1000,1000,1000,0,0,0,0,0,0,0,0,0,0
1706420358.60017610,148428938,1000,1000,1000,1000,0,0,0,0,0,0,0,0,0,0
1706420358.70013618,148528898,1000,1000,1000,1000,0,0,0,0,0,0,0,0,0,0
1706420358.80009627,148628858,1000,1000,1000,1000,0,0,0,0,0,0,0,0,0,0
1706420358.90005612,148728818,1000,1000,1000,1000,0,0,0,0,0,0,0,0,0,0
1706420359.00001621,148828778,1000,1000,1000,1000,0,0,0,0,0,0,0,0,0,0
1706420359.09997630,148928738,1000,1000,1000,1000,0,0,0,0,0,0,0,0,0,0
1706420359.19993615,149028698,1000,1000,1000,1000,0,0,0,0,0,0,0,0,0,0
1706420359.29989624,149128658,1000,1000,1000,1000,0,0,0,0,0,0,0,0,0,0
1706420359.39985609,149228618,1000,1000,1000,1000,0,0,0,0,0,0,0,0,0,0
1706420359.49981618,149328578,1000,1000,1000,1000,0,0,0,0,0,0,0,0,0,0
1706420359.59977627,149428538,1000,1000,1000,1000,0,0,0,0,0,0,0,0,0,0
1706420359.69973612,149528498,1000,1000,1000,1000,0,0,0,0,0,0,0,0,0,0
1706420359.79969621,149628458,1000,1000,1000,1000,0,0,0,0,0,0,0,0,0,0
1706420359.89965630,149728418,1000,1000,1000,1000,0,0,0,0,0,0,0,0,0,0
1706420359.99961615,149828378,1000,1000,1000,1000,0,0,0,0,0,0,0,0,0,0
1706420360.09957623,149928338,1000,1000,1000,1000,0,0,0,0,0,0,0,0,0,0
1706420360.19953609,150028298,1000,1000,1000,1000,0,0,0,0,0,0,0,0,0,0
1706420360.29949617,150128258,1000,1000,1000,1000,0,0,0,0,0,0,0,0,0,0
1706420360.39945626,150228218,1000,1000,1000,1000,0,0,0,0,0,0,0,0,0,0
1706420360.49941611,150328178,1000,1000,1000,1000,0,0,0,0,0,0,0,0,0,0
