timestamp,TimeUS,C1,C2,C3,C4,C5,C6,C7,C8,C9,C10,C11,C12,C13,C14
1706421127.20000005,67228931,1000,1000,1000,1000,0,0,0,0,0,0,0,0,0,0
1706421127.29996014,67328891,1000,1000,1000,1000,0,0,0,0,0,0,0,0,0,0
1706421127.39991999,67428851,1000,1000,1000,1000,0,0,0,0,0,0,0,0,0,0
1706421127.49988008,67528811,1000,1000,1000,1000,0,0,0,0,0,0,0,0,0,0
1706421127.59984016,67628771,1000,1000,1000,1000,0,0,0,0,0,0,0,0,0,0
1706421127.69980001,67728731,1000,1000,1000,1000,0,0,0,0,0,0,0,0,0,0
1706421127.79976010,67828691,1000,1000,1000,1000,0,0,0,0,0,0,0,0,0,0
1706421127.89972019,67928651,1000,1000,1000,1000,0,0,0,0,0,0,0,0,0,0
1706421127.99968004,68028611,1000,1000,1000,1000,0,0,0,0,0,0,0,0,0,0
1706421128.09964013,68128571,1000,1000,1000,1000,0,0,0,0,0,0,0,0,0,0
1706421128.19959998,68228531,1000,1000,1000,1000,0,0,0,0,0,0,0,0,0,0
1706421128.29956007,68328491,1000,1000,1000,1000,0,0,0,0,0,0,0,0,0,0
1706421128.39952016,68428451,1000,1000,1000,1000,0,0,0,0,0,0,0,0,0,0
1706421128.49948001,68528411,1000,1000,1000,1000,0,0,0,0,0,0,0,0,0,0
1706421128.59944010,68628371,1000,1000,1000,1000,0,0,0,0,0,0,0,0,0,0
1706421128.69940019,68728331,1000,1000,1000,1000,0,0,0,0,0,0,0,0,0,0
1706421128.79936004,68828291,1000,1000,1000,1000,0,0,0,0,0,0,0,0,0,0
1706421128.89932013,68928251,1000,1000,1000,1000,0,0,0,0,0,0,0,0,0,0
1706421128.99928021,69028211,1000,1000,1000,1000,0,0,0,0,0,0,0,0,0,0
1706421129.09924006,69128171,1000,1000,1000,1000,0,0,0,0,0,0,0,0,0,0
1706421129.20003319,69228964,1006,1006,1006,1006,0,0,0,0,0,0,0,0,0,0
1706421129.29999304,69328924,1036,1036,1036,1036,0,0,0,0,0,0,0,0,0,0
1706421129.39995313,69428884,1066,1066,1066,1066,0,0,0,0,0,0,0,0,0,0
1706421129.49991322,69528844,1096,1096,1096,1096,0,0,0,0,0,0,0,0,0,0
1706421129.59987307,69628804,1125,1125,1125,1125,0,0,0,0,0,0,0,0,0,0
1706421129.69983315,69728764,1209,1199,1199,1209,0,0,0,0,0,0,0,0,0,0
1706421129.79979300,69828724,1440,1433,1433,1440,0,0,0,0,0,0,0,0,0,0
1706421129.89975309,69928684,1611,1605,1605,1612,0,0,0,0,0,0,0,0,0,0
1706421129.99971318,70028644,1754,1748,1748,1754,0,0,0,0,0,0,0,0,0,0
1706421130.09967303,70128604,1845,1838,1839,1845,0,0,0,0,0,0,0,0,0,0
1706421130.19963312,70228564,1857,1851,1852,1857,0,0,0,0,0,0,0,0,0,0
1706421130.29959321,70328524,1775,1773,1773,1775,0,0,0,0,0,0,0,0,0,0
1706421130.39955306,70428484,1656,1656,1657,1656,0,0,0,0,0,0,0,0,0,0
1706421130.49951315,70528444,1608,1611,1611,1608,0,0,0,0,0,0,0,0,0,0
1706421130.59947300,70628404,1616,1619,1619,1616,0,0,0,0,0,0,0,0,0,0
1706421130.69943309,70728364,1633,1635,1635,1633,0,0,0,0,0,0,0,0,0,0
1706421130.79939318,70828324,1639,1640,1640,1640,0,0,0,0,0,0,0,0,0,0
1706421130.89935303,70928284,1637,1637,1636,1637,0,0,0,0,0,0,0,0,0,0
1706421130.99931312,71028244,1630,1629,1629,1630,0,0,0,0,0,0,0,0,0,0
1706421131.09927320,71128204,1625,1624,1623,1625,0,0,0,0,0,0,0,0,0,0
1706421131.19923306,71228164,1622,1621,1621,1622,0,0,0,0,0,0,0,0,0,0
1706421131.30002618,71328957,1621,1620,1621,1621,0,0,0,0,0,0,0,0,0,0
1706421131.39998603,71428917,1622,1622,1622,1622,0,0,0,0,0,0,0,0,0,0
1706421131.49994612,71528877,1623,1623,1623,1622,0,0,0,0,0,0,0,0,0,0
1706421131.59990621,71628837,1623,1625,1624,1624,0,0,0,0,0,0,0,0,0,0
1706421131.69986606,71728797,1624,1625,1625,1624,0,0,0,0,0,0,0,0,0,0
1706421131.79982615,71828757,1624,1625,1625,1625,0,0,0,0,0,0,0,0,0,0
1706421131.89978600,71928717,1625,1625,1625,1625,0,0,0,0,0,0,0,0,0,0
1706421131.99974608,72028677,1627,1626,1627,1627,0,0,0,0,0,0,0,0,0,0
1706421132.09970617,72128637,1627,1627,1627,1627,0,0,0,0,0,0,0,0,0,0
1706421132.19966602,72228597,1627,1627,1627,1627,0,0,0,0,0,0,0,0,0,0
1706421132.29962611,72328557,1628,1627,1628,1628,0,0,0,0,0,0,0,0,0,0
1706421132.39958620,72428517,1628,1628,1628,1628,0,0,0,0,0,0,0,0,0,0
1706421132.49954605,72528477,1629,1628,1629,1629,0,0,0,0,0,0,0,0,0,0
1706421132.59950614,72628437,1630,1630,1629,1630,0,0,0,0,0,0,0,0,0,0
1706421132.69946599,72728397,1629,1630,1630,1630,0,0,0,0,0,0,0,0,0,0
1706421132.79942608,72828357,1630,1630,1630,1629,0,0,0,0,0,0,0,0,0,0
1706421132.89938617,72928317,1630,1630,1630,1630,0,0,0,0,0,0,0,0,0,0
1706421132.99934602,73028277,1628,1627,1628,1627,0,0,0,0,0,0,0,0,0,0
1706421133.09930611,73128237,1602,1603,1603,1602,0,0,0,0,0,0,0,0,0,0
1706421133.19926620,73228197,1588,1589,1589,1589,0,0,0,0,0,0,0,0,0,0
1706421133.29922605,73328157,1579,1579,1578,1579,0,0,0,0,0,0,0,0,0,0
1706421133.40001917,73428950,1570,1570,1570,1570,0,0,0,0,0,0,0,0,0,0
1706421133.49997902,73528910,1563,1562,1563,1562,0,0,0,0,0,0,0,0,0,0
1706421133.59993911,73628870,1555,1555,1555,1555,0,0,0,0,0,0,0,0,0,0
1706421133.69989920,73728830,1550,1550,1550,1550,0,0,0,0,0,0,0,0,0,0
1706421133.79985905,73828790,1545,1544,1545,1544,0,0,0,0,0,0,0,0,0,0
1706421133.89981914,73928750,1539,1540,1539,1539,0,0,0,0,0,0,0,0,0,0
1706421133.99977899,74028710,1535,1535,1535,1535,0,0,0,0,0,0,0,0,0,0
1706421134.09973907,74128670,1530,1531,1530,1531,0,0,0,0,0,0,0,0,0,0
1706421134.19969916,74228630,1528,1528,1528,1528,0,0,0,0,0,0,0,0,0,0
1706421134.29965901,74328590,1526,1526,1526,1527,0,0,0,0,0,0,0,0,0,0
1706421134.39961910,74428550,1524,1524,1524,1524,0,0,0,0,0,0,0,0,0,0
1706421134.49957919,74528510,1521,1521,1521,1521,0,0,0,0,0,0,0,0,0,0
1706421134.59953904,74628470,1518,1518,1518,1518,0,0,0,0,0,0,0,0,0,0
1706421134.69949913,74728430,1515,1515,1515,1515,0,0,0,0,0,0,0,0,0,0
1706421134.79945898,74828390,1512,1511,1511,1511,0,0,0,0,0,0,0,0,0,0
1706421134.89941907,74928350,1509,1508,1508,1509,0,0,0,0,0,0,0,0,0,0
1706421134.99937916,75028310,1506,1506,1506,1506,0,0,0,0,0,0,0,0,0,0
1706421135.09933901,75128270,1504,1504,1503,1504,0,0,0,0,0,0,0,0,0,0
1706421135.19929910,75228230,1501,1501,1501,1501,0,0,0,0,0,0,0,0,0,0
1706421135.29925919,75328190,1498,1498,1498,1499,0,0,0,0,0,0,0,0,0,0
1706421135.40005207,75428983,1496,1496,1496,1496,0,0,0,0,0,0,0,0,0,0
1706421135.50001216,75528943,1494,1494,1494,1494,0,0,0,0,0,0,0,0,0,0
1706421135.59997201,75628903,1492,1493,1493,1493,0,0,0,0,0,0,0,0,0,0
1706421135.69993210,75728863,1495,1494,1495,1494,0,0,0,0,0,0,0,0,0,0
1706421135.79989219,75828823,1496,1496,1497,1496,0,0,0,0,0,0,0,0,0,0
1706421135.89985204,75928783,1498,1498,1499,1498,0,0,0,0,0,0,0,0,0,0
1706421135.99981213,76028743,1501,1501,1501,1501,0,0,0,0,0,0,0,0,0,0
1706421136.09977221,76128703,1503,1503,1503,1502,0,0,0,0,0,0,0,0,0,0
1706421136.19973207,76228663,1503,1504,1504,1503,0,0,0,0,0,0,0,0,0,0
1706421136.29969215,76328623,1506,1506,1506,1506,0,0,0,0,0,0,0,0,0,0
1706421136.39965200,76428583,1508,1508,1508,1508,0,0,0,0,0,0,0,0,0,0
1706421136.49961209,76528543,1509,1509,1509,1509,0,0,0,0,0,0,0,0,0,0
1706421136.59957218,76628503,1510,1510,1510,1510,0,0,0,0,0,0,0,0,0,0
1706421136.69953203,76728463,1511,1511,1511,1511,0,0,0,0,0,0,0,0,0,0
1706421136.79949212,76828423,1511,1512,1512,1511,0,0,0,0,0,0,0,0,0,0
1706421136.89945221,76928383,1512,1513,1512,1512,0,0,0,0,0,0,0,0,0,0
1706421136.99941206,77028343,1513,1513,1513,1513,0,0,0,0,0,0,0,0,0,0
1706421137.09937215,77128303,1513,1513,1513,1513,0,0,0,0,0,0,0,0,0,0
1706421137.19933200,77228263,1513,1513,1513,1513,0,0,0,0,0,0,0,0,0,0
1706421137.29929209,77328223,1515,1514,1514,1515,0,0,0,0,0,0,0,0,0,0
1706421137.39925218,77428183,1529,1529,1530,1529,0,0,0,0,0,0,0,0,0,0
1706421137.50004506,77528976,1553,1552,1552,1553,0,0,0,0,0,0,0,0,0,0
1706421137.60000515,77628936,1566,1566,1564,1568,0,0,0,0,0,0,0,0,0,0
1706421137.69996500,77728896,1575,1575,1572,1578,0,0,0,0,0,0,0,0,0,0
1706421137.79992509,77828856,1580,1580,1577,1582,0,0,0,0,0,0,0,0,0,0
1706421137.89988518,77928816,1583,1583,1581,1585,0,0,0,0,0,0,0,0,0,0
1706421137.99984503,78028776,1585,1585,1584,1586,0,0,0,0,0,0,0,0,0,0
1706421138.09980512,78128736,1585,1585,1586,1584,0,0,0,0,0,0,0,0,0,0
1706421138.19976521,78228696,1585,1585,1587,1583,0,0,0,0,0,0,0,0,0,0
1706421138.29972506,78328656,1585,1585,1586,1583,0,0,0,0,0,0,0,0,0,0
1706421138.39968514,78428616,1582,1582,1584,1581,0,0,0,0,0,0,0,0,0,0
1706421138.49964499,78528576,1581,1581,1582,1580,0,0,0,0,0,0,0,0,0,0
1706421138.59960508,78628536,1579,1579,1580,1579,0,0,0,0,0,0,0,0,0,0
1706421138.69956517,78728496,1577,1577,1576,1577,0,0,0,0,0,0,0,0,0,0
1706421138.79952502,78828456,1574,1573,1573,1574,0,0,0,0,0,0,0,0,0,0
1706421138.89948511,78928416,1572,1572,1571,1572,0,0,0,0,0,0,0,0,0,0
1706421138.99944520,79028376,1571,1571,1570,1572,0,0,0,0,0,0,0,0,0,0
1706421139.09940505,79128336,1567,1566,1572,1574,0,0,0,0,0,0,0,0,0,0
1706421139.19936514,79228296,1566,1566,1574,1574,0,0,0,0,0,0,0,0,0,0
1706421139.29932499,79328256,1565,1565,1571,1572,0,0,0,0,0,0,0,0,0,0
1706421139.39928508,79428216,1566,1566,1570,1570,0,0,0,0,0,0,0,0,0,0
1706421139.49924517,79528176,1568,1568,1569,1569,0,0,0,0,0,0,0,0,0,0
1706421139.60003805,79628969,1569,1569,1568,1568,0,0,0,0,0,0,0,0,0,0
1706421139.69999814,79728929,1570,1571,1568,1567,0,0,0,0,0,0,0,0,0,0
1706421139.79995799,79828889,1571,1572,1567,1567,0,0,0,0,0,0,0,0,0,0
1706421139.89991808,79928849,1573,1573,1568,1569,0,0,0,0,0,0,0,0,0,0
1706421139.99987817,80028809,1574,1573,1569,1569,0,0,0,0,0,0,0,0,0,0
1706421140.09983802,80128769,1574,1574,1569,1570,0,0,0,0,0,0,0,0,0,0
1706421140.19979811,80228729,1574,1574,1570,1571,0,0,0,0,0,0,0,0,0,0
1706421140.29975820,80328689,1575,1574,1572,1572,0,0,0,0,0,0,0,0,0,0
1706421140.39971805,80428649,1575,1575,1574,1573,0,0,0,0,0,0,0,0,0,0
1706421140.49967813,80528609,1575,1575,1576,1574,0,0,0,0,0,0,0,0,0,0
1706421140.59963799,80628569,1576,1576,1578,1576,0,0,0,0,0,0,0,0,0,0
1706421140.69959807,80728529,1576,1576,1578,1577,0,0,0,0,0,0,0,0,0,0
1706421140.79955816,80828489,1576,1576,1578,1577,0,0,0,0,0,0,0,0,0,0
1706421140.89951801,80928449,1576,1576,1577,1577,0,0,0,0,0,0,0,0,0,0
1706421140.99947810,81028409,1576,1576,1578,1578,0,0,0,0,0,0,0,0,0,0
1706421141.09943819,81128369,1576,1576,1577,1578,0,0,0,0,0,0,0,0,0,0
1706421141.19939804,81228329,1577,1577,1577,1578,0,0,0,0,0,0,0,0,0,0
1706421141.29935813,81328289,1578,1577,1577,1577,0,0,0,0,0,0,0,0,0,0
1706421141.39931798,81428249,1578,1578,1578,1577,0,0,0,0,0,0,0,0,0,0
1706421141.49927807,81528209,1578,1578,1578,1577,0,0,0,0,0,0,0,0,0,0
1706421141.59923816,81628169,1578,1579,1578,1578,0,0,0,0,0,0,0,0,0,0
1706421141.70003104,81728962,1579,1579,1578,1578,0,0,0,0,0,0,0,0,0,0
1706421141.79999113,81828922,1578,1578,1578,1578,0,0,0,0,0,0,0,0,0,0
1706421141.89995098,81928882,1579,1579,1578,1578,0,0,0,0,0,0,0,0,0,0
1706421141.99991107,82028842,1578,1578,1577,1578,0,0,0,0,0,0,0,0,0,0
1706421142.09987116,82128802,1578,1577,1577,1577,0,0,0,0,0,0,0,0,0,0
1706421142.19983101,82228762,1579,1578,1578,1578,0,0,0,0,0,0,0,0,0,0
1706421142.29979110,82328722,1580,1579,1580,1579,0,0,0,0,0,0,0,0,0,0
1706421142.39975119,82428682,1579,1580,1580,1580,0,0,0,0,0,0,0,0,0,0
1706421142.49971104,82528642,1579,1580,1580,1580,0,0,0,0,0,0,0,0,0,0
1706421142.59967113,82628602,1580,1580,1580,1581,0,0,0,0,0,0,0,0,0,0
1706421142.69963121,82728562,1579,1580,1580,1580,0,0,0,0,0,0,0,0,0,0
1706421142.79959106,82828522,1580,1580,1580,1580,0,0,0,0,0,0,0,0,0,0
1706421142.89955115,82928482,1579,1579,1580,1579,0,0,0,0,0,0,0,0,0,0
1706421142.99951100,83028442,1580,1580,1580,1580,0,0,0,0,0,0,0,0,0,0
1706421143.09947109,83128402,1580,1580,1580,1580,0,0,0,0,0,0,0,0,0,0
1706421143.19943118,83228362,1580,1580,1580,1580,0,0,0,0,0,0,0,0,0,0
1706421143.29939103,83328322,1580,1580,1580,1580,0,0,0,0,0,0,0,0,0,0
1706421143.39935112,83428282,1581,1580,1580,1580,0,0,0,0,0,0,0,0,0,0
1706421143.49931121,83528242,1580,1580,1580,1580,0,0,0,0,0,0,0,0,0,0
1706421143.59927106,83628202,1580,1581,1580,1580,0,0,0,0,0,0,0,0,0,0
1706421143.69923115,83728162,1579,1580,1580,1580,0,0,0,0,0,0,0,0,0,0
1706421143.80002403,83828955,1580,1580,1580,1580,0,0,0,0,0,0,0,0,0,0
1706421143.89998412,83928915,1580,1579,1579,1580,0,0,0,0,0,0,0,0,0,0
1706421143.99994421,84028875,1580,1579,1580,1580,0,0,0,0,0,0,0,0,0,0
1706421144.09990406,84128835,1580,1580,1580,1580,0,0,0,0,0,0,0,0,0,0
1706421144.19986415,84228795,1579,1580,1579,1579,0,0,0,0,0,0,0,0,0,0
1706421144.29982400,84328755,1582,1581,1581,1581,0,0,0,0,0,0,0,0,0,0
1706421144.39978409,84428715,1581,1581,1581,1581,0,0,0,0,0,0,0,0,0,0
1706421144.49974418,84528675,1580,1580,1579,1580,0,0,0,0,0,0,0,0,0,0
1706421144.59970403,84628635,1580,1581,1581,1581,0,0,0,0,0,0,0,0,0,0
1706421144.69966412,84728595,1580,1581,1581,1581,0,0,0,0,0,0,0,0,0,0
1706421144.79962420,84828555,1581,1581,1581,1581,0,0,0,0,0,0,0,0,0,0
1706421144.89958405,84928515,1581,1580,1581,1581,0,0,0,0,0,0,0,0,0,0
1706421144.99954414,85028475,1581,1581,1581,1581,0,0,0,0,0,0,0,0,0,0
1706421145.09950399,85128435,1581,1581,1581,1581,0,0,0,0,0,0,0,0,0,0
1706421145.19946408,85228395,1582,1582,1584,1580,0,0,0,0,0,0,0,0,0,0
1706421145.29942417,85328355,1581,1582,1588,1573,0,0,0,0,0,0,0,0,0,0
1706421145.39938402,85428315,1580,1583,1584,1574,0,0,0,0,0,0,0,0,0,0
1706421145.49934411,85528275,1577,1581,1574,1573,0,0,0,0,0,0,0,0,0,0
1706421145.59930420,85628235,1577,1580,1566,1571,0,0,0,0,0,0,0,0,0,0
1706421145.69926405,85728195,1578,1580,1560,1567,0,0,0,0,0,0,0,0,0,0
1706421145.79922414,85828155,1578,1579,1556,1562,0,0,0,0,0,0,0,0,0,0
1706421145.90001702,85928948,1579,1577,1554,1557,0,0,0,0,0,0,0,0,0,0
1706421145.99997711,86028908,1580,1579,1556,1555,0,0,0,0,0,0,0,0,0,0
1706421146.09993720,86128868,1579,1578,1556,1554,0,0,0,0,0,0,0,0,0,0
1706421146.19989705,86228828,1577,1578,1555,1553,0,0,0,0,0,0,0,0,0,0
1706421146.29985714,86328788,1577,1577,1555,1553,0,0,0,0,0,0,0,0,0,0
1706421146.39981699,86428748,1576,1578,1555,1554,0,0,0,0,0,0,0,0,0,0
1706421146.49977708,86528708,1574,1575,1553,1552,0,0,0,0,0,0,0,0,0,0
1706421146.59973717,86628668,1575,1576,1552,1552,0,0,0,0,0,0,0,0,0,0
1706421146.69969702,86728628,1575,1576,1550,1550,0,0,0,0,0,0,0,0,0,0
1706421146.79965711,86828588,1577,1578,1549,1549,0,0,0,0,0,0,0,0,0,0
1706421146.89961720,86928548,1578,1579,1546,1546,0,0,0,0,0,0,0,0,0,0
1706421146.99957705,87028508,1581,1582,1544,1543,0,0,0,0,0,0,0,0,0,0
1706421147.09953713,87128468,1585,1585,1541,1541,0,0,0,0,0,0,0,0,0,0
1706421147.19949698,87228428,1588,1589,1539,1538,0,0,0,0,0,0,0,0,0,0
1706421147.29945707,87328388,1590,1591,1536,1536,0,0,0,0,0,0,0,0,0,0
1706421147.39941716,87428348,1593,1593,1535,1535,0,0,0,0,0,0,0,0,0,0
1706421147.49937701,87528308,1595,1593,1534,1535,0,0,0,0,0,0,0,0,0,0
1706421147.59933710,87628268,1595,1594,1535,1537,0,0,0,0,0,0,0,0,0,0
1706421147.69929719,87728228,1594,1593,1537,1540,0,0,0,0,0,0,0,0,0,0
1706421147.79925704,87828188,1592,1591,1543,1545,0,0,0,0,0,0,0,0,0,0
1706421147.90005016,87928981,1588,1586,1550,1553,0,0,0,0,0,0,0,0,0,0
1706421148.00001001,88028941,1581,1578,1558,1561,0,0,0,0,0,0,0,0,0,0
1706421148.09997010,88128901,1571,1567,1568,1571,0,0,0,0,0,0,0,0,0,0
1706421148.19993019,88228861,1560,1556,1580,1582,0,0,0,0,0,0,0,0,0,0
1706421148.29989004,88328821,1550,1546,1593,1593,0,0,0,0,0,0,0,0,0,0
1706421148.39985013,88428781,1540,1538,1603,1603,0,0,0,0,0,0,0,0,0,0
1706421148.49980998,88528741,1532,1532,1610,1609,0,0,0,0,0,0,0,0,0,0
1706421148.59977007,88628701,1528,1530,1613,1613,0,0,0,0,0,0,0,0,0,0
1706421148.69973016,88728661,1529,1531,1614,1613,0,0,0,0,0,0,0,0,0,0
1706421148.79969001,88828621,1533,1535,1611,1610,0,0,0,0,0,0,0,0,0,0
1706421148.89965010,88928581,1539,1541,1606,1605,0,0,0,0,0,0,0,0,0,0
1706421148.99961019,89028541,1547,1549,1599,1599,0,0,0,0,0,0,0,0,0,0
1706421149.09957004,89128501,1557,1558,1592,1592,0,0,0,0,0,0,0,0,0,0
1706421149.19953012,89228461,1566,1566,1585,1585,0,0,0,0,0,0,0,0,0,0
1706421149.29949021,89328421,1574,1573,1579,1578,0,0,0,0,0,0,0,0,0,0
1706421149.39945006,89428381,1579,1579,1573,1572,0,0,0,0,0,0,0,0,0,0
1706421149.49941015,89528341,1585,1583,1569,1569,0,0,0,0,0,0,0,0,0,0
1706421149.59937000,89628301,1587,1585,1567,1567,0,0,0,0,0,0,0,0,0,0
1706421149.69933009,89728261,1588,1586,1566,1566,0,0,0,0,0,0,0,0,0,0
1706421149.79929018,89828221,1586,1585,1567,1567,0,0,0,0,0,0,0,0,0,0
1706421149.89925003,89928181,1585,1584,1569,1570,0,0,0,0,0,0,0,0,0,0
1706421150.00004315,90028974,1582,1582,1572,1572,0,0,0,0,0,0,0,0,0,0
1706421150.10000300,90128934,1429,1525,1582,1582,0,0,0,0,0,0,0,0,0,0
1706421150.19996309,90228894,1505,1516,1603,1607,0,0,0,0,0,0,0,0,0,0
1706421150.29992318,90328854,1561,1515,1610,1615,0,0,0,0,0,0,0,0,0,0
1706421150.39988303,90428814,1602,1539,1615,1621,0,0,0,0,0,0,0,0,0,0
1706421150.49984312,90528774,1626,1572,1616,1621,0,0,0,0,0,0,0,0,0,0
1706421150.59980321,90628734,1631,1598,1609,1612,0,0,0,0,0,0,0,0,0,0
1706421150.69976306,90728694,1624,1615,1598,1599,0,0,0,0,0,0,0,0,0,0
1706421150.79972315,90828654,1613,1624,1589,1586,0,0,0,0,0,0,0,0,0,0
1706421150.89968300,90928614,1607,1628,1585,1579,0,0,0,0,0,0,0,0,0,0
1706421150.99964309,91028574,1605,1627,1584,1576,0,0,0,0,0,0,0,0,0,0
1706421151.09960318,91128534,1607,1622,1584,1575,0,0,0,0,0,0,0,0,0,0
1706421151.19956303,91228494,1608,1615,1583,1576,0,0,0,0,0,0,0,0,0,0
1706421151.29952312,91328454,1607,1607,1581,1577,0,0,0,0,0,0,0,0,0,0
1706421151.39948320,91428414,1603,1599,1579,1579,0,0,0,0,0,0,0,0,0,0
1706421151.49944305,91528374,1596,1592,1577,1579,0,0,0,0,0,0,0,0,0,0
1706421151.59940314,91628334,1589,1588,1576,1580,0,0,0,0,0,0,0,0,0,0
1706421151.69936299,91728294,1582,1584,1574,1578,0,0,0,0,0,0,0,0,0,0
1706421151.79932308,91828254,1577,1582,1575,1578,0,0,0,0,0,0,0,0,0,0
1706421151.89928317,91928214,1575,1580,1576,1577,0,0,0,0,0,0,0,0,0,0
1706421151.99924302,92028174,1575,1580,1578,1578,0,0,0,0,0,0,0,0,0,0
1706421152.10003614,92128967,1575,1579,1578,1577,0,0,0,0,0,0,0,0,0,0
1706421152.19999599,92228927,1575,1577,1577,1576,0,0,0,0,0,0,0,0,0,0
1706421152.29995608,92328887,1577,1576,1577,1576,0,0,0,0,0,0,0,0,0,0
1706421152.39991617,92428847,1576,1574,1575,1575,0,0,0,0,0,0,0,0,0,0
1706421152.49987602,92528807,1576,1575,1574,1575,0,0,0,0,0,0,0,0,0,0
1706421152.59983611,92628767,1576,1576,1575,1576,0,0,0,0,0,0,0,0,0,0
1706421152.69979620,92728727,1577,1576,1575,1576,0,0,0,0,0,0,0,0,0,0
1706421152.79975605,92828687,1577,1577,1575,1575,0,0,0,0,0,0,0,0,0,0
1706421152.89971614,92928647,1577,1578,1575,1575,0,0,0,0,0,0,0,0,0,0
1706421152.99967599,93028607,1578,1578,1575,1575,0,0,0,0,0,0,0,0,0,0
1706421153.09963608,93128567,1579,1578,1576,1575,0,0,0,0,0,0,0,0,0,0
1706421153.19959617,93228527,1579,1578,1577,1574,0,0,0,0,0,0,0,0,0,0
1706421153.29955602,93328487,1580,1578,1583,1568,0,0,0,0,0,0,0,0,0,0
1706421153.39951611,93428447,1580,1579,1579,1570,0,0,0,0,0,0,0,0,0,0
1706421153.49947619,93528407,1577,1577,1570,1569,0,0,0,0,0,0,0,0,0,0
1706421153.59943604,93628367,1575,1576,1563,1568,0,0,0,0,0,0,0,0,0,0
1706421153.69939613,93728327,1573,1574,1558,1566,0,0,0,0,0,0,0,0,0,0
1706421153.79935598,93828287,1572,1574,1558,1563,0,0,0,0,0,0,0,0,0,0
1706421153.89931607,93928247,1572,1574,1558,1561,0,0,0,0,0,0,0,0,0,0
1706421153.99927616,94028207,1572,1573,1558,1557,0,0,0,0,0,0,0,0,0,0
1706421154.09923601,94128167,1573,1574,1558,1556,0,0,0,0,0,0,0,0,0,0
1706421154.20002913,94228960,1574,1574,1558,1555,0,0,0,0,0,0,0,0,0,0
1706421154.29998899,94328920,1574,1575,1557,1554,0,0,0,0,0,0,0,0,0,0
1706421154.39994907,94428880,1574,1574,1554,1553,0,0,0,0,0,0,0,0,0,0
1706421154.49990916,94528840,1575,1575,1552,1552,0,0,0,0,0,0,0,0,0,0
1706421154.59986901,94628800,1575,1576,1550,1551,0,0,0,0,0,0,0,0,0,0
1706421154.69982910,94728760,1576,1577,1548,1549,0,0,0,0,0,0,0,0,0,0
1706421154.79978919,94828720,1577,1579,1546,1547,0,0,0,0,0,0,0,0,0,0
1706421154.89974904,94928680,1578,1579,1544,1543,0,0,0,0,0,0,0,0,0,0
1706421154.99970913,95028640,1581,1582,1543,1542,0,0,0,0,0,0,0,0,0,0
1706421155.09966898,95128600,1583,1584,1542,1541,0,0,0,0,0,0,0,0,0,0
1706421155.19962907,95228560,1585,1585,1539,1539,0,0,0,0,0,0,0,0,0,0
1706421155.29958916,95328520,1588,1588,1539,1539,0,0,0,0,0,0,0,0,0,0
1706421155.39954901,95428480,1589,1589,1538,1539,0,0,0,0,0,0,0,0,0,0
1706421155.49950910,95528440,1590,1588,1538,1539,0,0,0,0,0,0,0,0,0,0
1706421155.59946918,95628400,1589,1588,1539,1541,0,0,0,0,0,0,0,0,0,0
1706421155.69942904,95728360,1588,1587,1542,1544,0,0,0,0,0,0,0,0,0,0
1706421155.79938912,95828320,1585,1583,1546,1548,0,0,0,0,0,0,0,0,0,0
1706421155.89934921,95928280,1581,1580,1551,1553,0,0,0,0,0,0,0,0,0,0
1706421155.99930906,96028240,1576,1575,1556,1559,0,0,0,0,0,0,0,0,0,0
1706421156.09926915,96128200,1570,1568,1563,1565,0,0,0,0,0,0,0,0,0,0
1706421156.19922900,96228160,1563,1562,1571,1573,0,0,0,0,0,0,0,0,0,0
1706421156.30002213,96328953,1555,1553,1579,1581,0,0,0,0,0,0,0,0,0,0
1706421156.39998221,96428913,1547,1546,1588,1589,0,0,0,0,0,0,0,0,0,0
1706421156.49994206,96528873,1541,1541,1596,1596,0,0,0,0,0,0,0,0,0,0
1706421156.59990215,96628833,1536,1536,1601,1600,0,0,0,0,0,0,0,0,0,0
1706421156.69986200,96728793,1534,1536,1604,1603,0,0,0,0,0,0,0,0,0,0
1706421156.79982209,96828753,1535,1537,1604,1603,0,0,0,0,0,0,0,0,0,0
1706421156.89978218,96928713,1539,1541,1602,1601,0,0,0,0,0,0,0,0,0,0
1706421156.99974203,97028673,1544,1546,1597,1597,0,0,0,0,0,0,0,0,0,0
1706421157.09970212,97128633,1550,1551,1592,1592,0,0,0,0,0,0,0,0,0,0
1706421157.19966221,97228593,1558,1558,1586,1587,0,0,0,0,0,0,0,0,0,0
1706421157.29962206,97328553,1565,1564,1581,1582,0,0,0,0,0,0,0,0,0,0
1706421157.39958215,97428513,1572,1571,1578,1578,0,0,0,0,0,0,0,0,0,0
1706421157.49954200,97528473,1578,1576,1576,1574,0,0,0,0,0,0,0,0,0,0
1706421157.59950209,97628433,1581,1579,1572,1571,0,0,0,0,0,0,0,0,0,0
1706421157.69946218,97728393,1584,1582,1571,1570,0,0,0,0,0,0,0,0,0,0
1706421157.79942203,97828353,1584,1583,1570,1569,0,0,0,0,0,0,0,0,0,0
1706421157.89938211,97928313,1585,1583,1571,1571,0,0,0,0,0,0,0,0,0,0
1706421157.99934220,98028273,1584,1583,1572,1572,0,0,0,0,0,0,0,0,0,0
1706421158.09930205,98128233,1583,1582,1574,1574,0,0,0,0,0,0,0,0,0,0
1706421158.19926214,98228193,1580,1580,1575,1576,0,0,0,0,0,0,0,0,0,0
1706421158.30005503,98328986,1578,1578,1577,1577,0,0,0,0,0,0,0,0,0,0
1706421158.40001512,98428946,1576,1577,1579,1578,0,0,0,0,0,0,0,0,0,0
1706421158.49997520,98528906,1574,1575,1580,1579,0,0,0,0,0,0,0,0,0,0
1706421158.59993505,98628866,1574,1575,1582,1581,0,0,0,0,0,0,0,0,0,0
1706421158.69989514,98728826,1575,1575,1582,1583,0,0,0,0,0,0,0,0,0,0
1706421158.79985499,98828786,1575,1576,1583,1583,0,0,0,0,0,0,0,0,0,0
1706421158.89981508,98928746,1575,1576,1582,1582,0,0,0,0,0,0,0,0,0,0
1706421158.99977517,99028706,1575,1575,1581,1581,0,0,0,0,0,0,0,0,0,0
1706421159.09973502,99128666,1577,1578,1581,1581,0,0,0,0,0,0,0,0,0,0
1706421159.19969511,99228626,1578,1578,1580,1580,0,0,0,0,0,0,0,0,0,0
1706421159.29965520,99328586,1579,1579,1579,1579,0,0,0,0,0,0,0,0,0,0
1706421159.39961505,99428546,1580,1580,1578,1579,0,0,0,0,0,0,0,0,0,0
1706421159.49957514,99528506,1581,1581,1579,1579,0,0,0,0,0,0,0,0,0,0
1706421159.59953499,99628466,1581,1581,1578,1578,0,0,0,0,0,0,0,0,0,0
1706421159.69949508,99728426,1581,1580,1577,1577,0,0,0,0,0,0,0,0,0,0
1706421159.79945517,99828386,1582,1582,1578,1578,0,0,0,0,0,0,0,0,0,0
1706421159.89941502,99928346,1582,1582,1579,1579,0,0,0,0,0,0,0,0,0,0
1706421159.99937510,100028306,1581,1582,1580,1579,0,0,0,0,0,0,0,0,0,0
1706421160.09933519,100128266,1581,1581,1579,1579,0,0,0,0,0,0,0,0,0,0
1706421160.19929504,100228226,1581,1581,1580,1580,0,0,0,0,0,0,0,0,0,0
1706421160.29925513,100328186,1581,1581,1581,1581,0,0,0,0,0,0,0,0,0,0
1706421160.40004802,100428979,1580,1580,1581,1580,0,0,0,0,0,0,0,0,0,0
1706421160.50000811,100528939,1580,1580,1581,1581,0,0,0,0,0,0,0,0,0,0
1706421160.59996819,100628899,1580,1580,1581,1581,0,0,0,0,0,0,0,0,0,0
1706421160.69992805,100728859,1580,1580,1581,1581,0,0,0,0,0,0,0,0,0,0
1706421160.79988813,100828819,1580,1580,1581,1581,0,0,0,0,0,0,0,0,0,0
1706421160.89984798,100928779,1581,1581,1581,1582,0,0,0,0,0,0,0,0,0,0
1706421160.99980807,101028739,1581,1581,1582,1582,0,0,0,0,0,0,0,0,0,0
1706421161.09976816,101128699,1581,1581,1581,1581,0,0,0,0,0,0,0,0,0,0
1706421161.19972801,101228659,1580,1581,1581,1580,0,0,0,0,0,0,0,0,0,0
1706421161.29968810,101328619,1581,1581,1581,1581,0,0,0,0,0,0,0,0,0,0
1706421161.39964819,101428579,1581,1581,1580,1580,0,0,0,0,0,0,0,0,0,0
1706421161.49960804,101528539,1582,1581,1581,1581,0,0,0,0,0,0,0,0,0,0
1706421161.59956813,101628499,1581,1581,1581,1581,0,0,0,0,0,0,0,0,0,0
1706421161.69952798,101728459,1582,1582,1581,1581,0,0,0,0,0,0,0,0,0,0
1706421161.79948807,101828419,1581,1582,1581,1581,0,0,0,0,0,0,0,0,0,0
1706421161.89944816,101928379,1582,1582,1581,1581,0,0,0,0,0,0,0,0,0,0
1706421161.99940801,102028339,1582,1582,1587,1576,0,0,0,0,0,0,0,0,0,0
1706421162.09936810,102128299,1581,1582,1586,1573,0,0,0,0,0,0,0,0,0,0
1706421162.19932818,102228259,1579,1581,1579,1573,0,0,0,0,0,0,0,0,0,0
1706421162.29928803,102328219,1578,1580,1570,1572,0,0,0,0,0,0,0,0,0,0
1706421162.39924812,102428179,1577,1579,1563,1569,0,0,0,0,0,0,0,0,0,0
1706421162.50004101,102528972,1576,1579,1558,1564,0,0,0,0,0,0,0,0,0,0
1706421162.60000110,102628932,1577,1578,1555,1560,0,0,0,0,0,0,0,0,0,0
1706421162.69996119,102728892,1579,1579,1556,1558,0,0,0,0,0,0,0,0,0,0
1706421162.79992104,102828852,1580,1578,1556,1556,0,0,0,0,0,0,0,0,0,0
1706421162.89988112,102928812,1579,1578,1557,1554,0,0,0,0,0,0,0,0,0,0
1706421162.99984121,103028772,1579,1578,1557,1554,0,0,0,0,0,0,0,0,0,0
1706421163.09980106,103128732,1577,1578,1556,1554,0,0,0,0,0,0,0,0,0,0
1706421163.19976115,103228692,1576,1578,1555,1555,0,0,0,0,0,0,0,0,0,0
1706421163.29972100,103328652,1575,1577,1554,1554,0,0,0,0,0,0,0,0,0,0
1706421163.39968109,103428612,1575,1577,1553,1553,0,0,0,0,0,0,0,0,0,0
1706421163.49964118,103528572,1576,1578,1552,1552,0,0,0,0,0,0,0,0,0,0
1706421163.59960103,103628532,1577,1578,1550,1550,0,0,0,0,0,0,0,0,0,0
1706421163.69956112,103728492,1579,1580,1548,1548,0,0,0,0,0,0,0,0,0,0
1706421163.79952121,103828452,1581,1582,1545,1545,0,0,0,0,0,0,0,0,0,0
1706421163.89948106,103928412,1584,1585,1544,1543,0,0,0,0,0,0,0,0,0,0
1706421163.99944115,104028372,1587,1588,1542,1542,0,0,0,0,0,0,0,0,0,0
1706421164.09940100,104128332,1590,1590,1540,1540,0,0,0,0,0,0,0,0,0,0
1706421164.19936109,104228292,1592,1591,1539,1539,0,0,0,0,0,0,0,0,0,0
1706421164.29932117,104328252,1592,1591,1538,1538,0,0,0,0,0,0,0,0,0,0
1706421164.39928102,104428212,1592,1593,1539,1540,0,0,0,0,0,0,0,0,0,0
1706421164.49924111,104528172,1592,1592,1541,1543,0,0,0,0,0,0,0,0,0,0
1706421164.60003400,104628965,1591,1590,1545,1548,0,0,0,0,0,0,0,0,0,0
1706421164.69999409,104728925,1587,1584,1551,1554,0,0,0,0,0,0,0,0,0,0
1706421164.79995418,104828885,1581,1577,1559,1561,0,0,0,0,0,0,0,0,0,0
1706421164.89991403,104928845,1573,1569,1568,1571,0,0,0,0,0,0,0,0,0,0
1706421164.99987411,105028805,1564,1560,1579,1581,0,0,0,0,0,0,0,0,0,0
1706421165.09983420,105128765,1554,1550,1589,1590,0,0,0,0,0,0,0,0,0,0
1706421165.19979405,105228725,1544,1544,1598,1599,0,0,0,0,0,0,0,0,0,0
1706421165.29975414,105328685,1537,1538,1605,1605,0,0,0,0,0,0,0,0,0,0
1706421165.39971399,105428645,1533,1536,1609,1608,0,0,0,0,0,0,0,0,0,0
1706421165.49967408,105528605,1533,1537,1611,1610,0,0,0,0,0,0,0,0,0,0
1706421165.59963417,105628565,1535,1539,1609,1608,0,0,0,0,0,0,0,0,0,0
1706421165.69959402,105728525,1541,1543,1605,1605,0,0,0,0,0,0,0,0,0,0
1706421165.79955411,105828485,1547,1550,1600,1599,0,0,0,0,0,0,0,0,0,0
1706421165.89951420,105928445,1555,1555,1594,1592,0,0,0,0,0,0,0,0,0,0
1706421165.99947405,106028405,1563,1562,1587,1585,0,0,0,0,0,0,0,0,0,0
1706421166.09943414,106128365,1570,1568,1580,1579,0,0,0,0,0,0,0,0,0,0
1706421166.19939399,106228325,1577,1575,1575,1575,0,0,0,0,0,0,0,0,0,0
1706421166.29935408,106328285,1582,1579,1571,1571,0,0,0,0,0,0,0,0,0,0
1706421166.39931417,106428245,1585,1583,1569,1569,0,0,0,0,0,0,0,0,0,0
1706421166.49927402,106528205,1587,1585,1569,1569,0,0,0,0,0,0,0,0,0,0
1706421166.59923410,106628165,1587,1586,1569,1569,0,0,0,0,0,0,0,0,0,0
1706421166.70002699,106728958,1586,1585,1570,1571,0,0,0,0,0,0,0,0,0,0
1706421166.79998708,106828918,1583,1583,1571,1571,0,0,0,0,0,0,0,0,0,0
1706421166.89994717,106928878,1582,1582,1575,1575,0,0,0,0,0,0,0,0,0,0
1706421166.99990702,107028838,1579,1580,1577,1577,0,0,0,0,0,0,0,0,0,0
1706421167.09986711,107128798,1577,1578,1579,1579,0,0,0,0,0,0,0,0,0,0
1706421167.19982719,107228758,1575,1576,1581,1581,0,0,0,0,0,0,0,0,0,0
1706421167.29978704,107328718,1574,1574,1582,1582,0,0,0,0,0,0,0,0,0,0
1706421167.39974713,107428678,1573,1574,1583,1583,0,0,0,0,0,0,0,0,0,0
1706421167.49970698,107528638,1573,1574,1583,1583,0,0,0,0,0,0,0,0,0,0
1706421167.59966707,107628598,1574,1575,1583,1583,0,0,0,0,0,0,0,0,0,0
1706421167.69962716,107728558,1575,1575,1582,1582,0,0,0,0,0,0,0,0,0,0
1706421167.79958701,107828518,1577,1577,1583,1583,0,0,0,0,0,0,0,0,0,0
1706421167.89954710,107928478,1578,1577,1581,1581,0,0,0,0,0,0,0,0,0,0
1706421167.99950719,108028438,1579,1579,1580,1580,0,0,0,0,0,0,0,0,0,0
1706421168.09946704,108128398,1580,1580,1579,1579,0,0,0,0,0,0,0,0,0,0
1706421168.19942713,108228358,1581,1580,1578,1578,0,0,0,0,0,0,0,0,0,0
1706421168.29938722,108328318,1581,1581,1577,1578,0,0,0,0,0,0,0,0,0,0
1706421168.39934707,108428278,1581,1581,1577,1577,0,0,0,0,0,0,0,0,0,0
1706421168.49930716,108528238,1581,1582,1578,1578,0,0,0,0,0,0,0,0,0,0
1706421168.59926701,108628198,1581,1581,1578,1578,0,0,0,0,0,0,0,0,0,0
1706421168.69922709,108728158,1582,1582,1579,1579,0,0,0,0,0,0,0,0,0,0
1706421168.80001998,108828951,1581,1581,1579,1579,0,0,0,0,0,0,0,0,0,0
1706421168.89998007,108928911,1581,1581,1580,1581,0,0,0,0,0,0,0,0,0,0
1706421168.99994016,109028871,1581,1581,1580,1581,0,0,0,0,0,0,0,0,0,0
1706421169.09990001,109128831,1580,1581,1581,1581,0,0,0,0,0,0,0,0,0,0
1706421169.19986010,109228791,1580,1580,1581,1580,0,0,0,0,0,0,0,0,0,0
1706421169.29982018,109328751,1580,1580,1582,1581,0,0,0,0,0,0,0,0,0,0
1706421169.39978004,109428711,1580,1580,1582,1581,0,0,0,0,0,0,0,0,0,0
1706421169.49974012,109528671,1581,1581,1583,1582,0,0,0,0,0,0,0,0,0,0
1706421169.59970021,109628631,1581,1581,1582,1582,0,0,0,0,0,0,0,0,0,0
1706421169.69966006,109728591,1580,1581,1581,1582,0,0,0,0,0,0,0,0,0,0
1706421169.79962015,109828551,1580,1581,1581,1581,0,0,0,0,0,0,0,0,0,0
1706421169.89958000,109928511,1581,1581,1581,1581,0,0,0,0,0,0,0,0,0,0
1706421169.99954009,110028471,1581,1582,1583,1579,0,0,0,0,0,0,0,0,0,0
1706421170.09950018,110128431,1582,1582,1588,1573,0,0,0,0,0,0,0,0,0,0
1706421170.19946003,110228391,1581,1580,1584,1574,0,0,0,0,0,0,0,0,0,0
1706421170.29942012,110328351,1579,1577,1576,1575,0,0,0,0,0,0,0,0,0,0
1706421170.39938021,110428311,1575,1574,1570,1575,0,0,0,0,0,0,0,0,0,0
1706421170.49934006,110528271,1571,1571,1565,1573,0,0,0,0,0,0,0,0,0,0
1706421170.59930015,110628231,1569,1570,1565,1571,0,0,0,0,0,0,0,0,0,0
1706421170.69926000,110728191,1568,1568,1566,1568,0,0,0,0,0,0,0,0,0,0
1706421170.80005312,110828984,1566,1567,1566,1566,0,0,0,0,0,0,0,0,0,0
1706421170.90001321,110928944,1566,1566,1567,1565,0,0,0,0,0,0,0,0,0,0
1706421170.99997306,111028904,1565,1566,1568,1564,0,0,0,0,0,0,0,0,0,0
1706421171.09993315,111128864,1565,1565,1567,1565,0,0,0,0,0,0,0,0,0,0
1706421171.19989300,111228824,1564,1564,1566,1565,0,0,0,0,0,0,0,0,0,0
1706421171.29985309,111328784,1563,1563,1565,1564,0,0,0,0,0,0,0,0,0,0
1706421171.39981318,111428744,1564,1564,1565,1565,0,0,0,0,0,0,0,0,0,0
1706421171.49977303,111528704,1562,1562,1562,1563,0,0,0,0,0,0,0,0,0,0
1706421171.59973311,111628664,1562,1562,1563,1562,0,0,0,0,0,0,0,0,0,0
1706421171.69969320,111728624,1561,1561,1561,1561,0,0,0,0,0,0,0,0,0,0
1706421171.79965305,111828584,1561,1561,1561,1561,0,0,0,0,0,0,0,0,0,0
1706421171.89961314,111928544,1561,1561,1561,1560,0,0,0,0,0,0,0,0,0,0
1706421171.99957299,112028504,1560,1561,1561,1559,0,0,0,0,0,0,0,0,0,0
1706421172.09953308,112128464,1560,1560,1560,1559,0,0,0,0,0,0,0,0,0,0
1706421172.19949317,112228424,1559,1559,1559,1558,0,0,0,0,0,0,0,0,0,0
1706421172.29945302,112328384,1559,1558,1559,1558,0,0,0,0,0,0,0,0,0,0
1706421172.39941311,112428344,1559,1559,1559,1558,0,0,0,0,0,0,0,0,0,0
1706421172.49937320,112528304,1558,1558,1558,1558,0,0,0,0,0,0,0,0,0,0
1706421172.59933305,112628264,1558,1557,1558,1556,0,0,0,0,0,0,0,0,0,0
1706421172.69929314,112728224,1558,1558,1560,1557,0,0,0,0,0,0,0,0,0,0
1706421172.79925299,112828184,1558,1558,1560,1557,0,0,0,0,0,0,0,0,0,0
1706421172.90004611,112928977,1559,1559,1558,1560,0,0,0,0,0,0,0,0,0,0
1706421173.00000620,113028937,1560,1560,1558,1563,0,0,0,0,0,0,0,0,0,0
1706421173.09996605,113128897,1561,1561,1558,1565,0,0,0,0,0,0,0,0,0,0
1706421173.19992614,113228857,1562,1562,1559,1565,0,0,0,0,0,0,0,0,0,0
1706421173.29988599,113328817,1562,1562,1560,1564,0,0,0,0,0,0,0,0,0,0
1706421173.39984608,113428777,1561,1561,1561,1561,0,0,0,0,0,0,0,0,0,0
1706421173.49980617,113528737,1561,1560,1562,1559,0,0,0,0,0,0,0,0,0,0
1706421173.59976602,113628697,1560,1561,1563,1558,0,0,0,0,0,0,0,0,0,0
1706421173.69972610,113728657,1560,1560,1560,1558,0,0,0,0,0,0,0,0,0,0
1706421173.79968619,113828617,1559,1559,1555,1562,0,0,0,0,0,0,0,0,0,0
1706421173.89964604,113928577,1556,1556,1552,1559,0,0,0,0,0,0,0,0,0,0
1706421173.99960613,114028537,1552,1552,1549,1552,0,0,0,0,0,0,0,0,0,0
1706421174.09956598,114128497,1547,1547,1545,1546,0,0,0,0,0,0,0,0,0,0
1706421174.19952607,114228457,1540,1540,1539,1538,0,0,0,0,0,0,0,0,0,0
1706421174.29948616,114328417,1533,1534,1533,1531,0,0,0,0,0,0,0,0,0,0
1706421174.39944601,114428377,1525,1525,1524,1522,0,0,0,0,0,0,0,0,0,0
1706421174.49940610,114528337,1521,1521,1520,1519,0,0,0,0,0,0,0,0,0,0
1706421174.59936619,114628297,1518,1519,1518,1518,0,0,0,0,0,0,0,0,0,0
1706421174.69932604,114728257,1519,1520,1520,1520,0,0,0,0,0,0,0,0,0,0
1706421174.79928613,114828217,1520,1521,1522,1523,0,0,0,0,0,0,0,0,0,0
1706421174.89924622,114928177,1523,1524,1526,1526,0,0,0,0,0,0,0,0,0,0
1706421175.00003910,115028970,1528,1528,1531,1532,0,0,0,0,0,0,0,0,0,0
1706421175.09999919,115128930,1533,1532,1537,1537,0,0,0,0,0,0,0,0,0,0
1706421175.19995904,115228890,1537,1535,1540,1539,0,0,0,0,0,0,0,0,0,0
1706421175.29991913,115328850,1539,1538,1542,1541,0,0,0,0,0,0,0,0,0,0
1706421175.39987898,115428810,1542,1541,1543,1543,0,0,0,0,0,0,0,0,0,0
1706421175.49983907,115528770,1544,1544,1545,1545,0,0,0,0,0,0,0,0,0,0
1706421175.59979916,115628730,1545,1544,1544,1544,0,0,0,0,0,0,0,0,0,0
1706421175.69975901,115728690,1546,1546,1544,1544,0,0,0,0,0,0,0,0,0,0
1706421175.79971910,115828650,1547,1547,1545,1545,0,0,0,0,0,0,0,0,0,0
1706421175.89967918,115928610,1547,1546,1544,1544,0,0,0,0,0,0,0,0,0,0
1706421175.99963903,116028570,1547,1548,1545,1545,0,0,0,0,0,0,0,0,0,0
1706421176.09959912,116128530,1547,1547,1545,1544,0,0,0,0,0,0,0,0,0,0
1706421176.19955921,116228490,1546,1547,1545,1544,0,0,0,0,0,0,0,0,0,0
1706421176.29951906,116328450,1545,1546,1544,1544,0,0,0,0,0,0,0,0,0,0
1706421176.39947915,116428410,1545,1546,1545,1545,0,0,0,0,0,0,0,0,0,0
1706421176.49943900,116528370,1545,1545,1545,1544,0,0,0,0,0,0,0,0,0,0
1706421176.59939909,116628330,1545,1545,1545,1545,0,0,0,0,0,0,0,0,0,0
1706421176.69935918,116728290,1544,1543,1544,1544,0,0,0,0,0,0,0,0,0,0
1706421176.79931903,116828250,1544,1543,1544,1544,0,0,0,0,0,0,0,0,0,0
1706421176.89927912,116928210,1544,1544,1545,1545,0,0,0,0,0,0,0,0,0,0
1706421176.99923921,117028170,1543,1544,1544,1545,0,0,0,0,0,0,0,0,0,0
1706421177.10003209,117128963,1544,1544,1545,1545,0,0,0,0,0,0,0,0,0,0
1706421177.19999218,117228923,1544,1544,1545,1545,0,0,0,0,0,0,0,0,0,0
1706421177.29995203,117328883,1544,1544,1544,1544,0,0,0,0,0,0,0,0,0,0
1706421177.39991212,117428843,1544,1545,1545,1545,0,0,0,0,0,0,0,0,0,0
1706421177.49987221,117528803,1545,1545,1545,1545,0,0,0,0,0,0,0,0,0,0
1706421177.59983206,117628763,1544,1544,1544,1544,0,0,0,0,0,0,0,0,0,0
1706421177.69979215,117728723,1545,1544,1544,1544,0,0,0,0,0,0,0,0,0,0
1706421177.79975200,117828683,1545,1545,1545,1545,0,0,0,0,0,0,0,0,0,0
1706421177.89971209,117928643,1545,1544,1544,1544,0,0,0,0,0,0,0,0,0,0
1706421177.99967217,118028603,1545,1545,1544,1544,0,0,0,0,0,0,0,0,0,0
1706421178.09963202,118128563,1545,1545,1544,1545,0,0,0,0,0,0,0,0,0,0
1706421178.19959211,118228523,1545,1545,1544,1544,0,0,0,0,0,0,0,0,0,0
1706421178.29955220,118328483,1545,1544,1544,1544,0,0,0,0,0,0,0,0,0,0
1706421178.39951205,118428443,1544,1544,1544,1544,0,0,0,0,0,0,0,0,0,0
1706421178.49947214,118528403,1543,1543,1543,1543,0,0,0,0,0,0,0,0,0,0
1706421178.59943199,118628363,1544,1545,1545,1545,0,0,0,0,0,0,0,0,0,0
1706421178.69939208,118728323,1544,1545,1544,1545,0,0,0,0,0,0,0,0,0,0
1706421178.79935217,118828283,1544,1544,1544,1544,0,0,0,0,0,0,0,0,0,0
1706421178.89931202,118928243,1544,1543,1544,1544,0,0,0,0,0,0,0,0,0,0
1706421178.99927211,119028203,1544,1544,1544,1543,0,0,0,0,0,0,0,0,0,0
1706421179.09923220,119128163,1544,1544,1544,1545,0,0,0,0,0,0,0,0,0,0
1706421179.20002508,119228956,1544,1545,1544,1544,0,0,0,0,0,0,0,0,0,0
1706421179.29998517,119328916,1544,1544,1544,1544,0,0,0,0,0,0,0,0,0,0
1706421179.39994502,119428876,1544,1544,1544,1545,0,0,0,0,0,0,0,0,0,0
1706421179.49990511,119528836,1544,1543,1544,1544,0,0,0,0,0,0,0,0,0,0
1706421179.59986520,119628796,1544,1544,1544,1544,0,0,0,0,0,0,0,0,0,0
1706421179.69982505,119728756,1543,1543,1543,1543,0,0,0,0,0,0,0,0,0,0
1706421179.79978514,119828716,1544,1545,1544,1544,0,0,0,0,0,0,0,0,0,0
1706421179.89974499,119928676,1544,1543,1544,1544,0,0,0,0,0,0,0,0,0,0
1706421179.99970508,120028636,1543,1543,1543,1543,0,0,0,0,0,0,0,0,0,0
1706421180.09966516,120128596,1544,1544,1544,1544,0,0,0,0,0,0,0,0,0,0
1706421180.19962502,120228556,1544,1545,1545,1545,0,0,0,0,0,0,0,0,0,0
1706421180.29958510,120328516,1545,1544,1545,1545,0,0,0,0,0,0,0,0,0,0
1706421180.39954519,120428476,1544,1544,1544,1544,0,0,0,0,0,0,0,0,0,0
1706421180.49950504,120528436,1544,1543,1544,1544,0,0,0,0,0,0,0,0,0,0
1706421180.59946513,120628396,1544,1544,1544,1544,0,0,0,0,0,0,0,0,0,0
1706421180.69942498,120728356,1544,1544,1544,1544,0,0,0,0,0,0,0,0,0,0
1706421180.79938507,120828316,1545,1545,1545,1545,0,0,0,0,0,0,0,0,0,0
1706421180.89934516,120928276,1545,1545,1545,1545,0,0,0,0,0,0,0,0,0,0
1706421180.99930501,121028236,1545,1545,1545,1545,0,0,0,0,0,0,0,0,0,0
1706421181.09926510,121128196,1545,1544,1545,1545,0,0,0,0,0,0,0,0,0,0
1706421181.19922519,121228156,1544,1544,1544,1543,0,0,0,0,0,0,0,0,0,0
1706421181.30001807,121328949,1544,1544,1544,1543,0,0,0,0,0,0,0,0,0,0
1706421181.39997816,121428909,1544,1545,1545,1545,0,0,0,0,0,0,0,0,0,0
1706421181.49993801,121528869,1544,1545,1544,1545,0,0,0,0,0,0,0,0,0,0
1706421181.59989810,121628829,1544,1545,1544,1545,0,0,0,0,0,0,0,0,0,0
1706421181.69985819,121728789,1544,1544,1544,1544,0,0,0,0,0,0,0,0,0,0
1706421181.79981804,121828749,1544,1544,1544,1543,0,0,0,0,0,0,0,0,0,0
1706421181.89977813,121928709,1544,1543,1544,1543,0,0,0,0,0,0,0,0,0,0
1706421181.99973822,122028669,1544,1544,1545,1544,0,0,0,0,0,0,0,0,0,0
1706421182.09969807,122128629,1544,1544,1544,1544,0,0,0,0,0,0,0,0,0,0
1706421182.19965816,122228589,1544,1545,1545,1544,0,0,0,0,0,0,0,0,0,0
1706421182.29961801,122328549,1545,1545,1545,1545,0,0,0,0,0,0,0,0,0,0
1706421182.39957809,122428509,1544,1544,1544,1544,0,0,0,0,0,0,0,0,0,0
1706421182.49953818,122528469,1545,1544,1544,1545,0,0,0,0,0,0,0,0,0,0
1706421182.59949803,122628429,1544,1544,1544,1544,0,0,0,0,0,0,0,0,0,0
1706421182.69945812,122728389,1544,1543,1543,1544,0,0,0,0,0,0,0,0,0,0
1706421182.79941821,122828349,1543,1543,1543,1543,0,0,0,0,0,0,0,0,0,0
1706421182.89937806,122928309,1544,1543,1544,1544,0,0,0,0,0,0,0,0,0,0
1706421182.99933815,123028269,1543,1543,1543,1543,0,0,0,0,0,0,0,0,0,0
1706421183.09929800,123128229,1543,1543,1543,1543,0,0,0,0,0,0,0,0,0,0
1706421183.19925809,123228189,1544,1544,1544,1544,0,0,0,0,0,0,0,0,0,0
1706421183.30005121,123328982,1545,1545,1545,1545,0,0,0,0,0,0,0,0,0,0
1706421183.40001106,123428942,1544,1545,1545,1545,0,0,0,0,0,0,0,0,0,0
1706421183.49997115,123528902,1545,1544,1544,1545,0,0,0,0,0,0,0,0,0,0
1706421183.59993100,123628862,1545,1544,1545,1545,0,0,0,0,0,0,0,0,0,0
1706421183.69989109,123728822,1545,1544,1545,1544,0,0,0,0,0,0,0,0,0,0
1706421183.79985118,123828782,1544,1545,1545,1544,0,0,0,0,0,0,0,0,0,0
1706421183.89981103,123928742,1544,1544,1544,1544,0,0,0,0,0,0,0,0,0,0
1706421183.99977112,124028702,1544,1544,1544,1544,0,0,0,0,0,0,0,0,0,0
1706421184.09973121,124128662,1544,1545,1544,1544,0,0,0,0,0,0,0,0,0,0
1706421184.19969106,124228622,1514,1505,1505,1505,0,0,0,0,0,0,0,0,0,0
1706421184.29965115,124328582,1381,1324,1323,1323,0,0,0,0,0,0,0,0,0,0
1706421184.39961100,124428542,1325,1238,1238,1236,0,0,0,0,0,0,0,0,0,0
1706421184.49957108,124528502,1309,1212,1211,1210,0,0,0,0,0,0,0,0,0,0
1706421184.59953117,124628462,1296,1190,1189,1187,0,0,0,0,0,0,0,0,0,0
1706421184.69949102,124728422,1275,1151,1151,1150,0,0,0,0,0,0,0,0,0,0
1706421184.79945111,124828382,1190,1151,1151,1150,0,0,0,0,0,0,0,0,0,0
1706421184.89941120,124928342,1191,1151,1150,1150,0,0,0,0,0,0,0,0,0,0
1706421184.99937105,125028302,1190,1152,1151,1150,0,0,0,0,0,0,0,0,0,0
1706421185.09933114,125128262,1176,1150,1150,1175,0,0,0,0,0,0,0,0,0,0
1706421185.19929099,125228222,1182,1150,1150,1166,0,0,0,0,0,0,0,0,0,0
1706421185.29925108,125328182,1185,1150,1150,1161,0,0,0,0,0,0,0,0,0,0
1706421185.40004420,125428975,1186,1150,1150,1160,0,0,0,0,0,0,0,0,0,0
1706421185.50000405,125528935,1185,1150,1150,1161,0,0,0,0,0,0,0,0,0,0
1706421185.59996414,125628895,1185,1150,1150,1161,0,0,0,0,0,0,0,0,0,0
1706421185.69992399,125728855,1185,1150,1150,1162,0,0,0,0,0,0,0,0,0,0
1706421185.79988408,125828815,1185,1150,1150,1162,0,0,0,0,0,0,0,0,0,0
1706421185.89984417,125928775,1193,1150,1150,1150,0,0,0,0,0,0,0,0,0,0
1706421185.99980402,126028735,1191,1150,1150,1151,0,0,0,0,0,0,0,0,0,0
1706421186.09976411,126128695,1191,1150,1150,1152,0,0,0,0,0,0,0,0,0,0
1706421186.19972420,126228655,1191,1150,1150,1152,0,0,0,0,0,0,0,0,0,0
1706421186.29968405,126328615,1191,1150,1150,1152,0,0,0,0,0,0,0,0,0,0
1706421186.39964414,126428575,1000,1000,1000,1000,0,0,0,0,0,0,0,0,0,0
1706421186.49960399,126528535,1000,1000,1000,1000,0,0,0,0,0,0,0,0,0,0
1706421186.59956408,126628495,1000,1000,1000,1000,0,0,0,0,0,0,0,0,0,0
1706421186.69952416,126728455,1000,1000,1000,1000,0,0,0,0,0,0,0,0,0,0
1706421186.79948401,126828415,1000,1000,1000,1000,0,0,0,0,0,0,0,0,0,0
1706421186.89944410,126928375,1000,1000,1000,1000,0,0,0,0,0,0,0,0,0,0
1706421186.99940419,127028335,1000,1000,1000,1000,0,0,0,0,0,0,0,0,0,0
1706421187.09936404,127128295,1000,1000,1000,1000,0,0,0,0,0,0,0,0,0,0
1706421187.19932413,127228255,1000,1000,1000,1000,0,0,0,0,0,0,0,0,0,0
1706421187.29928398,127328215,1000,1000,1000,1000,0,0,0,0,0,0,0,0,0,0
1706421187.39924407,127428175,1000,1000,1000,1000,0,0,0,0,0,0,0,0,0,0
1706421187.50003719,127528968,1000,1000,1000,1000,0,0,0,0,0,0,0,0,0,0
1706421187.59999704,127628928,1000,1000,1000,1000,0,0,0,0,0,0,0,0,0,0
1706421187.69995713,127728888,1000,1000,1000,1000,0,0,0,0,0,0,0,0,0,0
1706421187.79991698,127828848,1000,1000,1000,1000,0,0,0,0,0,0,0,0,0,0
1706421187.89987707,127928808,1000,1000,1000,1000,0,0,0,0,0,0,0,0,0,0
1706421187.99983716,128028768,1000,1000,1000,1000,0,0,0,0,0,0,0,0,0,0
1706421188.09979701,128128728,1000,1000,1000,1000,0,0,0,0,0,0,0,0,0,0
1706421188.19975710,128228688,1000,1000,1000,1000,0,0,0,0,0,0,0,0,0,0
1706421188.29971719,128328648,1000,1000,1000,1000,0,0,0,0,0,0,0,0,0,0
1706421188.39967704,128428608,1000,1000,1000,1000,0,0,0,0,0,0,0,0,0,0
1706421188.49963713,128528568,1000,1000,1000,1000,0,0,0,0,0,0,0,0,0,0
1706421188.59959722,128628528,1000,1000,1000,1000,0,0,0,0,0,0,0,0,0,0
1706421188.69955707,128728488,1000,1000,1000,1000,0,0,0,0,0,0,0,0,0,0
1706421188.79951715,128828448,1000,1000,1000,1000,0,0,0,0,0,0,0,0,0,0
1706421188.89947701,128928408,1000,1000,1000,1000,0,0,0,0,0,0,0,0,0,0
1706421188.99943709,129028368,1000,1000,1000,1000,0,0,0,0,0,0,0,0,0,0
1706421189.09939718,129128328,1000,1000,1000,1000,0,0,0,0,0,0,0,0,0,0
1706421189.19935703,129228288,1000,1000,1000,1000,0,0,0,0,0,0,0,0,0,0
1706421189.29931712,129328248,1000,1000,1000,1000,0,0,0,0,0,0,0,0,0,0
1706421189.39927721,129428208,1000,1000,1000,1000,0,0,0,0,0,0,0,0,0,0
1706421189.49923706,129528168,1000,1000,1000,1000,0,0,0,0,0,0,0,0,0,0
1706421189.60003018,129628961,1000,1000,1000,1000,0,0,0,0,0,0,0,0,0,0
1706421189.69999003,129728921,1000,1000,1000,1000,0,0,0,0,0,0,0,0,0,0
1706421189.79995012,129828881,1000,1000,1000,1000,0,0,0,0,0,0,0,0,0,0
1706421189.89991021,129928841,1000,1000,1000,1000,0,0,0,0,0,0,0,0,0,0
1706421189.99987006,130028801,1000,1000,1000,1000,0,0,0,0,0,0,0,0,0,0
1706421190.09983015,130128761,1000,1000,1000,1000,0,0,0,0,0,0,0,0,0,0
1706421190.19979000,130228721,1000,1000,1000,1000,0,0,0,0,0,0,0,0,0,0
1706421190.29975009,130328681,1000,1000,1000,1000,0,0,0,0,0,0,0,0,0,0
1706421190.39971018,130428641,1000,1000,1000,1000,0,0,0,0,0,0,0,0,0,0
1706421190.49967003,130528601,1000,1000,1000,1000,0,0,0,0,0,0,0,0,0,0
1706421190.59963012,130628561,1000,1000,1000,1000,0,0,0,0,0,0,0,0,0,0
1706421190.69959021,130728521,1000,1000,1000,1000,0,0,0,0,0,0,0,0,0,0
1706421190.79955006,130828481,1000,1000,1000,1000,0,0,0,0,0,0,0,0,0,0
1706421190.89951015,130928441,1000,1000,1000,1000,0,0,0,0,0,0,0,0,0,0
1706421190.99947000,131028401,1000,1000,1000,1000,0,0,0,0,0,0,0,0,0,0
1706421191.09943008,131128361,1000,1000,1000,1000,0,0,0,0,0,0,0,0,0,0
1706421191.19939017,131228321,1000,1000,1000,1000,0,0,0,0,0,0,0,0,0,0
1706421191.29935002,131328281,1000,1000,1000,1000,0,0,0,0,0,0,0,0,0,0
1706421191.39931011,131428241,1000,1000,1000,1000,0,0,0,0,0,0,0,0,0,0
1706421191.49927020,131528201,1000,1000,1000,1000,0,0,0,0,0,0,0,0,0,0
1706421191.59923005,131628161,1000,1000,1000,1000,0,0,0,0,0,0,0,0,0,0
1706421191.70002317,131728954,1000,1000,1000,1000,0,0,0,0,0,0,0,0,0,0
1706421191.79998302,131828914,1000,1000,1000,1000,0,0,0,0,0,0,0,0,0,0
1706421191.89994311,131928874,1000,1000,1000,1000,0,0,0,0,0,0,0,0,0,0
1706421191.99990320,132028834,1000,1000,1000,1000,0,0,0,0,0,0,0,0,0,0
1706421192.09986305,132128794,1000,1000,1000,1000,0,0,0,0,0,0,0,0,0,0
1706421192.19982314,132228754,1000,1000,1000,1000,0,0,0,0,0,0,0,0,0,0
1706421192.29978299,132328714,1000,1000,1000,1000,0,0,0,0,0,0,0,0,0,0
1706421192.39974308,132428674,1000,1000,1000,1000,0,0,0,0,0,0,0,0,0,0
1706421192.49970317,132528634,1000,1000,1000,1000,0,0,0,0,0,0,0,0,0,0
1706421192.59966302,132628594,1000,1000,1000,1000,0,0,0,0,0,0,0,0,0,0
1706421192.69962311,132728554,1000,1000,1000,1000,0,0,0,0,0,0,0,0,0,0
1706421192.79958320,132828514,1000,1000,1000,1000,0,0,0,0,0,0,0,0,0,0
1706421192.89954305,132928474,1000,1000,1000,1000,0,0,0,0,0,0,0,0,0,0
1706421192.99950314,133028434,1000,1000,1000,1000,0,0,0,0,0,0,0,0,0,0
1706421193.09946299,133128394,1000,1000,1000,1000,0,0,0,0,0,0,0,0,0,0
1706421193.19942307,133228354,1000,1000,1000,1000,0,0,0,0,0,0,0,0,0,0
1706421193.29938316,133328314,1000,1000,1000,1000,0,0,0,0,0,0,0,0,0,0
1706421193.39934301,133428274,1000,1000,1000,1000,0,0,0,0,0,0,0,0,0,0
1706421193.49930310,133528234,1000,1000,1000,1000,0,0,0,0,0,0,0,0,0,0
1706421193.59926319,133628194,1000,1000,1000,1000,0,0,0,0,0,0,0,0,0,0
1706421193.69922304,133728154,1000,1000,1000,1000,0,0,0,0,0,0,0,0,0,0
1706421193.80001616,133828947,1000,1000,1000,1000,0,0,0,0,0,0,0,0,0,0
1706421193.89997602,133928907,1000,1000,1000,1000,0,0,0,0,0,0,0,0,0,0
1706421193.99993610,134028867,1000,1000,1000,1000,0,0,0,0,0,0,0,0,0,0
1706421194.09989619,134128827,1000,1000,1000,1000,0,0,0,0,0,0,0,0,0,0
1706421194.19985604,134228787,1000,1000,1000,1000,0,0,0,0,0,0,0,0,0,0
1706421194.29981613,134328747,1000,1000,1000,1000,0,0,0,0,0,0,0,0,0,0
1706421194.39977598,134428707,1000,1000,1000,1000,0,0,0,0,0,0,0,0,0,0
1706421194.49973607,134528667,1000,1000,1000,1000,0,0,0,0,0,0,0,0,0,0
