TimeUS,M1,M2,M3,M4,TimeUS,C1,C2,C3,C4
52015852,1000,1000,1000,1000,52028347,1000,1000,1000,1000
52018351,1000,1000,1000,1000,52128307,1000,1000,1000,1000
52020850,1000,1000,1000,1000,52228267,1000,1000,1000,1000
52023349,1000,1000,1000,1000,52328227,1000,1000,1000,1000
52025848,1000,1000,1000,1000,52428187,1000,1000,1000,1000
52028347,1000,1000,1000,1000,52528980,1000,1000,1000,1000
52030846,1000,1000,1000,1000,52628940,1000,1000,1000,1000
52033345,1000,1000,1000,1000,52728900,1000,1000,1000,1000
52035844,1000,1000,1000,1000,52828860,1000,1000,1000,1000
52038343,1000,1000,1000,1000,52928820,1000,1000,1000,1000
52040842,1000,1000,1000,1000,53028780,1000,1000,1000,1000
52043341,1000,1000,1000,1000,53128740,1000,1000,1000,1000
52045840,1000,1000,1000,1000,53228700,1000,1000,1000,1000
52048339,1000,1000,1000,1000,53328660,1000,1000,1000,1000
52050838,1000,1000,1000,1000,53428620,1000,1000,1000,1000
52053337,1000,1000,1000,1000,53528580,1000,1000,1000,1000
52055836,1000,1000,1000,1000,53628540,1000,1000,1000,1000
52058335,1000,1000,1000,1000,53728500,1000,1000,1000,1000
52060834,1000,1000,1000,1000,53828460,1000,1000,1000,1000
52063333,1000,1000,1000,1000,53928420,1000,1000,1000,1000
52065832,1000,1000,1000,1000,54028380,1003,1003,1003,1003
52068331,1000,1000,1000,1000,54128340,1033,1033,1033,1033
52070830,1000,1000,1000,1000,54228300,1063,1063,1063,1063
52073329,1000,1000,1000,1000,54328260,1093,1093,1093,1093
52075828,1000,1000,1000,1000,54428220,1123,1123,1123,1123
52078327,1000,1000,1000,1000,54528180,1185,1177,1178,1186
52080826,1000,1000,1000,1000,54628973,1425,1419,1419,1425
52083325,1000,1000,1000,1000,54728933,1599,1594,1594,1599
52085824,1000,1000,1000,1000,54828893,1744,1738,1739,1744
52088323,1000,1000,1000,1000,54928853,1869,1864,1865,1869
52090822,1000,1000,1000,1000,55028813,1895,1892,1892,1896
52093321,1000,1000,1000,1000,55128773,1800,1799,1799,1801
52095820,1000,1000,1000,1000,55228733,1688,1689,1689,1688
52098319,1000,1000,1000,1000,55328693,1639,1642,1642,1639
52100818,1000,1000,1000,1000,55428653,1638,1640,1641,1638
52103317,1000,1000,1000,1000,55528613,1648,1649,1649,1648
52105816,1000,1000,1000,1000,55628573,1648,1649,1649,1649
52108315,1000,1000,1000,1000,55728533,1642,1641,1641,1642
52110814,1000,1000,1000,1000,55828493,1633,1631,1631,1632
52113313,1000,1000,1000,1000,55928453,1625,1624,1624,1625
52115812,1000,1000,1000,1000,56028413,1622,1622,1622,1622
52118311,1000,1000,1000,1000,56128373,1621,1620,1620,1621
52120810,1000,1000,1000,1000,56228333,1620,1620,1620,1620
52123309,1000,1000,1000,1000,56328293,1621,1621,1621,1621
52125808,1000,1000,1000,1000,56428253,1621,1622,1622,1621
52128307,1000,1000,1000,1000,56528213,1621,1621,1622,1621
52130806,1000,1000,1000,1000,56628173,1622,1622,1623,1622
52133305,1000,1000,1000,1000,56728966,1624,1624,1624,1625
52135804,1000,1000,1000,1000,56828926,1625,1625,1624,1626
52138303,1000,1000,1000,1000,56928886,1626,1626,1625,1626
52140802,1000,1000,1000,1000,57028846,1628,1627,1627,1627
52143301,1000,1000,1000,1000,57128806,1628,1628,1627,1628
52145800,1000,1000,1000,1000,57228766,1629,1629,1629,1629
52148299,1000,1000,1000,1000,57328726,1629,1630,1630,1629
52150798,1000,1000,1000,1000,57428686,1631,1630,1631,1630
52153297,1000,1000,1000,1000,57528646,1629,1629,1629,1629
52155796,1000,1000,1000,1000,57628606,1626,1626,1626,1626
52158295,1000,1000,1000,1000,57728566,1619,1621,1620,1620
52160794,1000,1000,1000,1000,57828526,1596,1597,1597,1596
52163293,1000,1000,1000,1000,57928486,1586,1586,1586,1586
52165792,1000,1000,1000,1000,58028446,1576,1576,1576,1577
52168291,1000,1000,1000,1000,58128406,1568,1567,1568,1568
52170790,1000,1000,1000,1000,58228366,1561,1561,1561,1561
52173289,1000,1000,1000,1000,58328326,1554,1554,1554,1554
52175788,1000,1000,1000,1000,58428286,1550,1550,1550,1550
52178287,1000,1000,1000,1000,58528246,1544,1544,1544,1544
52180786,1000,1000,1000,1000,58628206,1540,1540,1540,1540
52183285,1000,1000,1000,1000,58728166,1535,1535,1535,1535
52185784,1000,1000,1000,1000,58828959,1532,1532,1532,1531
52188283,1000,1000,1000,1000,58928919,1530,1530,1530,1530
52190782,1000,1000,1000,1000,59028879,1527,1528,1527,1528
52193281,1000,1000,1000,1000,59128839,1525,1525,1524,1525
52195780,1000,1000,1000,1000,59228799,1523,1523,1523,1523
52198279,1000,1000,1000,1000,59328759,1520,1519,1519,1520
52200778,1000,1000,1000,1000,59428719,1517,1516,1516,1516
52203277,1000,1000,1000,1000,59528679,1513,1513,1513,1513
52205776,1000,1000,1000,1000,59628639,1510,1510,1510,1510
52208275,1000,1000,1000,1000,59728599,1507,1507,1507,1507
52210774,1000,1000,1000,1000,59828559,1504,1504,1504,1504
52213273,1000,1000,1000,1000,59928519,1501,1501,1501,1501
52215772,1000,1000,1000,1000,60028479,1497,1497,1497,1497
52218271,1000,1000,1000,1000,60128439,1496,1496,1496,1496
52220770,1000,1000,1000,1000,60228399,1492,1493,1492,1493
52223269,1000,1000,1000,1000,60328359,1493,1493,1492,1493
52225768,1000,1000,1000,1000,60428319,1493,1493,1494,1493
52228267,1000,1000,1000,1000,60528279,1496,1496,1496,1495
52230766,1000,1000,1000,1000,60628239,1499,1499,1499,1498
52233265,1000,1000,1000,1000,60728199,1501,1501,1501,1501
52235764,1000,1000,1000,1000,60828159,1503,1503,1503,1503
52238263,1000,1000,1000,1000,60928952,1505,1504,1504,1504
52240762,1000,1000,1000,1000,61028912,1506,1506,1506,1506
52243261,1000,1000,1000,1000,61128872,1508,1508,1508,1508
52245760,1000,1000,1000,1000,61228832,1510,1510,1510,1510
52248259,1000,1000,1000,1000,61328792,1511,1511,1511,1511
52250758,1000,1000,1000,1000,61428752,1512,1512,1512,1512
52253257,1000,1000,1000,1000,61528712,1512,1513,1512,1513
52255756,1000,1000,1000,1000,61628672,1513,1513,1513,1513
52258255,1000,1000,1000,1000,61728632,1515,1514,1514,1514
52260754,1000,1000,1000,1000,61828592,1515,1515,1515,1514
52263253,1000,1000,1000,1000,61928552,1515,1515,1515,1515
52265752,1000,1000,1000,1000,62028512,1515,1515,1515,1515
52268251,1000,1000,1000,1000,62128472,1514,1514,1514,1514
52270750,1000,1000,1000,1000,62228432,1514,1514,1515,1514
52273249,1000,1000,1000,1000,62328392,1529,1528,1529,1529
52275748,1000,1000,1000,1000,62428352,1553,1552,1552,1553
52278247,1000,1000,1000,1000,62528312,1564,1564,1562,1566
52280746,1000,1000,1000,1000,62628272,1574,1574,1571,1577
52283245,1000,1000,1000,1000,62728232,1579,1579,1576,1581
52285744,1000,1000,1000,1000,62828192,1583,1583,1581,1584
52288243,1000,1000,1000,1000,62928985,1584,1584,1584,1585
52290742,1000,1000,1000,1000,63028945,1585,1585,1586,1584
52293241,1000,1000,1000,1000,63128905,1584,1584,1586,1582
52295740,1000,1000,1000,1000,63228865,1584,1584,1586,1582
52298239,1000,1000,1000,1000,63328825,1582,1582,1583,1581
52300738,1000,1000,1000,1000,63428785,1580,1581,1581,1579
52303237,1000,1000,1000,1000,63528745,1578,1578,1579,1578
52305736,1000,1000,1000,1000,63628705,1576,1576,1576,1576
52308235,1000,1000,1000,1000,63728665,1575,1575,1575,1575
52310734,1000,1000,1000,1000,63828625,1573,1572,1572,1573
52313233,1000,1000,1000,1000,63928585,1572,1571,1571,1572
52315732,1000,1000,1000,1000,64028545,1568,1567,1573,1575
52318231,1000,1000,1000,1000,64128505,1565,1566,1574,1576
52320730,1000,1000,1000,1000,64228465,1565,1566,1572,1573
52323229,1000,1000,1000,1000,64328425,1567,1567,1571,1572
52325728,1000,1000,1000,1000,64428385,1568,1568,1570,1569
52328227,1000,1000,1000,1000,64528345,1570,1570,1569,1568
52330726,1000,1000,1000,1000,64628305,1572,1571,1568,1568
52333225,1000,1000,1000,1000,64728265,1573,1573,1568,1568
52335724,1000,1000,1000,1000,64828225,1574,1573,1568,1568
52338223,1000,1000,1000,1000,64928185,1574,1575,1569,1569
52340722,1000,1000,1000,1000,65028978,1575,1575,1570,1570
52343221,1000,1000,1000,1000,65128938,1575,1574,1571,1571
52345720,1000,1000,1000,1000,65228898,1574,1574,1571,1572
52348219,1000,1000,1000,1000,65328858,1575,1575,1574,1574
52350718,1000,1000,1000,1000,65428818,1575,1575,1576,1574
52353217,1000,1000,1000,1000,65528778,1575,1575,1577,1575
52355716,1000,1000,1000,1000,65628738,1575,1575,1577,1576
52358215,1000,1000,1000,1000,65728698,1576,1576,1578,1577
52360714,1000,1000,1000,1000,65828658,1576,1576,1579,1578
52363213,1000,1000,1000,1000,65928618,1575,1575,1577,1577
52365712,1000,1000,1000,1000,66028578,1576,1576,1577,1578
52368211,1000,1000,1000,1000,66128538,1576,1577,1578,1578
52370710,1000,1000,1000,1000,66228498,1577,1577,1578,1578
52373209,1000,1000,1000,1000,66328458,1577,1577,1577,1577
52375708,1000,1000,1000,1000,66428418,1578,1578,1578,1578
52378207,1000,1000,1000,1000,66528378,1579,1579,1578,1578
52380706,1000,1000,1000,1000,66628338,1579,1579,1579,1578
52383205,1000,1000,1000,1000,66728298,1579,1579,1579,1578
52385704,1000,1000,1000,1000,66828258,1579,1579,1578,1578
52388203,1000,1000,1000,1000,66928218,1580,1579,1579,1579
52390702,1000,1000,1000,1000,67028178,1579,1578,1578,1578
52393201,1000,1000,1000,1000,67128971,1579,1578,1578,1578
52395700,1000,1000,1000,1000,67228931,1579,1579,1578,1579
52398199,1000,1000,1000,1000,67328891,1578,1579,1579,1579
52400698,1000,1000,1000,1000,67428851,1578,1579,1579,1579
52403197,1000,1000,1000,1000,67528811,1579,1579,1579,1579
52405696,1000,1000,1000,1000,67628771,1580,1579,1580,1580
52408195,1000,1000,1000,1000,67728731,1579,1579,1579,1579
52410694,1000,1000,1000,1000,67828691,1580,1580,1580,1580
52413193,1000,1000,1000,1000,67928651,1580,1580,1580,1580
52415692,1000,1000,1000,1000,68028611,1580,1580,1580,1580
52418191,1000,1000,1000,1000,68128571,1579,1580,1580,1580
52420690,1000,1000,1000,1000,68228531,1580,1580,1580,1580
52423189,1000,1000,1000,1000,68328491,1580,1580,1580,1580
52425688,1000,1000,1000,1000,68428451,1580,1580,1580,1580
52428187,1000,1000,1000,1000,68528411,1580,1580,1580,1580
52430686,1000,1000,1000,1000,68628371,1580,1580,1580,1580
52433185,1000,1000,1000,1000,68728331,1581,1581,1581,1581
52435684,1000,1000,1000,1000,68828291,1581,1581,1581,1581
52438183,1000,1000,1000,1000,68928251,1581,1581,1581,1581
52440682,1000,1000,1000,1000,69028211,1581,1581,1581,1581
52443181,1000,1000,1000,1000,69128171,1580,1580,1580,1581
52445680,1000,1000,1000,1000,69228964,1581,1581,1581,1581
52448179,1000,1000,1000,1000,69328924,1581,1581,1581,1582
52450678,1000,1000,1000,1000,69428884,1581,1581,1581,1581
52453177,1000,1000,1000,1000,69528844,1581,1582,1581,1582
52455676,1000,1000,1000,1000,69628804,1581,1581,1581,1581
52458175,1000,1000,1000,1000,69728764,1581,1581,1582,1581
52460674,1000,1000,1000,1000,69828724,1581,1581,1582,1581
52463173,1000,1000,1000,1000,69928684,1581,1581,1581,1581
52465672,1000,1000,1000,1000,70028644,1581,1581,1581,1581
52468171,1000,1000,1000,1000,70128604,1580,1581,1581,1580
52470670,1000,1000,1000,1000,70228564,1580,1582,1588,1573
52473169,1000,1000,1000,1000,70328524,1579,1582,1584,1573
52475668,1000,1000,1000,1000,70428484,1578,1580,1576,1572
52478167,1000,1000,1000,1000,70528444,1577,1580,1567,1571
52480666,1000,1000,1000,1000,70628404,1577,1579,1560,1568
52483165,1000,1000,1000,1000,70728364,1577,1577,1555,1562
52485664,1000,1000,1000,1000,70828324,1578,1577,1555,1558
52488163,1000,1000,1000,1000,70928284,1579,1578,1555,1556
52490662,1000,1000,1000,1000,71028244,1579,1578,1556,1554
52493161,1000,1000,1000,1000,71128204,1579,1578,1556,1554
52495660,1000,1000,1000,1000,71228164,1577,1577,1556,1553
52498159,1000,1000,1000,1000,71328957,1576,1578,1556,1554
52500658,1000,1000,1000,1000,71428917,1575,1577,1554,1554
52503157,1000,1000,1000,1000,71528877,1575,1576,1553,1553
52505656,1000,1000,1000,1000,71628837,1575,1577,1551,1552
52508155,1000,1000,1000,1000,71728797,1577,1578,1550,1550
52510654,1000,1000,1000,1000,71828757,1578,1579,1548,1547
52513986,1000,1000,1000,1000,71928717,1581,1582,1545,1545
52516485,1000,1000,1000,1000,72028677,1584,1585,1543,1542
52518984,1000,1000,1000,1000,72128637,1588,1588,1541,1540
52521483,1000,1000,1000,1000,72228597,1590,1591,1538,1537
52523982,1000,1000,1000,1000,72328557,1592,1593,1535,1535
52526481,1000,1000,1000,1000,72428517,1594,1594,1534,1535
52528980,1000,1000,1000,1000,72528477,1595,1594,1535,1536
52531479,1000,1000,1000,1000,72628437,1594,1594,1536,1538
52533978,1000,1000,1000,1000,72728397,1592,1591,1539,1541
52536477,1000,1000,1000,1000,72828357,1587,1586,1544,1547
52538976,1000,1000,1000,1000,72928317,1582,1579,1553,1556
52541475,1000,1000,1000,1000,73028277,1573,1570,1563,1566
52543974,1000,1000,1000,1000,73128237,1563,1558,1574,1576
52546473,1000,1000,1000,1000,73228197,1552,1549,1587,1588
52548972,1000,1000,1000,1000,73328157,1542,1539,1598,1598
52551471,1000,1000,1000,1000,73428950,1535,1534,1608,1607
52553970,1000,1000,1000,1000,73528910,1529,1530,1613,1612
52556469,1000,1000,1000,1000,73628870,1528,1530,1615,1613
52558968,1000,1000,1000,1000,73728830,1531,1533,1612,1612
52561467,1000,1000,1000,1000,73828790,1537,1539,1607,1608
52563966,1000,1000,1000,1000,73928750,1544,1546,1601,1602
52566465,1000,1000,1000,1000,74028710,1554,1555,1594,1595
52568964,1000,1000,1000,1000,74128670,1563,1563,1588,1587
52571463,1000,1000,1000,1000,74228630,1572,1571,1581,1580
52573962,1000,1000,1000,1000,74328590,1578,1577,1575,1574
52576461,1000,1000,1000,1000,74428550,1583,1582,1570,1570
52578960,1000,1000,1000,1000,74528510,1586,1585,1567,1567
52581459,1000,1000,1000,1000,74628470,1587,1586,1565,1566
52583958,1000,1000,1000,1000,74728430,1587,1586,1566,1566
52586457,1000,1000,1000,1000,74828390,1586,1584,1568,1568
52588956,1000,1000,1000,1000,74928350,1582,1582,1570,1570
52591455,1000,1000,1000,1000,75028310,1580,1581,1575,1574
52593954,1000,1000,1000,1000,75128270,1578,1578,1578,1577
52596453,1000,1000,1000,1000,75228230,1576,1576,1580,1580
52598952,1000,1000,1000,1000,75328190,1574,1574,1582,1582
52601451,1000,1000,1000,1000,75428983,1573,1573,1583,1584
52603950,1000,1000,1000,1000,75528943,1573,1573,1584,1584
52606449,1000,1000,1000,1000,75628903,1573,1573,1584,1584
52608948,1000,1000,1000,1000,75728863,1572,1573,1583,1583
52611447,1000,1000,1000,1000,75828823,1574,1574,1582,1582
52613946,1000,1000,1000,1000,75928783,1575,1576,1581,1581
52616445,1000,1000,1000,1000,76028743,1578,1578,1580,1581
52618944,1000,1000,1000,1000,76128703,1579,1579,1579,1579
52621443,1000,1000,1000,1000,76228663,1579,1579,1577,1577
52623942,1000,1000,1000,1000,76328623,1581,1580,1577,1577
52626441,1000,1000,1000,1000,76428583,1582,1581,1577,1577
52628940,1000,1000,1000,1000,76528543,1581,1581,1577,1577
52631439,1000,1000,1000,1000,76628503,1581,1581,1577,1577
52633938,1000,1000,1000,1000,76728463,1602,1575,1588,1590
52636437,1000,1000,1000,1000,76828423,1595,1574,1580,1580
52638936,1000,1000,1000,1000,76928383,1591,1578,1578,1578
52641435,1000,1000,1000,1000,77028343,1587,1583,1579,1578
52643934,1000,1000,1000,1000,77128303,1584,1587,1579,1579
52646433,1000,1000,1000,1000,77228263,1581,1587,1579,1578
52648932,1000,1000,1000,1000,77328223,1580,1586,1579,1579
52651431,1000,1000,1000,1000,77428183,1580,1584,1580,1580
52653930,1000,1000,1000,1000,77528976,1581,1582,1581,1580
52656429,1000,1000,1000,1000,77628936,1581,1581,1581,1581
52658928,1000,1000,1000,1000,77728896,1581,1579,1581,1581
52661427,1000,1000,1000,1000,77828856,1580,1579,1581,1581
52663926,1000,1000,1000,1000,77928816,1581,1580,1582,1582
52666425,1000,1000,1000,1000,78028776,1579,1578,1580,1581
52668924,1000,1000,1000,1000,78128736,1580,1581,1582,1582
52671423,1000,1000,1000,1000,78228696,1580,1582,1588,1575
52673922,1000,1000,1000,1000,78328656,1580,1583,1585,1571
52676421,1000,1000,1000,1000,78428616,1580,1583,1576,1571
52678920,1000,1000,1000,1000,78528576,1580,1583,1568,1570
52681419,1000,1000,1000,1000,78628536,1578,1580,1558,1565
52683918,1000,1000,1000,1000,78728496,1580,1580,1554,1561
52686417,1000,1000,1000,1000,78828456,1580,1579,1552,1556
52688916,1000,1000,1000,1000,78928416,1581,1579,1552,1552
52691415,1000,1000,1000,1000,79028376,1581,1580,1553,1552
52693914,1000,1000,1000,1000,79128336,1581,1580,1555,1552
52696413,1000,1000,1000,1000,79228296,1578,1578,1554,1552
52698912,1000,1000,1000,1000,79328256,1577,1578,1554,1553
52701411,1000,1000,1000,1000,79428216,1576,1578,1554,1553
52703910,1000,1000,1000,1000,79528176,1575,1577,1552,1552
52706409,1000,1000,1000,1000,79628969,1576,1577,1551,1552
52708908,1000,1000,1000,1000,79728929,1578,1579,1550,1551
52711407,1000,1000,1000,1000,79828889,1579,1580,1548,1548
52713906,1000,1000,1000,1000,79928849,1581,1582,1547,1547
52716405,1000,1000,1000,1000,80028809,1584,1584,1545,1544
52718904,1000,1000,1000,1000,80128769,1586,1587,1543,1543
52721403,1000,1000,1000,1000,80228729,1589,1589,1542,1542
52723902,1000,1000,1000,1000,80328689,1590,1590,1539,1540
52726401,1000,1000,1000,1000,80428649,1593,1593,1540,1541
52728900,1000,1000,1000,1000,80528609,1593,1593,1540,1542
52731399,1000,1000,1000,1000,80628569,1592,1591,1543,1545
52733898,1000,1000,1000,1000,80728529,1590,1587,1549,1552
52736397,1000,1000,1000,1000,80828489,1584,1581,1556,1559
52738896,1000,1000,1000,1000,80928449,1576,1572,1565,1567
52741395,1000,1000,1000,1000,81028409,1567,1564,1577,1578
52743894,1000,1000,1000,1000,81128369,1558,1555,1589,1589
52746393,1000,1000,1000,1000,81228329,1549,1546,1597,1597
52748892,1000,1000,1000,1000,81328289,1541,1541,1605,1604
52751391,1000,1000,1000,1000,81428249,1536,1538,1609,1608
52753890,1000,1000,1000,1000,81528209,1535,1537,1611,1610
52756389,1000,1000,1000,1000,81628169,1538,1540,1610,1609
52758888,1000,1000,1000,1000,81728962,1543,1544,1606,1606
52761387,1000,1000,1000,1000,81828922,1550,1551,1601,1601
52763886,1000,1000,1000,1000,81928882,1557,1557,1595,1594
52766385,1000,1000,1000,1000,82028842,1564,1565,1588,1588
52768884,1000,1000,1000,1000,82128802,1572,1572,1582,1582
52771383,1000,1000,1000,1000,82228762,1577,1577,1576,1576
52773882,1000,1000,1000,1000,82328722,1582,1581,1573,1573
52776381,1000,1000,1000,1000,82428682,1585,1583,1569,1570
52778880,1000,1000,1000,1000,82528642,1586,1584,1568,1568
52781379,1000,1000,1000,1000,82628602,1586,1585,1569,1569
52783878,1000,1000,1000,1000,82728562,1585,1584,1570,1570
52786377,1000,1000,1000,1000,82828522,1583,1583,1573,1573
52788876,1000,1000,1000,1000,82928482,1581,1581,1575,1575
52791375,1000,1000,1000,1000,83028442,1578,1579,1577,1577
52793874,1000,1000,1000,1000,83128402,1577,1577,1580,1580
52796373,1000,1000,1000,1000,83228362,1574,1575,1582,1581
52798872,1000,1000,1000,1000,83328322,1574,1575,1584,1583
52801371,1000,1000,1000,1000,83428282,1574,1574,1584,1583
52803870,1000,1000,1000,1000,83528242,1573,1573,1582,1582
52806369,1000,1000,1000,1000,83628202,1574,1574,1582,1583
52808868,1000,1000,1000,1000,83728162,1576,1576,1583,1583
52811367,1000,1000,1000,1000,83828955,1576,1577,1581,1581
52813866,1000,1000,1000,1000,83928915,1577,1577,1579,1579
52816365,1000,1000,1000,1000,84028875,1579,1579,1579,1579
52818864,1000,1000,1000,1000,84128835,1580,1580,1578,1578
52821363,1000,1000,1000,1000,84228795,1581,1581,1579,1578
52823862,1000,1000,1000,1000,84328755,1582,1581,1578,1578
52826361,1000,1000,1000,1000,84428715,1582,1581,1578,1578
52828860,1000,1000,1000,1000,84528675,1581,1581,1578,1577
52831359,1000,1000,1000,1000,84628635,1581,1581,1579,1578
52833858,1000,1000,1000,1000,84728595,1580,1582,1579,1579
52836357,1000,1000,1000,1000,84828555,1580,1580,1579,1580
52838856,1000,1000,1000,1000,84928515,1581,1581,1581,1580
52841355,1000,1000,1000,1000,85028475,1580,1580,1581,1581
52843854,1000,1000,1000,1000,85128435,1580,1580,1581,1581
52846353,1000,1000,1000,1000,85228395,1579,1579,1580,1581
52848852,1000,1000,1000,1000,85328355,1580,1579,1581,1581
52851351,1000,1000,1000,1000,85428315,1579,1579,1581,1581
52853850,1000,1000,1000,1000,85528275,1579,1580,1581,1580
52856349,1000,1000,1000,1000,85628235,1579,1580,1581,1581
52858848,1000,1000,1000,1000,85728195,1579,1580,1580,1581
52861347,1000,1000,1000,1000,85828155,1580,1580,1580,1580
52863846,1000,1000,1000,1000,85928948,1580,1580,1580,1580
52866345,1000,1000,1000,1000,86028908,1579,1579,1578,1579
52868844,1000,1000,1000,1000,86128868,1579,1579,1579,1579
52871343,1000,1000,1000,1000,86228828,1581,1580,1580,1580
52873842,1000,1000,1000,1000,86328788,1582,1581,1581,1581
52876341,1000,1000,1000,1000,86428748,1581,1582,1587,1573
52878840,1000,1000,1000,1000,86528708,1581,1583,1586,1572
52881339,1000,1000,1000,1000,86628668,1579,1583,1577,1573
52883838,1000,1000,1000,1000,86728628,1578,1581,1568,1572
52886337,1000,1000,1000,1000,86828588,1578,1580,1561,1568
52888836,1000,1000,1000,1000,86928548,1578,1579,1557,1564
52891335,1000,1000,1000,1000,87028508,1580,1579,1556,1560
52893834,1000,1000,1000,1000,87128468,1581,1579,1556,1556
52896333,1000,1000,1000,1000,87228428,1580,1579,1556,1554
52898832,1000,1000,1000,1000,87328388,1579,1579,1556,1554
52901331,1000,1000,1000,1000,87428348,1578,1578,1556,1554
52903830,1000,1000,1000,1000,87528308,1576,1577,1555,1554
52906329,1000,1000,1000,1000,87628268,1575,1577,1555,1554
52908828,1000,1000,1000,1000,87728228,1576,1577,1555,1554
52911327,1000,1000,1000,1000,87828188,1575,1577,1552,1553
52913826,1000,1000,1000,1000,87928981,1577,1577,1551,1551
52916325,1000,1000,1000,1000,88028941,1577,1579,1548,1548
52918824,1000,1000,1000,1000,88128901,1579,1580,1546,1546
52921323,1000,1000,1000,1000,88228861,1582,1583,1544,1543
52923822,1000,1000,1000,1000,88328821,1585,1585,1541,1541
52926321,1000,1000,1000,1000,88428781,1587,1588,1539,1538
52928820,1000,1000,1000,1000,88528741,1591,1590,1538,1538
52931319,1000,1000,1000,1000,88628701,1592,1592,1537,1538
52933818,1000,1000,1000,1000,88728661,1593,1594,1537,1539
52936317,1000,1000,1000,1000,88828621,1592,1592,1536,1539
52938816,1000,1000,1000,1000,88928581,1591,1591,1541,1543
52941315,1000,1000,1000,1000,89028541,1588,1586,1545,1548
52943814,1000,1000,1000,1000,89128501,1583,1579,1553,1556
52946313,1000,1000,1000,1000,89228461,1575,1572,1563,1566
52948812,1000,1000,1000,1000,89328421,1566,1562,1575,1577
52951311,1000,1000,1000,1000,89428381,1556,1552,1587,1588
52953810,1000,1000,1000,1000,89528341,1546,1544,1598,1599
52956309,1000,1000,1000,1000,89628301,1539,1538,1607,1606
52958808,1000,1000,1000,1000,89728261,1534,1535,1612,1611
52961307,1000,1000,1000,1000,89828221,1532,1534,1613,1612
52963806,1000,1000,1000,1000,89928181,1535,1537,1612,1612
52966305,1000,1000,1000,1000,90028974,1540,1542,1608,1608
52968804,1000,1000,1000,1000,90128934,1547,1548,1602,1602
52971303,1000,1000,1000,1000,90228894,1555,1556,1596,1595
52973802,1000,1000,1000,1000,90328854,1564,1565,1589,1589
52976301,1000,1000,1000,1000,90428814,1572,1572,1583,1582
52978800,1000,1000,1000,1000,90528774,1578,1577,1576,1575
52981299,1000,1000,1000,1000,90628734,1583,1581,1571,1571
52983798,1000,1000,1000,1000,90728694,1586,1584,1568,1568
52986297,1000,1000,1000,1000,90828654,1587,1585,1567,1568
52988796,1000,1000,1000,1000,90928614,1587,1586,1568,1568
52991295,1000,1000,1000,1000,91028574,1585,1584,1569,1569
52993794,1000,1000,1000,1000,91128534,1582,1582,1570,1571
52996293,1000,1000,1000,1000,91228494,1580,1580,1573,1574
52998792,1000,1000,1000,1000,91328454,1577,1577,1575,1576
53001291,1000,1000,1000,1000,91428414,1576,1576,1579,1579
53003790,1000,1000,1000,1000,91528374,1574,1574,1581,1581
53006289,1000,1000,1000,1000,91628334,1573,1573,1583,1582
53008788,1000,1000,1000,1000,91728294,1573,1574,1584,1584
53011287,1000,1000,1000,1000,91828254,1573,1574,1584,1584
53013786,1000,1000,1000,1000,91928214,1574,1574,1583,1583
53016285,1000,1000,1000,1000,92028174,1575,1575,1582,1582
53018784,1000,1000,1000,1000,92128967,1576,1577,1582,1582
53021283,1000,1000,1000,1000,92228927,1578,1579,1581,1581
53023782,1000,1000,1000,1000,92328887,1578,1579,1579,1579
53026281,1000,1000,1000,1000,92428847,1580,1580,1579,1579
53028780,1000,1000,1000,1000,92528807,1581,1580,1578,1577
53031279,1000,1000,1000,1000,92628767,1581,1580,1577,1577
53033778,1000,1000,1000,1000,92728727,1581,1580,1576,1577
53036277,1000,1000,1000,1000,92828687,1580,1580,1576,1577
53038776,1000,1000,1000,1000,92928647,1581,1581,1577,1577
53041275,1000,1000,1000,1000,93028607,1580,1581,1578,1578
53043774,1000,1000,1000,1000,93128567,1580,1580,1578,1578
53046273,1000,1000,1000,1000,93228527,1579,1579,1578,1579
53048772,1000,1000,1000,1000,93328487,1579,1579,1579,1580
53051271,1000,1000,1000,1000,93428447,1580,1580,1581,1581
53053770,1000,1000,1000,1000,93528407,1579,1579,1581,1581
53056269,1000,1000,1000,1000,93628367,1579,1579,1581,1581
53058768,1000,1000,1000,1000,93728327,1580,1579,1581,1581
53061267,1000,1000,1000,1000,93828287,1579,1580,1581,1581
53063766,1000,1000,1000,1000,93928247,1579,1580,1581,1581
53066265,1000,1000,1000,1000,94028207,1580,1580,1581,1581
53068764,1000,1000,1000,1000,94128167,1580,1580,1581,1581
53071263,1000,1000,1000,1000,94228960,1580,1580,1580,1580
53073762,1000,1000,1000,1000,94328920,1581,1580,1581,1578
53076261,1000,1000,1000,1000,94428880,1582,1582,1588,1573
53078760,1000,1000,1000,1000,94528840,1580,1580,1583,1573
53081259,1000,1000,1000,1000,94628800,1578,1578,1576,1575
53083758,1000,1000,1000,1000,94728760,1574,1573,1569,1575
53086257,1000,1000,1000,1000,94828720,1571,1572,1566,1574
53088756,1000,1000,1000,1000,94928680,1569,1569,1565,1571
53091255,1000,1000,1000,1000,95028640,1568,1567,1566,1568
53093754,1000,1000,1000,1000,95128600,1567,1567,1567,1567
53096253,1000,1000,1000,1000,95228560,1566,1566,1567,1565
53098752,1000,1000,1000,1000,95328520,1565,1565,1566,1564
53101251,1000,1000,1000,1000,95428480,1564,1565,1566,1565
53103750,1000,1000,1000,1000,95528440,1563,1563,1564,1564
53106249,1000,1000,1000,1000,95628400,1563,1563,1564,1564
53108748,1000,1000,1000,1000,95728360,1563,1563,1564,1564
53111247,1000,1000,1000,1000,95828320,1562,1562,1562,1562
53113746,1000,1000,1000,1000,95928280,1562,1562,1562,1562
53116245,1000,1000,1000,1000,96028240,1561,1561,1562,1561
53118744,1000,1000,1000,1000,96128200,1561,1560,1561,1560
53121243,1000,1000,1000,1000,96228160,1561,1561,1561,1560
53123742,1000,1000,1000,1000,96328953,1560,1560,1560,1559
53126241,1000,1000,1000,1000,96428913,1559,1559,1559,1558
53128740,1000,1000,1000,1000,96528873,1558,1558,1558,1557
53131239,1000,1000,1000,1000,96628833,1557,1558,1558,1557
53133738,1000,1000,1000,1000,96728793,1557,1557,1557,1557
53136237,1000,1000,1000,1000,96828753,1557,1557,1558,1556
53138736,1000,1000,1000,1000,96928713,1558,1558,1558,1557
53141235,1000,1000,1000,1000,97028673,1558,1558,1559,1557
53143734,1000,1000,1000,1000,97128633,1559,1558,1559,1557
53146233,1000,1000,1000,1000,97228593,1560,1559,1559,1560
53148732,1000,1000,1000,1000,97328553,1560,1560,1557,1563
53151231,1000,1000,1000,1000,97428513,1560,1560,1557,1563
53153730,1000,1000,1000,1000,97528473,1561,1561,1558,1564
53156229,1000,1000,1000,1000,97628433,1561,1561,1560,1563
53158728,1000,1000,1000,1000,97728393,1562,1562,1562,1562
53161227,1000,1000,1000,1000,97828353,1561,1561,1563,1559
53163726,1000,1000,1000,1000,97928313,1560,1560,1559,1561
53166225,1000,1000,1000,1000,98028273,1557,1557,1556,1558
53168724,1000,1000,1000,1000,98128233,1554,1554,1552,1555
53171223,1000,1000,1000,1000,98228193,1549,1548,1548,1549
53173722,1000,1000,1000,1000,98328986,1542,1542,1542,1542
53176221,1000,1000,1000,1000,98428946,1535,1535,1535,1535
53178720,1000,1000,1000,1000,98528906,1528,1528,1529,1528
53181219,1000,1000,1000,1000,98628866,1522,1522,1523,1522
53183718,1000,1000,1000,1000,98728826,1519,1520,1520,1519
53186217,1000,1000,1000,1000,98828786,1519,1519,1519,1519
53188716,1000,1000,1000,1000,98928746,1522,1521,1522,1522
53191215,1000,1000,1000,1000,99028706,1524,1524,1525,1525
53193714,1000,1000,1000,1000,99128666,1528,1528,1528,1529
53196213,1000,1000,1000,1000,99228626,1532,1532,1532,1533
53198712,1000,1000,1000,1000,99328586,1538,1537,1538,1538
53201211,1000,1000,1000,1000,99428546,1541,1541,1541,1541
53203710,1000,1000,1000,1000,99528506,1542,1542,1542,1542
53206209,1000,1000,1000,1000,99628466,1543,1543,1544,1543
53208708,1000,1000,1000,1000,99728426,1545,1544,1544,1544
53211207,1000,1000,1000,1000,99828386,1546,1546,1546,1546
53213706,1000,1000,1000,1000,99928346,1546,1546,1546,1546
53216205,1000,1000,1000,1000,100028306,1546,1547,1546,1546
53218704,1000,1000,1000,1000,100128266,1547,1547,1547,1546
53221203,1000,1000,1000,1000,100228226,1547,1547,1547,1546
53223702,1000,1000,1000,1000,100328186,1547,1546,1546,1547
53226201,1000,1000,1000,1000,100428979,1546,1546,1546,1546
53228700,1000,1000,1000,1000,100528939,1546,1546,1546,1546
53231199,1000,1000,1000,1000,100628899,1545,1545,1545,1545
53233698,1000,1000,1000,1000,100728859,1545,1545,1545,1544
53236197,1000,1000,1000,1000,100828819,1544,1545,1545,1545
53238696,1000,1000,1000,1000,100928779,1544,1544,1544,1544
53241195,1000,1000,1000,1000,101028739,1545,1545,1545,1545
53243694,1000,1000,1000,1000,101128699,1545,1545,1545,1545
53246193,1000,1000,1000,1000,101228659,1544,1544,1544,1544
53248692,1000,1000,1000,1000,101328619,1543,1543,1543,1543
53251191,1000,1000,1000,1000,101428579,1544,1544,1544,1544
53253690,1000,1000,1000,1000,101528539,1545,1545,1545,1545
53256189,1000,1000,1000,1000,101628499,1544,1544,1544,1544
53258688,1000,1000,1000,1000,101728459,1545,1544,1544,1544
53261187,1000,1000,1000,1000,101828419,1543,1543,1543,1543
53263686,1000,1000,1000,1000,101928379,1543,1543,1543,1543
53266185,1000,1000,1000,1000,102028339,1543,1543,1543,1543
53268684,1000,1000,1000,1000,102128299,1544,1544,1544,1544
53271183,1000,1000,1000,1000,102228259,1543,1543,1544,1543
53273682,1000,1000,1000,1000,102328219,1544,1543,1544,1544
53276181,1000,1000,1000,1000,102428179,1544,1544,1545,1544
53278680,1000,1000,1000,1000,102528972,1544,1544,1544,1544
53281179,1000,1000,1000,1000,102628932,1543,1544,1543,1544
53283678,1000,1000,1000,1000,102728892,1544,1544,1544,1544
53286177,1000,1000,1000,1000,102828852,1544,1545,1544,1544
53288676,1000,1000,1000,1000,102928812,1544,1543,1543,1544
53291175,1000,1000,1000,1000,103028772,1543,1544,1544,1543
53293674,1000,1000,1000,1000,103128732,1544,1543,1544,1544
53296173,1000,1000,1000,1000,103228692,1543,1544,1543,1544
53298672,1000,1000,1000,1000,103328652,1544,1544,1544,1544
53301171,1000,1000,1000,1000,103428612,1543,1543,1543,1543
53303670,1000,1000,1000,1000,103528572,1544,1543,1544,1544
53306169,1000,1000,1000,1000,103628532,1545,1544,1544,1544
53308668,1000,1000,1000,1000,103728492,1544,1543,1544,1543
53311167,1000,1000,1000,1000,103828452,1545,1544,1544,1544
53313666,1000,1000,1000,1000,103928412,1545,1545,1544,1545
53316165,1000,1000,1000,1000,104028372,1544,1545,1545,1544
53318664,1000,1000,1000,1000,104128332,1544,1544,1543,1544
53321163,1000,1000,1000,1000,104228292,1545,1544,1544,1544
53323662,1000,1000,1000,1000,104328252,1544,1544,1544,1544
53326161,1000,1000,1000,1000,104428212,1545,1546,1545,1545
53328660,1000,1000,1000,1000,104528172,1546,1545,1546,1545
53331159,1000,1000,1000,1000,104628965,1545,1545,1545,1545
53333658,1000,1000,1000,1000,104728925,1544,1544,1544,1545
53336157,1000,1000,1000,1000,104828885,1545,1545,1545,1545
53338656,1000,1000,1000,1000,104928845,1546,1545,1546,1545
53341155,1000,1000,1000,1000,105028805,1545,1545,1545,1545
53343654,1000,1000,1000,1000,105128765,1545,1545,1545,1545
53346153,1000,1000,1000,1000,105228725,1545,1545,1545,1545
53348652,1000,1000,1000,1000,105328685,1544,1544,1543,1544
53351151,1000,1000,1000,1000,105428645,1544,1544,1544,1544
53353650,1000,1000,1000,1000,105528605,1544,1544,1544,1544
53356149,1000,1000,1000,1000,105628565,1544,1544,1544,1544
53358648,1000,1000,1000,1000,105728525,1545,1545,1545,1545
53361147,1000,1000,1000,1000,105828485,1544,1544,1544,1544
53363646,1000,1000,1000,1000,105928445,1545,1545,1545,1545
53366145,1000,1000,1000,1000,106028405,1545,1545,1545,1545
53368644,1000,1000,1000,1000,106128365,1545,1544,1544,1544
53371143,1000,1000,1000,1000,106228325,1544,1544,1544,1544
53373642,1000,1000,1000,1000,106328285,1544,1544,1544,1544
53376141,1000,1000,1000,1000,106428245,1544,1545,1544,1544
53378640,1000,1000,1000,1000,106528205,1545,1545,1545,1545
53381139,1000,1000,1000,1000,106628165,1544,1544,1544,1544
53383638,1000,1000,1000,1000,106728958,1544,1544,1544,1544
53386137,1000,1000,1000,1000,106828918,1545,1545,1545,1544
53388636,1000,1000,1000,1000,106928878,1545,1544,1544,1545
53391135,1000,1000,1000,1000,107028838,1544,1544,1543,1544
53393634,1000,1000,1000,1000,107128798,1544,1544,1544,1544
53396133,1000,1000,1000,1000,107228758,1544,1544,1545,1544
53398632,1000,1000,1000,1000,107328718,1544,1544,1544,1544
53401131,1000,1000,1000,1000,107428678,1545,1545,1545,1545
53403630,1000,1000,1000,1000,107528638,1544,1543,1543,1544
53406129,1000,1000,1000,1000,107628598,1544,1544,1544,1544
53408628,1000,1000,1000,1000,107728558,1545,1545,1545,1545
53411127,1000,1000,1000,1000,107828518,1544,1544,1544,1544
53413626,1000,1000,1000,1000,107928478,1544,1544,1544,1544
53416125,1000,1000,1000,1000,108028438,1544,1544,1544,1544
53418624,1000,1000,1000,1000,108128398,1544,1543,1544,1543
53421123,1000,1000,1000,1000,108228358,1545,1545,1545,1544
53423622,1000,1000,1000,1000,108328318,1543,1544,1544,1543
53426121,1000,1000,1000,1000,108428278,1366,1361,1362,1361
53428620,1000,1000,1000,1000,108528238,1262,1252,1253,1253
53431119,1000,1000,1000,1000,108628198,1227,1217,1218,1217
53433618,1000,1000,1000,1000,108728158,1207,1195,1196,1196
53436117,1000,1000,1000,1000,108828951,1164,1150,1151,1150
53438616,1000,1000,1000,1000,108928911,1165,1150,1151,1150
53441115,1000,1000,1000,1000,109028871,1164,1150,1151,1150
53443614,1000,1000,1000,1000,109128831,1197,1150,1150,1187
53446113,1000,1000,1000,1000,109228791,1186,1150,1150,1174
53448612,1000,1000,1000,1000,109328751,1184,1150,1151,1171
53451111,1000,1000,1000,1000,109428711,1184,1150,1151,1171
53453610,1000,1000,1000,1000,109528671,1186,1150,1151,1174
53456109,1000,1000,1000,1000,109628631,1188,1150,1151,1175
53458608,1000,1000,1000,1000,109728591,1190,1150,1151,1178
53461107,1000,1000,1000,1000,109828551,1191,1150,1151,1179
53463606,1000,1000,1000,1000,109928511,1178,1150,1151,1165
53466105,1000,1000,1000,1000,110028471,1179,1150,1151,1166
53468604,1000,1000,1000,1000,110128431,1180,1150,1151,1167
53471103,1000,1000,1000,1000,110228391,1180,1150,1151,1168
53473602,1000,1000,1000,1000,110328351,1181,1150,1151,1169
53476101,1000,1000,1000,1000,110428311,1000,1000,1000,1000
53478600,1000,1000,1000,1000,110528271,1000,1000,1000,1000
53481099,1000,1000,1000,1000,110628231,1000,1000,1000,1000
53483598,1000,1000,1000,1000,110728191,1000,1000,1000,1000
53486097,1000,1000,1000,1000,110828984,1000,1000,1000,1000
53488596,1000,1000,1000,1000,110928944,1000,1000,1000,1000
53491095,1000,1000,1000,1000,111028904,1000,1000,1000,1000
53493594,1000,1000,1000,1000,111128864,1000,1000,1000,1000
53496093,1000,1000,1000,1000,111228824,1000,1000,1000,1000
53498592,1000,1000,1000,1000,111328784,1000,1000,1000,1000
53501091,1000,1000,1000,1000,111428744,1000,1000,1000,1000
53503590,1000,1000,1000,1000,111528704,1000,1000,1000,1000
53506089,1000,1000,1000,1000,111628664,1000,1000,1000,1000
53508588,1000,1000,1000,1000,111728624,1000,1000,1000,1000
53511087,1000,1000,1000,1000,111828584,1000,1000,1000,1000
53513586,1000,1000,1000,1000,111928544,1000,1000,1000,1000
53516085,1000,1000,1000,1000,112028504,1000,1000,1000,1000
53518584,1000,1000,1000,1000,112128464,1000,1000,1000,1000
53521083,1000,1000,1000,1000,112228424,1000,1000,1000,1000
53523582,1000,1000,1000,1000,112328384,1000,1000,1000,1000
53526081,1000,1000,1000,1000,112428344,1000,1000,1000,1000
53528580,1000,1000,1000,1000,112528304,1000,1000,1000,1000
53531079,1000,1000,1000,1000,112628264,1000,1000,1000,1000
53533578,1000,1000,1000,1000,112728224,1000,1000,1000,1000
53536077,1000,1000,1000,1000,112828184,1000,1000,1000,1000
53538576,1000,1000,1000,1000,112928977,1000,1000,1000,1000
53541075,1000,1000,1000,1000,113028937,1000,1000,1000,1000
53543574,1000,1000,1000,1000,113128897,1000,1000,1000,1000
53546073,1000,1000,1000,1000,113228857,1000,1000,1000,1000
53548572,1000,1000,1000,1000,113328817,1000,1000,1000,1000
53551071,1000,1000,1000,1000,113428777,1000,1000,1000,1000
53553570,1000,1000,1000,1000,113528737,1000,1000,1000,1000
53556069,1000,1000,1000,1000,113628697,1000,1000,1000,1000
53558568,1000,1000,1000,1000,113728657,1000,1000,1000,1000
53561067,1000,1000,1000,1000,113828617,1000,1000,1000,1000
53563566,1000,1000,1000,1000,113928577,1000,1000,1000,1000
53566065,1000,1000,1000,1000,114028537,1000,1000,1000,1000
53568564,1000,1000,1000,1000,114128497,1000,1000,1000,1000
53571063,1000,1000,1000,1000,114228457,1000,1000,1000,1000
53573562,1000,1000,1000,1000,114328417,1000,1000,1000,1000
53576061,1000,1000,1000,1000,114428377,1000,1000,1000,1000
53578560,1000,1000,1000,1000,114528337,1000,1000,1000,1000
53581059,1000,1000,1000,1000,114628297,1000,1000,1000,1000
53583558,1000,1000,1000,1000,114728257,1000,1000,1000,1000
53586057,1000,1000,1000,1000,114828217,1000,1000,1000,1000
53588556,1000,1000,1000,1000,114928177,1000,1000,1000,1000
53591055,1000,1000,1000,1000,115028970,1000,1000,1000,1000
53593554,1000,1000,1000,1000,115128930,1000,1000,1000,1000
53596053,1000,1000,1000,1000,115228890,1000,1000,1000,1000
53598552,1000,1000,1000,1000,115328850,1000,1000,1000,1000
53601051,1000,1000,1000,1000,115428810,1000,1000,1000,1000
53603550,1000,1000,1000,1000,115528770,1000,1000,1000,1000
53606049,1000,1000,1000,1000,115628730,1000,1000,1000,1000
53608548,1000,1000,1000,1000,115728690,1000,1000,1000,1000
53611047,1000,1000,1000,1000,115828650,1000,1000,1000,1000
53613546,1000,1000,1000,1000,115928610,1000,1000,1000,1000
53616045,1000,1000,1000,1000,116028570,1000,1000,1000,1000
53618544,1000,1000,1000,1000,116128530,1000,1000,1000,1000
53621043,1000,1000,1000,1000,116228490,1000,1000,1000,1000
53623542,1000,1000,1000,1000,116328450,1000,1000,1000,1000
53626041,1000,1000,1000,1000,116428410,1000,1000,1000,1000
53628540,1000,1000,1000,1000,116528370,1000,1000,1000,1000
53631039,1000,1000,1000,1000,116628330,1000,1000,1000,1000
53633538,1000,1000,1000,1000,116728290,1000,1000,1000,1000
53636037,1000,1000,1000,1000,116828250,1000,1000,1000,1000
53638536,1000,1000,1000,1000,116928210,1000,1000,1000,1000
53641035,1000,1000,1000,1000,117028170,1000,1000,1000,1000
53643534,1000,1000,1000,1000,117128963,1000,1000,1000,1000
53646033,1000,1000,1000,1000,117228923,1000,1000,1000,1000
53648532,1000,1000,1000,1000,117328883,1000,1000,1000,1000
53651031,1000,1000,1000,1000,117428843,1000,1000,1000,1000
53653530,1000,1000,1000,1000,117528803,1000,1000,1000,1000
53656029,1000,1000,1000,1000,117628763,1000,1000,1000,1000
53658528,1000,1000,1000,1000,117728723,1000,1000,1000,1000
53661027,1000,1000,1000,1000,117828683,1000,1000,1000,1000
53663526,1000,1000,1000,1000,117928643,1000,1000,1000,1000
53666025,1000,1000,1000,1000,118028603,1000,1000,1000,1000
53668524,1000,1000,1000,1000,118128563,1000,1000,1000,1000
53671023,1000,1000,1000,1000,118228523,1000,1000,1000,1000
53673522,1000,1000,1000,1000,118328483,1000,1000,1000,1000
53676021,1000,1000,1000,1000,118428443,1000,1000,1000,1000
53678520,1000,1000,1000,1000,118528403,1000,1000,1000,1000
53681019,1000,1000,1000,1000,118628363,1000,1000,1000,1000
53683518,1000,1000,1000,1000,118728323,1000,1000,1000,1000
53686017,1000,1000,1000,1000,118828283,1000,1000,1000,1000
53688516,1000,1000,1000,1000,118928243,1000,1000,1000,1000
53691015,1000,1000,1000,1000,119028203,1000,1000,1000,1000
53693514,1000,1000,1000,1000,119128163,1000,1000,1000,1000
53696013,1000,1000,1000,1000,119228956,1000,1000,1000,1000
53698512,1000,1000,1000,1000,119328916,1000,1000,1000,1000
53701011,1000,1000,1000,1000,119428876,1000,1000,1000,1000
53703510,1000,1000,1000,1000,119528836,1000,1000,1000,1000
53706009,1000,1000,1000,1000,119628796,1000,1000,1000,1000
53708508,1000,1000,1000,1000,119728756,1000,1000,1000,1000
53711007,1000,1000,1000,1000,119828716,1000,1000,1000,1000
53713506,1000,1000,1000,1000,119928676,1000,1000,1000,1000
53716005,1000,1000,1000,1000,120028636,1000,1000,1000,1000
53718504,1000,1000,1000,1000,120128596,1000,1000,1000,1000
53721003,1000,1000,1000,1000,120228556,1000,1000,1000,1000
53723502,1000,1000,1000,1000,120328516,1000,1000,1000,1000
53726001,1000,1000,1000,1000,120428476,1000,1000,1000,1000
53728500,1000,1000,1000,1000,120528436,1000,1000,1000,1000
53730999,1000,1000,1000,1000,120628396,1000,1000,1000,1000
53733498,1000,1000,1000,1000,120728356,1000,1000,1000,1000
53735997,1000,1000,1000,1000,120828316,1000,1000,1000,1000
53738496,1000,1000,1000,1000,120928276,1000,1000,1000,1000
53740995,1000,1000,1000,1000,121028236,1000,1000,1000,1000
53743494,1000,1000,1000,1000,121128196,1000,1000,1000,1000
53745993,1000,1000,1000,1000,121228156,1000,1000,1000,1000
53748492,1000,1000,1000,1000,121328949,1000,1000,1000,1000
53750991,1000,1000,1000,1000,121428909,1000,1000,1000,1000
53753490,1000,1000,1000,1000,121528869,1000,1000,1000,1000
53755989,1000,1000,1000,1000,121628829,1000,1000,1000,1000
53758488,1000,1000,1000,1000,121728789,1000,1000,1000,1000
53760987,1000,1000,1000,1000,121828749,1000,1000,1000,1000
53763486,1000,1000,1000,1000,121928709,1000,1000,1000,1000
53765985,1000,1000,1000,1000,122028669,1000,1000,1000,1000
53768484,1000,1000,1000,1000,122128629,1000,1000,1000,1000
53770983,1000,1000,1000,1000,122228589,1000,1000,1000,1000
53773482,1000,1000,1000,1000,122328549,1000,1000,1000,1000
53775981,1000,1000,1000,1000,122428509,1000,1000,1000,1000
53778480,1000,1000,1000,1000,122528469,1000,1000,1000,1000
53780979,1000,1000,1000,1000,122628429,1000,1000,1000,1000
53783478,1000,1000,1000,1000,122728389,1000,1000,1000,1000
53785977,1000,1000,1000,1000,122828349,1000,1000,1000,1000
53788476,1000,1000,1000,1000,122928309,1000,1000,1000,1000
53790975,1000,1000,1000,1000,123028269,1000,1000,1000,1000
53793474,1000,1000,1000,1000,123128229,1000,1000,1000,1000
53795973,1000,1000,1000,1000,123228189,1000,1000,1000,1000
53798472,1000,1000,1000,1000,123328982,1000,1000,1000,1000
53800971,1000,1000,1000,1000,123428942,1000,1000,1000,1000
53803470,1000,1000,1000,1000,123528902,1000,1000,1000,1000
53805969,1000,1000,1000,1000,123628862,1000,1000,1000,1000
53808468,1000,1000,1000,1000,123728822,1000,1000,1000,1000
53810967,1000,1000,1000,1000,123828782,1000,1000,1000,1000
53813466,1000,1000,1000,1000,123928742,1000,1000,1000,1000
53815965,1000,1000,1000,1000,124028702,1000,1000,1000,1000
53818464,1000,1000,1000,1000,124128662,1000,1000,1000,1000
53820963,1000,1000,1000,1000,124228622,1000,1000,1000,1000
53823462,1000,1000,1000,1000,124328582,1000,1000,1000,1000
53825961,1000,1000,1000,1000,124428542,1000,1000,1000,1000
53828460,1000,1000,1000,1000,124528502,1000,1000,1000,1000
53830959,1000,1000,1000,1000,124628462,1000,1000,1000,1000
53833458,1000,1000,1000,1000,124728422,1000,1000,1000,1000
53835957,1000,1000,1000,1000,124828382,1000,1000,1000,1000
53838456,1000,1000,1000,1000,124928342,1000,1000,1000,1000
53840955,1000,1000,1000,1000,125028302,1000,1000,1000,1000
53843454,1000,1000,1000,1000,125128262,1000,1000,1000,1000
53845953,1000,1000,1000,1000,125228222,1000,1000,1000,1000
53848452,1000,1000,1000,1000,125328182,1000,1000,1000,1000
53850951,1000,1000,1000,1000,,,,,
53853450,1000,1000,1000,1000,,,,,
53855949,1000,1000,1000,1000,,,,,
53858448,1000,1000,1000,1000,,,,,
53860947,1000,1000,1000,1000,,,,,
53863446,1000,1000,1000,1000,,,,,
53865945,1000,1000,1000,1000,,,,,
53868444,1000,1000,1000,1000,,,,,
53870943,1000,1000,1000,1000,,,,,
53873442,1000,1000,1000,1000,,,,,
53875941,1000,1000,1000,1000,,,,,
53878440,1000,1000,1000,1000,,,,,
53880939,1000,1000,1000,1000,,,,,
53883438,1000,1000,1000,1000,,,,,
53885937,1000,1000,1000,1000,,,,,
53888436,1000,1000,1000,1000,,,,,
53890935,1000,1000,1000,1000,,,,,
53893434,1000,1000,1000,1000,,,,,
53895933,1000,1000,1000,1000,,,,,
53898432,1000,1000,1000,1000,,,,,
53900931,1000,1000,1000,1000,,,,,
53903430,1000,1000,1000,1000,,,,,
53905929,1000,1000,1000,1000,,,,,
53908428,1000,1000,1000,1000,,,,,
53910927,1000,1000,1000,1000,,,,,
53913426,1000,1000,1000,1000,,,,,
53915925,1000,1000,1000,1000,,,,,
53918424,1000,1000,1000,1000,,,,,
53920923,1000,1000,1000,1000,,,,,
53923422,1000,1000,1000,1000,,,,,
53925921,1000,1000,1000,1000,,,,,
53928420,1000,1000,1000,1000,,,,,
53930919,1000,1000,1000,1000,,,,,
53933418,1000,1000,1000,1000,,,,,
53935917,1000,1000,1000,1000,,,,,
53938416,1000,1000,1000,1000,,,,,
53940915,1000,1000,1000,1000,,,,,
53943414,1000,1000,1000,1000,,,,,
53945913,1000,1000,1000,1000,,,,,
53948412,1000,1000,1000,1000,,,,,
53950911,1000,1000,1000,1000,,,,,
53953410,1000,1000,1000,1000,,,,,
53955909,1000,1000,1000,1000,,,,,
53958408,1000,1000,1000,1000,,,,,
53960907,1000,1000,1000,1000,,,,,
53963406,1000,1000,1000,1000,,,,,
53965905,1000,1000,1000,1000,,,,,
53968404,1000,1000,1000,1000,,,,,
53970903,1000,1000,1000,1000,,,,,
53973402,1000,1000,1000,1000,,,,,
53975901,1000,1000,1000,1000,,,,,
53978400,1000,1000,1000,1000,,,,,
53980899,1000,1000,1000,1000,,,,,
53983398,1000,1000,1000,1000,,,,,
53985897,1000,1000,1000,1000,,,,,
53988396,1000,1000,1000,1000,,,,,
53990895,1000,1000,1000,1000,,,,,
53993394,1000,1000,1000,1000,,,,,
53995893,1000,1000,1000,1000,,,,,
53998392,1000,1000,1000,1000,,,,,
54000891,1000,1000,1000,1000,,,,,
54003390,1000,1000,1000,1000,,,,,
54005889,1000,1000,1000,1000,,,,,
54008388,1000,1000,1000,1000,,,,,
54010887,1000,1000,1000,1000,,,,,
54013386,1000,1000,1000,1000,,,,,
54015885,1000,1000,1000,1000,,,,,
54018384,1000,1000,1000,1000,,,,,
54020883,1000,1000,1000,1000,,,,,
54023382,1001,1001,1001,1001,,,,,
54025881,1002,1002,1002,1002,,,,,
54028380,1003,1003,1003,1003,,,,,
54030879,1003,1003,1003,1003,,,,,
54033378,1004,1004,1004,1004,,,,,
54035877,1005,1005,1005,1005,,,,,
54038376,1006,1006,1006,1006,,,,,
54040875,1006,1006,1006,1006,,,,,
54043374,1007,1007,1007,1007,,,,,
54045873,1008,1008,1008,1008,,,,,
54048372,1009,1009,1009,1009,,,,,
54050871,1009,1009,1009,1009,,,,,
54053370,1010,1010,1010,1010,,,,,
54055869,1011,1011,1011,1011,,,,,
54058368,1012,1012,1012,1012,,,,,
54060867,1012,1012,1012,1012,,,,,
54063366,1013,1013,1013,1013,,,,,
54065865,1014,1014,1014,1014,,,,,
54068364,1015,1015,1015,1015,,,,,
54070863,1015,1015,1015,1015,,,,,
54073362,1016,1016,1016,1016,,,,,
54075861,1017,1017,1017,1017,,,,,
54078360,1018,1018,1018,1018,,,,,
54080859,1018,1018,1018,1018,,,,,
54083358,1019,1019,1019,1019,,,,,
54085857,1020,1020,1020,1020,,,,,
54088356,1021,1021,1021,1021,,,,,
54090855,1021,1021,1021,1021,,,,,
54093354,1022,1022,1022,1022,,,,,
54095853,1023,1023,1023,1023,,,,,
54098352,1024,1024,1024,1024,,,,,
54100851,1024,1024,1024,1024,,,,,
54103350,1025,1025,1025,1025,,,,,
54105849,1026,1026,1026,1026,,,,,
54108348,1027,1027,1027,1027,,,,,
54110847,1027,1027,1027,1027,,,,,
54113346,1028,1028,1028,1028,,,,,
54115845,1029,1029,1029,1029,,,,,
54118344,1030,1030,1030,1030,,,,,
54120843,1030,1030,1030,1030,,,,,
54123342,1031,1031,1031,1031,,,,,
54125841,1032,1032,1032,1032,,,,,
54128340,1033,1033,1033,1033,,,,,
54130839,1033,1033,1033,1033,,,,,
54133338,1034,1034,1034,1034,,,,,
54135837,1035,1035,1035,1035,,,,,
54138336,1036,1036,1036,1036,,,,,
54140835,1036,1036,1036,1036,,,,,
54143334,1037,1037,1037,1037,,,,,
54145833,1038,1038,1038,1038,,,,,
54148332,1039,1039,1039,1039,,,,,
54150831,1039,1039,1039,1039,,,,,
54153330,1040,1040,1040,1040,,,,,
54155829,1041,1041,1041,1041,,,,,
54158328,1042,1042,1042,1042,,,,,
54160827,1042,1042,1042,1042,,,,,
54163326,1043,1043,1043,1043,,,,,
54165825,1044,1044,1044,1044,,,,,
54168324,1045,1045,1045,1045,,,,,
54170823,1045,1045,1045,1045,,,,,
54173322,1046,1046,1046,1046,,,,,
54175821,1047,1047,1047,1047,,,,,
54178320,1048,1048,1048,1048,,,,,
54180819,1048,1048,1048,1048,,,,,
54183318,1049,1049,1049,1049,,,,,
54185817,1050,1050,1050,1050,,,,,
54188316,1051,1051,1051,1051,,,,,
54190815,1051,1051,1051,1051,,,,,
54193314,1052,1052,1052,1052,,,,,
54195813,1053,1053,1053,1053,,,,,
54198312,1054,1054,1054,1054,,,,,
54200811,1054,1054,1054,1054,,,,,
54203310,1055,1055,1055,1055,,,,,
54205809,1056,1056,1056,1056,,,,,
54208308,1057,1057,1057,1057,,,,,
54210807,1057,1057,1057,1057,,,,,
54213306,1058,1058,1058,1058,,,,,
54215805,1059,1059,1059,1059,,,,,
54218304,1060,1060,1060,1060,,,,,
54220803,1060,1060,1060,1060,,,,,
54223302,1061,1061,1061,1061,,,,,
54225801,1062,1062,1062,1062,,,,,
54228300,1063,1063,1063,1063,,,,,
54230799,1063,1063,1063,1063,,,,,
54233298,1064,1064,1064,1064,,,,,
54235797,1065,1065,1065,1065,,,,,
54238296,1066,1066,1066,1066,,,,,
54240795,1066,1066,1066,1066,,,,,
54243294,1067,1067,1067,1067,,,,,
54245793,1068,1068,1068,1068,,,,,
54248292,1069,1069,1069,1069,,,,,
54250791,1069,1069,1069,1069,,,,,
54253290,1070,1070,1070,1070,,,,,
54255789,1071,1071,1071,1071,,,,,
54258288,1072,1072,1072,1072,,,,,
54260787,1072,1072,1072,1072,,,,,
54263286,1073,1073,1073,1073,,,,,
54265785,1074,1074,1074,1074,,,,,
54268284,1075,1075,1075,1075,,,,,
54270783,1075,1075,1075,1075,,,,,
54273282,1076,1076,1076,1076,,,,,
54275781,1077,1077,1077,1077,,,,,
54278280,1078,1078,1078,1078,,,,,
54280779,1078,1078,1078,1078,,,,,
54283278,1079,1079,1079,1079,,,,,
54285777,1080,1080,1080,1080,,,,,
54288276,1081,1081,1081,1081,,,,,
54290775,1081,1081,1081,1081,,,,,
54293274,1082,1082,1082,1082,,,,,
54295773,1083,1083,1083,1083,,,,,
54298272,1084,1084,1084,1084,,,,,
54300771,1084,1084,1084,1084,,,,,
54303270,1085,1085,1085,1085,,,,,
54305769,1086,1086,1086,1086,,,,,
54308268,1087,1087,1087,1087,,,,,
54310767,1087,1087,1087,1087,,,,,
54313266,1088,1088,1088,1088,,,,,
54315765,1089,1089,1089,1089,,,,,
54318264,1090,1090,1090,1090,,,,,
54320763,1090,1090,1090,1090,,,,,
54323262,1091,1091,1091,1091,,,,,
54325761,1092,1092,1092,1092,,,,,
54328260,1093,1093,1093,1093,,,,,
54330759,1093,1093,1093,1093,,,,,
54333258,1094,1094,1094,1094,,,,,
54335757,1095,1095,1095,1095,,,,,
54338256,1096,1096,1096,1096,,,,,
54340755,1096,1096,1096,1096,,,,,
54343254,1097,1097,1097,1097,,,,,
54345753,1098,1098,1098,1098,,,,,
54348252,1099,1099,1099,1099,,,,,
54350751,1099,1099,1099,1099,,,,,
54353250,1100,1100,1100,1100,,,,,
54355749,1101,1101,1101,1101,,,,,
54358248,1101,1101,1101,1101,,,,,
54360747,1102,1102,1102,1102,,,,,
54363246,1103,1103,1103,1103,,,,,
54365745,1104,1104,1104,1104,,,,,
54368244,1104,1104,1104,1104,,,,,
54370743,1105,1105,1105,1105,,,,,
54373242,1106,1106,1106,1106,,,,,
54375741,1107,1107,1107,1107,,,,,
54378240,1107,1107,1107,1107,,,,,
54380739,1108,1108,1108,1108,,,,,
54383238,1109,1109,1109,1109,,,,,
54385737,1110,1110,1110,1110,,,,,
54388236,1110,1110,1110,1110,,,,,
54390735,1111,1111,1111,1111,,,,,
54393234,1112,1112,1112,1112,,,,,
54395733,1113,1113,1113,1113,,,,,
54398232,1113,1113,1113,1113,,,,,
54400731,1114,1114,1114,1114,,,,,
54403230,1115,1115,1115,1115,,,,,
54405729,1116,1116,1116,1116,,,,,
54408228,1116,1116,1116,1116,,,,,
54410727,1117,1117,1117,1117,,,,,
54413226,1118,1118,1118,1118,,,,,
54415725,1119,1119,1119,1119,,,,,
54418224,1119,1119,1119,1119,,,,,
54420723,1120,1120,1120,1120,,,,,
54423222,1121,1121,1121,1121,,,,,
54425721,1122,1122,1122,1122,,,,,
54428220,1122,1122,1122,1122,,,,,
54430719,1123,1123,1123,1123,,,,,
54433218,1124,1124,1124,1124,,,,,
54435717,1125,1125,1125,1125,,,,,
54438216,1125,1125,1125,1125,,,,,
54440715,1126,1126,1126,1126,,,,,
54443214,1127,1127,1127,1127,,,,,
54445713,1128,1128,1128,1128,,,,,
54448212,1128,1128,1128,1128,,,,,
54450711,1129,1129,1129,1129,,,,,
54453210,1130,1130,1130,1130,,,,,
54455709,1131,1131,1131,1131,,,,,
54458208,1131,1131,1131,1131,,,,,
54460707,1132,1132,1132,1132,,,,,
54463206,1133,1133,1133,1133,,,,,
54465705,1134,1134,1134,1134,,,,,
54468204,1134,1134,1134,1134,,,,,
54470703,1135,1135,1135,1135,,,,,
54473202,1136,1136,1136,1136,,,,,
54475701,1137,1137,1137,1137,,,,,
54478200,1137,1137,1137,1137,,,,,
54480699,1138,1138,1138,1138,,,,,
54483198,1139,1139,1139,1139,,,,,
54485697,1140,1140,1140,1140,,,,,
54488196,1140,1140,1140,1140,,,,,
54490695,1141,1141,1141,1141,,,,,
54493194,1142,1142,1142,1142,,,,,
54495693,1143,1143,1143,1143,,,,,
54498192,1143,1143,1143,1143,,,,,
54500691,1144,1144,1144,1144,,,,,
54503190,1145,1145,1145,1145,,,,,
54505689,1146,1146,1146,1146,,,,,
54508188,1146,1146,1146,1146,,,,,
54510687,1147,1147,1147,1147,,,,,
54513186,1148,1148,1148,1148,,,,,
54515685,1149,1149,1149,1149,,,,,
54518184,1149,1149,1149,1149,,,,,
54520683,1150,1150,1150,1150,,,,,
54523182,1162,1153,1154,1162,,,,,
54525681,1170,1161,1162,1170,,,,,
54528180,1178,1169,1170,1178,,,,,
54530679,1185,1177,1178,1186,,,,,
54533178,1193,1184,1185,1193,,,,,
54535677,1201,1192,1193,1201,,,,,
54538176,1208,1199,1200,1208,,,,,
54540675,1215,1207,1208,1215,,,,,
54543174,1222,1214,1215,1222,,,,,
54545673,1229,1221,1222,1229,,,,,
54548172,1236,1228,1229,1236,,,,,
54550671,1243,1235,1236,1243,,,,,
54553170,1249,1242,1242,1250,,,,,
54555669,1256,1248,1249,1256,,,,,
54558168,1262,1255,1256,1263,,,,,
54560667,1269,1261,1262,1269,,,,,
54563166,1275,1268,1269,1276,,,,,
54565665,1282,1274,1275,1282,,,,,
54568164,1288,1281,1281,1288,,,,,
54570663,1294,1287,1287,1294,,,,,
54573162,1300,1293,1294,1300,,,,,
54575661,1306,1299,1300,1306,,,,,
54578160,1312,1305,1306,1312,,,,,
54580659,1318,1311,1312,1318,,,,,
54583158,1324,1317,1317,1324,,,,,
54585657,1329,1323,1323,1330,,,,,
54588156,1335,1328,1329,1335,,,,,
54590655,1341,1334,1335,1341,,,,,
54593154,1346,1340,1340,1347,,,,,
54596486,1352,1345,1346,1352,,,,,
54598985,1357,1351,1352,1358,,,,,
54601484,1363,1356,1357,1363,,,,,
54603983,1368,1362,1362,1368,,,,,
54606482,1374,1367,1368,1374,,,,,
54608981,1379,1372,1373,1379,,,,,
54611480,1384,1378,1378,1384,,,,,
54613979,1389,1383,1384,1390,,,,,
54616478,1394,1388,1389,1395,,,,,
54618977,1400,1393,1394,1400,,,,,
54621476,1405,1399,1399,1405,,,,,
54623975,1410,1404,1404,1410,,,,,
54626474,1415,1409,1409,1415,,,,,
54628973,1420,1414,1414,1420,,,,,
54631472,1425,1419,1419,1425,,,,,
54633971,1430,1424,1424,1430,,,,,
54636470,1434,1428,1429,1435,,,,,
54638969,1439,1433,1434,1439,,,,,
54641468,1444,1438,1439,1444,,,,,
54643967,1449,1443,1444,1449,,,,,
54646466,1454,1448,1448,1454,,,,,
54648965,1458,1452,1453,1458,,,,,
54651464,1463,1457,1458,1463,,,,,
54653963,1468,1462,1462,1468,,,,,
54656462,1472,1466,1467,1472,,,,,
54658961,1477,1471,1472,1477,,,,,
54661460,1481,1476,1476,1482,,,,,
54663959,1486,1480,1481,1486,,,,,
54666458,1490,1485,1485,1491,,,,,
54668957,1495,1489,1490,1495,,,,,
54671456,1499,1494,1494,1500,,,,,
54673955,1504,1498,1499,1504,,,,,
54676454,1508,1502,1503,1508,,,,,
54678953,1513,1507,1507,1513,,,,,
54681452,1517,1511,1512,1517,,,,,
54683951,1521,1516,1516,1521,,,,,
54686450,1526,1520,1520,1526,,,,,
54688949,1530,1524,1525,1530,,,,,
54691448,1534,1528,1529,1534,,,,,
54693947,1538,1533,1533,1538,,,,,
54696446,1543,1537,1537,1543,,,,,
54698945,1547,1541,1542,1547,,,,,
54701444,1551,1545,1546,1551,,,,,
54703943,1555,1549,1550,1555,,,,,
54706442,1559,1553,1554,1559,,,,,
54708941,1563,1558,1558,1563,,,,,
54711440,1567,1562,1562,1568,,,,,
54713939,1571,1566,1566,1572,,,,,
54716438,1575,1570,1570,1576,,,,,
54718937,1579,1574,1574,1580,,,,,
54721436,1583,1578,1578,1584,,,,,
54723935,1587,1582,1582,1588,,,,,
54726434,1591,1586,1586,1592,,,,,
54728933,1595,1590,1590,1595,,,,,
54731432,1599,1594,1594,1599,,,,,
54733931,1603,1598,1598,1603,,,,,
54736430,1607,1601,1602,1607,,,,,
54738929,1611,1605,1606,1611,,,,,
54741428,1615,1609,1610,1615,,,,,
54743927,1619,1613,1614,1619,,,,,
54746426,1622,1617,1618,1622,,,,,
54748925,1626,1621,1621,1626,,,,,
54751424,1630,1625,1625,1630,,,,,
54753923,1634,1628,1629,1634,,,,,
54756422,1638,1632,1633,1638,,,,,
54758921,1641,1636,1636,1641,,,,,
54761420,1645,1640,1640,1645,,,,,
54763919,1649,1643,1644,1649,,,,,
54766418,1652,1647,1648,1652,,,,,
54768917,1656,1651,1651,1656,,,,,
54771416,1660,1654,1655,1660,,,,,
54773915,1663,1658,1659,1663,,,,,
54776414,1667,1662,1662,1667,,,,,
54778913,1671,1665,1666,1671,,,,,
54781412,1674,1669,1670,1674,,,,,
54783911,1678,1673,1673,1678,,,,,
54786410,1681,1676,1677,1681,,,,,
54788909,1685,1680,1680,1685,,,,,
54791408,1688,1683,1684,1688,,,,,
54793907,1692,1687,1687,1692,,,,,
54796406,1695,1690,1691,1695,,,,,
54798905,1699,1694,1694,1699,,,,,
54801404,1702,1697,1698,1702,,,,,
54803903,1706,1701,1701,1706,,,,,
54806402,1709,1704,1705,1709,,,,,
54808901,1713,1708,1708,1713,,,,,
54811400,1716,1711,1712,1716,,,,,
54813899,1720,1715,1715,1720,,,,,
54816398,1723,1718,1719,1723,,,,,
54818897,1727,1721,1722,1727,,,,,
54821396,1730,1725,1725,1730,,,,,
54823895,1733,1728,1729,1733,,,,,
54826394,1737,1732,1732,1737,,,,,
54828893,1740,1735,1736,1740,,,,,
54831392,1744,1738,1739,1744,,,,,
54833891,1747,1742,1742,1747,,,,,
54836390,1750,1745,1746,1750,,,,,
54838889,1754,1748,1749,1754,,,,,
54841388,1757,1752,1752,1757,,,,,
54843887,1760,1755,1756,1760,,,,,
54846386,1763,1758,1759,1763,,,,,
54848885,1767,1761,1762,1767,,,,,
54851384,1770,1765,1765,1770,,,,,
54853883,1773,1768,1769,1773,,,,,
54856382,1777,1771,1772,1777,,,,,
54858881,1780,1774,1775,1780,,,,,
54861380,1783,1778,1778,1783,,,,,
54863879,1786,1781,1781,1786,,,,,
54866378,1789,1784,1785,1789,,,,,
54868877,1793,1787,1788,1793,,,,,
54871376,1796,1790,1791,1796,,,,,
54873875,1799,1794,1794,1799,,,,,
54876374,1802,1797,1797,1802,,,,,
54878873,1805,1800,1801,1805,,,,,
54881372,1808,1803,1804,1808,,,,,
54883871,1812,1806,1807,1812,,,,,
54886370,1815,1809,1810,1815,,,,,
54888869,1818,1812,1813,1818,,,,,
54891368,1821,1816,1816,1821,,,,,
54893867,1824,1819,1819,1824,,,,,
54896366,1827,1822,1822,1827,,,,,
54898865,1830,1825,1826,1830,,,,,
54901364,1833,1828,1829,1833,,,,,
54903863,1836,1831,1832,1836,,,,,
54906362,1839,1834,1835,1839,,,,,
54908861,1842,1837,1838,1842,,,,,
54911360,1845,1840,1841,1845,,,,,
54913859,1848,1843,1844,1848,,,,,
54916358,1851,1846,1847,1851,,,,,
54918857,1854,1849,1850,1854,,,,,
54921356,1857,1852,1853,1857,,,,,
54923855,1860,1855,1856,1860,,,,,
54926354,1863,1858,1859,1863,,,,,
54928853,1866,1861,1862,1866,,,,,
54931352,1869,1864,1865,1869,,,,,
54933851,1872,1867,1868,1872,,,,,
54936350,1875,1870,1871,1875,,,,,
54938849,1878,1873,1874,1878,,,,,
54941348,1881,1876,1877,1881,,,,,
54943847,1884,1879,1880,1884,,,,,
54946346,1887,1882,1883,1887,,,,,
54948845,1890,1885,1886,1890,,,,,
54951344,1893,1888,1889,1893,,,,,
54953843,1896,1891,1891,1896,,,,,
54956342,1898,1894,1894,1899,,,,,
54958841,1901,1897,1897,1901,,,,,
54961340,1904,1900,1900,1904,,,,,
54963839,1903,1899,1899,1903,,,,,
54966338,1902,1898,1898,1902,,,,,
54968837,1901,1897,1897,1901,,,,,
54971336,1900,1896,1896,1900,,,,,
54973835,1899,1895,1895,1900,,,,,
54976334,1899,1894,1894,1899,,,,,
54978833,1898,1893,1894,1898,,,,,
54981332,1897,1893,1893,1897,,,,,
54983831,1897,1892,1892,1897,,,,,
54986330,1896,1891,1892,1896,,,,,
54988829,1896,1891,1891,1896,,,,,
54991328,1895,1891,1891,1895,,,,,
54993827,1895,1890,1891,1895,,,,,
54996326,1895,1890,1890,1895,,,,,
54998825,1895,1890,1890,1895,,,,,
55001324,1895,1890,1890,1895,,,,,
55003823,1895,1890,1890,1895,,,,,
55006322,1895,1890,1890,1895,,,,,
55008821,1895,1890,1890,1895,,,,,
55011320,1895,1890,1890,1895,,,,,
55013819,1895,1890,1891,1895,,,,,
55016318,1895,1891,1891,1896,,,,,
55018817,1895,1891,1891,1896,,,,,
55021316,1896,1891,1892,1896,,,,,
55023815,1896,1892,1892,1896,,,,,
55026314,1896,1892,1892,1896,,,,,
55028813,1896,1892,1892,1896,,,,,
55031312,1895,1892,1892,1896,,,,,
55033811,1895,1892,1892,1895,,,,,
55036310,1895,1891,1892,1895,,,,,
55038809,1894,1891,1891,1895,,,,,
55041308,1893,1890,1890,1894,,,,,
55043807,1893,1889,1890,1893,,,,,
55046306,1892,1888,1889,1892,,,,,
55048805,1890,1887,1888,1891,,,,,
55051304,1889,1886,1886,1889,,,,,
55053803,1887,1885,1885,1888,,,,,
55056302,1886,1883,1883,1886,,,,,
55058801,1884,1881,1881,1885,,,,,
55061300,1882,1879,1879,1883,,,,,
55063799,1880,1877,1877,1881,,,,,
55066298,1878,1875,1875,1878,,,,,
55068797,1876,1873,1873,1876,,,,,
55071296,1873,1871,1871,1874,,,,,
55073795,1871,1868,1868,1871,,,,,
55076294,1868,1866,1866,1869,,,,,
55078793,1865,1863,1863,1866,,,,,
55081292,1862,1860,1860,1863,,,,,
55083791,1860,1857,1857,1860,,,,,
55086290,1857,1855,1855,1857,,,,,
55088789,1854,1852,1852,1854,,,,,
55091288,1851,1849,1849,1851,,,,,
55093787,1848,1846,1846,1848,,,,,
55096286,1845,1843,1843,1845,,,,,
55098785,1842,1840,1840,1842,,,,,
55101284,1839,1836,1837,1839,,,,,
55103783,1835,1833,1834,1836,,,,,
55106282,1832,1830,1830,1833,,,,,
55108781,1829,1827,1827,1830,,,,,
