TimeUS,M1,M2,M3,M4,TimeUS,C1,C2,C3,C4
62878172,1000,1000,1000,1000,62928985,1000,1000,1000,1000
62880671,1000,1000,1000,1000,63028945,1000,1000,1000,1000
62883170,1000,1000,1000,1000,63128905,1000,1000,1000,1000
62885669,1000,1000,1000,1000,63228865,1000,1000,1000,1000
62888168,1000,1000,1000,1000,63328825,1000,1000,1000,1000
62890667,1000,1000,1000,1000,63428785,1000,1000,1000,1000
62893166,1000,1000,1000,1000,63528745,1000,1000,1000,1000
62895665,1000,1000,1000,1000,63628705,1000,1000,1000,1000
62898164,1000,1000,1000,1000,63728665,1000,1000,1000,1000
62900663,1000,1000,1000,1000,63828625,1000,1000,1000,1000
62903162,1000,1000,1000,1000,63928585,1000,1000,1000,1000
62905661,1000,1000,1000,1000,64028545,1000,1000,1000,1000
62908160,1000,1000,1000,1000,64128505,1000,1000,1000,1000
62910659,1000,1000,1000,1000,64228465,1000,1000,1000,1000
62913158,1000,1000,1000,1000,64328425,1000,1000,1000,1000
62915657,1000,1000,1000,1000,64428385,1000,1000,1000,1000
62918156,1000,1000,1000,1000,64528345,1000,1000,1000,1000
62920655,1000,1000,1000,1000,64628305,1000,1000,1000,1000
62923154,1000,1000,1000,1000,64728265,1000,1000,1000,1000
62926486,1000,1000,1000,1000,64828225,1000,1000,1000,1000
62928985,1000,1000,1000,1000,64928185,1015,1015,1015,1015
62931484,1000,1000,1000,1000,65028978,1045,1045,1045,1045
62933983,1000,1000,1000,1000,65128938,1075,1075,1075,1075
62936482,1000,1000,1000,1000,65228898,1104,1104,1104,1104
62938981,1000,1000,1000,1000,65328858,1134,1134,1134,1134
62941480,1000,1000,1000,1000,65428818,1288,1280,1281,1289
62943979,1000,1000,1000,1000,65528778,1495,1489,1489,1496
62946478,1000,1000,1000,1000,65628738,1656,1650,1651,1656
62948977,1000,1000,1000,1000,65728698,1793,1787,1788,1793
62951476,1000,1000,1000,1000,65828658,1889,1884,1884,1889
62953975,1000,1000,1000,1000,65928618,1869,1866,1867,1870
62956474,1000,1000,1000,1000,66028578,1749,1748,1748,1749
62958973,1000,1000,1000,1000,66128538,1657,1658,1658,1658
62961472,1000,1000,1000,1000,66228498,1632,1634,1634,1632
62963971,1000,1000,1000,1000,66328458,1639,1641,1641,1639
62966470,1000,1000,1000,1000,66428418,1648,1649,1649,1647
62968969,1000,1000,1000,1000,66528378,1646,1646,1646,1646
62971468,1000,1000,1000,1000,66628338,1639,1638,1638,1639
62973967,1000,1000,1000,1000,66728298,1631,1630,1629,1631
62976466,1000,1000,1000,1000,66828258,1624,1623,1623,1624
62978965,1000,1000,1000,1000,66928218,1622,1622,1622,1622
62981464,1000,1000,1000,1000,67028178,1622,1621,1621,1621
62983963,1000,1000,1000,1000,67128971,1621,1621,1621,1621
62986462,1000,1000,1000,1000,67228931,1621,1622,1622,1621
62988961,1000,1000,1000,1000,67328891,1622,1622,1622,1622
62991460,1000,1000,1000,1000,67428851,1622,1623,1623,1623
62993959,1000,1000,1000,1000,67528811,1624,1624,1624,1624
62996458,1000,1000,1000,1000,67628771,1624,1624,1624,1624
62998957,1000,1000,1000,1000,67728731,1626,1625,1626,1626
63001456,1000,1000,1000,1000,67828691,1627,1626,1627,1627
63003955,1000,1000,1000,1000,67928651,1627,1627,1627,1628
63006454,1000,1000,1000,1000,68028611,1610,1611,1610,1610
63008953,1000,1000,1000,1000,68128571,1593,1592,1592,1593
63011452,1000,1000,1000,1000,68228531,1582,1581,1581,1582
63013951,1000,1000,1000,1000,68328491,1573,1572,1572,1573
63016450,1000,1000,1000,1000,68428451,1565,1565,1565,1565
63018949,1000,1000,1000,1000,68528411,1558,1558,1558,1558
63021448,1000,1000,1000,1000,68628371,1553,1553,1553,1552
63023947,1000,1000,1000,1000,68728331,1547,1547,1547,1547
63026446,1000,1000,1000,1000,68828291,1541,1542,1542,1541
63028945,1000,1000,1000,1000,68928251,1537,1537,1537,1537
63031444,1000,1000,1000,1000,69028211,1532,1532,1532,1532
63033943,1000,1000,1000,1000,69128171,1529,1529,1529,1529
63036442,1000,1000,1000,1000,69228964,1526,1526,1526,1526
63038941,1000,1000,1000,1000,69328924,1524,1523,1523,1524
63041440,1000,1000,1000,1000,69428884,1521,1521,1520,1521
63043939,1000,1000,1000,1000,69528844,1519,1518,1518,1519
63046438,1000,1000,1000,1000,69628804,1515,1515,1514,1515
63048937,1000,1000,1000,1000,69728764,1512,1512,1512,1512
63051436,1000,1000,1000,1000,69828724,1509,1509,1509,1509
63053935,1000,1000,1000,1000,69928684,1506,1506,1506,1506
63056434,1000,1000,1000,1000,70028644,1503,1503,1503,1503
63058933,1000,1000,1000,1000,70128604,1501,1501,1501,1501
63061432,1000,1000,1000,1000,70228564,1499,1498,1499,1499
63063931,1000,1000,1000,1000,70328524,1496,1496,1496,1496
63066430,1000,1000,1000,1000,70428484,1494,1494,1494,1494
63068929,1000,1000,1000,1000,70528444,1493,1493,1492,1493
63071428,1000,1000,1000,1000,70628404,1494,1494,1494,1493
63073927,1000,1000,1000,1000,70728364,1496,1496,1497,1496
63076426,1000,1000,1000,1000,70828324,1499,1499,1499,1499
63078925,1000,1000,1000,1000,70928284,1500,1500,1500,1500
63081424,1000,1000,1000,1000,71028244,1502,1502,1503,1502
63083923,1000,1000,1000,1000,71128204,1504,1504,1504,1504
63086422,1000,1000,1000,1000,71228164,1506,1506,1506,1505
63088921,1000,1000,1000,1000,71328957,1508,1508,1508,1508
63091420,1000,1000,1000,1000,71428917,1509,1509,1509,1509
63093919,1000,1000,1000,1000,71528877,1511,1511,1511,1511
63096418,1000,1000,1000,1000,71628837,1548,1548,1549,1547
63098917,1000,1000,1000,1000,71728797,1564,1563,1563,1564
63101416,1000,1000,1000,1000,71828757,1573,1572,1570,1574
63103915,1000,1000,1000,1000,71928717,1578,1578,1575,1581
63106414,1000,1000,1000,1000,72028677,1581,1581,1579,1584
63108913,1000,1000,1000,1000,72128637,1584,1584,1582,1586
63111412,1000,1000,1000,1000,72228597,1585,1585,1585,1585
63113911,1000,1000,1000,1000,72328557,1584,1585,1586,1583
63116410,1000,1000,1000,1000,72428517,1584,1584,1586,1581
63118909,1000,1000,1000,1000,72528477,1583,1582,1585,1580
63121408,1000,1000,1000,1000,72628437,1581,1581,1582,1579
63123907,1000,1000,1000,1000,72728397,1579,1579,1579,1578
63126406,1000,1000,1000,1000,72828357,1576,1576,1575,1577
63128905,1000,1000,1000,1000,72928317,1575,1575,1573,1576
63131404,1000,1000,1000,1000,73028277,1572,1573,1571,1574
63133903,1000,1000,1000,1000,73128237,1567,1567,1572,1575
63136402,1000,1000,1000,1000,73228197,1566,1566,1572,1573
63138901,1000,1000,1000,1000,73328157,1566,1567,1571,1572
63141400,1000,1000,1000,1000,73428950,1568,1568,1571,1570
63143899,1000,1000,1000,1000,73528910,1567,1568,1569,1568
63146398,1000,1000,1000,1000,73628870,1570,1570,1570,1569
63148897,1000,1000,1000,1000,73728830,1571,1571,1569,1569
63151396,1000,1000,1000,1000,73828790,1572,1572,1568,1568
63153895,1000,1000,1000,1000,73928750,1573,1573,1569,1569
63156394,1000,1000,1000,1000,74028710,1573,1573,1569,1569
63158893,1000,1000,1000,1000,74128670,1573,1573,1569,1570
63161392,1000,1000,1000,1000,74228630,1573,1573,1570,1571
63163891,1000,1000,1000,1000,74328590,1575,1574,1572,1572
63166390,1000,1000,1000,1000,74428550,1575,1575,1574,1573
63168889,1000,1000,1000,1000,74528510,1575,1575,1576,1574
63171388,1000,1000,1000,1000,74628470,1576,1576,1577,1576
63173887,1000,1000,1000,1000,74728430,1576,1575,1578,1576
63176386,1000,1000,1000,1000,74828390,1575,1576,1577,1577
63178885,1000,1000,1000,1000,74928350,1575,1576,1577,1577
63181384,1000,1000,1000,1000,75028310,1576,1577,1578,1578
63183883,1000,1000,1000,1000,75128270,1576,1576,1577,1578
63186382,1000,1000,1000,1000,75228230,1576,1576,1577,1577
63188881,1000,1000,1000,1000,75328190,1577,1577,1577,1578
63191380,1000,1000,1000,1000,75428983,1578,1579,1579,1578
63193879,1000,1000,1000,1000,75528943,1577,1577,1577,1577
63196378,1000,1000,1000,1000,75628903,1578,1578,1578,1577
63198877,1000,1000,1000,1000,75728863,1579,1578,1577,1577
63201376,1000,1000,1000,1000,75828823,1579,1578,1578,1578
63203875,1000,1000,1000,1000,75928783,1578,1578,1578,1577
63206374,1000,1000,1000,1000,76028743,1578,1578,1578,1577
63208873,1000,1000,1000,1000,76128703,1578,1578,1577,1578
63211372,1000,1000,1000,1000,76228663,1579,1580,1579,1579
63213871,1000,1000,1000,1000,76328623,1579,1579,1579,1579
63216370,1000,1000,1000,1000,76428583,1579,1579,1580,1579
63218869,1000,1000,1000,1000,76528543,1580,1580,1580,1580
63221368,1000,1000,1000,1000,76628503,1580,1580,1580,1581
63223867,1000,1000,1000,1000,76728463,1580,1580,1580,1580
63226366,1000,1000,1000,1000,76828423,1579,1579,1580,1579
63228865,1000,1000,1000,1000,76928383,1580,1580,1580,1580
63231364,1000,1000,1000,1000,77028343,1579,1579,1579,1580
63233863,1000,1000,1000,1000,77128303,1580,1580,1579,1580
63236362,1000,1000,1000,1000,77228263,1580,1580,1580,1580
63238861,1000,1000,1000,1000,77328223,1580,1580,1579,1580
63241360,1000,1000,1000,1000,77428183,1581,1581,1581,1580
63243859,1000,1000,1000,1000,77528976,1581,1581,1581,1581
63246358,1000,1000,1000,1000,77628936,1581,1581,1581,1581
63248857,1000,1000,1000,1000,77728896,1580,1581,1580,1580
63251356,1000,1000,1000,1000,77828856,1581,1580,1580,1580
63253855,1000,1000,1000,1000,77928816,1580,1580,1580,1580
63256354,1000,1000,1000,1000,78028776,1579,1579,1579,1579
63258853,1000,1000,1000,1000,78128736,1580,1580,1580,1580
63261352,1000,1000,1000,1000,78228696,1580,1580,1580,1580
63263851,1000,1000,1000,1000,78328656,1580,1581,1581,1580
63266350,1000,1000,1000,1000,78428616,1580,1581,1581,1581
63268849,1000,1000,1000,1000,78528576,1580,1580,1580,1580
63271348,1000,1000,1000,1000,78628536,1580,1580,1580,1580
63273847,1000,1000,1000,1000,78728496,1581,1580,1580,1581
63276346,1000,1000,1000,1000,78828456,1580,1581,1581,1580
63278845,1000,1000,1000,1000,78928416,1580,1580,1581,1580
63281344,1000,1000,1000,1000,79028376,1581,1582,1582,1581
63283843,1000,1000,1000,1000,79128336,1581,1582,1581,1582
63286342,1000,1000,1000,1000,79228296,1581,1581,1583,1580
63288841,1000,1000,1000,1000,79328256,1580,1581,1587,1573
63291340,1000,1000,1000,1000,79428216,1578,1581,1581,1572
63293839,1000,1000,1000,1000,79528176,1578,1580,1574,1572
63296338,1000,1000,1000,1000,79628969,1576,1579,1565,1570
63298837,1000,1000,1000,1000,79728929,1577,1578,1559,1566
63301336,1000,1000,1000,1000,79828889,1576,1577,1555,1560
63303835,1000,1000,1000,1000,79928849,1578,1577,1554,1557
63306334,1000,1000,1000,1000,80028809,1579,1578,1555,1554
63308833,1000,1000,1000,1000,80128769,1579,1578,1555,1554
63311332,1000,1000,1000,1000,80228729,1578,1578,1556,1553
63313831,1000,1000,1000,1000,80328689,1577,1577,1556,1554
63316330,1000,1000,1000,1000,80428649,1577,1578,1556,1555
63318829,1000,1000,1000,1000,80528609,1575,1577,1554,1554
63321328,1000,1000,1000,1000,80628569,1574,1576,1552,1552
63323827,1000,1000,1000,1000,80728529,1576,1577,1551,1552
63326326,1000,1000,1000,1000,80828489,1577,1578,1550,1550
63328825,1000,1000,1000,1000,80928449,1579,1580,1547,1547
63331324,1000,1000,1000,1000,81028409,1582,1583,1545,1545
63333823,1000,1000,1000,1000,81128369,1586,1586,1543,1543
63336322,1000,1000,1000,1000,81228329,1589,1590,1540,1540
63338821,1000,1000,1000,1000,81328289,1591,1592,1537,1537
63341320,1000,1000,1000,1000,81428249,1594,1594,1536,1536
63343819,1000,1000,1000,1000,81528209,1595,1595,1535,1536
63346318,1000,1000,1000,1000,81628169,1595,1595,1535,1537
63348817,1000,1000,1000,1000,81728962,1594,1593,1537,1539
63351316,1000,1000,1000,1000,81828922,1591,1590,1541,1543
63353815,1000,1000,1000,1000,81928882,1587,1585,1547,1550
63356314,1000,1000,1000,1000,82028842,1580,1578,1556,1558
63358813,1000,1000,1000,1000,82128802,1572,1567,1566,1569
63361312,1000,1000,1000,1000,82228762,1560,1556,1578,1580
63363811,1000,1000,1000,1000,82328722,1549,1546,1590,1591
63366310,1000,1000,1000,1000,82428682,1540,1538,1601,1601
63368809,1000,1000,1000,1000,82528642,1533,1533,1610,1609
63371308,1000,1000,1000,1000,82628602,1527,1529,1613,1612
63373807,1000,1000,1000,1000,82728562,1529,1530,1614,1614
63376306,1000,1000,1000,1000,82828522,1533,1535,1612,1612
63378805,1000,1000,1000,1000,82928482,1539,1542,1608,1607
63381304,1000,1000,1000,1000,83028442,1548,1549,1601,1601
63383803,1000,1000,1000,1000,83128402,1557,1558,1594,1594
63386302,1000,1000,1000,1000,83228362,1565,1565,1586,1586
63388801,1000,1000,1000,1000,83328322,1572,1572,1579,1578
63391300,1000,1000,1000,1000,83428282,1578,1578,1573,1572
63393799,1000,1000,1000,1000,83528242,1583,1582,1568,1568
63396298,1000,1000,1000,1000,83628202,1586,1585,1566,1566
63398797,1000,1000,1000,1000,83728162,1587,1586,1566,1566
63401296,1000,1000,1000,1000,83828955,1587,1586,1567,1567
63403795,1000,1000,1000,1000,83928915,1585,1584,1568,1569
63406294,1000,1000,1000,1000,84028875,1582,1581,1570,1571
63408793,1000,1000,1000,1000,84128835,1580,1579,1574,1574
63411292,1000,1000,1000,1000,84228795,1577,1578,1578,1577
63413791,1000,1000,1000,1000,84328755,1575,1576,1580,1580
63416290,1000,1000,1000,1000,84428715,1573,1574,1582,1582
63418789,1000,1000,1000,1000,84528675,1572,1573,1584,1583
63421288,1000,1000,1000,1000,84628635,1572,1573,1584,1583
63423787,1000,1000,1000,1000,84728595,1573,1574,1584,1584
63426286,1000,1000,1000,1000,84828555,1573,1574,1583,1583
63428785,1000,1000,1000,1000,84928515,1576,1575,1582,1583
63431284,1000,1000,1000,1000,85028475,1509,1546,1596,1599
63433783,1000,1000,1000,1000,85128435,1552,1536,1596,1599
63436282,1000,1000,1000,1000,85228395,1584,1545,1596,1598
63438781,1000,1000,1000,1000,85328355,1604,1563,1593,1595
63441280,1000,1000,1000,1000,85428315,1612,1583,1589,1590
63443779,1000,1000,1000,1000,85528275,1611,1599,1582,1582
63446278,1000,1000,1000,1000,85628235,1606,1609,1577,1575
63448777,1000,1000,1000,1000,85728195,1601,1614,1575,1572
63451276,1000,1000,1000,1000,85828155,1599,1613,1574,1571
63453775,1000,1000,1000,1000,85928948,1598,1609,1576,1573
63456274,1000,1000,1000,1000,86028908,1596,1602,1577,1575
63458773,1000,1000,1000,1000,86128868,1595,1597,1579,1578
63461272,1000,1000,1000,1000,86228828,1592,1590,1579,1579
63463771,1000,1000,1000,1000,86328788,1588,1585,1580,1581
63466270,1000,1000,1000,1000,86428748,1583,1582,1581,1583
63468769,1000,1000,1000,1000,86528708,1579,1580,1582,1584
63471268,1000,1000,1000,1000,86628668,1576,1578,1583,1585
63473767,1000,1000,1000,1000,86728628,1573,1576,1583,1584
63476266,1000,1000,1000,1000,86828588,1574,1577,1584,1584
63478765,1000,1000,1000,1000,86928548,1574,1577,1583,1583
63481264,1000,1000,1000,1000,87028508,1576,1577,1582,1582
63483763,1000,1000,1000,1000,87128468,1578,1579,1581,1581
63486262,1000,1000,1000,1000,87228428,1580,1579,1582,1577
63488761,1000,1000,1000,1000,87328388,1582,1580,1585,1570
63491260,1000,1000,1000,1000,87428348,1583,1582,1579,1569
63493759,1000,1000,1000,1000,87528308,1580,1580,1569,1568
63496258,1000,1000,1000,1000,87628268,1578,1580,1560,1566
63498757,1000,1000,1000,1000,87728228,1577,1579,1556,1563
63501256,1000,1000,1000,1000,87828188,1576,1578,1554,1559
63503755,1000,1000,1000,1000,87928981,1576,1577,1554,1556
63506254,1000,1000,1000,1000,88028941,1576,1576,1555,1554
63508753,1000,1000,1000,1000,88128901,1576,1575,1556,1554
63511252,1000,1000,1000,1000,88228861,1575,1574,1555,1553
63513751,1000,1000,1000,1000,88328821,1575,1574,1555,1554
63516250,1000,1000,1000,1000,88428781,1573,1574,1553,1553
63518749,1000,1000,1000,1000,88528741,1573,1574,1553,1553
63521248,1000,1000,1000,1000,88628701,1573,1575,1552,1552
63523747,1000,1000,1000,1000,88728661,1574,1576,1549,1550
63526246,1000,1000,1000,1000,88828621,1575,1577,1547,1547
63528745,1000,1000,1000,1000,88928581,1578,1579,1545,1545
63531244,1000,1000,1000,1000,89028541,1581,1582,1543,1543
63533743,1000,1000,1000,1000,89128501,1583,1584,1539,1540
63536242,1000,1000,1000,1000,89228461,1586,1587,1537,1536
63538741,1000,1000,1000,1000,89328421,1589,1589,1535,1534
63541240,1000,1000,1000,1000,89428381,1593,1592,1534,1534
63543739,1000,1000,1000,1000,89528341,1594,1593,1533,1534
63546238,1000,1000,1000,1000,89628301,1595,1594,1536,1537
63548737,1000,1000,1000,1000,89728261,1593,1591,1537,1540
63551236,1000,1000,1000,1000,89828221,1589,1587,1541,1544
63553735,1000,1000,1000,1000,89928181,1585,1582,1547,1550
63556234,1000,1000,1000,1000,90028974,1578,1577,1554,1558
63558733,1000,1000,1000,1000,90128934,1571,1569,1564,1567
63561232,1000,1000,1000,1000,90228894,1560,1558,1574,1576
63563731,1000,1000,1000,1000,90328854,1550,1549,1585,1586
63566230,1000,1000,1000,1000,90428814,1541,1540,1595,1595
63568729,1000,1000,1000,1000,90528774,1535,1534,1602,1602
63571228,1000,1000,1000,1000,90628734,1530,1531,1608,1607
63573727,1000,1000,1000,1000,90728694,1528,1530,1609,1608
63576226,1000,1000,1000,1000,90828654,1531,1533,1609,1608
63578725,1000,1000,1000,1000,90928614,1536,1538,1606,1605
63581224,1000,1000,1000,1000,91028574,1542,1544,1599,1599
63583723,1000,1000,1000,1000,91128534,1549,1551,1592,1592
63586222,1000,1000,1000,1000,91228494,1558,1559,1585,1586
63588721,1000,1000,1000,1000,91328454,1567,1567,1580,1580
63591220,1000,1000,1000,1000,91428414,1574,1572,1575,1574
63593719,1000,1000,1000,1000,91528374,1580,1578,1572,1571
63596218,1000,1000,1000,1000,91628334,1584,1581,1569,1568
63598717,1000,1000,1000,1000,91728294,1585,1583,1567,1567
63601216,1000,1000,1000,1000,91828254,1586,1585,1567,1567
63603715,1000,1000,1000,1000,91928214,1586,1585,1569,1569
63606214,1000,1000,1000,1000,92028174,1584,1583,1570,1571
63608713,1000,1000,1000,1000,92128967,1582,1581,1573,1573
63611212,1000,1000,1000,1000,92228927,1581,1581,1577,1577
63613711,1000,1000,1000,1000,92328887,1578,1578,1579,1579
63616210,1000,1000,1000,1000,92428847,1575,1576,1580,1580
63618709,1000,1000,1000,1000,92528807,1574,1575,1582,1581
63621208,1000,1000,1000,1000,92628767,1573,1574,1582,1583
63623707,1000,1000,1000,1000,92728727,1574,1575,1583,1583
63626206,1000,1000,1000,1000,92828687,1574,1574,1583,1582
63628705,1000,1000,1000,1000,92928647,1575,1575,1582,1582
63631204,1000,1000,1000,1000,93028607,1576,1576,1581,1582
63633703,1000,1000,1000,1000,93128567,1578,1578,1581,1581
63636202,1000,1000,1000,1000,93228527,1579,1579,1580,1580
63638701,1000,1000,1000,1000,93328487,1580,1579,1578,1578
63641200,1000,1000,1000,1000,93428447,1581,1581,1578,1578
63643699,1000,1000,1000,1000,93528407,1581,1581,1578,1578
63646198,1000,1000,1000,1000,93628367,1582,1582,1578,1578
63648697,1000,1000,1000,1000,93728327,1582,1582,1578,1578
63651196,1000,1000,1000,1000,93828287,1583,1583,1579,1579
63653695,1000,1000,1000,1000,93928247,1583,1582,1579,1579
63656194,1000,1000,1000,1000,94028207,1581,1581,1579,1579
63658693,1000,1000,1000,1000,94128167,1581,1581,1580,1580
63661192,1000,1000,1000,1000,94228960,1580,1580,1580,1580
63663691,1000,1000,1000,1000,94328920,1580,1580,1580,1581
63666190,1000,1000,1000,1000,94428880,1579,1580,1580,1581
63668689,1000,1000,1000,1000,94528840,1578,1579,1580,1580
63671188,1000,1000,1000,1000,94628800,1579,1579,1580,1580
63673687,1000,1000,1000,1000,94728760,1578,1579,1580,1580
63676186,1000,1000,1000,1000,94828720,1580,1580,1582,1581
63678685,1000,1000,1000,1000,94928680,1580,1580,1581,1581
63681184,1000,1000,1000,1000,95028640,1581,1580,1581,1581
63683683,1000,1000,1000,1000,95128600,1582,1581,1581,1582
63686182,1000,1000,1000,1000,95228560,1581,1581,1580,1581
63688681,1000,1000,1000,1000,95328520,1581,1581,1580,1580
63691180,1000,1000,1000,1000,95428480,1582,1582,1581,1581
63693679,1000,1000,1000,1000,95528440,1581,1582,1581,1581
63696178,1000,1000,1000,1000,95628400,1581,1581,1580,1580
63698677,1000,1000,1000,1000,95728360,1581,1581,1580,1581
63701176,1000,1000,1000,1000,95828320,1581,1580,1580,1580
63703675,1000,1000,1000,1000,95928280,1581,1581,1581,1581
63706174,1000,1000,1000,1000,96028240,1581,1582,1588,1573
63708673,1000,1000,1000,1000,96128200,1580,1582,1584,1573
63711172,1000,1000,1000,1000,96228160,1579,1581,1576,1573
63713671,1000,1000,1000,1000,96328953,1577,1580,1567,1571
63716170,1000,1000,1000,1000,96428913,1576,1579,1560,1567
63718669,1000,1000,1000,1000,96528873,1577,1578,1556,1562
63721168,1000,1000,1000,1000,96628833,1578,1578,1555,1558
63723667,1000,1000,1000,1000,96728793,1579,1578,1555,1555
63726166,1000,1000,1000,1000,96828753,1579,1577,1555,1553
63728665,1000,1000,1000,1000,96928713,1578,1578,1556,1554
63731164,1000,1000,1000,1000,97028673,1578,1578,1556,1554
63733663,1000,1000,1000,1000,97128633,1577,1578,1556,1555
63736162,1000,1000,1000,1000,97228593,1576,1578,1556,1555
63738661,1000,1000,1000,1000,97328553,1576,1578,1554,1554
63741160,1000,1000,1000,1000,97428513,1576,1577,1553,1553
63743659,1000,1000,1000,1000,97528473,1577,1579,1551,1552
63746158,1000,1000,1000,1000,97628433,1578,1580,1549,1549
63748657,1000,1000,1000,1000,97728393,1581,1582,1548,1547
63751156,1000,1000,1000,1000,97828353,1583,1584,1545,1545
63753655,1000,1000,1000,1000,97928313,1586,1587,1543,1542
63756154,1000,1000,1000,1000,98028273,1588,1589,1540,1540
63758653,1000,1000,1000,1000,98128233,1591,1591,1539,1539
63761152,1000,1000,1000,1000,98228193,1592,1592,1538,1538
63763651,1000,1000,1000,1000,98328986,1594,1594,1538,1540
63766150,1000,1000,1000,1000,98428946,1592,1592,1538,1540
63768649,1000,1000,1000,1000,98528906,1591,1590,1540,1543
63771148,1000,1000,1000,1000,98628866,1588,1587,1545,1548
63773647,1000,1000,1000,1000,98728826,1583,1580,1552,1556
63776146,1000,1000,1000,1000,98828786,1576,1573,1562,1564
63778645,1000,1000,1000,1000,98928746,1566,1563,1573,1574
63781144,1000,1000,1000,1000,99028706,1556,1553,1584,1585
63783643,1000,1000,1000,1000,99128666,1547,1545,1595,1595
63786142,1000,1000,1000,1000,99228626,1539,1539,1603,1603
63788641,1000,1000,1000,1000,99328586,1534,1536,1610,1609
63791140,1000,1000,1000,1000,99428546,1533,1535,1612,1612
63793639,1000,1000,1000,1000,99528506,1534,1537,1612,1611
63796138,1000,1000,1000,1000,99628466,1538,1542,1609,1608
63798637,1000,1000,1000,1000,99728426,1545,1547,1603,1603
63801136,1000,1000,1000,1000,99828386,1552,1554,1597,1596
63803635,1000,1000,1000,1000,99928346,1560,1560,1590,1589
63806134,1000,1000,1000,1000,100028306,1568,1567,1583,1582
63808633,1000,1000,1000,1000,100128266,1574,1573,1577,1576
63811132,1000,1000,1000,1000,100228226,1580,1578,1572,1572
63813631,1000,1000,1000,1000,100328186,1584,1582,1569,1569
63816130,1000,1000,1000,1000,100428979,1586,1584,1567,1568
63818629,1000,1000,1000,1000,100528939,1587,1585,1568,1568
63821128,1000,1000,1000,1000,100628899,1586,1585,1569,1569
63823627,1000,1000,1000,1000,100728859,1585,1584,1572,1571
63826126,1000,1000,1000,1000,100828819,1582,1582,1573,1573
63828625,1000,1000,1000,1000,100928779,1580,1580,1576,1577
63831124,1000,1000,1000,1000,101028739,1578,1578,1579,1579
63833623,1000,1000,1000,1000,101128699,1576,1576,1581,1581
63836122,1000,1000,1000,1000,101228659,1575,1575,1583,1583
63838621,1000,1000,1000,1000,101328619,1574,1575,1584,1584
63841120,1000,1000,1000,1000,101428579,1574,1574,1584,1584
63843619,1000,1000,1000,1000,101528539,1574,1575,1584,1584
63846118,1000,1000,1000,1000,101628499,1575,1576,1583,1583
63848617,1000,1000,1000,1000,101728459,1576,1576,1582,1582
63851116,1000,1000,1000,1000,101828419,1577,1578,1581,1581
63853615,1000,1000,1000,1000,101928379,1579,1579,1580,1580
63856114,1000,1000,1000,1000,102028339,1580,1580,1580,1579
63858613,1000,1000,1000,1000,102128299,1582,1581,1579,1579
63861112,1000,1000,1000,1000,102228259,1581,1580,1578,1577
63863611,1000,1000,1000,1000,102328219,1581,1581,1577,1577
63866110,1000,1000,1000,1000,102428179,1581,1581,1577,1578
63868609,1000,1000,1000,1000,102528972,1582,1582,1578,1578
63871108,1000,1000,1000,1000,102628932,1581,1581,1578,1578
63873607,1000,1000,1000,1000,102728892,1580,1581,1579,1578
63876106,1000,1000,1000,1000,102828852,1580,1580,1579,1579
63878605,1000,1000,1000,1000,102928812,1580,1581,1580,1580
63881104,1000,1000,1000,1000,103028772,1580,1580,1580,1580
63883603,1000,1000,1000,1000,103128732,1580,1579,1580,1581
63886102,1000,1000,1000,1000,103228692,1580,1580,1581,1581
63888601,1000,1000,1000,1000,103328652,1580,1580,1581,1581
63891100,1000,1000,1000,1000,103428612,1580,1580,1581,1581
63893599,1000,1000,1000,1000,103528572,1579,1579,1580,1580
63896098,1000,1000,1000,1000,103628532,1580,1581,1582,1581
63898597,1000,1000,1000,1000,103728492,1580,1580,1581,1581
63901096,1000,1000,1000,1000,103828452,1581,1581,1581,1581
63903595,1000,1000,1000,1000,103928412,1581,1580,1580,1581
63906094,1000,1000,1000,1000,104028372,1581,1582,1587,1574
63908593,1000,1000,1000,1000,104128332,1580,1580,1585,1572
63911092,1000,1000,1000,1000,104228292,1579,1579,1579,1575
63913591,1000,1000,1000,1000,104328252,1576,1575,1572,1575
63916090,1000,1000,1000,1000,104428212,1573,1572,1567,1574
63918589,1000,1000,1000,1000,104528172,1570,1570,1565,1572
63921088,1000,1000,1000,1000,104628965,1568,1569,1565,1569
63923587,1000,1000,1000,1000,104728925,1567,1567,1566,1567
63926086,1000,1000,1000,1000,104828885,1566,1566,1567,1565
63928585,1000,1000,1000,1000,104928845,1566,1566,1568,1566
63931084,1000,1000,1000,1000,105028805,1566,1566,1568,1566
63933583,1000,1000,1000,1000,105128765,1565,1565,1567,1566
63936082,1000,1000,1000,1000,105228725,1564,1564,1566,1565
63938581,1000,1000,1000,1000,105328685,1564,1563,1565,1565
63941080,1000,1000,1000,1000,105428645,1562,1563,1563,1563
63943579,1000,1000,1000,1000,105528605,1563,1562,1563,1563
63946078,1000,1000,1000,1000,105628565,1562,1562,1563,1562
63948577,1000,1000,1000,1000,105728525,1562,1562,1562,1562
63951076,1000,1000,1000,1000,105828485,1561,1561,1562,1561
63953575,1000,1000,1000,1000,105928445,1561,1561,1561,1560
63956074,1000,1000,1000,1000,106028405,1560,1560,1560,1559
63958573,1000,1000,1000,1000,106128365,1559,1559,1559,1559
63961072,1000,1000,1000,1000,106228325,1558,1559,1559,1557
63963571,1000,1000,1000,1000,106328285,1559,1559,1559,1558
63966070,1000,1000,1000,1000,106428245,1559,1558,1559,1557
63968569,1000,1000,1000,1000,106528205,1559,1558,1560,1558
63971068,1000,1000,1000,1000,106628165,1559,1558,1560,1558
63973567,1000,1000,1000,1000,106728958,1559,1558,1561,1558
63976066,1000,1000,1000,1000,106828918,1560,1559,1560,1560
63978565,1000,1000,1000,1000,106928878,1559,1559,1557,1562
63981064,1000,1000,1000,1000,107028838,1559,1560,1556,1563
63983563,1000,1000,1000,1000,107128798,1560,1560,1557,1564
63986062,1000,1000,1000,1000,107228758,1561,1562,1559,1564
63988561,1000,1000,1000,1000,107328718,1562,1563,1561,1563
63991060,1000,1000,1000,1000,107428678,1562,1561,1562,1560
63993559,1000,1000,1000,1000,107528638,1561,1560,1562,1558
63996058,1000,1000,1000,1000,107628598,1561,1561,1560,1560
63998557,1000,1000,1000,1000,107728558,1558,1558,1555,1560
64001056,1000,1000,1000,1000,107828518,1554,1554,1551,1555
64003555,1000,1000,1000,1000,107928478,1550,1550,1548,1550
64006054,1000,1000,1000,1000,108028438,1543,1543,1542,1542
64008553,1000,1000,1000,1000,108128398,1537,1537,1536,1535
64011052,1000,1000,1000,1000,108228358,1529,1529,1529,1527
64013551,1000,1000,1000,1000,108328318,1522,1523,1522,1521
64016050,1000,1000,1000,1000,108428278,1519,1520,1520,1519
64018549,1000,1000,1000,1000,108528238,1519,1520,1519,1520
64021048,1000,1000,1000,1000,108628198,1520,1520,1521,1521
64023547,1000,1000,1000,1000,108728158,1522,1522,1523,1524
64026046,1000,1000,1000,1000,108828951,1525,1525,1527,1527
64028545,1000,1000,1000,1000,108928911,1530,1530,1532,1532
64031044,1000,1000,1000,1000,109028871,1535,1534,1537,1537
64033543,1000,1000,1000,1000,109128831,1539,1538,1540,1540
64036042,1000,1000,1000,1000,109228791,1541,1541,1543,1542
64038541,1000,1000,1000,1000,109328751,1543,1542,1543,1543
64041040,1000,1000,1000,1000,109428711,1544,1544,1545,1544
64043539,1000,1000,1000,1000,109528671,1546,1545,1545,1544
64046038,1000,1000,1000,1000,109628631,1546,1546,1546,1545
64048537,1000,1000,1000,1000,109728591,1547,1546,1545,1545
64051036,1000,1000,1000,1000,109828551,1546,1546,1544,1544
64053535,1000,1000,1000,1000,109928511,1546,1547,1545,1545
64056034,1000,1000,1000,1000,110028471,1546,1546,1544,1545
64058533,1000,1000,1000,1000,110128431,1546,1546,1546,1545
64061032,1000,1000,1000,1000,110228391,1546,1546,1546,1545
64063531,1000,1000,1000,1000,110328351,1547,1546,1547,1546
64066030,1000,1000,1000,1000,110428311,1545,1546,1546,1545
64068529,1000,1000,1000,1000,110528271,1545,1545,1545,1545
64071028,1000,1000,1000,1000,110628231,1545,1545,1546,1545
64073527,1000,1000,1000,1000,110728191,1544,1544,1544,1545
64076026,1000,1000,1000,1000,110828984,1544,1544,1545,1545
64078525,1000,1000,1000,1000,110928944,1544,1544,1544,1545
64081024,1000,1000,1000,1000,111028904,1544,1544,1544,1545
64083523,1000,1000,1000,1000,111128864,1543,1544,1544,1544
64086022,1000,1000,1000,1000,111228824,1543,1544,1544,1543
64088521,1000,1000,1000,1000,111328784,1543,1543,1543,1543
64091020,1000,1000,1000,1000,111428744,1543,1543,1544,1543
64093519,1000,1000,1000,1000,111528704,1544,1544,1544,1544
64096018,1000,1000,1000,1000,111628664,1544,1544,1544,1545
64098517,1000,1000,1000,1000,111728624,1545,1544,1544,1545
64101016,1000,1000,1000,1000,111828584,1544,1545,1544,1544
64103515,1000,1000,1000,1000,111928544,1544,1544,1544,1544
64106014,1000,1000,1000,1000,112028504,1545,1545,1545,1545
64108513,1000,1000,1000,1000,112128464,1545,1545,1545,1545
64111012,1000,1000,1000,1000,112228424,1543,1543,1543,1543
64113511,1000,1000,1000,1000,112328384,1543,1543,1543,1543
64116010,1000,1000,1000,1000,112428344,1543,1543,1544,1543
64118509,1000,1000,1000,1000,112528304,1544,1544,1544,1544
64121008,1000,1000,1000,1000,112628264,1544,1544,1544,1544
64123507,1000,1000,1000,1000,112728224,1545,1544,1544,1544
64126006,1000,1000,1000,1000,112828184,1545,1545,1545,1545
64128505,1000,1000,1000,1000,112928977,1544,1544,1544,1544
64131004,1000,1000,1000,1000,113028937,1544,1544,1544,1544
64133503,1000,1000,1000,1000,113128897,1545,1544,1545,1544
64136002,1000,1000,1000,1000,113228857,1544,1544,1544,1544
64138501,1000,1000,1000,1000,113328817,1544,1544,1544,1544
64141000,1000,1000,1000,1000,113428777,1544,1544,1544,1544
64143499,1000,1000,1000,1000,113528737,1544,1544,1544,1544
64145998,1000,1000,1000,1000,113628697,1544,1544,1544,1544
64148497,1000,1000,1000,1000,113728657,1544,1544,1544,1544
64150996,1000,1000,1000,1000,113828617,1543,1544,1543,1543
64153495,1000,1000,1000,1000,113928577,1544,1544,1543,1544
64155994,1000,1000,1000,1000,114028537,1544,1544,1544,1545
64158493,1000,1000,1000,1000,114128497,1544,1544,1544,1544
64160992,1000,1000,1000,1000,114228457,1545,1545,1545,1545
64163491,1000,1000,1000,1000,114328417,1545,1544,1545,1545
64165990,1000,1000,1000,1000,114428377,1544,1544,1544,1544
64168489,1000,1000,1000,1000,114528337,1544,1544,1544,1544
64170988,1000,1000,1000,1000,114628297,1544,1544,1544,1543
64173487,1000,1000,1000,1000,114728257,1544,1544,1544,1545
64175986,1000,1000,1000,1000,114828217,1544,1544,1544,1544
64178485,1000,1000,1000,1000,114928177,1544,1543,1543,1544
64180984,1000,1000,1000,1000,115028970,1543,1544,1544,1543
64183483,1000,1000,1000,1000,115128930,1543,1544,1543,1543
64185982,1000,1000,1000,1000,115228890,1544,1544,1544,1544
64188481,1000,1000,1000,1000,115328850,1545,1545,1545,1545
64190980,1000,1000,1000,1000,115428810,1544,1544,1544,1544
64193479,1000,1000,1000,1000,115528770,1544,1543,1544,1544
64195978,1000,1000,1000,1000,115628730,1544,1544,1544,1544
64198477,1000,1000,1000,1000,115728690,1544,1544,1544,1544
64200976,1000,1000,1000,1000,115828650,1544,1545,1545,1544
64203475,1000,1000,1000,1000,115928610,1545,1544,1544,1544
64205974,1000,1000,1000,1000,116028570,1545,1545,1545,1545
64208473,1000,1000,1000,1000,116128530,1544,1544,1544,1544
64210972,1000,1000,1000,1000,116228490,1544,1545,1545,1545
64213471,1000,1000,1000,1000,116328450,1544,1544,1544,1544
64215970,1000,1000,1000,1000,116428410,1544,1544,1544,1545
64218469,1000,1000,1000,1000,116528370,1545,1545,1545,1545
64220968,1000,1000,1000,1000,116628330,1545,1545,1545,1545
64223467,1000,1000,1000,1000,116728290,1544,1544,1544,1544
64225966,1000,1000,1000,1000,116828250,1544,1544,1544,1544
64228465,1000,1000,1000,1000,116928210,1544,1544,1544,1544
64230964,1000,1000,1000,1000,117028170,1544,1544,1544,1544
64233463,1000,1000,1000,1000,117128963,1544,1545,1544,1544
64235962,1000,1000,1000,1000,117228923,1544,1544,1544,1544
64238461,1000,1000,1000,1000,117328883,1544,1544,1544,1544
64240960,1000,1000,1000,1000,117428843,1544,1544,1544,1544
64243459,1000,1000,1000,1000,117528803,1544,1544,1544,1544
64245958,1000,1000,1000,1000,117628763,1544,1544,1544,1544
64248457,1000,1000,1000,1000,117728723,1544,1544,1544,1545
64250956,1000,1000,1000,1000,117828683,1544,1544,1544,1544
64253455,1000,1000,1000,1000,117928643,1544,1544,1544,1544
64255954,1000,1000,1000,1000,118028603,1545,1545,1545,1545
64258453,1000,1000,1000,1000,118128563,1501,1494,1494,1494
64260952,1000,1000,1000,1000,118228523,1359,1316,1317,1314
64263451,1000,1000,1000,1000,118328483,1300,1235,1237,1233
64265950,1000,1000,1000,1000,118428443,1282,1210,1212,1208
64268449,1000,1000,1000,1000,118528403,1263,1183,1184,1181
64270948,1000,1000,1000,1000,118628363,1243,1153,1154,1150
64273447,1000,1000,1000,1000,118728323,1243,1152,1153,1150
64275946,1000,1000,1000,1000,118828283,1243,1154,1155,1150
64278445,1000,1000,1000,1000,118928243,1254,1150,1151,1178
64280944,1000,1000,1000,1000,119028203,1255,1150,1150,1178
64283443,1000,1000,1000,1000,119128163,1255,1150,1150,1169
64285942,1000,1000,1000,1000,119228956,1254,1150,1150,1167
64288441,1000,1000,1000,1000,119328916,1255,1150,1150,1169
64290940,1000,1000,1000,1000,119428876,1256,1150,1151,1171
64293439,1000,1000,1000,1000,119528836,1257,1150,1151,1173
64295938,1000,1000,1000,1000,119628796,1257,1150,1151,1174
64298437,1000,1000,1000,1000,119728756,1245,1150,1150,1154
64300936,1000,1000,1000,1000,119828716,1248,1150,1150,1160
64303435,1000,1000,1000,1000,119928676,1249,1150,1151,1161
64305934,1000,1000,1000,1000,120028636,1250,1150,1151,1162
64308433,1000,1000,1000,1000,120128596,1250,1150,1151,1163
64310932,1000,1000,1000,1000,120228556,1000,1000,1000,1000
64313431,1000,1000,1000,1000,120328516,1000,1000,1000,1000
64315930,1000,1000,1000,1000,120428476,1000,1000,1000,1000
64318429,1000,1000,1000,1000,120528436,1000,1000,1000,1000
64320928,1000,1000,1000,1000,120628396,1000,1000,1000,1000
64323427,1000,1000,1000,1000,120728356,1000,1000,1000,1000
64325926,1000,1000,1000,1000,120828316,1000,1000,1000,1000
64328425,1000,1000,1000,1000,120928276,1000,1000,1000,1000
64330924,1000,1000,1000,1000,121028236,1000,1000,1000,1000
64333423,1000,1000,1000,1000,121128196,1000,1000,1000,1000
64335922,1000,1000,1000,1000,121228156,1000,1000,1000,1000
64338421,1000,1000,1000,1000,121328949,1000,1000,1000,1000
64340920,1000,1000,1000,1000,121428909,1000,1000,1000,1000
64343419,1000,1000,1000,1000,121528869,1000,1000,1000,1000
64345918,1000,1000,1000,1000,121628829,1000,1000,1000,1000
64348417,1000,1000,1000,1000,121728789,1000,1000,1000,1000
64350916,1000,1000,1000,1000,121828749,1000,1000,1000,1000
64353415,1000,1000,1000,1000,121928709,1000,1000,1000,1000
64355914,1000,1000,1000,1000,122028669,1000,1000,1000,1000
64358413,1000,1000,1000,1000,122128629,1000,1000,1000,1000
64360912,1000,1000,1000,1000,122228589,1000,1000,1000,1000
64363411,1000,1000,1000,1000,122328549,1000,1000,1000,1000
64365910,1000,1000,1000,1000,122428509,1000,1000,1000,1000
64368409,1000,1000,1000,1000,122528469,1000,1000,1000,1000
64370908,1000,1000,1000,1000,122628429,1000,1000,1000,1000
64373407,1000,1000,1000,1000,122728389,1000,1000,1000,1000
64375906,1000,1000,1000,1000,122828349,1000,1000,1000,1000
64378405,1000,1000,1000,1000,122928309,1000,1000,1000,1000
64380904,1000,1000,1000,1000,123028269,1000,1000,1000,1000
64383403,1000,1000,1000,1000,123128229,1000,1000,1000,1000
64385902,1000,1000,1000,1000,123228189,1000,1000,1000,1000
64388401,1000,1000,1000,1000,123328982,1000,1000,1000,1000
64390900,1000,1000,1000,1000,123428942,1000,1000,1000,1000
64393399,1000,1000,1000,1000,123528902,1000,1000,1000,1000
64395898,1000,1000,1000,1000,123628862,1000,1000,1000,1000
64398397,1000,1000,1000,1000,123728822,1000,1000,1000,1000
64400896,1000,1000,1000,1000,123828782,1000,1000,1000,1000
64403395,1000,1000,1000,1000,123928742,1000,1000,1000,1000
64405894,1000,1000,1000,1000,124028702,1000,1000,1000,1000
64408393,1000,1000,1000,1000,124128662,1000,1000,1000,1000
64410892,1000,1000,1000,1000,124228622,1000,1000,1000,1000
64413391,1000,1000,1000,1000,124328582,1000,1000,1000,1000
64415890,1000,1000,1000,1000,124428542,1000,1000,1000,1000
64418389,1000,1000,1000,1000,124528502,1000,1000,1000,1000
64420888,1000,1000,1000,1000,124628462,1000,1000,1000,1000
64423387,1000,1000,1000,1000,124728422,1000,1000,1000,1000
64425886,1000,1000,1000,1000,124828382,1000,1000,1000,1000
64428385,1000,1000,1000,1000,124928342,1000,1000,1000,1000
64430884,1000,1000,1000,1000,125028302,1000,1000,1000,1000
64433383,1000,1000,1000,1000,125128262,1000,1000,1000,1000
64435882,1000,1000,1000,1000,125228222,1000,1000,1000,1000
64438381,1000,1000,1000,1000,125328182,1000,1000,1000,1000
64440880,1000,1000,1000,1000,125428975,1000,1000,1000,1000
64443379,1000,1000,1000,1000,125528935,1000,1000,1000,1000
64445878,1000,1000,1000,1000,125628895,1000,1000,1000,1000
64448377,1000,1000,1000,1000,125728855,1000,1000,1000,1000
64450876,1000,1000,1000,1000,125828815,1000,1000,1000,1000
64453375,1000,1000,1000,1000,125928775,1000,1000,1000,1000
64455874,1000,1000,1000,1000,126028735,1000,1000,1000,1000
64458373,1000,1000,1000,1000,126128695,1000,1000,1000,1000
64460872,1000,1000,1000,1000,126228655,1000,1000,1000,1000
64463371,1000,1000,1000,1000,126328615,1000,1000,1000,1000
64465870,1000,1000,1000,1000,126428575,1000,1000,1000,1000
64468369,1000,1000,1000,1000,126528535,1000,1000,1000,1000
64470868,1000,1000,1000,1000,126628495,1000,1000,1000,1000
64473367,1000,1000,1000,1000,126728455,1000,1000,1000,1000
64475866,1000,1000,1000,1000,126828415,1000,1000,1000,1000
64478365,1000,1000,1000,1000,126928375,1000,1000,1000,1000
64480864,1000,1000,1000,1000,127028335,1000,1000,1000,1000
64483363,1000,1000,1000,1000,127128295,1000,1000,1000,1000
64485862,1000,1000,1000,1000,127228255,1000,1000,1000,1000
64488361,1000,1000,1000,1000,127328215,1000,1000,1000,1000
64490860,1000,1000,1000,1000,127428175,1000,1000,1000,1000
64493359,1000,1000,1000,1000,127528968,1000,1000,1000,1000
64495858,1000,1000,1000,1000,127628928,1000,1000,1000,1000
64498357,1000,1000,1000,1000,127728888,1000,1000,1000,1000
64500856,1000,1000,1000,1000,127828848,1000,1000,1000,1000
64503355,1000,1000,1000,1000,127928808,1000,1000,1000,1000
64505854,1000,1000,1000,1000,128028768,1000,1000,1000,1000
64508353,1000,1000,1000,1000,128128728,1000,1000,1000,1000
64510852,1000,1000,1000,1000,128228688,1000,1000,1000,1000
64513351,1000,1000,1000,1000,128328648,1000,1000,1000,1000
64515850,1000,1000,1000,1000,128428608,1000,1000,1000,1000
64518349,1000,1000,1000,1000,128528568,1000,1000,1000,1000
64520848,1000,1000,1000,1000,128628528,1000,1000,1000,1000
64523347,1000,1000,1000,1000,128728488,1000,1000,1000,1000
64525846,1000,1000,1000,1000,128828448,1000,1000,1000,1000
64528345,1000,1000,1000,1000,128928408,1000,1000,1000,1000
64530844,1000,1000,1000,1000,129028368,1000,1000,1000,1000
64533343,1000,1000,1000,1000,129128328,1000,1000,1000,1000
64535842,1000,1000,1000,1000,129228288,1000,1000,1000,1000
64538341,1000,1000,1000,1000,129328248,1000,1000,1000,1000
64540840,1000,1000,1000,1000,129428208,1000,1000,1000,1000
64543339,1000,1000,1000,1000,,,,,
64545838,1000,1000,1000,1000,,,,,
64548337,1000,1000,1000,1000,,,,,
64550836,1000,1000,1000,1000,,,,,
64553335,1000,1000,1000,1000,,,,,
64555834,1000,1000,1000,1000,,,,,
64558333,1000,1000,1000,1000,,,,,
64560832,1000,1000,1000,1000,,,,,
64563331,1000,1000,1000,1000,,,,,
64565830,1000,1000,1000,1000,,,,,
64568329,1000,1000,1000,1000,,,,,
64570828,1000,1000,1000,1000,,,,,
64573327,1000,1000,1000,1000,,,,,
64575826,1000,1000,1000,1000,,,,,
64578325,1000,1000,1000,1000,,,,,
64580824,1000,1000,1000,1000,,,,,
64583323,1000,1000,1000,1000,,,,,
64585822,1000,1000,1000,1000,,,,,
64588321,1000,1000,1000,1000,,,,,
64590820,1000,1000,1000,1000,,,,,
64593319,1000,1000,1000,1000,,,,,
64595818,1000,1000,1000,1000,,,,,
64598317,1000,1000,1000,1000,,,,,
64600816,1000,1000,1000,1000,,,,,
64603315,1000,1000,1000,1000,,,,,
64605814,1000,1000,1000,1000,,,,,
64608313,1000,1000,1000,1000,,,,,
64610812,1000,1000,1000,1000,,,,,
64613311,1000,1000,1000,1000,,,,,
64615810,1000,1000,1000,1000,,,,,
64618309,1000,1000,1000,1000,,,,,
64620808,1000,1000,1000,1000,,,,,
64623307,1000,1000,1000,1000,,,,,
64625806,1000,1000,1000,1000,,,,,
64628305,1000,1000,1000,1000,,,,,
64630804,1000,1000,1000,1000,,,,,
64633303,1000,1000,1000,1000,,,,,
64635802,1000,1000,1000,1000,,,,,
64638301,1000,1000,1000,1000,,,,,
64640800,1000,1000,1000,1000,,,,,
64643299,1000,1000,1000,1000,,,,,
64645798,1000,1000,1000,1000,,,,,
64648297,1000,1000,1000,1000,,,,,
64650796,1000,1000,1000,1000,,,,,
64653295,1000,1000,1000,1000,,,,,
64655794,1000,1000,1000,1000,,,,,
64658293,1000,1000,1000,1000,,,,,
64660792,1000,1000,1000,1000,,,,,
64663291,1000,1000,1000,1000,,,,,
64665790,1000,1000,1000,1000,,,,,
64668289,1000,1000,1000,1000,,,,,
64670788,1000,1000,1000,1000,,,,,
64673287,1000,1000,1000,1000,,,,,
64675786,1000,1000,1000,1000,,,,,
64678285,1000,1000,1000,1000,,,,,
64680784,1000,1000,1000,1000,,,,,
64683283,1000,1000,1000,1000,,,,,
64685782,1000,1000,1000,1000,,,,,
64688281,1000,1000,1000,1000,,,,,
64690780,1000,1000,1000,1000,,,,,
64693279,1000,1000,1000,1000,,,,,
64695778,1000,1000,1000,1000,,,,,
64698277,1000,1000,1000,1000,,,,,
64700776,1000,1000,1000,1000,,,,,
64703275,1000,1000,1000,1000,,,,,
64705774,1000,1000,1000,1000,,,,,
64708273,1000,1000,1000,1000,,,,,
64710772,1000,1000,1000,1000,,,,,
64713271,1000,1000,1000,1000,,,,,
64715770,1000,1000,1000,1000,,,,,
64718269,1000,1000,1000,1000,,,,,
64720768,1000,1000,1000,1000,,,,,
64723267,1000,1000,1000,1000,,,,,
64725766,1000,1000,1000,1000,,,,,
64728265,1000,1000,1000,1000,,,,,
64730764,1000,1000,1000,1000,,,,,
64733263,1000,1000,1000,1000,,,,,
64735762,1000,1000,1000,1000,,,,,
64738261,1000,1000,1000,1000,,,,,
64740760,1000,1000,1000,1000,,,,,
64743259,1000,1000,1000,1000,,,,,
64745758,1000,1000,1000,1000,,,,,
64748257,1000,1000,1000,1000,,,,,
64750756,1000,1000,1000,1000,,,,,
64753255,1000,1000,1000,1000,,,,,
64755754,1000,1000,1000,1000,,,,,
64758253,1000,1000,1000,1000,,,,,
64760752,1000,1000,1000,1000,,,,,
64763251,1000,1000,1000,1000,,,,,
64765750,1000,1000,1000,1000,,,,,
64768249,1000,1000,1000,1000,,,,,
64770748,1000,1000,1000,1000,,,,,
64773247,1000,1000,1000,1000,,,,,
64775746,1000,1000,1000,1000,,,,,
64778245,1000,1000,1000,1000,,,,,
64780744,1000,1000,1000,1000,,,,,
64783243,1000,1000,1000,1000,,,,,
64785742,1000,1000,1000,1000,,,,,
64788241,1000,1000,1000,1000,,,,,
64790740,1000,1000,1000,1000,,,,,
64793239,1000,1000,1000,1000,,,,,
64795738,1000,1000,1000,1000,,,,,
64798237,1000,1000,1000,1000,,,,,
64800736,1000,1000,1000,1000,,,,,
64803235,1000,1000,1000,1000,,,,,
64805734,1000,1000,1000,1000,,,,,
64808233,1000,1000,1000,1000,,,,,
64810732,1000,1000,1000,1000,,,,,
64813231,1000,1000,1000,1000,,,,,
64815730,1000,1000,1000,1000,,,,,
64818229,1000,1000,1000,1000,,,,,
64820728,1000,1000,1000,1000,,,,,
64823227,1000,1000,1000,1000,,,,,
64825726,1000,1000,1000,1000,,,,,
64828225,1000,1000,1000,1000,,,,,
64830724,1000,1000,1000,1000,,,,,
64833223,1000,1000,1000,1000,,,,,
64835722,1000,1000,1000,1000,,,,,
64838221,1000,1000,1000,1000,,,,,
64840720,1000,1000,1000,1000,,,,,
64843219,1000,1000,1000,1000,,,,,
64845718,1000,1000,1000,1000,,,,,
64848217,1000,1000,1000,1000,,,,,
64850716,1000,1000,1000,1000,,,,,
64853215,1000,1000,1000,1000,,,,,
64855714,1000,1000,1000,1000,,,,,
64858213,1000,1000,1000,1000,,,,,
64860712,1000,1000,1000,1000,,,,,
64863211,1000,1000,1000,1000,,,,,
64865710,1000,1000,1000,1000,,,,,
64868209,1000,1000,1000,1000,,,,,
64870708,1000,1000,1000,1000,,,,,
64873207,1000,1000,1000,1000,,,,,
64875706,1000,1000,1000,1000,,,,,
64878205,1000,1000,1000,1000,,,,,
64880704,1000,1000,1000,1000,,,,,
64883203,1000,1000,1000,1000,,,,,
64885702,1001,1001,1001,1001,,,,,
64888201,1002,1002,1002,1002,,,,,
64890700,1003,1003,1003,1003,,,,,
64893199,1003,1003,1003,1003,,,,,
64895698,1004,1004,1004,1004,,,,,
64898197,1005,1005,1005,1005,,,,,
64900696,1006,1006,1006,1006,,,,,
64903195,1006,1006,1006,1006,,,,,
64905694,1007,1007,1007,1007,,,,,
64908193,1008,1008,1008,1008,,,,,
64910692,1009,1009,1009,1009,,,,,
64913191,1009,1009,1009,1009,,,,,
64915690,1010,1010,1010,1010,,,,,
64918189,1011,1011,1011,1011,,,,,
64920688,1012,1012,1012,1012,,,,,
64923187,1012,1012,1012,1012,,,,,
64925686,1013,1013,1013,1013,,,,,
64928185,1014,1014,1014,1014,,,,,
64930684,1015,1015,1015,1015,,,,,
64933183,1015,1015,1015,1015,,,,,
64935682,1016,1016,1016,1016,,,,,
64938181,1017,1017,1017,1017,,,,,
64940680,1018,1018,1018,1018,,,,,
64943179,1018,1018,1018,1018,,,,,
64945678,1019,1019,1019,1019,,,,,
64948177,1020,1020,1020,1020,,,,,
64950676,1021,1021,1021,1021,,,,,
64953175,1021,1021,1021,1021,,,,,
64955674,1022,1022,1022,1022,,,,,
64958173,1023,1023,1023,1023,,,,,
64960672,1024,1024,1024,1024,,,,,
64963171,1024,1024,1024,1024,,,,,
64965670,1025,1025,1025,1025,,,,,
64968169,1026,1026,1026,1026,,,,,
64970668,1027,1027,1027,1027,,,,,
64973167,1027,1027,1027,1027,,,,,
64975666,1028,1028,1028,1028,,,,,
64978165,1029,1029,1029,1029,,,,,
64980664,1030,1030,1030,1030,,,,,
64983163,1030,1030,1030,1030,,,,,
64985662,1031,1031,1031,1031,,,,,
64988161,1032,1032,1032,1032,,,,,
64990660,1033,1033,1033,1033,,,,,
64993159,1033,1033,1033,1033,,,,,
64995658,1034,1034,1034,1034,,,,,
64998157,1035,1035,1035,1035,,,,,
65000656,1036,1036,1036,1036,,,,,
65003155,1036,1036,1036,1036,,,,,
65005654,1037,1037,1037,1037,,,,,
65008986,1038,1038,1038,1038,,,,,
65011485,1039,1039,1039,1039,,,,,
65013984,1039,1039,1039,1039,,,,,
65016483,1040,1040,1040,1040,,,,,
65018982,1041,1041,1041,1041,,,,,
65021481,1042,1042,1042,1042,,,,,
65023980,1042,1042,1042,1042,,,,,
65026479,1043,1043,1043,1043,,,,,
65028978,1044,1044,1044,1044,,,,,
65031477,1045,1045,1045,1045,,,,,
65033976,1045,1045,1045,1045,,,,,
65036475,1046,1046,1046,1046,,,,,
65038974,1047,1047,1047,1047,,,,,
65041473,1048,1048,1048,1048,,,,,
65043972,1048,1048,1048,1048,,,,,
65046471,1049,1049,1049,1049,,,,,
65048970,1050,1050,1050,1050,,,,,
65051469,1051,1051,1051,1051,,,,,
65053968,1051,1051,1051,1051,,,,,
65056467,1052,1052,1052,1052,,,,,
65058966,1053,1053,1053,1053,,,,,
65061465,1054,1054,1054,1054,,,,,
65063964,1054,1054,1054,1054,,,,,
65066463,1055,1055,1055,1055,,,,,
65068962,1056,1056,1056,1056,,,,,
65071461,1057,1057,1057,1057,,,,,
65073960,1057,1057,1057,1057,,,,,
65076459,1058,1058,1058,1058,,,,,
65078958,1059,1059,1059,1059,,,,,
65081457,1060,1060,1060,1060,,,,,
65083956,1060,1060,1060,1060,,,,,
65086455,1061,1061,1061,1061,,,,,
65088954,1062,1062,1062,1062,,,,,
65091453,1063,1063,1063,1063,,,,,
65093952,1063,1063,1063,1063,,,,,
65096451,1064,1064,1064,1064,,,,,
65098950,1065,1065,1065,1065,,,,,
65101449,1066,1066,1066,1066,,,,,
65103948,1066,1066,1066,1066,,,,,
65106447,1067,1067,1067,1067,,,,,
65108946,1068,1068,1068,1068,,,,,
65111445,1069,1069,1069,1069,,,,,
65113944,1069,1069,1069,1069,,,,,
65116443,1070,1070,1070,1070,,,,,
65118942,1071,1071,1071,1071,,,,,
65121441,1072,1072,1072,1072,,,,,
65123940,1072,1072,1072,1072,,,,,
65126439,1073,1073,1073,1073,,,,,
65128938,1074,1074,1074,1074,,,,,
65131437,1075,1075,1075,1075,,,,,
65133936,1075,1075,1075,1075,,,,,
65136435,1076,1076,1076,1076,,,,,
65138934,1077,1077,1077,1077,,,,,
65141433,1078,1078,1078,1078,,,,,
65143932,1078,1078,1078,1078,,,,,
65146431,1079,1079,1079,1079,,,,,
65148930,1080,1080,1080,1080,,,,,
65151429,1081,1081,1081,1081,,,,,
65153928,1081,1081,1081,1081,,,,,
65156427,1082,1082,1082,1082,,,,,
65158926,1083,1083,1083,1083,,,,,
65161425,1084,1084,1084,1084,,,,,
65163924,1084,1084,1084,1084,,,,,
65166423,1085,1085,1085,1085,,,,,
65168922,1086,1086,1086,1086,,,,,
65171421,1087,1087,1087,1087,,,,,
65173920,1087,1087,1087,1087,,,,,
65176419,1088,1088,1088,1088,,,,,
65178918,1089,1089,1089,1089,,,,,
65181417,1090,1090,1090,1090,,,,,
65183916,1090,1090,1090,1090,,,,,
65186415,1091,1091,1091,1091,,,,,
65188914,1092,1092,1092,1092,,,,,
65191413,1093,1093,1093,1093,,,,,
65193912,1093,1093,1093,1093,,,,,
65196411,1094,1094,1094,1094,,,,,
65198910,1095,1095,1095,1095,,,,,
65201409,1096,1096,1096,1096,,,,,
65203908,1096,1096,1096,1096,,,,,
65206407,1097,1097,1097,1097,,,,,
65208906,1098,1098,1098,1098,,,,,
65211405,1099,1099,1099,1099,,,,,
65213904,1099,1099,1099,1099,,,,,
65216403,1100,1100,1100,1100,,,,,
65218902,1101,1101,1101,1101,,,,,
65221401,1101,1101,1101,1101,,,,,
65223900,1102,1102,1102,1102,,,,,
65226399,1103,1103,1103,1103,,,,,
65228898,1104,1104,1104,1104,,,,,
65231397,1104,1104,1104,1104,,,,,
65233896,1105,1105,1105,1105,,,,,
65236395,1106,1106,1106,1106,,,,,
65238894,1107,1107,1107,1107,,,,,
65241393,1107,1107,1107,1107,,,,,
65243892,1108,1108,1108,1108,,,,,
65246391,1109,1109,1109,1109,,,,,
65248890,1110,1110,1110,1110,,,,,
65251389,1110,1110,1110,1110,,,,,
65253888,1111,1111,1111,1111,,,,,
65256387,1112,1112,1112,1112,,,,,
65258886,1113,1113,1113,1113,,,,,
65261385,1113,1113,1113,1113,,,,,
65263884,1114,1114,1114,1114,,,,,
65266383,1115,1115,1115,1115,,,,,
65268882,1116,1116,1116,1116,,,,,
65271381,1116,1116,1116,1116,,,,,
65273880,1117,1117,1117,1117,,,,,
65276379,1118,1118,1118,1118,,,,,
65278878,1119,1119,1119,1119,,,,,
65281377,1119,1119,1119,1119,,,,,
65283876,1120,1120,1120,1120,,,,,
65286375,1121,1121,1121,1121,,,,,
65288874,1122,1122,1122,1122,,,,,
65291373,1122,1122,1122,1122,,,,,
65293872,1123,1123,1123,1123,,,,,
65296371,1124,1124,1124,1124,,,,,
65298870,1125,1125,1125,1125,,,,,
65301369,1125,1125,1125,1125,,,,,
65303868,1126,1126,1126,1126,,,,,
65306367,1127,1127,1127,1127,,,,,
65308866,1128,1128,1128,1128,,,,,
65311365,1128,1128,1128,1128,,,,,
65313864,1129,1129,1129,1129,,,,,
65316363,1130,1130,1130,1130,,,,,
65318862,1131,1131,1131,1131,,,,,
65321361,1131,1131,1131,1131,,,,,
65323860,1132,1132,1132,1132,,,,,
65326359,1133,1133,1133,1133,,,,,
65328858,1134,1134,1134,1134,,,,,
65331357,1134,1134,1134,1134,,,,,
65333856,1135,1135,1135,1135,,,,,
65336355,1136,1136,1136,1136,,,,,
65338854,1137,1137,1137,1137,,,,,
65341353,1137,1137,1137,1137,,,,,
65343852,1138,1138,1138,1138,,,,,
65346351,1139,1139,1139,1139,,,,,
65348850,1140,1140,1140,1140,,,,,
65351349,1140,1140,1140,1140,,,,,
65353848,1141,1141,1141,1141,,,,,
65356347,1142,1142,1142,1142,,,,,
65358846,1143,1143,1143,1143,,,,,
65361345,1143,1143,1143,1143,,,,,
65363844,1144,1144,1144,1144,,,,,
65366343,1145,1145,1145,1145,,,,,
65368842,1146,1146,1146,1146,,,,,
65371341,1146,1146,1146,1146,,,,,
65373840,1147,1147,1147,1147,,,,,
65376339,1148,1148,1148,1148,,,,,
65378838,1149,1149,1149,1149,,,,,
65381337,1149,1149,1149,1149,,,,,
65383836,1150,1150,1150,1150,,,,,
65386335,1162,1152,1153,1163,,,,,
65388834,1170,1160,1161,1171,,,,,
65391333,1178,1168,1169,1179,,,,,
65393832,1186,1176,1177,1187,,,,,
65396331,1193,1184,1185,1194,,,,,
65398830,1201,1192,1192,1201,,,,,
65401329,1208,1199,1200,1209,,,,,
65403828,1215,1206,1207,1216,,,,,
65406327,1222,1213,1214,1223,,,,,
65408826,1229,1221,1221,1230,,,,,
65411325,1236,1228,1228,1237,,,,,
65413824,1243,1234,1235,1244,,,,,
65416323,1250,1241,1242,1250,,,,,
65418822,1256,1248,1249,1257,,,,,
65421321,1263,1255,1255,1263,,,,,
65423820,1269,1261,1262,1270,,,,,
65426319,1276,1267,1268,1276,,,,,
65428818,1282,1274,1274,1282,,,,,
65431317,1288,1280,1281,1289,,,,,
65433816,1294,1286,1287,1295,,,,,
65436315,1300,1292,1293,1301,,,,,
65438814,1306,1298,1299,1307,,,,,
65441313,1312,1304,1305,1313,,,,,
65443812,1318,1310,1311,1319,,,,,
65446311,1324,1316,1317,1325,,,,,
65448810,1330,1322,1323,1330,,,,,
65451309,1335,1328,1328,1336,,,,,
65453808,1341,1334,1334,1342,,,,,
65456307,1347,1339,1340,1347,,,,,
65458806,1352,1345,1345,1353,,,,,
65461305,1358,1350,1351,1358,,,,,
65463804,1363,1356,1356,1364,,,,,
65466303,1369,1361,1362,1369,,,,,
65468802,1374,1367,1367,1374,,,,,
65471301,1379,1372,1372,1380,,,,,
65473800,1384,1377,1378,1385,,,,,
65476299,1390,1383,1383,1390,,,,,
65478798,1395,1388,1388,1395,,,,,
65481297,1400,1393,1393,1401,,,,,
65483796,1405,1398,1398,1406,,,,,
65486295,1410,1403,1404,1411,,,,,
65488794,1415,1408,1409,1416,,,,,
65491293,1420,1413,1414,1421,,,,,
65493792,1425,1418,1419,1426,,,,,
65496291,1430,1423,1423,1431,,,,,
65498790,1435,1428,1428,1435,,,,,
65501289,1440,1433,1433,1440,,,,,
65503788,1445,1438,1438,1445,,,,,
65506287,1449,1443,1443,1450,,,,,
65508786,1454,1447,1448,1455,,,,,
65511285,1459,1452,1452,1459,,,,,
65513784,1463,1457,1457,1464,,,,,
65516283,1468,1461,1462,1469,,,,,
65518782,1473,1466,1466,1473,,,,,
65521281,1477,1471,1471,1478,,,,,
65523780,1482,1475,1476,1482,,,,,
65526279,1486,1480,1480,1487,,,,,
65528778,1491,1484,1485,1491,,,,,
65531277,1495,1489,1489,1496,,,,,
65533776,1500,1493,1494,1500,,,,,
65536275,1504,1498,1498,1505,,,,,
65538774,1509,1502,1503,1509,,,,,
65541273,1513,1507,1507,1513,,,,,
65543772,1517,1511,1511,1518,,,,,
65546271,1522,1515,1516,1522,,,,,
65548770,1526,1520,1520,1526,,,,,
65551269,1530,1524,1524,1531,,,,,
65553768,1534,1528,1529,1535,,,,,
65556267,1539,1532,1533,1539,,,,,
65558766,1543,1537,1537,1543,,,,,
65561265,1547,1541,1541,1547,,,,,
65563764,1551,1545,1545,1551,,,,,
65566263,1555,1549,1550,1556,,,,,
65568762,1559,1553,1554,1560,,,,,
65571261,1563,1557,1558,1564,,,,,
65573760,1568,1561,1562,1568,,,,,
65576259,1572,1565,1566,1572,,,,,
65578758,1576,1570,1570,1576,,,,,
65581257,1580,1574,1574,1580,,,,,
65583756,1584,1578,1578,1584,,,,,
65586255,1588,1582,1582,1588,,,,,
65588754,1592,1586,1586,1592,,,,,
65591253,1595,1590,1590,1596,,,,,
65593752,1599,1593,1594,1600,,,,,
65596251,1603,1597,1598,1604,,,,,
65598750,1607,1601,1602,1607,,,,,
65601249,1611,1605,1606,1611,,,,,
65603748,1615,1609,1610,1615,,,,,
65606247,1619,1613,1613,1619,,,,,
65608746,1623,1617,1617,1623,,,,,
65611245,1626,1621,1621,1627,,,,,
65613744,1630,1624,1625,1630,,,,,
65616243,1634,1628,1629,1634,,,,,
65618742,1638,1632,1632,1638,,,,,
65621241,1641,1636,1636,1642,,,,,
65623740,1645,1639,1640,1645,,,,,
65626239,1649,1643,1644,1649,,,,,
65628738,1652,1647,1647,1653,,,,,
65631237,1656,1650,1651,1656,,,,,
65633736,1660,1654,1655,1660,,,,,
65636235,1663,1658,1658,1664,,,,,
65638734,1667,1661,1662,1667,,,,,
65641233,1671,1665,1666,1671,,,,,
65643732,1674,1669,1669,1675,,,,,
65646231,1678,1672,1673,1678,,,,,
65648730,1681,1676,1676,1682,,,,,
65651229,1685,1680,1680,1685,,,,,
65653728,1688,1683,1683,1689,,,,,
65656227,1692,1687,1687,1692,,,,,
65658726,1696,1690,1690,1696,,,,,
65661225,1699,1694,1694,1699,,,,,
65663724,1703,1697,1697,1703,,,,,
65666223,1706,1701,1701,1706,,,,,
65668722,1709,1704,1704,1710,,,,,
65671221,1713,1708,1708,1713,,,,,
65673720,1716,1711,1711,1717,,,,,
65676219,1720,1715,1715,1720,,,,,
65678718,1723,1718,1718,1724,,,,,
65681217,1727,1721,1722,1727,,,,,
65683716,1730,1725,1725,1731,,,,,
65686215,1733,1728,1728,1734,,,,,
65688714,1737,1732,1732,1737,,,,,
65691213,1740,1735,1735,1741,,,,,
65693712,1744,1738,1738,1744,,,,,
65696211,1747,1742,1742,1747,,,,,
65698710,1750,1745,1745,1751,,,,,
65701209,1753,1748,1748,1754,,,,,
65703708,1757,1752,1752,1757,,,,,
65706207,1760,1755,1755,1761,,,,,
65708706,1763,1758,1758,1764,,,,,
65711205,1767,1761,1762,1767,,,,,
65713704,1770,1765,1765,1770,,,,,
65716203,1773,1768,1768,1774,,,,,
65718702,1777,1771,1771,1777,,,,,
65721201,1780,1774,1775,1780,,,,,
65723700,1783,1778,1778,1783,,,,,
65726199,1786,1781,1781,1787,,,,,
65728698,1789,1784,1784,1790,,,,,
65731197,1793,1787,1788,1793,,,,,
65733696,1796,1790,1791,1796,,,,,
65736195,1799,1793,1794,1799,,,,,
65738694,1802,1797,1797,1802,,,,,
65741193,1805,1800,1800,1806,,,,,
65743692,1809,1803,1804,1809,,,,,
65746191,1812,1806,1807,1812,,,,,
65748690,1815,1809,1810,1815,,,,,
65751189,1818,1812,1813,1818,,,,,
65753688,1821,1815,1816,1821,,,,,
65756187,1824,1818,1819,1824,,,,,
65758686,1827,1822,1822,1827,,,,,
65761185,1830,1825,1825,1830,,,,,
65763684,1833,1828,1828,1833,,,,,
65766183,1837,1831,1831,1836,,,,,
65768682,1840,1834,1835,1840,,,,,
65771181,1843,1837,1838,1843,,,,,
65773680,1846,1840,1841,1846,,,,,
65776179,1849,1843,1844,1849,,,,,
65778678,1852,1846,1847,1852,,,,,
65781177,1855,1849,1850,1855,,,,,
65783676,1858,1852,1853,1858,,,,,
65786175,1861,1855,1856,1861,,,,,
65788674,1864,1858,1859,1864,,,,,
65791173,1867,1861,1862,1867,,,,,
65793672,1870,1864,1865,1870,,,,,
65796171,1873,1867,1868,1873,,,,,
65798670,1876,1870,1871,1876,,,,,
65801169,1879,1873,1873,1879,,,,,
65803668,1881,1876,1876,1881,,,,,
65806167,1884,1879,1879,1884,,,,,
65808666,1887,1882,1882,1887,,,,,
65811165,1890,1885,1885,1890,,,,,
65813664,1893,1888,1888,1893,,,,,
65816163,1895,1889,1890,1895,,,,,
65818662,1894,1888,1889,1894,,,,,
65821161,1893,1887,1888,1893,,,,,
65823660,1892,1886,1887,1892,,,,,
65826159,1891,1885,1886,1891,,,,,
65828658,1890,1884,1885,1890,,,,,
65831157,1889,1884,1884,1889,,,,,
65833656,1888,1883,1883,1888,,,,,
65836155,1887,1882,1883,1887,,,,,
65838654,1887,1881,1882,1887,,,,,
65841153,1886,1881,1881,1886,,,,,
65843652,1885,1880,1881,1886,,,,,
65846151,1885,1880,1880,1885,,,,,
65848650,1885,1879,1880,1885,,,,,
65851149,1884,1879,1879,1884,,,,,
65853648,1884,1879,1879,1884,,,,,
65856147,1884,1878,1879,1884,,,,,
65858646,1884,1878,1879,1884,,,,,
65861145,1884,1878,1879,1884,,,,,
65863644,1884,1878,1879,1884,,,,,
65866143,1884,1878,1879,1884,,,,,
65868642,1884,1878,1879,1884,,,,,
65871141,1884,1879,1879,1884,,,,,
65873640,1884,1879,1880,1885,,,,,
65876139,1885,1879,1880,1885,,,,,
65878638,1885,1880,1881,1885,,,,,
65881137,1885,1880,1881,1886,,,,,
65883636,1886,1881,1882,1886,,,,,
65886135,1886,1881,1882,1886,,,,,
65888634,1886,1882,1882,1887,,,,,
65891133,1887,1882,1883,1887,,,,,
65893632,1887,1882,1883,1887,,,,,
65896131,1886,1882,1883,1887,,,,,
65898630,1886,1882,1883,1887,,,,,
65901129,1886,1882,1883,1886,,,,,
65903628,1885,1882,1882,1886,,,,,
65906127,1885,1881,1882,1885,,,,,
65908626,1884,1880,1881,1884,,,,,
65911125,1883,1879,1880,1883,,,,,
65913624,1882,1878,1879,1882,,,,,
65916123,1880,1877,1877,1881,,,,,
65918622,1879,1876,1876,1879,,,,,
65921121,1877,1874,1874,1878,,,,,
65923620,1876,1872,1873,1876,,,,,
65926119,1874,1871,1871,1874,,,,,
65928618,1872,1869,1869,1872,,,,,
65931117,1869,1866,1867,1870,,,,,
65933616,1867,1864,1865,1868,,,,,
65936115,1865,1862,1862,1865,,,,,
65938614,1862,1860,1860,1863,,,,,
65941113,1860,1857,1857,1860,,,,,
65943612,1857,1855,1855,1858,,,,,
65946111,1855,1852,1852,1855,,,,,
65948610,1852,1849,1850,1852,,,,,
65951109,1849,1847,1847,1849,,,,,
65953608,1846,1844,1844,1847,,,,,
65956107,1843,1841,1841,1844,,,,,
65958606,1840,1838,1838,1841,,,,,
65961105,1837,1835,1836,1838,,,,,
65963604,1834,1832,1833,1835,,,,,
65966103,1831,1829,1830,1832,,,,,
65968602,1828,1826,1827,1829,,,,,
65971101,1825,1823,1823,1825,,,,,
65973600,1822,1820,1820,1822,,,,,
65976099,1819,1817,1817,1819,,,,,
65978598,1816,1814,1814,1816,,,,,
65981097,1812,1811,1811,1813,,,,,
65983596,1809,1808,1808,1810,,,,,
65986095,1806,1804,1805,1806,,,,,
65988594,1803,1801,1802,1803,,,,,
65991093,1800,1798,1798,1800,,,,,
65993592,1796,1795,1795,1797,,,,,
65996091,1793,1792,1792,1794,,,,,
65998590,1790,1789,1789,1790,,,,,
66001089,1787,1785,1786,1787,,,,,
66003588,1783,1782,1782,1784,,,,,
66006087,1780,1779,1779,1781,,,,,
66008586,1777,1776,1776,1778,,,,,
66011085,1774,1773,1773,1774,,,,,
66013584,1771,1770,1770,1771,,,,,
66016083,1767,1767,1767,1768,,,,,
66018582,1764,1764,1764,1765,,,,,
66021081,1761,1761,1761,1762,,,,,
66023580,1758,1758,1758,1759,,,,,
66026079,1755,1755,1755,1755,,,,,
66028578,1752,1751,1752,1752,,,,,
66031077,1749,1748,1748,1749,,,,,
66033576,1746,1745,1745,1746,,,,,
66036075,1743,1742,1742,1743,,,,,
66038574,1740,1740,1739,1740,,,,,
66041073,1737,1737,1737,1737,,,,,
66043572,1734,1734,1734,1734,,,,,
66046071,1731,1731,1731,1731,,,,,
66048570,1728,1728,1728,1729,,,,,
66051069,1725,1725,1725,1726,,,,,
66053568,1722,1723,1723,1723,,,,,
66056067,1719,1720,1720,1720,,,,,
66058566,1717,1717,1717,1717,,,,,
66061065,1714,1715,1714,1715,,,,,
66063564,1711,1712,1712,1712,,,,,
66066063,1709,1709,1709,1709,,,,,
66068562,1706,1707,1707,1707,,,,,
66071061,1704,1704,1704,1704,,,,,
66073560,1701,1702,1702,1702,,,,,
66076059,1699,1699,1699,1699,,,,,
66078558,1696,1697,1697,1697,,,,,
66081057,1694,1695,1695,1694,,,,,
66083556,1691,1692,1692,1692,,,,,
66086055,1689,1690,1690,1690,,,,,
