TimeUS,M1,M2,M3,M4,TimeUS,C1,C2,C3,C4
58455775,1000,1000,1000,1000,58528246,1000,1000,1000,1000
58458274,1000,1000,1000,1000,58628206,1000,1000,1000,1000
58460773,1000,1000,1000,1000,58728166,1000,1000,1000,1000
58463272,1000,1000,1000,1000,58828959,1000,1000,1000,1000
58465771,1000,1000,1000,1000,58928919,1000,1000,1000,1000
58468270,1000,1000,1000,1000,59028879,1000,1000,1000,1000
58470769,1000,1000,1000,1000,59128839,1000,1000,1000,1000
58473268,1000,1000,1000,1000,59228799,1000,1000,1000,1000
58475767,1000,1000,1000,1000,59328759,1000,1000,1000,1000
58478266,1000,1000,1000,1000,59428719,1000,1000,1000,1000
58480765,1000,1000,1000,1000,59528679,1000,1000,1000,1000
58483264,1000,1000,1000,1000,59628639,1000,1000,1000,1000
58485763,1000,1000,1000,1000,59728599,1000,1000,1000,1000
58488262,1000,1000,1000,1000,59828559,1000,1000,1000,1000
58490761,1000,1000,1000,1000,59928519,1000,1000,1000,1000
58493260,1000,1000,1000,1000,60028479,1000,1000,1000,1000
58495759,1000,1000,1000,1000,60128439,1000,1000,1000,1000
58498258,1000,1000,1000,1000,60228399,1000,1000,1000,1000
58500757,1000,1000,1000,1000,60328359,1000,1000,1000,1000
58503256,1000,1000,1000,1000,60428319,1000,1000,1000,1000
58505755,1000,1000,1000,1000,60528279,1021,1021,1021,1021
58508254,1000,1000,1000,1000,60628239,1051,1051,1051,1051
58510753,1000,1000,1000,1000,60728199,1081,1081,1081,1081
58513252,1000,1000,1000,1000,60828159,1111,1111,1111,1111
58515751,1000,1000,1000,1000,60928952,1141,1141,1141,1141
58518250,1000,1000,1000,1000,61028912,1341,1334,1335,1341
58520749,1000,1000,1000,1000,61128872,1534,1528,1529,1535
58523248,1000,1000,1000,1000,61228832,1689,1683,1683,1689
58525747,1000,1000,1000,1000,61328792,1821,1816,1816,1821
58528246,1000,1000,1000,1000,61428752,1853,1847,1847,1853
58530745,1000,1000,1000,1000,61528712,1838,1836,1836,1839
58533244,1000,1000,1000,1000,61628672,1710,1711,1711,1711
58535743,1000,1000,1000,1000,61728632,1629,1631,1631,1630
58538242,1000,1000,1000,1000,61828592,1616,1618,1618,1617
58540741,1000,1000,1000,1000,61928552,1630,1632,1632,1630
58543240,1000,1000,1000,1000,62028512,1636,1636,1633,1638
58545739,1000,1000,1000,1000,62128472,1630,1631,1624,1636
58548238,1000,1000,1000,1000,62228432,1623,1624,1620,1627
58550737,1000,1000,1000,1000,62328392,1618,1619,1618,1619
58553236,1000,1000,1000,1000,62428352,1619,1618,1620,1616
58555735,1000,1000,1000,1000,62528312,1619,1619,1623,1616
58558234,1000,1000,1000,1000,62628272,1622,1621,1625,1618
58560733,1000,1000,1000,1000,62728232,1624,1624,1627,1621
58563232,1000,1000,1000,1000,62828192,1596,1596,1605,1588
58565731,1000,1000,1000,1000,62928985,1580,1580,1589,1572
58568230,1000,1000,1000,1000,63028945,1568,1568,1571,1567
58570729,1000,1000,1000,1000,63128905,1558,1559,1555,1563
58573228,1000,1000,1000,1000,63228865,1550,1549,1541,1558
58575727,1000,1000,1000,1000,63328825,1542,1542,1532,1552
58578226,1000,1000,1000,1000,63428785,1537,1537,1529,1544
58580725,1000,1000,1000,1000,63528745,1531,1531,1527,1534
58583224,1000,1000,1000,1000,63628705,1528,1528,1528,1527
58585723,1000,1000,1000,1000,63728665,1528,1528,1529,1526
58588222,1000,1000,1000,1000,63828625,1530,1530,1533,1527
58590721,1000,1000,1000,1000,63928585,1533,1533,1536,1530
58593220,1000,1000,1000,1000,64028545,1536,1536,1539,1534
58595719,1000,1000,1000,1000,64128505,1540,1540,1542,1538
58598218,1000,1000,1000,1000,64228465,1543,1543,1544,1543
58600717,1000,1000,1000,1000,64328425,1546,1547,1547,1547
58603216,1000,1000,1000,1000,64428385,1549,1550,1549,1550
58605715,1000,1000,1000,1000,64528345,1552,1552,1551,1554
58608214,1000,1000,1000,1000,64628305,1555,1555,1554,1556
58610713,1000,1000,1000,1000,64728265,1555,1555,1557,1559
58613212,1000,1000,1000,1000,64828225,1557,1556,1560,1561
58615711,1000,1000,1000,1000,64928185,1558,1558,1563,1563
58618210,1000,1000,1000,1000,65028978,1560,1561,1565,1565
58620709,1000,1000,1000,1000,65128938,1562,1563,1566,1566
58623208,1000,1000,1000,1000,65228898,1565,1565,1567,1567
58625707,1000,1000,1000,1000,65328858,1567,1566,1567,1567
58628206,1000,1000,1000,1000,65428818,1568,1569,1568,1567
58630705,1000,1000,1000,1000,65528778,1570,1570,1568,1568
58633204,1000,1000,1000,1000,65628738,1571,1571,1568,1569
58635703,1000,1000,1000,1000,65728698,1572,1572,1569,1570
58638202,1000,1000,1000,1000,65828658,1573,1573,1570,1570
58640701,1000,1000,1000,1000,65928618,1573,1574,1571,1571
58643200,1000,1000,1000,1000,66028578,1574,1574,1572,1571
58645699,1000,1000,1000,1000,66128538,1575,1574,1573,1572
58648198,1000,1000,1000,1000,66228498,1575,1575,1574,1573
58650697,1000,1000,1000,1000,66328458,1576,1576,1576,1575
58653196,1000,1000,1000,1000,66428418,1575,1575,1575,1575
58655695,1000,1000,1000,1000,66528378,1575,1575,1575,1575
58658194,1000,1000,1000,1000,66628338,1576,1576,1576,1576
58660693,1000,1000,1000,1000,66728298,1575,1575,1576,1575
58663192,1000,1000,1000,1000,66828258,1575,1575,1576,1576
58665691,1000,1000,1000,1000,66928218,1575,1575,1576,1576
58668190,1000,1000,1000,1000,67028178,1576,1576,1577,1577
58670689,1000,1000,1000,1000,67128971,1577,1577,1577,1577
58673188,1000,1000,1000,1000,67228931,1577,1578,1578,1578
58675687,1000,1000,1000,1000,67328891,1577,1577,1577,1577
58678186,1000,1000,1000,1000,67428851,1578,1579,1579,1578
58680685,1000,1000,1000,1000,67528811,1578,1577,1578,1577
58683184,1000,1000,1000,1000,67628771,1578,1578,1578,1578
58685683,1000,1000,1000,1000,67728731,1578,1578,1577,1577
58688182,1000,1000,1000,1000,67828691,1578,1578,1577,1578
58690681,1000,1000,1000,1000,67928651,1578,1578,1577,1578
58693180,1000,1000,1000,1000,68028611,1578,1579,1578,1578
58695679,1000,1000,1000,1000,68128571,1578,1577,1578,1577
58698178,1000,1000,1000,1000,68228531,1579,1579,1580,1579
58700677,1000,1000,1000,1000,68328491,1579,1579,1579,1580
58703176,1000,1000,1000,1000,68428451,1578,1579,1579,1579
58705675,1000,1000,1000,1000,68528411,1578,1579,1579,1579
58708174,1000,1000,1000,1000,68628371,1579,1579,1580,1580
58710673,1000,1000,1000,1000,68728331,1579,1578,1579,1579
58713172,1000,1000,1000,1000,68828291,1580,1581,1581,1581
58715671,1000,1000,1000,1000,68928251,1581,1581,1581,1581
58718170,1000,1000,1000,1000,69028211,1580,1580,1580,1579
58720669,1000,1000,1000,1000,69128171,1579,1579,1579,1578
58723168,1000,1000,1000,1000,69228964,1579,1579,1579,1578
58725667,1000,1000,1000,1000,69328924,1580,1580,1579,1580
58728166,1000,1000,1000,1000,69428884,1580,1580,1580,1580
58730665,1000,1000,1000,1000,69528844,1580,1580,1580,1580
58733164,1000,1000,1000,1000,69628804,1580,1581,1581,1580
58735663,1000,1000,1000,1000,69728764,1581,1581,1581,1580
58738162,1000,1000,1000,1000,69828724,1581,1580,1581,1581
58740661,1000,1000,1000,1000,69928684,1581,1581,1581,1581
58743160,1000,1000,1000,1000,70028644,1581,1581,1581,1581
58745659,1000,1000,1000,1000,70128604,1581,1580,1581,1581
58748158,1000,1000,1000,1000,70228564,1581,1581,1581,1581
58750657,1000,1000,1000,1000,70328524,1581,1581,1581,1581
58753156,1000,1000,1000,1000,70428484,1581,1581,1581,1581
58755655,1000,1000,1000,1000,70528444,1581,1580,1581,1581
58758154,1000,1000,1000,1000,70628404,1581,1580,1581,1580
58761486,1000,1000,1000,1000,70728364,1581,1581,1581,1581
58763985,1000,1000,1000,1000,70828324,1581,1581,1581,1580
58766484,1000,1000,1000,1000,70928284,1581,1582,1588,1574
58768983,1000,1000,1000,1000,71028244,1581,1583,1586,1574
58771482,1000,1000,1000,1000,71128204,1578,1581,1576,1573
58773981,1000,1000,1000,1000,71228164,1577,1580,1567,1572
58776480,1000,1000,1000,1000,71328957,1577,1579,1561,1568
58778979,1000,1000,1000,1000,71428917,1578,1578,1557,1563
58781478,1000,1000,1000,1000,71528877,1578,1577,1555,1558
58783977,1000,1000,1000,1000,71628837,1579,1577,1555,1555
58786476,1000,1000,1000,1000,71728797,1579,1577,1556,1554
58788975,1000,1000,1000,1000,71828757,1579,1578,1557,1553
58791474,1000,1000,1000,1000,71928717,1576,1577,1555,1553
58793973,1000,1000,1000,1000,72028677,1575,1576,1555,1553
58796472,1000,1000,1000,1000,72128637,1574,1576,1554,1553
58798971,1000,1000,1000,1000,72228597,1574,1576,1553,1552
58801470,1000,1000,1000,1000,72328557,1576,1577,1552,1552
58803969,1000,1000,1000,1000,72428517,1576,1578,1550,1550
58806468,1000,1000,1000,1000,72528477,1580,1580,1548,1549
58808967,1000,1000,1000,1000,72628437,1582,1583,1546,1546
58811466,1000,1000,1000,1000,72728397,1584,1585,1543,1543
58813965,1000,1000,1000,1000,72828357,1587,1589,1541,1540
58816464,1000,1000,1000,1000,72928317,1590,1590,1537,1537
58818963,1000,1000,1000,1000,73028277,1593,1593,1535,1536
58821462,1000,1000,1000,1000,73128237,1595,1595,1534,1535
58823961,1000,1000,1000,1000,73228197,1595,1595,1535,1536
58826460,1000,1000,1000,1000,73328157,1594,1594,1536,1538
58828959,1000,1000,1000,1000,73428950,1592,1592,1539,1542
58831458,1000,1000,1000,1000,73528910,1588,1587,1544,1548
58833957,1000,1000,1000,1000,73628870,1582,1580,1553,1555
58836456,1000,1000,1000,1000,73728830,1574,1571,1564,1566
58838955,1000,1000,1000,1000,73828790,1564,1560,1575,1577
58841454,1000,1000,1000,1000,73928750,1551,1548,1587,1587
58843953,1000,1000,1000,1000,74028710,1541,1539,1598,1598
58846452,1000,1000,1000,1000,74128670,1534,1533,1608,1608
58848951,1000,1000,1000,1000,74228630,1529,1530,1614,1612
58851450,1000,1000,1000,1000,74328590,1528,1530,1616,1614
58853949,1000,1000,1000,1000,74428550,1532,1535,1614,1614
58856448,1000,1000,1000,1000,74528510,1536,1539,1608,1609
58858947,1000,1000,1000,1000,74628470,1545,1547,1602,1603
58861446,1000,1000,1000,1000,74728430,1554,1554,1595,1595
58863945,1000,1000,1000,1000,74828390,1563,1563,1588,1587
58866444,1000,1000,1000,1000,74928350,1571,1571,1581,1580
58868943,1000,1000,1000,1000,75028310,1578,1577,1575,1574
58871442,1000,1000,1000,1000,75128270,1584,1582,1571,1570
58873941,1000,1000,1000,1000,75228230,1587,1586,1568,1568
58876440,1000,1000,1000,1000,75328190,1588,1587,1566,1566
58878939,1000,1000,1000,1000,75428983,1587,1586,1566,1567
58881438,1000,1000,1000,1000,75528943,1587,1586,1569,1569
58883937,1000,1000,1000,1000,75628903,1584,1583,1571,1571
58886436,1000,1000,1000,1000,75728863,1580,1580,1573,1573
58888935,1000,1000,1000,1000,75828823,1577,1577,1576,1576
58891434,1000,1000,1000,1000,75928783,1574,1575,1579,1578
58893933,1000,1000,1000,1000,76028743,1572,1573,1581,1580
58896432,1000,1000,1000,1000,76128703,1573,1574,1583,1583
58898931,1000,1000,1000,1000,76228663,1572,1573,1583,1584
58901430,1000,1000,1000,1000,76328623,1572,1573,1583,1584
58903929,1000,1000,1000,1000,76428583,1572,1573,1582,1582
58906428,1000,1000,1000,1000,76528543,1574,1574,1582,1582
58908927,1000,1000,1000,1000,76628503,1575,1576,1581,1581
58911426,1000,1000,1000,1000,76728463,1577,1577,1579,1580
58913925,1000,1000,1000,1000,76828423,1578,1578,1578,1578
58916424,1000,1000,1000,1000,76928383,1580,1580,1578,1578
58918923,1000,1000,1000,1000,77028343,1580,1580,1577,1577
58921422,1000,1000,1000,1000,77128303,1581,1581,1577,1577
58923921,1000,1000,1000,1000,77228263,1581,1581,1577,1576
58926420,1000,1000,1000,1000,77328223,1582,1582,1577,1577
58928919,1000,1000,1000,1000,77428183,1581,1581,1578,1577
58931418,1000,1000,1000,1000,77528976,1581,1581,1578,1578
58933917,1000,1000,1000,1000,77628936,1580,1580,1579,1579
58936416,1000,1000,1000,1000,77728896,1638,1583,1580,1581
58938915,1000,1000,1000,1000,77828856,1608,1593,1574,1572
58941414,1000,1000,1000,1000,77928816,1588,1597,1573,1573
58943913,1000,1000,1000,1000,78028776,1577,1597,1576,1577
58946412,1000,1000,1000,1000,78128736,1572,1591,1577,1579
58948911,1000,1000,1000,1000,78228696,1573,1584,1581,1582
58951410,1000,1000,1000,1000,78328656,1574,1577,1583,1584
58953909,1000,1000,1000,1000,78428616,1576,1572,1584,1584
58956408,1000,1000,1000,1000,78528576,1578,1571,1586,1586
58958907,1000,1000,1000,1000,78628536,1577,1571,1586,1585
58961406,1000,1000,1000,1000,78728496,1576,1573,1585,1584
58963905,1000,1000,1000,1000,78828456,1577,1576,1585,1584
58966404,1000,1000,1000,1000,78928416,1576,1579,1590,1576
58968903,1000,1000,1000,1000,79028376,1575,1580,1586,1573
58971402,1000,1000,1000,1000,79128336,1576,1581,1577,1573
58973901,1000,1000,1000,1000,79228296,1578,1581,1567,1570
58976400,1000,1000,1000,1000,79328256,1579,1581,1558,1565
58978899,1000,1000,1000,1000,79428216,1582,1582,1553,1560
58981398,1000,1000,1000,1000,79528176,1585,1584,1551,1555
58983897,1000,1000,1000,1000,79628969,1586,1584,1550,1551
58986396,1000,1000,1000,1000,79728929,1586,1584,1551,1550
58988895,1000,1000,1000,1000,79828889,1584,1583,1552,1549
58991394,1000,1000,1000,1000,79928849,1582,1582,1553,1551
58993893,1000,1000,1000,1000,80028809,1580,1581,1553,1552
58996392,1000,1000,1000,1000,80128769,1579,1580,1554,1554
58998891,1000,1000,1000,1000,80228729,1577,1579,1553,1553
59001390,1000,1000,1000,1000,80328689,1577,1578,1552,1552
59003889,1000,1000,1000,1000,80428649,1578,1579,1552,1552
59006388,1000,1000,1000,1000,80528609,1580,1580,1550,1551
59008887,1000,1000,1000,1000,80628569,1582,1583,1549,1549
59011386,1000,1000,1000,1000,80728529,1583,1584,1547,1547
59013885,1000,1000,1000,1000,80828489,1586,1588,1545,1545
59016384,1000,1000,1000,1000,80928449,1590,1591,1542,1543
59018883,1000,1000,1000,1000,81028409,1592,1593,1539,1541
59021382,1000,1000,1000,1000,81128369,1594,1593,1540,1541
59023881,1000,1000,1000,1000,81228329,1594,1592,1542,1544
59026380,1000,1000,1000,1000,81328289,1592,1589,1547,1549
59028879,1000,1000,1000,1000,81428249,1586,1583,1554,1556
59031378,1000,1000,1000,1000,81528209,1580,1576,1565,1567
59033877,1000,1000,1000,1000,81628169,1570,1567,1575,1576
59036376,1000,1000,1000,1000,81728962,1560,1557,1586,1586
59038875,1000,1000,1000,1000,81828922,1550,1549,1595,1595
59041374,1000,1000,1000,1000,81928882,1544,1544,1603,1603
59043873,1000,1000,1000,1000,82028842,1540,1540,1608,1608
59046372,1000,1000,1000,1000,82128802,1539,1540,1610,1610
59048871,1000,1000,1000,1000,82228762,1541,1542,1609,1609
59051370,1000,1000,1000,1000,82328722,1545,1547,1607,1606
59053869,1000,1000,1000,1000,82428682,1551,1553,1603,1602
59056368,1000,1000,1000,1000,82528642,1558,1559,1597,1597
59058867,1000,1000,1000,1000,82628602,1564,1565,1590,1590
59061366,1000,1000,1000,1000,82728562,1571,1571,1583,1583
59063865,1000,1000,1000,1000,82828522,1577,1576,1578,1579
59066364,1000,1000,1000,1000,82928482,1581,1580,1574,1574
59068863,1000,1000,1000,1000,83028442,1585,1583,1571,1571
59071362,1000,1000,1000,1000,83128402,1586,1584,1569,1570
59073861,1000,1000,1000,1000,83228362,1585,1585,1569,1569
59076360,1000,1000,1000,1000,83328322,1585,1584,1571,1571
59078859,1000,1000,1000,1000,83428282,1583,1582,1573,1572
59081358,1000,1000,1000,1000,83528242,1580,1579,1575,1574
59083857,1000,1000,1000,1000,83628202,1577,1578,1577,1577
59086356,1000,1000,1000,1000,83728162,1575,1575,1578,1579
59088855,1000,1000,1000,1000,83828955,1573,1574,1580,1580
59091354,1000,1000,1000,1000,83928915,1574,1574,1583,1582
59093853,1000,1000,1000,1000,84028875,1573,1573,1583,1583
59096352,1000,1000,1000,1000,84128835,1574,1574,1584,1583
59098851,1000,1000,1000,1000,84228795,1575,1575,1583,1584
59101350,1000,1000,1000,1000,84328755,1575,1575,1582,1583
59103849,1000,1000,1000,1000,84428715,1576,1577,1582,1581
59106348,1000,1000,1000,1000,84528675,1577,1577,1580,1580
59108847,1000,1000,1000,1000,84628635,1579,1578,1579,1579
59111346,1000,1000,1000,1000,84728595,1580,1580,1579,1579
59113845,1000,1000,1000,1000,84828555,1581,1581,1579,1579
59116344,1000,1000,1000,1000,84928515,1583,1581,1579,1579
59118843,1000,1000,1000,1000,85028475,1583,1583,1579,1579
59121342,1000,1000,1000,1000,85128435,1582,1582,1579,1579
59123841,1000,1000,1000,1000,85228395,1581,1582,1579,1579
59126340,1000,1000,1000,1000,85328355,1581,1581,1579,1579
59128839,1000,1000,1000,1000,85428315,1581,1581,1580,1580
59131338,1000,1000,1000,1000,85528275,1581,1580,1580,1580
59133837,1000,1000,1000,1000,85628235,1581,1581,1581,1581
59136336,1000,1000,1000,1000,85728195,1581,1581,1582,1582
59138835,1000,1000,1000,1000,85828155,1580,1580,1581,1581
59141334,1000,1000,1000,1000,85928948,1579,1579,1581,1581
59143833,1000,1000,1000,1000,86028908,1578,1578,1580,1580
59146332,1000,1000,1000,1000,86128868,1579,1579,1580,1580
59148831,1000,1000,1000,1000,86228828,1579,1579,1580,1580
59151330,1000,1000,1000,1000,86328788,1578,1579,1579,1580
59153829,1000,1000,1000,1000,86428748,1580,1580,1580,1580
59156328,1000,1000,1000,1000,86528708,1580,1580,1580,1580
59158827,1000,1000,1000,1000,86628668,1581,1581,1581,1580
59161326,1000,1000,1000,1000,86728628,1582,1582,1581,1581
59163825,1000,1000,1000,1000,86828588,1582,1582,1581,1581
59166324,1000,1000,1000,1000,86928548,1582,1582,1583,1579
59168823,1000,1000,1000,1000,87028508,1582,1584,1588,1574
59171322,1000,1000,1000,1000,87128468,1581,1584,1583,1574
59173821,1000,1000,1000,1000,87228428,1579,1582,1574,1573
59176320,1000,1000,1000,1000,87328388,1578,1580,1565,1570
59178819,1000,1000,1000,1000,87428348,1578,1579,1559,1566
59181318,1000,1000,1000,1000,87528308,1579,1579,1556,1562
59183817,1000,1000,1000,1000,87628268,1579,1578,1553,1557
59186316,1000,1000,1000,1000,87728228,1580,1578,1554,1555
59188815,1000,1000,1000,1000,87828188,1579,1578,1554,1553
59191314,1000,1000,1000,1000,87928981,1578,1578,1556,1553
59193813,1000,1000,1000,1000,88028941,1578,1579,1557,1554
59196312,1000,1000,1000,1000,88128901,1575,1577,1554,1553
59198811,1000,1000,1000,1000,88228861,1574,1576,1553,1553
59201310,1000,1000,1000,1000,88328821,1574,1576,1552,1552
59203809,1000,1000,1000,1000,88428781,1575,1577,1551,1551
59206308,1000,1000,1000,1000,88528741,1577,1578,1549,1550
59208807,1000,1000,1000,1000,88628701,1580,1580,1548,1548
59211306,1000,1000,1000,1000,88728661,1582,1582,1545,1545
59213805,1000,1000,1000,1000,88828621,1585,1586,1543,1543
59216304,1000,1000,1000,1000,88928581,1587,1588,1541,1541
59218803,1000,1000,1000,1000,89028541,1590,1590,1539,1539
59221302,1000,1000,1000,1000,89128501,1592,1592,1538,1538
59223801,1000,1000,1000,1000,89228461,1593,1594,1537,1538
59226300,1000,1000,1000,1000,89328421,1594,1594,1537,1539
59228799,1000,1000,1000,1000,89428381,1593,1593,1540,1542
59231298,1000,1000,1000,1000,89528341,1591,1589,1544,1546
59233797,1000,1000,1000,1000,89628301,1586,1584,1551,1554
59236296,1000,1000,1000,1000,89728261,1578,1575,1560,1562
59238795,1000,1000,1000,1000,89828221,1569,1565,1571,1573
59241294,1000,1000,1000,1000,89928181,1559,1555,1583,1584
59243793,1000,1000,1000,1000,90028974,1548,1545,1594,1594
59246292,1000,1000,1000,1000,90128934,1540,1538,1604,1603
59248791,1000,1000,1000,1000,90228894,1533,1534,1610,1609
59251290,1000,1000,1000,1000,90328854,1531,1533,1612,1612
59253789,1000,1000,1000,1000,90428814,1534,1536,1613,1612
59256288,1000,1000,1000,1000,90528774,1540,1541,1610,1610
59258787,1000,1000,1000,1000,90628734,1545,1547,1604,1604
59261286,1000,1000,1000,1000,90728694,1552,1553,1597,1597
59263785,1000,1000,1000,1000,90828654,1561,1562,1591,1590
59266284,1000,1000,1000,1000,90928614,1568,1568,1583,1582
59268783,1000,1000,1000,1000,91028574,1576,1575,1577,1577
59271282,1000,1000,1000,1000,91128534,1580,1580,1572,1571
59273781,1000,1000,1000,1000,91228494,1585,1584,1570,1569
59276280,1000,1000,1000,1000,91328454,1587,1586,1568,1568
59278779,1000,1000,1000,1000,91428414,1587,1586,1568,1568
59281278,1000,1000,1000,1000,91528374,1587,1585,1570,1569
59283777,1000,1000,1000,1000,91628334,1584,1584,1571,1572
59286276,1000,1000,1000,1000,91728294,1582,1581,1574,1574
59288775,1000,1000,1000,1000,91828254,1578,1579,1577,1576
59291274,1000,1000,1000,1000,91928214,1576,1577,1579,1579
59293773,1000,1000,1000,1000,92028174,1574,1575,1581,1581
59296272,1000,1000,1000,1000,92128967,1574,1573,1582,1582
59298771,1000,1000,1000,1000,92228927,1573,1573,1584,1584
59301270,1000,1000,1000,1000,92328887,1573,1573,1584,1584
59303769,1000,1000,1000,1000,92428847,1574,1574,1584,1583
59306268,1000,1000,1000,1000,92528807,1574,1575,1582,1582
59308767,1000,1000,1000,1000,92628767,1575,1576,1581,1581
59311266,1000,1000,1000,1000,92728727,1577,1577,1580,1580
59313765,1000,1000,1000,1000,92828687,1578,1578,1579,1579
59316264,1000,1000,1000,1000,92928647,1579,1580,1578,1578
59318763,1000,1000,1000,1000,93028607,1581,1581,1578,1578
59321262,1000,1000,1000,1000,93128567,1580,1580,1577,1577
59323761,1000,1000,1000,1000,93228527,1582,1582,1578,1578
59326260,1000,1000,1000,1000,93328487,1582,1581,1578,1578
59328759,1000,1000,1000,1000,93428447,1582,1581,1578,1578
59331258,1000,1000,1000,1000,93528407,1581,1581,1579,1578
59333757,1000,1000,1000,1000,93628367,1580,1581,1579,1579
59336256,1000,1000,1000,1000,93728327,1580,1580,1580,1580
59338755,1000,1000,1000,1000,93828287,1579,1579,1579,1579
59341254,1000,1000,1000,1000,93928247,1579,1578,1579,1580
59343753,1000,1000,1000,1000,94028207,1579,1579,1581,1580
59346252,1000,1000,1000,1000,94128167,1579,1579,1581,1581
59348751,1000,1000,1000,1000,94228960,1580,1580,1582,1581
59351250,1000,1000,1000,1000,94328920,1579,1579,1581,1580
59353749,1000,1000,1000,1000,94428880,1580,1580,1582,1581
59356248,1000,1000,1000,1000,94528840,1580,1580,1581,1581
59358747,1000,1000,1000,1000,94628800,1581,1580,1581,1581
59361246,1000,1000,1000,1000,94728760,1580,1580,1579,1580
59363745,1000,1000,1000,1000,94828720,1580,1580,1579,1579
59366244,1000,1000,1000,1000,94928680,1580,1581,1586,1571
59368743,1000,1000,1000,1000,95028640,1580,1581,1584,1572
59371242,1000,1000,1000,1000,95128600,1577,1577,1577,1574
59373741,1000,1000,1000,1000,95228560,1574,1573,1570,1574
59376240,1000,1000,1000,1000,95328520,1571,1570,1566,1573
59378739,1000,1000,1000,1000,95428480,1569,1569,1565,1572
59381238,1000,1000,1000,1000,95528440,1568,1567,1565,1570
59383737,1000,1000,1000,1000,95628400,1567,1567,1567,1567
59386236,1000,1000,1000,1000,95728360,1567,1567,1568,1566
59388735,1000,1000,1000,1000,95828320,1566,1567,1568,1566
59391234,1000,1000,1000,1000,95928280,1565,1565,1567,1565
59393733,1000,1000,1000,1000,96028240,1565,1565,1567,1564
59396232,1000,1000,1000,1000,96128200,1565,1564,1565,1565
59398731,1000,1000,1000,1000,96228160,1563,1563,1563,1564
59401230,1000,1000,1000,1000,96328953,1562,1562,1562,1563
59403729,1000,1000,1000,1000,96428913,1561,1561,1561,1562
59406228,1000,1000,1000,1000,96528873,1562,1562,1562,1562
59408727,1000,1000,1000,1000,96628833,1561,1560,1561,1560
59411226,1000,1000,1000,1000,96728793,1560,1560,1560,1560
59413725,1000,1000,1000,1000,96828753,1560,1559,1560,1559
59416224,1000,1000,1000,1000,96928713,1559,1559,1559,1558
59418723,1000,1000,1000,1000,97028673,1558,1559,1559,1558
59421222,1000,1000,1000,1000,97128633,1558,1558,1558,1557
59423721,1000,1000,1000,1000,97228593,1558,1558,1559,1558
59426220,1000,1000,1000,1000,97328553,1557,1557,1558,1556
59428719,1000,1000,1000,1000,97428513,1557,1557,1558,1556
59431218,1000,1000,1000,1000,97528473,1558,1558,1559,1557
59433717,1000,1000,1000,1000,97628433,1559,1559,1560,1558
59436216,1000,1000,1000,1000,97728393,1559,1559,1559,1560
59438715,1000,1000,1000,1000,97828353,1560,1560,1558,1562
59441214,1000,1000,1000,1000,97928313,1560,1560,1556,1564
59443713,1000,1000,1000,1000,98028273,1559,1559,1557,1561
59446212,1000,1000,1000,1000,98128233,1560,1560,1558,1562
59448711,1000,1000,1000,1000,98228193,1558,1558,1557,1559
59451210,1000,1000,1000,1000,98328986,1554,1554,1554,1555
59453709,1000,1000,1000,1000,98428946,1548,1549,1549,1548
59456208,1000,1000,1000,1000,98528906,1542,1543,1544,1542
59458707,1000,1000,1000,1000,98628866,1535,1535,1536,1535
59461206,1000,1000,1000,1000,98728826,1528,1528,1528,1529
59463705,1000,1000,1000,1000,98828786,1522,1522,1523,1523
59466204,1000,1000,1000,1000,98928746,1522,1521,1521,1522
59468703,1000,1000,1000,1000,99028706,1520,1520,1520,1520
59471202,1000,1000,1000,1000,99128666,1522,1522,1521,1522
59473701,1000,1000,1000,1000,99228626,1525,1525,1524,1525
59476200,1000,1000,1000,1000,99328586,1529,1528,1528,1528
59478699,1000,1000,1000,1000,99428546,1533,1534,1533,1533
59481198,1000,1000,1000,1000,99528506,1537,1537,1536,1537
59483697,1000,1000,1000,1000,99628466,1540,1540,1539,1540
59486196,1000,1000,1000,1000,99728426,1541,1542,1541,1541
59488695,1000,1000,1000,1000,99828386,1543,1543,1543,1543
59491194,1000,1000,1000,1000,99928346,1545,1545,1545,1545
59493693,1000,1000,1000,1000,100028306,1546,1546,1546,1546
59496192,1000,1000,1000,1000,100128266,1546,1546,1547,1546
59498691,1000,1000,1000,1000,100228226,1547,1547,1548,1548
59501190,1000,1000,1000,1000,100328186,1546,1546,1547,1547
59503689,1000,1000,1000,1000,100428979,1546,1546,1546,1546
59506188,1000,1000,1000,1000,100528939,1546,1546,1546,1547
59508687,1000,1000,1000,1000,100628899,1546,1546,1546,1546
59511186,1000,1000,1000,1000,100728859,1545,1545,1545,1545
59513685,1000,1000,1000,1000,100828819,1545,1545,1545,1545
59516184,1000,1000,1000,1000,100928779,1544,1545,1545,1544
59518683,1000,1000,1000,1000,101028739,1544,1544,1544,1544
59521182,1000,1000,1000,1000,101128699,1544,1544,1544,1543
59523681,1000,1000,1000,1000,101228659,1544,1544,1544,1544
59526180,1000,1000,1000,1000,101328619,1545,1544,1544,1544
59528679,1000,1000,1000,1000,101428579,1545,1544,1544,1544
59531178,1000,1000,1000,1000,101528539,1545,1544,1544,1544
59533677,1000,1000,1000,1000,101628499,1544,1544,1544,1543
59536176,1000,1000,1000,1000,101728459,1543,1543,1543,1543
59538675,1000,1000,1000,1000,101828419,1543,1544,1544,1543
59541174,1000,1000,1000,1000,101928379,1544,1544,1544,1544
59543673,1000,1000,1000,1000,102028339,1544,1544,1544,1544
59546172,1000,1000,1000,1000,102128299,1545,1544,1544,1544
59548671,1000,1000,1000,1000,102228259,1543,1543,1543,1543
59551170,1000,1000,1000,1000,102328219,1544,1544,1544,1544
59553669,1000,1000,1000,1000,102428179,1543,1543,1543,1543
59556168,1000,1000,1000,1000,102528972,1544,1544,1544,1544
59558667,1000,1000,1000,1000,102628932,1544,1545,1545,1544
59561166,1000,1000,1000,1000,102728892,1544,1544,1543,1544
59563665,1000,1000,1000,1000,102828852,1543,1544,1544,1543
59566164,1000,1000,1000,1000,102928812,1545,1544,1544,1545
59568663,1000,1000,1000,1000,103028772,1545,1544,1544,1544
59571162,1000,1000,1000,1000,103128732,1545,1544,1544,1544
59573661,1000,1000,1000,1000,103228692,1544,1544,1544,1545
59576160,1000,1000,1000,1000,103328652,1544,1544,1544,1544
59578659,1000,1000,1000,1000,103428612,1544,1544,1544,1544
59581158,1000,1000,1000,1000,103528572,1544,1543,1543,1543
59583657,1000,1000,1000,1000,103628532,1544,1544,1544,1544
59586156,1000,1000,1000,1000,103728492,1544,1543,1544,1543
59588655,1000,1000,1000,1000,103828452,1544,1544,1545,1544
59591154,1000,1000,1000,1000,103928412,1544,1544,1544,1544
59593653,1000,1000,1000,1000,104028372,1543,1544,1544,1543
59596152,1000,1000,1000,1000,104128332,1543,1543,1543,1543
59598651,1000,1000,1000,1000,104228292,1544,1544,1544,1544
59601150,1000,1000,1000,1000,104328252,1543,1543,1543,1543
59603649,1000,1000,1000,1000,104428212,1543,1543,1543,1543
59606148,1000,1000,1000,1000,104528172,1544,1543,1544,1544
59608647,1000,1000,1000,1000,104628965,1544,1544,1544,1544
59611146,1000,1000,1000,1000,104728925,1544,1543,1543,1544
59613645,1000,1000,1000,1000,104828885,1544,1544,1544,1544
59616144,1000,1000,1000,1000,104928845,1545,1545,1545,1545
59618643,1000,1000,1000,1000,105028805,1544,1545,1545,1544
59621142,1000,1000,1000,1000,105128765,1544,1545,1544,1544
59623641,1000,1000,1000,1000,105228725,1544,1545,1545,1544
59626140,1000,1000,1000,1000,105328685,1545,1545,1545,1545
59628639,1000,1000,1000,1000,105428645,1545,1545,1545,1545
59631138,1000,1000,1000,1000,105528605,1546,1545,1545,1545
59633637,1000,1000,1000,1000,105628565,1545,1545,1545,1545
59636136,1000,1000,1000,1000,105728525,1545,1545,1545,1544
59638635,1000,1000,1000,1000,105828485,1544,1545,1544,1544
59641134,1000,1000,1000,1000,105928445,1545,1544,1544,1545
59643633,1000,1000,1000,1000,106028405,1545,1545,1545,1545
59646132,1000,1000,1000,1000,106128365,1544,1545,1544,1545
59648631,1000,1000,1000,1000,106228325,1544,1544,1544,1544
59651130,1000,1000,1000,1000,106328285,1544,1544,1544,1544
59653629,1000,1000,1000,1000,106428245,1544,1544,1544,1544
59656128,1000,1000,1000,1000,106528205,1544,1543,1544,1544
59658627,1000,1000,1000,1000,106628165,1545,1545,1545,1544
59661126,1000,1000,1000,1000,106728958,1544,1544,1544,1544
59663625,1000,1000,1000,1000,106828918,1544,1544,1544,1545
59666124,1000,1000,1000,1000,106928878,1544,1544,1544,1545
59668623,1000,1000,1000,1000,107028838,1545,1545,1545,1545
59671122,1000,1000,1000,1000,107128798,1544,1545,1544,1545
59673621,1000,1000,1000,1000,107228758,1544,1544,1544,1544
59676120,1000,1000,1000,1000,107328718,1545,1544,1544,1544
59678619,1000,1000,1000,1000,107428678,1545,1544,1544,1544
59681118,1000,1000,1000,1000,107528638,1545,1545,1544,1545
59683617,1000,1000,1000,1000,107628598,1544,1544,1544,1544
59686116,1000,1000,1000,1000,107728558,1544,1544,1544,1544
59688615,1000,1000,1000,1000,107828518,1544,1545,1545,1544
59691114,1000,1000,1000,1000,107928478,1544,1544,1544,1544
59693613,1000,1000,1000,1000,108028438,1544,1544,1545,1544
59696112,1000,1000,1000,1000,108128398,1545,1544,1544,1545
59698611,1000,1000,1000,1000,108228358,1544,1544,1544,1545
59701110,1000,1000,1000,1000,108328318,1544,1544,1544,1544
59703609,1000,1000,1000,1000,108428278,1544,1545,1544,1544
59706108,1000,1000,1000,1000,108528238,1546,1543,1543,1545
59708607,1000,1000,1000,1000,108628198,1349,1364,1365,1365
59711106,1000,1000,1000,1000,108728158,1222,1253,1255,1254
59713605,1000,1000,1000,1000,108828951,1200,1234,1236,1234
59716104,1000,1000,1000,1000,108928911,1200,1233,1235,1235
59718603,1000,1000,1000,1000,109028871,1200,1233,1235,1235
59721102,1000,1000,1000,1000,109128831,1200,1232,1234,1235
59723601,1000,1000,1000,1000,109228791,1200,1219,1219,1236
59726100,1000,1000,1000,1000,109328751,1200,1208,1208,1237
59728599,1000,1000,1000,1000,109428711,1200,1215,1216,1236
59731098,1000,1000,1000,1000,109528671,1200,1215,1217,1235
59733597,1000,1000,1000,1000,109628631,1200,1214,1216,1235
59736096,1000,1000,1000,1000,109728591,1200,1212,1214,1235
59738595,1000,1000,1000,1000,109828551,1200,1210,1212,1235
59741094,1000,1000,1000,1000,109928511,1200,1208,1210,1236
59743593,1000,1000,1000,1000,110028471,1200,1231,1232,1236
59746092,1000,1000,1000,1000,110128431,1200,1221,1222,1236
59748591,1000,1000,1000,1000,110228391,1200,1220,1221,1236
59751090,1000,1000,1000,1000,110328351,1200,1219,1221,1236
59753589,1000,1000,1000,1000,110428311,1200,1218,1220,1236
59756088,1000,1000,1000,1000,110528271,1000,1000,1000,1000
59758587,1000,1000,1000,1000,110628231,1000,1000,1000,1000
59761086,1000,1000,1000,1000,110728191,1000,1000,1000,1000
59763585,1000,1000,1000,1000,110828984,1000,1000,1000,1000
59766084,1000,1000,1000,1000,110928944,1000,1000,1000,1000
59768583,1000,1000,1000,1000,111028904,1000,1000,1000,1000
59771082,1000,1000,1000,1000,111128864,1000,1000,1000,1000
59773581,1000,1000,1000,1000,111228824,1000,1000,1000,1000
59776080,1000,1000,1000,1000,111328784,1000,1000,1000,1000
59778579,1000,1000,1000,1000,111428744,1000,1000,1000,1000
59781078,1000,1000,1000,1000,111528704,1000,1000,1000,1000
59783577,1000,1000,1000,1000,111628664,1000,1000,1000,1000
59786076,1000,1000,1000,1000,111728624,1000,1000,1000,1000
59788575,1000,1000,1000,1000,111828584,1000,1000,1000,1000
59791074,1000,1000,1000,1000,111928544,1000,1000,1000,1000
59793573,1000,1000,1000,1000,112028504,1000,1000,1000,1000
59796072,1000,1000,1000,1000,112128464,1000,1000,1000,1000
59798571,1000,1000,1000,1000,112228424,1000,1000,1000,1000
59801070,1000,1000,1000,1000,112328384,1000,1000,1000,1000
59803569,1000,1000,1000,1000,112428344,1000,1000,1000,1000
59806068,1000,1000,1000,1000,112528304,1000,1000,1000,1000
59808567,1000,1000,1000,1000,112628264,1000,1000,1000,1000
59811066,1000,1000,1000,1000,112728224,1000,1000,1000,1000
59813565,1000,1000,1000,1000,112828184,1000,1000,1000,1000
59816064,1000,1000,1000,1000,112928977,1000,1000,1000,1000
59818563,1000,1000,1000,1000,113028937,1000,1000,1000,1000
59821062,1000,1000,1000,1000,113128897,1000,1000,1000,1000
59823561,1000,1000,1000,1000,113228857,1000,1000,1000,1000
59826060,1000,1000,1000,1000,113328817,1000,1000,1000,1000
59828559,1000,1000,1000,1000,113428777,1000,1000,1000,1000
59831058,1000,1000,1000,1000,113528737,1000,1000,1000,1000
59833557,1000,1000,1000,1000,113628697,1000,1000,1000,1000
59836056,1000,1000,1000,1000,113728657,1000,1000,1000,1000
59838555,1000,1000,1000,1000,113828617,1000,1000,1000,1000
59841054,1000,1000,1000,1000,113928577,1000,1000,1000,1000
59843553,1000,1000,1000,1000,114028537,1000,1000,1000,1000
59846052,1000,1000,1000,1000,114128497,1000,1000,1000,1000
59848551,1000,1000,1000,1000,114228457,1000,1000,1000,1000
59851050,1000,1000,1000,1000,114328417,1000,1000,1000,1000
59853549,1000,1000,1000,1000,114428377,1000,1000,1000,1000
59856048,1000,1000,1000,1000,114528337,1000,1000,1000,1000
59858547,1000,1000,1000,1000,114628297,1000,1000,1000,1000
59861046,1000,1000,1000,1000,114728257,1000,1000,1000,1000
59863545,1000,1000,1000,1000,114828217,1000,1000,1000,1000
59866044,1000,1000,1000,1000,114928177,1000,1000,1000,1000
59868543,1000,1000,1000,1000,115028970,1000,1000,1000,1000
59871042,1000,1000,1000,1000,115128930,1000,1000,1000,1000
59873541,1000,1000,1000,1000,115228890,1000,1000,1000,1000
59876040,1000,1000,1000,1000,115328850,1000,1000,1000,1000
59878539,1000,1000,1000,1000,115428810,1000,1000,1000,1000
59881038,1000,1000,1000,1000,115528770,1000,1000,1000,1000
59883537,1000,1000,1000,1000,115628730,1000,1000,1000,1000
59886036,1000,1000,1000,1000,115728690,1000,1000,1000,1000
59888535,1000,1000,1000,1000,115828650,1000,1000,1000,1000
59891034,1000,1000,1000,1000,115928610,1000,1000,1000,1000
59893533,1000,1000,1000,1000,116028570,1000,1000,1000,1000
59896032,1000,1000,1000,1000,116128530,1000,1000,1000,1000
59898531,1000,1000,1000,1000,116228490,1000,1000,1000,1000
59901030,1000,1000,1000,1000,116328450,1000,1000,1000,1000
59903529,1000,1000,1000,1000,116428410,1000,1000,1000,1000
59906028,1000,1000,1000,1000,116528370,1000,1000,1000,1000
59908527,1000,1000,1000,1000,116628330,1000,1000,1000,1000
59911026,1000,1000,1000,1000,116728290,1000,1000,1000,1000
59913525,1000,1000,1000,1000,116828250,1000,1000,1000,1000
59916024,1000,1000,1000,1000,116928210,1000,1000,1000,1000
59918523,1000,1000,1000,1000,117028170,1000,1000,1000,1000
59921022,1000,1000,1000,1000,117128963,1000,1000,1000,1000
59923521,1000,1000,1000,1000,117228923,1000,1000,1000,1000
59926020,1000,1000,1000,1000,117328883,1000,1000,1000,1000
59928519,1000,1000,1000,1000,117428843,1000,1000,1000,1000
59931018,1000,1000,1000,1000,117528803,1000,1000,1000,1000
59933517,1000,1000,1000,1000,117628763,1000,1000,1000,1000
59936016,1000,1000,1000,1000,117728723,1000,1000,1000,1000
59938515,1000,1000,1000,1000,117828683,1000,1000,1000,1000
59941014,1000,1000,1000,1000,117928643,1000,1000,1000,1000
59943513,1000,1000,1000,1000,118028603,1000,1000,1000,1000
59946012,1000,1000,1000,1000,118128563,1000,1000,1000,1000
59948511,1000,1000,1000,1000,118228523,1000,1000,1000,1000
59951010,1000,1000,1000,1000,118328483,1000,1000,1000,1000
59953509,1000,1000,1000,1000,118428443,1000,1000,1000,1000
59956008,1000,1000,1000,1000,118528403,1000,1000,1000,1000
59958507,1000,1000,1000,1000,118628363,1000,1000,1000,1000
59961006,1000,1000,1000,1000,118728323,1000,1000,1000,1000
59963505,1000,1000,1000,1000,118828283,1000,1000,1000,1000
59966004,1000,1000,1000,1000,118928243,1000,1000,1000,1000
59968503,1000,1000,1000,1000,119028203,1000,1000,1000,1000
59971002,1000,1000,1000,1000,119128163,1000,1000,1000,1000
59973501,1000,1000,1000,1000,119228956,1000,1000,1000,1000
59976000,1000,1000,1000,1000,119328916,1000,1000,1000,1000
59978499,1000,1000,1000,1000,119428876,1000,1000,1000,1000
59980998,1000,1000,1000,1000,119528836,1000,1000,1000,1000
59983497,1000,1000,1000,1000,119628796,1000,1000,1000,1000
59985996,1000,1000,1000,1000,119728756,1000,1000,1000,1000
59988495,1000,1000,1000,1000,119828716,1000,1000,1000,1000
59990994,1000,1000,1000,1000,119928676,1000,1000,1000,1000
59993493,1000,1000,1000,1000,120028636,1000,1000,1000,1000
59995992,1000,1000,1000,1000,120128596,1000,1000,1000,1000
59998491,1000,1000,1000,1000,120228556,1000,1000,1000,1000
60000990,1000,1000,1000,1000,120328516,1000,1000,1000,1000
60003489,1000,1000,1000,1000,120428476,1000,1000,1000,1000
60005988,1000,1000,1000,1000,120528436,1000,1000,1000,1000
60008487,1000,1000,1000,1000,120628396,1000,1000,1000,1000
60010986,1000,1000,1000,1000,120728356,1000,1000,1000,1000
60013485,1000,1000,1000,1000,120828316,1000,1000,1000,1000
60015984,1000,1000,1000,1000,120928276,1000,1000,1000,1000
60018483,1000,1000,1000,1000,121028236,1000,1000,1000,1000
60020982,1000,1000,1000,1000,121128196,1000,1000,1000,1000
60023481,1000,1000,1000,1000,121228156,1000,1000,1000,1000
60025980,1000,1000,1000,1000,121328949,1000,1000,1000,1000
60028479,1000,1000,1000,1000,121428909,1000,1000,1000,1000
60030978,1000,1000,1000,1000,121528869,1000,1000,1000,1000
60033477,1000,1000,1000,1000,121628829,1000,1000,1000,1000
60035976,1000,1000,1000,1000,121728789,1000,1000,1000,1000
60038475,1000,1000,1000,1000,121828749,1000,1000,1000,1000
60040974,1000,1000,1000,1000,121928709,1000,1000,1000,1000
60043473,1000,1000,1000,1000,122028669,1000,1000,1000,1000
60045972,1000,1000,1000,1000,122128629,1000,1000,1000,1000
60048471,1000,1000,1000,1000,122228589,1000,1000,1000,1000
60050970,1000,1000,1000,1000,122328549,1000,1000,1000,1000
60053469,1000,1000,1000,1000,122428509,1000,1000,1000,1000
60055968,1000,1000,1000,1000,122528469,1000,1000,1000,1000
60058467,1000,1000,1000,1000,122628429,1000,1000,1000,1000
60060966,1000,1000,1000,1000,122728389,1000,1000,1000,1000
60063465,1000,1000,1000,1000,122828349,1000,1000,1000,1000
60065964,1000,1000,1000,1000,122928309,1000,1000,1000,1000
60068463,1000,1000,1000,1000,123028269,1000,1000,1000,1000
60070962,1000,1000,1000,1000,123128229,1000,1000,1000,1000
60073461,1000,1000,1000,1000,123228189,1000,1000,1000,1000
60075960,1000,1000,1000,1000,123328982,1000,1000,1000,1000
60078459,1000,1000,1000,1000,123428942,1000,1000,1000,1000
60080958,1000,1000,1000,1000,123528902,1000,1000,1000,1000
60083457,1000,1000,1000,1000,123628862,1000,1000,1000,1000
60085956,1000,1000,1000,1000,123728822,1000,1000,1000,1000
60088455,1000,1000,1000,1000,123828782,1000,1000,1000,1000
60090954,1000,1000,1000,1000,123928742,1000,1000,1000,1000
60093453,1000,1000,1000,1000,124028702,1000,1000,1000,1000
60095952,1000,1000,1000,1000,124128662,1000,1000,1000,1000
60098451,1000,1000,1000,1000,124228622,1000,1000,1000,1000
60100950,1000,1000,1000,1000,124328582,1000,1000,1000,1000
60103449,1000,1000,1000,1000,124428542,1000,1000,1000,1000
60105948,1000,1000,1000,1000,124528502,1000,1000,1000,1000
60108447,1000,1000,1000,1000,124628462,1000,1000,1000,1000
60110946,1000,1000,1000,1000,124728422,1000,1000,1000,1000
60113445,1000,1000,1000,1000,124828382,1000,1000,1000,1000
60115944,1000,1000,1000,1000,124928342,1000,1000,1000,1000
60118443,1000,1000,1000,1000,125028302,1000,1000,1000,1000
60120942,1000,1000,1000,1000,125128262,1000,1000,1000,1000
60123441,1000,1000,1000,1000,125228222,1000,1000,1000,1000
60125940,1000,1000,1000,1000,125328182,1000,1000,1000,1000
60128439,1000,1000,1000,1000,125428975,1000,1000,1000,1000
60130938,1000,1000,1000,1000,,,,,
60133437,1000,1000,1000,1000,,,,,
60135936,1000,1000,1000,1000,,,,,
60138435,1000,1000,1000,1000,,,,,
60140934,1000,1000,1000,1000,,,,,
60143433,1000,1000,1000,1000,,,,,
60145932,1000,1000,1000,1000,,,,,
60148431,1000,1000,1000,1000,,,,,
60150930,1000,1000,1000,1000,,,,,
60153429,1000,1000,1000,1000,,,,,
60155928,1000,1000,1000,1000,,,,,
60158427,1000,1000,1000,1000,,,,,
60160926,1000,1000,1000,1000,,,,,
60163425,1000,1000,1000,1000,,,,,
60165924,1000,1000,1000,1000,,,,,
60168423,1000,1000,1000,1000,,,,,
60170922,1000,1000,1000,1000,,,,,
60173421,1000,1000,1000,1000,,,,,
60175920,1000,1000,1000,1000,,,,,
60178419,1000,1000,1000,1000,,,,,
60180918,1000,1000,1000,1000,,,,,
60183417,1000,1000,1000,1000,,,,,
60185916,1000,1000,1000,1000,,,,,
60188415,1000,1000,1000,1000,,,,,
60190914,1000,1000,1000,1000,,,,,
60193413,1000,1000,1000,1000,,,,,
60195912,1000,1000,1000,1000,,,,,
60198411,1000,1000,1000,1000,,,,,
60200910,1000,1000,1000,1000,,,,,
60203409,1000,1000,1000,1000,,,,,
60205908,1000,1000,1000,1000,,,,,
60208407,1000,1000,1000,1000,,,,,
60210906,1000,1000,1000,1000,,,,,
60213405,1000,1000,1000,1000,,,,,
60215904,1000,1000,1000,1000,,,,,
60218403,1000,1000,1000,1000,,,,,
60220902,1000,1000,1000,1000,,,,,
60223401,1000,1000,1000,1000,,,,,
60225900,1000,1000,1000,1000,,,,,
60228399,1000,1000,1000,1000,,,,,
60230898,1000,1000,1000,1000,,,,,
60233397,1000,1000,1000,1000,,,,,
60235896,1000,1000,1000,1000,,,,,
60238395,1000,1000,1000,1000,,,,,
60240894,1000,1000,1000,1000,,,,,
60243393,1000,1000,1000,1000,,,,,
60245892,1000,1000,1000,1000,,,,,
60248391,1000,1000,1000,1000,,,,,
60250890,1000,1000,1000,1000,,,,,
60253389,1000,1000,1000,1000,,,,,
60255888,1000,1000,1000,1000,,,,,
60258387,1000,1000,1000,1000,,,,,
60260886,1000,1000,1000,1000,,,,,
60263385,1000,1000,1000,1000,,,,,
60265884,1000,1000,1000,1000,,,,,
60268383,1000,1000,1000,1000,,,,,
60270882,1000,1000,1000,1000,,,,,
60273381,1000,1000,1000,1000,,,,,
60275880,1000,1000,1000,1000,,,,,
60278379,1000,1000,1000,1000,,,,,
60280878,1000,1000,1000,1000,,,,,
60283377,1000,1000,1000,1000,,,,,
60285876,1000,1000,1000,1000,,,,,
60288375,1000,1000,1000,1000,,,,,
60290874,1000,1000,1000,1000,,,,,
60293373,1000,1000,1000,1000,,,,,
60295872,1000,1000,1000,1000,,,,,
60298371,1000,1000,1000,1000,,,,,
60300870,1000,1000,1000,1000,,,,,
60303369,1000,1000,1000,1000,,,,,
60305868,1000,1000,1000,1000,,,,,
60308367,1000,1000,1000,1000,,,,,
60310866,1000,1000,1000,1000,,,,,
60313365,1000,1000,1000,1000,,,,,
60315864,1000,1000,1000,1000,,,,,
60318363,1000,1000,1000,1000,,,,,
60320862,1000,1000,1000,1000,,,,,
60323361,1000,1000,1000,1000,,,,,
60325860,1000,1000,1000,1000,,,,,
60328359,1000,1000,1000,1000,,,,,
60330858,1000,1000,1000,1000,,,,,
60333357,1000,1000,1000,1000,,,,,
60335856,1000,1000,1000,1000,,,,,
60338355,1000,1000,1000,1000,,,,,
60340854,1000,1000,1000,1000,,,,,
60343353,1000,1000,1000,1000,,,,,
60345852,1000,1000,1000,1000,,,,,
60348351,1000,1000,1000,1000,,,,,
60350850,1000,1000,1000,1000,,,,,
60353349,1000,1000,1000,1000,,,,,
60355848,1000,1000,1000,1000,,,,,
60358347,1000,1000,1000,1000,,,,,
60360846,1000,1000,1000,1000,,,,,
60363345,1000,1000,1000,1000,,,,,
60365844,1000,1000,1000,1000,,,,,
60368343,1000,1000,1000,1000,,,,,
60370842,1000,1000,1000,1000,,,,,
60373341,1000,1000,1000,1000,,,,,
60375840,1000,1000,1000,1000,,,,,
60378339,1000,1000,1000,1000,,,,,
60380838,1000,1000,1000,1000,,,,,
60383337,1000,1000,1000,1000,,,,,
60385836,1000,1000,1000,1000,,,,,
60388335,1000,1000,1000,1000,,,,,
60390834,1000,1000,1000,1000,,,,,
60393333,1000,1000,1000,1000,,,,,
60395832,1000,1000,1000,1000,,,,,
60398331,1000,1000,1000,1000,,,,,
60400830,1000,1000,1000,1000,,,,,
60403329,1000,1000,1000,1000,,,,,
60405828,1000,1000,1000,1000,,,,,
60408327,1000,1000,1000,1000,,,,,
60410826,1000,1000,1000,1000,,,,,
60413325,1000,1000,1000,1000,,,,,
60415824,1000,1000,1000,1000,,,,,
60418323,1000,1000,1000,1000,,,,,
60420822,1000,1000,1000,1000,,,,,
60423321,1000,1000,1000,1000,,,,,
60425820,1000,1000,1000,1000,,,,,
60428319,1000,1000,1000,1000,,,,,
60430818,1000,1000,1000,1000,,,,,
60433317,1000,1000,1000,1000,,,,,
60435816,1000,1000,1000,1000,,,,,
60438315,1000,1000,1000,1000,,,,,
60440814,1000,1000,1000,1000,,,,,
60443313,1000,1000,1000,1000,,,,,
60445812,1000,1000,1000,1000,,,,,
60448311,1000,1000,1000,1000,,,,,
60450810,1000,1000,1000,1000,,,,,
60453309,1000,1000,1000,1000,,,,,
60455808,1000,1000,1000,1000,,,,,
60458307,1000,1000,1000,1000,,,,,
60460806,1000,1000,1000,1000,,,,,
60463305,1001,1001,1001,1001,,,,,
60465804,1002,1002,1002,1002,,,,,
60468303,1003,1003,1003,1003,,,,,
60470802,1003,1003,1003,1003,,,,,
60473301,1004,1004,1004,1004,,,,,
60475800,1005,1005,1005,1005,,,,,
60478299,1006,1006,1006,1006,,,,,
60480798,1006,1006,1006,1006,,,,,
60483297,1007,1007,1007,1007,,,,,
60485796,1008,1008,1008,1008,,,,,
60488295,1009,1009,1009,1009,,,,,
60490794,1009,1009,1009,1009,,,,,
60493293,1010,1010,1010,1010,,,,,
60495792,1011,1011,1011,1011,,,,,
60498291,1012,1012,1012,1012,,,,,
60500790,1012,1012,1012,1012,,,,,
60503289,1013,1013,1013,1013,,,,,
60505788,1014,1014,1014,1014,,,,,
60508287,1015,1015,1015,1015,,,,,
60510786,1015,1015,1015,1015,,,,,
60513285,1016,1016,1016,1016,,,,,
60515784,1017,1017,1017,1017,,,,,
60518283,1018,1018,1018,1018,,,,,
60520782,1018,1018,1018,1018,,,,,
60523281,1019,1019,1019,1019,,,,,
60525780,1020,1020,1020,1020,,,,,
60528279,1021,1021,1021,1021,,,,,
60530778,1021,1021,1021,1021,,,,,
60533277,1022,1022,1022,1022,,,,,
60535776,1023,1023,1023,1023,,,,,
60538275,1024,1024,1024,1024,,,,,
60540774,1024,1024,1024,1024,,,,,
60543273,1025,1025,1025,1025,,,,,
60545772,1026,1026,1026,1026,,,,,
60548271,1027,1027,1027,1027,,,,,
60550770,1027,1027,1027,1027,,,,,
60553269,1028,1028,1028,1028,,,,,
60555768,1029,1029,1029,1029,,,,,
60558267,1030,1030,1030,1030,,,,,
60560766,1030,1030,1030,1030,,,,,
60563265,1031,1031,1031,1031,,,,,
60565764,1032,1032,1032,1032,,,,,
60568263,1033,1033,1033,1033,,,,,
60570762,1033,1033,1033,1033,,,,,
60573261,1034,1034,1034,1034,,,,,
60575760,1035,1035,1035,1035,,,,,
60578259,1036,1036,1036,1036,,,,,
60580758,1036,1036,1036,1036,,,,,
60583257,1037,1037,1037,1037,,,,,
60585756,1038,1038,1038,1038,,,,,
60588255,1039,1039,1039,1039,,,,,
60590754,1039,1039,1039,1039,,,,,
60593253,1040,1040,1040,1040,,,,,
60595752,1041,1041,1041,1041,,,,,
60598251,1042,1042,1042,1042,,,,,
60600750,1042,1042,1042,1042,,,,,
60603249,1043,1043,1043,1043,,,,,
60605748,1044,1044,1044,1044,,,,,
60608247,1045,1045,1045,1045,,,,,
60610746,1045,1045,1045,1045,,,,,
60613245,1046,1046,1046,1046,,,,,
60615744,1047,1047,1047,1047,,,,,
60618243,1048,1048,1048,1048,,,,,
60620742,1048,1048,1048,1048,,,,,
60623241,1049,1049,1049,1049,,,,,
60625740,1050,1050,1050,1050,,,,,
60628239,1051,1051,1051,1051,,,,,
60630738,1051,1051,1051,1051,,,,,
60633237,1052,1052,1052,1052,,,,,
60635736,1053,1053,1053,1053,,,,,
60638235,1054,1054,1054,1054,,,,,
60640734,1054,1054,1054,1054,,,,,
60643233,1055,1055,1055,1055,,,,,
60645732,1056,1056,1056,1056,,,,,
60648231,1057,1057,1057,1057,,,,,
60650730,1057,1057,1057,1057,,,,,
60653229,1058,1058,1058,1058,,,,,
60655728,1059,1059,1059,1059,,,,,
60658227,1060,1060,1060,1060,,,,,
60660726,1060,1060,1060,1060,,,,,
60663225,1061,1061,1061,1061,,,,,
60665724,1062,1062,1062,1062,,,,,
60668223,1063,1063,1063,1063,,,,,
60670722,1063,1063,1063,1063,,,,,
60673221,1064,1064,1064,1064,,,,,
60675720,1065,1065,1065,1065,,,,,
60678219,1066,1066,1066,1066,,,,,
60680718,1066,1066,1066,1066,,,,,
60683217,1067,1067,1067,1067,,,,,
60685716,1068,1068,1068,1068,,,,,
60688215,1069,1069,1069,1069,,,,,
60690714,1069,1069,1069,1069,,,,,
60693213,1070,1070,1070,1070,,,,,
60695712,1071,1071,1071,1071,,,,,
60698211,1072,1072,1072,1072,,,,,
60700710,1072,1072,1072,1072,,,,,
60703209,1073,1073,1073,1073,,,,,
60705708,1074,1074,1074,1074,,,,,
60708207,1075,1075,1075,1075,,,,,
60710706,1075,1075,1075,1075,,,,,
60713205,1076,1076,1076,1076,,,,,
60715704,1077,1077,1077,1077,,,,,
60718203,1078,1078,1078,1078,,,,,
60720702,1078,1078,1078,1078,,,,,
60723201,1079,1079,1079,1079,,,,,
60725700,1080,1080,1080,1080,,,,,
60728199,1081,1081,1081,1081,,,,,
60730698,1081,1081,1081,1081,,,,,
60733197,1082,1082,1082,1082,,,,,
60735696,1083,1083,1083,1083,,,,,
60738195,1084,1084,1084,1084,,,,,
60740694,1084,1084,1084,1084,,,,,
60743193,1085,1085,1085,1085,,,,,
60745692,1086,1086,1086,1086,,,,,
60748191,1087,1087,1087,1087,,,,,
60750690,1087,1087,1087,1087,,,,,
60753189,1088,1088,1088,1088,,,,,
60755688,1089,1089,1089,1089,,,,,
60758187,1090,1090,1090,1090,,,,,
60760686,1090,1090,1090,1090,,,,,
60763185,1091,1091,1091,1091,,,,,
60765684,1092,1092,1092,1092,,,,,
60768183,1093,1093,1093,1093,,,,,
60770682,1093,1093,1093,1093,,,,,
60773181,1094,1094,1094,1094,,,,,
60775680,1095,1095,1095,1095,,,,,
60778179,1096,1096,1096,1096,,,,,
60780678,1096,1096,1096,1096,,,,,
60783177,1097,1097,1097,1097,,,,,
60785676,1098,1098,1098,1098,,,,,
60788175,1099,1099,1099,1099,,,,,
60790674,1099,1099,1099,1099,,,,,
60793173,1100,1100,1100,1100,,,,,
60795672,1101,1101,1101,1101,,,,,
60798171,1101,1101,1101,1101,,,,,
60800670,1102,1102,1102,1102,,,,,
60803169,1103,1103,1103,1103,,,,,
60805668,1104,1104,1104,1104,,,,,
60808167,1104,1104,1104,1104,,,,,
60810666,1105,1105,1105,1105,,,,,
60813165,1106,1106,1106,1106,,,,,
60815664,1107,1107,1107,1107,,,,,
60818163,1107,1107,1107,1107,,,,,
60820662,1108,1108,1108,1108,,,,,
60823161,1109,1109,1109,1109,,,,,
60825660,1110,1110,1110,1110,,,,,
60828159,1110,1110,1110,1110,,,,,
60830658,1111,1111,1111,1111,,,,,
60833157,1112,1112,1112,1112,,,,,
60835656,1113,1113,1113,1113,,,,,
60838155,1113,1113,1113,1113,,,,,
60840654,1114,1114,1114,1114,,,,,
60843986,1115,1115,1115,1115,,,,,
60846485,1116,1116,1116,1116,,,,,
60848984,1116,1116,1116,1116,,,,,
60851483,1117,1117,1117,1117,,,,,
60853982,1118,1118,1118,1118,,,,,
60856481,1119,1119,1119,1119,,,,,
60858980,1119,1119,1119,1119,,,,,
60861479,1120,1120,1120,1120,,,,,
60863978,1121,1121,1121,1121,,,,,
60866477,1122,1122,1122,1122,,,,,
60868976,1122,1122,1122,1122,,,,,
60871475,1123,1123,1123,1123,,,,,
60873974,1124,1124,1124,1124,,,,,
60876473,1125,1125,1125,1125,,,,,
60878972,1125,1125,1125,1125,,,,,
60881471,1126,1126,1126,1126,,,,,
60883970,1127,1127,1127,1127,,,,,
60886469,1128,1128,1128,1128,,,,,
60888968,1128,1128,1128,1128,,,,,
60891467,1129,1129,1129,1129,,,,,
60893966,1130,1130,1130,1130,,,,,
60896465,1131,1131,1131,1131,,,,,
60898964,1131,1131,1131,1131,,,,,
60901463,1132,1132,1132,1132,,,,,
60903962,1133,1133,1133,1133,,,,,
60906461,1134,1134,1134,1134,,,,,
60908960,1134,1134,1134,1134,,,,,
60911459,1135,1135,1135,1135,,,,,
60913958,1136,1136,1136,1136,,,,,
60916457,1137,1137,1137,1137,,,,,
60918956,1137,1137,1137,1137,,,,,
60921455,1138,1138,1138,1138,,,,,
60923954,1139,1139,1139,1139,,,,,
60926453,1140,1140,1140,1140,,,,,
60928952,1140,1140,1140,1140,,,,,
60931451,1141,1141,1141,1141,,,,,
60933950,1142,1142,1142,1142,,,,,
60936449,1143,1143,1143,1143,,,,,
60938948,1143,1143,1143,1143,,,,,
60941447,1144,1144,1144,1144,,,,,
60943946,1145,1145,1145,1145,,,,,
60946445,1146,1146,1146,1146,,,,,
60948944,1146,1146,1146,1146,,,,,
60951443,1147,1147,1147,1147,,,,,
60953942,1148,1148,1148,1148,,,,,
60956441,1149,1149,1149,1149,,,,,
60958940,1149,1149,1149,1149,,,,,
60961439,1150,1150,1150,1150,,,,,
60963938,1162,1153,1153,1163,,,,,
60966437,1170,1161,1162,1171,,,,,
60968936,1178,1169,1170,1178,,,,,
60971435,1186,1177,1177,1186,,,,,
60973934,1193,1184,1185,1194,,,,,
60976433,1201,1192,1193,1201,,,,,
60978932,1208,1199,1200,1208,,,,,
60981431,1215,1207,1207,1215,,,,,
60983930,1222,1214,1215,1223,,,,,
60986429,1229,1221,1222,1230,,,,,
60988928,1236,1228,1229,1236,,,,,
60991427,1243,1235,1235,1243,,,,,
60993926,1250,1241,1242,1250,,,,,
60996425,1256,1248,1249,1256,,,,,
60998924,1263,1255,1256,1263,,,,,
61001423,1269,1261,1262,1269,,,,,
61003922,1275,1268,1268,1276,,,,,
61006421,1282,1274,1275,1282,,,,,
61008920,1288,1280,1281,1288,,,,,
61011419,1294,1287,1287,1294,,,,,
61013918,1300,1293,1293,1300,,,,,
61016417,1306,1299,1299,1306,,,,,
61018916,1312,1305,1305,1312,,,,,
61021415,1318,1311,1311,1318,,,,,
61023914,1324,1317,1317,1324,,,,,
61026413,1329,1322,1323,1330,,,,,
61028912,1335,1328,1329,1336,,,,,
61031411,1341,1334,1335,1341,,,,,
61033910,1346,1340,1340,1347,,,,,
61036409,1352,1345,1346,1352,,,,,
61038908,1357,1351,1351,1358,,,,,
61041407,1363,1356,1357,1363,,,,,
61043906,1368,1362,1362,1369,,,,,
61046405,1374,1367,1368,1374,,,,,
61048904,1379,1372,1373,1379,,,,,
61051403,1384,1378,1378,1385,,,,,
61053902,1389,1383,1383,1390,,,,,
61056401,1395,1388,1389,1395,,,,,
61058900,1400,1393,1394,1400,,,,,
61061399,1405,1398,1399,1405,,,,,
61063898,1410,1403,1404,1410,,,,,
61066397,1415,1408,1409,1415,,,,,
61068896,1420,1413,1414,1420,,,,,
61071395,1425,1418,1419,1425,,,,,
61073894,1430,1423,1424,1430,,,,,
61076393,1435,1428,1429,1435,,,,,
61078892,1439,1433,1434,1440,,,,,
61081391,1444,1438,1439,1445,,,,,
61083890,1449,1443,1443,1449,,,,,
61086389,1454,1448,1448,1454,,,,,
61088888,1458,1452,1453,1459,,,,,
61091387,1463,1457,1457,1463,,,,,
61093886,1468,1462,1462,1468,,,,,
61096385,1472,1466,1467,1473,,,,,
61098884,1477,1471,1471,1477,,,,,
61101383,1482,1475,1476,1482,,,,,
61103882,1486,1480,1481,1486,,,,,
61106381,1491,1485,1485,1491,,,,,
61108880,1495,1489,1490,1495,,,,,
61111379,1499,1494,1494,1500,,,,,
61113878,1504,1498,1498,1504,,,,,
61116377,1508,1502,1503,1509,,,,,
61118876,1513,1507,1507,1513,,,,,
61121375,1517,1511,1512,1517,,,,,
61123874,1521,1515,1516,1522,,,,,
61126373,1526,1520,1520,1526,,,,,
61128872,1530,1524,1524,1530,,,,,
61131371,1534,1528,1529,1535,,,,,
61133870,1538,1533,1533,1539,,,,,
61136369,1543,1537,1537,1543,,,,,
61138868,1547,1541,1541,1547,,,,,
61141367,1551,1545,1546,1551,,,,,
61143866,1555,1549,1550,1555,,,,,
61146365,1559,1553,1554,1560,,,,,
61148864,1563,1558,1558,1564,,,,,
61151363,1567,1562,1562,1568,,,,,
61153862,1571,1566,1566,1572,,,,,
61156361,1575,1570,1570,1576,,,,,
61158860,1579,1574,1574,1580,,,,,
61161359,1583,1578,1578,1584,,,,,
61163858,1587,1582,1582,1588,,,,,
61166357,1591,1586,1586,1592,,,,,
61168856,1595,1590,1590,1596,,,,,
61171355,1599,1594,1594,1600,,,,,
61173854,1603,1598,1598,1604,,,,,
61176353,1607,1602,1602,1608,,,,,
61178852,1611,1605,1606,1611,,,,,
61181351,1615,1609,1609,1615,,,,,
61183850,1619,1613,1613,1619,,,,,
61186349,1622,1617,1617,1623,,,,,
61188848,1626,1621,1621,1627,,,,,
61191347,1630,1624,1625,1631,,,,,
61193846,1634,1628,1628,1634,,,,,
61196345,1638,1632,1632,1638,,,,,
61198844,1641,1636,1636,1642,,,,,
61201343,1645,1639,1640,1646,,,,,
61203842,1649,1643,1643,1649,,,,,
61206341,1652,1647,1647,1653,,,,,
61208840,1656,1651,1651,1657,,,,,
61211339,1660,1654,1654,1660,,,,,
61213838,1663,1658,1658,1664,,,,,
61216337,1667,1661,1662,1667,,,,,
61218836,1671,1665,1665,1671,,,,,
61221335,1674,1669,1669,1675,,,,,
61223834,1678,1672,1673,1678,,,,,
61226333,1681,1676,1676,1682,,,,,
61228832,1685,1679,1680,1685,,,,,
61231331,1689,1683,1683,1689,,,,,
61233830,1692,1687,1687,1693,,,,,
61236329,1696,1690,1690,1696,,,,,
61238828,1699,1694,1694,1700,,,,,
61241327,1703,1697,1697,1703,,,,,
61243826,1706,1701,1701,1706,,,,,
61246325,1710,1704,1704,1710,,,,,
61248824,1713,1708,1708,1713,,,,,
61251323,1716,1711,1711,1717,,,,,
61253822,1720,1714,1715,1720,,,,,
61256321,1723,1718,1718,1724,,,,,
61258820,1727,1721,1722,1727,,,,,
61261319,1730,1725,1725,1730,,,,,
61263818,1733,1728,1728,1734,,,,,
61266317,1737,1732,1732,1737,,,,,
61268816,1740,1735,1735,1741,,,,,
61271315,1744,1738,1739,1744,,,,,
61273814,1747,1742,1742,1747,,,,,
61276313,1750,1745,1745,1751,,,,,
61278812,1753,1748,1749,1754,,,,,
61281311,1757,1752,1752,1757,,,,,
61283810,1760,1755,1755,1760,,,,,
61286309,1763,1758,1758,1764,,,,,
61288808,1767,1762,1762,1767,,,,,
61291307,1770,1765,1765,1770,,,,,
61293806,1773,1768,1768,1774,,,,,
61296305,1776,1771,1772,1777,,,,,
61298804,1780,1775,1775,1780,,,,,
61301303,1783,1778,1778,1783,,,,,
61303802,1786,1781,1781,1786,,,,,
61306301,1789,1784,1784,1790,,,,,
61308800,1792,1788,1788,1793,,,,,
61311299,1795,1791,1791,1796,,,,,
61313798,1799,1794,1794,1799,,,,,
61316297,1802,1797,1797,1802,,,,,
61318796,1805,1800,1800,1806,,,,,
61321295,1808,1803,1803,1809,,,,,
61323794,1811,1807,1806,1812,,,,,
61326293,1814,1810,1810,1815,,,,,
61328792,1817,1813,1813,1818,,,,,
61331291,1821,1816,1816,1821,,,,,
61333790,1824,1819,1819,1824,,,,,
61336289,1827,1822,1822,1827,,,,,
61338788,1830,1825,1825,1831,,,,,
61341287,1833,1828,1828,1834,,,,,
61343786,1836,1831,1831,1837,,,,,
61346285,1839,1834,1834,1840,,,,,
61348784,1842,1837,1837,1843,,,,,
61351283,1845,1841,1840,1846,,,,,
61353782,1848,1844,1843,1849,,,,,
61356281,1851,1847,1846,1852,,,,,
61358780,1854,1850,1850,1855,,,,,
61361279,1857,1853,1853,1858,,,,,
61363778,1860,1856,1856,1861,,,,,
61366277,1863,1859,1859,1864,,,,,
61368776,1866,1861,1861,1866,,,,,
61371275,1865,1860,1860,1865,,,,,
61373774,1863,1859,1859,1864,,,,,
61376273,1862,1858,1858,1863,,,,,
61378772,1861,1857,1857,1862,,,,,
61381271,1860,1855,1856,1861,,,,,
61383770,1859,1854,1854,1860,,,,,
61386269,1858,1853,1853,1859,,,,,
61388768,1857,1852,1853,1858,,,,,
61391267,1856,1851,1852,1857,,,,,
61393766,1856,1851,1851,1856,,,,,
61396265,1855,1850,1850,1855,,,,,
61398764,1854,1849,1849,1855,,,,,
61401263,1854,1848,1849,1854,,,,,
61403762,1853,1848,1848,1853,,,,,
61406261,1853,1847,1847,1853,,,,,
61408760,1852,1847,1847,1853,,,,,
61411259,1852,1846,1847,1852,,,,,
61413758,1852,1846,1847,1852,,,,,
61416257,1852,1846,1846,1852,,,,,
61418756,1852,1846,1846,1852,,,,,
61421255,1852,1846,1846,1852,,,,,
61423754,1852,1846,1847,1852,,,,,
61426253,1852,1846,1847,1853,,,,,
61428752,1853,1847,1847,1853,,,,,
61431251,1853,1847,1847,1853,,,,,
61433750,1854,1847,1848,1854,,,,,
61436249,1854,1848,1848,1854,,,,,
61438748,1855,1848,1849,1855,,,,,
61441247,1855,1849,1849,1855,,,,,
61443746,1856,1850,1850,1856,,,,,
61446245,1856,1850,1850,1857,,,,,
61448744,1857,1851,1851,1857,,,,,
61451243,1858,1852,1852,1858,,,,,
61453742,1859,1852,1853,1859,,,,,
61456241,1859,1853,1853,1860,,,,,
61458740,1860,1854,1854,1861,,,,,
61461239,1861,1855,1855,1862,,,,,
61463738,1862,1856,1856,1862,,,,,
61466237,1863,1857,1857,1863,,,,,
61468736,1864,1858,1858,1864,,,,,
61471235,1864,1859,1859,1865,,,,,
61473734,1865,1860,1860,1866,,,,,
61476233,1866,1861,1861,1866,,,,,
61478732,1866,1861,1862,1866,,,,,
61481231,1866,1862,1862,1867,,,,,
61483730,1866,1862,1862,1867,,,,,
61486229,1866,1862,1862,1867,,,,,
61488728,1866,1862,1862,1867,,,,,
61491227,1866,1862,1862,1866,,,,,
61493726,1865,1862,1862,1866,,,,,
61496225,1864,1861,1861,1865,,,,,
61498724,1863,1860,1860,1864,,,,,
61501223,1862,1859,1859,1863,,,,,
61503722,1861,1858,1858,1861,,,,,
61506221,1860,1856,1857,1860,,,,,
61508720,1858,1855,1855,1858,,,,,
61511219,1856,1853,1853,1857,,,,,
61513718,1854,1851,1852,1855,,,,,
61516217,1852,1850,1850,1853,,,,,
61518716,1850,1848,1848,1851,,,,,
61521215,1848,1845,1846,1849,,,,,
61523714,1846,1843,1843,1846,,,,,
61526213,1843,1841,1841,1844,,,,,
61528712,1841,1838,1839,1841,,,,,
61531211,1838,1836,1836,1839,,,,,
61533710,1836,1833,1834,1836,,,,,
61536209,1833,1830,1831,1833,,,,,
61538708,1830,1828,1828,1830,,,,,
61541207,1827,1825,1825,1827,,,,,
61543706,1824,1822,1822,1824,,,,,
61546205,1821,1819,1819,1821,,,,,
61548704,1818,1816,1816,1818,,,,,
61551203,1815,1813,1813,1815,,,,,
61553702,1812,1810,1810,1812,,,,,
61556201,1809,1807,1807,1809,,,,,
61558700,1805,1803,1804,1806,,,,,
61561199,1802,1800,1801,1802,,,,,
61563698,1799,1797,1798,1799,,,,,
61566197,1796,1794,1794,1796,,,,,
61568696,1792,1791,1791,1792,,,,,
61571195,1789,1787,1788,1789,,,,,
61573694,1786,1784,1785,1786,,,,,
61576193,1782,1781,1781,1782,,,,,
61578692,1779,1778,1778,1779,,,,,
61581191,1776,1774,1775,1776,,,,,
61583690,1772,1771,1772,1772,,,,,
61586189,1769,1768,1768,1769,,,,,
61588688,1766,1765,1765,1766,,,,,
61591187,1762,1761,1762,1762,,,,,
61593686,1759,1758,1759,1759,,,,,
61596185,1756,1755,1755,1756,,,,,
61598684,1752,1752,1752,1752,,,,,
61601183,1749,1748,1749,1749,,,,,
61603682,1746,1745,1746,1746,,,,,
61606181,1742,1742,1742,1742,,,,,
61608680,1739,1739,1739,1739,,,,,
61611179,1736,1736,1736,1736,,,,,
61613678,1732,1732,1733,1733,,,,,
61616177,1729,1729,1730,1729,,,,,
61618676,1726,1726,1726,1726,,,,,
61621175,1723,1723,1723,1723,,,,,
61623674,1720,1720,1720,1720,,,,,
61626173,1717,1717,1717,1717,,,,,
61628672,1714,1714,1714,1714,,,,,
61631171,1710,1711,1711,1711,,,,,
61633670,1707,1708,1708,1708,,,,,
61636169,1704,1705,1705,1705,,,,,
61638668,1702,1702,1702,1702,,,,,
61641167,1699,1699,1700,1699,,,,,
61643666,1696,1696,1697,1696,,,,,
61646165,1693,1694,1694,1693,,,,,
61648664,1690,1691,1691,1690,,,,,
61651163,1688,1688,1689,1688,,,,,
61653662,1685,1686,1686,1685,,,,,
61656161,1682,1683,1684,1682,,,,,
61658660,1680,1681,1681,1680,,,,,
61661159,1677,1678,1679,1677,,,,,
