timestamp,TimeUS,C1,C2,C3,C4,C5,C6,C7,C8,C9,C10,C11,C12,C13,C14
1706422258.70004010,62928985,1000,1000,1000,1000,0,0,0,0,0,0,0,0,0,0
1706422258.79999995,63028945,1000,1000,1000,1000,0,0,0,0,0,0,0,0,0,0
1706422258.89996004,63128905,1000,1000,1000,1000,0,0,0,0,0,0,0,0,0,0
1706422258.99991989,63228865,1000,1000,1000,1000,0,0,0,0,0,0,0,0,0,0
1706422259.09987998,63328825,1000,1000,1000,1000,0,0,0,0,0,0,0,0,0,0
1706422259.19984007,63428785,1000,1000,1000,1000,0,0,0,0,0,0,0,0,0,0
1706422259.29979992,63528745,1000,1000,1000,1000,0,0,0,0,0,0,0,0,0,0
1706422259.39976001,63628705,1000,1000,1000,1000,0,0,0,0,0,0,0,0,0,0
1706422259.49972010,63728665,1000,1000,1000,1000,0,0,0,0,0,0,0,0,0,0
1706422259.59967995,63828625,1000,1000,1000,1000,0,0,0,0,0,0,0,0,0,0
1706422259.69964004,63928585,1000,1000,1000,1000,0,0,0,0,0,0,0,0,0,0
1706422259.79959989,64028545,1000,1000,1000,1000,0,0,0,0,0,0,0,0,0,0
1706422259.89955997,64128505,1000,1000,1000,1000,0,0,0,0,0,0,0,0,0,0
1706422259.99952006,64228465,1000,1000,1000,1000,0,0,0,0,0,0,0,0,0,0
1706422260.09947991,64328425,1000,1000,1000,1000,0,0,0,0,0,0,0,0,0,0
1706422260.19944000,64428385,1000,1000,1000,1000,0,0,0,0,0,0,0,0,0,0
1706422260.29940009,64528345,1000,1000,1000,1000,0,0,0,0,0,0,0,0,0,0
1706422260.39935994,64628305,1000,1000,1000,1000,0,0,0,0,0,0,0,0,0,0
1706422260.49932003,64728265,1000,1000,1000,1000,0,0,0,0,0,0,0,0,0,0
1706422260.59927988,64828225,1000,1000,1000,1000,0,0,0,0,0,0,0,0,0,0
1706422260.69923997,64928185,1015,1015,1015,1015,0,0,0,0,0,0,0,0,0,0
1706422260.80003309,65028978,1045,1045,1045,1045,0,0,0,0,0,0,0,0,0,0
1706422260.89999294,65128938,1075,1075,1075,1075,0,0,0,0,0,0,0,0,0,0
1706422260.99995303,65228898,1104,1104,1104,1104,0,0,0,0,0,0,0,0,0,0
1706422261.09991288,65328858,1134,1134,1134,1134,0,0,0,0,0,0,0,0,0,0
1706422261.19987297,65428818,1288,1280,1281,1289,0,0,0,0,0,0,0,0,0,0
1706422261.29983306,65528778,1495,1489,1489,1496,0,0,0,0,0,0,0,0,0,0
1706422261.39979291,65628738,1656,1650,1651,1656,0,0,0,0,0,0,0,0,0,0
1706422261.49975300,65728698,1793,1787,1788,1793,0,0,0,0,0,0,0,0,0,0
1706422261.59971309,65828658,1889,1884,1884,1889,0,0,0,0,0,0,0,0,0,0
1706422261.69967294,65928618,1869,1866,1867,1870,0,0,0,0,0,0,0,0,0,0
1706422261.79963303,66028578,1749,1748,1748,1749,0,0,0,0,0,0,0,0,0,0
1706422261.89959288,66128538,1657,1658,1658,1658,0,0,0,0,0,0,0,0,0,0
1706422261.99955297,66228498,1632,1634,1634,1632,0,0,0,0,0,0,0,0,0,0
1706422262.09951305,66328458,1639,1641,1641,1639,0,0,0,0,0,0,0,0,0,0
1706422262.19947290,66428418,1648,1649,1649,1647,0,0,0,0,0,0,0,0,0,0
1706422262.29943299,66528378,1646,1646,1646,1646,0,0,0,0,0,0,0,0,0,0
1706422262.39939308,66628338,1639,1638,1638,1639,0,0,0,0,0,0,0,0,0,0
1706422262.49935293,66728298,1631,1630,1629,1631,0,0,0,0,0,0,0,0,0,0
1706422262.59931302,66828258,1624,1623,1623,1624,0,0,0,0,0,0,0,0,0,0
1706422262.69927287,66928218,1622,1622,1622,1622,0,0,0,0,0,0,0,0,0,0
1706422262.79923296,67028178,1622,1621,1621,1621,0,0,0,0,0,0,0,0,0,0
1706422262.90002608,67128971,1621,1621,1621,1621,0,0,0,0,0,0,0,0,0,0
1706422262.99998593,67228931,1621,1622,1622,1621,0,0,0,0,0,0,0,0,0,0
1706422263.09994602,67328891,1622,1622,1622,1622,0,0,0,0,0,0,0,0,0,0
1706422263.19990587,67428851,1622,1623,1623,1623,0,0,0,0,0,0,0,0,0,0
1706422263.29986596,67528811,1624,1624,1624,1624,0,0,0,0,0,0,0,0,0,0
1706422263.39982605,67628771,1624,1624,1624,1624,0,0,0,0,0,0,0,0,0,0
1706422263.49978590,67728731,1626,1625,1626,1626,0,0,0,0,0,0,0,0,0,0
1706422263.59974599,67828691,1627,1626,1627,1627,0,0,0,0,0,0,0,0,0,0
1706422263.69970608,67928651,1627,1627,1627,1628,0,0,0,0,0,0,0,0,0,0
1706422263.79966593,68028611,1610,1611,1610,1610,0,0,0,0,0,0,0,0,0,0
1706422263.89962602,68128571,1593,1592,1592,1593,0,0,0,0,0,0,0,0,0,0
1706422263.99958587,68228531,1582,1581,1581,1582,0,0,0,0,0,0,0,0,0,0
1706422264.09954596,68328491,1573,1572,1572,1573,0,0,0,0,0,0,0,0,0,0
1706422264.19950604,68428451,1565,1565,1565,1565,0,0,0,0,0,0,0,0,0,0
1706422264.29946589,68528411,1558,1558,1558,1558,0,0,0,0,0,0,0,0,0,0
1706422264.39942598,68628371,1553,1553,1553,1552,0,0,0,0,0,0,0,0,0,0
1706422264.49938607,68728331,1547,1547,1547,1547,0,0,0,0,0,0,0,0,0,0
1706422264.59934592,68828291,1541,1542,1542,1541,0,0,0,0,0,0,0,0,0,0
1706422264.69930601,68928251,1537,1537,1537,1537,0,0,0,0,0,0,0,0,0,0
1706422264.79926610,69028211,1532,1532,1532,1532,0,0,0,0,0,0,0,0,0,0
1706422264.89922595,69128171,1529,1529,1529,1529,0,0,0,0,0,0,0,0,0,0
1706422265.00001907,69228964,1526,1526,1526,1526,0,0,0,0,0,0,0,0,0,0
1706422265.09997892,69328924,1524,1523,1523,1524,0,0,0,0,0,0,0,0,0,0
1706422265.19993901,69428884,1521,1521,1520,1521,0,0,0,0,0,0,0,0,0,0
1706422265.29989910,69528844,1519,1518,1518,1519,0,0,0,0,0,0,0,0,0,0
1706422265.39985895,69628804,1515,1515,1514,1515,0,0,0,0,0,0,0,0,0,0
1706422265.49981904,69728764,1512,1512,1512,1512,0,0,0,0,0,0,0,0,0,0
1706422265.59977889,69828724,1509,1509,1509,1509,0,0,0,0,0,0,0,0,0,0
1706422265.69973898,69928684,1506,1506,1506,1506,0,0,0,0,0,0,0,0,0,0
1706422265.79969907,70028644,1503,1503,1503,1503,0,0,0,0,0,0,0,0,0,0
1706422265.89965892,70128604,1501,1501,1501,1501,0,0,0,0,0,0,0,0,0,0
1706422265.99961901,70228564,1499,1498,1499,1499,0,0,0,0,0,0,0,0,0,0
1706422266.09957910,70328524,1496,1496,1496,1496,0,0,0,0,0,0,0,0,0,0
1706422266.19953895,70428484,1494,1494,1494,1494,0,0,0,0,0,0,0,0,0,0
1706422266.29949903,70528444,1493,1493,1492,1493,0,0,0,0,0,0,0,0,0,0
1706422266.39945889,70628404,1494,1494,1494,1493,0,0,0,0,0,0,0,0,0,0
1706422266.49941897,70728364,1496,1496,1497,1496,0,0,0,0,0,0,0,0,0,0
1706422266.59937906,70828324,1499,1499,1499,1499,0,0,0,0,0,0,0,0,0,0
1706422266.69933891,70928284,1500,1500,1500,1500,0,0,0,0,0,0,0,0,0,0
1706422266.79929900,71028244,1502,1502,1503,1502,0,0,0,0,0,0,0,0,0,0
1706422266.89925909,71128204,1504,1504,1504,1504,0,0,0,0,0,0,0,0,0,0
1706422266.99921894,71228164,1506,1506,1506,1505,0,0,0,0,0,0,0,0,0,0
1706422267.10001206,71328957,1508,1508,1508,1508,0,0,0,0,0,0,0,0,0,0
1706422267.19997191,71428917,1509,1509,1509,1509,0,0,0,0,0,0,0,0,0,0
1706422267.29993200,71528877,1511,1511,1511,1511,0,0,0,0,0,0,0,0,0,0
1706422267.39989209,71628837,1548,1548,1549,1547,0,0,0,0,0,0,0,0,0,0
1706422267.49985194,71728797,1564,1563,1563,1564,0,0,0,0,0,0,0,0,0,0
1706422267.59981203,71828757,1573,1572,1570,1574,0,0,0,0,0,0,0,0,0,0
1706422267.69977188,71928717,1578,1578,1575,1581,0,0,0,0,0,0,0,0,0,0
1706422267.79973197,72028677,1581,1581,1579,1584,0,0,0,0,0,0,0,0,0,0
1706422267.89969206,72128637,1584,1584,1582,1586,0,0,0,0,0,0,0,0,0,0
1706422267.99965191,72228597,1585,1585,1585,1585,0,0,0,0,0,0,0,0,0,0
1706422268.09961200,72328557,1584,1585,1586,1583,0,0,0,0,0,0,0,0,0,0
1706422268.19957209,72428517,1584,1584,1586,1581,0,0,0,0,0,0,0,0,0,0
1706422268.29953194,72528477,1583,1582,1585,1580,0,0,0,0,0,0,0,0,0,0
1706422268.39949203,72628437,1581,1581,1582,1579,0,0,0,0,0,0,0,0,0,0
1706422268.49945188,72728397,1579,1579,1579,1578,0,0,0,0,0,0,0,0,0,0
1706422268.59941196,72828357,1576,1576,1575,1577,0,0,0,0,0,0,0,0,0,0
1706422268.69937205,72928317,1575,1575,1573,1576,0,0,0,0,0,0,0,0,0,0
1706422268.79933190,73028277,1572,1573,1571,1574,0,0,0,0,0,0,0,0,0,0
1706422268.89929199,73128237,1567,1567,1572,1575,0,0,0,0,0,0,0,0,0,0
1706422268.99925208,73228197,1566,1566,1572,1573,0,0,0,0,0,0,0,0,0,0
1706422269.09921193,73328157,1566,1567,1571,1572,0,0,0,0,0,0,0,0,0,0
1706422269.20000505,73428950,1568,1568,1571,1570,0,0,0,0,0,0,0,0,0,0
1706422269.29996490,73528910,1567,1568,1569,1568,0,0,0,0,0,0,0,0,0,0
1706422269.39992499,73628870,1570,1570,1570,1569,0,0,0,0,0,0,0,0,0,0
1706422269.49988508,73728830,1571,1571,1569,1569,0,0,0,0,0,0,0,0,0,0
1706422269.59984493,73828790,1572,1572,1568,1568,0,0,0,0,0,0,0,0,0,0
1706422269.69980502,73928750,1573,1573,1569,1569,0,0,0,0,0,0,0,0,0,0
1706422269.79976487,74028710,1573,1573,1569,1569,0,0,0,0,0,0,0,0,0,0
1706422269.89972496,74128670,1573,1573,1569,1570,0,0,0,0,0,0,0,0,0,0
1706422269.99968505,74228630,1573,1573,1570,1571,0,0,0,0,0,0,0,0,0,0
1706422270.09964490,74328590,1575,1574,1572,1572,0,0,0,0,0,0,0,0,0,0
1706422270.19960499,74428550,1575,1575,1574,1573,0,0,0,0,0,0,0,0,0,0
1706422270.29956508,74528510,1575,1575,1576,1574,0,0,0,0,0,0,0,0,0,0
1706422270.39952493,74628470,1576,1576,1577,1576,0,0,0,0,0,0,0,0,0,0
1706422270.49948502,74728430,1576,1575,1578,1576,0,0,0,0,0,0,0,0,0,0
1706422270.59944487,74828390,1575,1576,1577,1577,0,0,0,0,0,0,0,0,0,0
1706422270.69940495,74928350,1575,1576,1577,1577,0,0,0,0,0,0,0,0,0,0
1706422270.79936504,75028310,1576,1577,1578,1578,0,0,0,0,0,0,0,0,0,0
1706422270.89932489,75128270,1576,1576,1577,1578,0,0,0,0,0,0,0,0,0,0
1706422270.99928498,75228230,1576,1576,1577,1577,0,0,0,0,0,0,0,0,0,0
1706422271.09924507,75328190,1577,1577,1577,1578,0,0,0,0,0,0,0,0,0,0
1706422271.20003796,75428983,1578,1579,1579,1578,0,0,0,0,0,0,0,0,0,0
1706422271.29999804,75528943,1577,1577,1577,1577,0,0,0,0,0,0,0,0,0,0
1706422271.39995790,75628903,1578,1578,1578,1577,0,0,0,0,0,0,0,0,0,0
1706422271.49991798,75728863,1579,1578,1577,1577,0,0,0,0,0,0,0,0,0,0
1706422271.59987807,75828823,1579,1578,1578,1578,0,0,0,0,0,0,0,0,0,0
1706422271.69983792,75928783,1578,1578,1578,1577,0,0,0,0,0,0,0,0,0,0
1706422271.79979801,76028743,1578,1578,1578,1577,0,0,0,0,0,0,0,0,0,0
1706422271.89975810,76128703,1578,1578,1577,1578,0,0,0,0,0,0,0,0,0,0
1706422271.99971795,76228663,1579,1580,1579,1579,0,0,0,0,0,0,0,0,0,0
1706422272.09967804,76328623,1579,1579,1579,1579,0,0,0,0,0,0,0,0,0,0
1706422272.19963789,76428583,1579,1579,1580,1579,0,0,0,0,0,0,0,0,0,0
1706422272.29959798,76528543,1580,1580,1580,1580,0,0,0,0,0,0,0,0,0,0
1706422272.39955807,76628503,1580,1580,1580,1581,0,0,0,0,0,0,0,0,0,0
1706422272.49951792,76728463,1580,1580,1580,1580,0,0,0,0,0,0,0,0,0,0
1706422272.59947801,76828423,1579,1579,1580,1579,0,0,0,0,0,0,0,0,0,0
1706422272.69943810,76928383,1580,1580,1580,1580,0,0,0,0,0,0,0,0,0,0
1706422272.79939795,77028343,1579,1579,1579,1580,0,0,0,0,0,0,0,0,0,0
1706422272.89935803,77128303,1580,1580,1579,1580,0,0,0,0,0,0,0,0,0,0
1706422272.99931788,77228263,1580,1580,1580,1580,0,0,0,0,0,0,0,0,0,0
1706422273.09927797,77328223,1580,1580,1579,1580,0,0,0,0,0,0,0,0,0,0
1706422273.19923806,77428183,1581,1581,1581,1580,0,0,0,0,0,0,0,0,0,0
1706422273.30003095,77528976,1581,1581,1581,1581,0,0,0,0,0,0,0,0,0,0
1706422273.39999104,77628936,1581,1581,1581,1581,0,0,0,0,0,0,0,0,0,0
1706422273.49995089,77728896,1580,1581,1580,1580,0,0,0,0,0,0,0,0,0,0
1706422273.59991097,77828856,1581,1580,1580,1580,0,0,0,0,0,0,0,0,0,0
1706422273.69987106,77928816,1580,1580,1580,1580,0,0,0,0,0,0,0,0,0,0
1706422273.79983091,78028776,1579,1579,1579,1579,0,0,0,0,0,0,0,0,0,0
1706422273.89979100,78128736,1580,1580,1580,1580,0,0,0,0,0,0,0,0,0,0
1706422273.99975109,78228696,1580,1580,1580,1580,0,0,0,0,0,0,0,0,0,0
1706422274.09971094,78328656,1580,1581,1581,1580,0,0,0,0,0,0,0,0,0,0
1706422274.19967103,78428616,1580,1581,1581,1581,0,0,0,0,0,0,0,0,0,0
1706422274.29963088,78528576,1580,1580,1580,1580,0,0,0,0,0,0,0,0,0,0
1706422274.39959097,78628536,1580,1580,1580,1580,0,0,0,0,0,0,0,0,0,0
1706422274.49955106,78728496,1581,1580,1580,1581,0,0,0,0,0,0,0,0,0,0
1706422274.59951091,78828456,1580,1581,1581,1580,0,0,0,0,0,0,0,0,0,0
1706422274.69947100,78928416,1580,1580,1581,1580,0,0,0,0,0,0,0,0,0,0
1706422274.79943109,79028376,1581,1582,1582,1581,0,0,0,0,0,0,0,0,0,0
1706422274.89939094,79128336,1581,1582,1581,1582,0,0,0,0,0,0,0,0,0,0
1706422274.99935102,79228296,1581,1581,1583,1580,0,0,0,0,0,0,0,0,0,0
1706422275.09931087,79328256,1580,1581,1587,1573,0,0,0,0,0,0,0,0,0,0
1706422275.19927096,79428216,1578,1581,1581,1572,0,0,0,0,0,0,0,0,0,0
1706422275.29923105,79528176,1578,1580,1574,1572,0,0,0,0,0,0,0,0,0,0
1706422275.40002394,79628969,1576,1579,1565,1570,0,0,0,0,0,0,0,0,0,0
1706422275.49998403,79728929,1577,1578,1559,1566,0,0,0,0,0,0,0,0,0,0
1706422275.59994388,79828889,1576,1577,1555,1560,0,0,0,0,0,0,0,0,0,0
1706422275.69990396,79928849,1578,1577,1554,1557,0,0,0,0,0,0,0,0,0,0
1706422275.79986405,80028809,1579,1578,1555,1554,0,0,0,0,0,0,0,0,0,0
1706422275.89982390,80128769,1579,1578,1555,1554,0,0,0,0,0,0,0,0,0,0
1706422275.99978399,80228729,1578,1578,1556,1553,0,0,0,0,0,0,0,0,0,0
1706422276.09974408,80328689,1577,1577,1556,1554,0,0,0,0,0,0,0,0,0,0
1706422276.19970393,80428649,1577,1578,1556,1555,0,0,0,0,0,0,0,0,0,0
1706422276.29966402,80528609,1575,1577,1554,1554,0,0,0,0,0,0,0,0,0,0
1706422276.39962387,80628569,1574,1576,1552,1552,0,0,0,0,0,0,0,0,0,0
1706422276.49958396,80728529,1576,1577,1551,1552,0,0,0,0,0,0,0,0,0,0
1706422276.59954405,80828489,1577,1578,1550,1550,0,0,0,0,0,0,0,0,0,0
1706422276.69950390,80928449,1579,1580,1547,1547,0,0,0,0,0,0,0,0,0,0
1706422276.79946399,81028409,1582,1583,1545,1545,0,0,0,0,0,0,0,0,0,0
1706422276.89942408,81128369,1586,1586,1543,1543,0,0,0,0,0,0,0,0,0,0
1706422276.99938393,81228329,1589,1590,1540,1540,0,0,0,0,0,0,0,0,0,0
1706422277.09934402,81328289,1591,1592,1537,1537,0,0,0,0,0,0,0,0,0,0
1706422277.19930387,81428249,1594,1594,1536,1536,0,0,0,0,0,0,0,0,0,0
1706422277.29926395,81528209,1595,1595,1535,1536,0,0,0,0,0,0,0,0,0,0
1706422277.39922404,81628169,1595,1595,1535,1537,0,0,0,0,0,0,0,0,0,0
1706422277.50001693,81728962,1594,1593,1537,1539,0,0,0,0,0,0,0,0,0,0
1706422277.59997702,81828922,1591,1590,1541,1543,0,0,0,0,0,0,0,0,0,0
1706422277.69993687,81928882,1587,1585,1547,1550,0,0,0,0,0,0,0,0,0,0
1706422277.79989696,82028842,1580,1578,1556,1558,0,0,0,0,0,0,0,0,0,0
1706422277.89985704,82128802,1572,1567,1566,1569,0,0,0,0,0,0,0,0,0,0
1706422277.99981689,82228762,1560,1556,1578,1580,0,0,0,0,0,0,0,0,0,0
1706422278.09977698,82328722,1549,1546,1590,1591,0,0,0,0,0,0,0,0,0,0
1706422278.19973707,82428682,1540,1538,1601,1601,0,0,0,0,0,0,0,0,0,0
1706422278.29969692,82528642,1533,1533,1610,1609,0,0,0,0,0,0,0,0,0,0
1706422278.39965701,82628602,1527,1529,1613,1612,0,0,0,0,0,0,0,0,0,0
1706422278.49961710,82728562,1529,1530,1614,1614,0,0,0,0,0,0,0,0,0,0
1706422278.59957695,82828522,1533,1535,1612,1612,0,0,0,0,0,0,0,0,0,0
1706422278.69953704,82928482,1539,1542,1608,1607,0,0,0,0,0,0,0,0,0,0
1706422278.79949689,83028442,1548,1549,1601,1601,0,0,0,0,0,0,0,0,0,0
1706422278.89945698,83128402,1557,1558,1594,1594,0,0,0,0,0,0,0,0,0,0
1706422278.99941707,83228362,1565,1565,1586,1586,0,0,0,0,0,0,0,0,0,0
1706422279.09937692,83328322,1572,1572,1579,1578,0,0,0,0,0,0,0,0,0,0
1706422279.19933701,83428282,1578,1578,1573,1572,0,0,0,0,0,0,0,0,0,0
1706422279.29929709,83528242,1583,1582,1568,1568,0,0,0,0,0,0,0,0,0,0
1706422279.39925694,83628202,1586,1585,1566,1566,0,0,0,0,0,0,0,0,0,0
1706422279.49921703,83728162,1587,1586,1566,1566,0,0,0,0,0,0,0,0,0,0
1706422279.60000992,83828955,1587,1586,1567,1567,0,0,0,0,0,0,0,0,0,0
1706422279.69997001,83928915,1585,1584,1568,1569,0,0,0,0,0,0,0,0,0,0
1706422279.79993010,84028875,1582,1581,1570,1571,0,0,0,0,0,0,0,0,0,0
1706422279.89988995,84128835,1580,1579,1574,1574,0,0,0,0,0,0,0,0,0,0
1706422279.99985003,84228795,1577,1578,1578,1577,0,0,0,0,0,0,0,0,0,0
1706422280.09980989,84328755,1575,1576,1580,1580,0,0,0,0,0,0,0,0,0,0
1706422280.19976997,84428715,1573,1574,1582,1582,0,0,0,0,0,0,0,0,0,0
1706422280.29973006,84528675,1572,1573,1584,1583,0,0,0,0,0,0,0,0,0,0
1706422280.39968991,84628635,1572,1573,1584,1583,0,0,0,0,0,0,0,0,0,0
1706422280.49965000,84728595,1573,1574,1584,1584,0,0,0,0,0,0,0,0,0,0
1706422280.59961009,84828555,1573,1574,1583,1583,0,0,0,0,0,0,0,0,0,0
1706422280.69956994,84928515,1576,1575,1582,1583,0,0,0,0,0,0,0,0,0,0
1706422280.79953003,85028475,1509,1546,1596,1599,0,0,0,0,0,0,0,0,0,0
1706422280.89948988,85128435,1552,1536,1596,1599,0,0,0,0,0,0,0,0,0,0
1706422280.99944997,85228395,1584,1545,1596,1598,0,0,0,0,0,0,0,0,0,0
1706422281.09941006,85328355,1604,1563,1593,1595,0,0,0,0,0,0,0,0,0,0
1706422281.19936991,85428315,1612,1583,1589,1590,0,0,0,0,0,0,0,0,0,0
1706422281.29933000,85528275,1611,1599,1582,1582,0,0,0,0,0,0,0,0,0,0
1706422281.39929008,85628235,1606,1609,1577,1575,0,0,0,0,0,0,0,0,0,0
1706422281.49924994,85728195,1601,1614,1575,1572,0,0,0,0,0,0,0,0,0,0
1706422281.59921002,85828155,1599,1613,1574,1571,0,0,0,0,0,0,0,0,0,0
1706422281.70000291,85928948,1598,1609,1576,1573,0,0,0,0,0,0,0,0,0,0
1706422281.79996300,86028908,1596,1602,1577,1575,0,0,0,0,0,0,0,0,0,0
1706422281.89992309,86128868,1595,1597,1579,1578,0,0,0,0,0,0,0,0,0,0
1706422281.99988294,86228828,1592,1590,1579,1579,0,0,0,0,0,0,0,0,0,0
1706422282.09984303,86328788,1588,1585,1580,1581,0,0,0,0,0,0,0,0,0,0
1706422282.19980288,86428748,1583,1582,1581,1583,0,0,0,0,0,0,0,0,0,0
1706422282.29976296,86528708,1579,1580,1582,1584,0,0,0,0,0,0,0,0,0,0
1706422282.39972305,86628668,1576,1578,1583,1585,0,0,0,0,0,0,0,0,0,0
1706422282.49968290,86728628,1573,1576,1583,1584,0,0,0,0,0,0,0,0,0,0
1706422282.59964299,86828588,1574,1577,1584,1584,0,0,0,0,0,0,0,0,0,0
1706422282.69960308,86928548,1574,1577,1583,1583,0,0,0,0,0,0,0,0,0,0
1706422282.79956293,87028508,1576,1577,1582,1582,0,0,0,0,0,0,0,0,0,0
1706422282.89952302,87128468,1578,1579,1581,1581,0,0,0,0,0,0,0,0,0,0
1706422282.99948287,87228428,1580,1579,1582,1577,0,0,0,0,0,0,0,0,0,0
1706422283.09944296,87328388,1582,1580,1585,1570,0,0,0,0,0,0,0,0,0,0
1706422283.19940305,87428348,1583,1582,1579,1569,0,0,0,0,0,0,0,0,0,0
1706422283.29936290,87528308,1580,1580,1569,1568,0,0,0,0,0,0,0,0,0,0
1706422283.39932299,87628268,1578,1580,1560,1566,0,0,0,0,0,0,0,0,0,0
1706422283.49928308,87728228,1577,1579,1556,1563,0,0,0,0,0,0,0,0,0,0
1706422283.59924293,87828188,1576,1578,1554,1559,0,0,0,0,0,0,0,0,0,0
1706422283.70003605,87928981,1576,1577,1554,1556,0,0,0,0,0,0,0,0,0,0
1706422283.79999590,88028941,1576,1576,1555,1554,0,0,0,0,0,0,0,0,0,0
1706422283.89995599,88128901,1576,1575,1556,1554,0,0,0,0,0,0,0,0,0,0
1706422283.99991608,88228861,1575,1574,1555,1553,0,0,0,0,0,0,0,0,0,0
1706422284.09987593,88328821,1575,1574,1555,1554,0,0,0,0,0,0,0,0,0,0
1706422284.19983602,88428781,1573,1574,1553,1553,0,0,0,0,0,0,0,0,0,0
1706422284.29979587,88528741,1573,1574,1553,1553,0,0,0,0,0,0,0,0,0,0
1706422284.39975595,88628701,1573,1575,1552,1552,0,0,0,0,0,0,0,0,0,0
1706422284.49971604,88728661,1574,1576,1549,1550,0,0,0,0,0,0,0,0,0,0
1706422284.59967589,88828621,1575,1577,1547,1547,0,0,0,0,0,0,0,0,0,0
1706422284.69963598,88928581,1578,1579,1545,1545,0,0,0,0,0,0,0,0,0,0
1706422284.79959607,89028541,1581,1582,1543,1543,0,0,0,0,0,0,0,0,0,0
1706422284.89955592,89128501,1583,1584,1539,1540,0,0,0,0,0,0,0,0,0,0
1706422284.99951601,89228461,1586,1587,1537,1536,0,0,0,0,0,0,0,0,0,0
1706422285.09947610,89328421,1589,1589,1535,1534,0,0,0,0,0,0,0,0,0,0
1706422285.19943595,89428381,1593,1592,1534,1534,0,0,0,0,0,0,0,0,0,0
1706422285.29939604,89528341,1594,1593,1533,1534,0,0,0,0,0,0,0,0,0,0
1706422285.39935589,89628301,1595,1594,1536,1537,0,0,0,0,0,0,0,0,0,0
1706422285.49931598,89728261,1593,1591,1537,1540,0,0,0,0,0,0,0,0,0,0
1706422285.59927607,89828221,1589,1587,1541,1544,0,0,0,0,0,0,0,0,0,0
1706422285.69923592,89928181,1585,1582,1547,1550,0,0,0,0,0,0,0,0,0,0
1706422285.80002904,90028974,1578,1577,1554,1558,0,0,0,0,0,0,0,0,0,0
1706422285.89998889,90128934,1571,1569,1564,1567,0,0,0,0,0,0,0,0,0,0
1706422285.99994898,90228894,1560,1558,1574,1576,0,0,0,0,0,0,0,0,0,0
1706422286.09990907,90328854,1550,1549,1585,1586,0,0,0,0,0,0,0,0,0,0
1706422286.19986892,90428814,1541,1540,1595,1595,0,0,0,0,0,0,0,0,0,0
1706422286.29982901,90528774,1535,1534,1602,1602,0,0,0,0,0,0,0,0,0,0
1706422286.39978909,90628734,1530,1531,1608,1607,0,0,0,0,0,0,0,0,0,0
1706422286.49974895,90728694,1528,1530,1609,1608,0,0,0,0,0,0,0,0,0,0
1706422286.59970903,90828654,1531,1533,1609,1608,0,0,0,0,0,0,0,0,0,0
1706422286.69966888,90928614,1536,1538,1606,1605,0,0,0,0,0,0,0,0,0,0
1706422286.79962897,91028574,1542,1544,1599,1599,0,0,0,0,0,0,0,0,0,0
1706422286.89958906,91128534,1549,1551,1592,1592,0,0,0,0,0,0,0,0,0,0
1706422286.99954891,91228494,1558,1559,1585,1586,0,0,0,0,0,0,0,0,0,0
1706422287.09950900,91328454,1567,1567,1580,1580,0,0,0,0,0,0,0,0,0,0
1706422287.19946909,91428414,1574,1572,1575,1574,0,0,0,0,0,0,0,0,0,0
1706422287.29942894,91528374,1580,1578,1572,1571,0,0,0,0,0,0,0,0,0,0
1706422287.39938903,91628334,1584,1581,1569,1568,0,0,0,0,0,0,0,0,0,0
1706422287.49934888,91728294,1585,1583,1567,1567,0,0,0,0,0,0,0,0,0,0
1706422287.59930897,91828254,1586,1585,1567,1567,0,0,0,0,0,0,0,0,0,0
1706422287.69926906,91928214,1586,1585,1569,1569,0,0,0,0,0,0,0,0,0,0
1706422287.79922891,92028174,1584,1583,1570,1571,0,0,0,0,0,0,0,0,0,0
1706422287.90002203,92128967,1582,1581,1573,1573,0,0,0,0,0,0,0,0,0,0
1706422287.99998188,92228927,1581,1581,1577,1577,0,0,0,0,0,0,0,0,0,0
1706422288.09994197,92328887,1578,1578,1579,1579,0,0,0,0,0,0,0,0,0,0
1706422288.19990206,92428847,1575,1576,1580,1580,0,0,0,0,0,0,0,0,0,0
1706422288.29986191,92528807,1574,1575,1582,1581,0,0,0,0,0,0,0,0,0,0
1706422288.39982200,92628767,1573,1574,1582,1583,0,0,0,0,0,0,0,0,0,0
1706422288.49978209,92728727,1574,1575,1583,1583,0,0,0,0,0,0,0,0,0,0
1706422288.59974194,92828687,1574,1574,1583,1582,0,0,0,0,0,0,0,0,0,0
1706422288.69970202,92928647,1575,1575,1582,1582,0,0,0,0,0,0,0,0,0,0
1706422288.79966187,93028607,1576,1576,1581,1582,0,0,0,0,0,0,0,0,0,0
1706422288.89962196,93128567,1578,1578,1581,1581,0,0,0,0,0,0,0,0,0,0
1706422288.99958205,93228527,1579,1579,1580,1580,0,0,0,0,0,0,0,0,0,0
1706422289.09954190,93328487,1580,1579,1578,1578,0,0,0,0,0,0,0,0,0,0
1706422289.19950199,93428447,1581,1581,1578,1578,0,0,0,0,0,0,0,0,0,0
1706422289.29946208,93528407,1581,1581,1578,1578,0,0,0,0,0,0,0,0,0,0
1706422289.39942193,93628367,1582,1582,1578,1578,0,0,0,0,0,0,0,0,0,0
1706422289.49938202,93728327,1582,1582,1578,1578,0,0,0,0,0,0,0,0,0,0
1706422289.59934187,93828287,1583,1583,1579,1579,0,0,0,0,0,0,0,0,0,0
1706422289.69930196,93928247,1583,1582,1579,1579,0,0,0,0,0,0,0,0,0,0
1706422289.79926205,94028207,1581,1581,1579,1579,0,0,0,0,0,0,0,0,0,0
1706422289.89922190,94128167,1581,1581,1580,1580,0,0,0,0,0,0,0,0,0,0
1706422290.00001502,94228960,1580,1580,1580,1580,0,0,0,0,0,0,0,0,0,0
1706422290.09997487,94328920,1580,1580,1580,1581,0,0,0,0,0,0,0,0,0,0
1706422290.19993496,94428880,1579,1580,1580,1581,0,0,0,0,0,0,0,0,0,0
1706422290.29989505,94528840,1578,1579,1580,1580,0,0,0,0,0,0,0,0,0,0
1706422290.39985490,94628800,1579,1579,1580,1580,0,0,0,0,0,0,0,0,0,0
1706422290.49981499,94728760,1578,1579,1580,1580,0,0,0,0,0,0,0,0,0,0
1706422290.59977508,94828720,1580,1580,1582,1581,0,0,0,0,0,0,0,0,0,0
1706422290.69973493,94928680,1580,1580,1581,1581,0,0,0,0,0,0,0,0,0,0
1706422290.79969501,95028640,1581,1580,1581,1581,0,0,0,0,0,0,0,0,0,0
1706422290.89965487,95128600,1582,1581,1581,1582,0,0,0,0,0,0,0,0,0,0
1706422290.99961495,95228560,1581,1581,1580,1581,0,0,0,0,0,0,0,0,0,0
1706422291.09957504,95328520,1581,1581,1580,1580,0,0,0,0,0,0,0,0,0,0
1706422291.19953489,95428480,1582,1582,1581,1581,0,0,0,0,0,0,0,0,0,0
1706422291.29949498,95528440,1581,1582,1581,1581,0,0,0,0,0,0,0,0,0,0
1706422291.39945507,95628400,1581,1581,1580,1580,0,0,0,0,0,0,0,0,0,0
1706422291.49941492,95728360,1581,1581,1580,1581,0,0,0,0,0,0,0,0,0,0
1706422291.59937501,95828320,1581,1580,1580,1580,0,0,0,0,0,0,0,0,0,0
1706422291.69933510,95928280,1581,1581,1581,1581,0,0,0,0,0,0,0,0,0,0
1706422291.79929495,96028240,1581,1582,1588,1573,0,0,0,0,0,0,0,0,0,0
1706422291.89925504,96128200,1580,1582,1584,1573,0,0,0,0,0,0,0,0,0,0
1706422291.99921489,96228160,1579,1581,1576,1573,0,0,0,0,0,0,0,0,0,0
1706422292.10000801,96328953,1577,1580,1567,1571,0,0,0,0,0,0,0,0,0,0
1706422292.19996810,96428913,1576,1579,1560,1567,0,0,0,0,0,0,0,0,0,0
1706422292.29992795,96528873,1577,1578,1556,1562,0,0,0,0,0,0,0,0,0,0
1706422292.39988804,96628833,1578,1578,1555,1558,0,0,0,0,0,0,0,0,0,0
1706422292.49984789,96728793,1579,1578,1555,1555,0,0,0,0,0,0,0,0,0,0
1706422292.59980798,96828753,1579,1577,1555,1553,0,0,0,0,0,0,0,0,0,0
1706422292.69976807,96928713,1578,1578,1556,1554,0,0,0,0,0,0,0,0,0,0
1706422292.79972792,97028673,1578,1578,1556,1554,0,0,0,0,0,0,0,0,0,0
1706422292.89968801,97128633,1577,1578,1556,1555,0,0,0,0,0,0,0,0,0,0
1706422292.99964809,97228593,1576,1578,1556,1555,0,0,0,0,0,0,0,0,0,0
1706422293.09960794,97328553,1576,1578,1554,1554,0,0,0,0,0,0,0,0,0,0
1706422293.19956803,97428513,1576,1577,1553,1553,0,0,0,0,0,0,0,0,0,0
1706422293.29952788,97528473,1577,1579,1551,1552,0,0,0,0,0,0,0,0,0,0
1706422293.39948797,97628433,1578,1580,1549,1549,0,0,0,0,0,0,0,0,0,0
1706422293.49944806,97728393,1581,1582,1548,1547,0,0,0,0,0,0,0,0,0,0
1706422293.59940791,97828353,1583,1584,1545,1545,0,0,0,0,0,0,0,0,0,0
1706422293.69936800,97928313,1586,1587,1543,1542,0,0,0,0,0,0,0,0,0,0
1706422293.79932809,98028273,1588,1589,1540,1540,0,0,0,0,0,0,0,0,0,0
1706422293.89928794,98128233,1591,1591,1539,1539,0,0,0,0,0,0,0,0,0,0
1706422293.99924803,98228193,1592,1592,1538,1538,0,0,0,0,0,0,0,0,0,0
1706422294.10004091,98328986,1594,1594,1538,1540,0,0,0,0,0,0,0,0,0,0
1706422294.20000100,98428946,1592,1592,1538,1540,0,0,0,0,0,0,0,0,0,0
1706422294.29996109,98528906,1591,1590,1540,1543,0,0,0,0,0,0,0,0,0,0
1706422294.39992094,98628866,1588,1587,1545,1548,0,0,0,0,0,0,0,0,0,0
1706422294.49988103,98728826,1583,1580,1552,1556,0,0,0,0,0,0,0,0,0,0
1706422294.59984088,98828786,1576,1573,1562,1564,0,0,0,0,0,0,0,0,0,0
1706422294.69980097,98928746,1566,1563,1573,1574,0,0,0,0,0,0,0,0,0,0
1706422294.79976106,99028706,1556,1553,1584,1585,0,0,0,0,0,0,0,0,0,0
1706422294.89972091,99128666,1547,1545,1595,1595,0,0,0,0,0,0,0,0,0,0
1706422294.99968100,99228626,1539,1539,1603,1603,0,0,0,0,0,0,0,0,0,0
1706422295.09964108,99328586,1534,1536,1610,1609,0,0,0,0,0,0,0,0,0,0
1706422295.19960093,99428546,1533,1535,1612,1612,0,0,0,0,0,0,0,0,0,0
1706422295.29956102,99528506,1534,1537,1612,1611,0,0,0,0,0,0,0,0,0,0
1706422295.39952087,99628466,1538,1542,1609,1608,0,0,0,0,0,0,0,0,0,0
1706422295.49948096,99728426,1545,1547,1603,1603,0,0,0,0,0,0,0,0,0,0
1706422295.59944105,99828386,1552,1554,1597,1596,0,0,0,0,0,0,0,0,0,0
1706422295.69940090,99928346,1560,1560,1590,1589,0,0,0,0,0,0,0,0,0,0
1706422295.79936099,100028306,1568,1567,1583,1582,0,0,0,0,0,0,0,0,0,0
1706422295.89932108,100128266,1574,1573,1577,1576,0,0,0,0,0,0,0,0,0,0
1706422295.99928093,100228226,1580,1578,1572,1572,0,0,0,0,0,0,0,0,0,0
1706422296.09924102,100328186,1584,1582,1569,1569,0,0,0,0,0,0,0,0,0,0
1706422296.20003390,100428979,1586,1584,1567,1568,0,0,0,0,0,0,0,0,0,0
1706422296.29999399,100528939,1587,1585,1568,1568,0,0,0,0,0,0,0,0,0,0
1706422296.39995408,100628899,1586,1585,1569,1569,0,0,0,0,0,0,0,0,0,0
1706422296.49991393,100728859,1585,1584,1572,1571,0,0,0,0,0,0,0,0,0,0
1706422296.59987402,100828819,1582,1582,1573,1573,0,0,0,0,0,0,0,0,0,0
1706422296.69983387,100928779,1580,1580,1576,1577,0,0,0,0,0,0,0,0,0,0
1706422296.79979396,101028739,1578,1578,1579,1579,0,0,0,0,0,0,0,0,0,0
1706422296.89975405,101128699,1576,1576,1581,1581,0,0,0,0,0,0,0,0,0,0
1706422296.99971390,101228659,1575,1575,1583,1583,0,0,0,0,0,0,0,0,0,0
1706422297.09967399,101328619,1574,1575,1584,1584,0,0,0,0,0,0,0,0,0,0
1706422297.19963408,101428579,1574,1574,1584,1584,0,0,0,0,0,0,0,0,0,0
1706422297.29959393,101528539,1574,1575,1584,1584,0,0,0,0,0,0,0,0,0,0
1706422297.39955401,101628499,1575,1576,1583,1583,0,0,0,0,0,0,0,0,0,0
1706422297.49951386,101728459,1576,1576,1582,1582,0,0,0,0,0,0,0,0,0,0
1706422297.59947395,101828419,1577,1578,1581,1581,0,0,0,0,0,0,0,0,0,0
1706422297.69943404,101928379,1579,1579,1580,1580,0,0,0,0,0,0,0,0,0,0
1706422297.79939389,102028339,1580,1580,1580,1579,0,0,0,0,0,0,0,0,0,0
1706422297.89935398,102128299,1582,1581,1579,1579,0,0,0,0,0,0,0,0,0,0
1706422297.99931407,102228259,1581,1580,1578,1577,0,0,0,0,0,0,0,0,0,0
1706422298.09927392,102328219,1581,1581,1577,1577,0,0,0,0,0,0,0,0,0,0
1706422298.19923401,102428179,1581,1581,1577,1578,0,0,0,0,0,0,0,0,0,0
1706422298.30002689,102528972,1582,1582,1578,1578,0,0,0,0,0,0,0,0,0,0
1706422298.39998698,102628932,1581,1581,1578,1578,0,0,0,0,0,0,0,0,0,0
1706422298.49994707,102728892,1580,1581,1579,1578,0,0,0,0,0,0,0,0,0,0
1706422298.59990692,102828852,1580,1580,1579,1579,0,0,0,0,0,0,0,0,0,0
1706422298.69986701,102928812,1580,1581,1580,1580,0,0,0,0,0,0,0,0,0,0
1706422298.79982710,103028772,1580,1580,1580,1580,0,0,0,0,0,0,0,0,0,0
1706422298.89978695,103128732,1580,1579,1580,1581,0,0,0,0,0,0,0,0,0,0
1706422298.99974704,103228692,1580,1580,1581,1581,0,0,0,0,0,0,0,0,0,0
1706422299.09970689,103328652,1580,1580,1581,1581,0,0,0,0,0,0,0,0,0,0
1706422299.19966698,103428612,1580,1580,1581,1581,0,0,0,0,0,0,0,0,0,0
1706422299.29962707,103528572,1579,1579,1580,1580,0,0,0,0,0,0,0,0,0,0
1706422299.39958692,103628532,1580,1581,1582,1581,0,0,0,0,0,0,0,0,0,0
1706422299.49954700,103728492,1580,1580,1581,1581,0,0,0,0,0,0,0,0,0,0
1706422299.59950709,103828452,1581,1581,1581,1581,0,0,0,0,0,0,0,0,0,0
1706422299.69946694,103928412,1581,1580,1580,1581,0,0,0,0,0,0,0,0,0,0
1706422299.79942703,104028372,1581,1582,1587,1574,0,0,0,0,0,0,0,0,0,0
1706422299.89938688,104128332,1580,1580,1585,1572,0,0,0,0,0,0,0,0,0,0
1706422299.99934697,104228292,1579,1579,1579,1575,0,0,0,0,0,0,0,0,0,0
1706422300.09930706,104328252,1576,1575,1572,1575,0,0,0,0,0,0,0,0,0,0
1706422300.19926691,104428212,1573,1572,1567,1574,0,0,0,0,0,0,0,0,0,0
1706422300.29922700,104528172,1570,1570,1565,1572,0,0,0,0,0,0,0,0,0,0
1706422300.40001988,104628965,1568,1569,1565,1569,0,0,0,0,0,0,0,0,0,0
1706422300.49997997,104728925,1567,1567,1566,1567,0,0,0,0,0,0,0,0,0,0
1706422300.59994006,104828885,1566,1566,1567,1565,0,0,0,0,0,0,0,0,0,0
1706422300.69989991,104928845,1566,1566,1568,1566,0,0,0,0,0,0,0,0,0,0
1706422300.79986000,105028805,1566,1566,1568,1566,0,0,0,0,0,0,0,0,0,0
1706422300.89982009,105128765,1565,1565,1567,1566,0,0,0,0,0,0,0,0,0,0
1706422300.99977994,105228725,1564,1564,1566,1565,0,0,0,0,0,0,0,0,0,0
1706422301.09974003,105328685,1564,1563,1565,1565,0,0,0,0,0,0,0,0,0,0
1706422301.19969988,105428645,1562,1563,1563,1563,0,0,0,0,0,0,0,0,0,0
1706422301.29965997,105528605,1563,1562,1563,1563,0,0,0,0,0,0,0,0,0,0
1706422301.39962006,105628565,1562,1562,1563,1562,0,0,0,0,0,0,0,0,0,0
1706422301.49957991,105728525,1562,1562,1562,1562,0,0,0,0,0,0,0,0,0,0
1706422301.59954000,105828485,1561,1561,1562,1561,0,0,0,0,0,0,0,0,0,0
1706422301.69950008,105928445,1561,1561,1561,1560,0,0,0,0,0,0,0,0,0,0
1706422301.79945993,106028405,1560,1560,1560,1559,0,0,0,0,0,0,0,0,0,0
1706422301.89942002,106128365,1559,1559,1559,1559,0,0,0,0,0,0,0,0,0,0
1706422301.99937987,106228325,1558,1559,1559,1557,0,0,0,0,0,0,0,0,0,0
1706422302.09933996,106328285,1559,1559,1559,1558,0,0,0,0,0,0,0,0,0,0
1706422302.19930005,106428245,1559,1558,1559,1557,0,0,0,0,0,0,0,0,0,0
1706422302.29925990,106528205,1559,1558,1560,1558,0,0,0,0,0,0,0,0,0,0
1706422302.39921999,106628165,1559,1558,1560,1558,0,0,0,0,0,0,0,0,0,0
1706422302.50001287,106728958,1559,1558,1561,1558,0,0,0,0,0,0,0,0,0,0
1706422302.59997296,106828918,1560,1559,1560,1560,0,0,0,0,0,0,0,0,0,0
1706422302.69993305,106928878,1559,1559,1557,1562,0,0,0,0,0,0,0,0,0,0
1706422302.79989290,107028838,1559,1560,1556,1563,0,0,0,0,0,0,0,0,0,0
1706422302.89985299,107128798,1560,1560,1557,1564,0,0,0,0,0,0,0,0,0,0
1706422302.99981308,107228758,1561,1562,1559,1564,0,0,0,0,0,0,0,0,0,0
1706422303.09977293,107328718,1562,1563,1561,1563,0,0,0,0,0,0,0,0,0,0
1706422303.19973302,107428678,1562,1561,1562,1560,0,0,0,0,0,0,0,0,0,0
1706422303.29969287,107528638,1561,1560,1562,1558,0,0,0,0,0,0,0,0,0,0
1706422303.39965296,107628598,1561,1561,1560,1560,0,0,0,0,0,0,0,0,0,0
1706422303.49961305,107728558,1558,1558,1555,1560,0,0,0,0,0,0,0,0,0,0
1706422303.59957290,107828518,1554,1554,1551,1555,0,0,0,0,0,0,0,0,0,0
1706422303.69953299,107928478,1550,1550,1548,1550,0,0,0,0,0,0,0,0,0,0
1706422303.79949307,108028438,1543,1543,1542,1542,0,0,0,0,0,0,0,0,0,0
1706422303.89945292,108128398,1537,1537,1536,1535,0,0,0,0,0,0,0,0,0,0
1706422303.99941301,108228358,1529,1529,1529,1527,0,0,0,0,0,0,0,0,0,0
1706422304.09937310,108328318,1522,1523,1522,1521,0,0,0,0,0,0,0,0,0,0
1706422304.19933295,108428278,1519,1520,1520,1519,0,0,0,0,0,0,0,0,0,0
1706422304.29929304,108528238,1519,1520,1519,1520,0,0,0,0,0,0,0,0,0,0
1706422304.39925289,108628198,1520,1520,1521,1521,0,0,0,0,0,0,0,0,0,0
1706422304.49921298,108728158,1522,1522,1523,1524,0,0,0,0,0,0,0,0,0,0
1706422304.60000587,108828951,1525,1525,1527,1527,0,0,0,0,0,0,0,0,0,0
1706422304.69996595,108928911,1530,1530,1532,1532,0,0,0,0,0,0,0,0,0,0
1706422304.79992604,109028871,1535,1534,1537,1537,0,0,0,0,0,0,0,0,0,0
1706422304.89988589,109128831,1539,1538,1540,1540,0,0,0,0,0,0,0,0,0,0
1706422304.99984598,109228791,1541,1541,1543,1542,0,0,0,0,0,0,0,0,0,0
1706422305.09980607,109328751,1543,1542,1543,1543,0,0,0,0,0,0,0,0,0,0
1706422305.19976592,109428711,1544,1544,1545,1544,0,0,0,0,0,0,0,0,0,0
1706422305.29972601,109528671,1546,1545,1545,1544,0,0,0,0,0,0,0,0,0,0
1706422305.39968610,109628631,1546,1546,1546,1545,0,0,0,0,0,0,0,0,0,0
1706422305.49964595,109728591,1547,1546,1545,1545,0,0,0,0,0,0,0,0,0,0
1706422305.59960604,109828551,1546,1546,1544,1544,0,0,0,0,0,0,0,0,0,0
1706422305.69956589,109928511,1546,1547,1545,1545,0,0,0,0,0,0,0,0,0,0
1706422305.79952598,110028471,1546,1546,1544,1545,0,0,0,0,0,0,0,0,0,0
1706422305.89948606,110128431,1546,1546,1546,1545,0,0,0,0,0,0,0,0,0,0
1706422305.99944592,110228391,1546,1546,1546,1545,0,0,0,0,0,0,0,0,0,0
1706422306.09940600,110328351,1547,1546,1547,1546,0,0,0,0,0,0,0,0,0,0
1706422306.19936609,110428311,1545,1546,1546,1545,0,0,0,0,0,0,0,0,0,0
1706422306.29932594,110528271,1545,1545,1545,1545,0,0,0,0,0,0,0,0,0,0
1706422306.39928603,110628231,1545,1545,1546,1545,0,0,0,0,0,0,0,0,0,0
1706422306.49924588,110728191,1544,1544,1544,1545,0,0,0,0,0,0,0,0,0,0
1706422306.60003901,110828984,1544,1544,1545,1545,0,0,0,0,0,0,0,0,0,0
1706422306.69999909,110928944,1544,1544,1544,1545,0,0,0,0,0,0,0,0,0,0
1706422306.79995894,111028904,1544,1544,1544,1545,0,0,0,0,0,0,0,0,0,0
1706422306.89991903,111128864,1543,1544,1544,1544,0,0,0,0,0,0,0,0,0,0
1706422306.99987888,111228824,1543,1544,1544,1543,0,0,0,0,0,0,0,0,0,0
1706422307.09983897,111328784,1543,1543,1543,1543,0,0,0,0,0,0,0,0,0,0
1706422307.19979906,111428744,1543,1543,1544,1543,0,0,0,0,0,0,0,0,0,0
1706422307.29975891,111528704,1544,1544,1544,1544,0,0,0,0,0,0,0,0,0,0
1706422307.39971900,111628664,1544,1544,1544,1545,0,0,0,0,0,0,0,0,0,0
1706422307.49967909,111728624,1545,1544,1544,1545,0,0,0,0,0,0,0,0,0,0
1706422307.59963894,111828584,1544,1545,1544,1544,0,0,0,0,0,0,0,0,0,0
1706422307.69959903,111928544,1544,1544,1544,1544,0,0,0,0,0,0,0,0,0,0
1706422307.79955888,112028504,1545,1545,1545,1545,0,0,0,0,0,0,0,0,0,0
1706422307.89951897,112128464,1545,1545,1545,1545,0,0,0,0,0,0,0,0,0,0
1706422307.99947906,112228424,1543,1543,1543,1543,0,0,0,0,0,0,0,0,0,0
1706422308.09943891,112328384,1543,1543,1543,1543,0,0,0,0,0,0,0,0,0,0
1706422308.19939899,112428344,1543,1543,1544,1543,0,0,0,0,0,0,0,0,0,0
1706422308.29935908,112528304,1544,1544,1544,1544,0,0,0,0,0,0,0,0,0,0
1706422308.39931893,112628264,1544,1544,1544,1544,0,0,0,0,0,0,0,0,0,0
1706422308.49927902,112728224,1545,1544,1544,1544,0,0,0,0,0,0,0,0,0,0
1706422308.59923887,112828184,1545,1545,1545,1545,0,0,0,0,0,0,0,0,0,0
1706422308.70003200,112928977,1544,1544,1544,1544,0,0,0,0,0,0,0,0,0,0
1706422308.79999208,113028937,1544,1544,1544,1544,0,0,0,0,0,0,0,0,0,0
1706422308.89995193,113128897,1545,1544,1545,1544,0,0,0,0,0,0,0,0,0,0
1706422308.99991202,113228857,1544,1544,1544,1544,0,0,0,0,0,0,0,0,0,0
1706422309.09987187,113328817,1544,1544,1544,1544,0,0,0,0,0,0,0,0,0,0
1706422309.19983196,113428777,1544,1544,1544,1544,0,0,0,0,0,0,0,0,0,0
1706422309.29979205,113528737,1544,1544,1544,1544,0,0,0,0,0,0,0,0,0,0
1706422309.39975190,113628697,1544,1544,1544,1544,0,0,0,0,0,0,0,0,0,0
1706422309.49971199,113728657,1544,1544,1544,1544,0,0,0,0,0,0,0,0,0,0
1706422309.59967208,113828617,1543,1544,1543,1543,0,0,0,0,0,0,0,0,0,0
1706422309.69963193,113928577,1544,1544,1543,1544,0,0,0,0,0,0,0,0,0,0
1706422309.79959202,114028537,1544,1544,1544,1545,0,0,0,0,0,0,0,0,0,0
1706422309.89955187,114128497,1544,1544,1544,1544,0,0,0,0,0,0,0,0,0,0
1706422309.99951196,114228457,1545,1545,1545,1545,0,0,0,0,0,0,0,0,0,0
1706422310.09947205,114328417,1545,1544,1545,1545,0,0,0,0,0,0,0,0,0,0
1706422310.19943190,114428377,1544,1544,1544,1544,0,0,0,0,0,0,0,0,0,0
1706422310.29939198,114528337,1544,1544,1544,1544,0,0,0,0,0,0,0,0,0,0
1706422310.39935207,114628297,1544,1544,1544,1543,0,0,0,0,0,0,0,0,0,0
1706422310.49931192,114728257,1544,1544,1544,1545,0,0,0,0,0,0,0,0,0,0
1706422310.59927201,114828217,1544,1544,1544,1544,0,0,0,0,0,0,0,0,0,0
1706422310.69923210,114928177,1544,1543,1543,1544,0,0,0,0,0,0,0,0,0,0
1706422310.80002499,115028970,1543,1544,1544,1543,0,0,0,0,0,0,0,0,0,0
1706422310.89998507,115128930,1543,1544,1543,1543,0,0,0,0,0,0,0,0,0,0
1706422310.99994493,115228890,1544,1544,1544,1544,0,0,0,0,0,0,0,0,0,0
1706422311.09990501,115328850,1545,1545,1545,1545,0,0,0,0,0,0,0,0,0,0
1706422311.19986486,115428810,1544,1544,1544,1544,0,0,0,0,0,0,0,0,0,0
1706422311.29982495,115528770,1544,1543,1544,1544,0,0,0,0,0,0,0,0,0,0
1706422311.39978504,115628730,1544,1544,1544,1544,0,0,0,0,0,0,0,0,0,0
1706422311.49974489,115728690,1544,1544,1544,1544,0,0,0,0,0,0,0,0,0,0
1706422311.59970498,115828650,1544,1545,1545,1544,0,0,0,0,0,0,0,0,0,0
1706422311.69966507,115928610,1545,1544,1544,1544,0,0,0,0,0,0,0,0,0,0
1706422311.79962492,116028570,1545,1545,1545,1545,0,0,0,0,0,0,0,0,0,0
1706422311.89958501,116128530,1544,1544,1544,1544,0,0,0,0,0,0,0,0,0,0
1706422311.99954510,116228490,1544,1545,1545,1545,0,0,0,0,0,0,0,0,0,0
1706422312.09950495,116328450,1544,1544,1544,1544,0,0,0,0,0,0,0,0,0,0
1706422312.19946504,116428410,1544,1544,1544,1545,0,0,0,0,0,0,0,0,0,0
1706422312.29942489,116528370,1545,1545,1545,1545,0,0,0,0,0,0,0,0,0,0
1706422312.39938498,116628330,1545,1545,1545,1545,0,0,0,0,0,0,0,0,0,0
1706422312.49934506,116728290,1544,1544,1544,1544,0,0,0,0,0,0,0,0,0,0
1706422312.59930491,116828250,1544,1544,1544,1544,0,0,0,0,0,0,0,0,0,0
1706422312.69926500,116928210,1544,1544,1544,1544,0,0,0,0,0,0,0,0,0,0
1706422312.79922509,117028170,1544,1544,1544,1544,0,0,0,0,0,0,0,0,0,0
1706422312.90001798,117128963,1544,1545,1544,1544,0,0,0,0,0,0,0,0,0,0
1706422312.99997807,117228923,1544,1544,1544,1544,0,0,0,0,0,0,0,0,0,0
1706422313.09993792,117328883,1544,1544,1544,1544,0,0,0,0,0,0,0,0,0,0
1706422313.19989800,117428843,1544,1544,1544,1544,0,0,0,0,0,0,0,0,0,0
1706422313.29985809,117528803,1544,1544,1544,1544,0,0,0,0,0,0,0,0,0,0
1706422313.39981794,117628763,1544,1544,1544,1544,0,0,0,0,0,0,0,0,0,0
1706422313.49977803,117728723,1544,1544,1544,1545,0,0,0,0,0,0,0,0,0,0
1706422313.59973788,117828683,1544,1544,1544,1544,0,0,0,0,0,0,0,0,0,0
1706422313.69969797,117928643,1544,1544,1544,1544,0,0,0,0,0,0,0,0,0,0
1706422313.79965806,118028603,1545,1545,1545,1545,0,0,0,0,0,0,0,0,0,0
1706422313.89961791,118128563,1501,1494,1494,1494,0,0,0,0,0,0,0,0,0,0
1706422313.99957800,118228523,1359,1316,1317,1314,0,0,0,0,0,0,0,0,0,0
1706422314.09953809,118328483,1300,1235,1237,1233,0,0,0,0,0,0,0,0,0,0
1706422314.19949794,118428443,1282,1210,1212,1208,0,0,0,0,0,0,0,0,0,0
1706422314.29945803,118528403,1263,1183,1184,1181,0,0,0,0,0,0,0,0,0,0
1706422314.39941788,118628363,1243,1153,1154,1150,0,0,0,0,0,0,0,0,0,0
1706422314.49937797,118728323,1243,1152,1153,1150,0,0,0,0,0,0,0,0,0,0
1706422314.59933805,118828283,1243,1154,1155,1150,0,0,0,0,0,0,0,0,0,0
1706422314.69929790,118928243,1254,1150,1151,1178,0,0,0,0,0,0,0,0,0,0
1706422314.79925799,119028203,1255,1150,1150,1178,0,0,0,0,0,0,0,0,0,0
1706422314.89921808,119128163,1255,1150,1150,1169,0,0,0,0,0,0,0,0,0,0
1706422315.00001097,119228956,1254,1150,1150,1167,0,0,0,0,0,0,0,0,0,0
1706422315.09997106,119328916,1255,1150,1150,1169,0,0,0,0,0,0,0,0,0,0
1706422315.19993091,119428876,1256,1150,1151,1171,0,0,0,0,0,0,0,0,0,0
1706422315.29989100,119528836,1257,1150,1151,1173,0,0,0,0,0,0,0,0,0,0
1706422315.39985108,119628796,1257,1150,1151,1174,0,0,0,0,0,0,0,0,0,0
1706422315.49981093,119728756,1245,1150,1150,1154,0,0,0,0,0,0,0,0,0,0
1706422315.59977102,119828716,1248,1150,1150,1160,0,0,0,0,0,0,0,0,0,0
1706422315.69973087,119928676,1249,1150,1151,1161,0,0,0,0,0,0,0,0,0,0
1706422315.79969096,120028636,1250,1150,1151,1162,0,0,0,0,0,0,0,0,0,0
1706422315.89965105,120128596,1250,1150,1151,1163,0,0,0,0,0,0,0,0,0,0
1706422315.99961090,120228556,1000,1000,1000,1000,0,0,0,0,0,0,0,0,0,0
1706422316.09957099,120328516,1000,1000,1000,1000,0,0,0,0,0,0,0,0,0,0
1706422316.19953108,120428476,1000,1000,1000,1000,0,0,0,0,0,0,0,0,0,0
1706422316.29949093,120528436,1000,1000,1000,1000,0,0,0,0,0,0,0,0,0,0
1706422316.39945102,120628396,1000,1000,1000,1000,0,0,0,0,0,0,0,0,0,0
1706422316.49941087,120728356,1000,1000,1000,1000,0,0,0,0,0,0,0,0,0,0
1706422316.59937096,120828316,1000,1000,1000,1000,0,0,0,0,0,0,0,0,0,0
1706422316.69933105,120928276,1000,1000,1000,1000,0,0,0,0,0,0,0,0,0,0
1706422316.79929090,121028236,1000,1000,1000,1000,0,0,0,0,0,0,0,0,0,0
1706422316.89925098,121128196,1000,1000,1000,1000,0,0,0,0,0,0,0,0,0,0
1706422316.99921107,121228156,1000,1000,1000,1000,0,0,0,0,0,0,0,0,0,0
1706422317.10000396,121328949,1000,1000,1000,1000,0,0,0,0,0,0,0,0,0,0
1706422317.19996405,121428909,1000,1000,1000,1000,0,0,0,0,0,0,0,0,0,0
1706422317.29992390,121528869,1000,1000,1000,1000,0,0,0,0,0,0,0,0,0,0
1706422317.39988399,121628829,1000,1000,1000,1000,0,0,0,0,0,0,0,0,0,0
1706422317.49984407,121728789,1000,1000,1000,1000,0,0,0,0,0,0,0,0,0,0
1706422317.59980392,121828749,1000,1000,1000,1000,0,0,0,0,0,0,0,0,0,0
1706422317.69976401,121928709,1000,1000,1000,1000,0,0,0,0,0,0,0,0,0,0
1706422317.79972410,122028669,1000,1000,1000,1000,0,0,0,0,0,0,0,0,0,0
1706422317.89968395,122128629,1000,1000,1000,1000,0,0,0,0,0,0,0,0,0,0
1706422317.99964404,122228589,1000,1000,1000,1000,0,0,0,0,0,0,0,0,0,0
1706422318.09960389,122328549,1000,1000,1000,1000,0,0,0,0,0,0,0,0,0,0
1706422318.19956398,122428509,1000,1000,1000,1000,0,0,0,0,0,0,0,0,0,0
1706422318.29952407,122528469,1000,1000,1000,1000,0,0,0,0,0,0,0,0,0,0
1706422318.39948392,122628429,1000,1000,1000,1000,0,0,0,0,0,0,0,0,0,0
1706422318.49944401,122728389,1000,1000,1000,1000,0,0,0,0,0,0,0,0,0,0
1706422318.59940410,122828349,1000,1000,1000,1000,0,0,0,0,0,0,0,0,0,0
1706422318.69936395,122928309,1000,1000,1000,1000,0,0,0,0,0,0,0,0,0,0
1706422318.79932404,123028269,1000,1000,1000,1000,0,0,0,0,0,0,0,0,0,0
1706422318.89928389,123128229,1000,1000,1000,1000,0,0,0,0,0,0,0,0,0,0
1706422318.99924397,123228189,1000,1000,1000,1000,0,0,0,0,0,0,0,0,0,0
1706422319.10003710,123328982,1000,1000,1000,1000,0,0,0,0,0,0,0,0,0,0
1706422319.19999695,123428942,1000,1000,1000,1000,0,0,0,0,0,0,0,0,0,0
1706422319.29995704,123528902,1000,1000,1000,1000,0,0,0,0,0,0,0,0,0,0
1706422319.39991689,123628862,1000,1000,1000,1000,0,0,0,0,0,0,0,0,0,0
1706422319.49987698,123728822,1000,1000,1000,1000,0,0,0,0,0,0,0,0,0,0
1706422319.59983706,123828782,1000,1000,1000,1000,0,0,0,0,0,0,0,0,0,0
1706422319.69979692,123928742,1000,1000,1000,1000,0,0,0,0,0,0,0,0,0,0
1706422319.79975700,124028702,1000,1000,1000,1000,0,0,0,0,0,0,0,0,0,0
1706422319.89971709,124128662,1000,1000,1000,1000,0,0,0,0,0,0,0,0,0,0
1706422319.99967694,124228622,1000,1000,1000,1000,0,0,0,0,0,0,0,0,0,0
1706422320.09963703,124328582,1000,1000,1000,1000,0,0,0,0,0,0,0,0,0,0
1706422320.19959688,124428542,1000,1000,1000,1000,0,0,0,0,0,0,0,0,0,0
1706422320.29955697,124528502,1000,1000,1000,1000,0,0,0,0,0,0,0,0,0,0
1706422320.39951706,124628462,1000,1000,1000,1000,0,0,0,0,0,0,0,0,0,0
1706422320.49947691,124728422,1000,1000,1000,1000,0,0,0,0,0,0,0,0,0,0
1706422320.59943700,124828382,1000,1000,1000,1000,0,0,0,0,0,0,0,0,0,0
1706422320.69939709,124928342,1000,1000,1000,1000,0,0,0,0,0,0,0,0,0,0
1706422320.79935694,125028302,1000,1000,1000,1000,0,0,0,0,0,0,0,0,0,0
1706422320.89931703,125128262,1000,1000,1000,1000,0,0,0,0,0,0,0,0,0,0
1706422320.99927688,125228222,1000,1000,1000,1000,0,0,0,0,0,0,0,0,0,0
1706422321.09923697,125328182,1000,1000,1000,1000,0,0,0,0,0,0,0,0,0,0
1706422321.20003009,125428975,1000,1000,1000,1000,0,0,0,0,0,0,0,0,0,0
1706422321.29998994,125528935,1000,1000,1000,1000,0,0,0,0,0,0,0,0,0,0
1706422321.39995003,125628895,1000,1000,1000,1000,0,0,0,0,0,0,0,0,0,0
1706422321.49990988,125728855,1000,1000,1000,1000,0,0,0,0,0,0,0,0,0,0
1706422321.59986997,125828815,1000,1000,1000,1000,0,0,0,0,0,0,0,0,0,0
1706422321.69983006,125928775,1000,1000,1000,1000,0,0,0,0,0,0,0,0,0,0
1706422321.79978991,126028735,1000,1000,1000,1000,0,0,0,0,0,0,0,0,0,0
1706422321.89974999,126128695,1000,1000,1000,1000,0,0,0,0,0,0,0,0,0,0
1706422321.99971008,126228655,1000,1000,1000,1000,0,0,0,0,0,0,0,0,0,0
1706422322.09966993,126328615,1000,1000,1000,1000,0,0,0,0,0,0,0,0,0,0
1706422322.19963002,126428575,1000,1000,1000,1000,0,0,0,0,0,0,0,0,0,0
1706422322.29958987,126528535,1000,1000,1000,1000,0,0,0,0,0,0,0,0,0,0
1706422322.39954996,126628495,1000,1000,1000,1000,0,0,0,0,0,0,0,0,0,0
1706422322.49951005,126728455,1000,1000,1000,1000,0,0,0,0,0,0,0,0,0,0
1706422322.59946990,126828415,1000,1000,1000,1000,0,0,0,0,0,0,0,0,0,0
1706422322.69942999,126928375,1000,1000,1000,1000,0,0,0,0,0,0,0,0,0,0
1706422322.79939008,127028335,1000,1000,1000,1000,0,0,0,0,0,0,0,0,0,0
1706422322.89934993,127128295,1000,1000,1000,1000,0,0,0,0,0,0,0,0,0,0
1706422322.99931002,127228255,1000,1000,1000,1000,0,0,0,0,0,0,0,0,0,0
1706422323.09926987,127328215,1000,1000,1000,1000,0,0,0,0,0,0,0,0,0,0
1706422323.19922996,127428175,1000,1000,1000,1000,0,0,0,0,0,0,0,0,0,0
1706422323.30002308,127528968,1000,1000,1000,1000,0,0,0,0,0,0,0,0,0,0
1706422323.39998293,127628928,1000,1000,1000,1000,0,0,0,0,0,0,0,0,0,0
1706422323.49994302,127728888,1000,1000,1000,1000,0,0,0,0,0,0,0,0,0,0
1706422323.59990287,127828848,1000,1000,1000,1000,0,0,0,0,0,0,0,0,0,0
1706422323.69986296,127928808,1000,1000,1000,1000,0,0,0,0,0,0,0,0,0,0
1706422323.79982305,128028768,1000,1000,1000,1000,0,0,0,0,0,0,0,0,0,0
1706422323.89978290,128128728,1000,1000,1000,1000,0,0,0,0,0,0,0,0,0,0
1706422323.99974298,128228688,1000,1000,1000,1000,0,0,0,0,0,0,0,0,0,0
1706422324.09970307,128328648,1000,1000,1000,1000,0,0,0,0,0,0,0,0,0,0
1706422324.19966292,128428608,1000,1000,1000,1000,0,0,0,0,0,0,0,0,0,0
1706422324.29962301,128528568,1000,1000,1000,1000,0,0,0,0,0,0,0,0,0,0
1706422324.39958310,128628528,1000,1000,1000,1000,0,0,0,0,0,0,0,0,0,0
1706422324.49954295,128728488,1000,1000,1000,1000,0,0,0,0,0,0,0,0,0,0
1706422324.59950304,128828448,1000,1000,1000,1000,0,0,0,0,0,0,0,0,0,0
1706422324.69946289,128928408,1000,1000,1000,1000,0,0,0,0,0,0,0,0,0,0
1706422324.79942298,129028368,1000,1000,1000,1000,0,0,0,0,0,0,0,0,0,0
1706422324.89938307,129128328,1000,1000,1000,1000,0,0,0,0,0,0,0,0,0,0
1706422324.99934292,129228288,1000,1000,1000,1000,0,0,0,0,0,0,0,0,0,0
1706422325.09930301,129328248,1000,1000,1000,1000,0,0,0,0,0,0,0,0,0,0
1706422325.19926310,129428208,1000,1000,1000,1000,0,0,0,0,0,0,0,0,0,0
