TimeUS,M1,M2,M3,M4,TimeUS,C1,C2,C3,C4
82036339,1000,1000,1000,1000,82128802,1000,1000,1000,1000
82038838,1000,1000,1000,1000,82228762,1000,1000,1000,1000
82041337,1000,1000,1000,1000,82328722,1000,1000,1000,1000
82043836,1000,1000,1000,1000,82428682,1000,1000,1000,1000
82046335,1000,1000,1000,1000,82528642,1000,1000,1000,1000
82048834,1000,1000,1000,1000,82628602,1000,1000,1000,1000
82051333,1000,1000,1000,1000,82728562,1000,1000,1000,1000
82053832,1000,1000,1000,1000,82828522,1000,1000,1000,1000
82056331,1000,1000,1000,1000,82928482,1000,1000,1000,1000
82058830,1000,1000,1000,1000,83028442,1000,1000,1000,1000
82061329,1000,1000,1000,1000,83128402,1000,1000,1000,1000
82063828,1000,1000,1000,1000,83228362,1000,1000,1000,1000
82066327,1000,1000,1000,1000,83328322,1000,1000,1000,1000
82068826,1000,1000,1000,1000,83428282,1000,1000,1000,1000
82071325,1000,1000,1000,1000,83528242,1000,1000,1000,1000
82073824,1000,1000,1000,1000,83628202,1000,1000,1000,1000
82076323,1000,1000,1000,1000,83728162,1000,1000,1000,1000
82078822,1000,1000,1000,1000,83828955,1000,1000,1000,1000
82081321,1000,1000,1000,1000,83928915,1000,1000,1000,1000
82083820,1000,1000,1000,1000,84028875,1000,1000,1000,1000
82086319,1000,1000,1000,1000,84128835,1027,1027,1027,1027
82088818,1000,1000,1000,1000,84228795,1057,1057,1057,1057
82091317,1000,1000,1000,1000,84328755,1087,1087,1087,1087
82093816,1000,1000,1000,1000,84428715,1117,1117,1117,1117
82096315,1000,1000,1000,1000,84528675,1147,1147,1147,1147
82098814,1000,1000,1000,1000,84628635,1386,1376,1377,1386
82101313,1000,1000,1000,1000,84728595,1569,1560,1561,1569
82103812,1000,1000,1000,1000,84828555,1717,1710,1710,1718
82106311,1000,1000,1000,1000,84928515,1847,1839,1839,1847
82108810,1000,1000,1000,1000,85028475,1884,1876,1876,1884
82111309,1000,1000,1000,1000,85128435,1825,1823,1823,1825
82113808,1000,1000,1000,1000,85228395,1701,1703,1703,1702
82116307,1000,1000,1000,1000,85328355,1639,1639,1637,1642
82118806,1000,1000,1000,1000,85428315,1629,1632,1627,1635
82121305,1000,1000,1000,1000,85528275,1637,1641,1638,1641
82123804,1000,1000,1000,1000,85628235,1643,1646,1646,1643
82126303,1000,1000,1000,1000,85728195,1641,1642,1644,1639
82128802,1000,1000,1000,1000,85828155,1634,1633,1636,1631
82131301,1000,1000,1000,1000,85928948,1629,1627,1630,1625
82133800,1000,1000,1000,1000,86028908,1627,1625,1627,1624
82136299,1000,1000,1000,1000,86128868,1620,1619,1621,1618
82138798,1000,1000,1000,1000,86228828,1590,1591,1599,1582
82141297,1000,1000,1000,1000,86328788,1578,1578,1584,1572
82143796,1000,1000,1000,1000,86428748,1566,1566,1566,1566
82146295,1000,1000,1000,1000,86528708,1557,1557,1553,1561
82148794,1000,1000,1000,1000,86628668,1549,1548,1543,1554
82151293,1000,1000,1000,1000,86728628,1543,1542,1534,1551
82153792,1000,1000,1000,1000,86828588,1538,1537,1530,1544
82156291,1000,1000,1000,1000,86928548,1533,1532,1528,1536
82158790,1000,1000,1000,1000,87028508,1527,1527,1527,1528
82161289,1000,1000,1000,1000,87128468,1526,1526,1527,1524
82163788,1000,1000,1000,1000,87228428,1527,1527,1530,1525
82166287,1000,1000,1000,1000,87328388,1530,1529,1532,1527
82168786,1000,1000,1000,1000,87428348,1533,1534,1536,1531
82171285,1000,1000,1000,1000,87528308,1537,1537,1539,1536
82173784,1000,1000,1000,1000,87628268,1541,1540,1542,1540
82176283,1000,1000,1000,1000,87728228,1544,1543,1544,1544
82178782,1000,1000,1000,1000,87828188,1548,1547,1548,1548
82181281,1000,1000,1000,1000,87928981,1550,1550,1550,1551
82183780,1000,1000,1000,1000,88028941,1553,1554,1553,1553
82186279,1000,1000,1000,1000,88128901,1555,1555,1554,1556
82188778,1000,1000,1000,1000,88228861,1558,1558,1555,1557
82191277,1000,1000,1000,1000,88328821,1560,1559,1557,1559
82193776,1000,1000,1000,1000,88428781,1560,1559,1560,1561
82196275,1000,1000,1000,1000,88528741,1560,1560,1563,1564
82198774,1000,1000,1000,1000,88628701,1562,1561,1566,1565
82201273,1000,1000,1000,1000,88728661,1562,1562,1567,1567
82203772,1000,1000,1000,1000,88828621,1564,1565,1569,1568
82206271,1000,1000,1000,1000,88928581,1566,1566,1569,1569
82208770,1000,1000,1000,1000,89028541,1568,1569,1570,1570
82211269,1000,1000,1000,1000,89128501,1571,1570,1571,1571
82213768,1000,1000,1000,1000,89228461,1570,1570,1569,1569
82216267,1000,1000,1000,1000,89328421,1572,1572,1570,1570
82218766,1000,1000,1000,1000,89428381,1573,1573,1570,1571
82221265,1000,1000,1000,1000,89528341,1574,1573,1571,1570
82223764,1000,1000,1000,1000,89628301,1575,1575,1572,1571
82226263,1000,1000,1000,1000,89728261,1575,1575,1573,1572
82228762,1000,1000,1000,1000,89828221,1575,1575,1574,1572
82231261,1000,1000,1000,1000,89928181,1576,1576,1574,1574
82233760,1000,1000,1000,1000,90028974,1575,1576,1575,1574
82236259,1000,1000,1000,1000,90128934,1576,1576,1575,1575
82238758,1000,1000,1000,1000,90228894,1576,1576,1576,1576
82241257,1000,1000,1000,1000,90328854,1576,1576,1576,1577
82243756,1000,1000,1000,1000,90428814,1576,1576,1577,1577
82246255,1000,1000,1000,1000,90528774,1576,1576,1577,1577
82248754,1000,1000,1000,1000,90628734,1577,1577,1578,1577
82251253,1000,1000,1000,1000,90728694,1577,1577,1578,1578
82253752,1000,1000,1000,1000,90828654,1577,1577,1578,1578
82256251,1000,1000,1000,1000,90928614,1578,1577,1578,1578
82258750,1000,1000,1000,1000,91028574,1578,1578,1579,1578
82261249,1000,1000,1000,1000,91128534,1578,1578,1578,1578
82263748,1000,1000,1000,1000,91228494,1578,1578,1578,1578
82266247,1000,1000,1000,1000,91328454,1577,1578,1577,1578
82268746,1000,1000,1000,1000,91428414,1578,1578,1578,1578
82271245,1000,1000,1000,1000,91528374,1579,1579,1578,1578
82273744,1000,1000,1000,1000,91628334,1580,1580,1579,1580
82276243,1000,1000,1000,1000,91728294,1580,1579,1579,1579
82278742,1000,1000,1000,1000,91828254,1579,1579,1579,1578
82281241,1000,1000,1000,1000,91928214,1580,1579,1580,1579
82283740,1000,1000,1000,1000,92028174,1579,1580,1580,1579
82286239,1000,1000,1000,1000,92128967,1579,1580,1580,1580
82288738,1000,1000,1000,1000,92228927,1579,1579,1579,1580
82291237,1000,1000,1000,1000,92328887,1579,1579,1579,1580
82293736,1000,1000,1000,1000,92428847,1579,1579,1580,1580
82296235,1000,1000,1000,1000,92528807,1579,1578,1579,1579
82298734,1000,1000,1000,1000,92628767,1579,1579,1580,1579
82301233,1000,1000,1000,1000,92728727,1579,1579,1579,1579
82303732,1000,1000,1000,1000,92828687,1580,1580,1580,1580
82306231,1000,1000,1000,1000,92928647,1580,1580,1580,1580
82308730,1000,1000,1000,1000,93028607,1580,1580,1580,1580
82311229,1000,1000,1000,1000,93128567,1580,1580,1580,1580
82313728,1000,1000,1000,1000,93228527,1579,1579,1579,1579
82316227,1000,1000,1000,1000,93328487,1580,1579,1579,1580
82318726,1000,1000,1000,1000,93428447,1580,1580,1580,1580
82321225,1000,1000,1000,1000,93528407,1580,1580,1580,1580
82323724,1000,1000,1000,1000,93628367,1580,1581,1581,1580
82326223,1000,1000,1000,1000,93728327,1580,1581,1580,1580
82328722,1000,1000,1000,1000,93828287,1581,1581,1581,1581
82331221,1000,1000,1000,1000,93928247,1580,1580,1581,1581
82333720,1000,1000,1000,1000,94028207,1579,1579,1579,1579
82336219,1000,1000,1000,1000,94128167,1580,1580,1580,1580
82338718,1000,1000,1000,1000,94228960,1581,1581,1581,1581
82341217,1000,1000,1000,1000,94328920,1580,1580,1580,1580
82343716,1000,1000,1000,1000,94428880,1580,1581,1587,1574
82346215,1000,1000,1000,1000,94528840,1580,1582,1586,1573
82348714,1000,1000,1000,1000,94628800,1579,1582,1578,1574
82351213,1000,1000,1000,1000,94728760,1577,1579,1568,1572
82353712,1000,1000,1000,1000,94828720,1578,1580,1563,1569
82356211,1000,1000,1000,1000,94928680,1579,1579,1558,1565
82358710,1000,1000,1000,1000,95028640,1580,1579,1556,1561
82361209,1000,1000,1000,1000,95128600,1581,1579,1556,1557
82363708,1000,1000,1000,1000,95228560,1580,1578,1556,1554
82366207,1000,1000,1000,1000,95328520,1579,1579,1556,1554
82368706,1000,1000,1000,1000,95428480,1578,1579,1557,1555
82371205,1000,1000,1000,1000,95528440,1576,1578,1555,1554
82373704,1000,1000,1000,1000,95628400,1576,1577,1554,1553
82376203,1000,1000,1000,1000,95728360,1575,1577,1553,1553
82378702,1000,1000,1000,1000,95828320,1575,1577,1551,1551
82381201,1000,1000,1000,1000,95928280,1577,1577,1550,1550
82383700,1000,1000,1000,1000,96028240,1578,1579,1548,1547
82386199,1000,1000,1000,1000,96128200,1581,1582,1546,1546
82388698,1000,1000,1000,1000,96228160,1585,1587,1545,1544
82391197,1000,1000,1000,1000,96328953,1588,1588,1541,1540
82393696,1000,1000,1000,1000,96428913,1591,1591,1538,1538
82396195,1000,1000,1000,1000,96528873,1593,1593,1536,1536
82398694,1000,1000,1000,1000,96628833,1594,1594,1535,1535
82401193,1000,1000,1000,1000,96728793,1594,1594,1535,1536
82403692,1000,1000,1000,1000,96828753,1594,1594,1537,1538
82406191,1000,1000,1000,1000,96928713,1592,1592,1539,1542
82408690,1000,1000,1000,1000,97028673,1589,1588,1545,1548
82411189,1000,1000,1000,1000,97128633,1583,1580,1553,1556
82413688,1000,1000,1000,1000,97228593,1575,1571,1564,1566
82416187,1000,1000,1000,1000,97328553,1565,1560,1576,1578
82418686,1000,1000,1000,1000,97428513,1554,1550,1588,1590
82421185,1000,1000,1000,1000,97528473,1543,1540,1600,1600
82423684,1000,1000,1000,1000,97628433,1534,1534,1609,1608
82426183,1000,1000,1000,1000,97728393,1530,1531,1615,1614
82428682,1000,1000,1000,1000,97828353,1528,1530,1616,1615
82431181,1000,1000,1000,1000,97928313,1531,1534,1614,1613
82433680,1000,1000,1000,1000,98028273,1536,1539,1608,1608
82436179,1000,1000,1000,1000,98128233,1545,1546,1602,1603
82438678,1000,1000,1000,1000,98228193,1554,1554,1594,1595
82441177,1000,1000,1000,1000,98328986,1564,1563,1588,1587
82443676,1000,1000,1000,1000,98428946,1572,1571,1581,1579
82446175,1000,1000,1000,1000,98528906,1579,1578,1575,1574
82448674,1000,1000,1000,1000,98628866,1584,1583,1571,1570
82451173,1000,1000,1000,1000,98728826,1588,1587,1568,1569
82453672,1000,1000,1000,1000,98828786,1589,1588,1567,1567
82456171,1000,1000,1000,1000,98928746,1588,1588,1568,1568
82458670,1000,1000,1000,1000,99028706,1586,1585,1568,1569
82461169,1000,1000,1000,1000,99128666,1583,1582,1571,1571
82463668,1000,1000,1000,1000,99228626,1580,1580,1574,1574
82466167,1000,1000,1000,1000,99328586,1577,1577,1576,1577
82468666,1000,1000,1000,1000,99428546,1575,1575,1580,1579
82471165,1000,1000,1000,1000,99528506,1573,1573,1581,1581
82473664,1000,1000,1000,1000,99628466,1572,1573,1583,1583
82476163,1000,1000,1000,1000,99728426,1571,1572,1583,1583
82478662,1000,1000,1000,1000,99828386,1572,1574,1584,1584
82481161,1000,1000,1000,1000,99928346,1573,1573,1583,1583
82483660,1000,1000,1000,1000,100028306,1511,1528,1600,1604
82486159,1000,1000,1000,1000,100128266,1557,1527,1601,1604
82488658,1000,1000,1000,1000,100228226,1592,1543,1601,1604
82491157,1000,1000,1000,1000,100328186,1612,1568,1598,1601
82493656,1000,1000,1000,1000,100428979,1620,1591,1592,1593
82496155,1000,1000,1000,1000,100528939,1618,1609,1585,1584
82498654,1000,1000,1000,1000,100628899,1611,1619,1580,1577
82501153,1000,1000,1000,1000,100728859,1606,1622,1577,1573
82503652,1000,1000,1000,1000,100828819,1604,1620,1577,1572
82506151,1000,1000,1000,1000,100928779,1603,1615,1579,1574
82508650,1000,1000,1000,1000,101028739,1601,1607,1578,1574
82511149,1000,1000,1000,1000,101128699,1598,1599,1578,1577
82513648,1000,1000,1000,1000,101228659,1594,1593,1579,1579
82516147,1000,1000,1000,1000,101328619,1590,1588,1579,1581
82518646,1000,1000,1000,1000,101428579,1585,1584,1580,1582
82521145,1000,1000,1000,1000,101528539,1580,1581,1580,1582
82523644,1000,1000,1000,1000,101628499,1576,1579,1581,1582
82526143,1000,1000,1000,1000,101728459,1574,1577,1581,1582
82528642,1000,1000,1000,1000,101828419,1573,1577,1582,1582
82531141,1000,1000,1000,1000,101928379,1573,1577,1582,1582
82533640,1000,1000,1000,1000,102028339,1575,1577,1582,1582
82536139,1000,1000,1000,1000,102128299,1577,1577,1581,1581
82538638,1000,1000,1000,1000,102228259,1578,1577,1580,1580
82541137,1000,1000,1000,1000,102328219,1579,1578,1578,1579
82543636,1000,1000,1000,1000,102428179,1580,1578,1583,1570
82546135,1000,1000,1000,1000,102528972,1581,1580,1581,1568
82548634,1000,1000,1000,1000,102628932,1579,1579,1571,1567
82551133,1000,1000,1000,1000,102728892,1577,1579,1563,1567
82553632,1000,1000,1000,1000,102828852,1576,1579,1558,1565
82556131,1000,1000,1000,1000,102928812,1575,1577,1556,1562
82558630,1000,1000,1000,1000,103028772,1575,1576,1555,1558
82561129,1000,1000,1000,1000,103128732,1574,1574,1555,1556
82563628,1000,1000,1000,1000,103228692,1574,1575,1556,1555
82566127,1000,1000,1000,1000,103328652,1574,1574,1556,1554
82568626,1000,1000,1000,1000,103428612,1573,1574,1555,1553
82571125,1000,1000,1000,1000,103528572,1573,1573,1554,1553
82573624,1000,1000,1000,1000,103628532,1573,1574,1553,1552
82576123,1000,1000,1000,1000,103728492,1573,1574,1551,1551
82578622,1000,1000,1000,1000,103828452,1574,1576,1550,1550
82581121,1000,1000,1000,1000,103928412,1574,1576,1547,1547
82583620,1000,1000,1000,1000,104028372,1577,1578,1545,1545
82586119,1000,1000,1000,1000,104128332,1579,1580,1543,1543
82588618,1000,1000,1000,1000,104228292,1582,1583,1541,1540
82591117,1000,1000,1000,1000,104328252,1584,1585,1538,1537
82593616,1000,1000,1000,1000,104428212,1587,1588,1536,1536
82596115,1000,1000,1000,1000,104528172,1591,1591,1535,1535
82598614,1000,1000,1000,1000,104628965,1593,1592,1534,1534
82601113,1000,1000,1000,1000,104728925,1594,1593,1535,1536
82603612,1000,1000,1000,1000,104828885,1594,1592,1537,1538
82606111,1000,1000,1000,1000,104928845,1591,1589,1539,1542
82608610,1000,1000,1000,1000,105028805,1588,1585,1545,1548
82611109,1000,1000,1000,1000,105128765,1582,1579,1551,1554
82613608,1000,1000,1000,1000,105228725,1574,1573,1558,1562
82616107,1000,1000,1000,1000,105328685,1566,1564,1568,1571
82618606,1000,1000,1000,1000,105428645,1556,1555,1578,1580
82621105,1000,1000,1000,1000,105528605,1546,1545,1589,1589
82623604,1000,1000,1000,1000,105628565,1538,1537,1597,1597
82626103,1000,1000,1000,1000,105728525,1532,1532,1603,1603
82628602,1000,1000,1000,1000,105828485,1529,1530,1607,1606
82631101,1000,1000,1000,1000,105928445,1530,1532,1608,1607
82633600,1000,1000,1000,1000,106028405,1533,1535,1606,1605
82636099,1000,1000,1000,1000,106128365,1537,1540,1601,1601
82638598,1000,1000,1000,1000,106228325,1545,1547,1596,1596
82641097,1000,1000,1000,1000,106328285,1554,1554,1589,1590
82643596,1000,1000,1000,1000,106428245,1562,1562,1584,1584
82646095,1000,1000,1000,1000,106528205,1569,1568,1577,1578
82648594,1000,1000,1000,1000,106628165,1575,1573,1572,1573
82651093,1000,1000,1000,1000,106728958,1581,1579,1571,1569
82653592,1000,1000,1000,1000,106828918,1583,1581,1568,1566
82656091,1000,1000,1000,1000,106928878,1586,1585,1570,1568
82658590,1000,1000,1000,1000,107028838,1586,1585,1569,1569
82661089,1000,1000,1000,1000,107128798,1585,1584,1570,1570
82663588,1000,1000,1000,1000,107228758,1583,1582,1571,1572
82666087,1000,1000,1000,1000,107328718,1580,1580,1573,1574
82668586,1000,1000,1000,1000,107428678,1578,1579,1576,1577
82671085,1000,1000,1000,1000,107528638,1576,1576,1578,1578
82673584,1000,1000,1000,1000,107628598,1575,1575,1580,1580
82676083,1000,1000,1000,1000,107728558,1574,1575,1582,1582
82678582,1000,1000,1000,1000,107828518,1574,1575,1583,1582
82681081,1000,1000,1000,1000,107928478,1574,1575,1583,1583
82683580,1000,1000,1000,1000,108028438,1575,1575,1583,1582
82686079,1000,1000,1000,1000,108128398,1576,1576,1582,1582
82688578,1000,1000,1000,1000,108228358,1576,1577,1581,1581
82691077,1000,1000,1000,1000,108328318,1577,1577,1580,1580
82693576,1000,1000,1000,1000,108428278,1578,1577,1577,1578
82696075,1000,1000,1000,1000,108528238,1579,1579,1578,1577
82698574,1000,1000,1000,1000,108628198,1580,1580,1578,1578
82701073,1000,1000,1000,1000,108728158,1581,1581,1577,1578
82703572,1000,1000,1000,1000,108828951,1581,1581,1577,1578
82706071,1000,1000,1000,1000,108928911,1581,1580,1577,1577
82708570,1000,1000,1000,1000,109028871,1581,1581,1578,1578
82711069,1000,1000,1000,1000,109128831,1581,1581,1579,1578
82713568,1000,1000,1000,1000,109228791,1580,1580,1578,1578
82716067,1000,1000,1000,1000,109328751,1580,1580,1579,1579
82718566,1000,1000,1000,1000,109428711,1580,1580,1579,1579
82721065,1000,1000,1000,1000,109528671,1580,1580,1580,1580
82723564,1000,1000,1000,1000,109628631,1579,1579,1580,1580
82726063,1000,1000,1000,1000,109728591,1578,1579,1579,1580
82728562,1000,1000,1000,1000,109828551,1579,1580,1581,1581
82731061,1000,1000,1000,1000,109928511,1580,1580,1582,1581
82733560,1000,1000,1000,1000,110028471,1581,1580,1582,1582
82736059,1000,1000,1000,1000,110128431,1580,1580,1580,1580
82738558,1000,1000,1000,1000,110228391,1581,1581,1581,1582
82741057,1000,1000,1000,1000,110328351,1580,1579,1580,1579
82743556,1000,1000,1000,1000,110428311,1582,1581,1581,1582
82746055,1000,1000,1000,1000,110528271,1581,1581,1581,1580
82748554,1000,1000,1000,1000,110628231,1582,1582,1581,1581
82751053,1000,1000,1000,1000,110728191,1582,1582,1581,1581
82753552,1000,1000,1000,1000,110828984,1582,1582,1581,1581
82756051,1000,1000,1000,1000,110928944,1581,1580,1580,1580
82758550,1000,1000,1000,1000,111028904,1581,1581,1580,1580
82761049,1000,1000,1000,1000,111128864,1581,1581,1580,1580
82763548,1000,1000,1000,1000,111228824,1580,1581,1586,1573
82766047,1000,1000,1000,1000,111328784,1580,1582,1585,1572
82768546,1000,1000,1000,1000,111428744,1580,1582,1578,1574
82771045,1000,1000,1000,1000,111528704,1578,1580,1568,1572
82773544,1000,1000,1000,1000,111628664,1577,1580,1562,1569
82776043,1000,1000,1000,1000,111728624,1578,1580,1558,1565
82778542,1000,1000,1000,1000,111828584,1579,1579,1557,1560
82781041,1000,1000,1000,1000,111928544,1579,1579,1556,1556
82783540,1000,1000,1000,1000,112028504,1580,1579,1556,1555
82786039,1000,1000,1000,1000,112128464,1580,1578,1556,1554
82788538,1000,1000,1000,1000,112228424,1578,1578,1556,1554
82791037,1000,1000,1000,1000,112328384,1577,1577,1555,1554
82793536,1000,1000,1000,1000,112428344,1576,1577,1554,1554
82796035,1000,1000,1000,1000,112528304,1575,1577,1553,1553
82798534,1000,1000,1000,1000,112628264,1575,1577,1552,1553
82801033,1000,1000,1000,1000,112728224,1576,1578,1551,1551
82803532,1000,1000,1000,1000,112828184,1578,1579,1549,1549
82806031,1000,1000,1000,1000,112928977,1580,1581,1547,1547
82808530,1000,1000,1000,1000,113028937,1582,1583,1546,1544
82811029,1000,1000,1000,1000,113128897,1585,1585,1542,1542
82813528,1000,1000,1000,1000,113228857,1588,1589,1541,1541
82816027,1000,1000,1000,1000,113328817,1590,1590,1538,1539
82818526,1000,1000,1000,1000,113428777,1592,1592,1537,1538
82821025,1000,1000,1000,1000,113528737,1593,1593,1538,1539
82823524,1000,1000,1000,1000,113628697,1592,1593,1538,1540
82826023,1000,1000,1000,1000,113728657,1592,1591,1541,1544
82828522,1000,1000,1000,1000,113828617,1589,1587,1545,1548
82831021,1000,1000,1000,1000,113928577,1584,1581,1552,1555
82833520,1000,1000,1000,1000,114028537,1577,1574,1562,1564
82836019,1000,1000,1000,1000,114128497,1568,1563,1572,1574
82838518,1000,1000,1000,1000,114228457,1558,1555,1583,1585
82841017,1000,1000,1000,1000,114328417,1549,1547,1594,1595
82843516,1000,1000,1000,1000,114428377,1540,1541,1602,1602
82846015,1000,1000,1000,1000,114528337,1535,1536,1608,1607
82848514,1000,1000,1000,1000,114628297,1534,1536,1612,1611
82851013,1000,1000,1000,1000,114728257,1534,1537,1611,1610
82853512,1000,1000,1000,1000,114828217,1537,1540,1608,1607
82856011,1000,1000,1000,1000,114928177,1544,1546,1603,1603
82858510,1000,1000,1000,1000,115028970,1552,1553,1598,1597
82861009,1000,1000,1000,1000,115128930,1560,1560,1591,1590
82863508,1000,1000,1000,1000,115228890,1568,1567,1584,1584
82866007,1000,1000,1000,1000,115328850,1575,1573,1578,1578
82868506,1000,1000,1000,1000,115428810,1580,1579,1574,1574
82871005,1000,1000,1000,1000,115528770,1585,1582,1571,1571
82873504,1000,1000,1000,1000,115628730,1587,1584,1569,1569
82876003,1000,1000,1000,1000,115728690,1587,1586,1569,1569
82878502,1000,1000,1000,1000,115828650,1587,1585,1569,1570
82881001,1000,1000,1000,1000,115928610,1585,1584,1571,1571
82883500,1000,1000,1000,1000,116028570,1583,1583,1573,1573
82885999,1000,1000,1000,1000,116128530,1581,1581,1576,1576
82888498,1000,1000,1000,1000,116228490,1577,1578,1578,1577
82890997,1000,1000,1000,1000,116328450,1575,1576,1580,1580
82893496,1000,1000,1000,1000,116428410,1574,1575,1582,1582
82895995,1000,1000,1000,1000,116528370,1574,1574,1583,1582
82898494,1000,1000,1000,1000,116628330,1573,1574,1583,1583
82900993,1000,1000,1000,1000,116728290,1574,1575,1584,1584
82903492,1000,1000,1000,1000,116828250,1574,1575,1582,1583
82905991,1000,1000,1000,1000,116928210,1575,1575,1582,1582
82908490,1000,1000,1000,1000,117028170,1577,1577,1581,1581
82910989,1000,1000,1000,1000,117128963,1578,1578,1580,1580
82913488,1000,1000,1000,1000,117228923,1579,1579,1579,1579
82915987,1000,1000,1000,1000,117328883,1580,1580,1578,1578
82918486,1000,1000,1000,1000,117428843,1581,1581,1578,1578
82920985,1000,1000,1000,1000,117528803,1582,1582,1578,1578
82923484,1000,1000,1000,1000,117628763,1582,1582,1578,1578
82925983,1000,1000,1000,1000,117728723,1581,1582,1578,1578
82928482,1000,1000,1000,1000,117828683,1582,1582,1579,1578
82930981,1000,1000,1000,1000,117928643,1582,1581,1579,1579
82933480,1000,1000,1000,1000,118028603,1581,1580,1579,1579
82935979,1000,1000,1000,1000,118128563,1581,1580,1579,1580
82938478,1000,1000,1000,1000,118228523,1580,1581,1581,1581
82940977,1000,1000,1000,1000,118328483,1579,1579,1580,1580
82943476,1000,1000,1000,1000,118428443,1580,1580,1581,1581
82945975,1000,1000,1000,1000,118528403,1579,1580,1581,1581
82948474,1000,1000,1000,1000,118628363,1580,1580,1581,1581
82950973,1000,1000,1000,1000,118728323,1580,1580,1581,1581
82953472,1000,1000,1000,1000,118828283,1580,1580,1581,1582
82955971,1000,1000,1000,1000,118928243,1582,1582,1583,1582
82958470,1000,1000,1000,1000,119028203,1581,1582,1582,1582
82960969,1000,1000,1000,1000,119128163,1582,1582,1582,1582
82963468,1000,1000,1000,1000,119228956,1582,1583,1588,1575
82965967,1000,1000,1000,1000,119328916,1580,1580,1585,1572
82968466,1000,1000,1000,1000,119428876,1578,1578,1578,1574
82970965,1000,1000,1000,1000,119528836,1575,1573,1570,1574
82973464,1000,1000,1000,1000,119628796,1572,1571,1566,1573
82975963,1000,1000,1000,1000,119728756,1570,1570,1565,1572
82978462,1000,1000,1000,1000,119828716,1568,1569,1566,1569
82980961,1000,1000,1000,1000,119928676,1567,1568,1567,1568
82983460,1000,1000,1000,1000,120028636,1567,1567,1568,1567
82985959,1000,1000,1000,1000,120128596,1566,1566,1568,1565
82988458,1000,1000,1000,1000,120228556,1565,1566,1567,1565
82990957,1000,1000,1000,1000,120328516,1565,1565,1567,1565
82993456,1000,1000,1000,1000,120428476,1564,1564,1566,1565
82995955,1000,1000,1000,1000,120528436,1563,1563,1564,1564
82998454,1000,1000,1000,1000,120628396,1562,1562,1563,1563
83000953,1000,1000,1000,1000,120728356,1563,1562,1563,1563
83003452,1000,1000,1000,1000,120828316,1561,1561,1561,1561
83005951,1000,1000,1000,1000,120928276,1561,1561,1561,1561
83008450,1000,1000,1000,1000,121028236,1561,1562,1562,1561
83010949,1000,1000,1000,1000,121128196,1560,1560,1560,1559
83013448,1000,1000,1000,1000,121228156,1559,1560,1559,1559
83015947,1000,1000,1000,1000,121328949,1559,1559,1558,1558
83018446,1000,1000,1000,1000,121428909,1559,1558,1559,1557
83020945,1000,1000,1000,1000,121528869,1558,1558,1558,1557
83023444,1000,1000,1000,1000,121628829,1559,1558,1559,1558
83025943,1000,1000,1000,1000,121728789,1558,1558,1559,1557
83028442,1000,1000,1000,1000,121828749,1558,1558,1560,1556
83030941,1000,1000,1000,1000,121928709,1558,1558,1560,1557
83033440,1000,1000,1000,1000,122028669,1559,1559,1559,1560
83035939,1000,1000,1000,1000,122128629,1560,1560,1558,1563
83038438,1000,1000,1000,1000,122228589,1560,1560,1558,1564
83040937,1000,1000,1000,1000,122328549,1562,1562,1559,1565
83043436,1000,1000,1000,1000,122428509,1562,1563,1560,1564
83045935,1000,1000,1000,1000,122528469,1562,1563,1562,1563
83048434,1000,1000,1000,1000,122628429,1562,1562,1562,1560
83050933,1000,1000,1000,1000,122728389,1560,1560,1561,1557
83053432,1000,1000,1000,1000,122828349,1560,1560,1559,1561
83055931,1000,1000,1000,1000,122928309,1558,1557,1554,1559
83058430,1000,1000,1000,1000,123028269,1554,1553,1551,1554
83060929,1000,1000,1000,1000,123128229,1548,1548,1546,1548
83063428,1000,1000,1000,1000,123228189,1542,1542,1540,1540
83065927,1000,1000,1000,1000,123328982,1534,1535,1533,1533
83068426,1000,1000,1000,1000,123428942,1526,1527,1525,1524
83070925,1000,1000,1000,1000,123528902,1520,1521,1520,1519
83073424,1000,1000,1000,1000,123628862,1518,1519,1519,1518
83075923,1000,1000,1000,1000,123728822,1519,1519,1519,1520
83078422,1000,1000,1000,1000,123828782,1520,1521,1522,1522
83080921,1000,1000,1000,1000,123928742,1523,1523,1525,1525
83083420,1000,1000,1000,1000,124028702,1527,1527,1530,1530
83085919,1000,1000,1000,1000,124128662,1531,1531,1534,1535
83088418,1000,1000,1000,1000,124228622,1537,1536,1539,1539
83090917,1000,1000,1000,1000,124328582,1540,1539,1542,1542
83093416,1000,1000,1000,1000,124428542,1543,1542,1544,1544
83095915,1000,1000,1000,1000,124528502,1544,1543,1544,1544
83098414,1000,1000,1000,1000,124628462,1545,1545,1545,1545
83100913,1000,1000,1000,1000,124728422,1547,1546,1546,1545
83103412,1000,1000,1000,1000,124828382,1548,1549,1548,1547
83105911,1000,1000,1000,1000,124928342,1548,1548,1546,1546
83108410,1000,1000,1000,1000,125028302,1547,1547,1545,1545
83110909,1000,1000,1000,1000,125128262,1547,1547,1545,1546
83113408,1000,1000,1000,1000,125228222,1547,1547,1546,1545
83115907,1000,1000,1000,1000,125328182,1546,1547,1545,1546
83118406,1000,1000,1000,1000,125428975,1546,1547,1546,1545
83120905,1000,1000,1000,1000,125528935,1546,1546,1546,1545
83123404,1000,1000,1000,1000,125628895,1545,1545,1546,1545
83125903,1000,1000,1000,1000,125728855,1544,1544,1545,1544
83128402,1000,1000,1000,1000,125828815,1545,1544,1545,1545
83130901,1000,1000,1000,1000,125928775,1544,1544,1545,1545
83133400,1000,1000,1000,1000,126028735,1543,1544,1544,1544
83135899,1000,1000,1000,1000,126128695,1543,1543,1544,1544
83138398,1000,1000,1000,1000,126228655,1544,1544,1545,1544
83140897,1000,1000,1000,1000,126328615,1544,1543,1544,1544
83143396,1000,1000,1000,1000,126428575,1543,1543,1544,1544
83145895,1000,1000,1000,1000,126528535,1544,1544,1544,1544
83148394,1000,1000,1000,1000,126628495,1543,1543,1543,1543
83150893,1000,1000,1000,1000,126728455,1543,1543,1542,1543
83153392,1000,1000,1000,1000,126828415,1544,1544,1544,1543
83155891,1000,1000,1000,1000,126928375,1544,1544,1544,1544
83158390,1000,1000,1000,1000,127028335,1544,1544,1543,1543
83160889,1000,1000,1000,1000,127128295,1544,1545,1544,1544
83163388,1000,1000,1000,1000,127228255,1544,1544,1543,1543
83165887,1000,1000,1000,1000,127328215,1544,1544,1544,1544
83168386,1000,1000,1000,1000,127428175,1544,1544,1544,1544
83170885,1000,1000,1000,1000,127528968,1544,1543,1544,1544
83173384,1000,1000,1000,1000,127628928,1544,1543,1544,1544
83175883,1000,1000,1000,1000,127728888,1544,1544,1544,1544
83178382,1000,1000,1000,1000,127828848,1544,1544,1545,1544
83180881,1000,1000,1000,1000,127928808,1544,1544,1544,1544
83183380,1000,1000,1000,1000,128028768,1543,1544,1544,1543
83185879,1000,1000,1000,1000,128128728,1544,1544,1544,1544
83188378,1000,1000,1000,1000,128228688,1543,1544,1543,1544
83190877,1000,1000,1000,1000,128328648,1544,1544,1543,1544
83193376,1000,1000,1000,1000,128428608,1544,1544,1544,1544
83195875,1000,1000,1000,1000,128528568,1544,1543,1544,1544
83198374,1000,1000,1000,1000,128628528,1545,1545,1545,1544
83200873,1000,1000,1000,1000,128728488,1544,1544,1544,1544
83203372,1000,1000,1000,1000,128828448,1544,1544,1544,1544
83205871,1000,1000,1000,1000,128928408,1544,1544,1544,1544
83208370,1000,1000,1000,1000,129028368,1544,1544,1544,1544
83210869,1000,1000,1000,1000,129128328,1543,1543,1543,1544
83213368,1000,1000,1000,1000,129228288,1544,1544,1544,1544
83215867,1000,1000,1000,1000,129328248,1544,1543,1544,1544
83218366,1000,1000,1000,1000,129428208,1544,1544,1544,1544
83220865,1000,1000,1000,1000,129528168,1544,1544,1543,1544
83223364,1000,1000,1000,1000,129628961,1543,1544,1544,1543
83225863,1000,1000,1000,1000,129728921,1543,1543,1543,1543
83228362,1000,1000,1000,1000,129828881,1544,1544,1544,1543
83230861,1000,1000,1000,1000,129928841,1545,1544,1545,1545
83233360,1000,1000,1000,1000,130028801,1545,1545,1545,1545
83235859,1000,1000,1000,1000,130128761,1545,1545,1545,1545
83238358,1000,1000,1000,1000,130228721,1545,1545,1545,1545
83240857,1000,1000,1000,1000,130328681,1544,1544,1544,1544
83243356,1000,1000,1000,1000,130428641,1544,1544,1544,1544
83245855,1000,1000,1000,1000,130528601,1546,1545,1545,1546
83248354,1000,1000,1000,1000,130628561,1545,1546,1545,1545
83250853,1000,1000,1000,1000,130728521,1545,1545,1545,1545
83253352,1000,1000,1000,1000,130828481,1545,1545,1546,1545
83255851,1000,1000,1000,1000,130928441,1545,1545,1545,1545
83258350,1000,1000,1000,1000,131028401,1545,1545,1546,1545
83260849,1000,1000,1000,1000,131128361,1545,1545,1545,1545
83263348,1000,1000,1000,1000,131228321,1545,1545,1545,1544
83265847,1000,1000,1000,1000,131328281,1545,1545,1545,1545
83268346,1000,1000,1000,1000,131428241,1545,1545,1544,1545
83270845,1000,1000,1000,1000,131528201,1544,1544,1544,1545
83273344,1000,1000,1000,1000,131628161,1544,1544,1544,1544
83275843,1000,1000,1000,1000,131728954,1545,1544,1544,1544
83278342,1000,1000,1000,1000,131828914,1544,1544,1544,1544
83280841,1000,1000,1000,1000,131928874,1544,1544,1544,1544
83283340,1000,1000,1000,1000,132028834,1545,1545,1545,1544
83285839,1000,1000,1000,1000,132128794,1545,1544,1545,1545
83288338,1000,1000,1000,1000,132228754,1544,1545,1545,1545
83290837,1000,1000,1000,1000,132328714,1544,1544,1544,1544
83293336,1000,1000,1000,1000,132428674,1544,1544,1544,1545
83295835,1000,1000,1000,1000,132528634,1544,1544,1544,1544
83298334,1000,1000,1000,1000,132628594,1543,1543,1543,1543
83300833,1000,1000,1000,1000,132728554,1544,1544,1543,1544
83303332,1000,1000,1000,1000,132828514,1544,1544,1545,1544
83305831,1000,1000,1000,1000,132928474,1544,1544,1544,1544
83308330,1000,1000,1000,1000,133028434,1543,1543,1543,1543
83310829,1000,1000,1000,1000,133128394,1544,1544,1543,1544
83313328,1000,1000,1000,1000,133228354,1544,1545,1544,1544
83315827,1000,1000,1000,1000,133328314,1443,1419,1418,1419
83318326,1000,1000,1000,1000,133428274,1338,1277,1276,1277
83320825,1000,1000,1000,1000,133528234,1301,1221,1221,1222
83323324,1000,1000,1000,1000,133628194,1287,1201,1201,1201
83325823,1000,1000,1000,1000,133728154,1263,1162,1162,1163
83328322,1000,1000,1000,1000,133828947,1255,1150,1150,1150
83330821,1000,1000,1000,1000,133928907,1248,1150,1150,1150
83333320,1000,1000,1000,1000,134028867,1249,1150,1150,1150
83335819,1000,1000,1000,1000,134128827,1226,1150,1150,1186
83338318,1000,1000,1000,1000,134228787,1233,1150,1150,1175
83340817,1000,1000,1000,1000,134328747,1237,1150,1150,1168
83343316,1000,1000,1000,1000,134428707,1238,1150,1150,1166
83345815,1000,1000,1000,1000,134528667,1238,1150,1150,1167
83348314,1000,1000,1000,1000,134628627,1238,1150,1150,1167
83350813,1000,1000,1000,1000,134728587,1237,1150,1150,1169
83353312,1000,1000,1000,1000,134828547,1236,1150,1151,1169
83355811,1000,1000,1000,1000,134928507,1247,1150,1151,1151
83358310,1000,1000,1000,1000,135028467,1246,1150,1151,1154
83360809,1000,1000,1000,1000,135128427,1245,1150,1151,1155
83363308,1000,1000,1000,1000,135228387,1244,1150,1152,1155
83365807,1000,1000,1000,1000,135328347,1244,1150,1152,1156
83368306,1000,1000,1000,1000,135428307,1000,1000,1000,1000
83370805,1000,1000,1000,1000,135528267,1000,1000,1000,1000
83373304,1000,1000,1000,1000,135628227,1000,1000,1000,1000
83375803,1000,1000,1000,1000,135728187,1000,1000,1000,1000
83378302,1000,1000,1000,1000,135828980,1000,1000,1000,1000
83380801,1000,1000,1000,1000,135928940,1000,1000,1000,1000
83383300,1000,1000,1000,1000,136028900,1000,1000,1000,1000
83385799,1000,1000,1000,1000,136128860,1000,1000,1000,1000
83388298,1000,1000,1000,1000,136228820,1000,1000,1000,1000
83390797,1000,1000,1000,1000,136328780,1000,1000,1000,1000
83393296,1000,1000,1000,1000,136428740,1000,1000,1000,1000
83395795,1000,1000,1000,1000,136528700,1000,1000,1000,1000
83398294,1000,1000,1000,1000,136628660,1000,1000,1000,1000
83400793,1000,1000,1000,1000,136728620,1000,1000,1000,1000
83403292,1000,1000,1000,1000,136828580,1000,1000,1000,1000
83405791,1000,1000,1000,1000,136928540,1000,1000,1000,1000
83408290,1000,1000,1000,1000,137028500,1000,1000,1000,1000
83410789,1000,1000,1000,1000,137128460,1000,1000,1000,1000
83413288,1000,1000,1000,1000,137228420,1000,1000,1000,1000
83415787,1000,1000,1000,1000,137328380,1000,1000,1000,1000
83418286,1000,1000,1000,1000,137428340,1000,1000,1000,1000
83420785,1000,1000,1000,1000,137528300,1000,1000,1000,1000
83423284,1000,1000,1000,1000,137628260,1000,1000,1000,1000
83425783,1000,1000,1000,1000,137728220,1000,1000,1000,1000
83428282,1000,1000,1000,1000,137828180,1000,1000,1000,1000
83430781,1000,1000,1000,1000,137928973,1000,1000,1000,1000
83433280,1000,1000,1000,1000,138028933,1000,1000,1000,1000
83435779,1000,1000,1000,1000,138128893,1000,1000,1000,1000
83438278,1000,1000,1000,1000,138228853,1000,1000,1000,1000
83440777,1000,1000,1000,1000,138328813,1000,1000,1000,1000
83443276,1000,1000,1000,1000,138428773,1000,1000,1000,1000
83445775,1000,1000,1000,1000,138528733,1000,1000,1000,1000
83448274,1000,1000,1000,1000,138628693,1000,1000,1000,1000
83450773,1000,1000,1000,1000,138728653,1000,1000,1000,1000
83453272,1000,1000,1000,1000,138828613,1000,1000,1000,1000
83455771,1000,1000,1000,1000,138928573,1000,1000,1000,1000
83458270,1000,1000,1000,1000,139028533,1000,1000,1000,1000
83460769,1000,1000,1000,1000,139128493,1000,1000,1000,1000
83463268,1000,1000,1000,1000,139228453,1000,1000,1000,1000
83465767,1000,1000,1000,1000,139328413,1000,1000,1000,1000
83468266,1000,1000,1000,1000,139428373,1000,1000,1000,1000
83470765,1000,1000,1000,1000,139528333,1000,1000,1000,1000
83473264,1000,1000,1000,1000,139628293,1000,1000,1000,1000
83475763,1000,1000,1000,1000,139728253,1000,1000,1000,1000
83478262,1000,1000,1000,1000,139828213,1000,1000,1000,1000
83480761,1000,1000,1000,1000,139928173,1000,1000,1000,1000
83483260,1000,1000,1000,1000,140028966,1000,1000,1000,1000
83485759,1000,1000,1000,1000,140128926,1000,1000,1000,1000
83488258,1000,1000,1000,1000,140228886,1000,1000,1000,1000
83490757,1000,1000,1000,1000,140328846,1000,1000,1000,1000
83493256,1000,1000,1000,1000,140428806,1000,1000,1000,1000
83495755,1000,1000,1000,1000,140528766,1000,1000,1000,1000
83498254,1000,1000,1000,1000,140628726,1000,1000,1000,1000
83500753,1000,1000,1000,1000,140728686,1000,1000,1000,1000
83503252,1000,1000,1000,1000,140828646,1000,1000,1000,1000
83505751,1000,1000,1000,1000,140928606,1000,1000,1000,1000
83508250,1000,1000,1000,1000,141028566,1000,1000,1000,1000
83510749,1000,1000,1000,1000,141128526,1000,1000,1000,1000
83513248,1000,1000,1000,1000,141228486,1000,1000,1000,1000
83515747,1000,1000,1000,1000,141328446,1000,1000,1000,1000
83518246,1000,1000,1000,1000,141428406,1000,1000,1000,1000
83520745,1000,1000,1000,1000,141528366,1000,1000,1000,1000
83523244,1000,1000,1000,1000,141628326,1000,1000,1000,1000
83525743,1000,1000,1000,1000,141728286,1000,1000,1000,1000
83528242,1000,1000,1000,1000,141828246,1000,1000,1000,1000
83530741,1000,1000,1000,1000,141928206,1000,1000,1000,1000
83533240,1000,1000,1000,1000,142028166,1000,1000,1000,1000
83535739,1000,1000,1000,1000,142128959,1000,1000,1000,1000
83538238,1000,1000,1000,1000,142228919,1000,1000,1000,1000
83540737,1000,1000,1000,1000,142328879,1000,1000,1000,1000
83543236,1000,1000,1000,1000,142428839,1000,1000,1000,1000
83545735,1000,1000,1000,1000,142528799,1000,1000,1000,1000
83548234,1000,1000,1000,1000,142628759,1000,1000,1000,1000
83550733,1000,1000,1000,1000,142728719,1000,1000,1000,1000
83553232,1000,1000,1000,1000,142828679,1000,1000,1000,1000
83555731,1000,1000,1000,1000,142928639,1000,1000,1000,1000
83558230,1000,1000,1000,1000,143028599,1000,1000,1000,1000
83560729,1000,1000,1000,1000,143128559,1000,1000,1000,1000
83563228,1000,1000,1000,1000,143228519,1000,1000,1000,1000
83565727,1000,1000,1000,1000,143328479,1000,1000,1000,1000
83568226,1000,1000,1000,1000,143428439,1000,1000,1000,1000
83570725,1000,1000,1000,1000,143528399,1000,1000,1000,1000
83573224,1000,1000,1000,1000,143628359,1000,1000,1000,1000
83575723,1000,1000,1000,1000,143728319,1000,1000,1000,1000
83578222,1000,1000,1000,1000,143828279,1000,1000,1000,1000
83580721,1000,1000,1000,1000,143928239,1000,1000,1000,1000
83583220,1000,1000,1000,1000,144028199,1000,1000,1000,1000
83585719,1000,1000,1000,1000,144128159,1000,1000,1000,1000
83588218,1000,1000,1000,1000,144228952,1000,1000,1000,1000
83590717,1000,1000,1000,1000,144328912,1000,1000,1000,1000
83593216,1000,1000,1000,1000,144428872,1000,1000,1000,1000
83595715,1000,1000,1000,1000,144528832,1000,1000,1000,1000
83598214,1000,1000,1000,1000,144628792,1000,1000,1000,1000
83600713,1000,1000,1000,1000,144728752,1000,1000,1000,1000
83603212,1000,1000,1000,1000,144828712,1000,1000,1000,1000
83605711,1000,1000,1000,1000,144928672,1000,1000,1000,1000
83608210,1000,1000,1000,1000,145028632,1000,1000,1000,1000
83610709,1000,1000,1000,1000,145128592,1000,1000,1000,1000
83613208,1000,1000,1000,1000,145228552,1000,1000,1000,1000
83615707,1000,1000,1000,1000,145328512,1000,1000,1000,1000
83618206,1000,1000,1000,1000,145428472,1000,1000,1000,1000
83620705,1000,1000,1000,1000,145528432,1000,1000,1000,1000
83623204,1000,1000,1000,1000,145628392,1000,1000,1000,1000
83625703,1000,1000,1000,1000,145728352,1000,1000,1000,1000
83628202,1000,1000,1000,1000,145828312,1000,1000,1000,1000
83630701,1000,1000,1000,1000,145928272,1000,1000,1000,1000
83633200,1000,1000,1000,1000,146028232,1000,1000,1000,1000
83635699,1000,1000,1000,1000,146128192,1000,1000,1000,1000
83638198,1000,1000,1000,1000,146228985,1000,1000,1000,1000
83640697,1000,1000,1000,1000,146328945,1000,1000,1000,1000
83643196,1000,1000,1000,1000,146428905,1000,1000,1000,1000
83645695,1000,1000,1000,1000,146528865,1000,1000,1000,1000
83648194,1000,1000,1000,1000,146628825,1000,1000,1000,1000
83650693,1000,1000,1000,1000,146728785,1000,1000,1000,1000
83653192,1000,1000,1000,1000,146828745,1000,1000,1000,1000
83655691,1000,1000,1000,1000,146928705,1000,1000,1000,1000
83658190,1000,1000,1000,1000,147028665,1000,1000,1000,1000
83660689,1000,1000,1000,1000,147128625,1000,1000,1000,1000
83663188,1000,1000,1000,1000,147228585,1000,1000,1000,1000
83665687,1000,1000,1000,1000,147328545,1000,1000,1000,1000
83668186,1000,1000,1000,1000,147428505,1000,1000,1000,1000
83670685,1000,1000,1000,1000,147528465,1000,1000,1000,1000
83673184,1000,1000,1000,1000,147628425,1000,1000,1000,1000
83675683,1000,1000,1000,1000,147728385,1000,1000,1000,1000
83678182,1000,1000,1000,1000,147828345,1000,1000,1000,1000
83680681,1000,1000,1000,1000,147928305,1000,1000,1000,1000
83683180,1000,1000,1000,1000,148028265,1000,1000,1000,1000
83685679,1000,1000,1000,1000,148128225,1000,1000,1000,1000
83688178,1000,1000,1000,1000,148228185,1000,1000,1000,1000
83690677,1000,1000,1000,1000,148328978,1000,1000,1000,1000
83693176,1000,1000,1000,1000,148428938,1000,1000,1000,1000
83695675,1000,1000,1000,1000,148528898,1000,1000,1000,1000
83698174,1000,1000,1000,1000,148628858,1000,1000,1000,1000
83700673,1000,1000,1000,1000,148728818,1000,1000,1000,1000
83703172,1000,1000,1000,1000,148828778,1000,1000,1000,1000
83705671,1000,1000,1000,1000,148928738,1000,1000,1000,1000
83708170,1000,1000,1000,1000,149028698,1000,1000,1000,1000
83710669,1000,1000,1000,1000,149128658,1000,1000,1000,1000
83713168,1000,1000,1000,1000,149228618,1000,1000,1000,1000
83715667,1000,1000,1000,1000,149328578,1000,1000,1000,1000
83718166,1000,1000,1000,1000,149428538,1000,1000,1000,1000
83720665,1000,1000,1000,1000,149528498,1000,1000,1000,1000
83723164,1000,1000,1000,1000,149628458,1000,1000,1000,1000
83725663,1000,1000,1000,1000,149728418,1000,1000,1000,1000
83728162,1000,1000,1000,1000,149828378,1000,1000,1000,1000
83730661,1000,1000,1000,1000,149928338,1000,1000,1000,1000
83733160,1000,1000,1000,1000,150028298,1000,1000,1000,1000
83735659,1000,1000,1000,1000,150128258,1000,1000,1000,1000
83738158,1000,1000,1000,1000,150228218,1000,1000,1000,1000
83740657,1000,1000,1000,1000,150328178,1000,1000,1000,1000
83743156,1000,1000,1000,1000,,,,,
83745655,1000,1000,1000,1000,,,,,
83748154,1000,1000,1000,1000,,,,,
83751486,1000,1000,1000,1000,,,,,
83753985,1000,1000,1000,1000,,,,,
83756484,1000,1000,1000,1000,,,,,
83758983,1000,1000,1000,1000,,,,,
83761482,1000,1000,1000,1000,,,,,
83763981,1000,1000,1000,1000,,,,,
83766480,1000,1000,1000,1000,,,,,
83768979,1000,1000,1000,1000,,,,,
83771478,1000,1000,1000,1000,,,,,
83773977,1000,1000,1000,1000,,,,,
83776476,1000,1000,1000,1000,,,,,
83778975,1000,1000,1000,1000,,,,,
83781474,1000,1000,1000,1000,,,,,
83783973,1000,1000,1000,1000,,,,,
83786472,1000,1000,1000,1000,,,,,
83788971,1000,1000,1000,1000,,,,,
83791470,1000,1000,1000,1000,,,,,
83793969,1000,1000,1000,1000,,,,,
83796468,1000,1000,1000,1000,,,,,
83798967,1000,1000,1000,1000,,,,,
83801466,1000,1000,1000,1000,,,,,
83803965,1000,1000,1000,1000,,,,,
83806464,1000,1000,1000,1000,,,,,
83808963,1000,1000,1000,1000,,,,,
83811462,1000,1000,1000,1000,,,,,
83813961,1000,1000,1000,1000,,,,,
83816460,1000,1000,1000,1000,,,,,
83818959,1000,1000,1000,1000,,,,,
83821458,1000,1000,1000,1000,,,,,
83823957,1000,1000,1000,1000,,,,,
83826456,1000,1000,1000,1000,,,,,
83828955,1000,1000,1000,1000,,,,,
83831454,1000,1000,1000,1000,,,,,
83833953,1000,1000,1000,1000,,,,,
83836452,1000,1000,1000,1000,,,,,
83838951,1000,1000,1000,1000,,,,,
83841450,1000,1000,1000,1000,,,,,
83843949,1000,1000,1000,1000,,,,,
83846448,1000,1000,1000,1000,,,,,
83848947,1000,1000,1000,1000,,,,,
83851446,1000,1000,1000,1000,,,,,
83853945,1000,1000,1000,1000,,,,,
83856444,1000,1000,1000,1000,,,,,
83858943,1000,1000,1000,1000,,,,,
83861442,1000,1000,1000,1000,,,,,
83863941,1000,1000,1000,1000,,,,,
83866440,1000,1000,1000,1000,,,,,
83868939,1000,1000,1000,1000,,,,,
83871438,1000,1000,1000,1000,,,,,
83873937,1000,1000,1000,1000,,,,,
83876436,1000,1000,1000,1000,,,,,
83878935,1000,1000,1000,1000,,,,,
83881434,1000,1000,1000,1000,,,,,
83883933,1000,1000,1000,1000,,,,,
83886432,1000,1000,1000,1000,,,,,
83888931,1000,1000,1000,1000,,,,,
83891430,1000,1000,1000,1000,,,,,
83893929,1000,1000,1000,1000,,,,,
83896428,1000,1000,1000,1000,,,,,
83898927,1000,1000,1000,1000,,,,,
83901426,1000,1000,1000,1000,,,,,
83903925,1000,1000,1000,1000,,,,,
83906424,1000,1000,1000,1000,,,,,
83908923,1000,1000,1000,1000,,,,,
83911422,1000,1000,1000,1000,,,,,
83913921,1000,1000,1000,1000,,,,,
83916420,1000,1000,1000,1000,,,,,
83918919,1000,1000,1000,1000,,,,,
83921418,1000,1000,1000,1000,,,,,
83923917,1000,1000,1000,1000,,,,,
83926416,1000,1000,1000,1000,,,,,
83928915,1000,1000,1000,1000,,,,,
83931414,1000,1000,1000,1000,,,,,
83933913,1000,1000,1000,1000,,,,,
83936412,1000,1000,1000,1000,,,,,
83938911,1000,1000,1000,1000,,,,,
83941410,1000,1000,1000,1000,,,,,
83943909,1000,1000,1000,1000,,,,,
83946408,1000,1000,1000,1000,,,,,
83948907,1000,1000,1000,1000,,,,,
83951406,1000,1000,1000,1000,,,,,
83953905,1000,1000,1000,1000,,,,,
83956404,1000,1000,1000,1000,,,,,
83958903,1000,1000,1000,1000,,,,,
83961402,1000,1000,1000,1000,,,,,
83963901,1000,1000,1000,1000,,,,,
83966400,1000,1000,1000,1000,,,,,
83968899,1000,1000,1000,1000,,,,,
83971398,1000,1000,1000,1000,,,,,
83973897,1000,1000,1000,1000,,,,,
83976396,1000,1000,1000,1000,,,,,
83978895,1000,1000,1000,1000,,,,,
83981394,1000,1000,1000,1000,,,,,
83983893,1000,1000,1000,1000,,,,,
83986392,1000,1000,1000,1000,,,,,
83988891,1000,1000,1000,1000,,,,,
83991390,1000,1000,1000,1000,,,,,
83993889,1000,1000,1000,1000,,,,,
83996388,1000,1000,1000,1000,,,,,
83998887,1000,1000,1000,1000,,,,,
84001386,1000,1000,1000,1000,,,,,
84003885,1000,1000,1000,1000,,,,,
84006384,1000,1000,1000,1000,,,,,
84008883,1000,1000,1000,1000,,,,,
84011382,1000,1000,1000,1000,,,,,
84013881,1000,1000,1000,1000,,,,,
84016380,1000,1000,1000,1000,,,,,
84018879,1000,1000,1000,1000,,,,,
84021378,1000,1000,1000,1000,,,,,
84023877,1000,1000,1000,1000,,,,,
84026376,1000,1000,1000,1000,,,,,
84028875,1000,1000,1000,1000,,,,,
84031374,1000,1000,1000,1000,,,,,
84033873,1000,1000,1000,1000,,,,,
84036372,1000,1000,1000,1000,,,,,
84038871,1000,1000,1000,1000,,,,,
84041370,1000,1000,1000,1000,,,,,
84043869,1001,1001,1001,1001,,,,,
84046368,1002,1002,1002,1002,,,,,
84048867,1003,1003,1003,1003,,,,,
84051366,1003,1003,1003,1003,,,,,
84053865,1004,1004,1004,1004,,,,,
84056364,1005,1005,1005,1005,,,,,
84058863,1006,1006,1006,1006,,,,,
84061362,1006,1006,1006,1006,,,,,
84063861,1007,1007,1007,1007,,,,,
84066360,1008,1008,1008,1008,,,,,
84068859,1009,1009,1009,1009,,,,,
84071358,1009,1009,1009,1009,,,,,
84073857,1010,1010,1010,1010,,,,,
84076356,1011,1011,1011,1011,,,,,
84078855,1012,1012,1012,1012,,,,,
84081354,1012,1012,1012,1012,,,,,
84083853,1013,1013,1013,1013,,,,,
84086352,1014,1014,1014,1014,,,,,
84088851,1015,1015,1015,1015,,,,,
84091350,1015,1015,1015,1015,,,,,
84093849,1016,1016,1016,1016,,,,,
84096348,1017,1017,1017,1017,,,,,
84098847,1018,1018,1018,1018,,,,,
84101346,1018,1018,1018,1018,,,,,
84103845,1019,1019,1019,1019,,,,,
84106344,1020,1020,1020,1020,,,,,
84108843,1021,1021,1021,1021,,,,,
84111342,1021,1021,1021,1021,,,,,
84113841,1022,1022,1022,1022,,,,,
84116340,1023,1023,1023,1023,,,,,
84118839,1024,1024,1024,1024,,,,,
84121338,1024,1024,1024,1024,,,,,
84123837,1025,1025,1025,1025,,,,,
84126336,1026,1026,1026,1026,,,,,
84128835,1027,1027,1027,1027,,,,,
84131334,1027,1027,1027,1027,,,,,
84133833,1028,1028,1028,1028,,,,,
84136332,1029,1029,1029,1029,,,,,
84138831,1030,1030,1030,1030,,,,,
84141330,1030,1030,1030,1030,,,,,
84143829,1031,1031,1031,1031,,,,,
84146328,1032,1032,1032,1032,,,,,
84148827,1033,1033,1033,1033,,,,,
84151326,1033,1033,1033,1033,,,,,
84153825,1034,1034,1034,1034,,,,,
84156324,1035,1035,1035,1035,,,,,
84158823,1036,1036,1036,1036,,,,,
84161322,1036,1036,1036,1036,,,,,
84163821,1037,1037,1037,1037,,,,,
84166320,1038,1038,1038,1038,,,,,
84168819,1039,1039,1039,1039,,,,,
84171318,1039,1039,1039,1039,,,,,
84173817,1040,1040,1040,1040,,,,,
84176316,1041,1041,1041,1041,,,,,
84178815,1042,1042,1042,1042,,,,,
84181314,1042,1042,1042,1042,,,,,
84183813,1043,1043,1043,1043,,,,,
84186312,1044,1044,1044,1044,,,,,
84188811,1045,1045,1045,1045,,,,,
84191310,1045,1045,1045,1045,,,,,
84193809,1046,1046,1046,1046,,,,,
84196308,1047,1047,1047,1047,,,,,
84198807,1048,1048,1048,1048,,,,,
84201306,1048,1048,1048,1048,,,,,
84203805,1049,1049,1049,1049,,,,,
84206304,1050,1050,1050,1050,,,,,
84208803,1051,1051,1051,1051,,,,,
84211302,1051,1051,1051,1051,,,,,
84213801,1052,1052,1052,1052,,,,,
84216300,1053,1053,1053,1053,,,,,
84218799,1054,1054,1054,1054,,,,,
84221298,1054,1054,1054,1054,,,,,
84223797,1055,1055,1055,1055,,,,,
84226296,1056,1056,1056,1056,,,,,
84228795,1057,1057,1057,1057,,,,,
84231294,1057,1057,1057,1057,,,,,
84233793,1058,1058,1058,1058,,,,,
84236292,1059,1059,1059,1059,,,,,
84238791,1060,1060,1060,1060,,,,,
84241290,1060,1060,1060,1060,,,,,
84243789,1061,1061,1061,1061,,,,,
84246288,1062,1062,1062,1062,,,,,
84248787,1063,1063,1063,1063,,,,,
84251286,1063,1063,1063,1063,,,,,
84253785,1064,1064,1064,1064,,,,,
84256284,1065,1065,1065,1065,,,,,
84258783,1066,1066,1066,1066,,,,,
84261282,1066,1066,1066,1066,,,,,
84263781,1067,1067,1067,1067,,,,,
84266280,1068,1068,1068,1068,,,,,
84268779,1069,1069,1069,1069,,,,,
84271278,1069,1069,1069,1069,,,,,
84273777,1070,1070,1070,1070,,,,,
84276276,1071,1071,1071,1071,,,,,
84278775,1072,1072,1072,1072,,,,,
84281274,1072,1072,1072,1072,,,,,
84283773,1073,1073,1073,1073,,,,,
84286272,1074,1074,1074,1074,,,,,
84288771,1075,1075,1075,1075,,,,,
84291270,1075,1075,1075,1075,,,,,
84293769,1076,1076,1076,1076,,,,,
84296268,1077,1077,1077,1077,,,,,
84298767,1078,1078,1078,1078,,,,,
84301266,1078,1078,1078,1078,,,,,
84303765,1079,1079,1079,1079,,,,,
84306264,1080,1080,1080,1080,,,,,
84308763,1081,1081,1081,1081,,,,,
84311262,1081,1081,1081,1081,,,,,
84313761,1082,1082,1082,1082,,,,,
84316260,1083,1083,1083,1083,,,,,
84318759,1084,1084,1084,1084,,,,,
84321258,1084,1084,1084,1084,,,,,
84323757,1085,1085,1085,1085,,,,,
84326256,1086,1086,1086,1086,,,,,
84328755,1087,1087,1087,1087,,,,,
84331254,1087,1087,1087,1087,,,,,
84333753,1088,1088,1088,1088,,,,,
84336252,1089,1089,1089,1089,,,,,
84338751,1090,1090,1090,1090,,,,,
84341250,1090,1090,1090,1090,,,,,
84343749,1091,1091,1091,1091,,,,,
84346248,1092,1092,1092,1092,,,,,
84348747,1093,1093,1093,1093,,,,,
84351246,1093,1093,1093,1093,,,,,
84353745,1094,1094,1094,1094,,,,,
84356244,1095,1095,1095,1095,,,,,
84358743,1096,1096,1096,1096,,,,,
84361242,1096,1096,1096,1096,,,,,
84363741,1097,1097,1097,1097,,,,,
84366240,1098,1098,1098,1098,,,,,
84368739,1099,1099,1099,1099,,,,,
84371238,1099,1099,1099,1099,,,,,
84373737,1100,1100,1100,1100,,,,,
84376236,1101,1101,1101,1101,,,,,
84378735,1101,1101,1101,1101,,,,,
84381234,1102,1102,1102,1102,,,,,
84383733,1103,1103,1103,1103,,,,,
84386232,1104,1104,1104,1104,,,,,
84388731,1104,1104,1104,1104,,,,,
84391230,1105,1105,1105,1105,,,,,
84393729,1106,1106,1106,1106,,,,,
84396228,1107,1107,1107,1107,,,,,
84398727,1107,1107,1107,1107,,,,,
84401226,1108,1108,1108,1108,,,,,
84403725,1109,1109,1109,1109,,,,,
84406224,1110,1110,1110,1110,,,,,
84408723,1110,1110,1110,1110,,,,,
84411222,1111,1111,1111,1111,,,,,
84413721,1112,1112,1112,1112,,,,,
84416220,1113,1113,1113,1113,,,,,
84418719,1113,1113,1113,1113,,,,,
84421218,1114,1114,1114,1114,,,,,
84423717,1115,1115,1115,1115,,,,,
84426216,1116,1116,1116,1116,,,,,
84428715,1116,1116,1116,1116,,,,,
84431214,1117,1117,1117,1117,,,,,
84433713,1118,1118,1118,1118,,,,,
84436212,1119,1119,1119,1119,,,,,
84438711,1119,1119,1119,1119,,,,,
84441210,1120,1120,1120,1120,,,,,
84443709,1121,1121,1121,1121,,,,,
84446208,1122,1122,1122,1122,,,,,
84448707,1122,1122,1122,1122,,,,,
84451206,1123,1123,1123,1123,,,,,
84453705,1124,1124,1124,1124,,,,,
84456204,1125,1125,1125,1125,,,,,
84458703,1125,1125,1125,1125,,,,,
84461202,1126,1126,1126,1126,,,,,
84463701,1127,1127,1127,1127,,,,,
84466200,1128,1128,1128,1128,,,,,
84468699,1128,1128,1128,1128,,,,,
84471198,1129,1129,1129,1129,,,,,
84473697,1130,1130,1130,1130,,,,,
84476196,1131,1131,1131,1131,,,,,
84478695,1131,1131,1131,1131,,,,,
84481194,1132,1132,1132,1132,,,,,
84483693,1133,1133,1133,1133,,,,,
84486192,1134,1134,1134,1134,,,,,
84488691,1134,1134,1134,1134,,,,,
84491190,1135,1135,1135,1135,,,,,
84493689,1136,1136,1136,1136,,,,,
84496188,1137,1137,1137,1137,,,,,
84498687,1137,1137,1137,1137,,,,,
84501186,1138,1138,1138,1138,,,,,
84503685,1139,1139,1139,1139,,,,,
84506184,1140,1140,1140,1140,,,,,
84508683,1140,1140,1140,1140,,,,,
84511182,1141,1141,1141,1141,,,,,
84513681,1142,1142,1142,1142,,,,,
84516180,1143,1143,1143,1143,,,,,
84518679,1143,1143,1143,1143,,,,,
84521178,1144,1144,1144,1144,,,,,
84523677,1145,1145,1145,1145,,,,,
84526176,1146,1146,1146,1146,,,,,
84528675,1146,1146,1146,1146,,,,,
84531174,1147,1147,1147,1147,,,,,
84533673,1148,1148,1148,1148,,,,,
84536172,1149,1149,1149,1149,,,,,
84538671,1149,1149,1149,1149,,,,,
84541170,1150,1150,1150,1150,,,,,
84543669,1164,1150,1151,1165,,,,,
84546168,1172,1158,1159,1173,,,,,
84548667,1180,1166,1167,1181,,,,,
84551166,1188,1174,1175,1188,,,,,
84553665,1195,1182,1183,1196,,,,,
84556164,1203,1189,1191,1203,,,,,
84558663,1210,1197,1198,1211,,,,,
84561162,1217,1204,1205,1218,,,,,
84563661,1224,1212,1213,1225,,,,,
84566160,1231,1219,1220,1232,,,,,
84568659,1238,1226,1227,1239,,,,,
84571158,1245,1233,1234,1245,,,,,
84573657,1251,1239,1240,1252,,,,,
84576156,1258,1246,1247,1258,,,,,
84578655,1264,1253,1254,1265,,,,,
84581154,1271,1259,1260,1271,,,,,
84583653,1277,1266,1267,1278,,,,,
84586152,1283,1272,1273,1284,,,,,
84588651,1290,1278,1279,1290,,,,,
84591150,1296,1285,1286,1296,,,,,
84593649,1302,1291,1292,1302,,,,,
84596148,1308,1297,1298,1308,,,,,
84598647,1314,1303,1304,1314,,,,,
84601146,1319,1309,1310,1320,,,,,
84603645,1325,1315,1316,1326,,,,,
84606144,1331,1321,1322,1332,,,,,
84608643,1337,1326,1327,1337,,,,,
84611142,1342,1332,1333,1343,,,,,
84613641,1348,1338,1339,1348,,,,,
84616140,1353,1343,1344,1354,,,,,
84618639,1359,1349,1350,1359,,,,,
84621138,1364,1354,1355,1365,,,,,
84623637,1370,1360,1361,1370,,,,,
84626136,1375,1365,1366,1376,,,,,
84628635,1380,1371,1372,1381,,,,,
84631134,1386,1376,1377,1386,,,,,
84633633,1391,1381,1382,1391,,,,,
84636132,1396,1386,1387,1397,,,,,
84638631,1401,1392,1392,1402,,,,,
84641130,1406,1397,1398,1407,,,,,
84643629,1411,1402,1403,1412,,,,,
84646128,1416,1407,1408,1417,,,,,
84648627,1421,1412,1413,1422,,,,,
84651126,1426,1417,1418,1427,,,,,
84653625,1431,1422,1423,1432,,,,,
84656124,1436,1427,1427,1437,,,,,
84658623,1441,1432,1432,1441,,,,,
84661122,1446,1436,1437,1446,,,,,
84663621,1450,1441,1442,1451,,,,,
84666120,1455,1446,1447,1456,,,,,
84668619,1460,1451,1451,1460,,,,,
84671118,1465,1455,1456,1465,,,,,
84673617,1469,1460,1461,1470,,,,,
84676116,1474,1465,1465,1474,,,,,
84678615,1478,1469,1470,1479,,,,,
84681114,1483,1474,1475,1483,,,,,
84683613,1487,1479,1479,1488,,,,,
84686112,1492,1483,1484,1492,,,,,
84688611,1496,1488,1488,1497,,,,,
84691110,1501,1492,1493,1501,,,,,
84693609,1505,1496,1497,1506,,,,,
84696108,1510,1501,1502,1510,,,,,
84698607,1514,1505,1506,1514,,,,,
84701106,1518,1510,1510,1519,,,,,
84703605,1523,1514,1515,1523,,,,,
84706104,1527,1518,1519,1527,,,,,
84708603,1531,1523,1523,1532,,,,,
84711102,1535,1527,1528,1536,,,,,
84713601,1540,1531,1532,1540,,,,,
84716100,1544,1535,1536,1544,,,,,
84718599,1548,1539,1540,1548,,,,,
84721098,1552,1544,1544,1553,,,,,
84723597,1556,1548,1549,1557,,,,,
84726096,1560,1552,1553,1561,,,,,
84728595,1565,1556,1557,1565,,,,,
84731094,1569,1560,1561,1569,,,,,
84733593,1573,1564,1565,1573,,,,,
84736092,1577,1568,1569,1577,,,,,
84738591,1581,1572,1573,1581,,,,,
84741090,1585,1576,1577,1585,,,,,
84743589,1589,1580,1581,1589,,,,,
84746088,1593,1584,1585,1593,,,,,
84748587,1597,1588,1589,1597,,,,,
84751086,1601,1592,1593,1601,,,,,
84753585,1604,1596,1597,1605,,,,,
84756084,1608,1600,1601,1609,,,,,
84758583,1612,1604,1605,1612,,,,,
84761082,1616,1608,1609,1616,,,,,
84763581,1620,1612,1612,1620,,,,,
84766080,1624,1615,1616,1624,,,,,
84768579,1627,1619,1620,1628,,,,,
84771078,1631,1623,1624,1631,,,,,
84773577,1635,1627,1628,1635,,,,,
84776076,1639,1631,1631,1639,,,,,
84778575,1642,1634,1635,1643,,,,,
84781074,1646,1638,1639,1646,,,,,
84783573,1650,1642,1643,1650,,,,,
84786072,1654,1646,1646,1654,,,,,
84788571,1657,1649,1650,1658,,,,,
84791070,1661,1653,1654,1661,,,,,
84793569,1664,1657,1657,1665,,,,,
84796068,1668,1660,1661,1668,,,,,
84798567,1672,1664,1665,1672,,,,,
84801066,1675,1668,1668,1676,,,,,
84803565,1679,1671,1672,1679,,,,,
84806064,1682,1675,1675,1683,,,,,
84808563,1686,1678,1679,1686,,,,,
84811062,1689,1682,1682,1690,,,,,
84813561,1693,1686,1686,1694,,,,,
84816060,1696,1689,1689,1697,,,,,
84818559,1700,1693,1693,1701,,,,,
84821058,1703,1696,1696,1704,,,,,
84823557,1707,1700,1700,1708,,,,,
84826056,1710,1703,1703,1711,,,,,
84828555,1714,1707,1707,1715,,,,,
84831054,1717,1710,1710,1718,,,,,
84833553,1721,1713,1714,1721,,,,,
84836052,1724,1717,1717,1725,,,,,
84838551,1728,1720,1721,1728,,,,,
84841050,1731,1724,1724,1732,,,,,
84843549,1734,1727,1727,1735,,,,,
84846048,1738,1730,1731,1738,,,,,
84848547,1741,1734,1734,1742,,,,,
84851046,1744,1737,1738,1745,,,,,
84853545,1748,1740,1741,1748,,,,,
84856044,1751,1744,1744,1752,,,,,
84858543,1754,1747,1748,1755,,,,,
84861042,1758,1750,1751,1758,,,,,
84863541,1761,1754,1754,1762,,,,,
84866040,1764,1757,1757,1765,,,,,
84868539,1768,1760,1761,1768,,,,,
84871038,1771,1764,1764,1771,,,,,
84873537,1774,1767,1767,1775,,,,,
84876036,1777,1770,1771,1778,,,,,
84878535,1781,1773,1774,1781,,,,,
84881034,1784,1777,1777,1784,,,,,
84883533,1787,1780,1780,1788,,,,,
84886032,1790,1783,1783,1791,,,,,
84888531,1794,1786,1787,1794,,,,,
84891030,1797,1789,1790,1797,,,,,
84893529,1800,1793,1793,1800,,,,,
84896028,1803,1796,1796,1803,,,,,
84898527,1806,1799,1799,1807,,,,,
84901026,1809,1802,1802,1810,,,,,
84903525,1812,1805,1806,1813,,,,,
84906024,1816,1808,1809,1816,,,,,
84908523,1819,1811,1812,1819,,,,,
84911022,1822,1814,1815,1822,,,,,
84913521,1825,1818,1818,1825,,,,,
84916020,1828,1821,1821,1829,,,,,
84918519,1831,1824,1824,1832,,,,,
84921018,1834,1827,1827,1835,,,,,
84923517,1837,1830,1830,1838,,,,,
84926016,1840,1833,1833,1841,,,,,
84928515,1843,1836,1836,1844,,,,,
84931014,1847,1839,1839,1847,,,,,
84933513,1850,1842,1842,1850,,,,,
84936012,1853,1845,1845,1853,,,,,
84938511,1856,1848,1848,1856,,,,,
84941010,1859,1851,1851,1859,,,,,
84943509,1862,1854,1854,1862,,,,,
84946008,1865,1857,1857,1865,,,,,
84948507,1868,1860,1860,1868,,,,,
84951006,1871,1863,1863,1871,,,,,
84953505,1874,1866,1866,1874,,,,,
84956004,1876,1869,1869,1877,,,,,
84958503,1879,1872,1872,1880,,,,,
84961002,1882,1875,1875,1883,,,,,
84963501,1885,1878,1878,1886,,,,,
84966000,1888,1881,1881,1889,,,,,
84968499,1891,1884,1884,1891,,,,,
84970998,1894,1887,1887,1894,,,,,
84973497,1894,1886,1887,1894,,,,,
84975996,1893,1885,1886,1893,,,,,
84978495,1891,1884,1885,1892,,,,,
84980994,1890,1883,1884,1891,,,,,
84983493,1890,1882,1883,1890,,,,,
84985992,1889,1881,1882,1889,,,,,
84988491,1888,1880,1881,1888,,,,,
84990990,1887,1879,1880,1887,,,,,
84993489,1886,1878,1879,1886,,,,,
84995988,1885,1878,1878,1886,,,,,
84998487,1885,1877,1878,1885,,,,,
85000986,1884,1876,1877,1884,,,,,
85003485,1884,1876,1877,1884,,,,,
85005984,1883,1875,1876,1884,,,,,
85008483,1883,1875,1876,1883,,,,,
85010982,1883,1875,1876,1883,,,,,
85013481,1883,1875,1875,1883,,,,,
85015980,1883,1875,1875,1883,,,,,
85018479,1883,1875,1875,1883,,,,,
85020978,1883,1875,1875,1883,,,,,
85023477,1883,1875,1875,1883,,,,,
85025976,1883,1875,1876,1883,,,,,
85028475,1883,1875,1876,1884,,,,,
85030974,1884,1876,1876,1884,,,,,
85033473,1884,1876,1877,1885,,,,,
85035972,1885,1877,1877,1885,,,,,
85038471,1885,1877,1878,1885,,,,,
85040970,1886,1878,1879,1886,,,,,
85043469,1886,1879,1879,1886,,,,,
85045968,1886,1879,1880,1887,,,,,
85048467,1886,1880,1880,1887,,,,,
85050966,1887,1880,1881,1887,,,,,
85053465,1887,1881,1881,1887,,,,,
85055964,1887,1881,1881,1887,,,,,
85058463,1886,1881,1881,1887,,,,,
85060962,1886,1880,1881,1886,,,,,
85063461,1885,1880,1880,1886,,,,,
85065960,1885,1879,1880,1885,,,,,
85068459,1884,1879,1879,1884,,,,,
85070958,1883,1878,1878,1883,,,,,
85073457,1881,1876,1877,1882,,,,,
85075956,1880,1875,1876,1880,,,,,
85078455,1878,1874,1874,1879,,,,,
85080954,1877,1872,1873,1877,,,,,
85083453,1875,1871,1871,1876,,,,,
85085952,1873,1869,1869,1874,,,,,
85088451,1871,1867,1867,1872,,,,,
85090950,1869,1865,1865,1870,,,,,
85093449,1867,1863,1863,1867,,,,,
85095948,1864,1861,1861,1865,,,,,
85098447,1862,1858,1859,1863,,,,,
85100946,1860,1856,1856,1860,,,,,
85103445,1857,1853,1854,1858,,,,,
85105944,1854,1851,1851,1855,,,,,
85108443,1852,1848,1849,1852,,,,,
85110942,1849,1846,1846,1849,,,,,
85113441,1846,1843,1843,1847,,,,,
85115940,1843,1840,1841,1844,,,,,
85118439,1840,1837,1838,1841,,,,,
85120938,1837,1834,1835,1838,,,,,
85123437,1834,1831,1832,1835,,,,,
85125936,1831,1829,1829,1832,,,,,
85128435,1828,1826,1826,1829,,,,,
85130934,1825,1823,1823,1825,,,,,
85133433,1822,1819,1820,1822,,,,,
85135932,1818,1816,1817,1819,,,,,
85138431,1815,1813,1814,1816,,,,,
85140930,1812,1810,1811,1813,,,,,
85143429,1809,1807,1807,1809,,,,,
85145928,1805,1804,1804,1806,,,,,
85148427,1802,1801,1801,1803,,,,,
85150926,1799,1797,1798,1799,,,,,
85153425,1796,1794,1795,1796,,,,,
85155924,1792,1791,1791,1793,,,,,
85158423,1789,1788,1788,1789,,,,,
85160922,1786,1785,1785,1786,,,,,
85163421,1782,1781,1782,1783,,,,,
85165920,1779,1778,1779,1780,,,,,
85168419,1776,1775,1776,1776,,,,,
85170918,1773,1772,1772,1773,,,,,
85173417,1769,1769,1769,1770,,,,,
85175916,1766,1766,1766,1767,,,,,
85178415,1763,1763,1763,1764,,,,,
85180914,1760,1760,1760,1760,,,,,
85183413,1757,1757,1757,1757,,,,,
85185912,1753,1754,1754,1754,,,,,
85188411,1750,1751,1751,1751,,,,,
85190910,1747,1748,1748,1748,,,,,
85193409,1744,1745,1745,1745,,,,,
85195908,1741,1742,1742,1742,,,,,
85198407,1738,1739,1739,1739,,,,,
