timestamp,TimeUS,C1,C2,C3,C4,C5,C6,C7,C8,C9,C10,C11,C12,C13,C14
1706424174.90004015,50728867,1000,1000,1000,1000,0,0,0,0,0,0,0,0,0,0
1706424175.00000000,50828827,1000,1000,1000,1000,0,0,0,0,0,0,0,0,0,0
1706424175.09996009,50928787,1000,1000,1000,1000,0,0,0,0,0,0,0,0,0,0
1706424175.19992018,51028747,1000,1000,1000,1000,0,0,0,0,0,0,0,0,0,0
1706424175.29988003,51128707,1000,1000,1000,1000,0,0,0,0,0,0,0,0,0,0
1706424175.39984012,51228667,1000,1000,1000,1000,0,0,0,0,0,0,0,0,0,0
1706424175.49980021,51328627,1000,1000,1000,1000,0,0,0,0,0,0,0,0,0,0
1706424175.59976006,51428587,1000,1000,1000,1000,0,0,0,0,0,0,0,0,0,0
1706424175.69972014,51528547,1000,1000,1000,1000,0,0,0,0,0,0,0,0,0,0
1706424175.79967999,51628507,1000,1000,1000,1000,0,0,0,0,0,0,0,0,0,0
1706424175.89964008,51728467,1000,1000,1000,1000,0,0,0,0,0,0,0,0,0,0
1706424175.99960017,51828427,1000,1000,1000,1000,0,0,0,0,0,0,0,0,0,0
1706424176.09956002,51928387,1000,1000,1000,1000,0,0,0,0,0,0,0,0,0,0
1706424176.19952011,52028347,1000,1000,1000,1000,0,0,0,0,0,0,0,0,0,0
1706424176.29948020,52128307,1000,1000,1000,1000,0,0,0,0,0,0,0,0,0,0
1706424176.39944005,52228267,1000,1000,1000,1000,0,0,0,0,0,0,0,0,0,0
1706424176.49940014,52328227,1000,1000,1000,1000,0,0,0,0,0,0,0,0,0,0
1706424176.59935999,52428187,1000,1000,1000,1000,0,0,0,0,0,0,0,0,0,0
1706424176.70015311,52528980,1000,1000,1000,1000,0,0,0,0,0,0,0,0,0,0
1706424176.80011320,52628940,1000,1000,1000,1000,0,0,0,0,0,0,0,0,0,0
1706424176.90007305,52728900,1024,1024,1024,1024,0,0,0,0,0,0,0,0,0,0
1706424177.00003314,52828860,1054,1054,1054,1054,0,0,0,0,0,0,0,0,0,0
1706424177.09999299,52928820,1084,1084,1084,1084,0,0,0,0,0,0,0,0,0,0
1706424177.19995308,53028780,1113,1113,1113,1113,0,0,0,0,0,0,0,0,0,0
1706424177.29991317,53128740,1143,1143,1143,1143,0,0,0,0,0,0,0,0,0,0
1706424177.39987302,53228700,1357,1351,1351,1358,0,0,0,0,0,0,0,0,0,0
1706424177.49983311,53328660,1547,1541,1541,1547,0,0,0,0,0,0,0,0,0,0
1706424177.59979320,53428620,1699,1694,1694,1699,0,0,0,0,0,0,0,0,0,0
1706424177.69975305,53528580,1830,1825,1825,1830,0,0,0,0,0,0,0,0,0,0
1706424177.79971313,53628540,1871,1867,1867,1872,0,0,0,0,0,0,0,0,0,0
1706424177.89967299,53728500,1835,1833,1833,1835,0,0,0,0,0,0,0,0,0,0
1706424177.99963307,53828460,1709,1710,1710,1710,0,0,0,0,0,0,0,0,0,0
1706424178.09959316,53928420,1636,1638,1638,1637,0,0,0,0,0,0,0,0,0,0
1706424178.19955301,54028380,1622,1623,1619,1626,0,0,0,0,0,0,0,0,0,0
1706424178.29951310,54128340,1630,1633,1628,1636,0,0,0,0,0,0,0,0,0,0
1706424178.39947319,54228300,1638,1641,1638,1641,0,0,0,0,0,0,0,0,0,0
1706424178.49943304,54328260,1637,1639,1639,1637,0,0,0,0,0,0,0,0,0,0
1706424178.59939313,54428220,1633,1633,1635,1630,0,0,0,0,0,0,0,0,0,0
1706424178.69935298,54528180,1627,1625,1629,1623,0,0,0,0,0,0,0,0,0,0
1706424178.80014610,54628973,1624,1622,1626,1620,0,0,0,0,0,0,0,0,0,0
1706424178.90010619,54728933,1622,1621,1623,1620,0,0,0,0,0,0,0,0,0,0
1706424179.00006604,54828893,1619,1618,1619,1617,0,0,0,0,0,0,0,0,0,0
1706424179.10002613,54928853,1589,1588,1596,1581,0,0,0,0,0,0,0,0,0,0
1706424179.19998598,55028813,1575,1576,1580,1570,0,0,0,0,0,0,0,0,0,0
1706424179.29994607,55128773,1564,1565,1564,1565,0,0,0,0,0,0,0,0,0,0
1706424179.39990616,55228733,1555,1556,1551,1559,0,0,0,0,0,0,0,0,0,0
1706424179.49986601,55328693,1547,1547,1540,1554,0,0,0,0,0,0,0,0,0,0
1706424179.59982610,55428653,1541,1541,1532,1549,0,0,0,0,0,0,0,0,0,0
1706424179.69978619,55528613,1537,1535,1530,1542,0,0,0,0,0,0,0,0,0,0
1706424179.79974604,55628573,1530,1530,1528,1532,0,0,0,0,0,0,0,0,0,0
1706424179.89970613,55728533,1527,1527,1527,1527,0,0,0,0,0,0,0,0,0,0
1706424179.99966621,55828493,1527,1527,1528,1525,0,0,0,0,0,0,0,0,0,0
1706424180.09962606,55928453,1529,1529,1531,1527,0,0,0,0,0,0,0,0,0,0
1706424180.19958615,56028413,1532,1532,1535,1530,0,0,0,0,0,0,0,0,0,0
1706424180.29954600,56128373,1536,1536,1538,1534,0,0,0,0,0,0,0,0,0,0
1706424180.39950609,56228333,1539,1540,1541,1538,0,0,0,0,0,0,0,0,0,0
1706424180.49946618,56328293,1542,1543,1544,1542,0,0,0,0,0,0,0,0,0,0
1706424180.59942603,56428253,1545,1545,1546,1545,0,0,0,0,0,0,0,0,0,0
1706424180.69938612,56528213,1548,1549,1548,1549,0,0,0,0,0,0,0,0,0,0
1706424180.79934621,56628173,1552,1551,1551,1552,0,0,0,0,0,0,0,0,0,0
1706424180.90013909,56728966,1554,1554,1553,1555,0,0,0,0,0,0,0,0,0,0
1706424181.00009918,56828926,1556,1555,1557,1559,0,0,0,0,0,0,0,0,0,0
1706424181.10005903,56928886,1556,1556,1560,1562,0,0,0,0,0,0,0,0,0,0
1706424181.20001912,57028846,1558,1558,1563,1564,0,0,0,0,0,0,0,0,0,0
1706424181.29997921,57128806,1561,1561,1565,1566,0,0,0,0,0,0,0,0,0,0
1706424181.39993906,57228766,1562,1562,1566,1565,0,0,0,0,0,0,0,0,0,0
1706424181.49989915,57328726,1564,1564,1567,1566,0,0,0,0,0,0,0,0,0,0
1706424181.59985900,57428686,1565,1566,1566,1566,0,0,0,0,0,0,0,0,0,0
1706424181.69981909,57528646,1568,1568,1567,1567,0,0,0,0,0,0,0,0,0,0
1706424181.79977918,57628606,1570,1570,1568,1568,0,0,0,0,0,0,0,0,0,0
1706424181.89973903,57728566,1571,1571,1568,1569,0,0,0,0,0,0,0,0,0,0
1706424181.99969912,57828526,1572,1572,1569,1569,0,0,0,0,0,0,0,0,0,0
1706424182.09965920,57928486,1573,1573,1569,1569,0,0,0,0,0,0,0,0,0,0
1706424182.19961905,58028446,1574,1574,1571,1571,0,0,0,0,0,0,0,0,0,0
1706424182.29957914,58128406,1575,1574,1572,1572,0,0,0,0,0,0,0,0,0,0
1706424182.39953899,58228366,1576,1575,1574,1573,0,0,0,0,0,0,0,0,0,0
1706424182.49949908,58328326,1575,1575,1574,1573,0,0,0,0,0,0,0,0,0,0
1706424182.59945917,58428286,1575,1575,1575,1573,0,0,0,0,0,0,0,0,0,0
1706424182.69941902,58528246,1576,1576,1576,1575,0,0,0,0,0,0,0,0,0,0
1706424182.79937911,58628206,1575,1574,1575,1575,0,0,0,0,0,0,0,0,0,0
1706424182.89933920,58728166,1576,1575,1576,1576,0,0,0,0,0,0,0,0,0,0
1706424183.00013208,58828959,1575,1575,1576,1577,0,0,0,0,0,0,0,0,0,0
1706424183.10009217,58928919,1575,1575,1576,1576,0,0,0,0,0,0,0,0,0,0
1706424183.20005202,59028879,1575,1576,1577,1577,0,0,0,0,0,0,0,0,0,0
1706424183.30001211,59128839,1575,1575,1576,1576,0,0,0,0,0,0,0,0,0,0
1706424183.39997220,59228799,1576,1575,1576,1576,0,0,0,0,0,0,0,0,0,0
1706424183.49993205,59328759,1577,1576,1577,1577,0,0,0,0,0,0,0,0,0,0
1706424183.59989214,59428719,1577,1576,1577,1577,0,0,0,0,0,0,0,0,0,0
1706424183.69985199,59528679,1577,1577,1577,1577,0,0,0,0,0,0,0,0,0,0
1706424183.79981208,59628639,1577,1577,1577,1577,0,0,0,0,0,0,0,0,0,0
1706424183.89977217,59728599,1577,1577,1577,1576,0,0,0,0,0,0,0,0,0,0
1706424183.99973202,59828559,1578,1578,1578,1577,0,0,0,0,0,0,0,0,0,0
1706424184.09969211,59928519,1578,1579,1578,1578,0,0,0,0,0,0,0,0,0,0
1706424184.19965219,60028479,1579,1579,1578,1578,0,0,0,0,0,0,0,0,0,0
1706424184.29961205,60128439,1579,1578,1578,1579,0,0,0,0,0,0,0,0,0,0
1706424184.39957213,60228399,1578,1579,1578,1579,0,0,0,0,0,0,0,0,0,0
1706424184.49953198,60328359,1579,1579,1579,1579,0,0,0,0,0,0,0,0,0,0
1706424184.59949207,60428319,1578,1579,1579,1579,0,0,0,0,0,0,0,0,0,0
1706424184.69945216,60528279,1579,1579,1579,1579,0,0,0,0,0,0,0,0,0,0
1706424184.79941201,60628239,1579,1579,1580,1579,0,0,0,0,0,0,0,0,0,0
1706424184.89937210,60728199,1579,1579,1579,1579,0,0,0,0,0,0,0,0,0,0
1706424184.99933219,60828159,1579,1579,1580,1580,0,0,0,0,0,0,0,0,0,0
1706424185.10012507,60928952,1579,1579,1579,1579,0,0,0,0,0,0,0,0,0,0
1706424185.20008516,61028912,1580,1580,1580,1580,0,0,0,0,0,0,0,0,0,0
1706424185.30004501,61128872,1580,1580,1580,1580,0,0,0,0,0,0,0,0,0,0
1706424185.40000510,61228832,1580,1580,1580,1580,0,0,0,0,0,0,0,0,0,0
1706424185.49996519,61328792,1579,1579,1579,1580,0,0,0,0,0,0,0,0,0,0
1706424185.59992504,61428752,1580,1580,1580,1580,0,0,0,0,0,0,0,0,0,0
1706424185.69988513,61528712,1580,1580,1580,1580,0,0,0,0,0,0,0,0,0,0
1706424185.79984498,61628672,1580,1580,1580,1580,0,0,0,0,0,0,0,0,0,0
1706424185.89980507,61728632,1580,1580,1580,1580,0,0,0,0,0,0,0,0,0,0
1706424185.99976516,61828592,1581,1581,1581,1580,0,0,0,0,0,0,0,0,0,0
1706424186.09972501,61928552,1581,1581,1581,1581,0,0,0,0,0,0,0,0,0,0
1706424186.19968510,62028512,1581,1581,1581,1581,0,0,0,0,0,0,0,0,0,0
1706424186.29964519,62128472,1580,1581,1581,1580,0,0,0,0,0,0,0,0,0,0
1706424186.39960504,62228432,1580,1581,1581,1580,0,0,0,0,0,0,0,0,0,0
1706424186.49956512,62328392,1580,1581,1580,1581,0,0,0,0,0,0,0,0,0,0
1706424186.59952521,62428352,1581,1581,1580,1581,0,0,0,0,0,0,0,0,0,0
1706424186.69948506,62528312,1581,1581,1581,1581,0,0,0,0,0,0,0,0,0,0
1706424186.79944515,62628272,1581,1581,1581,1581,0,0,0,0,0,0,0,0,0,0
1706424186.89940500,62728232,1580,1580,1580,1580,0,0,0,0,0,0,0,0,0,0
1706424186.99936509,62828192,1581,1581,1581,1581,0,0,0,0,0,0,0,0,0,0
1706424187.10015821,62928985,1581,1581,1581,1581,0,0,0,0,0,0,0,0,0,0
1706424187.20011806,63028945,1580,1581,1586,1575,0,0,0,0,0,0,0,0,0,0
1706424187.30007815,63128905,1580,1582,1587,1573,0,0,0,0,0,0,0,0,0,0
1706424187.40003800,63228865,1578,1582,1579,1573,0,0,0,0,0,0,0,0,0,0
1706424187.49999809,63328825,1577,1580,1570,1572,0,0,0,0,0,0,0,0,0,0
1706424187.59995818,63428785,1577,1579,1563,1569,0,0,0,0,0,0,0,0,0,0
1706424187.69991803,63528745,1577,1578,1558,1565,0,0,0,0,0,0,0,0,0,0
1706424187.79987812,63628705,1578,1578,1556,1560,0,0,0,0,0,0,0,0,0,0
1706424187.89983821,63728665,1579,1577,1555,1557,0,0,0,0,0,0,0,0,0,0
1706424187.99979806,63828625,1579,1578,1556,1555,0,0,0,0,0,0,0,0,0,0
1706424188.09975815,63928585,1579,1578,1556,1555,0,0,0,0,0,0,0,0,0,0
1706424188.19971800,64028545,1578,1577,1556,1554,0,0,0,0,0,0,0,0,0,0
1706424188.29967809,64128505,1576,1577,1556,1554,0,0,0,0,0,0,0,0,0,0
1706424188.39963818,64228465,1575,1577,1555,1554,0,0,0,0,0,0,0,0,0,0
1706424188.49959803,64328425,1575,1576,1553,1554,0,0,0,0,0,0,0,0,0,0
1706424188.59955812,64428385,1575,1577,1553,1552,0,0,0,0,0,0,0,0,0,0
1706424188.69951820,64528345,1576,1578,1551,1551,0,0,0,0,0,0,0,0,0,0
1706424188.79947805,64628305,1577,1579,1549,1549,0,0,0,0,0,0,0,0,0,0
1706424188.89943814,64728265,1580,1582,1547,1547,0,0,0,0,0,0,0,0,0,0
1706424188.99939799,64828225,1583,1584,1544,1544,0,0,0,0,0,0,0,0,0,0
1706424189.09935808,64928185,1586,1586,1541,1540,0,0,0,0,0,0,0,0,0,0
1706424189.20015121,65028978,1588,1589,1538,1537,0,0,0,0,0,0,0,0,0,0
1706424189.30011106,65128938,1591,1591,1535,1535,0,0,0,0,0,0,0,0,0,0
1706424189.40007114,65228898,1594,1594,1534,1535,0,0,0,0,0,0,0,0,0,0
1706424189.50003099,65328858,1594,1594,1534,1535,0,0,0,0,0,0,0,0,0,0
1706424189.59999108,65428818,1594,1594,1535,1537,0,0,0,0,0,0,0,0,0,0
1706424189.69995117,65528778,1592,1592,1536,1539,0,0,0,0,0,0,0,0,0,0
1706424189.79991102,65628738,1590,1589,1541,1545,0,0,0,0,0,0,0,0,0,0
1706424189.89987111,65728698,1586,1583,1549,1552,0,0,0,0,0,0,0,0,0,0
1706424189.99983120,65828658,1579,1575,1558,1561,0,0,0,0,0,0,0,0,0,0
1706424190.09979105,65928618,1570,1565,1570,1572,0,0,0,0,0,0,0,0,0,0
1706424190.19975114,66028578,1558,1554,1582,1584,0,0,0,0,0,0,0,0,0,0
1706424190.29971099,66128538,1547,1544,1594,1595,0,0,0,0,0,0,0,0,0,0
1706424190.39967108,66228498,1538,1537,1605,1604,0,0,0,0,0,0,0,0,0,0
1706424190.49963117,66328458,1531,1532,1612,1611,0,0,0,0,0,0,0,0,0,0
1706424190.59959102,66428418,1530,1531,1616,1615,0,0,0,0,0,0,0,0,0,0
1706424190.69955111,66528378,1531,1533,1616,1615,0,0,0,0,0,0,0,0,0,0
1706424190.79951119,66628338,1535,1537,1613,1612,0,0,0,0,0,0,0,0,0,0
1706424190.89947104,66728298,1542,1544,1607,1607,0,0,0,0,0,0,0,0,0,0
1706424190.99943113,66828258,1549,1551,1599,1599,0,0,0,0,0,0,0,0,0,0
1706424191.09939098,66928218,1559,1559,1591,1592,0,0,0,0,0,0,0,0,0,0
1706424191.19935107,67028178,1566,1566,1582,1582,0,0,0,0,0,0,0,0,0,0
1706424191.30014420,67128971,1575,1574,1577,1576,0,0,0,0,0,0,0,0,0,0
1706424191.40010405,67228931,1580,1579,1571,1570,0,0,0,0,0,0,0,0,0,0
1706424191.50006413,67328891,1585,1584,1568,1567,0,0,0,0,0,0,0,0,0,0
1706424191.60002398,67428851,1588,1586,1567,1566,0,0,0,0,0,0,0,0,0,0
1706424191.69998407,67528811,1587,1586,1566,1566,0,0,0,0,0,0,0,0,0,0
1706424191.79994416,67628771,1587,1586,1567,1568,0,0,0,0,0,0,0,0,0,0
1706424191.89990401,67728731,1585,1584,1570,1570,0,0,0,0,0,0,0,0,0,0
1706424191.99986410,67828691,1582,1582,1573,1573,0,0,0,0,0,0,0,0,0,0
1706424192.09982419,67928651,1578,1579,1575,1575,0,0,0,0,0,0,0,0,0,0
1706424192.19978404,68028611,1576,1577,1579,1578,0,0,0,0,0,0,0,0,0,0
1706424192.29974413,68128571,1574,1575,1581,1581,0,0,0,0,0,0,0,0,0,0
1706424192.39970398,68228531,1573,1574,1582,1583,0,0,0,0,0,0,0,0,0,0
1706424192.49966407,68328491,1573,1573,1584,1584,0,0,0,0,0,0,0,0,0,0
1706424192.59962416,68428451,1573,1573,1584,1583,0,0,0,0,0,0,0,0,0,0
1706424192.69958401,68528411,1573,1573,1583,1583,0,0,0,0,0,0,0,0,0,0
1706424192.79954410,68628371,1574,1574,1582,1582,0,0,0,0,0,0,0,0,0,0
1706424192.89950418,68728331,1575,1575,1581,1581,0,0,0,0,0,0,0,0,0,0
1706424192.99946404,68828291,1577,1577,1581,1580,0,0,0,0,0,0,0,0,0,0
1706424193.09942412,68928251,1578,1578,1579,1580,0,0,0,0,0,0,0,0,0,0
1706424193.19938421,69028211,1579,1578,1578,1578,0,0,0,0,0,0,0,0,0,0
1706424193.29934406,69128171,1584,1566,1585,1587,0,0,0,0,0,0,0,0,0,0
1706424193.40013719,69228964,1589,1568,1581,1581,0,0,0,0,0,0,0,0,0,0
1706424193.50009704,69328924,1591,1575,1579,1579,0,0,0,0,0,0,0,0,0,0
1706424193.60005713,69428884,1590,1581,1577,1577,0,0,0,0,0,0,0,0,0,0
1706424193.70001721,69528844,1587,1587,1576,1576,0,0,0,0,0,0,0,0,0,0
1706424193.79997706,69628804,1586,1590,1576,1576,0,0,0,0,0,0,0,0,0,0
1706424193.89993715,69728764,1584,1590,1576,1576,0,0,0,0,0,0,0,0,0,0
1706424193.99989700,69828724,1583,1589,1577,1576,0,0,0,0,0,0,0,0,0,0
1706424194.09985709,69928684,1583,1587,1577,1577,0,0,0,0,0,0,0,0,0,0
1706424194.19981718,70028644,1583,1583,1578,1578,0,0,0,0,0,0,0,0,0,0
1706424194.29977703,70128604,1583,1583,1580,1581,0,0,0,0,0,0,0,0,0,0
1706424194.39973712,70228564,1582,1580,1581,1581,0,0,0,0,0,0,0,0,0,0
1706424194.49969721,70328524,1581,1580,1582,1582,0,0,0,0,0,0,0,0,0,0
1706424194.59965706,70428484,1580,1580,1582,1583,0,0,0,0,0,0,0,0,0,0
1706424194.69961715,70528444,1579,1579,1582,1582,0,0,0,0,0,0,0,0,0,0
1706424194.79957700,70628404,1579,1579,1582,1582,0,0,0,0,0,0,0,0,0,0
1706424194.89953709,70728364,1580,1580,1583,1583,0,0,0,0,0,0,0,0,0,0
1706424194.99949718,70828324,1580,1581,1582,1582,0,0,0,0,0,0,0,0,0,0
1706424195.09945703,70928284,1579,1580,1581,1581,0,0,0,0,0,0,0,0,0,0
1706424195.19941711,71028244,1580,1580,1582,1578,0,0,0,0,0,0,0,0,0,0
1706424195.29937720,71128204,1581,1582,1586,1571,0,0,0,0,0,0,0,0,0,0
1706424195.39933705,71228164,1580,1582,1579,1570,0,0,0,0,0,0,0,0,0,0
1706424195.50013018,71328957,1579,1582,1571,1569,0,0,0,0,0,0,0,0,0,0
1706424195.60009003,71428917,1579,1581,1562,1568,0,0,0,0,0,0,0,0,0,0
1706424195.70005012,71528877,1579,1581,1557,1564,0,0,0,0,0,0,0,0,0,0
1706424195.80001020,71628837,1580,1580,1554,1560,0,0,0,0,0,0,0,0,0,0
1706424195.89997005,71728797,1580,1579,1552,1556,0,0,0,0,0,0,0,0,0,0
1706424195.99993014,71828757,1580,1579,1553,1553,0,0,0,0,0,0,0,0,0,0
1706424196.09988999,71928717,1580,1579,1555,1553,0,0,0,0,0,0,0,0,0,0
1706424196.19985008,72028677,1579,1579,1556,1553,0,0,0,0,0,0,0,0,0,0
1706424196.29981017,72128637,1577,1578,1555,1553,0,0,0,0,0,0,0,0,0,0
1706424196.39977002,72228597,1576,1577,1554,1553,0,0,0,0,0,0,0,0,0,0
1706424196.49973011,72328557,1575,1577,1553,1553,0,0,0,0,0,0,0,0,0,0
1706424196.59969020,72428517,1576,1578,1553,1553,0,0,0,0,0,0,0,0,0,0
1706424196.69965005,72528477,1577,1579,1552,1553,0,0,0,0,0,0,0,0,0,0
1706424196.79961014,72628437,1578,1579,1549,1550,0,0,0,0,0,0,0,0,0,0
1706424196.89956999,72728397,1580,1581,1547,1547,0,0,0,0,0,0,0,0,0,0
1706424196.99953008,72828357,1583,1583,1545,1545,0,0,0,0,0,0,0,0,0,0
1706424197.09949017,72928317,1586,1586,1544,1543,0,0,0,0,0,0,0,0,0,0
1706424197.19945002,73028277,1588,1588,1541,1541,0,0,0,0,0,0,0,0,0,0
1706424197.29941010,73128237,1590,1589,1539,1540,0,0,0,0,0,0,0,0,0,0
1706424197.39937019,73228197,1591,1591,1538,1539,0,0,0,0,0,0,0,0,0,0
1706424197.49933004,73328157,1592,1592,1539,1540,0,0,0,0,0,0,0,0,0,0
1706424197.60012317,73428950,1591,1591,1539,1541,0,0,0,0,0,0,0,0,0,0
1706424197.70008302,73528910,1590,1589,1543,1545,0,0,0,0,0,0,0,0,0,0
1706424197.80004311,73628870,1587,1585,1548,1551,0,0,0,0,0,0,0,0,0,0
1706424197.90000319,73728830,1582,1578,1556,1558,0,0,0,0,0,0,0,0,0,0
1706424197.99996305,73828790,1574,1571,1565,1567,0,0,0,0,0,0,0,0,0,0
1706424198.09992313,73928750,1565,1561,1575,1577,0,0,0,0,0,0,0,0,0,0
1706424198.19988298,74028710,1555,1552,1586,1587,0,0,0,0,0,0,0,0,0,0
1706424198.29984307,74128670,1546,1545,1596,1596,0,0,0,0,0,0,0,0,0,0
1706424198.39980316,74228630,1540,1540,1604,1604,0,0,0,0,0,0,0,0,0,0
1706424198.49976301,74328590,1536,1536,1608,1608,0,0,0,0,0,0,0,0,0,0
1706424198.59972310,74428550,1535,1537,1610,1609,0,0,0,0,0,0,0,0,0,0
1706424198.69968319,74528510,1536,1539,1609,1608,0,0,0,0,0,0,0,0,0,0
1706424198.79964304,74628470,1541,1542,1604,1605,0,0,0,0,0,0,0,0,0,0
1706424198.89960313,74728430,1547,1548,1599,1599,0,0,0,0,0,0,0,0,0,0
1706424198.99956298,74828390,1555,1556,1594,1593,0,0,0,0,0,0,0,0,0,0
1706424199.09952307,74928350,1563,1563,1587,1586,0,0,0,0,0,0,0,0,0,0
1706424199.19948316,75028310,1571,1570,1582,1581,0,0,0,0,0,0,0,0,0,0
1706424199.29944301,75128270,1576,1576,1576,1576,0,0,0,0,0,0,0,0,0,0
1706424199.39940310,75228230,1581,1580,1572,1572,0,0,0,0,0,0,0,0,0,0
1706424199.49936318,75328190,1583,1582,1569,1569,0,0,0,0,0,0,0,0,0,0
1706424199.60015607,75428983,1584,1583,1567,1567,0,0,0,0,0,0,0,0,0,0
1706424199.70011616,75528943,1585,1584,1568,1568,0,0,0,0,0,0,0,0,0,0
1706424199.80007601,75628903,1585,1583,1569,1569,0,0,0,0,0,0,0,0,0,0
1706424199.90003610,75728863,1583,1583,1572,1572,0,0,0,0,0,0,0,0,0,0
1706424199.99999619,75828823,1580,1580,1574,1574,0,0,0,0,0,0,0,0,0,0
1706424200.09995604,75928783,1578,1579,1577,1577,0,0,0,0,0,0,0,0,0,0
1706424200.19991612,76028743,1576,1576,1578,1578,0,0,0,0,0,0,0,0,0,0
1706424200.29987621,76128703,1575,1575,1581,1581,0,0,0,0,0,0,0,0,0,0
1706424200.39983606,76228663,1573,1574,1582,1582,0,0,0,0,0,0,0,0,0,0
1706424200.49979615,76328623,1574,1574,1584,1584,0,0,0,0,0,0,0,0,0,0
1706424200.59975600,76428583,1574,1575,1584,1584,0,0,0,0,0,0,0,0,0,0
1706424200.69971609,76528543,1574,1575,1583,1583,0,0,0,0,0,0,0,0,0,0
1706424200.79967618,76628503,1575,1575,1582,1582,0,0,0,0,0,0,0,0,0,0
1706424200.89963603,76728463,1576,1577,1581,1581,0,0,0,0,0,0,0,0,0,0
1706424200.99959612,76828423,1578,1578,1580,1580,0,0,0,0,0,0,0,0,0,0
1706424201.09955621,76928383,1579,1579,1580,1580,0,0,0,0,0,0,0,0,0,0
1706424201.19951606,77028343,1580,1580,1579,1578,0,0,0,0,0,0,0,0,0,0
1706424201.29947615,77128303,1581,1581,1578,1578,0,0,0,0,0,0,0,0,0,0
1706424201.39943600,77228263,1582,1581,1578,1578,0,0,0,0,0,0,0,0,0,0
1706424201.49939609,77328223,1581,1581,1577,1577,0,0,0,0,0,0,0,0,0,0
1706424201.59935617,77428183,1582,1582,1578,1579,0,0,0,0,0,0,0,0,0,0
1706424201.70014906,77528976,1582,1582,1579,1579,0,0,0,0,0,0,0,0,0,0
1706424201.80010915,77628936,1581,1582,1579,1579,0,0,0,0,0,0,0,0,0,0
1706424201.90006900,77728896,1582,1582,1580,1580,0,0,0,0,0,0,0,0,0,0
1706424202.00002909,77828856,1581,1581,1581,1580,0,0,0,0,0,0,0,0,0,0
1706424202.09998918,77928816,1580,1580,1580,1580,0,0,0,0,0,0,0,0,0,0
1706424202.19994903,78028776,1580,1579,1581,1580,0,0,0,0,0,0,0,0,0,0
1706424202.29990911,78128736,1579,1579,1581,1581,0,0,0,0,0,0,0,0,0,0
1706424202.39986920,78228696,1580,1580,1581,1581,0,0,0,0,0,0,0,0,0,0
1706424202.49982905,78328656,1580,1580,1581,1581,0,0,0,0,0,0,0,0,0,0
1706424202.59978914,78428616,1580,1581,1582,1582,0,0,0,0,0,0,0,0,0,0
1706424202.69974899,78528576,1581,1580,1581,1582,0,0,0,0,0,0,0,0,0,0
1706424202.79970908,78628536,1580,1580,1581,1581,0,0,0,0,0,0,0,0,0,0
1706424202.89966917,78728496,1581,1581,1581,1581,0,0,0,0,0,0,0,0,0,0
1706424202.99962902,78828456,1581,1581,1581,1581,0,0,0,0,0,0,0,0,0,0
1706424203.09958911,78928416,1581,1581,1581,1581,0,0,0,0,0,0,0,0,0,0
1706424203.19954920,79028376,1581,1581,1581,1580,0,0,0,0,0,0,0,0,0,0
1706424203.29950905,79128336,1581,1581,1580,1580,0,0,0,0,0,0,0,0,0,0
1706424203.39946914,79228296,1580,1580,1580,1580,0,0,0,0,0,0,0,0,0,0
1706424203.49942899,79328256,1581,1581,1582,1579,0,0,0,0,0,0,0,0,0,0
1706424203.59938908,79428216,1580,1582,1587,1572,0,0,0,0,0,0,0,0,0,0
1706424203.69934916,79528176,1579,1582,1581,1571,0,0,0,0,0,0,0,0,0,0
1706424203.80014205,79628969,1577,1580,1572,1571,0,0,0,0,0,0,0,0,0,0
1706424203.90010214,79728929,1577,1580,1565,1570,0,0,0,0,0,0,0,0,0,0
1706424204.00006199,79828889,1578,1579,1559,1566,0,0,0,0,0,0,0,0,0,0
1706424204.10002208,79928849,1579,1580,1557,1562,0,0,0,0,0,0,0,0,0,0
1706424204.19998217,80028809,1579,1578,1554,1557,0,0,0,0,0,0,0,0,0,0
1706424204.29994202,80128769,1580,1578,1555,1555,0,0,0,0,0,0,0,0,0,0
1706424204.39990211,80228729,1580,1578,1556,1554,0,0,0,0,0,0,0,0,0,0
1706424204.49986219,80328689,1579,1578,1556,1554,0,0,0,0,0,0,0,0,0,0
1706424204.59982204,80428649,1578,1578,1556,1554,0,0,0,0,0,0,0,0,0,0
1706424204.69978213,80528609,1577,1578,1556,1555,0,0,0,0,0,0,0,0,0,0
1706424204.79974198,80628569,1575,1577,1554,1553,0,0,0,0,0,0,0,0,0,0
1706424204.89970207,80728529,1575,1577,1553,1553,0,0,0,0,0,0,0,0,0,0
1706424204.99966216,80828489,1575,1577,1551,1551,0,0,0,0,0,0,0,0,0,0
1706424205.09962201,80928449,1577,1578,1550,1550,0,0,0,0,0,0,0,0,0,0
1706424205.19958210,81028409,1579,1580,1549,1548,0,0,0,0,0,0,0,0,0,0
1706424205.29954219,81128369,1582,1582,1547,1547,0,0,0,0,0,0,0,0,0,0
1706424205.39950204,81228329,1585,1586,1546,1545,0,0,0,0,0,0,0,0,0,0
1706424205.49946213,81328289,1587,1587,1542,1542,0,0,0,0,0,0,0,0,0,0
1706424205.59942198,81428249,1589,1589,1539,1539,0,0,0,0,0,0,0,0,0,0
1706424205.69938207,81528209,1590,1590,1537,1538,0,0,0,0,0,0,0,0,0,0
1706424205.79934216,81628169,1590,1591,1536,1536,0,0,0,0,0,0,0,0,0,0
1706424205.90013504,81728962,1592,1592,1537,1538,0,0,0,0,0,0,0,0,0,0
1706424206.00009513,81828922,1593,1592,1539,1541,0,0,0,0,0,0,0,0,0,0
1706424206.10005498,81928882,1591,1589,1543,1545,0,0,0,0,0,0,0,0,0,0
1706424206.20001507,82028842,1587,1585,1549,1552,0,0,0,0,0,0,0,0,0,0
1706424206.29997516,82128802,1579,1576,1557,1560,0,0,0,0,0,0,0,0,0,0
1706424206.39993501,82228762,1571,1567,1568,1570,0,0,0,0,0,0,0,0,0,0
1706424206.49989510,82328722,1562,1558,1580,1582,0,0,0,0,0,0,0,0,0,0
1706424206.59985518,82428682,1551,1549,1591,1591,0,0,0,0,0,0,0,0,0,0
1706424206.69981503,82528642,1543,1541,1600,1600,0,0,0,0,0,0,0,0,0,0
1706424206.79977512,82628602,1536,1536,1607,1607,0,0,0,0,0,0,0,0,0,0
1706424206.89973521,82728562,1533,1535,1612,1611,0,0,0,0,0,0,0,0,0,0
1706424206.99969506,82828522,1533,1535,1612,1611,0,0,0,0,0,0,0,0,0,0
1706424207.09965515,82928482,1536,1538,1609,1609,0,0,0,0,0,0,0,0,0,0
1706424207.19961500,83028442,1542,1544,1605,1605,0,0,0,0,0,0,0,0,0,0
1706424207.29957509,83128402,1550,1552,1599,1599,0,0,0,0,0,0,0,0,0,0
1706424207.39953518,83228362,1558,1559,1592,1592,0,0,0,0,0,0,0,0,0,0
1706424207.49949503,83328322,1566,1566,1586,1585,0,0,0,0,0,0,0,0,0,0
1706424207.59945512,83428282,1573,1572,1579,1579,0,0,0,0,0,0,0,0,0,0
1706424207.69941521,83528242,1580,1578,1574,1574,0,0,0,0,0,0,0,0,0,0
1706424207.79937506,83628202,1583,1582,1570,1570,0,0,0,0,0,0,0,0,0,0
1706424207.89933515,83728162,1586,1585,1569,1569,0,0,0,0,0,0,0,0,0,0
1706424208.00012803,83828955,1587,1585,1568,1568,0,0,0,0,0,0,0,0,0,0
1706424208.10008812,83928915,1586,1585,1569,1569,0,0,0,0,0,0,0,0,0,0
1706424208.20004821,84028875,1584,1584,1569,1570,0,0,0,0,0,0,0,0,0,0
1706424208.30000806,84128835,1582,1581,1572,1572,0,0,0,0,0,0,0,0,0,0
1706424208.39996815,84228795,1580,1580,1575,1575,0,0,0,0,0,0,0,0,0,0
1706424208.49992800,84328755,1578,1578,1578,1578,0,0,0,0,0,0,0,0,0,0
1706424208.59988809,84428715,1576,1576,1581,1580,0,0,0,0,0,0,0,0,0,0
1706424208.69984818,84528675,1575,1575,1584,1582,0,0,0,0,0,0,0,0,0,0
1706424208.79980803,84628635,1574,1574,1584,1583,0,0,0,0,0,0,0,0,0,0
1706424208.89976811,84728595,1573,1573,1583,1584,0,0,0,0,0,0,0,0,0,0
1706424208.99972820,84828555,1574,1575,1584,1584,0,0,0,0,0,0,0,0,0,0
1706424209.09968805,84928515,1574,1574,1583,1583,0,0,0,0,0,0,0,0,0,0
1706424209.19964814,85028475,1575,1575,1582,1582,0,0,0,0,0,0,0,0,0,0
1706424209.29960799,85128435,1576,1577,1581,1581,0,0,0,0,0,0,0,0,0,0
1706424209.39956808,85228395,1578,1578,1580,1580,0,0,0,0,0,0,0,0,0,0
1706424209.49952817,85328355,1579,1579,1579,1579,0,0,0,0,0,0,0,0,0,0
1706424209.59948802,85428315,1580,1580,1578,1578,0,0,0,0,0,0,0,0,0,0
1706424209.69944811,85528275,1581,1581,1577,1578,0,0,0,0,0,0,0,0,0,0
1706424209.79940820,85628235,1582,1581,1578,1578,0,0,0,0,0,0,0,0,0,0
1706424209.89936805,85728195,1581,1581,1577,1577,0,0,0,0,0,0,0,0,0,0
1706424209.99932814,85828155,1581,1581,1577,1577,0,0,0,0,0,0,0,0,0,0
1706424210.10012102,85928948,1582,1582,1579,1579,0,0,0,0,0,0,0,0,0,0
1706424210.20008111,86028908,1581,1581,1579,1579,0,0,0,0,0,0,0,0,0,0
1706424210.30004120,86128868,1581,1580,1579,1579,0,0,0,0,0,0,0,0,0,0
1706424210.40000105,86228828,1581,1580,1581,1581,0,0,0,0,0,0,0,0,0,0
1706424210.49996114,86328788,1579,1579,1580,1580,0,0,0,0,0,0,0,0,0,0
1706424210.59992099,86428748,1579,1579,1580,1581,0,0,0,0,0,0,0,0,0,0
1706424210.69988108,86528708,1578,1579,1580,1581,0,0,0,0,0,0,0,0,0,0
1706424210.79984117,86628668,1579,1580,1582,1581,0,0,0,0,0,0,0,0,0,0
1706424210.89980102,86728628,1580,1580,1582,1581,0,0,0,0,0,0,0,0,0,0
1706424210.99976110,86828588,1580,1580,1582,1581,0,0,0,0,0,0,0,0,0,0
1706424211.09972119,86928548,1581,1581,1582,1582,0,0,0,0,0,0,0,0,0,0
1706424211.19968104,87028508,1581,1581,1581,1581,0,0,0,0,0,0,0,0,0,0
1706424211.29964113,87128468,1581,1581,1580,1581,0,0,0,0,0,0,0,0,0,0
1706424211.39960098,87228428,1581,1581,1581,1581,0,0,0,0,0,0,0,0,0,0
1706424211.49956107,87328388,1582,1582,1586,1575,0,0,0,0,0,0,0,0,0,0
1706424211.59952116,87428348,1581,1581,1586,1572,0,0,0,0,0,0,0,0,0,0
1706424211.69948101,87528308,1579,1579,1580,1574,0,0,0,0,0,0,0,0,0,0
1706424211.79944110,87628268,1576,1575,1573,1574,0,0,0,0,0,0,0,0,0,0
1706424211.89940119,87728228,1573,1573,1568,1575,0,0,0,0,0,0,0,0,0,0
1706424211.99936104,87828188,1570,1570,1565,1572,0,0,0,0,0,0,0,0,0,0
1706424212.10015416,87928981,1568,1568,1565,1570,0,0,0,0,0,0,0,0,0,0
1706424212.20011401,88028941,1567,1567,1566,1568,0,0,0,0,0,0,0,0,0,0
1706424212.30007410,88128901,1566,1566,1567,1566,0,0,0,0,0,0,0,0,0,0
1706424212.40003419,88228861,1565,1565,1567,1564,0,0,0,0,0,0,0,0,0,0
1706424212.49999404,88328821,1565,1565,1567,1564,0,0,0,0,0,0,0,0,0,0
1706424212.59995413,88428781,1564,1564,1565,1564,0,0,0,0,0,0,0,0,0,0
1706424212.69991398,88528741,1562,1563,1564,1563,0,0,0,0,0,0,0,0,0,0
1706424212.79987407,88628701,1562,1563,1563,1563,0,0,0,0,0,0,0,0,0,0
1706424212.89983416,88728661,1561,1561,1562,1562,0,0,0,0,0,0,0,0,0,0
1706424212.99979401,88828621,1561,1561,1562,1562,0,0,0,0,0,0,0,0,0,0
1706424213.09975410,88928581,1562,1561,1562,1562,0,0,0,0,0,0,0,0,0,0
1706424213.19971418,89028541,1562,1562,1562,1562,0,0,0,0,0,0,0,0,0,0
1706424213.29967403,89128501,1561,1561,1561,1561,0,0,0,0,0,0,0,0,0,0
1706424213.39963412,89228461,1560,1560,1560,1560,0,0,0,0,0,0,0,0,0,0
1706424213.49959421,89328421,1560,1560,1560,1559,0,0,0,0,0,0,0,0,0,0
1706424213.59955406,89428381,1558,1558,1558,1557,0,0,0,0,0,0,0,0,0,0
1706424213.69951415,89528341,1557,1558,1558,1557,0,0,0,0,0,0,0,0,0,0
1706424213.79947400,89628301,1559,1558,1558,1557,0,0,0,0,0,0,0,0,0,0
1706424213.89943409,89728261,1558,1558,1558,1557,0,0,0,0,0,0,0,0,0,0
1706424213.99939418,89828221,1558,1558,1559,1557,0,0,0,0,0,0,0,0,0,0
1706424214.09935403,89928181,1558,1558,1559,1557,0,0,0,0,0,0,0,0,0,0
1706424214.20014715,90028974,1558,1558,1559,1557,0,0,0,0,0,0,0,0,0,0
1706424214.30010700,90128934,1559,1559,1559,1559,0,0,0,0,0,0,0,0,0,0
1706424214.40006709,90228894,1559,1559,1558,1561,0,0,0,0,0,0,0,0,0,0
1706424214.50002718,90328854,1559,1559,1556,1562,0,0,0,0,0,0,0,0,0,0
1706424214.59998703,90428814,1561,1561,1558,1564,0,0,0,0,0,0,0,0,0,0
1706424214.69994712,90528774,1562,1562,1559,1565,0,0,0,0,0,0,0,0,0,0
1706424214.79990721,90628734,1563,1563,1562,1564,0,0,0,0,0,0,0,0,0,0
1706424214.89986706,90728694,1562,1561,1562,1561,0,0,0,0,0,0,0,0,0,0
1706424214.99982715,90828654,1561,1561,1563,1559,0,0,0,0,0,0,0,0,0,0
1706424215.09978700,90928614,1559,1559,1561,1557,0,0,0,0,0,0,0,0,0,0
1706424215.19974709,91028574,1559,1559,1557,1561,0,0,0,0,0,0,0,0,0,0
1706424215.29970717,91128534,1556,1555,1552,1559,0,0,0,0,0,0,0,0,0,0
1706424215.39966702,91228494,1552,1552,1549,1554,0,0,0,0,0,0,0,0,0,0
1706424215.49962711,91328454,1546,1546,1545,1546,0,0,0,0,0,0,0,0,0,0
1706424215.59958720,91428414,1539,1539,1540,1539,0,0,0,0,0,0,0,0,0,0
1706424215.69954705,91528374,1532,1533,1533,1531,0,0,0,0,0,0,0,0,0,0
1706424215.79950714,91628334,1524,1524,1525,1523,0,0,0,0,0,0,0,0,0,0
1706424215.89946699,91728294,1520,1520,1521,1519,0,0,0,0,0,0,0,0,0,0
1706424215.99942708,91828254,1519,1520,1519,1519,0,0,0,0,0,0,0,0,0,0
1706424216.09938717,91928214,1520,1520,1520,1521,0,0,0,0,0,0,0,0,0,0
1706424216.19934702,92028174,1522,1522,1522,1523,0,0,0,0,0,0,0,0,0,0
1706424216.30014014,92128967,1525,1525,1526,1526,0,0,0,0,0,0,0,0,0,0
1706424216.40009999,92228927,1529,1529,1529,1530,0,0,0,0,0,0,0,0,0,0
1706424216.50006008,92328887,1534,1534,1535,1535,0,0,0,0,0,0,0,0,0,0
1706424216.60002017,92428847,1539,1539,1539,1539,0,0,0,0,0,0,0,0,0,0
1706424216.69998002,92528807,1541,1541,1542,1542,0,0,0,0,0,0,0,0,0,0
1706424216.79994011,92628767,1543,1543,1544,1543,0,0,0,0,0,0,0,0,0,0
1706424216.89990020,92728727,1544,1544,1544,1544,0,0,0,0,0,0,0,0,0,0
1706424216.99986005,92828687,1546,1545,1545,1545,0,0,0,0,0,0,0,0,0,0
1706424217.09982014,92928647,1546,1546,1546,1546,0,0,0,0,0,0,0,0,0,0
1706424217.19977999,93028607,1546,1547,1546,1546,0,0,0,0,0,0,0,0,0,0
1706424217.29974008,93128567,1546,1545,1545,1545,0,0,0,0,0,0,0,0,0,0
1706424217.39970016,93228527,1546,1546,1546,1545,0,0,0,0,0,0,0,0,0,0
1706424217.49966002,93328487,1546,1546,1546,1546,0,0,0,0,0,0,0,0,0,0
1706424217.59962010,93428447,1545,1546,1545,1545,0,0,0,0,0,0,0,0,0,0
1706424217.69958019,93528407,1546,1546,1546,1546,0,0,0,0,0,0,0,0,0,0
1706424217.79954004,93628367,1546,1546,1546,1546,0,0,0,0,0,0,0,0,0,0
1706424217.89950013,93728327,1545,1545,1545,1545,0,0,0,0,0,0,0,0,0,0
1706424217.99945998,93828287,1546,1546,1546,1545,0,0,0,0,0,0,0,0,0,0
1706424218.09942007,93928247,1546,1546,1546,1545,0,0,0,0,0,0,0,0,0,0
1706424218.19938016,94028207,1545,1545,1546,1545,0,0,0,0,0,0,0,0,0,0
1706424218.29934001,94128167,1546,1546,1546,1546,0,0,0,0,0,0,0,0,0,0
1706424218.40013313,94228960,1545,1545,1545,1545,0,0,0,0,0,0,0,0,0,0
1706424218.50009298,94328920,1545,1545,1544,1545,0,0,0,0,0,0,0,0,0,0
1706424218.60005307,94428880,1544,1545,1545,1545,0,0,0,0,0,0,0,0,0,0
1706424218.70001316,94528840,1544,1544,1544,1544,0,0,0,0,0,0,0,0,0,0
1706424218.79997301,94628800,1544,1544,1544,1544,0,0,0,0,0,0,0,0,0,0
1706424218.89993310,94728760,1544,1544,1544,1544,0,0,0,0,0,0,0,0,0,0
1706424218.99989319,94828720,1544,1544,1544,1544,0,0,0,0,0,0,0,0,0,0
1706424219.09985304,94928680,1544,1544,1544,1544,0,0,0,0,0,0,0,0,0,0
1706424219.19981313,95028640,1544,1544,1544,1543,0,0,0,0,0,0,0,0,0,0
1706424219.29977298,95128600,1544,1544,1544,1544,0,0,0,0,0,0,0,0,0,0
1706424219.39973307,95228560,1544,1543,1544,1544,0,0,0,0,0,0,0,0,0,0
1706424219.49969316,95328520,1544,1543,1543,1544,0,0,0,0,0,0,0,0,0,0
1706424219.59965301,95428480,1544,1544,1543,1544,0,0,0,0,0,0,0,0,0,0
1706424219.69961309,95528440,1544,1544,1544,1544,0,0,0,0,0,0,0,0,0,0
1706424219.79957318,95628400,1544,1544,1544,1544,0,0,0,0,0,0,0,0,0,0
1706424219.89953303,95728360,1544,1544,1544,1544,0,0,0,0,0,0,0,0,0,0
1706424219.99949312,95828320,1544,1544,1544,1543,0,0,0,0,0,0,0,0,0,0
1706424220.09945321,95928280,1544,1543,1544,1543,0,0,0,0,0,0,0,0,0,0
1706424220.19941306,96028240,1544,1544,1544,1544,0,0,0,0,0,0,0,0,0,0
1706424220.29937315,96128200,1544,1544,1544,1544,0,0,0,0,0,0,0,0,0,0
1706424220.39933300,96228160,1543,1543,1543,1543,0,0,0,0,0,0,0,0,0,0
1706424220.50012612,96328953,1544,1544,1544,1544,0,0,0,0,0,0,0,0,0,0
1706424220.60008621,96428913,1545,1544,1545,1544,0,0,0,0,0,0,0,0,0,0
1706424220.70004606,96528873,1544,1544,1544,1544,0,0,0,0,0,0,0,0,0,0
1706424220.80000615,96628833,1544,1545,1544,1545,0,0,0,0,0,0,0,0,0,0
1706424220.89996600,96728793,1545,1545,1545,1544,0,0,0,0,0,0,0,0,0,0
1706424220.99992609,96828753,1545,1545,1545,1545,0,0,0,0,0,0,0,0,0,0
1706424221.09988618,96928713,1545,1545,1545,1545,0,0,0,0,0,0,0,0,0,0
1706424221.19984603,97028673,1544,1544,1544,1544,0,0,0,0,0,0,0,0,0,0
1706424221.29980612,97128633,1545,1545,1545,1545,0,0,0,0,0,0,0,0,0,0
1706424221.39976621,97228593,1544,1545,1545,1544,0,0,0,0,0,0,0,0,0,0
1706424221.49972606,97328553,1544,1544,1544,1544,0,0,0,0,0,0,0,0,0,0
1706424221.59968615,97428513,1545,1545,1545,1545,0,0,0,0,0,0,0,0,0,0
1706424221.69964600,97528473,1545,1545,1544,1545,0,0,0,0,0,0,0,0,0,0
1706424221.79960608,97628433,1543,1544,1544,1544,0,0,0,0,0,0,0,0,0,0
1706424221.89956617,97728393,1545,1544,1545,1545,0,0,0,0,0,0,0,0,0,0
1706424221.99952602,97828353,1544,1544,1545,1544,0,0,0,0,0,0,0,0,0,0
1706424222.09948611,97928313,1544,1544,1544,1544,0,0,0,0,0,0,0,0,0,0
1706424222.19944620,98028273,1545,1544,1544,1545,0,0,0,0,0,0,0,0,0,0
1706424222.29940605,98128233,1544,1544,1544,1544,0,0,0,0,0,0,0,0,0,0
1706424222.39936614,98228193,1544,1544,1544,1544,0,0,0,0,0,0,0,0,0,0
1706424222.50015903,98328986,1545,1545,1545,1545,0,0,0,0,0,0,0,0,0,0
1706424222.60011911,98428946,1544,1544,1544,1544,0,0,0,0,0,0,0,0,0,0
1706424222.70007920,98528906,1545,1545,1545,1545,0,0,0,0,0,0,0,0,0,0
1706424222.80003905,98628866,1545,1545,1545,1545,0,0,0,0,0,0,0,0,0,0
1706424222.89999914,98728826,1545,1544,1545,1545,0,0,0,0,0,0,0,0,0,0
1706424222.99995899,98828786,1545,1545,1545,1545,0,0,0,0,0,0,0,0,0,0
1706424223.09991908,98928746,1545,1545,1545,1545,0,0,0,0,0,0,0,0,0,0
1706424223.19987917,99028706,1544,1544,1544,1544,0,0,0,0,0,0,0,0,0,0
1706424223.29983902,99128666,1545,1545,1545,1545,0,0,0,0,0,0,0,0,0,0
1706424223.39979911,99228626,1544,1545,1545,1544,0,0,0,0,0,0,0,0,0,0
1706424223.49975920,99328586,1545,1545,1544,1545,0,0,0,0,0,0,0,0,0,0
1706424223.59971905,99428546,1544,1544,1544,1544,0,0,0,0,0,0,0,0,0,0
1706424223.69967914,99528506,1544,1544,1543,1544,0,0,0,0,0,0,0,0,0,0
1706424223.79963899,99628466,1544,1544,1544,1544,0,0,0,0,0,0,0,0,0,0
1706424223.89959908,99728426,1545,1545,1545,1545,0,0,0,0,0,0,0,0,0,0
1706424223.99955916,99828386,1544,1544,1544,1543,0,0,0,0,0,0,0,0,0,0
1706424224.09951901,99928346,1545,1545,1545,1545,0,0,0,0,0,0,0,0,0,0
1706424224.19947910,100028306,1544,1544,1544,1544,0,0,0,0,0,0,0,0,0,0
1706424224.29943919,100128266,1545,1545,1545,1545,0,0,0,0,0,0,0,0,0,0
1706424224.39939904,100228226,1544,1544,1544,1544,0,0,0,0,0,0,0,0,0,0
1706424224.49935913,100328186,1545,1545,1544,1545,0,0,0,0,0,0,0,0,0,0
1706424224.60015202,100428979,1544,1544,1544,1544,0,0,0,0,0,0,0,0,0,0
1706424224.70011210,100528939,1544,1543,1544,1543,0,0,0,0,0,0,0,0,0,0
1706424224.80007219,100628899,1544,1544,1544,1544,0,0,0,0,0,0,0,0,0,0
1706424224.90003204,100728859,1544,1544,1544,1544,0,0,0,0,0,0,0,0,0,0
1706424224.99999213,100828819,1544,1544,1544,1544,0,0,0,0,0,0,0,0,0,0
1706424225.09995198,100928779,1544,1544,1544,1544,0,0,0,0,0,0,0,0,0,0
1706424225.19991207,101028739,1544,1544,1544,1544,0,0,0,0,0,0,0,0,0,0
1706424225.29987216,101128699,1545,1544,1544,1544,0,0,0,0,0,0,0,0,0,0
1706424225.39983201,101228659,1544,1544,1544,1544,0,0,0,0,0,0,0,0,0,0
1706424225.49979210,101328619,1544,1544,1544,1544,0,0,0,0,0,0,0,0,0,0
1706424225.59975219,101428579,1542,1540,1542,1539,0,0,0,0,0,0,0,0,0,0
1706424225.69971204,101528539,1366,1353,1354,1354,0,0,0,0,0,0,0,0,0,0
1706424225.79967213,101628499,1270,1247,1248,1248,0,0,0,0,0,0,0,0,0,0
1706424225.89963198,101728459,1240,1213,1214,1215,0,0,0,0,0,0,0,0,0,0
1706424225.99959207,101828419,1223,1195,1196,1195,0,0,0,0,0,0,0,0,0,0
1706424226.09955215,101928379,1185,1150,1152,1150,0,0,0,0,0,0,0,0,0,0
1706424226.19951200,102028339,1184,1150,1152,1150,0,0,0,0,0,0,0,0,0,0
1706424226.29947209,102128299,1185,1150,1152,1150,0,0,0,0,0,0,0,0,0,0
1706424226.39943218,102228259,1208,1150,1150,1180,0,0,0,0,0,0,0,0,0,0
1706424226.49939203,102328219,1206,1150,1150,1177,0,0,0,0,0,0,0,0,0,0
1706424226.59935212,102428179,1201,1150,1151,1171,0,0,0,0,0,0,0,0,0,0
1706424226.70014501,102528972,1201,1150,1152,1171,0,0,0,0,0,0,0,0,0,0
1706424226.80010509,102628932,1203,1150,1152,1172,0,0,0,0,0,0,0,0,0,0
1706424226.90006518,102728892,1205,1150,1152,1174,0,0,0,0,0,0,0,0,0,0
1706424227.00002503,102828852,1206,1150,1152,1176,0,0,0,0,0,0,0,0,0,0
1706424227.09998512,102928812,1208,1150,1152,1178,0,0,0,0,0,0,0,0,0,0
1706424227.19994521,103028772,1194,1150,1152,1162,0,0,0,0,0,0,0,0,0,0
1706424227.29990506,103128732,1197,1150,1152,1166,0,0,0,0,0,0,0,0,0,0
1706424227.39986515,103228692,1198,1150,1152,1167,0,0,0,0,0,0,0,0,0,0
1706424227.49982500,103328652,1199,1150,1152,1168,0,0,0,0,0,0,0,0,0,0
1706424227.59978509,103428612,1199,1150,1152,1168,0,0,0,0,0,0,0,0,0,0
1706424227.69974518,103528572,1000,1000,1000,1000,0,0,0,0,0,0,0,0,0,0
1706424227.79970503,103628532,1000,1000,1000,1000,0,0,0,0,0,0,0,0,0,0
1706424227.89966512,103728492,1000,1000,1000,1000,0,0,0,0,0,0,0,0,0,0
1706424227.99962521,103828452,1000,1000,1000,1000,0,0,0,0,0,0,0,0,0,0
1706424228.09958506,103928412,1000,1000,1000,1000,0,0,0,0,0,0,0,0,0,0
1706424228.19954515,104028372,1000,1000,1000,1000,0,0,0,0,0,0,0,0,0,0
1706424228.29950500,104128332,1000,1000,1000,1000,0,0,0,0,0,0,0,0,0,0
1706424228.39946508,104228292,1000,1000,1000,1000,0,0,0,0,0,0,0,0,0,0
1706424228.49942517,104328252,1000,1000,1000,1000,0,0,0,0,0,0,0,0,0,0
1706424228.59938502,104428212,1000,1000,1000,1000,0,0,0,0,0,0,0,0,0,0
1706424228.69934511,104528172,1000,1000,1000,1000,0,0,0,0,0,0,0,0,0,0
1706424228.80013800,104628965,1000,1000,1000,1000,0,0,0,0,0,0,0,0,0,0
1706424228.90009809,104728925,1000,1000,1000,1000,0,0,0,0,0,0,0,0,0,0
1706424229.00005817,104828885,1000,1000,1000,1000,0,0,0,0,0,0,0,0,0,0
1706424229.10001802,104928845,1000,1000,1000,1000,0,0,0,0,0,0,0,0,0,0
1706424229.19997811,105028805,1000,1000,1000,1000,0,0,0,0,0,0,0,0,0,0
1706424229.29993820,105128765,1000,1000,1000,1000,0,0,0,0,0,0,0,0,0,0
1706424229.39989805,105228725,1000,1000,1000,1000,0,0,0,0,0,0,0,0,0,0
1706424229.49985814,105328685,1000,1000,1000,1000,0,0,0,0,0,0,0,0,0,0
1706424229.59981799,105428645,1000,1000,1000,1000,0,0,0,0,0,0,0,0,0,0
1706424229.69977808,105528605,1000,1000,1000,1000,0,0,0,0,0,0,0,0,0,0
1706424229.79973817,105628565,1000,1000,1000,1000,0,0,0,0,0,0,0,0,0,0
1706424229.89969802,105728525,1000,1000,1000,1000,0,0,0,0,0,0,0,0,0,0
1706424229.99965811,105828485,1000,1000,1000,1000,0,0,0,0,0,0,0,0,0,0
1706424230.09961820,105928445,1000,1000,1000,1000,0,0,0,0,0,0,0,0,0,0
1706424230.19957805,106028405,1000,1000,1000,1000,0,0,0,0,0,0,0,0,0,0
1706424230.29953814,106128365,1000,1000,1000,1000,0,0,0,0,0,0,0,0,0,0
1706424230.39949799,106228325,1000,1000,1000,1000,0,0,0,0,0,0,0,0,0,0
1706424230.49945807,106328285,1000,1000,1000,1000,0,0,0,0,0,0,0,0,0,0
1706424230.59941816,106428245,1000,1000,1000,1000,0,0,0,0,0,0,0,0,0,0
1706424230.69937801,106528205,1000,1000,1000,1000,0,0,0,0,0,0,0,0,0,0
1706424230.79933810,106628165,1000,1000,1000,1000,0,0,0,0,0,0,0,0,0,0
1706424230.90013099,106728958,1000,1000,1000,1000,0,0,0,0,0,0,0,0,0,0
1706424231.00009108,106828918,1000,1000,1000,1000,0,0,0,0,0,0,0,0,0,0
1706424231.10005116,106928878,1000,1000,1000,1000,0,0,0,0,0,0,0,0,0,0
1706424231.20001101,107028838,1000,1000,1000,1000,0,0,0,0,0,0,0,0,0,0
1706424231.29997110,107128798,1000,1000,1000,1000,0,0,0,0,0,0,0,0,0,0
1706424231.39993119,107228758,1000,1000,1000,1000,0,0,0,0,0,0,0,0,0,0
1706424231.49989104,107328718,1000,1000,1000,1000,0,0,0,0,0,0,0,0,0,0
1706424231.59985113,107428678,1000,1000,1000,1000,0,0,0,0,0,0,0,0,0,0
1706424231.69981098,107528638,1000,1000,1000,1000,0,0,0,0,0,0,0,0,0,0
1706424231.79977107,107628598,1000,1000,1000,1000,0,0,0,0,0,0,0,0,0,0
1706424231.89973116,107728558,1000,1000,1000,1000,0,0,0,0,0,0,0,0,0,0
1706424231.99969101,107828518,1000,1000,1000,1000,0,0,0,0,0,0,0,0,0,0
1706424232.09965110,107928478,1000,1000,1000,1000,0,0,0,0,0,0,0,0,0,0
1706424232.19961119,108028438,1000,1000,1000,1000,0,0,0,0,0,0,0,0,0,0
1706424232.29957104,108128398,1000,1000,1000,1000,0,0,0,0,0,0,0,0,0,0
1706424232.39953113,108228358,1000,1000,1000,1000,0,0,0,0,0,0,0,0,0,0
1706424232.49949121,108328318,1000,1000,1000,1000,0,0,0,0,0,0,0,0,0,0
1706424232.59945107,108428278,1000,1000,1000,1000,0,0,0,0,0,0,0,0,0,0
1706424232.69941115,108528238,1000,1000,1000,1000,0,0,0,0,0,0,0,0,0,0
1706424232.79937100,108628198,1000,1000,1000,1000,0,0,0,0,0,0,0,0,0,0
1706424232.89933109,108728158,1000,1000,1000,1000,0,0,0,0,0,0,0,0,0,0
1706424233.00012398,108828951,1000,1000,1000,1000,0,0,0,0,0,0,0,0,0,0
1706424233.10008407,108928911,1000,1000,1000,1000,0,0,0,0,0,0,0,0,0,0
1706424233.20004416,109028871,1000,1000,1000,1000,0,0,0,0,0,0,0,0,0,0
1706424233.30000401,109128831,1000,1000,1000,1000,0,0,0,0,0,0,0,0,0,0
1706424233.39996409,109228791,1000,1000,1000,1000,0,0,0,0,0,0,0,0,0,0
1706424233.49992418,109328751,1000,1000,1000,1000,0,0,0,0,0,0,0,0,0,0
1706424233.59988403,109428711,1000,1000,1000,1000,0,0,0,0,0,0,0,0,0,0
1706424233.69984412,109528671,1000,1000,1000,1000,0,0,0,0,0,0,0,0,0,0
1706424233.79980421,109628631,1000,1000,1000,1000,0,0,0,0,0,0,0,0,0,0
1706424233.89976406,109728591,1000,1000,1000,1000,0,0,0,0,0,0,0,0,0,0
1706424233.99972415,109828551,1000,1000,1000,1000,0,0,0,0,0,0,0,0,0,0
1706424234.09968400,109928511,1000,1000,1000,1000,0,0,0,0,0,0,0,0,0,0
1706424234.19964409,110028471,1000,1000,1000,1000,0,0,0,0,0,0,0,0,0,0
1706424234.29960418,110128431,1000,1000,1000,1000,0,0,0,0,0,0,0,0,0,0
1706424234.39956403,110228391,1000,1000,1000,1000,0,0,0,0,0,0,0,0,0,0
1706424234.49952412,110328351,1000,1000,1000,1000,0,0,0,0,0,0,0,0,0,0
1706424234.59948421,110428311,1000,1000,1000,1000,0,0,0,0,0,0,0,0,0,0
1706424234.69944406,110528271,1000,1000,1000,1000,0,0,0,0,0,0,0,0,0,0
1706424234.79940414,110628231,1000,1000,1000,1000,0,0,0,0,0,0,0,0,0,0
1706424234.89936399,110728191,1000,1000,1000,1000,0,0,0,0,0,0,0,0,0,0
1706424235.00015712,110828984,1000,1000,1000,1000,0,0,0,0,0,0,0,0,0,0
1706424235.10011721,110928944,1000,1000,1000,1000,0,0,0,0,0,0,0,0,0,0
1706424235.20007706,111028904,1000,1000,1000,1000,0,0,0,0,0,0,0,0,0,0
1706424235.30003715,111128864,1000,1000,1000,1000,0,0,0,0,0,0,0,0,0,0
1706424235.39999700,111228824,1000,1000,1000,1000,0,0,0,0,0,0,0,0,0,0
1706424235.49995708,111328784,1000,1000,1000,1000,0,0,0,0,0,0,0,0,0,0
1706424235.59991717,111428744,1000,1000,1000,1000,0,0,0,0,0,0,0,0,0,0
1706424235.69987702,111528704,1000,1000,1000,1000,0,0,0,0,0,0,0,0,0,0
1706424235.79983711,111628664,1000,1000,1000,1000,0,0,0,0,0,0,0,0,0,0
1706424235.89979720,111728624,1000,1000,1000,1000,0,0,0,0,0,0,0,0,0,0
1706424235.99975705,111828584,1000,1000,1000,1000,0,0,0,0,0,0,0,0,0,0
1706424236.09971714,111928544,1000,1000,1000,1000,0,0,0,0,0,0,0,0,0,0
1706424236.19967699,112028504,1000,1000,1000,1000,0,0,0,0,0,0,0,0,0,0
1706424236.29963708,112128464,1000,1000,1000,1000,0,0,0,0,0,0,0,0,0,0
1706424236.39959717,112228424,1000,1000,1000,1000,0,0,0,0,0,0,0,0,0,0
1706424236.49955702,112328384,1000,1000,1000,1000,0,0,0,0,0,0,0,0,0,0
1706424236.59951711,112428344,1000,1000,1000,1000,0,0,0,0,0,0,0,0,0,0
1706424236.69947720,112528304,1000,1000,1000,1000,0,0,0,0,0,0,0,0,0,0
1706424236.79943705,112628264,1000,1000,1000,1000,0,0,0,0,0,0,0,0,0,0
1706424236.89939713,112728224,1000,1000,1000,1000,0,0,0,0,0,0,0,0,0,0
1706424236.99935699,112828184,1000,1000,1000,1000,0,0,0,0,0,0,0,0,0,0
1706424237.10015011,112928977,1000,1000,1000,1000,0,0,0,0,0,0,0,0,0,0
1706424237.20011020,113028937,1000,1000,1000,1000,0,0,0,0,0,0,0,0,0,0
1706424237.30007005,113128897,1000,1000,1000,1000,0,0,0,0,0,0,0,0,0,0
1706424237.40003014,113228857,1000,1000,1000,1000,0,0,0,0,0,0,0,0,0,0
1706424237.49998999,113328817,1000,1000,1000,1000,0,0,0,0,0,0,0,0,0,0
1706424237.59995008,113428777,1000,1000,1000,1000,0,0,0,0,0,0,0,0,0,0
1706424237.69991016,113528737,1000,1000,1000,1000,0,0,0,0,0,0,0,0,0,0
1706424237.79987001,113628697,1000,1000,1000,1000,0,0,0,0,0,0,0,0,0,0
1706424237.89983010,113728657,1000,1000,1000,1000,0,0,0,0,0,0,0,0,0,0
1706424237.99979019,113828617,1000,1000,1000,1000,0,0,0,0,0,0,0,0,0,0
1706424238.09975004,113928577,1000,1000,1000,1000,0,0,0,0,0,0,0,0,0,0
1706424238.19971013,114028537,1000,1000,1000,1000,0,0,0,0,0,0,0,0,0,0
1706424238.29966998,114128497,1000,1000,1000,1000,0,0,0,0,0,0,0,0,0,0
1706424238.39963007,114228457,1000,1000,1000,1000,0,0,0,0,0,0,0,0,0,0
1706424238.49959016,114328417,1000,1000,1000,1000,0,0,0,0,0,0,0,0,0,0
1706424238.59955001,114428377,1000,1000,1000,1000,0,0,0,0,0,0,0,0,0,0
1706424238.69951010,114528337,1000,1000,1000,1000,0,0,0,0,0,0,0,0,0,0
1706424238.79947019,114628297,1000,1000,1000,1000,0,0,0,0,0,0,0,0,0,0
1706424238.89943004,114728257,1000,1000,1000,1000,0,0,0,0,0,0,0,0,0,0
1706424238.99939013,114828217,1000,1000,1000,1000,0,0,0,0,0,0,0,0,0,0
1706424239.09935021,114928177,1000,1000,1000,1000,0,0,0,0,0,0,0,0,0,0
1706424239.20014310,115028970,1000,1000,1000,1000,0,0,0,0,0,0,0,0,0,0
1706424239.30010319,115128930,1000,1000,1000,1000,0,0,0,0,0,0,0,0,0,0
1706424239.40006304,115228890,1000,1000,1000,1000,0,0,0,0,0,0,0,0,0,0
1706424239.50002313,115328850,1000,1000,1000,1000,0,0,0,0,0,0,0,0,0,0
1706424239.59998298,115428810,1000,1000,1000,1000,0,0,0,0,0,0,0,0,0,0
1706424239.69994307,115528770,1000,1000,1000,1000,0,0,0,0,0,0,0,0,0,0
1706424239.79990315,115628730,1000,1000,1000,1000,0,0,0,0,0,0,0,0,0,0
1706424239.89986300,115728690,1000,1000,1000,1000,0,0,0,0,0,0,0,0,0,0
1706424239.99982309,115828650,1000,1000,1000,1000,0,0,0,0,0,0,0,0,0,0
1706424240.09978318,115928610,1000,1000,1000,1000,0,0,0,0,0,0,0,0,0,0
1706424240.19974303,116028570,1000,1000,1000,1000,0,0,0,0,0,0,0,0,0,0
1706424240.29970312,116128530,1000,1000,1000,1000,0,0,0,0,0,0,0,0,0,0
1706424240.39966321,116228490,1000,1000,1000,1000,0,0,0,0,0,0,0,0,0,0
1706424240.49962306,116328450,1000,1000,1000,1000,0,0,0,0,0,0,0,0,0,0
1706424240.59958315,116428410,1000,1000,1000,1000,0,0,0,0,0,0,0,0,0,0
1706424240.69954300,116528370,1000,1000,1000,1000,0,0,0,0,0,0,0,0,0,0
1706424240.79950309,116628330,1000,1000,1000,1000,0,0,0,0,0,0,0,0,0,0
1706424240.89946318,116728290,1000,1000,1000,1000,0,0,0,0,0,0,0,0,0,0
1706424240.99942303,116828250,1000,1000,1000,1000,0,0,0,0,0,0,0,0,0,0
1706424241.09938312,116928210,1000,1000,1000,1000,0,0,0,0,0,0,0,0,0,0
1706424241.19934320,117028170,1000,1000,1000,1000,0,0,0,0,0,0,0,0,0,0
1706424241.30013609,117128963,1000,1000,1000,1000,0,0,0,0,0,0,0,0,0,0
1706424241.40009618,117228923,1000,1000,1000,1000,0,0,0,0,0,0,0,0,0,0
1706424241.50005603,117328883,1000,1000,1000,1000,0,0,0,0,0,0,0,0,0,0
1706424241.60001612,117428843,1000,1000,1000,1000,0,0,0,0,0,0,0,0,0,0
1706424241.69997621,117528803,1000,1000,1000,1000,0,0,0,0,0,0,0,0,0,0
1706424241.79993606,117628763,1000,1000,1000,1000,0,0,0,0,0,0,0,0,0,0
1706424241.89989614,117728723,1000,1000,1000,1000,0,0,0,0,0,0,0,0,0,0
1706424241.99985600,117828683,1000,1000,1000,1000,0,0,0,0,0,0,0,0,0,0
1706424242.09981608,117928643,1000,1000,1000,1000,0,0,0,0,0,0,0,0,0,0
1706424242.19977617,118028603,1000,1000,1000,1000,0,0,0,0,0,0,0,0,0,0
1706424242.29973602,118128563,1000,1000,1000,1000,0,0,0,0,0,0,0,0,0,0
1706424242.39969611,118228523,1000,1000,1000,1000,0,0,0,0,0,0,0,0,0,0
1706424242.49965620,118328483,1000,1000,1000,1000,0,0,0,0,0,0,0,0,0,0
1706424242.59961605,118428443,1000,1000,1000,1000,0,0,0,0,0,0,0,0,0,0
