timestamp,TimeUS,C1,C2,C3,C4,C5,C6,C7,C8,C9,C10,C11,C12,C13,C14
1706424754.79999995,52028347,1000,1000,1000,1000,0,0,0,0,0,0,0,0,0,0
1706424754.89996004,52128307,1000,1000,1000,1000,0,0,0,0,0,0,0,0,0,0
1706424754.99991989,52228267,1000,1000,1000,1000,0,0,0,0,0,0,0,0,0,0
1706424755.09987998,52328227,1000,1000,1000,1000,0,0,0,0,0,0,0,0,0,0
1706424755.19983983,52428187,1000,1000,1000,1000,0,0,0,0,0,0,0,0,0,0
1706424755.30063295,52528980,1000,1000,1000,1000,0,0,0,0,0,0,0,0,0,0
1706424755.40059304,52628940,1000,1000,1000,1000,0,0,0,0,0,0,0,0,0,0
1706424755.50055289,52728900,1000,1000,1000,1000,0,0,0,0,0,0,0,0,0,0
1706424755.60051298,52828860,1000,1000,1000,1000,0,0,0,0,0,0,0,0,0,0
1706424755.70047283,52928820,1000,1000,1000,1000,0,0,0,0,0,0,0,0,0,0
1706424755.80043292,53028780,1000,1000,1000,1000,0,0,0,0,0,0,0,0,0,0
1706424755.90039301,53128740,1000,1000,1000,1000,0,0,0,0,0,0,0,0,0,0
1706424756.00035286,53228700,1000,1000,1000,1000,0,0,0,0,0,0,0,0,0,0
1706424756.10031295,53328660,1000,1000,1000,1000,0,0,0,0,0,0,0,0,0,0
1706424756.20027304,53428620,1000,1000,1000,1000,0,0,0,0,0,0,0,0,0,0
1706424756.30023289,53528580,1000,1000,1000,1000,0,0,0,0,0,0,0,0,0,0
1706424756.40019298,53628540,1000,1000,1000,1000,0,0,0,0,0,0,0,0,0,0
1706424756.50015283,53728500,1000,1000,1000,1000,0,0,0,0,0,0,0,0,0,0
1706424756.60011292,53828460,1000,1000,1000,1000,0,0,0,0,0,0,0,0,0,0
1706424756.70007300,53928420,1000,1000,1000,1000,0,0,0,0,0,0,0,0,0,0
1706424756.80003285,54028380,1003,1003,1003,1003,0,0,0,0,0,0,0,0,0,0
1706424756.89999294,54128340,1033,1033,1033,1033,0,0,0,0,0,0,0,0,0,0
1706424756.99995303,54228300,1063,1063,1063,1063,0,0,0,0,0,0,0,0,0,0
1706424757.09991288,54328260,1093,1093,1093,1093,0,0,0,0,0,0,0,0,0,0
1706424757.19987297,54428220,1123,1123,1123,1123,0,0,0,0,0,0,0,0,0,0
1706424757.29983282,54528180,1185,1177,1178,1186,0,0,0,0,0,0,0,0,0,0
1706424757.40062594,54628973,1425,1419,1419,1425,0,0,0,0,0,0,0,0,0,0
1706424757.50058603,54728933,1599,1594,1594,1599,0,0,0,0,0,0,0,0,0,0
1706424757.60054588,54828893,1744,1738,1739,1744,0,0,0,0,0,0,0,0,0,0
1706424757.70050597,54928853,1869,1864,1865,1869,0,0,0,0,0,0,0,0,0,0
1706424757.80046582,55028813,1895,1892,1892,1896,0,0,0,0,0,0,0,0,0,0
1706424757.90042591,55128773,1800,1799,1799,1801,0,0,0,0,0,0,0,0,0,0
1706424758.00038600,55228733,1688,1689,1689,1688,0,0,0,0,0,0,0,0,0,0
1706424758.10034585,55328693,1639,1642,1642,1639,0,0,0,0,0,0,0,0,0,0
1706424758.20030594,55428653,1638,1640,1641,1638,0,0,0,0,0,0,0,0,0,0
1706424758.30026603,55528613,1648,1649,1649,1648,0,0,0,0,0,0,0,0,0,0
1706424758.40022588,55628573,1648,1649,1649,1649,0,0,0,0,0,0,0,0,0,0
1706424758.50018597,55728533,1642,1641,1641,1642,0,0,0,0,0,0,0,0,0,0
1706424758.60014606,55828493,1633,1631,1631,1632,0,0,0,0,0,0,0,0,0,0
1706424758.70010591,55928453,1625,1624,1624,1625,0,0,0,0,0,0,0,0,0,0
1706424758.80006599,56028413,1622,1622,1622,1622,0,0,0,0,0,0,0,0,0,0
1706424758.90002584,56128373,1621,1620,1620,1621,0,0,0,0,0,0,0,0,0,0
1706424758.99998593,56228333,1620,1620,1620,1620,0,0,0,0,0,0,0,0,0,0
1706424759.09994602,56328293,1621,1621,1621,1621,0,0,0,0,0,0,0,0,0,0
1706424759.19990587,56428253,1621,1622,1622,1621,0,0,0,0,0,0,0,0,0,0
1706424759.29986596,56528213,1621,1621,1622,1621,0,0,0,0,0,0,0,0,0,0
1706424759.39982605,56628173,1622,1622,1623,1622,0,0,0,0,0,0,0,0,0,0
1706424759.50061893,56728966,1624,1624,1624,1625,0,0,0,0,0,0,0,0,0,0
1706424759.60057902,56828926,1625,1625,1624,1626,0,0,0,0,0,0,0,0,0,0
1706424759.70053887,56928886,1626,1626,1625,1626,0,0,0,0,0,0,0,0,0,0
1706424759.80049896,57028846,1628,1627,1627,1627,0,0,0,0,0,0,0,0,0,0
1706424759.90045905,57128806,1628,1628,1627,1628,0,0,0,0,0,0,0,0,0,0
1706424760.00041890,57228766,1629,1629,1629,1629,0,0,0,0,0,0,0,0,0,0
1706424760.10037899,57328726,1629,1630,1630,1629,0,0,0,0,0,0,0,0,0,0
1706424760.20033884,57428686,1631,1630,1631,1630,0,0,0,0,0,0,0,0,0,0
1706424760.30029893,57528646,1629,1629,1629,1629,0,0,0,0,0,0,0,0,0,0
1706424760.40025902,57628606,1626,1626,1626,1626,0,0,0,0,0,0,0,0,0,0
1706424760.50021887,57728566,1619,1621,1620,1620,0,0,0,0,0,0,0,0,0,0
1706424760.60017896,57828526,1596,1597,1597,1596,0,0,0,0,0,0,0,0,0,0
1706424760.70013905,57928486,1586,1586,1586,1586,0,0,0,0,0,0,0,0,0,0
1706424760.80009890,58028446,1576,1576,1576,1577,0,0,0,0,0,0,0,0,0,0
1706424760.90005898,58128406,1568,1567,1568,1568,0,0,0,0,0,0,0,0,0,0
1706424761.00001884,58228366,1561,1561,1561,1561,0,0,0,0,0,0,0,0,0,0
1706424761.09997892,58328326,1554,1554,1554,1554,0,0,0,0,0,0,0,0,0,0
1706424761.19993901,58428286,1550,1550,1550,1550,0,0,0,0,0,0,0,0,0,0
1706424761.29989886,58528246,1544,1544,1544,1544,0,0,0,0,0,0,0,0,0,0
1706424761.39985895,58628206,1540,1540,1540,1540,0,0,0,0,0,0,0,0,0,0
1706424761.49981904,58728166,1535,1535,1535,1535,0,0,0,0,0,0,0,0,0,0
1706424761.60061193,58828959,1532,1532,1532,1531,0,0,0,0,0,0,0,0,0,0
1706424761.70057201,58928919,1530,1530,1530,1530,0,0,0,0,0,0,0,0,0,0
1706424761.80053186,59028879,1527,1528,1527,1528,0,0,0,0,0,0,0,0,0,0
1706424761.90049195,59128839,1525,1525,1524,1525,0,0,0,0,0,0,0,0,0,0
1706424762.00045204,59228799,1523,1523,1523,1523,0,0,0,0,0,0,0,0,0,0
1706424762.10041189,59328759,1520,1519,1519,1520,0,0,0,0,0,0,0,0,0,0
1706424762.20037198,59428719,1517,1516,1516,1516,0,0,0,0,0,0,0,0,0,0
1706424762.30033183,59528679,1513,1513,1513,1513,0,0,0,0,0,0,0,0,0,0
1706424762.40029192,59628639,1510,1510,1510,1510,0,0,0,0,0,0,0,0,0,0
1706424762.50025201,59728599,1507,1507,1507,1507,0,0,0,0,0,0,0,0,0,0
1706424762.60021186,59828559,1504,1504,1504,1504,0,0,0,0,0,0,0,0,0,0
1706424762.70017195,59928519,1501,1501,1501,1501,0,0,0,0,0,0,0,0,0,0
1706424762.80013204,60028479,1497,1497,1497,1497,0,0,0,0,0,0,0,0,0,0
1706424762.90009189,60128439,1496,1496,1496,1496,0,0,0,0,0,0,0,0,0,0
1706424763.00005198,60228399,1492,1493,1492,1493,0,0,0,0,0,0,0,0,0,0
1706424763.10001183,60328359,1493,1493,1492,1493,0,0,0,0,0,0,0,0,0,0
1706424763.19997191,60428319,1493,1493,1494,1493,0,0,0,0,0,0,0,0,0,0
1706424763.29993200,60528279,1496,1496,1496,1495,0,0,0,0,0,0,0,0,0,0
1706424763.39989185,60628239,1499,1499,1499,1498,0,0,0,0,0,0,0,0,0,0
1706424763.49985194,60728199,1501,1501,1501,1501,0,0,0,0,0,0,0,0,0,0
1706424763.59981203,60828159,1503,1503,1503,1503,0,0,0,0,0,0,0,0,0,0
1706424763.70060492,60928952,1505,1504,1504,1504,0,0,0,0,0,0,0,0,0,0
1706424763.80056500,61028912,1506,1506,1506,1506,0,0,0,0,0,0,0,0,0,0
1706424763.90052485,61128872,1508,1508,1508,1508,0,0,0,0,0,0,0,0,0,0
1706424764.00048494,61228832,1510,1510,1510,1510,0,0,0,0,0,0,0,0,0,0
1706424764.10044503,61328792,1511,1511,1511,1511,0,0,0,0,0,0,0,0,0,0
1706424764.20040488,61428752,1512,1512,1512,1512,0,0,0,0,0,0,0,0,0,0
1706424764.30036497,61528712,1512,1513,1512,1513,0,0,0,0,0,0,0,0,0,0
1706424764.40032482,61628672,1513,1513,1513,1513,0,0,0,0,0,0,0,0,0,0
1706424764.50028491,61728632,1515,1514,1514,1514,0,0,0,0,0,0,0,0,0,0
1706424764.60024500,61828592,1515,1515,1515,1514,0,0,0,0,0,0,0,0,0,0
1706424764.70020485,61928552,1515,1515,1515,1515,0,0,0,0,0,0,0,0,0,0
1706424764.80016494,62028512,1515,1515,1515,1515,0,0,0,0,0,0,0,0,0,0
1706424764.90012503,62128472,1514,1514,1514,1514,0,0,0,0,0,0,0,0,0,0
1706424765.00008488,62228432,1514,1514,1515,1514,0,0,0,0,0,0,0,0,0,0
1706424765.10004497,62328392,1529,1528,1529,1529,0,0,0,0,0,0,0,0,0,0
1706424765.20000505,62428352,1553,1552,1552,1553,0,0,0,0,0,0,0,0,0,0
1706424765.29996490,62528312,1564,1564,1562,1566,0,0,0,0,0,0,0,0,0,0
1706424765.39992499,62628272,1574,1574,1571,1577,0,0,0,0,0,0,0,0,0,0
1706424765.49988484,62728232,1579,1579,1576,1581,0,0,0,0,0,0,0,0,0,0
1706424765.59984493,62828192,1583,1583,1581,1584,0,0,0,0,0,0,0,0,0,0
1706424765.70063806,62928985,1584,1584,1584,1585,0,0,0,0,0,0,0,0,0,0
1706424765.80059791,63028945,1585,1585,1586,1584,0,0,0,0,0,0,0,0,0,0
1706424765.90055799,63128905,1584,1584,1586,1582,0,0,0,0,0,0,0,0,0,0
1706424766.00051785,63228865,1584,1584,1586,1582,0,0,0,0,0,0,0,0,0,0
1706424766.10047793,63328825,1582,1582,1583,1581,0,0,0,0,0,0,0,0,0,0
1706424766.20043802,63428785,1580,1581,1581,1579,0,0,0,0,0,0,0,0,0,0
1706424766.30039787,63528745,1578,1578,1579,1578,0,0,0,0,0,0,0,0,0,0
1706424766.40035796,63628705,1576,1576,1576,1576,0,0,0,0,0,0,0,0,0,0
1706424766.50031805,63728665,1575,1575,1575,1575,0,0,0,0,0,0,0,0,0,0
1706424766.60027790,63828625,1573,1572,1572,1573,0,0,0,0,0,0,0,0,0,0
1706424766.70023799,63928585,1572,1571,1571,1572,0,0,0,0,0,0,0,0,0,0
1706424766.80019784,64028545,1568,1567,1573,1575,0,0,0,0,0,0,0,0,0,0
1706424766.90015793,64128505,1565,1566,1574,1576,0,0,0,0,0,0,0,0,0,0
1706424767.00011802,64228465,1565,1566,1572,1573,0,0,0,0,0,0,0,0,0,0
1706424767.10007787,64328425,1567,1567,1571,1572,0,0,0,0,0,0,0,0,0,0
1706424767.20003796,64428385,1568,1568,1570,1569,0,0,0,0,0,0,0,0,0,0
1706424767.29999804,64528345,1570,1570,1569,1568,0,0,0,0,0,0,0,0,0,0
1706424767.39995790,64628305,1572,1571,1568,1568,0,0,0,0,0,0,0,0,0,0
1706424767.49991798,64728265,1573,1573,1568,1568,0,0,0,0,0,0,0,0,0,0
1706424767.59987783,64828225,1574,1573,1568,1568,0,0,0,0,0,0,0,0,0,0
1706424767.69983792,64928185,1574,1575,1569,1569,0,0,0,0,0,0,0,0,0,0
1706424767.80063105,65028978,1575,1575,1570,1570,0,0,0,0,0,0,0,0,0,0
1706424767.90059090,65128938,1575,1574,1571,1571,0,0,0,0,0,0,0,0,0,0
1706424768.00055099,65228898,1574,1574,1571,1572,0,0,0,0,0,0,0,0,0,0
1706424768.10051084,65328858,1575,1575,1574,1574,0,0,0,0,0,0,0,0,0,0
1706424768.20047092,65428818,1575,1575,1576,1574,0,0,0,0,0,0,0,0,0,0
1706424768.30043101,65528778,1575,1575,1577,1575,0,0,0,0,0,0,0,0,0,0
1706424768.40039086,65628738,1575,1575,1577,1576,0,0,0,0,0,0,0,0,0,0
1706424768.50035095,65728698,1576,1576,1578,1577,0,0,0,0,0,0,0,0,0,0
1706424768.60031104,65828658,1576,1576,1579,1578,0,0,0,0,0,0,0,0,0,0
1706424768.70027089,65928618,1575,1575,1577,1577,0,0,0,0,0,0,0,0,0,0
1706424768.80023098,66028578,1576,1576,1577,1578,0,0,0,0,0,0,0,0,0,0
1706424768.90019083,66128538,1576,1577,1578,1578,0,0,0,0,0,0,0,0,0,0
1706424769.00015092,66228498,1577,1577,1578,1578,0,0,0,0,0,0,0,0,0,0
1706424769.10011101,66328458,1577,1577,1577,1577,0,0,0,0,0,0,0,0,0,0
1706424769.20007086,66428418,1578,1578,1578,1578,0,0,0,0,0,0,0,0,0,0
1706424769.30003095,66528378,1579,1579,1578,1578,0,0,0,0,0,0,0,0,0,0
1706424769.39999104,66628338,1579,1579,1579,1578,0,0,0,0,0,0,0,0,0,0
1706424769.49995089,66728298,1579,1579,1579,1578,0,0,0,0,0,0,0,0,0,0
1706424769.59991097,66828258,1579,1579,1578,1578,0,0,0,0,0,0,0,0,0,0
1706424769.69987082,66928218,1580,1579,1579,1579,0,0,0,0,0,0,0,0,0,0
1706424769.79983091,67028178,1579,1578,1578,1578,0,0,0,0,0,0,0,0,0,0
1706424769.90062404,67128971,1579,1578,1578,1578,0,0,0,0,0,0,0,0,0,0
1706424770.00058389,67228931,1579,1579,1578,1579,0,0,0,0,0,0,0,0,0,0
1706424770.10054398,67328891,1578,1579,1579,1579,0,0,0,0,0,0,0,0,0,0
1706424770.20050383,67428851,1578,1579,1579,1579,0,0,0,0,0,0,0,0,0,0
1706424770.30046391,67528811,1579,1579,1579,1579,0,0,0,0,0,0,0,0,0,0
1706424770.40042400,67628771,1580,1579,1580,1580,0,0,0,0,0,0,0,0,0,0
1706424770.50038385,67728731,1579,1579,1579,1579,0,0,0,0,0,0,0,0,0,0
1706424770.60034394,67828691,1580,1580,1580,1580,0,0,0,0,0,0,0,0,0,0
1706424770.70030403,67928651,1580,1580,1580,1580,0,0,0,0,0,0,0,0,0,0
1706424770.80026388,68028611,1580,1580,1580,1580,0,0,0,0,0,0,0,0,0,0
1706424770.90022397,68128571,1579,1580,1580,1580,0,0,0,0,0,0,0,0,0,0
1706424771.00018382,68228531,1580,1580,1580,1580,0,0,0,0,0,0,0,0,0,0
1706424771.10014391,68328491,1580,1580,1580,1580,0,0,0,0,0,0,0,0,0,0
1706424771.20010400,68428451,1580,1580,1580,1580,0,0,0,0,0,0,0,0,0,0
1706424771.30006385,68528411,1580,1580,1580,1580,0,0,0,0,0,0,0,0,0,0
1706424771.40002394,68628371,1580,1580,1580,1580,0,0,0,0,0,0,0,0,0,0
1706424771.49998403,68728331,1581,1581,1581,1581,0,0,0,0,0,0,0,0,0,0
1706424771.59994388,68828291,1581,1581,1581,1581,0,0,0,0,0,0,0,0,0,0
1706424771.69990396,68928251,1581,1581,1581,1581,0,0,0,0,0,0,0,0,0,0
1706424771.79986405,69028211,1581,1581,1581,1581,0,0,0,0,0,0,0,0,0,0
1706424771.89982390,69128171,1580,1580,1580,1581,0,0,0,0,0,0,0,0,0,0
1706424772.00061703,69228964,1581,1581,1581,1581,0,0,0,0,0,0,0,0,0,0
1706424772.10057688,69328924,1581,1581,1581,1582,0,0,0,0,0,0,0,0,0,0
1706424772.20053697,69428884,1581,1581,1581,1581,0,0,0,0,0,0,0,0,0,0
1706424772.30049706,69528844,1581,1582,1581,1582,0,0,0,0,0,0,0,0,0,0
1706424772.40045691,69628804,1581,1581,1581,1581,0,0,0,0,0,0,0,0,0,0
1706424772.50041699,69728764,1581,1581,1582,1581,0,0,0,0,0,0,0,0,0,0
1706424772.60037684,69828724,1581,1581,1582,1581,0,0,0,0,0,0,0,0,0,0
1706424772.70033693,69928684,1581,1581,1581,1581,0,0,0,0,0,0,0,0,0,0
1706424772.80029702,70028644,1581,1581,1581,1581,0,0,0,0,0,0,0,0,0,0
1706424772.90025687,70128604,1580,1581,1581,1580,0,0,0,0,0,0,0,0,0,0
1706424773.00021696,70228564,1580,1582,1588,1573,0,0,0,0,0,0,0,0,0,0
1706424773.10017705,70328524,1579,1582,1584,1573,0,0,0,0,0,0,0,0,0,0
1706424773.20013690,70428484,1578,1580,1576,1572,0,0,0,0,0,0,0,0,0,0
1706424773.30009699,70528444,1577,1580,1567,1571,0,0,0,0,0,0,0,0,0,0
1706424773.40005684,70628404,1577,1579,1560,1568,0,0,0,0,0,0,0,0,0,0
1706424773.50001693,70728364,1577,1577,1555,1562,0,0,0,0,0,0,0,0,0,0
1706424773.59997702,70828324,1578,1577,1555,1558,0,0,0,0,0,0,0,0,0,0
1706424773.69993687,70928284,1579,1578,1555,1556,0,0,0,0,0,0,0,0,0,0
1706424773.79989696,71028244,1579,1578,1556,1554,0,0,0,0,0,0,0,0,0,0
1706424773.89985704,71128204,1579,1578,1556,1554,0,0,0,0,0,0,0,0,0,0
1706424773.99981689,71228164,1577,1577,1556,1553,0,0,0,0,0,0,0,0,0,0
1706424774.10061002,71328957,1576,1578,1556,1554,0,0,0,0,0,0,0,0,0,0
1706424774.20056987,71428917,1575,1577,1554,1554,0,0,0,0,0,0,0,0,0,0
1706424774.30052996,71528877,1575,1576,1553,1553,0,0,0,0,0,0,0,0,0,0
1706424774.40049005,71628837,1575,1577,1551,1552,0,0,0,0,0,0,0,0,0,0
1706424774.50044990,71728797,1577,1578,1550,1550,0,0,0,0,0,0,0,0,0,0
1706424774.60040998,71828757,1578,1579,1548,1547,0,0,0,0,0,0,0,0,0,0
1706424774.70036983,71928717,1581,1582,1545,1545,0,0,0,0,0,0,0,0,0,0
1706424774.80032992,72028677,1584,1585,1543,1542,0,0,0,0,0,0,0,0,0,0
1706424774.90029001,72128637,1588,1588,1541,1540,0,0,0,0,0,0,0,0,0,0
1706424775.00024986,72228597,1590,1591,1538,1537,0,0,0,0,0,0,0,0,0,0
1706424775.10020995,72328557,1592,1593,1535,1535,0,0,0,0,0,0,0,0,0,0
1706424775.20017004,72428517,1594,1594,1534,1535,0,0,0,0,0,0,0,0,0,0
1706424775.30012989,72528477,1595,1594,1535,1536,0,0,0,0,0,0,0,0,0,0
1706424775.40008998,72628437,1594,1594,1536,1538,0,0,0,0,0,0,0,0,0,0
1706424775.50004983,72728397,1592,1591,1539,1541,0,0,0,0,0,0,0,0,0,0
1706424775.60000992,72828357,1587,1586,1544,1547,0,0,0,0,0,0,0,0,0,0
1706424775.69997001,72928317,1582,1579,1553,1556,0,0,0,0,0,0,0,0,0,0
1706424775.79992986,73028277,1573,1570,1563,1566,0,0,0,0,0,0,0,0,0,0
1706424775.89988995,73128237,1563,1558,1574,1576,0,0,0,0,0,0,0,0,0,0
1706424775.99985003,73228197,1552,1549,1587,1588,0,0,0,0,0,0,0,0,0,0
1706424776.09980989,73328157,1542,1539,1598,1598,0,0,0,0,0,0,0,0,0,0
1706424776.20060301,73428950,1535,1534,1608,1607,0,0,0,0,0,0,0,0,0,0
1706424776.30056286,73528910,1529,1530,1613,1612,0,0,0,0,0,0,0,0,0,0
1706424776.40052295,73628870,1528,1530,1615,1613,0,0,0,0,0,0,0,0,0,0
1706424776.50048304,73728830,1531,1533,1612,1612,0,0,0,0,0,0,0,0,0,0
1706424776.60044289,73828790,1537,1539,1607,1608,0,0,0,0,0,0,0,0,0,0
1706424776.70040298,73928750,1544,1546,1601,1602,0,0,0,0,0,0,0,0,0,0
1706424776.80036283,74028710,1554,1555,1594,1595,0,0,0,0,0,0,0,0,0,0
1706424776.90032291,74128670,1563,1563,1588,1587,0,0,0,0,0,0,0,0,0,0
1706424777.00028300,74228630,1572,1571,1581,1580,0,0,0,0,0,0,0,0,0,0
1706424777.10024285,74328590,1578,1577,1575,1574,0,0,0,0,0,0,0,0,0,0
1706424777.20020294,74428550,1583,1582,1570,1570,0,0,0,0,0,0,0,0,0,0
1706424777.30016303,74528510,1586,1585,1567,1567,0,0,0,0,0,0,0,0,0,0
1706424777.40012288,74628470,1587,1586,1565,1566,0,0,0,0,0,0,0,0,0,0
1706424777.50008297,74728430,1587,1586,1566,1566,0,0,0,0,0,0,0,0,0,0
1706424777.60004282,74828390,1586,1584,1568,1568,0,0,0,0,0,0,0,0,0,0
1706424777.70000291,74928350,1582,1582,1570,1570,0,0,0,0,0,0,0,0,0,0
1706424777.79996300,75028310,1580,1581,1575,1574,0,0,0,0,0,0,0,0,0,0
1706424777.89992285,75128270,1578,1578,1578,1577,0,0,0,0,0,0,0,0,0,0
1706424777.99988294,75228230,1576,1576,1580,1580,0,0,0,0,0,0,0,0,0,0
1706424778.09984303,75328190,1574,1574,1582,1582,0,0,0,0,0,0,0,0,0,0
1706424778.20063591,75428983,1573,1573,1583,1584,0,0,0,0,0,0,0,0,0,0
1706424778.30059600,75528943,1573,1573,1584,1584,0,0,0,0,0,0,0,0,0,0
1706424778.40055585,75628903,1573,1573,1584,1584,0,0,0,0,0,0,0,0,0,0
1706424778.50051594,75728863,1572,1573,1583,1583,0,0,0,0,0,0,0,0,0,0
1706424778.60047603,75828823,1574,1574,1582,1582,0,0,0,0,0,0,0,0,0,0
1706424778.70043588,75928783,1575,1576,1581,1581,0,0,0,0,0,0,0,0,0,0
1706424778.80039597,76028743,1578,1578,1580,1581,0,0,0,0,0,0,0,0,0,0
1706424778.90035605,76128703,1579,1579,1579,1579,0,0,0,0,0,0,0,0,0,0
1706424779.00031590,76228663,1579,1579,1577,1577,0,0,0,0,0,0,0,0,0,0
1706424779.10027599,76328623,1581,1580,1577,1577,0,0,0,0,0,0,0,0,0,0
1706424779.20023584,76428583,1582,1581,1577,1577,0,0,0,0,0,0,0,0,0,0
1706424779.30019593,76528543,1581,1581,1577,1577,0,0,0,0,0,0,0,0,0,0
1706424779.40015602,76628503,1581,1581,1577,1577,0,0,0,0,0,0,0,0,0,0
1706424779.50011587,76728463,1602,1575,1588,1590,0,0,0,0,0,0,0,0,0,0
1706424779.60007596,76828423,1595,1574,1580,1580,0,0,0,0,0,0,0,0,0,0
1706424779.70003605,76928383,1591,1578,1578,1578,0,0,0,0,0,0,0,0,0,0
1706424779.79999590,77028343,1587,1583,1579,1578,0,0,0,0,0,0,0,0,0,0
1706424779.89995599,77128303,1584,1587,1579,1579,0,0,0,0,0,0,0,0,0,0
1706424779.99991584,77228263,1581,1587,1579,1578,0,0,0,0,0,0,0,0,0,0
1706424780.09987593,77328223,1580,1586,1579,1579,0,0,0,0,0,0,0,0,0,0
1706424780.19983602,77428183,1580,1584,1580,1580,0,0,0,0,0,0,0,0,0,0
1706424780.30062890,77528976,1581,1582,1581,1580,0,0,0,0,0,0,0,0,0,0
1706424780.40058899,77628936,1581,1581,1581,1581,0,0,0,0,0,0,0,0,0,0
1706424780.50054884,77728896,1581,1579,1581,1581,0,0,0,0,0,0,0,0,0,0
1706424780.60050893,77828856,1580,1579,1581,1581,0,0,0,0,0,0,0,0,0,0
1706424780.70046902,77928816,1581,1580,1582,1582,0,0,0,0,0,0,0,0,0,0
1706424780.80042887,78028776,1579,1578,1580,1581,0,0,0,0,0,0,0,0,0,0
1706424780.90038896,78128736,1580,1581,1582,1582,0,0,0,0,0,0,0,0,0,0
1706424781.00034904,78228696,1580,1582,1588,1575,0,0,0,0,0,0,0,0,0,0
1706424781.10030890,78328656,1580,1583,1585,1571,0,0,0,0,0,0,0,0,0,0
1706424781.20026898,78428616,1580,1583,1576,1571,0,0,0,0,0,0,0,0,0,0
1706424781.30022883,78528576,1580,1583,1568,1570,0,0,0,0,0,0,0,0,0,0
1706424781.40018892,78628536,1578,1580,1558,1565,0,0,0,0,0,0,0,0,0,0
1706424781.50014901,78728496,1580,1580,1554,1561,0,0,0,0,0,0,0,0,0,0
1706424781.60010886,78828456,1580,1579,1552,1556,0,0,0,0,0,0,0,0,0,0
1706424781.70006895,78928416,1581,1579,1552,1552,0,0,0,0,0,0,0,0,0,0
1706424781.80002904,79028376,1581,1580,1553,1552,0,0,0,0,0,0,0,0,0,0
1706424781.89998889,79128336,1581,1580,1555,1552,0,0,0,0,0,0,0,0,0,0
1706424781.99994898,79228296,1578,1578,1554,1552,0,0,0,0,0,0,0,0,0,0
1706424782.09990883,79328256,1577,1578,1554,1553,0,0,0,0,0,0,0,0,0,0
1706424782.19986892,79428216,1576,1578,1554,1553,0,0,0,0,0,0,0,0,0,0
1706424782.29982901,79528176,1575,1577,1552,1552,0,0,0,0,0,0,0,0,0,0
1706424782.40062189,79628969,1576,1577,1551,1552,0,0,0,0,0,0,0,0,0,0
1706424782.50058198,79728929,1578,1579,1550,1551,0,0,0,0,0,0,0,0,0,0
1706424782.60054183,79828889,1579,1580,1548,1548,0,0,0,0,0,0,0,0,0,0
1706424782.70050192,79928849,1581,1582,1547,1547,0,0,0,0,0,0,0,0,0,0
1706424782.80046201,80028809,1584,1584,1545,1544,0,0,0,0,0,0,0,0,0,0
1706424782.90042186,80128769,1586,1587,1543,1543,0,0,0,0,0,0,0,0,0,0
1706424783.00038195,80228729,1589,1589,1542,1542,0,0,0,0,0,0,0,0,0,0
1706424783.10034204,80328689,1590,1590,1539,1540,0,0,0,0,0,0,0,0,0,0
1706424783.20030189,80428649,1593,1593,1540,1541,0,0,0,0,0,0,0,0,0,0
1706424783.30026197,80528609,1593,1593,1540,1542,0,0,0,0,0,0,0,0,0,0
1706424783.40022182,80628569,1592,1591,1543,1545,0,0,0,0,0,0,0,0,0,0
1706424783.50018191,80728529,1590,1587,1549,1552,0,0,0,0,0,0,0,0,0,0
1706424783.60014200,80828489,1584,1581,1556,1559,0,0,0,0,0,0,0,0,0,0
1706424783.70010185,80928449,1576,1572,1565,1567,0,0,0,0,0,0,0,0,0,0
1706424783.80006194,81028409,1567,1564,1577,1578,0,0,0,0,0,0,0,0,0,0
1706424783.90002203,81128369,1558,1555,1589,1589,0,0,0,0,0,0,0,0,0,0
1706424783.99998188,81228329,1549,1546,1597,1597,0,0,0,0,0,0,0,0,0,0
1706424784.09994197,81328289,1541,1541,1605,1604,0,0,0,0,0,0,0,0,0,0
1706424784.19990182,81428249,1536,1538,1609,1608,0,0,0,0,0,0,0,0,0,0
1706424784.29986191,81528209,1535,1537,1611,1610,0,0,0,0,0,0,0,0,0,0
1706424784.39982200,81628169,1538,1540,1610,1609,0,0,0,0,0,0,0,0,0,0
1706424784.50061488,81728962,1543,1544,1606,1606,0,0,0,0,0,0,0,0,0,0
1706424784.60057497,81828922,1550,1551,1601,1601,0,0,0,0,0,0,0,0,0,0
1706424784.70053482,81928882,1557,1557,1595,1594,0,0,0,0,0,0,0,0,0,0
1706424784.80049491,82028842,1564,1565,1588,1588,0,0,0,0,0,0,0,0,0,0
1706424784.90045500,82128802,1572,1572,1582,1582,0,0,0,0,0,0,0,0,0,0
1706424785.00041485,82228762,1577,1577,1576,1576,0,0,0,0,0,0,0,0,0,0
1706424785.10037494,82328722,1582,1581,1573,1573,0,0,0,0,0,0,0,0,0,0
1706424785.20033503,82428682,1585,1583,1569,1570,0,0,0,0,0,0,0,0,0,0
1706424785.30029488,82528642,1586,1584,1568,1568,0,0,0,0,0,0,0,0,0,0
1706424785.40025496,82628602,1586,1585,1569,1569,0,0,0,0,0,0,0,0,0,0
1706424785.50021505,82728562,1585,1584,1570,1570,0,0,0,0,0,0,0,0,0,0
1706424785.60017490,82828522,1583,1583,1573,1573,0,0,0,0,0,0,0,0,0,0
1706424785.70013499,82928482,1581,1581,1575,1575,0,0,0,0,0,0,0,0,0,0
1706424785.80009484,83028442,1578,1579,1577,1577,0,0,0,0,0,0,0,0,0,0
1706424785.90005493,83128402,1577,1577,1580,1580,0,0,0,0,0,0,0,0,0,0
1706424786.00001502,83228362,1574,1575,1582,1581,0,0,0,0,0,0,0,0,0,0
1706424786.09997487,83328322,1574,1575,1584,1583,0,0,0,0,0,0,0,0,0,0
1706424786.19993496,83428282,1574,1574,1584,1583,0,0,0,0,0,0,0,0,0,0
1706424786.29989505,83528242,1573,1573,1582,1582,0,0,0,0,0,0,0,0,0,0
1706424786.39985490,83628202,1574,1574,1582,1583,0,0,0,0,0,0,0,0,0,0
1706424786.49981499,83728162,1576,1576,1583,1583,0,0,0,0,0,0,0,0,0,0
1706424786.60060787,83828955,1576,1577,1581,1581,0,0,0,0,0,0,0,0,0,0
1706424786.70056796,83928915,1577,1577,1579,1579,0,0,0,0,0,0,0,0,0,0
1706424786.80052805,84028875,1579,1579,1579,1579,0,0,0,0,0,0,0,0,0,0
1706424786.90048790,84128835,1580,1580,1578,1578,0,0,0,0,0,0,0,0,0,0
1706424787.00044799,84228795,1581,1581,1579,1578,0,0,0,0,0,0,0,0,0,0
1706424787.10040784,84328755,1582,1581,1578,1578,0,0,0,0,0,0,0,0,0,0
1706424787.20036793,84428715,1582,1581,1578,1578,0,0,0,0,0,0,0,0,0,0
1706424787.30032802,84528675,1581,1581,1578,1577,0,0,0,0,0,0,0,0,0,0
1706424787.40028787,84628635,1581,1581,1579,1578,0,0,0,0,0,0,0,0,0,0
1706424787.50024796,84728595,1580,1582,1579,1579,0,0,0,0,0,0,0,0,0,0
1706424787.60020804,84828555,1580,1580,1579,1580,0,0,0,0,0,0,0,0,0,0
1706424787.70016789,84928515,1581,1581,1581,1580,0,0,0,0,0,0,0,0,0,0
1706424787.80012798,85028475,1580,1580,1581,1581,0,0,0,0,0,0,0,0,0,0
1706424787.90008783,85128435,1580,1580,1581,1581,0,0,0,0,0,0,0,0,0,0
1706424788.00004792,85228395,1579,1579,1580,1581,0,0,0,0,0,0,0,0,0,0
1706424788.10000801,85328355,1580,1579,1581,1581,0,0,0,0,0,0,0,0,0,0
1706424788.19996786,85428315,1579,1579,1581,1581,0,0,0,0,0,0,0,0,0,0
1706424788.29992795,85528275,1579,1580,1581,1580,0,0,0,0,0,0,0,0,0,0
1706424788.39988804,85628235,1579,1580,1581,1581,0,0,0,0,0,0,0,0,0,0
1706424788.49984789,85728195,1579,1580,1580,1581,0,0,0,0,0,0,0,0,0,0
1706424788.59980798,85828155,1580,1580,1580,1580,0,0,0,0,0,0,0,0,0,0
1706424788.70060086,85928948,1580,1580,1580,1580,0,0,0,0,0,0,0,0,0,0
1706424788.80056095,86028908,1579,1579,1578,1579,0,0,0,0,0,0,0,0,0,0
1706424788.90052104,86128868,1579,1579,1579,1579,0,0,0,0,0,0,0,0,0,0
1706424789.00048089,86228828,1581,1580,1580,1580,0,0,0,0,0,0,0,0,0,0
1706424789.10044098,86328788,1582,1581,1581,1581,0,0,0,0,0,0,0,0,0,0
1706424789.20040083,86428748,1581,1582,1587,1573,0,0,0,0,0,0,0,0,0,0
1706424789.30036092,86528708,1581,1583,1586,1572,0,0,0,0,0,0,0,0,0,0
1706424789.40032101,86628668,1579,1583,1577,1573,0,0,0,0,0,0,0,0,0,0
1706424789.50028086,86728628,1578,1581,1568,1572,0,0,0,0,0,0,0,0,0,0
1706424789.60024095,86828588,1578,1580,1561,1568,0,0,0,0,0,0,0,0,0,0
1706424789.70020103,86928548,1578,1579,1557,1564,0,0,0,0,0,0,0,0,0,0
1706424789.80016088,87028508,1580,1579,1556,1560,0,0,0,0,0,0,0,0,0,0
1706424789.90012097,87128468,1581,1579,1556,1556,0,0,0,0,0,0,0,0,0,0
1706424790.00008082,87228428,1580,1579,1556,1554,0,0,0,0,0,0,0,0,0,0
1706424790.10004091,87328388,1579,1579,1556,1554,0,0,0,0,0,0,0,0,0,0
1706424790.20000100,87428348,1578,1578,1556,1554,0,0,0,0,0,0,0,0,0,0
1706424790.29996085,87528308,1576,1577,1555,1554,0,0,0,0,0,0,0,0,0,0
1706424790.39992094,87628268,1575,1577,1555,1554,0,0,0,0,0,0,0,0,0,0
1706424790.49988103,87728228,1576,1577,1555,1554,0,0,0,0,0,0,0,0,0,0
1706424790.59984088,87828188,1575,1577,1552,1553,0,0,0,0,0,0,0,0,0,0
1706424790.70063400,87928981,1577,1577,1551,1551,0,0,0,0,0,0,0,0,0,0
1706424790.80059385,88028941,1577,1579,1548,1548,0,0,0,0,0,0,0,0,0,0
1706424790.90055394,88128901,1579,1580,1546,1546,0,0,0,0,0,0,0,0,0,0
1706424791.00051403,88228861,1582,1583,1544,1543,0,0,0,0,0,0,0,0,0,0
1706424791.10047388,88328821,1585,1585,1541,1541,0,0,0,0,0,0,0,0,0,0
1706424791.20043397,88428781,1587,1588,1539,1538,0,0,0,0,0,0,0,0,0,0
1706424791.30039382,88528741,1591,1590,1538,1538,0,0,0,0,0,0,0,0,0,0
1706424791.40035391,88628701,1592,1592,1537,1538,0,0,0,0,0,0,0,0,0,0
1706424791.50031400,88728661,1593,1594,1537,1539,0,0,0,0,0,0,0,0,0,0
1706424791.60027385,88828621,1592,1592,1536,1539,0,0,0,0,0,0,0,0,0,0
1706424791.70023394,88928581,1591,1591,1541,1543,0,0,0,0,0,0,0,0,0,0
1706424791.80019403,89028541,1588,1586,1545,1548,0,0,0,0,0,0,0,0,0,0
1706424791.90015388,89128501,1583,1579,1553,1556,0,0,0,0,0,0,0,0,0,0
1706424792.00011396,89228461,1575,1572,1563,1566,0,0,0,0,0,0,0,0,0,0
1706424792.10007405,89328421,1566,1562,1575,1577,0,0,0,0,0,0,0,0,0,0
1706424792.20003390,89428381,1556,1552,1587,1588,0,0,0,0,0,0,0,0,0,0
1706424792.29999399,89528341,1546,1544,1598,1599,0,0,0,0,0,0,0,0,0,0
1706424792.39995384,89628301,1539,1538,1607,1606,0,0,0,0,0,0,0,0,0,0
1706424792.49991393,89728261,1534,1535,1612,1611,0,0,0,0,0,0,0,0,0,0
1706424792.59987402,89828221,1532,1534,1613,1612,0,0,0,0,0,0,0,0,0,0
1706424792.69983387,89928181,1535,1537,1612,1612,0,0,0,0,0,0,0,0,0,0
1706424792.80062699,90028974,1540,1542,1608,1608,0,0,0,0,0,0,0,0,0,0
1706424792.90058684,90128934,1547,1548,1602,1602,0,0,0,0,0,0,0,0,0,0
1706424793.00054693,90228894,1555,1556,1596,1595,0,0,0,0,0,0,0,0,0,0
1706424793.10050702,90328854,1564,1565,1589,1589,0,0,0,0,0,0,0,0,0,0
1706424793.20046687,90428814,1572,1572,1583,1582,0,0,0,0,0,0,0,0,0,0
1706424793.30042696,90528774,1578,1577,1576,1575,0,0,0,0,0,0,0,0,0,0
1706424793.40038705,90628734,1583,1581,1571,1571,0,0,0,0,0,0,0,0,0,0
1706424793.50034690,90728694,1586,1584,1568,1568,0,0,0,0,0,0,0,0,0,0
1706424793.60030699,90828654,1587,1585,1567,1568,0,0,0,0,0,0,0,0,0,0
1706424793.70026684,90928614,1587,1586,1568,1568,0,0,0,0,0,0,0,0,0,0
1706424793.80022693,91028574,1585,1584,1569,1569,0,0,0,0,0,0,0,0,0,0
1706424793.90018702,91128534,1582,1582,1570,1571,0,0,0,0,0,0,0,0,0,0
1706424794.00014687,91228494,1580,1580,1573,1574,0,0,0,0,0,0,0,0,0,0
1706424794.10010695,91328454,1577,1577,1575,1576,0,0,0,0,0,0,0,0,0,0
1706424794.20006704,91428414,1576,1576,1579,1579,0,0,0,0,0,0,0,0,0,0
1706424794.30002689,91528374,1574,1574,1581,1581,0,0,0,0,0,0,0,0,0,0
1706424794.39998698,91628334,1573,1573,1583,1582,0,0,0,0,0,0,0,0,0,0
1706424794.49994683,91728294,1573,1574,1584,1584,0,0,0,0,0,0,0,0,0,0
1706424794.59990692,91828254,1573,1574,1584,1584,0,0,0,0,0,0,0,0,0,0
1706424794.69986701,91928214,1574,1574,1583,1583,0,0,0,0,0,0,0,0,0,0
1706424794.79982686,92028174,1575,1575,1582,1582,0,0,0,0,0,0,0,0,0,0
1706424794.90061998,92128967,1576,1577,1582,1582,0,0,0,0,0,0,0,0,0,0
1706424795.00057983,92228927,1578,1579,1581,1581,0,0,0,0,0,0,0,0,0,0
1706424795.10053992,92328887,1578,1579,1579,1579,0,0,0,0,0,0,0,0,0,0
1706424795.20050001,92428847,1580,1580,1579,1579,0,0,0,0,0,0,0,0,0,0
1706424795.30045986,92528807,1581,1580,1578,1577,0,0,0,0,0,0,0,0,0,0
1706424795.40041995,92628767,1581,1580,1577,1577,0,0,0,0,0,0,0,0,0,0
1706424795.50038004,92728727,1581,1580,1576,1577,0,0,0,0,0,0,0,0,0,0
1706424795.60033989,92828687,1580,1580,1576,1577,0,0,0,0,0,0,0,0,0,0
1706424795.70029998,92928647,1581,1581,1577,1577,0,0,0,0,0,0,0,0,0,0
1706424795.80025983,93028607,1580,1581,1578,1578,0,0,0,0,0,0,0,0,0,0
1706424795.90021992,93128567,1580,1580,1578,1578,0,0,0,0,0,0,0,0,0,0
1706424796.00018001,93228527,1579,1579,1578,1579,0,0,0,0,0,0,0,0,0,0
1706424796.10013986,93328487,1579,1579,1579,1580,0,0,0,0,0,0,0,0,0,0
1706424796.20009995,93428447,1580,1580,1581,1581,0,0,0,0,0,0,0,0,0,0
1706424796.30006003,93528407,1579,1579,1581,1581,0,0,0,0,0,0,0,0,0,0
1706424796.40001988,93628367,1579,1579,1581,1581,0,0,0,0,0,0,0,0,0,0
1706424796.49997997,93728327,1580,1579,1581,1581,0,0,0,0,0,0,0,0,0,0
1706424796.59993982,93828287,1579,1580,1581,1581,0,0,0,0,0,0,0,0,0,0
1706424796.69989991,93928247,1579,1580,1581,1581,0,0,0,0,0,0,0,0,0,0
1706424796.79986000,94028207,1580,1580,1581,1581,0,0,0,0,0,0,0,0,0,0
1706424796.89981985,94128167,1580,1580,1581,1581,0,0,0,0,0,0,0,0,0,0
1706424797.00061297,94228960,1580,1580,1580,1580,0,0,0,0,0,0,0,0,0,0
1706424797.10057282,94328920,1581,1580,1581,1578,0,0,0,0,0,0,0,0,0,0
1706424797.20053291,94428880,1582,1582,1588,1573,0,0,0,0,0,0,0,0,0,0
1706424797.30049300,94528840,1580,1580,1583,1573,0,0,0,0,0,0,0,0,0,0
1706424797.40045285,94628800,1578,1578,1576,1575,0,0,0,0,0,0,0,0,0,0
1706424797.50041294,94728760,1574,1573,1569,1575,0,0,0,0,0,0,0,0,0,0
1706424797.60037303,94828720,1571,1572,1566,1574,0,0,0,0,0,0,0,0,0,0
1706424797.70033288,94928680,1569,1569,1565,1571,0,0,0,0,0,0,0,0,0,0
1706424797.80029297,95028640,1568,1567,1566,1568,0,0,0,0,0,0,0,0,0,0
1706424797.90025282,95128600,1567,1567,1567,1567,0,0,0,0,0,0,0,0,0,0
1706424798.00021291,95228560,1566,1566,1567,1565,0,0,0,0,0,0,0,0,0,0
1706424798.10017300,95328520,1565,1565,1566,1564,0,0,0,0,0,0,0,0,0,0
1706424798.20013285,95428480,1564,1565,1566,1565,0,0,0,0,0,0,0,0,0,0
1706424798.30009294,95528440,1563,1563,1564,1564,0,0,0,0,0,0,0,0,0,0
1706424798.40005302,95628400,1563,1563,1564,1564,0,0,0,0,0,0,0,0,0,0
1706424798.50001287,95728360,1563,1563,1564,1564,0,0,0,0,0,0,0,0,0,0
1706424798.59997296,95828320,1562,1562,1562,1562,0,0,0,0,0,0,0,0,0,0
1706424798.69993305,95928280,1562,1562,1562,1562,0,0,0,0,0,0,0,0,0,0
1706424798.79989290,96028240,1561,1561,1562,1561,0,0,0,0,0,0,0,0,0,0
1706424798.89985299,96128200,1561,1560,1561,1560,0,0,0,0,0,0,0,0,0,0
1706424798.99981284,96228160,1561,1561,1561,1560,0,0,0,0,0,0,0,0,0,0
1706424799.10060596,96328953,1560,1560,1560,1559,0,0,0,0,0,0,0,0,0,0
1706424799.20056605,96428913,1559,1559,1559,1558,0,0,0,0,0,0,0,0,0,0
1706424799.30052590,96528873,1558,1558,1558,1557,0,0,0,0,0,0,0,0,0,0
1706424799.40048599,96628833,1557,1558,1558,1557,0,0,0,0,0,0,0,0,0,0
1706424799.50044584,96728793,1557,1557,1557,1557,0,0,0,0,0,0,0,0,0,0
1706424799.60040593,96828753,1557,1557,1558,1556,0,0,0,0,0,0,0,0,0,0
1706424799.70036602,96928713,1558,1558,1558,1557,0,0,0,0,0,0,0,0,0,0
1706424799.80032587,97028673,1558,1558,1559,1557,0,0,0,0,0,0,0,0,0,0
1706424799.90028596,97128633,1559,1558,1559,1557,0,0,0,0,0,0,0,0,0,0
1706424800.00024605,97228593,1560,1559,1559,1560,0,0,0,0,0,0,0,0,0,0
1706424800.10020590,97328553,1560,1560,1557,1563,0,0,0,0,0,0,0,0,0,0
1706424800.20016599,97428513,1560,1560,1557,1563,0,0,0,0,0,0,0,0,0,0
1706424800.30012584,97528473,1561,1561,1558,1564,0,0,0,0,0,0,0,0,0,0
1706424800.40008593,97628433,1561,1561,1560,1563,0,0,0,0,0,0,0,0,0,0
1706424800.50004601,97728393,1562,1562,1562,1562,0,0,0,0,0,0,0,0,0,0
1706424800.60000587,97828353,1561,1561,1563,1559,0,0,0,0,0,0,0,0,0,0
1706424800.69996595,97928313,1560,1560,1559,1561,0,0,0,0,0,0,0,0,0,0
1706424800.79992604,98028273,1557,1557,1556,1558,0,0,0,0,0,0,0,0,0,0
1706424800.89988589,98128233,1554,1554,1552,1555,0,0,0,0,0,0,0,0,0,0
1706424800.99984598,98228193,1549,1548,1548,1549,0,0,0,0,0,0,0,0,0,0
1706424801.10063887,98328986,1542,1542,1542,1542,0,0,0,0,0,0,0,0,0,0
1706424801.20059896,98428946,1535,1535,1535,1535,0,0,0,0,0,0,0,0,0,0
1706424801.30055904,98528906,1528,1528,1529,1528,0,0,0,0,0,0,0,0,0,0
1706424801.40051889,98628866,1522,1522,1523,1522,0,0,0,0,0,0,0,0,0,0
1706424801.50047898,98728826,1519,1520,1520,1519,0,0,0,0,0,0,0,0,0,0
1706424801.60043883,98828786,1519,1519,1519,1519,0,0,0,0,0,0,0,0,0,0
1706424801.70039892,98928746,1522,1521,1522,1522,0,0,0,0,0,0,0,0,0,0
1706424801.80035901,99028706,1524,1524,1525,1525,0,0,0,0,0,0,0,0,0,0
1706424801.90031886,99128666,1528,1528,1528,1529,0,0,0,0,0,0,0,0,0,0
1706424802.00027895,99228626,1532,1532,1532,1533,0,0,0,0,0,0,0,0,0,0
1706424802.10023904,99328586,1538,1537,1538,1538,0,0,0,0,0,0,0,0,0,0
1706424802.20019889,99428546,1541,1541,1541,1541,0,0,0,0,0,0,0,0,0,0
1706424802.30015898,99528506,1542,1542,1542,1542,0,0,0,0,0,0,0,0,0,0
1706424802.40011883,99628466,1543,1543,1544,1543,0,0,0,0,0,0,0,0,0,0
1706424802.50007892,99728426,1545,1544,1544,1544,0,0,0,0,0,0,0,0,0,0
1706424802.60003901,99828386,1546,1546,1546,1546,0,0,0,0,0,0,0,0,0,0
1706424802.69999886,99928346,1546,1546,1546,1546,0,0,0,0,0,0,0,0,0,0
1706424802.79995894,100028306,1546,1547,1546,1546,0,0,0,0,0,0,0,0,0,0
1706424802.89991903,100128266,1547,1547,1547,1546,0,0,0,0,0,0,0,0,0,0
1706424802.99987888,100228226,1547,1547,1547,1546,0,0,0,0,0,0,0,0,0,0
1706424803.09983897,100328186,1547,1546,1546,1547,0,0,0,0,0,0,0,0,0,0
1706424803.20063186,100428979,1546,1546,1546,1546,0,0,0,0,0,0,0,0,0,0
1706424803.30059195,100528939,1546,1546,1546,1546,0,0,0,0,0,0,0,0,0,0
1706424803.40055203,100628899,1545,1545,1545,1545,0,0,0,0,0,0,0,0,0,0
1706424803.50051188,100728859,1545,1545,1545,1544,0,0,0,0,0,0,0,0,0,0
1706424803.60047197,100828819,1544,1545,1545,1545,0,0,0,0,0,0,0,0,0,0
1706424803.70043182,100928779,1544,1544,1544,1544,0,0,0,0,0,0,0,0,0,0
1706424803.80039191,101028739,1545,1545,1545,1545,0,0,0,0,0,0,0,0,0,0
1706424803.90035200,101128699,1545,1545,1545,1545,0,0,0,0,0,0,0,0,0,0
1706424804.00031185,101228659,1544,1544,1544,1544,0,0,0,0,0,0,0,0,0,0
1706424804.10027194,101328619,1543,1543,1543,1543,0,0,0,0,0,0,0,0,0,0
1706424804.20023203,101428579,1544,1544,1544,1544,0,0,0,0,0,0,0,0,0,0
1706424804.30019188,101528539,1545,1545,1545,1545,0,0,0,0,0,0,0,0,0,0
1706424804.40015197,101628499,1544,1544,1544,1544,0,0,0,0,0,0,0,0,0,0
1706424804.50011182,101728459,1545,1544,1544,1544,0,0,0,0,0,0,0,0,0,0
1706424804.60007191,101828419,1543,1543,1543,1543,0,0,0,0,0,0,0,0,0,0
1706424804.70003200,101928379,1543,1543,1543,1543,0,0,0,0,0,0,0,0,0,0
1706424804.79999185,102028339,1543,1543,1543,1543,0,0,0,0,0,0,0,0,0,0
1706424804.89995193,102128299,1544,1544,1544,1544,0,0,0,0,0,0,0,0,0,0
1706424804.99991202,102228259,1543,1543,1544,1543,0,0,0,0,0,0,0,0,0,0
1706424805.09987187,102328219,1544,1543,1544,1544,0,0,0,0,0,0,0,0,0,0
1706424805.19983196,102428179,1544,1544,1545,1544,0,0,0,0,0,0,0,0,0,0
1706424805.30062485,102528972,1544,1544,1544,1544,0,0,0,0,0,0,0,0,0,0
1706424805.40058494,102628932,1543,1544,1543,1544,0,0,0,0,0,0,0,0,0,0
1706424805.50054502,102728892,1544,1544,1544,1544,0,0,0,0,0,0,0,0,0,0
1706424805.60050488,102828852,1544,1545,1544,1544,0,0,0,0,0,0,0,0,0,0
1706424805.70046496,102928812,1544,1543,1543,1544,0,0,0,0,0,0,0,0,0,0
1706424805.80042505,103028772,1543,1544,1544,1543,0,0,0,0,0,0,0,0,0,0
1706424805.90038490,103128732,1544,1543,1544,1544,0,0,0,0,0,0,0,0,0,0
1706424806.00034499,103228692,1543,1544,1543,1544,0,0,0,0,0,0,0,0,0,0
1706424806.10030484,103328652,1544,1544,1544,1544,0,0,0,0,0,0,0,0,0,0
1706424806.20026493,103428612,1543,1543,1543,1543,0,0,0,0,0,0,0,0,0,0
1706424806.30022502,103528572,1544,1543,1544,1544,0,0,0,0,0,0,0,0,0,0
1706424806.40018487,103628532,1545,1544,1544,1544,0,0,0,0,0,0,0,0,0,0
1706424806.50014496,103728492,1544,1543,1544,1543,0,0,0,0,0,0,0,0,0,0
1706424806.60010505,103828452,1545,1544,1544,1544,0,0,0,0,0,0,0,0,0,0
1706424806.70006490,103928412,1545,1545,1544,1545,0,0,0,0,0,0,0,0,0,0
1706424806.80002499,104028372,1544,1545,1545,1544,0,0,0,0,0,0,0,0,0,0
1706424806.89998484,104128332,1544,1544,1543,1544,0,0,0,0,0,0,0,0,0,0
1706424806.99994493,104228292,1545,1544,1544,1544,0,0,0,0,0,0,0,0,0,0
1706424807.09990501,104328252,1544,1544,1544,1544,0,0,0,0,0,0,0,0,0,0
1706424807.19986486,104428212,1545,1546,1545,1545,0,0,0,0,0,0,0,0,0,0
1706424807.29982495,104528172,1546,1545,1546,1545,0,0,0,0,0,0,0,0,0,0
1706424807.40061784,104628965,1545,1545,1545,1545,0,0,0,0,0,0,0,0,0,0
1706424807.50057793,104728925,1544,1544,1544,1545,0,0,0,0,0,0,0,0,0,0
1706424807.60053802,104828885,1545,1545,1545,1545,0,0,0,0,0,0,0,0,0,0
1706424807.70049787,104928845,1546,1545,1546,1545,0,0,0,0,0,0,0,0,0,0
1706424807.80045795,105028805,1545,1545,1545,1545,0,0,0,0,0,0,0,0,0,0
1706424807.90041804,105128765,1545,1545,1545,1545,0,0,0,0,0,0,0,0,0,0
1706424808.00037789,105228725,1545,1545,1545,1545,0,0,0,0,0,0,0,0,0,0
1706424808.10033798,105328685,1544,1544,1543,1544,0,0,0,0,0,0,0,0,0,0
1706424808.20029783,105428645,1544,1544,1544,1544,0,0,0,0,0,0,0,0,0,0
1706424808.30025792,105528605,1544,1544,1544,1544,0,0,0,0,0,0,0,0,0,0
1706424808.40021801,105628565,1544,1544,1544,1544,0,0,0,0,0,0,0,0,0,0
1706424808.50017786,105728525,1545,1545,1545,1545,0,0,0,0,0,0,0,0,0,0
1706424808.60013795,105828485,1544,1544,1544,1544,0,0,0,0,0,0,0,0,0,0
1706424808.70009804,105928445,1545,1545,1545,1545,0,0,0,0,0,0,0,0,0,0
1706424808.80005789,106028405,1545,1545,1545,1545,0,0,0,0,0,0,0,0,0,0
1706424808.90001798,106128365,1545,1544,1544,1544,0,0,0,0,0,0,0,0,0,0
1706424808.99997783,106228325,1544,1544,1544,1544,0,0,0,0,0,0,0,0,0,0
1706424809.09993792,106328285,1544,1544,1544,1544,0,0,0,0,0,0,0,0,0,0
1706424809.19989800,106428245,1544,1545,1544,1544,0,0,0,0,0,0,0,0,0,0
1706424809.29985785,106528205,1545,1545,1545,1545,0,0,0,0,0,0,0,0,0,0
1706424809.39981794,106628165,1544,1544,1544,1544,0,0,0,0,0,0,0,0,0,0
1706424809.50061083,106728958,1544,1544,1544,1544,0,0,0,0,0,0,0,0,0,0
1706424809.60057092,106828918,1545,1545,1545,1544,0,0,0,0,0,0,0,0,0,0
1706424809.70053101,106928878,1545,1544,1544,1545,0,0,0,0,0,0,0,0,0,0
1706424809.80049086,107028838,1544,1544,1543,1544,0,0,0,0,0,0,0,0,0,0
1706424809.90045094,107128798,1544,1544,1544,1544,0,0,0,0,0,0,0,0,0,0
1706424810.00041103,107228758,1544,1544,1545,1544,0,0,0,0,0,0,0,0,0,0
1706424810.10037088,107328718,1544,1544,1544,1544,0,0,0,0,0,0,0,0,0,0
1706424810.20033097,107428678,1545,1545,1545,1545,0,0,0,0,0,0,0,0,0,0
1706424810.30029082,107528638,1544,1543,1543,1544,0,0,0,0,0,0,0,0,0,0
1706424810.40025091,107628598,1544,1544,1544,1544,0,0,0,0,0,0,0,0,0,0
1706424810.50021100,107728558,1545,1545,1545,1545,0,0,0,0,0,0,0,0,0,0
1706424810.60017085,107828518,1544,1544,1544,1544,0,0,0,0,0,0,0,0,0,0
1706424810.70013094,107928478,1544,1544,1544,1544,0,0,0,0,0,0,0,0,0,0
1706424810.80009103,108028438,1544,1544,1544,1544,0,0,0,0,0,0,0,0,0,0
1706424810.90005088,108128398,1544,1543,1544,1543,0,0,0,0,0,0,0,0,0,0
1706424811.00001097,108228358,1545,1545,1545,1544,0,0,0,0,0,0,0,0,0,0
1706424811.09997106,108328318,1543,1544,1544,1543,0,0,0,0,0,0,0,0,0,0
1706424811.19993091,108428278,1366,1361,1362,1361,0,0,0,0,0,0,0,0,0,0
1706424811.29989100,108528238,1262,1252,1253,1253,0,0,0,0,0,0,0,0,0,0
1706424811.39985085,108628198,1227,1217,1218,1217,0,0,0,0,0,0,0,0,0,0
1706424811.49981093,108728158,1207,1195,1196,1196,0,0,0,0,0,0,0,0,0,0
1706424811.60060382,108828951,1164,1150,1151,1150,0,0,0,0,0,0,0,0,0,0
1706424811.70056391,108928911,1165,1150,1151,1150,0,0,0,0,0,0,0,0,0,0
1706424811.80052400,109028871,1164,1150,1151,1150,0,0,0,0,0,0,0,0,0,0
1706424811.90048385,109128831,1197,1150,1150,1187,0,0,0,0,0,0,0,0,0,0
1706424812.00044394,109228791,1186,1150,1150,1174,0,0,0,0,0,0,0,0,0,0
1706424812.10040402,109328751,1184,1150,1151,1171,0,0,0,0,0,0,0,0,0,0
1706424812.20036387,109428711,1184,1150,1151,1171,0,0,0,0,0,0,0,0,0,0
1706424812.30032396,109528671,1186,1150,1151,1174,0,0,0,0,0,0,0,0,0,0
1706424812.40028405,109628631,1188,1150,1151,1175,0,0,0,0,0,0,0,0,0,0
1706424812.50024390,109728591,1190,1150,1151,1178,0,0,0,0,0,0,0,0,0,0
1706424812.60020399,109828551,1191,1150,1151,1179,0,0,0,0,0,0,0,0,0,0
1706424812.70016384,109928511,1178,1150,1151,1165,0,0,0,0,0,0,0,0,0,0
1706424812.80012393,110028471,1179,1150,1151,1166,0,0,0,0,0,0,0,0,0,0
1706424812.90008402,110128431,1180,1150,1151,1167,0,0,0,0,0,0,0,0,0,0
1706424813.00004387,110228391,1180,1150,1151,1168,0,0,0,0,0,0,0,0,0,0
1706424813.10000396,110328351,1181,1150,1151,1169,0,0,0,0,0,0,0,0,0,0
1706424813.19996405,110428311,1000,1000,1000,1000,0,0,0,0,0,0,0,0,0,0
1706424813.29992390,110528271,1000,1000,1000,1000,0,0,0,0,0,0,0,0,0,0
1706424813.39988399,110628231,1000,1000,1000,1000,0,0,0,0,0,0,0,0,0,0
1706424813.49984384,110728191,1000,1000,1000,1000,0,0,0,0,0,0,0,0,0,0
1706424813.60063696,110828984,1000,1000,1000,1000,0,0,0,0,0,0,0,0,0,0
1706424813.70059705,110928944,1000,1000,1000,1000,0,0,0,0,0,0,0,0,0,0
1706424813.80055690,111028904,1000,1000,1000,1000,0,0,0,0,0,0,0,0,0,0
1706424813.90051699,111128864,1000,1000,1000,1000,0,0,0,0,0,0,0,0,0,0
1706424814.00047684,111228824,1000,1000,1000,1000,0,0,0,0,0,0,0,0,0,0
1706424814.10043693,111328784,1000,1000,1000,1000,0,0,0,0,0,0,0,0,0,0
1706424814.20039701,111428744,1000,1000,1000,1000,0,0,0,0,0,0,0,0,0,0
1706424814.30035686,111528704,1000,1000,1000,1000,0,0,0,0,0,0,0,0,0,0
1706424814.40031695,111628664,1000,1000,1000,1000,0,0,0,0,0,0,0,0,0,0
1706424814.50027704,111728624,1000,1000,1000,1000,0,0,0,0,0,0,0,0,0,0
1706424814.60023689,111828584,1000,1000,1000,1000,0,0,0,0,0,0,0,0,0,0
1706424814.70019698,111928544,1000,1000,1000,1000,0,0,0,0,0,0,0,0,0,0
1706424814.80015683,112028504,1000,1000,1000,1000,0,0,0,0,0,0,0,0,0,0
1706424814.90011692,112128464,1000,1000,1000,1000,0,0,0,0,0,0,0,0,0,0
1706424815.00007701,112228424,1000,1000,1000,1000,0,0,0,0,0,0,0,0,0,0
1706424815.10003686,112328384,1000,1000,1000,1000,0,0,0,0,0,0,0,0,0,0
1706424815.19999695,112428344,1000,1000,1000,1000,0,0,0,0,0,0,0,0,0,0
1706424815.29995704,112528304,1000,1000,1000,1000,0,0,0,0,0,0,0,0,0,0
1706424815.39991689,112628264,1000,1000,1000,1000,0,0,0,0,0,0,0,0,0,0
1706424815.49987698,112728224,1000,1000,1000,1000,0,0,0,0,0,0,0,0,0,0
1706424815.59983683,112828184,1000,1000,1000,1000,0,0,0,0,0,0,0,0,0,0
1706424815.70062995,112928977,1000,1000,1000,1000,0,0,0,0,0,0,0,0,0,0
1706424815.80059004,113028937,1000,1000,1000,1000,0,0,0,0,0,0,0,0,0,0
1706424815.90054989,113128897,1000,1000,1000,1000,0,0,0,0,0,0,0,0,0,0
1706424816.00050998,113228857,1000,1000,1000,1000,0,0,0,0,0,0,0,0,0,0
1706424816.10046983,113328817,1000,1000,1000,1000,0,0,0,0,0,0,0,0,0,0
1706424816.20042992,113428777,1000,1000,1000,1000,0,0,0,0,0,0,0,0,0,0
1706424816.30039001,113528737,1000,1000,1000,1000,0,0,0,0,0,0,0,0,0,0
1706424816.40034986,113628697,1000,1000,1000,1000,0,0,0,0,0,0,0,0,0,0
1706424816.50030994,113728657,1000,1000,1000,1000,0,0,0,0,0,0,0,0,0,0
1706424816.60027003,113828617,1000,1000,1000,1000,0,0,0,0,0,0,0,0,0,0
1706424816.70022988,113928577,1000,1000,1000,1000,0,0,0,0,0,0,0,0,0,0
1706424816.80018997,114028537,1000,1000,1000,1000,0,0,0,0,0,0,0,0,0,0
1706424816.90014982,114128497,1000,1000,1000,1000,0,0,0,0,0,0,0,0,0,0
1706424817.00010991,114228457,1000,1000,1000,1000,0,0,0,0,0,0,0,0,0,0
1706424817.10007000,114328417,1000,1000,1000,1000,0,0,0,0,0,0,0,0,0,0
1706424817.20002985,114428377,1000,1000,1000,1000,0,0,0,0,0,0,0,0,0,0
1706424817.29998994,114528337,1000,1000,1000,1000,0,0,0,0,0,0,0,0,0,0
1706424817.39995003,114628297,1000,1000,1000,1000,0,0,0,0,0,0,0,0,0,0
1706424817.49990988,114728257,1000,1000,1000,1000,0,0,0,0,0,0,0,0,0,0
1706424817.59986997,114828217,1000,1000,1000,1000,0,0,0,0,0,0,0,0,0,0
1706424817.69983006,114928177,1000,1000,1000,1000,0,0,0,0,0,0,0,0,0,0
1706424817.80062294,115028970,1000,1000,1000,1000,0,0,0,0,0,0,0,0,0,0
1706424817.90058303,115128930,1000,1000,1000,1000,0,0,0,0,0,0,0,0,0,0
1706424818.00054288,115228890,1000,1000,1000,1000,0,0,0,0,0,0,0,0,0,0
1706424818.10050297,115328850,1000,1000,1000,1000,0,0,0,0,0,0,0,0,0,0
1706424818.20046282,115428810,1000,1000,1000,1000,0,0,0,0,0,0,0,0,0,0
1706424818.30042291,115528770,1000,1000,1000,1000,0,0,0,0,0,0,0,0,0,0
1706424818.40038300,115628730,1000,1000,1000,1000,0,0,0,0,0,0,0,0,0,0
1706424818.50034285,115728690,1000,1000,1000,1000,0,0,0,0,0,0,0,0,0,0
1706424818.60030293,115828650,1000,1000,1000,1000,0,0,0,0,0,0,0,0,0,0
1706424818.70026302,115928610,1000,1000,1000,1000,0,0,0,0,0,0,0,0,0,0
1706424818.80022287,116028570,1000,1000,1000,1000,0,0,0,0,0,0,0,0,0,0
1706424818.90018296,116128530,1000,1000,1000,1000,0,0,0,0,0,0,0,0,0,0
1706424819.00014305,116228490,1000,1000,1000,1000,0,0,0,0,0,0,0,0,0,0
1706424819.10010290,116328450,1000,1000,1000,1000,0,0,0,0,0,0,0,0,0,0
1706424819.20006299,116428410,1000,1000,1000,1000,0,0,0,0,0,0,0,0,0,0
1706424819.30002284,116528370,1000,1000,1000,1000,0,0,0,0,0,0,0,0,0,0
1706424819.39998293,116628330,1000,1000,1000,1000,0,0,0,0,0,0,0,0,0,0
1706424819.49994302,116728290,1000,1000,1000,1000,0,0,0,0,0,0,0,0,0,0
1706424819.59990287,116828250,1000,1000,1000,1000,0,0,0,0,0,0,0,0,0,0
1706424819.69986296,116928210,1000,1000,1000,1000,0,0,0,0,0,0,0,0,0,0
1706424819.79982305,117028170,1000,1000,1000,1000,0,0,0,0,0,0,0,0,0,0
1706424819.90061593,117128963,1000,1000,1000,1000,0,0,0,0,0,0,0,0,0,0
1706424820.00057602,117228923,1000,1000,1000,1000,0,0,0,0,0,0,0,0,0,0
1706424820.10053587,117328883,1000,1000,1000,1000,0,0,0,0,0,0,0,0,0,0
1706424820.20049596,117428843,1000,1000,1000,1000,0,0,0,0,0,0,0,0,0,0
1706424820.30045605,117528803,1000,1000,1000,1000,0,0,0,0,0,0,0,0,0,0
1706424820.40041590,117628763,1000,1000,1000,1000,0,0,0,0,0,0,0,0,0,0
1706424820.50037599,117728723,1000,1000,1000,1000,0,0,0,0,0,0,0,0,0,0
1706424820.60033584,117828683,1000,1000,1000,1000,0,0,0,0,0,0,0,0,0,0
1706424820.70029593,117928643,1000,1000,1000,1000,0,0,0,0,0,0,0,0,0,0
1706424820.80025601,118028603,1000,1000,1000,1000,0,0,0,0,0,0,0,0,0,0
1706424820.90021586,118128563,1000,1000,1000,1000,0,0,0,0,0,0,0,0,0,0
1706424821.00017595,118228523,1000,1000,1000,1000,0,0,0,0,0,0,0,0,0,0
1706424821.10013604,118328483,1000,1000,1000,1000,0,0,0,0,0,0,0,0,0,0
1706424821.20009589,118428443,1000,1000,1000,1000,0,0,0,0,0,0,0,0,0,0
1706424821.30005598,118528403,1000,1000,1000,1000,0,0,0,0,0,0,0,0,0,0
1706424821.40001583,118628363,1000,1000,1000,1000,0,0,0,0,0,0,0,0,0,0
1706424821.49997592,118728323,1000,1000,1000,1000,0,0,0,0,0,0,0,0,0,0
1706424821.59993601,118828283,1000,1000,1000,1000,0,0,0,0,0,0,0,0,0,0
1706424821.69989586,118928243,1000,1000,1000,1000,0,0,0,0,0,0,0,0,0,0
1706424821.79985595,119028203,1000,1000,1000,1000,0,0,0,0,0,0,0,0,0,0
1706424821.89981604,119128163,1000,1000,1000,1000,0,0,0,0,0,0,0,0,0,0
1706424822.00060892,119228956,1000,1000,1000,1000,0,0,0,0,0,0,0,0,0,0
1706424822.10056901,119328916,1000,1000,1000,1000,0,0,0,0,0,0,0,0,0,0
1706424822.20052886,119428876,1000,1000,1000,1000,0,0,0,0,0,0,0,0,0,0
1706424822.30048895,119528836,1000,1000,1000,1000,0,0,0,0,0,0,0,0,0,0
1706424822.40044904,119628796,1000,1000,1000,1000,0,0,0,0,0,0,0,0,0,0
1706424822.50040889,119728756,1000,1000,1000,1000,0,0,0,0,0,0,0,0,0,0
1706424822.60036898,119828716,1000,1000,1000,1000,0,0,0,0,0,0,0,0,0,0
1706424822.70032883,119928676,1000,1000,1000,1000,0,0,0,0,0,0,0,0,0,0
1706424822.80028892,120028636,1000,1000,1000,1000,0,0,0,0,0,0,0,0,0,0
1706424822.90024900,120128596,1000,1000,1000,1000,0,0,0,0,0,0,0,0,0,0
1706424823.00020885,120228556,1000,1000,1000,1000,0,0,0,0,0,0,0,0,0,0
1706424823.10016894,120328516,1000,1000,1000,1000,0,0,0,0,0,0,0,0,0,0
1706424823.20012903,120428476,1000,1000,1000,1000,0,0,0,0,0,0,0,0,0,0
1706424823.30008888,120528436,1000,1000,1000,1000,0,0,0,0,0,0,0,0,0,0
1706424823.40004897,120628396,1000,1000,1000,1000,0,0,0,0,0,0,0,0,0,0
1706424823.50000882,120728356,1000,1000,1000,1000,0,0,0,0,0,0,0,0,0,0
1706424823.59996891,120828316,1000,1000,1000,1000,0,0,0,0,0,0,0,0,0,0
1706424823.69992900,120928276,1000,1000,1000,1000,0,0,0,0,0,0,0,0,0,0
1706424823.79988885,121028236,1000,1000,1000,1000,0,0,0,0,0,0,0,0,0,0
1706424823.89984894,121128196,1000,1000,1000,1000,0,0,0,0,0,0,0,0,0,0
1706424823.99980903,121228156,1000,1000,1000,1000,0,0,0,0,0,0,0,0,0,0
1706424824.10060191,121328949,1000,1000,1000,1000,0,0,0,0,0,0,0,0,0,0
1706424824.20056200,121428909,1000,1000,1000,1000,0,0,0,0,0,0,0,0,0,0
1706424824.30052185,121528869,1000,1000,1000,1000,0,0,0,0,0,0,0,0,0,0
1706424824.40048194,121628829,1000,1000,1000,1000,0,0,0,0,0,0,0,0,0,0
1706424824.50044203,121728789,1000,1000,1000,1000,0,0,0,0,0,0,0,0,0,0
1706424824.60040188,121828749,1000,1000,1000,1000,0,0,0,0,0,0,0,0,0,0
1706424824.70036197,121928709,1000,1000,1000,1000,0,0,0,0,0,0,0,0,0,0
1706424824.80032206,122028669,1000,1000,1000,1000,0,0,0,0,0,0,0,0,0,0
1706424824.90028191,122128629,1000,1000,1000,1000,0,0,0,0,0,0,0,0,0,0
1706424825.00024199,122228589,1000,1000,1000,1000,0,0,0,0,0,0,0,0,0,0
1706424825.10020185,122328549,1000,1000,1000,1000,0,0,0,0,0,0,0,0,0,0
1706424825.20016193,122428509,1000,1000,1000,1000,0,0,0,0,0,0,0,0,0,0
1706424825.30012202,122528469,1000,1000,1000,1000,0,0,0,0,0,0,0,0,0,0
1706424825.40008187,122628429,1000,1000,1000,1000,0,0,0,0,0,0,0,0,0,0
1706424825.50004196,122728389,1000,1000,1000,1000,0,0,0,0,0,0,0,0,0,0
1706424825.60000205,122828349,1000,1000,1000,1000,0,0,0,0,0,0,0,0,0,0
1706424825.69996190,122928309,1000,1000,1000,1000,0,0,0,0,0,0,0,0,0,0
1706424825.79992199,123028269,1000,1000,1000,1000,0,0,0,0,0,0,0,0,0,0
1706424825.89988184,123128229,1000,1000,1000,1000,0,0,0,0,0,0,0,0,0,0
1706424825.99984193,123228189,1000,1000,1000,1000,0,0,0,0,0,0,0,0,0,0
1706424826.10063505,123328982,1000,1000,1000,1000,0,0,0,0,0,0,0,0,0,0
1706424826.20059490,123428942,1000,1000,1000,1000,0,0,0,0,0,0,0,0,0,0
1706424826.30055499,123528902,1000,1000,1000,1000,0,0,0,0,0,0,0,0,0,0
1706424826.40051484,123628862,1000,1000,1000,1000,0,0,0,0,0,0,0,0,0,0
1706424826.50047493,123728822,1000,1000,1000,1000,0,0,0,0,0,0,0,0,0,0
1706424826.60043502,123828782,1000,1000,1000,1000,0,0,0,0,0,0,0,0,0,0
1706424826.70039487,123928742,1000,1000,1000,1000,0,0,0,0,0,0,0,0,0,0
1706424826.80035496,124028702,1000,1000,1000,1000,0,0,0,0,0,0,0,0,0,0
1706424826.90031505,124128662,1000,1000,1000,1000,0,0,0,0,0,0,0,0,0,0
1706424827.00027490,124228622,1000,1000,1000,1000,0,0,0,0,0,0,0,0,0,0
1706424827.10023499,124328582,1000,1000,1000,1000,0,0,0,0,0,0,0,0,0,0
1706424827.20019484,124428542,1000,1000,1000,1000,0,0,0,0,0,0,0,0,0,0
1706424827.30015492,124528502,1000,1000,1000,1000,0,0,0,0,0,0,0,0,0,0
1706424827.40011501,124628462,1000,1000,1000,1000,0,0,0,0,0,0,0,0,0,0
1706424827.50007486,124728422,1000,1000,1000,1000,0,0,0,0,0,0,0,0,0,0
1706424827.60003495,124828382,1000,1000,1000,1000,0,0,0,0,0,0,0,0,0,0
1706424827.69999504,124928342,1000,1000,1000,1000,0,0,0,0,0,0,0,0,0,0
1706424827.79995489,125028302,1000,1000,1000,1000,0,0,0,0,0,0,0,0,0,0
1706424827.89991498,125128262,1000,1000,1000,1000,0,0,0,0,0,0,0,0,0,0
1706424827.99987483,125228222,1000,1000,1000,1000,0,0,0,0,0,0,0,0,0,0
1706424828.09983492,125328182,1000,1000,1000,1000,0,0,0,0,0,0,0,0,0,0
