timestamp,TimeUS,C1,C2,C3,C4,C5,C6,C7,C8,C9,C10,C11,C12,C13,C14
1706425255.00000000,56628173,1000,1000,1000,1000,0,0,0,0,0,0,0,0,0,0
1706425255.10079288,56728966,1000,1000,1000,1000,0,0,0,0,0,0,0,0,0,0
1706425255.20075297,56828926,1000,1000,1000,1000,0,0,0,0,0,0,0,0,0,0
1706425255.30071282,56928886,1000,1000,1000,1000,0,0,0,0,0,0,0,0,0,0
1706425255.40067291,57028846,1000,1000,1000,1000,0,0,0,0,0,0,0,0,0,0
1706425255.50063300,57128806,1000,1000,1000,1000,0,0,0,0,0,0,0,0,0,0
1706425255.60059285,57228766,1000,1000,1000,1000,0,0,0,0,0,0,0,0,0,0
1706425255.70055294,57328726,1000,1000,1000,1000,0,0,0,0,0,0,0,0,0,0
1706425255.80051279,57428686,1000,1000,1000,1000,0,0,0,0,0,0,0,0,0,0
1706425255.90047288,57528646,1000,1000,1000,1000,0,0,0,0,0,0,0,0,0,0
1706425256.00043297,57628606,1000,1000,1000,1000,0,0,0,0,0,0,0,0,0,0
1706425256.10039282,57728566,1000,1000,1000,1000,0,0,0,0,0,0,0,0,0,0
1706425256.20035291,57828526,1000,1000,1000,1000,0,0,0,0,0,0,0,0,0,0
1706425256.30031300,57928486,1000,1000,1000,1000,0,0,0,0,0,0,0,0,0,0
1706425256.40027285,58028446,1000,1000,1000,1000,0,0,0,0,0,0,0,0,0,0
1706425256.50023293,58128406,1000,1000,1000,1000,0,0,0,0,0,0,0,0,0,0
1706425256.60019279,58228366,1000,1000,1000,1000,0,0,0,0,0,0,0,0,0,0
1706425256.70015287,58328326,1000,1000,1000,1000,0,0,0,0,0,0,0,0,0,0
1706425256.80011296,58428286,1000,1000,1000,1000,0,0,0,0,0,0,0,0,0,0
1706425256.90007281,58528246,1000,1000,1000,1000,0,0,0,0,0,0,0,0,0,0
1706425257.00003290,58628206,1014,1014,1014,1014,0,0,0,0,0,0,0,0,0,0
1706425257.09999299,58728166,1044,1044,1044,1044,0,0,0,0,0,0,0,0,0,0
1706425257.20078588,58828959,1074,1074,1074,1074,0,0,0,0,0,0,0,0,0,0
1706425257.30074596,58928919,1104,1104,1104,1104,0,0,0,0,0,0,0,0,0,0
1706425257.40070581,59028879,1134,1134,1134,1134,0,0,0,0,0,0,0,0,0,0
1706425257.50066590,59128839,1282,1274,1275,1282,0,0,0,0,0,0,0,0,0,0
1706425257.60062599,59228799,1491,1485,1485,1491,0,0,0,0,0,0,0,0,0,0
1706425257.70058584,59328759,1653,1647,1647,1653,0,0,0,0,0,0,0,0,0,0
1706425257.80054593,59428719,1789,1784,1785,1789,0,0,0,0,0,0,0,0,0,0
1706425257.90050578,59528679,1869,1864,1864,1869,0,0,0,0,0,0,0,0,0,0
1706425258.00046587,59628639,1865,1862,1862,1865,0,0,0,0,0,0,0,0,0,0
1706425258.10042596,59728599,1745,1744,1745,1745,0,0,0,0,0,0,0,0,0,0
1706425258.20038581,59828559,1649,1651,1651,1649,0,0,0,0,0,0,0,0,0,0
1706425258.30034590,59928519,1623,1625,1625,1623,0,0,0,0,0,0,0,0,0,0
1706425258.40030599,60028479,1632,1634,1634,1633,0,0,0,0,0,0,0,0,0,0
1706425258.50026584,60128439,1643,1644,1643,1643,0,0,0,0,0,0,0,0,0,0
1706425258.60022593,60228399,1643,1643,1644,1643,0,0,0,0,0,0,0,0,0,0
1706425258.70018578,60328359,1637,1636,1636,1637,0,0,0,0,0,0,0,0,0,0
1706425258.80014586,60428319,1629,1628,1628,1629,0,0,0,0,0,0,0,0,0,0
1706425258.90010595,60528279,1624,1623,1623,1624,0,0,0,0,0,0,0,0,0,0
1706425259.00006580,60628239,1623,1621,1622,1622,0,0,0,0,0,0,0,0,0,0
1706425259.10002589,60728199,1622,1622,1621,1622,0,0,0,0,0,0,0,0,0,0
1706425259.19998598,60828159,1622,1622,1622,1622,0,0,0,0,0,0,0,0,0,0
1706425259.30077887,60928952,1623,1624,1623,1623,0,0,0,0,0,0,0,0,0,0
1706425259.40073895,61028912,1623,1623,1623,1623,0,0,0,0,0,0,0,0,0,0
1706425259.50069880,61128872,1624,1624,1624,1624,0,0,0,0,0,0,0,0,0,0
1706425259.60065889,61228832,1624,1624,1624,1624,0,0,0,0,0,0,0,0,0,0
1706425259.70061898,61328792,1625,1625,1625,1625,0,0,0,0,0,0,0,0,0,0
1706425259.80057883,61428752,1626,1626,1626,1626,0,0,0,0,0,0,0,0,0,0
1706425259.90053892,61528712,1626,1626,1625,1626,0,0,0,0,0,0,0,0,0,0
1706425260.00049877,61628672,1627,1627,1627,1627,0,0,0,0,0,0,0,0,0,0
1706425260.10045886,61728632,1629,1628,1628,1629,0,0,0,0,0,0,0,0,0,0
1706425260.20041895,61828592,1623,1626,1626,1623,0,0,0,0,0,0,0,0,0,0
1706425260.30037880,61928552,1596,1596,1597,1596,0,0,0,0,0,0,0,0,0,0
1706425260.40033889,62028512,1585,1584,1585,1585,0,0,0,0,0,0,0,0,0,0
1706425260.50029898,62128472,1575,1575,1575,1575,0,0,0,0,0,0,0,0,0,0
1706425260.60025883,62228432,1567,1567,1567,1567,0,0,0,0,0,0,0,0,0,0
1706425260.70021892,62328392,1559,1560,1559,1560,0,0,0,0,0,0,0,0,0,0
1706425260.80017900,62428352,1553,1553,1553,1553,0,0,0,0,0,0,0,0,0,0
1706425260.90013885,62528312,1548,1548,1548,1548,0,0,0,0,0,0,0,0,0,0
1706425261.00009894,62628272,1542,1542,1542,1542,0,0,0,0,0,0,0,0,0,0
1706425261.10005879,62728232,1538,1537,1537,1538,0,0,0,0,0,0,0,0,0,0
1706425261.20001888,62828192,1533,1533,1533,1533,0,0,0,0,0,0,0,0,0,0
1706425261.30081201,62928985,1530,1529,1529,1530,0,0,0,0,0,0,0,0,0,0
1706425261.40077186,63028945,1526,1526,1526,1526,0,0,0,0,0,0,0,0,0,0
1706425261.50073195,63128905,1524,1523,1523,1524,0,0,0,0,0,0,0,0,0,0
1706425261.60069180,63228865,1521,1521,1521,1521,0,0,0,0,0,0,0,0,0,0
1706425261.70065188,63328825,1518,1518,1518,1519,0,0,0,0,0,0,0,0,0,0
1706425261.80061197,63428785,1514,1514,1514,1514,0,0,0,0,0,0,0,0,0,0
1706425261.90057182,63528745,1511,1511,1511,1511,0,0,0,0,0,0,0,0,0,0
1706425262.00053191,63628705,1509,1509,1509,1509,0,0,0,0,0,0,0,0,0,0
1706425262.10049200,63728665,1507,1507,1507,1507,0,0,0,0,0,0,0,0,0,0
1706425262.20045185,63828625,1504,1504,1504,1504,0,0,0,0,0,0,0,0,0,0
1706425262.30041194,63928585,1501,1501,1501,1501,0,0,0,0,0,0,0,0,0,0
1706425262.40037179,64028545,1499,1499,1499,1499,0,0,0,0,0,0,0,0,0,0
1706425262.50033188,64128505,1497,1497,1497,1497,0,0,0,0,0,0,0,0,0,0
1706425262.60029197,64228465,1494,1494,1494,1494,0,0,0,0,0,0,0,0,0,0
1706425262.70025182,64328425,1492,1491,1492,1492,0,0,0,0,0,0,0,0,0,0
1706425262.80021191,64428385,1494,1494,1495,1494,0,0,0,0,0,0,0,0,0,0
1706425262.90017200,64528345,1496,1496,1496,1496,0,0,0,0,0,0,0,0,0,0
1706425263.00013185,64628305,1498,1498,1498,1498,0,0,0,0,0,0,0,0,0,0
1706425263.10009193,64728265,1501,1501,1501,1501,0,0,0,0,0,0,0,0,0,0
1706425263.20005178,64828225,1503,1503,1503,1502,0,0,0,0,0,0,0,0,0,0
1706425263.30001187,64928185,1505,1505,1505,1505,0,0,0,0,0,0,0,0,0,0
1706425263.40080500,65028978,1507,1507,1507,1507,0,0,0,0,0,0,0,0,0,0
1706425263.50076485,65128938,1508,1508,1509,1509,0,0,0,0,0,0,0,0,0,0
1706425263.60072494,65228898,1510,1510,1510,1510,0,0,0,0,0,0,0,0,0,0
1706425263.70068479,65328858,1512,1512,1512,1512,0,0,0,0,0,0,0,0,0,0
1706425263.80064487,65428818,1543,1542,1543,1542,0,0,0,0,0,0,0,0,0,0
1706425263.90060496,65528778,1561,1560,1560,1561,0,0,0,0,0,0,0,0,0,0
1706425264.00056481,65628738,1571,1570,1569,1572,0,0,0,0,0,0,0,0,0,0
1706425264.10052490,65728698,1577,1577,1574,1580,0,0,0,0,0,0,0,0,0,0
1706425264.20048499,65828658,1581,1582,1579,1584,0,0,0,0,0,0,0,0,0,0
1706425264.30044484,65928618,1583,1583,1581,1585,0,0,0,0,0,0,0,0,0,0
1706425264.40040493,66028578,1583,1583,1583,1584,0,0,0,0,0,0,0,0,0,0
1706425264.50036478,66128538,1584,1584,1585,1583,0,0,0,0,0,0,0,0,0,0
1706425264.60032487,66228498,1584,1584,1586,1582,0,0,0,0,0,0,0,0,0,0
1706425264.70028496,66328458,1583,1583,1585,1580,0,0,0,0,0,0,0,0,0,0
1706425264.80024481,66428418,1582,1582,1583,1580,0,0,0,0,0,0,0,0,0,0
1706425264.90020490,66528378,1578,1578,1579,1578,0,0,0,0,0,0,0,0,0,0
1706425265.00016499,66628338,1576,1576,1576,1576,0,0,0,0,0,0,0,0,0,0
1706425265.10012484,66728298,1575,1574,1573,1576,0,0,0,0,0,0,0,0,0,0
1706425265.20008492,66828258,1572,1572,1571,1574,0,0,0,0,0,0,0,0,0,0
1706425265.30004478,66928218,1568,1568,1572,1575,0,0,0,0,0,0,0,0,0,0
1706425265.40000486,67028178,1567,1566,1573,1574,0,0,0,0,0,0,0,0,0,0
1706425265.50079799,67128971,1567,1567,1573,1573,0,0,0,0,0,0,0,0,0,0
1706425265.60075784,67228931,1567,1568,1572,1571,0,0,0,0,0,0,0,0,0,0
1706425265.70071793,67328891,1568,1568,1570,1569,0,0,0,0,0,0,0,0,0,0
1706425265.80067778,67428851,1569,1570,1569,1569,0,0,0,0,0,0,0,0,0,0
1706425265.90063787,67528811,1570,1570,1568,1569,0,0,0,0,0,0,0,0,0,0
1706425266.00059795,67628771,1572,1571,1568,1568,0,0,0,0,0,0,0,0,0,0
1706425266.10055780,67728731,1573,1572,1568,1569,0,0,0,0,0,0,0,0,0,0
1706425266.20051789,67828691,1573,1573,1569,1569,0,0,0,0,0,0,0,0,0,0
1706425266.30047798,67928651,1573,1573,1570,1570,0,0,0,0,0,0,0,0,0,0
1706425266.40043783,68028611,1574,1574,1571,1571,0,0,0,0,0,0,0,0,0,0
1706425266.50039792,68128571,1574,1574,1572,1572,0,0,0,0,0,0,0,0,0,0
1706425266.60035777,68228531,1574,1574,1573,1573,0,0,0,0,0,0,0,0,0,0
1706425266.70031786,68328491,1574,1574,1574,1573,0,0,0,0,0,0,0,0,0,0
1706425266.80027795,68428451,1575,1575,1576,1574,0,0,0,0,0,0,0,0,0,0
1706425266.90023780,68528411,1576,1576,1577,1576,0,0,0,0,0,0,0,0,0,0
1706425267.00019789,68628371,1576,1576,1578,1576,0,0,0,0,0,0,0,0,0,0
1706425267.10015798,68728331,1576,1575,1577,1577,0,0,0,0,0,0,0,0,0,0
1706425267.20011783,68828291,1576,1576,1577,1577,0,0,0,0,0,0,0,0,0,0
1706425267.30007792,68928251,1577,1577,1578,1578,0,0,0,0,0,0,0,0,0,0
1706425267.40003800,69028211,1578,1578,1578,1579,0,0,0,0,0,0,0,0,0,0
1706425267.49999785,69128171,1578,1579,1579,1579,0,0,0,0,0,0,0,0,0,0
1706425267.60079098,69228964,1579,1579,1580,1579,0,0,0,0,0,0,0,0,0,0
1706425267.70075083,69328924,1578,1578,1578,1578,0,0,0,0,0,0,0,0,0,0
1706425267.80071092,69428884,1579,1579,1579,1579,0,0,0,0,0,0,0,0,0,0
1706425267.90067101,69528844,1578,1578,1578,1578,0,0,0,0,0,0,0,0,0,0
1706425268.00063086,69628804,1579,1578,1578,1578,0,0,0,0,0,0,0,0,0,0
1706425268.10059094,69728764,1579,1578,1578,1578,0,0,0,0,0,0,0,0,0,0
1706425268.20055079,69828724,1578,1578,1578,1578,0,0,0,0,0,0,0,0,0,0
1706425268.30051088,69928684,1578,1579,1578,1578,0,0,0,0,0,0,0,0,0,0
1706425268.40047097,70028644,1579,1579,1579,1579,0,0,0,0,0,0,0,0,0,0
1706425268.50043082,70128604,1579,1579,1579,1578,0,0,0,0,0,0,0,0,0,0
1706425268.60039091,70228564,1579,1580,1580,1579,0,0,0,0,0,0,0,0,0,0
1706425268.70035100,70328524,1580,1580,1580,1580,0,0,0,0,0,0,0,0,0,0
1706425268.80031085,70428484,1579,1580,1579,1580,0,0,0,0,0,0,0,0,0,0
1706425268.90027094,70528444,1578,1578,1578,1578,0,0,0,0,0,0,0,0,0,0
1706425269.00023079,70628404,1580,1579,1580,1580,0,0,0,0,0,0,0,0,0,0
1706425269.10019088,70728364,1579,1579,1579,1579,0,0,0,0,0,0,0,0,0,0
1706425269.20015097,70828324,1579,1579,1579,1579,0,0,0,0,0,0,0,0,0,0
1706425269.30011082,70928284,1579,1580,1580,1580,0,0,0,0,0,0,0,0,0,0
1706425269.40007091,71028244,1579,1580,1580,1580,0,0,0,0,0,0,0,0,0,0
1706425269.50003099,71128204,1580,1580,1580,1580,0,0,0,0,0,0,0,0,0,0
1706425269.59999084,71228164,1580,1580,1580,1580,0,0,0,0,0,0,0,0,0,0
1706425269.70078397,71328957,1580,1581,1580,1580,0,0,0,0,0,0,0,0,0,0
1706425269.80074382,71428917,1580,1580,1580,1580,0,0,0,0,0,0,0,0,0,0
1706425269.90070391,71528877,1581,1581,1580,1581,0,0,0,0,0,0,0,0,0,0
1706425270.00066400,71628837,1580,1580,1580,1580,0,0,0,0,0,0,0,0,0,0
1706425270.10062385,71728797,1580,1580,1580,1580,0,0,0,0,0,0,0,0,0,0
1706425270.20058393,71828757,1580,1580,1580,1581,0,0,0,0,0,0,0,0,0,0
1706425270.30054379,71928717,1580,1581,1581,1581,0,0,0,0,0,0,0,0,0,0
1706425270.40050387,72028677,1580,1580,1580,1580,0,0,0,0,0,0,0,0,0,0
1706425270.50046396,72128637,1581,1581,1581,1581,0,0,0,0,0,0,0,0,0,0
1706425270.60042381,72228597,1581,1581,1582,1581,0,0,0,0,0,0,0,0,0,0
1706425270.70038390,72328557,1582,1581,1582,1582,0,0,0,0,0,0,0,0,0,0
1706425270.80034399,72428517,1581,1582,1581,1581,0,0,0,0,0,0,0,0,0,0
1706425270.90030384,72528477,1581,1581,1581,1581,0,0,0,0,0,0,0,0,0,0
1706425271.00026393,72628437,1581,1581,1581,1581,0,0,0,0,0,0,0,0,0,0
1706425271.10022378,72728397,1582,1581,1581,1582,0,0,0,0,0,0,0,0,0,0
1706425271.20018387,72828357,1581,1581,1582,1581,0,0,0,0,0,0,0,0,0,0
1706425271.30014396,72928317,1581,1581,1580,1581,0,0,0,0,0,0,0,0,0,0
1706425271.40010381,73028277,1582,1582,1582,1582,0,0,0,0,0,0,0,0,0,0
1706425271.50006390,73128237,1581,1583,1589,1574,0,0,0,0,0,0,0,0,0,0
1706425271.60002398,73228197,1580,1582,1585,1573,0,0,0,0,0,0,0,0,0,0
1706425271.69998384,73328157,1579,1581,1576,1573,0,0,0,0,0,0,0,0,0,0
1706425271.80077696,73428950,1577,1579,1567,1571,0,0,0,0,0,0,0,0,0,0
1706425271.90073681,73528910,1577,1578,1560,1567,0,0,0,0,0,0,0,0,0,0
1706425272.00069690,73628870,1579,1579,1557,1564,0,0,0,0,0,0,0,0,0,0
1706425272.10065699,73728830,1580,1579,1555,1560,0,0,0,0,0,0,0,0,0,0
1706425272.20061684,73828790,1580,1579,1556,1556,0,0,0,0,0,0,0,0,0,0
1706425272.30057693,73928750,1579,1578,1555,1554,0,0,0,0,0,0,0,0,0,0
1706425272.40053678,74028710,1578,1578,1556,1553,0,0,0,0,0,0,0,0,0,0
1706425272.50049686,74128670,1578,1578,1556,1554,0,0,0,0,0,0,0,0,0,0
1706425272.60045695,74228630,1575,1577,1555,1553,0,0,0,0,0,0,0,0,0,0
1706425272.70041680,74328590,1575,1576,1554,1554,0,0,0,0,0,0,0,0,0,0
1706425272.80037689,74428550,1575,1577,1553,1553,0,0,0,0,0,0,0,0,0,0
1706425272.90033698,74528510,1576,1578,1552,1553,0,0,0,0,0,0,0,0,0,0
1706425273.00029683,74628470,1576,1578,1550,1550,0,0,0,0,0,0,0,0,0,0
1706425273.10025692,74728430,1579,1580,1548,1548,0,0,0,0,0,0,0,0,0,0
1706425273.20021677,74828390,1582,1582,1546,1545,0,0,0,0,0,0,0,0,0,0
1706425273.30017686,74928350,1584,1584,1542,1542,0,0,0,0,0,0,0,0,0,0
1706425273.40013695,75028310,1587,1588,1540,1540,0,0,0,0,0,0,0,0,0,0
1706425273.50009680,75128270,1590,1591,1538,1538,0,0,0,0,0,0,0,0,0,0
1706425273.60005689,75228230,1593,1593,1536,1536,0,0,0,0,0,0,0,0,0,0
1706425273.70001698,75328190,1595,1594,1535,1535,0,0,0,0,0,0,0,0,0,0
1706425273.80080986,75428983,1595,1595,1535,1537,0,0,0,0,0,0,0,0,0,0
1706425273.90076995,75528943,1593,1594,1535,1539,0,0,0,0,0,0,0,0,0,0
1706425274.00072980,75628903,1592,1592,1540,1543,0,0,0,0,0,0,0,0,0,0
1706425274.10068989,75728863,1589,1587,1546,1549,0,0,0,0,0,0,0,0,0,0
1706425274.20064998,75828823,1582,1579,1554,1556,0,0,0,0,0,0,0,0,0,0
1706425274.30060983,75928783,1575,1570,1565,1567,0,0,0,0,0,0,0,0,0,0
1706425274.40056992,76028743,1563,1560,1577,1578,0,0,0,0,0,0,0,0,0,0
1706425274.50053000,76128703,1552,1549,1589,1590,0,0,0,0,0,0,0,0,0,0
1706425274.60048985,76228663,1542,1540,1601,1600,0,0,0,0,0,0,0,0,0,0
1706425274.70044994,76328623,1534,1533,1609,1608,0,0,0,0,0,0,0,0,0,0
1706425274.80040979,76428583,1530,1531,1614,1614,0,0,0,0,0,0,0,0,0,0
1706425274.90036988,76528543,1529,1530,1615,1614,0,0,0,0,0,0,0,0,0,0
1706425275.00032997,76628503,1532,1534,1613,1613,0,0,0,0,0,0,0,0,0,0
1706425275.10028982,76728463,1538,1541,1609,1609,0,0,0,0,0,0,0,0,0,0
1706425275.20024991,76828423,1545,1548,1602,1602,0,0,0,0,0,0,0,0,0,0
1706425275.30021000,76928383,1555,1556,1595,1595,0,0,0,0,0,0,0,0,0,0
1706425275.40016985,77028343,1563,1564,1587,1586,0,0,0,0,0,0,0,0,0,0
1706425275.50012994,77128303,1570,1570,1579,1578,0,0,0,0,0,0,0,0,0,0
1706425275.60008979,77228263,1579,1578,1574,1573,0,0,0,0,0,0,0,0,0,0
1706425275.70004988,77328223,1584,1582,1570,1569,0,0,0,0,0,0,0,0,0,0
1706425275.80000997,77428183,1587,1585,1567,1566,0,0,0,0,0,0,0,0,0,0
1706425275.90080285,77528976,1588,1586,1565,1566,0,0,0,0,0,0,0,0,0,0
1706425276.00076294,77628936,1587,1586,1566,1567,0,0,0,0,0,0,0,0,0,0
1706425276.10072279,77728896,1585,1584,1568,1568,0,0,0,0,0,0,0,0,0,0
1706425276.20068288,77828856,1583,1582,1571,1571,0,0,0,0,0,0,0,0,0,0
1706425276.30064297,77928816,1580,1580,1574,1574,0,0,0,0,0,0,0,0,0,0
1706425276.40060282,78028776,1577,1577,1577,1576,0,0,0,0,0,0,0,0,0,0
1706425276.50056291,78128736,1576,1576,1580,1580,0,0,0,0,0,0,0,0,0,0
1706425276.60052299,78228696,1574,1575,1583,1582,0,0,0,0,0,0,0,0,0,0
1706425276.70048285,78328656,1573,1573,1583,1583,0,0,0,0,0,0,0,0,0,0
1706425276.80044293,78428616,1572,1573,1584,1584,0,0,0,0,0,0,0,0,0,0
1706425276.90040278,78528576,1573,1573,1584,1584,0,0,0,0,0,0,0,0,0,0
1706425277.00036287,78628536,1574,1575,1584,1584,0,0,0,0,0,0,0,0,0,0
1706425277.10032296,78728496,1575,1575,1583,1582,0,0,0,0,0,0,0,0,0,0
1706425277.20028281,78828456,1576,1576,1581,1581,0,0,0,0,0,0,0,0,0,0
1706425277.30024290,78928416,1577,1577,1579,1579,0,0,0,0,0,0,0,0,0,0
1706425277.40020299,79028376,1579,1579,1578,1579,0,0,0,0,0,0,0,0,0,0
1706425277.50016284,79128336,1580,1580,1578,1578,0,0,0,0,0,0,0,0,0,0
1706425277.60012293,79228296,1573,1540,1582,1582,0,0,0,0,0,0,0,0,0,0
1706425277.70008278,79328256,1577,1562,1584,1585,0,0,0,0,0,0,0,0,0,0
1706425277.80004287,79428216,1588,1567,1584,1583,0,0,0,0,0,0,0,0,0,0
1706425277.90000296,79528176,1593,1573,1581,1581,0,0,0,0,0,0,0,0,0,0
1706425278.00079584,79628969,1593,1582,1580,1579,0,0,0,0,0,0,0,0,0,0
1706425278.10075593,79728929,1589,1587,1577,1576,0,0,0,0,0,0,0,0,0,0
1706425278.20071578,79828889,1587,1592,1576,1576,0,0,0,0,0,0,0,0,0,0
1706425278.30067587,79928849,1585,1594,1576,1576,0,0,0,0,0,0,0,0,0,0
1706425278.40063596,80028809,1584,1592,1577,1577,0,0,0,0,0,0,0,0,0,0
1706425278.50059581,80128769,1584,1589,1577,1577,0,0,0,0,0,0,0,0,0,0
1706425278.60055590,80228729,1585,1586,1579,1578,0,0,0,0,0,0,0,0,0,0
1706425278.70051599,80328689,1584,1583,1580,1580,0,0,0,0,0,0,0,0,0,0
1706425278.80047584,80428649,1584,1582,1581,1581,0,0,0,0,0,0,0,0,0,0
1706425278.90043592,80528609,1582,1580,1582,1582,0,0,0,0,0,0,0,0,0,0
1706425279.00039577,80628569,1579,1579,1581,1582,0,0,0,0,0,0,0,0,0,0
1706425279.10035586,80728529,1579,1580,1582,1583,0,0,0,0,0,0,0,0,0,0
1706425279.20031595,80828489,1578,1579,1582,1582,0,0,0,0,0,0,0,0,0,0
1706425279.30027580,80928449,1578,1579,1582,1582,0,0,0,0,0,0,0,0,0,0
1706425279.40023589,81028409,1579,1580,1582,1581,0,0,0,0,0,0,0,0,0,0
1706425279.50019598,81128369,1579,1581,1587,1573,0,0,0,0,0,0,0,0,0,0
1706425279.60015583,81228329,1580,1583,1583,1571,0,0,0,0,0,0,0,0,0,0
1706425279.70011592,81328289,1580,1582,1573,1570,0,0,0,0,0,0,0,0,0,0
1706425279.80007577,81428249,1579,1581,1564,1569,0,0,0,0,0,0,0,0,0,0
1706425279.90003586,81528209,1579,1580,1558,1565,0,0,0,0,0,0,0,0,0,0
1706425279.99999595,81628169,1580,1579,1554,1560,0,0,0,0,0,0,0,0,0,0
1706425280.10078883,81728962,1580,1579,1553,1556,0,0,0,0,0,0,0,0,0,0
1706425280.20074892,81828922,1579,1578,1553,1553,0,0,0,0,0,0,0,0,0,0
1706425280.30070877,81928882,1579,1578,1554,1552,0,0,0,0,0,0,0,0,0,0
1706425280.40066886,82028842,1578,1578,1554,1551,0,0,0,0,0,0,0,0,0,0
1706425280.50062895,82128802,1577,1578,1555,1553,0,0,0,0,0,0,0,0,0,0
1706425280.60058880,82228762,1576,1578,1555,1554,0,0,0,0,0,0,0,0,0,0
1706425280.70054889,82328722,1576,1577,1554,1554,0,0,0,0,0,0,0,0,0,0
1706425280.80050898,82428682,1574,1576,1552,1552,0,0,0,0,0,0,0,0,0,0
1706425280.90046883,82528642,1576,1577,1551,1552,0,0,0,0,0,0,0,0,0,0
1706425281.00042892,82628602,1576,1578,1548,1549,0,0,0,0,0,0,0,0,0,0
1706425281.10038900,82728562,1578,1580,1547,1547,0,0,0,0,0,0,0,0,0,0
1706425281.20034885,82828522,1581,1582,1545,1544,0,0,0,0,0,0,0,0,0,0
1706425281.30030894,82928482,1584,1585,1543,1542,0,0,0,0,0,0,0,0,0,0
1706425281.40026879,83028442,1587,1587,1541,1540,0,0,0,0,0,0,0,0,0,0
1706425281.50022888,83128402,1589,1589,1539,1538,0,0,0,0,0,0,0,0,0,0
1706425281.60018897,83228362,1591,1591,1539,1539,0,0,0,0,0,0,0,0,0,0
1706425281.70014882,83328322,1592,1591,1538,1540,0,0,0,0,0,0,0,0,0,0
1706425281.80010891,83428282,1591,1592,1539,1541,0,0,0,0,0,0,0,0,0,0
1706425281.90006900,83528242,1590,1590,1542,1544,0,0,0,0,0,0,0,0,0,0
1706425282.00002885,83628202,1587,1586,1546,1549,0,0,0,0,0,0,0,0,0,0
1706425282.09998894,83728162,1583,1580,1552,1555,0,0,0,0,0,0,0,0,0,0
1706425282.20078182,83828955,1577,1574,1561,1564,0,0,0,0,0,0,0,0,0,0
1706425282.30074191,83928915,1569,1565,1572,1573,0,0,0,0,0,0,0,0,0,0
1706425282.40070200,84028875,1558,1555,1581,1582,0,0,0,0,0,0,0,0,0,0
1706425282.50066185,84128835,1551,1548,1592,1593,0,0,0,0,0,0,0,0,0,0
1706425282.60062194,84228795,1543,1541,1601,1601,0,0,0,0,0,0,0,0,0,0
1706425282.70058179,84328755,1537,1537,1607,1606,0,0,0,0,0,0,0,0,0,0
1706425282.80054188,84428715,1534,1536,1610,1609,0,0,0,0,0,0,0,0,0,0
1706425282.90050197,84528675,1534,1537,1610,1609,0,0,0,0,0,0,0,0,0,0
1706425283.00046182,84628635,1539,1541,1607,1607,0,0,0,0,0,0,0,0,0,0
1706425283.10042191,84728595,1545,1547,1603,1603,0,0,0,0,0,0,0,0,0,0
1706425283.20038199,84828555,1552,1553,1597,1597,0,0,0,0,0,0,0,0,0,0
1706425283.30034184,84928515,1560,1561,1591,1591,0,0,0,0,0,0,0,0,0,0
1706425283.40030193,85028475,1569,1568,1586,1585,0,0,0,0,0,0,0,0,0,0
1706425283.50026178,85128435,1575,1573,1579,1578,0,0,0,0,0,0,0,0,0,0
1706425283.60022187,85228395,1579,1578,1574,1574,0,0,0,0,0,0,0,0,0,0
1706425283.70018196,85328355,1584,1582,1570,1571,0,0,0,0,0,0,0,0,0,0
1706425283.80014181,85428315,1585,1583,1568,1568,0,0,0,0,0,0,0,0,0,0
1706425283.90010190,85528275,1587,1585,1569,1569,0,0,0,0,0,0,0,0,0,0
1706425284.00006199,85628235,1586,1586,1570,1570,0,0,0,0,0,0,0,0,0,0
1706425284.10002184,85728195,1584,1584,1572,1571,0,0,0,0,0,0,0,0,0,0
1706425284.19998193,85828155,1582,1581,1573,1573,0,0,0,0,0,0,0,0,0,0
1706425284.30077481,85928948,1580,1580,1576,1576,0,0,0,0,0,0,0,0,0,0
1706425284.40073490,86028908,1577,1577,1577,1578,0,0,0,0,0,0,0,0,0,0
1706425284.50069499,86128868,1575,1576,1580,1580,0,0,0,0,0,0,0,0,0,0
1706425284.60065484,86228828,1574,1574,1581,1582,0,0,0,0,0,0,0,0,0,0
1706425284.70061493,86328788,1573,1574,1583,1582,0,0,0,0,0,0,0,0,0,0
1706425284.80057478,86428748,1574,1574,1583,1583,0,0,0,0,0,0,0,0,0,0
1706425284.90053487,86528708,1574,1574,1583,1583,0,0,0,0,0,0,0,0,0,0
1706425285.00049496,86628668,1574,1574,1582,1582,0,0,0,0,0,0,0,0,0,0
1706425285.10045481,86728628,1575,1576,1581,1581,0,0,0,0,0,0,0,0,0,0
1706425285.20041490,86828588,1577,1577,1581,1581,0,0,0,0,0,0,0,0,0,0
1706425285.30037498,86928548,1578,1578,1580,1580,0,0,0,0,0,0,0,0,0,0
1706425285.40033484,87028508,1579,1579,1578,1579,0,0,0,0,0,0,0,0,0,0
1706425285.50029492,87128468,1580,1580,1578,1579,0,0,0,0,0,0,0,0,0,0
1706425285.60025477,87228428,1581,1581,1578,1578,0,0,0,0,0,0,0,0,0,0
1706425285.70021486,87328388,1581,1581,1578,1577,0,0,0,0,0,0,0,0,0,0
1706425285.80017495,87428348,1582,1582,1579,1578,0,0,0,0,0,0,0,0,0,0
1706425285.90013480,87528308,1581,1581,1577,1577,0,0,0,0,0,0,0,0,0,0
1706425286.00009489,87628268,1581,1581,1578,1578,0,0,0,0,0,0,0,0,0,0
1706425286.10005498,87728228,1581,1581,1579,1579,0,0,0,0,0,0,0,0,0,0
1706425286.20001483,87828188,1581,1581,1580,1580,0,0,0,0,0,0,0,0,0,0
1706425286.30080795,87928981,1580,1580,1580,1580,0,0,0,0,0,0,0,0,0,0
1706425286.40076780,88028941,1580,1580,1581,1580,0,0,0,0,0,0,0,0,0,0
1706425286.50072789,88128901,1579,1579,1580,1580,0,0,0,0,0,0,0,0,0,0
1706425286.60068798,88228861,1579,1579,1580,1580,0,0,0,0,0,0,0,0,0,0
1706425286.70064783,88328821,1579,1580,1581,1581,0,0,0,0,0,0,0,0,0,0
1706425286.80060792,88428781,1579,1579,1580,1581,0,0,0,0,0,0,0,0,0,0
1706425286.90056777,88528741,1580,1581,1581,1582,0,0,0,0,0,0,0,0,0,0
1706425287.00052786,88628701,1581,1581,1582,1582,0,0,0,0,0,0,0,0,0,0
1706425287.10048795,88728661,1580,1581,1582,1581,0,0,0,0,0,0,0,0,0,0
1706425287.20044780,88828621,1581,1581,1581,1581,0,0,0,0,0,0,0,0,0,0
1706425287.30040789,88928581,1581,1581,1581,1581,0,0,0,0,0,0,0,0,0,0
1706425287.40036798,89028541,1581,1582,1581,1581,0,0,0,0,0,0,0,0,0,0
1706425287.50032783,89128501,1581,1582,1581,1581,0,0,0,0,0,0,0,0,0,0
1706425287.60028791,89228461,1582,1582,1581,1581,0,0,0,0,0,0,0,0,0,0
1706425287.70024800,89328421,1582,1582,1581,1581,0,0,0,0,0,0,0,0,0,0
1706425287.80020785,89428381,1581,1582,1584,1577,0,0,0,0,0,0,0,0,0,0
1706425287.90016794,89528341,1582,1584,1588,1573,0,0,0,0,0,0,0,0,0,0
1706425288.00012779,89628301,1580,1583,1581,1573,0,0,0,0,0,0,0,0,0,0
1706425288.10008788,89728261,1578,1581,1572,1572,0,0,0,0,0,0,0,0,0,0
1706425288.20004797,89828221,1577,1579,1563,1569,0,0,0,0,0,0,0,0,0,0
1706425288.30000782,89928181,1577,1578,1557,1564,0,0,0,0,0,0,0,0,0,0
1706425288.40080094,90028974,1578,1578,1555,1561,0,0,0,0,0,0,0,0,0,0
1706425288.50076079,90128934,1579,1578,1554,1557,0,0,0,0,0,0,0,0,0,0
1706425288.60072088,90228894,1580,1579,1556,1555,0,0,0,0,0,0,0,0,0,0
1706425288.70068097,90328854,1580,1579,1556,1554,0,0,0,0,0,0,0,0,0,0
1706425288.80064082,90428814,1578,1578,1556,1553,0,0,0,0,0,0,0,0,0,0
1706425288.90060091,90528774,1577,1578,1555,1553,0,0,0,0,0,0,0,0,0,0
1706425289.00056100,90628734,1576,1577,1555,1554,0,0,0,0,0,0,0,0,0,0
1706425289.10052085,90728694,1575,1577,1553,1554,0,0,0,0,0,0,0,0,0,0
1706425289.20048094,90828654,1574,1577,1552,1553,0,0,0,0,0,0,0,0,0,0
1706425289.30044079,90928614,1575,1577,1550,1551,0,0,0,0,0,0,0,0,0,0
1706425289.40040088,91028574,1576,1578,1548,1549,0,0,0,0,0,0,0,0,0,0
1706425289.50036097,91128534,1579,1580,1547,1547,0,0,0,0,0,0,0,0,0,0
1706425289.60032082,91228494,1581,1582,1545,1544,0,0,0,0,0,0,0,0,0,0
1706425289.70028090,91328454,1584,1584,1543,1542,0,0,0,0,0,0,0,0,0,0
1706425289.80024099,91428414,1587,1587,1541,1540,0,0,0,0,0,0,0,0,0,0
1706425289.90020084,91528374,1589,1590,1539,1539,0,0,0,0,0,0,0,0,0,0
1706425290.00016093,91628334,1592,1592,1538,1539,0,0,0,0,0,0,0,0,0,0
1706425290.10012078,91728294,1593,1594,1538,1539,0,0,0,0,0,0,0,0,0,0
1706425290.20008087,91828254,1593,1593,1538,1539,0,0,0,0,0,0,0,0,0,0
1706425290.30004096,91928214,1592,1592,1540,1542,0,0,0,0,0,0,0,0,0,0
1706425290.40000081,92028174,1590,1589,1544,1547,0,0,0,0,0,0,0,0,0,0
1706425290.50079393,92128967,1587,1583,1551,1554,0,0,0,0,0,0,0,0,0,0
1706425290.60075378,92228927,1579,1576,1559,1562,0,0,0,0,0,0,0,0,0,0
1706425290.70071387,92328887,1572,1567,1572,1574,0,0,0,0,0,0,0,0,0,0
1706425290.80067396,92428847,1560,1557,1582,1584,0,0,0,0,0,0,0,0,0,0
1706425290.90063381,92528807,1549,1547,1593,1593,0,0,0,0,0,0,0,0,0,0
1706425291.00059390,92628767,1542,1541,1604,1603,0,0,0,0,0,0,0,0,0,0
1706425291.10055399,92728727,1535,1535,1609,1608,0,0,0,0,0,0,0,0,0,0
1706425291.20051384,92828687,1532,1534,1612,1611,0,0,0,0,0,0,0,0,0,0
1706425291.30047393,92928647,1533,1536,1612,1612,0,0,0,0,0,0,0,0,0,0
1706425291.40043378,93028607,1536,1539,1609,1608,0,0,0,0,0,0,0,0,0,0
1706425291.50039387,93128567,1544,1545,1604,1604,0,0,0,0,0,0,0,0,0,0
1706425291.60035396,93228527,1552,1553,1599,1598,0,0,0,0,0,0,0,0,0,0
1706425291.70031381,93328487,1560,1560,1592,1591,0,0,0,0,0,0,0,0,0,0
1706425291.80027390,93428447,1568,1567,1585,1584,0,0,0,0,0,0,0,0,0,0
1706425291.90023398,93528407,1574,1572,1578,1577,0,0,0,0,0,0,0,0,0,0
1706425292.00019383,93628367,1580,1579,1573,1573,0,0,0,0,0,0,0,0,0,0
1706425292.10015392,93728327,1584,1583,1570,1570,0,0,0,0,0,0,0,0,0,0
1706425292.20011377,93828287,1587,1586,1569,1569,0,0,0,0,0,0,0,0,0,0
1706425292.30007386,93928247,1587,1585,1568,1568,0,0,0,0,0,0,0,0,0,0
1706425292.40003395,94028207,1586,1585,1569,1569,0,0,0,0,0,0,0,0,0,0
1706425292.49999380,94128167,1584,1583,1570,1570,0,0,0,0,0,0,0,0,0,0
1706425292.60078692,94228960,1582,1581,1573,1573,0,0,0,0,0,0,0,0,0,0
1706425292.70074677,94328920,1579,1579,1575,1575,0,0,0,0,0,0,0,0,0,0
1706425292.80070686,94428880,1576,1576,1577,1577,0,0,0,0,0,0,0,0,0,0
1706425292.90066695,94528840,1575,1575,1580,1580,0,0,0,0,0,0,0,0,0,0
1706425293.00062680,94628800,1573,1574,1582,1582,0,0,0,0,0,0,0,0,0,0
1706425293.10058689,94728760,1572,1573,1583,1583,0,0,0,0,0,0,0,0,0,0
1706425293.20054698,94828720,1573,1573,1583,1583,0,0,0,0,0,0,0,0,0,0
1706425293.30050683,94928680,1573,1574,1583,1583,0,0,0,0,0,0,0,0,0,0
1706425293.40046692,95028640,1574,1574,1582,1582,0,0,0,0,0,0,0,0,0,0
1706425293.50042677,95128600,1575,1575,1581,1581,0,0,0,0,0,0,0,0,0,0
1706425293.60038686,95228560,1576,1576,1580,1580,0,0,0,0,0,0,0,0,0,0
1706425293.70034695,95328520,1578,1578,1579,1580,0,0,0,0,0,0,0,0,0,0
1706425293.80030680,95428480,1580,1579,1579,1579,0,0,0,0,0,0,0,0,0,0
1706425293.90026689,95528440,1580,1580,1577,1578,0,0,0,0,0,0,0,0,0,0
1706425294.00022697,95628400,1582,1582,1578,1578,0,0,0,0,0,0,0,0,0,0
1706425294.10018682,95728360,1581,1581,1577,1577,0,0,0,0,0,0,0,0,0,0
1706425294.20014691,95828320,1582,1581,1577,1577,0,0,0,0,0,0,0,0,0,0
1706425294.30010700,95928280,1581,1581,1577,1578,0,0,0,0,0,0,0,0,0,0
1706425294.40006685,96028240,1582,1581,1579,1578,0,0,0,0,0,0,0,0,0,0
1706425294.50002694,96128200,1581,1581,1579,1579,0,0,0,0,0,0,0,0,0,0
1706425294.59998679,96228160,1580,1580,1579,1579,0,0,0,0,0,0,0,0,0,0
1706425294.70077991,96328953,1579,1579,1579,1579,0,0,0,0,0,0,0,0,0,0
1706425294.80074000,96428913,1580,1580,1580,1580,0,0,0,0,0,0,0,0,0,0
1706425294.90069985,96528873,1579,1579,1580,1581,0,0,0,0,0,0,0,0,0,0
1706425295.00065994,96628833,1580,1580,1581,1581,0,0,0,0,0,0,0,0,0,0
1706425295.10061979,96728793,1579,1579,1581,1580,0,0,0,0,0,0,0,0,0,0
1706425295.20057988,96828753,1580,1580,1582,1581,0,0,0,0,0,0,0,0,0,0
1706425295.30053997,96928713,1580,1580,1581,1581,0,0,0,0,0,0,0,0,0,0
1706425295.40049982,97028673,1580,1580,1581,1582,0,0,0,0,0,0,0,0,0,0
1706425295.50045991,97128633,1580,1581,1581,1582,0,0,0,0,0,0,0,0,0,0
1706425295.60042000,97228593,1580,1580,1580,1581,0,0,0,0,0,0,0,0,0,0
1706425295.70037985,97328553,1581,1581,1581,1581,0,0,0,0,0,0,0,0,0,0
1706425295.80033994,97428513,1582,1582,1587,1574,0,0,0,0,0,0,0,0,0,0
1706425295.90029979,97528473,1581,1581,1586,1573,0,0,0,0,0,0,0,0,0,0
1706425296.00025988,97628433,1580,1578,1579,1575,0,0,0,0,0,0,0,0,0,0
1706425296.10021996,97728393,1575,1575,1571,1574,0,0,0,0,0,0,0,0,0,0
1706425296.20017982,97828353,1573,1573,1568,1575,0,0,0,0,0,0,0,0,0,0
1706425296.30013990,97928313,1569,1570,1565,1571,0,0,0,0,0,0,0,0,0,0
1706425296.40009999,98028273,1568,1568,1565,1570,0,0,0,0,0,0,0,0,0,0
1706425296.50005984,98128233,1568,1567,1566,1568,0,0,0,0,0,0,0,0,0,0
1706425296.60001993,98228193,1566,1566,1567,1566,0,0,0,0,0,0,0,0,0,0
1706425296.70081282,98328986,1566,1567,1568,1566,0,0,0,0,0,0,0,0,0,0
1706425296.80077291,98428946,1565,1565,1567,1564,0,0,0,0,0,0,0,0,0,0
1706425296.90073299,98528906,1564,1564,1566,1564,0,0,0,0,0,0,0,0,0,0
1706425297.00069284,98628866,1564,1564,1565,1564,0,0,0,0,0,0,0,0,0,0
1706425297.10065293,98728826,1563,1563,1563,1564,0,0,0,0,0,0,0,0,0,0
1706425297.20061278,98828786,1562,1562,1562,1563,0,0,0,0,0,0,0,0,0,0
1706425297.30057287,98928746,1561,1562,1562,1562,0,0,0,0,0,0,0,0,0,0
1706425297.40053296,99028706,1562,1562,1562,1562,0,0,0,0,0,0,0,0,0,0
1706425297.50049281,99128666,1561,1561,1562,1561,0,0,0,0,0,0,0,0,0,0
1706425297.60045290,99228626,1560,1560,1561,1560,0,0,0,0,0,0,0,0,0,0
1706425297.70041299,99328586,1560,1560,1560,1559,0,0,0,0,0,0,0,0,0,0
1706425297.80037284,99428546,1559,1559,1559,1558,0,0,0,0,0,0,0,0,0,0
1706425297.90033293,99528506,1559,1559,1559,1559,0,0,0,0,0,0,0,0,0,0
1706425298.00029278,99628466,1557,1558,1557,1557,0,0,0,0,0,0,0,0,0,0
1706425298.10025287,99728426,1558,1558,1558,1557,0,0,0,0,0,0,0,0,0,0
1706425298.20021296,99828386,1558,1558,1558,1557,0,0,0,0,0,0,0,0,0,0
1706425298.30017281,99928346,1557,1557,1558,1556,0,0,0,0,0,0,0,0,0,0
1706425298.40013289,100028306,1558,1557,1559,1556,0,0,0,0,0,0,0,0,0,0
1706425298.50009298,100128266,1558,1557,1560,1556,0,0,0,0,0,0,0,0,0,0
1706425298.60005283,100228226,1558,1558,1559,1558,0,0,0,0,0,0,0,0,0,0
1706425298.70001292,100328186,1559,1559,1556,1561,0,0,0,0,0,0,0,0,0,0
1706425298.80080581,100428979,1560,1561,1557,1564,0,0,0,0,0,0,0,0,0,0
1706425298.90076590,100528939,1561,1561,1558,1564,0,0,0,0,0,0,0,0,0,0
1706425299.00072598,100628899,1562,1562,1560,1564,0,0,0,0,0,0,0,0,0,0
1706425299.10068583,100728859,1561,1561,1560,1561,0,0,0,0,0,0,0,0,0,0
1706425299.20064592,100828819,1560,1561,1562,1559,0,0,0,0,0,0,0,0,0,0
1706425299.30060577,100928779,1560,1560,1559,1561,0,0,0,0,0,0,0,0,0,0
1706425299.40056586,101028739,1556,1556,1555,1557,0,0,0,0,0,0,0,0,0,0
1706425299.50052595,101128699,1551,1551,1550,1551,0,0,0,0,0,0,0,0,0,0
1706425299.60048580,101228659,1546,1545,1545,1545,0,0,0,0,0,0,0,0,0,0
1706425299.70044589,101328619,1540,1539,1539,1539,0,0,0,0,0,0,0,0,0,0
1706425299.80040598,101428579,1533,1533,1532,1532,0,0,0,0,0,0,0,0,0,0
1706425299.90036583,101528539,1525,1525,1525,1525,0,0,0,0,0,0,0,0,0,0
1706425300.00032592,101628499,1520,1521,1521,1520,0,0,0,0,0,0,0,0,0,0
1706425300.10028577,101728459,1519,1520,1519,1519,0,0,0,0,0,0,0,0,0,0
1706425300.20024586,101828419,1520,1520,1520,1520,0,0,0,0,0,0,0,0,0,0
1706425300.30020595,101928379,1521,1521,1522,1522,0,0,0,0,0,0,0,0,0,0
1706425300.40016580,102028339,1525,1525,1526,1526,0,0,0,0,0,0,0,0,0,0
1706425300.50012589,102128299,1529,1529,1530,1531,0,0,0,0,0,0,0,0,0,0
1706425300.60008597,102228259,1535,1535,1536,1536,0,0,0,0,0,0,0,0,0,0
1706425300.70004582,102328219,1538,1538,1539,1539,0,0,0,0,0,0,0,0,0,0
1706425300.80000591,102428179,1541,1541,1542,1542,0,0,0,0,0,0,0,0,0,0
1706425300.90079880,102528972,1544,1544,1545,1544,0,0,0,0,0,0,0,0,0,0
1706425301.00075889,102628932,1545,1545,1545,1544,0,0,0,0,0,0,0,0,0,0
1706425301.10071898,102728892,1545,1545,1545,1545,0,0,0,0,0,0,0,0,0,0
1706425301.20067883,102828852,1546,1546,1546,1546,0,0,0,0,0,0,0,0,0,0
1706425301.30063891,102928812,1548,1548,1547,1547,0,0,0,0,0,0,0,0,0,0
1706425301.40059900,103028772,1548,1548,1547,1547,0,0,0,0,0,0,0,0,0,0
1706425301.50055885,103128732,1547,1547,1547,1546,0,0,0,0,0,0,0,0,0,0
1706425301.60051894,103228692,1548,1548,1548,1547,0,0,0,0,0,0,0,0,0,0
1706425301.70047879,103328652,1547,1547,1547,1546,0,0,0,0,0,0,0,0,0,0
1706425301.80043888,103428612,1547,1546,1546,1546,0,0,0,0,0,0,0,0,0,0
1706425301.90039897,103528572,1546,1546,1546,1546,0,0,0,0,0,0,0,0,0,0
1706425302.00035882,103628532,1545,1545,1545,1545,0,0,0,0,0,0,0,0,0,0
1706425302.10031891,103728492,1545,1545,1545,1545,0,0,0,0,0,0,0,0,0,0
1706425302.20027900,103828452,1544,1544,1545,1544,0,0,0,0,0,0,0,0,0,0
1706425302.30023885,103928412,1544,1544,1545,1544,0,0,0,0,0,0,0,0,0,0
1706425302.40019894,104028372,1545,1545,1545,1545,0,0,0,0,0,0,0,0,0,0
1706425302.50015879,104128332,1544,1544,1544,1544,0,0,0,0,0,0,0,0,0,0
1706425302.60011888,104228292,1544,1544,1544,1544,0,0,0,0,0,0,0,0,0,0
1706425302.70007896,104328252,1544,1543,1544,1544,0,0,0,0,0,0,0,0,0,0
1706425302.80003881,104428212,1543,1543,1543,1543,0,0,0,0,0,0,0,0,0,0
1706425302.89999890,104528172,1544,1544,1543,1543,0,0,0,0,0,0,0,0,0,0
1706425303.00079179,104628965,1543,1544,1543,1543,0,0,0,0,0,0,0,0,0,0
1706425303.10075188,104728925,1543,1543,1543,1543,0,0,0,0,0,0,0,0,0,0
1706425303.20071197,104828885,1544,1543,1543,1543,0,0,0,0,0,0,0,0,0,0
1706425303.30067182,104928845,1544,1543,1543,1543,0,0,0,0,0,0,0,0,0,0
1706425303.40063190,105028805,1544,1545,1544,1544,0,0,0,0,0,0,0,0,0,0
1706425303.50059199,105128765,1544,1544,1544,1544,0,0,0,0,0,0,0,0,0,0
1706425303.60055184,105228725,1543,1544,1544,1543,0,0,0,0,0,0,0,0,0,0
1706425303.70051193,105328685,1545,1544,1545,1544,0,0,0,0,0,0,0,0,0,0
1706425303.80047178,105428645,1545,1544,1544,1544,0,0,0,0,0,0,0,0,0,0
1706425303.90043187,105528605,1544,1545,1545,1545,0,0,0,0,0,0,0,0,0,0
1706425304.00039196,105628565,1544,1544,1544,1544,0,0,0,0,0,0,0,0,0,0
1706425304.10035181,105728525,1544,1544,1544,1544,0,0,0,0,0,0,0,0,0,0
1706425304.20031190,105828485,1544,1544,1545,1544,0,0,0,0,0,0,0,0,0,0
1706425304.30027199,105928445,1544,1543,1544,1544,0,0,0,0,0,0,0,0,0,0
1706425304.40023184,106028405,1544,1543,1543,1543,0,0,0,0,0,0,0,0,0,0
1706425304.50019193,106128365,1544,1544,1544,1544,0,0,0,0,0,0,0,0,0,0
1706425304.60015178,106228325,1543,1544,1543,1544,0,0,0,0,0,0,0,0,0,0
1706425304.70011187,106328285,1543,1543,1543,1543,0,0,0,0,0,0,0,0,0,0
1706425304.80007195,106428245,1543,1544,1543,1543,0,0,0,0,0,0,0,0,0,0
1706425304.90003181,106528205,1543,1543,1543,1543,0,0,0,0,0,0,0,0,0,0
1706425304.99999189,106628165,1543,1543,1543,1543,0,0,0,0,0,0,0,0,0,0
1706425305.10078478,106728958,1544,1544,1544,1544,0,0,0,0,0,0,0,0,0,0
1706425305.20074487,106828918,1544,1544,1544,1544,0,0,0,0,0,0,0,0,0,0
1706425305.30070496,106928878,1544,1543,1543,1544,0,0,0,0,0,0,0,0,0,0
1706425305.40066481,107028838,1544,1545,1545,1544,0,0,0,0,0,0,0,0,0,0
1706425305.50062490,107128798,1545,1544,1544,1545,0,0,0,0,0,0,0,0,0,0
1706425305.60058498,107228758,1544,1544,1544,1544,0,0,0,0,0,0,0,0,0,0
1706425305.70054483,107328718,1544,1544,1544,1544,0,0,0,0,0,0,0,0,0,0
1706425305.80050492,107428678,1544,1545,1545,1545,0,0,0,0,0,0,0,0,0,0
1706425305.90046477,107528638,1545,1545,1544,1545,0,0,0,0,0,0,0,0,0,0
1706425306.00042486,107628598,1544,1544,1544,1544,0,0,0,0,0,0,0,0,0,0
1706425306.10038495,107728558,1544,1543,1544,1543,0,0,0,0,0,0,0,0,0,0
1706425306.20034480,107828518,1545,1545,1545,1545,0,0,0,0,0,0,0,0,0,0
1706425306.30030489,107928478,1545,1544,1544,1544,0,0,0,0,0,0,0,0,0,0
1706425306.40026498,108028438,1544,1544,1544,1544,0,0,0,0,0,0,0,0,0,0
1706425306.50022483,108128398,1544,1543,1543,1544,0,0,0,0,0,0,0,0,0,0
1706425306.60018492,108228358,1544,1545,1544,1544,0,0,0,0,0,0,0,0,0,0
1706425306.70014501,108328318,1544,1544,1544,1544,0,0,0,0,0,0,0,0,0,0
1706425306.80010486,108428278,1543,1543,1544,1544,0,0,0,0,0,0,0,0,0,0
1706425306.90006495,108528238,1544,1544,1544,1545,0,0,0,0,0,0,0,0,0,0
1706425307.00002480,108628198,1544,1545,1545,1544,0,0,0,0,0,0,0,0,0,0
1706425307.09998488,108728158,1544,1544,1544,1544,0,0,0,0,0,0,0,0,0,0
1706425307.20077777,108828951,1544,1544,1544,1544,0,0,0,0,0,0,0,0,0,0
1706425307.30073786,108928911,1544,1544,1544,1544,0,0,0,0,0,0,0,0,0,0
1706425307.40069795,109028871,1544,1544,1544,1544,0,0,0,0,0,0,0,0,0,0
1706425307.50065780,109128831,1544,1544,1544,1544,0,0,0,0,0,0,0,0,0,0
1706425307.60061789,109228791,1543,1543,1543,1543,0,0,0,0,0,0,0,0,0,0
1706425307.70057797,109328751,1544,1543,1543,1544,0,0,0,0,0,0,0,0,0,0
1706425307.80053782,109428711,1545,1544,1545,1544,0,0,0,0,0,0,0,0,0,0
1706425307.90049791,109528671,1545,1544,1544,1544,0,0,0,0,0,0,0,0,0,0
1706425308.00045800,109628631,1543,1544,1544,1543,0,0,0,0,0,0,0,0,0,0
1706425308.10041785,109728591,1545,1545,1545,1544,0,0,0,0,0,0,0,0,0,0
1706425308.20037794,109828551,1543,1544,1544,1544,0,0,0,0,0,0,0,0,0,0
1706425308.30033779,109928511,1544,1544,1544,1544,0,0,0,0,0,0,0,0,0,0
1706425308.40029788,110028471,1544,1544,1544,1544,0,0,0,0,0,0,0,0,0,0
1706425308.50025797,110128431,1545,1544,1544,1545,0,0,0,0,0,0,0,0,0,0
1706425308.60021782,110228391,1544,1544,1544,1544,0,0,0,0,0,0,0,0,0,0
1706425308.70017791,110328351,1544,1544,1544,1544,0,0,0,0,0,0,0,0,0,0
1706425308.80013800,110428311,1545,1545,1545,1545,0,0,0,0,0,0,0,0,0,0
1706425308.90009785,110528271,1545,1544,1545,1545,0,0,0,0,0,0,0,0,0,0
1706425309.00005794,110628231,1544,1544,1544,1544,0,0,0,0,0,0,0,0,0,0
1706425309.10001779,110728191,1544,1544,1544,1544,0,0,0,0,0,0,0,0,0,0
1706425309.20081091,110828984,1545,1545,1545,1545,0,0,0,0,0,0,0,0,0,0
1706425309.30077100,110928944,1545,1544,1544,1544,0,0,0,0,0,0,0,0,0,0
1706425309.40073085,111028904,1544,1545,1544,1544,0,0,0,0,0,0,0,0,0,0
1706425309.50069094,111128864,1544,1545,1544,1544,0,0,0,0,0,0,0,0,0,0
1706425309.60065079,111228824,1544,1545,1544,1544,0,0,0,0,0,0,0,0,0,0
1706425309.70061088,111328784,1463,1455,1456,1456,0,0,0,0,0,0,0,0,0,0
1706425309.80057096,111428744,1320,1295,1297,1296,0,0,0,0,0,0,0,0,0,0
1706425309.90053082,111528704,1263,1228,1229,1229,0,0,0,0,0,0,0,0,0,0
1706425310.00049090,111628664,1244,1205,1207,1206,0,0,0,0,0,0,0,0,0,0
1706425310.10045099,111728624,1217,1172,1175,1174,0,0,0,0,0,0,0,0,0,0
1706425310.20041084,111828584,1198,1150,1152,1151,0,0,0,0,0,0,0,0,0,0
1706425310.30037093,111928544,1200,1150,1152,1152,0,0,0,0,0,0,0,0,0,0
1706425310.40033078,112028504,1203,1150,1152,1156,0,0,0,0,0,0,0,0,0,0
1706425310.50029087,112128464,1223,1150,1150,1184,0,0,0,0,0,0,0,0,0,0
1706425310.60025096,112228424,1216,1150,1152,1174,0,0,0,0,0,0,0,0,0,0
1706425310.70021081,112328384,1215,1150,1152,1172,0,0,0,0,0,0,0,0,0,0
1706425310.80017090,112428344,1216,1150,1152,1173,0,0,0,0,0,0,0,0,0,0
1706425310.90013099,112528304,1218,1150,1152,1176,0,0,0,0,0,0,0,0,0,0
1706425311.00009084,112628264,1220,1150,1152,1178,0,0,0,0,0,0,0,0,0,0
1706425311.10005093,112728224,1221,1150,1152,1180,0,0,0,0,0,0,0,0,0,0
1706425311.20001078,112828184,1197,1150,1151,1150,0,0,0,0,0,0,0,0,0,0
1706425311.30080390,112928977,1210,1150,1152,1166,0,0,0,0,0,0,0,0,0,0
1706425311.40076399,113028937,1211,1150,1152,1168,0,0,0,0,0,0,0,0,0,0
1706425311.50072384,113128897,1212,1150,1152,1169,0,0,0,0,0,0,0,0,0,0
1706425311.60068393,113228857,1213,1150,1152,1169,0,0,0,0,0,0,0,0,0,0
1706425311.70064378,113328817,1092,1148,1148,1148,0,0,0,0,0,0,0,0,0,0
1706425311.80060387,113428777,1000,1000,1000,1000,0,0,0,0,0,0,0,0,0,0
1706425311.90056396,113528737,1000,1000,1000,1000,0,0,0,0,0,0,0,0,0,0
1706425312.00052381,113628697,1000,1000,1000,1000,0,0,0,0,0,0,0,0,0,0
1706425312.10048389,113728657,1000,1000,1000,1000,0,0,0,0,0,0,0,0,0,0
1706425312.20044398,113828617,1000,1000,1000,1000,0,0,0,0,0,0,0,0,0,0
1706425312.30040383,113928577,1000,1000,1000,1000,0,0,0,0,0,0,0,0,0,0
1706425312.40036392,114028537,1000,1000,1000,1000,0,0,0,0,0,0,0,0,0,0
1706425312.50032377,114128497,1000,1000,1000,1000,0,0,0,0,0,0,0,0,0,0
1706425312.60028386,114228457,1000,1000,1000,1000,0,0,0,0,0,0,0,0,0,0
1706425312.70024395,114328417,1000,1000,1000,1000,0,0,0,0,0,0,0,0,0,0
1706425312.80020380,114428377,1000,1000,1000,1000,0,0,0,0,0,0,0,0,0,0
1706425312.90016389,114528337,1000,1000,1000,1000,0,0,0,0,0,0,0,0,0,0
1706425313.00012398,114628297,1000,1000,1000,1000,0,0,0,0,0,0,0,0,0,0
1706425313.10008383,114728257,1000,1000,1000,1000,0,0,0,0,0,0,0,0,0,0
1706425313.20004392,114828217,1000,1000,1000,1000,0,0,0,0,0,0,0,0,0,0
1706425313.30000401,114928177,1000,1000,1000,1000,0,0,0,0,0,0,0,0,0,0
1706425313.40079689,115028970,1000,1000,1000,1000,0,0,0,0,0,0,0,0,0,0
1706425313.50075698,115128930,1000,1000,1000,1000,0,0,0,0,0,0,0,0,0,0
1706425313.60071683,115228890,1000,1000,1000,1000,0,0,0,0,0,0,0,0,0,0
1706425313.70067692,115328850,1000,1000,1000,1000,0,0,0,0,0,0,0,0,0,0
1706425313.80063677,115428810,1000,1000,1000,1000,0,0,0,0,0,0,0,0,0,0
1706425313.90059686,115528770,1000,1000,1000,1000,0,0,0,0,0,0,0,0,0,0
1706425314.00055695,115628730,1000,1000,1000,1000,0,0,0,0,0,0,0,0,0,0
1706425314.10051680,115728690,1000,1000,1000,1000,0,0,0,0,0,0,0,0,0,0
1706425314.20047688,115828650,1000,1000,1000,1000,0,0,0,0,0,0,0,0,0,0
1706425314.30043697,115928610,1000,1000,1000,1000,0,0,0,0,0,0,0,0,0,0
1706425314.40039682,116028570,1000,1000,1000,1000,0,0,0,0,0,0,0,0,0,0
1706425314.50035691,116128530,1000,1000,1000,1000,0,0,0,0,0,0,0,0,0,0
1706425314.60031700,116228490,1000,1000,1000,1000,0,0,0,0,0,0,0,0,0,0
1706425314.70027685,116328450,1000,1000,1000,1000,0,0,0,0,0,0,0,0,0,0
1706425314.80023694,116428410,1000,1000,1000,1000,0,0,0,0,0,0,0,0,0,0
1706425314.90019679,116528370,1000,1000,1000,1000,0,0,0,0,0,0,0,0,0,0
1706425315.00015688,116628330,1000,1000,1000,1000,0,0,0,0,0,0,0,0,0,0
1706425315.10011697,116728290,1000,1000,1000,1000,0,0,0,0,0,0,0,0,0,0
1706425315.20007682,116828250,1000,1000,1000,1000,0,0,0,0,0,0,0,0,0,0
1706425315.30003691,116928210,1000,1000,1000,1000,0,0,0,0,0,0,0,0,0,0
1706425315.39999700,117028170,1000,1000,1000,1000,0,0,0,0,0,0,0,0,0,0
1706425315.50078988,117128963,1000,1000,1000,1000,0,0,0,0,0,0,0,0,0,0
1706425315.60074997,117228923,1000,1000,1000,1000,0,0,0,0,0,0,0,0,0,0
1706425315.70070982,117328883,1000,1000,1000,1000,0,0,0,0,0,0,0,0,0,0
1706425315.80066991,117428843,1000,1000,1000,1000,0,0,0,0,0,0,0,0,0,0
1706425315.90063000,117528803,1000,1000,1000,1000,0,0,0,0,0,0,0,0,0,0
1706425316.00058985,117628763,1000,1000,1000,1000,0,0,0,0,0,0,0,0,0,0
1706425316.10054994,117728723,1000,1000,1000,1000,0,0,0,0,0,0,0,0,0,0
1706425316.20050979,117828683,1000,1000,1000,1000,0,0,0,0,0,0,0,0,0,0
1706425316.30046988,117928643,1000,1000,1000,1000,0,0,0,0,0,0,0,0,0,0
1706425316.40042996,118028603,1000,1000,1000,1000,0,0,0,0,0,0,0,0,0,0
1706425316.50038981,118128563,1000,1000,1000,1000,0,0,0,0,0,0,0,0,0,0
1706425316.60034990,118228523,1000,1000,1000,1000,0,0,0,0,0,0,0,0,0,0
1706425316.70030999,118328483,1000,1000,1000,1000,0,0,0,0,0,0,0,0,0,0
1706425316.80026984,118428443,1000,1000,1000,1000,0,0,0,0,0,0,0,0,0,0
1706425316.90022993,118528403,1000,1000,1000,1000,0,0,0,0,0,0,0,0,0,0
1706425317.00018978,118628363,1000,1000,1000,1000,0,0,0,0,0,0,0,0,0,0
1706425317.10014987,118728323,1000,1000,1000,1000,0,0,0,0,0,0,0,0,0,0
1706425317.20010996,118828283,1000,1000,1000,1000,0,0,0,0,0,0,0,0,0,0
1706425317.30006981,118928243,1000,1000,1000,1000,0,0,0,0,0,0,0,0,0,0
1706425317.40002990,119028203,1000,1000,1000,1000,0,0,0,0,0,0,0,0,0,0
1706425317.49998999,119128163,1000,1000,1000,1000,0,0,0,0,0,0,0,0,0,0
1706425317.60078287,119228956,1000,1000,1000,1000,0,0,0,0,0,0,0,0,0,0
1706425317.70074296,119328916,1000,1000,1000,1000,0,0,0,0,0,0,0,0,0,0
1706425317.80070281,119428876,1000,1000,1000,1000,0,0,0,0,0,0,0,0,0,0
1706425317.90066290,119528836,1000,1000,1000,1000,0,0,0,0,0,0,0,0,0,0
1706425318.00062299,119628796,1000,1000,1000,1000,0,0,0,0,0,0,0,0,0,0
1706425318.10058284,119728756,1000,1000,1000,1000,0,0,0,0,0,0,0,0,0,0
1706425318.20054293,119828716,1000,1000,1000,1000,0,0,0,0,0,0,0,0,0,0
1706425318.30050278,119928676,1000,1000,1000,1000,0,0,0,0,0,0,0,0,0,0
1706425318.40046287,120028636,1000,1000,1000,1000,0,0,0,0,0,0,0,0,0,0
1706425318.50042295,120128596,1000,1000,1000,1000,0,0,0,0,0,0,0,0,0,0
1706425318.60038280,120228556,1000,1000,1000,1000,0,0,0,0,0,0,0,0,0,0
1706425318.70034289,120328516,1000,1000,1000,1000,0,0,0,0,0,0,0,0,0,0
1706425318.80030298,120428476,1000,1000,1000,1000,0,0,0,0,0,0,0,0,0,0
1706425318.90026283,120528436,1000,1000,1000,1000,0,0,0,0,0,0,0,0,0,0
1706425319.00022292,120628396,1000,1000,1000,1000,0,0,0,0,0,0,0,0,0,0
1706425319.10018277,120728356,1000,1000,1000,1000,0,0,0,0,0,0,0,0,0,0
1706425319.20014286,120828316,1000,1000,1000,1000,0,0,0,0,0,0,0,0,0,0
1706425319.30010295,120928276,1000,1000,1000,1000,0,0,0,0,0,0,0,0,0,0
1706425319.40006280,121028236,1000,1000,1000,1000,0,0,0,0,0,0,0,0,0,0
1706425319.50002289,121128196,1000,1000,1000,1000,0,0,0,0,0,0,0,0,0,0
1706425319.59998298,121228156,1000,1000,1000,1000,0,0,0,0,0,0,0,0,0,0
1706425319.70077586,121328949,1000,1000,1000,1000,0,0,0,0,0,0,0,0,0,0
1706425319.80073595,121428909,1000,1000,1000,1000,0,0,0,0,0,0,0,0,0,0
1706425319.90069580,121528869,1000,1000,1000,1000,0,0,0,0,0,0,0,0,0,0
1706425320.00065589,121628829,1000,1000,1000,1000,0,0,0,0,0,0,0,0,0,0
1706425320.10061598,121728789,1000,1000,1000,1000,0,0,0,0,0,0,0,0,0,0
1706425320.20057583,121828749,1000,1000,1000,1000,0,0,0,0,0,0,0,0,0,0
1706425320.30053592,121928709,1000,1000,1000,1000,0,0,0,0,0,0,0,0,0,0
1706425320.40049601,122028669,1000,1000,1000,1000,0,0,0,0,0,0,0,0,0,0
1706425320.50045586,122128629,1000,1000,1000,1000,0,0,0,0,0,0,0,0,0,0
1706425320.60041595,122228589,1000,1000,1000,1000,0,0,0,0,0,0,0,0,0,0
1706425320.70037580,122328549,1000,1000,1000,1000,0,0,0,0,0,0,0,0,0,0
1706425320.80033588,122428509,1000,1000,1000,1000,0,0,0,0,0,0,0,0,0,0
1706425320.90029597,122528469,1000,1000,1000,1000,0,0,0,0,0,0,0,0,0,0
1706425321.00025582,122628429,1000,1000,1000,1000,0,0,0,0,0,0,0,0,0,0
1706425321.10021591,122728389,1000,1000,1000,1000,0,0,0,0,0,0,0,0,0,0
1706425321.20017600,122828349,1000,1000,1000,1000,0,0,0,0,0,0,0,0,0,0
1706425321.30013585,122928309,1000,1000,1000,1000,0,0,0,0,0,0,0,0,0,0
