TimeUS,M1,M2,M3,M4,TimeUS,C1,C2,C3,C4
75873805,1000,1000,1000,1000,75928783,1000,1000,1000,1000
75876304,1000,1000,1000,1000,76028743,1000,1000,1000,1000
75878803,1000,1000,1000,1000,76128703,1000,1000,1000,1000
75881302,1000,1000,1000,1000,76228663,1000,1000,1000,1000
75883801,1000,1000,1000,1000,76328623,1000,1000,1000,1000
75886300,1000,1000,1000,1000,76428583,1000,1000,1000,1000
75888799,1000,1000,1000,1000,76528543,1000,1000,1000,1000
75891298,1000,1000,1000,1000,76628503,1000,1000,1000,1000
75893797,1000,1000,1000,1000,76728463,1000,1000,1000,1000
75896296,1000,1000,1000,1000,76828423,1000,1000,1000,1000
75898795,1000,1000,1000,1000,76928383,1000,1000,1000,1000
75901294,1000,1000,1000,1000,77028343,1000,1000,1000,1000
75903793,1000,1000,1000,1000,77128303,1000,1000,1000,1000
75906292,1000,1000,1000,1000,77228263,1000,1000,1000,1000
75908791,1000,1000,1000,1000,77328223,1000,1000,1000,1000
75911290,1000,1000,1000,1000,77428183,1000,1000,1000,1000
75913789,1000,1000,1000,1000,77528976,1000,1000,1000,1000
75916288,1000,1000,1000,1000,77628936,1000,1000,1000,1000
75918787,1000,1000,1000,1000,77728896,1000,1000,1000,1000
75921286,1000,1000,1000,1000,77828856,1000,1000,1000,1000
75923785,1000,1000,1000,1000,77928816,1016,1016,1016,1016
75926284,1000,1000,1000,1000,78028776,1046,1046,1046,1046
75928783,1000,1000,1000,1000,78128736,1076,1076,1076,1076
75931282,1000,1000,1000,1000,78228696,1106,1106,1106,1106
75933781,1000,1000,1000,1000,78328656,1136,1136,1136,1136
75936280,1000,1000,1000,1000,78428616,1301,1292,1292,1302
75938779,1000,1000,1000,1000,78528576,1505,1497,1497,1505
75941278,1000,1000,1000,1000,78628536,1664,1657,1658,1664
75943777,1000,1000,1000,1000,78728496,1800,1793,1793,1800
75946276,1000,1000,1000,1000,78828456,1859,1851,1852,1859
75948775,1000,1000,1000,1000,78928416,1859,1855,1856,1860
75951274,1000,1000,1000,1000,79028376,1739,1738,1739,1739
75953773,1000,1000,1000,1000,79128336,1649,1650,1651,1649
75956272,1000,1000,1000,1000,79228296,1627,1630,1630,1627
75958771,1000,1000,1000,1000,79328256,1638,1641,1641,1638
75961270,1000,1000,1000,1000,79428216,1650,1652,1652,1650
75963769,1000,1000,1000,1000,79528176,1641,1640,1634,1647
75966268,1000,1000,1000,1000,79628969,1628,1630,1621,1636
75968767,1000,1000,1000,1000,79728929,1620,1621,1617,1624
75971266,1000,1000,1000,1000,79828889,1616,1617,1617,1616
75973765,1000,1000,1000,1000,79928849,1618,1617,1620,1614
75976264,1000,1000,1000,1000,80028809,1622,1621,1625,1618
75978763,1000,1000,1000,1000,80128769,1598,1598,1612,1585
75981262,1000,1000,1000,1000,80228729,1583,1583,1599,1567
75983761,1000,1000,1000,1000,80328689,1571,1572,1578,1566
75986260,1000,1000,1000,1000,80428649,1560,1560,1558,1564
75988759,1000,1000,1000,1000,80528609,1553,1552,1544,1561
75991258,1000,1000,1000,1000,80628569,1546,1545,1534,1558
75993757,1000,1000,1000,1000,80728529,1539,1538,1528,1548
75996256,1000,1000,1000,1000,80828489,1534,1533,1528,1539
75998755,1000,1000,1000,1000,80928449,1529,1529,1527,1530
76001254,1000,1000,1000,1000,81028409,1527,1528,1529,1526
76003753,1000,1000,1000,1000,81128369,1529,1529,1531,1526
76006252,1000,1000,1000,1000,81228329,1531,1531,1534,1528
76008751,1000,1000,1000,1000,81328289,1535,1535,1537,1532
76011250,1000,1000,1000,1000,81428249,1537,1538,1540,1536
76013749,1000,1000,1000,1000,81528209,1542,1542,1544,1541
76016248,1000,1000,1000,1000,81628169,1544,1545,1545,1545
76018747,1000,1000,1000,1000,81728962,1549,1548,1549,1549
76021246,1000,1000,1000,1000,81828922,1551,1551,1551,1552
76023745,1000,1000,1000,1000,81928882,1552,1552,1552,1554
76026244,1000,1000,1000,1000,82028842,1555,1555,1554,1556
76028743,1000,1000,1000,1000,82128802,1560,1560,1554,1556
76031242,1000,1000,1000,1000,82228762,1562,1561,1557,1558
76033741,1000,1000,1000,1000,82328722,1561,1561,1561,1562
76036240,1000,1000,1000,1000,82428682,1561,1561,1565,1565
76038739,1000,1000,1000,1000,82528642,1561,1561,1568,1567
76041238,1000,1000,1000,1000,82628602,1561,1562,1569,1568
76043737,1000,1000,1000,1000,82728562,1562,1563,1570,1569
76046236,1000,1000,1000,1000,82828522,1564,1565,1570,1570
76048735,1000,1000,1000,1000,82928482,1567,1567,1570,1571
76051234,1000,1000,1000,1000,83028442,1568,1568,1570,1570
76053733,1000,1000,1000,1000,83128402,1570,1570,1569,1570
76056232,1000,1000,1000,1000,83228362,1571,1572,1569,1570
76058731,1000,1000,1000,1000,83328322,1574,1574,1571,1571
76061230,1000,1000,1000,1000,83428282,1575,1575,1572,1571
76063729,1000,1000,1000,1000,83528242,1577,1576,1573,1571
76066228,1000,1000,1000,1000,83628202,1577,1577,1574,1572
76068727,1000,1000,1000,1000,83728162,1577,1578,1575,1573
76071226,1000,1000,1000,1000,83828955,1578,1578,1576,1575
76073725,1000,1000,1000,1000,83928915,1577,1576,1574,1575
76076224,1000,1000,1000,1000,84028875,1576,1576,1575,1576
76078723,1000,1000,1000,1000,84128835,1576,1576,1576,1576
76081222,1000,1000,1000,1000,84228795,1576,1576,1577,1577
76083721,1000,1000,1000,1000,84328755,1576,1577,1578,1577
76086220,1000,1000,1000,1000,84428715,1576,1576,1578,1577
76088719,1000,1000,1000,1000,84528675,1576,1576,1578,1577
76091218,1000,1000,1000,1000,84628635,1576,1576,1577,1577
76093717,1000,1000,1000,1000,84728595,1577,1577,1578,1578
76096216,1000,1000,1000,1000,84828555,1577,1577,1578,1578
76098715,1000,1000,1000,1000,84928515,1577,1577,1577,1578
76101214,1000,1000,1000,1000,85028475,1577,1577,1577,1577
76103713,1000,1000,1000,1000,85128435,1578,1578,1578,1578
76106212,1000,1000,1000,1000,85228395,1579,1578,1579,1578
76108711,1000,1000,1000,1000,85328355,1579,1579,1579,1578
76111210,1000,1000,1000,1000,85428315,1579,1579,1579,1579
76113709,1000,1000,1000,1000,85528275,1579,1579,1579,1579
76116208,1000,1000,1000,1000,85628235,1578,1579,1578,1578
76118707,1000,1000,1000,1000,85728195,1579,1579,1578,1579
76121206,1000,1000,1000,1000,85828155,1579,1579,1579,1579
76123705,1000,1000,1000,1000,85928948,1579,1578,1578,1579
76126204,1000,1000,1000,1000,86028908,1580,1580,1580,1580
76128703,1000,1000,1000,1000,86128868,1579,1580,1580,1579
76131202,1000,1000,1000,1000,86228828,1579,1580,1580,1580
76133701,1000,1000,1000,1000,86328788,1579,1579,1579,1579
76136200,1000,1000,1000,1000,86428748,1579,1579,1580,1579
76138699,1000,1000,1000,1000,86528708,1580,1580,1580,1580
76141198,1000,1000,1000,1000,86628668,1580,1580,1581,1580
76143697,1000,1000,1000,1000,86728628,1580,1580,1580,1580
76146196,1000,1000,1000,1000,86828588,1580,1580,1580,1580
76148695,1000,1000,1000,1000,86928548,1580,1580,1580,1581
76151194,1000,1000,1000,1000,87028508,1580,1580,1580,1580
76153693,1000,1000,1000,1000,87128468,1580,1580,1580,1580
76156192,1000,1000,1000,1000,87228428,1580,1580,1580,1580
76158691,1000,1000,1000,1000,87328388,1580,1580,1580,1580
76161190,1000,1000,1000,1000,87428348,1580,1580,1580,1580
76163689,1000,1000,1000,1000,87528308,1580,1581,1581,1580
76166188,1000,1000,1000,1000,87628268,1580,1580,1580,1580
76168687,1000,1000,1000,1000,87728228,1581,1581,1581,1580
76171186,1000,1000,1000,1000,87828188,1580,1580,1580,1580
76173685,1000,1000,1000,1000,87928981,1580,1580,1580,1581
76176184,1000,1000,1000,1000,88028941,1581,1580,1581,1581
76178683,1000,1000,1000,1000,88128901,1580,1580,1580,1581
76181182,1000,1000,1000,1000,88228861,1581,1581,1581,1581
76183681,1000,1000,1000,1000,88328821,1580,1581,1587,1573
76186180,1000,1000,1000,1000,88428781,1580,1582,1585,1573
76188679,1000,1000,1000,1000,88528741,1579,1582,1576,1573
76191178,1000,1000,1000,1000,88628701,1578,1581,1568,1572
76193677,1000,1000,1000,1000,88728661,1577,1580,1561,1568
76196176,1000,1000,1000,1000,88828621,1578,1579,1557,1563
76198675,1000,1000,1000,1000,88928581,1579,1578,1555,1559
76201174,1000,1000,1000,1000,89028541,1580,1577,1555,1555
76203673,1000,1000,1000,1000,89128501,1580,1578,1556,1554
76206172,1000,1000,1000,1000,89228461,1579,1578,1557,1554
76208671,1000,1000,1000,1000,89328421,1577,1578,1556,1554
76211170,1000,1000,1000,1000,89428381,1577,1578,1556,1555
76213669,1000,1000,1000,1000,89528341,1576,1578,1555,1555
76216168,1000,1000,1000,1000,89628301,1575,1577,1553,1553
76218667,1000,1000,1000,1000,89728261,1576,1577,1551,1552
76221166,1000,1000,1000,1000,89828221,1578,1579,1550,1550
76223665,1000,1000,1000,1000,89928181,1579,1580,1548,1547
76226164,1000,1000,1000,1000,90028974,1582,1583,1545,1545
76228663,1000,1000,1000,1000,90128934,1585,1586,1542,1542
76231162,1000,1000,1000,1000,90228894,1587,1588,1539,1539
76233661,1000,1000,1000,1000,90328854,1590,1591,1537,1536
76236160,1000,1000,1000,1000,90428814,1593,1594,1535,1535
76238659,1000,1000,1000,1000,90528774,1596,1596,1535,1536
76241158,1000,1000,1000,1000,90628734,1596,1595,1534,1536
76243657,1000,1000,1000,1000,90728694,1595,1594,1536,1538
76246156,1000,1000,1000,1000,90828654,1593,1592,1540,1542
76248655,1000,1000,1000,1000,90928614,1589,1586,1545,1549
76251154,1000,1000,1000,1000,91028574,1582,1579,1554,1556
76253653,1000,1000,1000,1000,91128534,1573,1570,1565,1567
76256152,1000,1000,1000,1000,91228494,1562,1559,1576,1578
76258651,1000,1000,1000,1000,91328454,1552,1549,1590,1591
76261150,1000,1000,1000,1000,91428414,1542,1540,1601,1601
76263649,1000,1000,1000,1000,91528374,1534,1533,1610,1609
76266148,1000,1000,1000,1000,91628334,1530,1530,1615,1614
76268647,1000,1000,1000,1000,91728294,1529,1531,1617,1615
76271146,1000,1000,1000,1000,91828254,1532,1534,1614,1614
76273645,1000,1000,1000,1000,91928214,1538,1540,1609,1609
76276144,1000,1000,1000,1000,92028174,1546,1548,1603,1603
76278643,1000,1000,1000,1000,92128967,1554,1555,1595,1595
76281142,1000,1000,1000,1000,92228927,1563,1563,1587,1587
76283641,1000,1000,1000,1000,92328887,1572,1571,1580,1579
76286140,1000,1000,1000,1000,92428847,1579,1578,1574,1573
76288639,1000,1000,1000,1000,92528807,1584,1583,1570,1570
76291138,1000,1000,1000,1000,92628767,1587,1586,1567,1567
76293637,1000,1000,1000,1000,92728727,1588,1587,1566,1566
76296136,1000,1000,1000,1000,92828687,1587,1586,1566,1566
76298635,1000,1000,1000,1000,92928647,1586,1585,1568,1569
76301134,1000,1000,1000,1000,93028607,1584,1583,1571,1571
76303633,1000,1000,1000,1000,93128567,1580,1580,1573,1574
76306132,1000,1000,1000,1000,93228527,1578,1578,1577,1577
76308631,1000,1000,1000,1000,93328487,1575,1576,1579,1579
76311130,1000,1000,1000,1000,93428447,1572,1573,1581,1581
76313629,1000,1000,1000,1000,93528407,1571,1572,1582,1582
76316128,1000,1000,1000,1000,93628367,1572,1573,1584,1584
76318627,1000,1000,1000,1000,93728327,1572,1573,1584,1584
76321126,1000,1000,1000,1000,93828287,1573,1574,1584,1583
76323625,1000,1000,1000,1000,93928247,1574,1575,1582,1582
76326124,1000,1000,1000,1000,94028207,1577,1576,1581,1581
76328623,1000,1000,1000,1000,94128167,1578,1578,1579,1580
76331122,1000,1000,1000,1000,94228960,1578,1578,1578,1578
76333621,1000,1000,1000,1000,94328920,1580,1580,1578,1578
76336120,1000,1000,1000,1000,94428880,1581,1581,1577,1577
76338619,1000,1000,1000,1000,94528840,1582,1581,1577,1577
76341118,1000,1000,1000,1000,94628800,1581,1581,1577,1577
76343617,1000,1000,1000,1000,94728760,1581,1581,1578,1577
76346116,1000,1000,1000,1000,94828720,1582,1582,1579,1579
76348615,1000,1000,1000,1000,94928680,1581,1581,1579,1579
76351114,1000,1000,1000,1000,95028640,1594,1534,1586,1587
76353613,1000,1000,1000,1000,95128600,1581,1563,1586,1587
76356112,1000,1000,1000,1000,95228560,1587,1567,1584,1584
76358611,1000,1000,1000,1000,95328520,1589,1574,1583,1582
76361110,1000,1000,1000,1000,95428480,1588,1581,1581,1580
76363609,1000,1000,1000,1000,95528440,1586,1586,1579,1579
76366108,1000,1000,1000,1000,95628400,1584,1589,1578,1578
76368607,1000,1000,1000,1000,95728360,1585,1591,1579,1579
76371106,1000,1000,1000,1000,95828320,1584,1590,1578,1578
76373605,1000,1000,1000,1000,95928280,1586,1588,1579,1579
76376104,1000,1000,1000,1000,96028240,1585,1586,1580,1580
76378603,1000,1000,1000,1000,96128200,1585,1584,1580,1580
76381102,1000,1000,1000,1000,96228160,1584,1582,1580,1580
76383601,1000,1000,1000,1000,96328953,1583,1584,1587,1574
76386100,1000,1000,1000,1000,96428913,1583,1585,1585,1572
76388599,1000,1000,1000,1000,96528873,1580,1583,1575,1571
76391098,1000,1000,1000,1000,96628833,1578,1582,1566,1570
76393597,1000,1000,1000,1000,96728793,1577,1580,1559,1566
76396096,1000,1000,1000,1000,96828753,1578,1579,1556,1563
76398595,1000,1000,1000,1000,96928713,1579,1578,1555,1558
76401094,1000,1000,1000,1000,97028673,1579,1578,1555,1555
76403593,1000,1000,1000,1000,97128633,1579,1577,1555,1553
76406092,1000,1000,1000,1000,97228593,1577,1577,1555,1552
76408591,1000,1000,1000,1000,97328553,1576,1577,1554,1552
76411090,1000,1000,1000,1000,97428513,1576,1577,1554,1552
76413589,1000,1000,1000,1000,97528473,1575,1576,1552,1552
76416088,1000,1000,1000,1000,97628433,1575,1577,1551,1552
76418587,1000,1000,1000,1000,97728393,1577,1578,1551,1551
76421086,1000,1000,1000,1000,97828353,1577,1578,1548,1548
76423585,1000,1000,1000,1000,97928313,1580,1581,1547,1548
76426084,1000,1000,1000,1000,98028273,1581,1582,1545,1545
76428583,1000,1000,1000,1000,98128233,1584,1585,1543,1543
76431082,1000,1000,1000,1000,98228193,1587,1587,1542,1541
76433581,1000,1000,1000,1000,98328986,1589,1589,1541,1540
76436080,1000,1000,1000,1000,98428946,1591,1591,1540,1541
76438579,1000,1000,1000,1000,98528906,1591,1591,1539,1540
76441078,1000,1000,1000,1000,98628866,1591,1591,1539,1542
76443577,1000,1000,1000,1000,98728826,1590,1590,1542,1545
76446076,1000,1000,1000,1000,98828786,1588,1586,1547,1550
76448575,1000,1000,1000,1000,98928746,1584,1580,1554,1557
76451074,1000,1000,1000,1000,99028706,1577,1573,1563,1565
76453573,1000,1000,1000,1000,99128666,1567,1564,1573,1575
76456072,1000,1000,1000,1000,99228626,1558,1555,1584,1585
76458571,1000,1000,1000,1000,99328586,1549,1546,1594,1594
76461070,1000,1000,1000,1000,99428546,1541,1541,1602,1602
76463569,1000,1000,1000,1000,99528506,1537,1538,1608,1608
76466068,1000,1000,1000,1000,99628466,1536,1538,1610,1610
76468567,1000,1000,1000,1000,99728426,1537,1539,1610,1609
76471066,1000,1000,1000,1000,99828386,1542,1544,1607,1607
76473565,1000,1000,1000,1000,99928346,1547,1549,1601,1601
76476064,1000,1000,1000,1000,100028306,1554,1555,1595,1595
76478563,1000,1000,1000,1000,100128266,1562,1563,1590,1589
76481062,1000,1000,1000,1000,100228226,1570,1570,1584,1583
76483561,1000,1000,1000,1000,100328186,1576,1574,1578,1577
76486060,1000,1000,1000,1000,100428979,1581,1580,1574,1573
76488559,1000,1000,1000,1000,100528939,1583,1582,1569,1570
76491058,1000,1000,1000,1000,100628899,1585,1583,1567,1568
76493557,1000,1000,1000,1000,100728859,1585,1584,1567,1569
76496056,1000,1000,1000,1000,100828819,1585,1584,1569,1570
76498555,1000,1000,1000,1000,100928779,1584,1583,1572,1572
76501054,1000,1000,1000,1000,101028739,1582,1581,1574,1574
76503553,1000,1000,1000,1000,101128699,1579,1579,1577,1577
76506052,1000,1000,1000,1000,101228659,1576,1577,1579,1579
76508551,1000,1000,1000,1000,101328619,1574,1575,1580,1580
76511050,1000,1000,1000,1000,101428579,1573,1574,1582,1582
76513549,1000,1000,1000,1000,101528539,1574,1574,1583,1583
76516048,1000,1000,1000,1000,101628499,1573,1574,1583,1583
76518547,1000,1000,1000,1000,101728459,1574,1574,1583,1583
76521046,1000,1000,1000,1000,101828419,1575,1575,1582,1582
76523545,1000,1000,1000,1000,101928379,1576,1576,1581,1581
76526044,1000,1000,1000,1000,102028339,1577,1576,1580,1580
76528543,1000,1000,1000,1000,102128299,1578,1578,1579,1579
76531042,1000,1000,1000,1000,102228259,1579,1579,1578,1578
76533541,1000,1000,1000,1000,102328219,1581,1580,1579,1578
76536040,1000,1000,1000,1000,102428179,1581,1581,1578,1578
76538539,1000,1000,1000,1000,102528972,1581,1581,1578,1578
76541038,1000,1000,1000,1000,102628932,1579,1580,1576,1576
76543537,1000,1000,1000,1000,102728892,1582,1581,1578,1578
76546036,1000,1000,1000,1000,102828852,1581,1581,1578,1578
76548535,1000,1000,1000,1000,102928812,1580,1580,1578,1578
76551034,1000,1000,1000,1000,103028772,1580,1580,1579,1579
76553533,1000,1000,1000,1000,103128732,1580,1580,1580,1580
76556032,1000,1000,1000,1000,103228692,1581,1581,1581,1582
76558531,1000,1000,1000,1000,103328652,1580,1580,1581,1581
76561030,1000,1000,1000,1000,103428612,1580,1581,1582,1581
76563529,1000,1000,1000,1000,103528572,1580,1580,1582,1582
76566028,1000,1000,1000,1000,103628532,1581,1580,1582,1582
76568527,1000,1000,1000,1000,103728492,1580,1579,1580,1581
76571026,1000,1000,1000,1000,103828452,1581,1581,1581,1581
76573525,1000,1000,1000,1000,103928412,1581,1581,1581,1581
76576024,1000,1000,1000,1000,104028372,1580,1580,1580,1581
76578523,1000,1000,1000,1000,104128332,1581,1581,1580,1580
76581022,1000,1000,1000,1000,104228292,1581,1581,1581,1581
76583521,1000,1000,1000,1000,104328252,1581,1582,1581,1581
76586020,1000,1000,1000,1000,104428212,1582,1582,1582,1581
76588519,1000,1000,1000,1000,104528172,1582,1582,1585,1578
76591018,1000,1000,1000,1000,104628965,1581,1584,1587,1573
76593517,1000,1000,1000,1000,104728925,1579,1582,1580,1572
76596016,1000,1000,1000,1000,104828885,1579,1582,1572,1573
76598515,1000,1000,1000,1000,104928845,1578,1580,1564,1570
76601014,1000,1000,1000,1000,105028805,1578,1579,1558,1565
76603513,1000,1000,1000,1000,105128765,1578,1579,1555,1560
76606012,1000,1000,1000,1000,105228725,1580,1579,1555,1557
76608511,1000,1000,1000,1000,105328685,1581,1579,1555,1555
76611010,1000,1000,1000,1000,105428645,1579,1578,1556,1553
76613509,1000,1000,1000,1000,105528605,1578,1578,1555,1553
76616008,1000,1000,1000,1000,105628565,1576,1578,1555,1553
76618507,1000,1000,1000,1000,105728525,1576,1577,1555,1554
76621006,1000,1000,1000,1000,105828485,1575,1577,1554,1554
76623505,1000,1000,1000,1000,105928445,1575,1577,1552,1553
76626004,1000,1000,1000,1000,106028405,1575,1576,1550,1551
76628503,1000,1000,1000,1000,106128365,1577,1578,1549,1550
76631002,1000,1000,1000,1000,106228325,1579,1580,1547,1548
76633501,1000,1000,1000,1000,106328285,1581,1582,1545,1545
76636000,1000,1000,1000,1000,106428245,1584,1585,1544,1543
76638499,1000,1000,1000,1000,106528205,1587,1587,1541,1540
76640998,1000,1000,1000,1000,106628165,1589,1590,1539,1539
76643497,1000,1000,1000,1000,106728958,1591,1591,1538,1538
76645996,1000,1000,1000,1000,106828918,1592,1593,1537,1538
76648495,1000,1000,1000,1000,106928878,1593,1593,1538,1540
76650994,1000,1000,1000,1000,107028838,1592,1591,1539,1542
76653493,1000,1000,1000,1000,107128798,1590,1588,1543,1547
76655992,1000,1000,1000,1000,107228758,1585,1583,1551,1554
76658491,1000,1000,1000,1000,107328718,1579,1575,1561,1563
76660990,1000,1000,1000,1000,107428678,1570,1566,1571,1573
76663489,1000,1000,1000,1000,107528638,1559,1556,1582,1584
76665988,1000,1000,1000,1000,107628598,1549,1547,1593,1594
76668487,1000,1000,1000,1000,107728558,1540,1539,1602,1602
76670986,1000,1000,1000,1000,107828518,1535,1536,1609,1608
76673485,1000,1000,1000,1000,107928478,1533,1535,1612,1611
76675984,1000,1000,1000,1000,108028438,1534,1536,1611,1611
76678483,1000,1000,1000,1000,108128398,1539,1541,1609,1609
76680982,1000,1000,1000,1000,108228358,1544,1546,1604,1604
76683481,1000,1000,1000,1000,108328318,1552,1553,1598,1597
76685980,1000,1000,1000,1000,108428278,1561,1561,1591,1590
76688479,1000,1000,1000,1000,108528238,1568,1567,1585,1583
76690978,1000,1000,1000,1000,108628198,1575,1574,1578,1578
76693477,1000,1000,1000,1000,108728158,1580,1579,1573,1573
76695976,1000,1000,1000,1000,108828951,1584,1583,1570,1570
76698475,1000,1000,1000,1000,108928911,1586,1585,1568,1569
76700974,1000,1000,1000,1000,109028871,1586,1585,1568,1568
76703473,1000,1000,1000,1000,109128831,1587,1585,1570,1569
76705972,1000,1000,1000,1000,109228791,1585,1584,1571,1571
76708471,1000,1000,1000,1000,109328751,1582,1582,1573,1573
76710970,1000,1000,1000,1000,109428711,1579,1580,1576,1576
76713469,1000,1000,1000,1000,109528671,1577,1577,1578,1578
76715968,1000,1000,1000,1000,109628631,1575,1576,1581,1580
76718467,1000,1000,1000,1000,109728591,1573,1574,1582,1582
76720966,1000,1000,1000,1000,109828551,1573,1574,1584,1583
76723465,1000,1000,1000,1000,109928511,1573,1573,1584,1584
76725964,1000,1000,1000,1000,110028471,1574,1574,1583,1583
76728463,1000,1000,1000,1000,110128431,1575,1575,1583,1583
76730962,1000,1000,1000,1000,110228391,1574,1575,1581,1581
76733461,1000,1000,1000,1000,110328351,1577,1577,1580,1581
76735960,1000,1000,1000,1000,110428311,1578,1578,1579,1579
76738459,1000,1000,1000,1000,110528271,1579,1578,1578,1578
76740958,1000,1000,1000,1000,110628231,1580,1580,1578,1577
76743457,1000,1000,1000,1000,110728191,1580,1580,1577,1577
76745956,1000,1000,1000,1000,110828984,1581,1580,1576,1577
76748455,1000,1000,1000,1000,110928944,1580,1579,1576,1576
76750954,1000,1000,1000,1000,111028904,1581,1581,1577,1577
76753453,1000,1000,1000,1000,111128864,1580,1580,1577,1578
76755952,1000,1000,1000,1000,111228824,1580,1580,1578,1578
76758451,1000,1000,1000,1000,111328784,1580,1580,1579,1579
76760950,1000,1000,1000,1000,111428744,1580,1580,1580,1579
76763449,1000,1000,1000,1000,111528704,1580,1581,1581,1581
76765948,1000,1000,1000,1000,111628664,1580,1580,1582,1581
76768447,1000,1000,1000,1000,111728624,1580,1580,1581,1581
76770946,1000,1000,1000,1000,111828584,1579,1579,1581,1581
76773445,1000,1000,1000,1000,111928544,1580,1579,1581,1582
76775944,1000,1000,1000,1000,112028504,1579,1579,1580,1581
76778443,1000,1000,1000,1000,112128464,1580,1580,1581,1581
76780942,1000,1000,1000,1000,112228424,1581,1581,1582,1581
76783441,1000,1000,1000,1000,112328384,1581,1582,1582,1582
76785940,1000,1000,1000,1000,112428344,1582,1582,1582,1581
76788439,1000,1000,1000,1000,112528304,1582,1583,1588,1573
76790938,1000,1000,1000,1000,112628264,1581,1581,1585,1573
76793437,1000,1000,1000,1000,112728224,1578,1578,1578,1575
76795936,1000,1000,1000,1000,112828184,1575,1575,1571,1576
76798435,1000,1000,1000,1000,112928977,1572,1571,1566,1573
76800934,1000,1000,1000,1000,113028937,1570,1569,1565,1571
76803433,1000,1000,1000,1000,113128897,1567,1567,1565,1568
76805932,1000,1000,1000,1000,113228857,1566,1567,1566,1566
76808431,1000,1000,1000,1000,113328817,1566,1566,1567,1565
76810930,1000,1000,1000,1000,113428777,1566,1566,1568,1566
76813429,1000,1000,1000,1000,113528737,1565,1565,1567,1565
76815928,1000,1000,1000,1000,113628697,1564,1564,1566,1564
76818427,1000,1000,1000,1000,113728657,1563,1564,1564,1564
76820926,1000,1000,1000,1000,113828617,1563,1563,1563,1564
76823425,1000,1000,1000,1000,113928577,1563,1562,1563,1564
76825924,1000,1000,1000,1000,114028537,1562,1561,1562,1562
76828423,1000,1000,1000,1000,114128497,1561,1561,1561,1561
76830922,1000,1000,1000,1000,114228457,1561,1561,1561,1560
76833421,1000,1000,1000,1000,114328417,1561,1561,1561,1561
76835920,1000,1000,1000,1000,114428377,1560,1560,1560,1559
76838419,1000,1000,1000,1000,114528337,1559,1559,1559,1559
76840918,1000,1000,1000,1000,114628297,1558,1558,1559,1557
76843417,1000,1000,1000,1000,114728257,1558,1558,1558,1557
76845916,1000,1000,1000,1000,114828217,1559,1558,1559,1558
76848415,1000,1000,1000,1000,114928177,1558,1558,1558,1558
76850914,1000,1000,1000,1000,115028970,1558,1559,1559,1557
76853413,1000,1000,1000,1000,115128930,1558,1558,1559,1557
76855912,1000,1000,1000,1000,115228890,1559,1559,1561,1557
76858411,1000,1000,1000,1000,115328850,1560,1560,1559,1560
76860910,1000,1000,1000,1000,115428810,1560,1560,1558,1563
76863409,1000,1000,1000,1000,115528770,1560,1561,1557,1564
76865908,1000,1000,1000,1000,115628730,1561,1561,1558,1564
76868407,1000,1000,1000,1000,115728690,1561,1561,1559,1563
76870906,1000,1000,1000,1000,115828650,1560,1560,1560,1560
76873405,1000,1000,1000,1000,115928610,1560,1560,1560,1560
76875904,1000,1000,1000,1000,116028570,1558,1558,1557,1559
76878403,1000,1000,1000,1000,116128530,1553,1553,1552,1554
76880902,1000,1000,1000,1000,116228490,1548,1548,1548,1548
76883401,1000,1000,1000,1000,116328450,1543,1543,1543,1543
76885900,1000,1000,1000,1000,116428410,1536,1536,1536,1535
76888399,1000,1000,1000,1000,116528370,1528,1529,1528,1528
76890898,1000,1000,1000,1000,116628330,1521,1522,1521,1521
76893397,1000,1000,1000,1000,116728290,1519,1519,1519,1520
76895896,1000,1000,1000,1000,116828250,1519,1519,1520,1519
76898395,1000,1000,1000,1000,116928210,1520,1521,1521,1521
76900894,1000,1000,1000,1000,117028170,1523,1523,1523,1524
76903393,1000,1000,1000,1000,117128963,1526,1526,1527,1527
76905892,1000,1000,1000,1000,117228923,1531,1531,1532,1532
76908391,1000,1000,1000,1000,117328883,1535,1536,1536,1536
76910890,1000,1000,1000,1000,117428843,1538,1538,1539,1539
76913389,1000,1000,1000,1000,117528803,1541,1541,1541,1541
76915888,1000,1000,1000,1000,117628763,1542,1543,1543,1542
76918387,1000,1000,1000,1000,117728723,1543,1544,1544,1543
76920886,1000,1000,1000,1000,117828683,1545,1546,1546,1545
76923385,1000,1000,1000,1000,117928643,1547,1547,1547,1547
76925884,1000,1000,1000,1000,118028603,1547,1547,1546,1546
76928383,1000,1000,1000,1000,118128563,1546,1546,1546,1546
76930882,1000,1000,1000,1000,118228523,1546,1546,1546,1546
76933381,1000,1000,1000,1000,118328483,1546,1546,1546,1546
76935880,1000,1000,1000,1000,118428443,1546,1546,1546,1546
76938379,1000,1000,1000,1000,118528403,1547,1547,1547,1547
76940878,1000,1000,1000,1000,118628363,1546,1546,1546,1546
76943377,1000,1000,1000,1000,118728323,1546,1545,1546,1545
76945876,1000,1000,1000,1000,118828283,1544,1545,1545,1544
76948375,1000,1000,1000,1000,118928243,1544,1545,1544,1544
76950874,1000,1000,1000,1000,119028203,1544,1545,1544,1544
76953373,1000,1000,1000,1000,119128163,1545,1544,1545,1545
76955872,1000,1000,1000,1000,119228956,1545,1545,1545,1545
76958371,1000,1000,1000,1000,119328916,1544,1544,1544,1544
76960870,1000,1000,1000,1000,119428876,1544,1544,1544,1544
76963369,1000,1000,1000,1000,119528836,1545,1544,1544,1545
76965868,1000,1000,1000,1000,119628796,1544,1544,1544,1544
76968367,1000,1000,1000,1000,119728756,1544,1544,1544,1544
76970866,1000,1000,1000,1000,119828716,1544,1544,1544,1543
76973365,1000,1000,1000,1000,119928676,1544,1544,1544,1543
76975864,1000,1000,1000,1000,120028636,1544,1544,1544,1544
76978363,1000,1000,1000,1000,120128596,1543,1543,1543,1543
76980862,1000,1000,1000,1000,120228556,1543,1543,1543,1543
76983361,1000,1000,1000,1000,120328516,1543,1543,1543,1543
76985860,1000,1000,1000,1000,120428476,1543,1543,1543,1543
76988359,1000,1000,1000,1000,120528436,1545,1544,1544,1544
76990858,1000,1000,1000,1000,120628396,1544,1544,1544,1544
76993357,1000,1000,1000,1000,120728356,1544,1544,1544,1544
76995856,1000,1000,1000,1000,120828316,1544,1545,1545,1545
76998355,1000,1000,1000,1000,120928276,1544,1544,1544,1544
77000854,1000,1000,1000,1000,121028236,1545,1545,1545,1545
77003353,1000,1000,1000,1000,121128196,1544,1543,1543,1543
77005852,1000,1000,1000,1000,121228156,1544,1544,1544,1544
77008351,1000,1000,1000,1000,121328949,1543,1543,1543,1543
77010850,1000,1000,1000,1000,121428909,1544,1543,1543,1543
77013349,1000,1000,1000,1000,121528869,1543,1543,1543,1543
77015848,1000,1000,1000,1000,121628829,1543,1543,1543,1543
77018347,1000,1000,1000,1000,121728789,1543,1544,1544,1544
77020846,1000,1000,1000,1000,121828749,1543,1544,1543,1544
77023345,1000,1000,1000,1000,121928709,1544,1544,1544,1544
77025844,1000,1000,1000,1000,122028669,1545,1545,1545,1545
77028343,1000,1000,1000,1000,122128629,1545,1544,1544,1545
77030842,1000,1000,1000,1000,122228589,1544,1544,1544,1544
77033341,1000,1000,1000,1000,122328549,1545,1545,1545,1545
77035840,1000,1000,1000,1000,122428509,1544,1545,1545,1544
77038339,1000,1000,1000,1000,122528469,1545,1545,1545,1545
77040838,1000,1000,1000,1000,122628429,1544,1545,1544,1545
77043337,1000,1000,1000,1000,122728389,1545,1545,1544,1545
77045836,1000,1000,1000,1000,122828349,1544,1545,1545,1545
77048335,1000,1000,1000,1000,122928309,1545,1544,1544,1545
77050834,1000,1000,1000,1000,123028269,1545,1545,1545,1544
77053333,1000,1000,1000,1000,123128229,1544,1544,1544,1544
77055832,1000,1000,1000,1000,123228189,1545,1545,1545,1545
77058331,1000,1000,1000,1000,123328982,1545,1545,1545,1545
77060830,1000,1000,1000,1000,123428942,1544,1544,1544,1544
77063329,1000,1000,1000,1000,123528902,1544,1544,1544,1544
77065828,1000,1000,1000,1000,123628862,1544,1544,1544,1544
77068327,1000,1000,1000,1000,123728822,1543,1543,1543,1543
77070826,1000,1000,1000,1000,123828782,1544,1545,1545,1544
77073325,1000,1000,1000,1000,123928742,1544,1543,1544,1544
77075824,1000,1000,1000,1000,124028702,1544,1545,1544,1545
77078323,1000,1000,1000,1000,124128662,1545,1545,1544,1545
77080822,1000,1000,1000,1000,124228622,1545,1545,1545,1545
77083321,1000,1000,1000,1000,124328582,1545,1544,1544,1544
77085820,1000,1000,1000,1000,124428542,1544,1544,1544,1544
77088319,1000,1000,1000,1000,124528502,1544,1544,1545,1544
77090818,1000,1000,1000,1000,124628462,1545,1545,1545,1545
77093317,1000,1000,1000,1000,124728422,1544,1544,1544,1545
77095816,1000,1000,1000,1000,124828382,1544,1544,1544,1544
77098315,1000,1000,1000,1000,124928342,1545,1545,1545,1545
77100814,1000,1000,1000,1000,125028302,1544,1544,1545,1544
77103313,1000,1000,1000,1000,125128262,1545,1545,1545,1545
77105812,1000,1000,1000,1000,125228222,1544,1545,1544,1544
77108311,1000,1000,1000,1000,125328182,1545,1545,1545,1544
77110810,1000,1000,1000,1000,125428975,1545,1545,1545,1545
77113309,1000,1000,1000,1000,125528935,1544,1544,1544,1544
77115808,1000,1000,1000,1000,125628895,1544,1544,1544,1544
77118307,1000,1000,1000,1000,125728855,1544,1544,1544,1545
77120806,1000,1000,1000,1000,125828815,1545,1545,1545,1545
77123305,1000,1000,1000,1000,125928775,1545,1544,1545,1545
77125804,1000,1000,1000,1000,126028735,1544,1544,1544,1544
77128303,1000,1000,1000,1000,126128695,1544,1544,1544,1544
77130802,1000,1000,1000,1000,126228655,1543,1544,1544,1544
77133301,1000,1000,1000,1000,126328615,1545,1545,1545,1545
77135800,1000,1000,1000,1000,126428575,1427,1421,1420,1420
77138299,1000,1000,1000,1000,126528535,1298,1276,1276,1277
77140798,1000,1000,1000,1000,126628495,1249,1222,1222,1221
77143297,1000,1000,1000,1000,126728455,1231,1201,1201,1201
77145796,1000,1000,1000,1000,126828415,1201,1168,1167,1166
77148295,1000,1000,1000,1000,126928375,1188,1150,1150,1150
77150794,1000,1000,1000,1000,127028335,1187,1151,1150,1150
77153293,1000,1000,1000,1000,127128295,1190,1150,1150,1153
77155792,1000,1000,1000,1000,127228255,1222,1150,1150,1190
77158291,1000,1000,1000,1000,127328215,1211,1150,1150,1178
77160790,1000,1000,1000,1000,127428175,1208,1150,1150,1175
77163289,1000,1000,1000,1000,127528968,1210,1150,1150,1177
77165788,1000,1000,1000,1000,127628928,1211,1150,1150,1178
77168287,1000,1000,1000,1000,127728888,1213,1150,1150,1181
77170786,1000,1000,1000,1000,127828848,1215,1150,1150,1183
77173285,1000,1000,1000,1000,127928808,1199,1150,1151,1164
77175784,1000,1000,1000,1000,128028768,1203,1150,1151,1169
77178283,1000,1000,1000,1000,128128728,1204,1150,1151,1170
77180782,1000,1000,1000,1000,128228688,1205,1150,1151,1171
77183281,1000,1000,1000,1000,128328648,1206,1150,1151,1172
77185780,1000,1000,1000,1000,128428608,1104,1150,1150,1150
77188279,1000,1000,1000,1000,128528568,1000,1000,1000,1000
77190778,1000,1000,1000,1000,128628528,1000,1000,1000,1000
77193277,1000,1000,1000,1000,128728488,1000,1000,1000,1000
77195776,1000,1000,1000,1000,128828448,1000,1000,1000,1000
77198275,1000,1000,1000,1000,128928408,1000,1000,1000,1000
77200774,1000,1000,1000,1000,129028368,1000,1000,1000,1000
77203273,1000,1000,1000,1000,129128328,1000,1000,1000,1000
77205772,1000,1000,1000,1000,129228288,1000,1000,1000,1000
77208271,1000,1000,1000,1000,129328248,1000,1000,1000,1000
77210770,1000,1000,1000,1000,129428208,1000,1000,1000,1000
77213269,1000,1000,1000,1000,129528168,1000,1000,1000,1000
77215768,1000,1000,1000,1000,129628961,1000,1000,1000,1000
77218267,1000,1000,1000,1000,129728921,1000,1000,1000,1000
77220766,1000,1000,1000,1000,129828881,1000,1000,1000,1000
77223265,1000,1000,1000,1000,129928841,1000,1000,1000,1000
77225764,1000,1000,1000,1000,130028801,1000,1000,1000,1000
77228263,1000,1000,1000,1000,130128761,1000,1000,1000,1000
77230762,1000,1000,1000,1000,130228721,1000,1000,1000,1000
77233261,1000,1000,1000,1000,130328681,1000,1000,1000,1000
77235760,1000,1000,1000,1000,130428641,1000,1000,1000,1000
77238259,1000,1000,1000,1000,130528601,1000,1000,1000,1000
77240758,1000,1000,1000,1000,130628561,1000,1000,1000,1000
77243257,1000,1000,1000,1000,130728521,1000,1000,1000,1000
77245756,1000,1000,1000,1000,130828481,1000,1000,1000,1000
77248255,1000,1000,1000,1000,130928441,1000,1000,1000,1000
77250754,1000,1000,1000,1000,131028401,1000,1000,1000,1000
77253253,1000,1000,1000,1000,131128361,1000,1000,1000,1000
77255752,1000,1000,1000,1000,131228321,1000,1000,1000,1000
77258251,1000,1000,1000,1000,131328281,1000,1000,1000,1000
77260750,1000,1000,1000,1000,131428241,1000,1000,1000,1000
77263249,1000,1000,1000,1000,131528201,1000,1000,1000,1000
77265748,1000,1000,1000,1000,131628161,1000,1000,1000,1000
77268247,1000,1000,1000,1000,131728954,1000,1000,1000,1000
77270746,1000,1000,1000,1000,131828914,1000,1000,1000,1000
77273245,1000,1000,1000,1000,131928874,1000,1000,1000,1000
77275744,1000,1000,1000,1000,132028834,1000,1000,1000,1000
77278243,1000,1000,1000,1000,132128794,1000,1000,1000,1000
77280742,1000,1000,1000,1000,132228754,1000,1000,1000,1000
77283241,1000,1000,1000,1000,132328714,1000,1000,1000,1000
77285740,1000,1000,1000,1000,132428674,1000,1000,1000,1000
77288239,1000,1000,1000,1000,132528634,1000,1000,1000,1000
77290738,1000,1000,1000,1000,132628594,1000,1000,1000,1000
77293237,1000,1000,1000,1000,132728554,1000,1000,1000,1000
77295736,1000,1000,1000,1000,132828514,1000,1000,1000,1000
77298235,1000,1000,1000,1000,132928474,1000,1000,1000,1000
77300734,1000,1000,1000,1000,133028434,1000,1000,1000,1000
77303233,1000,1000,1000,1000,133128394,1000,1000,1000,1000
77305732,1000,1000,1000,1000,133228354,1000,1000,1000,1000
77308231,1000,1000,1000,1000,133328314,1000,1000,1000,1000
77310730,1000,1000,1000,1000,133428274,1000,1000,1000,1000
77313229,1000,1000,1000,1000,133528234,1000,1000,1000,1000
77315728,1000,1000,1000,1000,133628194,1000,1000,1000,1000
77318227,1000,1000,1000,1000,133728154,1000,1000,1000,1000
77320726,1000,1000,1000,1000,133828947,1000,1000,1000,1000
77323225,1000,1000,1000,1000,133928907,1000,1000,1000,1000
77325724,1000,1000,1000,1000,134028867,1000,1000,1000,1000
77328223,1000,1000,1000,1000,134128827,1000,1000,1000,1000
77330722,1000,1000,1000,1000,134228787,1000,1000,1000,1000
77333221,1000,1000,1000,1000,134328747,1000,1000,1000,1000
77335720,1000,1000,1000,1000,134428707,1000,1000,1000,1000
77338219,1000,1000,1000,1000,134528667,1000,1000,1000,1000
77340718,1000,1000,1000,1000,134628627,1000,1000,1000,1000
77343217,1000,1000,1000,1000,134728587,1000,1000,1000,1000
77345716,1000,1000,1000,1000,134828547,1000,1000,1000,1000
77348215,1000,1000,1000,1000,134928507,1000,1000,1000,1000
77350714,1000,1000,1000,1000,135028467,1000,1000,1000,1000
77353213,1000,1000,1000,1000,135128427,1000,1000,1000,1000
77355712,1000,1000,1000,1000,135228387,1000,1000,1000,1000
77358211,1000,1000,1000,1000,135328347,1000,1000,1000,1000
77360710,1000,1000,1000,1000,135428307,1000,1000,1000,1000
77363209,1000,1000,1000,1000,135528267,1000,1000,1000,1000
77365708,1000,1000,1000,1000,135628227,1000,1000,1000,1000
77368207,1000,1000,1000,1000,135728187,1000,1000,1000,1000
77370706,1000,1000,1000,1000,135828980,1000,1000,1000,1000
77373205,1000,1000,1000,1000,135928940,1000,1000,1000,1000
77375704,1000,1000,1000,1000,136028900,1000,1000,1000,1000
77378203,1000,1000,1000,1000,136128860,1000,1000,1000,1000
77380702,1000,1000,1000,1000,136228820,1000,1000,1000,1000
77383201,1000,1000,1000,1000,136328780,1000,1000,1000,1000
77385700,1000,1000,1000,1000,136428740,1000,1000,1000,1000
77388199,1000,1000,1000,1000,136528700,1000,1000,1000,1000
77390698,1000,1000,1000,1000,136628660,1000,1000,1000,1000
77393197,1000,1000,1000,1000,136728620,1000,1000,1000,1000
77395696,1000,1000,1000,1000,136828580,1000,1000,1000,1000
77398195,1000,1000,1000,1000,136928540,1000,1000,1000,1000
77400694,1000,1000,1000,1000,137028500,1000,1000,1000,1000
77403193,1000,1000,1000,1000,137128460,1000,1000,1000,1000
77405692,1000,1000,1000,1000,137228420,1000,1000,1000,1000
77408191,1000,1000,1000,1000,137328380,1000,1000,1000,1000
77410690,1000,1000,1000,1000,137428340,1000,1000,1000,1000
77413189,1000,1000,1000,1000,137528300,1000,1000,1000,1000
77415688,1000,1000,1000,1000,137628260,1000,1000,1000,1000
77418187,1000,1000,1000,1000,137728220,1000,1000,1000,1000
77420686,1000,1000,1000,1000,137828180,1000,1000,1000,1000
77423185,1000,1000,1000,1000,137928973,1000,1000,1000,1000
77425684,1000,1000,1000,1000,138028933,1000,1000,1000,1000
77428183,1000,1000,1000,1000,138128893,1000,1000,1000,1000
77430682,1000,1000,1000,1000,138228853,1000,1000,1000,1000
77433181,1000,1000,1000,1000,138328813,1000,1000,1000,1000
77435680,1000,1000,1000,1000,138428773,1000,1000,1000,1000
77438179,1000,1000,1000,1000,138528733,1000,1000,1000,1000
77440678,1000,1000,1000,1000,138628693,1000,1000,1000,1000
77443177,1000,1000,1000,1000,138728653,1000,1000,1000,1000
77445676,1000,1000,1000,1000,138828613,1000,1000,1000,1000
77448175,1000,1000,1000,1000,138928573,1000,1000,1000,1000
77450674,1000,1000,1000,1000,139028533,1000,1000,1000,1000
77453173,1000,1000,1000,1000,139128493,1000,1000,1000,1000
77455672,1000,1000,1000,1000,139228453,1000,1000,1000,1000
77458171,1000,1000,1000,1000,139328413,1000,1000,1000,1000
77460670,1000,1000,1000,1000,139428373,1000,1000,1000,1000
77463169,1000,1000,1000,1000,139528333,1000,1000,1000,1000
77465668,1000,1000,1000,1000,139628293,1000,1000,1000,1000
77468167,1000,1000,1000,1000,139728253,1000,1000,1000,1000
77470666,1000,1000,1000,1000,139828213,1000,1000,1000,1000
77473165,1000,1000,1000,1000,139928173,1000,1000,1000,1000
77475664,1000,1000,1000,1000,140028966,1000,1000,1000,1000
77478163,1000,1000,1000,1000,140128926,1000,1000,1000,1000
77480662,1000,1000,1000,1000,140228886,1000,1000,1000,1000
77483161,1000,1000,1000,1000,140328846,1000,1000,1000,1000
77485660,1000,1000,1000,1000,140428806,1000,1000,1000,1000
77488159,1000,1000,1000,1000,140528766,1000,1000,1000,1000
77490658,1000,1000,1000,1000,140628726,1000,1000,1000,1000
77493157,1000,1000,1000,1000,140728686,1000,1000,1000,1000
77495656,1000,1000,1000,1000,140828646,1000,1000,1000,1000
77498155,1000,1000,1000,1000,140928606,1000,1000,1000,1000
77500654,1000,1000,1000,1000,141028566,1000,1000,1000,1000
77503986,1000,1000,1000,1000,141128526,1000,1000,1000,1000
77506485,1000,1000,1000,1000,141228486,1000,1000,1000,1000
77508984,1000,1000,1000,1000,141328446,1000,1000,1000,1000
77511483,1000,1000,1000,1000,141428406,1000,1000,1000,1000
77513982,1000,1000,1000,1000,141528366,1000,1000,1000,1000
77516481,1000,1000,1000,1000,141628326,1000,1000,1000,1000
77518980,1000,1000,1000,1000,141728286,1000,1000,1000,1000
77521479,1000,1000,1000,1000,141828246,1000,1000,1000,1000
77523978,1000,1000,1000,1000,141928206,1000,1000,1000,1000
77526477,1000,1000,1000,1000,,,,,
77528976,1000,1000,1000,1000,,,,,
77531475,1000,1000,1000,1000,,,,,
77533974,1000,1000,1000,1000,,,,,
77536473,1000,1000,1000,1000,,,,,
77538972,1000,1000,1000,1000,,,,,
77541471,1000,1000,1000,1000,,,,,
77543970,1000,1000,1000,1000,,,,,
77546469,1000,1000,1000,1000,,,,,
77548968,1000,1000,1000,1000,,,,,
77551467,1000,1000,1000,1000,,,,,
77553966,1000,1000,1000,1000,,,,,
77556465,1000,1000,1000,1000,,,,,
77558964,1000,1000,1000,1000,,,,,
77561463,1000,1000,1000,1000,,,,,
77563962,1000,1000,1000,1000,,,,,
77566461,1000,1000,1000,1000,,,,,
77568960,1000,1000,1000,1000,,,,,
77571459,1000,1000,1000,1000,,,,,
77573958,1000,1000,1000,1000,,,,,
77576457,1000,1000,1000,1000,,,,,
77578956,1000,1000,1000,1000,,,,,
77581455,1000,1000,1000,1000,,,,,
77583954,1000,1000,1000,1000,,,,,
77586453,1000,1000,1000,1000,,,,,
77588952,1000,1000,1000,1000,,,,,
77591451,1000,1000,1000,1000,,,,,
77593950,1000,1000,1000,1000,,,,,
77596449,1000,1000,1000,1000,,,,,
77598948,1000,1000,1000,1000,,,,,
77601447,1000,1000,1000,1000,,,,,
77603946,1000,1000,1000,1000,,,,,
77606445,1000,1000,1000,1000,,,,,
77608944,1000,1000,1000,1000,,,,,
77611443,1000,1000,1000,1000,,,,,
77613942,1000,1000,1000,1000,,,,,
77616441,1000,1000,1000,1000,,,,,
77618940,1000,1000,1000,1000,,,,,
77621439,1000,1000,1000,1000,,,,,
77623938,1000,1000,1000,1000,,,,,
77626437,1000,1000,1000,1000,,,,,
77628936,1000,1000,1000,1000,,,,,
77631435,1000,1000,1000,1000,,,,,
77633934,1000,1000,1000,1000,,,,,
77636433,1000,1000,1000,1000,,,,,
77638932,1000,1000,1000,1000,,,,,
77641431,1000,1000,1000,1000,,,,,
77643930,1000,1000,1000,1000,,,,,
77646429,1000,1000,1000,1000,,,,,
77648928,1000,1000,1000,1000,,,,,
77651427,1000,1000,1000,1000,,,,,
77653926,1000,1000,1000,1000,,,,,
77656425,1000,1000,1000,1000,,,,,
77658924,1000,1000,1000,1000,,,,,
77661423,1000,1000,1000,1000,,,,,
77663922,1000,1000,1000,1000,,,,,
77666421,1000,1000,1000,1000,,,,,
77668920,1000,1000,1000,1000,,,,,
77671419,1000,1000,1000,1000,,,,,
77673918,1000,1000,1000,1000,,,,,
77676417,1000,1000,1000,1000,,,,,
77678916,1000,1000,1000,1000,,,,,
77681415,1000,1000,1000,1000,,,,,
77683914,1000,1000,1000,1000,,,,,
77686413,1000,1000,1000,1000,,,,,
77688912,1000,1000,1000,1000,,,,,
77691411,1000,1000,1000,1000,,,,,
77693910,1000,1000,1000,1000,,,,,
77696409,1000,1000,1000,1000,,,,,
77698908,1000,1000,1000,1000,,,,,
77701407,1000,1000,1000,1000,,,,,
77703906,1000,1000,1000,1000,,,,,
77706405,1000,1000,1000,1000,,,,,
77708904,1000,1000,1000,1000,,,,,
77711403,1000,1000,1000,1000,,,,,
77713902,1000,1000,1000,1000,,,,,
77716401,1000,1000,1000,1000,,,,,
77718900,1000,1000,1000,1000,,,,,
77721399,1000,1000,1000,1000,,,,,
77723898,1000,1000,1000,1000,,,,,
77726397,1000,1000,1000,1000,,,,,
77728896,1000,1000,1000,1000,,,,,
77731395,1000,1000,1000,1000,,,,,
77733894,1000,1000,1000,1000,,,,,
77736393,1000,1000,1000,1000,,,,,
77738892,1000,1000,1000,1000,,,,,
77741391,1000,1000,1000,1000,,,,,
77743890,1000,1000,1000,1000,,,,,
77746389,1000,1000,1000,1000,,,,,
77748888,1000,1000,1000,1000,,,,,
77751387,1000,1000,1000,1000,,,,,
77753886,1000,1000,1000,1000,,,,,
77756385,1000,1000,1000,1000,,,,,
77758884,1000,1000,1000,1000,,,,,
77761383,1000,1000,1000,1000,,,,,
77763882,1000,1000,1000,1000,,,,,
77766381,1000,1000,1000,1000,,,,,
77768880,1000,1000,1000,1000,,,,,
77771379,1000,1000,1000,1000,,,,,
77773878,1000,1000,1000,1000,,,,,
77776377,1000,1000,1000,1000,,,,,
77778876,1000,1000,1000,1000,,,,,
77781375,1000,1000,1000,1000,,,,,
77783874,1000,1000,1000,1000,,,,,
77786373,1000,1000,1000,1000,,,,,
77788872,1000,1000,1000,1000,,,,,
77791371,1000,1000,1000,1000,,,,,
77793870,1000,1000,1000,1000,,,,,
77796369,1000,1000,1000,1000,,,,,
77798868,1000,1000,1000,1000,,,,,
77801367,1000,1000,1000,1000,,,,,
77803866,1000,1000,1000,1000,,,,,
77806365,1000,1000,1000,1000,,,,,
77808864,1000,1000,1000,1000,,,,,
77811363,1000,1000,1000,1000,,,,,
77813862,1000,1000,1000,1000,,,,,
77816361,1000,1000,1000,1000,,,,,
77818860,1000,1000,1000,1000,,,,,
77821359,1000,1000,1000,1000,,,,,
77823858,1000,1000,1000,1000,,,,,
77826357,1000,1000,1000,1000,,,,,
77828856,1000,1000,1000,1000,,,,,
77831355,1000,1000,1000,1000,,,,,
77833854,1000,1000,1000,1000,,,,,
77836353,1000,1000,1000,1000,,,,,
77838852,1000,1000,1000,1000,,,,,
77841351,1000,1000,1000,1000,,,,,
77843850,1000,1000,1000,1000,,,,,
77846349,1000,1000,1000,1000,,,,,
77848848,1000,1000,1000,1000,,,,,
77851347,1000,1000,1000,1000,,,,,
77853846,1000,1000,1000,1000,,,,,
77856345,1000,1000,1000,1000,,,,,
77858844,1000,1000,1000,1000,,,,,
77861343,1000,1000,1000,1000,,,,,
77863842,1000,1000,1000,1000,,,,,
77866341,1000,1000,1000,1000,,,,,
77868840,1000,1000,1000,1000,,,,,
77871339,1000,1000,1000,1000,,,,,
77873838,1000,1000,1000,1000,,,,,
77876337,1000,1000,1000,1000,,,,,
77878836,1000,1000,1000,1000,,,,,
77881335,1001,1001,1001,1001,,,,,
77883834,1002,1002,1002,1002,,,,,
77886333,1003,1003,1003,1003,,,,,
77888832,1003,1003,1003,1003,,,,,
77891331,1004,1004,1004,1004,,,,,
77893830,1005,1005,1005,1005,,,,,
77896329,1006,1006,1006,1006,,,,,
77898828,1006,1006,1006,1006,,,,,
77901327,1007,1007,1007,1007,,,,,
77903826,1008,1008,1008,1008,,,,,
77906325,1009,1009,1009,1009,,,,,
77908824,1009,1009,1009,1009,,,,,
77911323,1010,1010,1010,1010,,,,,
77913822,1011,1011,1011,1011,,,,,
77916321,1012,1012,1012,1012,,,,,
77918820,1012,1012,1012,1012,,,,,
77921319,1013,1013,1013,1013,,,,,
77923818,1014,1014,1014,1014,,,,,
77926317,1015,1015,1015,1015,,,,,
77928816,1015,1015,1015,1015,,,,,
77931315,1016,1016,1016,1016,,,,,
77933814,1017,1017,1017,1017,,,,,
77936313,1018,1018,1018,1018,,,,,
77938812,1018,1018,1018,1018,,,,,
77941311,1019,1019,1019,1019,,,,,
77943810,1020,1020,1020,1020,,,,,
77946309,1021,1021,1021,1021,,,,,
77948808,1021,1021,1021,1021,,,,,
77951307,1022,1022,1022,1022,,,,,
77953806,1023,1023,1023,1023,,,,,
77956305,1024,1024,1024,1024,,,,,
77958804,1024,1024,1024,1024,,,,,
77961303,1025,1025,1025,1025,,,,,
77963802,1026,1026,1026,1026,,,,,
77966301,1027,1027,1027,1027,,,,,
77968800,1027,1027,1027,1027,,,,,
77971299,1028,1028,1028,1028,,,,,
77973798,1029,1029,1029,1029,,,,,
77976297,1030,1030,1030,1030,,,,,
77978796,1030,1030,1030,1030,,,,,
77981295,1031,1031,1031,1031,,,,,
77983794,1032,1032,1032,1032,,,,,
77986293,1033,1033,1033,1033,,,,,
77988792,1033,1033,1033,1033,,,,,
77991291,1034,1034,1034,1034,,,,,
77993790,1035,1035,1035,1035,,,,,
77996289,1036,1036,1036,1036,,,,,
77998788,1036,1036,1036,1036,,,,,
78001287,1037,1037,1037,1037,,,,,
78003786,1038,1038,1038,1038,,,,,
78006285,1039,1039,1039,1039,,,,,
78008784,1039,1039,1039,1039,,,,,
78011283,1040,1040,1040,1040,,,,,
78013782,1041,1041,1041,1041,,,,,
78016281,1042,1042,1042,1042,,,,,
78018780,1042,1042,1042,1042,,,,,
78021279,1043,1043,1043,1043,,,,,
78023778,1044,1044,1044,1044,,,,,
78026277,1045,1045,1045,1045,,,,,
78028776,1045,1045,1045,1045,,,,,
78031275,1046,1046,1046,1046,,,,,
78033774,1047,1047,1047,1047,,,,,
78036273,1048,1048,1048,1048,,,,,
78038772,1048,1048,1048,1048,,,,,
78041271,1049,1049,1049,1049,,,,,
78043770,1050,1050,1050,1050,,,,,
78046269,1051,1051,1051,1051,,,,,
78048768,1051,1051,1051,1051,,,,,
78051267,1052,1052,1052,1052,,,,,
78053766,1053,1053,1053,1053,,,,,
78056265,1054,1054,1054,1054,,,,,
78058764,1054,1054,1054,1054,,,,,
78061263,1055,1055,1055,1055,,,,,
78063762,1056,1056,1056,1056,,,,,
78066261,1057,1057,1057,1057,,,,,
78068760,1057,1057,1057,1057,,,,,
78071259,1058,1058,1058,1058,,,,,
78073758,1059,1059,1059,1059,,,,,
78076257,1060,1060,1060,1060,,,,,
78078756,1060,1060,1060,1060,,,,,
78081255,1061,1061,1061,1061,,,,,
78083754,1062,1062,1062,1062,,,,,
78086253,1063,1063,1063,1063,,,,,
78088752,1063,1063,1063,1063,,,,,
78091251,1064,1064,1064,1064,,,,,
78093750,1065,1065,1065,1065,,,,,
78096249,1066,1066,1066,1066,,,,,
78098748,1066,1066,1066,1066,,,,,
78101247,1067,1067,1067,1067,,,,,
78103746,1068,1068,1068,1068,,,,,
78106245,1069,1069,1069,1069,,,,,
78108744,1069,1069,1069,1069,,,,,
78111243,1070,1070,1070,1070,,,,,
78113742,1071,1071,1071,1071,,,,,
78116241,1072,1072,1072,1072,,,,,
78118740,1072,1072,1072,1072,,,,,
78121239,1073,1073,1073,1073,,,,,
78123738,1074,1074,1074,1074,,,,,
78126237,1075,1075,1075,1075,,,,,
78128736,1075,1075,1075,1075,,,,,
78131235,1076,1076,1076,1076,,,,,
78133734,1077,1077,1077,1077,,,,,
78136233,1078,1078,1078,1078,,,,,
78138732,1078,1078,1078,1078,,,,,
78141231,1079,1079,1079,1079,,,,,
78143730,1080,1080,1080,1080,,,,,
78146229,1081,1081,1081,1081,,,,,
78148728,1081,1081,1081,1081,,,,,
78151227,1082,1082,1082,1082,,,,,
78153726,1083,1083,1083,1083,,,,,
78156225,1084,1084,1084,1084,,,,,
78158724,1084,1084,1084,1084,,,,,
78161223,1085,1085,1085,1085,,,,,
78163722,1086,1086,1086,1086,,,,,
78166221,1087,1087,1087,1087,,,,,
78168720,1087,1087,1087,1087,,,,,
78171219,1088,1088,1088,1088,,,,,
78173718,1089,1089,1089,1089,,,,,
78176217,1090,1090,1090,1090,,,,,
78178716,1090,1090,1090,1090,,,,,
78181215,1091,1091,1091,1091,,,,,
78183714,1092,1092,1092,1092,,,,,
78186213,1093,1093,1093,1093,,,,,
78188712,1093,1093,1093,1093,,,,,
78191211,1094,1094,1094,1094,,,,,
78193710,1095,1095,1095,1095,,,,,
78196209,1096,1096,1096,1096,,,,,
78198708,1096,1096,1096,1096,,,,,
78201207,1097,1097,1097,1097,,,,,
78203706,1098,1098,1098,1098,,,,,
78206205,1099,1099,1099,1099,,,,,
78208704,1099,1099,1099,1099,,,,,
78211203,1100,1100,1100,1100,,,,,
78213702,1101,1101,1101,1101,,,,,
78216201,1101,1101,1101,1101,,,,,
78218700,1102,1102,1102,1102,,,,,
78221199,1103,1103,1103,1103,,,,,
78223698,1104,1104,1104,1104,,,,,
78226197,1104,1104,1104,1104,,,,,
78228696,1105,1105,1105,1105,,,,,
78231195,1106,1106,1106,1106,,,,,
78233694,1107,1107,1107,1107,,,,,
78236193,1107,1107,1107,1107,,,,,
78238692,1108,1108,1108,1108,,,,,
78241191,1109,1109,1109,1109,,,,,
78243690,1110,1110,1110,1110,,,,,
78246189,1110,1110,1110,1110,,,,,
78248688,1111,1111,1111,1111,,,,,
78251187,1112,1112,1112,1112,,,,,
78253686,1113,1113,1113,1113,,,,,
78256185,1113,1113,1113,1113,,,,,
78258684,1114,1114,1114,1114,,,,,
78261183,1115,1115,1115,1115,,,,,
78263682,1116,1116,1116,1116,,,,,
78266181,1116,1116,1116,1116,,,,,
78268680,1117,1117,1117,1117,,,,,
78271179,1118,1118,1118,1118,,,,,
78273678,1119,1119,1119,1119,,,,,
78276177,1119,1119,1119,1119,,,,,
78278676,1120,1120,1120,1120,,,,,
78281175,1121,1121,1121,1121,,,,,
78283674,1122,1122,1122,1122,,,,,
78286173,1122,1122,1122,1122,,,,,
78288672,1123,1123,1123,1123,,,,,
78291171,1124,1124,1124,1124,,,,,
78293670,1125,1125,1125,1125,,,,,
78296169,1125,1125,1125,1125,,,,,
78298668,1126,1126,1126,1126,,,,,
78301167,1127,1127,1127,1127,,,,,
78303666,1128,1128,1128,1128,,,,,
78306165,1128,1128,1128,1128,,,,,
78308664,1129,1129,1129,1129,,,,,
78311163,1130,1130,1130,1130,,,,,
78313662,1131,1131,1131,1131,,,,,
78316161,1131,1131,1131,1131,,,,,
78318660,1132,1132,1132,1132,,,,,
78321159,1133,1133,1133,1133,,,,,
78323658,1134,1134,1134,1134,,,,,
78326157,1134,1134,1134,1134,,,,,
78328656,1135,1135,1135,1135,,,,,
78331155,1136,1136,1136,1136,,,,,
78333654,1137,1137,1137,1137,,,,,
78336153,1137,1137,1137,1137,,,,,
78338652,1138,1138,1138,1138,,,,,
78341151,1139,1139,1139,1139,,,,,
78343650,1140,1140,1140,1140,,,,,
78346149,1140,1140,1140,1140,,,,,
78348648,1141,1141,1141,1141,,,,,
78351147,1142,1142,1142,1142,,,,,
78353646,1143,1143,1143,1143,,,,,
78356145,1143,1143,1143,1143,,,,,
78358644,1144,1144,1144,1144,,,,,
78361143,1145,1145,1145,1145,,,,,
78363642,1146,1146,1146,1146,,,,,
78366141,1146,1146,1146,1146,,,,,
78368640,1147,1147,1147,1147,,,,,
78371139,1148,1148,1148,1148,,,,,
78373638,1149,1149,1149,1149,,,,,
78376137,1149,1149,1149,1149,,,,,
78378636,1150,1150,1150,1150,,,,,
78381135,1163,1151,1152,1164,,,,,
78383634,1171,1159,1160,1172,,,,,
78386133,1179,1167,1168,1180,,,,,
78388632,1187,1175,1176,1188,,,,,
78391131,1194,1183,1184,1195,,,,,
78393630,1202,1191,1191,1203,,,,,
78396129,1209,1198,1199,1210,,,,,
78398628,1216,1205,1206,1217,,,,,
78401127,1223,1213,1213,1224,,,,,
78403626,1230,1220,1220,1231,,,,,
78406125,1237,1227,1227,1238,,,,,
78408624,1244,1234,1234,1245,,,,,
78411123,1250,1240,1241,1251,,,,,
78413622,1257,1247,1248,1258,,,,,
78416121,1264,1254,1254,1264,,,,,
78418620,1270,1260,1261,1271,,,,,
78421119,1276,1267,1267,1277,,,,,
78423618,1283,1273,1274,1283,,,,,
78426117,1289,1279,1280,1290,,,,,
78428616,1295,1285,1286,1296,,,,,
78431115,1301,1292,1292,1302,,,,,
78433614,1307,1298,1298,1308,,,,,
78436113,1313,1304,1304,1314,,,,,
78438612,1319,1310,1310,1320,,,,,
78441111,1325,1316,1316,1325,,,,,
78443610,1330,1321,1322,1331,,,,,
78446109,1336,1327,1328,1337,,,,,
78448608,1342,1333,1333,1342,,,,,
78451107,1347,1338,1339,1348,,,,,
78453606,1353,1344,1345,1354,,,,,
78456105,1358,1350,1350,1359,,,,,
78458604,1364,1355,1356,1364,,,,,
78461103,1369,1361,1361,1370,,,,,
78463602,1375,1366,1366,1375,,,,,
78466101,1380,1371,1372,1381,,,,,
78468600,1385,1377,1377,1386,,,,,
78471099,1390,1382,1382,1391,,,,,
78473598,1395,1387,1388,1396,,,,,
78476097,1401,1392,1393,1401,,,,,
78478596,1406,1397,1398,1406,,,,,
78481095,1411,1402,1403,1411,,,,,
78483594,1416,1407,1408,1416,,,,,
78486093,1421,1412,1413,1421,,,,,
78488592,1426,1417,1418,1426,,,,,
78491091,1431,1422,1423,1431,,,,,
78493590,1436,1427,1428,1436,,,,,
78496089,1440,1432,1433,1441,,,,,
78498588,1445,1437,1438,1446,,,,,
78501087,1450,1442,1442,1450,,,,,
78503586,1455,1447,1447,1455,,,,,
78506085,1459,1451,1452,1460,,,,,
78508584,1464,1456,1456,1465,,,,,
78511083,1469,1461,1461,1469,,,,,
78513582,1473,1465,1466,1474,,,,,
78516081,1478,1470,1470,1478,,,,,
78518580,1482,1475,1475,1483,,,,,
78521079,1487,1479,1480,1488,,,,,
78523578,1491,1484,1484,1492,,,,,
78526077,1496,1488,1489,1496,,,,,
78528576,1500,1493,1493,1501,,,,,
78531075,1505,1497,1497,1505,,,,,
78533574,1509,1501,1502,1510,,,,,
78536073,1514,1506,1506,1514,,,,,
78538572,1518,1510,1511,1519,,,,,
78541071,1522,1514,1515,1523,,,,,
78543570,1527,1519,1519,1527,,,,,
78546069,1531,1523,1523,1531,,,,,
78548568,1535,1527,1528,1536,,,,,
78551067,1539,1532,1532,1540,,,,,
78553566,1543,1536,1536,1544,,,,,
78556065,1548,1540,1540,1548,,,,,
78558564,1552,1544,1545,1552,,,,,
78561063,1556,1548,1549,1557,,,,,
78563562,1560,1553,1553,1561,,,,,
78566061,1564,1557,1557,1565,,,,,
78568560,1568,1561,1561,1569,,,,,
78571059,1572,1565,1565,1573,,,,,
78573558,1576,1569,1569,1577,,,,,
78576057,1580,1573,1573,1581,,,,,
78578556,1584,1577,1577,1585,,,,,
78581055,1588,1581,1581,1589,,,,,
78583554,1592,1585,1585,1593,,,,,
78586053,1596,1589,1589,1597,,,,,
78588552,1600,1593,1593,1601,,,,,
78591051,1604,1597,1597,1604,,,,,
78593550,1608,1601,1601,1608,,,,,
78596049,1612,1605,1605,1612,,,,,
78598548,1615,1608,1609,1616,,,,,
78601047,1619,1612,1613,1620,,,,,
78603546,1623,1616,1616,1624,,,,,
78606045,1627,1620,1620,1627,,,,,
78608544,1631,1624,1624,1631,,,,,
78611043,1635,1627,1628,1635,,,,,
78613542,1638,1631,1632,1639,,,,,
78616041,1642,1635,1635,1642,,,,,
78618540,1646,1639,1639,1646,,,,,
78621039,1649,1642,1643,1650,,,,,
78623538,1653,1646,1647,1654,,,,,
78626037,1657,1650,1650,1657,,,,,
78628536,1660,1653,1654,1661,,,,,
78631035,1664,1657,1658,1664,,,,,
78633534,1668,1661,1661,1668,,,,,
78636033,1671,1664,1665,1672,,,,,
78638532,1675,1668,1669,1675,,,,,
78641031,1679,1672,1672,1679,,,,,
78643530,1682,1675,1676,1682,,,,,
78646029,1686,1679,1679,1686,,,,,
78648528,1689,1682,1683,1690,,,,,
78651027,1693,1686,1686,1693,,,,,
78653526,1696,1689,1690,1697,,,,,
78656025,1700,1693,1693,1700,,,,,
78658524,1703,1696,1697,1704,,,,,
78661023,1707,1700,1700,1707,,,,,
78663522,1710,1703,1704,1710,,,,,
78666021,1714,1707,1707,1714,,,,,
78668520,1717,1710,1711,1717,,,,,
78671019,1720,1714,1714,1721,,,,,
78673518,1724,1717,1718,1724,,,,,
78676017,1727,1721,1721,1728,,,,,
78678516,1731,1724,1725,1731,,,,,
78681015,1734,1727,1728,1734,,,,,
78683514,1737,1731,1731,1738,,,,,
78686013,1741,1734,1735,1741,,,,,
78688512,1744,1738,1738,1744,,,,,
78691011,1747,1741,1741,1748,,,,,
78693510,1751,1744,1745,1751,,,,,
78696009,1754,1748,1748,1754,,,,,
78698508,1757,1751,1751,1758,,,,,
78701007,1761,1754,1755,1761,,,,,
78703506,1764,1757,1758,1764,,,,,
78706005,1767,1761,1761,1768,,,,,
78708504,1771,1764,1765,1771,,,,,
78711003,1774,1767,1768,1774,,,,,
78713502,1777,1770,1771,1777,,,,,
78716001,1780,1774,1774,1781,,,,,
78718500,1784,1777,1777,1784,,,,,
78720999,1787,1780,1781,1787,,,,,
78723498,1790,1783,1784,1790,,,,,
78725997,1793,1786,1787,1793,,,,,
78728496,1797,1790,1790,1797,,,,,
78730995,1800,1793,1793,1800,,,,,
78733494,1803,1796,1797,1803,,,,,
78735993,1806,1799,1800,1806,,,,,
78738492,1809,1802,1803,1809,,,,,
78740991,1812,1805,1806,1812,,,,,
78743490,1816,1808,1809,1816,,,,,
78745989,1819,1812,1812,1819,,,,,
78748488,1822,1815,1815,1822,,,,,
78750987,1825,1818,1818,1825,,,,,
78753486,1828,1821,1821,1828,,,,,
78755985,1831,1824,1825,1831,,,,,
78758484,1834,1827,1828,1834,,,,,
78760983,1837,1830,1831,1837,,,,,
78763482,1840,1833,1834,1840,,,,,
78765981,1843,1836,1837,1843,,,,,
78768480,1846,1839,1840,1846,,,,,
78770979,1849,1842,1843,1849,,,,,
78773478,1853,1845,1846,1852,,,,,
78775977,1856,1848,1849,1855,,,,,
78778476,1859,1851,1852,1858,,,,,
78780975,1862,1854,1855,1861,,,,,
78783474,1865,1857,1858,1864,,,,,
78785973,1868,1860,1861,1867,,,,,
78788472,1870,1863,1864,1870,,,,,
78790971,1872,1864,1865,1872,,,,,
78793470,1871,1863,1864,1871,,,,,
78795969,1870,1862,1863,1870,,,,,
78798468,1869,1861,1862,1868,,,,,
78800967,1867,1860,1861,1867,,,,,
78803466,1866,1859,1860,1866,,,,,
78805965,1865,1858,1859,1865,,,,,
78808464,1864,1857,1858,1864,,,,,
78810963,1863,1856,1857,1864,,,,,
78813462,1863,1855,1856,1863,,,,,
78815961,1862,1854,1855,1862,,,,,
78818460,1861,1854,1854,1861,,,,,
78820959,1860,1853,1854,1861,,,,,
78823458,1860,1852,1853,1860,,,,,
78825957,1859,1852,1853,1860,,,,,
78828456,1859,1852,1852,1859,,,,,
78830955,1859,1851,1852,1859,,,,,
78833454,1859,1851,1852,1859,,,,,
78835953,1859,1851,1852,1859,,,,,
78838452,1859,1851,1852,1859,,,,,
78840951,1859,1851,1852,1859,,,,,
78843450,1859,1851,1852,1859,,,,,
78845949,1859,1852,1852,1859,,,,,
78848448,1859,1852,1852,1860,,,,,
78850947,1860,1852,1853,1860,,,,,
78853446,1860,1853,1853,1860,,,,,
78855945,1860,1853,1853,1861,,,,,
78858444,1861,1854,1854,1861,,,,,
78860943,1862,1854,1854,1862,,,,,
78863442,1862,1855,1855,1863,,,,,
78865941,1863,1855,1856,1863,,,,,
78868440,1864,1856,1856,1864,,,,,
78870939,1864,1857,1857,1865,,,,,
78873438,1865,1858,1858,1866,,,,,
78875937,1866,1859,1859,1867,,,,,
78878436,1867,1860,1860,1867,,,,,
78880935,1868,1861,1861,1868,,,,,
78883434,1869,1862,1862,1869,,,,,
78885933,1869,1863,1863,1870,,,,,
78888432,1870,1864,1864,1871,,,,,
78890931,1871,1865,1865,1871,,,,,
78893430,1871,1865,1865,1872,,,,,
78895929,1871,1866,1866,1872,,,,,
78898428,1872,1866,1867,1872,,,,,
78900927,1872,1867,1867,1872,,,,,
78903426,1872,1867,1867,1872,,,,,
78905925,1871,1866,1867,1872,,,,,
78908424,1871,1866,1866,1871,,,,,
78910923,1870,1866,1866,1871,,,,,
78913422,1869,1865,1865,1870,,,,,
78915921,1869,1864,1864,1869,,,,,
78918420,1867,1863,1863,1868,,,,,
78920919,1866,1862,1862,1867,,,,,
78923418,1865,1860,1861,1865,,,,,
78925917,1863,1859,1859,1863,,,,,
78928416,1861,1857,1857,1862,,,,,
78930915,1859,1855,1856,1860,,,,,
78933414,1857,1853,1854,1858,,,,,
78935913,1855,1851,1851,1856,,,,,
78938412,1853,1849,1849,1853,,,,,
78940911,1850,1847,1847,1851,,,,,
78943410,1848,1844,1844,1848,,,,,
78945909,1845,1842,1842,1846,,,,,
78948408,1843,1839,1839,1843,,,,,
78950907,1840,1836,1837,1840,,,,,
78953406,1837,1834,1834,1838,,,,,
78955905,1834,1831,1831,1835,,,,,
78958404,1831,1828,1828,1832,,,,,
78960903,1828,1825,1825,1829,,,,,
78963402,1825,1822,1822,1826,,,,,
78965901,1822,1819,1820,1823,,,,,
78968400,1819,1816,1817,1820,,,,,
78970899,1816,1813,1814,1816,,,,,
78973398,1813,1810,1811,1813,,,,,
78975897,1810,1807,1808,1810,,,,,
78978396,1806,1804,1804,1807,,,,,
78980895,1803,1801,1801,1804,,,,,
78983394,1800,1798,1798,1801,,,,,
78985893,1797,1795,1795,1797,,,,,
78988392,1794,1792,1792,1794,,,,,
78990891,1790,1789,1789,1791,,,,,
78993390,1787,1785,1786,1788,,,,,
78995889,1784,1782,1783,1784,,,,,
78998388,1781,1779,1779,1781,,,,,
79000887,1777,1776,1776,1778,,,,,
79003386,1774,1773,1773,1775,,,,,
79005885,1771,1770,1770,1771,,,,,
79008384,1768,1766,1767,1768,,,,,
79010883,1765,1763,1764,1765,,,,,
79013382,1761,1760,1761,1762,,,,,
79015881,1758,1757,1757,1759,,,,,
79018380,1755,1754,1754,1755,,,,,
79020879,1752,1751,1751,1752,,,,,
79023378,1749,1747,1748,1749,,,,,
79025877,1745,1744,1745,1746,,,,,
79028376,1742,1741,1742,1743,,,,,
79030875,1739,1738,1739,1739,,,,,
79033374,1736,1735,1736,1736,,,,,
79035873,1733,1732,1733,1733,,,,,
79038372,1730,1729,1730,1730,,,,,
79040871,1727,1726,1727,1727,,,,,
79043370,1724,1723,1724,1724,,,,,
79045869,1721,1720,1721,1721,,,,,
79048368,1718,1718,1718,1718,,,,,
79050867,1715,1715,1715,1715,,,,,
79053366,1712,1712,1713,1713,,,,,
79055865,1710,1709,1710,1710,,,,,
79058364,1707,1707,1707,1707,,,,,
79060863,1704,1704,1705,1704,,,,,
79063362,1702,1702,1702,1702,,,,,
79065861,1699,1699,1700,1699,,,,,
79068360,1697,1696,1697,1697,,,,,
79070859,1694,1694,1695,1694,,,,,
79073358,1692,1692,1692,1692,,,,,
79075857,1689,1689,1690,1689,,,,,
79078356,1687,1687,1688,1687,,,,,
79080855,1685,1685,1686,1685,,,,,
