timestamp,TimeUS,C1,C2,C3,C4,C5,C6,C7,C8,C9,C10,C11,C12,C13,C14
1706423023.70003986,58528246,1000,1000,1000,1000,0,0,0,0,0,0,0,0,0,0
1706423023.79999995,58628206,1000,1000,1000,1000,0,0,0,0,0,0,0,0,0,0
1706423023.89996004,58728166,1000,1000,1000,1000,0,0,0,0,0,0,0,0,0,0
1706423024.00075293,58828959,1000,1000,1000,1000,0,0,0,0,0,0,0,0,0,0
1706423024.10071301,58928919,1000,1000,1000,1000,0,0,0,0,0,0,0,0,0,0
1706423024.20067286,59028879,1000,1000,1000,1000,0,0,0,0,0,0,0,0,0,0
1706423024.30063295,59128839,1000,1000,1000,1000,0,0,0,0,0,0,0,0,0,0
1706423024.40059304,59228799,1000,1000,1000,1000,0,0,0,0,0,0,0,0,0,0
1706423024.50055289,59328759,1000,1000,1000,1000,0,0,0,0,0,0,0,0,0,0
1706423024.60051298,59428719,1000,1000,1000,1000,0,0,0,0,0,0,0,0,0,0
1706423024.70047283,59528679,1000,1000,1000,1000,0,0,0,0,0,0,0,0,0,0
1706423024.80043292,59628639,1000,1000,1000,1000,0,0,0,0,0,0,0,0,0,0
1706423024.90039301,59728599,1000,1000,1000,1000,0,0,0,0,0,0,0,0,0,0
1706423025.00035286,59828559,1000,1000,1000,1000,0,0,0,0,0,0,0,0,0,0
1706423025.10031295,59928519,1000,1000,1000,1000,0,0,0,0,0,0,0,0,0,0
1706423025.20027304,60028479,1000,1000,1000,1000,0,0,0,0,0,0,0,0,0,0
1706423025.30023289,60128439,1000,1000,1000,1000,0,0,0,0,0,0,0,0,0,0
1706423025.40019298,60228399,1000,1000,1000,1000,0,0,0,0,0,0,0,0,0,0
1706423025.50015283,60328359,1000,1000,1000,1000,0,0,0,0,0,0,0,0,0,0
1706423025.60011292,60428319,1000,1000,1000,1000,0,0,0,0,0,0,0,0,0,0
1706423025.70007300,60528279,1021,1021,1021,1021,0,0,0,0,0,0,0,0,0,0
1706423025.80003285,60628239,1051,1051,1051,1051,0,0,0,0,0,0,0,0,0,0
1706423025.89999294,60728199,1081,1081,1081,1081,0,0,0,0,0,0,0,0,0,0
1706423025.99995303,60828159,1111,1111,1111,1111,0,0,0,0,0,0,0,0,0,0
1706423026.10074592,60928952,1141,1141,1141,1141,0,0,0,0,0,0,0,0,0,0
1706423026.20070601,61028912,1341,1334,1335,1341,0,0,0,0,0,0,0,0,0,0
1706423026.30066586,61128872,1534,1528,1529,1535,0,0,0,0,0,0,0,0,0,0
1706423026.40062594,61228832,1689,1683,1683,1689,0,0,0,0,0,0,0,0,0,0
1706423026.50058603,61328792,1821,1816,1816,1821,0,0,0,0,0,0,0,0,0,0
1706423026.60054588,61428752,1853,1847,1847,1853,0,0,0,0,0,0,0,0,0,0
1706423026.70050597,61528712,1838,1836,1836,1839,0,0,0,0,0,0,0,0,0,0
1706423026.80046582,61628672,1710,1711,1711,1711,0,0,0,0,0,0,0,0,0,0
1706423026.90042591,61728632,1629,1631,1631,1630,0,0,0,0,0,0,0,0,0,0
1706423027.00038600,61828592,1616,1618,1618,1617,0,0,0,0,0,0,0,0,0,0
1706423027.10034585,61928552,1630,1632,1632,1630,0,0,0,0,0,0,0,0,0,0
1706423027.20030594,62028512,1636,1636,1633,1638,0,0,0,0,0,0,0,0,0,0
1706423027.30026603,62128472,1630,1631,1624,1636,0,0,0,0,0,0,0,0,0,0
1706423027.40022588,62228432,1623,1624,1620,1627,0,0,0,0,0,0,0,0,0,0
1706423027.50018597,62328392,1618,1619,1618,1619,0,0,0,0,0,0,0,0,0,0
1706423027.60014606,62428352,1619,1618,1620,1616,0,0,0,0,0,0,0,0,0,0
1706423027.70010591,62528312,1619,1619,1623,1616,0,0,0,0,0,0,0,0,0,0
1706423027.80006599,62628272,1622,1621,1625,1618,0,0,0,0,0,0,0,0,0,0
1706423027.90002584,62728232,1624,1624,1627,1621,0,0,0,0,0,0,0,0,0,0
1706423027.99998593,62828192,1596,1596,1605,1588,0,0,0,0,0,0,0,0,0,0
1706423028.10077906,62928985,1580,1580,1589,1572,0,0,0,0,0,0,0,0,0,0
1706423028.20073891,63028945,1568,1568,1571,1567,0,0,0,0,0,0,0,0,0,0
1706423028.30069900,63128905,1558,1559,1555,1563,0,0,0,0,0,0,0,0,0,0
1706423028.40065885,63228865,1550,1549,1541,1558,0,0,0,0,0,0,0,0,0,0
1706423028.50061893,63328825,1542,1542,1532,1552,0,0,0,0,0,0,0,0,0,0
1706423028.60057902,63428785,1537,1537,1529,1544,0,0,0,0,0,0,0,0,0,0
1706423028.70053887,63528745,1531,1531,1527,1534,0,0,0,0,0,0,0,0,0,0
1706423028.80049896,63628705,1528,1528,1528,1527,0,0,0,0,0,0,0,0,0,0
1706423028.90045905,63728665,1528,1528,1529,1526,0,0,0,0,0,0,0,0,0,0
1706423029.00041890,63828625,1530,1530,1533,1527,0,0,0,0,0,0,0,0,0,0
1706423029.10037899,63928585,1533,1533,1536,1530,0,0,0,0,0,0,0,0,0,0
1706423029.20033884,64028545,1536,1536,1539,1534,0,0,0,0,0,0,0,0,0,0
1706423029.30029893,64128505,1540,1540,1542,1538,0,0,0,0,0,0,0,0,0,0
1706423029.40025902,64228465,1543,1543,1544,1543,0,0,0,0,0,0,0,0,0,0
1706423029.50021887,64328425,1546,1547,1547,1547,0,0,0,0,0,0,0,0,0,0
1706423029.60017896,64428385,1549,1550,1549,1550,0,0,0,0,0,0,0,0,0,0
1706423029.70013905,64528345,1552,1552,1551,1554,0,0,0,0,0,0,0,0,0,0
1706423029.80009890,64628305,1555,1555,1554,1556,0,0,0,0,0,0,0,0,0,0
1706423029.90005898,64728265,1555,1555,1557,1559,0,0,0,0,0,0,0,0,0,0
1706423030.00001884,64828225,1557,1556,1560,1561,0,0,0,0,0,0,0,0,0,0
1706423030.09997892,64928185,1558,1558,1563,1563,0,0,0,0,0,0,0,0,0,0
1706423030.20077205,65028978,1560,1561,1565,1565,0,0,0,0,0,0,0,0,0,0
1706423030.30073190,65128938,1562,1563,1566,1566,0,0,0,0,0,0,0,0,0,0
1706423030.40069199,65228898,1565,1565,1567,1567,0,0,0,0,0,0,0,0,0,0
1706423030.50065184,65328858,1567,1566,1567,1567,0,0,0,0,0,0,0,0,0,0
1706423030.60061193,65428818,1568,1569,1568,1567,0,0,0,0,0,0,0,0,0,0
1706423030.70057201,65528778,1570,1570,1568,1568,0,0,0,0,0,0,0,0,0,0
1706423030.80053186,65628738,1571,1571,1568,1569,0,0,0,0,0,0,0,0,0,0
1706423030.90049195,65728698,1572,1572,1569,1570,0,0,0,0,0,0,0,0,0,0
1706423031.00045204,65828658,1573,1573,1570,1570,0,0,0,0,0,0,0,0,0,0
1706423031.10041189,65928618,1573,1574,1571,1571,0,0,0,0,0,0,0,0,0,0
1706423031.20037198,66028578,1574,1574,1572,1571,0,0,0,0,0,0,0,0,0,0
1706423031.30033183,66128538,1575,1574,1573,1572,0,0,0,0,0,0,0,0,0,0
1706423031.40029192,66228498,1575,1575,1574,1573,0,0,0,0,0,0,0,0,0,0
1706423031.50025201,66328458,1576,1576,1576,1575,0,0,0,0,0,0,0,0,0,0
1706423031.60021186,66428418,1575,1575,1575,1575,0,0,0,0,0,0,0,0,0,0
1706423031.70017195,66528378,1575,1575,1575,1575,0,0,0,0,0,0,0,0,0,0
1706423031.80013204,66628338,1576,1576,1576,1576,0,0,0,0,0,0,0,0,0,0
1706423031.90009189,66728298,1575,1575,1576,1575,0,0,0,0,0,0,0,0,0,0
1706423032.00005198,66828258,1575,1575,1576,1576,0,0,0,0,0,0,0,0,0,0
1706423032.10001183,66928218,1575,1575,1576,1576,0,0,0,0,0,0,0,0,0,0
1706423032.19997191,67028178,1576,1576,1577,1577,0,0,0,0,0,0,0,0,0,0
1706423032.30076504,67128971,1577,1577,1577,1577,0,0,0,0,0,0,0,0,0,0
1706423032.40072489,67228931,1577,1578,1578,1578,0,0,0,0,0,0,0,0,0,0
1706423032.50068498,67328891,1577,1577,1577,1577,0,0,0,0,0,0,0,0,0,0
1706423032.60064483,67428851,1578,1579,1579,1578,0,0,0,0,0,0,0,0,0,0
1706423032.70060492,67528811,1578,1577,1578,1577,0,0,0,0,0,0,0,0,0,0
1706423032.80056500,67628771,1578,1578,1578,1578,0,0,0,0,0,0,0,0,0,0
1706423032.90052485,67728731,1578,1578,1577,1577,0,0,0,0,0,0,0,0,0,0
1706423033.00048494,67828691,1578,1578,1577,1578,0,0,0,0,0,0,0,0,0,0
1706423033.10044503,67928651,1578,1578,1577,1578,0,0,0,0,0,0,0,0,0,0
1706423033.20040488,68028611,1578,1579,1578,1578,0,0,0,0,0,0,0,0,0,0
1706423033.30036497,68128571,1578,1577,1578,1577,0,0,0,0,0,0,0,0,0,0
1706423033.40032482,68228531,1579,1579,1580,1579,0,0,0,0,0,0,0,0,0,0
1706423033.50028491,68328491,1579,1579,1579,1580,0,0,0,0,0,0,0,0,0,0
1706423033.60024500,68428451,1578,1579,1579,1579,0,0,0,0,0,0,0,0,0,0
1706423033.70020485,68528411,1578,1579,1579,1579,0,0,0,0,0,0,0,0,0,0
1706423033.80016494,68628371,1579,1579,1580,1580,0,0,0,0,0,0,0,0,0,0
1706423033.90012503,68728331,1579,1578,1579,1579,0,0,0,0,0,0,0,0,0,0
1706423034.00008488,68828291,1580,1581,1581,1581,0,0,0,0,0,0,0,0,0,0
1706423034.10004497,68928251,1581,1581,1581,1581,0,0,0,0,0,0,0,0,0,0
1706423034.20000505,69028211,1580,1580,1580,1579,0,0,0,0,0,0,0,0,0,0
1706423034.29996490,69128171,1579,1579,1579,1578,0,0,0,0,0,0,0,0,0,0
1706423034.40075803,69228964,1579,1579,1579,1578,0,0,0,0,0,0,0,0,0,0
1706423034.50071788,69328924,1580,1580,1579,1580,0,0,0,0,0,0,0,0,0,0
1706423034.60067797,69428884,1580,1580,1580,1580,0,0,0,0,0,0,0,0,0,0
1706423034.70063806,69528844,1580,1580,1580,1580,0,0,0,0,0,0,0,0,0,0
1706423034.80059791,69628804,1580,1581,1581,1580,0,0,0,0,0,0,0,0,0,0
1706423034.90055799,69728764,1581,1581,1581,1580,0,0,0,0,0,0,0,0,0,0
1706423035.00051785,69828724,1581,1580,1581,1581,0,0,0,0,0,0,0,0,0,0
1706423035.10047793,69928684,1581,1581,1581,1581,0,0,0,0,0,0,0,0,0,0
1706423035.20043802,70028644,1581,1581,1581,1581,0,0,0,0,0,0,0,0,0,0
1706423035.30039787,70128604,1581,1580,1581,1581,0,0,0,0,0,0,0,0,0,0
1706423035.40035796,70228564,1581,1581,1581,1581,0,0,0,0,0,0,0,0,0,0
1706423035.50031805,70328524,1581,1581,1581,1581,0,0,0,0,0,0,0,0,0,0
1706423035.60027790,70428484,1581,1581,1581,1581,0,0,0,0,0,0,0,0,0,0
1706423035.70023799,70528444,1581,1580,1581,1581,0,0,0,0,0,0,0,0,0,0
1706423035.80019784,70628404,1581,1580,1581,1580,0,0,0,0,0,0,0,0,0,0
1706423035.90015793,70728364,1581,1581,1581,1581,0,0,0,0,0,0,0,0,0,0
1706423036.00011802,70828324,1581,1581,1581,1580,0,0,0,0,0,0,0,0,0,0
1706423036.10007787,70928284,1581,1582,1588,1574,0,0,0,0,0,0,0,0,0,0
1706423036.20003796,71028244,1581,1583,1586,1574,0,0,0,0,0,0,0,0,0,0
1706423036.29999804,71128204,1578,1581,1576,1573,0,0,0,0,0,0,0,0,0,0
1706423036.39995790,71228164,1577,1580,1567,1572,0,0,0,0,0,0,0,0,0,0
1706423036.50075102,71328957,1577,1579,1561,1568,0,0,0,0,0,0,0,0,0,0
1706423036.60071087,71428917,1578,1578,1557,1563,0,0,0,0,0,0,0,0,0,0
1706423036.70067096,71528877,1578,1577,1555,1558,0,0,0,0,0,0,0,0,0,0
1706423036.80063105,71628837,1579,1577,1555,1555,0,0,0,0,0,0,0,0,0,0
1706423036.90059090,71728797,1579,1577,1556,1554,0,0,0,0,0,0,0,0,0,0
1706423037.00055099,71828757,1579,1578,1557,1553,0,0,0,0,0,0,0,0,0,0
1706423037.10051084,71928717,1576,1577,1555,1553,0,0,0,0,0,0,0,0,0,0
1706423037.20047092,72028677,1575,1576,1555,1553,0,0,0,0,0,0,0,0,0,0
1706423037.30043101,72128637,1574,1576,1554,1553,0,0,0,0,0,0,0,0,0,0
1706423037.40039086,72228597,1574,1576,1553,1552,0,0,0,0,0,0,0,0,0,0
1706423037.50035095,72328557,1576,1577,1552,1552,0,0,0,0,0,0,0,0,0,0
1706423037.60031104,72428517,1576,1578,1550,1550,0,0,0,0,0,0,0,0,0,0
1706423037.70027089,72528477,1580,1580,1548,1549,0,0,0,0,0,0,0,0,0,0
1706423037.80023098,72628437,1582,1583,1546,1546,0,0,0,0,0,0,0,0,0,0
1706423037.90019083,72728397,1584,1585,1543,1543,0,0,0,0,0,0,0,0,0,0
1706423038.00015092,72828357,1587,1589,1541,1540,0,0,0,0,0,0,0,0,0,0
1706423038.10011101,72928317,1590,1590,1537,1537,0,0,0,0,0,0,0,0,0,0
1706423038.20007086,73028277,1593,1593,1535,1536,0,0,0,0,0,0,0,0,0,0
1706423038.30003095,73128237,1595,1595,1534,1535,0,0,0,0,0,0,0,0,0,0
1706423038.39999104,73228197,1595,1595,1535,1536,0,0,0,0,0,0,0,0,0,0
1706423038.49995089,73328157,1594,1594,1536,1538,0,0,0,0,0,0,0,0,0,0
1706423038.60074401,73428950,1592,1592,1539,1542,0,0,0,0,0,0,0,0,0,0
1706423038.70070386,73528910,1588,1587,1544,1548,0,0,0,0,0,0,0,0,0,0
1706423038.80066395,73628870,1582,1580,1553,1555,0,0,0,0,0,0,0,0,0,0
1706423038.90062404,73728830,1574,1571,1564,1566,0,0,0,0,0,0,0,0,0,0
1706423039.00058389,73828790,1564,1560,1575,1577,0,0,0,0,0,0,0,0,0,0
1706423039.10054398,73928750,1551,1548,1587,1587,0,0,0,0,0,0,0,0,0,0
1706423039.20050383,74028710,1541,1539,1598,1598,0,0,0,0,0,0,0,0,0,0
1706423039.30046391,74128670,1534,1533,1608,1608,0,0,0,0,0,0,0,0,0,0
1706423039.40042400,74228630,1529,1530,1614,1612,0,0,0,0,0,0,0,0,0,0
1706423039.50038385,74328590,1528,1530,1616,1614,0,0,0,0,0,0,0,0,0,0
1706423039.60034394,74428550,1532,1535,1614,1614,0,0,0,0,0,0,0,0,0,0
1706423039.70030403,74528510,1536,1539,1608,1609,0,0,0,0,0,0,0,0,0,0
1706423039.80026388,74628470,1545,1547,1602,1603,0,0,0,0,0,0,0,0,0,0
1706423039.90022397,74728430,1554,1554,1595,1595,0,0,0,0,0,0,0,0,0,0
1706423040.00018382,74828390,1563,1563,1588,1587,0,0,0,0,0,0,0,0,0,0
1706423040.10014391,74928350,1571,1571,1581,1580,0,0,0,0,0,0,0,0,0,0
1706423040.20010400,75028310,1578,1577,1575,1574,0,0,0,0,0,0,0,0,0,0
1706423040.30006385,75128270,1584,1582,1571,1570,0,0,0,0,0,0,0,0,0,0
1706423040.40002394,75228230,1587,1586,1568,1568,0,0,0,0,0,0,0,0,0,0
1706423040.49998403,75328190,1588,1587,1566,1566,0,0,0,0,0,0,0,0,0,0
1706423040.60077691,75428983,1587,1586,1566,1567,0,0,0,0,0,0,0,0,0,0
1706423040.70073700,75528943,1587,1586,1569,1569,0,0,0,0,0,0,0,0,0,0
1706423040.80069685,75628903,1584,1583,1571,1571,0,0,0,0,0,0,0,0,0,0
1706423040.90065694,75728863,1580,1580,1573,1573,0,0,0,0,0,0,0,0,0,0
1706423041.00061703,75828823,1577,1577,1576,1576,0,0,0,0,0,0,0,0,0,0
1706423041.10057688,75928783,1574,1575,1579,1578,0,0,0,0,0,0,0,0,0,0
1706423041.20053697,76028743,1572,1573,1581,1580,0,0,0,0,0,0,0,0,0,0
1706423041.30049706,76128703,1573,1574,1583,1583,0,0,0,0,0,0,0,0,0,0
1706423041.40045691,76228663,1572,1573,1583,1584,0,0,0,0,0,0,0,0,0,0
1706423041.50041699,76328623,1572,1573,1583,1584,0,0,0,0,0,0,0,0,0,0
1706423041.60037684,76428583,1572,1573,1582,1582,0,0,0,0,0,0,0,0,0,0
1706423041.70033693,76528543,1574,1574,1582,1582,0,0,0,0,0,0,0,0,0,0
1706423041.80029702,76628503,1575,1576,1581,1581,0,0,0,0,0,0,0,0,0,0
1706423041.90025687,76728463,1577,1577,1579,1580,0,0,0,0,0,0,0,0,0,0
1706423042.00021696,76828423,1578,1578,1578,1578,0,0,0,0,0,0,0,0,0,0
1706423042.10017705,76928383,1580,1580,1578,1578,0,0,0,0,0,0,0,0,0,0
1706423042.20013690,77028343,1580,1580,1577,1577,0,0,0,0,0,0,0,0,0,0
1706423042.30009699,77128303,1581,1581,1577,1577,0,0,0,0,0,0,0,0,0,0
1706423042.40005684,77228263,1581,1581,1577,1576,0,0,0,0,0,0,0,0,0,0
1706423042.50001693,77328223,1582,1582,1577,1577,0,0,0,0,0,0,0,0,0,0
1706423042.59997702,77428183,1581,1581,1578,1577,0,0,0,0,0,0,0,0,0,0
1706423042.70076990,77528976,1581,1581,1578,1578,0,0,0,0,0,0,0,0,0,0
1706423042.80072999,77628936,1580,1580,1579,1579,0,0,0,0,0,0,0,0,0,0
1706423042.90068984,77728896,1638,1583,1580,1581,0,0,0,0,0,0,0,0,0,0
1706423043.00064993,77828856,1608,1593,1574,1572,0,0,0,0,0,0,0,0,0,0
1706423043.10061002,77928816,1588,1597,1573,1573,0,0,0,0,0,0,0,0,0,0
1706423043.20056987,78028776,1577,1597,1576,1577,0,0,0,0,0,0,0,0,0,0
1706423043.30052996,78128736,1572,1591,1577,1579,0,0,0,0,0,0,0,0,0,0
1706423043.40049005,78228696,1573,1584,1581,1582,0,0,0,0,0,0,0,0,0,0
1706423043.50044990,78328656,1574,1577,1583,1584,0,0,0,0,0,0,0,0,0,0
1706423043.60040998,78428616,1576,1572,1584,1584,0,0,0,0,0,0,0,0,0,0
1706423043.70036983,78528576,1578,1571,1586,1586,0,0,0,0,0,0,0,0,0,0
1706423043.80032992,78628536,1577,1571,1586,1585,0,0,0,0,0,0,0,0,0,0
1706423043.90029001,78728496,1576,1573,1585,1584,0,0,0,0,0,0,0,0,0,0
1706423044.00024986,78828456,1577,1576,1585,1584,0,0,0,0,0,0,0,0,0,0
1706423044.10020995,78928416,1576,1579,1590,1576,0,0,0,0,0,0,0,0,0,0
1706423044.20017004,79028376,1575,1580,1586,1573,0,0,0,0,0,0,0,0,0,0
1706423044.30012989,79128336,1576,1581,1577,1573,0,0,0,0,0,0,0,0,0,0
1706423044.40008998,79228296,1578,1581,1567,1570,0,0,0,0,0,0,0,0,0,0
1706423044.50004983,79328256,1579,1581,1558,1565,0,0,0,0,0,0,0,0,0,0
1706423044.60000992,79428216,1582,1582,1553,1560,0,0,0,0,0,0,0,0,0,0
1706423044.69997001,79528176,1585,1584,1551,1555,0,0,0,0,0,0,0,0,0,0
1706423044.80076289,79628969,1586,1584,1550,1551,0,0,0,0,0,0,0,0,0,0
1706423044.90072298,79728929,1586,1584,1551,1550,0,0,0,0,0,0,0,0,0,0
1706423045.00068283,79828889,1584,1583,1552,1549,0,0,0,0,0,0,0,0,0,0
1706423045.10064292,79928849,1582,1582,1553,1551,0,0,0,0,0,0,0,0,0,0
1706423045.20060301,80028809,1580,1581,1553,1552,0,0,0,0,0,0,0,0,0,0
1706423045.30056286,80128769,1579,1580,1554,1554,0,0,0,0,0,0,0,0,0,0
1706423045.40052295,80228729,1577,1579,1553,1553,0,0,0,0,0,0,0,0,0,0
1706423045.50048304,80328689,1577,1578,1552,1552,0,0,0,0,0,0,0,0,0,0
1706423045.60044289,80428649,1578,1579,1552,1552,0,0,0,0,0,0,0,0,0,0
1706423045.70040298,80528609,1580,1580,1550,1551,0,0,0,0,0,0,0,0,0,0
1706423045.80036283,80628569,1582,1583,1549,1549,0,0,0,0,0,0,0,0,0,0
1706423045.90032291,80728529,1583,1584,1547,1547,0,0,0,0,0,0,0,0,0,0
1706423046.00028300,80828489,1586,1588,1545,1545,0,0,0,0,0,0,0,0,0,0
1706423046.10024285,80928449,1590,1591,1542,1543,0,0,0,0,0,0,0,0,0,0
1706423046.20020294,81028409,1592,1593,1539,1541,0,0,0,0,0,0,0,0,0,0
1706423046.30016303,81128369,1594,1593,1540,1541,0,0,0,0,0,0,0,0,0,0
1706423046.40012288,81228329,1594,1592,1542,1544,0,0,0,0,0,0,0,0,0,0
1706423046.50008297,81328289,1592,1589,1547,1549,0,0,0,0,0,0,0,0,0,0
1706423046.60004282,81428249,1586,1583,1554,1556,0,0,0,0,0,0,0,0,0,0
1706423046.70000291,81528209,1580,1576,1565,1567,0,0,0,0,0,0,0,0,0,0
1706423046.79996300,81628169,1570,1567,1575,1576,0,0,0,0,0,0,0,0,0,0
1706423046.90075588,81728962,1560,1557,1586,1586,0,0,0,0,0,0,0,0,0,0
1706423047.00071597,81828922,1550,1549,1595,1595,0,0,0,0,0,0,0,0,0,0
1706423047.10067582,81928882,1544,1544,1603,1603,0,0,0,0,0,0,0,0,0,0
1706423047.20063591,82028842,1540,1540,1608,1608,0,0,0,0,0,0,0,0,0,0
1706423047.30059600,82128802,1539,1540,1610,1610,0,0,0,0,0,0,0,0,0,0
1706423047.40055585,82228762,1541,1542,1609,1609,0,0,0,0,0,0,0,0,0,0
1706423047.50051594,82328722,1545,1547,1607,1606,0,0,0,0,0,0,0,0,0,0
1706423047.60047603,82428682,1551,1553,1603,1602,0,0,0,0,0,0,0,0,0,0
1706423047.70043588,82528642,1558,1559,1597,1597,0,0,0,0,0,0,0,0,0,0
1706423047.80039597,82628602,1564,1565,1590,1590,0,0,0,0,0,0,0,0,0,0
1706423047.90035605,82728562,1571,1571,1583,1583,0,0,0,0,0,0,0,0,0,0
1706423048.00031590,82828522,1577,1576,1578,1579,0,0,0,0,0,0,0,0,0,0
1706423048.10027599,82928482,1581,1580,1574,1574,0,0,0,0,0,0,0,0,0,0
1706423048.20023584,83028442,1585,1583,1571,1571,0,0,0,0,0,0,0,0,0,0
1706423048.30019593,83128402,1586,1584,1569,1570,0,0,0,0,0,0,0,0,0,0
1706423048.40015602,83228362,1585,1585,1569,1569,0,0,0,0,0,0,0,0,0,0
1706423048.50011587,83328322,1585,1584,1571,1571,0,0,0,0,0,0,0,0,0,0
1706423048.60007596,83428282,1583,1582,1573,1572,0,0,0,0,0,0,0,0,0,0
1706423048.70003605,83528242,1580,1579,1575,1574,0,0,0,0,0,0,0,0,0,0
1706423048.79999590,83628202,1577,1578,1577,1577,0,0,0,0,0,0,0,0,0,0
1706423048.89995599,83728162,1575,1575,1578,1579,0,0,0,0,0,0,0,0,0,0
1706423049.00074887,83828955,1573,1574,1580,1580,0,0,0,0,0,0,0,0,0,0
1706423049.10070896,83928915,1574,1574,1583,1582,0,0,0,0,0,0,0,0,0,0
1706423049.20066905,84028875,1573,1573,1583,1583,0,0,0,0,0,0,0,0,0,0
1706423049.30062890,84128835,1574,1574,1584,1583,0,0,0,0,0,0,0,0,0,0
1706423049.40058899,84228795,1575,1575,1583,1584,0,0,0,0,0,0,0,0,0,0
1706423049.50054884,84328755,1575,1575,1582,1583,0,0,0,0,0,0,0,0,0,0
1706423049.60050893,84428715,1576,1577,1582,1581,0,0,0,0,0,0,0,0,0,0
1706423049.70046902,84528675,1577,1577,1580,1580,0,0,0,0,0,0,0,0,0,0
1706423049.80042887,84628635,1579,1578,1579,1579,0,0,0,0,0,0,0,0,0,0
1706423049.90038896,84728595,1580,1580,1579,1579,0,0,0,0,0,0,0,0,0,0
1706423050.00034904,84828555,1581,1581,1579,1579,0,0,0,0,0,0,0,0,0,0
1706423050.10030890,84928515,1583,1581,1579,1579,0,0,0,0,0,0,0,0,0,0
1706423050.20026898,85028475,1583,1583,1579,1579,0,0,0,0,0,0,0,0,0,0
1706423050.30022883,85128435,1582,1582,1579,1579,0,0,0,0,0,0,0,0,0,0
1706423050.40018892,85228395,1581,1582,1579,1579,0,0,0,0,0,0,0,0,0,0
1706423050.50014901,85328355,1581,1581,1579,1579,0,0,0,0,0,0,0,0,0,0
1706423050.60010886,85428315,1581,1581,1580,1580,0,0,0,0,0,0,0,0,0,0
1706423050.70006895,85528275,1581,1580,1580,1580,0,0,0,0,0,0,0,0,0,0
1706423050.80002904,85628235,1581,1581,1581,1581,0,0,0,0,0,0,0,0,0,0
1706423050.89998889,85728195,1581,1581,1582,1582,0,0,0,0,0,0,0,0,0,0
1706423050.99994898,85828155,1580,1580,1581,1581,0,0,0,0,0,0,0,0,0,0
1706423051.10074186,85928948,1579,1579,1581,1581,0,0,0,0,0,0,0,0,0,0
1706423051.20070195,86028908,1578,1578,1580,1580,0,0,0,0,0,0,0,0,0,0
1706423051.30066204,86128868,1579,1579,1580,1580,0,0,0,0,0,0,0,0,0,0
1706423051.40062189,86228828,1579,1579,1580,1580,0,0,0,0,0,0,0,0,0,0
1706423051.50058198,86328788,1578,1579,1579,1580,0,0,0,0,0,0,0,0,0,0
1706423051.60054183,86428748,1580,1580,1580,1580,0,0,0,0,0,0,0,0,0,0
1706423051.70050192,86528708,1580,1580,1580,1580,0,0,0,0,0,0,0,0,0,0
1706423051.80046201,86628668,1581,1581,1581,1580,0,0,0,0,0,0,0,0,0,0
1706423051.90042186,86728628,1582,1582,1581,1581,0,0,0,0,0,0,0,0,0,0
1706423052.00038195,86828588,1582,1582,1581,1581,0,0,0,0,0,0,0,0,0,0
1706423052.10034204,86928548,1582,1582,1583,1579,0,0,0,0,0,0,0,0,0,0
1706423052.20030189,87028508,1582,1584,1588,1574,0,0,0,0,0,0,0,0,0,0
1706423052.30026197,87128468,1581,1584,1583,1574,0,0,0,0,0,0,0,0,0,0
1706423052.40022182,87228428,1579,1582,1574,1573,0,0,0,0,0,0,0,0,0,0
1706423052.50018191,87328388,1578,1580,1565,1570,0,0,0,0,0,0,0,0,0,0
1706423052.60014200,87428348,1578,1579,1559,1566,0,0,0,0,0,0,0,0,0,0
1706423052.70010185,87528308,1579,1579,1556,1562,0,0,0,0,0,0,0,0,0,0
1706423052.80006194,87628268,1579,1578,1553,1557,0,0,0,0,0,0,0,0,0,0
1706423052.90002203,87728228,1580,1578,1554,1555,0,0,0,0,0,0,0,0,0,0
1706423052.99998188,87828188,1579,1578,1554,1553,0,0,0,0,0,0,0,0,0,0
1706423053.10077500,87928981,1578,1578,1556,1553,0,0,0,0,0,0,0,0,0,0
1706423053.20073485,88028941,1578,1579,1557,1554,0,0,0,0,0,0,0,0,0,0
1706423053.30069494,88128901,1575,1577,1554,1553,0,0,0,0,0,0,0,0,0,0
1706423053.40065503,88228861,1574,1576,1553,1553,0,0,0,0,0,0,0,0,0,0
1706423053.50061488,88328821,1574,1576,1552,1552,0,0,0,0,0,0,0,0,0,0
1706423053.60057497,88428781,1575,1577,1551,1551,0,0,0,0,0,0,0,0,0,0
1706423053.70053482,88528741,1577,1578,1549,1550,0,0,0,0,0,0,0,0,0,0
1706423053.80049491,88628701,1580,1580,1548,1548,0,0,0,0,0,0,0,0,0,0
1706423053.90045500,88728661,1582,1582,1545,1545,0,0,0,0,0,0,0,0,0,0
1706423054.00041485,88828621,1585,1586,1543,1543,0,0,0,0,0,0,0,0,0,0
1706423054.10037494,88928581,1587,1588,1541,1541,0,0,0,0,0,0,0,0,0,0
1706423054.20033503,89028541,1590,1590,1539,1539,0,0,0,0,0,0,0,0,0,0
1706423054.30029488,89128501,1592,1592,1538,1538,0,0,0,0,0,0,0,0,0,0
1706423054.40025496,89228461,1593,1594,1537,1538,0,0,0,0,0,0,0,0,0,0
1706423054.50021505,89328421,1594,1594,1537,1539,0,0,0,0,0,0,0,0,0,0
1706423054.60017490,89428381,1593,1593,1540,1542,0,0,0,0,0,0,0,0,0,0
1706423054.70013499,89528341,1591,1589,1544,1546,0,0,0,0,0,0,0,0,0,0
1706423054.80009484,89628301,1586,1584,1551,1554,0,0,0,0,0,0,0,0,0,0
1706423054.90005493,89728261,1578,1575,1560,1562,0,0,0,0,0,0,0,0,0,0
1706423055.00001502,89828221,1569,1565,1571,1573,0,0,0,0,0,0,0,0,0,0
1706423055.09997487,89928181,1559,1555,1583,1584,0,0,0,0,0,0,0,0,0,0
1706423055.20076799,90028974,1548,1545,1594,1594,0,0,0,0,0,0,0,0,0,0
1706423055.30072784,90128934,1540,1538,1604,1603,0,0,0,0,0,0,0,0,0,0
1706423055.40068793,90228894,1533,1534,1610,1609,0,0,0,0,0,0,0,0,0,0
1706423055.50064802,90328854,1531,1533,1612,1612,0,0,0,0,0,0,0,0,0,0
1706423055.60060787,90428814,1534,1536,1613,1612,0,0,0,0,0,0,0,0,0,0
1706423055.70056796,90528774,1540,1541,1610,1610,0,0,0,0,0,0,0,0,0,0
1706423055.80052805,90628734,1545,1547,1604,1604,0,0,0,0,0,0,0,0,0,0
1706423055.90048790,90728694,1552,1553,1597,1597,0,0,0,0,0,0,0,0,0,0
1706423056.00044799,90828654,1561,1562,1591,1590,0,0,0,0,0,0,0,0,0,0
1706423056.10040784,90928614,1568,1568,1583,1582,0,0,0,0,0,0,0,0,0,0
1706423056.20036793,91028574,1576,1575,1577,1577,0,0,0,0,0,0,0,0,0,0
1706423056.30032802,91128534,1580,1580,1572,1571,0,0,0,0,0,0,0,0,0,0
1706423056.40028787,91228494,1585,1584,1570,1569,0,0,0,0,0,0,0,0,0,0
1706423056.50024796,91328454,1587,1586,1568,1568,0,0,0,0,0,0,0,0,0,0
1706423056.60020804,91428414,1587,1586,1568,1568,0,0,0,0,0,0,0,0,0,0
1706423056.70016789,91528374,1587,1585,1570,1569,0,0,0,0,0,0,0,0,0,0
1706423056.80012798,91628334,1584,1584,1571,1572,0,0,0,0,0,0,0,0,0,0
1706423056.90008783,91728294,1582,1581,1574,1574,0,0,0,0,0,0,0,0,0,0
1706423057.00004792,91828254,1578,1579,1577,1576,0,0,0,0,0,0,0,0,0,0
1706423057.10000801,91928214,1576,1577,1579,1579,0,0,0,0,0,0,0,0,0,0
1706423057.19996786,92028174,1574,1575,1581,1581,0,0,0,0,0,0,0,0,0,0
1706423057.30076098,92128967,1574,1573,1582,1582,0,0,0,0,0,0,0,0,0,0
1706423057.40072083,92228927,1573,1573,1584,1584,0,0,0,0,0,0,0,0,0,0
1706423057.50068092,92328887,1573,1573,1584,1584,0,0,0,0,0,0,0,0,0,0
1706423057.60064101,92428847,1574,1574,1584,1583,0,0,0,0,0,0,0,0,0,0
1706423057.70060086,92528807,1574,1575,1582,1582,0,0,0,0,0,0,0,0,0,0
1706423057.80056095,92628767,1575,1576,1581,1581,0,0,0,0,0,0,0,0,0,0
1706423057.90052104,92728727,1577,1577,1580,1580,0,0,0,0,0,0,0,0,0,0
1706423058.00048089,92828687,1578,1578,1579,1579,0,0,0,0,0,0,0,0,0,0
1706423058.10044098,92928647,1579,1580,1578,1578,0,0,0,0,0,0,0,0,0,0
1706423058.20040083,93028607,1581,1581,1578,1578,0,0,0,0,0,0,0,0,0,0
1706423058.30036092,93128567,1580,1580,1577,1577,0,0,0,0,0,0,0,0,0,0
1706423058.40032101,93228527,1582,1582,1578,1578,0,0,0,0,0,0,0,0,0,0
1706423058.50028086,93328487,1582,1581,1578,1578,0,0,0,0,0,0,0,0,0,0
1706423058.60024095,93428447,1582,1581,1578,1578,0,0,0,0,0,0,0,0,0,0
1706423058.70020103,93528407,1581,1581,1579,1578,0,0,0,0,0,0,0,0,0,0
1706423058.80016088,93628367,1580,1581,1579,1579,0,0,0,0,0,0,0,0,0,0
1706423058.90012097,93728327,1580,1580,1580,1580,0,0,0,0,0,0,0,0,0,0
1706423059.00008082,93828287,1579,1579,1579,1579,0,0,0,0,0,0,0,0,0,0
1706423059.10004091,93928247,1579,1578,1579,1580,0,0,0,0,0,0,0,0,0,0
1706423059.20000100,94028207,1579,1579,1581,1580,0,0,0,0,0,0,0,0,0,0
1706423059.29996085,94128167,1579,1579,1581,1581,0,0,0,0,0,0,0,0,0,0
1706423059.40075397,94228960,1580,1580,1582,1581,0,0,0,0,0,0,0,0,0,0
1706423059.50071383,94328920,1579,1579,1581,1580,0,0,0,0,0,0,0,0,0,0
1706423059.60067391,94428880,1580,1580,1582,1581,0,0,0,0,0,0,0,0,0,0
1706423059.70063400,94528840,1580,1580,1581,1581,0,0,0,0,0,0,0,0,0,0
1706423059.80059385,94628800,1581,1580,1581,1581,0,0,0,0,0,0,0,0,0,0
1706423059.90055394,94728760,1580,1580,1579,1580,0,0,0,0,0,0,0,0,0,0
1706423060.00051403,94828720,1580,1580,1579,1579,0,0,0,0,0,0,0,0,0,0
1706423060.10047388,94928680,1580,1581,1586,1571,0,0,0,0,0,0,0,0,0,0
1706423060.20043397,95028640,1580,1581,1584,1572,0,0,0,0,0,0,0,0,0,0
1706423060.30039382,95128600,1577,1577,1577,1574,0,0,0,0,0,0,0,0,0,0
1706423060.40035391,95228560,1574,1573,1570,1574,0,0,0,0,0,0,0,0,0,0
1706423060.50031400,95328520,1571,1570,1566,1573,0,0,0,0,0,0,0,0,0,0
1706423060.60027385,95428480,1569,1569,1565,1572,0,0,0,0,0,0,0,0,0,0
1706423060.70023394,95528440,1568,1567,1565,1570,0,0,0,0,0,0,0,0,0,0
1706423060.80019403,95628400,1567,1567,1567,1567,0,0,0,0,0,0,0,0,0,0
1706423060.90015388,95728360,1567,1567,1568,1566,0,0,0,0,0,0,0,0,0,0
1706423061.00011396,95828320,1566,1567,1568,1566,0,0,0,0,0,0,0,0,0,0
1706423061.10007405,95928280,1565,1565,1567,1565,0,0,0,0,0,0,0,0,0,0
1706423061.20003390,96028240,1565,1565,1567,1564,0,0,0,0,0,0,0,0,0,0
1706423061.29999399,96128200,1565,1564,1565,1565,0,0,0,0,0,0,0,0,0,0
1706423061.39995384,96228160,1563,1563,1563,1564,0,0,0,0,0,0,0,0,0,0
1706423061.50074697,96328953,1562,1562,1562,1563,0,0,0,0,0,0,0,0,0,0
1706423061.60070705,96428913,1561,1561,1561,1562,0,0,0,0,0,0,0,0,0,0
1706423061.70066690,96528873,1562,1562,1562,1562,0,0,0,0,0,0,0,0,0,0
1706423061.80062699,96628833,1561,1560,1561,1560,0,0,0,0,0,0,0,0,0,0
1706423061.90058684,96728793,1560,1560,1560,1560,0,0,0,0,0,0,0,0,0,0
1706423062.00054693,96828753,1560,1559,1560,1559,0,0,0,0,0,0,0,0,0,0
1706423062.10050702,96928713,1559,1559,1559,1558,0,0,0,0,0,0,0,0,0,0
1706423062.20046687,97028673,1558,1559,1559,1558,0,0,0,0,0,0,0,0,0,0
1706423062.30042696,97128633,1558,1558,1558,1557,0,0,0,0,0,0,0,0,0,0
1706423062.40038705,97228593,1558,1558,1559,1558,0,0,0,0,0,0,0,0,0,0
1706423062.50034690,97328553,1557,1557,1558,1556,0,0,0,0,0,0,0,0,0,0
1706423062.60030699,97428513,1557,1557,1558,1556,0,0,0,0,0,0,0,0,0,0
1706423062.70026684,97528473,1558,1558,1559,1557,0,0,0,0,0,0,0,0,0,0
1706423062.80022693,97628433,1559,1559,1560,1558,0,0,0,0,0,0,0,0,0,0
1706423062.90018702,97728393,1559,1559,1559,1560,0,0,0,0,0,0,0,0,0,0
1706423063.00014687,97828353,1560,1560,1558,1562,0,0,0,0,0,0,0,0,0,0
1706423063.10010695,97928313,1560,1560,1556,1564,0,0,0,0,0,0,0,0,0,0
1706423063.20006704,98028273,1559,1559,1557,1561,0,0,0,0,0,0,0,0,0,0
1706423063.30002689,98128233,1560,1560,1558,1562,0,0,0,0,0,0,0,0,0,0
1706423063.39998698,98228193,1558,1558,1557,1559,0,0,0,0,0,0,0,0,0,0
1706423063.50077987,98328986,1554,1554,1554,1555,0,0,0,0,0,0,0,0,0,0
1706423063.60073996,98428946,1548,1549,1549,1548,0,0,0,0,0,0,0,0,0,0
1706423063.70070004,98528906,1542,1543,1544,1542,0,0,0,0,0,0,0,0,0,0
1706423063.80065989,98628866,1535,1535,1536,1535,0,0,0,0,0,0,0,0,0,0
1706423063.90061998,98728826,1528,1528,1528,1529,0,0,0,0,0,0,0,0,0,0
1706423064.00057983,98828786,1522,1522,1523,1523,0,0,0,0,0,0,0,0,0,0
1706423064.10053992,98928746,1522,1521,1521,1522,0,0,0,0,0,0,0,0,0,0
1706423064.20050001,99028706,1520,1520,1520,1520,0,0,0,0,0,0,0,0,0,0
1706423064.30045986,99128666,1522,1522,1521,1522,0,0,0,0,0,0,0,0,0,0
1706423064.40041995,99228626,1525,1525,1524,1525,0,0,0,0,0,0,0,0,0,0
1706423064.50038004,99328586,1529,1528,1528,1528,0,0,0,0,0,0,0,0,0,0
1706423064.60033989,99428546,1533,1534,1533,1533,0,0,0,0,0,0,0,0,0,0
1706423064.70029998,99528506,1537,1537,1536,1537,0,0,0,0,0,0,0,0,0,0
1706423064.80025983,99628466,1540,1540,1539,1540,0,0,0,0,0,0,0,0,0,0
1706423064.90021992,99728426,1541,1542,1541,1541,0,0,0,0,0,0,0,0,0,0
1706423065.00018001,99828386,1543,1543,1543,1543,0,0,0,0,0,0,0,0,0,0
1706423065.10013986,99928346,1545,1545,1545,1545,0,0,0,0,0,0,0,0,0,0
1706423065.20009995,100028306,1546,1546,1546,1546,0,0,0,0,0,0,0,0,0,0
1706423065.30006003,100128266,1546,1546,1547,1546,0,0,0,0,0,0,0,0,0,0
1706423065.40001988,100228226,1547,1547,1548,1548,0,0,0,0,0,0,0,0,0,0
1706423065.49997997,100328186,1546,1546,1547,1547,0,0,0,0,0,0,0,0,0,0
1706423065.60077286,100428979,1546,1546,1546,1546,0,0,0,0,0,0,0,0,0,0
1706423065.70073295,100528939,1546,1546,1546,1547,0,0,0,0,0,0,0,0,0,0
1706423065.80069304,100628899,1546,1546,1546,1546,0,0,0,0,0,0,0,0,0,0
1706423065.90065289,100728859,1545,1545,1545,1545,0,0,0,0,0,0,0,0,0,0
1706423066.00061297,100828819,1545,1545,1545,1545,0,0,0,0,0,0,0,0,0,0
1706423066.10057282,100928779,1544,1545,1545,1544,0,0,0,0,0,0,0,0,0,0
1706423066.20053291,101028739,1544,1544,1544,1544,0,0,0,0,0,0,0,0,0,0
1706423066.30049300,101128699,1544,1544,1544,1543,0,0,0,0,0,0,0,0,0,0
1706423066.40045285,101228659,1544,1544,1544,1544,0,0,0,0,0,0,0,0,0,0
1706423066.50041294,101328619,1545,1544,1544,1544,0,0,0,0,0,0,0,0,0,0
1706423066.60037303,101428579,1545,1544,1544,1544,0,0,0,0,0,0,0,0,0,0
1706423066.70033288,101528539,1545,1544,1544,1544,0,0,0,0,0,0,0,0,0,0
1706423066.80029297,101628499,1544,1544,1544,1543,0,0,0,0,0,0,0,0,0,0
1706423066.90025282,101728459,1543,1543,1543,1543,0,0,0,0,0,0,0,0,0,0
1706423067.00021291,101828419,1543,1544,1544,1543,0,0,0,0,0,0,0,0,0,0
1706423067.10017300,101928379,1544,1544,1544,1544,0,0,0,0,0,0,0,0,0,0
1706423067.20013285,102028339,1544,1544,1544,1544,0,0,0,0,0,0,0,0,0,0
1706423067.30009294,102128299,1545,1544,1544,1544,0,0,0,0,0,0,0,0,0,0
1706423067.40005302,102228259,1543,1543,1543,1543,0,0,0,0,0,0,0,0,0,0
1706423067.50001287,102328219,1544,1544,1544,1544,0,0,0,0,0,0,0,0,0,0
1706423067.59997296,102428179,1543,1543,1543,1543,0,0,0,0,0,0,0,0,0,0
1706423067.70076585,102528972,1544,1544,1544,1544,0,0,0,0,0,0,0,0,0,0
1706423067.80072594,102628932,1544,1545,1545,1544,0,0,0,0,0,0,0,0,0,0
1706423067.90068603,102728892,1544,1544,1543,1544,0,0,0,0,0,0,0,0,0,0
1706423068.00064588,102828852,1543,1544,1544,1543,0,0,0,0,0,0,0,0,0,0
1706423068.10060596,102928812,1545,1544,1544,1545,0,0,0,0,0,0,0,0,0,0
1706423068.20056605,103028772,1545,1544,1544,1544,0,0,0,0,0,0,0,0,0,0
1706423068.30052590,103128732,1545,1544,1544,1544,0,0,0,0,0,0,0,0,0,0
1706423068.40048599,103228692,1544,1544,1544,1545,0,0,0,0,0,0,0,0,0,0
1706423068.50044584,103328652,1544,1544,1544,1544,0,0,0,0,0,0,0,0,0,0
1706423068.60040593,103428612,1544,1544,1544,1544,0,0,0,0,0,0,0,0,0,0
1706423068.70036602,103528572,1544,1543,1543,1543,0,0,0,0,0,0,0,0,0,0
1706423068.80032587,103628532,1544,1544,1544,1544,0,0,0,0,0,0,0,0,0,0
1706423068.90028596,103728492,1544,1543,1544,1543,0,0,0,0,0,0,0,0,0,0
1706423069.00024605,103828452,1544,1544,1545,1544,0,0,0,0,0,0,0,0,0,0
1706423069.10020590,103928412,1544,1544,1544,1544,0,0,0,0,0,0,0,0,0,0
1706423069.20016599,104028372,1543,1544,1544,1543,0,0,0,0,0,0,0,0,0,0
1706423069.30012584,104128332,1543,1543,1543,1543,0,0,0,0,0,0,0,0,0,0
1706423069.40008593,104228292,1544,1544,1544,1544,0,0,0,0,0,0,0,0,0,0
1706423069.50004601,104328252,1543,1543,1543,1543,0,0,0,0,0,0,0,0,0,0
1706423069.60000587,104428212,1543,1543,1543,1543,0,0,0,0,0,0,0,0,0,0
1706423069.69996595,104528172,1544,1543,1544,1544,0,0,0,0,0,0,0,0,0,0
1706423069.80075884,104628965,1544,1544,1544,1544,0,0,0,0,0,0,0,0,0,0
1706423069.90071893,104728925,1544,1543,1543,1544,0,0,0,0,0,0,0,0,0,0
1706423070.00067902,104828885,1544,1544,1544,1544,0,0,0,0,0,0,0,0,0,0
1706423070.10063887,104928845,1545,1545,1545,1545,0,0,0,0,0,0,0,0,0,0
1706423070.20059896,105028805,1544,1545,1545,1544,0,0,0,0,0,0,0,0,0,0
1706423070.30055904,105128765,1544,1545,1544,1544,0,0,0,0,0,0,0,0,0,0
1706423070.40051889,105228725,1544,1545,1545,1544,0,0,0,0,0,0,0,0,0,0
1706423070.50047898,105328685,1545,1545,1545,1545,0,0,0,0,0,0,0,0,0,0
1706423070.60043883,105428645,1545,1545,1545,1545,0,0,0,0,0,0,0,0,0,0
1706423070.70039892,105528605,1546,1545,1545,1545,0,0,0,0,0,0,0,0,0,0
1706423070.80035901,105628565,1545,1545,1545,1545,0,0,0,0,0,0,0,0,0,0
1706423070.90031886,105728525,1545,1545,1545,1544,0,0,0,0,0,0,0,0,0,0
1706423071.00027895,105828485,1544,1545,1544,1544,0,0,0,0,0,0,0,0,0,0
1706423071.10023904,105928445,1545,1544,1544,1545,0,0,0,0,0,0,0,0,0,0
1706423071.20019889,106028405,1545,1545,1545,1545,0,0,0,0,0,0,0,0,0,0
1706423071.30015898,106128365,1544,1545,1544,1545,0,0,0,0,0,0,0,0,0,0
1706423071.40011883,106228325,1544,1544,1544,1544,0,0,0,0,0,0,0,0,0,0
1706423071.50007892,106328285,1544,1544,1544,1544,0,0,0,0,0,0,0,0,0,0
1706423071.60003901,106428245,1544,1544,1544,1544,0,0,0,0,0,0,0,0,0,0
1706423071.69999886,106528205,1544,1543,1544,1544,0,0,0,0,0,0,0,0,0,0
1706423071.79995894,106628165,1545,1545,1545,1544,0,0,0,0,0,0,0,0,0,0
1706423071.90075183,106728958,1544,1544,1544,1544,0,0,0,0,0,0,0,0,0,0
1706423072.00071192,106828918,1544,1544,1544,1545,0,0,0,0,0,0,0,0,0,0
1706423072.10067201,106928878,1544,1544,1544,1545,0,0,0,0,0,0,0,0,0,0
1706423072.20063186,107028838,1545,1545,1545,1545,0,0,0,0,0,0,0,0,0,0
1706423072.30059195,107128798,1544,1545,1544,1545,0,0,0,0,0,0,0,0,0,0
1706423072.40055203,107228758,1544,1544,1544,1544,0,0,0,0,0,0,0,0,0,0
1706423072.50051188,107328718,1545,1544,1544,1544,0,0,0,0,0,0,0,0,0,0
1706423072.60047197,107428678,1545,1544,1544,1544,0,0,0,0,0,0,0,0,0,0
1706423072.70043182,107528638,1545,1545,1544,1545,0,0,0,0,0,0,0,0,0,0
1706423072.80039191,107628598,1544,1544,1544,1544,0,0,0,0,0,0,0,0,0,0
1706423072.90035200,107728558,1544,1544,1544,1544,0,0,0,0,0,0,0,0,0,0
1706423073.00031185,107828518,1544,1545,1545,1544,0,0,0,0,0,0,0,0,0,0
1706423073.10027194,107928478,1544,1544,1544,1544,0,0,0,0,0,0,0,0,0,0
1706423073.20023203,108028438,1544,1544,1545,1544,0,0,0,0,0,0,0,0,0,0
1706423073.30019188,108128398,1545,1544,1544,1545,0,0,0,0,0,0,0,0,0,0
1706423073.40015197,108228358,1544,1544,1544,1545,0,0,0,0,0,0,0,0,0,0
1706423073.50011206,108328318,1544,1544,1544,1544,0,0,0,0,0,0,0,0,0,0
1706423073.60007191,108428278,1544,1545,1544,1544,0,0,0,0,0,0,0,0,0,0
1706423073.70003200,108528238,1546,1543,1543,1545,0,0,0,0,0,0,0,0,0,0
1706423073.79999185,108628198,1349,1364,1365,1365,0,0,0,0,0,0,0,0,0,0
1706423073.89995193,108728158,1222,1253,1255,1254,0,0,0,0,0,0,0,0,0,0
1706423074.00074482,108828951,1200,1234,1236,1234,0,0,0,0,0,0,0,0,0,0
1706423074.10070491,108928911,1200,1233,1235,1235,0,0,0,0,0,0,0,0,0,0
1706423074.20066500,109028871,1200,1233,1235,1235,0,0,0,0,0,0,0,0,0,0
1706423074.30062485,109128831,1200,1232,1234,1235,0,0,0,0,0,0,0,0,0,0
1706423074.40058494,109228791,1200,1219,1219,1236,0,0,0,0,0,0,0,0,0,0
1706423074.50054502,109328751,1200,1208,1208,1237,0,0,0,0,0,0,0,0,0,0
1706423074.60050488,109428711,1200,1215,1216,1236,0,0,0,0,0,0,0,0,0,0
1706423074.70046496,109528671,1200,1215,1217,1235,0,0,0,0,0,0,0,0,0,0
1706423074.80042505,109628631,1200,1214,1216,1235,0,0,0,0,0,0,0,0,0,0
1706423074.90038490,109728591,1200,1212,1214,1235,0,0,0,0,0,0,0,0,0,0
1706423075.00034499,109828551,1200,1210,1212,1235,0,0,0,0,0,0,0,0,0,0
1706423075.10030484,109928511,1200,1208,1210,1236,0,0,0,0,0,0,0,0,0,0
1706423075.20026493,110028471,1200,1231,1232,1236,0,0,0,0,0,0,0,0,0,0
1706423075.30022502,110128431,1200,1221,1222,1236,0,0,0,0,0,0,0,0,0,0
1706423075.40018487,110228391,1200,1220,1221,1236,0,0,0,0,0,0,0,0,0,0
1706423075.50014496,110328351,1200,1219,1221,1236,0,0,0,0,0,0,0,0,0,0
1706423075.60010505,110428311,1200,1218,1220,1236,0,0,0,0,0,0,0,0,0,0
1706423075.70006490,110528271,1000,1000,1000,1000,0,0,0,0,0,0,0,0,0,0
1706423075.80002499,110628231,1000,1000,1000,1000,0,0,0,0,0,0,0,0,0,0
1706423075.89998484,110728191,1000,1000,1000,1000,0,0,0,0,0,0,0,0,0,0
1706423076.00077796,110828984,1000,1000,1000,1000,0,0,0,0,0,0,0,0,0,0
1706423076.10073805,110928944,1000,1000,1000,1000,0,0,0,0,0,0,0,0,0,0
1706423076.20069790,111028904,1000,1000,1000,1000,0,0,0,0,0,0,0,0,0,0
1706423076.30065799,111128864,1000,1000,1000,1000,0,0,0,0,0,0,0,0,0,0
1706423076.40061784,111228824,1000,1000,1000,1000,0,0,0,0,0,0,0,0,0,0
1706423076.50057793,111328784,1000,1000,1000,1000,0,0,0,0,0,0,0,0,0,0
1706423076.60053802,111428744,1000,1000,1000,1000,0,0,0,0,0,0,0,0,0,0
1706423076.70049787,111528704,1000,1000,1000,1000,0,0,0,0,0,0,0,0,0,0
1706423076.80045795,111628664,1000,1000,1000,1000,0,0,0,0,0,0,0,0,0,0
1706423076.90041804,111728624,1000,1000,1000,1000,0,0,0,0,0,0,0,0,0,0
1706423077.00037789,111828584,1000,1000,1000,1000,0,0,0,0,0,0,0,0,0,0
1706423077.10033798,111928544,1000,1000,1000,1000,0,0,0,0,0,0,0,0,0,0
1706423077.20029783,112028504,1000,1000,1000,1000,0,0,0,0,0,0,0,0,0,0
1706423077.30025792,112128464,1000,1000,1000,1000,0,0,0,0,0,0,0,0,0,0
1706423077.40021801,112228424,1000,1000,1000,1000,0,0,0,0,0,0,0,0,0,0
1706423077.50017786,112328384,1000,1000,1000,1000,0,0,0,0,0,0,0,0,0,0
1706423077.60013795,112428344,1000,1000,1000,1000,0,0,0,0,0,0,0,0,0,0
1706423077.70009804,112528304,1000,1000,1000,1000,0,0,0,0,0,0,0,0,0,0
1706423077.80005789,112628264,1000,1000,1000,1000,0,0,0,0,0,0,0,0,0,0
1706423077.90001798,112728224,1000,1000,1000,1000,0,0,0,0,0,0,0,0,0,0
1706423077.99997783,112828184,1000,1000,1000,1000,0,0,0,0,0,0,0,0,0,0
1706423078.10077095,112928977,1000,1000,1000,1000,0,0,0,0,0,0,0,0,0,0
1706423078.20073104,113028937,1000,1000,1000,1000,0,0,0,0,0,0,0,0,0,0
1706423078.30069089,113128897,1000,1000,1000,1000,0,0,0,0,0,0,0,0,0,0
1706423078.40065098,113228857,1000,1000,1000,1000,0,0,0,0,0,0,0,0,0,0
1706423078.50061083,113328817,1000,1000,1000,1000,0,0,0,0,0,0,0,0,0,0
1706423078.60057092,113428777,1000,1000,1000,1000,0,0,0,0,0,0,0,0,0,0
1706423078.70053101,113528737,1000,1000,1000,1000,0,0,0,0,0,0,0,0,0,0
1706423078.80049086,113628697,1000,1000,1000,1000,0,0,0,0,0,0,0,0,0,0
1706423078.90045094,113728657,1000,1000,1000,1000,0,0,0,0,0,0,0,0,0,0
1706423079.00041103,113828617,1000,1000,1000,1000,0,0,0,0,0,0,0,0,0,0
1706423079.10037088,113928577,1000,1000,1000,1000,0,0,0,0,0,0,0,0,0,0
1706423079.20033097,114028537,1000,1000,1000,1000,0,0,0,0,0,0,0,0,0,0
1706423079.30029082,114128497,1000,1000,1000,1000,0,0,0,0,0,0,0,0,0,0
1706423079.40025091,114228457,1000,1000,1000,1000,0,0,0,0,0,0,0,0,0,0
1706423079.50021100,114328417,1000,1000,1000,1000,0,0,0,0,0,0,0,0,0,0
1706423079.60017085,114428377,1000,1000,1000,1000,0,0,0,0,0,0,0,0,0,0
1706423079.70013094,114528337,1000,1000,1000,1000,0,0,0,0,0,0,0,0,0,0
1706423079.80009103,114628297,1000,1000,1000,1000,0,0,0,0,0,0,0,0,0,0
1706423079.90005088,114728257,1000,1000,1000,1000,0,0,0,0,0,0,0,0,0,0
1706423080.00001097,114828217,1000,1000,1000,1000,0,0,0,0,0,0,0,0,0,0
1706423080.09997106,114928177,1000,1000,1000,1000,0,0,0,0,0,0,0,0,0,0
1706423080.20076394,115028970,1000,1000,1000,1000,0,0,0,0,0,0,0,0,0,0
1706423080.30072403,115128930,1000,1000,1000,1000,0,0,0,0,0,0,0,0,0,0
1706423080.40068388,115228890,1000,1000,1000,1000,0,0,0,0,0,0,0,0,0,0
1706423080.50064397,115328850,1000,1000,1000,1000,0,0,0,0,0,0,0,0,0,0
1706423080.60060382,115428810,1000,1000,1000,1000,0,0,0,0,0,0,0,0,0,0
1706423080.70056391,115528770,1000,1000,1000,1000,0,0,0,0,0,0,0,0,0,0
1706423080.80052400,115628730,1000,1000,1000,1000,0,0,0,0,0,0,0,0,0,0
1706423080.90048385,115728690,1000,1000,1000,1000,0,0,0,0,0,0,0,0,0,0
1706423081.00044394,115828650,1000,1000,1000,1000,0,0,0,0,0,0,0,0,0,0
1706423081.10040402,115928610,1000,1000,1000,1000,0,0,0,0,0,0,0,0,0,0
1706423081.20036387,116028570,1000,1000,1000,1000,0,0,0,0,0,0,0,0,0,0
1706423081.30032396,116128530,1000,1000,1000,1000,0,0,0,0,0,0,0,0,0,0
1706423081.40028405,116228490,1000,1000,1000,1000,0,0,0,0,0,0,0,0,0,0
1706423081.50024390,116328450,1000,1000,1000,1000,0,0,0,0,0,0,0,0,0,0
1706423081.60020399,116428410,1000,1000,1000,1000,0,0,0,0,0,0,0,0,0,0
1706423081.70016384,116528370,1000,1000,1000,1000,0,0,0,0,0,0,0,0,0,0
1706423081.80012393,116628330,1000,1000,1000,1000,0,0,0,0,0,0,0,0,0,0
1706423081.90008402,116728290,1000,1000,1000,1000,0,0,0,0,0,0,0,0,0,0
1706423082.00004387,116828250,1000,1000,1000,1000,0,0,0,0,0,0,0,0,0,0
1706423082.10000396,116928210,1000,1000,1000,1000,0,0,0,0,0,0,0,0,0,0
1706423082.19996405,117028170,1000,1000,1000,1000,0,0,0,0,0,0,0,0,0,0
1706423082.30075693,117128963,1000,1000,1000,1000,0,0,0,0,0,0,0,0,0,0
1706423082.40071702,117228923,1000,1000,1000,1000,0,0,0,0,0,0,0,0,0,0
1706423082.50067687,117328883,1000,1000,1000,1000,0,0,0,0,0,0,0,0,0,0
1706423082.60063696,117428843,1000,1000,1000,1000,0,0,0,0,0,0,0,0,0,0
1706423082.70059705,117528803,1000,1000,1000,1000,0,0,0,0,0,0,0,0,0,0
1706423082.80055690,117628763,1000,1000,1000,1000,0,0,0,0,0,0,0,0,0,0
1706423082.90051699,117728723,1000,1000,1000,1000,0,0,0,0,0,0,0,0,0,0
1706423083.00047684,117828683,1000,1000,1000,1000,0,0,0,0,0,0,0,0,0,0
1706423083.10043693,117928643,1000,1000,1000,1000,0,0,0,0,0,0,0,0,0,0
1706423083.20039701,118028603,1000,1000,1000,1000,0,0,0,0,0,0,0,0,0,0
1706423083.30035686,118128563,1000,1000,1000,1000,0,0,0,0,0,0,0,0,0,0
1706423083.40031695,118228523,1000,1000,1000,1000,0,0,0,0,0,0,0,0,0,0
1706423083.50027704,118328483,1000,1000,1000,1000,0,0,0,0,0,0,0,0,0,0
1706423083.60023689,118428443,1000,1000,1000,1000,0,0,0,0,0,0,0,0,0,0
1706423083.70019698,118528403,1000,1000,1000,1000,0,0,0,0,0,0,0,0,0,0
1706423083.80015683,118628363,1000,1000,1000,1000,0,0,0,0,0,0,0,0,0,0
1706423083.90011692,118728323,1000,1000,1000,1000,0,0,0,0,0,0,0,0,0,0
1706423084.00007701,118828283,1000,1000,1000,1000,0,0,0,0,0,0,0,0,0,0
1706423084.10003686,118928243,1000,1000,1000,1000,0,0,0,0,0,0,0,0,0,0
1706423084.19999695,119028203,1000,1000,1000,1000,0,0,0,0,0,0,0,0,0,0
1706423084.29995704,119128163,1000,1000,1000,1000,0,0,0,0,0,0,0,0,0,0
1706423084.40074992,119228956,1000,1000,1000,1000,0,0,0,0,0,0,0,0,0,0
1706423084.50071001,119328916,1000,1000,1000,1000,0,0,0,0,0,0,0,0,0,0
1706423084.60066986,119428876,1000,1000,1000,1000,0,0,0,0,0,0,0,0,0,0
1706423084.70062995,119528836,1000,1000,1000,1000,0,0,0,0,0,0,0,0,0,0
1706423084.80059004,119628796,1000,1000,1000,1000,0,0,0,0,0,0,0,0,0,0
1706423084.90054989,119728756,1000,1000,1000,1000,0,0,0,0,0,0,0,0,0,0
1706423085.00050998,119828716,1000,1000,1000,1000,0,0,0,0,0,0,0,0,0,0
1706423085.10046983,119928676,1000,1000,1000,1000,0,0,0,0,0,0,0,0,0,0
1706423085.20042992,120028636,1000,1000,1000,1000,0,0,0,0,0,0,0,0,0,0
1706423085.30039001,120128596,1000,1000,1000,1000,0,0,0,0,0,0,0,0,0,0
1706423085.40034986,120228556,1000,1000,1000,1000,0,0,0,0,0,0,0,0,0,0
1706423085.50030994,120328516,1000,1000,1000,1000,0,0,0,0,0,0,0,0,0,0
1706423085.60027003,120428476,1000,1000,1000,1000,0,0,0,0,0,0,0,0,0,0
1706423085.70022988,120528436,1000,1000,1000,1000,0,0,0,0,0,0,0,0,0,0
1706423085.80018997,120628396,1000,1000,1000,1000,0,0,0,0,0,0,0,0,0,0
1706423085.90014982,120728356,1000,1000,1000,1000,0,0,0,0,0,0,0,0,0,0
1706423086.00010991,120828316,1000,1000,1000,1000,0,0,0,0,0,0,0,0,0,0
1706423086.10007000,120928276,1000,1000,1000,1000,0,0,0,0,0,0,0,0,0,0
1706423086.20002985,121028236,1000,1000,1000,1000,0,0,0,0,0,0,0,0,0,0
1706423086.29998994,121128196,1000,1000,1000,1000,0,0,0,0,0,0,0,0,0,0
1706423086.39995003,121228156,1000,1000,1000,1000,0,0,0,0,0,0,0,0,0,0
1706423086.50074291,121328949,1000,1000,1000,1000,0,0,0,0,0,0,0,0,0,0
1706423086.60070300,121428909,1000,1000,1000,1000,0,0,0,0,0,0,0,0,0,0
1706423086.70066285,121528869,1000,1000,1000,1000,0,0,0,0,0,0,0,0,0,0
1706423086.80062294,121628829,1000,1000,1000,1000,0,0,0,0,0,0,0,0,0,0
1706423086.90058303,121728789,1000,1000,1000,1000,0,0,0,0,0,0,0,0,0,0
1706423087.00054288,121828749,1000,1000,1000,1000,0,0,0,0,0,0,0,0,0,0
1706423087.10050297,121928709,1000,1000,1000,1000,0,0,0,0,0,0,0,0,0,0
1706423087.20046306,122028669,1000,1000,1000,1000,0,0,0,0,0,0,0,0,0,0
1706423087.30042291,122128629,1000,1000,1000,1000,0,0,0,0,0,0,0,0,0,0
1706423087.40038300,122228589,1000,1000,1000,1000,0,0,0,0,0,0,0,0,0,0
1706423087.50034285,122328549,1000,1000,1000,1000,0,0,0,0,0,0,0,0,0,0
1706423087.60030293,122428509,1000,1000,1000,1000,0,0,0,0,0,0,0,0,0,0
1706423087.70026302,122528469,1000,1000,1000,1000,0,0,0,0,0,0,0,0,0,0
1706423087.80022287,122628429,1000,1000,1000,1000,0,0,0,0,0,0,0,0,0,0
1706423087.90018296,122728389,1000,1000,1000,1000,0,0,0,0,0,0,0,0,0,0
1706423088.00014305,122828349,1000,1000,1000,1000,0,0,0,0,0,0,0,0,0,0
1706423088.10010290,122928309,1000,1000,1000,1000,0,0,0,0,0,0,0,0,0,0
1706423088.20006299,123028269,1000,1000,1000,1000,0,0,0,0,0,0,0,0,0,0
1706423088.30002284,123128229,1000,1000,1000,1000,0,0,0,0,0,0,0,0,0,0
1706423088.39998293,123228189,1000,1000,1000,1000,0,0,0,0,0,0,0,0,0,0
1706423088.50077605,123328982,1000,1000,1000,1000,0,0,0,0,0,0,0,0,0,0
1706423088.60073590,123428942,1000,1000,1000,1000,0,0,0,0,0,0,0,0,0,0
1706423088.70069599,123528902,1000,1000,1000,1000,0,0,0,0,0,0,0,0,0,0
1706423088.80065584,123628862,1000,1000,1000,1000,0,0,0,0,0,0,0,0,0,0
1706423088.90061593,123728822,1000,1000,1000,1000,0,0,0,0,0,0,0,0,0,0
1706423089.00057602,123828782,1000,1000,1000,1000,0,0,0,0,0,0,0,0,0,0
1706423089.10053587,123928742,1000,1000,1000,1000,0,0,0,0,0,0,0,0,0,0
1706423089.20049596,124028702,1000,1000,1000,1000,0,0,0,0,0,0,0,0,0,0
1706423089.30045605,124128662,1000,1000,1000,1000,0,0,0,0,0,0,0,0,0,0
1706423089.40041590,124228622,1000,1000,1000,1000,0,0,0,0,0,0,0,0,0,0
1706423089.50037599,124328582,1000,1000,1000,1000,0,0,0,0,0,0,0,0,0,0
1706423089.60033584,124428542,1000,1000,1000,1000,0,0,0,0,0,0,0,0,0,0
1706423089.70029593,124528502,1000,1000,1000,1000,0,0,0,0,0,0,0,0,0,0
1706423089.80025601,124628462,1000,1000,1000,1000,0,0,0,0,0,0,0,0,0,0
1706423089.90021586,124728422,1000,1000,1000,1000,0,0,0,0,0,0,0,0,0,0
1706423090.00017595,124828382,1000,1000,1000,1000,0,0,0,0,0,0,0,0,0,0
1706423090.10013604,124928342,1000,1000,1000,1000,0,0,0,0,0,0,0,0,0,0
1706423090.20009589,125028302,1000,1000,1000,1000,0,0,0,0,0,0,0,0,0,0
1706423090.30005598,125128262,1000,1000,1000,1000,0,0,0,0,0,0,0,0,0,0
1706423090.40001583,125228222,1000,1000,1000,1000,0,0,0,0,0,0,0,0,0,0
1706423090.49997592,125328182,1000,1000,1000,1000,0,0,0,0,0,0,0,0,0,0
1706423090.60076904,125428975,1000,1000,1000,1000,0,0,0,0,0,0,0,0,0,0
