TimeUS,M1,M2,M3,M4,TimeUS,C1,C2,C3,C4
82071325,1000,1000,1000,1000,82128802,1000,1000,1000,1000
82073824,1000,1000,1000,1000,82228762,1000,1000,1000,1000
82076323,1000,1000,1000,1000,82328722,1000,1000,1000,1000
82078822,1000,1000,1000,1000,82428682,1000,1000,1000,1000
82081321,1000,1000,1000,1000,82528642,1000,1000,1000,1000
82083820,1000,1000,1000,1000,82628602,1000,1000,1000,1000
82086319,1000,1000,1000,1000,82728562,1000,1000,1000,1000
82088818,1000,1000,1000,1000,82828522,1000,1000,1000,1000
82091317,1000,1000,1000,1000,82928482,1000,1000,1000,1000
82093816,1000,1000,1000,1000,83028442,1000,1000,1000,1000
82096315,1000,1000,1000,1000,83128402,1000,1000,1000,1000
82098814,1000,1000,1000,1000,83228362,1000,1000,1000,1000
82101313,1000,1000,1000,1000,83328322,1000,1000,1000,1000
82103812,1000,1000,1000,1000,83428282,1000,1000,1000,1000
82106311,1000,1000,1000,1000,83528242,1000,1000,1000,1000
82108810,1000,1000,1000,1000,83628202,1000,1000,1000,1000
82111309,1000,1000,1000,1000,83728162,1000,1000,1000,1000
82113808,1000,1000,1000,1000,83828955,1000,1000,1000,1000
82116307,1000,1000,1000,1000,83928915,1000,1000,1000,1000
82118806,1000,1000,1000,1000,84028875,1000,1000,1000,1000
82121305,1000,1000,1000,1000,84128835,1017,1017,1017,1017
82123804,1000,1000,1000,1000,84228795,1047,1047,1047,1047
82126303,1000,1000,1000,1000,84328755,1077,1077,1077,1077
82128802,1000,1000,1000,1000,84428715,1100,1100,1100,1100
82131301,1000,1000,1000,1000,84528675,1100,1100,1100,1100
82133800,1000,1000,1000,1000,84628635,1100,1100,1100,1100
82136299,1000,1000,1000,1000,84728595,1100,1100,1100,1100
82138798,1000,1000,1000,1000,84828555,1100,1100,1100,1100
82141297,1000,1000,1000,1000,84928515,1100,1100,1100,1100
82143796,1000,1000,1000,1000,85028475,1100,1100,1100,1100
82146295,1000,1000,1000,1000,85128435,1100,1100,1100,1100
82148794,1000,1000,1000,1000,85228395,1100,1100,1100,1100
82151293,1000,1000,1000,1000,85328355,1100,1100,1100,1100
82153792,1000,1000,1000,1000,85428315,1100,1100,1100,1100
82156291,1000,1000,1000,1000,85528275,1100,1100,1100,1100
82158790,1000,1000,1000,1000,85628235,1100,1100,1100,1100
82161289,1000,1000,1000,1000,85728195,1100,1100,1100,1100
82163788,1000,1000,1000,1000,85828155,1100,1100,1100,1100
82166287,1000,1000,1000,1000,85928948,1100,1100,1100,1100
82168786,1000,1000,1000,1000,86028908,1100,1100,1100,1100
82171285,1000,1000,1000,1000,86128868,1100,1100,1100,1100
82173784,1000,1000,1000,1000,86228828,1100,1100,1100,1100
82176283,1000,1000,1000,1000,86328788,1100,1100,1100,1100
82178782,1000,1000,1000,1000,86428748,1100,1100,1100,1100
82181281,1000,1000,1000,1000,86528708,1100,1100,1100,1100
82183780,1000,1000,1000,1000,86628668,1100,1100,1100,1100
82186279,1000,1000,1000,1000,86728628,1100,1100,1100,1100
82188778,1000,1000,1000,1000,86828588,1100,1100,1100,1100
82191277,1000,1000,1000,1000,86928548,1100,1100,1100,1100
82193776,1000,1000,1000,1000,87028508,1100,1100,1100,1100
82196275,1000,1000,1000,1000,87128468,1100,1100,1100,1100
82198774,1000,1000,1000,1000,87228428,1100,1100,1100,1100
82201273,1000,1000,1000,1000,87328388,1100,1100,1100,1100
82203772,1000,1000,1000,1000,87428348,1100,1100,1100,1100
82206271,1000,1000,1000,1000,87528308,1100,1100,1100,1100
82208770,1000,1000,1000,1000,87628268,1100,1100,1100,1100
82211269,1000,1000,1000,1000,87728228,1100,1100,1100,1100
82213768,1000,1000,1000,1000,87828188,1100,1100,1100,1100
82216267,1000,1000,1000,1000,87928981,1100,1100,1100,1100
82218766,1000,1000,1000,1000,88028941,1100,1100,1100,1100
82221265,1000,1000,1000,1000,88128901,1100,1100,1100,1100
82223764,1000,1000,1000,1000,88228861,1100,1100,1100,1100
82226263,1000,1000,1000,1000,88328821,1100,1100,1100,1100
82228762,1000,1000,1000,1000,88428781,1100,1100,1100,1100
82231261,1000,1000,1000,1000,88528741,1100,1100,1100,1100
82233760,1000,1000,1000,1000,88628701,1100,1100,1100,1100
82236259,1000,1000,1000,1000,88728661,1100,1100,1100,1100
82238758,1000,1000,1000,1000,88828621,1100,1100,1100,1100
82241257,1000,1000,1000,1000,88928581,1100,1100,1100,1100
82243756,1000,1000,1000,1000,89028541,1100,1100,1100,1100
82246255,1000,1000,1000,1000,89128501,1100,1100,1100,1100
82248754,1000,1000,1000,1000,89228461,1100,1100,1100,1100
82251253,1000,1000,1000,1000,89328421,1100,1100,1100,1100
82253752,1000,1000,1000,1000,89428381,1100,1100,1100,1100
82256251,1000,1000,1000,1000,89528341,1100,1100,1100,1100
82258750,1000,1000,1000,1000,89628301,1100,1100,1100,1100
82261249,1000,1000,1000,1000,89728261,1100,1100,1100,1100
82263748,1000,1000,1000,1000,89828221,1100,1100,1100,1100
82266247,1000,1000,1000,1000,89928181,1100,1100,1100,1100
82268746,1000,1000,1000,1000,90028974,1100,1100,1100,1100
82271245,1000,1000,1000,1000,90128934,1100,1100,1100,1100
82273744,1000,1000,1000,1000,90228894,1100,1100,1100,1100
82276243,1000,1000,1000,1000,90328854,1100,1100,1100,1100
82278742,1000,1000,1000,1000,90428814,1100,1100,1100,1100
82281241,1000,1000,1000,1000,90528774,1118,1118,1118,1118
82283740,1000,1000,1000,1000,90628734,1148,1148,1148,1148
82286239,1000,1000,1000,1000,90728694,1198,1186,1187,1198
82288738,1000,1000,1000,1000,90828654,1231,1219,1219,1231
82291237,1000,1000,1000,1000,90928614,1273,1260,1260,1273
82293736,1000,1000,1000,1000,91028574,1322,1309,1310,1322
82296235,1000,1000,1000,1000,91128534,1371,1358,1359,1372
82298734,1000,1000,1000,1000,91228494,1422,1409,1409,1422
82301233,1000,1000,1000,1000,91328454,1474,1461,1461,1474
82303732,1000,1000,1000,1000,91428414,1527,1514,1514,1528
82306231,1000,1000,1000,1000,91528374,1581,1567,1567,1581
82308730,1000,1000,1000,1000,91628334,1617,1602,1602,1617
82311229,1000,1000,1000,1000,91728294,1650,1634,1635,1650
82313728,1000,1000,1000,1000,91828254,1684,1668,1669,1684
82316227,1000,1000,1000,1000,91928214,1722,1705,1706,1722
82318726,1000,1000,1000,1000,92028174,1758,1742,1742,1758
82321225,1000,1000,1000,1000,92128967,1783,1773,1773,1784
82323724,1000,1000,1000,1000,92228927,1659,1656,1656,1659
82326223,1000,1000,1000,1000,92328887,1561,1565,1566,1561
82328722,1000,1000,1000,1000,92428847,1559,1566,1566,1560
82331221,1000,1000,1000,1000,92528807,1598,1604,1603,1598
82333720,1000,1000,1000,1000,92628767,1630,1635,1634,1630
82336219,1000,1000,1000,1000,92728727,1645,1646,1646,1645
82338718,1000,1000,1000,1000,92828687,1645,1644,1644,1645
82341217,1000,1000,1000,1000,92928647,1640,1637,1637,1640
82343716,1000,1000,1000,1000,93028607,1637,1634,1634,1637
82346215,1000,1000,1000,1000,93128567,1635,1633,1633,1635
82348714,1000,1000,1000,1000,93228527,1635,1633,1633,1634
82351213,1000,1000,1000,1000,93328487,1635,1634,1635,1634
82353712,1000,1000,1000,1000,93428447,1615,1617,1613,1618
82356211,1000,1000,1000,1000,93528407,1604,1604,1596,1610
82358710,1000,1000,1000,1000,93628367,1598,1597,1591,1602
82361209,1000,1000,1000,1000,93728327,1594,1593,1590,1595
82363708,1000,1000,1000,1000,93828287,1594,1593,1593,1592
82366207,1000,1000,1000,1000,93928247,1594,1594,1596,1591
82368706,1000,1000,1000,1000,94028207,1586,1586,1593,1579
82371205,1000,1000,1000,1000,94128167,1569,1570,1587,1554
82373704,1000,1000,1000,1000,94228960,1558,1559,1568,1552
82376203,1000,1000,1000,1000,94328920,1549,1550,1548,1554
82378702,1000,1000,1000,1000,94428880,1541,1541,1533,1551
82381201,1000,1000,1000,1000,94528840,1535,1534,1524,1545
82383700,1000,1000,1000,1000,94628800,1532,1531,1524,1539
82386199,1000,1000,1000,1000,94728760,1531,1531,1527,1534
82388698,1000,1000,1000,1000,94828720,1533,1533,1532,1532
82391197,1000,1000,1000,1000,94928680,1536,1536,1539,1532
82393696,1000,1000,1000,1000,95028640,1539,1539,1543,1534
82396195,1000,1000,1000,1000,95128600,1543,1543,1547,1539
82398694,1000,1000,1000,1000,95228560,1546,1546,1548,1544
82401193,1000,1000,1000,1000,95328520,1549,1549,1548,1548
82403692,1000,1000,1000,1000,95428480,1551,1551,1550,1552
82406191,1000,1000,1000,1000,95528440,1553,1552,1552,1557
82408690,1000,1000,1000,1000,95628400,1552,1552,1557,1561
82411189,1000,1000,1000,1000,95728360,1554,1554,1561,1564
82413688,1000,1000,1000,1000,95828320,1557,1558,1564,1564
82416187,1000,1000,1000,1000,95928280,1560,1560,1565,1565
82418686,1000,1000,1000,1000,96028240,1563,1563,1566,1564
82421185,1000,1000,1000,1000,96128200,1566,1566,1566,1565
82423684,1000,1000,1000,1000,96228160,1568,1568,1566,1565
82426183,1000,1000,1000,1000,96328953,1570,1570,1566,1566
82428682,1000,1000,1000,1000,96428913,1572,1572,1567,1567
82431181,1000,1000,1000,1000,96528873,1573,1572,1567,1568
82433680,1000,1000,1000,1000,96628833,1574,1574,1569,1569
82436179,1000,1000,1000,1000,96728793,1573,1573,1569,1569
82438678,1000,1000,1000,1000,96828753,1574,1574,1571,1571
82441177,1000,1000,1000,1000,96928713,1575,1575,1572,1572
82443676,1000,1000,1000,1000,97028673,1575,1575,1574,1573
82446175,1000,1000,1000,1000,97128633,1575,1574,1575,1574
82448674,1000,1000,1000,1000,97228593,1575,1575,1576,1575
82451173,1000,1000,1000,1000,97328553,1575,1575,1577,1576
82453672,1000,1000,1000,1000,97428513,1575,1575,1577,1577
82456171,1000,1000,1000,1000,97528473,1575,1576,1578,1578
82458670,1000,1000,1000,1000,97628433,1575,1576,1578,1577
82461169,1000,1000,1000,1000,97728393,1575,1575,1577,1577
82463668,1000,1000,1000,1000,97828353,1576,1576,1577,1577
82466167,1000,1000,1000,1000,97928313,1577,1576,1577,1577
82468666,1000,1000,1000,1000,98028273,1576,1576,1576,1576
82471165,1000,1000,1000,1000,98128233,1578,1577,1577,1577
82473664,1000,1000,1000,1000,98228193,1578,1578,1577,1577
82476163,1000,1000,1000,1000,98328986,1579,1578,1578,1578
82478662,1000,1000,1000,1000,98428946,1578,1579,1578,1577
82481161,1000,1000,1000,1000,98528906,1578,1578,1577,1578
82483660,1000,1000,1000,1000,98628866,1579,1579,1578,1579
82486159,1000,1000,1000,1000,98728826,1579,1579,1579,1579
82488658,1000,1000,1000,1000,98828786,1580,1580,1579,1580
82491157,1000,1000,1000,1000,98928746,1579,1579,1579,1579
82493656,1000,1000,1000,1000,99028706,1579,1579,1580,1579
82496155,1000,1000,1000,1000,99128666,1579,1579,1580,1580
82498654,1000,1000,1000,1000,99228626,1579,1579,1580,1579
82501153,1000,1000,1000,1000,99328586,1579,1579,1580,1580
82503652,1000,1000,1000,1000,99428546,1579,1579,1579,1580
82506151,1000,1000,1000,1000,99528506,1578,1579,1579,1579
82508650,1000,1000,1000,1000,99628466,1579,1579,1579,1580
82511149,1000,1000,1000,1000,99728426,1580,1580,1580,1580
82513648,1000,1000,1000,1000,99828386,1579,1579,1580,1580
82516147,1000,1000,1000,1000,99928346,1581,1581,1581,1581
82518646,1000,1000,1000,1000,100028306,1580,1581,1581,1580
82521145,1000,1000,1000,1000,100128266,1580,1580,1580,1580
82523644,1000,1000,1000,1000,100228226,1579,1579,1579,1579
82526143,1000,1000,1000,1000,100328186,1580,1579,1579,1580
82528642,1000,1000,1000,1000,100428979,1581,1581,1581,1581
82531141,1000,1000,1000,1000,100528939,1580,1580,1580,1580
82533640,1000,1000,1000,1000,100628899,1580,1579,1579,1580
82536139,1000,1000,1000,1000,100728859,1580,1581,1580,1581
82538638,1000,1000,1000,1000,100828819,1580,1581,1581,1581
82541137,1000,1000,1000,1000,100928779,1581,1581,1581,1581
82543636,1000,1000,1000,1000,101028739,1581,1581,1581,1581
82546135,1000,1000,1000,1000,101128699,1582,1581,1582,1581
82548634,1000,1000,1000,1000,101228659,1582,1582,1582,1582
82551133,1000,1000,1000,1000,101328619,1581,1581,1581,1582
82553632,1000,1000,1000,1000,101428579,1581,1581,1581,1581
82556131,1000,1000,1000,1000,101528539,1580,1580,1580,1581
82558630,1000,1000,1000,1000,101628499,1581,1581,1581,1581
82561129,1000,1000,1000,1000,101728459,1581,1581,1581,1581
82563628,1000,1000,1000,1000,101828419,1581,1581,1586,1576
82566127,1000,1000,1000,1000,101928379,1581,1583,1587,1573
82568626,1000,1000,1000,1000,102028339,1579,1582,1580,1573
82571125,1000,1000,1000,1000,102128299,1578,1580,1570,1572
82573624,1000,1000,1000,1000,102228259,1578,1580,1563,1570
82576123,1000,1000,1000,1000,102328219,1578,1579,1558,1565
82578622,1000,1000,1000,1000,102428179,1579,1578,1555,1560
82581121,1000,1000,1000,1000,102528972,1580,1578,1555,1557
82583620,1000,1000,1000,1000,102628932,1580,1578,1556,1554
82586119,1000,1000,1000,1000,102728892,1579,1578,1555,1553
82588618,1000,1000,1000,1000,102828852,1578,1579,1556,1554
82591117,1000,1000,1000,1000,102928812,1577,1578,1556,1554
82593616,1000,1000,1000,1000,103028772,1575,1577,1554,1553
82596115,1000,1000,1000,1000,103128732,1575,1577,1554,1553
82598614,1000,1000,1000,1000,103228692,1576,1577,1552,1553
82601113,1000,1000,1000,1000,103328652,1576,1577,1550,1551
82603612,1000,1000,1000,1000,103428612,1578,1579,1548,1548
82606111,1000,1000,1000,1000,103528572,1581,1582,1546,1546
82608610,1000,1000,1000,1000,103628532,1583,1584,1543,1543
82611109,1000,1000,1000,1000,103728492,1586,1587,1540,1540
82613608,1000,1000,1000,1000,103828452,1590,1590,1539,1537
82616107,1000,1000,1000,1000,103928412,1593,1593,1537,1537
82618606,1000,1000,1000,1000,104028372,1595,1595,1536,1536
82621105,1000,1000,1000,1000,104128332,1595,1595,1535,1536
82623604,1000,1000,1000,1000,104228292,1594,1595,1537,1538
82626103,1000,1000,1000,1000,104328252,1593,1592,1539,1542
82628602,1000,1000,1000,1000,104428212,1590,1589,1544,1547
82631101,1000,1000,1000,1000,104528172,1585,1582,1552,1555
82633600,1000,1000,1000,1000,104628965,1577,1573,1562,1565
82636099,1000,1000,1000,1000,104728925,1567,1563,1575,1576
82638598,1000,1000,1000,1000,104828885,1554,1551,1586,1587
82641097,1000,1000,1000,1000,104928845,1544,1542,1597,1597
82643596,1000,1000,1000,1000,105028805,1535,1534,1606,1605
82646095,1000,1000,1000,1000,105128765,1530,1530,1613,1611
82648594,1000,1000,1000,1000,105228725,1528,1530,1615,1614
82651093,1000,1000,1000,1000,105328685,1531,1533,1614,1613
82653592,1000,1000,1000,1000,105428645,1536,1539,1610,1610
82656091,1000,1000,1000,1000,105528605,1544,1546,1604,1604
82658590,1000,1000,1000,1000,105628565,1551,1553,1596,1596
82661089,1000,1000,1000,1000,105728525,1561,1561,1589,1588
82663588,1000,1000,1000,1000,105828485,1570,1569,1582,1581
82666087,1000,1000,1000,1000,105928445,1577,1576,1576,1575
82668586,1000,1000,1000,1000,106028405,1582,1581,1571,1570
82671085,1000,1000,1000,1000,106128365,1585,1584,1567,1567
82673584,1000,1000,1000,1000,106228325,1587,1586,1566,1566
82676083,1000,1000,1000,1000,106328285,1587,1586,1566,1566
82678582,1000,1000,1000,1000,106428245,1586,1584,1567,1567
82681081,1000,1000,1000,1000,106528205,1583,1582,1570,1570
82683580,1000,1000,1000,1000,106628165,1580,1581,1573,1573
82686079,1000,1000,1000,1000,106728958,1579,1579,1577,1577
82688578,1000,1000,1000,1000,106828918,1576,1576,1579,1579
82691077,1000,1000,1000,1000,106928878,1574,1574,1582,1581
82693576,1000,1000,1000,1000,107028838,1572,1573,1582,1582
82696075,1000,1000,1000,1000,107128798,1572,1573,1584,1584
82698574,1000,1000,1000,1000,107228758,1573,1573,1584,1584
82701073,1000,1000,1000,1000,107328718,1574,1574,1583,1584
82703572,1000,1000,1000,1000,107428678,1575,1575,1582,1583
82706071,1000,1000,1000,1000,107528638,1576,1576,1581,1581
82708570,1000,1000,1000,1000,107628598,1578,1578,1581,1581
82711069,1000,1000,1000,1000,107728558,1578,1578,1579,1579
82713568,1000,1000,1000,1000,107828518,1579,1580,1578,1578
82716067,1000,1000,1000,1000,107928478,1581,1580,1578,1578
82718566,1000,1000,1000,1000,108028438,1581,1581,1577,1577
82721065,1000,1000,1000,1000,108128398,1582,1581,1577,1577
82723564,1000,1000,1000,1000,108228358,1582,1582,1578,1578
82726063,1000,1000,1000,1000,108328318,1582,1582,1578,1578
82728562,1000,1000,1000,1000,108428278,1580,1581,1577,1578
82731061,1000,1000,1000,1000,108528238,1580,1580,1578,1579
82733560,1000,1000,1000,1000,108628198,1579,1580,1579,1579
82736059,1000,1000,1000,1000,108728158,1580,1580,1580,1580
82738558,1000,1000,1000,1000,108828951,1579,1579,1580,1580
82741057,1000,1000,1000,1000,108928911,1579,1579,1581,1581
82743556,1000,1000,1000,1000,109028871,1580,1579,1581,1581
82746055,1000,1000,1000,1000,109128831,1580,1579,1581,1581
82748554,1000,1000,1000,1000,109228791,1579,1579,1580,1580
82751053,1000,1000,1000,1000,109328751,1580,1580,1581,1581
82753552,1000,1000,1000,1000,109428711,1579,1579,1580,1580
82756051,1000,1000,1000,1000,109528671,1579,1579,1580,1580
82758550,1000,1000,1000,1000,109628631,1580,1580,1580,1580
82761049,1000,1000,1000,1000,109728591,1668,1543,1588,1589
82763548,1000,1000,1000,1000,109828551,1613,1586,1583,1571
82766047,1000,1000,1000,1000,109928511,1596,1595,1580,1565
82768546,1000,1000,1000,1000,110028471,1584,1597,1572,1566
82771045,1000,1000,1000,1000,110128431,1576,1594,1564,1567
82773544,1000,1000,1000,1000,110228391,1574,1589,1558,1565
82776043,1000,1000,1000,1000,110328351,1575,1582,1553,1561
82778542,1000,1000,1000,1000,110428311,1577,1576,1552,1557
82781041,1000,1000,1000,1000,110528271,1579,1574,1555,1556
82783540,1000,1000,1000,1000,110628231,1579,1572,1557,1555
82786039,1000,1000,1000,1000,110728191,1577,1572,1559,1555
82788538,1000,1000,1000,1000,110828984,1575,1573,1559,1556
82791037,1000,1000,1000,1000,110928944,1572,1574,1557,1556
82793536,1000,1000,1000,1000,111028904,1572,1575,1556,1556
82796035,1000,1000,1000,1000,111128864,1573,1576,1554,1555
82798534,1000,1000,1000,1000,111228824,1576,1579,1553,1553
82801033,1000,1000,1000,1000,111328784,1578,1579,1550,1550
82803532,1000,1000,1000,1000,111428744,1582,1583,1549,1549
82806031,1000,1000,1000,1000,111528704,1585,1584,1546,1546
82808530,1000,1000,1000,1000,111628664,1587,1586,1544,1544
82811029,1000,1000,1000,1000,111728624,1589,1589,1542,1542
82813528,1000,1000,1000,1000,111828584,1591,1592,1542,1542
82816027,1000,1000,1000,1000,111928544,1592,1593,1540,1541
82818526,1000,1000,1000,1000,112028504,1593,1594,1540,1541
82821025,1000,1000,1000,1000,112128464,1593,1594,1541,1543
82823524,1000,1000,1000,1000,112228424,1592,1590,1544,1547
82826023,1000,1000,1000,1000,112328384,1589,1586,1551,1553
82828522,1000,1000,1000,1000,112428344,1582,1579,1559,1561
82831021,1000,1000,1000,1000,112528304,1575,1572,1570,1571
82833520,1000,1000,1000,1000,112628264,1566,1563,1580,1581
82836019,1000,1000,1000,1000,112728224,1556,1553,1590,1590
82838518,1000,1000,1000,1000,112828184,1547,1546,1599,1598
82841017,1000,1000,1000,1000,112928977,1542,1542,1606,1605
82843516,1000,1000,1000,1000,113028937,1539,1540,1610,1609
82846015,1000,1000,1000,1000,113128897,1539,1540,1610,1610
82848514,1000,1000,1000,1000,113228857,1542,1543,1608,1608
82851013,1000,1000,1000,1000,113328817,1546,1547,1604,1604
82853512,1000,1000,1000,1000,113428777,1553,1554,1600,1599
82856011,1000,1000,1000,1000,113528737,1560,1560,1594,1593
82858510,1000,1000,1000,1000,113628697,1567,1567,1587,1587
82861009,1000,1000,1000,1000,113728657,1574,1573,1582,1582
82863508,1000,1000,1000,1000,113828617,1578,1577,1576,1576
82866007,1000,1000,1000,1000,113928577,1582,1581,1572,1573
82868506,1000,1000,1000,1000,114028537,1584,1583,1570,1570
82871005,1000,1000,1000,1000,114128497,1586,1584,1569,1569
82873504,1000,1000,1000,1000,114228457,1585,1584,1570,1570
82876003,1000,1000,1000,1000,114328417,1584,1583,1572,1571
82878502,1000,1000,1000,1000,114428377,1581,1581,1573,1573
82881001,1000,1000,1000,1000,114528337,1578,1579,1575,1575
82883500,1000,1000,1000,1000,114628297,1576,1577,1577,1577
82885999,1000,1000,1000,1000,114728257,1575,1575,1579,1580
82888498,1000,1000,1000,1000,114828217,1574,1574,1582,1581
82890997,1000,1000,1000,1000,114928177,1574,1574,1583,1583
82893496,1000,1000,1000,1000,115028970,1574,1574,1584,1583
82895995,1000,1000,1000,1000,115128930,1573,1574,1583,1583
82898494,1000,1000,1000,1000,115228890,1574,1575,1582,1583
82900993,1000,1000,1000,1000,115328850,1576,1577,1582,1583
82903492,1000,1000,1000,1000,115428810,1577,1577,1581,1581
82905991,1000,1000,1000,1000,115528770,1579,1578,1580,1580
82908490,1000,1000,1000,1000,115628730,1579,1579,1579,1579
82910989,1000,1000,1000,1000,115728690,1579,1579,1578,1578
82913488,1000,1000,1000,1000,115828650,1580,1580,1578,1578
82915987,1000,1000,1000,1000,115928610,1581,1581,1578,1578
82918486,1000,1000,1000,1000,116028570,1582,1582,1578,1578
82920985,1000,1000,1000,1000,116128530,1582,1582,1579,1579
82923484,1000,1000,1000,1000,116228490,1581,1581,1578,1579
82925983,1000,1000,1000,1000,116328450,1581,1581,1579,1580
82928482,1000,1000,1000,1000,116428410,1580,1580,1579,1579
82930981,1000,1000,1000,1000,116528370,1580,1580,1580,1580
82933480,1000,1000,1000,1000,116628330,1580,1580,1581,1581
82935979,1000,1000,1000,1000,116728290,1580,1580,1581,1581
82938478,1000,1000,1000,1000,116828250,1580,1580,1581,1581
82940977,1000,1000,1000,1000,116928210,1580,1580,1582,1582
82943476,1000,1000,1000,1000,117028170,1581,1581,1582,1583
82945975,1000,1000,1000,1000,117128963,1581,1581,1582,1582
82948474,1000,1000,1000,1000,117228923,1580,1580,1581,1581
82950973,1000,1000,1000,1000,117328883,1580,1581,1581,1581
82953472,1000,1000,1000,1000,117428843,1581,1581,1581,1581
82955971,1000,1000,1000,1000,117528803,1581,1581,1581,1581
82958470,1000,1000,1000,1000,117628763,1582,1582,1582,1582
82960969,1000,1000,1000,1000,117728723,1582,1582,1582,1582
82963468,1000,1000,1000,1000,117828683,1581,1581,1581,1580
82965967,1000,1000,1000,1000,117928643,1581,1582,1581,1580
82968466,1000,1000,1000,1000,118028603,1581,1583,1587,1573
82970965,1000,1000,1000,1000,118128563,1581,1584,1584,1573
82973464,1000,1000,1000,1000,118228523,1578,1581,1573,1571
82975963,1000,1000,1000,1000,118328483,1578,1580,1566,1570
82978462,1000,1000,1000,1000,118428443,1578,1580,1559,1566
82980961,1000,1000,1000,1000,118528403,1578,1578,1555,1560
82983460,1000,1000,1000,1000,118628363,1580,1578,1554,1556
82985959,1000,1000,1000,1000,118728323,1581,1579,1554,1555
82988458,1000,1000,1000,1000,118828283,1581,1580,1556,1554
82990957,1000,1000,1000,1000,118928243,1579,1579,1556,1553
82993456,1000,1000,1000,1000,119028203,1578,1579,1555,1553
82995955,1000,1000,1000,1000,119128163,1577,1578,1555,1554
82998454,1000,1000,1000,1000,119228956,1576,1578,1555,1554
83000953,1000,1000,1000,1000,119328916,1575,1577,1553,1553
83003452,1000,1000,1000,1000,119428876,1577,1579,1553,1553
83005951,1000,1000,1000,1000,119528836,1578,1579,1551,1551
83008450,1000,1000,1000,1000,119628796,1580,1581,1548,1549
83010949,1000,1000,1000,1000,119728756,1583,1583,1547,1547
83013448,1000,1000,1000,1000,119828716,1584,1585,1543,1543
83015947,1000,1000,1000,1000,119928676,1587,1588,1541,1541
83018446,1000,1000,1000,1000,120028636,1589,1590,1540,1540
83020945,1000,1000,1000,1000,120128596,1592,1592,1539,1539
83023444,1000,1000,1000,1000,120228556,1592,1593,1537,1538
83025943,1000,1000,1000,1000,120328516,1594,1594,1539,1540
83028442,1000,1000,1000,1000,120428476,1594,1593,1541,1542
83030941,1000,1000,1000,1000,120528436,1591,1589,1545,1547
83033440,1000,1000,1000,1000,120628396,1586,1583,1551,1555
83035939,1000,1000,1000,1000,120728356,1579,1575,1561,1563
83038438,1000,1000,1000,1000,120828316,1569,1565,1571,1573
83040937,1000,1000,1000,1000,120928276,1558,1555,1583,1584
83043436,1000,1000,1000,1000,121028236,1548,1546,1594,1594
83045935,1000,1000,1000,1000,121128196,1540,1539,1603,1603
83048434,1000,1000,1000,1000,121228156,1535,1535,1610,1609
83050933,1000,1000,1000,1000,121328949,1534,1534,1613,1612
83053432,1000,1000,1000,1000,121428909,1535,1537,1612,1612
83055931,1000,1000,1000,1000,121528869,1539,1541,1608,1609
83058430,1000,1000,1000,1000,121628829,1546,1548,1604,1604
83060929,1000,1000,1000,1000,121728789,1554,1555,1599,1598
83063428,1000,1000,1000,1000,121828749,1562,1563,1592,1591
83065927,1000,1000,1000,1000,121928709,1569,1570,1584,1583
83068426,1000,1000,1000,1000,122028669,1577,1576,1579,1578
83070925,1000,1000,1000,1000,122128629,1581,1580,1572,1572
83073424,1000,1000,1000,1000,122228589,1584,1583,1568,1569
83075923,1000,1000,1000,1000,122328549,1586,1585,1567,1568
83078422,1000,1000,1000,1000,122428509,1586,1584,1566,1567
83080921,1000,1000,1000,1000,122528469,1585,1584,1568,1569
83083420,1000,1000,1000,1000,122628429,1583,1583,1571,1571
83085919,1000,1000,1000,1000,122728389,1580,1580,1573,1572
83088418,1000,1000,1000,1000,122828349,1579,1578,1576,1576
83090917,1000,1000,1000,1000,122928309,1576,1576,1578,1578
83093416,1000,1000,1000,1000,123028269,1575,1575,1582,1581
83095915,1000,1000,1000,1000,123128229,1573,1573,1582,1582
83098414,1000,1000,1000,1000,123228189,1573,1573,1583,1584
83100913,1000,1000,1000,1000,123328982,1572,1573,1583,1583
83103412,1000,1000,1000,1000,123428942,1573,1574,1583,1583
83105911,1000,1000,1000,1000,123528902,1574,1575,1582,1582
83108410,1000,1000,1000,1000,123628862,1576,1576,1582,1582
83110909,1000,1000,1000,1000,123728822,1577,1577,1580,1580
83113408,1000,1000,1000,1000,123828782,1579,1579,1580,1580
83115907,1000,1000,1000,1000,123928742,1580,1580,1579,1579
83118406,1000,1000,1000,1000,124028702,1580,1580,1578,1578
83120905,1000,1000,1000,1000,124128662,1581,1581,1578,1578
83123404,1000,1000,1000,1000,124228622,1582,1582,1577,1578
83125903,1000,1000,1000,1000,124328582,1582,1582,1578,1578
83128402,1000,1000,1000,1000,124428542,1581,1581,1577,1577
83130901,1000,1000,1000,1000,124528502,1580,1580,1578,1578
83133400,1000,1000,1000,1000,124628462,1581,1581,1579,1579
83135899,1000,1000,1000,1000,124728422,1580,1580,1579,1579
83138398,1000,1000,1000,1000,124828382,1579,1579,1579,1579
83140897,1000,1000,1000,1000,124928342,1579,1580,1580,1580
83143396,1000,1000,1000,1000,125028302,1579,1579,1580,1580
83145895,1000,1000,1000,1000,125128262,1579,1578,1580,1580
83148394,1000,1000,1000,1000,125228222,1579,1579,1581,1581
83150893,1000,1000,1000,1000,125328182,1579,1580,1582,1581
83153392,1000,1000,1000,1000,125428975,1581,1581,1582,1582
83155891,1000,1000,1000,1000,125528935,1581,1581,1582,1582
83158390,1000,1000,1000,1000,125628895,1581,1581,1581,1582
83160889,1000,1000,1000,1000,125728855,1582,1581,1582,1582
83163388,1000,1000,1000,1000,125828815,1582,1582,1583,1579
83165887,1000,1000,1000,1000,125928775,1582,1583,1588,1573
83168386,1000,1000,1000,1000,126028735,1580,1581,1584,1573
83170885,1000,1000,1000,1000,126128695,1577,1577,1576,1575
83173384,1000,1000,1000,1000,126228655,1573,1573,1569,1574
83175883,1000,1000,1000,1000,126328615,1571,1570,1566,1573
83178382,1000,1000,1000,1000,126428575,1569,1568,1565,1571
83180881,1000,1000,1000,1000,126528535,1568,1567,1565,1569
83183380,1000,1000,1000,1000,126628495,1567,1567,1566,1567
83185879,1000,1000,1000,1000,126728455,1566,1566,1567,1565
83188378,1000,1000,1000,1000,126828415,1566,1566,1568,1565
83190877,1000,1000,1000,1000,126928375,1565,1565,1567,1564
83193376,1000,1000,1000,1000,127028335,1565,1564,1566,1564
83195875,1000,1000,1000,1000,127128295,1564,1564,1565,1565
83198374,1000,1000,1000,1000,127228255,1562,1562,1563,1564
83200873,1000,1000,1000,1000,127328215,1562,1562,1562,1563
83203372,1000,1000,1000,1000,127428175,1561,1561,1562,1561
83205871,1000,1000,1000,1000,127528968,1561,1560,1561,1561
83208370,1000,1000,1000,1000,127628928,1561,1560,1561,1560
83210869,1000,1000,1000,1000,127728888,1560,1560,1560,1559
83213368,1000,1000,1000,1000,127828848,1560,1560,1560,1559
83215867,1000,1000,1000,1000,127928808,1558,1559,1558,1558
83218366,1000,1000,1000,1000,128028768,1558,1559,1559,1558
83220865,1000,1000,1000,1000,128128728,1558,1558,1559,1558
83223364,1000,1000,1000,1000,128228688,1558,1558,1559,1557
83225863,1000,1000,1000,1000,128328648,1558,1558,1559,1557
83228362,1000,1000,1000,1000,128428608,1558,1558,1559,1556
83230861,1000,1000,1000,1000,128528568,1559,1558,1560,1557
83233360,1000,1000,1000,1000,128628528,1559,1559,1560,1558
83235859,1000,1000,1000,1000,128728488,1559,1559,1558,1561
83238358,1000,1000,1000,1000,128828448,1560,1560,1557,1563
83240857,1000,1000,1000,1000,128928408,1561,1561,1558,1564
83243356,1000,1000,1000,1000,129028368,1562,1562,1560,1564
83245855,1000,1000,1000,1000,129128328,1560,1561,1559,1561
83248354,1000,1000,1000,1000,129228288,1561,1561,1561,1560
83250853,1000,1000,1000,1000,129328248,1559,1560,1558,1560
83253352,1000,1000,1000,1000,129428208,1556,1556,1556,1556
83255851,1000,1000,1000,1000,129528168,1551,1551,1551,1551
83258350,1000,1000,1000,1000,129628961,1545,1545,1545,1546
83260849,1000,1000,1000,1000,129728921,1538,1539,1539,1539
83263348,1000,1000,1000,1000,129828881,1531,1532,1532,1532
83265847,1000,1000,1000,1000,129928841,1524,1524,1524,1524
83268346,1000,1000,1000,1000,130028801,1520,1519,1520,1520
83270845,1000,1000,1000,1000,130128761,1520,1519,1520,1520
83273344,1000,1000,1000,1000,130228721,1521,1520,1520,1520
83275843,1000,1000,1000,1000,130328681,1522,1522,1522,1522
83278342,1000,1000,1000,1000,130428641,1525,1526,1525,1526
83280841,1000,1000,1000,1000,130528601,1530,1530,1530,1530
83283340,1000,1000,1000,1000,130628561,1535,1535,1534,1534
83285839,1000,1000,1000,1000,130728521,1539,1538,1538,1538
83288338,1000,1000,1000,1000,130828481,1541,1541,1541,1540
83290837,1000,1000,1000,1000,130928441,1543,1543,1543,1543
83293336,1000,1000,1000,1000,131028401,1544,1545,1544,1544
83295835,1000,1000,1000,1000,131128361,1545,1545,1545,1545
83298334,1000,1000,1000,1000,131228321,1546,1545,1546,1545
83300833,1000,1000,1000,1000,131328281,1546,1546,1546,1546
83303332,1000,1000,1000,1000,131428241,1546,1546,1546,1546
83305831,1000,1000,1000,1000,131528201,1545,1546,1546,1546
83308330,1000,1000,1000,1000,131628161,1545,1545,1546,1546
83310829,1000,1000,1000,1000,131728954,1546,1546,1546,1546
83313328,1000,1000,1000,1000,131828914,1546,1546,1546,1545
83315827,1000,1000,1000,1000,131928874,1546,1546,1546,1546
83318326,1000,1000,1000,1000,132028834,1545,1545,1545,1545
83320825,1000,1000,1000,1000,132128794,1545,1544,1545,1545
83323324,1000,1000,1000,1000,132228754,1544,1545,1544,1544
83325823,1000,1000,1000,1000,132328714,1544,1544,1544,1544
83328322,1000,1000,1000,1000,132428674,1544,1545,1544,1544
83330821,1000,1000,1000,1000,132528634,1544,1543,1543,1544
83333320,1000,1000,1000,1000,132628594,1545,1545,1545,1544
83335819,1000,1000,1000,1000,132728554,1544,1544,1544,1543
83338318,1000,1000,1000,1000,132828514,1544,1544,1544,1544
83340817,1000,1000,1000,1000,132928474,1543,1543,1543,1543
83343316,1000,1000,1000,1000,133028434,1543,1544,1544,1544
83345815,1000,1000,1000,1000,133128394,1544,1543,1543,1544
83348314,1000,1000,1000,1000,133228354,1543,1543,1543,1544
83350813,1000,1000,1000,1000,133328314,1544,1544,1544,1544
83353312,1000,1000,1000,1000,133428274,1544,1544,1544,1543
83355811,1000,1000,1000,1000,133528234,1543,1543,1543,1543
83358310,1000,1000,1000,1000,133628194,1543,1543,1543,1543
83360809,1000,1000,1000,1000,133728154,1545,1544,1544,1544
83363308,1000,1000,1000,1000,133828947,1544,1544,1544,1544
83365807,1000,1000,1000,1000,133928907,1544,1544,1543,1544
83368306,1000,1000,1000,1000,134028867,1543,1543,1543,1543
83370805,1000,1000,1000,1000,134128827,1544,1544,1544,1544
83373304,1000,1000,1000,1000,134228787,1543,1543,1543,1543
83375803,1000,1000,1000,1000,134328747,1543,1543,1543,1543
83378302,1000,1000,1000,1000,134428707,1544,1543,1544,1544
83380801,1000,1000,1000,1000,134528667,1544,1544,1544,1544
83383300,1000,1000,1000,1000,134628627,1545,1545,1545,1545
83385799,1000,1000,1000,1000,134728587,1545,1544,1545,1545
83388298,1000,1000,1000,1000,134828547,1544,1544,1544,1544
83390797,1000,1000,1000,1000,134928507,1544,1544,1544,1544
83393296,1000,1000,1000,1000,135028467,1545,1545,1545,1545
83395795,1000,1000,1000,1000,135128427,1545,1545,1545,1545
83398294,1000,1000,1000,1000,135228387,1545,1545,1545,1545
83400793,1000,1000,1000,1000,135328347,1545,1544,1544,1545
83403292,1000,1000,1000,1000,135428307,1545,1545,1545,1544
83405791,1000,1000,1000,1000,135528267,1545,1545,1545,1545
83408290,1000,1000,1000,1000,135628227,1544,1544,1544,1544
83410789,1000,1000,1000,1000,135728187,1545,1544,1544,1545
83413288,1000,1000,1000,1000,135828980,1544,1544,1544,1544
83415787,1000,1000,1000,1000,135928940,1544,1543,1543,1544
83418286,1000,1000,1000,1000,136028900,1544,1544,1544,1544
83420785,1000,1000,1000,1000,136128860,1544,1545,1544,1545
83423284,1000,1000,1000,1000,136228820,1544,1544,1544,1543
83425783,1000,1000,1000,1000,136328780,1543,1543,1544,1543
83428282,1000,1000,1000,1000,136428740,1544,1544,1544,1544
83430781,1000,1000,1000,1000,136528700,1545,1544,1544,1545
83433280,1000,1000,1000,1000,136628660,1544,1544,1544,1544
83435779,1000,1000,1000,1000,136728620,1544,1543,1543,1544
83438278,1000,1000,1000,1000,136828580,1544,1544,1544,1544
83440777,1000,1000,1000,1000,136928540,1544,1544,1543,1544
83443276,1000,1000,1000,1000,137028500,1544,1545,1544,1544
83445775,1000,1000,1000,1000,137128460,1544,1544,1544,1544
83448274,1000,1000,1000,1000,137228420,1545,1545,1545,1545
83450773,1000,1000,1000,1000,137328380,1545,1545,1545,1545
83453272,1000,1000,1000,1000,137428340,1545,1545,1545,1545
83455771,1000,1000,1000,1000,137528300,1545,1544,1545,1545
83458270,1000,1000,1000,1000,137628260,1545,1545,1545,1545
83460769,1000,1000,1000,1000,137728220,1545,1544,1544,1545
83463268,1000,1000,1000,1000,137828180,1544,1544,1544,1544
83465767,1000,1000,1000,1000,137928973,1545,1544,1544,1545
83468266,1000,1000,1000,1000,138028933,1544,1545,1545,1545
83470765,1000,1000,1000,1000,138128893,1545,1545,1544,1545
83473264,1000,1000,1000,1000,138228853,1544,1545,1544,1544
83475763,1000,1000,1000,1000,138328813,1545,1544,1544,1545
83478262,1000,1000,1000,1000,138428773,1545,1545,1545,1545
83480761,1000,1000,1000,1000,138528733,1543,1543,1543,1544
83483260,1000,1000,1000,1000,138628693,1543,1543,1543,1543
83485759,1000,1000,1000,1000,138728653,1543,1544,1544,1543
83488258,1000,1000,1000,1000,138828613,1545,1544,1545,1544
83490757,1000,1000,1000,1000,138928573,1544,1544,1544,1544
83493256,1000,1000,1000,1000,139028533,1544,1545,1544,1545
83495755,1000,1000,1000,1000,139128493,1544,1543,1543,1544
83498254,1000,1000,1000,1000,139228453,1545,1545,1545,1544
83500753,1000,1000,1000,1000,139328413,1544,1544,1544,1544
83503252,1000,1000,1000,1000,139428373,1544,1544,1545,1544
83505751,1000,1000,1000,1000,139528333,1545,1544,1544,1545
83508250,1000,1000,1000,1000,139628293,1545,1545,1545,1544
83510749,1000,1000,1000,1000,139728253,1494,1496,1497,1496
83513248,1000,1000,1000,1000,139828213,1303,1318,1317,1318
83515747,1000,1000,1000,1000,139928173,1213,1235,1235,1237
83518246,1000,1000,1000,1000,140028966,1183,1210,1210,1210
83520745,1000,1000,1000,1000,140128926,1183,1208,1209,1210
83523244,1000,1000,1000,1000,140228886,1183,1209,1210,1209
83525743,1000,1000,1000,1000,140328846,1183,1208,1209,1209
83528242,1000,1000,1000,1000,140428806,1183,1164,1163,1211
83530741,1000,1000,1000,1000,140528766,1183,1175,1175,1211
83533240,1000,1000,1000,1000,140628726,1183,1183,1183,1211
83535739,1000,1000,1000,1000,140728686,1183,1182,1183,1211
83538238,1000,1000,1000,1000,140828646,1183,1180,1181,1211
83540737,1000,1000,1000,1000,140928606,1183,1177,1178,1210
83543236,1000,1000,1000,1000,141028566,1183,1174,1175,1210
83545735,1000,1000,1000,1000,141128526,1183,1171,1172,1210
83548234,1000,1000,1000,1000,141228486,1183,1192,1193,1210
83550733,1000,1000,1000,1000,141328446,1183,1189,1190,1210
83553232,1000,1000,1000,1000,141428406,1183,1187,1189,1210
83555731,1000,1000,1000,1000,141528366,1183,1187,1188,1210
83558230,1000,1000,1000,1000,141628326,1183,1186,1188,1210
83560729,1000,1000,1000,1000,141728286,1000,1000,1000,1000
83563228,1000,1000,1000,1000,141828246,1000,1000,1000,1000
83565727,1000,1000,1000,1000,141928206,1000,1000,1000,1000
83568226,1000,1000,1000,1000,142028166,1000,1000,1000,1000
83570725,1000,1000,1000,1000,142128959,1000,1000,1000,1000
83573224,1000,1000,1000,1000,142228919,1000,1000,1000,1000
83575723,1000,1000,1000,1000,142328879,1000,1000,1000,1000
83578222,1000,1000,1000,1000,142428839,1000,1000,1000,1000
83580721,1000,1000,1000,1000,142528799,1000,1000,1000,1000
83583220,1000,1000,1000,1000,142628759,1000,1000,1000,1000
83585719,1000,1000,1000,1000,142728719,1000,1000,1000,1000
83588218,1000,1000,1000,1000,142828679,1000,1000,1000,1000
83590717,1000,1000,1000,1000,142928639,1000,1000,1000,1000
83593216,1000,1000,1000,1000,143028599,1000,1000,1000,1000
83595715,1000,1000,1000,1000,143128559,1000,1000,1000,1000
83598214,1000,1000,1000,1000,143228519,1000,1000,1000,1000
83600713,1000,1000,1000,1000,143328479,1000,1000,1000,1000
83603212,1000,1000,1000,1000,143428439,1000,1000,1000,1000
83605711,1000,1000,1000,1000,143528399,1000,1000,1000,1000
83608210,1000,1000,1000,1000,143628359,1000,1000,1000,1000
83610709,1000,1000,1000,1000,143728319,1000,1000,1000,1000
83613208,1000,1000,1000,1000,143828279,1000,1000,1000,1000
83615707,1000,1000,1000,1000,143928239,1000,1000,1000,1000
83618206,1000,1000,1000,1000,144028199,1000,1000,1000,1000
83620705,1000,1000,1000,1000,144128159,1000,1000,1000,1000
83623204,1000,1000,1000,1000,144228952,1000,1000,1000,1000
83625703,1000,1000,1000,1000,144328912,1000,1000,1000,1000
83628202,1000,1000,1000,1000,144428872,1000,1000,1000,1000
83630701,1000,1000,1000,1000,144528832,1000,1000,1000,1000
83633200,1000,1000,1000,1000,144628792,1000,1000,1000,1000
83635699,1000,1000,1000,1000,144728752,1000,1000,1000,1000
83638198,1000,1000,1000,1000,144828712,1000,1000,1000,1000
83640697,1000,1000,1000,1000,144928672,1000,1000,1000,1000
83643196,1000,1000,1000,1000,145028632,1000,1000,1000,1000
83645695,1000,1000,1000,1000,145128592,1000,1000,1000,1000
83648194,1000,1000,1000,1000,145228552,1000,1000,1000,1000
83650693,1000,1000,1000,1000,145328512,1000,1000,1000,1000
83653192,1000,1000,1000,1000,145428472,1000,1000,1000,1000
83655691,1000,1000,1000,1000,145528432,1000,1000,1000,1000
83658190,1000,1000,1000,1000,145628392,1000,1000,1000,1000
83660689,1000,1000,1000,1000,145728352,1000,1000,1000,1000
83663188,1000,1000,1000,1000,145828312,1000,1000,1000,1000
83665687,1000,1000,1000,1000,145928272,1000,1000,1000,1000
83668186,1000,1000,1000,1000,146028232,1000,1000,1000,1000
83670685,1000,1000,1000,1000,146128192,1000,1000,1000,1000
83673184,1000,1000,1000,1000,146228985,1000,1000,1000,1000
83675683,1000,1000,1000,1000,146328945,1000,1000,1000,1000
83678182,1000,1000,1000,1000,146428905,1000,1000,1000,1000
83680681,1000,1000,1000,1000,146528865,1000,1000,1000,1000
83683180,1000,1000,1000,1000,146628825,1000,1000,1000,1000
83685679,1000,1000,1000,1000,146728785,1000,1000,1000,1000
83688178,1000,1000,1000,1000,146828745,1000,1000,1000,1000
83690677,1000,1000,1000,1000,146928705,1000,1000,1000,1000
83693176,1000,1000,1000,1000,147028665,1000,1000,1000,1000
83695675,1000,1000,1000,1000,147128625,1000,1000,1000,1000
83698174,1000,1000,1000,1000,147228585,1000,1000,1000,1000
83700673,1000,1000,1000,1000,147328545,1000,1000,1000,1000
83703172,1000,1000,1000,1000,147428505,1000,1000,1000,1000
83705671,1000,1000,1000,1000,147528465,1000,1000,1000,1000
83708170,1000,1000,1000,1000,147628425,1000,1000,1000,1000
83710669,1000,1000,1000,1000,147728385,1000,1000,1000,1000
83713168,1000,1000,1000,1000,147828345,1000,1000,1000,1000
83715667,1000,1000,1000,1000,147928305,1000,1000,1000,1000
83718166,1000,1000,1000,1000,148028265,1000,1000,1000,1000
83720665,1000,1000,1000,1000,148128225,1000,1000,1000,1000
83723164,1000,1000,1000,1000,148228185,1000,1000,1000,1000
83725663,1000,1000,1000,1000,148328978,1000,1000,1000,1000
83728162,1000,1000,1000,1000,148428938,1000,1000,1000,1000
83730661,1000,1000,1000,1000,148528898,1000,1000,1000,1000
83733160,1000,1000,1000,1000,148628858,1000,1000,1000,1000
83735659,1000,1000,1000,1000,148728818,1000,1000,1000,1000
83738158,1000,1000,1000,1000,148828778,1000,1000,1000,1000
83740657,1000,1000,1000,1000,148928738,1000,1000,1000,1000
83743156,1000,1000,1000,1000,149028698,1000,1000,1000,1000
83745655,1000,1000,1000,1000,149128658,1000,1000,1000,1000
83748154,1000,1000,1000,1000,149228618,1000,1000,1000,1000
83751486,1000,1000,1000,1000,149328578,1000,1000,1000,1000
83753985,1000,1000,1000,1000,149428538,1000,1000,1000,1000
83756484,1000,1000,1000,1000,149528498,1000,1000,1000,1000
83758983,1000,1000,1000,1000,149628458,1000,1000,1000,1000
83761482,1000,1000,1000,1000,149728418,1000,1000,1000,1000
83763981,1000,1000,1000,1000,149828378,1000,1000,1000,1000
83766480,1000,1000,1000,1000,149928338,1000,1000,1000,1000
83768979,1000,1000,1000,1000,150028298,1000,1000,1000,1000
83771478,1000,1000,1000,1000,150128258,1000,1000,1000,1000
83773977,1000,1000,1000,1000,150228218,1000,1000,1000,1000
83776476,1000,1000,1000,1000,150328178,1000,1000,1000,1000
83778975,1000,1000,1000,1000,150428971,1000,1000,1000,1000
83781474,1000,1000,1000,1000,150528931,1000,1000,1000,1000
83783973,1000,1000,1000,1000,150628891,1000,1000,1000,1000
83786472,1000,1000,1000,1000,150728851,1000,1000,1000,1000
83788971,1000,1000,1000,1000,150828811,1000,1000,1000,1000
83791470,1000,1000,1000,1000,150928771,1000,1000,1000,1000
83793969,1000,1000,1000,1000,151028731,1000,1000,1000,1000
83796468,1000,1000,1000,1000,151128691,1000,1000,1000,1000
83798967,1000,1000,1000,1000,151228651,1000,1000,1000,1000
83801466,1000,1000,1000,1000,151328611,1000,1000,1000,1000
83803965,1000,1000,1000,1000,151428571,1000,1000,1000,1000
83806464,1000,1000,1000,1000,151528531,1000,1000,1000,1000
83808963,1000,1000,1000,1000,151628491,1000,1000,1000,1000
83811462,1000,1000,1000,1000,,,,,
83813961,1000,1000,1000,1000,,,,,
83816460,1000,1000,1000,1000,,,,,
83818959,1000,1000,1000,1000,,,,,
83821458,1000,1000,1000,1000,,,,,
83823957,1000,1000,1000,1000,,,,,
83826456,1000,1000,1000,1000,,,,,
83828955,1000,1000,1000,1000,,,,,
83831454,1000,1000,1000,1000,,,,,
83833953,1000,1000,1000,1000,,,,,
83836452,1000,1000,1000,1000,,,,,
83838951,1000,1000,1000,1000,,,,,
83841450,1000,1000,1000,1000,,,,,
83843949,1000,1000,1000,1000,,,,,
83846448,1000,1000,1000,1000,,,,,
83848947,1000,1000,1000,1000,,,,,
83851446,1000,1000,1000,1000,,,,,
83853945,1000,1000,1000,1000,,,,,
83856444,1000,1000,1000,1000,,,,,
83858943,1000,1000,1000,1000,,,,,
83861442,1000,1000,1000,1000,,,,,
83863941,1000,1000,1000,1000,,,,,
83866440,1000,1000,1000,1000,,,,,
83868939,1000,1000,1000,1000,,,,,
83871438,1000,1000,1000,1000,,,,,
83873937,1000,1000,1000,1000,,,,,
83876436,1000,1000,1000,1000,,,,,
83878935,1000,1000,1000,1000,,,,,
83881434,1000,1000,1000,1000,,,,,
83883933,1000,1000,1000,1000,,,,,
83886432,1000,1000,1000,1000,,,,,
83888931,1000,1000,1000,1000,,,,,
83891430,1000,1000,1000,1000,,,,,
83893929,1000,1000,1000,1000,,,,,
83896428,1000,1000,1000,1000,,,,,
83898927,1000,1000,1000,1000,,,,,
83901426,1000,1000,1000,1000,,,,,
83903925,1000,1000,1000,1000,,,,,
83906424,1000,1000,1000,1000,,,,,
83908923,1000,1000,1000,1000,,,,,
83911422,1000,1000,1000,1000,,,,,
83913921,1000,1000,1000,1000,,,,,
83916420,1000,1000,1000,1000,,,,,
83918919,1000,1000,1000,1000,,,,,
83921418,1000,1000,1000,1000,,,,,
83923917,1000,1000,1000,1000,,,,,
83926416,1000,1000,1000,1000,,,,,
83928915,1000,1000,1000,1000,,,,,
83931414,1000,1000,1000,1000,,,,,
83933913,1000,1000,1000,1000,,,,,
83936412,1000,1000,1000,1000,,,,,
83938911,1000,1000,1000,1000,,,,,
83941410,1000,1000,1000,1000,,,,,
83943909,1000,1000,1000,1000,,,,,
83946408,1000,1000,1000,1000,,,,,
83948907,1000,1000,1000,1000,,,,,
83951406,1000,1000,1000,1000,,,,,
83953905,1000,1000,1000,1000,,,,,
83956404,1000,1000,1000,1000,,,,,
83958903,1000,1000,1000,1000,,,,,
83961402,1000,1000,1000,1000,,,,,
83963901,1000,1000,1000,1000,,,,,
83966400,1000,1000,1000,1000,,,,,
83968899,1000,1000,1000,1000,,,,,
83971398,1000,1000,1000,1000,,,,,
83973897,1000,1000,1000,1000,,,,,
83976396,1000,1000,1000,1000,,,,,
83978895,1000,1000,1000,1000,,,,,
83981394,1000,1000,1000,1000,,,,,
83983893,1000,1000,1000,1000,,,,,
83986392,1000,1000,1000,1000,,,,,
83988891,1000,1000,1000,1000,,,,,
83991390,1000,1000,1000,1000,,,,,
83993889,1000,1000,1000,1000,,,,,
83996388,1000,1000,1000,1000,,,,,
83998887,1000,1000,1000,1000,,,,,
84001386,1000,1000,1000,1000,,,,,
84003885,1000,1000,1000,1000,,,,,
84006384,1000,1000,1000,1000,,,,,
84008883,1000,1000,1000,1000,,,,,
84011382,1000,1000,1000,1000,,,,,
84013881,1000,1000,1000,1000,,,,,
84016380,1000,1000,1000,1000,,,,,
84018879,1000,1000,1000,1000,,,,,
84021378,1000,1000,1000,1000,,,,,
84023877,1000,1000,1000,1000,,,,,
84026376,1000,1000,1000,1000,,,,,
84028875,1000,1000,1000,1000,,,,,
84031374,1000,1000,1000,1000,,,,,
84033873,1000,1000,1000,1000,,,,,
84036372,1000,1000,1000,1000,,,,,
84038871,1000,1000,1000,1000,,,,,
84041370,1000,1000,1000,1000,,,,,
84043869,1000,1000,1000,1000,,,,,
84046368,1000,1000,1000,1000,,,,,
84048867,1000,1000,1000,1000,,,,,
84051366,1000,1000,1000,1000,,,,,
84053865,1000,1000,1000,1000,,,,,
84056364,1000,1000,1000,1000,,,,,
84058863,1000,1000,1000,1000,,,,,
84061362,1000,1000,1000,1000,,,,,
84063861,1000,1000,1000,1000,,,,,
84066360,1000,1000,1000,1000,,,,,
84068859,1000,1000,1000,1000,,,,,
84071358,1000,1000,1000,1000,,,,,
84073857,1000,1000,1000,1000,,,,,
84076356,1000,1000,1000,1000,,,,,
84078855,1001,1001,1001,1001,,,,,
84081354,1002,1002,1002,1002,,,,,
84083853,1003,1003,1003,1003,,,,,
84086352,1003,1003,1003,1003,,,,,
84088851,1004,1004,1004,1004,,,,,
84091350,1005,1005,1005,1005,,,,,
84093849,1006,1006,1006,1006,,,,,
84096348,1006,1006,1006,1006,,,,,
84098847,1007,1007,1007,1007,,,,,
84101346,1008,1008,1008,1008,,,,,
84103845,1009,1009,1009,1009,,,,,
84106344,1009,1009,1009,1009,,,,,
84108843,1010,1010,1010,1010,,,,,
84111342,1011,1011,1011,1011,,,,,
84113841,1012,1012,1012,1012,,,,,
84116340,1012,1012,1012,1012,,,,,
84118839,1013,1013,1013,1013,,,,,
84121338,1014,1014,1014,1014,,,,,
84123837,1015,1015,1015,1015,,,,,
84126336,1015,1015,1015,1015,,,,,
84128835,1016,1016,1016,1016,,,,,
84131334,1017,1017,1017,1017,,,,,
84133833,1018,1018,1018,1018,,,,,
84136332,1018,1018,1018,1018,,,,,
84138831,1019,1019,1019,1019,,,,,
84141330,1020,1020,1020,1020,,,,,
84143829,1021,1021,1021,1021,,,,,
84146328,1021,1021,1021,1021,,,,,
84148827,1022,1022,1022,1022,,,,,
84151326,1023,1023,1023,1023,,,,,
84153825,1024,1024,1024,1024,,,,,
84156324,1024,1024,1024,1024,,,,,
84158823,1025,1025,1025,1025,,,,,
84161322,1026,1026,1026,1026,,,,,
84163821,1027,1027,1027,1027,,,,,
84166320,1027,1027,1027,1027,,,,,
84168819,1028,1028,1028,1028,,,,,
84171318,1029,1029,1029,1029,,,,,
84173817,1030,1030,1030,1030,,,,,
84176316,1030,1030,1030,1030,,,,,
84178815,1031,1031,1031,1031,,,,,
84181314,1032,1032,1032,1032,,,,,
84183813,1033,1033,1033,1033,,,,,
84186312,1033,1033,1033,1033,,,,,
84188811,1034,1034,1034,1034,,,,,
84191310,1035,1035,1035,1035,,,,,
84193809,1036,1036,1036,1036,,,,,
84196308,1036,1036,1036,1036,,,,,
84198807,1037,1037,1037,1037,,,,,
84201306,1038,1038,1038,1038,,,,,
84203805,1039,1039,1039,1039,,,,,
84206304,1039,1039,1039,1039,,,,,
84208803,1040,1040,1040,1040,,,,,
84211302,1041,1041,1041,1041,,,,,
84213801,1042,1042,1042,1042,,,,,
84216300,1042,1042,1042,1042,,,,,
84218799,1043,1043,1043,1043,,,,,
84221298,1044,1044,1044,1044,,,,,
84223797,1045,1045,1045,1045,,,,,
84226296,1045,1045,1045,1045,,,,,
84228795,1046,1046,1046,1046,,,,,
84231294,1047,1047,1047,1047,,,,,
84233793,1048,1048,1048,1048,,,,,
84236292,1048,1048,1048,1048,,,,,
84238791,1049,1049,1049,1049,,,,,
84241290,1050,1050,1050,1050,,,,,
84243789,1051,1051,1051,1051,,,,,
84246288,1051,1051,1051,1051,,,,,
84248787,1052,1052,1052,1052,,,,,
84251286,1053,1053,1053,1053,,,,,
84253785,1054,1054,1054,1054,,,,,
84256284,1054,1054,1054,1054,,,,,
84258783,1055,1055,1055,1055,,,,,
84261282,1056,1056,1056,1056,,,,,
84263781,1057,1057,1057,1057,,,,,
84266280,1057,1057,1057,1057,,,,,
84268779,1058,1058,1058,1058,,,,,
84271278,1059,1059,1059,1059,,,,,
84273777,1060,1060,1060,1060,,,,,
84276276,1060,1060,1060,1060,,,,,
84278775,1061,1061,1061,1061,,,,,
84281274,1062,1062,1062,1062,,,,,
84283773,1063,1063,1063,1063,,,,,
84286272,1063,1063,1063,1063,,,,,
84288771,1064,1064,1064,1064,,,,,
84291270,1065,1065,1065,1065,,,,,
84293769,1066,1066,1066,1066,,,,,
84296268,1066,1066,1066,1066,,,,,
84298767,1067,1067,1067,1067,,,,,
84301266,1068,1068,1068,1068,,,,,
84303765,1069,1069,1069,1069,,,,,
84306264,1069,1069,1069,1069,,,,,
84308763,1070,1070,1070,1070,,,,,
84311262,1071,1071,1071,1071,,,,,
84313761,1072,1072,1072,1072,,,,,
84316260,1072,1072,1072,1072,,,,,
84318759,1073,1073,1073,1073,,,,,
84321258,1074,1074,1074,1074,,,,,
84323757,1075,1075,1075,1075,,,,,
84326256,1075,1075,1075,1075,,,,,
84328755,1076,1076,1076,1076,,,,,
84331254,1077,1077,1077,1077,,,,,
84333753,1078,1078,1078,1078,,,,,
84336252,1078,1078,1078,1078,,,,,
84338751,1079,1079,1079,1079,,,,,
84341250,1080,1080,1080,1080,,,,,
84343749,1081,1081,1081,1081,,,,,
84346248,1081,1081,1081,1081,,,,,
84348747,1082,1082,1082,1082,,,,,
84351246,1083,1083,1083,1083,,,,,
84353745,1084,1084,1084,1084,,,,,
84356244,1084,1084,1084,1084,,,,,
84358743,1085,1085,1085,1085,,,,,
84361242,1086,1086,1086,1086,,,,,
84363741,1087,1087,1087,1087,,,,,
84366240,1087,1087,1087,1087,,,,,
84368739,1088,1088,1088,1088,,,,,
84371238,1089,1089,1089,1089,,,,,
84373737,1090,1090,1090,1090,,,,,
84376236,1090,1090,1090,1090,,,,,
84378735,1091,1091,1091,1091,,,,,
84381234,1092,1092,1092,1092,,,,,
84383733,1093,1093,1093,1093,,,,,
84386232,1093,1093,1093,1093,,,,,
84388731,1094,1094,1094,1094,,,,,
84391230,1095,1095,1095,1095,,,,,
84393729,1096,1096,1096,1096,,,,,
84396228,1096,1096,1096,1096,,,,,
84398727,1097,1097,1097,1097,,,,,
84401226,1098,1098,1098,1098,,,,,
84403725,1099,1099,1099,1099,,,,,
84406224,1099,1099,1099,1099,,,,,
84408723,1100,1100,1100,1100,,,,,
84411222,1100,1100,1100,1100,,,,,
84413721,1100,1100,1100,1100,,,,,
84416220,1100,1100,1100,1100,,,,,
84418719,1100,1100,1100,1100,,,,,
84421218,1100,1100,1100,1100,,,,,
84423717,1100,1100,1100,1100,,,,,
84426216,1100,1100,1100,1100,,,,,
84428715,1100,1100,1100,1100,,,,,
84431214,1100,1100,1100,1100,,,,,
84433713,1100,1100,1100,1100,,,,,
84436212,1100,1100,1100,1100,,,,,
84438711,1100,1100,1100,1100,,,,,
84441210,1100,1100,1100,1100,,,,,
84443709,1100,1100,1100,1100,,,,,
84446208,1100,1100,1100,1100,,,,,
84448707,1100,1100,1100,1100,,,,,
84451206,1100,1100,1100,1100,,,,,
84453705,1100,1100,1100,1100,,,,,
84456204,1100,1100,1100,1100,,,,,
84458703,1100,1100,1100,1100,,,,,
84461202,1100,1100,1100,1100,,,,,
84463701,1100,1100,1100,1100,,,,,
84466200,1100,1100,1100,1100,,,,,
84468699,1100,1100,1100,1100,,,,,
84471198,1100,1100,1100,1100,,,,,
84473697,1100,1100,1100,1100,,,,,
84476196,1100,1100,1100,1100,,,,,
84478695,1100,1100,1100,1100,,,,,
84481194,1100,1100,1100,1100,,,,,
84483693,1100,1100,1100,1100,,,,,
84486192,1100,1100,1100,1100,,,,,
84488691,1100,1100,1100,1100,,,,,
84491190,1100,1100,1100,1100,,,,,
84493689,1100,1100,1100,1100,,,,,
84496188,1100,1100,1100,1100,,,,,
84498687,1100,1100,1100,1100,,,,,
84501186,1100,1100,1100,1100,,,,,
84503685,1100,1100,1100,1100,,,,,
84506184,1100,1100,1100,1100,,,,,
84508683,1100,1100,1100,1100,,,,,
84511182,1100,1100,1100,1100,,,,,
84513681,1100,1100,1100,1100,,,,,
84516180,1100,1100,1100,1100,,,,,
84518679,1100,1100,1100,1100,,,,,
84521178,1100,1100,1100,1100,,,,,
84523677,1100,1100,1100,1100,,,,,
84526176,1100,1100,1100,1100,,,,,
84528675,1100,1100,1100,1100,,,,,
84531174,1100,1100,1100,1100,,,,,
84533673,1100,1100,1100,1100,,,,,
84536172,1100,1100,1100,1100,,,,,
84538671,1100,1100,1100,1100,,,,,
84541170,1100,1100,1100,1100,,,,,
84543669,1100,1100,1100,1100,,,,,
84546168,1100,1100,1100,1100,,,,,
84548667,1100,1100,1100,1100,,,,,
84551166,1100,1100,1100,1100,,,,,
84553665,1100,1100,1100,1100,,,,,
84556164,1100,1100,1100,1100,,,,,
84558663,1100,1100,1100,1100,,,,,
84561162,1100,1100,1100,1100,,,,,
84563661,1100,1100,1100,1100,,,,,
84566160,1100,1100,1100,1100,,,,,
84568659,1100,1100,1100,1100,,,,,
84571158,1100,1100,1100,1100,,,,,
84573657,1100,1100,1100,1100,,,,,
84576156,1100,1100,1100,1100,,,,,
84578655,1100,1100,1100,1100,,,,,
84581154,1100,1100,1100,1100,,,,,
84583653,1100,1100,1100,1100,,,,,
84586152,1100,1100,1100,1100,,,,,
84588651,1100,1100,1100,1100,,,,,
84591150,1100,1100,1100,1100,,,,,
84593649,1100,1100,1100,1100,,,,,
84596148,1100,1100,1100,1100,,,,,
84598647,1100,1100,1100,1100,,,,,
84601146,1100,1100,1100,1100,,,,,
84603645,1100,1100,1100,1100,,,,,
84606144,1100,1100,1100,1100,,,,,
84608643,1100,1100,1100,1100,,,,,
84611142,1100,1100,1100,1100,,,,,
84613641,1100,1100,1100,1100,,,,,
84616140,1100,1100,1100,1100,,,,,
84618639,1100,1100,1100,1100,,,,,
84621138,1100,1100,1100,1100,,,,,
84623637,1100,1100,1100,1100,,,,,
84626136,1100,1100,1100,1100,,,,,
84628635,1100,1100,1100,1100,,,,,
84631134,1100,1100,1100,1100,,,,,
84633633,1100,1100,1100,1100,,,,,
84636132,1100,1100,1100,1100,,,,,
84638631,1100,1100,1100,1100,,,,,
84641130,1100,1100,1100,1100,,,,,
84643629,1100,1100,1100,1100,,,,,
84646128,1100,1100,1100,1100,,,,,
84648627,1100,1100,1100,1100,,,,,
84651126,1100,1100,1100,1100,,,,,
84653625,1100,1100,1100,1100,,,,,
84656124,1100,1100,1100,1100,,,,,
84658623,1100,1100,1100,1100,,,,,
84661122,1100,1100,1100,1100,,,,,
84663621,1100,1100,1100,1100,,,,,
84666120,1100,1100,1100,1100,,,,,
84668619,1100,1100,1100,1100,,,,,
84671118,1100,1100,1100,1100,,,,,
84673617,1100,1100,1100,1100,,,,,
84676116,1100,1100,1100,1100,,,,,
84678615,1100,1100,1100,1100,,,,,
84681114,1100,1100,1100,1100,,,,,
84683613,1100,1100,1100,1100,,,,,
84686112,1100,1100,1100,1100,,,,,
84688611,1100,1100,1100,1100,,,,,
84691110,1100,1100,1100,1100,,,,,
84693609,1100,1100,1100,1100,,,,,
84696108,1100,1100,1100,1100,,,,,
84698607,1100,1100,1100,1100,,,,,
84701106,1100,1100,1100,1100,,,,,
84703605,1100,1100,1100,1100,,,,,
84706104,1100,1100,1100,1100,,,,,
84708603,1100,1100,1100,1100,,,,,
84711102,1100,1100,1100,1100,,,,,
84713601,1100,1100,1100,1100,,,,,
84716100,1100,1100,1100,1100,,,,,
84718599,1100,1100,1100,1100,,,,,
84721098,1100,1100,1100,1100,,,,,
84723597,1100,1100,1100,1100,,,,,
84726096,1100,1100,1100,1100,,,,,
84728595,1100,1100,1100,1100,,,,,
84731094,1100,1100,1100,1100,,,,,
84733593,1100,1100,1100,1100,,,,,
84736092,1100,1100,1100,1100,,,,,
84738591,1100,1100,1100,1100,,,,,
84741090,1100,1100,1100,1100,,,,,
84743589,1100,1100,1100,1100,,,,,
84746088,1100,1100,1100,1100,,,,,
84748587,1100,1100,1100,1100,,,,,
84751086,1100,1100,1100,1100,,,,,
84753585,1100,1100,1100,1100,,,,,
84756084,1100,1100,1100,1100,,,,,
84758583,1100,1100,1100,1100,,,,,
84761082,1100,1100,1100,1100,,,,,
84763581,1100,1100,1100,1100,,,,,
84766080,1100,1100,1100,1100,,,,,
84768579,1100,1100,1100,1100,,,,,
84771078,1100,1100,1100,1100,,,,,
84773577,1100,1100,1100,1100,,,,,
84776076,1100,1100,1100,1100,,,,,
84778575,1100,1100,1100,1100,,,,,
84781074,1100,1100,1100,1100,,,,,
84783573,1100,1100,1100,1100,,,,,
84786072,1100,1100,1100,1100,,,,,
84788571,1100,1100,1100,1100,,,,,
84791070,1100,1100,1100,1100,,,,,
84793569,1100,1100,1100,1100,,,,,
84796068,1100,1100,1100,1100,,,,,
84798567,1100,1100,1100,1100,,,,,
84801066,1100,1100,1100,1100,,,,,
84803565,1100,1100,1100,1100,,,,,
84806064,1100,1100,1100,1100,,,,,
84808563,1100,1100,1100,1100,,,,,
84811062,1100,1100,1100,1100,,,,,
84813561,1100,1100,1100,1100,,,,,
84816060,1100,1100,1100,1100,,,,,
84818559,1100,1100,1100,1100,,,,,
84821058,1100,1100,1100,1100,,,,,
84823557,1100,1100,1100,1100,,,,,
84826056,1100,1100,1100,1100,,,,,
84828555,1100,1100,1100,1100,,,,,
84831054,1100,1100,1100,1100,,,,,
84833553,1100,1100,1100,1100,,,,,
84836052,1100,1100,1100,1100,,,,,
84838551,1100,1100,1100,1100,,,,,
84841050,1100,1100,1100,1100,,,,,
84843549,1100,1100,1100,1100,,,,,
84846048,1100,1100,1100,1100,,,,,
84848547,1100,1100,1100,1100,,,,,
84851046,1100,1100,1100,1100,,,,,
84853545,1100,1100,1100,1100,,,,,
84856044,1100,1100,1100,1100,,,,,
84858543,1100,1100,1100,1100,,,,,
84861042,1100,1100,1100,1100,,,,,
84863541,1100,1100,1100,1100,,,,,
84866040,1100,1100,1100,1100,,,,,
84868539,1100,1100,1100,1100,,,,,
84871038,1100,1100,1100,1100,,,,,
84873537,1100,1100,1100,1100,,,,,
84876036,1100,1100,1100,1100,,,,,
84878535,1100,1100,1100,1100,,,,,
84881034,1100,1100,1100,1100,,,,,
84883533,1100,1100,1100,1100,,,,,
84886032,1100,1100,1100,1100,,,,,
84888531,1100,1100,1100,1100,,,,,
84891030,1100,1100,1100,1100,,,,,
84893529,1100,1100,1100,1100,,,,,
84896028,1100,1100,1100,1100,,,,,
84898527,1100,1100,1100,1100,,,,,
84901026,1100,1100,1100,1100,,,,,
84903525,1100,1100,1100,1100,,,,,
84906024,1100,1100,1100,1100,,,,,
84908523,1100,1100,1100,1100,,,,,
84911022,1100,1100,1100,1100,,,,,
84913521,1100,1100,1100,1100,,,,,
84916020,1100,1100,1100,1100,,,,,
84918519,1100,1100,1100,1100,,,,,
84921018,1100,1100,1100,1100,,,,,
84923517,1100,1100,1100,1100,,,,,
84926016,1100,1100,1100,1100,,,,,
84928515,1100,1100,1100,1100,,,,,
84931014,1100,1100,1100,1100,,,,,
84933513,1100,1100,1100,1100,,,,,
84936012,1100,1100,1100,1100,,,,,
84938511,1100,1100,1100,1100,,,,,
84941010,1100,1100,1100,1100,,,,,
84943509,1100,1100,1100,1100,,,,,
84946008,1100,1100,1100,1100,,,,,
84948507,1100,1100,1100,1100,,,,,
84951006,1100,1100,1100,1100,,,,,
84953505,1100,1100,1100,1100,,,,,
84956004,1100,1100,1100,1100,,,,,
84958503,1100,1100,1100,1100,,,,,
84961002,1100,1100,1100,1100,,,,,
84963501,1100,1100,1100,1100,,,,,
84966000,1100,1100,1100,1100,,,,,
84968499,1100,1100,1100,1100,,,,,
84970998,1100,1100,1100,1100,,,,,
84973497,1100,1100,1100,1100,,,,,
84975996,1100,1100,1100,1100,,,,,
84978495,1100,1100,1100,1100,,,,,
84980994,1100,1100,1100,1100,,,,,
84983493,1100,1100,1100,1100,,,,,
84985992,1100,1100,1100,1100,,,,,
84988491,1100,1100,1100,1100,,,,,
84990990,1100,1100,1100,1100,,,,,
84993489,1100,1100,1100,1100,,,,,
84995988,1100,1100,1100,1100,,,,,
84998487,1100,1100,1100,1100,,,,,
85000986,1100,1100,1100,1100,,,,,
85003485,1100,1100,1100,1100,,,,,
85005984,1100,1100,1100,1100,,,,,
85008483,1100,1100,1100,1100,,,,,
85010982,1100,1100,1100,1100,,,,,
85013481,1100,1100,1100,1100,,,,,
85015980,1100,1100,1100,1100,,,,,
85018479,1100,1100,1100,1100,,,,,
85020978,1100,1100,1100,1100,,,,,
85023477,1100,1100,1100,1100,,,,,
85025976,1100,1100,1100,1100,,,,,
85028475,1100,1100,1100,1100,,,,,
85030974,1100,1100,1100,1100,,,,,
85033473,1100,1100,1100,1100,,,,,
85035972,1100,1100,1100,1100,,,,,
85038471,1100,1100,1100,1100,,,,,
85040970,1100,1100,1100,1100,,,,,
85043469,1100,1100,1100,1100,,,,,
85045968,1100,1100,1100,1100,,,,,
85048467,1100,1100,1100,1100,,,,,
85050966,1100,1100,1100,1100,,,,,
85053465,1100,1100,1100,1100,,,,,
85055964,1100,1100,1100,1100,,,,,
85058463,1100,1100,1100,1100,,,,,
85060962,1100,1100,1100,1100,,,,,
85063461,1100,1100,1100,1100,,,,,
85065960,1100,1100,1100,1100,,,,,
85068459,1100,1100,1100,1100,,,,,
85070958,1100,1100,1100,1100,,,,,
85073457,1100,1100,1100,1100,,,,,
85075956,1100,1100,1100,1100,,,,,
85078455,1100,1100,1100,1100,,,,,
85080954,1100,1100,1100,1100,,,,,
85083453,1100,1100,1100,1100,,,,,
85085952,1100,1100,1100,1100,,,,,
85088451,1100,1100,1100,1100,,,,,
85090950,1100,1100,1100,1100,,,,,
85093449,1100,1100,1100,1100,,,,,
85095948,1100,1100,1100,1100,,,,,
85098447,1100,1100,1100,1100,,,,,
85100946,1100,1100,1100,1100,,,,,
85103445,1100,1100,1100,1100,,,,,
85105944,1100,1100,1100,1100,,,,,
85108443,1100,1100,1100,1100,,,,,
85110942,1100,1100,1100,1100,,,,,
85113441,1100,1100,1100,1100,,,,,
85115940,1100,1100,1100,1100,,,,,
85118439,1100,1100,1100,1100,,,,,
85120938,1100,1100,1100,1100,,,,,
85123437,1100,1100,1100,1100,,,,,
85125936,1100,1100,1100,1100,,,,,
85128435,1100,1100,1100,1100,,,,,
85130934,1100,1100,1100,1100,,,,,
85133433,1100,1100,1100,1100,,,,,
85135932,1100,1100,1100,1100,,,,,
85138431,1100,1100,1100,1100,,,,,
85140930,1100,1100,1100,1100,,,,,
85143429,1100,1100,1100,1100,,,,,
85145928,1100,1100,1100,1100,,,,,
85148427,1100,1100,1100,1100,,,,,
85150926,1100,1100,1100,1100,,,,,
85153425,1100,1100,1100,1100,,,,,
85155924,1100,1100,1100,1100,,,,,
85158423,1100,1100,1100,1100,,,,,
85160922,1100,1100,1100,1100,,,,,
85163421,1100,1100,1100,1100,,,,,
85165920,1100,1100,1100,1100,,,,,
85168419,1100,1100,1100,1100,,,,,
85170918,1100,1100,1100,1100,,,,,
85173417,1100,1100,1100,1100,,,,,
85175916,1100,1100,1100,1100,,,,,
85178415,1100,1100,1100,1100,,,,,
85180914,1100,1100,1100,1100,,,,,
85183413,1100,1100,1100,1100,,,,,
85185912,1100,1100,1100,1100,,,,,
85188411,1100,1100,1100,1100,,,,,
85190910,1100,1100,1100,1100,,,,,
85193409,1100,1100,1100,1100,,,,,
85195908,1100,1100,1100,1100,,,,,
85198407,1100,1100,1100,1100,,,,,
85200906,1100,1100,1100,1100,,,,,
85203405,1100,1100,1100,1100,,,,,
85205904,1100,1100,1100,1100,,,,,
85208403,1100,1100,1100,1100,,,,,
85210902,1100,1100,1100,1100,,,,,
