timestamp,TimeUS,C1,C2,C3,C4,C5,C6,C7,C8,C9,C10,C11,C12,C13,C14
1706419688.00000000,94228960,1000,1000,1000,1000,0,0,0,0,0,0,0,0,0,0
1706419688.09995985,94328920,1000,1000,1000,1000,0,0,0,0,0,0,0,0,0,0
1706419688.19991994,94428880,1000,1000,1000,1000,0,0,0,0,0,0,0,0,0,0
1706419688.29988003,94528840,1000,1000,1000,1000,0,0,0,0,0,0,0,0,0,0
1706419688.39983988,94628800,1000,1000,1000,1000,0,0,0,0,0,0,0,0,0,0
1706419688.49979997,94728760,1000,1000,1000,1000,0,0,0,0,0,0,0,0,0,0
1706419688.59976006,94828720,1000,1000,1000,1000,0,0,0,0,0,0,0,0,0,0
1706419688.69971991,94928680,1000,1000,1000,1000,0,0,0,0,0,0,0,0,0,0
1706419688.79967999,95028640,1000,1000,1000,1000,0,0,0,0,0,0,0,0,0,0
1706419688.89963984,95128600,1000,1000,1000,1000,0,0,0,0,0,0,0,0,0,0
1706419688.99959993,95228560,1000,1000,1000,1000,0,0,0,0,0,0,0,0,0,0
1706419689.09956002,95328520,1000,1000,1000,1000,0,0,0,0,0,0,0,0,0,0
1706419689.19951987,95428480,1000,1000,1000,1000,0,0,0,0,0,0,0,0,0,0
1706419689.29947996,95528440,1000,1000,1000,1000,0,0,0,0,0,0,0,0,0,0
1706419689.39944005,95628400,1000,1000,1000,1000,0,0,0,0,0,0,0,0,0,0
1706419689.49939990,95728360,1000,1000,1000,1000,0,0,0,0,0,0,0,0,0,0
1706419689.59935999,95828320,1000,1000,1000,1000,0,0,0,0,0,0,0,0,0,0
1706419689.69932008,95928280,1000,1000,1000,1000,0,0,0,0,0,0,0,0,0,0
1706419689.79927993,96028240,1000,1000,1000,1000,0,0,0,0,0,0,0,0,0,0
1706419689.89924002,96128200,1000,1000,1000,1000,0,0,0,0,0,0,0,0,0,0
1706419689.99919987,96228160,1009,1009,1009,1009,0,0,0,0,0,0,0,0,0,0
1706419690.09999299,96328953,1039,1039,1039,1039,0,0,0,0,0,0,0,0,0,0
1706419690.19995308,96428913,1069,1069,1069,1069,0,0,0,0,0,0,0,0,0,0
1706419690.29991293,96528873,1099,1099,1099,1099,0,0,0,0,0,0,0,0,0,0
1706419690.39987302,96628833,1128,1128,1128,1128,0,0,0,0,0,0,0,0,0,0
1706419690.49983287,96728793,1239,1225,1226,1239,0,0,0,0,0,0,0,0,0,0
1706419690.59979296,96828753,1460,1450,1451,1460,0,0,0,0,0,0,0,0,0,0
1706419690.69975305,96928713,1628,1619,1620,1628,0,0,0,0,0,0,0,0,0,0
1706419690.79971290,97028673,1768,1760,1761,1768,0,0,0,0,0,0,0,0,0,0
1706419690.89967299,97128633,1815,1807,1807,1816,0,0,0,0,0,0,0,0,0,0
1706419690.99963307,97228593,1846,1839,1839,1847,0,0,0,0,0,0,0,0,0,0
1706419691.09959292,97328553,1766,1762,1763,1765,0,0,0,0,0,0,0,0,0,0
1706419691.19955301,97428513,1644,1646,1646,1645,0,0,0,0,0,0,0,0,0,0
1706419691.29951286,97528473,1600,1604,1603,1601,0,0,0,0,0,0,0,0,0,0
1706419691.39947295,97628433,1611,1615,1615,1611,0,0,0,0,0,0,0,0,0,0
1706419691.49943304,97728393,1631,1634,1634,1631,0,0,0,0,0,0,0,0,0,0
1706419691.59939289,97828353,1640,1642,1641,1640,0,0,0,0,0,0,0,0,0,0
1706419691.69935298,97928313,1639,1639,1638,1639,0,0,0,0,0,0,0,0,0,0
1706419691.79931307,98028273,1632,1631,1631,1632,0,0,0,0,0,0,0,0,0,0
1706419691.89927292,98128233,1627,1625,1625,1626,0,0,0,0,0,0,0,0,0,0
1706419691.99923301,98228193,1625,1624,1624,1625,0,0,0,0,0,0,0,0,0,0
1706419692.10002589,98328986,1612,1615,1614,1612,0,0,0,0,0,0,0,0,0,0
1706419692.19998598,98428946,1586,1586,1586,1586,0,0,0,0,0,0,0,0,0,0
1706419692.29994607,98528906,1584,1582,1576,1590,0,0,0,0,0,0,0,0,0,0
1706419692.39990592,98628866,1579,1578,1570,1586,0,0,0,0,0,0,0,0,0,0
1706419692.49986601,98728826,1577,1575,1571,1580,0,0,0,0,0,0,0,0,0,0
1706419692.59982586,98828786,1575,1576,1575,1576,0,0,0,0,0,0,0,0,0,0
1706419692.69978595,98928746,1577,1578,1579,1575,0,0,0,0,0,0,0,0,0,0
1706419692.79974604,99028706,1579,1580,1584,1575,0,0,0,0,0,0,0,0,0,0
1706419692.89970589,99128666,1568,1568,1578,1558,0,0,0,0,0,0,0,0,0,0
1706419692.99966598,99228626,1556,1557,1570,1544,0,0,0,0,0,0,0,0,0,0
1706419693.09962606,99328586,1548,1549,1554,1545,0,0,0,0,0,0,0,0,0,0
1706419693.19958591,99428546,1540,1539,1536,1544,0,0,0,0,0,0,0,0,0,0
1706419693.29954600,99528506,1536,1535,1528,1544,0,0,0,0,0,0,0,0,0,0
1706419693.39950585,99628466,1534,1533,1526,1542,0,0,0,0,0,0,0,0,0,0
1706419693.49946594,99728426,1534,1533,1528,1540,0,0,0,0,0,0,0,0,0,0
1706419693.59942603,99828386,1536,1536,1534,1537,0,0,0,0,0,0,0,0,0,0
1706419693.69938588,99928346,1539,1538,1540,1536,0,0,0,0,0,0,0,0,0,0
1706419693.79934597,100028306,1542,1542,1546,1538,0,0,0,0,0,0,0,0,0,0
1706419693.89930606,100128266,1546,1546,1550,1542,0,0,0,0,0,0,0,0,0,0
1706419693.99926591,100228226,1549,1549,1551,1546,0,0,0,0,0,0,0,0,0,0
1706419694.09922600,100328186,1551,1552,1552,1551,0,0,0,0,0,0,0,0,0,0
1706419694.20001888,100428979,1552,1551,1553,1556,0,0,0,0,0,0,0,0,0,0
1706419694.29997897,100528939,1551,1551,1557,1561,0,0,0,0,0,0,0,0,0,0
1706419694.39993906,100628899,1552,1552,1558,1562,0,0,0,0,0,0,0,0,0,0
1706419694.49989891,100728859,1556,1556,1561,1563,0,0,0,0,0,0,0,0,0,0
1706419694.59985900,100828819,1559,1559,1562,1563,0,0,0,0,0,0,0,0,0,0
1706419694.69981885,100928779,1562,1562,1563,1563,0,0,0,0,0,0,0,0,0,0
1706419694.79977894,101028739,1565,1565,1564,1563,0,0,0,0,0,0,0,0,0,0
1706419694.89973903,101128699,1568,1568,1565,1565,0,0,0,0,0,0,0,0,0,0
1706419694.99969888,101228659,1570,1569,1566,1565,0,0,0,0,0,0,0,0,0,0
1706419695.09965897,101328619,1571,1571,1566,1566,0,0,0,0,0,0,0,0,0,0
1706419695.19961905,101428579,1573,1573,1568,1568,0,0,0,0,0,0,0,0,0,0
1706419695.29957891,101528539,1572,1572,1568,1568,0,0,0,0,0,0,0,0,0,0
1706419695.39953899,101628499,1574,1573,1570,1570,0,0,0,0,0,0,0,0,0,0
1706419695.49949884,101728459,1573,1573,1570,1571,0,0,0,0,0,0,0,0,0,0
1706419695.59945893,101828419,1573,1573,1572,1572,0,0,0,0,0,0,0,0,0,0
1706419695.69941902,101928379,1573,1574,1574,1572,0,0,0,0,0,0,0,0,0,0
1706419695.79937887,102028339,1574,1574,1575,1573,0,0,0,0,0,0,0,0,0,0
1706419695.89933896,102128299,1575,1575,1577,1575,0,0,0,0,0,0,0,0,0,0
1706419695.99929905,102228259,1575,1575,1577,1576,0,0,0,0,0,0,0,0,0,0
1706419696.09925890,102328219,1576,1576,1577,1577,0,0,0,0,0,0,0,0,0,0
1706419696.19921899,102428179,1575,1575,1576,1577,0,0,0,0,0,0,0,0,0,0
1706419696.30001187,102528972,1576,1576,1577,1577,0,0,0,0,0,0,0,0,0,0
1706419696.39997196,102628932,1575,1575,1576,1576,0,0,0,0,0,0,0,0,0,0
1706419696.49993205,102728892,1576,1576,1576,1576,0,0,0,0,0,0,0,0,0,0
1706419696.59989190,102828852,1576,1576,1576,1576,0,0,0,0,0,0,0,0,0,0
1706419696.69985199,102928812,1578,1577,1577,1577,0,0,0,0,0,0,0,0,0,0
1706419696.79981208,103028772,1578,1578,1578,1578,0,0,0,0,0,0,0,0,0,0
1706419696.89977193,103128732,1578,1578,1577,1577,0,0,0,0,0,0,0,0,0,0
1706419696.99973202,103228692,1578,1578,1578,1578,0,0,0,0,0,0,0,0,0,0
1706419697.09969187,103328652,1578,1578,1577,1577,0,0,0,0,0,0,0,0,0,0
1706419697.19965196,103428612,1579,1579,1579,1579,0,0,0,0,0,0,0,0,0,0
1706419697.29961205,103528572,1579,1579,1579,1579,0,0,0,0,0,0,0,0,0,0
1706419697.39957190,103628532,1579,1579,1579,1579,0,0,0,0,0,0,0,0,0,0
1706419697.49953198,103728492,1579,1579,1579,1579,0,0,0,0,0,0,0,0,0,0
1706419697.59949207,103828452,1578,1579,1579,1578,0,0,0,0,0,0,0,0,0,0
1706419697.69945192,103928412,1578,1578,1578,1578,0,0,0,0,0,0,0,0,0,0
1706419697.79941201,104028372,1578,1578,1578,1579,0,0,0,0,0,0,0,0,0,0
1706419697.89937186,104128332,1578,1579,1579,1579,0,0,0,0,0,0,0,0,0,0
1706419697.99933195,104228292,1578,1578,1578,1579,0,0,0,0,0,0,0,0,0,0
1706419698.09929204,104328252,1578,1578,1579,1579,0,0,0,0,0,0,0,0,0,0
1706419698.19925189,104428212,1578,1578,1579,1579,0,0,0,0,0,0,0,0,0,0
1706419698.29921198,104528172,1579,1579,1579,1579,0,0,0,0,0,0,0,0,0,0
1706419698.40000486,104628965,1579,1579,1580,1579,0,0,0,0,0,0,0,0,0,0
1706419698.49996495,104728925,1580,1580,1580,1580,0,0,0,0,0,0,0,0,0,0
1706419698.59992504,104828885,1580,1580,1580,1580,0,0,0,0,0,0,0,0,0,0
1706419698.69988489,104928845,1580,1579,1579,1580,0,0,0,0,0,0,0,0,0,0
1706419698.79984498,105028805,1580,1580,1580,1580,0,0,0,0,0,0,0,0,0,0
1706419698.89980507,105128765,1579,1579,1579,1579,0,0,0,0,0,0,0,0,0,0
1706419698.99976492,105228725,1580,1580,1580,1580,0,0,0,0,0,0,0,0,0,0
1706419699.09972501,105328685,1580,1579,1579,1579,0,0,0,0,0,0,0,0,0,0
1706419699.19968486,105428645,1581,1581,1581,1580,0,0,0,0,0,0,0,0,0,0
1706419699.29964495,105528605,1580,1580,1580,1580,0,0,0,0,0,0,0,0,0,0
1706419699.39960504,105628565,1580,1580,1580,1580,0,0,0,0,0,0,0,0,0,0
1706419699.49956489,105728525,1580,1580,1580,1580,0,0,0,0,0,0,0,0,0,0
1706419699.59952497,105828485,1580,1581,1580,1581,0,0,0,0,0,0,0,0,0,0
1706419699.69948506,105928445,1580,1580,1580,1581,0,0,0,0,0,0,0,0,0,0
1706419699.79944491,106028405,1580,1580,1580,1581,0,0,0,0,0,0,0,0,0,0
1706419699.89940500,106128365,1580,1580,1581,1580,0,0,0,0,0,0,0,0,0,0
1706419699.99936485,106228325,1580,1580,1580,1580,0,0,0,0,0,0,0,0,0,0
1706419700.09932494,106328285,1580,1580,1580,1580,0,0,0,0,0,0,0,0,0,0
1706419700.19928503,106428245,1581,1581,1581,1581,0,0,0,0,0,0,0,0,0,0
1706419700.29924488,106528205,1582,1582,1582,1582,0,0,0,0,0,0,0,0,0,0
1706419700.39920497,106628165,1582,1582,1582,1582,0,0,0,0,0,0,0,0,0,0
1706419700.49999785,106728958,1581,1582,1585,1578,0,0,0,0,0,0,0,0,0,0
1706419700.59995794,106828918,1580,1583,1588,1573,0,0,0,0,0,0,0,0,0,0
1706419700.69991803,106928878,1579,1582,1581,1573,0,0,0,0,0,0,0,0,0,0
1706419700.79987788,107028838,1577,1581,1572,1572,0,0,0,0,0,0,0,0,0,0
1706419700.89983797,107128798,1577,1579,1564,1570,0,0,0,0,0,0,0,0,0,0
1706419700.99979806,107228758,1577,1579,1558,1565,0,0,0,0,0,0,0,0,0,0
1706419701.09975791,107328718,1579,1579,1556,1561,0,0,0,0,0,0,0,0,0,0
1706419701.19971800,107428678,1579,1578,1555,1557,0,0,0,0,0,0,0,0,0,0
1706419701.29967785,107528638,1580,1578,1555,1555,0,0,0,0,0,0,0,0,0,0
1706419701.39963794,107628598,1580,1579,1556,1554,0,0,0,0,0,0,0,0,0,0
1706419701.49959803,107728558,1579,1579,1556,1554,0,0,0,0,0,0,0,0,0,0
1706419701.59955788,107828518,1576,1577,1555,1553,0,0,0,0,0,0,0,0,0,0
1706419701.69951797,107928478,1575,1577,1554,1553,0,0,0,0,0,0,0,0,0,0
1706419701.79947805,108028438,1576,1577,1553,1554,0,0,0,0,0,0,0,0,0,0
1706419701.89943790,108128398,1575,1577,1552,1552,0,0,0,0,0,0,0,0,0,0
1706419701.99939799,108228358,1576,1578,1550,1551,0,0,0,0,0,0,0,0,0,0
1706419702.09935808,108328318,1577,1578,1548,1548,0,0,0,0,0,0,0,0,0,0
1706419702.19931793,108428278,1580,1581,1546,1546,0,0,0,0,0,0,0,0,0,0
1706419702.29927802,108528238,1583,1584,1544,1543,0,0,0,0,0,0,0,0,0,0
1706419702.39923787,108628198,1586,1586,1541,1540,0,0,0,0,0,0,0,0,0,0
1706419702.49919796,108728158,1589,1589,1539,1538,0,0,0,0,0,0,0,0,0,0
1706419702.59999084,108828951,1591,1591,1535,1536,0,0,0,0,0,0,0,0,0,0
1706419702.69995093,108928911,1594,1593,1535,1536,0,0,0,0,0,0,0,0,0,0
1706419702.79991102,109028871,1594,1594,1534,1535,0,0,0,0,0,0,0,0,0,0
1706419702.89987087,109128831,1594,1594,1535,1537,0,0,0,0,0,0,0,0,0,0
1706419702.99983096,109228791,1594,1594,1539,1541,0,0,0,0,0,0,0,0,0,0
1706419703.09979105,109328751,1590,1589,1543,1546,0,0,0,0,0,0,0,0,0,0
1706419703.19975090,109428711,1584,1582,1550,1553,0,0,0,0,0,0,0,0,0,0
1706419703.29971099,109528671,1577,1574,1560,1563,0,0,0,0,0,0,0,0,0,0
1706419703.39967108,109628631,1568,1564,1572,1574,0,0,0,0,0,0,0,0,0,0
1706419703.49963093,109728591,1557,1553,1585,1586,0,0,0,0,0,0,0,0,0,0
1706419703.59959102,109828551,1545,1543,1596,1596,0,0,0,0,0,0,0,0,0,0
1706419703.69955087,109928511,1536,1535,1605,1605,0,0,0,0,0,0,0,0,0,0
1706419703.79951096,110028471,1531,1532,1612,1612,0,0,0,0,0,0,0,0,0,0
1706419703.89947104,110128431,1529,1531,1615,1614,0,0,0,0,0,0,0,0,0,0
1706419703.99943089,110228391,1530,1532,1613,1613,0,0,0,0,0,0,0,0,0,0
1706419704.09939098,110328351,1535,1537,1610,1609,0,0,0,0,0,0,0,0,0,0
1706419704.19935107,110428311,1543,1545,1605,1605,0,0,0,0,0,0,0,0,0,0
1706419704.29931092,110528271,1551,1552,1597,1597,0,0,0,0,0,0,0,0,0,0
1706419704.39927101,110628231,1560,1561,1590,1590,0,0,0,0,0,0,0,0,0,0
1706419704.49923086,110728191,1569,1569,1583,1583,0,0,0,0,0,0,0,0,0,0
1706419704.60002398,110828984,1576,1575,1576,1576,0,0,0,0,0,0,0,0,0,0
1706419704.69998407,110928944,1582,1581,1571,1571,0,0,0,0,0,0,0,0,0,0
1706419704.79994392,111028904,1585,1584,1567,1567,0,0,0,0,0,0,0,0,0,0
1706419704.89990401,111128864,1588,1586,1566,1566,0,0,0,0,0,0,0,0,0,0
1706419704.99986386,111228824,1588,1586,1567,1566,0,0,0,0,0,0,0,0,0,0
1706419705.09982395,111328784,1586,1584,1566,1567,0,0,0,0,0,0,0,0,0,0
1706419705.19978404,111428744,1583,1582,1569,1569,0,0,0,0,0,0,0,0,0,0
1706419705.29974389,111528704,1581,1580,1572,1572,0,0,0,0,0,0,0,0,0,0
1706419705.39970398,111628664,1578,1579,1576,1576,0,0,0,0,0,0,0,0,0,0
1706419705.49966407,111728624,1576,1576,1579,1579,0,0,0,0,0,0,0,0,0,0
1706419705.59962392,111828584,1574,1575,1581,1581,0,0,0,0,0,0,0,0,0,0
1706419705.69958401,111928544,1573,1574,1583,1583,0,0,0,0,0,0,0,0,0,0
1706419705.79954386,112028504,1571,1572,1583,1583,0,0,0,0,0,0,0,0,0,0
1706419705.89950395,112128464,1573,1574,1585,1585,0,0,0,0,0,0,0,0,0,0
1706419705.99946404,112228424,1573,1574,1584,1584,0,0,0,0,0,0,0,0,0,0
1706419706.09942389,112328384,1576,1576,1584,1584,0,0,0,0,0,0,0,0,0,0
1706419706.19938397,112428344,1577,1577,1583,1582,0,0,0,0,0,0,0,0,0,0
1706419706.29934406,112528304,1578,1577,1581,1581,0,0,0,0,0,0,0,0,0,0
1706419706.39930391,112628264,1580,1579,1580,1580,0,0,0,0,0,0,0,0,0,0
1706419706.49926400,112728224,1231,1579,1579,1579,0,0,0,0,0,0,0,0,0,0
1706419706.59922385,112828184,1498,1525,1601,1605,0,0,0,0,0,0,0,0,0,0
1706419706.70001698,112928977,1556,1521,1604,1610,0,0,0,0,0,0,0,0,0,0
1706419706.79997706,113028937,1600,1540,1607,1613,0,0,0,0,0,0,0,0,0,0
1706419706.89993691,113128897,1629,1572,1609,1614,0,0,0,0,0,0,0,0,0,0
1706419706.99989700,113228857,1639,1601,1605,1608,0,0,0,0,0,0,0,0,0,0
1706419707.09985685,113328817,1633,1619,1597,1597,0,0,0,0,0,0,0,0,0,0
1706419707.19981694,113428777,1623,1630,1589,1587,0,0,0,0,0,0,0,0,0,0
1706419707.29977703,113528737,1615,1632,1585,1579,0,0,0,0,0,0,0,0,0,0
1706419707.39973688,113628697,1610,1630,1583,1575,0,0,0,0,0,0,0,0,0,0
1706419707.49969697,113728657,1609,1625,1583,1575,0,0,0,0,0,0,0,0,0,0
1706419707.59965706,113828617,1609,1618,1584,1577,0,0,0,0,0,0,0,0,0,0
1706419707.69961691,113928577,1606,1608,1582,1578,0,0,0,0,0,0,0,0,0,0
1706419707.79957700,114028537,1602,1599,1581,1580,0,0,0,0,0,0,0,0,0,0
1706419707.89953685,114128497,1596,1592,1579,1581,0,0,0,0,0,0,0,0,0,0
1706419707.99949694,114228457,1589,1588,1579,1582,0,0,0,0,0,0,0,0,0,0
1706419708.09945703,114328417,1582,1583,1578,1582,0,0,0,0,0,0,0,0,0,0
1706419708.19941688,114428377,1577,1581,1578,1581,0,0,0,0,0,0,0,0,0,0
1706419708.29937696,114528337,1574,1580,1579,1581,0,0,0,0,0,0,0,0,0,0
1706419708.39933705,114628297,1573,1578,1580,1580,0,0,0,0,0,0,0,0,0,0
1706419708.49929690,114728257,1575,1577,1586,1575,0,0,0,0,0,0,0,0,0,0
1706419708.59925699,114828217,1577,1576,1585,1569,0,0,0,0,0,0,0,0,0,0
1706419708.69921708,114928177,1576,1575,1575,1569,0,0,0,0,0,0,0,0,0,0
1706419708.80000997,115028970,1575,1576,1568,1570,0,0,0,0,0,0,0,0,0,0
1706419708.89997005,115128930,1572,1573,1561,1568,0,0,0,0,0,0,0,0,0,0
1706419708.99992990,115228890,1570,1571,1558,1565,0,0,0,0,0,0,0,0,0,0
1706419709.09988999,115328850,1569,1569,1557,1562,0,0,0,0,0,0,0,0,0,0
1706419709.19984984,115428810,1568,1569,1556,1559,0,0,0,0,0,0,0,0,0,0
1706419709.29980993,115528770,1569,1570,1557,1557,0,0,0,0,0,0,0,0,0,0
1706419709.39977002,115628730,1570,1571,1557,1555,0,0,0,0,0,0,0,0,0,0
1706419709.49972987,115728690,1570,1571,1556,1553,0,0,0,0,0,0,0,0,0,0
1706419709.59968996,115828650,1572,1572,1555,1553,0,0,0,0,0,0,0,0,0,0
1706419709.69965005,115928610,1572,1572,1553,1551,0,0,0,0,0,0,0,0,0,0
1706419709.79960990,116028570,1572,1572,1550,1550,0,0,0,0,0,0,0,0,0,0
1706419709.89956999,116128530,1574,1574,1549,1549,0,0,0,0,0,0,0,0,0,0
1706419709.99953008,116228490,1574,1575,1546,1547,0,0,0,0,0,0,0,0,0,0
1706419710.09948993,116328450,1576,1577,1544,1545,0,0,0,0,0,0,0,0,0,0
1706419710.19945002,116428410,1578,1580,1542,1542,0,0,0,0,0,0,0,0,0,0
1706419710.29940987,116528370,1580,1582,1540,1539,0,0,0,0,0,0,0,0,0,0
1706419710.39936996,116628330,1584,1585,1538,1536,0,0,0,0,0,0,0,0,0,0
1706419710.49933004,116728290,1587,1587,1534,1534,0,0,0,0,0,0,0,0,0,0
1706419710.59928989,116828250,1591,1591,1533,1532,0,0,0,0,0,0,0,0,0,0
1706419710.69924998,116928210,1594,1593,1531,1531,0,0,0,0,0,0,0,0,0,0
1706419710.79921007,117028170,1596,1595,1528,1530,0,0,0,0,0,0,0,0,0,0
1706419710.90000296,117128963,1597,1596,1530,1531,0,0,0,0,0,0,0,0,0,0
1706419710.99996305,117228923,1597,1595,1532,1535,0,0,0,0,0,0,0,0,0,0
1706419711.09992290,117328883,1594,1593,1536,1539,0,0,0,0,0,0,0,0,0,0
1706419711.19988298,117428843,1590,1587,1541,1544,0,0,0,0,0,0,0,0,0,0
1706419711.29984307,117528803,1583,1580,1548,1551,0,0,0,0,0,0,0,0,0,0
1706419711.39980292,117628763,1574,1571,1556,1560,0,0,0,0,0,0,0,0,0,0
1706419711.49976301,117728723,1565,1561,1568,1570,0,0,0,0,0,0,0,0,0,0
1706419711.59972286,117828683,1552,1551,1578,1580,0,0,0,0,0,0,0,0,0,0
1706419711.69968295,117928643,1540,1540,1590,1592,0,0,0,0,0,0,0,0,0,0
1706419711.79964304,118028603,1529,1530,1600,1601,0,0,0,0,0,0,0,0,0,0
1706419711.89960289,118128563,1523,1525,1609,1609,0,0,0,0,0,0,0,0,0,0
1706419711.99956298,118228523,1519,1522,1611,1611,0,0,0,0,0,0,0,0,0,0
1706419712.09952307,118328483,1520,1523,1612,1610,0,0,0,0,0,0,0,0,0,0
1706419712.19948292,118428443,1526,1529,1610,1609,0,0,0,0,0,0,0,0,0,0
1706419712.29944301,118528403,1533,1535,1604,1603,0,0,0,0,0,0,0,0,0,0
1706419712.39940286,118628363,1543,1543,1596,1596,0,0,0,0,0,0,0,0,0,0
1706419712.49936295,118728323,1551,1550,1587,1587,0,0,0,0,0,0,0,0,0,0
1706419712.59932303,118828283,1561,1560,1580,1580,0,0,0,0,0,0,0,0,0,0
1706419712.69928288,118928243,1569,1567,1573,1573,0,0,0,0,0,0,0,0,0,0
1706419712.79924297,119028203,1576,1573,1567,1568,0,0,0,0,0,0,0,0,0,0
1706419712.89920306,119128163,1581,1579,1565,1565,0,0,0,0,0,0,0,0,0,0
1706419712.99999595,119228956,1584,1583,1563,1564,0,0,0,0,0,0,0,0,0,0
1706419713.09995604,119328916,1586,1584,1564,1564,0,0,0,0,0,0,0,0,0,0
1706419713.19991589,119428876,1585,1584,1566,1565,0,0,0,0,0,0,0,0,0,0
1706419713.29987597,119528836,1584,1583,1568,1568,0,0,0,0,0,0,0,0,0,0
1706419713.39983606,119628796,1583,1582,1572,1571,0,0,0,0,0,0,0,0,0,0
1706419713.49979591,119728756,1581,1580,1575,1574,0,0,0,0,0,0,0,0,0,0
1706419713.59975600,119828716,1579,1579,1578,1578,0,0,0,0,0,0,0,0,0,0
1706419713.69971585,119928676,1576,1577,1579,1579,0,0,0,0,0,0,0,0,0,0
1706419713.79967594,120028636,1574,1575,1581,1581,0,0,0,0,0,0,0,0,0,0
1706419713.89963603,120128596,1573,1574,1582,1582,0,0,0,0,0,0,0,0,0,0
1706419713.99959588,120228556,1572,1573,1582,1582,0,0,0,0,0,0,0,0,0,0
1706419714.09955597,120328516,1572,1574,1582,1582,0,0,0,0,0,0,0,0,0,0
1706419714.19951606,120428476,1573,1574,1581,1581,0,0,0,0,0,0,0,0,0,0
1706419714.29947591,120528436,1574,1575,1581,1581,0,0,0,0,0,0,0,0,0,0
1706419714.39943600,120628396,1576,1577,1581,1580,0,0,0,0,0,0,0,0,0,0
1706419714.49939585,120728356,1578,1578,1579,1579,0,0,0,0,0,0,0,0,0,0
1706419714.59935594,120828316,1579,1578,1578,1578,0,0,0,0,0,0,0,0,0,0
1706419714.69931602,120928276,1581,1580,1578,1578,0,0,0,0,0,0,0,0,0,0
1706419714.79927588,121028236,1581,1581,1578,1577,0,0,0,0,0,0,0,0,0,0
1706419714.89923596,121128196,1582,1582,1577,1578,0,0,0,0,0,0,0,0,0,0
1706419714.99919605,121228156,1582,1582,1577,1577,0,0,0,0,0,0,0,0,0,0
1706419715.09998894,121328949,1582,1582,1577,1577,0,0,0,0,0,0,0,0,0,0
1706419715.19994903,121428909,1582,1581,1578,1577,0,0,0,0,0,0,0,0,0,0
1706419715.29990888,121528869,1581,1580,1577,1578,0,0,0,0,0,0,0,0,0,0
1706419715.39986897,121628829,1581,1581,1579,1579,0,0,0,0,0,0,0,0,0,0
1706419715.49982905,121728789,1580,1581,1580,1580,0,0,0,0,0,0,0,0,0,0
1706419715.59978890,121828749,1580,1580,1580,1580,0,0,0,0,0,0,0,0,0,0
1706419715.69974899,121928709,1580,1579,1580,1580,0,0,0,0,0,0,0,0,0,0
1706419715.79970908,122028669,1580,1581,1582,1581,0,0,0,0,0,0,0,0,0,0
1706419715.89966893,122128629,1579,1579,1580,1581,0,0,0,0,0,0,0,0,0,0
1706419715.99962902,122228589,1579,1580,1581,1581,0,0,0,0,0,0,0,0,0,0
1706419716.09958887,122328549,1579,1580,1581,1581,0,0,0,0,0,0,0,0,0,0
1706419716.19954896,122428509,1579,1579,1581,1580,0,0,0,0,0,0,0,0,0,0
1706419716.29950905,122528469,1581,1580,1581,1581,0,0,0,0,0,0,0,0,0,0
1706419716.39946890,122628429,1581,1581,1581,1581,0,0,0,0,0,0,0,0,0,0
1706419716.49942899,122728389,1581,1581,1581,1581,0,0,0,0,0,0,0,0,0,0
1706419716.59938908,122828349,1581,1582,1581,1581,0,0,0,0,0,0,0,0,0,0
1706419716.69934893,122928309,1582,1582,1581,1581,0,0,0,0,0,0,0,0,0,0
1706419716.79930902,123028269,1581,1581,1581,1580,0,0,0,0,0,0,0,0,0,0
1706419716.89926887,123128229,1581,1581,1580,1580,0,0,0,0,0,0,0,0,0,0
1706419716.99922895,123228189,1582,1582,1581,1581,0,0,0,0,0,0,0,0,0,0
1706419717.10002208,123328982,1581,1581,1580,1580,0,0,0,0,0,0,0,0,0,0
1706419717.19998193,123428942,1582,1582,1581,1581,0,0,0,0,0,0,0,0,0,0
1706419717.29994202,123528902,1582,1581,1581,1581,0,0,0,0,0,0,0,0,0,0
1706419717.39990187,123628862,1582,1582,1581,1581,0,0,0,0,0,0,0,0,0,0
1706419717.49986196,123728822,1581,1580,1580,1581,0,0,0,0,0,0,0,0,0,0
1706419717.59982204,123828782,1581,1582,1585,1578,0,0,0,0,0,0,0,0,0,0
1706419717.69978189,123928742,1581,1582,1588,1573,0,0,0,0,0,0,0,0,0,0
1706419717.79974198,124028702,1580,1582,1582,1573,0,0,0,0,0,0,0,0,0,0
1706419717.89970207,124128662,1578,1580,1572,1573,0,0,0,0,0,0,0,0,0,0
1706419717.99966192,124228622,1577,1580,1565,1570,0,0,0,0,0,0,0,0,0,0
1706419718.09962201,124328582,1576,1579,1559,1566,0,0,0,0,0,0,0,0,0,0
1706419718.19958186,124428542,1578,1579,1556,1561,0,0,0,0,0,0,0,0,0,0
1706419718.29954195,124528502,1579,1579,1556,1558,0,0,0,0,0,0,0,0,0,0
1706419718.39950204,124628462,1579,1579,1556,1555,0,0,0,0,0,0,0,0,0,0
1706419718.49946189,124728422,1580,1578,1556,1555,0,0,0,0,0,0,0,0,0,0
1706419718.59942198,124828382,1579,1579,1557,1554,0,0,0,0,0,0,0,0,0,0
1706419718.69938207,124928342,1578,1578,1556,1555,0,0,0,0,0,0,0,0,0,0
1706419718.79934192,125028302,1577,1578,1556,1555,0,0,0,0,0,0,0,0,0,0
1706419718.89930201,125128262,1577,1578,1555,1555,0,0,0,0,0,0,0,0,0,0
1706419718.99926186,125228222,1576,1578,1554,1553,0,0,0,0,0,0,0,0,0,0
1706419719.09922194,125328182,1576,1578,1551,1552,0,0,0,0,0,0,0,0,0,0
1706419719.20001507,125428975,1577,1579,1550,1550,0,0,0,0,0,0,0,0,0,0
1706419719.29997492,125528935,1579,1580,1548,1548,0,0,0,0,0,0,0,0,0,0
1706419719.39993501,125628895,1581,1582,1546,1545,0,0,0,0,0,0,0,0,0,0
1706419719.49989486,125728855,1584,1586,1545,1544,0,0,0,0,0,0,0,0,0,0
1706419719.59985495,125828815,1587,1587,1542,1541,0,0,0,0,0,0,0,0,0,0
1706419719.69981503,125928775,1590,1590,1540,1540,0,0,0,0,0,0,0,0,0,0
1706419719.79977489,126028735,1592,1592,1539,1540,0,0,0,0,0,0,0,0,0,0
1706419719.89973497,126128695,1593,1592,1537,1538,0,0,0,0,0,0,0,0,0,0
1706419719.99969506,126228655,1593,1593,1538,1540,0,0,0,0,0,0,0,0,0,0
1706419720.09965491,126328615,1592,1592,1540,1543,0,0,0,0,0,0,0,0,0,0
1706419720.19961500,126428575,1591,1590,1544,1546,0,0,0,0,0,0,0,0,0,0
1706419720.29957485,126528535,1587,1585,1550,1553,0,0,0,0,0,0,0,0,0,0
1706419720.39953494,126628495,1580,1577,1556,1559,0,0,0,0,0,0,0,0,0,0
1706419720.49949503,126728455,1573,1569,1567,1570,0,0,0,0,0,0,0,0,0,0
1706419720.59945488,126828415,1564,1560,1579,1580,0,0,0,0,0,0,0,0,0,0
1706419720.69941497,126928375,1553,1551,1589,1590,0,0,0,0,0,0,0,0,0,0
1706419720.79937506,127028335,1544,1543,1598,1598,0,0,0,0,0,0,0,0,0,0
1706419720.89933491,127128295,1537,1538,1605,1605,0,0,0,0,0,0,0,0,0,0
1706419720.99929500,127228255,1533,1536,1610,1609,0,0,0,0,0,0,0,0,0,0
1706419721.09925485,127328215,1532,1534,1611,1609,0,0,0,0,0,0,0,0,0,0
1706419721.19921494,127428175,1535,1538,1610,1609,0,0,0,0,0,0,0,0,0,0
1706419721.30000806,127528968,1540,1543,1607,1606,0,0,0,0,0,0,0,0,0,0
1706419721.39996791,127628928,1547,1549,1601,1601,0,0,0,0,0,0,0,0,0,0
1706419721.49992800,127728888,1555,1556,1594,1594,0,0,0,0,0,0,0,0,0,0
1706419721.59988785,127828848,1563,1563,1587,1586,0,0,0,0,0,0,0,0,0,0
1706419721.69984794,127928808,1570,1569,1581,1580,0,0,0,0,0,0,0,0,0,0
1706419721.79980803,128028768,1577,1574,1575,1575,0,0,0,0,0,0,0,0,0,0
1706419721.89976788,128128728,1582,1580,1571,1572,0,0,0,0,0,0,0,0,0,0
1706419721.99972796,128228688,1585,1583,1569,1569,0,0,0,0,0,0,0,0,0,0
1706419722.09968805,128328648,1586,1584,1567,1567,0,0,0,0,0,0,0,0,0,0
1706419722.19964790,128428608,1586,1585,1567,1567,0,0,0,0,0,0,0,0,0,0
1706419722.29960799,128528568,1586,1584,1569,1570,0,0,0,0,0,0,0,0,0,0
1706419722.39956808,128628528,1584,1584,1572,1572,0,0,0,0,0,0,0,0,0,0
1706419722.49952793,128728488,1582,1582,1574,1574,0,0,0,0,0,0,0,0,0,0
1706419722.59948802,128828448,1580,1581,1578,1578,0,0,0,0,0,0,0,0,0,0
1706419722.69944787,128928408,1577,1578,1580,1580,0,0,0,0,0,0,0,0,0,0
1706419722.79940796,129028368,1575,1577,1582,1581,0,0,0,0,0,0,0,0,0,0
1706419722.89936805,129128328,1574,1574,1582,1582,0,0,0,0,0,0,0,0,0,0
1706419722.99932790,129228288,1574,1575,1584,1584,0,0,0,0,0,0,0,0,0,0
1706419723.09928799,129328248,1573,1574,1583,1583,0,0,0,0,0,0,0,0,0,0
1706419723.19924808,129428208,1573,1574,1582,1582,0,0,0,0,0,0,0,0,0,0
1706419723.29920793,129528168,1575,1575,1582,1582,0,0,0,0,0,0,0,0,0,0
1706419723.40000105,129628961,1576,1576,1581,1581,0,0,0,0,0,0,0,0,0,0
1706419723.49996090,129728921,1577,1577,1580,1580,0,0,0,0,0,0,0,0,0,0
1706419723.59992099,129828881,1578,1578,1579,1579,0,0,0,0,0,0,0,0,0,0
1706419723.69988108,129928841,1579,1579,1578,1578,0,0,0,0,0,0,0,0,0,0
1706419723.79984093,130028801,1580,1580,1578,1578,0,0,0,0,0,0,0,0,0,0
1706419723.89980102,130128761,1581,1580,1577,1578,0,0,0,0,0,0,0,0,0,0
1706419723.99976087,130228721,1581,1581,1577,1577,0,0,0,0,0,0,0,0,0,0
1706419724.09972095,130328681,1581,1581,1578,1578,0,0,0,0,0,0,0,0,0,0
1706419724.19968104,130428641,1581,1581,1578,1578,0,0,0,0,0,0,0,0,0,0
1706419724.29964089,130528601,1582,1581,1579,1579,0,0,0,0,0,0,0,0,0,0
1706419724.39960098,130628561,1581,1581,1579,1579,0,0,0,0,0,0,0,0,0,0
1706419724.49956107,130728521,1580,1580,1579,1579,0,0,0,0,0,0,0,0,0,0
1706419724.59952092,130828481,1580,1580,1580,1580,0,0,0,0,0,0,0,0,0,0
1706419724.69948101,130928441,1579,1579,1580,1580,0,0,0,0,0,0,0,0,0,0
1706419724.79944086,131028401,1579,1579,1580,1580,0,0,0,0,0,0,0,0,0,0
1706419724.89940095,131128361,1579,1579,1580,1580,0,0,0,0,0,0,0,0,0,0
1706419724.99936104,131228321,1579,1579,1581,1581,0,0,0,0,0,0,0,0,0,0
1706419725.09932089,131328281,1580,1580,1582,1582,0,0,0,0,0,0,0,0,0,0
1706419725.19928098,131428241,1579,1579,1581,1581,0,0,0,0,0,0,0,0,0,0
1706419725.29924107,131528201,1580,1580,1581,1581,0,0,0,0,0,0,0,0,0,0
1706419725.39920092,131628161,1580,1581,1581,1581,0,0,0,0,0,0,0,0,0,0
1706419725.49999404,131728954,1580,1580,1581,1581,0,0,0,0,0,0,0,0,0,0
1706419725.59995389,131828914,1581,1582,1583,1579,0,0,0,0,0,0,0,0,0,0
1706419725.69991398,131928874,1582,1582,1588,1573,0,0,0,0,0,0,0,0,0,0
1706419725.79987407,132028834,1581,1580,1584,1574,0,0,0,0,0,0,0,0,0,0
1706419725.89983392,132128794,1578,1577,1576,1575,0,0,0,0,0,0,0,0,0,0
1706419725.99979401,132228754,1575,1574,1569,1574,0,0,0,0,0,0,0,0,0,0
1706419726.09975386,132328714,1572,1571,1566,1573,0,0,0,0,0,0,0,0,0,0
1706419726.19971395,132428674,1569,1569,1564,1570,0,0,0,0,0,0,0,0,0,0
1706419726.29967403,132528634,1567,1568,1565,1568,0,0,0,0,0,0,0,0,0,0
1706419726.39963388,132628594,1566,1567,1565,1566,0,0,0,0,0,0,0,0,0,0
1706419726.49959397,132728554,1565,1566,1567,1565,0,0,0,0,0,0,0,0,0,0
1706419726.59955406,132828514,1565,1565,1567,1564,0,0,0,0,0,0,0,0,0,0
1706419726.69951391,132928474,1564,1564,1566,1564,0,0,0,0,0,0,0,0,0,0
1706419726.79947400,133028434,1564,1563,1566,1564,0,0,0,0,0,0,0,0,0,0
1706419726.89943385,133128394,1563,1562,1564,1564,0,0,0,0,0,0,0,0,0,0
1706419726.99939394,133228354,1562,1562,1564,1564,0,0,0,0,0,0,0,0,0,0
1706419727.09935403,133328314,1562,1562,1563,1563,0,0,0,0,0,0,0,0,0,0
1706419727.19931388,133428274,1561,1561,1562,1562,0,0,0,0,0,0,0,0,0,0
1706419727.29927397,133528234,1561,1560,1561,1561,0,0,0,0,0,0,0,0,0,0
1706419727.39923406,133628194,1561,1561,1561,1561,0,0,0,0,0,0,0,0,0,0
1706419727.49919391,133728154,1561,1561,1561,1560,0,0,0,0,0,0,0,0,0,0
1706419727.59998703,133828947,1560,1560,1560,1559,0,0,0,0,0,0,0,0,0,0
1706419727.69994688,133928907,1561,1561,1561,1560,0,0,0,0,0,0,0,0,0,0
1706419727.79990697,134028867,1560,1559,1559,1558,0,0,0,0,0,0,0,0,0,0
1706419727.89986706,134128827,1560,1559,1560,1559,0,0,0,0,0,0,0,0,0,0
1706419727.99982691,134228787,1559,1560,1560,1558,0,0,0,0,0,0,0,0,0,0
1706419728.09978700,134328747,1558,1558,1559,1557,0,0,0,0,0,0,0,0,0,0
1706419728.19974685,134428707,1558,1558,1559,1557,0,0,0,0,0,0,0,0,0,0
1706419728.29970694,134528667,1558,1558,1559,1557,0,0,0,0,0,0,0,0,0,0
1706419728.39966702,134628627,1559,1559,1561,1558,0,0,0,0,0,0,0,0,0,0
1706419728.49962687,134728587,1559,1559,1559,1561,0,0,0,0,0,0,0,0,0,0
1706419728.59958696,134828547,1560,1560,1557,1563,0,0,0,0,0,0,0,0,0,0
1706419728.69954705,134928507,1560,1560,1557,1564,0,0,0,0,0,0,0,0,0,0
1706419728.79950690,135028467,1561,1562,1559,1564,0,0,0,0,0,0,0,0,0,0
1706419728.89946699,135128427,1561,1561,1560,1562,0,0,0,0,0,0,0,0,0,0
1706419728.99942708,135228387,1561,1561,1561,1561,0,0,0,0,0,0,0,0,0,0
1706419729.09938693,135328347,1562,1562,1563,1561,0,0,0,0,0,0,0,0,0,0
1706419729.19934702,135428307,1561,1561,1563,1559,0,0,0,0,0,0,0,0,0,0
1706419729.29930687,135528267,1559,1559,1557,1560,0,0,0,0,0,0,0,0,0,0
1706419729.39926696,135628227,1556,1556,1553,1557,0,0,0,0,0,0,0,0,0,0
1706419729.49922705,135728187,1552,1552,1549,1553,0,0,0,0,0,0,0,0,0,0
1706419729.60001993,135828980,1547,1547,1544,1546,0,0,0,0,0,0,0,0,0,0
1706419729.69998002,135928940,1541,1541,1539,1539,0,0,0,0,0,0,0,0,0,0
1706419729.79993987,136028900,1533,1533,1532,1530,0,0,0,0,0,0,0,0,0,0
1706419729.89989996,136128860,1526,1525,1524,1523,0,0,0,0,0,0,0,0,0,0
1706419729.99986005,136228820,1521,1521,1520,1519,0,0,0,0,0,0,0,0,0,0
1706419730.09981990,136328780,1519,1520,1519,1519,0,0,0,0,0,0,0,0,0,0
1706419730.19977999,136428740,1518,1520,1519,1520,0,0,0,0,0,0,0,0,0,0
1706419730.29974008,136528700,1521,1522,1523,1524,0,0,0,0,0,0,0,0,0,0
1706419730.39969993,136628660,1524,1524,1526,1527,0,0,0,0,0,0,0,0,0,0
1706419730.49966002,136728620,1527,1528,1531,1531,0,0,0,0,0,0,0,0,0,0
1706419730.59961987,136828580,1532,1532,1535,1535,0,0,0,0,0,0,0,0,0,0
1706419730.69957995,136928540,1537,1535,1540,1539,0,0,0,0,0,0,0,0,0,0
1706419730.79954004,137028500,1539,1538,1542,1541,0,0,0,0,0,0,0,0,0,0
1706419730.89949989,137128460,1541,1540,1542,1542,0,0,0,0,0,0,0,0,0,0
1706419730.99945998,137228420,1543,1543,1544,1543,0,0,0,0,0,0,0,0,0,0
1706419731.09942007,137328380,1545,1545,1545,1544,0,0,0,0,0,0,0,0,0,0
1706419731.19937992,137428340,1546,1546,1545,1545,0,0,0,0,0,0,0,0,0,0
1706419731.29934001,137528300,1547,1547,1545,1545,0,0,0,0,0,0,0,0,0,0
1706419731.39929986,137628260,1547,1548,1545,1545,0,0,0,0,0,0,0,0,0,0
1706419731.49925995,137728220,1548,1548,1546,1545,0,0,0,0,0,0,0,0,0,0
1706419731.59922004,137828180,1547,1547,1545,1545,0,0,0,0,0,0,0,0,0,0
1706419731.70001292,137928973,1547,1547,1545,1545,0,0,0,0,0,0,0,0,0,0
1706419731.79997301,138028933,1547,1547,1546,1545,0,0,0,0,0,0,0,0,0,0
1706419731.89993286,138128893,1546,1546,1545,1545,0,0,0,0,0,0,0,0,0,0
1706419731.99989295,138228853,1545,1545,1545,1545,0,0,0,0,0,0,0,0,0,0
1706419732.09985304,138328813,1544,1544,1544,1545,0,0,0,0,0,0,0,0,0,0
1706419732.19981289,138428773,1544,1544,1544,1544,0,0,0,0,0,0,0,0,0,0
1706419732.29977298,138528733,1544,1544,1545,1545,0,0,0,0,0,0,0,0,0,0
1706419732.39973307,138628693,1544,1544,1545,1545,0,0,0,0,0,0,0,0,0,0
1706419732.49969292,138728653,1544,1544,1545,1545,0,0,0,0,0,0,0,0,0,0
1706419732.59965301,138828613,1543,1543,1544,1544,0,0,0,0,0,0,0,0,0,0
1706419732.69961286,138928573,1544,1543,1544,1545,0,0,0,0,0,0,0,0,0,0
1706419732.79957294,139028533,1544,1544,1545,1544,0,0,0,0,0,0,0,0,0,0
1706419732.89953303,139128493,1544,1544,1544,1545,0,0,0,0,0,0,0,0,0,0
1706419732.99949288,139228453,1544,1544,1544,1544,0,0,0,0,0,0,0,0,0,0
1706419733.09945297,139328413,1544,1544,1544,1544,0,0,0,0,0,0,0,0,0,0
1706419733.19941306,139428373,1544,1544,1544,1544,0,0,0,0,0,0,0,0,0,0
1706419733.29937291,139528333,1544,1544,1544,1544,0,0,0,0,0,0,0,0,0,0
1706419733.39933300,139628293,1544,1545,1544,1544,0,0,0,0,0,0,0,0,0,0
1706419733.49929285,139728253,1545,1544,1544,1544,0,0,0,0,0,0,0,0,0,0
1706419733.59925294,139828213,1544,1545,1544,1544,0,0,0,0,0,0,0,0,0,0
1706419733.69921303,139928173,1544,1544,1544,1544,0,0,0,0,0,0,0,0,0,0
1706419733.80000591,140028966,1544,1545,1545,1544,0,0,0,0,0,0,0,0,0,0
1706419733.89996600,140128926,1545,1545,1545,1545,0,0,0,0,0,0,0,0,0,0
1706419733.99992585,140228886,1545,1545,1545,1545,0,0,0,0,0,0,0,0,0,0
1706419734.09988594,140328846,1544,1544,1544,1545,0,0,0,0,0,0,0,0,0,0
1706419734.19984603,140428806,1544,1545,1545,1545,0,0,0,0,0,0,0,0,0,0
1706419734.29980588,140528766,1545,1544,1544,1545,0,0,0,0,0,0,0,0,0,0
1706419734.39976597,140628726,1544,1544,1544,1544,0,0,0,0,0,0,0,0,0,0
1706419734.49972606,140728686,1545,1545,1545,1545,0,0,0,0,0,0,0,0,0,0
1706419734.59968591,140828646,1545,1545,1545,1545,0,0,0,0,0,0,0,0,0,0
1706419734.69964600,140928606,1544,1544,1544,1544,0,0,0,0,0,0,0,0,0,0
1706419734.79960585,141028566,1543,1544,1544,1543,0,0,0,0,0,0,0,0,0,0
1706419734.89956594,141128526,1544,1544,1544,1544,0,0,0,0,0,0,0,0,0,0
1706419734.99952602,141228486,1543,1543,1543,1543,0,0,0,0,0,0,0,0,0,0
1706419735.09948587,141328446,1544,1544,1544,1544,0,0,0,0,0,0,0,0,0,0
1706419735.19944596,141428406,1543,1543,1543,1543,0,0,0,0,0,0,0,0,0,0
1706419735.29940605,141528366,1544,1544,1544,1544,0,0,0,0,0,0,0,0,0,0
1706419735.39936590,141628326,1544,1543,1544,1543,0,0,0,0,0,0,0,0,0,0
1706419735.49932599,141728286,1544,1544,1544,1544,0,0,0,0,0,0,0,0,0,0
1706419735.59928608,141828246,1544,1545,1544,1544,0,0,0,0,0,0,0,0,0,0
1706419735.69924593,141928206,1544,1545,1544,1545,0,0,0,0,0,0,0,0,0,0
1706419735.79920602,142028166,1543,1544,1544,1544,0,0,0,0,0,0,0,0,0,0
1706419735.89999890,142128959,1544,1544,1544,1544,0,0,0,0,0,0,0,0,0,0
1706419735.99995899,142228919,1543,1543,1543,1543,0,0,0,0,0,0,0,0,0,0
1706419736.09991908,142328879,1544,1543,1543,1544,0,0,0,0,0,0,0,0,0,0
1706419736.19987893,142428839,1544,1544,1544,1544,0,0,0,0,0,0,0,0,0,0
1706419736.29983902,142528799,1544,1544,1544,1544,0,0,0,0,0,0,0,0,0,0
1706419736.39979887,142628759,1544,1545,1545,1545,0,0,0,0,0,0,0,0,0,0
1706419736.49975896,142728719,1545,1544,1544,1545,0,0,0,0,0,0,0,0,0,0
1706419736.59971905,142828679,1545,1544,1545,1545,0,0,0,0,0,0,0,0,0,0
1706419736.69967890,142928639,1545,1544,1545,1545,0,0,0,0,0,0,0,0,0,0
1706419736.79963899,143028599,1544,1545,1544,1544,0,0,0,0,0,0,0,0,0,0
1706419736.89959908,143128559,1545,1545,1545,1545,0,0,0,0,0,0,0,0,0,0
1706419736.99955893,143228519,1545,1545,1545,1545,0,0,0,0,0,0,0,0,0,0
1706419737.09951901,143328479,1545,1544,1544,1544,0,0,0,0,0,0,0,0,0,0
1706419737.19947886,143428439,1545,1544,1544,1544,0,0,0,0,0,0,0,0,0,0
1706419737.29943895,143528399,1545,1545,1545,1545,0,0,0,0,0,0,0,0,0,0
1706419737.39939904,143628359,1545,1545,1545,1545,0,0,0,0,0,0,0,0,0,0
1706419737.49935889,143728319,1545,1545,1545,1546,0,0,0,0,0,0,0,0,0,0
1706419737.59931898,143828279,1545,1545,1545,1545,0,0,0,0,0,0,0,0,0,0
1706419737.69927907,143928239,1545,1544,1544,1544,0,0,0,0,0,0,0,0,0,0
1706419737.79923892,144028199,1545,1545,1545,1544,0,0,0,0,0,0,0,0,0,0
1706419737.89919901,144128159,1545,1545,1545,1545,0,0,0,0,0,0,0,0,0,0
1706419737.99999189,144228952,1545,1545,1545,1545,0,0,0,0,0,0,0,0,0,0
1706419738.09995198,144328912,1545,1544,1544,1545,0,0,0,0,0,0,0,0,0,0
1706419738.19991207,144428872,1545,1544,1545,1545,0,0,0,0,0,0,0,0,0,0
1706419738.29987192,144528832,1545,1544,1544,1545,0,0,0,0,0,0,0,0,0,0
1706419738.39983201,144628792,1545,1545,1545,1545,0,0,0,0,0,0,0,0,0,0
1706419738.49979186,144728752,1544,1544,1544,1544,0,0,0,0,0,0,0,0,0,0
1706419738.59975195,144828712,1544,1544,1544,1544,0,0,0,0,0,0,0,0,0,0
1706419738.69971204,144928672,1544,1544,1544,1545,0,0,0,0,0,0,0,0,0,0
1706419738.79967189,145028632,1544,1544,1544,1544,0,0,0,0,0,0,0,0,0,0
1706419738.89963198,145128592,1545,1545,1545,1545,0,0,0,0,0,0,0,0,0,0
1706419738.99959207,145228552,1544,1544,1544,1544,0,0,0,0,0,0,0,0,0,0
1706419739.09955192,145328512,1544,1544,1544,1544,0,0,0,0,0,0,0,0,0,0
1706419739.19951200,145428472,1544,1544,1544,1544,0,0,0,0,0,0,0,0,0,0
1706419739.29947186,145528432,1544,1544,1544,1544,0,0,0,0,0,0,0,0,0,0
1706419739.39943194,145628392,1544,1544,1544,1544,0,0,0,0,0,0,0,0,0,0
1706419739.49939203,145728352,1545,1544,1544,1545,0,0,0,0,0,0,0,0,0,0
1706419739.59935188,145828312,1545,1545,1545,1545,0,0,0,0,0,0,0,0,0,0
1706419739.69931197,145928272,1538,1539,1539,1536,0,0,0,0,0,0,0,0,0,0
1706419739.79927206,146028232,1399,1350,1351,1349,0,0,0,0,0,0,0,0,0,0
1706419739.89923191,146128192,1331,1249,1251,1248,0,0,0,0,0,0,0,0,0,0
1706419740.00002503,146228985,1310,1218,1219,1214,0,0,0,0,0,0,0,0,0,0
1706419740.09998488,146328945,1297,1194,1196,1192,0,0,0,0,0,0,0,0,0,0
1706419740.19994497,146428905,1273,1153,1155,1150,0,0,0,0,0,0,0,0,0,0
1706419740.29990506,146528865,1191,1151,1153,1150,0,0,0,0,0,0,0,0,0,0
1706419740.39986491,146628825,1189,1152,1154,1150,0,0,0,0,0,0,0,0,0,0
1706419740.49982500,146728785,1190,1151,1153,1150,0,0,0,0,0,0,0,0,0,0
1706419740.59978485,146828745,1173,1150,1150,1180,0,0,0,0,0,0,0,0,0,0
1706419740.69974494,146928705,1179,1150,1150,1171,0,0,0,0,0,0,0,0,0,0
1706419740.79970503,147028665,1184,1150,1150,1164,0,0,0,0,0,0,0,0,0,0
1706419740.89966488,147128625,1184,1150,1150,1163,0,0,0,0,0,0,0,0,0,0
1706419740.99962497,147228585,1184,1150,1151,1163,0,0,0,0,0,0,0,0,0,0
1706419741.09958506,147328545,1184,1150,1151,1164,0,0,0,0,0,0,0,0,0,0
1706419741.19954491,147428505,1184,1150,1151,1164,0,0,0,0,0,0,0,0,0,0
1706419741.29950500,147528465,1183,1150,1151,1165,0,0,0,0,0,0,0,0,0,0
1706419741.39946485,147628425,1193,1150,1150,1150,0,0,0,0,0,0,0,0,0,0
1706419741.49942493,147728385,1191,1150,1150,1152,0,0,0,0,0,0,0,0,0,0
1706419741.59938502,147828345,1191,1150,1150,1153,0,0,0,0,0,0,0,0,0,0
1706419741.69934487,147928305,1190,1150,1150,1154,0,0,0,0,0,0,0,0,0,0
1706419741.79930496,148028265,1190,1150,1151,1154,0,0,0,0,0,0,0,0,0,0
1706419741.89926505,148128225,1000,1000,1000,1000,0,0,0,0,0,0,0,0,0,0
1706419741.99922490,148228185,1000,1000,1000,1000,0,0,0,0,0,0,0,0,0,0
1706419742.10001802,148328978,1000,1000,1000,1000,0,0,0,0,0,0,0,0,0,0
1706419742.19997787,148428938,1000,1000,1000,1000,0,0,0,0,0,0,0,0,0,0
1706419742.29993796,148528898,1000,1000,1000,1000,0,0,0,0,0,0,0,0,0,0
1706419742.39989805,148628858,1000,1000,1000,1000,0,0,0,0,0,0,0,0,0,0
1706419742.49985790,148728818,1000,1000,1000,1000,0,0,0,0,0,0,0,0,0,0
1706419742.59981799,148828778,1000,1000,1000,1000,0,0,0,0,0,0,0,0,0,0
1706419742.69977808,148928738,1000,1000,1000,1000,0,0,0,0,0,0,0,0,0,0
1706419742.79973793,149028698,1000,1000,1000,1000,0,0,0,0,0,0,0,0,0,0
1706419742.89969802,149128658,1000,1000,1000,1000,0,0,0,0,0,0,0,0,0,0
1706419742.99965787,149228618,1000,1000,1000,1000,0,0,0,0,0,0,0,0,0,0
1706419743.09961796,149328578,1000,1000,1000,1000,0,0,0,0,0,0,0,0,0,0
1706419743.19957805,149428538,1000,1000,1000,1000,0,0,0,0,0,0,0,0,0,0
1706419743.29953790,149528498,1000,1000,1000,1000,0,0,0,0,0,0,0,0,0,0
1706419743.39949799,149628458,1000,1000,1000,1000,0,0,0,0,0,0,0,0,0,0
1706419743.49945807,149728418,1000,1000,1000,1000,0,0,0,0,0,0,0,0,0,0
1706419743.59941792,149828378,1000,1000,1000,1000,0,0,0,0,0,0,0,0,0,0
1706419743.69937801,149928338,1000,1000,1000,1000,0,0,0,0,0,0,0,0,0,0
1706419743.79933786,150028298,1000,1000,1000,1000,0,0,0,0,0,0,0,0,0,0
1706419743.89929795,150128258,1000,1000,1000,1000,0,0,0,0,0,0,0,0,0,0
1706419743.99925804,150228218,1000,1000,1000,1000,0,0,0,0,0,0,0,0,0,0
1706419744.09921789,150328178,1000,1000,1000,1000,0,0,0,0,0,0,0,0,0,0
1706419744.20001101,150428971,1000,1000,1000,1000,0,0,0,0,0,0,0,0,0,0
1706419744.29997087,150528931,1000,1000,1000,1000,0,0,0,0,0,0,0,0,0,0
1706419744.39993095,150628891,1000,1000,1000,1000,0,0,0,0,0,0,0,0,0,0
1706419744.49989104,150728851,1000,1000,1000,1000,0,0,0,0,0,0,0,0,0,0
1706419744.59985089,150828811,1000,1000,1000,1000,0,0,0,0,0,0,0,0,0,0
1706419744.69981098,150928771,1000,1000,1000,1000,0,0,0,0,0,0,0,0,0,0
1706419744.79977107,151028731,1000,1000,1000,1000,0,0,0,0,0,0,0,0,0,0
1706419744.89973092,151128691,1000,1000,1000,1000,0,0,0,0,0,0,0,0,0,0
1706419744.99969101,151228651,1000,1000,1000,1000,0,0,0,0,0,0,0,0,0,0
1706419745.09965086,151328611,1000,1000,1000,1000,0,0,0,0,0,0,0,0,0,0
1706419745.19961095,151428571,1000,1000,1000,1000,0,0,0,0,0,0,0,0,0,0
1706419745.29957104,151528531,1000,1000,1000,1000,0,0,0,0,0,0,0,0,0,0
1706419745.39953089,151628491,1000,1000,1000,1000,0,0,0,0,0,0,0,0,0,0
1706419745.49949098,151728451,1000,1000,1000,1000,0,0,0,0,0,0,0,0,0,0
1706419745.59945107,151828411,1000,1000,1000,1000,0,0,0,0,0,0,0,0,0,0
1706419745.69941092,151928371,1000,1000,1000,1000,0,0,0,0,0,0,0,0,0,0
1706419745.79937100,152028331,1000,1000,1000,1000,0,0,0,0,0,0,0,0,0,0
1706419745.89933085,152128291,1000,1000,1000,1000,0,0,0,0,0,0,0,0,0,0
1706419745.99929094,152228251,1000,1000,1000,1000,0,0,0,0,0,0,0,0,0,0
1706419746.09925103,152328211,1000,1000,1000,1000,0,0,0,0,0,0,0,0,0,0
1706419746.19921088,152428171,1000,1000,1000,1000,0,0,0,0,0,0,0,0,0,0
1706419746.30000401,152528964,1000,1000,1000,1000,0,0,0,0,0,0,0,0,0,0
1706419746.39996386,152628924,1000,1000,1000,1000,0,0,0,0,0,0,0,0,0,0
1706419746.49992394,152728884,1000,1000,1000,1000,0,0,0,0,0,0,0,0,0,0
1706419746.59988403,152828844,1000,1000,1000,1000,0,0,0,0,0,0,0,0,0,0
1706419746.69984388,152928804,1000,1000,1000,1000,0,0,0,0,0,0,0,0,0,0
1706419746.79980397,153028764,1000,1000,1000,1000,0,0,0,0,0,0,0,0,0,0
1706419746.89976406,153128724,1000,1000,1000,1000,0,0,0,0,0,0,0,0,0,0
1706419746.99972391,153228684,1000,1000,1000,1000,0,0,0,0,0,0,0,0,0,0
1706419747.09968400,153328644,1000,1000,1000,1000,0,0,0,0,0,0,0,0,0,0
1706419747.19964385,153428604,1000,1000,1000,1000,0,0,0,0,0,0,0,0,0,0
1706419747.29960394,153528564,1000,1000,1000,1000,0,0,0,0,0,0,0,0,0,0
1706419747.39956403,153628524,1000,1000,1000,1000,0,0,0,0,0,0,0,0,0,0
1706419747.49952388,153728484,1000,1000,1000,1000,0,0,0,0,0,0,0,0,0,0
1706419747.59948397,153828444,1000,1000,1000,1000,0,0,0,0,0,0,0,0,0,0
1706419747.69944406,153928404,1000,1000,1000,1000,0,0,0,0,0,0,0,0,0,0
1706419747.79940391,154028364,1000,1000,1000,1000,0,0,0,0,0,0,0,0,0,0
1706419747.89936399,154128324,1000,1000,1000,1000,0,0,0,0,0,0,0,0,0,0
1706419747.99932384,154228284,1000,1000,1000,1000,0,0,0,0,0,0,0,0,0,0
1706419748.09928393,154328244,1000,1000,1000,1000,0,0,0,0,0,0,0,0,0,0
1706419748.19924402,154428204,1000,1000,1000,1000,0,0,0,0,0,0,0,0,0,0
1706419748.29920387,154528164,1000,1000,1000,1000,0,0,0,0,0,0,0,0,0,0
1706419748.39999700,154628957,1000,1000,1000,1000,0,0,0,0,0,0,0,0,0,0
1706419748.49995685,154728917,1000,1000,1000,1000,0,0,0,0,0,0,0,0,0,0
1706419748.59991693,154828877,1000,1000,1000,1000,0,0,0,0,0,0,0,0,0,0
1706419748.69987702,154928837,1000,1000,1000,1000,0,0,0,0,0,0,0,0,0,0
1706419748.79983687,155028797,1000,1000,1000,1000,0,0,0,0,0,0,0,0,0,0
1706419748.89979696,155128757,1000,1000,1000,1000,0,0,0,0,0,0,0,0,0,0
1706419748.99975705,155228717,1000,1000,1000,1000,0,0,0,0,0,0,0,0,0,0
1706419749.09971690,155328677,1000,1000,1000,1000,0,0,0,0,0,0,0,0,0,0
1706419749.19967699,155428637,1000,1000,1000,1000,0,0,0,0,0,0,0,0,0,0
1706419749.29963708,155528597,1000,1000,1000,1000,0,0,0,0,0,0,0,0,0,0
1706419749.39959693,155628557,1000,1000,1000,1000,0,0,0,0,0,0,0,0,0,0
1706419749.49955702,155728517,1000,1000,1000,1000,0,0,0,0,0,0,0,0,0,0
1706419749.59951687,155828477,1000,1000,1000,1000,0,0,0,0,0,0,0,0,0,0
1706419749.69947696,155928437,1000,1000,1000,1000,0,0,0,0,0,0,0,0,0,0
1706419749.79943705,156028397,1000,1000,1000,1000,0,0,0,0,0,0,0,0,0,0
1706419749.89939690,156128357,1000,1000,1000,1000,0,0,0,0,0,0,0,0,0,0
1706419749.99935699,156228317,1000,1000,1000,1000,0,0,0,0,0,0,0,0,0,0
1706419750.09931707,156328277,1000,1000,1000,1000,0,0,0,0,0,0,0,0,0,0
1706419750.19927692,156428237,1000,1000,1000,1000,0,0,0,0,0,0,0,0,0,0
1706419750.29923701,156528197,1000,1000,1000,1000,0,0,0,0,0,0,0,0,0,0
1706419750.39919686,156628157,1000,1000,1000,1000,0,0,0,0,0,0,0,0,0,0
1706419750.49998999,156728950,1000,1000,1000,1000,0,0,0,0,0,0,0,0,0,0
1706419750.59995008,156828910,1000,1000,1000,1000,0,0,0,0,0,0,0,0,0,0
1706419750.69990993,156928870,1000,1000,1000,1000,0,0,0,0,0,0,0,0,0,0
1706419750.79987001,157028830,1000,1000,1000,1000,0,0,0,0,0,0,0,0,0,0
1706419750.89982986,157128790,1000,1000,1000,1000,0,0,0,0,0,0,0,0,0,0
1706419750.99978995,157228750,1000,1000,1000,1000,0,0,0,0,0,0,0,0,0,0
1706419751.09975004,157328710,1000,1000,1000,1000,0,0,0,0,0,0,0,0,0,0
1706419751.19970989,157428670,1000,1000,1000,1000,0,0,0,0,0,0,0,0,0,0
1706419751.29966998,157528630,1000,1000,1000,1000,0,0,0,0,0,0,0,0,0,0
1706419751.39963007,157628590,1000,1000,1000,1000,0,0,0,0,0,0,0,0,0,0
1706419751.49958992,157728550,1000,1000,1000,1000,0,0,0,0,0,0,0,0,0,0
1706419751.59955001,157828510,1000,1000,1000,1000,0,0,0,0,0,0,0,0,0,0
1706419751.69950986,157928470,1000,1000,1000,1000,0,0,0,0,0,0,0,0,0,0
1706419751.79946995,158028430,1000,1000,1000,1000,0,0,0,0,0,0,0,0,0,0
1706419751.89943004,158128390,1000,1000,1000,1000,0,0,0,0,0,0,0,0,0,0
1706419751.99938989,158228350,1000,1000,1000,1000,0,0,0,0,0,0,0,0,0,0
