timestamp,TimeUS,C1,C2,C3,C4,C5,C6,C7,C8,C9,C10,C11,C12,C13,C14
1681026736.20000005,52228267,1000,1000,1000,1000,0,0,0,0,0,0,0,0,0,0
1681026736.29996014,52328227,1000,1000,1000,1000,0,0,0,0,0,0,0,0,0,0
1681026736.39991999,52428187,1000,1000,1000,1000,0,0,0,0,0,0,0,0,0,0
1681026736.50071311,52528980,1000,1000,1000,1000,0,0,0,0,0,0,0,0,0,0
1681026736.60067320,52628940,1000,1000,1000,1000,0,0,0,0,0,0,0,0,0,0
1681026736.70063305,52728900,1000,1000,1000,1000,0,0,0,0,0,0,0,0,0,0
1681026736.80059314,52828860,1000,1000,1000,1000,0,0,0,0,0,0,0,0,0,0
1681026736.90055299,52928820,1000,1000,1000,1000,0,0,0,0,0,0,0,0,0,0
1681026737.00051308,53028780,1000,1000,1000,1000,0,0,0,0,0,0,0,0,0,0
1681026737.10047317,53128740,1000,1000,1000,1000,0,0,0,0,0,0,0,0,0,0
1681026737.20043302,53228700,1000,1000,1000,1000,0,0,0,0,0,0,0,0,0,0
1681026737.30039310,53328660,1000,1000,1000,1000,0,0,0,0,0,0,0,0,0,0
1681026737.40035319,53428620,1000,1000,1000,1000,0,0,0,0,0,0,0,0,0,0
1681026737.50031304,53528580,1000,1000,1000,1000,0,0,0,0,0,0,0,0,0,0
1681026737.60027313,53628540,1000,1000,1000,1000,0,0,0,0,0,0,0,0,0,0
1681026737.70023298,53728500,1000,1000,1000,1000,0,0,0,0,0,0,0,0,0,0
1681026737.80019307,53828460,1000,1000,1000,1000,0,0,0,0,0,0,0,0,0,0
1681026737.90015316,53928420,1000,1000,1000,1000,0,0,0,0,0,0,0,0,0,0
1681026738.00011301,54028380,1000,1000,1000,1000,0,0,0,0,0,0,0,0,0,0
1681026738.10007310,54128340,1000,1000,1000,1000,0,0,0,0,0,0,0,0,0,0
1681026738.20003319,54228300,1003,1003,1003,1003,0,0,0,0,0,0,0,0,0,0
1681026738.29999304,54328260,1033,1033,1033,1033,0,0,0,0,0,0,0,0,0,0
1681026738.39995313,54428220,1063,1063,1063,1063,0,0,0,0,0,0,0,0,0,0
1681026738.49991298,54528180,1093,1093,1093,1093,0,0,0,0,0,0,0,0,0,0
1681026738.60070610,54628973,1123,1123,1123,1123,0,0,0,0,0,0,0,0,0,0
1681026738.70066619,54728933,1185,1177,1178,1185,0,0,0,0,0,0,0,0,0,0
1681026738.80062604,54828893,1424,1419,1419,1425,0,0,0,0,0,0,0,0,0,0
1681026738.90058613,54928853,1599,1594,1594,1599,0,0,0,0,0,0,0,0,0,0
1681026739.00054598,55028813,1743,1739,1739,1744,0,0,0,0,0,0,0,0,0,0
1681026739.10050607,55128773,1846,1840,1841,1846,0,0,0,0,0,0,0,0,0,0
1681026739.20046616,55228733,1852,1847,1847,1852,0,0,0,0,0,0,0,0,0,0
1681026739.30042601,55328693,1786,1784,1785,1786,0,0,0,0,0,0,0,0,0,0
1681026739.40038610,55428653,1662,1663,1663,1662,0,0,0,0,0,0,0,0,0,0
1681026739.50034618,55528613,1609,1610,1611,1609,0,0,0,0,0,0,0,0,0,0
1681026739.60030603,55628573,1612,1614,1614,1612,0,0,0,0,0,0,0,0,0,0
1681026739.70026612,55728533,1631,1633,1632,1631,0,0,0,0,0,0,0,0,0,0
1681026739.80022621,55828493,1639,1641,1640,1640,0,0,0,0,0,0,0,0,0,0
1681026739.90018606,55928453,1636,1636,1636,1636,0,0,0,0,0,0,0,0,0,0
1681026740.00014615,56028413,1630,1628,1629,1629,0,0,0,0,0,0,0,0,0,0
1681026740.10010600,56128373,1625,1623,1623,1625,0,0,0,0,0,0,0,0,0,0
1681026740.20006609,56228333,1622,1621,1621,1621,0,0,0,0,0,0,0,0,0,0
1681026740.30002618,56328293,1621,1620,1621,1621,0,0,0,0,0,0,0,0,0,0
1681026740.39998603,56428253,1623,1623,1622,1623,0,0,0,0,0,0,0,0,0,0
1681026740.49994612,56528213,1622,1623,1622,1623,0,0,0,0,0,0,0,0,0,0
1681026740.59990621,56628173,1622,1623,1623,1623,0,0,0,0,0,0,0,0,0,0
1681026740.70069909,56728966,1623,1624,1623,1624,0,0,0,0,0,0,0,0,0,0
1681026740.80065918,56828926,1624,1624,1624,1624,0,0,0,0,0,0,0,0,0,0
1681026740.90061903,56928886,1625,1624,1625,1625,0,0,0,0,0,0,0,0,0,0
1681026741.00057912,57028846,1626,1626,1626,1626,0,0,0,0,0,0,0,0,0,0
1681026741.10053921,57128806,1627,1626,1626,1627,0,0,0,0,0,0,0,0,0,0
1681026741.20049906,57228766,1627,1626,1626,1627,0,0,0,0,0,0,0,0,0,0
1681026741.30045915,57328726,1627,1627,1627,1627,0,0,0,0,0,0,0,0,0,0
1681026741.40041900,57428686,1628,1628,1628,1628,0,0,0,0,0,0,0,0,0,0
1681026741.50037909,57528646,1612,1613,1613,1613,0,0,0,0,0,0,0,0,0,0
1681026741.60033917,57628606,1593,1593,1593,1593,0,0,0,0,0,0,0,0,0,0
1681026741.70029902,57728566,1582,1582,1582,1582,0,0,0,0,0,0,0,0,0,0
1681026741.80025911,57828526,1573,1572,1572,1572,0,0,0,0,0,0,0,0,0,0
1681026741.90021920,57928486,1564,1564,1564,1564,0,0,0,0,0,0,0,0,0,0
1681026742.00017905,58028446,1557,1556,1556,1556,0,0,0,0,0,0,0,0,0,0
1681026742.10013914,58128406,1550,1550,1550,1550,0,0,0,0,0,0,0,0,0,0
1681026742.20009899,58228366,1545,1545,1545,1545,0,0,0,0,0,0,0,0,0,0
1681026742.30005908,58328326,1539,1539,1539,1540,0,0,0,0,0,0,0,0,0,0
1681026742.40001917,58428286,1535,1534,1535,1535,0,0,0,0,0,0,0,0,0,0
1681026742.49997902,58528246,1531,1530,1530,1531,0,0,0,0,0,0,0,0,0,0
1681026742.59993911,58628206,1527,1526,1526,1527,0,0,0,0,0,0,0,0,0,0
1681026742.69989920,58728166,1523,1523,1523,1524,0,0,0,0,0,0,0,0,0,0
1681026742.80069208,58828959,1520,1521,1520,1521,0,0,0,0,0,0,0,0,0,0
1681026742.90065217,58928919,1519,1518,1518,1519,0,0,0,0,0,0,0,0,0,0
1681026743.00061202,59028879,1515,1515,1515,1516,0,0,0,0,0,0,0,0,0,0
1681026743.10057211,59128839,1513,1513,1512,1513,0,0,0,0,0,0,0,0,0,0
1681026743.20053220,59228799,1509,1510,1509,1509,0,0,0,0,0,0,0,0,0,0
1681026743.30049205,59328759,1507,1507,1507,1507,0,0,0,0,0,0,0,0,0,0
1681026743.40045214,59428719,1504,1504,1504,1504,0,0,0,0,0,0,0,0,0,0
1681026743.50041199,59528679,1503,1502,1502,1503,0,0,0,0,0,0,0,0,0,0
1681026743.60037208,59628639,1500,1500,1500,1500,0,0,0,0,0,0,0,0,0,0
1681026743.70033216,59728599,1497,1497,1497,1497,0,0,0,0,0,0,0,0,0,0
1681026743.80029202,59828559,1495,1495,1495,1496,0,0,0,0,0,0,0,0,0,0
1681026743.90025210,59928519,1495,1494,1494,1495,0,0,0,0,0,0,0,0,0,0
1681026744.00021219,60028479,1493,1493,1493,1493,0,0,0,0,0,0,0,0,0,0
1681026744.10017204,60128439,1496,1496,1496,1495,0,0,0,0,0,0,0,0,0,0
1681026744.20013213,60228399,1497,1497,1498,1496,0,0,0,0,0,0,0,0,0,0
1681026744.30009198,60328359,1500,1500,1500,1500,0,0,0,0,0,0,0,0,0,0
1681026744.40005207,60428319,1502,1502,1502,1502,0,0,0,0,0,0,0,0,0,0
1681026744.50001216,60528279,1504,1504,1504,1504,0,0,0,0,0,0,0,0,0,0
1681026744.59997201,60628239,1505,1505,1505,1505,0,0,0,0,0,0,0,0,0,0
1681026744.69993210,60728199,1507,1507,1508,1507,0,0,0,0,0,0,0,0,0,0
1681026744.79989219,60828159,1516,1515,1516,1515,0,0,0,0,0,0,0,0,0,0
1681026744.90068507,60928952,1552,1551,1553,1551,0,0,0,0,0,0,0,0,0,0
1681026745.00064516,61028912,1564,1564,1564,1565,0,0,0,0,0,0,0,0,0,0
1681026745.10060501,61128872,1573,1573,1570,1576,0,0,0,0,0,0,0,0,0,0
1681026745.20056510,61228832,1577,1578,1575,1580,0,0,0,0,0,0,0,0,0,0
1681026745.30052519,61328792,1581,1581,1578,1584,0,0,0,0,0,0,0,0,0,0
1681026745.40048504,61428752,1583,1583,1581,1585,0,0,0,0,0,0,0,0,0,0
1681026745.50044513,61528712,1584,1584,1584,1584,0,0,0,0,0,0,0,0,0,0
1681026745.60040498,61628672,1584,1584,1586,1582,0,0,0,0,0,0,0,0,0,0
1681026745.70036507,61728632,1583,1582,1585,1580,0,0,0,0,0,0,0,0,0,0
1681026745.80032516,61828592,1582,1582,1584,1579,0,0,0,0,0,0,0,0,0,0
1681026745.90028501,61928552,1581,1580,1582,1579,0,0,0,0,0,0,0,0,0,0
1681026746.00024509,62028512,1577,1578,1578,1577,0,0,0,0,0,0,0,0,0,0
1681026746.10020518,62128472,1576,1576,1575,1577,0,0,0,0,0,0,0,0,0,0
1681026746.20016503,62228432,1574,1574,1572,1576,0,0,0,0,0,0,0,0,0,0
1681026746.30012512,62328392,1569,1568,1572,1576,0,0,0,0,0,0,0,0,0,0
1681026746.40008521,62428352,1565,1566,1573,1576,0,0,0,0,0,0,0,0,0,0
1681026746.50004506,62528312,1566,1566,1573,1574,0,0,0,0,0,0,0,0,0,0
1681026746.60000515,62628272,1567,1568,1572,1572,0,0,0,0,0,0,0,0,0,0
1681026746.69996500,62728232,1568,1569,1571,1570,0,0,0,0,0,0,0,0,0,0
1681026746.79992509,62828192,1571,1571,1570,1569,0,0,0,0,0,0,0,0,0,0
1681026746.90071821,62928985,1572,1572,1569,1568,0,0,0,0,0,0,0,0,0,0
1681026747.00067806,63028945,1572,1572,1568,1567,0,0,0,0,0,0,0,0,0,0
1681026747.10063815,63128905,1574,1573,1568,1569,0,0,0,0,0,0,0,0,0,0
1681026747.20059800,63228865,1573,1573,1568,1568,0,0,0,0,0,0,0,0,0,0
1681026747.30055809,63328825,1574,1573,1568,1569,0,0,0,0,0,0,0,0,0,0
1681026747.40051818,63428785,1573,1573,1569,1570,0,0,0,0,0,0,0,0,0,0
1681026747.50047803,63528745,1573,1573,1571,1571,0,0,0,0,0,0,0,0,0,0
1681026747.60043812,63628705,1574,1574,1574,1573,0,0,0,0,0,0,0,0,0,0
1681026747.70039821,63728665,1574,1574,1574,1573,0,0,0,0,0,0,0,0,0,0
1681026747.80035806,63828625,1574,1574,1576,1574,0,0,0,0,0,0,0,0,0,0
1681026747.90031815,63928585,1575,1575,1577,1576,0,0,0,0,0,0,0,0,0,0
1681026748.00027800,64028545,1574,1574,1576,1575,0,0,0,0,0,0,0,0,0,0
1681026748.10023808,64128505,1576,1576,1577,1577,0,0,0,0,0,0,0,0,0,0
1681026748.20019817,64228465,1576,1576,1578,1578,0,0,0,0,0,0,0,0,0,0
1681026748.30015802,64328425,1577,1577,1578,1578,0,0,0,0,0,0,0,0,0,0
1681026748.40011811,64428385,1577,1577,1577,1578,0,0,0,0,0,0,0,0,0,0
1681026748.50007820,64528345,1578,1577,1578,1578,0,0,0,0,0,0,0,0,0,0
1681026748.60003805,64628305,1577,1578,1578,1577,0,0,0,0,0,0,0,0,0,0
1681026748.69999814,64728265,1579,1579,1579,1578,0,0,0,0,0,0,0,0,0,0
1681026748.79995799,64828225,1579,1579,1578,1578,0,0,0,0,0,0,0,0,0,0
1681026748.89991808,64928185,1578,1578,1577,1578,0,0,0,0,0,0,0,0,0,0
1681026749.00071120,65028978,1579,1579,1579,1579,0,0,0,0,0,0,0,0,0,0
1681026749.10067105,65128938,1578,1579,1578,1578,0,0,0,0,0,0,0,0,0,0
1681026749.20063114,65228898,1579,1579,1578,1579,0,0,0,0,0,0,0,0,0,0
1681026749.30059099,65328858,1579,1578,1578,1578,0,0,0,0,0,0,0,0,0,0
1681026749.40055108,65428818,1579,1579,1579,1579,0,0,0,0,0,0,0,0,0,0
1681026749.50051117,65528778,1579,1579,1579,1579,0,0,0,0,0,0,0,0,0,0
1681026749.60047102,65628738,1578,1578,1578,1578,0,0,0,0,0,0,0,0,0,0
1681026749.70043111,65728698,1579,1579,1579,1579,0,0,0,0,0,0,0,0,0,0
1681026749.80039120,65828658,1579,1579,1579,1579,0,0,0,0,0,0,0,0,0,0
1681026749.90035105,65928618,1579,1579,1579,1580,0,0,0,0,0,0,0,0,0,0
1681026750.00031114,66028578,1580,1580,1580,1580,0,0,0,0,0,0,0,0,0,0
1681026750.10027099,66128538,1581,1581,1581,1581,0,0,0,0,0,0,0,0,0,0
1681026750.20023108,66228498,1581,1581,1581,1581,0,0,0,0,0,0,0,0,0,0
1681026750.30019116,66328458,1581,1581,1581,1581,0,0,0,0,0,0,0,0,0,0
1681026750.40015101,66428418,1581,1581,1581,1581,0,0,0,0,0,0,0,0,0,0
1681026750.50011110,66528378,1580,1580,1580,1580,0,0,0,0,0,0,0,0,0,0
1681026750.60007119,66628338,1580,1580,1580,1580,0,0,0,0,0,0,0,0,0,0
1681026750.70003104,66728298,1581,1580,1581,1581,0,0,0,0,0,0,0,0,0,0
1681026750.79999113,66828258,1580,1580,1580,1580,0,0,0,0,0,0,0,0,0,0
1681026750.89995098,66928218,1581,1581,1581,1581,0,0,0,0,0,0,0,0,0,0
1681026750.99991107,67028178,1580,1580,1580,1580,0,0,0,0,0,0,0,0,0,0
1681026751.10070419,67128971,1580,1580,1580,1580,0,0,0,0,0,0,0,0,0,0
1681026751.20066404,67228931,1580,1580,1580,1580,0,0,0,0,0,0,0,0,0,0
1681026751.30062413,67328891,1580,1579,1579,1580,0,0,0,0,0,0,0,0,0,0
1681026751.40058398,67428851,1579,1580,1580,1579,0,0,0,0,0,0,0,0,0,0
1681026751.50054407,67528811,1581,1582,1581,1582,0,0,0,0,0,0,0,0,0,0
1681026751.60050416,67628771,1581,1581,1581,1581,0,0,0,0,0,0,0,0,0,0
1681026751.70046401,67728731,1581,1581,1582,1581,0,0,0,0,0,0,0,0,0,0
1681026751.80042410,67828691,1581,1581,1581,1581,0,0,0,0,0,0,0,0,0,0
1681026751.90038419,67928651,1580,1581,1581,1581,0,0,0,0,0,0,0,0,0,0
1681026752.00034404,68028611,1580,1580,1580,1580,0,0,0,0,0,0,0,0,0,0
1681026752.10030413,68128571,1581,1581,1580,1581,0,0,0,0,0,0,0,0,0,0
1681026752.20026398,68228531,1581,1580,1581,1581,0,0,0,0,0,0,0,0,0,0
1681026752.30022407,68328491,1581,1580,1580,1581,0,0,0,0,0,0,0,0,0,0
1681026752.40018415,68428451,1581,1581,1582,1581,0,0,0,0,0,0,0,0,0,0
1681026752.50014400,68528411,1581,1581,1586,1575,0,0,0,0,0,0,0,0,0,0
1681026752.60010409,68628371,1580,1581,1586,1572,0,0,0,0,0,0,0,0,0,0
1681026752.70006418,68728331,1579,1581,1579,1573,0,0,0,0,0,0,0,0,0,0
1681026752.80002403,68828291,1578,1581,1571,1573,0,0,0,0,0,0,0,0,0,0
1681026752.89998412,68928251,1576,1579,1562,1569,0,0,0,0,0,0,0,0,0,0
1681026752.99994421,69028211,1577,1577,1557,1564,0,0,0,0,0,0,0,0,0,0
1681026753.09990406,69128171,1578,1577,1555,1560,0,0,0,0,0,0,0,0,0,0
1681026753.20069718,69228964,1579,1578,1556,1557,0,0,0,0,0,0,0,0,0,0
1681026753.30065703,69328924,1578,1577,1556,1554,0,0,0,0,0,0,0,0,0,0
1681026753.40061712,69428884,1578,1577,1556,1553,0,0,0,0,0,0,0,0,0,0
1681026753.50057721,69528844,1578,1577,1556,1554,0,0,0,0,0,0,0,0,0,0
1681026753.60053706,69628804,1576,1577,1555,1553,0,0,0,0,0,0,0,0,0,0
1681026753.70049715,69728764,1575,1577,1555,1554,0,0,0,0,0,0,0,0,0,0
1681026753.80045700,69828724,1574,1576,1553,1553,0,0,0,0,0,0,0,0,0,0
1681026753.90041709,69928684,1575,1577,1553,1553,0,0,0,0,0,0,0,0,0,0
1681026754.00037718,70028644,1576,1577,1550,1550,0,0,0,0,0,0,0,0,0,0
1681026754.10033703,70128604,1578,1579,1548,1549,0,0,0,0,0,0,0,0,0,0
1681026754.20029712,70228564,1580,1581,1546,1546,0,0,0,0,0,0,0,0,0,0
1681026754.30025721,70328524,1583,1584,1544,1544,0,0,0,0,0,0,0,0,0,0
1681026754.40021706,70428484,1585,1587,1541,1540,0,0,0,0,0,0,0,0,0,0
1681026754.50017715,70528444,1589,1590,1539,1538,0,0,0,0,0,0,0,0,0,0
1681026754.60013700,70628404,1592,1592,1536,1536,0,0,0,0,0,0,0,0,0,0
1681026754.70009708,70728364,1595,1595,1535,1536,0,0,0,0,0,0,0,0,0,0
1681026754.80005717,70828324,1594,1594,1534,1535,0,0,0,0,0,0,0,0,0,0
1681026754.90001702,70928284,1595,1594,1535,1537,0,0,0,0,0,0,0,0,0,0
1681026754.99997711,71028244,1593,1592,1537,1539,0,0,0,0,0,0,0,0,0,0
1681026755.09993720,71128204,1590,1589,1542,1545,0,0,0,0,0,0,0,0,0,0
1681026755.19989705,71228164,1585,1583,1549,1552,0,0,0,0,0,0,0,0,0,0
1681026755.30069017,71328957,1577,1573,1558,1560,0,0,0,0,0,0,0,0,0,0
1681026755.40065002,71428917,1568,1564,1569,1572,0,0,0,0,0,0,0,0,0,0
1681026755.50061011,71528877,1556,1553,1582,1583,0,0,0,0,0,0,0,0,0,0
1681026755.60057020,71628837,1546,1544,1595,1595,0,0,0,0,0,0,0,0,0,0
1681026755.70053005,71728797,1537,1536,1604,1604,0,0,0,0,0,0,0,0,0,0
1681026755.80049014,71828757,1531,1531,1611,1610,0,0,0,0,0,0,0,0,0,0
1681026755.90044999,71928717,1528,1530,1615,1614,0,0,0,0,0,0,0,0,0,0
1681026756.00041008,72028677,1530,1532,1615,1614,0,0,0,0,0,0,0,0,0,0
1681026756.10037017,72128637,1535,1538,1612,1612,0,0,0,0,0,0,0,0,0,0
1681026756.20033002,72228597,1542,1544,1606,1606,0,0,0,0,0,0,0,0,0,0
1681026756.30029011,72328557,1551,1552,1600,1599,0,0,0,0,0,0,0,0,0,0
1681026756.40025020,72428517,1560,1560,1592,1591,0,0,0,0,0,0,0,0,0,0
1681026756.50021005,72528477,1568,1568,1584,1584,0,0,0,0,0,0,0,0,0,0
1681026756.60017014,72628437,1576,1576,1578,1577,0,0,0,0,0,0,0,0,0,0
1681026756.70012999,72728397,1582,1581,1573,1573,0,0,0,0,0,0,0,0,0,0
1681026756.80009007,72828357,1585,1584,1568,1568,0,0,0,0,0,0,0,0,0,0
1681026756.90005016,72928317,1587,1586,1566,1566,0,0,0,0,0,0,0,0,0,0
1681026757.00001001,73028277,1588,1587,1566,1566,0,0,0,0,0,0,0,0,0,0
1681026757.09997010,73128237,1588,1586,1568,1568,0,0,0,0,0,0,0,0,0,0
1681026757.19993019,73228197,1585,1584,1569,1570,0,0,0,0,0,0,0,0,0,0
1681026757.29989004,73328157,1582,1582,1572,1573,0,0,0,0,0,0,0,0,0,0
1681026757.40068316,73428950,1579,1579,1576,1575,0,0,0,0,0,0,0,0,0,0
1681026757.50064301,73528910,1577,1577,1579,1578,0,0,0,0,0,0,0,0,0,0
1681026757.60060310,73628870,1575,1576,1582,1581,0,0,0,0,0,0,0,0,0,0
1681026757.70056319,73728830,1572,1573,1582,1582,0,0,0,0,0,0,0,0,0,0
1681026757.80052304,73828790,1572,1573,1583,1583,0,0,0,0,0,0,0,0,0,0
1681026757.90048313,73928750,1571,1572,1583,1583,0,0,0,0,0,0,0,0,0,0
1681026758.00044298,74028710,1572,1573,1583,1583,0,0,0,0,0,0,0,0,0,0
1681026758.10040307,74128670,1573,1574,1582,1582,0,0,0,0,0,0,0,0,0,0
1681026758.20036316,74228630,1576,1575,1581,1582,0,0,0,0,0,0,0,0,0,0
1681026758.30032301,74328590,1576,1576,1580,1580,0,0,0,0,0,0,0,0,0,0
1681026758.40028310,74428550,1578,1578,1579,1579,0,0,0,0,0,0,0,0,0,0
1681026758.50024319,74528510,1580,1579,1578,1578,0,0,0,0,0,0,0,0,0,0
1681026758.60020304,74628470,1581,1581,1579,1578,0,0,0,0,0,0,0,0,0,0
1681026758.70016313,74728430,1581,1581,1577,1577,0,0,0,0,0,0,0,0,0,0
1681026758.80012298,74828390,1582,1581,1577,1577,0,0,0,0,0,0,0,0,0,0
1681026758.90008307,74928350,1581,1581,1577,1577,0,0,0,0,0,0,0,0,0,0
1681026759.00004315,75028310,1581,1580,1577,1577,0,0,0,0,0,0,0,0,0,0
1681026759.10000300,75128270,1581,1581,1578,1578,0,0,0,0,0,0,0,0,0,0
1681026759.19996309,75228230,1580,1580,1578,1578,0,0,0,0,0,0,0,0,0,0
1681026759.29992318,75328190,1579,1579,1578,1579,0,0,0,0,0,0,0,0,0,0
1681026759.40071607,75428983,1579,1579,1579,1579,0,0,0,0,0,0,0,0,0,0
1681026759.50067616,75528943,1579,1580,1580,1580,0,0,0,0,0,0,0,0,0,0
1681026759.60063601,75628903,1579,1579,1580,1580,0,0,0,0,0,0,0,0,0,0
1681026759.70059609,75728863,1580,1580,1582,1582,0,0,0,0,0,0,0,0,0,0
1681026759.80055618,75828823,1579,1579,1581,1581,0,0,0,0,0,0,0,0,0,0
1681026759.90051603,75928783,1580,1580,1582,1582,0,0,0,0,0,0,0,0,0,0
1681026760.00047612,76028743,1580,1580,1581,1581,0,0,0,0,0,0,0,0,0,0
1681026760.10043621,76128703,1580,1580,1581,1581,0,0,0,0,0,0,0,0,0,0
1681026760.20039606,76228663,1582,1582,1496,1568,0,0,0,0,0,0,0,0,0,0
1681026760.30035615,76328623,1595,1594,1545,1557,0,0,0,0,0,0,0,0,0,0
1681026760.40031600,76428583,1603,1602,1581,1561,0,0,0,0,0,0,0,0,0,0
1681026760.50027609,76528543,1609,1610,1611,1571,0,0,0,0,0,0,0,0,0,0
1681026760.60023618,76628503,1609,1614,1627,1581,0,0,0,0,0,0,0,0,0,0
1681026760.70019603,76728463,1600,1606,1618,1591,0,0,0,0,0,0,0,0,0,0
1681026760.80015612,76828423,1587,1593,1601,1598,0,0,0,0,0,0,0,0,0,0
1681026760.90011621,76928383,1575,1579,1582,1598,0,0,0,0,0,0,0,0,0,0
1681026761.00007606,77028343,1569,1570,1569,1592,0,0,0,0,0,0,0,0,0,0
1681026761.10003614,77128303,1568,1566,1563,1583,0,0,0,0,0,0,0,0,0,0
1681026761.19999599,77228263,1571,1567,1561,1573,0,0,0,0,0,0,0,0,0,0
1681026761.29995608,77328223,1574,1570,1561,1563,0,0,0,0,0,0,0,0,0,0
1681026761.39991617,77428183,1575,1574,1559,1555,0,0,0,0,0,0,0,0,0,0
1681026761.50070906,77528976,1578,1579,1557,1550,0,0,0,0,0,0,0,0,0,0
1681026761.60066915,77628936,1580,1583,1553,1547,0,0,0,0,0,0,0,0,0,0
1681026761.70062900,77728896,1582,1584,1548,1545,0,0,0,0,0,0,0,0,0,0
1681026761.80058908,77828856,1583,1585,1543,1543,0,0,0,0,0,0,0,0,0,0
1681026761.90054917,77928816,1585,1586,1540,1543,0,0,0,0,0,0,0,0,0,0
1681026762.00050902,78028776,1587,1587,1539,1541,0,0,0,0,0,0,0,0,0,0
1681026762.10046911,78128736,1588,1588,1537,1540,0,0,0,0,0,0,0,0,0,0
1681026762.20042920,78228696,1589,1589,1537,1538,0,0,0,0,0,0,0,0,0,0
1681026762.30038905,78328656,1590,1589,1537,1537,0,0,0,0,0,0,0,0,0,0
1681026762.40034914,78428616,1590,1591,1537,1538,0,0,0,0,0,0,0,0,0,0
1681026762.50030899,78528576,1591,1592,1539,1539,0,0,0,0,0,0,0,0,0,0
1681026762.60026908,78628536,1591,1592,1540,1541,0,0,0,0,0,0,0,0,0,0
1681026762.70022917,78728496,1590,1590,1541,1543,0,0,0,0,0,0,0,0,0,0
1681026762.80018902,78828456,1588,1588,1544,1546,0,0,0,0,0,0,0,0,0,0
1681026762.90014911,78928416,1586,1583,1549,1552,0,0,0,0,0,0,0,0,0,0
1681026763.00010920,79028376,1580,1577,1557,1560,0,0,0,0,0,0,0,0,0,0
1681026763.10006905,79128336,1572,1568,1566,1568,0,0,0,0,0,0,0,0,0,0
1681026763.20002913,79228296,1563,1560,1577,1578,0,0,0,0,0,0,0,0,0,0
1681026763.29998899,79328256,1555,1551,1589,1589,0,0,0,0,0,0,0,0,0,0
1681026763.39994907,79428216,1546,1545,1599,1598,0,0,0,0,0,0,0,0,0,0
1681026763.49990916,79528176,1540,1541,1606,1605,0,0,0,0,0,0,0,0,0,0
1681026763.60070205,79628969,1539,1540,1611,1608,0,0,0,0,0,0,0,0,0,0
1681026763.70066214,79728929,1539,1540,1610,1609,0,0,0,0,0,0,0,0,0,0
1681026763.80062199,79828889,1542,1543,1608,1608,0,0,0,0,0,0,0,0,0,0
1681026763.90058208,79928849,1545,1546,1605,1605,0,0,0,0,0,0,0,0,0,0
1681026764.00054216,80028809,1550,1552,1601,1601,0,0,0,0,0,0,0,0,0,0
1681026764.10050201,80128769,1555,1556,1596,1596,0,0,0,0,0,0,0,0,0,0
1681026764.20046210,80228729,1561,1561,1591,1590,0,0,0,0,0,0,0,0,0,0
1681026764.30042219,80328689,1567,1567,1585,1585,0,0,0,0,0,0,0,0,0,0
1681026764.40038204,80428649,1571,1571,1579,1578,0,0,0,0,0,0,0,0,0,0
1681026764.50034213,80528609,1576,1576,1573,1574,0,0,0,0,0,0,0,0,0,0
1681026764.60030198,80628569,1581,1580,1570,1570,0,0,0,0,0,0,0,0,0,0
1681026764.70026207,80728529,1584,1583,1568,1568,0,0,0,0,0,0,0,0,0,0
1681026764.80022216,80828489,1584,1583,1565,1566,0,0,0,0,0,0,0,0,0,0
1681026764.90018201,80928449,1584,1583,1566,1567,0,0,0,0,0,0,0,0,0,0
1681026765.00014210,81028409,1583,1583,1568,1568,0,0,0,0,0,0,0,0,0,0
1681026765.10010219,81128369,1582,1581,1570,1571,0,0,0,0,0,0,0,0,0,0
1681026765.20006204,81228329,1580,1580,1574,1573,0,0,0,0,0,0,0,0,0,0
1681026765.30002213,81328289,1577,1577,1576,1575,0,0,0,0,0,0,0,0,0,0
1681026765.39998198,81428249,1576,1576,1579,1579,0,0,0,0,0,0,0,0,0,0
1681026765.49994206,81528209,1575,1575,1581,1581,0,0,0,0,0,0,0,0,0,0
1681026765.59990215,81628169,1573,1574,1582,1582,0,0,0,0,0,0,0,0,0,0
1681026765.70069504,81728962,1574,1573,1583,1583,0,0,0,0,0,0,0,0,0,0
1681026765.80065513,81828922,1573,1574,1583,1583,0,0,0,0,0,0,0,0,0,0
1681026765.90061498,81928882,1574,1575,1583,1583,0,0,0,0,0,0,0,0,0,0
1681026766.00057507,82028842,1576,1576,1583,1583,0,0,0,0,0,0,0,0,0,0
1681026766.10053515,82128802,1576,1576,1581,1582,0,0,0,0,0,0,0,0,0,0
1681026766.20049500,82228762,1578,1578,1580,1581,0,0,0,0,0,0,0,0,0,0
1681026766.30045509,82328722,1578,1578,1579,1579,0,0,0,0,0,0,0,0,0,0
1681026766.40041518,82428682,1579,1579,1578,1578,0,0,0,0,0,0,0,0,0,0
1681026766.50037503,82528642,1579,1579,1577,1577,0,0,0,0,0,0,0,0,0,0
1681026766.60033512,82628602,1582,1581,1578,1578,0,0,0,0,0,0,0,0,0,0
1681026766.70029521,82728562,1582,1582,1578,1578,0,0,0,0,0,0,0,0,0,0
1681026766.80025506,82828522,1582,1582,1579,1578,0,0,0,0,0,0,0,0,0,0
1681026766.90021515,82928482,1582,1582,1579,1579,0,0,0,0,0,0,0,0,0,0
1681026767.00017500,83028442,1582,1581,1579,1579,0,0,0,0,0,0,0,0,0,0
1681026767.10013509,83128402,1580,1580,1578,1578,0,0,0,0,0,0,0,0,0,0
1681026767.20009518,83228362,1580,1579,1579,1579,0,0,0,0,0,0,0,0,0,0
1681026767.30005503,83328322,1579,1579,1579,1579,0,0,0,0,0,0,0,0,0,0
1681026767.40001512,83428282,1579,1580,1580,1580,0,0,0,0,0,0,0,0,0,0
1681026767.49997520,83528242,1579,1579,1580,1580,0,0,0,0,0,0,0,0,0,0
1681026767.59993505,83628202,1579,1579,1581,1581,0,0,0,0,0,0,0,0,0,0
1681026767.69989514,83728162,1579,1579,1581,1581,0,0,0,0,0,0,0,0,0,0
1681026767.80068803,83828955,1580,1580,1581,1581,0,0,0,0,0,0,0,0,0,0
1681026767.90064812,83928915,1580,1580,1581,1581,0,0,0,0,0,0,0,0,0,0
1681026768.00060821,84028875,1581,1580,1581,1581,0,0,0,0,0,0,0,0,0,0
1681026768.10056806,84128835,1580,1580,1581,1581,0,0,0,0,0,0,0,0,0,0
1681026768.20052814,84228795,1581,1580,1581,1581,0,0,0,0,0,0,0,0,0,0
1681026768.30048800,84328755,1581,1582,1581,1581,0,0,0,0,0,0,0,0,0,0
1681026768.40044808,84428715,1581,1582,1581,1581,0,0,0,0,0,0,0,0,0,0
1681026768.50040817,84528675,1581,1581,1580,1580,0,0,0,0,0,0,0,0,0,0
1681026768.60036802,84628635,1581,1581,1582,1579,0,0,0,0,0,0,0,0,0,0
1681026768.70032811,84728595,1582,1583,1588,1573,0,0,0,0,0,0,0,0,0,0
1681026768.80028820,84828555,1581,1584,1584,1574,0,0,0,0,0,0,0,0,0,0
1681026768.90024805,84928515,1579,1582,1575,1574,0,0,0,0,0,0,0,0,0,0
1681026769.00020814,85028475,1578,1580,1568,1572,0,0,0,0,0,0,0,0,0,0
1681026769.10016799,85128435,1578,1580,1562,1569,0,0,0,0,0,0,0,0,0,0
1681026769.20012808,85228395,1578,1578,1557,1563,0,0,0,0,0,0,0,0,0,0
1681026769.30008817,85328355,1579,1577,1555,1558,0,0,0,0,0,0,0,0,0,0
1681026769.40004802,85428315,1579,1577,1554,1555,0,0,0,0,0,0,0,0,0,0
1681026769.50000811,85528275,1579,1577,1555,1553,0,0,0,0,0,0,0,0,0,0
1681026769.59996819,85628235,1578,1578,1555,1552,0,0,0,0,0,0,0,0,0,0
1681026769.69992805,85728195,1577,1577,1555,1553,0,0,0,0,0,0,0,0,0,0
1681026769.79988813,85828155,1576,1577,1555,1554,0,0,0,0,0,0,0,0,0,0
1681026769.90068102,85928948,1575,1577,1554,1553,0,0,0,0,0,0,0,0,0,0
1681026770.00064111,86028908,1574,1576,1553,1553,0,0,0,0,0,0,0,0,0,0
1681026770.10060120,86128868,1576,1577,1551,1552,0,0,0,0,0,0,0,0,0,0
1681026770.20056105,86228828,1577,1578,1550,1550,0,0,0,0,0,0,0,0,0,0
1681026770.30052114,86328788,1578,1580,1548,1548,0,0,0,0,0,0,0,0,0,0
1681026770.40048099,86428748,1581,1583,1547,1546,0,0,0,0,0,0,0,0,0,0
1681026770.50044107,86528708,1584,1585,1544,1544,0,0,0,0,0,0,0,0,0,0
1681026770.60040116,86628668,1587,1588,1542,1541,0,0,0,0,0,0,0,0,0,0
1681026770.70036101,86728628,1591,1591,1541,1540,0,0,0,0,0,0,0,0,0,0
1681026770.80032110,86828588,1593,1593,1538,1538,0,0,0,0,0,0,0,0,0,0
1681026770.90028119,86928548,1594,1594,1537,1537,0,0,0,0,0,0,0,0,0,0
1681026771.00024104,87028508,1594,1594,1535,1538,0,0,0,0,0,0,0,0,0,0
1681026771.10020113,87128468,1594,1593,1536,1539,0,0,0,0,0,0,0,0,0,0
1681026771.20016098,87228428,1593,1592,1541,1544,0,0,0,0,0,0,0,0,0,0
1681026771.30012107,87328388,1589,1586,1546,1549,0,0,0,0,0,0,0,0,0,0
1681026771.40008116,87428348,1582,1580,1555,1557,0,0,0,0,0,0,0,0,0,0
1681026771.50004101,87528308,1574,1570,1565,1567,0,0,0,0,0,0,0,0,0,0
1681026771.60000110,87628268,1564,1560,1577,1579,0,0,0,0,0,0,0,0,0,0
1681026771.69996119,87728228,1552,1549,1589,1589,0,0,0,0,0,0,0,0,0,0
1681026771.79992104,87828188,1541,1540,1599,1598,0,0,0,0,0,0,0,0,0,0
1681026771.90071416,87928981,1535,1535,1608,1607,0,0,0,0,0,0,0,0,0,0
1681026772.00067401,88028941,1532,1533,1613,1611,0,0,0,0,0,0,0,0,0,0
1681026772.10063410,88128901,1533,1536,1615,1613,0,0,0,0,0,0,0,0,0,0
1681026772.20059419,88228861,1536,1539,1613,1611,0,0,0,0,0,0,0,0,0,0
1681026772.30055404,88328821,1542,1544,1609,1608,0,0,0,0,0,0,0,0,0,0
1681026772.40051413,88428781,1550,1550,1604,1603,0,0,0,0,0,0,0,0,0,0
1681026772.50047398,88528741,1556,1556,1597,1597,0,0,0,0,0,0,0,0,0,0
1681026772.60043406,88628701,1564,1564,1590,1590,0,0,0,0,0,0,0,0,0,0
1681026772.70039415,88728661,1570,1570,1582,1582,0,0,0,0,0,0,0,0,0,0
1681026772.80035400,88828621,1576,1576,1576,1576,0,0,0,0,0,0,0,0,0,0
1681026772.90031409,88928581,1581,1580,1570,1571,0,0,0,0,0,0,0,0,0,0
1681026773.00027418,89028541,1584,1582,1566,1567,0,0,0,0,0,0,0,0,0,0
1681026773.10023403,89128501,1586,1585,1565,1565,0,0,0,0,0,0,0,0,0,0
1681026773.20019412,89228461,1586,1585,1565,1565,0,0,0,0,0,0,0,0,0,0
1681026773.30015421,89328421,1585,1584,1566,1566,0,0,0,0,0,0,0,0,0,0
1681026773.40011406,89428381,1583,1583,1570,1569,0,0,0,0,0,0,0,0,0,0
1681026773.50007415,89528341,1580,1580,1572,1571,0,0,0,0,0,0,0,0,0,0
1681026773.60003400,89628301,1578,1579,1575,1575,0,0,0,0,0,0,0,0,0,0
1681026773.69999409,89728261,1577,1577,1579,1579,0,0,0,0,0,0,0,0,0,0
1681026773.79995418,89828221,1575,1575,1581,1581,0,0,0,0,0,0,0,0,0,0
1681026773.89991403,89928181,1574,1574,1583,1583,0,0,0,0,0,0,0,0,0,0
1681026774.00070715,90028974,1573,1574,1584,1584,0,0,0,0,0,0,0,0,0,0
1681026774.10066700,90128934,1574,1574,1585,1585,0,0,0,0,0,0,0,0,0,0
1681026774.20062709,90228894,1574,1575,1585,1585,0,0,0,0,0,0,0,0,0,0
1681026774.30058718,90328854,1575,1575,1584,1584,0,0,0,0,0,0,0,0,0,0
1681026774.40054703,90428814,1576,1576,1582,1583,0,0,0,0,0,0,0,0,0,0
1681026774.50050712,90528774,1577,1578,1582,1582,0,0,0,0,0,0,0,0,0,0
1681026774.60046721,90628734,1579,1579,1581,1581,0,0,0,0,0,0,0,0,0,0
1681026774.70042706,90728694,1580,1580,1579,1580,0,0,0,0,0,0,0,0,0,0
1681026774.80038714,90828654,1581,1580,1578,1578,0,0,0,0,0,0,0,0,0,0
1681026774.90034699,90928614,1582,1581,1578,1578,0,0,0,0,0,0,0,0,0,0
1681026775.00030708,91028574,1582,1581,1577,1577,0,0,0,0,0,0,0,0,0,0
1681026775.10026717,91128534,1581,1582,1577,1577,0,0,0,0,0,0,0,0,0,0
1681026775.20022702,91228494,1582,1582,1578,1578,0,0,0,0,0,0,0,0,0,0
1681026775.30018711,91328454,1582,1582,1579,1579,0,0,0,0,0,0,0,0,0,0
1681026775.40014720,91428414,1580,1581,1579,1579,0,0,0,0,0,0,0,0,0,0
1681026775.50010705,91528374,1580,1581,1580,1580,0,0,0,0,0,0,0,0,0,0
1681026775.60006714,91628334,1580,1580,1580,1580,0,0,0,0,0,0,0,0,0,0
1681026775.70002699,91728294,1580,1580,1581,1581,0,0,0,0,0,0,0,0,0,0
1681026775.79998708,91828254,1580,1580,1581,1581,0,0,0,0,0,0,0,0,0,0
1681026775.89994717,91928214,1580,1580,1582,1581,0,0,0,0,0,0,0,0,0,0
1681026775.99990702,92028174,1580,1579,1581,1581,0,0,0,0,0,0,0,0,0,0
1681026776.10070014,92128967,1579,1580,1581,1581,0,0,0,0,0,0,0,0,0,0
1681026776.20065999,92228927,1580,1581,1582,1582,0,0,0,0,0,0,0,0,0,0
1681026776.30062008,92328887,1580,1581,1582,1582,0,0,0,0,0,0,0,0,0,0
1681026776.40058017,92428847,1580,1581,1581,1581,0,0,0,0,0,0,0,0,0,0
1681026776.50054002,92528807,1582,1581,1582,1582,0,0,0,0,0,0,0,0,0,0
1681026776.60050011,92628767,1581,1581,1584,1577,0,0,0,0,0,0,0,0,0,0
1681026776.70046020,92728727,1581,1582,1587,1572,0,0,0,0,0,0,0,0,0,0
1681026776.80042005,92828687,1579,1580,1582,1574,0,0,0,0,0,0,0,0,0,0
1681026776.90038013,92928647,1576,1576,1575,1575,0,0,0,0,0,0,0,0,0,0
1681026777.00033998,93028607,1573,1573,1570,1575,0,0,0,0,0,0,0,0,0,0
1681026777.10030007,93128567,1569,1569,1565,1572,0,0,0,0,0,0,0,0,0,0
1681026777.20026016,93228527,1569,1568,1565,1571,0,0,0,0,0,0,0,0,0,0
1681026777.30022001,93328487,1567,1566,1565,1568,0,0,0,0,0,0,0,0,0,0
1681026777.40018010,93428447,1566,1567,1566,1566,0,0,0,0,0,0,0,0,0,0
1681026777.50014019,93528407,1566,1566,1567,1565,0,0,0,0,0,0,0,0,0,0
1681026777.60010004,93628367,1565,1565,1567,1563,0,0,0,0,0,0,0,0,0,0
1681026777.70006013,93728327,1565,1566,1567,1564,0,0,0,0,0,0,0,0,0,0
1681026777.80001998,93828287,1564,1564,1565,1564,0,0,0,0,0,0,0,0,0,0
1681026777.89998007,93928247,1564,1564,1564,1564,0,0,0,0,0,0,0,0,0,0
1681026777.99994016,94028207,1562,1562,1562,1563,0,0,0,0,0,0,0,0,0,0
1681026778.09990001,94128167,1561,1561,1561,1562,0,0,0,0,0,0,0,0,0,0
1681026778.20069313,94228960,1561,1561,1561,1562,0,0,0,0,0,0,0,0,0,0
1681026778.30065298,94328920,1561,1560,1561,1561,0,0,0,0,0,0,0,0,0,0
1681026778.40061307,94428880,1561,1561,1561,1561,0,0,0,0,0,0,0,0,0,0
1681026778.50057316,94528840,1560,1560,1561,1560,0,0,0,0,0,0,0,0,0,0
1681026778.60053301,94628800,1560,1560,1561,1558,0,0,0,0,0,0,0,0,0,0
1681026778.70049310,94728760,1559,1559,1560,1559,0,0,0,0,0,0,0,0,0,0
1681026778.80045319,94828720,1558,1558,1558,1557,0,0,0,0,0,0,0,0,0,0
1681026778.90041304,94928680,1559,1559,1559,1558,0,0,0,0,0,0,0,0,0,0
1681026779.00037313,95028640,1559,1558,1559,1558,0,0,0,0,0,0,0,0,0,0
1681026779.10033298,95128600,1558,1558,1559,1558,0,0,0,0,0,0,0,0,0,0
1681026779.20029306,95228560,1558,1558,1559,1557,0,0,0,0,0,0,0,0,0,0
1681026779.30025315,95328520,1559,1559,1561,1558,0,0,0,0,0,0,0,0,0,0
1681026779.40021300,95428480,1560,1559,1561,1558,0,0,0,0,0,0,0,0,0,0
1681026779.50017309,95528440,1560,1559,1559,1561,0,0,0,0,0,0,0,0,0,0
1681026779.60013318,95628400,1561,1562,1559,1564,0,0,0,0,0,0,0,0,0,0
1681026779.70009303,95728360,1560,1560,1557,1564,0,0,0,0,0,0,0,0,0,0
1681026779.80005312,95828320,1561,1561,1559,1564,0,0,0,0,0,0,0,0,0,0
1681026779.90001321,95928280,1562,1561,1560,1563,0,0,0,0,0,0,0,0,0,0
1681026779.99997306,96028240,1561,1561,1561,1560,0,0,0,0,0,0,0,0,0,0
1681026780.09993315,96128200,1560,1560,1561,1559,0,0,0,0,0,0,0,0,0,0
1681026780.19989300,96228160,1557,1558,1557,1558,0,0,0,0,0,0,0,0,0,0
1681026780.30068612,96328953,1554,1554,1553,1555,0,0,0,0,0,0,0,0,0,0
1681026780.40064621,96428913,1549,1549,1549,1550,0,0,0,0,0,0,0,0,0,0
1681026780.50060606,96528873,1543,1543,1543,1544,0,0,0,0,0,0,0,0,0,0
1681026780.60056615,96628833,1536,1536,1537,1537,0,0,0,0,0,0,0,0,0,0
1681026780.70052600,96728793,1530,1530,1531,1531,0,0,0,0,0,0,0,0,0,0
1681026780.80048609,96828753,1522,1521,1523,1523,0,0,0,0,0,0,0,0,0,0
1681026780.90044618,96928713,1520,1520,1520,1520,0,0,0,0,0,0,0,0,0,0
1681026781.00040603,97028673,1518,1519,1518,1519,0,0,0,0,0,0,0,0,0,0
1681026781.10036612,97128633,1520,1520,1520,1520,0,0,0,0,0,0,0,0,0,0
1681026781.20032620,97228593,1523,1523,1522,1522,0,0,0,0,0,0,0,0,0,0
1681026781.30028605,97328553,1527,1527,1525,1526,0,0,0,0,0,0,0,0,0,0
1681026781.40024614,97428513,1531,1531,1529,1530,0,0,0,0,0,0,0,0,0,0
1681026781.50020599,97528473,1536,1536,1535,1535,0,0,0,0,0,0,0,0,0,0
1681026781.60016608,97628433,1540,1540,1538,1538,0,0,0,0,0,0,0,0,0,0
1681026781.70012617,97728393,1542,1542,1541,1540,0,0,0,0,0,0,0,0,0,0
1681026781.80008602,97828353,1543,1543,1543,1542,0,0,0,0,0,0,0,0,0,0
1681026781.90004611,97928313,1544,1545,1545,1544,0,0,0,0,0,0,0,0,0,0
1681026782.00000620,98028273,1545,1545,1545,1545,0,0,0,0,0,0,0,0,0,0
1681026782.09996605,98128233,1545,1545,1546,1546,0,0,0,0,0,0,0,0,0,0
1681026782.19992614,98228193,1546,1545,1546,1546,0,0,0,0,0,0,0,0,0,0
1681026782.30071902,98328986,1545,1545,1546,1547,0,0,0,0,0,0,0,0,0,0
1681026782.40067911,98428946,1546,1546,1547,1547,0,0,0,0,0,0,0,0,0,0
1681026782.50063920,98528906,1545,1546,1546,1546,0,0,0,0,0,0,0,0,0,0
1681026782.60059905,98628866,1546,1546,1547,1546,0,0,0,0,0,0,0,0,0,0
1681026782.70055914,98728826,1546,1547,1547,1547,0,0,0,0,0,0,0,0,0,0
1681026782.80051899,98828786,1546,1546,1546,1546,0,0,0,0,0,0,0,0,0,0
1681026782.90047908,98928746,1546,1546,1546,1546,0,0,0,0,0,0,0,0,0,0
1681026783.00043917,99028706,1545,1545,1545,1545,0,0,0,0,0,0,0,0,0,0
1681026783.10039902,99128666,1545,1545,1545,1545,0,0,0,0,0,0,0,0,0,0
1681026783.20035911,99228626,1545,1545,1544,1544,0,0,0,0,0,0,0,0,0,0
1681026783.30031919,99328586,1545,1545,1545,1545,0,0,0,0,0,0,0,0,0,0
1681026783.40027905,99428546,1544,1544,1544,1543,0,0,0,0,0,0,0,0,0,0
1681026783.50023913,99528506,1544,1544,1544,1544,0,0,0,0,0,0,0,0,0,0
1681026783.60019898,99628466,1544,1544,1544,1544,0,0,0,0,0,0,0,0,0,0
1681026783.70015907,99728426,1544,1543,1544,1544,0,0,0,0,0,0,0,0,0,0
1681026783.80011916,99828386,1543,1544,1544,1544,0,0,0,0,0,0,0,0,0,0
1681026783.90007901,99928346,1544,1544,1544,1544,0,0,0,0,0,0,0,0,0,0
1681026784.00003910,100028306,1542,1543,1543,1543,0,0,0,0,0,0,0,0,0,0
1681026784.09999919,100128266,1544,1544,1544,1544,0,0,0,0,0,0,0,0,0,0
1681026784.19995904,100228226,1544,1544,1544,1544,0,0,0,0,0,0,0,0,0,0
1681026784.29991913,100328186,1544,1544,1544,1544,0,0,0,0,0,0,0,0,0,0
1681026784.40071201,100428979,1544,1543,1544,1544,0,0,0,0,0,0,0,0,0,0
1681026784.50067210,100528939,1543,1543,1543,1544,0,0,0,0,0,0,0,0,0,0
1681026784.60063219,100628899,1543,1543,1544,1543,0,0,0,0,0,0,0,0,0,0
1681026784.70059204,100728859,1544,1544,1544,1544,0,0,0,0,0,0,0,0,0,0
1681026784.80055213,100828819,1544,1544,1544,1544,0,0,0,0,0,0,0,0,0,0
1681026784.90051198,100928779,1544,1544,1543,1544,0,0,0,0,0,0,0,0,0,0
1681026785.00047207,101028739,1544,1544,1544,1544,0,0,0,0,0,0,0,0,0,0
1681026785.10043216,101128699,1544,1544,1544,1544,0,0,0,0,0,0,0,0,0,0
1681026785.20039201,101228659,1545,1545,1545,1545,0,0,0,0,0,0,0,0,0,0
1681026785.30035210,101328619,1545,1545,1545,1545,0,0,0,0,0,0,0,0,0,0
1681026785.40031219,101428579,1545,1545,1545,1545,0,0,0,0,0,0,0,0,0,0
1681026785.50027204,101528539,1544,1544,1544,1545,0,0,0,0,0,0,0,0,0,0
1681026785.60023212,101628499,1544,1544,1544,1544,0,0,0,0,0,0,0,0,0,0
1681026785.70019197,101728459,1544,1544,1544,1544,0,0,0,0,0,0,0,0,0,0
1681026785.80015206,101828419,1545,1546,1545,1546,0,0,0,0,0,0,0,0,0,0
1681026785.90011215,101928379,1544,1544,1544,1544,0,0,0,0,0,0,0,0,0,0
1681026786.00007200,102028339,1544,1545,1545,1545,0,0,0,0,0,0,0,0,0,0
1681026786.10003209,102128299,1545,1544,1545,1545,0,0,0,0,0,0,0,0,0,0
1681026786.19999218,102228259,1545,1545,1544,1545,0,0,0,0,0,0,0,0,0,0
1681026786.29995203,102328219,1544,1545,1544,1544,0,0,0,0,0,0,0,0,0,0
1681026786.39991212,102428179,1545,1545,1545,1545,0,0,0,0,0,0,0,0,0,0
1681026786.50070500,102528972,1545,1545,1545,1545,0,0,0,0,0,0,0,0,0,0
1681026786.60066509,102628932,1544,1544,1544,1545,0,0,0,0,0,0,0,0,0,0
1681026786.70062518,102728892,1545,1545,1545,1545,0,0,0,0,0,0,0,0,0,0
1681026786.80058503,102828852,1545,1545,1545,1545,0,0,0,0,0,0,0,0,0,0
1681026786.90054512,102928812,1544,1544,1544,1544,0,0,0,0,0,0,0,0,0,0
1681026787.00050521,103028772,1545,1545,1545,1545,0,0,0,0,0,0,0,0,0,0
1681026787.10046506,103128732,1545,1545,1545,1545,0,0,0,0,0,0,0,0,0,0
1681026787.20042515,103228692,1544,1544,1544,1544,0,0,0,0,0,0,0,0,0,0
1681026787.30038500,103328652,1544,1543,1543,1544,0,0,0,0,0,0,0,0,0,0
1681026787.40034509,103428612,1544,1544,1544,1544,0,0,0,0,0,0,0,0,0,0
1681026787.50030518,103528572,1544,1544,1544,1544,0,0,0,0,0,0,0,0,0,0
1681026787.60026503,103628532,1544,1545,1545,1544,0,0,0,0,0,0,0,0,0,0
1681026787.70022511,103728492,1544,1544,1544,1544,0,0,0,0,0,0,0,0,0,0
1681026787.80018520,103828452,1545,1545,1545,1545,0,0,0,0,0,0,0,0,0,0
1681026787.90014505,103928412,1545,1545,1545,1545,0,0,0,0,0,0,0,0,0,0
1681026788.00010514,104028372,1545,1545,1545,1545,0,0,0,0,0,0,0,0,0,0
1681026788.10006499,104128332,1546,1545,1545,1546,0,0,0,0,0,0,0,0,0,0
1681026788.20002508,104228292,1545,1545,1545,1545,0,0,0,0,0,0,0,0,0,0
1681026788.29998517,104328252,1545,1545,1545,1545,0,0,0,0,0,0,0,0,0,0
1681026788.39994502,104428212,1544,1544,1544,1544,0,0,0,0,0,0,0,0,0,0
1681026788.49990511,104528172,1544,1544,1544,1544,0,0,0,0,0,0,0,0,0,0
1681026788.60069799,104628965,1544,1544,1544,1544,0,0,0,0,0,0,0,0,0,0
1681026788.70065808,104728925,1544,1544,1544,1544,0,0,0,0,0,0,0,0,0,0
1681026788.80061817,104828885,1544,1543,1544,1544,0,0,0,0,0,0,0,0,0,0
1681026788.90057802,104928845,1545,1544,1544,1545,0,0,0,0,0,0,0,0,0,0
1681026789.00053811,105028805,1544,1544,1544,1544,0,0,0,0,0,0,0,0,0,0
1681026789.10049820,105128765,1544,1544,1544,1544,0,0,0,0,0,0,0,0,0,0
1681026789.20045805,105228725,1544,1544,1544,1544,0,0,0,0,0,0,0,0,0,0
1681026789.30041814,105328685,1544,1544,1544,1544,0,0,0,0,0,0,0,0,0,0
1681026789.40037799,105428645,1544,1544,1544,1544,0,0,0,0,0,0,0,0,0,0
1681026789.50033808,105528605,1545,1545,1544,1545,0,0,0,0,0,0,0,0,0,0
1681026789.60029817,105628565,1544,1544,1544,1544,0,0,0,0,0,0,0,0,0,0
1681026789.70025802,105728525,1545,1545,1545,1544,0,0,0,0,0,0,0,0,0,0
1681026789.80021811,105828485,1545,1545,1545,1545,0,0,0,0,0,0,0,0,0,0
1681026789.90017819,105928445,1544,1544,1544,1545,0,0,0,0,0,0,0,0,0,0
1681026790.00013804,106028405,1545,1544,1544,1545,0,0,0,0,0,0,0,0,0,0
1681026790.10009813,106128365,1544,1544,1544,1545,0,0,0,0,0,0,0,0,0,0
1681026790.20005798,106228325,1543,1543,1543,1543,0,0,0,0,0,0,0,0,0,0
1681026790.30001807,106328285,1543,1543,1543,1543,0,0,0,0,0,0,0,0,0,0
1681026790.39997816,106428245,1544,1544,1544,1544,0,0,0,0,0,0,0,0,0,0
1681026790.49993801,106528205,1545,1544,1544,1544,0,0,0,0,0,0,0,0,0,0
1681026790.59989810,106628165,1540,1537,1538,1539,0,0,0,0,0,0,0,0,0,0
1681026790.70069098,106728958,1351,1347,1376,1349,0,0,0,0,0,0,0,0,0,0
1681026790.80065107,106828918,1248,1244,1294,1246,0,0,0,0,0,0,0,0,0,0
1681026790.90061116,106928878,1216,1211,1269,1214,0,0,0,0,0,0,0,0,0,0
1681026791.00057101,107028838,1197,1193,1256,1195,0,0,0,0,0,0,0,0,0,0
1681026791.10053110,107128798,1155,1150,1225,1153,0,0,0,0,0,0,0,0,0,0
1681026791.20049119,107228758,1155,1150,1225,1152,0,0,0,0,0,0,0,0,0,0
1681026791.30045104,107328718,1156,1150,1225,1154,0,0,0,0,0,0,0,0,0,0
1681026791.40041113,107428678,1176,1150,1224,1174,0,0,0,0,0,0,0,0,0,0
1681026791.50037098,107528638,1183,1150,1224,1182,0,0,0,0,0,0,0,0,0,0
1681026791.60033107,107628598,1176,1150,1225,1174,0,0,0,0,0,0,0,0,0,0
1681026791.70029116,107728558,1176,1150,1225,1174,0,0,0,0,0,0,0,0,0,0
1681026791.80025101,107828518,1177,1150,1225,1175,0,0,0,0,0,0,0,0,0,0
1681026791.90021110,107928478,1180,1150,1225,1177,0,0,0,0,0,0,0,0,0,0
1681026792.00017118,108028438,1181,1150,1225,1179,0,0,0,0,0,0,0,0,0,0
1681026792.10013103,108128398,1183,1150,1225,1181,0,0,0,0,0,0,0,0,0,0
1681026792.20009112,108228358,1160,1150,1224,1158,0,0,0,0,0,0,0,0,0,0
1681026792.30005121,108328318,1169,1150,1225,1167,0,0,0,0,0,0,0,0,0,0
1681026792.40001106,108428278,1171,1150,1225,1169,0,0,0,0,0,0,0,0,0,0
1681026792.49997115,108528238,1171,1150,1225,1169,0,0,0,0,0,0,0,0,0,0
1681026792.59993100,108628198,1172,1150,1225,1170,0,0,0,0,0,0,0,0,0,0
1681026792.69989109,108728158,1000,1000,1000,1000,0,0,0,0,0,0,0,0,0,0
1681026792.80068398,108828951,1000,1000,1000,1000,0,0,0,0,0,0,0,0,0,0
1681026792.90064406,108928911,1000,1000,1000,1000,0,0,0,0,0,0,0,0,0,0
1681026793.00060415,109028871,1000,1000,1000,1000,0,0,0,0,0,0,0,0,0,0
1681026793.10056400,109128831,1000,1000,1000,1000,0,0,0,0,0,0,0,0,0,0
1681026793.20052409,109228791,1000,1000,1000,1000,0,0,0,0,0,0,0,0,0,0
1681026793.30048418,109328751,1000,1000,1000,1000,0,0,0,0,0,0,0,0,0,0
1681026793.40044403,109428711,1000,1000,1000,1000,0,0,0,0,0,0,0,0,0,0
1681026793.50040412,109528671,1000,1000,1000,1000,0,0,0,0,0,0,0,0,0,0
1681026793.60036421,109628631,1000,1000,1000,1000,0,0,0,0,0,0,0,0,0,0
1681026793.70032406,109728591,1000,1000,1000,1000,0,0,0,0,0,0,0,0,0,0
1681026793.80028415,109828551,1000,1000,1000,1000,0,0,0,0,0,0,0,0,0,0
1681026793.90024400,109928511,1000,1000,1000,1000,0,0,0,0,0,0,0,0,0,0
1681026794.00020409,110028471,1000,1000,1000,1000,0,0,0,0,0,0,0,0,0,0
1681026794.10016418,110128431,1000,1000,1000,1000,0,0,0,0,0,0,0,0,0,0
1681026794.20012403,110228391,1000,1000,1000,1000,0,0,0,0,0,0,0,0,0,0
1681026794.30008411,110328351,1000,1000,1000,1000,0,0,0,0,0,0,0,0,0,0
1681026794.40004420,110428311,1000,1000,1000,1000,0,0,0,0,0,0,0,0,0,0
1681026794.50000405,110528271,1000,1000,1000,1000,0,0,0,0,0,0,0,0,0,0
1681026794.59996414,110628231,1000,1000,1000,1000,0,0,0,0,0,0,0,0,0,0
1681026794.69992399,110728191,1000,1000,1000,1000,0,0,0,0,0,0,0,0,0,0
1681026794.80071712,110828984,1000,1000,1000,1000,0,0,0,0,0,0,0,0,0,0
1681026794.90067720,110928944,1000,1000,1000,1000,0,0,0,0,0,0,0,0,0,0
1681026795.00063705,111028904,1000,1000,1000,1000,0,0,0,0,0,0,0,0,0,0
1681026795.10059714,111128864,1000,1000,1000,1000,0,0,0,0,0,0,0,0,0,0
1681026795.20055699,111228824,1000,1000,1000,1000,0,0,0,0,0,0,0,0,0,0
1681026795.30051708,111328784,1000,1000,1000,1000,0,0,0,0,0,0,0,0,0,0
1681026795.40047717,111428744,1000,1000,1000,1000,0,0,0,0,0,0,0,0,0,0
1681026795.50043702,111528704,1000,1000,1000,1000,0,0,0,0,0,0,0,0,0,0
1681026795.60039711,111628664,1000,1000,1000,1000,0,0,0,0,0,0,0,0,0,0
1681026795.70035720,111728624,1000,1000,1000,1000,0,0,0,0,0,0,0,0,0,0
1681026795.80031705,111828584,1000,1000,1000,1000,0,0,0,0,0,0,0,0,0,0
1681026795.90027714,111928544,1000,1000,1000,1000,0,0,0,0,0,0,0,0,0,0
1681026796.00023699,112028504,1000,1000,1000,1000,0,0,0,0,0,0,0,0,0,0
1681026796.10019708,112128464,1000,1000,1000,1000,0,0,0,0,0,0,0,0,0,0
1681026796.20015717,112228424,1000,1000,1000,1000,0,0,0,0,0,0,0,0,0,0
1681026796.30011702,112328384,1000,1000,1000,1000,0,0,0,0,0,0,0,0,0,0
1681026796.40007710,112428344,1000,1000,1000,1000,0,0,0,0,0,0,0,0,0,0
1681026796.50003719,112528304,1000,1000,1000,1000,0,0,0,0,0,0,0,0,0,0
1681026796.59999704,112628264,1000,1000,1000,1000,0,0,0,0,0,0,0,0,0,0
1681026796.69995713,112728224,1000,1000,1000,1000,0,0,0,0,0,0,0,0,0,0
1681026796.79991698,112828184,1000,1000,1000,1000,0,0,0,0,0,0,0,0,0,0
1681026796.90071011,112928977,1000,1000,1000,1000,0,0,0,0,0,0,0,0,0,0
1681026797.00067019,113028937,1000,1000,1000,1000,0,0,0,0,0,0,0,0,0,0
1681026797.10063004,113128897,1000,1000,1000,1000,0,0,0,0,0,0,0,0,0,0
1681026797.20059013,113228857,1000,1000,1000,1000,0,0,0,0,0,0,0,0,0,0
1681026797.30054998,113328817,1000,1000,1000,1000,0,0,0,0,0,0,0,0,0,0
1681026797.40051007,113428777,1000,1000,1000,1000,0,0,0,0,0,0,0,0,0,0
1681026797.50047016,113528737,1000,1000,1000,1000,0,0,0,0,0,0,0,0,0,0
1681026797.60043001,113628697,1000,1000,1000,1000,0,0,0,0,0,0,0,0,0,0
1681026797.70039010,113728657,1000,1000,1000,1000,0,0,0,0,0,0,0,0,0,0
1681026797.80035019,113828617,1000,1000,1000,1000,0,0,0,0,0,0,0,0,0,0
1681026797.90031004,113928577,1000,1000,1000,1000,0,0,0,0,0,0,0,0,0,0
1681026798.00027013,114028537,1000,1000,1000,1000,0,0,0,0,0,0,0,0,0,0
1681026798.10022998,114128497,1000,1000,1000,1000,0,0,0,0,0,0,0,0,0,0
1681026798.20019007,114228457,1000,1000,1000,1000,0,0,0,0,0,0,0,0,0,0
1681026798.30015016,114328417,1000,1000,1000,1000,0,0,0,0,0,0,0,0,0,0
1681026798.40011001,114428377,1000,1000,1000,1000,0,0,0,0,0,0,0,0,0,0
1681026798.50007010,114528337,1000,1000,1000,1000,0,0,0,0,0,0,0,0,0,0
1681026798.60003018,114628297,1000,1000,1000,1000,0,0,0,0,0,0,0,0,0,0
1681026798.69999003,114728257,1000,1000,1000,1000,0,0,0,0,0,0,0,0,0,0
1681026798.79995012,114828217,1000,1000,1000,1000,0,0,0,0,0,0,0,0,0,0
1681026798.89991021,114928177,1000,1000,1000,1000,0,0,0,0,0,0,0,0,0,0
1681026799.00070310,115028970,1000,1000,1000,1000,0,0,0,0,0,0,0,0,0,0
1681026799.10066319,115128930,1000,1000,1000,1000,0,0,0,0,0,0,0,0,0,0
1681026799.20062304,115228890,1000,1000,1000,1000,0,0,0,0,0,0,0,0,0,0
1681026799.30058312,115328850,1000,1000,1000,1000,0,0,0,0,0,0,0,0,0,0
1681026799.40054297,115428810,1000,1000,1000,1000,0,0,0,0,0,0,0,0,0,0
1681026799.50050306,115528770,1000,1000,1000,1000,0,0,0,0,0,0,0,0,0,0
1681026799.60046315,115628730,1000,1000,1000,1000,0,0,0,0,0,0,0,0,0,0
1681026799.70042300,115728690,1000,1000,1000,1000,0,0,0,0,0,0,0,0,0,0
1681026799.80038309,115828650,1000,1000,1000,1000,0,0,0,0,0,0,0,0,0,0
1681026799.90034318,115928610,1000,1000,1000,1000,0,0,0,0,0,0,0,0,0,0
1681026800.00030303,116028570,1000,1000,1000,1000,0,0,0,0,0,0,0,0,0,0
1681026800.10026312,116128530,1000,1000,1000,1000,0,0,0,0,0,0,0,0,0,0
1681026800.20022321,116228490,1000,1000,1000,1000,0,0,0,0,0,0,0,0,0,0
1681026800.30018306,116328450,1000,1000,1000,1000,0,0,0,0,0,0,0,0,0,0
1681026800.40014315,116428410,1000,1000,1000,1000,0,0,0,0,0,0,0,0,0,0
1681026800.50010300,116528370,1000,1000,1000,1000,0,0,0,0,0,0,0,0,0,0
1681026800.60006309,116628330,1000,1000,1000,1000,0,0,0,0,0,0,0,0,0,0
1681026800.70002317,116728290,1000,1000,1000,1000,0,0,0,0,0,0,0,0,0,0
1681026800.79998302,116828250,1000,1000,1000,1000,0,0,0,0,0,0,0,0,0,0
1681026800.89994311,116928210,1000,1000,1000,1000,0,0,0,0,0,0,0,0,0,0
1681026800.99990320,117028170,1000,1000,1000,1000,0,0,0,0,0,0,0,0,0,0
1681026801.10069609,117128963,1000,1000,1000,1000,0,0,0,0,0,0,0,0,0,0
1681026801.20065618,117228923,1000,1000,1000,1000,0,0,0,0,0,0,0,0,0,0
1681026801.30061603,117328883,1000,1000,1000,1000,0,0,0,0,0,0,0,0,0,0
1681026801.40057611,117428843,1000,1000,1000,1000,0,0,0,0,0,0,0,0,0,0
1681026801.50053620,117528803,1000,1000,1000,1000,0,0,0,0,0,0,0,0,0,0
1681026801.60049605,117628763,1000,1000,1000,1000,0,0,0,0,0,0,0,0,0,0
1681026801.70045614,117728723,1000,1000,1000,1000,0,0,0,0,0,0,0,0,0,0
1681026801.80041599,117828683,1000,1000,1000,1000,0,0,0,0,0,0,0,0,0,0
1681026801.90037608,117928643,1000,1000,1000,1000,0,0,0,0,0,0,0,0,0,0
1681026802.00033617,118028603,1000,1000,1000,1000,0,0,0,0,0,0,0,0,0,0
1681026802.10029602,118128563,1000,1000,1000,1000,0,0,0,0,0,0,0,0,0,0
1681026802.20025611,118228523,1000,1000,1000,1000,0,0,0,0,0,0,0,0,0,0
1681026802.30021620,118328483,1000,1000,1000,1000,0,0,0,0,0,0,0,0,0,0
1681026802.40017605,118428443,1000,1000,1000,1000,0,0,0,0,0,0,0,0,0,0
1681026802.50013614,118528403,1000,1000,1000,1000,0,0,0,0,0,0,0,0,0,0
1681026802.60009599,118628363,1000,1000,1000,1000,0,0,0,0,0,0,0,0,0,0
1681026802.70005608,118728323,1000,1000,1000,1000,0,0,0,0,0,0,0,0,0,0
1681026802.80001616,118828283,1000,1000,1000,1000,0,0,0,0,0,0,0,0,0,0
1681026802.89997602,118928243,1000,1000,1000,1000,0,0,0,0,0,0,0,0,0,0
1681026802.99993610,119028203,1000,1000,1000,1000,0,0,0,0,0,0,0,0,0,0
1681026803.09989619,119128163,1000,1000,1000,1000,0,0,0,0,0,0,0,0,0,0
1681026803.20068908,119228956,1000,1000,1000,1000,0,0,0,0,0,0,0,0,0,0
1681026803.30064917,119328916,1000,1000,1000,1000,0,0,0,0,0,0,0,0,0,0
1681026803.40060902,119428876,1000,1000,1000,1000,0,0,0,0,0,0,0,0,0,0
1681026803.50056911,119528836,1000,1000,1000,1000,0,0,0,0,0,0,0,0,0,0
1681026803.60052919,119628796,1000,1000,1000,1000,0,0,0,0,0,0,0,0,0,0
1681026803.70048904,119728756,1000,1000,1000,1000,0,0,0,0,0,0,0,0,0,0
1681026803.80044913,119828716,1000,1000,1000,1000,0,0,0,0,0,0,0,0,0,0
1681026803.90040898,119928676,1000,1000,1000,1000,0,0,0,0,0,0,0,0,0,0
1681026804.00036907,120028636,1000,1000,1000,1000,0,0,0,0,0,0,0,0,0,0
1681026804.10032916,120128596,1000,1000,1000,1000,0,0,0,0,0,0,0,0,0,0
1681026804.20028901,120228556,1000,1000,1000,1000,0,0,0,0,0,0,0,0,0,0
1681026804.30024910,120328516,1000,1000,1000,1000,0,0,0,0,0,0,0,0,0,0
1681026804.40020919,120428476,1000,1000,1000,1000,0,0,0,0,0,0,0,0,0,0
1681026804.50016904,120528436,1000,1000,1000,1000,0,0,0,0,0,0,0,0,0,0
1681026804.60012913,120628396,1000,1000,1000,1000,0,0,0,0,0,0,0,0,0,0
1681026804.70008898,120728356,1000,1000,1000,1000,0,0,0,0,0,0,0,0,0,0
1681026804.80004907,120828316,1000,1000,1000,1000,0,0,0,0,0,0,0,0,0,0
1681026804.90000916,120928276,1000,1000,1000,1000,0,0,0,0,0,0,0,0,0,0
1681026804.99996901,121028236,1000,1000,1000,1000,0,0,0,0,0,0,0,0,0,0
1681026805.09992909,121128196,1000,1000,1000,1000,0,0,0,0,0,0,0,0,0,0
1681026805.19988918,121228156,1000,1000,1000,1000,0,0,0,0,0,0,0,0,0,0
1681026805.30068207,121328949,1000,1000,1000,1000,0,0,0,0,0,0,0,0,0,0
1681026805.40064216,121428909,1000,1000,1000,1000,0,0,0,0,0,0,0,0,0,0
1681026805.50060201,121528869,1000,1000,1000,1000,0,0,0,0,0,0,0,0,0,0
1681026805.60056210,121628829,1000,1000,1000,1000,0,0,0,0,0,0,0,0,0,0
1681026805.70052218,121728789,1000,1000,1000,1000,0,0,0,0,0,0,0,0,0,0
1681026805.80048203,121828749,1000,1000,1000,1000,0,0,0,0,0,0,0,0,0,0
1681026805.90044212,121928709,1000,1000,1000,1000,0,0,0,0,0,0,0,0,0,0
1681026806.00040221,122028669,1000,1000,1000,1000,0,0,0,0,0,0,0,0,0,0
1681026806.10036206,122128629,1000,1000,1000,1000,0,0,0,0,0,0,0,0,0,0
1681026806.20032215,122228589,1000,1000,1000,1000,0,0,0,0,0,0,0,0,0,0
1681026806.30028200,122328549,1000,1000,1000,1000,0,0,0,0,0,0,0,0,0,0
1681026806.40024209,122428509,1000,1000,1000,1000,0,0,0,0,0,0,0,0,0,0
1681026806.50020218,122528469,1000,1000,1000,1000,0,0,0,0,0,0,0,0,0,0
1681026806.60016203,122628429,1000,1000,1000,1000,0,0,0,0,0,0,0,0,0,0
1681026806.70012212,122728389,1000,1000,1000,1000,0,0,0,0,0,0,0,0,0,0
1681026806.80008221,122828349,1000,1000,1000,1000,0,0,0,0,0,0,0,0,0,0
1681026806.90004206,122928309,1000,1000,1000,1000,0,0,0,0,0,0,0,0,0,0
1681026807.00000215,123028269,1000,1000,1000,1000,0,0,0,0,0,0,0,0,0,0
1681026807.09996200,123128229,1000,1000,1000,1000,0,0,0,0,0,0,0,0,0,0
1681026807.19992208,123228189,1000,1000,1000,1000,0,0,0,0,0,0,0,0,0,0
1681026807.30071521,123328982,1000,1000,1000,1000,0,0,0,0,0,0,0,0,0,0
1681026807.40067506,123428942,1000,1000,1000,1000,0,0,0,0,0,0,0,0,0,0
1681026807.50063515,123528902,1000,1000,1000,1000,0,0,0,0,0,0,0,0,0,0
1681026807.60059500,123628862,1000,1000,1000,1000,0,0,0,0,0,0,0,0,0,0
