TimeUS,M1,M2,M3,M4,TimeUS,C1,C2,C3,C4
52215772,1000,1000,1000,1000,52228267,1000,1000,1000,1000
52218271,1000,1000,1000,1000,52328227,1000,1000,1000,1000
52220770,1000,1000,1000,1000,52428187,1000,1000,1000,1000
52223269,1000,1000,1000,1000,52528980,1000,1000,1000,1000
52225768,1000,1000,1000,1000,52628940,1000,1000,1000,1000
52228267,1000,1000,1000,1000,52728900,1000,1000,1000,1000
52230766,1000,1000,1000,1000,52828860,1000,1000,1000,1000
52233265,1000,1000,1000,1000,52928820,1000,1000,1000,1000
52235764,1000,1000,1000,1000,53028780,1000,1000,1000,1000
52238263,1000,1000,1000,1000,53128740,1000,1000,1000,1000
52240762,1000,1000,1000,1000,53228700,1000,1000,1000,1000
52243261,1000,1000,1000,1000,53328660,1000,1000,1000,1000
52245760,1000,1000,1000,1000,53428620,1000,1000,1000,1000
52248259,1000,1000,1000,1000,53528580,1000,1000,1000,1000
52250758,1000,1000,1000,1000,53628540,1000,1000,1000,1000
52253257,1000,1000,1000,1000,53728500,1000,1000,1000,1000
52255756,1000,1000,1000,1000,53828460,1000,1000,1000,1000
52258255,1000,1000,1000,1000,53928420,1000,1000,1000,1000
52260754,1000,1000,1000,1000,54028380,1000,1000,1000,1000
52263253,1000,1000,1000,1000,54128340,1000,1000,1000,1000
52265752,1000,1000,1000,1000,54228300,1003,1003,1003,1003
52268251,1000,1000,1000,1000,54328260,1033,1033,1033,1033
52270750,1000,1000,1000,1000,54428220,1063,1063,1063,1063
52273249,1000,1000,1000,1000,54528180,1093,1093,1093,1093
52275748,1000,1000,1000,1000,54628973,1123,1123,1123,1123
52278247,1000,1000,1000,1000,54728933,1185,1177,1178,1185
52280746,1000,1000,1000,1000,54828893,1424,1419,1419,1425
52283245,1000,1000,1000,1000,54928853,1599,1594,1594,1599
52285744,1000,1000,1000,1000,55028813,1743,1739,1739,1744
52288243,1000,1000,1000,1000,55128773,1846,1840,1841,1846
52290742,1000,1000,1000,1000,55228733,1852,1847,1847,1852
52293241,1000,1000,1000,1000,55328693,1786,1784,1785,1786
52295740,1000,1000,1000,1000,55428653,1662,1663,1663,1662
52298239,1000,1000,1000,1000,55528613,1609,1610,1611,1609
52300738,1000,1000,1000,1000,55628573,1612,1614,1614,1612
52303237,1000,1000,1000,1000,55728533,1631,1633,1632,1631
52305736,1000,1000,1000,1000,55828493,1639,1641,1640,1640
52308235,1000,1000,1000,1000,55928453,1636,1636,1636,1636
52310734,1000,1000,1000,1000,56028413,1630,1628,1629,1629
52313233,1000,1000,1000,1000,56128373,1625,1623,1623,1625
52315732,1000,1000,1000,1000,56228333,1622,1621,1621,1621
52318231,1000,1000,1000,1000,56328293,1621,1620,1621,1621
52320730,1000,1000,1000,1000,56428253,1623,1623,1622,1623
52323229,1000,1000,1000,1000,56528213,1622,1623,1622,1623
52325728,1000,1000,1000,1000,56628173,1622,1623,1623,1623
52328227,1000,1000,1000,1000,56728966,1623,1624,1623,1624
52330726,1000,1000,1000,1000,56828926,1624,1624,1624,1624
52333225,1000,1000,1000,1000,56928886,1625,1624,1625,1625
52335724,1000,1000,1000,1000,57028846,1626,1626,1626,1626
52338223,1000,1000,1000,1000,57128806,1627,1626,1626,1627
52340722,1000,1000,1000,1000,57228766,1627,1626,1626,1627
52343221,1000,1000,1000,1000,57328726,1627,1627,1627,1627
52345720,1000,1000,1000,1000,57428686,1628,1628,1628,1628
52348219,1000,1000,1000,1000,57528646,1612,1613,1613,1613
52350718,1000,1000,1000,1000,57628606,1593,1593,1593,1593
52353217,1000,1000,1000,1000,57728566,1582,1582,1582,1582
52355716,1000,1000,1000,1000,57828526,1573,1572,1572,1572
52358215,1000,1000,1000,1000,57928486,1564,1564,1564,1564
52360714,1000,1000,1000,1000,58028446,1557,1556,1556,1556
52363213,1000,1000,1000,1000,58128406,1550,1550,1550,1550
52365712,1000,1000,1000,1000,58228366,1545,1545,1545,1545
52368211,1000,1000,1000,1000,58328326,1539,1539,1539,1540
52370710,1000,1000,1000,1000,58428286,1535,1534,1535,1535
52373209,1000,1000,1000,1000,58528246,1531,1530,1530,1531
52375708,1000,1000,1000,1000,58628206,1527,1526,1526,1527
52378207,1000,1000,1000,1000,58728166,1523,1523,1523,1524
52380706,1000,1000,1000,1000,58828959,1520,1521,1520,1521
52383205,1000,1000,1000,1000,58928919,1519,1518,1518,1519
52385704,1000,1000,1000,1000,59028879,1515,1515,1515,1516
52388203,1000,1000,1000,1000,59128839,1513,1513,1512,1513
52390702,1000,1000,1000,1000,59228799,1509,1510,1509,1509
52393201,1000,1000,1000,1000,59328759,1507,1507,1507,1507
52395700,1000,1000,1000,1000,59428719,1504,1504,1504,1504
52398199,1000,1000,1000,1000,59528679,1503,1502,1502,1503
52400698,1000,1000,1000,1000,59628639,1500,1500,1500,1500
52403197,1000,1000,1000,1000,59728599,1497,1497,1497,1497
52405696,1000,1000,1000,1000,59828559,1495,1495,1495,1496
52408195,1000,1000,1000,1000,59928519,1495,1494,1494,1495
52410694,1000,1000,1000,1000,60028479,1493,1493,1493,1493
52413193,1000,1000,1000,1000,60128439,1496,1496,1496,1495
52415692,1000,1000,1000,1000,60228399,1497,1497,1498,1496
52418191,1000,1000,1000,1000,60328359,1500,1500,1500,1500
52420690,1000,1000,1000,1000,60428319,1502,1502,1502,1502
52423189,1000,1000,1000,1000,60528279,1504,1504,1504,1504
52425688,1000,1000,1000,1000,60628239,1505,1505,1505,1505
52428187,1000,1000,1000,1000,60728199,1507,1507,1508,1507
52430686,1000,1000,1000,1000,60828159,1516,1515,1516,1515
52433185,1000,1000,1000,1000,60928952,1552,1551,1553,1551
52435684,1000,1000,1000,1000,61028912,1564,1564,1564,1565
52438183,1000,1000,1000,1000,61128872,1573,1573,1570,1576
52440682,1000,1000,1000,1000,61228832,1577,1578,1575,1580
52443181,1000,1000,1000,1000,61328792,1581,1581,1578,1584
52445680,1000,1000,1000,1000,61428752,1583,1583,1581,1585
52448179,1000,1000,1000,1000,61528712,1584,1584,1584,1584
52450678,1000,1000,1000,1000,61628672,1584,1584,1586,1582
52453177,1000,1000,1000,1000,61728632,1583,1582,1585,1580
52455676,1000,1000,1000,1000,61828592,1582,1582,1584,1579
52458175,1000,1000,1000,1000,61928552,1581,1580,1582,1579
52460674,1000,1000,1000,1000,62028512,1577,1578,1578,1577
52463173,1000,1000,1000,1000,62128472,1576,1576,1575,1577
52465672,1000,1000,1000,1000,62228432,1574,1574,1572,1576
52468171,1000,1000,1000,1000,62328392,1569,1568,1572,1576
52470670,1000,1000,1000,1000,62428352,1565,1566,1573,1576
52473169,1000,1000,1000,1000,62528312,1566,1566,1573,1574
52475668,1000,1000,1000,1000,62628272,1567,1568,1572,1572
52478167,1000,1000,1000,1000,62728232,1568,1569,1571,1570
52480666,1000,1000,1000,1000,62828192,1571,1571,1570,1569
52483165,1000,1000,1000,1000,62928985,1572,1572,1569,1568
52485664,1000,1000,1000,1000,63028945,1572,1572,1568,1567
52488163,1000,1000,1000,1000,63128905,1574,1573,1568,1569
52490662,1000,1000,1000,1000,63228865,1573,1573,1568,1568
52493161,1000,1000,1000,1000,63328825,1574,1573,1568,1569
52495660,1000,1000,1000,1000,63428785,1573,1573,1569,1570
52498159,1000,1000,1000,1000,63528745,1573,1573,1571,1571
52500658,1000,1000,1000,1000,63628705,1574,1574,1574,1573
52503157,1000,1000,1000,1000,63728665,1574,1574,1574,1573
52505656,1000,1000,1000,1000,63828625,1574,1574,1576,1574
52508155,1000,1000,1000,1000,63928585,1575,1575,1577,1576
52510654,1000,1000,1000,1000,64028545,1574,1574,1576,1575
52513986,1000,1000,1000,1000,64128505,1576,1576,1577,1577
52516485,1000,1000,1000,1000,64228465,1576,1576,1578,1578
52518984,1000,1000,1000,1000,64328425,1577,1577,1578,1578
52521483,1000,1000,1000,1000,64428385,1577,1577,1577,1578
52523982,1000,1000,1000,1000,64528345,1578,1577,1578,1578
52526481,1000,1000,1000,1000,64628305,1577,1578,1578,1577
52528980,1000,1000,1000,1000,64728265,1579,1579,1579,1578
52531479,1000,1000,1000,1000,64828225,1579,1579,1578,1578
52533978,1000,1000,1000,1000,64928185,1578,1578,1577,1578
52536477,1000,1000,1000,1000,65028978,1579,1579,1579,1579
52538976,1000,1000,1000,1000,65128938,1578,1579,1578,1578
52541475,1000,1000,1000,1000,65228898,1579,1579,1578,1579
52543974,1000,1000,1000,1000,65328858,1579,1578,1578,1578
52546473,1000,1000,1000,1000,65428818,1579,1579,1579,1579
52548972,1000,1000,1000,1000,65528778,1579,1579,1579,1579
52551471,1000,1000,1000,1000,65628738,1578,1578,1578,1578
52553970,1000,1000,1000,1000,65728698,1579,1579,1579,1579
52556469,1000,1000,1000,1000,65828658,1579,1579,1579,1579
52558968,1000,1000,1000,1000,65928618,1579,1579,1579,1580
52561467,1000,1000,1000,1000,66028578,1580,1580,1580,1580
52563966,1000,1000,1000,1000,66128538,1581,1581,1581,1581
52566465,1000,1000,1000,1000,66228498,1581,1581,1581,1581
52568964,1000,1000,1000,1000,66328458,1581,1581,1581,1581
52571463,1000,1000,1000,1000,66428418,1581,1581,1581,1581
52573962,1000,1000,1000,1000,66528378,1580,1580,1580,1580
52576461,1000,1000,1000,1000,66628338,1580,1580,1580,1580
52578960,1000,1000,1000,1000,66728298,1581,1580,1581,1581
52581459,1000,1000,1000,1000,66828258,1580,1580,1580,1580
52583958,1000,1000,1000,1000,66928218,1581,1581,1581,1581
52586457,1000,1000,1000,1000,67028178,1580,1580,1580,1580
52588956,1000,1000,1000,1000,67128971,1580,1580,1580,1580
52591455,1000,1000,1000,1000,67228931,1580,1580,1580,1580
52593954,1000,1000,1000,1000,67328891,1580,1579,1579,1580
52596453,1000,1000,1000,1000,67428851,1579,1580,1580,1579
52598952,1000,1000,1000,1000,67528811,1581,1582,1581,1582
52601451,1000,1000,1000,1000,67628771,1581,1581,1581,1581
52603950,1000,1000,1000,1000,67728731,1581,1581,1582,1581
52606449,1000,1000,1000,1000,67828691,1581,1581,1581,1581
52608948,1000,1000,1000,1000,67928651,1580,1581,1581,1581
52611447,1000,1000,1000,1000,68028611,1580,1580,1580,1580
52613946,1000,1000,1000,1000,68128571,1581,1581,1580,1581
52616445,1000,1000,1000,1000,68228531,1581,1580,1581,1581
52618944,1000,1000,1000,1000,68328491,1581,1580,1580,1581
52621443,1000,1000,1000,1000,68428451,1581,1581,1582,1581
52623942,1000,1000,1000,1000,68528411,1581,1581,1586,1575
52626441,1000,1000,1000,1000,68628371,1580,1581,1586,1572
52628940,1000,1000,1000,1000,68728331,1579,1581,1579,1573
52631439,1000,1000,1000,1000,68828291,1578,1581,1571,1573
52633938,1000,1000,1000,1000,68928251,1576,1579,1562,1569
52636437,1000,1000,1000,1000,69028211,1577,1577,1557,1564
52638936,1000,1000,1000,1000,69128171,1578,1577,1555,1560
52641435,1000,1000,1000,1000,69228964,1579,1578,1556,1557
52643934,1000,1000,1000,1000,69328924,1578,1577,1556,1554
52646433,1000,1000,1000,1000,69428884,1578,1577,1556,1553
52648932,1000,1000,1000,1000,69528844,1578,1577,1556,1554
52651431,1000,1000,1000,1000,69628804,1576,1577,1555,1553
52653930,1000,1000,1000,1000,69728764,1575,1577,1555,1554
52656429,1000,1000,1000,1000,69828724,1574,1576,1553,1553
52658928,1000,1000,1000,1000,69928684,1575,1577,1553,1553
52661427,1000,1000,1000,1000,70028644,1576,1577,1550,1550
52663926,1000,1000,1000,1000,70128604,1578,1579,1548,1549
52666425,1000,1000,1000,1000,70228564,1580,1581,1546,1546
52668924,1000,1000,1000,1000,70328524,1583,1584,1544,1544
52671423,1000,1000,1000,1000,70428484,1585,1587,1541,1540
52673922,1000,1000,1000,1000,70528444,1589,1590,1539,1538
52676421,1000,1000,1000,1000,70628404,1592,1592,1536,1536
52678920,1000,1000,1000,1000,70728364,1595,1595,1535,1536
52681419,1000,1000,1000,1000,70828324,1594,1594,1534,1535
52683918,1000,1000,1000,1000,70928284,1595,1594,1535,1537
52686417,1000,1000,1000,1000,71028244,1593,1592,1537,1539
52688916,1000,1000,1000,1000,71128204,1590,1589,1542,1545
52691415,1000,1000,1000,1000,71228164,1585,1583,1549,1552
52693914,1000,1000,1000,1000,71328957,1577,1573,1558,1560
52696413,1000,1000,1000,1000,71428917,1568,1564,1569,1572
52698912,1000,1000,1000,1000,71528877,1556,1553,1582,1583
52701411,1000,1000,1000,1000,71628837,1546,1544,1595,1595
52703910,1000,1000,1000,1000,71728797,1537,1536,1604,1604
52706409,1000,1000,1000,1000,71828757,1531,1531,1611,1610
52708908,1000,1000,1000,1000,71928717,1528,1530,1615,1614
52711407,1000,1000,1000,1000,72028677,1530,1532,1615,1614
52713906,1000,1000,1000,1000,72128637,1535,1538,1612,1612
52716405,1000,1000,1000,1000,72228597,1542,1544,1606,1606
52718904,1000,1000,1000,1000,72328557,1551,1552,1600,1599
52721403,1000,1000,1000,1000,72428517,1560,1560,1592,1591
52723902,1000,1000,1000,1000,72528477,1568,1568,1584,1584
52726401,1000,1000,1000,1000,72628437,1576,1576,1578,1577
52728900,1000,1000,1000,1000,72728397,1582,1581,1573,1573
52731399,1000,1000,1000,1000,72828357,1585,1584,1568,1568
52733898,1000,1000,1000,1000,72928317,1587,1586,1566,1566
52736397,1000,1000,1000,1000,73028277,1588,1587,1566,1566
52738896,1000,1000,1000,1000,73128237,1588,1586,1568,1568
52741395,1000,1000,1000,1000,73228197,1585,1584,1569,1570
52743894,1000,1000,1000,1000,73328157,1582,1582,1572,1573
52746393,1000,1000,1000,1000,73428950,1579,1579,1576,1575
52748892,1000,1000,1000,1000,73528910,1577,1577,1579,1578
52751391,1000,1000,1000,1000,73628870,1575,1576,1582,1581
52753890,1000,1000,1000,1000,73728830,1572,1573,1582,1582
52756389,1000,1000,1000,1000,73828790,1572,1573,1583,1583
52758888,1000,1000,1000,1000,73928750,1571,1572,1583,1583
52761387,1000,1000,1000,1000,74028710,1572,1573,1583,1583
52763886,1000,1000,1000,1000,74128670,1573,1574,1582,1582
52766385,1000,1000,1000,1000,74228630,1576,1575,1581,1582
52768884,1000,1000,1000,1000,74328590,1576,1576,1580,1580
52771383,1000,1000,1000,1000,74428550,1578,1578,1579,1579
52773882,1000,1000,1000,1000,74528510,1580,1579,1578,1578
52776381,1000,1000,1000,1000,74628470,1581,1581,1579,1578
52778880,1000,1000,1000,1000,74728430,1581,1581,1577,1577
52781379,1000,1000,1000,1000,74828390,1582,1581,1577,1577
52783878,1000,1000,1000,1000,74928350,1581,1581,1577,1577
52786377,1000,1000,1000,1000,75028310,1581,1580,1577,1577
52788876,1000,1000,1000,1000,75128270,1581,1581,1578,1578
52791375,1000,1000,1000,1000,75228230,1580,1580,1578,1578
52793874,1000,1000,1000,1000,75328190,1579,1579,1578,1579
52796373,1000,1000,1000,1000,75428983,1579,1579,1579,1579
52798872,1000,1000,1000,1000,75528943,1579,1580,1580,1580
52801371,1000,1000,1000,1000,75628903,1579,1579,1580,1580
52803870,1000,1000,1000,1000,75728863,1580,1580,1582,1582
52806369,1000,1000,1000,1000,75828823,1579,1579,1581,1581
52808868,1000,1000,1000,1000,75928783,1580,1580,1582,1582
52811367,1000,1000,1000,1000,76028743,1580,1580,1581,1581
52813866,1000,1000,1000,1000,76128703,1580,1580,1581,1581
52816365,1000,1000,1000,1000,76228663,1582,1582,1496,1568
52818864,1000,1000,1000,1000,76328623,1595,1594,1545,1557
52821363,1000,1000,1000,1000,76428583,1603,1602,1581,1561
52823862,1000,1000,1000,1000,76528543,1609,1610,1611,1571
52826361,1000,1000,1000,1000,76628503,1609,1614,1627,1581
52828860,1000,1000,1000,1000,76728463,1600,1606,1618,1591
52831359,1000,1000,1000,1000,76828423,1587,1593,1601,1598
52833858,1000,1000,1000,1000,76928383,1575,1579,1582,1598
52836357,1000,1000,1000,1000,77028343,1569,1570,1569,1592
52838856,1000,1000,1000,1000,77128303,1568,1566,1563,1583
52841355,1000,1000,1000,1000,77228263,1571,1567,1561,1573
52843854,1000,1000,1000,1000,77328223,1574,1570,1561,1563
52846353,1000,1000,1000,1000,77428183,1575,1574,1559,1555
52848852,1000,1000,1000,1000,77528976,1578,1579,1557,1550
52851351,1000,1000,1000,1000,77628936,1580,1583,1553,1547
52853850,1000,1000,1000,1000,77728896,1582,1584,1548,1545
52856349,1000,1000,1000,1000,77828856,1583,1585,1543,1543
52858848,1000,1000,1000,1000,77928816,1585,1586,1540,1543
52861347,1000,1000,1000,1000,78028776,1587,1587,1539,1541
52863846,1000,1000,1000,1000,78128736,1588,1588,1537,1540
52866345,1000,1000,1000,1000,78228696,1589,1589,1537,1538
52868844,1000,1000,1000,1000,78328656,1590,1589,1537,1537
52871343,1000,1000,1000,1000,78428616,1590,1591,1537,1538
52873842,1000,1000,1000,1000,78528576,1591,1592,1539,1539
52876341,1000,1000,1000,1000,78628536,1591,1592,1540,1541
52878840,1000,1000,1000,1000,78728496,1590,1590,1541,1543
52881339,1000,1000,1000,1000,78828456,1588,1588,1544,1546
52883838,1000,1000,1000,1000,78928416,1586,1583,1549,1552
52886337,1000,1000,1000,1000,79028376,1580,1577,1557,1560
52888836,1000,1000,1000,1000,79128336,1572,1568,1566,1568
52891335,1000,1000,1000,1000,79228296,1563,1560,1577,1578
52893834,1000,1000,1000,1000,79328256,1555,1551,1589,1589
52896333,1000,1000,1000,1000,79428216,1546,1545,1599,1598
52898832,1000,1000,1000,1000,79528176,1540,1541,1606,1605
52901331,1000,1000,1000,1000,79628969,1539,1540,1611,1608
52903830,1000,1000,1000,1000,79728929,1539,1540,1610,1609
52906329,1000,1000,1000,1000,79828889,1542,1543,1608,1608
52908828,1000,1000,1000,1000,79928849,1545,1546,1605,1605
52911327,1000,1000,1000,1000,80028809,1550,1552,1601,1601
52913826,1000,1000,1000,1000,80128769,1555,1556,1596,1596
52916325,1000,1000,1000,1000,80228729,1561,1561,1591,1590
52918824,1000,1000,1000,1000,80328689,1567,1567,1585,1585
52921323,1000,1000,1000,1000,80428649,1571,1571,1579,1578
52923822,1000,1000,1000,1000,80528609,1576,1576,1573,1574
52926321,1000,1000,1000,1000,80628569,1581,1580,1570,1570
52928820,1000,1000,1000,1000,80728529,1584,1583,1568,1568
52931319,1000,1000,1000,1000,80828489,1584,1583,1565,1566
52933818,1000,1000,1000,1000,80928449,1584,1583,1566,1567
52936317,1000,1000,1000,1000,81028409,1583,1583,1568,1568
52938816,1000,1000,1000,1000,81128369,1582,1581,1570,1571
52941315,1000,1000,1000,1000,81228329,1580,1580,1574,1573
52943814,1000,1000,1000,1000,81328289,1577,1577,1576,1575
52946313,1000,1000,1000,1000,81428249,1576,1576,1579,1579
52948812,1000,1000,1000,1000,81528209,1575,1575,1581,1581
52951311,1000,1000,1000,1000,81628169,1573,1574,1582,1582
52953810,1000,1000,1000,1000,81728962,1574,1573,1583,1583
52956309,1000,1000,1000,1000,81828922,1573,1574,1583,1583
52958808,1000,1000,1000,1000,81928882,1574,1575,1583,1583
52961307,1000,1000,1000,1000,82028842,1576,1576,1583,1583
52963806,1000,1000,1000,1000,82128802,1576,1576,1581,1582
52966305,1000,1000,1000,1000,82228762,1578,1578,1580,1581
52968804,1000,1000,1000,1000,82328722,1578,1578,1579,1579
52971303,1000,1000,1000,1000,82428682,1579,1579,1578,1578
52973802,1000,1000,1000,1000,82528642,1579,1579,1577,1577
52976301,1000,1000,1000,1000,82628602,1582,1581,1578,1578
52978800,1000,1000,1000,1000,82728562,1582,1582,1578,1578
52981299,1000,1000,1000,1000,82828522,1582,1582,1579,1578
52983798,1000,1000,1000,1000,82928482,1582,1582,1579,1579
52986297,1000,1000,1000,1000,83028442,1582,1581,1579,1579
52988796,1000,1000,1000,1000,83128402,1580,1580,1578,1578
52991295,1000,1000,1000,1000,83228362,1580,1579,1579,1579
52993794,1000,1000,1000,1000,83328322,1579,1579,1579,1579
52996293,1000,1000,1000,1000,83428282,1579,1580,1580,1580
52998792,1000,1000,1000,1000,83528242,1579,1579,1580,1580
53001291,1000,1000,1000,1000,83628202,1579,1579,1581,1581
53003790,1000,1000,1000,1000,83728162,1579,1579,1581,1581
53006289,1000,1000,1000,1000,83828955,1580,1580,1581,1581
53008788,1000,1000,1000,1000,83928915,1580,1580,1581,1581
53011287,1000,1000,1000,1000,84028875,1581,1580,1581,1581
53013786,1000,1000,1000,1000,84128835,1580,1580,1581,1581
53016285,1000,1000,1000,1000,84228795,1581,1580,1581,1581
53018784,1000,1000,1000,1000,84328755,1581,1582,1581,1581
53021283,1000,1000,1000,1000,84428715,1581,1582,1581,1581
53023782,1000,1000,1000,1000,84528675,1581,1581,1580,1580
53026281,1000,1000,1000,1000,84628635,1581,1581,1582,1579
53028780,1000,1000,1000,1000,84728595,1582,1583,1588,1573
53031279,1000,1000,1000,1000,84828555,1581,1584,1584,1574
53033778,1000,1000,1000,1000,84928515,1579,1582,1575,1574
53036277,1000,1000,1000,1000,85028475,1578,1580,1568,1572
53038776,1000,1000,1000,1000,85128435,1578,1580,1562,1569
53041275,1000,1000,1000,1000,85228395,1578,1578,1557,1563
53043774,1000,1000,1000,1000,85328355,1579,1577,1555,1558
53046273,1000,1000,1000,1000,85428315,1579,1577,1554,1555
53048772,1000,1000,1000,1000,85528275,1579,1577,1555,1553
53051271,1000,1000,1000,1000,85628235,1578,1578,1555,1552
53053770,1000,1000,1000,1000,85728195,1577,1577,1555,1553
53056269,1000,1000,1000,1000,85828155,1576,1577,1555,1554
53058768,1000,1000,1000,1000,85928948,1575,1577,1554,1553
53061267,1000,1000,1000,1000,86028908,1574,1576,1553,1553
53063766,1000,1000,1000,1000,86128868,1576,1577,1551,1552
53066265,1000,1000,1000,1000,86228828,1577,1578,1550,1550
53068764,1000,1000,1000,1000,86328788,1578,1580,1548,1548
53071263,1000,1000,1000,1000,86428748,1581,1583,1547,1546
53073762,1000,1000,1000,1000,86528708,1584,1585,1544,1544
53076261,1000,1000,1000,1000,86628668,1587,1588,1542,1541
53078760,1000,1000,1000,1000,86728628,1591,1591,1541,1540
53081259,1000,1000,1000,1000,86828588,1593,1593,1538,1538
53083758,1000,1000,1000,1000,86928548,1594,1594,1537,1537
53086257,1000,1000,1000,1000,87028508,1594,1594,1535,1538
53088756,1000,1000,1000,1000,87128468,1594,1593,1536,1539
53091255,1000,1000,1000,1000,87228428,1593,1592,1541,1544
53093754,1000,1000,1000,1000,87328388,1589,1586,1546,1549
53096253,1000,1000,1000,1000,87428348,1582,1580,1555,1557
53098752,1000,1000,1000,1000,87528308,1574,1570,1565,1567
53101251,1000,1000,1000,1000,87628268,1564,1560,1577,1579
53103750,1000,1000,1000,1000,87728228,1552,1549,1589,1589
53106249,1000,1000,1000,1000,87828188,1541,1540,1599,1598
53108748,1000,1000,1000,1000,87928981,1535,1535,1608,1607
53111247,1000,1000,1000,1000,88028941,1532,1533,1613,1611
53113746,1000,1000,1000,1000,88128901,1533,1536,1615,1613
53116245,1000,1000,1000,1000,88228861,1536,1539,1613,1611
53118744,1000,1000,1000,1000,88328821,1542,1544,1609,1608
53121243,1000,1000,1000,1000,88428781,1550,1550,1604,1603
53123742,1000,1000,1000,1000,88528741,1556,1556,1597,1597
53126241,1000,1000,1000,1000,88628701,1564,1564,1590,1590
53128740,1000,1000,1000,1000,88728661,1570,1570,1582,1582
53131239,1000,1000,1000,1000,88828621,1576,1576,1576,1576
53133738,1000,1000,1000,1000,88928581,1581,1580,1570,1571
53136237,1000,1000,1000,1000,89028541,1584,1582,1566,1567
53138736,1000,1000,1000,1000,89128501,1586,1585,1565,1565
53141235,1000,1000,1000,1000,89228461,1586,1585,1565,1565
53143734,1000,1000,1000,1000,89328421,1585,1584,1566,1566
53146233,1000,1000,1000,1000,89428381,1583,1583,1570,1569
53148732,1000,1000,1000,1000,89528341,1580,1580,1572,1571
53151231,1000,1000,1000,1000,89628301,1578,1579,1575,1575
53153730,1000,1000,1000,1000,89728261,1577,1577,1579,1579
53156229,1000,1000,1000,1000,89828221,1575,1575,1581,1581
53158728,1000,1000,1000,1000,89928181,1574,1574,1583,1583
53161227,1000,1000,1000,1000,90028974,1573,1574,1584,1584
53163726,1000,1000,1000,1000,90128934,1574,1574,1585,1585
53166225,1000,1000,1000,1000,90228894,1574,1575,1585,1585
53168724,1000,1000,1000,1000,90328854,1575,1575,1584,1584
53171223,1000,1000,1000,1000,90428814,1576,1576,1582,1583
53173722,1000,1000,1000,1000,90528774,1577,1578,1582,1582
53176221,1000,1000,1000,1000,90628734,1579,1579,1581,1581
53178720,1000,1000,1000,1000,90728694,1580,1580,1579,1580
53181219,1000,1000,1000,1000,90828654,1581,1580,1578,1578
53183718,1000,1000,1000,1000,90928614,1582,1581,1578,1578
53186217,1000,1000,1000,1000,91028574,1582,1581,1577,1577
53188716,1000,1000,1000,1000,91128534,1581,1582,1577,1577
53191215,1000,1000,1000,1000,91228494,1582,1582,1578,1578
53193714,1000,1000,1000,1000,91328454,1582,1582,1579,1579
53196213,1000,1000,1000,1000,91428414,1580,1581,1579,1579
53198712,1000,1000,1000,1000,91528374,1580,1581,1580,1580
53201211,1000,1000,1000,1000,91628334,1580,1580,1580,1580
53203710,1000,1000,1000,1000,91728294,1580,1580,1581,1581
53206209,1000,1000,1000,1000,91828254,1580,1580,1581,1581
53208708,1000,1000,1000,1000,91928214,1580,1580,1582,1581
53211207,1000,1000,1000,1000,92028174,1580,1579,1581,1581
53213706,1000,1000,1000,1000,92128967,1579,1580,1581,1581
53216205,1000,1000,1000,1000,92228927,1580,1581,1582,1582
53218704,1000,1000,1000,1000,92328887,1580,1581,1582,1582
53221203,1000,1000,1000,1000,92428847,1580,1581,1581,1581
53223702,1000,1000,1000,1000,92528807,1582,1581,1582,1582
53226201,1000,1000,1000,1000,92628767,1581,1581,1584,1577
53228700,1000,1000,1000,1000,92728727,1581,1582,1587,1572
53231199,1000,1000,1000,1000,92828687,1579,1580,1582,1574
53233698,1000,1000,1000,1000,92928647,1576,1576,1575,1575
53236197,1000,1000,1000,1000,93028607,1573,1573,1570,1575
53238696,1000,1000,1000,1000,93128567,1569,1569,1565,1572
53241195,1000,1000,1000,1000,93228527,1569,1568,1565,1571
53243694,1000,1000,1000,1000,93328487,1567,1566,1565,1568
53246193,1000,1000,1000,1000,93428447,1566,1567,1566,1566
53248692,1000,1000,1000,1000,93528407,1566,1566,1567,1565
53251191,1000,1000,1000,1000,93628367,1565,1565,1567,1563
53253690,1000,1000,1000,1000,93728327,1565,1566,1567,1564
53256189,1000,1000,1000,1000,93828287,1564,1564,1565,1564
53258688,1000,1000,1000,1000,93928247,1564,1564,1564,1564
53261187,1000,1000,1000,1000,94028207,1562,1562,1562,1563
53263686,1000,1000,1000,1000,94128167,1561,1561,1561,1562
53266185,1000,1000,1000,1000,94228960,1561,1561,1561,1562
53268684,1000,1000,1000,1000,94328920,1561,1560,1561,1561
53271183,1000,1000,1000,1000,94428880,1561,1561,1561,1561
53273682,1000,1000,1000,1000,94528840,1560,1560,1561,1560
53276181,1000,1000,1000,1000,94628800,1560,1560,1561,1558
53278680,1000,1000,1000,1000,94728760,1559,1559,1560,1559
53281179,1000,1000,1000,1000,94828720,1558,1558,1558,1557
53283678,1000,1000,1000,1000,94928680,1559,1559,1559,1558
53286177,1000,1000,1000,1000,95028640,1559,1558,1559,1558
53288676,1000,1000,1000,1000,95128600,1558,1558,1559,1558
53291175,1000,1000,1000,1000,95228560,1558,1558,1559,1557
53293674,1000,1000,1000,1000,95328520,1559,1559,1561,1558
53296173,1000,1000,1000,1000,95428480,1560,1559,1561,1558
53298672,1000,1000,1000,1000,95528440,1560,1559,1559,1561
53301171,1000,1000,1000,1000,95628400,1561,1562,1559,1564
53303670,1000,1000,1000,1000,95728360,1560,1560,1557,1564
53306169,1000,1000,1000,1000,95828320,1561,1561,1559,1564
53308668,1000,1000,1000,1000,95928280,1562,1561,1560,1563
53311167,1000,1000,1000,1000,96028240,1561,1561,1561,1560
53313666,1000,1000,1000,1000,96128200,1560,1560,1561,1559
53316165,1000,1000,1000,1000,96228160,1557,1558,1557,1558
53318664,1000,1000,1000,1000,96328953,1554,1554,1553,1555
53321163,1000,1000,1000,1000,96428913,1549,1549,1549,1550
53323662,1000,1000,1000,1000,96528873,1543,1543,1543,1544
53326161,1000,1000,1000,1000,96628833,1536,1536,1537,1537
53328660,1000,1000,1000,1000,96728793,1530,1530,1531,1531
53331159,1000,1000,1000,1000,96828753,1522,1521,1523,1523
53333658,1000,1000,1000,1000,96928713,1520,1520,1520,1520
53336157,1000,1000,1000,1000,97028673,1518,1519,1518,1519
53338656,1000,1000,1000,1000,97128633,1520,1520,1520,1520
53341155,1000,1000,1000,1000,97228593,1523,1523,1522,1522
53343654,1000,1000,1000,1000,97328553,1527,1527,1525,1526
53346153,1000,1000,1000,1000,97428513,1531,1531,1529,1530
53348652,1000,1000,1000,1000,97528473,1536,1536,1535,1535
53351151,1000,1000,1000,1000,97628433,1540,1540,1538,1538
53353650,1000,1000,1000,1000,97728393,1542,1542,1541,1540
53356149,1000,1000,1000,1000,97828353,1543,1543,1543,1542
53358648,1000,1000,1000,1000,97928313,1544,1545,1545,1544
53361147,1000,1000,1000,1000,98028273,1545,1545,1545,1545
53363646,1000,1000,1000,1000,98128233,1545,1545,1546,1546
53366145,1000,1000,1000,1000,98228193,1546,1545,1546,1546
53368644,1000,1000,1000,1000,98328986,1545,1545,1546,1547
53371143,1000,1000,1000,1000,98428946,1546,1546,1547,1547
53373642,1000,1000,1000,1000,98528906,1545,1546,1546,1546
53376141,1000,1000,1000,1000,98628866,1546,1546,1547,1546
53378640,1000,1000,1000,1000,98728826,1546,1547,1547,1547
53381139,1000,1000,1000,1000,98828786,1546,1546,1546,1546
53383638,1000,1000,1000,1000,98928746,1546,1546,1546,1546
53386137,1000,1000,1000,1000,99028706,1545,1545,1545,1545
53388636,1000,1000,1000,1000,99128666,1545,1545,1545,1545
53391135,1000,1000,1000,1000,99228626,1545,1545,1544,1544
53393634,1000,1000,1000,1000,99328586,1545,1545,1545,1545
53396133,1000,1000,1000,1000,99428546,1544,1544,1544,1543
53398632,1000,1000,1000,1000,99528506,1544,1544,1544,1544
53401131,1000,1000,1000,1000,99628466,1544,1544,1544,1544
53403630,1000,1000,1000,1000,99728426,1544,1543,1544,1544
53406129,1000,1000,1000,1000,99828386,1543,1544,1544,1544
53408628,1000,1000,1000,1000,99928346,1544,1544,1544,1544
53411127,1000,1000,1000,1000,100028306,1542,1543,1543,1543
53413626,1000,1000,1000,1000,100128266,1544,1544,1544,1544
53416125,1000,1000,1000,1000,100228226,1544,1544,1544,1544
53418624,1000,1000,1000,1000,100328186,1544,1544,1544,1544
53421123,1000,1000,1000,1000,100428979,1544,1543,1544,1544
53423622,1000,1000,1000,1000,100528939,1543,1543,1543,1544
53426121,1000,1000,1000,1000,100628899,1543,1543,1544,1543
53428620,1000,1000,1000,1000,100728859,1544,1544,1544,1544
53431119,1000,1000,1000,1000,100828819,1544,1544,1544,1544
53433618,1000,1000,1000,1000,100928779,1544,1544,1543,1544
53436117,1000,1000,1000,1000,101028739,1544,1544,1544,1544
53438616,1000,1000,1000,1000,101128699,1544,1544,1544,1544
53441115,1000,1000,1000,1000,101228659,1545,1545,1545,1545
53443614,1000,1000,1000,1000,101328619,1545,1545,1545,1545
53446113,1000,1000,1000,1000,101428579,1545,1545,1545,1545
53448612,1000,1000,1000,1000,101528539,1544,1544,1544,1545
53451111,1000,1000,1000,1000,101628499,1544,1544,1544,1544
53453610,1000,1000,1000,1000,101728459,1544,1544,1544,1544
53456109,1000,1000,1000,1000,101828419,1545,1546,1545,1546
53458608,1000,1000,1000,1000,101928379,1544,1544,1544,1544
53461107,1000,1000,1000,1000,102028339,1544,1545,1545,1545
53463606,1000,1000,1000,1000,102128299,1545,1544,1545,1545
53466105,1000,1000,1000,1000,102228259,1545,1545,1544,1545
53468604,1000,1000,1000,1000,102328219,1544,1545,1544,1544
53471103,1000,1000,1000,1000,102428179,1545,1545,1545,1545
53473602,1000,1000,1000,1000,102528972,1545,1545,1545,1545
53476101,1000,1000,1000,1000,102628932,1544,1544,1544,1545
53478600,1000,1000,1000,1000,102728892,1545,1545,1545,1545
53481099,1000,1000,1000,1000,102828852,1545,1545,1545,1545
53483598,1000,1000,1000,1000,102928812,1544,1544,1544,1544
53486097,1000,1000,1000,1000,103028772,1545,1545,1545,1545
53488596,1000,1000,1000,1000,103128732,1545,1545,1545,1545
53491095,1000,1000,1000,1000,103228692,1544,1544,1544,1544
53493594,1000,1000,1000,1000,103328652,1544,1543,1543,1544
53496093,1000,1000,1000,1000,103428612,1544,1544,1544,1544
53498592,1000,1000,1000,1000,103528572,1544,1544,1544,1544
53501091,1000,1000,1000,1000,103628532,1544,1545,1545,1544
53503590,1000,1000,1000,1000,103728492,1544,1544,1544,1544
53506089,1000,1000,1000,1000,103828452,1545,1545,1545,1545
53508588,1000,1000,1000,1000,103928412,1545,1545,1545,1545
53511087,1000,1000,1000,1000,104028372,1545,1545,1545,1545
53513586,1000,1000,1000,1000,104128332,1546,1545,1545,1546
53516085,1000,1000,1000,1000,104228292,1545,1545,1545,1545
53518584,1000,1000,1000,1000,104328252,1545,1545,1545,1545
53521083,1000,1000,1000,1000,104428212,1544,1544,1544,1544
53523582,1000,1000,1000,1000,104528172,1544,1544,1544,1544
53526081,1000,1000,1000,1000,104628965,1544,1544,1544,1544
53528580,1000,1000,1000,1000,104728925,1544,1544,1544,1544
53531079,1000,1000,1000,1000,104828885,1544,1543,1544,1544
53533578,1000,1000,1000,1000,104928845,1545,1544,1544,1545
53536077,1000,1000,1000,1000,105028805,1544,1544,1544,1544
53538576,1000,1000,1000,1000,105128765,1544,1544,1544,1544
53541075,1000,1000,1000,1000,105228725,1544,1544,1544,1544
53543574,1000,1000,1000,1000,105328685,1544,1544,1544,1544
53546073,1000,1000,1000,1000,105428645,1544,1544,1544,1544
53548572,1000,1000,1000,1000,105528605,1545,1545,1544,1545
53551071,1000,1000,1000,1000,105628565,1544,1544,1544,1544
53553570,1000,1000,1000,1000,105728525,1545,1545,1545,1544
53556069,1000,1000,1000,1000,105828485,1545,1545,1545,1545
53558568,1000,1000,1000,1000,105928445,1544,1544,1544,1545
53561067,1000,1000,1000,1000,106028405,1545,1544,1544,1545
53563566,1000,1000,1000,1000,106128365,1544,1544,1544,1545
53566065,1000,1000,1000,1000,106228325,1543,1543,1543,1543
53568564,1000,1000,1000,1000,106328285,1543,1543,1543,1543
53571063,1000,1000,1000,1000,106428245,1544,1544,1544,1544
53573562,1000,1000,1000,1000,106528205,1545,1544,1544,1544
53576061,1000,1000,1000,1000,106628165,1540,1537,1538,1539
53578560,1000,1000,1000,1000,106728958,1351,1347,1376,1349
53581059,1000,1000,1000,1000,106828918,1248,1244,1294,1246
53583558,1000,1000,1000,1000,106928878,1216,1211,1269,1214
53586057,1000,1000,1000,1000,107028838,1197,1193,1256,1195
53588556,1000,1000,1000,1000,107128798,1155,1150,1225,1153
53591055,1000,1000,1000,1000,107228758,1155,1150,1225,1152
53593554,1000,1000,1000,1000,107328718,1156,1150,1225,1154
53596053,1000,1000,1000,1000,107428678,1176,1150,1224,1174
53598552,1000,1000,1000,1000,107528638,1183,1150,1224,1182
53601051,1000,1000,1000,1000,107628598,1176,1150,1225,1174
53603550,1000,1000,1000,1000,107728558,1176,1150,1225,1174
53606049,1000,1000,1000,1000,107828518,1177,1150,1225,1175
53608548,1000,1000,1000,1000,107928478,1180,1150,1225,1177
53611047,1000,1000,1000,1000,108028438,1181,1150,1225,1179
53613546,1000,1000,1000,1000,108128398,1183,1150,1225,1181
53616045,1000,1000,1000,1000,108228358,1160,1150,1224,1158
53618544,1000,1000,1000,1000,108328318,1169,1150,1225,1167
53621043,1000,1000,1000,1000,108428278,1171,1150,1225,1169
53623542,1000,1000,1000,1000,108528238,1171,1150,1225,1169
53626041,1000,1000,1000,1000,108628198,1172,1150,1225,1170
53628540,1000,1000,1000,1000,108728158,1000,1000,1000,1000
53631039,1000,1000,1000,1000,108828951,1000,1000,1000,1000
53633538,1000,1000,1000,1000,108928911,1000,1000,1000,1000
53636037,1000,1000,1000,1000,109028871,1000,1000,1000,1000
53638536,1000,1000,1000,1000,109128831,1000,1000,1000,1000
53641035,1000,1000,1000,1000,109228791,1000,1000,1000,1000
53643534,1000,1000,1000,1000,109328751,1000,1000,1000,1000
53646033,1000,1000,1000,1000,109428711,1000,1000,1000,1000
53648532,1000,1000,1000,1000,109528671,1000,1000,1000,1000
53651031,1000,1000,1000,1000,109628631,1000,1000,1000,1000
53653530,1000,1000,1000,1000,109728591,1000,1000,1000,1000
53656029,1000,1000,1000,1000,109828551,1000,1000,1000,1000
53658528,1000,1000,1000,1000,109928511,1000,1000,1000,1000
53661027,1000,1000,1000,1000,110028471,1000,1000,1000,1000
53663526,1000,1000,1000,1000,110128431,1000,1000,1000,1000
53666025,1000,1000,1000,1000,110228391,1000,1000,1000,1000
53668524,1000,1000,1000,1000,110328351,1000,1000,1000,1000
53671023,1000,1000,1000,1000,110428311,1000,1000,1000,1000
53673522,1000,1000,1000,1000,110528271,1000,1000,1000,1000
53676021,1000,1000,1000,1000,110628231,1000,1000,1000,1000
53678520,1000,1000,1000,1000,110728191,1000,1000,1000,1000
53681019,1000,1000,1000,1000,110828984,1000,1000,1000,1000
53683518,1000,1000,1000,1000,110928944,1000,1000,1000,1000
53686017,1000,1000,1000,1000,111028904,1000,1000,1000,1000
53688516,1000,1000,1000,1000,111128864,1000,1000,1000,1000
53691015,1000,1000,1000,1000,111228824,1000,1000,1000,1000
53693514,1000,1000,1000,1000,111328784,1000,1000,1000,1000
53696013,1000,1000,1000,1000,111428744,1000,1000,1000,1000
53698512,1000,1000,1000,1000,111528704,1000,1000,1000,1000
53701011,1000,1000,1000,1000,111628664,1000,1000,1000,1000
53703510,1000,1000,1000,1000,111728624,1000,1000,1000,1000
53706009,1000,1000,1000,1000,111828584,1000,1000,1000,1000
53708508,1000,1000,1000,1000,111928544,1000,1000,1000,1000
53711007,1000,1000,1000,1000,112028504,1000,1000,1000,1000
53713506,1000,1000,1000,1000,112128464,1000,1000,1000,1000
53716005,1000,1000,1000,1000,112228424,1000,1000,1000,1000
53718504,1000,1000,1000,1000,112328384,1000,1000,1000,1000
53721003,1000,1000,1000,1000,112428344,1000,1000,1000,1000
53723502,1000,1000,1000,1000,112528304,1000,1000,1000,1000
53726001,1000,1000,1000,1000,112628264,1000,1000,1000,1000
53728500,1000,1000,1000,1000,112728224,1000,1000,1000,1000
53730999,1000,1000,1000,1000,112828184,1000,1000,1000,1000
53733498,1000,1000,1000,1000,112928977,1000,1000,1000,1000
53735997,1000,1000,1000,1000,113028937,1000,1000,1000,1000
53738496,1000,1000,1000,1000,113128897,1000,1000,1000,1000
53740995,1000,1000,1000,1000,113228857,1000,1000,1000,1000
53743494,1000,1000,1000,1000,113328817,1000,1000,1000,1000
53745993,1000,1000,1000,1000,113428777,1000,1000,1000,1000
53748492,1000,1000,1000,1000,113528737,1000,1000,1000,1000
53750991,1000,1000,1000,1000,113628697,1000,1000,1000,1000
53753490,1000,1000,1000,1000,113728657,1000,1000,1000,1000
53755989,1000,1000,1000,1000,113828617,1000,1000,1000,1000
53758488,1000,1000,1000,1000,113928577,1000,1000,1000,1000
53760987,1000,1000,1000,1000,114028537,1000,1000,1000,1000
53763486,1000,1000,1000,1000,114128497,1000,1000,1000,1000
53765985,1000,1000,1000,1000,114228457,1000,1000,1000,1000
53768484,1000,1000,1000,1000,114328417,1000,1000,1000,1000
53770983,1000,1000,1000,1000,114428377,1000,1000,1000,1000
53773482,1000,1000,1000,1000,114528337,1000,1000,1000,1000
53775981,1000,1000,1000,1000,114628297,1000,1000,1000,1000
53778480,1000,1000,1000,1000,114728257,1000,1000,1000,1000
53780979,1000,1000,1000,1000,114828217,1000,1000,1000,1000
53783478,1000,1000,1000,1000,114928177,1000,1000,1000,1000
53785977,1000,1000,1000,1000,115028970,1000,1000,1000,1000
53788476,1000,1000,1000,1000,115128930,1000,1000,1000,1000
53790975,1000,1000,1000,1000,115228890,1000,1000,1000,1000
53793474,1000,1000,1000,1000,115328850,1000,1000,1000,1000
53795973,1000,1000,1000,1000,115428810,1000,1000,1000,1000
53798472,1000,1000,1000,1000,115528770,1000,1000,1000,1000
53800971,1000,1000,1000,1000,115628730,1000,1000,1000,1000
53803470,1000,1000,1000,1000,115728690,1000,1000,1000,1000
53805969,1000,1000,1000,1000,115828650,1000,1000,1000,1000
53808468,1000,1000,1000,1000,115928610,1000,1000,1000,1000
53810967,1000,1000,1000,1000,116028570,1000,1000,1000,1000
53813466,1000,1000,1000,1000,116128530,1000,1000,1000,1000
53815965,1000,1000,1000,1000,116228490,1000,1000,1000,1000
53818464,1000,1000,1000,1000,116328450,1000,1000,1000,1000
53820963,1000,1000,1000,1000,116428410,1000,1000,1000,1000
53823462,1000,1000,1000,1000,116528370,1000,1000,1000,1000
53825961,1000,1000,1000,1000,116628330,1000,1000,1000,1000
53828460,1000,1000,1000,1000,116728290,1000,1000,1000,1000
53830959,1000,1000,1000,1000,116828250,1000,1000,1000,1000
53833458,1000,1000,1000,1000,116928210,1000,1000,1000,1000
53835957,1000,1000,1000,1000,117028170,1000,1000,1000,1000
53838456,1000,1000,1000,1000,117128963,1000,1000,1000,1000
53840955,1000,1000,1000,1000,117228923,1000,1000,1000,1000
53843454,1000,1000,1000,1000,117328883,1000,1000,1000,1000
53845953,1000,1000,1000,1000,117428843,1000,1000,1000,1000
53848452,1000,1000,1000,1000,117528803,1000,1000,1000,1000
53850951,1000,1000,1000,1000,117628763,1000,1000,1000,1000
53853450,1000,1000,1000,1000,117728723,1000,1000,1000,1000
53855949,1000,1000,1000,1000,117828683,1000,1000,1000,1000
53858448,1000,1000,1000,1000,117928643,1000,1000,1000,1000
53860947,1000,1000,1000,1000,118028603,1000,1000,1000,1000
53863446,1000,1000,1000,1000,118128563,1000,1000,1000,1000
53865945,1000,1000,1000,1000,118228523,1000,1000,1000,1000
53868444,1000,1000,1000,1000,118328483,1000,1000,1000,1000
53870943,1000,1000,1000,1000,118428443,1000,1000,1000,1000
53873442,1000,1000,1000,1000,118528403,1000,1000,1000,1000
53875941,1000,1000,1000,1000,118628363,1000,1000,1000,1000
53878440,1000,1000,1000,1000,118728323,1000,1000,1000,1000
53880939,1000,1000,1000,1000,118828283,1000,1000,1000,1000
53883438,1000,1000,1000,1000,118928243,1000,1000,1000,1000
53885937,1000,1000,1000,1000,119028203,1000,1000,1000,1000
53888436,1000,1000,1000,1000,119128163,1000,1000,1000,1000
53890935,1000,1000,1000,1000,119228956,1000,1000,1000,1000
53893434,1000,1000,1000,1000,119328916,1000,1000,1000,1000
53895933,1000,1000,1000,1000,119428876,1000,1000,1000,1000
53898432,1000,1000,1000,1000,119528836,1000,1000,1000,1000
53900931,1000,1000,1000,1000,119628796,1000,1000,1000,1000
53903430,1000,1000,1000,1000,119728756,1000,1000,1000,1000
53905929,1000,1000,1000,1000,119828716,1000,1000,1000,1000
53908428,1000,1000,1000,1000,119928676,1000,1000,1000,1000
53910927,1000,1000,1000,1000,120028636,1000,1000,1000,1000
53913426,1000,1000,1000,1000,120128596,1000,1000,1000,1000
53915925,1000,1000,1000,1000,120228556,1000,1000,1000,1000
53918424,1000,1000,1000,1000,120328516,1000,1000,1000,1000
53920923,1000,1000,1000,1000,120428476,1000,1000,1000,1000
53923422,1000,1000,1000,1000,120528436,1000,1000,1000,1000
53925921,1000,1000,1000,1000,120628396,1000,1000,1000,1000
53928420,1000,1000,1000,1000,120728356,1000,1000,1000,1000
53930919,1000,1000,1000,1000,120828316,1000,1000,1000,1000
53933418,1000,1000,1000,1000,120928276,1000,1000,1000,1000
53935917,1000,1000,1000,1000,121028236,1000,1000,1000,1000
53938416,1000,1000,1000,1000,121128196,1000,1000,1000,1000
53940915,1000,1000,1000,1000,121228156,1000,1000,1000,1000
53943414,1000,1000,1000,1000,121328949,1000,1000,1000,1000
53945913,1000,1000,1000,1000,121428909,1000,1000,1000,1000
53948412,1000,1000,1000,1000,121528869,1000,1000,1000,1000
53950911,1000,1000,1000,1000,121628829,1000,1000,1000,1000
53953410,1000,1000,1000,1000,121728789,1000,1000,1000,1000
53955909,1000,1000,1000,1000,121828749,1000,1000,1000,1000
53958408,1000,1000,1000,1000,121928709,1000,1000,1000,1000
53960907,1000,1000,1000,1000,122028669,1000,1000,1000,1000
53963406,1000,1000,1000,1000,122128629,1000,1000,1000,1000
53965905,1000,1000,1000,1000,122228589,1000,1000,1000,1000
53968404,1000,1000,1000,1000,122328549,1000,1000,1000,1000
53970903,1000,1000,1000,1000,122428509,1000,1000,1000,1000
53973402,1000,1000,1000,1000,122528469,1000,1000,1000,1000
53975901,1000,1000,1000,1000,122628429,1000,1000,1000,1000
53978400,1000,1000,1000,1000,122728389,1000,1000,1000,1000
53980899,1000,1000,1000,1000,122828349,1000,1000,1000,1000
53983398,1000,1000,1000,1000,122928309,1000,1000,1000,1000
53985897,1000,1000,1000,1000,123028269,1000,1000,1000,1000
53988396,1000,1000,1000,1000,123128229,1000,1000,1000,1000
53990895,1000,1000,1000,1000,123228189,1000,1000,1000,1000
53993394,1000,1000,1000,1000,123328982,1000,1000,1000,1000
53995893,1000,1000,1000,1000,123428942,1000,1000,1000,1000
53998392,1000,1000,1000,1000,123528902,1000,1000,1000,1000
54000891,1000,1000,1000,1000,123628862,1000,1000,1000,1000
54003390,1000,1000,1000,1000,,,,,
54005889,1000,1000,1000,1000,,,,,
54008388,1000,1000,1000,1000,,,,,
54010887,1000,1000,1000,1000,,,,,
54013386,1000,1000,1000,1000,,,,,
54015885,1000,1000,1000,1000,,,,,
54018384,1000,1000,1000,1000,,,,,
54020883,1000,1000,1000,1000,,,,,
54023382,1000,1000,1000,1000,,,,,
54025881,1000,1000,1000,1000,,,,,
54028380,1000,1000,1000,1000,,,,,
54030879,1000,1000,1000,1000,,,,,
54033378,1000,1000,1000,1000,,,,,
54035877,1000,1000,1000,1000,,,,,
54038376,1000,1000,1000,1000,,,,,
54040875,1000,1000,1000,1000,,,,,
54043374,1000,1000,1000,1000,,,,,
54045873,1000,1000,1000,1000,,,,,
54048372,1000,1000,1000,1000,,,,,
54050871,1000,1000,1000,1000,,,,,
54053370,1000,1000,1000,1000,,,,,
54055869,1000,1000,1000,1000,,,,,
54058368,1000,1000,1000,1000,,,,,
54060867,1000,1000,1000,1000,,,,,
54063366,1000,1000,1000,1000,,,,,
54065865,1000,1000,1000,1000,,,,,
54068364,1000,1000,1000,1000,,,,,
54070863,1000,1000,1000,1000,,,,,
54073362,1000,1000,1000,1000,,,,,
54075861,1000,1000,1000,1000,,,,,
54078360,1000,1000,1000,1000,,,,,
54080859,1000,1000,1000,1000,,,,,
54083358,1000,1000,1000,1000,,,,,
54085857,1000,1000,1000,1000,,,,,
54088356,1000,1000,1000,1000,,,,,
54090855,1000,1000,1000,1000,,,,,
54093354,1000,1000,1000,1000,,,,,
54095853,1000,1000,1000,1000,,,,,
54098352,1000,1000,1000,1000,,,,,
54100851,1000,1000,1000,1000,,,,,
54103350,1000,1000,1000,1000,,,,,
54105849,1000,1000,1000,1000,,,,,
54108348,1000,1000,1000,1000,,,,,
54110847,1000,1000,1000,1000,,,,,
54113346,1000,1000,1000,1000,,,,,
54115845,1000,1000,1000,1000,,,,,
54118344,1000,1000,1000,1000,,,,,
54120843,1000,1000,1000,1000,,,,,
54123342,1000,1000,1000,1000,,,,,
54125841,1000,1000,1000,1000,,,,,
54128340,1000,1000,1000,1000,,,,,
54130839,1000,1000,1000,1000,,,,,
54133338,1000,1000,1000,1000,,,,,
54135837,1000,1000,1000,1000,,,,,
54138336,1000,1000,1000,1000,,,,,
54140835,1000,1000,1000,1000,,,,,
54143334,1000,1000,1000,1000,,,,,
54145833,1000,1000,1000,1000,,,,,
54148332,1000,1000,1000,1000,,,,,
54150831,1000,1000,1000,1000,,,,,
54153330,1000,1000,1000,1000,,,,,
54155829,1000,1000,1000,1000,,,,,
54158328,1000,1000,1000,1000,,,,,
54160827,1000,1000,1000,1000,,,,,
54163326,1000,1000,1000,1000,,,,,
54165825,1000,1000,1000,1000,,,,,
54168324,1000,1000,1000,1000,,,,,
54170823,1000,1000,1000,1000,,,,,
54173322,1000,1000,1000,1000,,,,,
54175821,1000,1000,1000,1000,,,,,
54178320,1000,1000,1000,1000,,,,,
54180819,1000,1000,1000,1000,,,,,
54183318,1000,1000,1000,1000,,,,,
54185817,1000,1000,1000,1000,,,,,
54188316,1000,1000,1000,1000,,,,,
54190815,1000,1000,1000,1000,,,,,
54193314,1000,1000,1000,1000,,,,,
54195813,1000,1000,1000,1000,,,,,
54198312,1000,1000,1000,1000,,,,,
54200811,1000,1000,1000,1000,,,,,
54203310,1000,1000,1000,1000,,,,,
54205809,1000,1000,1000,1000,,,,,
54208308,1000,1000,1000,1000,,,,,
54210807,1000,1000,1000,1000,,,,,
54213306,1000,1000,1000,1000,,,,,
54215805,1000,1000,1000,1000,,,,,
54218304,1000,1000,1000,1000,,,,,
54220803,1000,1000,1000,1000,,,,,
54223302,1001,1001,1001,1001,,,,,
54225801,1002,1002,1002,1002,,,,,
54228300,1003,1003,1003,1003,,,,,
54230799,1003,1003,1003,1003,,,,,
54233298,1004,1004,1004,1004,,,,,
54235797,1005,1005,1005,1005,,,,,
54238296,1006,1006,1006,1006,,,,,
54240795,1006,1006,1006,1006,,,,,
54243294,1007,1007,1007,1007,,,,,
54245793,1008,1008,1008,1008,,,,,
54248292,1009,1009,1009,1009,,,,,
54250791,1009,1009,1009,1009,,,,,
54253290,1010,1010,1010,1010,,,,,
54255789,1011,1011,1011,1011,,,,,
54258288,1012,1012,1012,1012,,,,,
54260787,1012,1012,1012,1012,,,,,
54263286,1013,1013,1013,1013,,,,,
54265785,1014,1014,1014,1014,,,,,
54268284,1015,1015,1015,1015,,,,,
54270783,1015,1015,1015,1015,,,,,
54273282,1016,1016,1016,1016,,,,,
54275781,1017,1017,1017,1017,,,,,
54278280,1018,1018,1018,1018,,,,,
54280779,1018,1018,1018,1018,,,,,
54283278,1019,1019,1019,1019,,,,,
54285777,1020,1020,1020,1020,,,,,
54288276,1021,1021,1021,1021,,,,,
54290775,1021,1021,1021,1021,,,,,
54293274,1022,1022,1022,1022,,,,,
54295773,1023,1023,1023,1023,,,,,
54298272,1024,1024,1024,1024,,,,,
54300771,1024,1024,1024,1024,,,,,
54303270,1025,1025,1025,1025,,,,,
54305769,1026,1026,1026,1026,,,,,
54308268,1027,1027,1027,1027,,,,,
54310767,1027,1027,1027,1027,,,,,
54313266,1028,1028,1028,1028,,,,,
54315765,1029,1029,1029,1029,,,,,
54318264,1030,1030,1030,1030,,,,,
54320763,1030,1030,1030,1030,,,,,
54323262,1031,1031,1031,1031,,,,,
54325761,1032,1032,1032,1032,,,,,
54328260,1033,1033,1033,1033,,,,,
54330759,1033,1033,1033,1033,,,,,
54333258,1034,1034,1034,1034,,,,,
54335757,1035,1035,1035,1035,,,,,
54338256,1036,1036,1036,1036,,,,,
54340755,1036,1036,1036,1036,,,,,
54343254,1037,1037,1037,1037,,,,,
54345753,1038,1038,1038,1038,,,,,
54348252,1039,1039,1039,1039,,,,,
54350751,1039,1039,1039,1039,,,,,
54353250,1040,1040,1040,1040,,,,,
54355749,1041,1041,1041,1041,,,,,
54358248,1042,1042,1042,1042,,,,,
54360747,1042,1042,1042,1042,,,,,
54363246,1043,1043,1043,1043,,,,,
54365745,1044,1044,1044,1044,,,,,
54368244,1045,1045,1045,1045,,,,,
54370743,1045,1045,1045,1045,,,,,
54373242,1046,1046,1046,1046,,,,,
54375741,1047,1047,1047,1047,,,,,
54378240,1048,1048,1048,1048,,,,,
54380739,1048,1048,1048,1048,,,,,
54383238,1049,1049,1049,1049,,,,,
54385737,1050,1050,1050,1050,,,,,
54388236,1051,1051,1051,1051,,,,,
54390735,1051,1051,1051,1051,,,,,
54393234,1052,1052,1052,1052,,,,,
54395733,1053,1053,1053,1053,,,,,
54398232,1054,1054,1054,1054,,,,,
54400731,1054,1054,1054,1054,,,,,
54403230,1055,1055,1055,1055,,,,,
54405729,1056,1056,1056,1056,,,,,
54408228,1057,1057,1057,1057,,,,,
54410727,1057,1057,1057,1057,,,,,
54413226,1058,1058,1058,1058,,,,,
54415725,1059,1059,1059,1059,,,,,
54418224,1060,1060,1060,1060,,,,,
54420723,1060,1060,1060,1060,,,,,
54423222,1061,1061,1061,1061,,,,,
54425721,1062,1062,1062,1062,,,,,
54428220,1063,1063,1063,1063,,,,,
54430719,1063,1063,1063,1063,,,,,
54433218,1064,1064,1064,1064,,,,,
54435717,1065,1065,1065,1065,,,,,
54438216,1066,1066,1066,1066,,,,,
54440715,1066,1066,1066,1066,,,,,
54443214,1067,1067,1067,1067,,,,,
54445713,1068,1068,1068,1068,,,,,
54448212,1069,1069,1069,1069,,,,,
54450711,1069,1069,1069,1069,,,,,
54453210,1070,1070,1070,1070,,,,,
54455709,1071,1071,1071,1071,,,,,
54458208,1072,1072,1072,1072,,,,,
54460707,1072,1072,1072,1072,,,,,
54463206,1073,1073,1073,1073,,,,,
54465705,1074,1074,1074,1074,,,,,
54468204,1075,1075,1075,1075,,,,,
54470703,1075,1075,1075,1075,,,,,
54473202,1076,1076,1076,1076,,,,,
54475701,1077,1077,1077,1077,,,,,
54478200,1078,1078,1078,1078,,,,,
54480699,1078,1078,1078,1078,,,,,
54483198,1079,1079,1079,1079,,,,,
54485697,1080,1080,1080,1080,,,,,
54488196,1081,1081,1081,1081,,,,,
54490695,1081,1081,1081,1081,,,,,
54493194,1082,1082,1082,1082,,,,,
54495693,1083,1083,1083,1083,,,,,
54498192,1084,1084,1084,1084,,,,,
54500691,1084,1084,1084,1084,,,,,
54503190,1085,1085,1085,1085,,,,,
54505689,1086,1086,1086,1086,,,,,
54508188,1087,1087,1087,1087,,,,,
54510687,1087,1087,1087,1087,,,,,
54513186,1088,1088,1088,1088,,,,,
54515685,1089,1089,1089,1089,,,,,
54518184,1090,1090,1090,1090,,,,,
54520683,1090,1090,1090,1090,,,,,
54523182,1091,1091,1091,1091,,,,,
54525681,1092,1092,1092,1092,,,,,
54528180,1093,1093,1093,1093,,,,,
54530679,1093,1093,1093,1093,,,,,
54533178,1094,1094,1094,1094,,,,,
54535677,1095,1095,1095,1095,,,,,
54538176,1096,1096,1096,1096,,,,,
54540675,1096,1096,1096,1096,,,,,
54543174,1097,1097,1097,1097,,,,,
54545673,1098,1098,1098,1098,,,,,
54548172,1099,1099,1099,1099,,,,,
54550671,1099,1099,1099,1099,,,,,
54553170,1100,1100,1100,1100,,,,,
54555669,1101,1101,1101,1101,,,,,
54558168,1101,1101,1101,1101,,,,,
54560667,1102,1102,1102,1102,,,,,
54563166,1103,1103,1103,1103,,,,,
54565665,1104,1104,1104,1104,,,,,
54568164,1104,1104,1104,1104,,,,,
54570663,1105,1105,1105,1105,,,,,
54573162,1106,1106,1106,1106,,,,,
54575661,1107,1107,1107,1107,,,,,
54578160,1107,1107,1107,1107,,,,,
54580659,1108,1108,1108,1108,,,,,
54583158,1109,1109,1109,1109,,,,,
54585657,1110,1110,1110,1110,,,,,
54588156,1110,1110,1110,1110,,,,,
54590655,1111,1111,1111,1111,,,,,
54593154,1112,1112,1112,1112,,,,,
54596486,1113,1113,1113,1113,,,,,
54598985,1113,1113,1113,1113,,,,,
54601484,1114,1114,1114,1114,,,,,
54603983,1115,1115,1115,1115,,,,,
54606482,1116,1116,1116,1116,,,,,
54608981,1116,1116,1116,1116,,,,,
54611480,1117,1117,1117,1117,,,,,
54613979,1118,1118,1118,1118,,,,,
54616478,1119,1119,1119,1119,,,,,
54618977,1119,1119,1119,1119,,,,,
54621476,1120,1120,1120,1120,,,,,
54623975,1121,1121,1121,1121,,,,,
54626474,1122,1122,1122,1122,,,,,
54628973,1122,1122,1122,1122,,,,,
54631472,1123,1123,1123,1123,,,,,
54633971,1124,1124,1124,1124,,,,,
54636470,1125,1125,1125,1125,,,,,
54638969,1125,1125,1125,1125,,,,,
54641468,1126,1126,1126,1126,,,,,
54643967,1127,1127,1127,1127,,,,,
54646466,1128,1128,1128,1128,,,,,
54648965,1128,1128,1128,1128,,,,,
54651464,1129,1129,1129,1129,,,,,
54653963,1130,1130,1130,1130,,,,,
54656462,1131,1131,1131,1131,,,,,
54658961,1131,1131,1131,1131,,,,,
54661460,1132,1132,1132,1132,,,,,
54663959,1133,1133,1133,1133,,,,,
54666458,1134,1134,1134,1134,,,,,
54668957,1134,1134,1134,1134,,,,,
54671456,1135,1135,1135,1135,,,,,
54673955,1136,1136,1136,1136,,,,,
54676454,1137,1137,1137,1137,,,,,
54678953,1137,1137,1137,1137,,,,,
54681452,1138,1138,1138,1138,,,,,
54683951,1139,1139,1139,1139,,,,,
54686450,1140,1140,1140,1140,,,,,
54688949,1140,1140,1140,1140,,,,,
54691448,1141,1141,1141,1141,,,,,
54693947,1142,1142,1142,1142,,,,,
54696446,1143,1143,1143,1143,,,,,
54698945,1143,1143,1143,1143,,,,,
54701444,1144,1144,1144,1144,,,,,
54703943,1145,1145,1145,1145,,,,,
54706442,1146,1146,1146,1146,,,,,
54708941,1146,1146,1146,1146,,,,,
54711440,1147,1147,1147,1147,,,,,
54713939,1148,1148,1148,1148,,,,,
54716438,1149,1149,1149,1149,,,,,
54718937,1149,1149,1149,1149,,,,,
54721436,1150,1150,1150,1150,,,,,
54723935,1162,1153,1154,1162,,,,,
54726434,1170,1161,1162,1170,,,,,
54728933,1178,1169,1170,1178,,,,,
54731432,1185,1177,1178,1185,,,,,
54733931,1193,1185,1185,1193,,,,,
54736430,1200,1192,1193,1200,,,,,
54738929,1208,1200,1200,1208,,,,,
54741428,1215,1207,1208,1215,,,,,
54743927,1222,1214,1215,1222,,,,,
54746426,1229,1221,1222,1229,,,,,
54748925,1236,1228,1229,1236,,,,,
54751424,1242,1235,1236,1243,,,,,
54753923,1249,1242,1243,1249,,,,,
54756422,1256,1249,1249,1256,,,,,
54758921,1262,1255,1256,1262,,,,,
54761420,1269,1262,1262,1269,,,,,
54763919,1275,1268,1269,1275,,,,,
54766418,1281,1275,1275,1282,,,,,
54768917,1288,1281,1281,1288,,,,,
54771416,1294,1287,1288,1294,,,,,
54773915,1300,1293,1294,1300,,,,,
54776414,1306,1299,1300,1306,,,,,
54778913,1312,1305,1306,1312,,,,,
54781412,1318,1311,1312,1318,,,,,
54783911,1323,1317,1318,1324,,,,,
54786410,1329,1323,1323,1329,,,,,
54788909,1335,1329,1329,1335,,,,,
54791408,1340,1334,1335,1341,,,,,
54793907,1346,1340,1341,1346,,,,,
54796406,1352,1346,1346,1352,,,,,
54798905,1357,1351,1352,1357,,,,,
54801404,1363,1357,1357,1363,,,,,
54803903,1368,1362,1363,1368,,,,,
54806402,1373,1368,1368,1374,,,,,
54808901,1379,1373,1373,1379,,,,,
54811400,1384,1378,1379,1384,,,,,
54813899,1389,1383,1384,1389,,,,,
54816398,1394,1389,1389,1394,,,,,
54818897,1399,1394,1394,1400,,,,,
54821396,1404,1399,1399,1405,,,,,
54823895,1409,1404,1404,1410,,,,,
54826394,1415,1409,1409,1415,,,,,
54828893,1419,1414,1414,1420,,,,,
54831392,1424,1419,1419,1425,,,,,
54833891,1429,1424,1424,1430,,,,,
54836390,1434,1429,1429,1435,,,,,
54838889,1439,1434,1434,1439,,,,,
54841388,1444,1439,1439,1444,,,,,
54843887,1449,1443,1444,1449,,,,,
54846386,1453,1448,1448,1454,,,,,
54848885,1458,1453,1453,1458,,,,,
54851384,1463,1458,1458,1463,,,,,
54853883,1467,1462,1462,1468,,,,,
54856382,1472,1467,1467,1472,,,,,
54858881,1477,1471,1472,1477,,,,,
54861380,1481,1476,1476,1481,,,,,
54863879,1486,1481,1481,1486,,,,,
54866378,1490,1485,1485,1490,,,,,
54868877,1495,1490,1490,1495,,,,,
54871376,1499,1494,1494,1499,,,,,
54873875,1503,1499,1499,1504,,,,,
54876374,1508,1503,1503,1508,,,,,
54878873,1512,1507,1508,1513,,,,,
54881372,1517,1512,1512,1517,,,,,
54883871,1521,1516,1516,1521,,,,,
54886370,1525,1520,1521,1526,,,,,
54888869,1530,1525,1525,1530,,,,,
54891368,1534,1529,1529,1534,,,,,
54893867,1538,1533,1533,1538,,,,,
54896366,1542,1537,1537,1543,,,,,
54898865,1546,1541,1542,1547,,,,,
54901364,1551,1546,1546,1551,,,,,
54903863,1555,1550,1550,1555,,,,,
54906362,1559,1554,1554,1559,,,,,
54908861,1563,1558,1558,1563,,,,,
54911360,1567,1562,1562,1567,,,,,
54913859,1571,1566,1566,1571,,,,,
54916358,1575,1570,1570,1575,,,,,
54918857,1579,1574,1574,1579,,,,,
54921356,1583,1578,1578,1583,,,,,
54923855,1587,1582,1582,1587,,,,,
54926354,1591,1586,1586,1591,,,,,
54928853,1595,1590,1590,1595,,,,,
54931352,1599,1594,1594,1599,,,,,
54933851,1603,1598,1598,1603,,,,,
54936350,1607,1602,1602,1607,,,,,
54938849,1611,1606,1606,1611,,,,,
54941348,1615,1609,1610,1615,,,,,
54943847,1618,1613,1614,1619,,,,,
54946346,1622,1617,1618,1622,,,,,
54948845,1626,1621,1621,1626,,,,,
54951344,1630,1625,1625,1630,,,,,
54953843,1634,1629,1629,1634,,,,,
54956342,1637,1632,1633,1637,,,,,
54958841,1641,1636,1637,1641,,,,,
54961340,1645,1640,1640,1645,,,,,
54963839,1648,1644,1644,1649,,,,,
54966338,1652,1647,1648,1652,,,,,
54968837,1656,1651,1651,1656,,,,,
54971336,1659,1655,1655,1660,,,,,
54973835,1663,1658,1659,1663,,,,,
54976334,1667,1662,1662,1667,,,,,
54978833,1670,1666,1666,1671,,,,,
54981332,1674,1669,1670,1674,,,,,
54983831,1677,1673,1673,1678,,,,,
54986330,1681,1677,1677,1681,,,,,
54988829,1684,1680,1680,1685,,,,,
54991328,1688,1684,1684,1688,,,,,
54993827,1691,1687,1687,1692,,,,,
54996326,1695,1691,1691,1695,,,,,
54998825,1699,1694,1694,1699,,,,,
55001324,1702,1698,1698,1703,,,,,
55003823,1705,1701,1701,1706,,,,,
55006322,1709,1705,1705,1709,,,,,
55008821,1712,1708,1708,1713,,,,,
55011320,1716,1712,1712,1716,,,,,
55013819,1719,1715,1715,1720,,,,,
55016318,1723,1719,1719,1723,,,,,
55018817,1726,1722,1722,1727,,,,,
55021316,1730,1725,1725,1730,,,,,
55023815,1733,1729,1729,1733,,,,,
55026314,1736,1732,1732,1737,,,,,
55028813,1740,1736,1735,1740,,,,,
55031312,1743,1739,1739,1744,,,,,
55033811,1746,1742,1742,1747,,,,,
55036310,1750,1746,1745,1750,,,,,
55038809,1753,1749,1749,1754,,,,,
55041308,1756,1752,1752,1757,,,,,
55043807,1760,1756,1755,1760,,,,,
55046306,1763,1759,1759,1763,,,,,
55048805,1766,1762,1762,1767,,,,,
55051304,1769,1765,1765,1770,,,,,
55053803,1773,1769,1769,1773,,,,,
55056302,1776,1772,1772,1776,,,,,
55058801,1779,1775,1775,1780,,,,,
55061300,1782,1778,1778,1783,,,,,
55063799,1786,1781,1781,1786,,,,,
55066298,1789,1785,1785,1789,,,,,
55068797,1792,1788,1788,1793,,,,,
55071296,1795,1791,1791,1796,,,,,
55073795,1799,1794,1794,1799,,,,,
55076294,1802,1797,1797,1802,,,,,
55078793,1805,1800,1801,1805,,,,,
55081292,1808,1803,1804,1808,,,,,
55083791,1811,1807,1807,1812,,,,,
55086290,1814,1810,1810,1815,,,,,
55088789,1818,1813,1813,1818,,,,,
55091288,1821,1816,1816,1821,,,,,
55093787,1824,1819,1819,1824,,,,,
55096286,1827,1822,1822,1827,,,,,
55098785,1830,1825,1825,1830,,,,,
55101284,1833,1828,1828,1833,,,,,
55103783,1836,1831,1831,1836,,,,,
55106282,1839,1834,1835,1839,,,,,
55108781,1842,1837,1838,1842,,,,,
55111280,1845,1840,1841,1845,,,,,
55113779,1848,1843,1844,1849,,,,,
55116278,1852,1846,1847,1852,,,,,
55118777,1852,1847,1847,1852,,,,,
55121276,1851,1845,1846,1851,,,,,
55123775,1849,1844,1845,1849,,,,,
55126274,1848,1843,1843,1848,,,,,
55128773,1847,1842,1842,1847,,,,,
55131272,1846,1840,1841,1846,,,,,
55133771,1844,1839,1840,1844,,,,,
55136270,1843,1838,1838,1843,,,,,
55138769,1842,1837,1837,1842,,,,,
55141268,1841,1836,1837,1841,,,,,
55143767,1841,1835,1836,1841,,,,,
55146266,1840,1834,1835,1840,,,,,
55148765,1839,1834,1834,1839,,,,,
55151264,1839,1833,1834,1839,,,,,
55153763,1838,1833,1833,1838,,,,,
55156262,1838,1832,1833,1838,,,,,
55158761,1837,1832,1832,1837,,,,,
55161260,1837,1831,1832,1837,,,,,
55163759,1837,1831,1832,1837,,,,,
55166258,1837,1831,1832,1837,,,,,
55168757,1837,1831,1832,1837,,,,,
55171256,1837,1831,1831,1837,,,,,
55173755,1837,1831,1832,1837,,,,,
55176254,1837,1831,1832,1837,,,,,
55178753,1837,1831,1832,1837,,,,,
55181252,1837,1832,1832,1837,,,,,
55183751,1837,1832,1832,1837,,,,,
55186250,1838,1832,1832,1838,,,,,
55188749,1838,1833,1833,1838,,,,,
55191248,1838,1833,1833,1839,,,,,
55193747,1839,1833,1834,1839,,,,,
55196246,1840,1834,1834,1840,,,,,
55198745,1840,1835,1835,1840,,,,,
55201244,1841,1835,1836,1841,,,,,
55203743,1842,1836,1836,1842,,,,,
55206242,1842,1837,1837,1843,,,,,
55208741,1843,1838,1838,1843,,,,,
55211240,1844,1839,1839,1844,,,,,
55213739,1845,1839,1840,1845,,,,,
55216238,1846,1840,1841,1846,,,,,
55218737,1847,1841,1842,1847,,,,,
55221236,1848,1842,1843,1848,,,,,
55223735,1849,1843,1844,1849,,,,,
55226234,1850,1844,1845,1850,,,,,
55228733,1851,1846,1846,1851,,,,,
55231232,1852,1847,1847,1852,,,,,
55233731,1853,1848,1848,1853,,,,,
55236230,1854,1849,1849,1854,,,,,
55238729,1854,1850,1850,1855,,,,,
55241228,1855,1851,1851,1856,,,,,
55243727,1856,1852,1852,1856,,,,,
55246226,1856,1852,1853,1857,,,,,
55248725,1857,1853,1853,1857,,,,,
55251224,1857,1853,1853,1857,,,,,
55253723,1857,1853,1854,1857,,,,,
55256222,1857,1853,1853,1857,,,,,
55258721,1856,1853,1853,1856,,,,,
55261220,1855,1852,1853,1856,,,,,
55263719,1855,1852,1852,1855,,,,,
55266218,1854,1851,1851,1854,,,,,
55268717,1852,1849,1850,1853,,,,,
55271216,1851,1848,1848,1851,,,,,
55273715,1849,1847,1847,1850,,,,,
55276214,1848,1845,1845,1848,,,,,
55278713,1846,1843,1843,1846,,,,,
55281212,1844,1841,1842,1844,,,,,
55283711,1842,1839,1840,1842,,,,,
55286210,1840,1837,1837,1840,,,,,
55288709,1837,1835,1835,1837,,,,,
55291208,1835,1832,1833,1835,,,,,
55293707,1832,1830,1830,1832,,,,,
55296206,1830,1827,1828,1830,,,,,
55298705,1827,1825,1825,1827,,,,,
55301204,1824,1822,1822,1824,,,,,
55303703,1821,1819,1819,1821,,,,,
55306202,1818,1816,1816,1818,,,,,
55308701,1815,1813,1813,1815,,,,,
55311200,1812,1810,1810,1812,,,,,
55313699,1809,1807,1807,1809,,,,,
55316198,1806,1804,1804,1806,,,,,
55318697,1803,1801,1801,1802,,,,,
55321196,1799,1797,1798,1799,,,,,
55323695,1796,1794,1795,1796,,,,,
55326194,1793,1791,1791,1793,,,,,
55328693,1789,1787,1788,1789,,,,,
55331192,1786,1784,1785,1786,,,,,
55333691,1782,1781,1781,1782,,,,,
55336190,1779,1777,1778,1779,,,,,
55338689,1776,1774,1775,1776,,,,,
55341188,1772,1771,1771,1772,,,,,
